{"last_updated":1731668843,"ttl":60,"version":"2.2","data":{"bikes":[{"bike_id":"4cd6c619-62ea-4d3a-8217-1d3776f0b272","system_id":"levelo_inurba_marseille","lat":43.29291,"lon":5.37462,"is_reserved":false,"is_disabled":false,"rental_uris":{"android":"levelo://app?vid=4cd6c619-62ea-4d3a-8217-1d3776f0b272","ios":"levelo://app?vid=4cd6c619-62ea-4d3a-8217-1d3776f0b272"},"vehicle_type_id":"4","last_reported":1731668843,"current_range_meters":36800,"station_id":"ce4bgi12rcd13ifvqb70","pricing_plan_id":"cebpf4jnsgd1na2vs0mg"},{"bike_id":"c07071db-afe0-4ce2-886c-57f99196990f","system_id":"levelo_inurba_marseille","lat":43.28269,"lon":5.35068,"is_reserved":false,"is_disabled":false,"rental_uris":{"android":"levelo://app?vid=c07071db-afe0-4ce2-886c-57f99196990f","ios":"levelo://app?vid=c07071db-afe0-4ce2-886c-57f99196990f"},"vehicle_type_id":"4","last_reported":1731668843,"current_range_meters":26800,"station_id":"ce4bhbp2rcd13ifvqerg","pricing_plan_id":"cebpf4jnsgd1na2vs0mg"},{"bike_id":"c31906ff-16b8-463f-ba85-cc9c1aef5d15","system_id":"levelo_inurba_marseille","lat":43.25584,"lon":5.3823,"is_reserved":false,"is_disabled":false,"rental_uris":{"android":"levelo://app?vid=c31906ff-16b8-463f-ba85-cc9c1aef5d15","ios":"levelo://app?vid=c31906ff-16b8-463f-ba85-cc9c1aef5d15"},"vehicle_type_id":"4","last_reported":1731668843,"current_range_meters":35200,"station_id":"ce4bhih2rcd13ifvqfs0","pricing_plan_id":"cebpf4jnsgd1na2vs0mg"},{"bike_id":"1a59b816-bbb1-4950-9131-7ce955eddad1","system_id":"levelo_inurba_marseille","lat":43.26943,"lon":5.38627,"is_reserved":false,"is_disabled":false,"rental_uris":{"android":"levelo://app?vid=1a59b816-bbb1-4950-9131-7ce955eddad1","ios":"levelo://app?vid=1a59b816-bbb1-4950-9131-7ce955eddad1"},"vehicle_type_id":"4","last_reported":1731668843,"current_range_meters":36800,"station_id":"ce4bhh92rcd13ifvqfh0","pricing_plan_id":"cebpf4jnsgd1na2vs0mg"},{"bike_id":"bba30ccd-2b4f-42d8-b68d-f3f8cfd6f6dd","system_id":"levelo_inurba_marseille","lat":43.31227,"lon":5.36859,"is_reserved":false,"is_disabled":false,"rental_uris":{"android":"levelo://app?vid=bba30ccd-2b4f-42d8-b68d-f3f8cfd6f6dd","ios":"levelo://app?vid=bba30ccd-2b4f-42d8-b68d-f3f8cfd6f6dd"},"vehicle_type_id":"4","last_reported":1731668843,"current_range_meters":36000,"station_id":"ce4bgl92rcd13ifvqbq0","pricing_plan_id":"cebpf4jnsgd1na2vs0mg"},{"bike_id":"d9847e7e-8407-4b3b-8aa7-64d3afcb8734","system_id":"levelo_inurba_marseille","lat":43.26034,"lon":5.37547,"is_reserved":false,"is_disabled":false,"rental_uris":{"android":"levelo://app?vid=d9847e7e-8407-4b3b-8aa7-64d3afcb8734","ios":"levelo://app?vid=d9847e7e-8407-4b3b-8aa7-64d3afcb8734"},"vehicle_type_id":"4","last_reported":1731668843,"current_range_meters":38000,"station_id":"ce4bhgh2rcd13ifvqfa0","pricing_plan_id":"cebpf4jnsgd1na2vs0mg"},{"bike_id":"78b77ac8-4c63-432d-b19f-de7fa33d9847","system_id":"levelo_inurba_marseille","lat":43.34151,"lon":5.40904,"is_reserved":false,"is_disabled":false,"rental_uris":{"android":"levelo://app?vid=78b77ac8-4c63-432d-b19f-de7fa33d9847","ios":"levelo://app?vid=78b77ac8-4c63-432d-b19f-de7fa33d9847"},"vehicle_type_id":"4","last_reported":1731668843,"current_range_meters":38800,"station_id":"ce4bhqh2rcd13ifvqhlg","pricing_plan_id":"cebpf4jnsgd1na2vs0mg"},{"bike_id":"638c3933-c3dd-479e-bd0a-dfff64106917","system_id":"levelo_inurba_marseille","lat":43.26939,"lon":5.38638,"is_reserved":false,"is_disabled":false,"rental_uris":{"android":"levelo://app?vid=638c3933-c3dd-479e-bd0a-dfff64106917","ios":"levelo://app?vid=638c3933-c3dd-479e-bd0a-dfff64106917"},"vehicle_type_id":"4","last_reported":1731668843,"current_range_meters":28400,"station_id":"ce4bhh92rcd13ifvqfh0","pricing_plan_id":"cebpf4jnsgd1na2vs0mg"},{"bike_id":"ae8d3140-842d-4d3d-8c8f-d59f9dd7ec5f","system_id":"levelo_inurba_marseille","lat":43.2762,"lon":5.36113,"is_reserved":false,"is_disabled":false,"rental_uris":{"android":"levelo://app?vid=ae8d3140-842d-4d3d-8c8f-d59f9dd7ec5f","ios":"levelo://app?vid=ae8d3140-842d-4d3d-8c8f-d59f9dd7ec5f"},"vehicle_type_id":"4","last_reported":1731668843,"current_range_meters":38800,"station_id":"ce4bgj92rcd13ifvqbe0","pricing_plan_id":"cebpf4jnsgd1na2vs0mg"},{"bike_id":"8493f734-829c-49d7-b548-3b13f464b836","system_id":"levelo_inurba_marseille","lat":43.29302,"lon":5.37459,"is_reserved":false,"is_disabled":false,"rental_uris":{"android":"levelo://app?vid=8493f734-829c-49d7-b548-3b13f464b836","ios":"levelo://app?vid=8493f734-829c-49d7-b548-3b13f464b836"},"vehicle_type_id":"4","last_reported":1731668843,"current_range_meters":38800,"station_id":"ce4bgi12rcd13ifvqb70","pricing_plan_id":"cebpf4jnsgd1na2vs0mg"},{"bike_id":"5324b518-2310-4304-b897-53152ac51e67","system_id":"levelo_inurba_marseille","lat":43.29706,"lon":5.36604,"is_reserved":false,"is_disabled":false,"rental_uris":{"android":"levelo://app?vid=5324b518-2310-4304-b897-53152ac51e67","ios":"levelo://app?vid=5324b518-2310-4304-b897-53152ac51e67"},"vehicle_type_id":"4","last_reported":1731668843,"current_range_meters":16800,"station_id":"ce4bgn12rcd13ifvqbt0","pricing_plan_id":"cebpf4jnsgd1na2vs0mg"},{"bike_id":"9ef76943-592f-4d3b-a0f1-da70d440e9b4","system_id":"levelo_inurba_marseille","lat":43.29896,"lon":5.43668,"is_reserved":false,"is_disabled":false,"rental_uris":{"android":"levelo://app?vid=9ef76943-592f-4d3b-a0f1-da70d440e9b4","ios":"levelo://app?vid=9ef76943-592f-4d3b-a0f1-da70d440e9b4"},"vehicle_type_id":"4","last_reported":1731668843,"current_range_meters":24000,"station_id":"ce4bhpp2rcd13ifvqhfg","pricing_plan_id":"cebpf4jnsgd1na2vs0mg"},{"bike_id":"ff9e8fbd-afb5-4332-8f0e-8863372f7ff1","system_id":"levelo_inurba_marseille","lat":43.28155,"lon":5.42647,"is_reserved":false,"is_disabled":false,"rental_uris":{"android":"levelo://app?vid=ff9e8fbd-afb5-4332-8f0e-8863372f7ff1","ios":"levelo://app?vid=ff9e8fbd-afb5-4332-8f0e-8863372f7ff1"},"vehicle_type_id":"4","last_reported":1731668843,"current_range_meters":16800,"station_id":"ce4bhnh2rcd13ifvqgug","pricing_plan_id":"cebpf4jnsgd1na2vs0mg"},{"bike_id":"8c5074af-8d27-44b6-b447-aae99cf06d34","system_id":"levelo_inurba_marseille","lat":43.27984,"lon":5.41655,"is_reserved":false,"is_disabled":false,"rental_uris":{"android":"levelo://app?vid=8c5074af-8d27-44b6-b447-aae99cf06d34","ios":"levelo://app?vid=8c5074af-8d27-44b6-b447-aae99cf06d34"},"vehicle_type_id":"4","last_reported":1731668843,"current_range_meters":35600,"station_id":"ce4bho12rcd13ifvqh1g","pricing_plan_id":"cebpf4jnsgd1na2vs0mg"},{"bike_id":"84927b9a-2333-4c99-89e5-992fa2086a58","system_id":"levelo_inurba_marseille","lat":43.27174,"lon":5.40997,"is_reserved":false,"is_disabled":false,"rental_uris":{"android":"levelo://app?vid=84927b9a-2333-4c99-89e5-992fa2086a58","ios":"levelo://app?vid=84927b9a-2333-4c99-89e5-992fa2086a58"},"vehicle_type_id":"4","last_reported":1731668843,"current_range_meters":38400,"station_id":"ce4bhl12rcd13ifvqgf0","pricing_plan_id":"cebpf4jnsgd1na2vs0mg"},{"bike_id":"abc6a11f-01d3-4db2-8b33-52e2ca7e3242","system_id":"levelo_inurba_marseille","lat":43.30468,"lon":5.37893,"is_reserved":false,"is_disabled":false,"rental_uris":{"android":"levelo://app?vid=abc6a11f-01d3-4db2-8b33-52e2ca7e3242","ios":"levelo://app?vid=abc6a11f-01d3-4db2-8b33-52e2ca7e3242"},"vehicle_type_id":"4","last_reported":1731668843,"current_range_meters":29600,"station_id":"ce4bgup2rcd13ifvqcn0","pricing_plan_id":"cebpf4jnsgd1na2vs0mg"},{"bike_id":"354f040a-9ab6-488a-9d26-4c39ec3baaa7","system_id":"levelo_inurba_marseille","lat":43.23202,"lon":5.35561,"is_reserved":false,"is_disabled":false,"rental_uris":{"android":"levelo://app?vid=354f040a-9ab6-488a-9d26-4c39ec3baaa7","ios":"levelo://app?vid=354f040a-9ab6-488a-9d26-4c39ec3baaa7"},"vehicle_type_id":"4","last_reported":1731668843,"current_range_meters":38800,"station_id":"ce4bhu92rcd13ifvqi70","pricing_plan_id":"cebpf4jnsgd1na2vs0mg"},{"bike_id":"6ae7bea2-e357-4478-a0f9-74c3626f2f01","system_id":"levelo_inurba_marseille","lat":43.30174,"lon":5.36627,"is_reserved":false,"is_disabled":false,"rental_uris":{"android":"levelo://app?vid=6ae7bea2-e357-4478-a0f9-74c3626f2f01","ios":"levelo://app?vid=6ae7bea2-e357-4478-a0f9-74c3626f2f01"},"vehicle_type_id":"4","last_reported":1731668843,"current_range_meters":12800,"station_id":"ce4bgrh2rcd13ifvqc8g","pricing_plan_id":"cebpf4jnsgd1na2vs0mg"},{"bike_id":"2730fe98-01be-4dde-bf16-0b576ba74fb6","system_id":"levelo_inurba_marseille","lat":43.2407,"lon":5.37764,"is_reserved":false,"is_disabled":false,"rental_uris":{"android":"levelo://app?vid=2730fe98-01be-4dde-bf16-0b576ba74fb6","ios":"levelo://app?vid=2730fe98-01be-4dde-bf16-0b576ba74fb6"},"vehicle_type_id":"4","last_reported":1731668843,"current_range_meters":36800,"station_id":"ce4bhnp2rcd13ifvqgvg","pricing_plan_id":"cebpf4jnsgd1na2vs0mg"},{"bike_id":"5a47d42b-5ad4-4942-b99a-578bc7a04b87","system_id":"levelo_inurba_marseille","lat":43.30133,"lon":5.38781,"is_reserved":false,"is_disabled":false,"rental_uris":{"android":"levelo://app?vid=5a47d42b-5ad4-4942-b99a-578bc7a04b87","ios":"levelo://app?vid=5a47d42b-5ad4-4942-b99a-578bc7a04b87"},"vehicle_type_id":"4","last_reported":1731668843,"current_range_meters":18800,"station_id":"ce4bghh2rcd13ifvqb60","pricing_plan_id":"cebpf4jnsgd1na2vs0mg"},{"bike_id":"4a74f469-1d99-48ee-a8ca-9199898c00a4","system_id":"levelo_inurba_marseille","lat":43.23206,"lon":5.35545,"is_reserved":false,"is_disabled":false,"rental_uris":{"android":"levelo://app?vid=4a74f469-1d99-48ee-a8ca-9199898c00a4","ios":"levelo://app?vid=4a74f469-1d99-48ee-a8ca-9199898c00a4"},"vehicle_type_id":"4","last_reported":1731668843,"current_range_meters":16000,"station_id":"ce4bhu92rcd13ifvqi70","pricing_plan_id":"cebpf4jnsgd1na2vs0mg"},{"bike_id":"a459aae5-cb2b-489a-9af3-004520a249a8","system_id":"levelo_inurba_marseille","lat":43.29275,"lon":5.36847,"is_reserved":false,"is_disabled":false,"rental_uris":{"android":"levelo://app?vid=a459aae5-cb2b-489a-9af3-004520a249a8","ios":"levelo://app?vid=a459aae5-cb2b-489a-9af3-004520a249a8"},"vehicle_type_id":"4","last_reported":1731668843,"current_range_meters":32800,"station_id":"ce4bhbp2rcd13ifvqesg","pricing_plan_id":"cebpf4jnsgd1na2vs0mg"},{"bike_id":"5a9487f5-1f4a-4526-91df-278697abb58b","system_id":"levelo_inurba_marseille","lat":43.28155,"lon":5.42643,"is_reserved":false,"is_disabled":false,"rental_uris":{"android":"levelo://app?vid=5a9487f5-1f4a-4526-91df-278697abb58b","ios":"levelo://app?vid=5a9487f5-1f4a-4526-91df-278697abb58b"},"vehicle_type_id":"4","last_reported":1731668843,"current_range_meters":19600,"station_id":"ce4bhnh2rcd13ifvqgug","pricing_plan_id":"cebpf4jnsgd1na2vs0mg"},{"bike_id":"ad90e739-0a27-4799-866e-18492760e810","system_id":"levelo_inurba_marseille","lat":43.24388,"lon":5.3706,"is_reserved":false,"is_disabled":false,"rental_uris":{"android":"levelo://app?vid=ad90e739-0a27-4799-866e-18492760e810","ios":"levelo://app?vid=ad90e739-0a27-4799-866e-18492760e810"},"vehicle_type_id":"4","last_reported":1731668843,"current_range_meters":25600,"station_id":"ce4bhhh2rcd13ifvqfk0","pricing_plan_id":"cebpf4jnsgd1na2vs0mg"},{"bike_id":"8885d62c-9dfa-4505-84b8-7c71fe2b4650","system_id":"levelo_inurba_marseille","lat":43.29853,"lon":5.36285,"is_reserved":false,"is_disabled":false,"rental_uris":{"android":"levelo://app?vid=8885d62c-9dfa-4505-84b8-7c71fe2b4650","ios":"levelo://app?vid=8885d62c-9dfa-4505-84b8-7c71fe2b4650"},"vehicle_type_id":"4","last_reported":1731668843,"current_range_meters":13600,"station_id":"ce4bgpp2rcd13ifvqc3g","pricing_plan_id":"cebpf4jnsgd1na2vs0mg"},{"bike_id":"95029924-c435-4804-b25a-346e201fb527","system_id":"levelo_inurba_marseille","lat":43.28671,"lon":5.36354,"is_reserved":false,"is_disabled":false,"rental_uris":{"android":"levelo://app?vid=95029924-c435-4804-b25a-346e201fb527","ios":"levelo://app?vid=95029924-c435-4804-b25a-346e201fb527"},"vehicle_type_id":"4","last_reported":1731668843,"current_range_meters":36800,"station_id":"ce4bhah2rcd13ifvqej0","pricing_plan_id":"cebpf4jnsgd1na2vs0mg"},{"bike_id":"34894f31-0d58-4b99-bedf-fbccfa834d04","system_id":"levelo_inurba_marseille","lat":43.24083,"lon":5.37731,"is_reserved":false,"is_disabled":false,"rental_uris":{"android":"levelo://app?vid=34894f31-0d58-4b99-bedf-fbccfa834d04","ios":"levelo://app?vid=34894f31-0d58-4b99-bedf-fbccfa834d04"},"vehicle_type_id":"4","last_reported":1731668843,"current_range_meters":36000,"station_id":"ce4bhnp2rcd13ifvqgvg","pricing_plan_id":"cebpf4jnsgd1na2vs0mg"},{"bike_id":"477e4b76-59e1-428b-ac63-e4de3b298470","system_id":"levelo_inurba_marseille","lat":43.27208,"lon":5.39176,"is_reserved":false,"is_disabled":false,"rental_uris":{"android":"levelo://app?vid=477e4b76-59e1-428b-ac63-e4de3b298470","ios":"levelo://app?vid=477e4b76-59e1-428b-ac63-e4de3b298470"},"vehicle_type_id":"4","last_reported":1731668843,"current_range_meters":36000,"station_id":"ce4bhhp2rcd13ifvqfm0","pricing_plan_id":"cebpf4jnsgd1na2vs0mg"},{"bike_id":"95e1cf81-73c8-437b-9db6-f5a0ac8688c0","system_id":"levelo_inurba_marseille","lat":43.27174,"lon":5.40997,"is_reserved":false,"is_disabled":false,"rental_uris":{"android":"levelo://app?vid=95e1cf81-73c8-437b-9db6-f5a0ac8688c0","ios":"levelo://app?vid=95e1cf81-73c8-437b-9db6-f5a0ac8688c0"},"vehicle_type_id":"4","last_reported":1731668843,"current_range_meters":18000,"station_id":"ce4bhl12rcd13ifvqgf0","pricing_plan_id":"cebpf4jnsgd1na2vs0mg"},{"bike_id":"01178768-ca9d-437f-897f-0c33982d99d5","system_id":"levelo_inurba_marseille","lat":43.30145,"lon":5.3742,"is_reserved":false,"is_disabled":false,"rental_uris":{"android":"levelo://app?vid=01178768-ca9d-437f-897f-0c33982d99d5","ios":"levelo://app?vid=01178768-ca9d-437f-897f-0c33982d99d5"},"vehicle_type_id":"4","last_reported":1731668843,"current_range_meters":26800,"station_id":"ce4bgs92rcd13ifvqcc0","pricing_plan_id":"cebpf4jnsgd1na2vs0mg"},{"bike_id":"035cc09f-5965-49b7-ba42-6ddf5ce96b29","system_id":"levelo_inurba_marseille","lat":43.29846,"lon":5.36259,"is_reserved":false,"is_disabled":false,"rental_uris":{"android":"levelo://app?vid=035cc09f-5965-49b7-ba42-6ddf5ce96b29","ios":"levelo://app?vid=035cc09f-5965-49b7-ba42-6ddf5ce96b29"},"vehicle_type_id":"4","last_reported":1731668843,"current_range_meters":39200,"station_id":"ce4bgpp2rcd13ifvqc3g","pricing_plan_id":"cebpf4jnsgd1na2vs0mg"},{"bike_id":"0dd5c336-8bf7-409f-a046-4f44d557e694","system_id":"levelo_inurba_marseille","lat":43.33723,"lon":5.39183,"is_reserved":false,"is_disabled":false,"rental_uris":{"android":"levelo://app?vid=0dd5c336-8bf7-409f-a046-4f44d557e694","ios":"levelo://app?vid=0dd5c336-8bf7-409f-a046-4f44d557e694"},"vehicle_type_id":"4","last_reported":1731668843,"current_range_meters":39200,"station_id":"ce4bhr92rcd13ifvqhsg","pricing_plan_id":"cebpf4jnsgd1na2vs0mg"},{"bike_id":"fa72eb15-f7eb-4a38-971b-148c4a6a30f3","system_id":"levelo_inurba_marseille","lat":43.27067,"lon":5.42272,"is_reserved":false,"is_disabled":false,"rental_uris":{"android":"levelo://app?vid=fa72eb15-f7eb-4a38-971b-148c4a6a30f3","ios":"levelo://app?vid=fa72eb15-f7eb-4a38-971b-148c4a6a30f3"},"vehicle_type_id":"4","last_reported":1731668843,"current_range_meters":30400,"station_id":"ce4bhk92rcd13ifvqgb0","pricing_plan_id":"cebpf4jnsgd1na2vs0mg"},{"bike_id":"e31bbb8e-c85d-41f4-b6b3-10d1aa98a957","system_id":"levelo_inurba_marseille","lat":43.2827,"lon":5.35057,"is_reserved":false,"is_disabled":false,"rental_uris":{"android":"levelo://app?vid=e31bbb8e-c85d-41f4-b6b3-10d1aa98a957","ios":"levelo://app?vid=e31bbb8e-c85d-41f4-b6b3-10d1aa98a957"},"vehicle_type_id":"4","last_reported":1731668843,"current_range_meters":34800,"station_id":"ce4bhbp2rcd13ifvqerg","pricing_plan_id":"cebpf4jnsgd1na2vs0mg"},{"bike_id":"4d28ebeb-b071-40be-83ae-a72c38016b9c","system_id":"levelo_inurba_marseille","lat":43.246497,"lon":5.389037,"is_reserved":false,"is_disabled":false,"rental_uris":{"android":"levelo://app?vid=4d28ebeb-b071-40be-83ae-a72c38016b9c","ios":"levelo://app?vid=4d28ebeb-b071-40be-83ae-a72c38016b9c"},"vehicle_type_id":"4","last_reported":1731668843,"current_range_meters":39200,"station_id":"ce4bhg12rcd13ifvqf60","pricing_plan_id":"cebpf4jnsgd1na2vs0mg"},{"bike_id":"631284bc-ca79-4566-a19e-c81968ea3fef","system_id":"levelo_inurba_marseille","lat":43.26691,"lon":5.38274,"is_reserved":false,"is_disabled":false,"rental_uris":{"android":"levelo://app?vid=631284bc-ca79-4566-a19e-c81968ea3fef","ios":"levelo://app?vid=631284bc-ca79-4566-a19e-c81968ea3fef"},"vehicle_type_id":"4","last_reported":1731668843,"current_range_meters":30000,"station_id":"ce4bhg92rcd13ifvqf90","pricing_plan_id":"cebpf4jnsgd1na2vs0mg"},{"bike_id":"7857af21-8d4b-431a-a0af-a6cbd0cfd56f","system_id":"levelo_inurba_marseille","lat":43.31237,"lon":5.36855,"is_reserved":false,"is_disabled":false,"rental_uris":{"android":"levelo://app?vid=7857af21-8d4b-431a-a0af-a6cbd0cfd56f","ios":"levelo://app?vid=7857af21-8d4b-431a-a0af-a6cbd0cfd56f"},"vehicle_type_id":"4","last_reported":1731668843,"current_range_meters":28000,"station_id":"ce4bgl92rcd13ifvqbq0","pricing_plan_id":"cebpf4jnsgd1na2vs0mg"},{"bike_id":"913a4160-2863-4466-8491-0f2d64cb513c","system_id":"levelo_inurba_marseille","lat":43.28158,"lon":5.4263,"is_reserved":false,"is_disabled":false,"rental_uris":{"android":"levelo://app?vid=913a4160-2863-4466-8491-0f2d64cb513c","ios":"levelo://app?vid=913a4160-2863-4466-8491-0f2d64cb513c"},"vehicle_type_id":"4","last_reported":1731668843,"current_range_meters":36800,"station_id":"ce4bhnh2rcd13ifvqgug","pricing_plan_id":"cebpf4jnsgd1na2vs0mg"},{"bike_id":"110d9b4f-0fe2-4924-8f83-23c58cd908c5","system_id":"levelo_inurba_marseille","lat":43.31492,"lon":5.37308,"is_reserved":false,"is_disabled":false,"rental_uris":{"android":"levelo://app?vid=110d9b4f-0fe2-4924-8f83-23c58cd908c5","ios":"levelo://app?vid=110d9b4f-0fe2-4924-8f83-23c58cd908c5"},"vehicle_type_id":"4","last_reported":1731668843,"current_range_meters":4400,"station_id":"ce4bgt12rcd13ifvqcd0","pricing_plan_id":"cebpf4jnsgd1na2vs0mg"},{"bike_id":"1d462b25-0ee3-472f-bfe8-421b37804482","system_id":"levelo_inurba_marseille","lat":43.33607,"lon":5.41016,"is_reserved":false,"is_disabled":false,"rental_uris":{"android":"levelo://app?vid=1d462b25-0ee3-472f-bfe8-421b37804482","ios":"levelo://app?vid=1d462b25-0ee3-472f-bfe8-421b37804482"},"vehicle_type_id":"4","last_reported":1731668843,"current_range_meters":8000,"station_id":"ce4bhqh2rcd13ifvqhmg","pricing_plan_id":"cebpf4jnsgd1na2vs0mg"},{"bike_id":"479e282c-6a76-4428-8089-41607fc5fd13","system_id":"levelo_inurba_marseille","lat":43.23958,"lon":5.3664,"is_reserved":false,"is_disabled":false,"rental_uris":{"android":"levelo://app?vid=479e282c-6a76-4428-8089-41607fc5fd13","ios":"levelo://app?vid=479e282c-6a76-4428-8089-41607fc5fd13"},"vehicle_type_id":"4","last_reported":1731668843,"current_range_meters":20400,"station_id":"ce4bhi12rcd13ifvqfp0","pricing_plan_id":"cebpf4jnsgd1na2vs0mg"},{"bike_id":"97dd1041-56b6-4310-b608-e4a66286e0bb","system_id":"levelo_inurba_marseille","lat":43.24998,"lon":5.38929,"is_reserved":false,"is_disabled":false,"rental_uris":{"android":"levelo://app?vid=97dd1041-56b6-4310-b608-e4a66286e0bb","ios":"levelo://app?vid=97dd1041-56b6-4310-b608-e4a66286e0bb"},"vehicle_type_id":"4","last_reported":1731668843,"current_range_meters":22400,"station_id":"ce4bhgp2rcd13ifvqfd0","pricing_plan_id":"cebpf4jnsgd1na2vs0mg"},{"bike_id":"675fe710-f9e5-46cf-95f1-88cbcbaf9606","system_id":"levelo_inurba_marseille","lat":43.28153,"lon":5.42648,"is_reserved":false,"is_disabled":false,"rental_uris":{"android":"levelo://app?vid=675fe710-f9e5-46cf-95f1-88cbcbaf9606","ios":"levelo://app?vid=675fe710-f9e5-46cf-95f1-88cbcbaf9606"},"vehicle_type_id":"4","last_reported":1731668843,"current_range_meters":26000,"station_id":"ce4bhnh2rcd13ifvqgug","pricing_plan_id":"cebpf4jnsgd1na2vs0mg"},{"bike_id":"6605d477-88c9-46cf-a1a0-5328d877191a","system_id":"levelo_inurba_marseille","lat":43.29848,"lon":5.36271,"is_reserved":false,"is_disabled":false,"rental_uris":{"android":"levelo://app?vid=6605d477-88c9-46cf-a1a0-5328d877191a","ios":"levelo://app?vid=6605d477-88c9-46cf-a1a0-5328d877191a"},"vehicle_type_id":"4","last_reported":1731668843,"current_range_meters":37600,"station_id":"ce4bgpp2rcd13ifvqc3g","pricing_plan_id":"cebpf4jnsgd1na2vs0mg"},{"bike_id":"6b67fe37-6049-4981-a4b7-6e6608b5b132","system_id":"levelo_inurba_marseille","lat":43.29603,"lon":5.381,"is_reserved":false,"is_disabled":false,"rental_uris":{"android":"levelo://app?vid=6b67fe37-6049-4981-a4b7-6e6608b5b132","ios":"levelo://app?vid=6b67fe37-6049-4981-a4b7-6e6608b5b132"},"vehicle_type_id":"4","last_reported":1731668843,"current_range_meters":37600,"station_id":"ce4bgl12rcd13ifvqbo0","pricing_plan_id":"cebpf4jnsgd1na2vs0mg"},{"bike_id":"fb38d09f-8f31-4b54-98b0-e7b81493d4c1","system_id":"levelo_inurba_marseille","lat":43.24547,"lon":5.39521,"is_reserved":false,"is_disabled":false,"rental_uris":{"android":"levelo://app?vid=fb38d09f-8f31-4b54-98b0-e7b81493d4c1","ios":"levelo://app?vid=fb38d09f-8f31-4b54-98b0-e7b81493d4c1"},"vehicle_type_id":"4","last_reported":1731668843,"current_range_meters":38800,"station_id":"ce4bhlp2rcd13ifvqgjg","pricing_plan_id":"cebpf4jnsgd1na2vs0mg"},{"bike_id":"e9ddeabe-3a0d-4a3b-904c-9105182d741a","system_id":"levelo_inurba_marseille","lat":43.25823,"lon":5.39428,"is_reserved":false,"is_disabled":false,"rental_uris":{"android":"levelo://app?vid=e9ddeabe-3a0d-4a3b-904c-9105182d741a","ios":"levelo://app?vid=e9ddeabe-3a0d-4a3b-904c-9105182d741a"},"vehicle_type_id":"4","last_reported":1731668843,"current_range_meters":38800,"station_id":"ce4bhip2rcd13ifvqft0","pricing_plan_id":"cebpf4jnsgd1na2vs0mg"},{"bike_id":"10e31298-7ef0-4047-a905-d4452af3264e","system_id":"levelo_inurba_marseille","lat":43.24995,"lon":5.38937,"is_reserved":false,"is_disabled":false,"rental_uris":{"android":"levelo://app?vid=10e31298-7ef0-4047-a905-d4452af3264e","ios":"levelo://app?vid=10e31298-7ef0-4047-a905-d4452af3264e"},"vehicle_type_id":"4","last_reported":1731668843,"current_range_meters":32800,"station_id":"ce4bhgp2rcd13ifvqfd0","pricing_plan_id":"cebpf4jnsgd1na2vs0mg"},{"bike_id":"cc857887-ad0b-4abb-9ae5-7e5ff59d7e91","system_id":"levelo_inurba_marseille","lat":43.29558,"lon":5.42296,"is_reserved":false,"is_disabled":false,"rental_uris":{"android":"levelo://app?vid=cc857887-ad0b-4abb-9ae5-7e5ff59d7e91","ios":"levelo://app?vid=cc857887-ad0b-4abb-9ae5-7e5ff59d7e91"},"vehicle_type_id":"4","last_reported":1731668843,"current_range_meters":22800,"station_id":"ce4bhph2rcd13ifvqhdg","pricing_plan_id":"cebpf4jnsgd1na2vs0mg"},{"bike_id":"3a89ec44-1c0c-4589-9cdf-fedc997f57ba","system_id":"levelo_inurba_marseille","lat":43.26952,"lon":5.3862,"is_reserved":false,"is_disabled":false,"rental_uris":{"android":"levelo://app?vid=3a89ec44-1c0c-4589-9cdf-fedc997f57ba","ios":"levelo://app?vid=3a89ec44-1c0c-4589-9cdf-fedc997f57ba"},"vehicle_type_id":"4","last_reported":1731668843,"current_range_meters":20000,"station_id":"ce4bhh92rcd13ifvqfh0","pricing_plan_id":"cebpf4jnsgd1na2vs0mg"},{"bike_id":"58c5f82b-5fcc-4d2c-bae4-656909fcaac7","system_id":"levelo_inurba_marseille","lat":43.2679,"lon":5.39415,"is_reserved":false,"is_disabled":false,"rental_uris":{"android":"levelo://app?vid=58c5f82b-5fcc-4d2c-bae4-656909fcaac7","ios":"levelo://app?vid=58c5f82b-5fcc-4d2c-bae4-656909fcaac7"},"vehicle_type_id":"4","last_reported":1731668843,"current_range_meters":8000,"station_id":"ce4bhh12rcd13ifvqfg0","pricing_plan_id":"cebpf4jnsgd1na2vs0mg"},{"bike_id":"f86a601e-26e3-440e-a7e5-894f75bad9f4","system_id":"levelo_inurba_marseille","lat":43.337444,"lon":5.374475,"is_reserved":false,"is_disabled":false,"rental_uris":{"android":"levelo://app?vid=f86a601e-26e3-440e-a7e5-894f75bad9f4","ios":"levelo://app?vid=f86a601e-26e3-440e-a7e5-894f75bad9f4"},"vehicle_type_id":"4","last_reported":1731668843,"current_range_meters":24000,"station_id":"","pricing_plan_id":"cebpf4jnsgd1na2vs0mg"},{"bike_id":"85b53427-d19a-4c23-9a60-760294c6f564","system_id":"levelo_inurba_marseille","lat":43.30187,"lon":5.36614,"is_reserved":false,"is_disabled":false,"rental_uris":{"android":"levelo://app?vid=85b53427-d19a-4c23-9a60-760294c6f564","ios":"levelo://app?vid=85b53427-d19a-4c23-9a60-760294c6f564"},"vehicle_type_id":"4","last_reported":1731668843,"current_range_meters":39200,"station_id":"ce4bgrh2rcd13ifvqc8g","pricing_plan_id":"cebpf4jnsgd1na2vs0mg"},{"bike_id":"5110abce-b279-466c-aa76-a66255fa3745","system_id":"levelo_inurba_marseille","lat":43.33011,"lon":5.39227,"is_reserved":false,"is_disabled":false,"rental_uris":{"android":"levelo://app?vid=5110abce-b279-466c-aa76-a66255fa3745","ios":"levelo://app?vid=5110abce-b279-466c-aa76-a66255fa3745"},"vehicle_type_id":"4","last_reported":1731668843,"current_range_meters":28800,"station_id":"ce4bhr92rcd13ifvqhrg","pricing_plan_id":"cebpf4jnsgd1na2vs0mg"},{"bike_id":"d0f6f75c-4490-4a54-be6f-c8cc30a85fb2","system_id":"levelo_inurba_marseille","lat":43.33745,"lon":5.37442,"is_reserved":false,"is_disabled":false,"rental_uris":{"android":"levelo://app?vid=d0f6f75c-4490-4a54-be6f-c8cc30a85fb2","ios":"levelo://app?vid=d0f6f75c-4490-4a54-be6f-c8cc30a85fb2"},"vehicle_type_id":"4","last_reported":1731668843,"current_range_meters":33600,"station_id":"","pricing_plan_id":"cebpf4jnsgd1na2vs0mg"},{"bike_id":"fb94f2d9-2ed3-45ec-817e-e62f23997935","system_id":"levelo_inurba_marseille","lat":43.2794,"lon":5.41046,"is_reserved":false,"is_disabled":false,"rental_uris":{"android":"levelo://app?vid=fb94f2d9-2ed3-45ec-817e-e62f23997935","ios":"levelo://app?vid=fb94f2d9-2ed3-45ec-817e-e62f23997935"},"vehicle_type_id":"4","last_reported":1731668843,"current_range_meters":28400,"station_id":"ce4bhnp2rcd13ifvqh0g","pricing_plan_id":"cebpf4jnsgd1na2vs0mg"},{"bike_id":"f194aaab-021f-449c-991a-be83b9bd6d9f","system_id":"levelo_inurba_marseille","lat":43.31357,"lon":5.36704,"is_reserved":false,"is_disabled":false,"rental_uris":{"android":"levelo://app?vid=f194aaab-021f-449c-991a-be83b9bd6d9f","ios":"levelo://app?vid=f194aaab-021f-449c-991a-be83b9bd6d9f"},"vehicle_type_id":"4","last_reported":1731668843,"current_range_meters":26800,"station_id":"ce4bgr92rcd13ifvqc6g","pricing_plan_id":"cebpf4jnsgd1na2vs0mg"},{"bike_id":"ef9ae1d4-5e8d-49bb-8007-8961ec41f40b","system_id":"levelo_inurba_marseille","lat":43.27495,"lon":5.42451,"is_reserved":false,"is_disabled":false,"rental_uris":{"android":"levelo://app?vid=ef9ae1d4-5e8d-49bb-8007-8961ec41f40b","ios":"levelo://app?vid=ef9ae1d4-5e8d-49bb-8007-8961ec41f40b"},"vehicle_type_id":"4","last_reported":1731668843,"current_range_meters":24000,"station_id":"ce4bhn92rcd13ifvqgrg","pricing_plan_id":"cebpf4jnsgd1na2vs0mg"},{"bike_id":"9ac599f0-c3db-40c1-b15c-489906c4382b","system_id":"levelo_inurba_marseille","lat":43.24071,"lon":5.3773,"is_reserved":false,"is_disabled":false,"rental_uris":{"android":"levelo://app?vid=9ac599f0-c3db-40c1-b15c-489906c4382b","ios":"levelo://app?vid=9ac599f0-c3db-40c1-b15c-489906c4382b"},"vehicle_type_id":"4","last_reported":1731668843,"current_range_meters":38800,"station_id":"ce4bhnp2rcd13ifvqgvg","pricing_plan_id":"cebpf4jnsgd1na2vs0mg"},{"bike_id":"95e7616a-7100-4485-afec-6e6b3fb12bf6","system_id":"levelo_inurba_marseille","lat":43.27072,"lon":5.4228,"is_reserved":false,"is_disabled":false,"rental_uris":{"android":"levelo://app?vid=95e7616a-7100-4485-afec-6e6b3fb12bf6","ios":"levelo://app?vid=95e7616a-7100-4485-afec-6e6b3fb12bf6"},"vehicle_type_id":"4","last_reported":1731668843,"current_range_meters":19600,"station_id":"ce4bhk92rcd13ifvqgb0","pricing_plan_id":"cebpf4jnsgd1na2vs0mg"},{"bike_id":"b178992f-5a02-4413-a253-ab67b2e40184","system_id":"levelo_inurba_marseille","lat":43.31362,"lon":5.36712,"is_reserved":false,"is_disabled":false,"rental_uris":{"android":"levelo://app?vid=b178992f-5a02-4413-a253-ab67b2e40184","ios":"levelo://app?vid=b178992f-5a02-4413-a253-ab67b2e40184"},"vehicle_type_id":"4","last_reported":1731668843,"current_range_meters":39200,"station_id":"ce4bgr92rcd13ifvqc6g","pricing_plan_id":"cebpf4jnsgd1na2vs0mg"},{"bike_id":"ce25af73-1fce-4ad6-aaa3-0c6826ffb8c2","system_id":"levelo_inurba_marseille","lat":43.30299,"lon":5.36882,"is_reserved":false,"is_disabled":false,"rental_uris":{"android":"levelo://app?vid=ce25af73-1fce-4ad6-aaa3-0c6826ffb8c2","ios":"levelo://app?vid=ce25af73-1fce-4ad6-aaa3-0c6826ffb8c2"},"vehicle_type_id":"4","last_reported":1731668843,"current_range_meters":21600,"station_id":"ce4bgqh2rcd13ifvqc5g","pricing_plan_id":"cebpf4jnsgd1na2vs0mg"},{"bike_id":"35bf5b8c-b02e-48d0-b37e-ca442ff453bc","system_id":"levelo_inurba_marseille","lat":43.31358,"lon":5.38492,"is_reserved":false,"is_disabled":false,"rental_uris":{"android":"levelo://app?vid=35bf5b8c-b02e-48d0-b37e-ca442ff453bc","ios":"levelo://app?vid=35bf5b8c-b02e-48d0-b37e-ca442ff453bc"},"vehicle_type_id":"4","last_reported":1731668843,"current_range_meters":17200,"station_id":"ce4bgt92rcd13ifvqcf0","pricing_plan_id":"cebpf4jnsgd1na2vs0mg"},{"bike_id":"a5f67423-1c0d-4f7d-b72b-eb0084d8161c","system_id":"levelo_inurba_marseille","lat":43.33024,"lon":5.3904,"is_reserved":false,"is_disabled":false,"rental_uris":{"android":"levelo://app?vid=a5f67423-1c0d-4f7d-b72b-eb0084d8161c","ios":"levelo://app?vid=a5f67423-1c0d-4f7d-b72b-eb0084d8161c"},"vehicle_type_id":"4","last_reported":1731668843,"current_range_meters":25600,"station_id":"ce4bhr92rcd13ifvqhrg","pricing_plan_id":"cebpf4jnsgd1na2vs0mg"},{"bike_id":"edb0828f-6657-46bf-b880-771737fdbf49","system_id":"levelo_inurba_marseille","lat":43.30186,"lon":5.36609,"is_reserved":false,"is_disabled":false,"rental_uris":{"android":"levelo://app?vid=edb0828f-6657-46bf-b880-771737fdbf49","ios":"levelo://app?vid=edb0828f-6657-46bf-b880-771737fdbf49"},"vehicle_type_id":"4","last_reported":1731668843,"current_range_meters":32800,"station_id":"ce4bgrh2rcd13ifvqc8g","pricing_plan_id":"cebpf4jnsgd1na2vs0mg"},{"bike_id":"a94a72ad-d279-4bee-85f1-6c8142969e68","system_id":"levelo_inurba_marseille","lat":43.26214,"lon":5.37441,"is_reserved":false,"is_disabled":false,"rental_uris":{"android":"levelo://app?vid=a94a72ad-d279-4bee-85f1-6c8142969e68","ios":"levelo://app?vid=a94a72ad-d279-4bee-85f1-6c8142969e68"},"vehicle_type_id":"4","last_reported":1731668843,"current_range_meters":12000,"station_id":"ce4bhgp2rcd13ifvqfc0","pricing_plan_id":"cebpf4jnsgd1na2vs0mg"},{"bike_id":"898343a1-2642-491c-a1ab-47e0e0534d2f","system_id":"levelo_inurba_marseille","lat":43.33607,"lon":5.41026,"is_reserved":false,"is_disabled":false,"rental_uris":{"android":"levelo://app?vid=898343a1-2642-491c-a1ab-47e0e0534d2f","ios":"levelo://app?vid=898343a1-2642-491c-a1ab-47e0e0534d2f"},"vehicle_type_id":"4","last_reported":1731668843,"current_range_meters":10800,"station_id":"ce4bhqh2rcd13ifvqhmg","pricing_plan_id":"cebpf4jnsgd1na2vs0mg"},{"bike_id":"192b0771-c333-4751-8865-c4cdc3ea2303","system_id":"levelo_inurba_marseille","lat":43.28269,"lon":5.35067,"is_reserved":false,"is_disabled":false,"rental_uris":{"android":"levelo://app?vid=192b0771-c333-4751-8865-c4cdc3ea2303","ios":"levelo://app?vid=192b0771-c333-4751-8865-c4cdc3ea2303"},"vehicle_type_id":"4","last_reported":1731668843,"current_range_meters":36400,"station_id":"ce4bhbp2rcd13ifvqerg","pricing_plan_id":"cebpf4jnsgd1na2vs0mg"},{"bike_id":"da506f93-9589-4c11-9265-7ffbaad58001","system_id":"levelo_inurba_marseille","lat":43.30523,"lon":5.367,"is_reserved":false,"is_disabled":false,"rental_uris":{"android":"levelo://app?vid=da506f93-9589-4c11-9265-7ffbaad58001","ios":"levelo://app?vid=da506f93-9589-4c11-9265-7ffbaad58001"},"vehicle_type_id":"4","last_reported":1731668843,"current_range_meters":10800,"station_id":"ce4bgrp2rcd13ifvqc9g","pricing_plan_id":"cebpf4jnsgd1na2vs0mg"},{"bike_id":"83d0c08b-53e5-4e1d-aa28-dd3ec259f354","system_id":"levelo_inurba_marseille","lat":43.28837,"lon":5.39258,"is_reserved":false,"is_disabled":false,"rental_uris":{"android":"levelo://app?vid=83d0c08b-53e5-4e1d-aa28-dd3ec259f354","ios":"levelo://app?vid=83d0c08b-53e5-4e1d-aa28-dd3ec259f354"},"vehicle_type_id":"4","last_reported":1731668843,"current_range_meters":8400,"station_id":"","pricing_plan_id":"cebpf4jnsgd1na2vs0mg"},{"bike_id":"98d248a2-65e9-45e6-a0e5-ded316c191c1","system_id":"levelo_inurba_marseille","lat":43.24389,"lon":5.37062,"is_reserved":false,"is_disabled":false,"rental_uris":{"android":"levelo://app?vid=98d248a2-65e9-45e6-a0e5-ded316c191c1","ios":"levelo://app?vid=98d248a2-65e9-45e6-a0e5-ded316c191c1"},"vehicle_type_id":"4","last_reported":1731668843,"current_range_meters":28400,"station_id":"ce4bhhh2rcd13ifvqfk0","pricing_plan_id":"cebpf4jnsgd1na2vs0mg"},{"bike_id":"8c833fd5-6e61-423c-8d1b-d40d8917507f","system_id":"levelo_inurba_marseille","lat":43.28417,"lon":5.34975,"is_reserved":false,"is_disabled":false,"rental_uris":{"android":"levelo://app?vid=8c833fd5-6e61-423c-8d1b-d40d8917507f","ios":"levelo://app?vid=8c833fd5-6e61-423c-8d1b-d40d8917507f"},"vehicle_type_id":"4","last_reported":1731668843,"current_range_meters":27200,"station_id":"ce4bhbh2rcd13ifvqepg","pricing_plan_id":"cebpf4jnsgd1na2vs0mg"},{"bike_id":"92e3ad17-17c9-4714-a148-ef9436ad6113","system_id":"levelo_inurba_marseille","lat":43.22934,"lon":5.35388,"is_reserved":false,"is_disabled":false,"rental_uris":{"android":"levelo://app?vid=92e3ad17-17c9-4714-a148-ef9436ad6113","ios":"levelo://app?vid=92e3ad17-17c9-4714-a148-ef9436ad6113"},"vehicle_type_id":"4","last_reported":1731668843,"current_range_meters":38800,"station_id":"cpo3532slgdg3j2ikp40","pricing_plan_id":"cebpf4jnsgd1na2vs0mg"},{"bike_id":"8224ee73-4e3f-494d-bf5f-e64063f77fc8","system_id":"levelo_inurba_marseille","lat":43.240855,"lon":5.377514,"is_reserved":false,"is_disabled":false,"rental_uris":{"android":"levelo://app?vid=8224ee73-4e3f-494d-bf5f-e64063f77fc8","ios":"levelo://app?vid=8224ee73-4e3f-494d-bf5f-e64063f77fc8"},"vehicle_type_id":"4","last_reported":1731668843,"current_range_meters":38800,"station_id":"ce4bhnp2rcd13ifvqgvg","pricing_plan_id":"cebpf4jnsgd1na2vs0mg"},{"bike_id":"d8b48dff-e08b-4f63-86a8-b2f7200b9861","system_id":"levelo_inurba_marseille","lat":43.30298,"lon":5.39206,"is_reserved":false,"is_disabled":false,"rental_uris":{"android":"levelo://app?vid=d8b48dff-e08b-4f63-86a8-b2f7200b9861","ios":"levelo://app?vid=d8b48dff-e08b-4f63-86a8-b2f7200b9861"},"vehicle_type_id":"4","last_reported":1731668843,"current_range_meters":23200,"station_id":"ce4bgkh2rcd13ifvqbk0","pricing_plan_id":"cebpf4jnsgd1na2vs0mg"},{"bike_id":"5326c5f8-bba7-40e6-bfc7-8e986a3bddf3","system_id":"levelo_inurba_marseille","lat":43.31042,"lon":5.37455,"is_reserved":false,"is_disabled":false,"rental_uris":{"android":"levelo://app?vid=5326c5f8-bba7-40e6-bfc7-8e986a3bddf3","ios":"levelo://app?vid=5326c5f8-bba7-40e6-bfc7-8e986a3bddf3"},"vehicle_type_id":"4","last_reported":1731668843,"current_range_meters":23200,"station_id":"ce4bgt12rcd13ifvqcd0","pricing_plan_id":"cebpf4jnsgd1na2vs0mg"},{"bike_id":"78013e65-ca55-4c76-a71b-2ae5bc2c867e","system_id":"levelo_inurba_marseille","lat":43.28672,"lon":5.38669,"is_reserved":false,"is_disabled":false,"rental_uris":{"android":"levelo://app?vid=78013e65-ca55-4c76-a71b-2ae5bc2c867e","ios":"levelo://app?vid=78013e65-ca55-4c76-a71b-2ae5bc2c867e"},"vehicle_type_id":"4","last_reported":1731668843,"current_range_meters":33600,"station_id":"ce4bh492rcd13ifvqdug","pricing_plan_id":"cebpf4jnsgd1na2vs0mg"},{"bike_id":"55f5cfa5-62f5-4849-8e56-d0f7566a1398","system_id":"levelo_inurba_marseille","lat":43.28259,"lon":5.35078,"is_reserved":false,"is_disabled":false,"rental_uris":{"android":"levelo://app?vid=55f5cfa5-62f5-4849-8e56-d0f7566a1398","ios":"levelo://app?vid=55f5cfa5-62f5-4849-8e56-d0f7566a1398"},"vehicle_type_id":"4","last_reported":1731668843,"current_range_meters":26800,"station_id":"ce4bhbp2rcd13ifvqerg","pricing_plan_id":"cebpf4jnsgd1na2vs0mg"},{"bike_id":"f1e9fc4f-4524-48c2-bea5-288ea485b230","system_id":"levelo_inurba_marseille","lat":43.23148,"lon":5.43721,"is_reserved":false,"is_disabled":false,"rental_uris":{"android":"levelo://app?vid=f1e9fc4f-4524-48c2-bea5-288ea485b230","ios":"levelo://app?vid=f1e9fc4f-4524-48c2-bea5-288ea485b230"},"vehicle_type_id":"4","last_reported":1731668843,"current_range_meters":27600,"station_id":"ce4bhmp2rcd13ifvqgog","pricing_plan_id":"cebpf4jnsgd1na2vs0mg"},{"bike_id":"b78fc79c-2eed-493f-9673-97e64cee4002","system_id":"levelo_inurba_marseille","lat":43.24168,"lon":5.3639,"is_reserved":false,"is_disabled":false,"rental_uris":{"android":"levelo://app?vid=b78fc79c-2eed-493f-9673-97e64cee4002","ios":"levelo://app?vid=b78fc79c-2eed-493f-9673-97e64cee4002"},"vehicle_type_id":"4","last_reported":1731668843,"current_range_meters":18000,"station_id":"cpo36qri1sfpv3e86is0","pricing_plan_id":"cebpf4jnsgd1na2vs0mg"},{"bike_id":"44d395bf-1e2d-48b2-a9f9-645c8159948a","system_id":"levelo_inurba_marseille","lat":43.258197,"lon":5.410615,"is_reserved":false,"is_disabled":false,"rental_uris":{"android":"levelo://app?vid=44d395bf-1e2d-48b2-a9f9-645c8159948a","ios":"levelo://app?vid=44d395bf-1e2d-48b2-a9f9-645c8159948a"},"vehicle_type_id":"4","last_reported":1731668843,"current_range_meters":22800,"station_id":"ce4bhkp2rcd13ifvqgd0","pricing_plan_id":"cebpf4jnsgd1na2vs0mg"},{"bike_id":"881eacb7-0ffc-4171-9405-9084fa6720be","system_id":"levelo_inurba_marseille","lat":43.30547,"lon":5.36539,"is_reserved":false,"is_disabled":false,"rental_uris":{"android":"levelo://app?vid=881eacb7-0ffc-4171-9405-9084fa6720be","ios":"levelo://app?vid=881eacb7-0ffc-4171-9405-9084fa6720be"},"vehicle_type_id":"4","last_reported":1731668843,"current_range_meters":30400,"station_id":"ce4bgs12rcd13ifvqcag","pricing_plan_id":"cebpf4jnsgd1na2vs0mg"},{"bike_id":"1d082c35-430a-42b5-80e8-1d9c451e4197","system_id":"levelo_inurba_marseille","lat":43.31163,"lon":5.38714,"is_reserved":false,"is_disabled":false,"rental_uris":{"android":"levelo://app?vid=1d082c35-430a-42b5-80e8-1d9c451e4197","ios":"levelo://app?vid=1d082c35-430a-42b5-80e8-1d9c451e4197"},"vehicle_type_id":"4","last_reported":1731668843,"current_range_meters":38800,"station_id":"ce4bgv12rcd13ifvqcp0","pricing_plan_id":"cebpf4jnsgd1na2vs0mg"},{"bike_id":"f958f471-cf92-436a-bc8d-8e57613d3090","system_id":"levelo_inurba_marseille","lat":43.28426,"lon":5.34993,"is_reserved":false,"is_disabled":false,"rental_uris":{"android":"levelo://app?vid=f958f471-cf92-436a-bc8d-8e57613d3090","ios":"levelo://app?vid=f958f471-cf92-436a-bc8d-8e57613d3090"},"vehicle_type_id":"4","last_reported":1731668843,"current_range_meters":38800,"station_id":"ce4bhbh2rcd13ifvqepg","pricing_plan_id":"cebpf4jnsgd1na2vs0mg"},{"bike_id":"2e7c1ab3-f1d7-4720-aa65-dbaac86150a8","system_id":"levelo_inurba_marseille","lat":43.28261,"lon":5.35069,"is_reserved":false,"is_disabled":false,"rental_uris":{"android":"levelo://app?vid=2e7c1ab3-f1d7-4720-aa65-dbaac86150a8","ios":"levelo://app?vid=2e7c1ab3-f1d7-4720-aa65-dbaac86150a8"},"vehicle_type_id":"4","last_reported":1731668843,"current_range_meters":14400,"station_id":"ce4bhbp2rcd13ifvqerg","pricing_plan_id":"cebpf4jnsgd1na2vs0mg"},{"bike_id":"68c3c556-3b59-4f10-84a3-37bf84123a48","system_id":"levelo_inurba_marseille","lat":43.27914,"lon":5.39572,"is_reserved":false,"is_disabled":false,"rental_uris":{"android":"levelo://app?vid=68c3c556-3b59-4f10-84a3-37bf84123a48","ios":"levelo://app?vid=68c3c556-3b59-4f10-84a3-37bf84123a48"},"vehicle_type_id":"4","last_reported":1731668843,"current_range_meters":25600,"station_id":"ce4bhf92rcd13ifvqf40","pricing_plan_id":"cebpf4jnsgd1na2vs0mg"},{"bike_id":"d4357b6e-382d-42fb-a863-ff7fd5649955","system_id":"levelo_inurba_marseille","lat":43.25005,"lon":5.38927,"is_reserved":false,"is_disabled":false,"rental_uris":{"android":"levelo://app?vid=d4357b6e-382d-42fb-a863-ff7fd5649955","ios":"levelo://app?vid=d4357b6e-382d-42fb-a863-ff7fd5649955"},"vehicle_type_id":"4","last_reported":1731668843,"current_range_meters":38000,"station_id":"ce4bhgp2rcd13ifvqfd0","pricing_plan_id":"cebpf4jnsgd1na2vs0mg"},{"bike_id":"8db07b76-9054-465a-89b4-68d17707961b","system_id":"levelo_inurba_marseille","lat":43.2842,"lon":5.34987,"is_reserved":false,"is_disabled":false,"rental_uris":{"android":"levelo://app?vid=8db07b76-9054-465a-89b4-68d17707961b","ios":"levelo://app?vid=8db07b76-9054-465a-89b4-68d17707961b"},"vehicle_type_id":"4","last_reported":1731668843,"current_range_meters":31200,"station_id":"ce4bhbh2rcd13ifvqepg","pricing_plan_id":"cebpf4jnsgd1na2vs0mg"},{"bike_id":"79294977-6401-4835-8c97-7dcc2f35c689","system_id":"levelo_inurba_marseille","lat":43.30912,"lon":5.36858,"is_reserved":false,"is_disabled":false,"rental_uris":{"android":"levelo://app?vid=79294977-6401-4835-8c97-7dcc2f35c689","ios":"levelo://app?vid=79294977-6401-4835-8c97-7dcc2f35c689"},"vehicle_type_id":"4","last_reported":1731668843,"current_range_meters":28400,"station_id":"ce4bgn92rcd13ifvqbvg","pricing_plan_id":"cebpf4jnsgd1na2vs0mg"},{"bike_id":"6190abe0-aae9-4a80-a526-d67e8d93d29d","system_id":"levelo_inurba_marseille","lat":43.26948,"lon":5.38634,"is_reserved":false,"is_disabled":false,"rental_uris":{"android":"levelo://app?vid=6190abe0-aae9-4a80-a526-d67e8d93d29d","ios":"levelo://app?vid=6190abe0-aae9-4a80-a526-d67e8d93d29d"},"vehicle_type_id":"4","last_reported":1731668843,"current_range_meters":28000,"station_id":"ce4bhh92rcd13ifvqfh0","pricing_plan_id":"cebpf4jnsgd1na2vs0mg"},{"bike_id":"2ad6db30-99be-47b8-8c64-aa1697a4d061","system_id":"levelo_inurba_marseille","lat":43.30097,"lon":5.39077,"is_reserved":false,"is_disabled":false,"rental_uris":{"android":"levelo://app?vid=2ad6db30-99be-47b8-8c64-aa1697a4d061","ios":"levelo://app?vid=2ad6db30-99be-47b8-8c64-aa1697a4d061"},"vehicle_type_id":"4","last_reported":1731668843,"current_range_meters":23200,"station_id":"ce4bh192rcd13ifvqdb0","pricing_plan_id":"cebpf4jnsgd1na2vs0mg"},{"bike_id":"08682d86-51f2-402f-89b6-b2f3e36681f1","system_id":"levelo_inurba_marseille","lat":43.30931,"lon":5.40143,"is_reserved":false,"is_disabled":false,"rental_uris":{"android":"levelo://app?vid=08682d86-51f2-402f-89b6-b2f3e36681f1","ios":"levelo://app?vid=08682d86-51f2-402f-89b6-b2f3e36681f1"},"vehicle_type_id":"4","last_reported":1731668843,"current_range_meters":28400,"station_id":"ce4bgvp2rcd13ifvqcu0","pricing_plan_id":"cebpf4jnsgd1na2vs0mg"},{"bike_id":"3954dd37-8389-4e48-b138-27e1c188a614","system_id":"levelo_inurba_marseille","lat":43.312239,"lon":5.36855,"is_reserved":false,"is_disabled":false,"rental_uris":{"android":"levelo://app?vid=3954dd37-8389-4e48-b138-27e1c188a614","ios":"levelo://app?vid=3954dd37-8389-4e48-b138-27e1c188a614"},"vehicle_type_id":"4","last_reported":1731668843,"current_range_meters":35600,"station_id":"ce4bgl92rcd13ifvqbq0","pricing_plan_id":"cebpf4jnsgd1na2vs0mg"},{"bike_id":"cf79869a-d85d-467f-ba84-3ee7f1efdabf","system_id":"levelo_inurba_marseille","lat":43.26935,"lon":5.38919,"is_reserved":false,"is_disabled":false,"rental_uris":{"android":"levelo://app?vid=cf79869a-d85d-467f-ba84-3ee7f1efdabf","ios":"levelo://app?vid=cf79869a-d85d-467f-ba84-3ee7f1efdabf"},"vehicle_type_id":"4","last_reported":1731668843,"current_range_meters":18000,"station_id":"ce4bhhh2rcd13ifvqfl0","pricing_plan_id":"cebpf4jnsgd1na2vs0mg"},{"bike_id":"9c09a538-ab29-4eb3-a90f-53fedb4fde44","system_id":"levelo_inurba_marseille","lat":43.27946,"lon":5.41042,"is_reserved":false,"is_disabled":false,"rental_uris":{"android":"levelo://app?vid=9c09a538-ab29-4eb3-a90f-53fedb4fde44","ios":"levelo://app?vid=9c09a538-ab29-4eb3-a90f-53fedb4fde44"},"vehicle_type_id":"4","last_reported":1731668843,"current_range_meters":30800,"station_id":"ce4bhnp2rcd13ifvqh0g","pricing_plan_id":"cebpf4jnsgd1na2vs0mg"},{"bike_id":"0c08107d-19ac-4269-bae2-1f92627ef44a","system_id":"levelo_inurba_marseille","lat":43.295708,"lon":5.375225,"is_reserved":false,"is_disabled":false,"rental_uris":{"android":"levelo://app?vid=0c08107d-19ac-4269-bae2-1f92627ef44a","ios":"levelo://app?vid=0c08107d-19ac-4269-bae2-1f92627ef44a"},"vehicle_type_id":"4","last_reported":1731668843,"current_range_meters":36000,"station_id":"ce4bgh92rcd13ifvqb50","pricing_plan_id":"cebpf4jnsgd1na2vs0mg"},{"bike_id":"80bdacfd-2c4a-4706-89d7-dd7b498cc092","system_id":"levelo_inurba_marseille","lat":43.286835,"lon":5.35175,"is_reserved":false,"is_disabled":false,"rental_uris":{"android":"levelo://app?vid=80bdacfd-2c4a-4706-89d7-dd7b498cc092","ios":"levelo://app?vid=80bdacfd-2c4a-4706-89d7-dd7b498cc092"},"vehicle_type_id":"4","last_reported":1731668843,"current_range_meters":33200,"station_id":"ce4bhch2rcd13ifvqeug","pricing_plan_id":"cebpf4jnsgd1na2vs0mg"},{"bike_id":"b47cb991-57c8-4ef2-ba6f-88a50e1a1219","system_id":"levelo_inurba_marseille","lat":43.22935,"lon":5.35378,"is_reserved":false,"is_disabled":false,"rental_uris":{"android":"levelo://app?vid=b47cb991-57c8-4ef2-ba6f-88a50e1a1219","ios":"levelo://app?vid=b47cb991-57c8-4ef2-ba6f-88a50e1a1219"},"vehicle_type_id":"4","last_reported":1731668843,"current_range_meters":37600,"station_id":"cpo3532slgdg3j2ikp40","pricing_plan_id":"cebpf4jnsgd1na2vs0mg"},{"bike_id":"f5d4dfb9-d486-4545-a57f-42501b6169a7","system_id":"levelo_inurba_marseille","lat":43.2558,"lon":5.38235,"is_reserved":false,"is_disabled":false,"rental_uris":{"android":"levelo://app?vid=f5d4dfb9-d486-4545-a57f-42501b6169a7","ios":"levelo://app?vid=f5d4dfb9-d486-4545-a57f-42501b6169a7"},"vehicle_type_id":"4","last_reported":1731668843,"current_range_meters":27200,"station_id":"ce4bhih2rcd13ifvqfs0","pricing_plan_id":"cebpf4jnsgd1na2vs0mg"},{"bike_id":"3be187de-5e5a-4eb9-a6fc-b5be1ff54724","system_id":"levelo_inurba_marseille","lat":43.24079,"lon":5.37742,"is_reserved":false,"is_disabled":false,"rental_uris":{"android":"levelo://app?vid=3be187de-5e5a-4eb9-a6fc-b5be1ff54724","ios":"levelo://app?vid=3be187de-5e5a-4eb9-a6fc-b5be1ff54724"},"vehicle_type_id":"4","last_reported":1731668843,"current_range_meters":30400,"station_id":"ce4bhnp2rcd13ifvqgvg","pricing_plan_id":"cebpf4jnsgd1na2vs0mg"},{"bike_id":"2a54e76e-cd76-4a10-940f-30917d8bcf09","system_id":"levelo_inurba_marseille","lat":43.22939,"lon":5.35361,"is_reserved":false,"is_disabled":false,"rental_uris":{"android":"levelo://app?vid=2a54e76e-cd76-4a10-940f-30917d8bcf09","ios":"levelo://app?vid=2a54e76e-cd76-4a10-940f-30917d8bcf09"},"vehicle_type_id":"4","last_reported":1731668843,"current_range_meters":9600,"station_id":"cpo3532slgdg3j2ikp40","pricing_plan_id":"cebpf4jnsgd1na2vs0mg"},{"bike_id":"5b6dd039-55d8-458f-be1c-f92a7acfe176","system_id":"levelo_inurba_marseille","lat":43.30597,"lon":5.39356,"is_reserved":false,"is_disabled":false,"rental_uris":{"android":"levelo://app?vid=5b6dd039-55d8-458f-be1c-f92a7acfe176","ios":"levelo://app?vid=5b6dd039-55d8-458f-be1c-f92a7acfe176"},"vehicle_type_id":"4","last_reported":1731668843,"current_range_meters":11600,"station_id":"ce4bh0p2rcd13ifvqd80","pricing_plan_id":"cebpf4jnsgd1na2vs0mg"},{"bike_id":"69ce68cd-96e3-4273-ba50-f0d82f81944a","system_id":"levelo_inurba_marseille","lat":43.31996,"lon":5.38165,"is_reserved":false,"is_disabled":false,"rental_uris":{"android":"levelo://app?vid=69ce68cd-96e3-4273-ba50-f0d82f81944a","ios":"levelo://app?vid=69ce68cd-96e3-4273-ba50-f0d82f81944a"},"vehicle_type_id":"4","last_reported":1731668843,"current_range_meters":16400,"station_id":"ce4bhr12rcd13ifvqhpg","pricing_plan_id":"cebpf4jnsgd1na2vs0mg"},{"bike_id":"37212eb8-cfa6-47ba-9ed7-bfed51287466","system_id":"levelo_inurba_marseille","lat":43.33766,"lon":5.37492,"is_reserved":false,"is_disabled":false,"rental_uris":{"android":"levelo://app?vid=37212eb8-cfa6-47ba-9ed7-bfed51287466","ios":"levelo://app?vid=37212eb8-cfa6-47ba-9ed7-bfed51287466"},"vehicle_type_id":"4","last_reported":1731668843,"current_range_meters":36400,"station_id":"","pricing_plan_id":"cebpf4jnsgd1na2vs0mg"},{"bike_id":"2a0b4aac-e918-4a87-ac19-6300439c80f6","system_id":"levelo_inurba_marseille","lat":43.281,"lon":5.3783,"is_reserved":false,"is_disabled":false,"rental_uris":{"android":"levelo://app?vid=2a0b4aac-e918-4a87-ac19-6300439c80f6","ios":"levelo://app?vid=2a0b4aac-e918-4a87-ac19-6300439c80f6"},"vehicle_type_id":"4","last_reported":1731668843,"current_range_meters":11600,"station_id":"ce4bha12rcd13ifvqee0","pricing_plan_id":"cebpf4jnsgd1na2vs0mg"},{"bike_id":"5f4496a2-dc1f-4c6c-87bb-f44d8c27445d","system_id":"levelo_inurba_marseille","lat":43.31364,"lon":5.36708,"is_reserved":false,"is_disabled":false,"rental_uris":{"android":"levelo://app?vid=5f4496a2-dc1f-4c6c-87bb-f44d8c27445d","ios":"levelo://app?vid=5f4496a2-dc1f-4c6c-87bb-f44d8c27445d"},"vehicle_type_id":"4","last_reported":1731668843,"current_range_meters":7200,"station_id":"ce4bgr92rcd13ifvqc6g","pricing_plan_id":"cebpf4jnsgd1na2vs0mg"},{"bike_id":"76fda271-4bcd-4529-8397-8074a1eff7fe","system_id":"levelo_inurba_marseille","lat":43.337444,"lon":5.374475,"is_reserved":false,"is_disabled":false,"rental_uris":{"android":"levelo://app?vid=76fda271-4bcd-4529-8397-8074a1eff7fe","ios":"levelo://app?vid=76fda271-4bcd-4529-8397-8074a1eff7fe"},"vehicle_type_id":"4","last_reported":1731668843,"current_range_meters":38400,"station_id":"","pricing_plan_id":"cebpf4jnsgd1na2vs0mg"},{"bike_id":"bef7ca68-0ccd-456c-a245-4471193ed987","system_id":"levelo_inurba_marseille","lat":43.26059,"lon":5.39393,"is_reserved":false,"is_disabled":false,"rental_uris":{"android":"levelo://app?vid=bef7ca68-0ccd-456c-a245-4471193ed987","ios":"levelo://app?vid=bef7ca68-0ccd-456c-a245-4471193ed987"},"vehicle_type_id":"4","last_reported":1731668843,"current_range_meters":38800,"station_id":"ce4bhh92rcd13ifvqfj0","pricing_plan_id":"cebpf4jnsgd1na2vs0mg"},{"bike_id":"7125cda5-6cac-4f0d-b24c-2d801b2955b5","system_id":"levelo_inurba_marseille","lat":43.23191,"lon":5.39972,"is_reserved":false,"is_disabled":false,"rental_uris":{"android":"levelo://app?vid=7125cda5-6cac-4f0d-b24c-2d801b2955b5","ios":"levelo://app?vid=7125cda5-6cac-4f0d-b24c-2d801b2955b5"},"vehicle_type_id":"4","last_reported":1731668843,"current_range_meters":38800,"station_id":"ce4bhn12rcd13ifvqgqg","pricing_plan_id":"cebpf4jnsgd1na2vs0mg"},{"bike_id":"3d3be252-d33c-4f2e-906d-8e4d2ce79c7e","system_id":"levelo_inurba_marseille","lat":43.29783,"lon":5.37089,"is_reserved":false,"is_disabled":false,"rental_uris":{"android":"levelo://app?vid=3d3be252-d33c-4f2e-906d-8e4d2ce79c7e","ios":"levelo://app?vid=3d3be252-d33c-4f2e-906d-8e4d2ce79c7e"},"vehicle_type_id":"4","last_reported":1731668843,"current_range_meters":24400,"station_id":"ce4bgop2rcd13ifvqc1g","pricing_plan_id":"cebpf4jnsgd1na2vs0mg"},{"bike_id":"feeb2549-66ee-4d1f-ad82-775a01c0ec9a","system_id":"levelo_inurba_marseille","lat":43.23155,"lon":5.43714,"is_reserved":false,"is_disabled":false,"rental_uris":{"android":"levelo://app?vid=feeb2549-66ee-4d1f-ad82-775a01c0ec9a","ios":"levelo://app?vid=feeb2549-66ee-4d1f-ad82-775a01c0ec9a"},"vehicle_type_id":"4","last_reported":1731668843,"current_range_meters":33600,"station_id":"ce4bhmp2rcd13ifvqgog","pricing_plan_id":"cebpf4jnsgd1na2vs0mg"},{"bike_id":"6d757fef-4f26-43f9-ac2c-ffab39bf7dae","system_id":"levelo_inurba_marseille","lat":43.32249,"lon":5.36901,"is_reserved":false,"is_disabled":false,"rental_uris":{"android":"levelo://app?vid=6d757fef-4f26-43f9-ac2c-ffab39bf7dae","ios":"levelo://app?vid=6d757fef-4f26-43f9-ac2c-ffab39bf7dae"},"vehicle_type_id":"4","last_reported":1731668843,"current_range_meters":24800,"station_id":"","pricing_plan_id":"cebpf4jnsgd1na2vs0mg"},{"bike_id":"117f5fee-4315-4751-8d44-943ae4c5016b","system_id":"levelo_inurba_marseille","lat":43.29717,"lon":5.37689,"is_reserved":false,"is_disabled":false,"rental_uris":{"android":"levelo://app?vid=117f5fee-4315-4751-8d44-943ae4c5016b","ios":"levelo://app?vid=117f5fee-4315-4751-8d44-943ae4c5016b"},"vehicle_type_id":"4","last_reported":1731668843,"current_range_meters":32800,"station_id":"ce4bgkh2rcd13ifvqbl0","pricing_plan_id":"cebpf4jnsgd1na2vs0mg"},{"bike_id":"1f25b8d6-30a3-4468-9bd0-3dbff4b2f43e","system_id":"levelo_inurba_marseille","lat":43.302449,"lon":5.400816,"is_reserved":false,"is_disabled":false,"rental_uris":{"android":"levelo://app?vid=1f25b8d6-30a3-4468-9bd0-3dbff4b2f43e","ios":"levelo://app?vid=1f25b8d6-30a3-4468-9bd0-3dbff4b2f43e"},"vehicle_type_id":"4","last_reported":1731668843,"current_range_meters":4000,"station_id":"ce4bgvh2rcd13ifvqcs0","pricing_plan_id":"cebpf4jnsgd1na2vs0mg"},{"bike_id":"367ebc1a-3a60-4487-b9c7-b0d4196f051d","system_id":"levelo_inurba_marseille","lat":43.26214,"lon":5.37441,"is_reserved":false,"is_disabled":false,"rental_uris":{"android":"levelo://app?vid=367ebc1a-3a60-4487-b9c7-b0d4196f051d","ios":"levelo://app?vid=367ebc1a-3a60-4487-b9c7-b0d4196f051d"},"vehicle_type_id":"4","last_reported":1731668843,"current_range_meters":34800,"station_id":"ce4bhgp2rcd13ifvqfc0","pricing_plan_id":"cebpf4jnsgd1na2vs0mg"},{"bike_id":"dd63bf8e-f177-4241-a070-eaac67c21eb4","system_id":"levelo_inurba_marseille","lat":43.2511,"lon":5.40321,"is_reserved":false,"is_disabled":false,"rental_uris":{"android":"levelo://app?vid=dd63bf8e-f177-4241-a070-eaac67c21eb4","ios":"levelo://app?vid=dd63bf8e-f177-4241-a070-eaac67c21eb4"},"vehicle_type_id":"4","last_reported":1731668843,"current_range_meters":8800,"station_id":"ce4bhlh2rcd13ifvqgig","pricing_plan_id":"cebpf4jnsgd1na2vs0mg"},{"bike_id":"6fee50f8-5f07-4f9b-861c-a999a668b1ca","system_id":"levelo_inurba_marseille","lat":43.24806,"lon":5.37456,"is_reserved":false,"is_disabled":false,"rental_uris":{"android":"levelo://app?vid=6fee50f8-5f07-4f9b-861c-a999a668b1ca","ios":"levelo://app?vid=6fee50f8-5f07-4f9b-861c-a999a668b1ca"},"vehicle_type_id":"4","last_reported":1731668843,"current_range_meters":36800,"station_id":"ce4bhgp2rcd13ifvqfd0","pricing_plan_id":"cebpf4jnsgd1na2vs0mg"},{"bike_id":"f82d2178-9b38-4bd3-9053-fbe190807c9b","system_id":"levelo_inurba_marseille","lat":43.292236,"lon":5.360745,"is_reserved":false,"is_disabled":false,"rental_uris":{"android":"levelo://app?vid=f82d2178-9b38-4bd3-9053-fbe190807c9b","ios":"levelo://app?vid=f82d2178-9b38-4bd3-9053-fbe190807c9b"},"vehicle_type_id":"4","last_reported":1731668843,"current_range_meters":28400,"station_id":"ce4bhbh2rcd13ifvqeqg","pricing_plan_id":"cebpf4jnsgd1na2vs0mg"},{"bike_id":"22c7e516-51d3-4ccc-8774-565f839d2660","system_id":"levelo_inurba_marseille","lat":43.27169,"lon":5.40991,"is_reserved":false,"is_disabled":false,"rental_uris":{"android":"levelo://app?vid=22c7e516-51d3-4ccc-8774-565f839d2660","ios":"levelo://app?vid=22c7e516-51d3-4ccc-8774-565f839d2660"},"vehicle_type_id":"4","last_reported":1731668843,"current_range_meters":28000,"station_id":"ce4bhl12rcd13ifvqgf0","pricing_plan_id":"cebpf4jnsgd1na2vs0mg"},{"bike_id":"858c964c-9286-411e-b21e-219d3e432e38","system_id":"levelo_inurba_marseille","lat":43.30903,"lon":5.36845,"is_reserved":false,"is_disabled":false,"rental_uris":{"android":"levelo://app?vid=858c964c-9286-411e-b21e-219d3e432e38","ios":"levelo://app?vid=858c964c-9286-411e-b21e-219d3e432e38"},"vehicle_type_id":"4","last_reported":1731668843,"current_range_meters":38400,"station_id":"ce4bgn92rcd13ifvqbvg","pricing_plan_id":"cebpf4jnsgd1na2vs0mg"},{"bike_id":"026259a1-dff4-4245-8deb-aeb3d2e2979d","system_id":"levelo_inurba_marseille","lat":43.24809,"lon":5.37454,"is_reserved":false,"is_disabled":false,"rental_uris":{"android":"levelo://app?vid=026259a1-dff4-4245-8deb-aeb3d2e2979d","ios":"levelo://app?vid=026259a1-dff4-4245-8deb-aeb3d2e2979d"},"vehicle_type_id":"4","last_reported":1731668843,"current_range_meters":14400,"station_id":"ce4bhgh2rcd13ifvqfb0","pricing_plan_id":"cebpf4jnsgd1na2vs0mg"},{"bike_id":"99366b3f-5c8c-4a91-944d-612995f91b89","system_id":"levelo_inurba_marseille","lat":43.240827,"lon":5.37744,"is_reserved":false,"is_disabled":false,"rental_uris":{"android":"levelo://app?vid=99366b3f-5c8c-4a91-944d-612995f91b89","ios":"levelo://app?vid=99366b3f-5c8c-4a91-944d-612995f91b89"},"vehicle_type_id":"4","last_reported":1731668843,"current_range_meters":16000,"station_id":"ce4bhnp2rcd13ifvqgvg","pricing_plan_id":"cebpf4jnsgd1na2vs0mg"},{"bike_id":"c7b7aa2f-9caa-44af-9de1-b9b18dff6b06","system_id":"levelo_inurba_marseille","lat":43.27174,"lon":5.40991,"is_reserved":false,"is_disabled":false,"rental_uris":{"android":"levelo://app?vid=c7b7aa2f-9caa-44af-9de1-b9b18dff6b06","ios":"levelo://app?vid=c7b7aa2f-9caa-44af-9de1-b9b18dff6b06"},"vehicle_type_id":"4","last_reported":1731668843,"current_range_meters":21600,"station_id":"ce4bhl12rcd13ifvqgf0","pricing_plan_id":"cebpf4jnsgd1na2vs0mg"},{"bike_id":"dca62d75-ccb3-4faa-b2bf-2323d87bff1d","system_id":"levelo_inurba_marseille","lat":43.281,"lon":5.37837,"is_reserved":false,"is_disabled":false,"rental_uris":{"android":"levelo://app?vid=dca62d75-ccb3-4faa-b2bf-2323d87bff1d","ios":"levelo://app?vid=dca62d75-ccb3-4faa-b2bf-2323d87bff1d"},"vehicle_type_id":"4","last_reported":1731668843,"current_range_meters":24800,"station_id":"ce4bha12rcd13ifvqee0","pricing_plan_id":"cebpf4jnsgd1na2vs0mg"},{"bike_id":"86948b4d-2c97-4563-8216-0d1928a44532","system_id":"levelo_inurba_marseille","lat":43.30418,"lon":5.4128,"is_reserved":false,"is_disabled":false,"rental_uris":{"android":"levelo://app?vid=86948b4d-2c97-4563-8216-0d1928a44532","ios":"levelo://app?vid=86948b4d-2c97-4563-8216-0d1928a44532"},"vehicle_type_id":"4","last_reported":1731668843,"current_range_meters":11600,"station_id":"ce4bhop2rcd13ifvqh8g","pricing_plan_id":"cebpf4jnsgd1na2vs0mg"},{"bike_id":"65cb16e2-a473-46d4-aca7-b87538c2057b","system_id":"levelo_inurba_marseille","lat":43.23177,"lon":5.39985,"is_reserved":false,"is_disabled":false,"rental_uris":{"android":"levelo://app?vid=65cb16e2-a473-46d4-aca7-b87538c2057b","ios":"levelo://app?vid=65cb16e2-a473-46d4-aca7-b87538c2057b"},"vehicle_type_id":"4","last_reported":1731668843,"current_range_meters":35200,"station_id":"ce4bhn12rcd13ifvqgqg","pricing_plan_id":"cebpf4jnsgd1na2vs0mg"},{"bike_id":"a42726e4-eba9-4d57-bcac-64b157fda479","system_id":"levelo_inurba_marseille","lat":43.30181,"lon":5.36607,"is_reserved":false,"is_disabled":false,"rental_uris":{"android":"levelo://app?vid=a42726e4-eba9-4d57-bcac-64b157fda479","ios":"levelo://app?vid=a42726e4-eba9-4d57-bcac-64b157fda479"},"vehicle_type_id":"4","last_reported":1731668843,"current_range_meters":33200,"station_id":"ce4bgrh2rcd13ifvqc8g","pricing_plan_id":"cebpf4jnsgd1na2vs0mg"},{"bike_id":"0551b7ca-936d-4232-8987-1b2c508f3b79","system_id":"levelo_inurba_marseille","lat":43.31067,"lon":5.38356,"is_reserved":false,"is_disabled":false,"rental_uris":{"android":"levelo://app?vid=0551b7ca-936d-4232-8987-1b2c508f3b79","ios":"levelo://app?vid=0551b7ca-936d-4232-8987-1b2c508f3b79"},"vehicle_type_id":"4","last_reported":1731668843,"current_range_meters":7200,"station_id":"ce4bgv92rcd13ifvqcr0","pricing_plan_id":"cebpf4jnsgd1na2vs0mg"},{"bike_id":"f59a1f3b-c7e2-435c-85b0-b0eec5eb5ce5","system_id":"levelo_inurba_marseille","lat":43.30135,"lon":5.39866,"is_reserved":false,"is_disabled":false,"rental_uris":{"android":"levelo://app?vid=f59a1f3b-c7e2-435c-85b0-b0eec5eb5ce5","ios":"levelo://app?vid=f59a1f3b-c7e2-435c-85b0-b0eec5eb5ce5"},"vehicle_type_id":"4","last_reported":1731668843,"current_range_meters":36400,"station_id":"ce4bh0h2rcd13ifvqd40","pricing_plan_id":"cebpf4jnsgd1na2vs0mg"},{"bike_id":"57055b96-8ac2-421b-903c-03d8dee7e518","system_id":"levelo_inurba_marseille","lat":43.28268,"lon":5.35068,"is_reserved":false,"is_disabled":false,"rental_uris":{"android":"levelo://app?vid=57055b96-8ac2-421b-903c-03d8dee7e518","ios":"levelo://app?vid=57055b96-8ac2-421b-903c-03d8dee7e518"},"vehicle_type_id":"4","last_reported":1731668843,"current_range_meters":25200,"station_id":"ce4bhbp2rcd13ifvqerg","pricing_plan_id":"cebpf4jnsgd1na2vs0mg"},{"bike_id":"b1a9cb73-d7a1-493e-9b85-98d572751a61","system_id":"levelo_inurba_marseille","lat":43.29302,"lon":5.37461,"is_reserved":false,"is_disabled":false,"rental_uris":{"android":"levelo://app?vid=b1a9cb73-d7a1-493e-9b85-98d572751a61","ios":"levelo://app?vid=b1a9cb73-d7a1-493e-9b85-98d572751a61"},"vehicle_type_id":"4","last_reported":1731668843,"current_range_meters":3200,"station_id":"ce4bgi12rcd13ifvqb70","pricing_plan_id":"cebpf4jnsgd1na2vs0mg"},{"bike_id":"ad9e5643-959a-4636-935c-2a6093955f09","system_id":"levelo_inurba_marseille","lat":43.26193,"lon":5.37922,"is_reserved":false,"is_disabled":false,"rental_uris":{"android":"levelo://app?vid=ad9e5643-959a-4636-935c-2a6093955f09","ios":"levelo://app?vid=ad9e5643-959a-4636-935c-2a6093955f09"},"vehicle_type_id":"4","last_reported":1731668843,"current_range_meters":38800,"station_id":"ce4bhjp2rcd13ifvqg90","pricing_plan_id":"cebpf4jnsgd1na2vs0mg"},{"bike_id":"ee81db78-b3f4-442d-8188-ce038d506b62","system_id":"levelo_inurba_marseille","lat":43.27372,"lon":5.3627,"is_reserved":false,"is_disabled":false,"rental_uris":{"android":"levelo://app?vid=ee81db78-b3f4-442d-8188-ce038d506b62","ios":"levelo://app?vid=ee81db78-b3f4-442d-8188-ce038d506b62"},"vehicle_type_id":"4","last_reported":1731668843,"current_range_meters":4400,"station_id":"ce4bhbh2rcd13ifvqeo0","pricing_plan_id":"cebpf4jnsgd1na2vs0mg"},{"bike_id":"4bbf1464-43bf-48c9-b23b-4f5193da7fdc","system_id":"levelo_inurba_marseille","lat":43.27971,"lon":5.38735,"is_reserved":false,"is_disabled":false,"rental_uris":{"android":"levelo://app?vid=4bbf1464-43bf-48c9-b23b-4f5193da7fdc","ios":"levelo://app?vid=4bbf1464-43bf-48c9-b23b-4f5193da7fdc"},"vehicle_type_id":"4","last_reported":1731668843,"current_range_meters":28400,"station_id":"ce4bhg12rcd13ifvqf80","pricing_plan_id":"cebpf4jnsgd1na2vs0mg"},{"bike_id":"8aea6c1e-1b4f-43f7-bf3e-fc2d652c73c6","system_id":"levelo_inurba_marseille","lat":43.25868,"lon":5.399,"is_reserved":false,"is_disabled":false,"rental_uris":{"android":"levelo://app?vid=8aea6c1e-1b4f-43f7-bf3e-fc2d652c73c6","ios":"levelo://app?vid=8aea6c1e-1b4f-43f7-bf3e-fc2d652c73c6"},"vehicle_type_id":"4","last_reported":1731668843,"current_range_meters":38800,"station_id":"ce4bhl92rcd13ifvqghg","pricing_plan_id":"cebpf4jnsgd1na2vs0mg"},{"bike_id":"98091770-dcc5-4a56-8220-78a646028af1","system_id":"levelo_inurba_marseille","lat":43.26954,"lon":5.38632,"is_reserved":false,"is_disabled":false,"rental_uris":{"android":"levelo://app?vid=98091770-dcc5-4a56-8220-78a646028af1","ios":"levelo://app?vid=98091770-dcc5-4a56-8220-78a646028af1"},"vehicle_type_id":"4","last_reported":1731668843,"current_range_meters":35600,"station_id":"ce4bhh92rcd13ifvqfh0","pricing_plan_id":"cebpf4jnsgd1na2vs0mg"},{"bike_id":"b54f4471-f146-477a-ade3-58e1dea1b85e","system_id":"levelo_inurba_marseille","lat":43.337444,"lon":5.374475,"is_reserved":false,"is_disabled":false,"rental_uris":{"android":"levelo://app?vid=b54f4471-f146-477a-ade3-58e1dea1b85e","ios":"levelo://app?vid=b54f4471-f146-477a-ade3-58e1dea1b85e"},"vehicle_type_id":"4","last_reported":1731668843,"current_range_meters":38000,"station_id":"","pricing_plan_id":"cebpf4jnsgd1na2vs0mg"},{"bike_id":"6d6c2938-95fb-4e6b-911a-cc31cf922297","system_id":"levelo_inurba_marseille","lat":43.24078,"lon":5.37748,"is_reserved":false,"is_disabled":false,"rental_uris":{"android":"levelo://app?vid=6d6c2938-95fb-4e6b-911a-cc31cf922297","ios":"levelo://app?vid=6d6c2938-95fb-4e6b-911a-cc31cf922297"},"vehicle_type_id":"4","last_reported":1731668843,"current_range_meters":12400,"station_id":"ce4bhnp2rcd13ifvqgvg","pricing_plan_id":"cebpf4jnsgd1na2vs0mg"},{"bike_id":"e270c34e-9c66-4ca5-81d1-0c1270da9c85","system_id":"levelo_inurba_marseille","lat":43.26947,"lon":5.38626,"is_reserved":false,"is_disabled":false,"rental_uris":{"android":"levelo://app?vid=e270c34e-9c66-4ca5-81d1-0c1270da9c85","ios":"levelo://app?vid=e270c34e-9c66-4ca5-81d1-0c1270da9c85"},"vehicle_type_id":"4","last_reported":1731668843,"current_range_meters":38800,"station_id":"ce4bhh92rcd13ifvqfh0","pricing_plan_id":"cebpf4jnsgd1na2vs0mg"},{"bike_id":"3801d79e-aba9-453c-9e83-33f3550a7c41","system_id":"levelo_inurba_marseille","lat":43.24389,"lon":5.37053,"is_reserved":false,"is_disabled":false,"rental_uris":{"android":"levelo://app?vid=3801d79e-aba9-453c-9e83-33f3550a7c41","ios":"levelo://app?vid=3801d79e-aba9-453c-9e83-33f3550a7c41"},"vehicle_type_id":"4","last_reported":1731668843,"current_range_meters":38000,"station_id":"ce4bhhh2rcd13ifvqfk0","pricing_plan_id":"cebpf4jnsgd1na2vs0mg"},{"bike_id":"792531a3-4da6-4082-bd0a-16451cbb2558","system_id":"levelo_inurba_marseille","lat":43.26026,"lon":5.3755,"is_reserved":false,"is_disabled":false,"rental_uris":{"android":"levelo://app?vid=792531a3-4da6-4082-bd0a-16451cbb2558","ios":"levelo://app?vid=792531a3-4da6-4082-bd0a-16451cbb2558"},"vehicle_type_id":"4","last_reported":1731668843,"current_range_meters":22400,"station_id":"ce4bhgh2rcd13ifvqfa0","pricing_plan_id":"cebpf4jnsgd1na2vs0mg"},{"bike_id":"805cfe6b-be44-4949-bab5-57b1ce8478a4","system_id":"levelo_inurba_marseille","lat":43.33752,"lon":5.37459,"is_reserved":false,"is_disabled":false,"rental_uris":{"android":"levelo://app?vid=805cfe6b-be44-4949-bab5-57b1ce8478a4","ios":"levelo://app?vid=805cfe6b-be44-4949-bab5-57b1ce8478a4"},"vehicle_type_id":"4","last_reported":1731668843,"current_range_meters":34000,"station_id":"","pricing_plan_id":"cebpf4jnsgd1na2vs0mg"},{"bike_id":"f87cf030-2c24-4f87-b7a5-9e7172254a78","system_id":"levelo_inurba_marseille","lat":43.28412,"lon":5.3499,"is_reserved":false,"is_disabled":false,"rental_uris":{"android":"levelo://app?vid=f87cf030-2c24-4f87-b7a5-9e7172254a78","ios":"levelo://app?vid=f87cf030-2c24-4f87-b7a5-9e7172254a78"},"vehicle_type_id":"4","last_reported":1731668843,"current_range_meters":30400,"station_id":"ce4bhbh2rcd13ifvqepg","pricing_plan_id":"cebpf4jnsgd1na2vs0mg"},{"bike_id":"748c6f07-fa3a-4ce6-9fcc-ceefd197ab4d","system_id":"levelo_inurba_marseille","lat":43.28418,"lon":5.34972,"is_reserved":false,"is_disabled":false,"rental_uris":{"android":"levelo://app?vid=748c6f07-fa3a-4ce6-9fcc-ceefd197ab4d","ios":"levelo://app?vid=748c6f07-fa3a-4ce6-9fcc-ceefd197ab4d"},"vehicle_type_id":"4","last_reported":1731668843,"current_range_meters":34000,"station_id":"ce4bhbh2rcd13ifvqepg","pricing_plan_id":"cebpf4jnsgd1na2vs0mg"},{"bike_id":"c0ac1168-21ff-4da4-a13f-e813768e4b83","system_id":"levelo_inurba_marseille","lat":43.34151,"lon":5.40906,"is_reserved":false,"is_disabled":false,"rental_uris":{"android":"levelo://app?vid=c0ac1168-21ff-4da4-a13f-e813768e4b83","ios":"levelo://app?vid=c0ac1168-21ff-4da4-a13f-e813768e4b83"},"vehicle_type_id":"4","last_reported":1731668843,"current_range_meters":38800,"station_id":"ce4bhqh2rcd13ifvqhlg","pricing_plan_id":"cebpf4jnsgd1na2vs0mg"},{"bike_id":"1e1616bd-3ec0-47d4-af3e-5de65aaf18f8","system_id":"levelo_inurba_marseille","lat":43.28269,"lon":5.35073,"is_reserved":false,"is_disabled":false,"rental_uris":{"android":"levelo://app?vid=1e1616bd-3ec0-47d4-af3e-5de65aaf18f8","ios":"levelo://app?vid=1e1616bd-3ec0-47d4-af3e-5de65aaf18f8"},"vehicle_type_id":"4","last_reported":1731668843,"current_range_meters":39200,"station_id":"ce4bhbp2rcd13ifvqerg","pricing_plan_id":"cebpf4jnsgd1na2vs0mg"},{"bike_id":"d1425d99-0c44-479d-81e8-1035fed054e4","system_id":"levelo_inurba_marseille","lat":43.33743,"lon":5.37436,"is_reserved":false,"is_disabled":false,"rental_uris":{"android":"levelo://app?vid=d1425d99-0c44-479d-81e8-1035fed054e4","ios":"levelo://app?vid=d1425d99-0c44-479d-81e8-1035fed054e4"},"vehicle_type_id":"4","last_reported":1731668843,"current_range_meters":37600,"station_id":"","pricing_plan_id":"cebpf4jnsgd1na2vs0mg"},{"bike_id":"a115b225-be87-4055-8030-7eb19937e4b5","system_id":"levelo_inurba_marseille","lat":43.29896,"lon":5.43667,"is_reserved":false,"is_disabled":false,"rental_uris":{"android":"levelo://app?vid=a115b225-be87-4055-8030-7eb19937e4b5","ios":"levelo://app?vid=a115b225-be87-4055-8030-7eb19937e4b5"},"vehicle_type_id":"4","last_reported":1731668843,"current_range_meters":29600,"station_id":"ce4bhpp2rcd13ifvqhfg","pricing_plan_id":"cebpf4jnsgd1na2vs0mg"},{"bike_id":"ca655f3b-8380-4045-b3f8-8acaa0e83ede","system_id":"levelo_inurba_marseille","lat":43.33745,"lon":5.37452,"is_reserved":false,"is_disabled":false,"rental_uris":{"android":"levelo://app?vid=ca655f3b-8380-4045-b3f8-8acaa0e83ede","ios":"levelo://app?vid=ca655f3b-8380-4045-b3f8-8acaa0e83ede"},"vehicle_type_id":"4","last_reported":1731668843,"current_range_meters":36000,"station_id":"","pricing_plan_id":"cebpf4jnsgd1na2vs0mg"},{"bike_id":"0d4013f3-b8ef-4f3b-8c33-781af13c4c04","system_id":"levelo_inurba_marseille","lat":43.31132,"lon":5.3778,"is_reserved":false,"is_disabled":false,"rental_uris":{"android":"levelo://app?vid=0d4013f3-b8ef-4f3b-8c33-781af13c4c04","ios":"levelo://app?vid=0d4013f3-b8ef-4f3b-8c33-781af13c4c04"},"vehicle_type_id":"4","last_reported":1731668843,"current_range_meters":28800,"station_id":"ce4bgrp2rcd13ifvqc9g","pricing_plan_id":"cebpf4jnsgd1na2vs0mg"},{"bike_id":"20359f26-dcf7-429d-9bc3-462ee61536c6","system_id":"levelo_inurba_marseille","lat":43.28111,"lon":5.40607,"is_reserved":false,"is_disabled":false,"rental_uris":{"android":"levelo://app?vid=20359f26-dcf7-429d-9bc3-462ee61536c6","ios":"levelo://app?vid=20359f26-dcf7-429d-9bc3-462ee61536c6"},"vehicle_type_id":"4","last_reported":1731668843,"current_range_meters":16000,"station_id":"","pricing_plan_id":"cebpf4jnsgd1na2vs0mg"},{"bike_id":"a6b8c285-acc9-4039-9531-1aae39136a33","system_id":"levelo_inurba_marseille","lat":43.312042,"lon":5.367348,"is_reserved":false,"is_disabled":false,"rental_uris":{"android":"levelo://app?vid=a6b8c285-acc9-4039-9531-1aae39136a33","ios":"levelo://app?vid=a6b8c285-acc9-4039-9531-1aae39136a33"},"vehicle_type_id":"4","last_reported":1731668843,"current_range_meters":19600,"station_id":"","pricing_plan_id":"cebpf4jnsgd1na2vs0mg"},{"bike_id":"43a74946-80ad-4604-b753-c4e098de4814","system_id":"levelo_inurba_marseille","lat":43.33723,"lon":5.39179,"is_reserved":false,"is_disabled":false,"rental_uris":{"android":"levelo://app?vid=43a74946-80ad-4604-b753-c4e098de4814","ios":"levelo://app?vid=43a74946-80ad-4604-b753-c4e098de4814"},"vehicle_type_id":"4","last_reported":1731668843,"current_range_meters":23200,"station_id":"ce4bhr92rcd13ifvqhsg","pricing_plan_id":"cebpf4jnsgd1na2vs0mg"},{"bike_id":"aad3a77e-d1b9-4a1e-a2c1-653e164926e9","system_id":"levelo_inurba_marseille","lat":43.26928,"lon":5.38922,"is_reserved":false,"is_disabled":false,"rental_uris":{"android":"levelo://app?vid=aad3a77e-d1b9-4a1e-a2c1-653e164926e9","ios":"levelo://app?vid=aad3a77e-d1b9-4a1e-a2c1-653e164926e9"},"vehicle_type_id":"4","last_reported":1731668843,"current_range_meters":36400,"station_id":"ce4bhhh2rcd13ifvqfl0","pricing_plan_id":"cebpf4jnsgd1na2vs0mg"},{"bike_id":"4f28073a-11da-4f90-b1b3-410149adccc7","system_id":"levelo_inurba_marseille","lat":43.29984,"lon":5.37173,"is_reserved":false,"is_disabled":false,"rental_uris":{"android":"levelo://app?vid=4f28073a-11da-4f90-b1b3-410149adccc7","ios":"levelo://app?vid=4f28073a-11da-4f90-b1b3-410149adccc7"},"vehicle_type_id":"4","last_reported":1731668843,"current_range_meters":20800,"station_id":"ce4bgr92rcd13ifvqc7g","pricing_plan_id":"cebpf4jnsgd1na2vs0mg"},{"bike_id":"15462ef7-c093-4c55-89a2-6a72e5084dc1","system_id":"levelo_inurba_marseille","lat":43.337444,"lon":5.374475,"is_reserved":false,"is_disabled":false,"rental_uris":{"android":"levelo://app?vid=15462ef7-c093-4c55-89a2-6a72e5084dc1","ios":"levelo://app?vid=15462ef7-c093-4c55-89a2-6a72e5084dc1"},"vehicle_type_id":"4","last_reported":1731668843,"current_range_meters":22000,"station_id":"","pricing_plan_id":"cebpf4jnsgd1na2vs0mg"},{"bike_id":"fb99fb82-1c03-4526-b862-280bcf8ac70c","system_id":"levelo_inurba_marseille","lat":43.23966,"lon":5.3664,"is_reserved":false,"is_disabled":false,"rental_uris":{"android":"levelo://app?vid=fb99fb82-1c03-4526-b862-280bcf8ac70c","ios":"levelo://app?vid=fb99fb82-1c03-4526-b862-280bcf8ac70c"},"vehicle_type_id":"4","last_reported":1731668843,"current_range_meters":23200,"station_id":"ce4bhi12rcd13ifvqfp0","pricing_plan_id":"cebpf4jnsgd1na2vs0mg"},{"bike_id":"e8312b5c-f2d3-4384-bc25-53e8fdd11988","system_id":"levelo_inurba_marseille","lat":43.313481,"lon":5.367149,"is_reserved":false,"is_disabled":false,"rental_uris":{"android":"levelo://app?vid=e8312b5c-f2d3-4384-bc25-53e8fdd11988","ios":"levelo://app?vid=e8312b5c-f2d3-4384-bc25-53e8fdd11988"},"vehicle_type_id":"4","last_reported":1731668843,"current_range_meters":11200,"station_id":"ce4bgr92rcd13ifvqc6g","pricing_plan_id":"cebpf4jnsgd1na2vs0mg"},{"bike_id":"1ae8fe75-00ad-479b-a755-74d45d76bfbe","system_id":"levelo_inurba_marseille","lat":43.24174,"lon":5.36393,"is_reserved":false,"is_disabled":false,"rental_uris":{"android":"levelo://app?vid=1ae8fe75-00ad-479b-a755-74d45d76bfbe","ios":"levelo://app?vid=1ae8fe75-00ad-479b-a755-74d45d76bfbe"},"vehicle_type_id":"4","last_reported":1731668843,"current_range_meters":12000,"station_id":"cpo36qri1sfpv3e86is0","pricing_plan_id":"cebpf4jnsgd1na2vs0mg"},{"bike_id":"b1d217cb-6370-4db2-b58b-9ca4bc6ade68","system_id":"levelo_inurba_marseille","lat":43.29939,"lon":5.36538,"is_reserved":false,"is_disabled":false,"rental_uris":{"android":"levelo://app?vid=b1d217cb-6370-4db2-b58b-9ca4bc6ade68","ios":"levelo://app?vid=b1d217cb-6370-4db2-b58b-9ca4bc6ade68"},"vehicle_type_id":"4","last_reported":1731668843,"current_range_meters":27200,"station_id":"ce4bgm92rcd13ifvqbr0","pricing_plan_id":"cebpf4jnsgd1na2vs0mg"},{"bike_id":"cbb08c64-c5e8-49f3-9fd7-caab08dd5777","system_id":"levelo_inurba_marseille","lat":43.29523,"lon":5.37507,"is_reserved":false,"is_disabled":false,"rental_uris":{"android":"levelo://app?vid=cbb08c64-c5e8-49f3-9fd7-caab08dd5777","ios":"levelo://app?vid=cbb08c64-c5e8-49f3-9fd7-caab08dd5777"},"vehicle_type_id":"4","last_reported":1731668843,"current_range_meters":36800,"station_id":"ce4bgkp2rcd13ifvqbmg","pricing_plan_id":"cebpf4jnsgd1na2vs0mg"},{"bike_id":"92ac4858-87d6-4ceb-8f6e-004635a816a8","system_id":"levelo_inurba_marseille","lat":43.2779,"lon":5.40727,"is_reserved":false,"is_disabled":false,"rental_uris":{"android":"levelo://app?vid=92ac4858-87d6-4ceb-8f6e-004635a816a8","ios":"levelo://app?vid=92ac4858-87d6-4ceb-8f6e-004635a816a8"},"vehicle_type_id":"4","last_reported":1731668843,"current_range_meters":36800,"station_id":"ce4bhnh2rcd13ifvqgtg","pricing_plan_id":"cebpf4jnsgd1na2vs0mg"},{"bike_id":"16c431de-b128-4380-a727-8a0a0eba5b1b","system_id":"levelo_inurba_marseille","lat":43.24389,"lon":5.37048,"is_reserved":false,"is_disabled":false,"rental_uris":{"android":"levelo://app?vid=16c431de-b128-4380-a727-8a0a0eba5b1b","ios":"levelo://app?vid=16c431de-b128-4380-a727-8a0a0eba5b1b"},"vehicle_type_id":"4","last_reported":1731668843,"current_range_meters":39200,"station_id":"ce4bhhh2rcd13ifvqfk0","pricing_plan_id":"cebpf4jnsgd1na2vs0mg"},{"bike_id":"d37a5777-a5f5-4b7f-b7f5-a1dae307da91","system_id":"levelo_inurba_marseille","lat":43.23188,"lon":5.35565,"is_reserved":false,"is_disabled":false,"rental_uris":{"android":"levelo://app?vid=d37a5777-a5f5-4b7f-b7f5-a1dae307da91","ios":"levelo://app?vid=d37a5777-a5f5-4b7f-b7f5-a1dae307da91"},"vehicle_type_id":"4","last_reported":1731668843,"current_range_meters":36800,"station_id":"ce4bhu92rcd13ifvqi70","pricing_plan_id":"cebpf4jnsgd1na2vs0mg"},{"bike_id":"9469e701-2829-4e46-90b0-6fa86d889cfb","system_id":"levelo_inurba_marseille","lat":43.31363,"lon":5.38488,"is_reserved":false,"is_disabled":false,"rental_uris":{"android":"levelo://app?vid=9469e701-2829-4e46-90b0-6fa86d889cfb","ios":"levelo://app?vid=9469e701-2829-4e46-90b0-6fa86d889cfb"},"vehicle_type_id":"4","last_reported":1731668843,"current_range_meters":38000,"station_id":"ce4bgt92rcd13ifvqcf0","pricing_plan_id":"cebpf4jnsgd1na2vs0mg"},{"bike_id":"f5a686f7-b1d1-4ad3-8df3-5924f7d231e7","system_id":"levelo_inurba_marseille","lat":43.3054,"lon":5.36534,"is_reserved":false,"is_disabled":false,"rental_uris":{"android":"levelo://app?vid=f5a686f7-b1d1-4ad3-8df3-5924f7d231e7","ios":"levelo://app?vid=f5a686f7-b1d1-4ad3-8df3-5924f7d231e7"},"vehicle_type_id":"4","last_reported":1731668843,"current_range_meters":28400,"station_id":"ce4bgs12rcd13ifvqcag","pricing_plan_id":"cebpf4jnsgd1na2vs0mg"},{"bike_id":"d68c2883-200d-45fc-a63f-149f16accfbb","system_id":"levelo_inurba_marseille","lat":43.2418,"lon":5.39729,"is_reserved":false,"is_disabled":false,"rental_uris":{"android":"levelo://app?vid=d68c2883-200d-45fc-a63f-149f16accfbb","ios":"levelo://app?vid=d68c2883-200d-45fc-a63f-149f16accfbb"},"vehicle_type_id":"4","last_reported":1731668843,"current_range_meters":8800,"station_id":"ce4bhn12rcd13ifvqgpg","pricing_plan_id":"cebpf4jnsgd1na2vs0mg"},{"bike_id":"674b0e8f-8c9e-4c11-a204-160fb5dcf762","system_id":"levelo_inurba_marseille","lat":43.24388,"lon":5.37054,"is_reserved":false,"is_disabled":false,"rental_uris":{"android":"levelo://app?vid=674b0e8f-8c9e-4c11-a204-160fb5dcf762","ios":"levelo://app?vid=674b0e8f-8c9e-4c11-a204-160fb5dcf762"},"vehicle_type_id":"4","last_reported":1731668843,"current_range_meters":38800,"station_id":"ce4bhhh2rcd13ifvqfk0","pricing_plan_id":"cebpf4jnsgd1na2vs0mg"},{"bike_id":"139d00fc-e67b-449a-9fd4-0db893561dc2","system_id":"levelo_inurba_marseille","lat":43.33777,"lon":5.37471,"is_reserved":false,"is_disabled":false,"rental_uris":{"android":"levelo://app?vid=139d00fc-e67b-449a-9fd4-0db893561dc2","ios":"levelo://app?vid=139d00fc-e67b-449a-9fd4-0db893561dc2"},"vehicle_type_id":"4","last_reported":1731668843,"current_range_meters":36400,"station_id":"","pricing_plan_id":"cebpf4jnsgd1na2vs0mg"},{"bike_id":"faeb0115-051f-4da1-be55-f858aa021f49","system_id":"levelo_inurba_marseille","lat":43.27997,"lon":5.41665,"is_reserved":false,"is_disabled":false,"rental_uris":{"android":"levelo://app?vid=faeb0115-051f-4da1-be55-f858aa021f49","ios":"levelo://app?vid=faeb0115-051f-4da1-be55-f858aa021f49"},"vehicle_type_id":"4","last_reported":1731668843,"current_range_meters":16800,"station_id":"ce4bho12rcd13ifvqh1g","pricing_plan_id":"cebpf4jnsgd1na2vs0mg"},{"bike_id":"675ddeda-99b4-4352-8fef-0748e7e39fe8","system_id":"levelo_inurba_marseille","lat":43.27808,"lon":5.40706,"is_reserved":false,"is_disabled":false,"rental_uris":{"android":"levelo://app?vid=675ddeda-99b4-4352-8fef-0748e7e39fe8","ios":"levelo://app?vid=675ddeda-99b4-4352-8fef-0748e7e39fe8"},"vehicle_type_id":"4","last_reported":1731668843,"current_range_meters":28800,"station_id":"ce4bhnh2rcd13ifvqgtg","pricing_plan_id":"cebpf4jnsgd1na2vs0mg"},{"bike_id":"d6c2c992-3762-425d-b7d1-06ac2a165328","system_id":"levelo_inurba_marseille","lat":43.28702,"lon":5.39977,"is_reserved":false,"is_disabled":false,"rental_uris":{"android":"levelo://app?vid=d6c2c992-3762-425d-b7d1-06ac2a165328","ios":"levelo://app?vid=d6c2c992-3762-425d-b7d1-06ac2a165328"},"vehicle_type_id":"4","last_reported":1731668843,"current_range_meters":3200,"station_id":"ce4bho92rcd13ifvqh3g","pricing_plan_id":"cebpf4jnsgd1na2vs0mg"},{"bike_id":"3aed1cdd-ab76-409d-b9f9-44e521b0db1b","system_id":"levelo_inurba_marseille","lat":43.27942,"lon":5.41045,"is_reserved":false,"is_disabled":false,"rental_uris":{"android":"levelo://app?vid=3aed1cdd-ab76-409d-b9f9-44e521b0db1b","ios":"levelo://app?vid=3aed1cdd-ab76-409d-b9f9-44e521b0db1b"},"vehicle_type_id":"4","last_reported":1731668843,"current_range_meters":36800,"station_id":"ce4bhnp2rcd13ifvqh0g","pricing_plan_id":"cebpf4jnsgd1na2vs0mg"},{"bike_id":"98121d5f-01e5-45e8-a04a-1b8c07d4a29c","system_id":"levelo_inurba_marseille","lat":43.23962,"lon":5.36629,"is_reserved":false,"is_disabled":false,"rental_uris":{"android":"levelo://app?vid=98121d5f-01e5-45e8-a04a-1b8c07d4a29c","ios":"levelo://app?vid=98121d5f-01e5-45e8-a04a-1b8c07d4a29c"},"vehicle_type_id":"4","last_reported":1731668843,"current_range_meters":14000,"station_id":"ce4bhi12rcd13ifvqfp0","pricing_plan_id":"cebpf4jnsgd1na2vs0mg"},{"bike_id":"a2093831-6093-4959-a0f7-dab6a243ed02","system_id":"levelo_inurba_marseille","lat":43.31217,"lon":5.36867,"is_reserved":false,"is_disabled":false,"rental_uris":{"android":"levelo://app?vid=a2093831-6093-4959-a0f7-dab6a243ed02","ios":"levelo://app?vid=a2093831-6093-4959-a0f7-dab6a243ed02"},"vehicle_type_id":"4","last_reported":1731668843,"current_range_meters":38800,"station_id":"ce4bgl92rcd13ifvqbq0","pricing_plan_id":"cebpf4jnsgd1na2vs0mg"},{"bike_id":"f63c9df5-0cbc-418b-b1d4-28657835dd91","system_id":"levelo_inurba_marseille","lat":43.29556,"lon":5.42292,"is_reserved":false,"is_disabled":false,"rental_uris":{"android":"levelo://app?vid=f63c9df5-0cbc-418b-b1d4-28657835dd91","ios":"levelo://app?vid=f63c9df5-0cbc-418b-b1d4-28657835dd91"},"vehicle_type_id":"4","last_reported":1731668843,"current_range_meters":38000,"station_id":"ce4bhph2rcd13ifvqhdg","pricing_plan_id":"cebpf4jnsgd1na2vs0mg"},{"bike_id":"2f1efe36-41b2-4a6f-aa98-b326b5712fe6","system_id":"levelo_inurba_marseille","lat":43.299,"lon":5.4366,"is_reserved":false,"is_disabled":false,"rental_uris":{"android":"levelo://app?vid=2f1efe36-41b2-4a6f-aa98-b326b5712fe6","ios":"levelo://app?vid=2f1efe36-41b2-4a6f-aa98-b326b5712fe6"},"vehicle_type_id":"4","last_reported":1731668843,"current_range_meters":24800,"station_id":"ce4bhpp2rcd13ifvqhfg","pricing_plan_id":"cebpf4jnsgd1na2vs0mg"},{"bike_id":"f765df4a-0462-477c-989d-67c0bff36300","system_id":"levelo_inurba_marseille","lat":43.26685,"lon":5.38267,"is_reserved":false,"is_disabled":false,"rental_uris":{"android":"levelo://app?vid=f765df4a-0462-477c-989d-67c0bff36300","ios":"levelo://app?vid=f765df4a-0462-477c-989d-67c0bff36300"},"vehicle_type_id":"4","last_reported":1731668843,"current_range_meters":38800,"station_id":"ce4bhg92rcd13ifvqf90","pricing_plan_id":"cebpf4jnsgd1na2vs0mg"},{"bike_id":"18136422-94ae-439f-a368-49f1093278a7","system_id":"levelo_inurba_marseille","lat":43.30091,"lon":5.39084,"is_reserved":false,"is_disabled":false,"rental_uris":{"android":"levelo://app?vid=18136422-94ae-439f-a368-49f1093278a7","ios":"levelo://app?vid=18136422-94ae-439f-a368-49f1093278a7"},"vehicle_type_id":"4","last_reported":1731668843,"current_range_meters":11200,"station_id":"ce4bh192rcd13ifvqdb0","pricing_plan_id":"cebpf4jnsgd1na2vs0mg"},{"bike_id":"4af956a5-31d2-4098-9c43-756e35b16f3b","system_id":"levelo_inurba_marseille","lat":43.32108,"lon":5.3678,"is_reserved":false,"is_disabled":false,"rental_uris":{"android":"levelo://app?vid=4af956a5-31d2-4098-9c43-756e35b16f3b","ios":"levelo://app?vid=4af956a5-31d2-4098-9c43-756e35b16f3b"},"vehicle_type_id":"4","last_reported":1731668843,"current_range_meters":28400,"station_id":"ce4bhrh2rcd13ifvqhug","pricing_plan_id":"cebpf4jnsgd1na2vs0mg"},{"bike_id":"6d6992bf-ade3-4a22-a168-306dafdc4544","system_id":"levelo_inurba_marseille","lat":43.2417,"lon":5.364,"is_reserved":false,"is_disabled":false,"rental_uris":{"android":"levelo://app?vid=6d6992bf-ade3-4a22-a168-306dafdc4544","ios":"levelo://app?vid=6d6992bf-ade3-4a22-a168-306dafdc4544"},"vehicle_type_id":"4","last_reported":1731668843,"current_range_meters":38000,"station_id":"cpo36qri1sfpv3e86is0","pricing_plan_id":"cebpf4jnsgd1na2vs0mg"},{"bike_id":"1fc3565e-af2e-473d-b0f7-bbe49e97e3b8","system_id":"levelo_inurba_marseille","lat":43.34148,"lon":5.40901,"is_reserved":false,"is_disabled":false,"rental_uris":{"android":"levelo://app?vid=1fc3565e-af2e-473d-b0f7-bbe49e97e3b8","ios":"levelo://app?vid=1fc3565e-af2e-473d-b0f7-bbe49e97e3b8"},"vehicle_type_id":"4","last_reported":1731668843,"current_range_meters":38800,"station_id":"ce4bhqh2rcd13ifvqhlg","pricing_plan_id":"cebpf4jnsgd1na2vs0mg"},{"bike_id":"5f8fa7c2-d42a-4189-a414-cc472e39165c","system_id":"levelo_inurba_marseille","lat":43.26202,"lon":5.37925,"is_reserved":false,"is_disabled":false,"rental_uris":{"android":"levelo://app?vid=5f8fa7c2-d42a-4189-a414-cc472e39165c","ios":"levelo://app?vid=5f8fa7c2-d42a-4189-a414-cc472e39165c"},"vehicle_type_id":"4","last_reported":1731668843,"current_range_meters":38000,"station_id":"ce4bhjp2rcd13ifvqg90","pricing_plan_id":"cebpf4jnsgd1na2vs0mg"},{"bike_id":"1707cb1e-404f-449a-8ec1-810d24d3f970","system_id":"levelo_inurba_marseille","lat":43.23185,"lon":5.39975,"is_reserved":false,"is_disabled":false,"rental_uris":{"android":"levelo://app?vid=1707cb1e-404f-449a-8ec1-810d24d3f970","ios":"levelo://app?vid=1707cb1e-404f-449a-8ec1-810d24d3f970"},"vehicle_type_id":"4","last_reported":1731668843,"current_range_meters":30400,"station_id":"ce4bhn12rcd13ifvqgqg","pricing_plan_id":"cebpf4jnsgd1na2vs0mg"},{"bike_id":"b5018252-9a31-4103-8ef9-7a0d549ed8b7","system_id":"levelo_inurba_marseille","lat":43.26069,"lon":5.39401,"is_reserved":false,"is_disabled":false,"rental_uris":{"android":"levelo://app?vid=b5018252-9a31-4103-8ef9-7a0d549ed8b7","ios":"levelo://app?vid=b5018252-9a31-4103-8ef9-7a0d549ed8b7"},"vehicle_type_id":"4","last_reported":1731668843,"current_range_meters":28400,"station_id":"ce4bhh92rcd13ifvqfj0","pricing_plan_id":"cebpf4jnsgd1na2vs0mg"},{"bike_id":"12a67ae4-4d45-4c85-9785-81ace7f78187","system_id":"levelo_inurba_marseille","lat":43.31359,"lon":5.38484,"is_reserved":false,"is_disabled":false,"rental_uris":{"android":"levelo://app?vid=12a67ae4-4d45-4c85-9785-81ace7f78187","ios":"levelo://app?vid=12a67ae4-4d45-4c85-9785-81ace7f78187"},"vehicle_type_id":"4","last_reported":1731668843,"current_range_meters":28400,"station_id":"ce4bgt92rcd13ifvqcf0","pricing_plan_id":"cebpf4jnsgd1na2vs0mg"},{"bike_id":"261bd1c0-8f1f-4856-9305-6253e1b05152","system_id":"levelo_inurba_marseille","lat":43.29412,"lon":5.38621,"is_reserved":false,"is_disabled":false,"rental_uris":{"android":"levelo://app?vid=261bd1c0-8f1f-4856-9305-6253e1b05152","ios":"levelo://app?vid=261bd1c0-8f1f-4856-9305-6253e1b05152"},"vehicle_type_id":"4","last_reported":1731668843,"current_range_meters":32000,"station_id":"ce4bh2h2rcd13ifvqdh0","pricing_plan_id":"cebpf4jnsgd1na2vs0mg"},{"bike_id":"ff273380-c91d-4de0-97f4-4e62bfd1e6c1","system_id":"levelo_inurba_marseille","lat":43.29649,"lon":5.37648,"is_reserved":false,"is_disabled":false,"rental_uris":{"android":"levelo://app?vid=ff273380-c91d-4de0-97f4-4e62bfd1e6c1","ios":"levelo://app?vid=ff273380-c91d-4de0-97f4-4e62bfd1e6c1"},"vehicle_type_id":"4","last_reported":1731668843,"current_range_meters":17200,"station_id":"","pricing_plan_id":"cebpf4jnsgd1na2vs0mg"},{"bike_id":"06cb9e14-0b28-4107-b7e3-cc03361315e7","system_id":"levelo_inurba_marseille","lat":43.30413,"lon":5.41278,"is_reserved":false,"is_disabled":false,"rental_uris":{"android":"levelo://app?vid=06cb9e14-0b28-4107-b7e3-cc03361315e7","ios":"levelo://app?vid=06cb9e14-0b28-4107-b7e3-cc03361315e7"},"vehicle_type_id":"4","last_reported":1731668843,"current_range_meters":30800,"station_id":"ce4bhop2rcd13ifvqh8g","pricing_plan_id":"cebpf4jnsgd1na2vs0mg"},{"bike_id":"6361d7cf-1ecd-49d4-aa6f-e733c1a18c20","system_id":"levelo_inurba_marseille","lat":43.30278,"lon":5.37711,"is_reserved":false,"is_disabled":false,"rental_uris":{"android":"levelo://app?vid=6361d7cf-1ecd-49d4-aa6f-e733c1a18c20","ios":"levelo://app?vid=6361d7cf-1ecd-49d4-aa6f-e733c1a18c20"},"vehicle_type_id":"4","last_reported":1731668843,"current_range_meters":38800,"station_id":"ce4bguh2rcd13ifvqcj0","pricing_plan_id":"cebpf4jnsgd1na2vs0mg"},{"bike_id":"ed748f78-01e7-4ce5-b80b-2ee84f20917d","system_id":"levelo_inurba_marseille","lat":43.33739,"lon":5.37453,"is_reserved":false,"is_disabled":false,"rental_uris":{"android":"levelo://app?vid=ed748f78-01e7-4ce5-b80b-2ee84f20917d","ios":"levelo://app?vid=ed748f78-01e7-4ce5-b80b-2ee84f20917d"},"vehicle_type_id":"4","last_reported":1731668843,"current_range_meters":36400,"station_id":"","pricing_plan_id":"cebpf4jnsgd1na2vs0mg"},{"bike_id":"0b9ba57f-4913-4b93-ad7f-71d960f882ed","system_id":"levelo_inurba_marseille","lat":43.28106,"lon":5.37834,"is_reserved":false,"is_disabled":false,"rental_uris":{"android":"levelo://app?vid=0b9ba57f-4913-4b93-ad7f-71d960f882ed","ios":"levelo://app?vid=0b9ba57f-4913-4b93-ad7f-71d960f882ed"},"vehicle_type_id":"4","last_reported":1731668843,"current_range_meters":27600,"station_id":"ce4bha12rcd13ifvqee0","pricing_plan_id":"cebpf4jnsgd1na2vs0mg"},{"bike_id":"19a5e162-4115-4982-ac47-d50618cefe46","system_id":"levelo_inurba_marseille","lat":43.26956,"lon":5.38621,"is_reserved":false,"is_disabled":false,"rental_uris":{"android":"levelo://app?vid=19a5e162-4115-4982-ac47-d50618cefe46","ios":"levelo://app?vid=19a5e162-4115-4982-ac47-d50618cefe46"},"vehicle_type_id":"4","last_reported":1731668843,"current_range_meters":24400,"station_id":"ce4bhh92rcd13ifvqfh0","pricing_plan_id":"cebpf4jnsgd1na2vs0mg"},{"bike_id":"2223708d-91d2-4942-87f8-3ecc43fb7199","system_id":"levelo_inurba_marseille","lat":43.31758,"lon":5.39014,"is_reserved":false,"is_disabled":false,"rental_uris":{"android":"levelo://app?vid=2223708d-91d2-4942-87f8-3ecc43fb7199","ios":"levelo://app?vid=2223708d-91d2-4942-87f8-3ecc43fb7199"},"vehicle_type_id":"4","last_reported":1731668843,"current_range_meters":37600,"station_id":"ce4bhqp2rcd13ifvqhng","pricing_plan_id":"cebpf4jnsgd1na2vs0mg"},{"bike_id":"12a648f3-c744-43a3-adbc-fd539275d2b2","system_id":"levelo_inurba_marseille","lat":43.27951,"lon":5.41043,"is_reserved":false,"is_disabled":false,"rental_uris":{"android":"levelo://app?vid=12a648f3-c744-43a3-adbc-fd539275d2b2","ios":"levelo://app?vid=12a648f3-c744-43a3-adbc-fd539275d2b2"},"vehicle_type_id":"4","last_reported":1731668843,"current_range_meters":36000,"station_id":"ce4bhnp2rcd13ifvqh0g","pricing_plan_id":"cebpf4jnsgd1na2vs0mg"},{"bike_id":"a8004095-dc57-4de6-834f-438508674089","system_id":"levelo_inurba_marseille","lat":43.34139,"lon":5.40904,"is_reserved":false,"is_disabled":false,"rental_uris":{"android":"levelo://app?vid=a8004095-dc57-4de6-834f-438508674089","ios":"levelo://app?vid=a8004095-dc57-4de6-834f-438508674089"},"vehicle_type_id":"4","last_reported":1731668843,"current_range_meters":33600,"station_id":"ce4bhqh2rcd13ifvqhlg","pricing_plan_id":"cebpf4jnsgd1na2vs0mg"},{"bike_id":"e59bf13b-d68b-42a2-83d7-699dd19c14a8","system_id":"levelo_inurba_marseille","lat":43.29927,"lon":5.39708,"is_reserved":false,"is_disabled":false,"rental_uris":{"android":"levelo://app?vid=e59bf13b-d68b-42a2-83d7-699dd19c14a8","ios":"levelo://app?vid=e59bf13b-d68b-42a2-83d7-699dd19c14a8"},"vehicle_type_id":"4","last_reported":1731668843,"current_range_meters":31200,"station_id":"ce4bh0h2rcd13ifvqd50","pricing_plan_id":"cebpf4jnsgd1na2vs0mg"},{"bike_id":"9e60ec82-0d97-4ce9-b22e-751432ab4967","system_id":"levelo_inurba_marseille","lat":43.24386,"lon":5.37054,"is_reserved":false,"is_disabled":false,"rental_uris":{"android":"levelo://app?vid=9e60ec82-0d97-4ce9-b22e-751432ab4967","ios":"levelo://app?vid=9e60ec82-0d97-4ce9-b22e-751432ab4967"},"vehicle_type_id":"4","last_reported":1731668843,"current_range_meters":24000,"station_id":"ce4bhhh2rcd13ifvqfk0","pricing_plan_id":"cebpf4jnsgd1na2vs0mg"},{"bike_id":"3868efe3-d72f-4bda-a939-271ecc0247ea","system_id":"levelo_inurba_marseille","lat":43.29278,"lon":5.3684,"is_reserved":false,"is_disabled":false,"rental_uris":{"android":"levelo://app?vid=3868efe3-d72f-4bda-a939-271ecc0247ea","ios":"levelo://app?vid=3868efe3-d72f-4bda-a939-271ecc0247ea"},"vehicle_type_id":"4","last_reported":1731668843,"current_range_meters":37600,"station_id":"ce4bhbp2rcd13ifvqesg","pricing_plan_id":"cebpf4jnsgd1na2vs0mg"},{"bike_id":"4c70e1f1-ad6c-4fdd-94cf-b5703d46d7b6","system_id":"levelo_inurba_marseille","lat":43.3248,"lon":5.36569,"is_reserved":false,"is_disabled":false,"rental_uris":{"android":"levelo://app?vid=4c70e1f1-ad6c-4fdd-94cf-b5703d46d7b6","ios":"levelo://app?vid=4c70e1f1-ad6c-4fdd-94cf-b5703d46d7b6"},"vehicle_type_id":"4","last_reported":1731668843,"current_range_meters":23200,"station_id":"ce4bhs12rcd13ifvqhvg","pricing_plan_id":"cebpf4jnsgd1na2vs0mg"},{"bike_id":"1bc183b8-246a-4fed-a2f5-5064d8a45777","system_id":"levelo_inurba_marseille","lat":43.27072,"lon":5.42287,"is_reserved":false,"is_disabled":false,"rental_uris":{"android":"levelo://app?vid=1bc183b8-246a-4fed-a2f5-5064d8a45777","ios":"levelo://app?vid=1bc183b8-246a-4fed-a2f5-5064d8a45777"},"vehicle_type_id":"4","last_reported":1731668843,"current_range_meters":14800,"station_id":"ce4bhk92rcd13ifvqgb0","pricing_plan_id":"cebpf4jnsgd1na2vs0mg"},{"bike_id":"7037a7a9-89be-4835-99e0-d202607efc23","system_id":"levelo_inurba_marseille","lat":43.2842,"lon":5.34979,"is_reserved":false,"is_disabled":false,"rental_uris":{"android":"levelo://app?vid=7037a7a9-89be-4835-99e0-d202607efc23","ios":"levelo://app?vid=7037a7a9-89be-4835-99e0-d202607efc23"},"vehicle_type_id":"4","last_reported":1731668843,"current_range_meters":39200,"station_id":"ce4bhbh2rcd13ifvqepg","pricing_plan_id":"cebpf4jnsgd1na2vs0mg"},{"bike_id":"6ada6d82-fcc4-424e-9b2f-d70018115e73","system_id":"levelo_inurba_marseille","lat":43.25865,"lon":5.39902,"is_reserved":false,"is_disabled":false,"rental_uris":{"android":"levelo://app?vid=6ada6d82-fcc4-424e-9b2f-d70018115e73","ios":"levelo://app?vid=6ada6d82-fcc4-424e-9b2f-d70018115e73"},"vehicle_type_id":"4","last_reported":1731668843,"current_range_meters":24000,"station_id":"ce4bhl92rcd13ifvqghg","pricing_plan_id":"cebpf4jnsgd1na2vs0mg"},{"bike_id":"486fc79b-3fc3-4eb0-b060-cf6053d9adc1","system_id":"levelo_inurba_marseille","lat":43.28261,"lon":5.35071,"is_reserved":false,"is_disabled":false,"rental_uris":{"android":"levelo://app?vid=486fc79b-3fc3-4eb0-b060-cf6053d9adc1","ios":"levelo://app?vid=486fc79b-3fc3-4eb0-b060-cf6053d9adc1"},"vehicle_type_id":"4","last_reported":1731668843,"current_range_meters":19200,"station_id":"ce4bhbp2rcd13ifvqerg","pricing_plan_id":"cebpf4jnsgd1na2vs0mg"},{"bike_id":"2bde87b1-c2d4-4ab2-adbc-e0cb570ab9b6","system_id":"levelo_inurba_marseille","lat":43.29626,"lon":5.37162,"is_reserved":false,"is_disabled":false,"rental_uris":{"android":"levelo://app?vid=2bde87b1-c2d4-4ab2-adbc-e0cb570ab9b6","ios":"levelo://app?vid=2bde87b1-c2d4-4ab2-adbc-e0cb570ab9b6"},"vehicle_type_id":"4","last_reported":1731668843,"current_range_meters":38800,"station_id":"ce4bgnh2rcd13ifvqc0g","pricing_plan_id":"cebpf4jnsgd1na2vs0mg"},{"bike_id":"f2af9365-fdc2-4b99-9391-e30a9e3e43b3","system_id":"levelo_inurba_marseille","lat":43.323609,"lon":5.367576,"is_reserved":false,"is_disabled":false,"rental_uris":{"android":"levelo://app?vid=f2af9365-fdc2-4b99-9391-e30a9e3e43b3","ios":"levelo://app?vid=f2af9365-fdc2-4b99-9391-e30a9e3e43b3"},"vehicle_type_id":"4","last_reported":1731668843,"current_range_meters":26800,"station_id":"ce4bhsh2rcd13ifvqi2g","pricing_plan_id":"cebpf4jnsgd1na2vs0mg"},{"bike_id":"bb522734-48ce-4de6-8330-a5f77169e2f2","system_id":"levelo_inurba_marseille","lat":43.29897,"lon":5.4365,"is_reserved":false,"is_disabled":false,"rental_uris":{"android":"levelo://app?vid=bb522734-48ce-4de6-8330-a5f77169e2f2","ios":"levelo://app?vid=bb522734-48ce-4de6-8330-a5f77169e2f2"},"vehicle_type_id":"4","last_reported":1731668843,"current_range_meters":11200,"station_id":"ce4bhpp2rcd13ifvqhfg","pricing_plan_id":"cebpf4jnsgd1na2vs0mg"},{"bike_id":"62280381-5699-4ab7-9ab6-a573e49f987e","system_id":"levelo_inurba_marseille","lat":43.26678,"lon":5.38264,"is_reserved":false,"is_disabled":false,"rental_uris":{"android":"levelo://app?vid=62280381-5699-4ab7-9ab6-a573e49f987e","ios":"levelo://app?vid=62280381-5699-4ab7-9ab6-a573e49f987e"},"vehicle_type_id":"4","last_reported":1731668843,"current_range_meters":39200,"station_id":"ce4bhg92rcd13ifvqf90","pricing_plan_id":"cebpf4jnsgd1na2vs0mg"},{"bike_id":"e7ed84fe-9f91-4774-93ad-5603d334167c","system_id":"levelo_inurba_marseille","lat":43.24078,"lon":5.37759,"is_reserved":false,"is_disabled":false,"rental_uris":{"android":"levelo://app?vid=e7ed84fe-9f91-4774-93ad-5603d334167c","ios":"levelo://app?vid=e7ed84fe-9f91-4774-93ad-5603d334167c"},"vehicle_type_id":"4","last_reported":1731668843,"current_range_meters":13600,"station_id":"ce4bhnp2rcd13ifvqgvg","pricing_plan_id":"cebpf4jnsgd1na2vs0mg"},{"bike_id":"e0ff9a80-fdc9-4589-94fb-3a76abac459f","system_id":"levelo_inurba_marseille","lat":43.31998,"lon":5.38145,"is_reserved":false,"is_disabled":false,"rental_uris":{"android":"levelo://app?vid=e0ff9a80-fdc9-4589-94fb-3a76abac459f","ios":"levelo://app?vid=e0ff9a80-fdc9-4589-94fb-3a76abac459f"},"vehicle_type_id":"4","last_reported":1731668843,"current_range_meters":34800,"station_id":"ce4bhr12rcd13ifvqhpg","pricing_plan_id":"cebpf4jnsgd1na2vs0mg"},{"bike_id":"ef574c4e-62ae-4c12-80ac-2a78d2dc5d98","system_id":"levelo_inurba_marseille","lat":43.28264,"lon":5.35055,"is_reserved":false,"is_disabled":false,"rental_uris":{"android":"levelo://app?vid=ef574c4e-62ae-4c12-80ac-2a78d2dc5d98","ios":"levelo://app?vid=ef574c4e-62ae-4c12-80ac-2a78d2dc5d98"},"vehicle_type_id":"4","last_reported":1731668843,"current_range_meters":4000,"station_id":"ce4bhbp2rcd13ifvqerg","pricing_plan_id":"cebpf4jnsgd1na2vs0mg"},{"bike_id":"d8710358-b06a-462b-9fcd-b6ab686a9599","system_id":"levelo_inurba_marseille","lat":43.30541,"lon":5.36684,"is_reserved":false,"is_disabled":false,"rental_uris":{"android":"levelo://app?vid=d8710358-b06a-462b-9fcd-b6ab686a9599","ios":"levelo://app?vid=d8710358-b06a-462b-9fcd-b6ab686a9599"},"vehicle_type_id":"4","last_reported":1731668843,"current_range_meters":32800,"station_id":"ce4bgrp2rcd13ifvqc9g","pricing_plan_id":"cebpf4jnsgd1na2vs0mg"},{"bike_id":"324cd8ad-0348-4d6e-905a-5fc563357c04","system_id":"levelo_inurba_marseille","lat":43.27379,"lon":5.36255,"is_reserved":false,"is_disabled":false,"rental_uris":{"android":"levelo://app?vid=324cd8ad-0348-4d6e-905a-5fc563357c04","ios":"levelo://app?vid=324cd8ad-0348-4d6e-905a-5fc563357c04"},"vehicle_type_id":"4","last_reported":1731668843,"current_range_meters":38800,"station_id":"ce4bhbh2rcd13ifvqeo0","pricing_plan_id":"cebpf4jnsgd1na2vs0mg"},{"bike_id":"fe34e79d-89a4-4c9d-9e26-e258e0391b41","system_id":"levelo_inurba_marseille","lat":43.23191,"lon":5.39984,"is_reserved":false,"is_disabled":false,"rental_uris":{"android":"levelo://app?vid=fe34e79d-89a4-4c9d-9e26-e258e0391b41","ios":"levelo://app?vid=fe34e79d-89a4-4c9d-9e26-e258e0391b41"},"vehicle_type_id":"4","last_reported":1731668843,"current_range_meters":38800,"station_id":"ce4bhn12rcd13ifvqgqg","pricing_plan_id":"cebpf4jnsgd1na2vs0mg"},{"bike_id":"b3537c3c-00cd-4485-b0bf-ba7f1e145f88","system_id":"levelo_inurba_marseille","lat":43.23153,"lon":5.43703,"is_reserved":false,"is_disabled":false,"rental_uris":{"android":"levelo://app?vid=b3537c3c-00cd-4485-b0bf-ba7f1e145f88","ios":"levelo://app?vid=b3537c3c-00cd-4485-b0bf-ba7f1e145f88"},"vehicle_type_id":"4","last_reported":1731668843,"current_range_meters":7200,"station_id":"ce4bhmp2rcd13ifvqgog","pricing_plan_id":"cebpf4jnsgd1na2vs0mg"},{"bike_id":"b4c4a8a8-0f72-4e66-8a09-4c9486dc6e7c","system_id":"levelo_inurba_marseille","lat":43.24076,"lon":5.37733,"is_reserved":false,"is_disabled":false,"rental_uris":{"android":"levelo://app?vid=b4c4a8a8-0f72-4e66-8a09-4c9486dc6e7c","ios":"levelo://app?vid=b4c4a8a8-0f72-4e66-8a09-4c9486dc6e7c"},"vehicle_type_id":"4","last_reported":1731668843,"current_range_meters":12000,"station_id":"ce4bhnp2rcd13ifvqgvg","pricing_plan_id":"cebpf4jnsgd1na2vs0mg"},{"bike_id":"e2c5e9d7-fcb5-47eb-8dd0-0885cd8f4d1c","system_id":"levelo_inurba_marseille","lat":43.32367,"lon":5.38893,"is_reserved":false,"is_disabled":false,"rental_uris":{"android":"levelo://app?vid=e2c5e9d7-fcb5-47eb-8dd0-0885cd8f4d1c","ios":"levelo://app?vid=e2c5e9d7-fcb5-47eb-8dd0-0885cd8f4d1c"},"vehicle_type_id":"4","last_reported":1731668843,"current_range_meters":31200,"station_id":"ce4bhqp2rcd13ifvqhog","pricing_plan_id":"cebpf4jnsgd1na2vs0mg"},{"bike_id":"36abc6ec-18f3-409b-97ff-6422f887bfc0","system_id":"levelo_inurba_marseille","lat":43.26211,"lon":5.37442,"is_reserved":false,"is_disabled":false,"rental_uris":{"android":"levelo://app?vid=36abc6ec-18f3-409b-97ff-6422f887bfc0","ios":"levelo://app?vid=36abc6ec-18f3-409b-97ff-6422f887bfc0"},"vehicle_type_id":"4","last_reported":1731668843,"current_range_meters":36400,"station_id":"ce4bhgp2rcd13ifvqfc0","pricing_plan_id":"cebpf4jnsgd1na2vs0mg"},{"bike_id":"420553bd-0b22-4fee-8a98-e5ecaa633bf9","system_id":"levelo_inurba_marseille","lat":43.27619,"lon":5.36113,"is_reserved":false,"is_disabled":false,"rental_uris":{"android":"levelo://app?vid=420553bd-0b22-4fee-8a98-e5ecaa633bf9","ios":"levelo://app?vid=420553bd-0b22-4fee-8a98-e5ecaa633bf9"},"vehicle_type_id":"4","last_reported":1731668843,"current_range_meters":6400,"station_id":"ce4bgj92rcd13ifvqbe0","pricing_plan_id":"cebpf4jnsgd1na2vs0mg"},