{"last_updated":1767539409,"ttl":60,"version":"2.2","data":{"bikes":[{"bike_id":"030b39f2-9249-49f4-93cd-e24f56148408","system_id":"levelo_inurba_marseille","lat":43.29089,"lon":5.38117,"is_reserved":false,"is_disabled":false,"rental_uris":{"android":"levelo://app?vid=030b39f2-9249-49f4-93cd-e24f56148408","ios":"levelo://app?vid=030b39f2-9249-49f4-93cd-e24f56148408"},"vehicle_type_id":"4","last_reported":1767539409,"current_range_meters":2800,"station_id":"ce4bh512rcd13ifvqe2g","pricing_plan_id":"cebpf4jnsgd1na2vs0mg"},{"bike_id":"34f3a292-6f55-4da9-baea-9c8e3ef09af6","system_id":"levelo_inurba_marseille","lat":43.25499,"lon":5.37655,"is_reserved":false,"is_disabled":false,"rental_uris":{"android":"levelo://app?vid=34f3a292-6f55-4da9-baea-9c8e3ef09af6","ios":"levelo://app?vid=34f3a292-6f55-4da9-baea-9c8e3ef09af6"},"vehicle_type_id":"4","last_reported":1767539409,"current_range_meters":2800,"station_id":"ce4bhh12rcd13ifvqff0","pricing_plan_id":"cebpf4jnsgd1na2vs0mg"},{"bike_id":"a3cf9e4a-782c-4662-8b3b-14ff36c53998","system_id":"levelo_inurba_marseille","lat":43.26218,"lon":5.37461,"is_reserved":false,"is_disabled":false,"rental_uris":{"android":"levelo://app?vid=a3cf9e4a-782c-4662-8b3b-14ff36c53998","ios":"levelo://app?vid=a3cf9e4a-782c-4662-8b3b-14ff36c53998"},"vehicle_type_id":"4","last_reported":1767539409,"current_range_meters":2800,"station_id":"ce4bhgp2rcd13ifvqfc0","pricing_plan_id":"cebpf4jnsgd1na2vs0mg"},{"bike_id":"6e0d162d-1b38-4015-bbec-5b53bcf4845e","system_id":"levelo_inurba_marseille","lat":43.30538,"lon":5.36553,"is_reserved":false,"is_disabled":false,"rental_uris":{"android":"levelo://app?vid=6e0d162d-1b38-4015-bbec-5b53bcf4845e","ios":"levelo://app?vid=6e0d162d-1b38-4015-bbec-5b53bcf4845e"},"vehicle_type_id":"4","last_reported":1767539409,"current_range_meters":2800,"station_id":"ce4bgs12rcd13ifvqcag","pricing_plan_id":"cebpf4jnsgd1na2vs0mg"},{"bike_id":"6af309a2-8f26-4463-a2f8-b68c7d811285","system_id":"levelo_inurba_marseille","lat":43.30841,"lon":5.37516,"is_reserved":false,"is_disabled":false,"rental_uris":{"android":"levelo://app?vid=6af309a2-8f26-4463-a2f8-b68c7d811285","ios":"levelo://app?vid=6af309a2-8f26-4463-a2f8-b68c7d811285"},"vehicle_type_id":"4","last_reported":1767539409,"current_range_meters":2800,"station_id":"","pricing_plan_id":"cebpf4jnsgd1na2vs0mg"},{"bike_id":"1cb07a07-9f8b-49b3-899d-e4d88daca5ff","system_id":"levelo_inurba_marseille","lat":43.260207,"lon":5.407594,"is_reserved":false,"is_disabled":false,"rental_uris":{"android":"levelo://app?vid=1cb07a07-9f8b-49b3-899d-e4d88daca5ff","ios":"levelo://app?vid=1cb07a07-9f8b-49b3-899d-e4d88daca5ff"},"vehicle_type_id":"4","last_reported":1767539409,"current_range_meters":2800,"station_id":"","pricing_plan_id":"cebpf4jnsgd1na2vs0mg"},{"bike_id":"dc9feb7e-742c-4c15-83bb-7db4fa4848d4","system_id":"levelo_inurba_marseille","lat":43.32845,"lon":5.36683,"is_reserved":false,"is_disabled":false,"rental_uris":{"android":"levelo://app?vid=dc9feb7e-742c-4c15-83bb-7db4fa4848d4","ios":"levelo://app?vid=dc9feb7e-742c-4c15-83bb-7db4fa4848d4"},"vehicle_type_id":"4","last_reported":1767539409,"current_range_meters":2800,"station_id":"","pricing_plan_id":"cebpf4jnsgd1na2vs0mg"},{"bike_id":"be59f674-a0bd-4fc3-a219-9eada39112de","system_id":"levelo_inurba_marseille","lat":43.299532,"lon":5.373766,"is_reserved":false,"is_disabled":false,"rental_uris":{"android":"levelo://app?vid=be59f674-a0bd-4fc3-a219-9eada39112de","ios":"levelo://app?vid=be59f674-a0bd-4fc3-a219-9eada39112de"},"vehicle_type_id":"4","last_reported":1767539409,"current_range_meters":2800,"station_id":"","pricing_plan_id":"cebpf4jnsgd1na2vs0mg"},{"bike_id":"ddea6b53-a329-474e-b86a-40e23ca5f3fa","system_id":"levelo_inurba_marseille","lat":43.26216,"lon":5.37441,"is_reserved":false,"is_disabled":false,"rental_uris":{"android":"levelo://app?vid=ddea6b53-a329-474e-b86a-40e23ca5f3fa","ios":"levelo://app?vid=ddea6b53-a329-474e-b86a-40e23ca5f3fa"},"vehicle_type_id":"4","last_reported":1767539409,"current_range_meters":2800,"station_id":"ce4bhgp2rcd13ifvqfc0","pricing_plan_id":"cebpf4jnsgd1na2vs0mg"},{"bike_id":"64715ed3-7658-44a3-8c77-eceed2009a4b","system_id":"levelo_inurba_marseille","lat":43.265,"lon":5.39535,"is_reserved":false,"is_disabled":false,"rental_uris":{"android":"levelo://app?vid=64715ed3-7658-44a3-8c77-eceed2009a4b","ios":"levelo://app?vid=64715ed3-7658-44a3-8c77-eceed2009a4b"},"vehicle_type_id":"4","last_reported":1767539409,"current_range_meters":2800,"station_id":"ce4bhi12rcd13ifvqfq0","pricing_plan_id":"cebpf4jnsgd1na2vs0mg"},{"bike_id":"ca7795a1-1c61-48f5-b152-3baafcbe5b32","system_id":"levelo_inurba_marseille","lat":43.27236,"lon":5.39197,"is_reserved":false,"is_disabled":false,"rental_uris":{"android":"levelo://app?vid=ca7795a1-1c61-48f5-b152-3baafcbe5b32","ios":"levelo://app?vid=ca7795a1-1c61-48f5-b152-3baafcbe5b32"},"vehicle_type_id":"4","last_reported":1767539409,"current_range_meters":2800,"station_id":"ce4bhhp2rcd13ifvqfm0","pricing_plan_id":"cebpf4jnsgd1na2vs0mg"},{"bike_id":"84886d11-ae0f-4ba8-91b6-07ac7b7279de","system_id":"levelo_inurba_marseille","lat":43.26187,"lon":5.37166,"is_reserved":false,"is_disabled":false,"rental_uris":{"android":"levelo://app?vid=84886d11-ae0f-4ba8-91b6-07ac7b7279de","ios":"levelo://app?vid=84886d11-ae0f-4ba8-91b6-07ac7b7279de"},"vehicle_type_id":"4","last_reported":1767539409,"current_range_meters":2800,"station_id":"ce4bhgp2rcd13ifvqfc0","pricing_plan_id":"cebpf4jnsgd1na2vs0mg"},{"bike_id":"e493b9f3-75a9-4b83-a37d-a0c34b5cbb80","system_id":"levelo_inurba_marseille","lat":43.246503,"lon":5.388966,"is_reserved":false,"is_disabled":false,"rental_uris":{"android":"levelo://app?vid=e493b9f3-75a9-4b83-a37d-a0c34b5cbb80","ios":"levelo://app?vid=e493b9f3-75a9-4b83-a37d-a0c34b5cbb80"},"vehicle_type_id":"4","last_reported":1767539409,"current_range_meters":2800,"station_id":"ce4bhg12rcd13ifvqf60","pricing_plan_id":"cebpf4jnsgd1na2vs0mg"},{"bike_id":"8da46ff4-c660-4d3e-8923-edf8b261544d","system_id":"levelo_inurba_marseille","lat":43.26188,"lon":5.37447,"is_reserved":false,"is_disabled":false,"rental_uris":{"android":"levelo://app?vid=8da46ff4-c660-4d3e-8923-edf8b261544d","ios":"levelo://app?vid=8da46ff4-c660-4d3e-8923-edf8b261544d"},"vehicle_type_id":"4","last_reported":1767539409,"current_range_meters":3200,"station_id":"ce4bhgp2rcd13ifvqfc0","pricing_plan_id":"cebpf4jnsgd1na2vs0mg"},{"bike_id":"faae1c22-eb69-4a6a-9fdd-05bf4896a93c","system_id":"levelo_inurba_marseille","lat":43.28489,"lon":5.48393,"is_reserved":false,"is_disabled":false,"rental_uris":{"android":"levelo://app?vid=faae1c22-eb69-4a6a-9fdd-05bf4896a93c","ios":"levelo://app?vid=faae1c22-eb69-4a6a-9fdd-05bf4896a93c"},"vehicle_type_id":"4","last_reported":1767539409,"current_range_meters":3200,"station_id":"","pricing_plan_id":"cebpf4jnsgd1na2vs0mg"},{"bike_id":"888f269f-d6de-477e-816d-a073ee519b49","system_id":"levelo_inurba_marseille","lat":43.31227,"lon":5.36863,"is_reserved":false,"is_disabled":false,"rental_uris":{"android":"levelo://app?vid=888f269f-d6de-477e-816d-a073ee519b49","ios":"levelo://app?vid=888f269f-d6de-477e-816d-a073ee519b49"},"vehicle_type_id":"4","last_reported":1767539409,"current_range_meters":3200,"station_id":"ce4bgl92rcd13ifvqbq0","pricing_plan_id":"cebpf4jnsgd1na2vs0mg"},{"bike_id":"6234c961-4edf-46aa-ba21-15f53c5b762a","system_id":"levelo_inurba_marseille","lat":43.27368,"lon":5.36255,"is_reserved":false,"is_disabled":false,"rental_uris":{"android":"levelo://app?vid=6234c961-4edf-46aa-ba21-15f53c5b762a","ios":"levelo://app?vid=6234c961-4edf-46aa-ba21-15f53c5b762a"},"vehicle_type_id":"4","last_reported":1767539409,"current_range_meters":3200,"station_id":"ce4bhbh2rcd13ifvqeo0","pricing_plan_id":"cebpf4jnsgd1na2vs0mg"},{"bike_id":"369c8c7b-dd26-491c-8ac1-e59e015c794f","system_id":"levelo_inurba_marseille","lat":43.27806,"lon":5.40704,"is_reserved":false,"is_disabled":false,"rental_uris":{"android":"levelo://app?vid=369c8c7b-dd26-491c-8ac1-e59e015c794f","ios":"levelo://app?vid=369c8c7b-dd26-491c-8ac1-e59e015c794f"},"vehicle_type_id":"4","last_reported":1767539409,"current_range_meters":3200,"station_id":"ce4bhnh2rcd13ifvqgtg","pricing_plan_id":"cebpf4jnsgd1na2vs0mg"},{"bike_id":"27cc10f0-e262-4047-b134-006e2b649840","system_id":"levelo_inurba_marseille","lat":43.296159,"lon":5.371554,"is_reserved":false,"is_disabled":false,"rental_uris":{"android":"levelo://app?vid=27cc10f0-e262-4047-b134-006e2b649840","ios":"levelo://app?vid=27cc10f0-e262-4047-b134-006e2b649840"},"vehicle_type_id":"4","last_reported":1767539409,"current_range_meters":3200,"station_id":"ce4bgnh2rcd13ifvqc0g","pricing_plan_id":"cebpf4jnsgd1na2vs0mg"},{"bike_id":"f73476a1-8b2a-42dc-b112-79fd77bdf5e0","system_id":"levelo_inurba_marseille","lat":43.2719,"lon":5.4097,"is_reserved":false,"is_disabled":false,"rental_uris":{"android":"levelo://app?vid=f73476a1-8b2a-42dc-b112-79fd77bdf5e0","ios":"levelo://app?vid=f73476a1-8b2a-42dc-b112-79fd77bdf5e0"},"vehicle_type_id":"4","last_reported":1767539409,"current_range_meters":3200,"station_id":"ce4bhl12rcd13ifvqgf0","pricing_plan_id":"cebpf4jnsgd1na2vs0mg"},{"bike_id":"a3be4a7c-7544-49a9-8048-28fcde31ea3d","system_id":"levelo_inurba_marseille","lat":43.29274,"lon":5.37321,"is_reserved":false,"is_disabled":false,"rental_uris":{"android":"levelo://app?vid=a3be4a7c-7544-49a9-8048-28fcde31ea3d","ios":"levelo://app?vid=a3be4a7c-7544-49a9-8048-28fcde31ea3d"},"vehicle_type_id":"4","last_reported":1767539409,"current_range_meters":3200,"station_id":"","pricing_plan_id":"cebpf4jnsgd1na2vs0mg"},{"bike_id":"472773c4-6498-406d-9fab-c8b8c4a682a5","system_id":"levelo_inurba_marseille","lat":43.30204,"lon":5.36616,"is_reserved":false,"is_disabled":false,"rental_uris":{"android":"levelo://app?vid=472773c4-6498-406d-9fab-c8b8c4a682a5","ios":"levelo://app?vid=472773c4-6498-406d-9fab-c8b8c4a682a5"},"vehicle_type_id":"4","last_reported":1767539409,"current_range_meters":3600,"station_id":"ce4bgrh2rcd13ifvqc8g","pricing_plan_id":"cebpf4jnsgd1na2vs0mg"},{"bike_id":"e5ab006d-29ae-4edf-bec2-dbe5dd3b8675","system_id":"levelo_inurba_marseille","lat":43.23186,"lon":5.35542,"is_reserved":false,"is_disabled":false,"rental_uris":{"android":"levelo://app?vid=e5ab006d-29ae-4edf-bec2-dbe5dd3b8675","ios":"levelo://app?vid=e5ab006d-29ae-4edf-bec2-dbe5dd3b8675"},"vehicle_type_id":"4","last_reported":1767539409,"current_range_meters":3600,"station_id":"ce4bhu92rcd13ifvqi70","pricing_plan_id":"cebpf4jnsgd1na2vs0mg"},{"bike_id":"04004133-64b3-49a8-8413-112d2ba07443","system_id":"levelo_inurba_marseille","lat":43.27617,"lon":5.3611,"is_reserved":false,"is_disabled":false,"rental_uris":{"android":"levelo://app?vid=04004133-64b3-49a8-8413-112d2ba07443","ios":"levelo://app?vid=04004133-64b3-49a8-8413-112d2ba07443"},"vehicle_type_id":"4","last_reported":1767539409,"current_range_meters":3600,"station_id":"ce4bgj92rcd13ifvqbe0","pricing_plan_id":"cebpf4jnsgd1na2vs0mg"},{"bike_id":"ca0c01c7-fbdb-4547-a3b0-3f7514c0d05b","system_id":"levelo_inurba_marseille","lat":43.28426,"lon":5.3499,"is_reserved":false,"is_disabled":false,"rental_uris":{"android":"levelo://app?vid=ca0c01c7-fbdb-4547-a3b0-3f7514c0d05b","ios":"levelo://app?vid=ca0c01c7-fbdb-4547-a3b0-3f7514c0d05b"},"vehicle_type_id":"4","last_reported":1767539409,"current_range_meters":3600,"station_id":"ce4bhbh2rcd13ifvqepg","pricing_plan_id":"cebpf4jnsgd1na2vs0mg"},{"bike_id":"7fd5add5-5bd6-4bf1-8814-c0b858389d81","system_id":"levelo_inurba_marseille","lat":43.30804,"lon":5.38146,"is_reserved":false,"is_disabled":false,"rental_uris":{"android":"levelo://app?vid=7fd5add5-5bd6-4bf1-8814-c0b858389d81","ios":"levelo://app?vid=7fd5add5-5bd6-4bf1-8814-c0b858389d81"},"vehicle_type_id":"4","last_reported":1767539409,"current_range_meters":3600,"station_id":"ce4bgt12rcd13ifvqce0","pricing_plan_id":"cebpf4jnsgd1na2vs0mg"},{"bike_id":"394b2473-e75b-4508-a6de-dc82472511d3","system_id":"levelo_inurba_marseille","lat":43.2637,"lon":5.4106,"is_reserved":false,"is_disabled":true,"rental_uris":{"android":"levelo://app?vid=394b2473-e75b-4508-a6de-dc82472511d3","ios":"levelo://app?vid=394b2473-e75b-4508-a6de-dc82472511d3"},"vehicle_type_id":"4","last_reported":1767539409,"current_range_meters":3600,"station_id":"","pricing_plan_id":"cebpf4jnsgd1na2vs0mg"},{"bike_id":"d2536274-9990-4224-b4e1-f095291efa8e","system_id":"levelo_inurba_marseille","lat":43.29009,"lon":5.35626,"is_reserved":false,"is_disabled":false,"rental_uris":{"android":"levelo://app?vid=d2536274-9990-4224-b4e1-f095291efa8e","ios":"levelo://app?vid=d2536274-9990-4224-b4e1-f095291efa8e"},"vehicle_type_id":"4","last_reported":1767539409,"current_range_meters":3600,"station_id":"ce4bhb92rcd13ifvqen0","pricing_plan_id":"cebpf4jnsgd1na2vs0mg"},{"bike_id":"eebd9e1f-1ba5-43d8-ba3e-599639161f1a","system_id":"levelo_inurba_marseille","lat":43.2733,"lon":5.3908,"is_reserved":false,"is_disabled":false,"rental_uris":{"android":"levelo://app?vid=eebd9e1f-1ba5-43d8-ba3e-599639161f1a","ios":"levelo://app?vid=eebd9e1f-1ba5-43d8-ba3e-599639161f1a"},"vehicle_type_id":"4","last_reported":1767539409,"current_range_meters":3600,"station_id":"ce4bhgp2rcd13ifvqfe0","pricing_plan_id":"cebpf4jnsgd1na2vs0mg"},{"bike_id":"557fcc01-1a31-4734-96a9-4bc57201480a","system_id":"levelo_inurba_marseille","lat":43.31584,"lon":5.37181,"is_reserved":false,"is_disabled":false,"rental_uris":{"android":"levelo://app?vid=557fcc01-1a31-4734-96a9-4bc57201480a","ios":"levelo://app?vid=557fcc01-1a31-4734-96a9-4bc57201480a"},"vehicle_type_id":"4","last_reported":1767539409,"current_range_meters":3600,"station_id":"","pricing_plan_id":"cebpf4jnsgd1na2vs0mg"},{"bike_id":"27e3db41-e25d-4703-9c18-718b047d8c1b","system_id":"levelo_inurba_marseille","lat":43.31434,"lon":5.38098,"is_reserved":false,"is_disabled":false,"rental_uris":{"android":"levelo://app?vid=27e3db41-e25d-4703-9c18-718b047d8c1b","ios":"levelo://app?vid=27e3db41-e25d-4703-9c18-718b047d8c1b"},"vehicle_type_id":"4","last_reported":1767539409,"current_range_meters":4000,"station_id":"","pricing_plan_id":"cebpf4jnsgd1na2vs0mg"},{"bike_id":"1fd8e9f3-57a4-4b3e-9c7d-862e48e2e6a8","system_id":"levelo_inurba_marseille","lat":43.290039,"lon":5.356099,"is_reserved":false,"is_disabled":false,"rental_uris":{"android":"levelo://app?vid=1fd8e9f3-57a4-4b3e-9c7d-862e48e2e6a8","ios":"levelo://app?vid=1fd8e9f3-57a4-4b3e-9c7d-862e48e2e6a8"},"vehicle_type_id":"4","last_reported":1767539409,"current_range_meters":4000,"station_id":"ce4bhb92rcd13ifvqen0","pricing_plan_id":"cebpf4jnsgd1na2vs0mg"},{"bike_id":"c0ea3c29-d1fe-41bb-8112-39190b36f535","system_id":"levelo_inurba_marseille","lat":43.29368,"lon":5.37821,"is_reserved":false,"is_disabled":false,"rental_uris":{"android":"levelo://app?vid=c0ea3c29-d1fe-41bb-8112-39190b36f535","ios":"levelo://app?vid=c0ea3c29-d1fe-41bb-8112-39190b36f535"},"vehicle_type_id":"4","last_reported":1767539409,"current_range_meters":4000,"station_id":"ce4bgjh2rcd13ifvqbf0","pricing_plan_id":"cebpf4jnsgd1na2vs0mg"},{"bike_id":"ab5cb8fa-a3b5-462b-a3b7-028002e31bbb","system_id":"levelo_inurba_marseille","lat":43.273198,"lon":5.390695,"is_reserved":false,"is_disabled":false,"rental_uris":{"android":"levelo://app?vid=ab5cb8fa-a3b5-462b-a3b7-028002e31bbb","ios":"levelo://app?vid=ab5cb8fa-a3b5-462b-a3b7-028002e31bbb"},"vehicle_type_id":"4","last_reported":1767539409,"current_range_meters":4000,"station_id":"ce4bhgp2rcd13ifvqfe0","pricing_plan_id":"cebpf4jnsgd1na2vs0mg"},{"bike_id":"32d1c9cb-e782-47ae-910a-dae58bcdf1e2","system_id":"levelo_inurba_marseille","lat":43.24068,"lon":5.37773,"is_reserved":false,"is_disabled":false,"rental_uris":{"android":"levelo://app?vid=32d1c9cb-e782-47ae-910a-dae58bcdf1e2","ios":"levelo://app?vid=32d1c9cb-e782-47ae-910a-dae58bcdf1e2"},"vehicle_type_id":"4","last_reported":1767539409,"current_range_meters":4000,"station_id":"ce4bhnp2rcd13ifvqgvg","pricing_plan_id":"cebpf4jnsgd1na2vs0mg"},{"bike_id":"0cc8f38b-2aab-4edc-80d1-8d77bb645f60","system_id":"levelo_inurba_marseille","lat":43.255184,"lon":5.376634,"is_reserved":false,"is_disabled":true,"rental_uris":{"android":"levelo://app?vid=0cc8f38b-2aab-4edc-80d1-8d77bb645f60","ios":"levelo://app?vid=0cc8f38b-2aab-4edc-80d1-8d77bb645f60"},"vehicle_type_id":"4","last_reported":1767539409,"current_range_meters":4000,"station_id":"ce4bhh12rcd13ifvqff0","pricing_plan_id":"cebpf4jnsgd1na2vs0mg"},{"bike_id":"7ee1c09d-a306-4e72-a256-6549ce7578c9","system_id":"levelo_inurba_marseille","lat":43.29166,"lon":5.37306,"is_reserved":false,"is_disabled":false,"rental_uris":{"android":"levelo://app?vid=7ee1c09d-a306-4e72-a256-6549ce7578c9","ios":"levelo://app?vid=7ee1c09d-a306-4e72-a256-6549ce7578c9"},"vehicle_type_id":"4","last_reported":1767539409,"current_range_meters":4000,"station_id":"","pricing_plan_id":"cebpf4jnsgd1na2vs0mg"},{"bike_id":"7d88ce0c-ae9b-49e1-a08d-95a335fd71ed","system_id":"levelo_inurba_marseille","lat":43.28532,"lon":5.44117,"is_reserved":false,"is_disabled":false,"rental_uris":{"android":"levelo://app?vid=7d88ce0c-ae9b-49e1-a08d-95a335fd71ed","ios":"levelo://app?vid=7d88ce0c-ae9b-49e1-a08d-95a335fd71ed"},"vehicle_type_id":"4","last_reported":1767539409,"current_range_meters":4000,"station_id":"st_d3j3df2ikq2c7380ej80","pricing_plan_id":"cebpf4jnsgd1na2vs0mg"},{"bike_id":"32088daf-19b4-43c2-bb3d-ac36d2b03bd3","system_id":"levelo_inurba_marseille","lat":43.24392,"lon":5.37072,"is_reserved":false,"is_disabled":false,"rental_uris":{"android":"levelo://app?vid=32088daf-19b4-43c2-bb3d-ac36d2b03bd3","ios":"levelo://app?vid=32088daf-19b4-43c2-bb3d-ac36d2b03bd3"},"vehicle_type_id":"4","last_reported":1767539409,"current_range_meters":4000,"station_id":"ce4bhhh2rcd13ifvqfk0","pricing_plan_id":"cebpf4jnsgd1na2vs0mg"},{"bike_id":"a5e341dd-f678-4ec1-a7c6-1c53bd98d5b6","system_id":"levelo_inurba_marseille","lat":43.29733,"lon":5.38064,"is_reserved":false,"is_disabled":false,"rental_uris":{"android":"levelo://app?vid=a5e341dd-f678-4ec1-a7c6-1c53bd98d5b6","ios":"levelo://app?vid=a5e341dd-f678-4ec1-a7c6-1c53bd98d5b6"},"vehicle_type_id":"4","last_reported":1767539409,"current_range_meters":4000,"station_id":"","pricing_plan_id":"cebpf4jnsgd1na2vs0mg"},{"bike_id":"2ab0ed21-15e3-4d1f-be74-740b687c8156","system_id":"levelo_inurba_marseille","lat":43.2619,"lon":5.374468,"is_reserved":false,"is_disabled":false,"rental_uris":{"android":"levelo://app?vid=2ab0ed21-15e3-4d1f-be74-740b687c8156","ios":"levelo://app?vid=2ab0ed21-15e3-4d1f-be74-740b687c8156"},"vehicle_type_id":"4","last_reported":1767539409,"current_range_meters":4000,"station_id":"ce4bhgp2rcd13ifvqfc0","pricing_plan_id":"cebpf4jnsgd1na2vs0mg"},{"bike_id":"b357b06c-84a1-42eb-85bc-16a2d56a5e8b","system_id":"levelo_inurba_marseille","lat":43.30001,"lon":5.37353,"is_reserved":false,"is_disabled":false,"rental_uris":{"android":"levelo://app?vid=b357b06c-84a1-42eb-85bc-16a2d56a5e8b","ios":"levelo://app?vid=b357b06c-84a1-42eb-85bc-16a2d56a5e8b"},"vehicle_type_id":"4","last_reported":1767539409,"current_range_meters":4000,"station_id":"","pricing_plan_id":"cebpf4jnsgd1na2vs0mg"},{"bike_id":"300a352e-c96f-4528-ab32-5eaaeb4278a5","system_id":"levelo_inurba_marseille","lat":43.28478,"lon":5.38403,"is_reserved":false,"is_disabled":false,"rental_uris":{"android":"levelo://app?vid=300a352e-c96f-4528-ab32-5eaaeb4278a5","ios":"levelo://app?vid=300a352e-c96f-4528-ab32-5eaaeb4278a5"},"vehicle_type_id":"4","last_reported":1767539409,"current_range_meters":4000,"station_id":"ce4bh512rcd13ifvqe3g","pricing_plan_id":"cebpf4jnsgd1na2vs0mg"},{"bike_id":"79d109b6-d151-44cf-9f49-18f38db8d1e5","system_id":"levelo_inurba_marseille","lat":43.24159,"lon":5.39702,"is_reserved":false,"is_disabled":false,"rental_uris":{"android":"levelo://app?vid=79d109b6-d151-44cf-9f49-18f38db8d1e5","ios":"levelo://app?vid=79d109b6-d151-44cf-9f49-18f38db8d1e5"},"vehicle_type_id":"4","last_reported":1767539409,"current_range_meters":4000,"station_id":"ce4bhn12rcd13ifvqgpg","pricing_plan_id":"cebpf4jnsgd1na2vs0mg"},{"bike_id":"607f6356-92f4-49b1-8436-7911c576c661","system_id":"levelo_inurba_marseille","lat":43.29281,"lon":5.37399,"is_reserved":false,"is_disabled":false,"rental_uris":{"android":"levelo://app?vid=607f6356-92f4-49b1-8436-7911c576c661","ios":"levelo://app?vid=607f6356-92f4-49b1-8436-7911c576c661"},"vehicle_type_id":"4","last_reported":1767539409,"current_range_meters":4400,"station_id":"","pricing_plan_id":"cebpf4jnsgd1na2vs0mg"},{"bike_id":"2bcf6ae4-322c-43d0-9880-65aeda24ed67","system_id":"levelo_inurba_marseille","lat":43.32421,"lon":5.36895,"is_reserved":false,"is_disabled":false,"rental_uris":{"android":"levelo://app?vid=2bcf6ae4-322c-43d0-9880-65aeda24ed67","ios":"levelo://app?vid=2bcf6ae4-322c-43d0-9880-65aeda24ed67"},"vehicle_type_id":"4","last_reported":1767539409,"current_range_meters":4400,"station_id":"","pricing_plan_id":"cebpf4jnsgd1na2vs0mg"},{"bike_id":"bbd145e1-db8d-40b0-b146-2b7542d40bf1","system_id":"levelo_inurba_marseille","lat":43.268085,"lon":5.402678,"is_reserved":false,"is_disabled":false,"rental_uris":{"android":"levelo://app?vid=bbd145e1-db8d-40b0-b146-2b7542d40bf1","ios":"levelo://app?vid=bbd145e1-db8d-40b0-b146-2b7542d40bf1"},"vehicle_type_id":"4","last_reported":1767539409,"current_range_meters":4400,"station_id":"ce501612rcd8frsf0b60","pricing_plan_id":"cebpf4jnsgd1na2vs0mg"},{"bike_id":"3bd960f7-5b88-491f-bc87-a459f70d7529","system_id":"levelo_inurba_marseille","lat":43.292571,"lon":5.40912,"is_reserved":false,"is_disabled":true,"rental_uris":{"android":"levelo://app?vid=3bd960f7-5b88-491f-bc87-a459f70d7529","ios":"levelo://app?vid=3bd960f7-5b88-491f-bc87-a459f70d7529"},"vehicle_type_id":"4","last_reported":1767539409,"current_range_meters":4400,"station_id":"ce4bh192rcd13ifvqdc0","pricing_plan_id":"cebpf4jnsgd1na2vs0mg"},{"bike_id":"b8312627-13c4-4db1-bc05-2c9ecea4546c","system_id":"levelo_inurba_marseille","lat":43.28492,"lon":5.39197,"is_reserved":false,"is_disabled":false,"rental_uris":{"android":"levelo://app?vid=b8312627-13c4-4db1-bc05-2c9ecea4546c","ios":"levelo://app?vid=b8312627-13c4-4db1-bc05-2c9ecea4546c"},"vehicle_type_id":"4","last_reported":1767539409,"current_range_meters":4400,"station_id":"","pricing_plan_id":"cebpf4jnsgd1na2vs0mg"},{"bike_id":"875f10e0-2359-4a45-ad81-71d6aaf377af","system_id":"levelo_inurba_marseille","lat":43.30209,"lon":5.39457,"is_reserved":false,"is_disabled":false,"rental_uris":{"android":"levelo://app?vid=875f10e0-2359-4a45-ad81-71d6aaf377af","ios":"levelo://app?vid=875f10e0-2359-4a45-ad81-71d6aaf377af"},"vehicle_type_id":"4","last_reported":1767539409,"current_range_meters":4400,"station_id":"ce4bh0p2rcd13ifvqd70","pricing_plan_id":"cebpf4jnsgd1na2vs0mg"},{"bike_id":"c9d548ba-2a02-4b82-91f9-b5968320bd23","system_id":"levelo_inurba_marseille","lat":43.23187,"lon":5.35564,"is_reserved":false,"is_disabled":false,"rental_uris":{"android":"levelo://app?vid=c9d548ba-2a02-4b82-91f9-b5968320bd23","ios":"levelo://app?vid=c9d548ba-2a02-4b82-91f9-b5968320bd23"},"vehicle_type_id":"4","last_reported":1767539409,"current_range_meters":4400,"station_id":"ce4bhu92rcd13ifvqi70","pricing_plan_id":"cebpf4jnsgd1na2vs0mg"},{"bike_id":"d7690759-9a7e-429e-95e2-ac1fe34a4366","system_id":"levelo_inurba_marseille","lat":43.29851,"lon":5.36278,"is_reserved":false,"is_disabled":false,"rental_uris":{"android":"levelo://app?vid=d7690759-9a7e-429e-95e2-ac1fe34a4366","ios":"levelo://app?vid=d7690759-9a7e-429e-95e2-ac1fe34a4366"},"vehicle_type_id":"4","last_reported":1767539409,"current_range_meters":4400,"station_id":"ce4bgpp2rcd13ifvqc3g","pricing_plan_id":"cebpf4jnsgd1na2vs0mg"},{"bike_id":"ca48d4ad-26ca-4dea-a200-be3e43176f3f","system_id":"levelo_inurba_marseille","lat":43.33219,"lon":5.41282,"is_reserved":false,"is_disabled":false,"rental_uris":{"android":"levelo://app?vid=ca48d4ad-26ca-4dea-a200-be3e43176f3f","ios":"levelo://app?vid=ca48d4ad-26ca-4dea-a200-be3e43176f3f"},"vehicle_type_id":"4","last_reported":1767539409,"current_range_meters":4800,"station_id":"","pricing_plan_id":"cebpf4jnsgd1na2vs0mg"},{"bike_id":"c5c8e054-a070-40b1-800f-713d203c24d9","system_id":"levelo_inurba_marseille","lat":43.27677,"lon":5.38883,"is_reserved":false,"is_disabled":false,"rental_uris":{"android":"levelo://app?vid=c5c8e054-a070-40b1-800f-713d203c24d9","ios":"levelo://app?vid=c5c8e054-a070-40b1-800f-713d203c24d9"},"vehicle_type_id":"4","last_reported":1767539409,"current_range_meters":4800,"station_id":"ce4bhi12rcd13ifvqfo0","pricing_plan_id":"cebpf4jnsgd1na2vs0mg"},{"bike_id":"94e31e6d-82b1-4a72-8d23-2ac15df71e4c","system_id":"levelo_inurba_marseille","lat":43.28853,"lon":5.42527,"is_reserved":false,"is_disabled":false,"rental_uris":{"android":"levelo://app?vid=94e31e6d-82b1-4a72-8d23-2ac15df71e4c","ios":"levelo://app?vid=94e31e6d-82b1-4a72-8d23-2ac15df71e4c"},"vehicle_type_id":"4","last_reported":1767539409,"current_range_meters":4800,"station_id":"st_d3b462108ojc7389ooeg","pricing_plan_id":"cebpf4jnsgd1na2vs0mg"},{"bike_id":"074722cb-2569-4df8-9492-e46ca66ccdc6","system_id":"levelo_inurba_marseille","lat":43.32231,"lon":5.36716,"is_reserved":false,"is_disabled":false,"rental_uris":{"android":"levelo://app?vid=074722cb-2569-4df8-9492-e46ca66ccdc6","ios":"levelo://app?vid=074722cb-2569-4df8-9492-e46ca66ccdc6"},"vehicle_type_id":"4","last_reported":1767539409,"current_range_meters":5600,"station_id":"","pricing_plan_id":"cebpf4jnsgd1na2vs0mg"},{"bike_id":"e987523a-ef8b-4c5d-94b4-e53d7fa7dfe0","system_id":"levelo_inurba_marseille","lat":43.2487,"lon":5.38554,"is_reserved":false,"is_disabled":false,"rental_uris":{"android":"levelo://app?vid=e987523a-ef8b-4c5d-94b4-e53d7fa7dfe0","ios":"levelo://app?vid=e987523a-ef8b-4c5d-94b4-e53d7fa7dfe0"},"vehicle_type_id":"4","last_reported":1767539409,"current_range_meters":5600,"station_id":"","pricing_plan_id":"cebpf4jnsgd1na2vs0mg"},{"bike_id":"8c833b7e-1177-432c-8a46-ed531f48b94b","system_id":"levelo_inurba_marseille","lat":43.31718,"lon":5.37764,"is_reserved":false,"is_disabled":false,"rental_uris":{"android":"levelo://app?vid=8c833b7e-1177-432c-8a46-ed531f48b94b","ios":"levelo://app?vid=8c833b7e-1177-432c-8a46-ed531f48b94b"},"vehicle_type_id":"4","last_reported":1767539409,"current_range_meters":5600,"station_id":"ce4bgth2rcd13ifvqch0","pricing_plan_id":"cebpf4jnsgd1na2vs0mg"},{"bike_id":"093623d6-2d73-411a-8372-4b522432f61f","system_id":"levelo_inurba_marseille","lat":43.24653,"lon":5.43136,"is_reserved":false,"is_disabled":false,"rental_uris":{"android":"levelo://app?vid=093623d6-2d73-411a-8372-4b522432f61f","ios":"levelo://app?vid=093623d6-2d73-411a-8372-4b522432f61f"},"vehicle_type_id":"4","last_reported":1767539409,"current_range_meters":5600,"station_id":"st_d2m6c4gdas8pm72e190g","pricing_plan_id":"cebpf4jnsgd1na2vs0mg"},{"bike_id":"32430d05-1fb8-4eba-b545-baa9ce76d5e5","system_id":"levelo_inurba_marseille","lat":43.288634,"lon":5.42529,"is_reserved":false,"is_disabled":false,"rental_uris":{"android":"levelo://app?vid=32430d05-1fb8-4eba-b545-baa9ce76d5e5","ios":"levelo://app?vid=32430d05-1fb8-4eba-b545-baa9ce76d5e5"},"vehicle_type_id":"4","last_reported":1767539409,"current_range_meters":5600,"station_id":"st_d3b462108ojc7389ooeg","pricing_plan_id":"cebpf4jnsgd1na2vs0mg"},{"bike_id":"61de8b69-7704-4d24-bebb-39e846fd4b45","system_id":"levelo_inurba_marseille","lat":43.30119,"lon":5.37801,"is_reserved":false,"is_disabled":false,"rental_uris":{"android":"levelo://app?vid=61de8b69-7704-4d24-bebb-39e846fd4b45","ios":"levelo://app?vid=61de8b69-7704-4d24-bebb-39e846fd4b45"},"vehicle_type_id":"4","last_reported":1767539409,"current_range_meters":5600,"station_id":"","pricing_plan_id":"cebpf4jnsgd1na2vs0mg"},{"bike_id":"9146e3a6-be55-46b1-bb09-dd2fbe8c5861","system_id":"levelo_inurba_marseille","lat":43.30546,"lon":5.36716,"is_reserved":false,"is_disabled":false,"rental_uris":{"android":"levelo://app?vid=9146e3a6-be55-46b1-bb09-dd2fbe8c5861","ios":"levelo://app?vid=9146e3a6-be55-46b1-bb09-dd2fbe8c5861"},"vehicle_type_id":"4","last_reported":1767539409,"current_range_meters":5600,"station_id":"ce4bgrp2rcd13ifvqc9g","pricing_plan_id":"cebpf4jnsgd1na2vs0mg"},{"bike_id":"cf1dde7c-2421-4aa1-aa32-84342583dd5b","system_id":"levelo_inurba_marseille","lat":43.24081,"lon":5.37749,"is_reserved":false,"is_disabled":false,"rental_uris":{"android":"levelo://app?vid=cf1dde7c-2421-4aa1-aa32-84342583dd5b","ios":"levelo://app?vid=cf1dde7c-2421-4aa1-aa32-84342583dd5b"},"vehicle_type_id":"4","last_reported":1767539409,"current_range_meters":5600,"station_id":"ce4bhnp2rcd13ifvqgvg","pricing_plan_id":"cebpf4jnsgd1na2vs0mg"},{"bike_id":"c390d659-bd5b-46ac-b11f-0f691c92c306","system_id":"levelo_inurba_marseille","lat":43.284269,"lon":5.349865,"is_reserved":false,"is_disabled":false,"rental_uris":{"android":"levelo://app?vid=c390d659-bd5b-46ac-b11f-0f691c92c306","ios":"levelo://app?vid=c390d659-bd5b-46ac-b11f-0f691c92c306"},"vehicle_type_id":"4","last_reported":1767539409,"current_range_meters":5600,"station_id":"ce4bhbh2rcd13ifvqepg","pricing_plan_id":"cebpf4jnsgd1na2vs0mg"},{"bike_id":"488bbe71-5d11-4c78-b0d1-df86f5509b1d","system_id":"levelo_inurba_marseille","lat":43.23803,"lon":5.36615,"is_reserved":false,"is_disabled":false,"rental_uris":{"android":"levelo://app?vid=488bbe71-5d11-4c78-b0d1-df86f5509b1d","ios":"levelo://app?vid=488bbe71-5d11-4c78-b0d1-df86f5509b1d"},"vehicle_type_id":"4","last_reported":1767539409,"current_range_meters":5600,"station_id":"st_d3nk18o9ro0c73en2l3g","pricing_plan_id":"cebpf4jnsgd1na2vs0mg"},{"bike_id":"8e3b45c6-7fdf-429f-9c1e-6729d3aac358","system_id":"levelo_inurba_marseille","lat":43.310564,"lon":5.371831,"is_reserved":false,"is_disabled":false,"rental_uris":{"android":"levelo://app?vid=8e3b45c6-7fdf-429f-9c1e-6729d3aac358","ios":"levelo://app?vid=8e3b45c6-7fdf-429f-9c1e-6729d3aac358"},"vehicle_type_id":"4","last_reported":1767539409,"current_range_meters":5600,"station_id":"st_d4kl2rp97mjs73e7tdfg","pricing_plan_id":"cebpf4jnsgd1na2vs0mg"},{"bike_id":"5634728d-b4f9-411e-80d8-617ac27838a9","system_id":"levelo_inurba_marseille","lat":43.28265,"lon":5.35068,"is_reserved":false,"is_disabled":false,"rental_uris":{"android":"levelo://app?vid=5634728d-b4f9-411e-80d8-617ac27838a9","ios":"levelo://app?vid=5634728d-b4f9-411e-80d8-617ac27838a9"},"vehicle_type_id":"4","last_reported":1767539409,"current_range_meters":6000,"station_id":"ce4bhbp2rcd13ifvqerg","pricing_plan_id":"cebpf4jnsgd1na2vs0mg"},{"bike_id":"c2c330d2-60e4-498f-ae8b-ea868b39e8e9","system_id":"levelo_inurba_marseille","lat":43.29843,"lon":5.36263,"is_reserved":false,"is_disabled":false,"rental_uris":{"android":"levelo://app?vid=c2c330d2-60e4-498f-ae8b-ea868b39e8e9","ios":"levelo://app?vid=c2c330d2-60e4-498f-ae8b-ea868b39e8e9"},"vehicle_type_id":"4","last_reported":1767539409,"current_range_meters":6000,"station_id":"ce4bgpp2rcd13ifvqc3g","pricing_plan_id":"cebpf4jnsgd1na2vs0mg"},{"bike_id":"5ed51bc0-851e-44e4-9f66-c5e3e5c8f26a","system_id":"levelo_inurba_marseille","lat":43.27198,"lon":5.39188,"is_reserved":false,"is_disabled":true,"rental_uris":{"android":"levelo://app?vid=5ed51bc0-851e-44e4-9f66-c5e3e5c8f26a","ios":"levelo://app?vid=5ed51bc0-851e-44e4-9f66-c5e3e5c8f26a"},"vehicle_type_id":"4","last_reported":1767539409,"current_range_meters":6000,"station_id":"ce4bhhp2rcd13ifvqfm0","pricing_plan_id":"cebpf4jnsgd1na2vs0mg"},{"bike_id":"091087be-27fe-438d-bb66-a525fac98399","system_id":"levelo_inurba_marseille","lat":43.27382,"lon":5.3627,"is_reserved":false,"is_disabled":false,"rental_uris":{"android":"levelo://app?vid=091087be-27fe-438d-bb66-a525fac98399","ios":"levelo://app?vid=091087be-27fe-438d-bb66-a525fac98399"},"vehicle_type_id":"4","last_reported":1767539409,"current_range_meters":6000,"station_id":"ce4bhbh2rcd13ifvqeo0","pricing_plan_id":"cebpf4jnsgd1na2vs0mg"},{"bike_id":"96d87c0e-8e58-4458-9a61-596f9aad61aa","system_id":"levelo_inurba_marseille","lat":43.21131,"lon":5.3515,"is_reserved":false,"is_disabled":false,"rental_uris":{"android":"levelo://app?vid=96d87c0e-8e58-4458-9a61-596f9aad61aa","ios":"levelo://app?vid=96d87c0e-8e58-4458-9a61-596f9aad61aa"},"vehicle_type_id":"4","last_reported":1767539409,"current_range_meters":6000,"station_id":"","pricing_plan_id":"cebpf4jnsgd1na2vs0mg"},{"bike_id":"8daa6ea0-c51c-417e-b7c7-aa57a3739cb8","system_id":"levelo_inurba_marseille","lat":43.29736,"lon":5.38073,"is_reserved":false,"is_disabled":false,"rental_uris":{"android":"levelo://app?vid=8daa6ea0-c51c-417e-b7c7-aa57a3739cb8","ios":"levelo://app?vid=8daa6ea0-c51c-417e-b7c7-aa57a3739cb8"},"vehicle_type_id":"4","last_reported":1767539409,"current_range_meters":6000,"station_id":"","pricing_plan_id":"cebpf4jnsgd1na2vs0mg"},{"bike_id":"4f9276e2-ba43-4c1d-afca-9c0080feecdf","system_id":"levelo_inurba_marseille","lat":43.32341,"lon":5.36734,"is_reserved":false,"is_disabled":false,"rental_uris":{"android":"levelo://app?vid=4f9276e2-ba43-4c1d-afca-9c0080feecdf","ios":"levelo://app?vid=4f9276e2-ba43-4c1d-afca-9c0080feecdf"},"vehicle_type_id":"4","last_reported":1767539409,"current_range_meters":6000,"station_id":"ce4bhsh2rcd13ifvqi2g","pricing_plan_id":"cebpf4jnsgd1na2vs0mg"},{"bike_id":"9a67c4b7-b002-47fb-91b0-cf920a32496e","system_id":"levelo_inurba_marseille","lat":43.26563,"lon":5.4032,"is_reserved":false,"is_disabled":false,"rental_uris":{"android":"levelo://app?vid=9a67c4b7-b002-47fb-91b0-cf920a32496e","ios":"levelo://app?vid=9a67c4b7-b002-47fb-91b0-cf920a32496e"},"vehicle_type_id":"4","last_reported":1767539409,"current_range_meters":6000,"station_id":"ce4bhmp2rcd13ifvqgng","pricing_plan_id":"cebpf4jnsgd1na2vs0mg"},{"bike_id":"00b5a968-4ff7-432e-b0d8-687619036087","system_id":"levelo_inurba_marseille","lat":43.23202,"lon":5.35547,"is_reserved":false,"is_disabled":false,"rental_uris":{"android":"levelo://app?vid=00b5a968-4ff7-432e-b0d8-687619036087","ios":"levelo://app?vid=00b5a968-4ff7-432e-b0d8-687619036087"},"vehicle_type_id":"4","last_reported":1767539409,"current_range_meters":6000,"station_id":"ce4bhu92rcd13ifvqi70","pricing_plan_id":"cebpf4jnsgd1na2vs0mg"},{"bike_id":"c43abce6-1a04-435e-b473-585c9dfa7260","system_id":"levelo_inurba_marseille","lat":43.27208,"lon":5.39176,"is_reserved":false,"is_disabled":false,"rental_uris":{"android":"levelo://app?vid=c43abce6-1a04-435e-b473-585c9dfa7260","ios":"levelo://app?vid=c43abce6-1a04-435e-b473-585c9dfa7260"},"vehicle_type_id":"4","last_reported":1767539409,"current_range_meters":6000,"station_id":"ce4bhhp2rcd13ifvqfm0","pricing_plan_id":"cebpf4jnsgd1na2vs0mg"},{"bike_id":"dbeb93ee-d846-47a2-9b33-6caecbe32493","system_id":"levelo_inurba_marseille","lat":43.29843,"lon":5.36267,"is_reserved":false,"is_disabled":false,"rental_uris":{"android":"levelo://app?vid=dbeb93ee-d846-47a2-9b33-6caecbe32493","ios":"levelo://app?vid=dbeb93ee-d846-47a2-9b33-6caecbe32493"},"vehicle_type_id":"4","last_reported":1767539409,"current_range_meters":6000,"station_id":"ce4bgpp2rcd13ifvqc3g","pricing_plan_id":"cebpf4jnsgd1na2vs0mg"},{"bike_id":"e6d9500a-84c5-42cc-8272-3c33a326b727","system_id":"levelo_inurba_marseille","lat":43.30736,"lon":5.42445,"is_reserved":false,"is_disabled":false,"rental_uris":{"android":"levelo://app?vid=e6d9500a-84c5-42cc-8272-3c33a326b727","ios":"levelo://app?vid=e6d9500a-84c5-42cc-8272-3c33a326b727"},"vehicle_type_id":"4","last_reported":1767539409,"current_range_meters":6000,"station_id":"st_cvj6ca6bvosntc0bfgr0","pricing_plan_id":"cebpf4jnsgd1na2vs0mg"},{"bike_id":"0ec00df7-3d5b-4681-970c-d49011aaf88f","system_id":"levelo_inurba_marseille","lat":43.27839,"lon":5.39223,"is_reserved":false,"is_disabled":false,"rental_uris":{"android":"levelo://app?vid=0ec00df7-3d5b-4681-970c-d49011aaf88f","ios":"levelo://app?vid=0ec00df7-3d5b-4681-970c-d49011aaf88f"},"vehicle_type_id":"4","last_reported":1767539409,"current_range_meters":6000,"station_id":"ce4bhjp2rcd13ifvqga0","pricing_plan_id":"cebpf4jnsgd1na2vs0mg"},{"bike_id":"8732b2ab-bcc7-4699-924b-9fda91eaa0d8","system_id":"levelo_inurba_marseille","lat":43.29192,"lon":5.3581,"is_reserved":false,"is_disabled":false,"rental_uris":{"android":"levelo://app?vid=8732b2ab-bcc7-4699-924b-9fda91eaa0d8","ios":"levelo://app?vid=8732b2ab-bcc7-4699-924b-9fda91eaa0d8"},"vehicle_type_id":"4","last_reported":1767539409,"current_range_meters":6000,"station_id":"ce4bhb12rcd13ifvqel0","pricing_plan_id":"cebpf4jnsgd1na2vs0mg"},{"bike_id":"dfbf7730-1239-44b2-83d1-75c00941c80b","system_id":"levelo_inurba_marseille","lat":43.25572,"lon":5.38236,"is_reserved":false,"is_disabled":true,"rental_uris":{"android":"levelo://app?vid=dfbf7730-1239-44b2-83d1-75c00941c80b","ios":"levelo://app?vid=dfbf7730-1239-44b2-83d1-75c00941c80b"},"vehicle_type_id":"4","last_reported":1767539409,"current_range_meters":6400,"station_id":"ce4bhih2rcd13ifvqfs0","pricing_plan_id":"cebpf4jnsgd1na2vs0mg"},{"bike_id":"dd3326ea-ad71-4f86-88d6-f79309f37529","system_id":"levelo_inurba_marseille","lat":43.2438,"lon":5.37043,"is_reserved":false,"is_disabled":false,"rental_uris":{"android":"levelo://app?vid=dd3326ea-ad71-4f86-88d6-f79309f37529","ios":"levelo://app?vid=dd3326ea-ad71-4f86-88d6-f79309f37529"},"vehicle_type_id":"4","last_reported":1767539409,"current_range_meters":6400,"station_id":"ce4bhhh2rcd13ifvqfk0","pricing_plan_id":"cebpf4jnsgd1na2vs0mg"},{"bike_id":"c3f97c6b-2dc7-4135-9316-e5d0c425f8a0","system_id":"levelo_inurba_marseille","lat":43.26946,"lon":5.38611,"is_reserved":false,"is_disabled":false,"rental_uris":{"android":"levelo://app?vid=c3f97c6b-2dc7-4135-9316-e5d0c425f8a0","ios":"levelo://app?vid=c3f97c6b-2dc7-4135-9316-e5d0c425f8a0"},"vehicle_type_id":"4","last_reported":1767539409,"current_range_meters":6400,"station_id":"ce4bhh92rcd13ifvqfh0","pricing_plan_id":"cebpf4jnsgd1na2vs0mg"},{"bike_id":"00e498c0-8e2b-4a9c-88b2-cc6b8abbd0cc","system_id":"levelo_inurba_marseille","lat":43.292821,"lon":5.368422,"is_reserved":false,"is_disabled":false,"rental_uris":{"android":"levelo://app?vid=00e498c0-8e2b-4a9c-88b2-cc6b8abbd0cc","ios":"levelo://app?vid=00e498c0-8e2b-4a9c-88b2-cc6b8abbd0cc"},"vehicle_type_id":"4","last_reported":1767539409,"current_range_meters":6400,"station_id":"ce4bhbp2rcd13ifvqesg","pricing_plan_id":"cebpf4jnsgd1na2vs0mg"},{"bike_id":"d16182f3-e665-458f-b0d2-66b3db8796ce","system_id":"levelo_inurba_marseille","lat":43.26208,"lon":5.37443,"is_reserved":false,"is_disabled":false,"rental_uris":{"android":"levelo://app?vid=d16182f3-e665-458f-b0d2-66b3db8796ce","ios":"levelo://app?vid=d16182f3-e665-458f-b0d2-66b3db8796ce"},"vehicle_type_id":"4","last_reported":1767539409,"current_range_meters":6400,"station_id":"ce4bhgp2rcd13ifvqfc0","pricing_plan_id":"cebpf4jnsgd1na2vs0mg"},{"bike_id":"fcd440e6-5539-4d36-8905-9b19c9c5332a","system_id":"levelo_inurba_marseille","lat":43.27081,"lon":5.39154,"is_reserved":false,"is_disabled":false,"rental_uris":{"android":"levelo://app?vid=fcd440e6-5539-4d36-8905-9b19c9c5332a","ios":"levelo://app?vid=fcd440e6-5539-4d36-8905-9b19c9c5332a"},"vehicle_type_id":"4","last_reported":1767539409,"current_range_meters":6400,"station_id":"","pricing_plan_id":"cebpf4jnsgd1na2vs0mg"},{"bike_id":"17e06372-e52b-4bdd-90cd-8338755c84dc","system_id":"levelo_inurba_marseille","lat":43.23154,"lon":5.43704,"is_reserved":false,"is_disabled":false,"rental_uris":{"android":"levelo://app?vid=17e06372-e52b-4bdd-90cd-8338755c84dc","ios":"levelo://app?vid=17e06372-e52b-4bdd-90cd-8338755c84dc"},"vehicle_type_id":"4","last_reported":1767539409,"current_range_meters":6400,"station_id":"ce4bhmp2rcd13ifvqgog","pricing_plan_id":"cebpf4jnsgd1na2vs0mg"},{"bike_id":"e44cab74-f685-400b-b393-d23149de2a52","system_id":"levelo_inurba_marseille","lat":43.24159,"lon":5.363974,"is_reserved":false,"is_disabled":false,"rental_uris":{"android":"levelo://app?vid=e44cab74-f685-400b-b393-d23149de2a52","ios":"levelo://app?vid=e44cab74-f685-400b-b393-d23149de2a52"},"vehicle_type_id":"4","last_reported":1767539409,"current_range_meters":6400,"station_id":"cpo36qri1sfpv3e86is0","pricing_plan_id":"cebpf4jnsgd1na2vs0mg"},{"bike_id":"61afb773-b98c-4b2f-8ae1-c27f9b9185bc","system_id":"levelo_inurba_marseille","lat":43.26208,"lon":5.37928,"is_reserved":false,"is_disabled":false,"rental_uris":{"android":"levelo://app?vid=61afb773-b98c-4b2f-8ae1-c27f9b9185bc","ios":"levelo://app?vid=61afb773-b98c-4b2f-8ae1-c27f9b9185bc"},"vehicle_type_id":"4","last_reported":1767539409,"current_range_meters":6400,"station_id":"ce4bhjp2rcd13ifvqg90","pricing_plan_id":"cebpf4jnsgd1na2vs0mg"},{"bike_id":"4dc8c32f-96ad-4bbe-8f82-5ce45a16b000","system_id":"levelo_inurba_marseille","lat":43.26192,"lon":5.37455,"is_reserved":false,"is_disabled":false,"rental_uris":{"android":"levelo://app?vid=4dc8c32f-96ad-4bbe-8f82-5ce45a16b000","ios":"levelo://app?vid=4dc8c32f-96ad-4bbe-8f82-5ce45a16b000"},"vehicle_type_id":"4","last_reported":1767539409,"current_range_meters":6400,"station_id":"ce4bhgp2rcd13ifvqfc0","pricing_plan_id":"cebpf4jnsgd1na2vs0mg"},{"bike_id":"b98c4bb3-e84f-4703-8006-455cb12ed450","system_id":"levelo_inurba_marseille","lat":43.28831,"lon":5.42629,"is_reserved":false,"is_disabled":false,"rental_uris":{"android":"levelo://app?vid=b98c4bb3-e84f-4703-8006-455cb12ed450","ios":"levelo://app?vid=b98c4bb3-e84f-4703-8006-455cb12ed450"},"vehicle_type_id":"4","last_reported":1767539409,"current_range_meters":6400,"station_id":"","pricing_plan_id":"cebpf4jnsgd1na2vs0mg"},{"bike_id":"7f82846f-a9c2-426e-b04f-d573601c2c1e","system_id":"levelo_inurba_marseille","lat":43.24638,"lon":5.43124,"is_reserved":false,"is_disabled":false,"rental_uris":{"android":"levelo://app?vid=7f82846f-a9c2-426e-b04f-d573601c2c1e","ios":"levelo://app?vid=7f82846f-a9c2-426e-b04f-d573601c2c1e"},"vehicle_type_id":"4","last_reported":1767539409,"current_range_meters":6400,"station_id":"st_d2m6c4gdas8pm72e190g","pricing_plan_id":"cebpf4jnsgd1na2vs0mg"},{"bike_id":"e5b67b5a-c8d0-472e-9a13-90564c90a0fc","system_id":"levelo_inurba_marseille","lat":43.28263,"lon":5.35067,"is_reserved":false,"is_disabled":false,"rental_uris":{"android":"levelo://app?vid=e5b67b5a-c8d0-472e-9a13-90564c90a0fc","ios":"levelo://app?vid=e5b67b5a-c8d0-472e-9a13-90564c90a0fc"},"vehicle_type_id":"4","last_reported":1767539409,"current_range_meters":6400,"station_id":"ce4bhbp2rcd13ifvqerg","pricing_plan_id":"cebpf4jnsgd1na2vs0mg"},{"bike_id":"2b26fb7c-82c7-422a-a3ad-366f1b5496d9","system_id":"levelo_inurba_marseille","lat":43.30419,"lon":5.41294,"is_reserved":false,"is_disabled":false,"rental_uris":{"android":"levelo://app?vid=2b26fb7c-82c7-422a-a3ad-366f1b5496d9","ios":"levelo://app?vid=2b26fb7c-82c7-422a-a3ad-366f1b5496d9"},"vehicle_type_id":"4","last_reported":1767539409,"current_range_meters":6400,"station_id":"ce4bhop2rcd13ifvqh8g","pricing_plan_id":"cebpf4jnsgd1na2vs0mg"},{"bike_id":"4a2a81f8-c7cf-4e5c-b2f9-29f2b8fd0c10","system_id":"levelo_inurba_marseille","lat":43.23963,"lon":5.36627,"is_reserved":false,"is_disabled":false,"rental_uris":{"android":"levelo://app?vid=4a2a81f8-c7cf-4e5c-b2f9-29f2b8fd0c10","ios":"levelo://app?vid=4a2a81f8-c7cf-4e5c-b2f9-29f2b8fd0c10"},"vehicle_type_id":"4","last_reported":1767539409,"current_range_meters":6400,"station_id":"ce4bhi12rcd13ifvqfp0","pricing_plan_id":"cebpf4jnsgd1na2vs0mg"},{"bike_id":"d4e62b51-cbbc-4684-91ae-3203f81121b2","system_id":"levelo_inurba_marseille","lat":43.2848,"lon":5.38559,"is_reserved":false,"is_disabled":false,"rental_uris":{"android":"levelo://app?vid=d4e62b51-cbbc-4684-91ae-3203f81121b2","ios":"levelo://app?vid=d4e62b51-cbbc-4684-91ae-3203f81121b2"},"vehicle_type_id":"4","last_reported":1767539409,"current_range_meters":6800,"station_id":"ce4bh8p2rcd13ifvqeb0","pricing_plan_id":"cebpf4jnsgd1na2vs0mg"},{"bike_id":"b283b7cc-8fa6-4ac4-a113-593de3c043cd","system_id":"levelo_inurba_marseille","lat":43.3024,"lon":5.40062,"is_reserved":false,"is_disabled":false,"rental_uris":{"android":"levelo://app?vid=b283b7cc-8fa6-4ac4-a113-593de3c043cd","ios":"levelo://app?vid=b283b7cc-8fa6-4ac4-a113-593de3c043cd"},"vehicle_type_id":"4","last_reported":1767539409,"current_range_meters":6800,"station_id":"ce4bgvh2rcd13ifvqcs0","pricing_plan_id":"cebpf4jnsgd1na2vs0mg"},{"bike_id":"5f37208f-7b30-4744-80f3-bcc82e894d29","system_id":"levelo_inurba_marseille","lat":43.31325,"lon":5.39686,"is_reserved":false,"is_disabled":false,"rental_uris":{"android":"levelo://app?vid=5f37208f-7b30-4744-80f3-bcc82e894d29","ios":"levelo://app?vid=5f37208f-7b30-4744-80f3-bcc82e894d29"},"vehicle_type_id":"4","last_reported":1767539409,"current_range_meters":6800,"station_id":"ce4bgvp2rcd13ifvqcu0","pricing_plan_id":"cebpf4jnsgd1na2vs0mg"},{"bike_id":"069e0897-8da2-45e6-aee3-9dedd86fd186","system_id":"levelo_inurba_marseille","lat":43.261973,"lon":5.374495,"is_reserved":false,"is_disabled":false,"rental_uris":{"android":"levelo://app?vid=069e0897-8da2-45e6-aee3-9dedd86fd186","ios":"levelo://app?vid=069e0897-8da2-45e6-aee3-9dedd86fd186"},"vehicle_type_id":"4","last_reported":1767539409,"current_range_meters":6800,"station_id":"ce4bhgp2rcd13ifvqfc0","pricing_plan_id":"cebpf4jnsgd1na2vs0mg"},{"bike_id":"ec47e74c-4c77-4ced-84eb-ad537c50b956","system_id":"levelo_inurba_marseille","lat":43.2175,"lon":5.34607,"is_reserved":false,"is_disabled":true,"rental_uris":{"android":"levelo://app?vid=ec47e74c-4c77-4ced-84eb-ad537c50b956","ios":"levelo://app?vid=ec47e74c-4c77-4ced-84eb-ad537c50b956"},"vehicle_type_id":"4","last_reported":1767539409,"current_range_meters":6800,"station_id":"st_cvj6r9ubvosntc0bgbag","pricing_plan_id":"cebpf4jnsgd1na2vs0mg"},{"bike_id":"26f61dd7-fb76-4211-ad6f-42f3f014a9ad","system_id":"levelo_inurba_marseille","lat":43.23197,"lon":5.3555,"is_reserved":false,"is_disabled":false,"rental_uris":{"android":"levelo://app?vid=26f61dd7-fb76-4211-ad6f-42f3f014a9ad","ios":"levelo://app?vid=26f61dd7-fb76-4211-ad6f-42f3f014a9ad"},"vehicle_type_id":"4","last_reported":1767539409,"current_range_meters":6800,"station_id":"ce4bhu92rcd13ifvqi70","pricing_plan_id":"cebpf4jnsgd1na2vs0mg"},{"bike_id":"a414d67b-9afa-4a87-9fac-f67cdff12698","system_id":"levelo_inurba_marseille","lat":43.29402,"lon":5.3798,"is_reserved":false,"is_disabled":false,"rental_uris":{"android":"levelo://app?vid=a414d67b-9afa-4a87-9fac-f67cdff12698","ios":"levelo://app?vid=a414d67b-9afa-4a87-9fac-f67cdff12698"},"vehicle_type_id":"4","last_reported":1767539409,"current_range_meters":6800,"station_id":"","pricing_plan_id":"cebpf4jnsgd1na2vs0mg"},{"bike_id":"f257b2d0-1f16-4656-837f-b9ab9f001b03","system_id":"levelo_inurba_marseille","lat":43.22565,"lon":5.4162,"is_reserved":false,"is_disabled":false,"rental_uris":{"android":"levelo://app?vid=f257b2d0-1f16-4656-837f-b9ab9f001b03","ios":"levelo://app?vid=f257b2d0-1f16-4656-837f-b9ab9f001b03"},"vehicle_type_id":"4","last_reported":1767539409,"current_range_meters":6800,"station_id":"st_d2o4gvlbi1j2169b742g","pricing_plan_id":"cebpf4jnsgd1na2vs0mg"},{"bike_id":"4e839bab-c0a4-4f9b-8de3-cb292b501eb1","system_id":"levelo_inurba_marseille","lat":43.225293,"lon":5.348363,"is_reserved":false,"is_disabled":false,"rental_uris":{"android":"levelo://app?vid=4e839bab-c0a4-4f9b-8de3-cb292b501eb1","ios":"levelo://app?vid=4e839bab-c0a4-4f9b-8de3-cb292b501eb1"},"vehicle_type_id":"4","last_reported":1767539409,"current_range_meters":6800,"station_id":"","pricing_plan_id":"cebpf4jnsgd1na2vs0mg"},{"bike_id":"7f5f783b-c136-4a12-8fa9-e229c543188d","system_id":"levelo_inurba_marseille","lat":43.27962,"lon":5.38715,"is_reserved":false,"is_disabled":false,"rental_uris":{"android":"levelo://app?vid=7f5f783b-c136-4a12-8fa9-e229c543188d","ios":"levelo://app?vid=7f5f783b-c136-4a12-8fa9-e229c543188d"},"vehicle_type_id":"4","last_reported":1767539409,"current_range_meters":6800,"station_id":"ce4bhg12rcd13ifvqf80","pricing_plan_id":"cebpf4jnsgd1na2vs0mg"},{"bike_id":"b1b59deb-f62d-459d-b84d-c6a2662474be","system_id":"levelo_inurba_marseille","lat":43.25492,"lon":5.37649,"is_reserved":false,"is_disabled":false,"rental_uris":{"android":"levelo://app?vid=b1b59deb-f62d-459d-b84d-c6a2662474be","ios":"levelo://app?vid=b1b59deb-f62d-459d-b84d-c6a2662474be"},"vehicle_type_id":"4","last_reported":1767539409,"current_range_meters":6800,"station_id":"ce4bhh12rcd13ifvqff0","pricing_plan_id":"cebpf4jnsgd1na2vs0mg"},{"bike_id":"e581013e-0df8-4baf-bfc8-a7ccb5fe08f0","system_id":"levelo_inurba_marseille","lat":43.29017,"lon":5.38631,"is_reserved":false,"is_disabled":false,"rental_uris":{"android":"levelo://app?vid=e581013e-0df8-4baf-bfc8-a7ccb5fe08f0","ios":"levelo://app?vid=e581013e-0df8-4baf-bfc8-a7ccb5fe08f0"},"vehicle_type_id":"4","last_reported":1767539409,"current_range_meters":6800,"station_id":"ce4bh4p2rcd13ifvqe0g","pricing_plan_id":"cebpf4jnsgd1na2vs0mg"},{"bike_id":"c9b130ca-68ca-4b66-9f64-56877112c152","system_id":"levelo_inurba_marseille","lat":43.29608,"lon":5.37727,"is_reserved":false,"is_disabled":false,"rental_uris":{"android":"levelo://app?vid=c9b130ca-68ca-4b66-9f64-56877112c152","ios":"levelo://app?vid=c9b130ca-68ca-4b66-9f64-56877112c152"},"vehicle_type_id":"4","last_reported":1767539409,"current_range_meters":6800,"station_id":"ce4bgi92rcd13ifvqb90","pricing_plan_id":"cebpf4jnsgd1na2vs0mg"},{"bike_id":"aae9c2a5-79bf-4ec7-8997-46de8698fb01","system_id":"levelo_inurba_marseille","lat":43.32672,"lon":5.35857,"is_reserved":false,"is_disabled":false,"rental_uris":{"android":"levelo://app?vid=aae9c2a5-79bf-4ec7-8997-46de8698fb01","ios":"levelo://app?vid=aae9c2a5-79bf-4ec7-8997-46de8698fb01"},"vehicle_type_id":"4","last_reported":1767539409,"current_range_meters":6800,"station_id":"","pricing_plan_id":"cebpf4jnsgd1na2vs0mg"},{"bike_id":"840f276e-700f-48ec-8b26-b60379b1fa8a","system_id":"levelo_inurba_marseille","lat":43.27062,"lon":5.42278,"is_reserved":false,"is_disabled":false,"rental_uris":{"android":"levelo://app?vid=840f276e-700f-48ec-8b26-b60379b1fa8a","ios":"levelo://app?vid=840f276e-700f-48ec-8b26-b60379b1fa8a"},"vehicle_type_id":"4","last_reported":1767539409,"current_range_meters":6800,"station_id":"ce4bhk92rcd13ifvqgb0","pricing_plan_id":"cebpf4jnsgd1na2vs0mg"},{"bike_id":"dd1e0418-c61b-4102-a323-55dfd0941e3d","system_id":"levelo_inurba_marseille","lat":43.23204,"lon":5.35567,"is_reserved":false,"is_disabled":false,"rental_uris":{"android":"levelo://app?vid=dd1e0418-c61b-4102-a323-55dfd0941e3d","ios":"levelo://app?vid=dd1e0418-c61b-4102-a323-55dfd0941e3d"},"vehicle_type_id":"4","last_reported":1767539409,"current_range_meters":6800,"station_id":"ce4bhu92rcd13ifvqi70","pricing_plan_id":"cebpf4jnsgd1na2vs0mg"},{"bike_id":"69161e8f-51d3-4034-b7dc-9a0c99d58e5d","system_id":"levelo_inurba_marseille","lat":43.2969,"lon":5.37765,"is_reserved":false,"is_disabled":false,"rental_uris":{"android":"levelo://app?vid=69161e8f-51d3-4034-b7dc-9a0c99d58e5d","ios":"levelo://app?vid=69161e8f-51d3-4034-b7dc-9a0c99d58e5d"},"vehicle_type_id":"4","last_reported":1767539409,"current_range_meters":6800,"station_id":"","pricing_plan_id":"cebpf4jnsgd1na2vs0mg"},{"bike_id":"ac99568b-bae2-4133-b0ee-824e864c2dde","system_id":"levelo_inurba_marseille","lat":43.30548,"lon":5.36713,"is_reserved":false,"is_disabled":false,"rental_uris":{"android":"levelo://app?vid=ac99568b-bae2-4133-b0ee-824e864c2dde","ios":"levelo://app?vid=ac99568b-bae2-4133-b0ee-824e864c2dde"},"vehicle_type_id":"4","last_reported":1767539409,"current_range_meters":6800,"station_id":"ce4bgrp2rcd13ifvqc9g","pricing_plan_id":"cebpf4jnsgd1na2vs0mg"},{"bike_id":"0dc92e3e-3c5f-49a4-8bc0-0e42b6481b83","system_id":"levelo_inurba_marseille","lat":43.237921,"lon":5.366328,"is_reserved":false,"is_disabled":false,"rental_uris":{"android":"levelo://app?vid=0dc92e3e-3c5f-49a4-8bc0-0e42b6481b83","ios":"levelo://app?vid=0dc92e3e-3c5f-49a4-8bc0-0e42b6481b83"},"vehicle_type_id":"4","last_reported":1767539409,"current_range_meters":7200,"station_id":"st_d3nk18o9ro0c73en2l3g","pricing_plan_id":"cebpf4jnsgd1na2vs0mg"},{"bike_id":"85246bf5-791b-4c2f-925f-a931bac4026e","system_id":"levelo_inurba_marseille","lat":43.30116,"lon":5.431,"is_reserved":false,"is_disabled":false,"rental_uris":{"android":"levelo://app?vid=85246bf5-791b-4c2f-925f-a931bac4026e","ios":"levelo://app?vid=85246bf5-791b-4c2f-925f-a931bac4026e"},"vehicle_type_id":"4","last_reported":1767539409,"current_range_meters":7200,"station_id":"st_d3js3co5814s73ftftug","pricing_plan_id":"cebpf4jnsgd1na2vs0mg"},{"bike_id":"236dd84d-8375-4d9b-8e7d-9db60d676bfe","system_id":"levelo_inurba_marseille","lat":43.24681,"lon":5.38169,"is_reserved":false,"is_disabled":false,"rental_uris":{"android":"levelo://app?vid=236dd84d-8375-4d9b-8e7d-9db60d676bfe","ios":"levelo://app?vid=236dd84d-8375-4d9b-8e7d-9db60d676bfe"},"vehicle_type_id":"4","last_reported":1767539409,"current_range_meters":7200,"station_id":"ce4bhih2rcd13ifvqfr0","pricing_plan_id":"cebpf4jnsgd1na2vs0mg"},{"bike_id":"64798637-013c-491c-a059-5e095c709db3","system_id":"levelo_inurba_marseille","lat":43.31117,"lon":5.3776,"is_reserved":false,"is_disabled":false,"rental_uris":{"android":"levelo://app?vid=64798637-013c-491c-a059-5e095c709db3","ios":"levelo://app?vid=64798637-013c-491c-a059-5e095c709db3"},"vehicle_type_id":"4","last_reported":1767539409,"current_range_meters":7200,"station_id":"ce4bgt92rcd13ifvqcg0","pricing_plan_id":"cebpf4jnsgd1na2vs0mg"},{"bike_id":"e44fdb7f-8720-46ac-981c-054c6ce20310","system_id":"levelo_inurba_marseille","lat":43.284779,"lon":5.484023,"is_reserved":false,"is_disabled":false,"rental_uris":{"android":"levelo://app?vid=e44fdb7f-8720-46ac-981c-054c6ce20310","ios":"levelo://app?vid=e44fdb7f-8720-46ac-981c-054c6ce20310"},"vehicle_type_id":"4","last_reported":1767539409,"current_range_meters":7200,"station_id":"st_d3svhcjqgbts73a3dn0g","pricing_plan_id":"cebpf4jnsgd1na2vs0mg"},{"bike_id":"10275e8b-e387-4c5b-870e-c1fdbcdd807e","system_id":"levelo_inurba_marseille","lat":43.24651,"lon":5.38907,"is_reserved":false,"is_disabled":false,"rental_uris":{"android":"levelo://app?vid=10275e8b-e387-4c5b-870e-c1fdbcdd807e","ios":"levelo://app?vid=10275e8b-e387-4c5b-870e-c1fdbcdd807e"},"vehicle_type_id":"4","last_reported":1767539409,"current_range_meters":7200,"station_id":"ce4bhg12rcd13ifvqf60","pricing_plan_id":"cebpf4jnsgd1na2vs0mg"},{"bike_id":"e74b3363-5385-4ed1-a169-7be847d855ff","system_id":"levelo_inurba_marseille","lat":43.29025,"lon":5.35921,"is_reserved":false,"is_disabled":false,"rental_uris":{"android":"levelo://app?vid=e74b3363-5385-4ed1-a169-7be847d855ff","ios":"levelo://app?vid=e74b3363-5385-4ed1-a169-7be847d855ff"},"vehicle_type_id":"4","last_reported":1767539409,"current_range_meters":7200,"station_id":"ce4bha92rcd13ifvqeg0","pricing_plan_id":"cebpf4jnsgd1na2vs0mg"},{"bike_id":"150aba92-ff82-4e7d-aa4f-4d9583997907","system_id":"levelo_inurba_marseille","lat":43.22929,"lon":5.35372,"is_reserved":false,"is_disabled":false,"rental_uris":{"android":"levelo://app?vid=150aba92-ff82-4e7d-aa4f-4d9583997907","ios":"levelo://app?vid=150aba92-ff82-4e7d-aa4f-4d9583997907"},"vehicle_type_id":"4","last_reported":1767539409,"current_range_meters":7200,"station_id":"cpo3532slgdg3j2ikp40","pricing_plan_id":"cebpf4jnsgd1na2vs0mg"},{"bike_id":"eb64998a-ab90-40a2-a505-de517db3a969","system_id":"levelo_inurba_marseille","lat":43.29789,"lon":5.393445,"is_reserved":false,"is_disabled":false,"rental_uris":{"android":"levelo://app?vid=eb64998a-ab90-40a2-a505-de517db3a969","ios":"levelo://app?vid=eb64998a-ab90-40a2-a505-de517db3a969"},"vehicle_type_id":"4","last_reported":1767539409,"current_range_meters":7200,"station_id":"","pricing_plan_id":"cebpf4jnsgd1na2vs0mg"},{"bike_id":"5abeab1b-faee-4efd-b658-f0a83fb10313","system_id":"levelo_inurba_marseille","lat":43.26191,"lon":5.37463,"is_reserved":false,"is_disabled":false,"rental_uris":{"android":"levelo://app?vid=5abeab1b-faee-4efd-b658-f0a83fb10313","ios":"levelo://app?vid=5abeab1b-faee-4efd-b658-f0a83fb10313"},"vehicle_type_id":"4","last_reported":1767539409,"current_range_meters":7200,"station_id":"ce4bhgp2rcd13ifvqfc0","pricing_plan_id":"cebpf4jnsgd1na2vs0mg"},{"bike_id":"46c2d8b2-0f06-4ab4-9ea1-a6a2f77053d0","system_id":"levelo_inurba_marseille","lat":43.33741,"lon":5.37454,"is_reserved":false,"is_disabled":false,"rental_uris":{"android":"levelo://app?vid=46c2d8b2-0f06-4ab4-9ea1-a6a2f77053d0","ios":"levelo://app?vid=46c2d8b2-0f06-4ab4-9ea1-a6a2f77053d0"},"vehicle_type_id":"4","last_reported":1767539409,"current_range_meters":7200,"station_id":"","pricing_plan_id":"cebpf4jnsgd1na2vs0mg"},{"bike_id":"195e2e14-0016-420f-a925-0b6877e427aa","system_id":"levelo_inurba_marseille","lat":43.22929,"lon":5.35388,"is_reserved":false,"is_disabled":false,"rental_uris":{"android":"levelo://app?vid=195e2e14-0016-420f-a925-0b6877e427aa","ios":"levelo://app?vid=195e2e14-0016-420f-a925-0b6877e427aa"},"vehicle_type_id":"4","last_reported":1767539409,"current_range_meters":7200,"station_id":"cpo3532slgdg3j2ikp40","pricing_plan_id":"cebpf4jnsgd1na2vs0mg"},{"bike_id":"4a16e4fb-9315-4126-83fb-3f5631ff84f5","system_id":"levelo_inurba_marseille","lat":43.21205,"lon":5.35075,"is_reserved":false,"is_disabled":false,"rental_uris":{"android":"levelo://app?vid=4a16e4fb-9315-4126-83fb-3f5631ff84f5","ios":"levelo://app?vid=4a16e4fb-9315-4126-83fb-3f5631ff84f5"},"vehicle_type_id":"4","last_reported":1767539409,"current_range_meters":7200,"station_id":"st_cvj6sg6p6f1abm77japg","pricing_plan_id":"cebpf4jnsgd1na2vs0mg"},{"bike_id":"314f1e79-75d2-4520-879c-5c75bd15a245","system_id":"levelo_inurba_marseille","lat":43.27667,"lon":5.41868,"is_reserved":false,"is_disabled":false,"rental_uris":{"android":"levelo://app?vid=314f1e79-75d2-4520-879c-5c75bd15a245","ios":"levelo://app?vid=314f1e79-75d2-4520-879c-5c75bd15a245"},"vehicle_type_id":"4","last_reported":1767539409,"current_range_meters":7200,"station_id":"","pricing_plan_id":"cebpf4jnsgd1na2vs0mg"},{"bike_id":"adea4c67-abb8-4e0a-afe9-e10d4c4a5f41","system_id":"levelo_inurba_marseille","lat":43.27229,"lon":5.39172,"is_reserved":false,"is_disabled":false,"rental_uris":{"android":"levelo://app?vid=adea4c67-abb8-4e0a-afe9-e10d4c4a5f41","ios":"levelo://app?vid=adea4c67-abb8-4e0a-afe9-e10d4c4a5f41"},"vehicle_type_id":"4","last_reported":1767539409,"current_range_meters":7200,"station_id":"ce4bhhp2rcd13ifvqfm0","pricing_plan_id":"cebpf4jnsgd1na2vs0mg"},{"bike_id":"6143984b-0a96-4b29-b519-3f892095162a","system_id":"levelo_inurba_marseille","lat":43.27315,"lon":5.3907,"is_reserved":false,"is_disabled":false,"rental_uris":{"android":"levelo://app?vid=6143984b-0a96-4b29-b519-3f892095162a","ios":"levelo://app?vid=6143984b-0a96-4b29-b519-3f892095162a"},"vehicle_type_id":"4","last_reported":1767539409,"current_range_meters":7200,"station_id":"ce4bhgp2rcd13ifvqfe0","pricing_plan_id":"cebpf4jnsgd1na2vs0mg"},{"bike_id":"58538bfd-5715-45c2-8109-4db8978b4036","system_id":"levelo_inurba_marseille","lat":43.29189,"lon":5.35808,"is_reserved":false,"is_disabled":false,"rental_uris":{"android":"levelo://app?vid=58538bfd-5715-45c2-8109-4db8978b4036","ios":"levelo://app?vid=58538bfd-5715-45c2-8109-4db8978b4036"},"vehicle_type_id":"4","last_reported":1767539409,"current_range_meters":7200,"station_id":"ce4bhb12rcd13ifvqel0","pricing_plan_id":"cebpf4jnsgd1na2vs0mg"},{"bike_id":"02c3f754-a489-4c2b-9e24-38eb42bdae60","system_id":"levelo_inurba_marseille","lat":43.29036,"lon":5.39951,"is_reserved":false,"is_disabled":false,"rental_uris":{"android":"levelo://app?vid=02c3f754-a489-4c2b-9e24-38eb42bdae60","ios":"levelo://app?vid=02c3f754-a489-4c2b-9e24-38eb42bdae60"},"vehicle_type_id":"4","last_reported":1767539409,"current_range_meters":7200,"station_id":"ce4bh392rcd13ifvqdm0","pricing_plan_id":"cebpf4jnsgd1na2vs0mg"},{"bike_id":"524c1ed8-572d-4bd4-ab56-ccc941c96a3e","system_id":"levelo_inurba_marseille","lat":43.28623,"lon":5.35117,"is_reserved":false,"is_disabled":false,"rental_uris":{"android":"levelo://app?vid=524c1ed8-572d-4bd4-ab56-ccc941c96a3e","ios":"levelo://app?vid=524c1ed8-572d-4bd4-ab56-ccc941c96a3e"},"vehicle_type_id":"4","last_reported":1767539409,"current_range_meters":7200,"station_id":"ce4bhch2rcd13ifvqeug","pricing_plan_id":"cebpf4jnsgd1na2vs0mg"},{"bike_id":"9266c9ee-84f2-41f3-ba5f-42f44b708c8b","system_id":"levelo_inurba_marseille","lat":43.246286,"lon":5.431561,"is_reserved":false,"is_disabled":false,"rental_uris":{"android":"levelo://app?vid=9266c9ee-84f2-41f3-ba5f-42f44b708c8b","ios":"levelo://app?vid=9266c9ee-84f2-41f3-ba5f-42f44b708c8b"},"vehicle_type_id":"4","last_reported":1767539409,"current_range_meters":7200,"station_id":"st_d2m6c4gdas8pm72e190g","pricing_plan_id":"cebpf4jnsgd1na2vs0mg"},{"bike_id":"492fb627-7bc1-4cff-8097-e01a29adb15a","system_id":"levelo_inurba_marseille","lat":43.27311,"lon":5.39084,"is_reserved":false,"is_disabled":false,"rental_uris":{"android":"levelo://app?vid=492fb627-7bc1-4cff-8097-e01a29adb15a","ios":"levelo://app?vid=492fb627-7bc1-4cff-8097-e01a29adb15a"},"vehicle_type_id":"4","last_reported":1767539409,"current_range_meters":8000,"station_id":"ce4bhgp2rcd13ifvqfe0","pricing_plan_id":"cebpf4jnsgd1na2vs0mg"},{"bike_id":"1d00a4cb-00d9-4b5d-9884-747e6dfb334b","system_id":"levelo_inurba_marseille","lat":43.24685,"lon":5.38187,"is_reserved":false,"is_disabled":false,"rental_uris":{"android":"levelo://app?vid=1d00a4cb-00d9-4b5d-9884-747e6dfb334b","ios":"levelo://app?vid=1d00a4cb-00d9-4b5d-9884-747e6dfb334b"},"vehicle_type_id":"4","last_reported":1767539409,"current_range_meters":8000,"station_id":"ce4bhih2rcd13ifvqfr0","pricing_plan_id":"cebpf4jnsgd1na2vs0mg"},{"bike_id":"067249c4-fb35-421e-9a6c-c895241c197a","system_id":"levelo_inurba_marseille","lat":43.294866,"lon":5.392974,"is_reserved":false,"is_disabled":false,"rental_uris":{"android":"levelo://app?vid=067249c4-fb35-421e-9a6c-c895241c197a","ios":"levelo://app?vid=067249c4-fb35-421e-9a6c-c895241c197a"},"vehicle_type_id":"4","last_reported":1767539409,"current_range_meters":8000,"station_id":"","pricing_plan_id":"cebpf4jnsgd1na2vs0mg"},{"bike_id":"9a4508be-da1e-4b60-8c57-f6164bd9ccab","system_id":"levelo_inurba_marseille","lat":43.29952,"lon":5.36526,"is_reserved":false,"is_disabled":false,"rental_uris":{"android":"levelo://app?vid=9a4508be-da1e-4b60-8c57-f6164bd9ccab","ios":"levelo://app?vid=9a4508be-da1e-4b60-8c57-f6164bd9ccab"},"vehicle_type_id":"4","last_reported":1767539409,"current_range_meters":8000,"station_id":"ce4bgm92rcd13ifvqbr0","pricing_plan_id":"cebpf4jnsgd1na2vs0mg"},{"bike_id":"0e471836-29c5-4d70-93bc-4b375d486538","system_id":"levelo_inurba_marseille","lat":43.294521,"lon":5.397131,"is_reserved":false,"is_disabled":false,"rental_uris":{"android":"levelo://app?vid=0e471836-29c5-4d70-93bc-4b375d486538","ios":"levelo://app?vid=0e471836-29c5-4d70-93bc-4b375d486538"},"vehicle_type_id":"4","last_reported":1767539409,"current_range_meters":8000,"station_id":"ce4bh3h2rcd13ifvqdo0","pricing_plan_id":"cebpf4jnsgd1na2vs0mg"},{"bike_id":"c6e51788-4960-4dd0-a40f-de7c4c202044","system_id":"levelo_inurba_marseille","lat":43.26062,"lon":5.39394,"is_reserved":false,"is_disabled":false,"rental_uris":{"android":"levelo://app?vid=c6e51788-4960-4dd0-a40f-de7c4c202044","ios":"levelo://app?vid=c6e51788-4960-4dd0-a40f-de7c4c202044"},"vehicle_type_id":"4","last_reported":1767539409,"current_range_meters":8000,"station_id":"ce4bhh92rcd13ifvqfj0","pricing_plan_id":"cebpf4jnsgd1na2vs0mg"},{"bike_id":"088ffd9e-e621-46be-9471-ab036728f8c5","system_id":"levelo_inurba_marseille","lat":43.310605,"lon":5.371785,"is_reserved":false,"is_disabled":true,"rental_uris":{"android":"levelo://app?vid=088ffd9e-e621-46be-9471-ab036728f8c5","ios":"levelo://app?vid=088ffd9e-e621-46be-9471-ab036728f8c5"},"vehicle_type_id":"4","last_reported":1767539409,"current_range_meters":8000,"station_id":"st_d4kl2rp97mjs73e7tdfg","pricing_plan_id":"cebpf4jnsgd1na2vs0mg"},{"bike_id":"30b8b232-0149-43fe-aeaf-d6f987f833ea","system_id":"levelo_inurba_marseille","lat":43.262127,"lon":5.374438,"is_reserved":false,"is_disabled":false,"rental_uris":{"android":"levelo://app?vid=30b8b232-0149-43fe-aeaf-d6f987f833ea","ios":"levelo://app?vid=30b8b232-0149-43fe-aeaf-d6f987f833ea"},"vehicle_type_id":"4","last_reported":1767539409,"current_range_meters":8000,"station_id":"ce4bhgp2rcd13ifvqfc0","pricing_plan_id":"cebpf4jnsgd1na2vs0mg"},{"bike_id":"7f505e4c-fcc4-4b29-9d3f-538f9728a5b0","system_id":"levelo_inurba_marseille","lat":43.25504,"lon":5.37653,"is_reserved":false,"is_disabled":false,"rental_uris":{"android":"levelo://app?vid=7f505e4c-fcc4-4b29-9d3f-538f9728a5b0","ios":"levelo://app?vid=7f505e4c-fcc4-4b29-9d3f-538f9728a5b0"},"vehicle_type_id":"4","last_reported":1767539409,"current_range_meters":8000,"station_id":"ce4bhh12rcd13ifvqff0","pricing_plan_id":"cebpf4jnsgd1na2vs0mg"},{"bike_id":"dfdca8ae-7890-4f8d-864a-114bbb8dc8c5","system_id":"levelo_inurba_marseille","lat":43.25942,"lon":5.40872,"is_reserved":false,"is_disabled":false,"rental_uris":{"android":"levelo://app?vid=dfdca8ae-7890-4f8d-864a-114bbb8dc8c5","ios":"levelo://app?vid=dfdca8ae-7890-4f8d-864a-114bbb8dc8c5"},"vehicle_type_id":"4","last_reported":1767539409,"current_range_meters":8000,"station_id":"ce4bhm92rcd13ifvqglg","pricing_plan_id":"cebpf4jnsgd1na2vs0mg"},{"bike_id":"49eaeb99-01db-4a25-87fd-cb6c87f1647c","system_id":"levelo_inurba_marseille","lat":43.301152,"lon":5.431156,"is_reserved":false,"is_disabled":false,"rental_uris":{"android":"levelo://app?vid=49eaeb99-01db-4a25-87fd-cb6c87f1647c","ios":"levelo://app?vid=49eaeb99-01db-4a25-87fd-cb6c87f1647c"},"vehicle_type_id":"4","last_reported":1767539409,"current_range_meters":8000,"station_id":"st_d3js3co5814s73ftftug","pricing_plan_id":"cebpf4jnsgd1na2vs0mg"},{"bike_id":"39ce4818-3bce-4918-a6ee-8ee09daaf493","system_id":"levelo_inurba_marseille","lat":43.29962,"lon":5.38496,"is_reserved":false,"is_disabled":false,"rental_uris":{"android":"levelo://app?vid=39ce4818-3bce-4918-a6ee-8ee09daaf493","ios":"levelo://app?vid=39ce4818-3bce-4918-a6ee-8ee09daaf493"},"vehicle_type_id":"4","last_reported":1767539409,"current_range_meters":8000,"station_id":"ce4bgj92rcd13ifvqbd0","pricing_plan_id":"cebpf4jnsgd1na2vs0mg"},{"bike_id":"9d21dcb0-ce26-48db-a303-317550439f40","system_id":"levelo_inurba_marseille","lat":43.284834,"lon":5.483913,"is_reserved":false,"is_disabled":false,"rental_uris":{"android":"levelo://app?vid=9d21dcb0-ce26-48db-a303-317550439f40","ios":"levelo://app?vid=9d21dcb0-ce26-48db-a303-317550439f40"},"vehicle_type_id":"4","last_reported":1767539409,"current_range_meters":8000,"station_id":"st_d3svhcjqgbts73a3dn0g","pricing_plan_id":"cebpf4jnsgd1na2vs0mg"},{"bike_id":"ab212917-0222-46c3-89cf-022c04360208","system_id":"levelo_inurba_marseille","lat":43.29758,"lon":5.42772,"is_reserved":false,"is_disabled":false,"rental_uris":{"android":"levelo://app?vid=ab212917-0222-46c3-89cf-022c04360208","ios":"levelo://app?vid=ab212917-0222-46c3-89cf-022c04360208"},"vehicle_type_id":"4","last_reported":1767539409,"current_range_meters":8000,"station_id":"st_d3md5207bmas73dh9klg","pricing_plan_id":"cebpf4jnsgd1na2vs0mg"},{"bike_id":"f37c8ab2-4055-4d0c-bc22-679bade32c8c","system_id":"levelo_inurba_marseille","lat":43.30684,"lon":5.37225,"is_reserved":false,"is_disabled":false,"rental_uris":{"android":"levelo://app?vid=f37c8ab2-4055-4d0c-bc22-679bade32c8c","ios":"levelo://app?vid=f37c8ab2-4055-4d0c-bc22-679bade32c8c"},"vehicle_type_id":"4","last_reported":1767539409,"current_range_meters":8000,"station_id":"","pricing_plan_id":"cebpf4jnsgd1na2vs0mg"},{"bike_id":"3e54cf76-6a89-45e7-8bed-6a4722ea5196","system_id":"levelo_inurba_marseille","lat":43.27809,"lon":5.40715,"is_reserved":false,"is_disabled":false,"rental_uris":{"android":"levelo://app?vid=3e54cf76-6a89-45e7-8bed-6a4722ea5196","ios":"levelo://app?vid=3e54cf76-6a89-45e7-8bed-6a4722ea5196"},"vehicle_type_id":"4","last_reported":1767539409,"current_range_meters":8400,"station_id":"ce4bhnh2rcd13ifvqgtg","pricing_plan_id":"cebpf4jnsgd1na2vs0mg"},{"bike_id":"dc85bdc2-74eb-4701-80d3-9e71fabbb908","system_id":"levelo_inurba_marseille","lat":43.26493,"lon":5.3954,"is_reserved":false,"is_disabled":false,"rental_uris":{"android":"levelo://app?vid=dc85bdc2-74eb-4701-80d3-9e71fabbb908","ios":"levelo://app?vid=dc85bdc2-74eb-4701-80d3-9e71fabbb908"},"vehicle_type_id":"4","last_reported":1767539409,"current_range_meters":8400,"station_id":"ce4bhi12rcd13ifvqfq0","pricing_plan_id":"cebpf4jnsgd1na2vs0mg"},{"bike_id":"d20bb26d-9b8d-4f69-829b-a2fa0cab0079","system_id":"levelo_inurba_marseille","lat":43.2626,"lon":5.40482,"is_reserved":false,"is_disabled":false,"rental_uris":{"android":"levelo://app?vid=d20bb26d-9b8d-4f69-829b-a2fa0cab0079","ios":"levelo://app?vid=d20bb26d-9b8d-4f69-829b-a2fa0cab0079"},"vehicle_type_id":"4","last_reported":1767539409,"current_range_meters":8400,"station_id":"ce4bhmh2rcd13ifvqgmg","pricing_plan_id":"cebpf4jnsgd1na2vs0mg"},{"bike_id":"757a3986-249d-43a3-ad4e-3669e0e109d4","system_id":"levelo_inurba_marseille","lat":43.25002,"lon":5.38928,"is_reserved":false,"is_disabled":false,"rental_uris":{"android":"levelo://app?vid=757a3986-249d-43a3-ad4e-3669e0e109d4","ios":"levelo://app?vid=757a3986-249d-43a3-ad4e-3669e0e109d4"},"vehicle_type_id":"4","last_reported":1767539409,"current_range_meters":8400,"station_id":"ce4bhgp2rcd13ifvqfd0","pricing_plan_id":"cebpf4jnsgd1na2vs0mg"},{"bike_id":"f17107f2-6ad6-4bc9-8796-053e58b88c11","system_id":"levelo_inurba_marseille","lat":43.26937,"lon":5.40257,"is_reserved":false,"is_disabled":false,"rental_uris":{"android":"levelo://app?vid=f17107f2-6ad6-4bc9-8796-053e58b88c11","ios":"levelo://app?vid=f17107f2-6ad6-4bc9-8796-053e58b88c11"},"vehicle_type_id":"4","last_reported":1767539409,"current_range_meters":8400,"station_id":"cjm6bp8fraef2m0cb0m0","pricing_plan_id":"cebpf4jnsgd1na2vs0mg"},{"bike_id":"2187f946-b58d-4e0b-b2e7-3df141c54786","system_id":"levelo_inurba_marseille","lat":43.29269,"lon":5.38439,"is_reserved":false,"is_disabled":false,"rental_uris":{"android":"levelo://app?vid=2187f946-b58d-4e0b-b2e7-3df141c54786","ios":"levelo://app?vid=2187f946-b58d-4e0b-b2e7-3df141c54786"},"vehicle_type_id":"4","last_reported":1767539409,"current_range_meters":8400,"station_id":"ce4bh692rcd13ifvqea0","pricing_plan_id":"cebpf4jnsgd1na2vs0mg"},{"bike_id":"3fedbda4-18fb-4459-8990-789e6012cbd1","system_id":"levelo_inurba_marseille","lat":43.29385,"lon":5.37865,"is_reserved":false,"is_disabled":false,"rental_uris":{"android":"levelo://app?vid=3fedbda4-18fb-4459-8990-789e6012cbd1","ios":"levelo://app?vid=3fedbda4-18fb-4459-8990-789e6012cbd1"},"vehicle_type_id":"4","last_reported":1767539409,"current_range_meters":8400,"station_id":"ce4bgjh2rcd13ifvqbf0","pricing_plan_id":"cebpf4jnsgd1na2vs0mg"},{"bike_id":"1344b698-8650-40c6-84ae-c77983c95c2f","system_id":"levelo_inurba_marseille","lat":43.28941,"lon":5.3619,"is_reserved":false,"is_disabled":false,"rental_uris":{"android":"levelo://app?vid=1344b698-8650-40c6-84ae-c77983c95c2f","ios":"levelo://app?vid=1344b698-8650-40c6-84ae-c77983c95c2f"},"vehicle_type_id":"4","last_reported":1767539409,"current_range_meters":8400,"station_id":"","pricing_plan_id":"cebpf4jnsgd1na2vs0mg"},{"bike_id":"832630b7-1265-4116-b046-a0d5dd971800","system_id":"levelo_inurba_marseille","lat":43.29761,"lon":5.371,"is_reserved":false,"is_disabled":false,"rental_uris":{"android":"levelo://app?vid=832630b7-1265-4116-b046-a0d5dd971800","ios":"levelo://app?vid=832630b7-1265-4116-b046-a0d5dd971800"},"vehicle_type_id":"4","last_reported":1767539409,"current_range_meters":8400,"station_id":"ce4bgop2rcd13ifvqc1g","pricing_plan_id":"cebpf4jnsgd1na2vs0mg"},{"bike_id":"ea433994-4165-420a-9223-37582f30485d","system_id":"levelo_inurba_marseille","lat":43.30617,"lon":5.37568,"is_reserved":false,"is_disabled":false,"rental_uris":{"android":"levelo://app?vid=ea433994-4165-420a-9223-37582f30485d","ios":"levelo://app?vid=ea433994-4165-420a-9223-37582f30485d"},"vehicle_type_id":"4","last_reported":1767539409,"current_range_meters":8400,"station_id":"","pricing_plan_id":"cebpf4jnsgd1na2vs0mg"},{"bike_id":"20600a83-ffb2-4ea6-adcc-6f03f7742df5","system_id":"levelo_inurba_marseille","lat":43.27067,"lon":5.42278,"is_reserved":false,"is_disabled":false,"rental_uris":{"android":"levelo://app?vid=20600a83-ffb2-4ea6-adcc-6f03f7742df5","ios":"levelo://app?vid=20600a83-ffb2-4ea6-adcc-6f03f7742df5"},"vehicle_type_id":"4","last_reported":1767539409,"current_range_meters":8400,"station_id":"ce4bhk92rcd13ifvqgb0","pricing_plan_id":"cebpf4jnsgd1na2vs0mg"},{"bike_id":"e47be93a-64c5-46d3-888d-d26dca0f24fb","system_id":"levelo_inurba_marseille","lat":43.27222,"lon":5.3919,"is_reserved":false,"is_disabled":false,"rental_uris":{"android":"levelo://app?vid=e47be93a-64c5-46d3-888d-d26dca0f24fb","ios":"levelo://app?vid=e47be93a-64c5-46d3-888d-d26dca0f24fb"},"vehicle_type_id":"4","last_reported":1767539409,"current_range_meters":8400,"station_id":"ce4bhhp2rcd13ifvqfm0","pricing_plan_id":"cebpf4jnsgd1na2vs0mg"},{"bike_id":"359f0795-a0d4-4a51-9fe5-b2af786d837e","system_id":"levelo_inurba_marseille","lat":43.23959,"lon":5.36633,"is_reserved":false,"is_disabled":false,"rental_uris":{"android":"levelo://app?vid=359f0795-a0d4-4a51-9fe5-b2af786d837e","ios":"levelo://app?vid=359f0795-a0d4-4a51-9fe5-b2af786d837e"},"vehicle_type_id":"4","last_reported":1767539409,"current_range_meters":8400,"station_id":"ce4bhi12rcd13ifvqfp0","pricing_plan_id":"cebpf4jnsgd1na2vs0mg"},{"bike_id":"8de7d699-a86e-420a-a2c5-de64f54187ce","system_id":"levelo_inurba_marseille","lat":43.26668,"lon":5.3825,"is_reserved":false,"is_disabled":false,"rental_uris":{"android":"levelo://app?vid=8de7d699-a86e-420a-a2c5-de64f54187ce","ios":"levelo://app?vid=8de7d699-a86e-420a-a2c5-de64f54187ce"},"vehicle_type_id":"4","last_reported":1767539409,"current_range_meters":8400,"station_id":"ce4bhg92rcd13ifvqf90","pricing_plan_id":"cebpf4jnsgd1na2vs0mg"},{"bike_id":"746607d7-0d50-445a-b435-314ed89afc68","system_id":"levelo_inurba_marseille","lat":43.299,"lon":5.43675,"is_reserved":false,"is_disabled":false,"rental_uris":{"android":"levelo://app?vid=746607d7-0d50-445a-b435-314ed89afc68","ios":"levelo://app?vid=746607d7-0d50-445a-b435-314ed89afc68"},"vehicle_type_id":"4","last_reported":1767539409,"current_range_meters":8400,"station_id":"ce4bhpp2rcd13ifvqhfg","pricing_plan_id":"cebpf4jnsgd1na2vs0mg"},{"bike_id":"ecfba3ac-804e-418b-a7fa-cc102335e836","system_id":"levelo_inurba_marseille","lat":43.303043,"lon":5.456513,"is_reserved":false,"is_disabled":false,"rental_uris":{"android":"levelo://app?vid=ecfba3ac-804e-418b-a7fa-cc102335e836","ios":"levelo://app?vid=ecfba3ac-804e-418b-a7fa-cc102335e836"},"vehicle_type_id":"4","last_reported":1767539409,"current_range_meters":8400,"station_id":"","pricing_plan_id":"cebpf4jnsgd1na2vs0mg"},{"bike_id":"4a2d0bd7-1a95-48c1-92d2-8f9a54867963","system_id":"levelo_inurba_marseille","lat":43.23196,"lon":5.35556,"is_reserved":false,"is_disabled":false,"rental_uris":{"android":"levelo://app?vid=4a2d0bd7-1a95-48c1-92d2-8f9a54867963","ios":"levelo://app?vid=4a2d0bd7-1a95-48c1-92d2-8f9a54867963"},"vehicle_type_id":"4","last_reported":1767539409,"current_range_meters":8400,"station_id":"ce4bhu92rcd13ifvqi70","pricing_plan_id":"cebpf4jnsgd1na2vs0mg"},{"bike_id":"b4afa196-18ec-4d7d-bbba-b15c57a1293b","system_id":"levelo_inurba_marseille","lat":43.27223,"lon":5.39172,"is_reserved":false,"is_disabled":false,"rental_uris":{"android":"levelo://app?vid=b4afa196-18ec-4d7d-bbba-b15c57a1293b","ios":"levelo://app?vid=b4afa196-18ec-4d7d-bbba-b15c57a1293b"},"vehicle_type_id":"4","last_reported":1767539409,"current_range_meters":8400,"station_id":"ce4bhhp2rcd13ifvqfm0","pricing_plan_id":"cebpf4jnsgd1na2vs0mg"},{"bike_id":"0379e2d7-c2fe-47f5-a74e-2c91c56947f3","system_id":"levelo_inurba_marseille","lat":43.28424,"lon":5.37514,"is_reserved":false,"is_disabled":false,"rental_uris":{"android":"levelo://app?vid=0379e2d7-c2fe-47f5-a74e-2c91c56947f3","ios":"levelo://app?vid=0379e2d7-c2fe-47f5-a74e-2c91c56947f3"},"vehicle_type_id":"4","last_reported":1767539409,"current_range_meters":8400,"station_id":"ce4bh412rcd13ifvqds0","pricing_plan_id":"cebpf4jnsgd1na2vs0mg"},{"bike_id":"31d2da74-da7b-4e2b-9ec6-1c236fde367e","system_id":"levelo_inurba_marseille","lat":43.289246,"lon":5.381884,"is_reserved":false,"is_disabled":false,"rental_uris":{"android":"levelo://app?vid=31d2da74-da7b-4e2b-9ec6-1c236fde367e","ios":"levelo://app?vid=31d2da74-da7b-4e2b-9ec6-1c236fde367e"},"vehicle_type_id":"4","last_reported":1767539409,"current_range_meters":8400,"station_id":"ce4bh512rcd13ifvqe2g","pricing_plan_id":"cebpf4jnsgd1na2vs0mg"},{"bike_id":"12a80fe3-61e3-412b-a4be-0e9fe67491bf","system_id":"levelo_inurba_marseille","lat":43.25528,"lon":5.37672,"is_reserved":false,"is_disabled":true,"rental_uris":{"android":"levelo://app?vid=12a80fe3-61e3-412b-a4be-0e9fe67491bf","ios":"levelo://app?vid=12a80fe3-61e3-412b-a4be-0e9fe67491bf"},"vehicle_type_id":"4","last_reported":1767539409,"current_range_meters":8400,"station_id":"ce4bhh12rcd13ifvqff0","pricing_plan_id":"cebpf4jnsgd1na2vs0mg"},{"bike_id":"752e32ed-dca7-49b7-960f-de09644e5641","system_id":"levelo_inurba_marseille","lat":43.29223,"lon":5.3607,"is_reserved":false,"is_disabled":false,"rental_uris":{"android":"levelo://app?vid=752e32ed-dca7-49b7-960f-de09644e5641","ios":"levelo://app?vid=752e32ed-dca7-49b7-960f-de09644e5641"},"vehicle_type_id":"4","last_reported":1767539409,"current_range_meters":8800,"station_id":"ce4bhbh2rcd13ifvqeqg","pricing_plan_id":"cebpf4jnsgd1na2vs0mg"},{"bike_id":"704d55d2-80bc-4f15-89c1-0da3b8afad7d","system_id":"levelo_inurba_marseille","lat":43.26563,"lon":5.39002,"is_reserved":false,"is_disabled":false,"rental_uris":{"android":"levelo://app?vid=704d55d2-80bc-4f15-89c1-0da3b8afad7d","ios":"levelo://app?vid=704d55d2-80bc-4f15-89c1-0da3b8afad7d"},"vehicle_type_id":"4","last_reported":1767539409,"current_range_meters":8800,"station_id":"ce4bhe12rcd13ifvqf30","pricing_plan_id":"cebpf4jnsgd1na2vs0mg"},{"bike_id":"8abe114a-6130-480c-8ffa-a468323abd52","system_id":"levelo_inurba_marseille","lat":43.27912,"lon":5.37996,"is_reserved":false,"is_disabled":true,"rental_uris":{"android":"levelo://app?vid=8abe114a-6130-480c-8ffa-a468323abd52","ios":"levelo://app?vid=8abe114a-6130-480c-8ffa-a468323abd52"},"vehicle_type_id":"4","last_reported":1767539409,"current_range_meters":8800,"station_id":"ce4bhf92rcd13ifvqf50","pricing_plan_id":"cebpf4jnsgd1na2vs0mg"},{"bike_id":"b79148a9-0296-401e-b0d8-446ba2350cbc","system_id":"levelo_inurba_marseille","lat":43.26213,"lon":5.40453,"is_reserved":false,"is_disabled":false,"rental_uris":{"android":"levelo://app?vid=b79148a9-0296-401e-b0d8-446ba2350cbc","ios":"levelo://app?vid=b79148a9-0296-401e-b0d8-446ba2350cbc"},"vehicle_type_id":"4","last_reported":1767539409,"current_range_meters":8800,"station_id":"ce4bhmh2rcd13ifvqgmg","pricing_plan_id":"cebpf4jnsgd1na2vs0mg"},{"bike_id":"225bdd2a-0ec2-4312-a816-23bf65227ab6","system_id":"levelo_inurba_marseille","lat":43.263782,"lon":5.410679,"is_reserved":false,"is_disabled":true,"rental_uris":{"android":"levelo://app?vid=225bdd2a-0ec2-4312-a816-23bf65227ab6","ios":"levelo://app?vid=225bdd2a-0ec2-4312-a816-23bf65227ab6"},"vehicle_type_id":"4","last_reported":1767539409,"current_range_meters":8800,"station_id":"","pricing_plan_id":"cebpf4jnsgd1na2vs0mg"},{"bike_id":"09de8293-0bc7-4093-9fd7-78e5ee68b962","system_id":"levelo_inurba_marseille","lat":43.28001,"lon":5.41653,"is_reserved":false,"is_disabled":false,"rental_uris":{"android":"levelo://app?vid=09de8293-0bc7-4093-9fd7-78e5ee68b962","ios":"levelo://app?vid=09de8293-0bc7-4093-9fd7-78e5ee68b962"},"vehicle_type_id":"4","last_reported":1767539409,"current_range_meters":8800,"station_id":"ce4bho12rcd13ifvqh1g","pricing_plan_id":"cebpf4jnsgd1na2vs0mg"},{"bike_id":"255658a8-b46b-4069-9e30-81efa319b4d2","system_id":"levelo_inurba_marseille","lat":43.29494,"lon":5.43275,"is_reserved":false,"is_disabled":false,"rental_uris":{"android":"levelo://app?vid=255658a8-b46b-4069-9e30-81efa319b4d2","ios":"levelo://app?vid=255658a8-b46b-4069-9e30-81efa319b4d2"},"vehicle_type_id":"4","last_reported":1767539409,"current_range_meters":8800,"station_id":"st_d3j5ugp08ojc73fj9d10","pricing_plan_id":"cebpf4jnsgd1na2vs0mg"},{"bike_id":"2b725004-d7f5-4f46-95e9-d13bbd3642dd","system_id":"levelo_inurba_marseille","lat":43.29558,"lon":5.42275,"is_reserved":false,"is_disabled":false,"rental_uris":{"android":"levelo://app?vid=2b725004-d7f5-4f46-95e9-d13bbd3642dd","ios":"levelo://app?vid=2b725004-d7f5-4f46-95e9-d13bbd3642dd"},"vehicle_type_id":"4","last_reported":1767539409,"current_range_meters":8800,"station_id":"ce4bhph2rcd13ifvqhdg","pricing_plan_id":"cebpf4jnsgd1na2vs0mg"},{"bike_id":"f90ae0a4-6565-4749-9651-09c48dd5a24b","system_id":"levelo_inurba_marseille","lat":43.28997,"lon":5.35606,"is_reserved":false,"is_disabled":false,"rental_uris":{"android":"levelo://app?vid=f90ae0a4-6565-4749-9651-09c48dd5a24b","ios":"levelo://app?vid=f90ae0a4-6565-4749-9651-09c48dd5a24b"},"vehicle_type_id":"4","last_reported":1767539409,"current_range_meters":8800,"station_id":"ce4bhb92rcd13ifvqen0","pricing_plan_id":"cebpf4jnsgd1na2vs0mg"},{"bike_id":"545f9334-236a-4669-96e8-59414613bfd0","system_id":"levelo_inurba_marseille","lat":43.298408,"lon":5.362719,"is_reserved":false,"is_disabled":false,"rental_uris":{"android":"levelo://app?vid=545f9334-236a-4669-96e8-59414613bfd0","ios":"levelo://app?vid=545f9334-236a-4669-96e8-59414613bfd0"},"vehicle_type_id":"4","last_reported":1767539409,"current_range_meters":8800,"station_id":"","pricing_plan_id":"cebpf4jnsgd1na2vs0mg"},{"bike_id":"6810c3ac-e43b-411a-b038-f400c6af2579","system_id":"levelo_inurba_marseille","lat":43.249469,"lon":5.40486,"is_reserved":false,"is_disabled":false,"rental_uris":{"android":"levelo://app?vid=6810c3ac-e43b-411a-b038-f400c6af2579","ios":"levelo://app?vid=6810c3ac-e43b-411a-b038-f400c6af2579"},"vehicle_type_id":"4","last_reported":1767539409,"current_range_meters":8800,"station_id":"st_d2ngiaodas8pm72gd1h0","pricing_plan_id":"cebpf4jnsgd1na2vs0mg"},{"bike_id":"f3bc2b83-f211-4612-be45-4e3acf4d48db","system_id":"levelo_inurba_marseille","lat":43.27661,"lon":5.41829,"is_reserved":false,"is_disabled":false,"rental_uris":{"android":"levelo://app?vid=f3bc2b83-f211-4612-be45-4e3acf4d48db","ios":"levelo://app?vid=f3bc2b83-f211-4612-be45-4e3acf4d48db"},"vehicle_type_id":"4","last_reported":1767539409,"current_range_meters":8800,"station_id":"","pricing_plan_id":"cebpf4jnsgd1na2vs0mg"},{"bike_id":"38478ce1-a447-4641-99f3-89c5bb836bdb","system_id":"levelo_inurba_marseille","lat":43.27438,"lon":5.41895,"is_reserved":false,"is_disabled":false,"rental_uris":{"android":"levelo://app?vid=38478ce1-a447-4641-99f3-89c5bb836bdb","ios":"levelo://app?vid=38478ce1-a447-4641-99f3-89c5bb836bdb"},"vehicle_type_id":"4","last_reported":1767539409,"current_range_meters":8800,"station_id":"","pricing_plan_id":"cebpf4jnsgd1na2vs0mg"},{"bike_id":"313a26e2-6d5c-4db1-9b5b-ccc981e39b88","system_id":"levelo_inurba_marseille","lat":43.23791,"lon":5.366384,"is_reserved":false,"is_disabled":false,"rental_uris":{"android":"levelo://app?vid=313a26e2-6d5c-4db1-9b5b-ccc981e39b88","ios":"levelo://app?vid=313a26e2-6d5c-4db1-9b5b-ccc981e39b88"},"vehicle_type_id":"4","last_reported":1767539409,"current_range_meters":8800,"station_id":"st_d3nk18o9ro0c73en2l3g","pricing_plan_id":"cebpf4jnsgd1na2vs0mg"},{"bike_id":"278b026d-7c90-4296-9421-3e0684d777fa","system_id":"levelo_inurba_marseille","lat":43.29941,"lon":5.38389,"is_reserved":false,"is_disabled":false,"rental_uris":{"android":"levelo://app?vid=278b026d-7c90-4296-9421-3e0684d777fa","ios":"levelo://app?vid=278b026d-7c90-4296-9421-3e0684d777fa"},"vehicle_type_id":"4","last_reported":1767539409,"current_range_meters":8800,"station_id":"","pricing_plan_id":"cebpf4jnsgd1na2vs0mg"},{"bike_id":"59bca459-f8ba-4ca0-be09-8ae241edab81","system_id":"levelo_inurba_marseille","lat":43.33331,"lon":5.41109,"is_reserved":false,"is_disabled":false,"rental_uris":{"android":"levelo://app?vid=59bca459-f8ba-4ca0-be09-8ae241edab81","ios":"levelo://app?vid=59bca459-f8ba-4ca0-be09-8ae241edab81"},"vehicle_type_id":"4","last_reported":1767539409,"current_range_meters":8800,"station_id":"","pricing_plan_id":"cebpf4jnsgd1na2vs0mg"},{"bike_id":"47f5f321-0859-44a5-a3e2-7e35572c8bac","system_id":"levelo_inurba_marseille","lat":43.27104,"lon":5.4225,"is_reserved":false,"is_disabled":false,"rental_uris":{"android":"levelo://app?vid=47f5f321-0859-44a5-a3e2-7e35572c8bac","ios":"levelo://app?vid=47f5f321-0859-44a5-a3e2-7e35572c8bac"},"vehicle_type_id":"4","last_reported":1767539409,"current_range_meters":8800,"station_id":"ce4bhk92rcd13ifvqgb0","pricing_plan_id":"cebpf4jnsgd1na2vs0mg"},{"bike_id":"9b4021cf-15f5-49ee-bfc4-492922ebf4c9","system_id":"levelo_inurba_marseille","lat":43.302848,"lon":5.372691,"is_reserved":false,"is_disabled":false,"rental_uris":{"android":"levelo://app?vid=9b4021cf-15f5-49ee-bfc4-492922ebf4c9","ios":"levelo://app?vid=9b4021cf-15f5-49ee-bfc4-492922ebf4c9"},"vehicle_type_id":"4","last_reported":1767539409,"current_range_meters":8800,"station_id":"","pricing_plan_id":"cebpf4jnsgd1na2vs0mg"},{"bike_id":"9a2b0916-e492-4c7c-8e13-0a8c03305951","system_id":"levelo_inurba_marseille","lat":43.29573,"lon":5.37497,"is_reserved":false,"is_disabled":false,"rental_uris":{"android":"levelo://app?vid=9a2b0916-e492-4c7c-8e13-0a8c03305951","ios":"levelo://app?vid=9a2b0916-e492-4c7c-8e13-0a8c03305951"},"vehicle_type_id":"4","last_reported":1767539409,"current_range_meters":8800,"station_id":"ce4bgh92rcd13ifvqb50","pricing_plan_id":"cebpf4jnsgd1na2vs0mg"},{"bike_id":"7a449d50-e3e7-4e09-8094-ac2bbf561ff6","system_id":"levelo_inurba_marseille","lat":43.28481,"lon":5.3587,"is_reserved":false,"is_disabled":false,"rental_uris":{"android":"levelo://app?vid=7a449d50-e3e7-4e09-8094-ac2bbf561ff6","ios":"levelo://app?vid=7a449d50-e3e7-4e09-8094-ac2bbf561ff6"},"vehicle_type_id":"4","last_reported":1767539409,"current_range_meters":8800,"station_id":"ce4bhah2rcd13ifvqei0","pricing_plan_id":"cebpf4jnsgd1na2vs0mg"},{"bike_id":"689e1e25-96b9-418c-bbe1-0e8f9558c52f","system_id":"levelo_inurba_marseille","lat":43.3134,"lon":5.3761,"is_reserved":false,"is_disabled":false,"rental_uris":{"android":"levelo://app?vid=689e1e25-96b9-418c-bbe1-0e8f9558c52f","ios":"levelo://app?vid=689e1e25-96b9-418c-bbe1-0e8f9558c52f"},"vehicle_type_id":"4","last_reported":1767539409,"current_range_meters":8800,"station_id":"","pricing_plan_id":"cebpf4jnsgd1na2vs0mg"},{"bike_id":"75f514f3-a391-4f43-9ffc-c99bb058b876","system_id":"levelo_inurba_marseille","lat":43.23188,"lon":5.35539,"is_reserved":false,"is_disabled":false,"rental_uris":{"android":"levelo://app?vid=75f514f3-a391-4f43-9ffc-c99bb058b876","ios":"levelo://app?vid=75f514f3-a391-4f43-9ffc-c99bb058b876"},"vehicle_type_id":"4","last_reported":1767539409,"current_range_meters":8800,"station_id":"ce4bhu92rcd13ifvqi70","pricing_plan_id":"cebpf4jnsgd1na2vs0mg"},{"bike_id":"efd33062-2cef-445f-af98-648f578e9c2a","system_id":"levelo_inurba_marseille","lat":43.32622,"lon":5.41931,"is_reserved":false,"is_disabled":false,"rental_uris":{"android":"levelo://app?vid=efd33062-2cef-445f-af98-648f578e9c2a","ios":"levelo://app?vid=efd33062-2cef-445f-af98-648f578e9c2a"},"vehicle_type_id":"4","last_reported":1767539409,"current_range_meters":9200,"station_id":"","pricing_plan_id":"cebpf4jnsgd1na2vs0mg"},{"bike_id":"3115bbd7-1c85-4603-a617-db0a037ecab5","system_id":"levelo_inurba_marseille","lat":43.29411,"lon":5.43279,"is_reserved":false,"is_disabled":false,"rental_uris":{"android":"levelo://app?vid=3115bbd7-1c85-4603-a617-db0a037ecab5","ios":"levelo://app?vid=3115bbd7-1c85-4603-a617-db0a037ecab5"},"vehicle_type_id":"4","last_reported":1767539409,"current_range_meters":9200,"station_id":"","pricing_plan_id":"cebpf4jnsgd1na2vs0mg"},{"bike_id":"a36b7803-c6f7-4fb4-8075-ef9431f03e05","system_id":"levelo_inurba_marseille","lat":43.29767,"lon":5.37103,"is_reserved":false,"is_disabled":false,"rental_uris":{"android":"levelo://app?vid=a36b7803-c6f7-4fb4-8075-ef9431f03e05","ios":"levelo://app?vid=a36b7803-c6f7-4fb4-8075-ef9431f03e05"},"vehicle_type_id":"4","last_reported":1767539409,"current_range_meters":9200,"station_id":"ce4bgop2rcd13ifvqc1g","pricing_plan_id":"cebpf4jnsgd1na2vs0mg"},{"bike_id":"ec2e2d97-541d-4f0e-9289-f85c25486ad3","system_id":"levelo_inurba_marseille","lat":43.25749,"lon":5.411,"is_reserved":false,"is_disabled":false,"rental_uris":{"android":"levelo://app?vid=ec2e2d97-541d-4f0e-9289-f85c25486ad3","ios":"levelo://app?vid=ec2e2d97-541d-4f0e-9289-f85c25486ad3"},"vehicle_type_id":"4","last_reported":1767539409,"current_range_meters":9200,"station_id":"ce4bhkp2rcd13ifvqgd0","pricing_plan_id":"cebpf4jnsgd1na2vs0mg"},{"bike_id":"9ffd8e4e-6671-4e68-b198-26c59cc5e3d1","system_id":"levelo_inurba_marseille","lat":43.32635,"lon":5.41937,"is_reserved":false,"is_disabled":false,"rental_uris":{"android":"levelo://app?vid=9ffd8e4e-6671-4e68-b198-26c59cc5e3d1","ios":"levelo://app?vid=9ffd8e4e-6671-4e68-b198-26c59cc5e3d1"},"vehicle_type_id":"4","last_reported":1767539409,"current_range_meters":9200,"station_id":"","pricing_plan_id":"cebpf4jnsgd1na2vs0mg"},{"bike_id":"61bede02-2851-4fcf-827d-afeac7ac0523","system_id":"levelo_inurba_marseille","lat":43.29879,"lon":5.37661,"is_reserved":false,"is_disabled":false,"rental_uris":{"android":"levelo://app?vid=61bede02-2851-4fcf-827d-afeac7ac0523","ios":"levelo://app?vid=61bede02-2851-4fcf-827d-afeac7ac0523"},"vehicle_type_id":"4","last_reported":1767539409,"current_range_meters":9200,"station_id":"ce4bhr92rcd13ifvqhrg","pricing_plan_id":"cebpf4jnsgd1na2vs0mg"},{"bike_id":"f45af1ed-ba57-4931-a22f-bc2fde3d778c","system_id":"levelo_inurba_marseille","lat":43.30375,"lon":5.424887,"is_reserved":false,"is_disabled":false,"rental_uris":{"android":"levelo://app?vid=f45af1ed-ba57-4931-a22f-bc2fde3d778c","ios":"levelo://app?vid=f45af1ed-ba57-4931-a22f-bc2fde3d778c"},"vehicle_type_id":"4","last_reported":1767539409,"current_range_meters":9200,"station_id":"ce4bhoh2rcd13ifvqh6g","pricing_plan_id":"cebpf4jnsgd1na2vs0mg"},{"bike_id":"16e48f27-7b0d-4505-a28d-1934122f2e60","system_id":"levelo_inurba_marseille","lat":43.29362,"lon":5.39865,"is_reserved":false,"is_disabled":false,"rental_uris":{"android":"levelo://app?vid=16e48f27-7b0d-4505-a28d-1934122f2e60","ios":"levelo://app?vid=16e48f27-7b0d-4505-a28d-1934122f2e60"},"vehicle_type_id":"4","last_reported":1767539409,"current_range_meters":9200,"station_id":"","pricing_plan_id":"cebpf4jnsgd1na2vs0mg"},{"bike_id":"e1fc1062-0983-4470-b133-43e5205e15dd","system_id":"levelo_inurba_marseille","lat":43.26944,"lon":5.40254,"is_reserved":false,"is_disabled":false,"rental_uris":{"android":"levelo://app?vid=e1fc1062-0983-4470-b133-43e5205e15dd","ios":"levelo://app?vid=e1fc1062-0983-4470-b133-43e5205e15dd"},"vehicle_type_id":"4","last_reported":1767539409,"current_range_meters":9200,"station_id":"cjm6bp8fraef2m0cb0m0","pricing_plan_id":"cebpf4jnsgd1na2vs0mg"},{"bike_id":"11e0f7b0-1542-4aa8-a49b-9673dd0ff30c","system_id":"levelo_inurba_marseille","lat":43.28666,"lon":5.36349,"is_reserved":false,"is_disabled":false,"rental_uris":{"android":"levelo://app?vid=11e0f7b0-1542-4aa8-a49b-9673dd0ff30c","ios":"levelo://app?vid=11e0f7b0-1542-4aa8-a49b-9673dd0ff30c"},"vehicle_type_id":"4","last_reported":1767539409,"current_range_meters":9200,"station_id":"ce4bhah2rcd13ifvqej0","pricing_plan_id":"cebpf4jnsgd1na2vs0mg"},{"bike_id":"1f1bfc90-c16d-43bf-b03c-d479766ea213","system_id":"levelo_inurba_marseille","lat":43.21744,"lon":5.34598,"is_reserved":false,"is_disabled":true,"rental_uris":{"android":"levelo://app?vid=1f1bfc90-c16d-43bf-b03c-d479766ea213","ios":"levelo://app?vid=1f1bfc90-c16d-43bf-b03c-d479766ea213"},"vehicle_type_id":"4","last_reported":1767539409,"current_range_meters":9200,"station_id":"st_cvj6r9ubvosntc0bgbag","pricing_plan_id":"cebpf4jnsgd1na2vs0mg"},{"bike_id":"c713e54a-b82d-4ed6-8942-6938c8451e46","system_id":"levelo_inurba_marseille","lat":43.27322,"lon":5.39082,"is_reserved":false,"is_disabled":false,"rental_uris":{"android":"levelo://app?vid=c713e54a-b82d-4ed6-8942-6938c8451e46","ios":"levelo://app?vid=c713e54a-b82d-4ed6-8942-6938c8451e46"},"vehicle_type_id":"4","last_reported":1767539409,"current_range_meters":9200,"station_id":"ce4bhgp2rcd13ifvqfe0","pricing_plan_id":"cebpf4jnsgd1na2vs0mg"},{"bike_id":"8f68de20-9b1c-4e0e-b23b-f3d4d2cd66eb","system_id":"levelo_inurba_marseille","lat":43.30646,"lon":5.40093,"is_reserved":false,"is_disabled":false,"rental_uris":{"android":"levelo://app?vid=8f68de20-9b1c-4e0e-b23b-f3d4d2cd66eb","ios":"levelo://app?vid=8f68de20-9b1c-4e0e-b23b-f3d4d2cd66eb"},"vehicle_type_id":"4","last_reported":1767539409,"current_range_meters":9200,"station_id":"ce4bh112rcd13ifvqda0","pricing_plan_id":"cebpf4jnsgd1na2vs0mg"},{"bike_id":"0ed2fdbc-3e48-4a73-929a-f5dafa2ae8d6","system_id":"levelo_inurba_marseille","lat":43.2847,"lon":5.38412,"is_reserved":false,"is_disabled":false,"rental_uris":{"android":"levelo://app?vid=0ed2fdbc-3e48-4a73-929a-f5dafa2ae8d6","ios":"levelo://app?vid=0ed2fdbc-3e48-4a73-929a-f5dafa2ae8d6"},"vehicle_type_id":"4","last_reported":1767539409,"current_range_meters":9200,"station_id":"ce4bh512rcd13ifvqe3g","pricing_plan_id":"cebpf4jnsgd1na2vs0mg"},{"bike_id":"c48b8ab0-3aed-485b-9e87-5ea8f52478d4","system_id":"levelo_inurba_marseille","lat":43.31489,"lon":5.38382,"is_reserved":false,"is_disabled":false,"rental_uris":{"android":"levelo://app?vid=c48b8ab0-3aed-485b-9e87-5ea8f52478d4","ios":"levelo://app?vid=c48b8ab0-3aed-485b-9e87-5ea8f52478d4"},"vehicle_type_id":"4","last_reported":1767539409,"current_range_meters":9200,"station_id":"","pricing_plan_id":"cebpf4jnsgd1na2vs0mg"},{"bike_id":"8df72e66-3ecd-4d23-9852-e27ab80ec7ab","system_id":"levelo_inurba_marseille","lat":43.27229,"lon":5.3917,"is_reserved":false,"is_disabled":false,"rental_uris":{"android":"levelo://app?vid=8df72e66-3ecd-4d23-9852-e27ab80ec7ab","ios":"levelo://app?vid=8df72e66-3ecd-4d23-9852-e27ab80ec7ab"},"vehicle_type_id":"4","last_reported":1767539409,"current_range_meters":9200,"station_id":"ce4bhhp2rcd13ifvqfm0","pricing_plan_id":"cebpf4jnsgd1na2vs0mg"},{"bike_id":"d7927a0c-acc6-4dbc-b121-3fe1c24d45cd","system_id":"levelo_inurba_marseille","lat":43.23953,"lon":5.36633,"is_reserved":false,"is_disabled":false,"rental_uris":{"android":"levelo://app?vid=d7927a0c-acc6-4dbc-b121-3fe1c24d45cd","ios":"levelo://app?vid=d7927a0c-acc6-4dbc-b121-3fe1c24d45cd"},"vehicle_type_id":"4","last_reported":1767539409,"current_range_meters":9600,"station_id":"ce4bhi12rcd13ifvqfp0","pricing_plan_id":"cebpf4jnsgd1na2vs0mg"},{"bike_id":"fa425a2b-b01f-4040-b6da-de1021f8b95c","system_id":"levelo_inurba_marseille","lat":43.29452,"lon":5.37913,"is_reserved":false,"is_disabled":false,"rental_uris":{"android":"levelo://app?vid=fa425a2b-b01f-4040-b6da-de1021f8b95c","ios":"levelo://app?vid=fa425a2b-b01f-4040-b6da-de1021f8b95c"},"vehicle_type_id":"4","last_reported":1767539409,"current_range_meters":9600,"station_id":"","pricing_plan_id":"cebpf4jnsgd1na2vs0mg"},{"bike_id":"86f4117e-bfd7-4a5f-b403-eeb9a7153bb3","system_id":"levelo_inurba_marseille","lat":43.225324,"lon":5.348299,"is_reserved":false,"is_disabled":false,"rental_uris":{"android":"levelo://app?vid=86f4117e-bfd7-4a5f-b403-eeb9a7153bb3","ios":"levelo://app?vid=86f4117e-bfd7-4a5f-b403-eeb9a7153bb3"},"vehicle_type_id":"4","last_reported":1767539409,"current_range_meters":9600,"station_id":"","pricing_plan_id":"cebpf4jnsgd1na2vs0mg"},{"bike_id":"fb3ff291-ec14-48e2-a7c5-acac5134cd54","system_id":"levelo_inurba_marseille","lat":43.28472,"lon":5.38431,"is_reserved":false,"is_disabled":false,"rental_uris":{"android":"levelo://app?vid=fb3ff291-ec14-48e2-a7c5-acac5134cd54","ios":"levelo://app?vid=fb3ff291-ec14-48e2-a7c5-acac5134cd54"},"vehicle_type_id":"4","last_reported":1767539409,"current_range_meters":9600,"station_id":"ce4bh512rcd13ifvqe3g","pricing_plan_id":"cebpf4jnsgd1na2vs0mg"},{"bike_id":"2a61f7a8-d2f7-4b6f-8828-528b5bab141c","system_id":"levelo_inurba_marseille","lat":43.27181,"lon":5.40993,"is_reserved":false,"is_disabled":false,"rental_uris":{"android":"levelo://app?vid=2a61f7a8-d2f7-4b6f-8828-528b5bab141c","ios":"levelo://app?vid=2a61f7a8-d2f7-4b6f-8828-528b5bab141c"},"vehicle_type_id":"4","last_reported":1767539409,"current_range_meters":9600,"station_id":"ce4bhl12rcd13ifvqgf0","pricing_plan_id":"cebpf4jnsgd1na2vs0mg"},{"bike_id":"8f67289a-c445-41d3-a7c1-2b5874f96ec2","system_id":"levelo_inurba_marseille","lat":43.31338,"lon":5.40461,"is_reserved":false,"is_disabled":false,"rental_uris":{"android":"levelo://app?vid=8f67289a-c445-41d3-a7c1-2b5874f96ec2","ios":"levelo://app?vid=8f67289a-c445-41d3-a7c1-2b5874f96ec2"},"vehicle_type_id":"4","last_reported":1767539409,"current_range_meters":9600,"station_id":"","pricing_plan_id":"cebpf4jnsgd1na2vs0mg"},{"bike_id":"17122469-6fe8-44cc-83aa-2add588c9ff0","system_id":"levelo_inurba_marseille","lat":43.27067,"lon":5.42276,"is_reserved":false,"is_disabled":false,"rental_uris":{"android":"levelo://app?vid=17122469-6fe8-44cc-83aa-2add588c9ff0","ios":"levelo://app?vid=17122469-6fe8-44cc-83aa-2add588c9ff0"},"vehicle_type_id":"4","last_reported":1767539409,"current_range_meters":9600,"station_id":"ce4bhk92rcd13ifvqgb0","pricing_plan_id":"cebpf4jnsgd1na2vs0mg"},{"bike_id":"775e5942-5698-4bd1-a7a9-ca32c54f4bac","system_id":"levelo_inurba_marseille","lat":43.26935,"lon":5.4024,"is_reserved":false,"is_disabled":false,"rental_uris":{"android":"levelo://app?vid=775e5942-5698-4bd1-a7a9-ca32c54f4bac","ios":"levelo://app?vid=775e5942-5698-4bd1-a7a9-ca32c54f4bac"},"vehicle_type_id":"4","last_reported":1767539409,"current_range_meters":9600,"station_id":"cjm6bp8fraef2m0cb0m0","pricing_plan_id":"cebpf4jnsgd1na2vs0mg"},{"bike_id":"f1165fe5-d93d-41b6-9000-e241b3f6bc1d","system_id":"levelo_inurba_marseille","lat":43.26949,"lon":5.40265,"is_reserved":false,"is_disabled":false,"rental_uris":{"android":"levelo://app?vid=f1165fe5-d93d-41b6-9000-e241b3f6bc1d","ios":"levelo://app?vid=f1165fe5-d93d-41b6-9000-e241b3f6bc1d"},"vehicle_type_id":"4","last_reported":1767539409,"current_range_meters":9600,"station_id":"cjm6bp8fraef2m0cb0m0","pricing_plan_id":"cebpf4jnsgd1na2vs0mg"},{"bike_id":"49a96660-e578-4ebd-bcf2-de192bd97b43","system_id":"levelo_inurba_marseille","lat":43.2848,"lon":5.38409,"is_reserved":false,"is_disabled":false,"rental_uris":{"android":"levelo://app?vid=49a96660-e578-4ebd-bcf2-de192bd97b43","ios":"levelo://app?vid=49a96660-e578-4ebd-bcf2-de192bd97b43"},"vehicle_type_id":"4","last_reported":1767539409,"current_range_meters":9600,"station_id":"ce4bh512rcd13ifvqe3g","pricing_plan_id":"cebpf4jnsgd1na2vs0mg"},{"bike_id":"a37d40f7-6a7a-463a-8f5a-b25737a5a4f2","system_id":"levelo_inurba_marseille","lat":43.299195,"lon":5.380173,"is_reserved":false,"is_disabled":false,"rental_uris":{"android":"levelo://app?vid=a37d40f7-6a7a-463a-8f5a-b25737a5a4f2","ios":"levelo://app?vid=a37d40f7-6a7a-463a-8f5a-b25737a5a4f2"},"vehicle_type_id":"4","last_reported":1767539409,"current_range_meters":9600,"station_id":"","pricing_plan_id":"cebpf4jnsgd1na2vs0mg"},{"bike_id":"9720cecf-afd5-4f4c-884a-adca63ba30bb","system_id":"levelo_inurba_marseille","lat":43.30143,"lon":5.37421,"is_reserved":false,"is_disabled":false,"rental_uris":{"android":"levelo://app?vid=9720cecf-afd5-4f4c-884a-adca63ba30bb","ios":"levelo://app?vid=9720cecf-afd5-4f4c-884a-adca63ba30bb"},"vehicle_type_id":"4","last_reported":1767539409,"current_range_meters":9600,"station_id":"ce4bgs92rcd13ifvqcc0","pricing_plan_id":"cebpf4jnsgd1na2vs0mg"},{"bike_id":"d8bac908-4a3d-4d9a-8b84-e486ecbc02f2","system_id":"levelo_inurba_marseille","lat":43.29625,"lon":5.37179,"is_reserved":false,"is_disabled":false,"rental_uris":{"android":"levelo://app?vid=d8bac908-4a3d-4d9a-8b84-e486ecbc02f2","ios":"levelo://app?vid=d8bac908-4a3d-4d9a-8b84-e486ecbc02f2"},"vehicle_type_id":"4","last_reported":1767539409,"current_range_meters":9600,"station_id":"ce4bgnh2rcd13ifvqc0g","pricing_plan_id":"cebpf4jnsgd1na2vs0mg"},{"bike_id":"3ce3fb40-5603-411d-a1d9-26402b2d15f5","system_id":"levelo_inurba_marseille","lat":43.28078,"lon":5.39661,"is_reserved":false,"is_disabled":false,"rental_uris":{"android":"levelo://app?vid=3ce3fb40-5603-411d-a1d9-26402b2d15f5","ios":"levelo://app?vid=3ce3fb40-5603-411d-a1d9-26402b2d15f5"},"vehicle_type_id":"4","last_reported":1767539409,"current_range_meters":9600,"station_id":"ce4bho12rcd13ifvqh2g","pricing_plan_id":"cebpf4jnsgd1na2vs0mg"},