{"last_updated":1698858353,"ttl":30,"version":"2.2","data":{"bikes":[{"bike_id":"12d9018d-8aa2-4260-b9e3-02a97ba03ff5","system_id":"levelo_inurba_marseille","lat":43.313391,"lon":5.36706,"is_reserved":false,"is_disabled":false,"rental_uris":{"android":"levelo://app?vid=12d9018d-8aa2-4260-b9e3-02a97ba03ff5","ios":"levelo://app?vid=12d9018d-8aa2-4260-b9e3-02a97ba03ff5"},"vehicle_type_id":"4","last_reported":1698858353,"current_range_meters":21200,"station_id":"ce4bgr92rcd13ifvqc6g","pricing_plan_id":"free"},{"bike_id":"cc7ecb47-218c-439c-9536-f3cc77571b89","system_id":"levelo_inurba_marseille","lat":43.31341,"lon":5.367098,"is_reserved":false,"is_disabled":false,"rental_uris":{"android":"levelo://app?vid=cc7ecb47-218c-439c-9536-f3cc77571b89","ios":"levelo://app?vid=cc7ecb47-218c-439c-9536-f3cc77571b89"},"vehicle_type_id":"4","last_reported":1698858353,"current_range_meters":30400,"station_id":"ce4bgr92rcd13ifvqc6g","pricing_plan_id":"free"},{"bike_id":"72723d83-187f-4a93-b9af-dba7823a4b64","system_id":"levelo_inurba_marseille","lat":43.312239,"lon":5.368562,"is_reserved":false,"is_disabled":false,"rental_uris":{"android":"levelo://app?vid=72723d83-187f-4a93-b9af-dba7823a4b64","ios":"levelo://app?vid=72723d83-187f-4a93-b9af-dba7823a4b64"},"vehicle_type_id":"4","last_reported":1698858353,"current_range_meters":16800,"station_id":"ce4bgl92rcd13ifvqbq0","pricing_plan_id":"free"},{"bike_id":"62a6c949-9209-49a4-9c65-352232a08ed8","system_id":"levelo_inurba_marseille","lat":43.312239,"lon":5.368562,"is_reserved":false,"is_disabled":false,"rental_uris":{"android":"levelo://app?vid=62a6c949-9209-49a4-9c65-352232a08ed8","ios":"levelo://app?vid=62a6c949-9209-49a4-9c65-352232a08ed8"},"vehicle_type_id":"4","last_reported":1698858353,"current_range_meters":0,"station_id":"ce4bgl92rcd13ifvqbq0","pricing_plan_id":"free"},{"bike_id":"ba61cc6e-69b1-43a4-afc0-a951bbb1fecf","system_id":"levelo_inurba_marseille","lat":43.312239,"lon":5.368562,"is_reserved":false,"is_disabled":false,"rental_uris":{"android":"levelo://app?vid=ba61cc6e-69b1-43a4-afc0-a951bbb1fecf","ios":"levelo://app?vid=ba61cc6e-69b1-43a4-afc0-a951bbb1fecf"},"vehicle_type_id":"4","last_reported":1698858353,"current_range_meters":30000,"station_id":"ce4bgl92rcd13ifvqbq0","pricing_plan_id":"free"},{"bike_id":"aa247b73-c9dd-46cb-8e4d-dc2ace9afbae","system_id":"levelo_inurba_marseille","lat":43.30912,"lon":5.36853,"is_reserved":false,"is_disabled":false,"rental_uris":{"android":"levelo://app?vid=aa247b73-c9dd-46cb-8e4d-dc2ace9afbae","ios":"levelo://app?vid=aa247b73-c9dd-46cb-8e4d-dc2ace9afbae"},"vehicle_type_id":"4","last_reported":1698858353,"current_range_meters":30000,"station_id":"ce4bgn92rcd13ifvqbvg","pricing_plan_id":"free"},{"bike_id":"0efa996f-1236-453e-a132-ccbbcedf5d36","system_id":"levelo_inurba_marseille","lat":43.309076,"lon":5.368465,"is_reserved":false,"is_disabled":false,"rental_uris":{"android":"levelo://app?vid=0efa996f-1236-453e-a132-ccbbcedf5d36","ios":"levelo://app?vid=0efa996f-1236-453e-a132-ccbbcedf5d36"},"vehicle_type_id":"4","last_reported":1698858353,"current_range_meters":8800,"station_id":"ce4bgn92rcd13ifvqbvg","pricing_plan_id":"free"},{"bike_id":"b1cb48cb-22d4-4cd4-97b0-038c1cf723b7","system_id":"levelo_inurba_marseille","lat":43.315186,"lon":5.371432,"is_reserved":false,"is_disabled":false,"rental_uris":{"android":"levelo://app?vid=b1cb48cb-22d4-4cd4-97b0-038c1cf723b7","ios":"levelo://app?vid=b1cb48cb-22d4-4cd4-97b0-038c1cf723b7"},"vehicle_type_id":"4","last_reported":1698858353,"current_range_meters":3200,"station_id":"","pricing_plan_id":"free"},{"bike_id":"47cb8f9f-6b91-44f4-87f4-6a920ab92189","system_id":"levelo_inurba_marseille","lat":43.31495,"lon":5.37314,"is_reserved":false,"is_disabled":false,"rental_uris":{"android":"levelo://app?vid=47cb8f9f-6b91-44f4-87f4-6a920ab92189","ios":"levelo://app?vid=47cb8f9f-6b91-44f4-87f4-6a920ab92189"},"vehicle_type_id":"4","last_reported":1698858353,"current_range_meters":8400,"station_id":"ce4bgt12rcd13ifvqcd0","pricing_plan_id":"free"},{"bike_id":"a8e65735-7c7a-4478-a5e5-851bdce97e68","system_id":"levelo_inurba_marseille","lat":43.315146,"lon":5.373232,"is_reserved":false,"is_disabled":false,"rental_uris":{"android":"levelo://app?vid=a8e65735-7c7a-4478-a5e5-851bdce97e68","ios":"levelo://app?vid=a8e65735-7c7a-4478-a5e5-851bdce97e68"},"vehicle_type_id":"4","last_reported":1698858353,"current_range_meters":2400,"station_id":"ce4bgt12rcd13ifvqcd0","pricing_plan_id":"free"},{"bike_id":"4b8dbb67-5dfa-4938-9f54-168942e60914","system_id":"levelo_inurba_marseille","lat":43.30532,"lon":5.36729,"is_reserved":false,"is_disabled":false,"rental_uris":{"android":"levelo://app?vid=4b8dbb67-5dfa-4938-9f54-168942e60914","ios":"levelo://app?vid=4b8dbb67-5dfa-4938-9f54-168942e60914"},"vehicle_type_id":"4","last_reported":1698858353,"current_range_meters":7200,"station_id":"ce4bgrp2rcd13ifvqc9g","pricing_plan_id":"free"},{"bike_id":"506fa4e4-90ba-45f5-81d9-777f1186e0f4","system_id":"levelo_inurba_marseille","lat":43.30532,"lon":5.36736,"is_reserved":false,"is_disabled":false,"rental_uris":{"android":"levelo://app?vid=506fa4e4-90ba-45f5-81d9-777f1186e0f4","ios":"levelo://app?vid=506fa4e4-90ba-45f5-81d9-777f1186e0f4"},"vehicle_type_id":"4","last_reported":1698858353,"current_range_meters":15200,"station_id":"ce4bgrp2rcd13ifvqc9g","pricing_plan_id":"free"},{"bike_id":"2409e9a6-7a94-44a7-9b32-c8d37818d2a0","system_id":"levelo_inurba_marseille","lat":43.319194,"lon":5.37203,"is_reserved":false,"is_disabled":false,"rental_uris":{"android":"levelo://app?vid=2409e9a6-7a94-44a7-9b32-c8d37818d2a0","ios":"levelo://app?vid=2409e9a6-7a94-44a7-9b32-c8d37818d2a0"},"vehicle_type_id":"4","last_reported":1698858353,"current_range_meters":6000,"station_id":"","pricing_plan_id":"free"},{"bike_id":"f252b071-dddd-4e5f-ad07-506846af6d1a","system_id":"levelo_inurba_marseille","lat":43.30537,"lon":5.36546,"is_reserved":false,"is_disabled":false,"rental_uris":{"android":"levelo://app?vid=f252b071-dddd-4e5f-ad07-506846af6d1a","ios":"levelo://app?vid=f252b071-dddd-4e5f-ad07-506846af6d1a"},"vehicle_type_id":"4","last_reported":1698858353,"current_range_meters":18400,"station_id":"ce4bgs12rcd13ifvqcag","pricing_plan_id":"free"},{"bike_id":"3c4d5313-91ca-4b30-b3b5-013ad1d5db50","system_id":"levelo_inurba_marseille","lat":43.319234,"lon":5.372118,"is_reserved":false,"is_disabled":false,"rental_uris":{"android":"levelo://app?vid=3c4d5313-91ca-4b30-b3b5-013ad1d5db50","ios":"levelo://app?vid=3c4d5313-91ca-4b30-b3b5-013ad1d5db50"},"vehicle_type_id":"4","last_reported":1698858353,"current_range_meters":6800,"station_id":"ce4bgth2rcd13ifvqch0","pricing_plan_id":"free"},{"bike_id":"cd31bea2-0b0c-4793-82f1-6f80a38aee04","system_id":"levelo_inurba_marseille","lat":43.305989,"lon":5.37225,"is_reserved":false,"is_disabled":false,"rental_uris":{"android":"levelo://app?vid=cd31bea2-0b0c-4793-82f1-6f80a38aee04","ios":"levelo://app?vid=cd31bea2-0b0c-4793-82f1-6f80a38aee04"},"vehicle_type_id":"4","last_reported":1698858353,"current_range_meters":17600,"station_id":"ce4bgqh2rcd13ifvqc4g","pricing_plan_id":"free"},{"bike_id":"cde09343-cb34-42b4-bd82-ba3dc99ca7a9","system_id":"levelo_inurba_marseille","lat":43.319338,"lon":5.372622,"is_reserved":false,"is_disabled":false,"rental_uris":{"android":"levelo://app?vid=cde09343-cb34-42b4-bd82-ba3dc99ca7a9","ios":"levelo://app?vid=cde09343-cb34-42b4-bd82-ba3dc99ca7a9"},"vehicle_type_id":"4","last_reported":1698858353,"current_range_meters":20000,"station_id":"ce4bhqp2rcd13ifvqhng","pricing_plan_id":"free"},{"bike_id":"772bf10e-32d5-4d00-809e-47e8a0bff141","system_id":"levelo_inurba_marseille","lat":43.311131,"lon":5.377651,"is_reserved":false,"is_disabled":false,"rental_uris":{"android":"levelo://app?vid=772bf10e-32d5-4d00-809e-47e8a0bff141","ios":"levelo://app?vid=772bf10e-32d5-4d00-809e-47e8a0bff141"},"vehicle_type_id":"4","last_reported":1698858353,"current_range_meters":17200,"station_id":"ce4bgt92rcd13ifvqcg0","pricing_plan_id":"free"},{"bike_id":"7f6d1821-d960-4aa5-81c2-8064a10d310c","system_id":"levelo_inurba_marseille","lat":43.320174,"lon":5.371268,"is_reserved":false,"is_disabled":false,"rental_uris":{"android":"levelo://app?vid=7f6d1821-d960-4aa5-81c2-8064a10d310c","ios":"levelo://app?vid=7f6d1821-d960-4aa5-81c2-8064a10d310c"},"vehicle_type_id":"4","last_reported":1698858353,"current_range_meters":13600,"station_id":"","pricing_plan_id":"free"},{"bike_id":"b373dc13-64a6-4599-8072-791892ca6961","system_id":"levelo_inurba_marseille","lat":43.317152,"lon":5.376554,"is_reserved":false,"is_disabled":false,"rental_uris":{"android":"levelo://app?vid=b373dc13-64a6-4599-8072-791892ca6961","ios":"levelo://app?vid=b373dc13-64a6-4599-8072-791892ca6961"},"vehicle_type_id":"4","last_reported":1698858353,"current_range_meters":30800,"station_id":"ce4bgth2rcd13ifvqch0","pricing_plan_id":"free"},{"bike_id":"124cb10f-d20e-4a29-8927-e18a57e5974c","system_id":"levelo_inurba_marseille","lat":43.317075,"lon":5.377367,"is_reserved":false,"is_disabled":false,"rental_uris":{"android":"levelo://app?vid=124cb10f-d20e-4a29-8927-e18a57e5974c","ios":"levelo://app?vid=124cb10f-d20e-4a29-8927-e18a57e5974c"},"vehicle_type_id":"4","last_reported":1698858353,"current_range_meters":22800,"station_id":"ce4bgth2rcd13ifvqch0","pricing_plan_id":"free"},{"bike_id":"895ba7bc-6e64-4af6-a4ec-b23014fa1e30","system_id":"levelo_inurba_marseille","lat":43.3213,"lon":5.37138,"is_reserved":false,"is_disabled":false,"rental_uris":{"android":"levelo://app?vid=895ba7bc-6e64-4af6-a4ec-b23014fa1e30","ios":"levelo://app?vid=895ba7bc-6e64-4af6-a4ec-b23014fa1e30"},"vehicle_type_id":"4","last_reported":1698858353,"current_range_meters":8400,"station_id":"","pricing_plan_id":"free"},{"bike_id":"9e9ae9e7-7a9f-4b3e-b1b3-30004ce058dc","system_id":"levelo_inurba_marseille","lat":43.30304,"lon":5.368987,"is_reserved":false,"is_disabled":false,"rental_uris":{"android":"levelo://app?vid=9e9ae9e7-7a9f-4b3e-b1b3-30004ce058dc","ios":"levelo://app?vid=9e9ae9e7-7a9f-4b3e-b1b3-30004ce058dc"},"vehicle_type_id":"4","last_reported":1698858353,"current_range_meters":7600,"station_id":"ce4bgqh2rcd13ifvqc5g","pricing_plan_id":"free"},{"bike_id":"fcbce735-7893-483c-b681-1f918037dee0","system_id":"levelo_inurba_marseille","lat":43.303127,"lon":5.368982,"is_reserved":false,"is_disabled":false,"rental_uris":{"android":"levelo://app?vid=fcbce735-7893-483c-b681-1f918037dee0","ios":"levelo://app?vid=fcbce735-7893-483c-b681-1f918037dee0"},"vehicle_type_id":"4","last_reported":1698858353,"current_range_meters":29200,"station_id":"ce4bgqh2rcd13ifvqc5g","pricing_plan_id":"free"},{"bike_id":"94532069-2d9e-4691-af35-3d0dda465b07","system_id":"levelo_inurba_marseille","lat":43.30085,"lon":5.390856,"is_reserved":false,"is_disabled":false,"rental_uris":{"android":"levelo://app?vid=94532069-2d9e-4691-af35-3d0dda465b07","ios":"levelo://app?vid=94532069-2d9e-4691-af35-3d0dda465b07"},"vehicle_type_id":"4","last_reported":1698858353,"current_range_meters":0,"station_id":"ce4bh192rcd13ifvqdb0","pricing_plan_id":"free"},{"bike_id":"70b3d615-d436-4280-a400-be8fa077fd75","system_id":"levelo_inurba_marseille","lat":43.3154,"lon":5.380267,"is_reserved":false,"is_disabled":false,"rental_uris":{"android":"levelo://app?vid=70b3d615-d436-4280-a400-be8fa077fd75","ios":"levelo://app?vid=70b3d615-d436-4280-a400-be8fa077fd75"},"vehicle_type_id":"4","last_reported":1698858353,"current_range_meters":7200,"station_id":"ce4bhsp2rcd13ifvqi50","pricing_plan_id":"free"},{"bike_id":"0ea9e7a4-c3e5-479b-bd7a-1a4719726cd4","system_id":"levelo_inurba_marseille","lat":43.310135,"lon":5.380716,"is_reserved":false,"is_disabled":false,"rental_uris":{"android":"levelo://app?vid=0ea9e7a4-c3e5-479b-bd7a-1a4719726cd4","ios":"levelo://app?vid=0ea9e7a4-c3e5-479b-bd7a-1a4719726cd4"},"vehicle_type_id":"4","last_reported":1698858353,"current_range_meters":23200,"station_id":"","pricing_plan_id":"free"},{"bike_id":"f04bad49-d48c-428d-b71b-3b6251a5a103","system_id":"levelo_inurba_marseille","lat":43.323593,"lon":5.368774,"is_reserved":false,"is_disabled":false,"rental_uris":{"android":"levelo://app?vid=f04bad49-d48c-428d-b71b-3b6251a5a103","ios":"levelo://app?vid=f04bad49-d48c-428d-b71b-3b6251a5a103"},"vehicle_type_id":"4","last_reported":1698858353,"current_range_meters":15200,"station_id":"","pricing_plan_id":"free"},{"bike_id":"dbc9f950-7b13-486b-8948-b4bdf759f009","system_id":"levelo_inurba_marseille","lat":43.312239,"lon":5.368562,"is_reserved":false,"is_disabled":false,"rental_uris":{"android":"levelo://app?vid=dbc9f950-7b13-486b-8948-b4bdf759f009","ios":"levelo://app?vid=dbc9f950-7b13-486b-8948-b4bdf759f009"},"vehicle_type_id":"4","last_reported":1698858353,"current_range_meters":30000,"station_id":"ce4bgl92rcd13ifvqbq0","pricing_plan_id":"free"},{"bike_id":"3a3a9c32-79a0-44eb-acd1-37be773ba4cc","system_id":"levelo_inurba_marseille","lat":43.308026,"lon":5.381451,"is_reserved":false,"is_disabled":false,"rental_uris":{"android":"levelo://app?vid=3a3a9c32-79a0-44eb-acd1-37be773ba4cc","ios":"levelo://app?vid=3a3a9c32-79a0-44eb-acd1-37be773ba4cc"},"vehicle_type_id":"4","last_reported":1698858353,"current_range_meters":0,"station_id":"ce4bgt12rcd13ifvqce0","pricing_plan_id":"free"},{"bike_id":"e3f253a1-9788-4492-938f-39b642fbd881","system_id":"levelo_inurba_marseille","lat":43.3245,"lon":5.36788,"is_reserved":false,"is_disabled":false,"rental_uris":{"android":"levelo://app?vid=e3f253a1-9788-4492-938f-39b642fbd881","ios":"levelo://app?vid=e3f253a1-9788-4492-938f-39b642fbd881"},"vehicle_type_id":"4","last_reported":1698858353,"current_range_meters":0,"station_id":"","pricing_plan_id":"free"},{"bike_id":"b30e4839-2ce1-471c-a181-890eb41a1994","system_id":"levelo_inurba_marseille","lat":43.32479,"lon":5.36559,"is_reserved":false,"is_disabled":false,"rental_uris":{"android":"levelo://app?vid=b30e4839-2ce1-471c-a181-890eb41a1994","ios":"levelo://app?vid=b30e4839-2ce1-471c-a181-890eb41a1994"},"vehicle_type_id":"4","last_reported":1698858353,"current_range_meters":12400,"station_id":"ce4bhs12rcd13ifvqhvg","pricing_plan_id":"free"},{"bike_id":"ccc3e998-a69f-4046-83f8-e6ad59719048","system_id":"levelo_inurba_marseille","lat":43.32481,"lon":5.36564,"is_reserved":false,"is_disabled":false,"rental_uris":{"android":"levelo://app?vid=ccc3e998-a69f-4046-83f8-e6ad59719048","ios":"levelo://app?vid=ccc3e998-a69f-4046-83f8-e6ad59719048"},"vehicle_type_id":"4","last_reported":1698858353,"current_range_meters":18000,"station_id":"ce4bhs12rcd13ifvqhvg","pricing_plan_id":"free"},{"bike_id":"5c5d54bc-93f0-4de2-93a5-ae10d222f432","system_id":"levelo_inurba_marseille","lat":43.31991,"lon":5.38159,"is_reserved":false,"is_disabled":false,"rental_uris":{"android":"levelo://app?vid=5c5d54bc-93f0-4de2-93a5-ae10d222f432","ios":"levelo://app?vid=5c5d54bc-93f0-4de2-93a5-ae10d222f432"},"vehicle_type_id":"4","last_reported":1698858353,"current_range_meters":28000,"station_id":"ce4bhr12rcd13ifvqhpg","pricing_plan_id":"free"},{"bike_id":"6bd45040-de05-41c4-adfc-6ef18840934f","system_id":"levelo_inurba_marseille","lat":43.31996,"lon":5.38165,"is_reserved":false,"is_disabled":false,"rental_uris":{"android":"levelo://app?vid=6bd45040-de05-41c4-adfc-6ef18840934f","ios":"levelo://app?vid=6bd45040-de05-41c4-adfc-6ef18840934f"},"vehicle_type_id":"4","last_reported":1698858353,"current_range_meters":25200,"station_id":"ce4bhr12rcd13ifvqhpg","pricing_plan_id":"free"},{"bike_id":"e8584f7f-3a22-4191-9ecd-5314ed574e4e","system_id":"levelo_inurba_marseille","lat":43.319999,"lon":5.381665,"is_reserved":false,"is_disabled":false,"rental_uris":{"android":"levelo://app?vid=e8584f7f-3a22-4191-9ecd-5314ed574e4e","ios":"levelo://app?vid=e8584f7f-3a22-4191-9ecd-5314ed574e4e"},"vehicle_type_id":"4","last_reported":1698858353,"current_range_meters":23600,"station_id":"","pricing_plan_id":"free"},{"bike_id":"56889da1-9a8b-4cce-962d-884101c03910","system_id":"levelo_inurba_marseille","lat":43.313571,"lon":5.384829,"is_reserved":false,"is_disabled":false,"rental_uris":{"android":"levelo://app?vid=56889da1-9a8b-4cce-962d-884101c03910","ios":"levelo://app?vid=56889da1-9a8b-4cce-962d-884101c03910"},"vehicle_type_id":"4","last_reported":1698858353,"current_range_meters":2800,"station_id":"ce4bgt92rcd13ifvqcf0","pricing_plan_id":"free"},{"bike_id":"a357c4a4-d4b5-4257-807a-36912a3a7dbe","system_id":"levelo_inurba_marseille","lat":43.2993,"lon":5.36539,"is_reserved":false,"is_disabled":false,"rental_uris":{"android":"levelo://app?vid=a357c4a4-d4b5-4257-807a-36912a3a7dbe","ios":"levelo://app?vid=a357c4a4-d4b5-4257-807a-36912a3a7dbe"},"vehicle_type_id":"4","last_reported":1698858353,"current_range_meters":18000,"station_id":"ce4bgm92rcd13ifvqbr0","pricing_plan_id":"free"},{"bike_id":"5ba66772-20b6-408d-a6c3-0df1cd4bb678","system_id":"levelo_inurba_marseille","lat":43.3264,"lon":5.367334,"is_reserved":false,"is_disabled":false,"rental_uris":{"android":"levelo://app?vid=5ba66772-20b6-408d-a6c3-0df1cd4bb678","ios":"levelo://app?vid=5ba66772-20b6-408d-a6c3-0df1cd4bb678"},"vehicle_type_id":"4","last_reported":1698858353,"current_range_meters":1600,"station_id":"","pricing_plan_id":"free"},{"bike_id":"d0ab3e9e-a9ff-4b32-8ce2-ded417d0c2df","system_id":"levelo_inurba_marseille","lat":43.326433,"lon":5.361512,"is_reserved":false,"is_disabled":false,"rental_uris":{"android":"levelo://app?vid=d0ab3e9e-a9ff-4b32-8ce2-ded417d0c2df","ios":"levelo://app?vid=d0ab3e9e-a9ff-4b32-8ce2-ded417d0c2df"},"vehicle_type_id":"4","last_reported":1698858353,"current_range_meters":31200,"station_id":"","pricing_plan_id":"free"},{"bike_id":"031dd5e8-0fe2-4f67-a3b7-6dbd4404269c","system_id":"levelo_inurba_marseille","lat":43.298433,"lon":5.362774,"is_reserved":false,"is_disabled":false,"rental_uris":{"android":"levelo://app?vid=031dd5e8-0fe2-4f67-a3b7-6dbd4404269c","ios":"levelo://app?vid=031dd5e8-0fe2-4f67-a3b7-6dbd4404269c"},"vehicle_type_id":"4","last_reported":1698858353,"current_range_meters":25600,"station_id":"ce4bgpp2rcd13ifvqc3g","pricing_plan_id":"free"},{"bike_id":"6e5c2339-4243-4222-91c6-c9d55c2e7104","system_id":"levelo_inurba_marseille","lat":43.298433,"lon":5.362774,"is_reserved":false,"is_disabled":false,"rental_uris":{"android":"levelo://app?vid=6e5c2339-4243-4222-91c6-c9d55c2e7104","ios":"levelo://app?vid=6e5c2339-4243-4222-91c6-c9d55c2e7104"},"vehicle_type_id":"4","last_reported":1698858353,"current_range_meters":8000,"station_id":"ce4bgpp2rcd13ifvqc3g","pricing_plan_id":"free"},{"bike_id":"f79e6a82-1635-4deb-a922-f408f19877c7","system_id":"levelo_inurba_marseille","lat":43.29922,"lon":5.37458,"is_reserved":false,"is_disabled":false,"rental_uris":{"android":"levelo://app?vid=f79e6a82-1635-4deb-a922-f408f19877c7","ios":"levelo://app?vid=f79e6a82-1635-4deb-a922-f408f19877c7"},"vehicle_type_id":"4","last_reported":1698858353,"current_range_meters":800,"station_id":"ce4bgjh2rcd13ifvqbg0","pricing_plan_id":"free"},{"bike_id":"1bd57341-9ae1-4f3c-a515-a0ba2eb83a14","system_id":"levelo_inurba_marseille","lat":43.299243,"lon":5.37481,"is_reserved":false,"is_disabled":false,"rental_uris":{"android":"levelo://app?vid=1bd57341-9ae1-4f3c-a515-a0ba2eb83a14","ios":"levelo://app?vid=1bd57341-9ae1-4f3c-a515-a0ba2eb83a14"},"vehicle_type_id":"4","last_reported":1698858353,"current_range_meters":30000,"station_id":"ce4bgjh2rcd13ifvqbg0","pricing_plan_id":"free"},{"bike_id":"ef12a4ee-ec18-4e74-990d-3fc312e20f65","system_id":"levelo_inurba_marseille","lat":43.31156,"lon":5.38733,"is_reserved":false,"is_disabled":false,"rental_uris":{"android":"levelo://app?vid=ef12a4ee-ec18-4e74-990d-3fc312e20f65","ios":"levelo://app?vid=ef12a4ee-ec18-4e74-990d-3fc312e20f65"},"vehicle_type_id":"4","last_reported":1698858353,"current_range_meters":17600,"station_id":"ce4bgv12rcd13ifvqcp0","pricing_plan_id":"free"},{"bike_id":"5456c99f-fa9f-4110-8924-bb6d619edbee","system_id":"levelo_inurba_marseille","lat":43.328069,"lon":5.366892,"is_reserved":false,"is_disabled":false,"rental_uris":{"android":"levelo://app?vid=5456c99f-fa9f-4110-8924-bb6d619edbee","ios":"levelo://app?vid=5456c99f-fa9f-4110-8924-bb6d619edbee"},"vehicle_type_id":"4","last_reported":1698858353,"current_range_meters":31200,"station_id":"","pricing_plan_id":"free"},{"bike_id":"f0052303-f269-43be-9ec6-9250fd7a2d13","system_id":"levelo_inurba_marseille","lat":43.297774,"lon":5.370875,"is_reserved":false,"is_disabled":false,"rental_uris":{"android":"levelo://app?vid=f0052303-f269-43be-9ec6-9250fd7a2d13","ios":"levelo://app?vid=f0052303-f269-43be-9ec6-9250fd7a2d13"},"vehicle_type_id":"4","last_reported":1698858353,"current_range_meters":18800,"station_id":"ce4bgop2rcd13ifvqc1g","pricing_plan_id":"free"},{"bike_id":"ccb8c974-7f1d-488e-ad6f-b8694d5c2aba","system_id":"levelo_inurba_marseille","lat":43.328249,"lon":5.366939,"is_reserved":false,"is_disabled":false,"rental_uris":{"android":"levelo://app?vid=ccb8c974-7f1d-488e-ad6f-b8694d5c2aba","ios":"levelo://app?vid=ccb8c974-7f1d-488e-ad6f-b8694d5c2aba"},"vehicle_type_id":"4","last_reported":1698858353,"current_range_meters":31200,"station_id":"ce4bhs92rcd13ifvqi0g","pricing_plan_id":"free"},{"bike_id":"d39bf5b7-1d75-4ed9-b60b-4a93df6491c3","system_id":"levelo_inurba_marseille","lat":43.297163,"lon":5.365866,"is_reserved":false,"is_disabled":false,"rental_uris":{"android":"levelo://app?vid=d39bf5b7-1d75-4ed9-b60b-4a93df6491c3","ios":"levelo://app?vid=d39bf5b7-1d75-4ed9-b60b-4a93df6491c3"},"vehicle_type_id":"4","last_reported":1698858353,"current_range_meters":29200,"station_id":"ce4bgn12rcd13ifvqbt0","pricing_plan_id":"free"},{"bike_id":"84845f98-48d8-4fac-b5ec-bf76512f7ed1","system_id":"levelo_inurba_marseille","lat":43.297163,"lon":5.365866,"is_reserved":false,"is_disabled":false,"rental_uris":{"android":"levelo://app?vid=84845f98-48d8-4fac-b5ec-bf76512f7ed1","ios":"levelo://app?vid=84845f98-48d8-4fac-b5ec-bf76512f7ed1"},"vehicle_type_id":"4","last_reported":1698858353,"current_range_meters":8800,"station_id":"ce4bgn12rcd13ifvqbt0","pricing_plan_id":"free"},{"bike_id":"dbad2752-0ffd-429b-8517-18df9f3e5ac1","system_id":"levelo_inurba_marseille","lat":43.297163,"lon":5.365866,"is_reserved":false,"is_disabled":false,"rental_uris":{"android":"levelo://app?vid=dbad2752-0ffd-429b-8517-18df9f3e5ac1","ios":"levelo://app?vid=dbad2752-0ffd-429b-8517-18df9f3e5ac1"},"vehicle_type_id":"4","last_reported":1698858353,"current_range_meters":10000,"station_id":"ce4bgn12rcd13ifvqbt0","pricing_plan_id":"free"},{"bike_id":"746f26fb-1e61-4aaa-a76d-168f63a7e31e","system_id":"levelo_inurba_marseille","lat":43.297163,"lon":5.365866,"is_reserved":false,"is_disabled":false,"rental_uris":{"android":"levelo://app?vid=746f26fb-1e61-4aaa-a76d-168f63a7e31e","ios":"levelo://app?vid=746f26fb-1e61-4aaa-a76d-168f63a7e31e"},"vehicle_type_id":"4","last_reported":1698858353,"current_range_meters":30000,"station_id":"ce4bgn12rcd13ifvqbt0","pricing_plan_id":"free"},{"bike_id":"a85ea2f1-b11c-432c-acef-4d11871cee58","system_id":"levelo_inurba_marseille","lat":43.325916,"lon":5.37886,"is_reserved":false,"is_disabled":false,"rental_uris":{"android":"levelo://app?vid=a85ea2f1-b11c-432c-acef-4d11871cee58","ios":"levelo://app?vid=a85ea2f1-b11c-432c-acef-4d11871cee58"},"vehicle_type_id":"4","last_reported":1698858353,"current_range_meters":2800,"station_id":"","pricing_plan_id":"free"},{"bike_id":"b1140f58-43d9-44e9-8712-515376f86917","system_id":"levelo_inurba_marseille","lat":43.297163,"lon":5.365866,"is_reserved":false,"is_disabled":false,"rental_uris":{"android":"levelo://app?vid=b1140f58-43d9-44e9-8712-515376f86917","ios":"levelo://app?vid=b1140f58-43d9-44e9-8712-515376f86917"},"vehicle_type_id":"4","last_reported":1698858353,"current_range_meters":29600,"station_id":"ce4bgn12rcd13ifvqbt0","pricing_plan_id":"free"},{"bike_id":"67bb7dbe-50ea-4249-bc98-d0ad4814b4a6","system_id":"levelo_inurba_marseille","lat":43.321453,"lon":5.385595,"is_reserved":false,"is_disabled":false,"rental_uris":{"android":"levelo://app?vid=67bb7dbe-50ea-4249-bc98-d0ad4814b4a6","ios":"levelo://app?vid=67bb7dbe-50ea-4249-bc98-d0ad4814b4a6"},"vehicle_type_id":"4","last_reported":1698858353,"current_range_meters":29600,"station_id":"","pricing_plan_id":"free"},{"bike_id":"95de5542-6169-4cc9-ac6c-3d5eadba97c0","system_id":"levelo_inurba_marseille","lat":43.321014,"lon":5.386549,"is_reserved":false,"is_disabled":false,"rental_uris":{"android":"levelo://app?vid=95de5542-6169-4cc9-ac6c-3d5eadba97c0","ios":"levelo://app?vid=95de5542-6169-4cc9-ac6c-3d5eadba97c0"},"vehicle_type_id":"4","last_reported":1698858353,"current_range_meters":29200,"station_id":"","pricing_plan_id":"free"},{"bike_id":"bdd0a65b-a329-488e-925a-6b2d2912cadc","system_id":"levelo_inurba_marseille","lat":43.2968,"lon":5.37291,"is_reserved":false,"is_disabled":false,"rental_uris":{"android":"levelo://app?vid=bdd0a65b-a329-488e-925a-6b2d2912cadc","ios":"levelo://app?vid=bdd0a65b-a329-488e-925a-6b2d2912cadc"},"vehicle_type_id":"4","last_reported":1698858353,"current_range_meters":5200,"station_id":"ce4bgk12rcd13ifvqbj0","pricing_plan_id":"free"},{"bike_id":"ac64cfce-5505-455a-9537-62af5dd3a90a","system_id":"levelo_inurba_marseille","lat":43.32355,"lon":5.38416,"is_reserved":false,"is_disabled":false,"rental_uris":{"android":"levelo://app?vid=ac64cfce-5505-455a-9537-62af5dd3a90a","ios":"levelo://app?vid=ac64cfce-5505-455a-9537-62af5dd3a90a"},"vehicle_type_id":"4","last_reported":1698858353,"current_range_meters":29600,"station_id":"","pricing_plan_id":"free"},{"bike_id":"5c2480c2-7a3b-44a7-ac50-a1363fe26dc4","system_id":"levelo_inurba_marseille","lat":43.2968,"lon":5.37291,"is_reserved":false,"is_disabled":false,"rental_uris":{"android":"levelo://app?vid=5c2480c2-7a3b-44a7-ac50-a1363fe26dc4","ios":"levelo://app?vid=5c2480c2-7a3b-44a7-ac50-a1363fe26dc4"},"vehicle_type_id":"4","last_reported":1698858353,"current_range_meters":16400,"station_id":"ce4bgk12rcd13ifvqbj0","pricing_plan_id":"free"},{"bike_id":"6640d67d-4bc4-49a3-b369-3c3f092ce5f4","system_id":"levelo_inurba_marseille","lat":43.296635,"lon":5.3729,"is_reserved":false,"is_disabled":false,"rental_uris":{"android":"levelo://app?vid=6640d67d-4bc4-49a3-b369-3c3f092ce5f4","ios":"levelo://app?vid=6640d67d-4bc4-49a3-b369-3c3f092ce5f4"},"vehicle_type_id":"4","last_reported":1698858353,"current_range_meters":24400,"station_id":"ce4bgk12rcd13ifvqbj0","pricing_plan_id":"free"},{"bike_id":"770aa8b0-74e4-477c-8cc4-fd5d552902a6","system_id":"levelo_inurba_marseille","lat":43.321363,"lon":5.386742,"is_reserved":false,"is_disabled":false,"rental_uris":{"android":"levelo://app?vid=770aa8b0-74e4-477c-8cc4-fd5d552902a6","ios":"levelo://app?vid=770aa8b0-74e4-477c-8cc4-fd5d552902a6"},"vehicle_type_id":"4","last_reported":1698858353,"current_range_meters":10800,"station_id":"ce4bhqp2rcd13ifvqhog","pricing_plan_id":"free"},{"bike_id":"5a3e4389-a6dc-483b-abd6-709292f6e071","system_id":"levelo_inurba_marseille","lat":43.295846,"lon":5.367098,"is_reserved":false,"is_disabled":false,"rental_uris":{"android":"levelo://app?vid=5a3e4389-a6dc-483b-abd6-709292f6e071","ios":"levelo://app?vid=5a3e4389-a6dc-483b-abd6-709292f6e071"},"vehicle_type_id":"4","last_reported":1698858353,"current_range_meters":26800,"station_id":"ce4bgph2rcd13ifvqc2g","pricing_plan_id":"free"},{"bike_id":"8e5489a5-6266-4e32-95f4-5459384b8045","system_id":"levelo_inurba_marseille","lat":43.29573,"lon":5.367355,"is_reserved":false,"is_disabled":false,"rental_uris":{"android":"levelo://app?vid=8e5489a5-6266-4e32-95f4-5459384b8045","ios":"levelo://app?vid=8e5489a5-6266-4e32-95f4-5459384b8045"},"vehicle_type_id":"4","last_reported":1698858353,"current_range_meters":30000,"station_id":"ce4bgph2rcd13ifvqc2g","pricing_plan_id":"free"},{"bike_id":"b60749ea-e207-49db-86c5-8a95d31c2b98","system_id":"levelo_inurba_marseille","lat":43.299028,"lon":5.381509,"is_reserved":false,"is_disabled":false,"rental_uris":{"android":"levelo://app?vid=b60749ea-e207-49db-86c5-8a95d31c2b98","ios":"levelo://app?vid=b60749ea-e207-49db-86c5-8a95d31c2b98"},"vehicle_type_id":"4","last_reported":1698858353,"current_range_meters":5200,"station_id":"ce4bgj12rcd13ifvqbc0","pricing_plan_id":"free"},{"bike_id":"00fcffcf-ba99-40f6-8943-7d6fbb61ce7a","system_id":"levelo_inurba_marseille","lat":43.299028,"lon":5.381509,"is_reserved":false,"is_disabled":false,"rental_uris":{"android":"levelo://app?vid=00fcffcf-ba99-40f6-8943-7d6fbb61ce7a","ios":"levelo://app?vid=00fcffcf-ba99-40f6-8943-7d6fbb61ce7a"},"vehicle_type_id":"4","last_reported":1698858353,"current_range_meters":1200,"station_id":"ce4bgj12rcd13ifvqbc0","pricing_plan_id":"free"},{"bike_id":"d5b778c9-e76c-4c99-b461-47d86e5fdc5b","system_id":"levelo_inurba_marseille","lat":43.296921,"lon":5.376579,"is_reserved":false,"is_disabled":false,"rental_uris":{"android":"levelo://app?vid=d5b778c9-e76c-4c99-b461-47d86e5fdc5b","ios":"levelo://app?vid=d5b778c9-e76c-4c99-b461-47d86e5fdc5b"},"vehicle_type_id":"4","last_reported":1698858353,"current_range_meters":6400,"station_id":"ce4bgkh2rcd13ifvqbl0","pricing_plan_id":"free"},{"bike_id":"547015db-8569-4a48-8d8f-376ed699c2c1","system_id":"levelo_inurba_marseille","lat":43.299028,"lon":5.381509,"is_reserved":false,"is_disabled":false,"rental_uris":{"android":"levelo://app?vid=547015db-8569-4a48-8d8f-376ed699c2c1","ios":"levelo://app?vid=547015db-8569-4a48-8d8f-376ed699c2c1"},"vehicle_type_id":"4","last_reported":1698858353,"current_range_meters":19200,"station_id":"ce4bgj12rcd13ifvqbc0","pricing_plan_id":"free"},{"bike_id":"3bfe017f-c7a7-4b02-b3ce-e2dba01c1bd9","system_id":"levelo_inurba_marseille","lat":43.296921,"lon":5.376579,"is_reserved":false,"is_disabled":false,"rental_uris":{"android":"levelo://app?vid=3bfe017f-c7a7-4b02-b3ce-e2dba01c1bd9","ios":"levelo://app?vid=3bfe017f-c7a7-4b02-b3ce-e2dba01c1bd9"},"vehicle_type_id":"4","last_reported":1698858353,"current_range_meters":6400,"station_id":"ce4bgkh2rcd13ifvqbl0","pricing_plan_id":"free"},{"bike_id":"c9428514-9197-4976-812b-d61139ef9187","system_id":"levelo_inurba_marseille","lat":43.32339,"lon":5.386481,"is_reserved":false,"is_disabled":false,"rental_uris":{"android":"levelo://app?vid=c9428514-9197-4976-812b-d61139ef9187","ios":"levelo://app?vid=c9428514-9197-4976-812b-d61139ef9187"},"vehicle_type_id":"4","last_reported":1698858353,"current_range_meters":13600,"station_id":"","pricing_plan_id":"free"},{"bike_id":"c30df781-67e5-48cd-a101-448356e749c6","system_id":"levelo_inurba_marseille","lat":43.295748,"lon":5.37522,"is_reserved":false,"is_disabled":false,"rental_uris":{"android":"levelo://app?vid=c30df781-67e5-48cd-a101-448356e749c6","ios":"levelo://app?vid=c30df781-67e5-48cd-a101-448356e749c6"},"vehicle_type_id":"4","last_reported":1698858353,"current_range_meters":11600,"station_id":"ce4bgh92rcd13ifvqb50","pricing_plan_id":"free"},{"bike_id":"8d659758-c704-4006-a822-5e062beed0cb","system_id":"levelo_inurba_marseille","lat":43.298037,"lon":5.381066,"is_reserved":false,"is_disabled":false,"rental_uris":{"android":"levelo://app?vid=8d659758-c704-4006-a822-5e062beed0cb","ios":"levelo://app?vid=8d659758-c704-4006-a822-5e062beed0cb"},"vehicle_type_id":"4","last_reported":1698858353,"current_range_meters":25600,"station_id":"ce4bgip2rcd13ifvqbb0","pricing_plan_id":"free"},{"bike_id":"101eb540-5570-4435-866f-914e6d0b664c","system_id":"levelo_inurba_marseille","lat":43.326447,"lon":5.382996,"is_reserved":false,"is_disabled":false,"rental_uris":{"android":"levelo://app?vid=101eb540-5570-4435-866f-914e6d0b664c","ios":"levelo://app?vid=101eb540-5570-4435-866f-914e6d0b664c"},"vehicle_type_id":"4","last_reported":1698858353,"current_range_meters":5200,"station_id":"","pricing_plan_id":"free"},{"bike_id":"0ad8e378-ea69-41a3-89fd-003423f53236","system_id":"levelo_inurba_marseille","lat":43.298037,"lon":5.381066,"is_reserved":false,"is_disabled":false,"rental_uris":{"android":"levelo://app?vid=0ad8e378-ea69-41a3-89fd-003423f53236","ios":"levelo://app?vid=0ad8e378-ea69-41a3-89fd-003423f53236"},"vehicle_type_id":"4","last_reported":1698858353,"current_range_meters":23600,"station_id":"ce4bgip2rcd13ifvqbb0","pricing_plan_id":"free"},{"bike_id":"78a8b9bc-1890-4804-a532-55a76a093edf","system_id":"levelo_inurba_marseille","lat":43.304274,"lon":5.388873,"is_reserved":false,"is_disabled":false,"rental_uris":{"android":"levelo://app?vid=78a8b9bc-1890-4804-a532-55a76a093edf","ios":"levelo://app?vid=78a8b9bc-1890-4804-a532-55a76a093edf"},"vehicle_type_id":"4","last_reported":1698858353,"current_range_meters":3200,"station_id":"ce4bgk12rcd13ifvqbi0","pricing_plan_id":"free"},{"bike_id":"dd27ff49-4d52-4ef7-9d00-b5c5a1e74b38","system_id":"levelo_inurba_marseille","lat":43.295748,"lon":5.37522,"is_reserved":false,"is_disabled":false,"rental_uris":{"android":"levelo://app?vid=dd27ff49-4d52-4ef7-9d00-b5c5a1e74b38","ios":"levelo://app?vid=dd27ff49-4d52-4ef7-9d00-b5c5a1e74b38"},"vehicle_type_id":"4","last_reported":1698858353,"current_range_meters":7200,"station_id":"ce4bgh92rcd13ifvqb50","pricing_plan_id":"free"},{"bike_id":"7ad33540-665d-41a0-ad78-6c854915ccf2","system_id":"levelo_inurba_marseille","lat":43.296263,"lon":5.377094,"is_reserved":false,"is_disabled":false,"rental_uris":{"android":"levelo://app?vid=7ad33540-665d-41a0-ad78-6c854915ccf2","ios":"levelo://app?vid=7ad33540-665d-41a0-ad78-6c854915ccf2"},"vehicle_type_id":"4","last_reported":1698858353,"current_range_meters":12000,"station_id":"ce4bgi92rcd13ifvqb90","pricing_plan_id":"free"},{"bike_id":"4c58efe0-2a29-43eb-b45c-e3abb7bb425e","system_id":"levelo_inurba_marseille","lat":43.295748,"lon":5.37522,"is_reserved":false,"is_disabled":false,"rental_uris":{"android":"levelo://app?vid=4c58efe0-2a29-43eb-b45c-e3abb7bb425e","ios":"levelo://app?vid=4c58efe0-2a29-43eb-b45c-e3abb7bb425e"},"vehicle_type_id":"4","last_reported":1698858353,"current_range_meters":13600,"station_id":"ce4bgh92rcd13ifvqb50","pricing_plan_id":"free"},{"bike_id":"ab792f86-67fe-4968-9483-0fa511e9f7e3","system_id":"levelo_inurba_marseille","lat":43.299707,"lon":5.384859,"is_reserved":false,"is_disabled":false,"rental_uris":{"android":"levelo://app?vid=ab792f86-67fe-4968-9483-0fa511e9f7e3","ios":"levelo://app?vid=ab792f86-67fe-4968-9483-0fa511e9f7e3"},"vehicle_type_id":"4","last_reported":1698858353,"current_range_meters":22400,"station_id":"ce4bgj92rcd13ifvqbd0","pricing_plan_id":"free"},{"bike_id":"cc804a36-0261-4b0e-816c-f9d4e60f3993","system_id":"levelo_inurba_marseille","lat":43.299724,"lon":5.384848,"is_reserved":false,"is_disabled":false,"rental_uris":{"android":"levelo://app?vid=cc804a36-0261-4b0e-816c-f9d4e60f3993","ios":"levelo://app?vid=cc804a36-0261-4b0e-816c-f9d4e60f3993"},"vehicle_type_id":"4","last_reported":1698858353,"current_range_meters":10400,"station_id":"ce4bgj92rcd13ifvqbd0","pricing_plan_id":"free"},{"bike_id":"07487c6e-9cbb-463d-be52-e487aed5a5d8","system_id":"levelo_inurba_marseille","lat":43.299717,"lon":5.384845,"is_reserved":false,"is_disabled":false,"rental_uris":{"android":"levelo://app?vid=07487c6e-9cbb-463d-be52-e487aed5a5d8","ios":"levelo://app?vid=07487c6e-9cbb-463d-be52-e487aed5a5d8"},"vehicle_type_id":"4","last_reported":1698858353,"current_range_meters":10800,"station_id":"ce4bgj92rcd13ifvqbd0","pricing_plan_id":"free"},{"bike_id":"e255700b-6a85-439d-a1d6-bb0b3ef7e0a4","system_id":"levelo_inurba_marseille","lat":43.299707,"lon":5.384859,"is_reserved":false,"is_disabled":false,"rental_uris":{"android":"levelo://app?vid=e255700b-6a85-439d-a1d6-bb0b3ef7e0a4","ios":"levelo://app?vid=e255700b-6a85-439d-a1d6-bb0b3ef7e0a4"},"vehicle_type_id":"4","last_reported":1698858353,"current_range_meters":17200,"station_id":"ce4bgj92rcd13ifvqbd0","pricing_plan_id":"free"},{"bike_id":"b3624898-7d7a-4298-83f8-fe0ed16d5c46","system_id":"levelo_inurba_marseille","lat":43.299717,"lon":5.384845,"is_reserved":false,"is_disabled":false,"rental_uris":{"android":"levelo://app?vid=b3624898-7d7a-4298-83f8-fe0ed16d5c46","ios":"levelo://app?vid=b3624898-7d7a-4298-83f8-fe0ed16d5c46"},"vehicle_type_id":"4","last_reported":1698858353,"current_range_meters":21600,"station_id":"ce4bgj92rcd13ifvqbd0","pricing_plan_id":"free"},{"bike_id":"1f580447-7b2c-4630-9a51-33e28281b372","system_id":"levelo_inurba_marseille","lat":43.329065,"lon":5.379814,"is_reserved":false,"is_disabled":false,"rental_uris":{"android":"levelo://app?vid=1f580447-7b2c-4630-9a51-33e28281b372","ios":"levelo://app?vid=1f580447-7b2c-4630-9a51-33e28281b372"},"vehicle_type_id":"4","last_reported":1698858353,"current_range_meters":26800,"station_id":"","pricing_plan_id":"free"},{"bike_id":"20c4f12b-0a9a-4572-97d9-11ad813f6bc0","system_id":"levelo_inurba_marseille","lat":43.323679,"lon":5.388518,"is_reserved":false,"is_disabled":false,"rental_uris":{"android":"levelo://app?vid=20c4f12b-0a9a-4572-97d9-11ad813f6bc0","ios":"levelo://app?vid=20c4f12b-0a9a-4572-97d9-11ad813f6bc0"},"vehicle_type_id":"4","last_reported":1698858353,"current_range_meters":0,"station_id":"","pricing_plan_id":"free"},{"bike_id":"1575422b-f99f-4525-ab00-681f712b3765","system_id":"levelo_inurba_marseille","lat":43.323686,"lon":5.388831,"is_reserved":false,"is_disabled":false,"rental_uris":{"android":"levelo://app?vid=1575422b-f99f-4525-ab00-681f712b3765","ios":"levelo://app?vid=1575422b-f99f-4525-ab00-681f712b3765"},"vehicle_type_id":"4","last_reported":1698858353,"current_range_meters":14000,"station_id":"","pricing_plan_id":"free"},{"bike_id":"c59c65d2-f987-45df-a8c0-e528fb5c6f0e","system_id":"levelo_inurba_marseille","lat":43.330967,"lon":5.375913,"is_reserved":false,"is_disabled":false,"rental_uris":{"android":"levelo://app?vid=c59c65d2-f987-45df-a8c0-e528fb5c6f0e","ios":"levelo://app?vid=c59c65d2-f987-45df-a8c0-e528fb5c6f0e"},"vehicle_type_id":"4","last_reported":1698858353,"current_range_meters":30000,"station_id":"","pricing_plan_id":"free"},{"bike_id":"49de99df-0ba7-4150-8424-4b0bebf4746b","system_id":"levelo_inurba_marseille","lat":43.293259,"lon":5.371586,"is_reserved":false,"is_disabled":false,"rental_uris":{"android":"levelo://app?vid=49de99df-0ba7-4150-8424-4b0bebf4746b","ios":"levelo://app?vid=49de99df-0ba7-4150-8424-4b0bebf4746b"},"vehicle_type_id":"4","last_reported":1698858353,"current_range_meters":12800,"station_id":"ce4bgh92rcd13ifvqb40","pricing_plan_id":"free"},{"bike_id":"0169273f-c54f-4cf4-b50d-88c9618f517c","system_id":"levelo_inurba_marseille","lat":43.294371,"lon":5.377808,"is_reserved":false,"is_disabled":false,"rental_uris":{"android":"levelo://app?vid=0169273f-c54f-4cf4-b50d-88c9618f517c","ios":"levelo://app?vid=0169273f-c54f-4cf4-b50d-88c9618f517c"},"vehicle_type_id":"4","last_reported":1698858353,"current_range_meters":17200,"station_id":"ce4bgv92rcd13ifvqcq0","pricing_plan_id":"free"},{"bike_id":"a39d40d0-1cdd-41c4-83e1-7ce6c0bd3ef8","system_id":"levelo_inurba_marseille","lat":43.293259,"lon":5.371586,"is_reserved":false,"is_disabled":false,"rental_uris":{"android":"levelo://app?vid=a39d40d0-1cdd-41c4-83e1-7ce6c0bd3ef8","ios":"levelo://app?vid=a39d40d0-1cdd-41c4-83e1-7ce6c0bd3ef8"},"vehicle_type_id":"4","last_reported":1698858353,"current_range_meters":1200,"station_id":"ce4bgh92rcd13ifvqb40","pricing_plan_id":"free"},{"bike_id":"1d028327-4c01-4983-b3d0-6a13d61a8cd7","system_id":"levelo_inurba_marseille","lat":43.292749,"lon":5.368398,"is_reserved":false,"is_disabled":false,"rental_uris":{"android":"levelo://app?vid=1d028327-4c01-4983-b3d0-6a13d61a8cd7","ios":"levelo://app?vid=1d028327-4c01-4983-b3d0-6a13d61a8cd7"},"vehicle_type_id":"4","last_reported":1698858353,"current_range_meters":16400,"station_id":"ce4bhbp2rcd13ifvqesg","pricing_plan_id":"free"},{"bike_id":"e1fac8ec-0d04-4618-ab1f-c4c9a2280e72","system_id":"levelo_inurba_marseille","lat":43.318501,"lon":5.393853,"is_reserved":false,"is_disabled":false,"rental_uris":{"android":"levelo://app?vid=e1fac8ec-0d04-4618-ab1f-c4c9a2280e72","ios":"levelo://app?vid=e1fac8ec-0d04-4618-ab1f-c4c9a2280e72"},"vehicle_type_id":"4","last_reported":1698858353,"current_range_meters":6800,"station_id":"","pricing_plan_id":"free"},{"bike_id":"ce184b37-85cc-4b03-bc75-2d466b932f3e","system_id":"levelo_inurba_marseille","lat":43.29304,"lon":5.3746,"is_reserved":false,"is_disabled":false,"rental_uris":{"android":"levelo://app?vid=ce184b37-85cc-4b03-bc75-2d466b932f3e","ios":"levelo://app?vid=ce184b37-85cc-4b03-bc75-2d466b932f3e"},"vehicle_type_id":"4","last_reported":1698858353,"current_range_meters":19600,"station_id":"ce4bgi12rcd13ifvqb70","pricing_plan_id":"free"},{"bike_id":"ec05b121-8d50-43d0-a414-da7db7e892a8","system_id":"levelo_inurba_marseille","lat":43.305994,"lon":5.393687,"is_reserved":false,"is_disabled":false,"rental_uris":{"android":"levelo://app?vid=ec05b121-8d50-43d0-a414-da7db7e892a8","ios":"levelo://app?vid=ec05b121-8d50-43d0-a414-da7db7e892a8"},"vehicle_type_id":"4","last_reported":1698858353,"current_range_meters":21200,"station_id":"ce4bh0p2rcd13ifvqd80","pricing_plan_id":"free"},{"bike_id":"ecd5fcfb-e675-41c4-803e-df009ca85e60","system_id":"levelo_inurba_marseille","lat":43.30985,"lon":5.39538,"is_reserved":false,"is_disabled":false,"rental_uris":{"android":"levelo://app?vid=ecd5fcfb-e675-41c4-803e-df009ca85e60","ios":"levelo://app?vid=ecd5fcfb-e675-41c4-803e-df009ca85e60"},"vehicle_type_id":"4","last_reported":1698858353,"current_range_meters":26800,"station_id":"","pricing_plan_id":"free"},{"bike_id":"638fb55a-37b3-4db4-968f-16db54788df0","system_id":"levelo_inurba_marseille","lat":43.29268,"lon":5.37618,"is_reserved":false,"is_disabled":false,"rental_uris":{"android":"levelo://app?vid=638fb55a-37b3-4db4-968f-16db54788df0","ios":"levelo://app?vid=638fb55a-37b3-4db4-968f-16db54788df0"},"vehicle_type_id":"4","last_reported":1698858353,"current_range_meters":14800,"station_id":"ce4bgi12rcd13ifvqb80","pricing_plan_id":"free"},{"bike_id":"d7558508-123e-42cf-bfe3-3ad452e2d933","system_id":"levelo_inurba_marseille","lat":43.3196,"lon":5.39445,"is_reserved":false,"is_disabled":false,"rental_uris":{"android":"levelo://app?vid=d7558508-123e-42cf-bfe3-3ad452e2d933","ios":"levelo://app?vid=d7558508-123e-42cf-bfe3-3ad452e2d933"},"vehicle_type_id":"4","last_reported":1698858353,"current_range_meters":21600,"station_id":"ce4bhr12rcd13ifvqhqg","pricing_plan_id":"free"},{"bike_id":"b867d5fe-df6c-4191-9bbc-38740f3030b1","system_id":"levelo_inurba_marseille","lat":43.29177,"lon":5.37145,"is_reserved":false,"is_disabled":false,"rental_uris":{"android":"levelo://app?vid=b867d5fe-df6c-4191-9bbc-38740f3030b1","ios":"levelo://app?vid=b867d5fe-df6c-4191-9bbc-38740f3030b1"},"vehicle_type_id":"4","last_reported":1698858353,"current_range_meters":10800,"station_id":"ce4bha92rcd13ifvqeh0","pricing_plan_id":"free"},{"bike_id":"0e8233d2-0d57-470f-8c07-e9f753046a4f","system_id":"levelo_inurba_marseille","lat":43.33217,"lon":5.3788,"is_reserved":false,"is_disabled":false,"rental_uris":{"android":"levelo://app?vid=0e8233d2-0d57-470f-8c07-e9f753046a4f","ios":"levelo://app?vid=0e8233d2-0d57-470f-8c07-e9f753046a4f"},"vehicle_type_id":"4","last_reported":1698858353,"current_range_meters":24000,"station_id":"","pricing_plan_id":"free"},{"bike_id":"d797f1e6-f3ca-4ad7-8b56-5ed6191da53c","system_id":"levelo_inurba_marseille","lat":43.292553,"lon":5.376108,"is_reserved":false,"is_disabled":false,"rental_uris":{"android":"levelo://app?vid=d797f1e6-f3ca-4ad7-8b56-5ed6191da53c","ios":"levelo://app?vid=d797f1e6-f3ca-4ad7-8b56-5ed6191da53c"},"vehicle_type_id":"4","last_reported":1698858353,"current_range_meters":29600,"station_id":"ce4bgi12rcd13ifvqb80","pricing_plan_id":"free"},{"bike_id":"e7e9149c-36d9-4f41-a943-3c5cf66d94bd","system_id":"levelo_inurba_marseille","lat":43.291665,"lon":5.371555,"is_reserved":false,"is_disabled":false,"rental_uris":{"android":"levelo://app?vid=e7e9149c-36d9-4f41-a943-3c5cf66d94bd","ios":"levelo://app?vid=e7e9149c-36d9-4f41-a943-3c5cf66d94bd"},"vehicle_type_id":"4","last_reported":1698858353,"current_range_meters":0,"station_id":"ce4bha92rcd13ifvqeh0","pricing_plan_id":"free"},{"bike_id":"53aff25b-d75e-488d-8088-762818b27276","system_id":"levelo_inurba_marseille","lat":43.292663,"lon":5.376389,"is_reserved":false,"is_disabled":false,"rental_uris":{"android":"levelo://app?vid=53aff25b-d75e-488d-8088-762818b27276","ios":"levelo://app?vid=53aff25b-d75e-488d-8088-762818b27276"},"vehicle_type_id":"4","last_reported":1698858353,"current_range_meters":27600,"station_id":"ce4bgi12rcd13ifvqb80","pricing_plan_id":"free"},{"bike_id":"f34b8232-3f1a-4174-9811-3adb6ccbc69c","system_id":"levelo_inurba_marseille","lat":43.30889,"lon":5.39623,"is_reserved":false,"is_disabled":false,"rental_uris":{"android":"levelo://app?vid=f34b8232-3f1a-4174-9811-3adb6ccbc69c","ios":"levelo://app?vid=f34b8232-3f1a-4174-9811-3adb6ccbc69c"},"vehicle_type_id":"4","last_reported":1698858353,"current_range_meters":28400,"station_id":"ce4bh012rcd13ifvqcv0","pricing_plan_id":"free"},{"bike_id":"42daad39-de53-4951-9685-b424d5424812","system_id":"levelo_inurba_marseille","lat":43.309038,"lon":5.396546,"is_reserved":false,"is_disabled":false,"rental_uris":{"android":"levelo://app?vid=42daad39-de53-4951-9685-b424d5424812","ios":"levelo://app?vid=42daad39-de53-4951-9685-b424d5424812"},"vehicle_type_id":"4","last_reported":1698858353,"current_range_meters":26400,"station_id":"ce4bh012rcd13ifvqcv0","pricing_plan_id":"free"},{"bike_id":"205ba660-5816-4d0c-a162-294aac891e78","system_id":"levelo_inurba_marseille","lat":43.309038,"lon":5.396546,"is_reserved":false,"is_disabled":false,"rental_uris":{"android":"levelo://app?vid=205ba660-5816-4d0c-a162-294aac891e78","ios":"levelo://app?vid=205ba660-5816-4d0c-a162-294aac891e78"},"vehicle_type_id":"4","last_reported":1698858353,"current_range_meters":20800,"station_id":"ce4bh012rcd13ifvqcv0","pricing_plan_id":"free"},{"bike_id":"123e2c3f-3332-452e-932e-057edac7c7ff","system_id":"levelo_inurba_marseille","lat":43.295311,"lon":5.385413,"is_reserved":false,"is_disabled":false,"rental_uris":{"android":"levelo://app?vid=123e2c3f-3332-452e-932e-057edac7c7ff","ios":"levelo://app?vid=123e2c3f-3332-452e-932e-057edac7c7ff"},"vehicle_type_id":"4","last_reported":1698858353,"current_range_meters":23200,"station_id":"ce4bgih2rcd13ifvqba0","pricing_plan_id":"free"},{"bike_id":"c404ab87-8bb6-48ec-9aa6-87e2eb1cd32e","system_id":"levelo_inurba_marseille","lat":43.290779,"lon":5.371482,"is_reserved":false,"is_disabled":false,"rental_uris":{"android":"levelo://app?vid=c404ab87-8bb6-48ec-9aa6-87e2eb1cd32e","ios":"levelo://app?vid=c404ab87-8bb6-48ec-9aa6-87e2eb1cd32e"},"vehicle_type_id":"4","last_reported":1698858353,"current_range_meters":2000,"station_id":"ce4bh5p2rcd13ifvqe4g","pricing_plan_id":"free"},{"bike_id":"6d847e42-cc95-4fca-9c03-7d58620326b6","system_id":"levelo_inurba_marseille","lat":43.290779,"lon":5.371482,"is_reserved":false,"is_disabled":false,"rental_uris":{"android":"levelo://app?vid=6d847e42-cc95-4fca-9c03-7d58620326b6","ios":"levelo://app?vid=6d847e42-cc95-4fca-9c03-7d58620326b6"},"vehicle_type_id":"4","last_reported":1698858353,"current_range_meters":15200,"station_id":"ce4bh5p2rcd13ifvqe4g","pricing_plan_id":"free"},{"bike_id":"96caa7b3-6def-4ce2-af0a-afdaa71b29cc","system_id":"levelo_inurba_marseille","lat":43.290779,"lon":5.371482,"is_reserved":false,"is_disabled":false,"rental_uris":{"android":"levelo://app?vid=96caa7b3-6def-4ce2-af0a-afdaa71b29cc","ios":"levelo://app?vid=96caa7b3-6def-4ce2-af0a-afdaa71b29cc"},"vehicle_type_id":"4","last_reported":1698858353,"current_range_meters":17200,"station_id":"ce4bh5p2rcd13ifvqe4g","pricing_plan_id":"free"},{"bike_id":"20a48344-a46a-4ce9-99b3-32d3a3a4028b","system_id":"levelo_inurba_marseille","lat":43.30204,"lon":5.3947,"is_reserved":false,"is_disabled":false,"rental_uris":{"android":"levelo://app?vid=20a48344-a46a-4ce9-99b3-32d3a3a4028b","ios":"levelo://app?vid=20a48344-a46a-4ce9-99b3-32d3a3a4028b"},"vehicle_type_id":"4","last_reported":1698858353,"current_range_meters":20800,"station_id":"ce4bh0p2rcd13ifvqd70","pricing_plan_id":"free"},{"bike_id":"c03e95c1-c0c9-4de0-886d-a854cf82854d","system_id":"levelo_inurba_marseille","lat":43.294153,"lon":5.386305,"is_reserved":false,"is_disabled":false,"rental_uris":{"android":"levelo://app?vid=c03e95c1-c0c9-4de0-886d-a854cf82854d","ios":"levelo://app?vid=c03e95c1-c0c9-4de0-886d-a854cf82854d"},"vehicle_type_id":"4","last_reported":1698858353,"current_range_meters":23600,"station_id":"ce4bh2h2rcd13ifvqdh0","pricing_plan_id":"free"},{"bike_id":"7f35eeaf-7a0b-49d1-ba17-6c3ba1d5b3fe","system_id":"levelo_inurba_marseille","lat":43.294153,"lon":5.386305,"is_reserved":false,"is_disabled":false,"rental_uris":{"android":"levelo://app?vid=7f35eeaf-7a0b-49d1-ba17-6c3ba1d5b3fe","ios":"levelo://app?vid=7f35eeaf-7a0b-49d1-ba17-6c3ba1d5b3fe"},"vehicle_type_id":"4","last_reported":1698858353,"current_range_meters":12400,"station_id":"ce4bh2h2rcd13ifvqdh0","pricing_plan_id":"free"},{"bike_id":"3fbd3d9c-247b-4610-bf82-32f4439fb74b","system_id":"levelo_inurba_marseille","lat":43.294153,"lon":5.386305,"is_reserved":false,"is_disabled":false,"rental_uris":{"android":"levelo://app?vid=3fbd3d9c-247b-4610-bf82-32f4439fb74b","ios":"levelo://app?vid=3fbd3d9c-247b-4610-bf82-32f4439fb74b"},"vehicle_type_id":"4","last_reported":1698858353,"current_range_meters":8000,"station_id":"ce4bh2h2rcd13ifvqdh0","pricing_plan_id":"free"},{"bike_id":"8ab6fb82-6a96-4b4a-851c-dc83984a07df","system_id":"levelo_inurba_marseille","lat":43.290327,"lon":5.375711,"is_reserved":false,"is_disabled":false,"rental_uris":{"android":"levelo://app?vid=8ab6fb82-6a96-4b4a-851c-dc83984a07df","ios":"levelo://app?vid=8ab6fb82-6a96-4b4a-851c-dc83984a07df"},"vehicle_type_id":"4","last_reported":1698858353,"current_range_meters":0,"station_id":"ce4bh692rcd13ifvqe90","pricing_plan_id":"free"},{"bike_id":"a149f037-3d65-4170-9989-a37634cb6dac","system_id":"levelo_inurba_marseille","lat":43.29415,"lon":5.38623,"is_reserved":false,"is_disabled":false,"rental_uris":{"android":"levelo://app?vid=a149f037-3d65-4170-9989-a37634cb6dac","ios":"levelo://app?vid=a149f037-3d65-4170-9989-a37634cb6dac"},"vehicle_type_id":"4","last_reported":1698858353,"current_range_meters":3600,"station_id":"ce4bh2h2rcd13ifvqdh0","pricing_plan_id":"free"},{"bike_id":"b6144573-5d90-48e6-a43f-a7a543445348","system_id":"levelo_inurba_marseille","lat":43.294153,"lon":5.386305,"is_reserved":false,"is_disabled":false,"rental_uris":{"android":"levelo://app?vid=b6144573-5d90-48e6-a43f-a7a543445348","ios":"levelo://app?vid=b6144573-5d90-48e6-a43f-a7a543445348"},"vehicle_type_id":"4","last_reported":1698858353,"current_range_meters":18000,"station_id":"ce4bh2h2rcd13ifvqdh0","pricing_plan_id":"free"},{"bike_id":"a28c9334-f7a0-41f1-8a3d-c7514c1af3ce","system_id":"levelo_inurba_marseille","lat":43.29417,"lon":5.38632,"is_reserved":false,"is_disabled":false,"rental_uris":{"android":"levelo://app?vid=a28c9334-f7a0-41f1-8a3d-c7514c1af3ce","ios":"levelo://app?vid=a28c9334-f7a0-41f1-8a3d-c7514c1af3ce"},"vehicle_type_id":"4","last_reported":1698858353,"current_range_meters":0,"station_id":"ce4bh2h2rcd13ifvqdh0","pricing_plan_id":"free"},{"bike_id":"7034b582-785e-449d-8212-cb063c22877b","system_id":"levelo_inurba_marseille","lat":43.294153,"lon":5.386305,"is_reserved":false,"is_disabled":false,"rental_uris":{"android":"levelo://app?vid=7034b582-785e-449d-8212-cb063c22877b","ios":"levelo://app?vid=7034b582-785e-449d-8212-cb063c22877b"},"vehicle_type_id":"4","last_reported":1698858353,"current_range_meters":5600,"station_id":"ce4bh2h2rcd13ifvqdh0","pricing_plan_id":"free"},{"bike_id":"6314664d-36c7-41ad-a6eb-ff4f7d5beeef","system_id":"levelo_inurba_marseille","lat":43.29418,"lon":5.38637,"is_reserved":false,"is_disabled":false,"rental_uris":{"android":"levelo://app?vid=6314664d-36c7-41ad-a6eb-ff4f7d5beeef","ios":"levelo://app?vid=6314664d-36c7-41ad-a6eb-ff4f7d5beeef"},"vehicle_type_id":"4","last_reported":1698858353,"current_range_meters":0,"station_id":"ce4bh2h2rcd13ifvqdh0","pricing_plan_id":"free"},{"bike_id":"c1b1b545-52b0-4c98-a01b-df561c723f9d","system_id":"levelo_inurba_marseille","lat":43.290327,"lon":5.375711,"is_reserved":false,"is_disabled":false,"rental_uris":{"android":"levelo://app?vid=c1b1b545-52b0-4c98-a01b-df561c723f9d","ios":"levelo://app?vid=c1b1b545-52b0-4c98-a01b-df561c723f9d"},"vehicle_type_id":"4","last_reported":1698858353,"current_range_meters":5200,"station_id":"ce4bh692rcd13ifvqe90","pricing_plan_id":"free"},{"bike_id":"923cc1d4-db53-4cf7-a93b-883f2cba6d15","system_id":"levelo_inurba_marseille","lat":43.290327,"lon":5.375711,"is_reserved":false,"is_disabled":false,"rental_uris":{"android":"levelo://app?vid=923cc1d4-db53-4cf7-a93b-883f2cba6d15","ios":"levelo://app?vid=923cc1d4-db53-4cf7-a93b-883f2cba6d15"},"vehicle_type_id":"4","last_reported":1698858353,"current_range_meters":27600,"station_id":"ce4bh692rcd13ifvqe90","pricing_plan_id":"free"},{"bike_id":"d9cc7a6e-724a-4841-a07e-91a10f7bad5c","system_id":"levelo_inurba_marseille","lat":43.294153,"lon":5.386305,"is_reserved":false,"is_disabled":false,"rental_uris":{"android":"levelo://app?vid=d9cc7a6e-724a-4841-a07e-91a10f7bad5c","ios":"levelo://app?vid=d9cc7a6e-724a-4841-a07e-91a10f7bad5c"},"vehicle_type_id":"4","last_reported":1698858353,"current_range_meters":21200,"station_id":"ce4bh2h2rcd13ifvqdh0","pricing_plan_id":"free"},{"bike_id":"2acd055d-dfc3-4b99-a88b-a437d601a633","system_id":"levelo_inurba_marseille","lat":43.289184,"lon":5.366408,"is_reserved":false,"is_disabled":false,"rental_uris":{"android":"levelo://app?vid=2acd055d-dfc3-4b99-a88b-a437d601a633","ios":"levelo://app?vid=2acd055d-dfc3-4b99-a88b-a437d601a633"},"vehicle_type_id":"4","last_reported":1698858353,"current_range_meters":20000,"station_id":"ce4bhap2rcd13ifvqek0","pricing_plan_id":"free"},{"bike_id":"40453d18-5edb-4de7-9b8a-3adacb0c1694","system_id":"levelo_inurba_marseille","lat":43.290327,"lon":5.375711,"is_reserved":false,"is_disabled":false,"rental_uris":{"android":"levelo://app?vid=40453d18-5edb-4de7-9b8a-3adacb0c1694","ios":"levelo://app?vid=40453d18-5edb-4de7-9b8a-3adacb0c1694"},"vehicle_type_id":"4","last_reported":1698858353,"current_range_meters":15600,"station_id":"ce4bh692rcd13ifvqe90","pricing_plan_id":"free"},{"bike_id":"0ec7eaf8-9cc6-4d7f-a20c-61a621a1247a","system_id":"levelo_inurba_marseille","lat":43.292644,"lon":5.384257,"is_reserved":false,"is_disabled":false,"rental_uris":{"android":"levelo://app?vid=0ec7eaf8-9cc6-4d7f-a20c-61a621a1247a","ios":"levelo://app?vid=0ec7eaf8-9cc6-4d7f-a20c-61a621a1247a"},"vehicle_type_id":"4","last_reported":1698858353,"current_range_meters":23200,"station_id":"ce4bh692rcd13ifvqea0","pricing_plan_id":"free"},{"bike_id":"9d339a6b-8d28-480e-bc3c-d64d12c7eb19","system_id":"levelo_inurba_marseille","lat":43.330436,"lon":5.389174,"is_reserved":false,"is_disabled":false,"rental_uris":{"android":"levelo://app?vid=9d339a6b-8d28-480e-bc3c-d64d12c7eb19","ios":"levelo://app?vid=9d339a6b-8d28-480e-bc3c-d64d12c7eb19"},"vehicle_type_id":"4","last_reported":1698858353,"current_range_meters":20800,"station_id":"ce4bhr92rcd13ifvqhrg","pricing_plan_id":"free"},{"bike_id":"8e7eb6a2-9536-4b3b-acb0-9f04fb6054b7","system_id":"levelo_inurba_marseille","lat":43.330442,"lon":5.389148,"is_reserved":false,"is_disabled":false,"rental_uris":{"android":"levelo://app?vid=8e7eb6a2-9536-4b3b-acb0-9f04fb6054b7","ios":"levelo://app?vid=8e7eb6a2-9536-4b3b-acb0-9f04fb6054b7"},"vehicle_type_id":"4","last_reported":1698858353,"current_range_meters":14000,"station_id":"ce4bhr92rcd13ifvqhrg","pricing_plan_id":"free"},{"bike_id":"1caea400-6bd7-4c5f-bae7-441f8e07a5ea","system_id":"levelo_inurba_marseille","lat":43.330442,"lon":5.389148,"is_reserved":false,"is_disabled":false,"rental_uris":{"android":"levelo://app?vid=1caea400-6bd7-4c5f-bae7-441f8e07a5ea","ios":"levelo://app?vid=1caea400-6bd7-4c5f-bae7-441f8e07a5ea"},"vehicle_type_id":"4","last_reported":1698858353,"current_range_meters":28000,"station_id":"ce4bhr92rcd13ifvqhrg","pricing_plan_id":"free"},{"bike_id":"2d456d05-d2de-450c-9f7b-3d83d121e939","system_id":"levelo_inurba_marseille","lat":43.290995,"lon":5.381361,"is_reserved":false,"is_disabled":false,"rental_uris":{"android":"levelo://app?vid=2d456d05-d2de-450c-9f7b-3d83d121e939","ios":"levelo://app?vid=2d456d05-d2de-450c-9f7b-3d83d121e939"},"vehicle_type_id":"4","last_reported":1698858353,"current_range_meters":16800,"station_id":"ce4bh512rcd13ifvqe2g","pricing_plan_id":"free"},{"bike_id":"489361d2-8f5d-4e18-b357-82368d36ad3e","system_id":"levelo_inurba_marseille","lat":43.290995,"lon":5.381361,"is_reserved":false,"is_disabled":false,"rental_uris":{"android":"levelo://app?vid=489361d2-8f5d-4e18-b357-82368d36ad3e","ios":"levelo://app?vid=489361d2-8f5d-4e18-b357-82368d36ad3e"},"vehicle_type_id":"4","last_reported":1698858353,"current_range_meters":3600,"station_id":"ce4bh512rcd13ifvqe2g","pricing_plan_id":"free"},{"bike_id":"3550bc54-4440-4568-abe2-74dfe4ebcb6e","system_id":"levelo_inurba_marseille","lat":43.2909,"lon":5.38139,"is_reserved":false,"is_disabled":false,"rental_uris":{"android":"levelo://app?vid=3550bc54-4440-4568-abe2-74dfe4ebcb6e","ios":"levelo://app?vid=3550bc54-4440-4568-abe2-74dfe4ebcb6e"},"vehicle_type_id":"4","last_reported":1698858353,"current_range_meters":12400,"station_id":"ce4bh512rcd13ifvqe2g","pricing_plan_id":"free"},{"bike_id":"ff7f9739-5001-4ab9-919c-f6555f7061d6","system_id":"levelo_inurba_marseille","lat":43.330544,"lon":5.389589,"is_reserved":false,"is_disabled":false,"rental_uris":{"android":"levelo://app?vid=ff7f9739-5001-4ab9-919c-f6555f7061d6","ios":"levelo://app?vid=ff7f9739-5001-4ab9-919c-f6555f7061d6"},"vehicle_type_id":"4","last_reported":1698858353,"current_range_meters":30000,"station_id":"","pricing_plan_id":"free"},{"bike_id":"e0d713cd-ec81-44ec-8ba4-571dd76a2b05","system_id":"levelo_inurba_marseille","lat":43.295169,"lon":5.390426,"is_reserved":false,"is_disabled":false,"rental_uris":{"android":"levelo://app?vid=e0d713cd-ec81-44ec-8ba4-571dd76a2b05","ios":"levelo://app?vid=e0d713cd-ec81-44ec-8ba4-571dd76a2b05"},"vehicle_type_id":"4","last_reported":1698858353,"current_range_meters":12400,"station_id":"ce4bh3p2rcd13ifvqdp0","pricing_plan_id":"free"},{"bike_id":"fd1422f7-7045-4ed1-99fa-e27cfb2a9539","system_id":"levelo_inurba_marseille","lat":43.289743,"lon":5.378304,"is_reserved":false,"is_disabled":false,"rental_uris":{"android":"levelo://app?vid=fd1422f7-7045-4ed1-99fa-e27cfb2a9539","ios":"levelo://app?vid=fd1422f7-7045-4ed1-99fa-e27cfb2a9539"},"vehicle_type_id":"4","last_reported":1698858353,"current_range_meters":24000,"station_id":"ce4bh9p2rcd13ifvqed0","pricing_plan_id":"free"},{"bike_id":"0728f57f-f9ee-4e87-8d6c-2999827c0709","system_id":"levelo_inurba_marseille","lat":43.29785,"lon":5.39349,"is_reserved":false,"is_disabled":false,"rental_uris":{"android":"levelo://app?vid=0728f57f-f9ee-4e87-8d6c-2999827c0709","ios":"levelo://app?vid=0728f57f-f9ee-4e87-8d6c-2999827c0709"},"vehicle_type_id":"4","last_reported":1698858353,"current_range_meters":0,"station_id":"chh1huq6cuj3fo74tm60","pricing_plan_id":"free"},{"bike_id":"6fbfb64f-64a5-4870-87ec-8e23cef54eae","system_id":"levelo_inurba_marseille","lat":43.297883,"lon":5.393531,"is_reserved":false,"is_disabled":false,"rental_uris":{"android":"levelo://app?vid=6fbfb64f-64a5-4870-87ec-8e23cef54eae","ios":"levelo://app?vid=6fbfb64f-64a5-4870-87ec-8e23cef54eae"},"vehicle_type_id":"4","last_reported":1698858353,"current_range_meters":0,"station_id":"chh1huq6cuj3fo74tm60","pricing_plan_id":"free"},{"bike_id":"114930f0-2f3a-403c-a3a6-cd9261fd9722","system_id":"levelo_inurba_marseille","lat":43.295169,"lon":5.390426,"is_reserved":false,"is_disabled":false,"rental_uris":{"android":"levelo://app?vid=114930f0-2f3a-403c-a3a6-cd9261fd9722","ios":"levelo://app?vid=114930f0-2f3a-403c-a3a6-cd9261fd9722"},"vehicle_type_id":"4","last_reported":1698858353,"current_range_meters":21200,"station_id":"ce4bh3p2rcd13ifvqdp0","pricing_plan_id":"free"},{"bike_id":"168b98a8-1a5b-4189-b621-d6b824337145","system_id":"levelo_inurba_marseille","lat":43.289741,"lon":5.378306,"is_reserved":false,"is_disabled":false,"rental_uris":{"android":"levelo://app?vid=168b98a8-1a5b-4189-b621-d6b824337145","ios":"levelo://app?vid=168b98a8-1a5b-4189-b621-d6b824337145"},"vehicle_type_id":"4","last_reported":1698858353,"current_range_meters":29600,"station_id":"ce4bh9p2rcd13ifvqed0","pricing_plan_id":"free"},{"bike_id":"42760fe7-ba79-4a71-8a5f-d5f6f166c372","system_id":"levelo_inurba_marseille","lat":43.29513,"lon":5.39034,"is_reserved":false,"is_disabled":false,"rental_uris":{"android":"levelo://app?vid=42760fe7-ba79-4a71-8a5f-d5f6f166c372","ios":"levelo://app?vid=42760fe7-ba79-4a71-8a5f-d5f6f166c372"},"vehicle_type_id":"4","last_reported":1698858353,"current_range_meters":14000,"station_id":"ce4bh3p2rcd13ifvqdp0","pricing_plan_id":"free"},{"bike_id":"8f1b5117-4721-4d41-ab5b-b22f6033b6c3","system_id":"levelo_inurba_marseille","lat":43.295169,"lon":5.390426,"is_reserved":false,"is_disabled":false,"rental_uris":{"android":"levelo://app?vid=8f1b5117-4721-4d41-ab5b-b22f6033b6c3","ios":"levelo://app?vid=8f1b5117-4721-4d41-ab5b-b22f6033b6c3"},"vehicle_type_id":"4","last_reported":1698858353,"current_range_meters":10800,"station_id":"ce4bh3p2rcd13ifvqdp0","pricing_plan_id":"free"},{"bike_id":"edbe263a-d9af-4fd8-8994-3cde482b37a9","system_id":"levelo_inurba_marseille","lat":43.290094,"lon":5.381264,"is_reserved":false,"is_disabled":false,"rental_uris":{"android":"levelo://app?vid=edbe263a-d9af-4fd8-8994-3cde482b37a9","ios":"levelo://app?vid=edbe263a-d9af-4fd8-8994-3cde482b37a9"},"vehicle_type_id":"4","last_reported":1698858353,"current_range_meters":22800,"station_id":"ce4bh4p2rcd13ifvqe1g","pricing_plan_id":"free"},{"bike_id":"259d5633-da45-459f-b234-1092c34bae43","system_id":"levelo_inurba_marseille","lat":43.31248,"lon":5.40159,"is_reserved":false,"is_disabled":false,"rental_uris":{"android":"levelo://app?vid=259d5633-da45-459f-b234-1092c34bae43","ios":"levelo://app?vid=259d5633-da45-459f-b234-1092c34bae43"},"vehicle_type_id":"4","last_reported":1698858353,"current_range_meters":21200,"station_id":"ce4bh092rcd13ifvqd30","pricing_plan_id":"free"},{"bike_id":"5f85a6f7-5970-4ca6-af3e-b5fb4e81f29b","system_id":"levelo_inurba_marseille","lat":43.33743,"lon":5.37472,"is_reserved":false,"is_disabled":false,"rental_uris":{"android":"levelo://app?vid=5f85a6f7-5970-4ca6-af3e-b5fb4e81f29b","ios":"levelo://app?vid=5f85a6f7-5970-4ca6-af3e-b5fb4e81f29b"},"vehicle_type_id":"4","last_reported":1698858353,"current_range_meters":30800,"station_id":"","pricing_plan_id":"free"},{"bike_id":"e12ba840-8416-48d6-904c-44c9f690fceb","system_id":"levelo_inurba_marseille","lat":43.312729,"lon":5.401777,"is_reserved":false,"is_disabled":false,"rental_uris":{"android":"levelo://app?vid=e12ba840-8416-48d6-904c-44c9f690fceb","ios":"levelo://app?vid=e12ba840-8416-48d6-904c-44c9f690fceb"},"vehicle_type_id":"4","last_reported":1698858353,"current_range_meters":5200,"station_id":"","pricing_plan_id":"free"},{"bike_id":"46c111b4-b42c-4d6d-9f71-8d617c695a9d","system_id":"levelo_inurba_marseille","lat":43.3375,"lon":5.37459,"is_reserved":false,"is_disabled":false,"rental_uris":{"android":"levelo://app?vid=46c111b4-b42c-4d6d-9f71-8d617c695a9d","ios":"levelo://app?vid=46c111b4-b42c-4d6d-9f71-8d617c695a9d"},"vehicle_type_id":"4","last_reported":1698858353,"current_range_meters":29600,"station_id":"","pricing_plan_id":"free"},{"bike_id":"8552ceb6-f85b-421a-98c9-dc0fa68526ab","system_id":"levelo_inurba_marseille","lat":43.30918,"lon":5.40155,"is_reserved":false,"is_disabled":false,"rental_uris":{"android":"levelo://app?vid=8552ceb6-f85b-421a-98c9-dc0fa68526ab","ios":"levelo://app?vid=8552ceb6-f85b-421a-98c9-dc0fa68526ab"},"vehicle_type_id":"4","last_reported":1698858353,"current_range_meters":22000,"station_id":"ce4bgvp2rcd13ifvqct0","pricing_plan_id":"free"},{"bike_id":"a2960229-8d13-4c11-9b38-0dead743512b","system_id":"levelo_inurba_marseille","lat":43.301117,"lon":5.398795,"is_reserved":false,"is_disabled":false,"rental_uris":{"android":"levelo://app?vid=a2960229-8d13-4c11-9b38-0dead743512b","ios":"levelo://app?vid=a2960229-8d13-4c11-9b38-0dead743512b"},"vehicle_type_id":"4","last_reported":1698858353,"current_range_meters":0,"station_id":"ce4bh0h2rcd13ifvqd40","pricing_plan_id":"free"},{"bike_id":"58d12bb0-72aa-42e8-8045-fd7300bf352f","system_id":"levelo_inurba_marseille","lat":43.3066,"lon":5.40103,"is_reserved":false,"is_disabled":false,"rental_uris":{"android":"levelo://app?vid=58d12bb0-72aa-42e8-8045-fd7300bf352f","ios":"levelo://app?vid=58d12bb0-72aa-42e8-8045-fd7300bf352f"},"vehicle_type_id":"4","last_reported":1698858353,"current_range_meters":13600,"station_id":"ce4bh112rcd13ifvqda0","pricing_plan_id":"free"},{"bike_id":"2545bb15-82f9-4959-8750-9239fba29ab1","system_id":"levelo_inurba_marseille","lat":43.301117,"lon":5.398795,"is_reserved":false,"is_disabled":false,"rental_uris":{"android":"levelo://app?vid=2545bb15-82f9-4959-8750-9239fba29ab1","ios":"levelo://app?vid=2545bb15-82f9-4959-8750-9239fba29ab1"},"vehicle_type_id":"4","last_reported":1698858353,"current_range_meters":14000,"station_id":"ce4bh0h2rcd13ifvqd40","pricing_plan_id":"free"},{"bike_id":"38cb3337-6bd8-4e6c-ab41-9e81b77ab464","system_id":"levelo_inurba_marseille","lat":43.301117,"lon":5.398795,"is_reserved":false,"is_disabled":false,"rental_uris":{"android":"levelo://app?vid=38cb3337-6bd8-4e6c-ab41-9e81b77ab464","ios":"levelo://app?vid=38cb3337-6bd8-4e6c-ab41-9e81b77ab464"},"vehicle_type_id":"4","last_reported":1698858353,"current_range_meters":800,"station_id":"ce4bh0h2rcd13ifvqd40","pricing_plan_id":"free"},{"bike_id":"bffe0847-f759-41fc-a0d9-4a38dd5fd89d","system_id":"levelo_inurba_marseille","lat":43.28727,"lon":5.36078,"is_reserved":false,"is_disabled":false,"rental_uris":{"android":"levelo://app?vid=bffe0847-f759-41fc-a0d9-4a38dd5fd89d","ios":"levelo://app?vid=bffe0847-f759-41fc-a0d9-4a38dd5fd89d"},"vehicle_type_id":"4","last_reported":1698858353,"current_range_meters":10000,"station_id":"cki0cbj6b192h4jlfktg","pricing_plan_id":"free"},{"bike_id":"6003d317-0dbe-4593-a026-cc4aba36f02e","system_id":"levelo_inurba_marseille","lat":43.298732,"lon":5.397336,"is_reserved":false,"is_disabled":false,"rental_uris":{"android":"levelo://app?vid=6003d317-0dbe-4593-a026-cc4aba36f02e","ios":"levelo://app?vid=6003d317-0dbe-4593-a026-cc4aba36f02e"},"vehicle_type_id":"4","last_reported":1698858353,"current_range_meters":21600,"station_id":"ce4bh0h2rcd13ifvqd50","pricing_plan_id":"free"},{"bike_id":"f2fabda9-28b4-4cf9-88b6-15b8096297e5","system_id":"levelo_inurba_marseille","lat":43.286961,"lon":5.373785,"is_reserved":false,"is_disabled":false,"rental_uris":{"android":"levelo://app?vid=f2fabda9-28b4-4cf9-88b6-15b8096297e5","ios":"levelo://app?vid=f2fabda9-28b4-4cf9-88b6-15b8096297e5"},"vehicle_type_id":"4","last_reported":1698858353,"current_range_meters":26400,"station_id":"ce4bh3p2rcd13ifvqdq0","pricing_plan_id":"free"},{"bike_id":"b75dcb88-a304-43de-ad9a-77c6752b3592","system_id":"levelo_inurba_marseille","lat":43.29023,"lon":5.38633,"is_reserved":false,"is_disabled":false,"rental_uris":{"android":"levelo://app?vid=b75dcb88-a304-43de-ad9a-77c6752b3592","ios":"levelo://app?vid=b75dcb88-a304-43de-ad9a-77c6752b3592"},"vehicle_type_id":"4","last_reported":1698858353,"current_range_meters":22000,"station_id":"","pricing_plan_id":"free"},{"bike_id":"3b6e6113-b940-415e-829e-52b2f5f279f8","system_id":"levelo_inurba_marseille","lat":43.289307,"lon":5.38406,"is_reserved":false,"is_disabled":false,"rental_uris":{"android":"levelo://app?vid=3b6e6113-b940-415e-829e-52b2f5f279f8","ios":"levelo://app?vid=3b6e6113-b940-415e-829e-52b2f5f279f8"},"vehicle_type_id":"4","last_reported":1698858353,"current_range_meters":5200,"station_id":"ce4bh612rcd13ifvqe6g","pricing_plan_id":"free"},{"bike_id":"4ba75a17-df6e-4c46-a9e7-f8553f9f429d","system_id":"levelo_inurba_marseille","lat":43.302759,"lon":5.400793,"is_reserved":false,"is_disabled":false,"rental_uris":{"android":"levelo://app?vid=4ba75a17-df6e-4c46-a9e7-f8553f9f429d","ios":"levelo://app?vid=4ba75a17-df6e-4c46-a9e7-f8553f9f429d"},"vehicle_type_id":"4","last_reported":1698858353,"current_range_meters":8400,"station_id":"ce4bgvh2rcd13ifvqcs0","pricing_plan_id":"free"},{"bike_id":"ab6a4aa2-961c-4163-a19b-7c4f7a735cd6","system_id":"levelo_inurba_marseille","lat":43.302759,"lon":5.400793,"is_reserved":false,"is_disabled":false,"rental_uris":{"android":"levelo://app?vid=ab6a4aa2-961c-4163-a19b-7c4f7a735cd6","ios":"levelo://app?vid=ab6a4aa2-961c-4163-a19b-7c4f7a735cd6"},"vehicle_type_id":"4","last_reported":1698858353,"current_range_meters":4800,"station_id":"ce4bgvh2rcd13ifvqcs0","pricing_plan_id":"free"},{"bike_id":"4b09bab3-9a69-4243-b24c-8cf80bb582bb","system_id":"levelo_inurba_marseille","lat":43.286039,"lon":5.370679,"is_reserved":false,"is_disabled":false,"rental_uris":{"android":"levelo://app?vid=4b09bab3-9a69-4243-b24c-8cf80bb582bb","ios":"levelo://app?vid=4b09bab3-9a69-4243-b24c-8cf80bb582bb"},"vehicle_type_id":"4","last_reported":1698858353,"current_range_meters":31200,"station_id":"ce4bht12rcd13ifvqi60","pricing_plan_id":"free"},{"bike_id":"ca49c221-156a-40c5-bf56-2cd77f3fbbd9","system_id":"levelo_inurba_marseille","lat":43.287184,"lon":5.37937,"is_reserved":false,"is_disabled":false,"rental_uris":{"android":"levelo://app?vid=ca49c221-156a-40c5-bf56-2cd77f3fbbd9","ios":"levelo://app?vid=ca49c221-156a-40c5-bf56-2cd77f3fbbd9"},"vehicle_type_id":"4","last_reported":1698858353,"current_range_meters":23200,"station_id":"ce4bh9p2rcd13ifvqec0","pricing_plan_id":"free"},{"bike_id":"c2bc57d7-5cbc-4c71-b9e3-baa34e916da8","system_id":"levelo_inurba_marseille","lat":43.287184,"lon":5.37937,"is_reserved":false,"is_disabled":false,"rental_uris":{"android":"levelo://app?vid=c2bc57d7-5cbc-4c71-b9e3-baa34e916da8","ios":"levelo://app?vid=c2bc57d7-5cbc-4c71-b9e3-baa34e916da8"},"vehicle_type_id":"4","last_reported":1698858353,"current_range_meters":26800,"station_id":"ce4bh9p2rcd13ifvqec0","pricing_plan_id":"free"},{"bike_id":"b087465e-f7f4-4d96-8507-64b416f3ccd5","system_id":"levelo_inurba_marseille","lat":43.287184,"lon":5.37937,"is_reserved":false,"is_disabled":false,"rental_uris":{"android":"levelo://app?vid=b087465e-f7f4-4d96-8507-64b416f3ccd5","ios":"levelo://app?vid=b087465e-f7f4-4d96-8507-64b416f3ccd5"},"vehicle_type_id":"4","last_reported":1698858353,"current_range_meters":28000,"station_id":"ce4bh9p2rcd13ifvqec0","pricing_plan_id":"free"},{"bike_id":"f7a41d75-5b5f-40bd-b466-f3145993b936","system_id":"levelo_inurba_marseille","lat":43.287185,"lon":5.379373,"is_reserved":false,"is_disabled":false,"rental_uris":{"android":"levelo://app?vid=f7a41d75-5b5f-40bd-b466-f3145993b936","ios":"levelo://app?vid=f7a41d75-5b5f-40bd-b466-f3145993b936"},"vehicle_type_id":"4","last_reported":1698858353,"current_range_meters":30000,"station_id":"ce4bh9p2rcd13ifvqec0","pricing_plan_id":"free"},{"bike_id":"4e2fc3f4-65a5-4cd3-ae81-e54c20472512","system_id":"levelo_inurba_marseille","lat":43.316517,"lon":5.404375,"is_reserved":false,"is_disabled":false,"rental_uris":{"android":"levelo://app?vid=4e2fc3f4-65a5-4cd3-ae81-e54c20472512","ios":"levelo://app?vid=4e2fc3f4-65a5-4cd3-ae81-e54c20472512"},"vehicle_type_id":"4","last_reported":1698858353,"current_range_meters":30400,"station_id":"ce4bh012rcd13ifvqd00","pricing_plan_id":"free"},{"bike_id":"e879cc9d-f4fc-4dd8-8603-7570eaaf3a64","system_id":"levelo_inurba_marseille","lat":43.316517,"lon":5.404375,"is_reserved":false,"is_disabled":false,"rental_uris":{"android":"levelo://app?vid=e879cc9d-f4fc-4dd8-8603-7570eaaf3a64","ios":"levelo://app?vid=e879cc9d-f4fc-4dd8-8603-7570eaaf3a64"},"vehicle_type_id":"4","last_reported":1698858353,"current_range_meters":20000,"station_id":"ce4bh012rcd13ifvqd00","pricing_plan_id":"free"},{"bike_id":"e010ca03-f552-486d-97a0-ebbfbda92958","system_id":"levelo_inurba_marseille","lat":43.31646,"lon":5.4044,"is_reserved":false,"is_disabled":false,"rental_uris":{"android":"levelo://app?vid=e010ca03-f552-486d-97a0-ebbfbda92958","ios":"levelo://app?vid=e010ca03-f552-486d-97a0-ebbfbda92958"},"vehicle_type_id":"4","last_reported":1698858353,"current_range_meters":1200,"station_id":"ce4bh012rcd13ifvqd00","pricing_plan_id":"free"},{"bike_id":"f93fe333-70e4-473f-8234-227dbfc17600","system_id":"levelo_inurba_marseille","lat":43.316492,"lon":5.404395,"is_reserved":false,"is_disabled":false,"rental_uris":{"android":"levelo://app?vid=f93fe333-70e4-473f-8234-227dbfc17600","ios":"levelo://app?vid=f93fe333-70e4-473f-8234-227dbfc17600"},"vehicle_type_id":"4","last_reported":1698858353,"current_range_meters":3200,"station_id":"","pricing_plan_id":"free"},{"bike_id":"48b95a55-89ed-46e4-9db0-bd39b87cc4d9","system_id":"levelo_inurba_marseille","lat":43.308437,"lon":5.405045,"is_reserved":false,"is_disabled":false,"rental_uris":{"android":"levelo://app?vid=48b95a55-89ed-46e4-9db0-bd39b87cc4d9","ios":"levelo://app?vid=48b95a55-89ed-46e4-9db0-bd39b87cc4d9"},"vehicle_type_id":"4","last_reported":1698858353,"current_range_meters":22000,"station_id":"","pricing_plan_id":"free"},{"bike_id":"a154fc9b-725c-4656-be34-c340bb5063d0","system_id":"levelo_inurba_marseille","lat":43.291994,"lon":5.392907,"is_reserved":false,"is_disabled":false,"rental_uris":{"android":"levelo://app?vid=a154fc9b-725c-4656-be34-c340bb5063d0","ios":"levelo://app?vid=a154fc9b-725c-4656-be34-c340bb5063d0"},"vehicle_type_id":"4","last_reported":1698858353,"current_range_meters":13600,"station_id":"ce4bh192rcd13ifvqdd0","pricing_plan_id":"free"},{"bike_id":"b93b8146-be91-4b46-bf15-b0e3558e611f","system_id":"levelo_inurba_marseille","lat":43.284534,"lon":5.358662,"is_reserved":false,"is_disabled":false,"rental_uris":{"android":"levelo://app?vid=b93b8146-be91-4b46-bf15-b0e3558e611f","ios":"levelo://app?vid=b93b8146-be91-4b46-bf15-b0e3558e611f"},"vehicle_type_id":"4","last_reported":1698858353,"current_range_meters":0,"station_id":"ce4bhah2rcd13ifvqei0","pricing_plan_id":"free"},{"bike_id":"4be5e550-4e92-4f5d-a34f-b3df99c14f88","system_id":"levelo_inurba_marseille","lat":43.284373,"lon":5.374931,"is_reserved":false,"is_disabled":false,"rental_uris":{"android":"levelo://app?vid=4be5e550-4e92-4f5d-a34f-b3df99c14f88","ios":"levelo://app?vid=4be5e550-4e92-4f5d-a34f-b3df99c14f88"},"vehicle_type_id":"4","last_reported":1698858353,"current_range_meters":0,"station_id":"ce4bh412rcd13ifvqds0","pricing_plan_id":"free"},{"bike_id":"1447eb8b-7c33-4483-8635-a23765a5cf77","system_id":"levelo_inurba_marseille","lat":43.295677,"lon":5.399577,"is_reserved":false,"is_disabled":false,"rental_uris":{"android":"levelo://app?vid=1447eb8b-7c33-4483-8635-a23765a5cf77","ios":"levelo://app?vid=1447eb8b-7c33-4483-8635-a23765a5cf77"},"vehicle_type_id":"4","last_reported":1698858353,"current_range_meters":17200,"station_id":"ce4bh312rcd13ifvqdj0","pricing_plan_id":"free"},{"bike_id":"4f35e5ac-7b1a-4e53-940d-202229c24fea","system_id":"levelo_inurba_marseille","lat":43.28408,"lon":5.37511,"is_reserved":false,"is_disabled":false,"rental_uris":{"android":"levelo://app?vid=4f35e5ac-7b1a-4e53-940d-202229c24fea","ios":"levelo://app?vid=4f35e5ac-7b1a-4e53-940d-202229c24fea"},"vehicle_type_id":"4","last_reported":1698858353,"current_range_meters":16800,"station_id":"ce4bh412rcd13ifvqds0","pricing_plan_id":"free"},{"bike_id":"d298fc0d-652c-4a99-8c4c-a087c8a9b048","system_id":"levelo_inurba_marseille","lat":43.284,"lon":5.3753,"is_reserved":false,"is_disabled":false,"rental_uris":{"android":"levelo://app?vid=d298fc0d-652c-4a99-8c4c-a087c8a9b048","ios":"levelo://app?vid=d298fc0d-652c-4a99-8c4c-a087c8a9b048"},"vehicle_type_id":"4","last_reported":1698858353,"current_range_meters":21600,"station_id":"ce4bh412rcd13ifvqds0","pricing_plan_id":"free"},{"bike_id":"ecd7e013-2e60-45c6-9976-651e4a6402ee","system_id":"levelo_inurba_marseille","lat":43.28397,"lon":5.37522,"is_reserved":false,"is_disabled":false,"rental_uris":{"android":"levelo://app?vid=ecd7e013-2e60-45c6-9976-651e4a6402ee","ios":"levelo://app?vid=ecd7e013-2e60-45c6-9976-651e4a6402ee"},"vehicle_type_id":"4","last_reported":1698858353,"current_range_meters":10800,"station_id":"ce4bh412rcd13ifvqds0","pricing_plan_id":"free"},{"bike_id":"13a16033-19f6-4ace-bbe6-8b1e24774d73","system_id":"levelo_inurba_marseille","lat":43.28677,"lon":5.386618,"is_reserved":false,"is_disabled":false,"rental_uris":{"android":"levelo://app?vid=13a16033-19f6-4ace-bbe6-8b1e24774d73","ios":"levelo://app?vid=13a16033-19f6-4ace-bbe6-8b1e24774d73"},"vehicle_type_id":"4","last_reported":1698858353,"current_range_meters":3600,"station_id":"ce4bh492rcd13ifvqdug","pricing_plan_id":"free"},{"bike_id":"8ab78286-1874-44db-9938-8e440f568c74","system_id":"levelo_inurba_marseille","lat":43.286595,"lon":5.386795,"is_reserved":false,"is_disabled":false,"rental_uris":{"android":"levelo://app?vid=8ab78286-1874-44db-9938-8e440f568c74","ios":"levelo://app?vid=8ab78286-1874-44db-9938-8e440f568c74"},"vehicle_type_id":"4","last_reported":1698858353,"current_range_meters":19200,"station_id":"ce4bh492rcd13ifvqdug","pricing_plan_id":"free"},{"bike_id":"db774579-d230-4f35-b322-259d1405cf8b","system_id":"levelo_inurba_marseille","lat":43.286595,"lon":5.386795,"is_reserved":false,"is_disabled":false,"rental_uris":{"android":"levelo://app?vid=db774579-d230-4f35-b322-259d1405cf8b","ios":"levelo://app?vid=db774579-d230-4f35-b322-259d1405cf8b"},"vehicle_type_id":"4","last_reported":1698858353,"current_range_meters":2800,"station_id":"ce4bh492rcd13ifvqdug","pricing_plan_id":"free"},{"bike_id":"85ac9559-3fa6-40a1-a172-1260ab5684a5","system_id":"levelo_inurba_marseille","lat":43.319179,"lon":5.407725,"is_reserved":false,"is_disabled":false,"rental_uris":{"android":"levelo://app?vid=85ac9559-3fa6-40a1-a172-1260ab5684a5","ios":"levelo://app?vid=85ac9559-3fa6-40a1-a172-1260ab5684a5"},"vehicle_type_id":"4","last_reported":1698858353,"current_range_meters":18000,"station_id":"ce4bhq12rcd13ifvqhig","pricing_plan_id":"free"},{"bike_id":"821b4f5f-8b8b-49d8-8410-98ecf646aec4","system_id":"levelo_inurba_marseille","lat":43.33717,"lon":5.391857,"is_reserved":false,"is_disabled":false,"rental_uris":{"android":"levelo://app?vid=821b4f5f-8b8b-49d8-8410-98ecf646aec4","ios":"levelo://app?vid=821b4f5f-8b8b-49d8-8410-98ecf646aec4"},"vehicle_type_id":"4","last_reported":1698858353,"current_range_meters":30000,"station_id":"ce4bhr92rcd13ifvqhsg","pricing_plan_id":"free"},{"bike_id":"5e0e7368-7334-4308-842f-925387588de1","system_id":"levelo_inurba_marseille","lat":43.337168,"lon":5.391825,"is_reserved":false,"is_disabled":false,"rental_uris":{"android":"levelo://app?vid=5e0e7368-7334-4308-842f-925387588de1","ios":"levelo://app?vid=5e0e7368-7334-4308-842f-925387588de1"},"vehicle_type_id":"4","last_reported":1698858353,"current_range_meters":14000,"station_id":"ce4bhr92rcd13ifvqhsg","pricing_plan_id":"free"},{"bike_id":"4a1bf455-2bbe-41fc-b18a-adb96c3ae735","system_id":"levelo_inurba_marseille","lat":43.323464,"lon":5.406297,"is_reserved":false,"is_disabled":false,"rental_uris":{"android":"levelo://app?vid=4a1bf455-2bbe-41fc-b18a-adb96c3ae735","ios":"levelo://app?vid=4a1bf455-2bbe-41fc-b18a-adb96c3ae735"},"vehicle_type_id":"4","last_reported":1698858353,"current_range_meters":28400,"station_id":"ce4bhq92rcd13ifvqhjg","pricing_plan_id":"free"},{"bike_id":"603ec138-37a2-4680-89da-5c85d1e61a55","system_id":"levelo_inurba_marseille","lat":43.284793,"lon":5.384113,"is_reserved":false,"is_disabled":false,"rental_uris":{"android":"levelo://app?vid=603ec138-37a2-4680-89da-5c85d1e61a55","ios":"levelo://app?vid=603ec138-37a2-4680-89da-5c85d1e61a55"},"vehicle_type_id":"4","last_reported":1698858353,"current_range_meters":16400,"station_id":"ce4bh512rcd13ifvqe3g","pricing_plan_id":"free"},{"bike_id":"a37de731-0830-4c3a-a4e8-48e440edef7c","system_id":"levelo_inurba_marseille","lat":43.284793,"lon":5.384113,"is_reserved":false,"is_disabled":false,"rental_uris":{"android":"levelo://app?vid=a37de731-0830-4c3a-a4e8-48e440edef7c","ios":"levelo://app?vid=a37de731-0830-4c3a-a4e8-48e440edef7c"},"vehicle_type_id":"4","last_reported":1698858353,"current_range_meters":12400,"station_id":"ce4bh512rcd13ifvqe3g","pricing_plan_id":"free"},{"bike_id":"70b2b1e1-9e63-4c39-8c08-338643be7775","system_id":"levelo_inurba_marseille","lat":43.284787,"lon":5.384116,"is_reserved":false,"is_disabled":false,"rental_uris":{"android":"levelo://app?vid=70b2b1e1-9e63-4c39-8c08-338643be7775","ios":"levelo://app?vid=70b2b1e1-9e63-4c39-8c08-338643be7775"},"vehicle_type_id":"4","last_reported":1698858353,"current_range_meters":17600,"station_id":"ce4bh512rcd13ifvqe3g","pricing_plan_id":"free"},{"bike_id":"133f207e-31b8-4751-9ce8-8d8901fe4d70","system_id":"levelo_inurba_marseille","lat":43.284793,"lon":5.384113,"is_reserved":false,"is_disabled":false,"rental_uris":{"android":"levelo://app?vid=133f207e-31b8-4751-9ce8-8d8901fe4d70","ios":"levelo://app?vid=133f207e-31b8-4751-9ce8-8d8901fe4d70"},"vehicle_type_id":"4","last_reported":1698858353,"current_range_meters":30800,"station_id":"ce4bh512rcd13ifvqe3g","pricing_plan_id":"free"},{"bike_id":"cd41403b-3499-4d83-a147-bec989179e8f","system_id":"levelo_inurba_marseille","lat":43.284793,"lon":5.384119,"is_reserved":false,"is_disabled":false,"rental_uris":{"android":"levelo://app?vid=cd41403b-3499-4d83-a147-bec989179e8f","ios":"levelo://app?vid=cd41403b-3499-4d83-a147-bec989179e8f"},"vehicle_type_id":"4","last_reported":1698858353,"current_range_meters":20800,"station_id":"ce4bh512rcd13ifvqe3g","pricing_plan_id":"free"},{"bike_id":"5d52ab09-b856-41f2-914e-f3e69d469c1b","system_id":"levelo_inurba_marseille","lat":43.284787,"lon":5.384116,"is_reserved":false,"is_disabled":false,"rental_uris":{"android":"levelo://app?vid=5d52ab09-b856-41f2-914e-f3e69d469c1b","ios":"levelo://app?vid=5d52ab09-b856-41f2-914e-f3e69d469c1b"},"vehicle_type_id":"4","last_reported":1698858353,"current_range_meters":23200,"station_id":"ce4bh512rcd13ifvqe3g","pricing_plan_id":"free"},{"bike_id":"8565de16-0b3f-416a-a356-5ecf11b9a20d","system_id":"levelo_inurba_marseille","lat":43.288497,"lon":5.393089,"is_reserved":false,"is_disabled":false,"rental_uris":{"android":"levelo://app?vid=8565de16-0b3f-416a-a356-5ecf11b9a20d","ios":"levelo://app?vid=8565de16-0b3f-416a-a356-5ecf11b9a20d"},"vehicle_type_id":"4","last_reported":1698858353,"current_range_meters":15200,"station_id":"ce4bh2p2rcd13ifvqdi0","pricing_plan_id":"free"},{"bike_id":"12a07b79-2130-49d9-9b68-f35a0a07b3ed","system_id":"levelo_inurba_marseille","lat":43.288497,"lon":5.393089,"is_reserved":false,"is_disabled":false,"rental_uris":{"android":"levelo://app?vid=12a07b79-2130-49d9-9b68-f35a0a07b3ed","ios":"levelo://app?vid=12a07b79-2130-49d9-9b68-f35a0a07b3ed"},"vehicle_type_id":"4","last_reported":1698858353,"current_range_meters":16000,"station_id":"ce4bh2p2rcd13ifvqdi0","pricing_plan_id":"free"},{"bike_id":"2f666bbb-190f-4291-ade2-95e2c0cfd815","system_id":"levelo_inurba_marseille","lat":43.325281,"lon":5.405683,"is_reserved":false,"is_disabled":false,"rental_uris":{"android":"levelo://app?vid=2f666bbb-190f-4291-ade2-95e2c0cfd815","ios":"levelo://app?vid=2f666bbb-190f-4291-ade2-95e2c0cfd815"},"vehicle_type_id":"4","last_reported":1698858353,"current_range_meters":2000,"station_id":"","pricing_plan_id":"free"},{"bike_id":"2318753d-474e-471d-a486-bdb6798da776","system_id":"levelo_inurba_marseille","lat":43.28727,"lon":5.36078,"is_reserved":false,"is_disabled":false,"rental_uris":{"android":"levelo://app?vid=2318753d-474e-471d-a486-bdb6798da776","ios":"levelo://app?vid=2318753d-474e-471d-a486-bdb6798da776"},"vehicle_type_id":"4","last_reported":1698858353,"current_range_meters":16400,"station_id":"cki0cbj6b192h4jlfktg","pricing_plan_id":"free"},{"bike_id":"b4ac000e-691a-400c-a963-fc04c4a616c6","system_id":"levelo_inurba_marseille","lat":43.283494,"lon":5.380945,"is_reserved":false,"is_disabled":false,"rental_uris":{"android":"levelo://app?vid=b4ac000e-691a-400c-a963-fc04c4a616c6","ios":"levelo://app?vid=b4ac000e-691a-400c-a963-fc04c4a616c6"},"vehicle_type_id":"4","last_reported":1698858353,"current_range_meters":2800,"station_id":"ce4bh412rcd13ifvqdr0","pricing_plan_id":"free"},{"bike_id":"da6cfaf3-c64b-4dfa-8241-092d2d04c007","system_id":"levelo_inurba_marseille","lat":43.28343,"lon":5.38109,"is_reserved":false,"is_disabled":false,"rental_uris":{"android":"levelo://app?vid=da6cfaf3-c64b-4dfa-8241-092d2d04c007","ios":"levelo://app?vid=da6cfaf3-c64b-4dfa-8241-092d2d04c007"},"vehicle_type_id":"4","last_reported":1698858353,"current_range_meters":13200,"station_id":"ce4bh412rcd13ifvqdr0","pricing_plan_id":"free"},{"bike_id":"14c47446-aefe-4f74-995e-65c22fab9626","system_id":"levelo_inurba_marseille","lat":43.28933,"lon":5.39627,"is_reserved":false,"is_disabled":false,"rental_uris":{"android":"levelo://app?vid=14c47446-aefe-4f74-995e-65c22fab9626","ios":"levelo://app?vid=14c47446-aefe-4f74-995e-65c22fab9626"},"vehicle_type_id":"4","last_reported":1698858353,"current_range_meters":31200,"station_id":"ce4bh3h2rcd13ifvqdn0","pricing_plan_id":"free"},{"bike_id":"0ab56689-42fd-4ebc-a48f-e7217e42fd9b","system_id":"levelo_inurba_marseille","lat":43.283502,"lon":5.386471,"is_reserved":false,"is_disabled":false,"rental_uris":{"android":"levelo://app?vid=0ab56689-42fd-4ebc-a48f-e7217e42fd9b","ios":"levelo://app?vid=0ab56689-42fd-4ebc-a48f-e7217e42fd9b"},"vehicle_type_id":"4","last_reported":1698858353,"current_range_meters":26800,"station_id":"ce4bh492rcd13ifvqdvg","pricing_plan_id":"free"},{"bike_id":"fd2225f9-54f1-488a-8a72-2ce5390d49bf","system_id":"levelo_inurba_marseille","lat":43.282744,"lon":5.350533,"is_reserved":false,"is_disabled":false,"rental_uris":{"android":"levelo://app?vid=fd2225f9-54f1-488a-8a72-2ce5390d49bf","ios":"levelo://app?vid=fd2225f9-54f1-488a-8a72-2ce5390d49bf"},"vehicle_type_id":"4","last_reported":1698858353,"current_range_meters":30000,"station_id":"ce4bhbp2rcd13ifvqerg","pricing_plan_id":"free"},{"bike_id":"5ac3793e-ce9f-4fef-b017-618ad7ad835b","system_id":"levelo_inurba_marseille","lat":43.28043,"lon":5.36941,"is_reserved":false,"is_disabled":false,"rental_uris":{"android":"levelo://app?vid=5ac3793e-ce9f-4fef-b017-618ad7ad835b","ios":"levelo://app?vid=5ac3793e-ce9f-4fef-b017-618ad7ad835b"},"vehicle_type_id":"4","last_reported":1698858353,"current_range_meters":30400,"station_id":"ce4bha12rcd13ifvqef0","pricing_plan_id":"free"},{"bike_id":"33d92913-4314-45eb-8f6d-8feb642ca41c","system_id":"levelo_inurba_marseille","lat":43.283599,"lon":5.386345,"is_reserved":false,"is_disabled":false,"rental_uris":{"android":"levelo://app?vid=33d92913-4314-45eb-8f6d-8feb642ca41c","ios":"levelo://app?vid=33d92913-4314-45eb-8f6d-8feb642ca41c"},"vehicle_type_id":"4","last_reported":1698858353,"current_range_meters":0,"station_id":"ce4bh492rcd13ifvqdvg","pricing_plan_id":"free"},{"bike_id":"53a3d42e-b9f4-466f-88f6-00114300b3a3","system_id":"levelo_inurba_marseille","lat":43.28039,"lon":5.36939,"is_reserved":false,"is_disabled":false,"rental_uris":{"android":"levelo://app?vid=53a3d42e-b9f4-466f-88f6-00114300b3a3","ios":"levelo://app?vid=53a3d42e-b9f4-466f-88f6-00114300b3a3"},"vehicle_type_id":"4","last_reported":1698858353,"current_range_meters":20000,"station_id":"ce4bha12rcd13ifvqef0","pricing_plan_id":"free"},{"bike_id":"87da8818-9439-4faa-ae4c-3e9adebf1813","system_id":"levelo_inurba_marseille","lat":43.28039,"lon":5.369297,"is_reserved":false,"is_disabled":false,"rental_uris":{"android":"levelo://app?vid=87da8818-9439-4faa-ae4c-3e9adebf1813","ios":"levelo://app?vid=87da8818-9439-4faa-ae4c-3e9adebf1813"},"vehicle_type_id":"4","last_reported":1698858353,"current_range_meters":31200,"station_id":"ce4bha12rcd13ifvqef0","pricing_plan_id":"free"},{"bike_id":"838d8e81-c6e9-41e0-ada5-f239306cce71","system_id":"levelo_inurba_marseille","lat":43.28033,"lon":5.36944,"is_reserved":false,"is_disabled":false,"rental_uris":{"android":"levelo://app?vid=838d8e81-c6e9-41e0-ada5-f239306cce71","ios":"levelo://app?vid=838d8e81-c6e9-41e0-ada5-f239306cce71"},"vehicle_type_id":"4","last_reported":1698858353,"current_range_meters":14000,"station_id":"ce4bha12rcd13ifvqef0","pricing_plan_id":"free"},{"bike_id":"6800aa11-75bc-4387-970d-d2e8dd23583b","system_id":"levelo_inurba_marseille","lat":43.280322,"lon":5.369412,"is_reserved":false,"is_disabled":false,"rental_uris":{"android":"levelo://app?vid=6800aa11-75bc-4387-970d-d2e8dd23583b","ios":"levelo://app?vid=6800aa11-75bc-4387-970d-d2e8dd23583b"},"vehicle_type_id":"4","last_reported":1698858353,"current_range_meters":15200,"station_id":"ce4bha12rcd13ifvqef0","pricing_plan_id":"free"},{"bike_id":"ee89155f-7162-4e6d-b9a6-c750802f1365","system_id":"levelo_inurba_marseille","lat":43.28032,"lon":5.36942,"is_reserved":false,"is_disabled":false,"rental_uris":{"android":"levelo://app?vid=ee89155f-7162-4e6d-b9a6-c750802f1365","ios":"levelo://app?vid=ee89155f-7162-4e6d-b9a6-c750802f1365"},"vehicle_type_id":"4","last_reported":1698858353,"current_range_meters":21600,"station_id":"ce4bha12rcd13ifvqef0","pricing_plan_id":"free"},{"bike_id":"51bda7a0-547a-406d-8f6d-76a832bd46bf","system_id":"levelo_inurba_marseille","lat":43.280382,"lon":5.369291,"is_reserved":false,"is_disabled":false,"rental_uris":{"android":"levelo://app?vid=51bda7a0-547a-406d-8f6d-76a832bd46bf","ios":"levelo://app?vid=51bda7a0-547a-406d-8f6d-76a832bd46bf"},"vehicle_type_id":"4","last_reported":1698858353,"current_range_meters":27600,"station_id":"ce4bha12rcd13ifvqef0","pricing_plan_id":"free"},{"bike_id":"4849935e-d320-49c5-9fc8-2fce6dab09e3","system_id":"levelo_inurba_marseille","lat":43.28031,"lon":5.36941,"is_reserved":false,"is_disabled":false,"rental_uris":{"android":"levelo://app?vid=4849935e-d320-49c5-9fc8-2fce6dab09e3","ios":"levelo://app?vid=4849935e-d320-49c5-9fc8-2fce6dab09e3"},"vehicle_type_id":"4","last_reported":1698858353,"current_range_meters":13200,"station_id":"ce4bha12rcd13ifvqef0","pricing_plan_id":"free"},{"bike_id":"2f1b417b-4521-43d1-87b1-c3c7e2db566f","system_id":"levelo_inurba_marseille","lat":43.280382,"lon":5.369291,"is_reserved":false,"is_disabled":false,"rental_uris":{"android":"levelo://app?vid=2f1b417b-4521-43d1-87b1-c3c7e2db566f","ios":"levelo://app?vid=2f1b417b-4521-43d1-87b1-c3c7e2db566f"},"vehicle_type_id":"4","last_reported":1698858353,"current_range_meters":26000,"station_id":"ce4bha12rcd13ifvqef0","pricing_plan_id":"free"},{"bike_id":"9728670a-55f4-4830-a37b-e32ad85cd0a1","system_id":"levelo_inurba_marseille","lat":43.290412,"lon":5.399633,"is_reserved":false,"is_disabled":false,"rental_uris":{"android":"levelo://app?vid=9728670a-55f4-4830-a37b-e32ad85cd0a1","ios":"levelo://app?vid=9728670a-55f4-4830-a37b-e32ad85cd0a1"},"vehicle_type_id":"4","last_reported":1698858353,"current_range_meters":8800,"station_id":"ce4bh392rcd13ifvqdm0","pricing_plan_id":"free"},{"bike_id":"daf46ea8-b57d-421e-a948-3372a8997dac","system_id":"levelo_inurba_marseille","lat":43.29039,"lon":5.39961,"is_reserved":false,"is_disabled":false,"rental_uris":{"android":"levelo://app?vid=daf46ea8-b57d-421e-a948-3372a8997dac","ios":"levelo://app?vid=daf46ea8-b57d-421e-a948-3372a8997dac"},"vehicle_type_id":"4","last_reported":1698858353,"current_range_meters":0,"station_id":"ce4bh392rcd13ifvqdm0","pricing_plan_id":"free"},{"bike_id":"b1c0df86-92e9-4445-a216-c1844b02366a","system_id":"levelo_inurba_marseille","lat":43.290412,"lon":5.399633,"is_reserved":false,"is_disabled":false,"rental_uris":{"android":"levelo://app?vid=b1c0df86-92e9-4445-a216-c1844b02366a","ios":"levelo://app?vid=b1c0df86-92e9-4445-a216-c1844b02366a"},"vehicle_type_id":"4","last_reported":1698858353,"current_range_meters":29200,"station_id":"ce4bh392rcd13ifvqdm0","pricing_plan_id":"free"},{"bike_id":"808bf615-6f44-4b4f-8dcf-29d586b125e8","system_id":"levelo_inurba_marseille","lat":43.290412,"lon":5.399633,"is_reserved":false,"is_disabled":false,"rental_uris":{"android":"levelo://app?vid=808bf615-6f44-4b4f-8dcf-29d586b125e8","ios":"levelo://app?vid=808bf615-6f44-4b4f-8dcf-29d586b125e8"},"vehicle_type_id":"4","last_reported":1698858353,"current_range_meters":3200,"station_id":"ce4bh392rcd13ifvqdm0","pricing_plan_id":"free"},{"bike_id":"9ce03b6e-a233-4ede-9bdc-cb5989be769a","system_id":"levelo_inurba_marseille","lat":43.29034,"lon":5.39967,"is_reserved":false,"is_disabled":false,"rental_uris":{"android":"levelo://app?vid=9ce03b6e-a233-4ede-9bdc-cb5989be769a","ios":"levelo://app?vid=9ce03b6e-a233-4ede-9bdc-cb5989be769a"},"vehicle_type_id":"4","last_reported":1698858353,"current_range_meters":5600,"station_id":"ce4bh392rcd13ifvqdm0","pricing_plan_id":"free"},{"bike_id":"31abb574-c53a-48bd-836f-352aa813b369","system_id":"levelo_inurba_marseille","lat":43.290319,"lon":5.399704,"is_reserved":false,"is_disabled":false,"rental_uris":{"android":"levelo://app?vid=31abb574-c53a-48bd-836f-352aa813b369","ios":"levelo://app?vid=31abb574-c53a-48bd-836f-352aa813b369"},"vehicle_type_id":"4","last_reported":1698858353,"current_range_meters":6800,"station_id":"ce4bh392rcd13ifvqdm0","pricing_plan_id":"free"},{"bike_id":"d909ad11-cc37-45be-adb5-ce92174ae2df","system_id":"levelo_inurba_marseille","lat":43.290412,"lon":5.399633,"is_reserved":false,"is_disabled":false,"rental_uris":{"android":"levelo://app?vid=d909ad11-cc37-45be-adb5-ce92174ae2df","ios":"levelo://app?vid=d909ad11-cc37-45be-adb5-ce92174ae2df"},"vehicle_type_id":"4","last_reported":1698858353,"current_range_meters":18800,"station_id":"ce4bh392rcd13ifvqdm0","pricing_plan_id":"free"},{"bike_id":"1ca242fe-6084-4f9b-8b54-35d465872844","system_id":"levelo_inurba_marseille","lat":43.29028,"lon":5.39969,"is_reserved":false,"is_disabled":false,"rental_uris":{"android":"levelo://app?vid=1ca242fe-6084-4f9b-8b54-35d465872844","ios":"levelo://app?vid=1ca242fe-6084-4f9b-8b54-35d465872844"},"vehicle_type_id":"4","last_reported":1698858353,"current_range_meters":20800,"station_id":"ce4bh392rcd13ifvqdm0","pricing_plan_id":"free"},{"bike_id":"bd1dbb7f-9106-486d-9604-26ea89fc8aa2","system_id":"levelo_inurba_marseille","lat":43.296263,"lon":5.40601,"is_reserved":false,"is_disabled":false,"rental_uris":{"android":"levelo://app?vid=bd1dbb7f-9106-486d-9604-26ea89fc8aa2","ios":"levelo://app?vid=bd1dbb7f-9106-486d-9604-26ea89fc8aa2"},"vehicle_type_id":"4","last_reported":1698858353,"current_range_meters":23200,"station_id":"ce4bh0h2rcd13ifvqd60","pricing_plan_id":"free"},{"bike_id":"d445e7dc-8f39-4198-8d15-1838ad42556e","system_id":"levelo_inurba_marseille","lat":43.296263,"lon":5.40601,"is_reserved":false,"is_disabled":false,"rental_uris":{"android":"levelo://app?vid=d445e7dc-8f39-4198-8d15-1838ad42556e","ios":"levelo://app?vid=d445e7dc-8f39-4198-8d15-1838ad42556e"},"vehicle_type_id":"4","last_reported":1698858353,"current_range_meters":23600,"station_id":"ce4bh0h2rcd13ifvqd60","pricing_plan_id":"free"},{"bike_id":"0b180c35-1f44-471d-ae5b-fae121ef2ff5","system_id":"levelo_inurba_marseille","lat":43.290412,"lon":5.399633,"is_reserved":false,"is_disabled":false,"rental_uris":{"android":"levelo://app?vid=0b180c35-1f44-471d-ae5b-fae121ef2ff5","ios":"levelo://app?vid=0b180c35-1f44-471d-ae5b-fae121ef2ff5"},"vehicle_type_id":"4","last_reported":1698858353,"current_range_meters":13600,"station_id":"ce4bh392rcd13ifvqdm0","pricing_plan_id":"free"},{"bike_id":"12ee9227-d7bc-4088-ab4a-d7e318e470fe","system_id":"levelo_inurba_marseille","lat":43.281044,"lon":5.378308,"is_reserved":false,"is_disabled":false,"rental_uris":{"android":"levelo://app?vid=12ee9227-d7bc-4088-ab4a-d7e318e470fe","ios":"levelo://app?vid=12ee9227-d7bc-4088-ab4a-d7e318e470fe"},"vehicle_type_id":"4","last_reported":1698858353,"current_range_meters":0,"station_id":"ce4bha12rcd13ifvqee0","pricing_plan_id":"free"},{"bike_id":"f0521aff-1d5f-435c-a835-bcf53a478568","system_id":"levelo_inurba_marseille","lat":43.284462,"lon":5.392121,"is_reserved":false,"is_disabled":false,"rental_uris":{"android":"levelo://app?vid=f0521aff-1d5f-435c-a835-bcf53a478568","ios":"levelo://app?vid=f0521aff-1d5f-435c-a835-bcf53a478568"},"vehicle_type_id":"4","last_reported":1698858353,"current_range_meters":19200,"station_id":"ce4bhoh2rcd13ifvqh5g","pricing_plan_id":"free"},{"bike_id":"0991ab4d-08c1-4ad9-8a29-c09b652b0f6c","system_id":"levelo_inurba_marseille","lat":43.284462,"lon":5.392121,"is_reserved":false,"is_disabled":false,"rental_uris":{"android":"levelo://app?vid=0991ab4d-08c1-4ad9-8a29-c09b652b0f6c","ios":"levelo://app?vid=0991ab4d-08c1-4ad9-8a29-c09b652b0f6c"},"vehicle_type_id":"4","last_reported":1698858353,"current_range_meters":28000,"station_id":"ce4bhoh2rcd13ifvqh5g","pricing_plan_id":"free"},{"bike_id":"2f2a4a06-6a21-4eb7-b9a6-54f7d21e039e","system_id":"levelo_inurba_marseille","lat":43.28573,"lon":5.394992,"is_reserved":false,"is_disabled":false,"rental_uris":{"android":"levelo://app?vid=2f2a4a06-6a21-4eb7-b9a6-54f7d21e039e","ios":"levelo://app?vid=2f2a4a06-6a21-4eb7-b9a6-54f7d21e039e"},"vehicle_type_id":"4","last_reported":1698858353,"current_range_meters":28000,"station_id":"ce4bh292rcd13ifvqdg0","pricing_plan_id":"free"},{"bike_id":"9a917a16-7adc-4bb0-be1e-82f66ce73a3d","system_id":"levelo_inurba_marseille","lat":43.32663,"lon":5.40977,"is_reserved":false,"is_disabled":false,"rental_uris":{"android":"levelo://app?vid=9a917a16-7adc-4bb0-be1e-82f66ce73a3d","ios":"levelo://app?vid=9a917a16-7adc-4bb0-be1e-82f66ce73a3d"},"vehicle_type_id":"4","last_reported":1698858353,"current_range_meters":7200,"station_id":"ce4bhpp2rcd13ifvqhgg","pricing_plan_id":"free"},{"bike_id":"26a26f98-1a03-4b51-b266-19c56343a037","system_id":"levelo_inurba_marseille","lat":43.32653,"lon":5.40988,"is_reserved":false,"is_disabled":false,"rental_uris":{"android":"levelo://app?vid=26a26f98-1a03-4b51-b266-19c56343a037","ios":"levelo://app?vid=26a26f98-1a03-4b51-b266-19c56343a037"},"vehicle_type_id":"4","last_reported":1698858353,"current_range_meters":31200,"station_id":"ce4bhpp2rcd13ifvqhgg","pricing_plan_id":"free"},{"bike_id":"204df8be-291e-413f-a418-f68ca57cac39","system_id":"levelo_inurba_marseille","lat":43.32657,"lon":5.40994,"is_reserved":false,"is_disabled":false,"rental_uris":{"android":"levelo://app?vid=204df8be-291e-413f-a418-f68ca57cac39","ios":"levelo://app?vid=204df8be-291e-413f-a418-f68ca57cac39"},"vehicle_type_id":"4","last_reported":1698858353,"current_range_meters":30000,"station_id":"ce4bhpp2rcd13ifvqhgg","pricing_plan_id":"free"},{"bike_id":"1fd749a0-7bba-4e64-af96-250bd6d1b593","system_id":"levelo_inurba_marseille","lat":43.326588,"lon":5.409939,"is_reserved":false,"is_disabled":false,"rental_uris":{"android":"levelo://app?vid=1fd749a0-7bba-4e64-af96-250bd6d1b593","ios":"levelo://app?vid=1fd749a0-7bba-4e64-af96-250bd6d1b593"},"vehicle_type_id":"4","last_reported":1698858353,"current_range_meters":25200,"station_id":"ce4bhpp2rcd13ifvqhgg","pricing_plan_id":"free"},{"bike_id":"e634675b-bbf7-48cd-add2-54baf1865376","system_id":"levelo_inurba_marseille","lat":43.30414,"lon":5.41284,"is_reserved":false,"is_disabled":false,"rental_uris":{"android":"levelo://app?vid=e634675b-bbf7-48cd-add2-54baf1865376","ios":"levelo://app?vid=e634675b-bbf7-48cd-add2-54baf1865376"},"vehicle_type_id":"4","last_reported":1698858353,"current_range_meters":25200,"station_id":"ce4bhop2rcd13ifvqh8g","pricing_plan_id":"free"},{"bike_id":"c5ab5b80-11b2-492e-81c0-d2b8b03113ed","system_id":"levelo_inurba_marseille","lat":43.304188,"lon":5.412904,"is_reserved":false,"is_disabled":false,"rental_uris":{"android":"levelo://app?vid=c5ab5b80-11b2-492e-81c0-d2b8b03113ed","ios":"levelo://app?vid=c5ab5b80-11b2-492e-81c0-d2b8b03113ed"},"vehicle_type_id":"4","last_reported":1698858353,"current_range_meters":16400,"station_id":"ce4bhop2rcd13ifvqh8g","pricing_plan_id":"free"},{"bike_id":"2cc2c120-1512-43d5-87a3-765decea4feb","system_id":"levelo_inurba_marseille","lat":43.304188,"lon":5.412904,"is_reserved":false,"is_disabled":false,"rental_uris":{"android":"levelo://app?vid=2cc2c120-1512-43d5-87a3-765decea4feb","ios":"levelo://app?vid=2cc2c120-1512-43d5-87a3-765decea4feb"},"vehicle_type_id":"4","last_reported":1698858353,"current_range_meters":29200,"station_id":"ce4bhop2rcd13ifvqh8g","pricing_plan_id":"free"},