{"last_updated":1783411978,"ttl":60,"version":"2.2","data":{"bikes":[{"bike_id":"ba0c28b1-8732-48e2-8079-f25b2b3fbc3c","system_id":"levelo_inurba_marseille","lat":43.337444,"lon":5.374475,"is_reserved":false,"is_disabled":false,"rental_uris":{"android":"levelo://app?vid=ba0c28b1-8732-48e2-8079-f25b2b3fbc3c","ios":"levelo://app?vid=ba0c28b1-8732-48e2-8079-f25b2b3fbc3c"},"vehicle_type_id":"4","last_reported":1783411979,"current_range_meters":0,"station_id":"","pricing_plan_id":"cebpf4jnsgd1na2vs0mg"},{"bike_id":"6561da10-7a09-4fd9-b043-45bdb7ded2ef","system_id":"levelo_inurba_marseille","lat":43.25105,"lon":5.40318,"is_reserved":false,"is_disabled":true,"rental_uris":{"android":"levelo://app?vid=6561da10-7a09-4fd9-b043-45bdb7ded2ef","ios":"levelo://app?vid=6561da10-7a09-4fd9-b043-45bdb7ded2ef"},"vehicle_type_id":"4","last_reported":1783411979,"current_range_meters":2800,"station_id":"ce4bhlh2rcd13ifvqgig","pricing_plan_id":"cebpf4jnsgd1na2vs0mg"},{"bike_id":"c3d94bf3-19b7-443d-bc75-2bac8eb17cbe","system_id":"levelo_inurba_marseille","lat":43.33135,"lon":5.39786,"is_reserved":false,"is_disabled":false,"rental_uris":{"android":"levelo://app?vid=c3d94bf3-19b7-443d-bc75-2bac8eb17cbe","ios":"levelo://app?vid=c3d94bf3-19b7-443d-bc75-2bac8eb17cbe"},"vehicle_type_id":"4","last_reported":1783411979,"current_range_meters":2800,"station_id":"","pricing_plan_id":"cebpf4jnsgd1na2vs0mg"},{"bike_id":"fff6250b-43c6-49a4-86df-1a4ad13c407f","system_id":"levelo_inurba_marseille","lat":43.27369,"lon":5.36247,"is_reserved":false,"is_disabled":true,"rental_uris":{"android":"levelo://app?vid=fff6250b-43c6-49a4-86df-1a4ad13c407f","ios":"levelo://app?vid=fff6250b-43c6-49a4-86df-1a4ad13c407f"},"vehicle_type_id":"4","last_reported":1783411979,"current_range_meters":2800,"station_id":"ce4bhbh2rcd13ifvqeo0","pricing_plan_id":"cebpf4jnsgd1na2vs0mg"},{"bike_id":"ebb69cdb-f57c-486a-9d37-3814132e26e5","system_id":"levelo_inurba_marseille","lat":43.28028,"lon":5.36934,"is_reserved":false,"is_disabled":true,"rental_uris":{"android":"levelo://app?vid=ebb69cdb-f57c-486a-9d37-3814132e26e5","ios":"levelo://app?vid=ebb69cdb-f57c-486a-9d37-3814132e26e5"},"vehicle_type_id":"4","last_reported":1783411979,"current_range_meters":2800,"station_id":"ce4bha12rcd13ifvqef0","pricing_plan_id":"cebpf4jnsgd1na2vs0mg"},{"bike_id":"c24b0d68-14d9-44af-8b0c-35f8569c6d0c","system_id":"levelo_inurba_marseille","lat":43.28477,"lon":5.38431,"is_reserved":false,"is_disabled":true,"rental_uris":{"android":"levelo://app?vid=c24b0d68-14d9-44af-8b0c-35f8569c6d0c","ios":"levelo://app?vid=c24b0d68-14d9-44af-8b0c-35f8569c6d0c"},"vehicle_type_id":"4","last_reported":1783411979,"current_range_meters":2800,"station_id":"ce4bh512rcd13ifvqe3g","pricing_plan_id":"cebpf4jnsgd1na2vs0mg"},{"bike_id":"814b0a23-4b15-472b-a08d-7d4fdd4dc68d","system_id":"levelo_inurba_marseille","lat":43.29381,"lon":5.37855,"is_reserved":false,"is_disabled":false,"rental_uris":{"android":"levelo://app?vid=814b0a23-4b15-472b-a08d-7d4fdd4dc68d","ios":"levelo://app?vid=814b0a23-4b15-472b-a08d-7d4fdd4dc68d"},"vehicle_type_id":"4","last_reported":1783411979,"current_range_meters":2800,"station_id":"ce4bgjh2rcd13ifvqbf0","pricing_plan_id":"cebpf4jnsgd1na2vs0mg"},{"bike_id":"164a881a-59db-4ef7-8722-b7c4da02e3e5","system_id":"levelo_inurba_marseille","lat":43.28858,"lon":5.42523,"is_reserved":false,"is_disabled":false,"rental_uris":{"android":"levelo://app?vid=164a881a-59db-4ef7-8722-b7c4da02e3e5","ios":"levelo://app?vid=164a881a-59db-4ef7-8722-b7c4da02e3e5"},"vehicle_type_id":"4","last_reported":1783411979,"current_range_meters":2800,"station_id":"st_d3b462108ojc7389ooeg","pricing_plan_id":"cebpf4jnsgd1na2vs0mg"},{"bike_id":"24101c5c-8eb7-4f51-a037-e1fbe9f469c5","system_id":"levelo_inurba_marseille","lat":43.25014,"lon":5.3796,"is_reserved":false,"is_disabled":false,"rental_uris":{"android":"levelo://app?vid=24101c5c-8eb7-4f51-a037-e1fbe9f469c5","ios":"levelo://app?vid=24101c5c-8eb7-4f51-a037-e1fbe9f469c5"},"vehicle_type_id":"4","last_reported":1783411979,"current_range_meters":2800,"station_id":"","pricing_plan_id":"cebpf4jnsgd1na2vs0mg"},{"bike_id":"673cbe6b-9d98-42d5-b209-9f82fa9192ac","system_id":"levelo_inurba_marseille","lat":43.24992,"lon":5.38948,"is_reserved":false,"is_disabled":false,"rental_uris":{"android":"levelo://app?vid=673cbe6b-9d98-42d5-b209-9f82fa9192ac","ios":"levelo://app?vid=673cbe6b-9d98-42d5-b209-9f82fa9192ac"},"vehicle_type_id":"4","last_reported":1783411979,"current_range_meters":2800,"station_id":"ce4bhgp2rcd13ifvqfd0","pricing_plan_id":"cebpf4jnsgd1na2vs0mg"},{"bike_id":"3dab20b1-26a1-4df7-a5dd-12a3e15acc1c","system_id":"levelo_inurba_marseille","lat":43.23202,"lon":5.35549,"is_reserved":false,"is_disabled":false,"rental_uris":{"android":"levelo://app?vid=3dab20b1-26a1-4df7-a5dd-12a3e15acc1c","ios":"levelo://app?vid=3dab20b1-26a1-4df7-a5dd-12a3e15acc1c"},"vehicle_type_id":"4","last_reported":1783411979,"current_range_meters":2800,"station_id":"ce4bhu92rcd13ifvqi70","pricing_plan_id":"cebpf4jnsgd1na2vs0mg"},{"bike_id":"f9546f64-8a2f-4036-901e-af0901be0b07","system_id":"levelo_inurba_marseille","lat":43.30123,"lon":5.39849,"is_reserved":false,"is_disabled":false,"rental_uris":{"android":"levelo://app?vid=f9546f64-8a2f-4036-901e-af0901be0b07","ios":"levelo://app?vid=f9546f64-8a2f-4036-901e-af0901be0b07"},"vehicle_type_id":"4","last_reported":1783411979,"current_range_meters":2800,"station_id":"ce4bh0h2rcd13ifvqd40","pricing_plan_id":"cebpf4jnsgd1na2vs0mg"},{"bike_id":"fc5d7b22-bed1-4640-a4b2-9379b1406486","system_id":"levelo_inurba_marseille","lat":43.29428,"lon":5.38421,"is_reserved":false,"is_disabled":true,"rental_uris":{"android":"levelo://app?vid=fc5d7b22-bed1-4640-a4b2-9379b1406486","ios":"levelo://app?vid=fc5d7b22-bed1-4640-a4b2-9379b1406486"},"vehicle_type_id":"4","last_reported":1783411979,"current_range_meters":2800,"station_id":"","pricing_plan_id":"cebpf4jnsgd1na2vs0mg"},{"bike_id":"87da481c-7e44-49ce-9617-64ee4bd27ca4","system_id":"levelo_inurba_marseille","lat":43.26419,"lon":5.39891,"is_reserved":false,"is_disabled":false,"rental_uris":{"android":"levelo://app?vid=87da481c-7e44-49ce-9617-64ee4bd27ca4","ios":"levelo://app?vid=87da481c-7e44-49ce-9617-64ee4bd27ca4"},"vehicle_type_id":"4","last_reported":1783411979,"current_range_meters":2800,"station_id":"","pricing_plan_id":"cebpf4jnsgd1na2vs0mg"},{"bike_id":"c1c88b11-92f5-437b-85af-b745aa920b32","system_id":"levelo_inurba_marseille","lat":43.26633,"lon":5.38787,"is_reserved":false,"is_disabled":false,"rental_uris":{"android":"levelo://app?vid=c1c88b11-92f5-437b-85af-b745aa920b32","ios":"levelo://app?vid=c1c88b11-92f5-437b-85af-b745aa920b32"},"vehicle_type_id":"4","last_reported":1783411979,"current_range_meters":2800,"station_id":"","pricing_plan_id":"cebpf4jnsgd1na2vs0mg"},{"bike_id":"dcc0bf0f-667a-45aa-978b-153f5670052f","system_id":"levelo_inurba_marseille","lat":43.297879,"lon":5.39386,"is_reserved":false,"is_disabled":false,"rental_uris":{"android":"levelo://app?vid=dcc0bf0f-667a-45aa-978b-153f5670052f","ios":"levelo://app?vid=dcc0bf0f-667a-45aa-978b-153f5670052f"},"vehicle_type_id":"4","last_reported":1783411979,"current_range_meters":2800,"station_id":"ce4bh0h2rcd13ifvqd50","pricing_plan_id":"cebpf4jnsgd1na2vs0mg"},{"bike_id":"268860b7-a6e7-4b6e-a857-94d1ec5f8071","system_id":"levelo_inurba_marseille","lat":43.292,"lon":5.3577,"is_reserved":false,"is_disabled":true,"rental_uris":{"android":"levelo://app?vid=268860b7-a6e7-4b6e-a857-94d1ec5f8071","ios":"levelo://app?vid=268860b7-a6e7-4b6e-a857-94d1ec5f8071"},"vehicle_type_id":"4","last_reported":1783411979,"current_range_meters":3200,"station_id":"ce4bhb12rcd13ifvqel0","pricing_plan_id":"cebpf4jnsgd1na2vs0mg"},{"bike_id":"4b71ea7a-3ffc-4ca2-a5b0-91fcaaf1579c","system_id":"levelo_inurba_marseille","lat":43.30343,"lon":5.38265,"is_reserved":false,"is_disabled":false,"rental_uris":{"android":"levelo://app?vid=4b71ea7a-3ffc-4ca2-a5b0-91fcaaf1579c","ios":"levelo://app?vid=4b71ea7a-3ffc-4ca2-a5b0-91fcaaf1579c"},"vehicle_type_id":"4","last_reported":1783411979,"current_range_meters":3200,"station_id":"","pricing_plan_id":"cebpf4jnsgd1na2vs0mg"},{"bike_id":"5f8491b7-6afe-4763-8c6d-f7eadff0e4de","system_id":"levelo_inurba_marseille","lat":43.26531,"lon":5.36951,"is_reserved":false,"is_disabled":true,"rental_uris":{"android":"levelo://app?vid=5f8491b7-6afe-4763-8c6d-f7eadff0e4de","ios":"levelo://app?vid=5f8491b7-6afe-4763-8c6d-f7eadff0e4de"},"vehicle_type_id":"4","last_reported":1783411979,"current_range_meters":3200,"station_id":"","pricing_plan_id":"cebpf4jnsgd1na2vs0mg"},{"bike_id":"4bb72506-4f3b-4ca7-992e-20cc9c7bb1d6","system_id":"levelo_inurba_marseille","lat":43.24716,"lon":5.4175,"is_reserved":false,"is_disabled":false,"rental_uris":{"android":"levelo://app?vid=4bb72506-4f3b-4ca7-992e-20cc9c7bb1d6","ios":"levelo://app?vid=4bb72506-4f3b-4ca7-992e-20cc9c7bb1d6"},"vehicle_type_id":"4","last_reported":1783411979,"current_range_meters":3200,"station_id":"","pricing_plan_id":"cebpf4jnsgd1na2vs0mg"},{"bike_id":"e9c7bfa8-5874-4f90-ad84-6bece76dfa23","system_id":"levelo_inurba_marseille","lat":43.29432,"lon":5.35944,"is_reserved":false,"is_disabled":false,"rental_uris":{"android":"levelo://app?vid=e9c7bfa8-5874-4f90-ad84-6bece76dfa23","ios":"levelo://app?vid=e9c7bfa8-5874-4f90-ad84-6bece76dfa23"},"vehicle_type_id":"4","last_reported":1783411979,"current_range_meters":3200,"station_id":"","pricing_plan_id":"cebpf4jnsgd1na2vs0mg"},{"bike_id":"d2974c90-490a-4ce0-82b2-9802a308be0c","system_id":"levelo_inurba_marseille","lat":43.2869,"lon":5.39998,"is_reserved":false,"is_disabled":true,"rental_uris":{"android":"levelo://app?vid=d2974c90-490a-4ce0-82b2-9802a308be0c","ios":"levelo://app?vid=d2974c90-490a-4ce0-82b2-9802a308be0c"},"vehicle_type_id":"4","last_reported":1783411979,"current_range_meters":3200,"station_id":"ce4bho92rcd13ifvqh3g","pricing_plan_id":"cebpf4jnsgd1na2vs0mg"},{"bike_id":"50235bd3-55a8-4ac0-b844-30153944fd9e","system_id":"levelo_inurba_marseille","lat":43.231525,"lon":5.437151,"is_reserved":false,"is_disabled":false,"rental_uris":{"android":"levelo://app?vid=50235bd3-55a8-4ac0-b844-30153944fd9e","ios":"levelo://app?vid=50235bd3-55a8-4ac0-b844-30153944fd9e"},"vehicle_type_id":"4","last_reported":1783411979,"current_range_meters":3200,"station_id":"ce4bhmp2rcd13ifvqgog","pricing_plan_id":"cebpf4jnsgd1na2vs0mg"},{"bike_id":"5bbeb850-bd2b-4afb-bf37-43ef78ee8d73","system_id":"levelo_inurba_marseille","lat":43.31683,"lon":5.4047,"is_reserved":false,"is_disabled":false,"rental_uris":{"android":"levelo://app?vid=5bbeb850-bd2b-4afb-bf37-43ef78ee8d73","ios":"levelo://app?vid=5bbeb850-bd2b-4afb-bf37-43ef78ee8d73"},"vehicle_type_id":"4","last_reported":1783411979,"current_range_meters":3200,"station_id":"ce4bh012rcd13ifvqd00","pricing_plan_id":"cebpf4jnsgd1na2vs0mg"},{"bike_id":"a394a3f8-2a79-4de8-9b2c-88ff415999f6","system_id":"levelo_inurba_marseille","lat":43.30598,"lon":5.37241,"is_reserved":false,"is_disabled":false,"rental_uris":{"android":"levelo://app?vid=a394a3f8-2a79-4de8-9b2c-88ff415999f6","ios":"levelo://app?vid=a394a3f8-2a79-4de8-9b2c-88ff415999f6"},"vehicle_type_id":"4","last_reported":1783411979,"current_range_meters":3200,"station_id":"ce4bgqh2rcd13ifvqc4g","pricing_plan_id":"cebpf4jnsgd1na2vs0mg"},{"bike_id":"2260ec96-fa9a-41e4-9941-8d124b331047","system_id":"levelo_inurba_marseille","lat":43.27305,"lon":5.390826,"is_reserved":false,"is_disabled":false,"rental_uris":{"android":"levelo://app?vid=2260ec96-fa9a-41e4-9941-8d124b331047","ios":"levelo://app?vid=2260ec96-fa9a-41e4-9941-8d124b331047"},"vehicle_type_id":"4","last_reported":1783411979,"current_range_meters":3200,"station_id":"ce4bhgp2rcd13ifvqfe0","pricing_plan_id":"cebpf4jnsgd1na2vs0mg"},{"bike_id":"5fd0e241-19e1-4cff-9162-e905843ef786","system_id":"levelo_inurba_marseille","lat":43.31315,"lon":5.36717,"is_reserved":false,"is_disabled":false,"rental_uris":{"android":"levelo://app?vid=5fd0e241-19e1-4cff-9162-e905843ef786","ios":"levelo://app?vid=5fd0e241-19e1-4cff-9162-e905843ef786"},"vehicle_type_id":"4","last_reported":1783411979,"current_range_meters":3200,"station_id":"ce4bgr92rcd13ifvqc6g","pricing_plan_id":"cebpf4jnsgd1na2vs0mg"},{"bike_id":"a2331d43-f52a-4a5c-b09c-9c08398f47a8","system_id":"levelo_inurba_marseille","lat":43.3056,"lon":5.36541,"is_reserved":false,"is_disabled":false,"rental_uris":{"android":"levelo://app?vid=a2331d43-f52a-4a5c-b09c-9c08398f47a8","ios":"levelo://app?vid=a2331d43-f52a-4a5c-b09c-9c08398f47a8"},"vehicle_type_id":"4","last_reported":1783411979,"current_range_meters":3200,"station_id":"ce4bgs12rcd13ifvqcag","pricing_plan_id":"cebpf4jnsgd1na2vs0mg"},{"bike_id":"ba32c099-17d0-487c-80dd-6be987b8aaab","system_id":"levelo_inurba_marseille","lat":43.21744,"lon":5.34601,"is_reserved":false,"is_disabled":false,"rental_uris":{"android":"levelo://app?vid=ba32c099-17d0-487c-80dd-6be987b8aaab","ios":"levelo://app?vid=ba32c099-17d0-487c-80dd-6be987b8aaab"},"vehicle_type_id":"4","last_reported":1783411979,"current_range_meters":3200,"station_id":"st_cvj6r9ubvosntc0bgbag","pricing_plan_id":"cebpf4jnsgd1na2vs0mg"},{"bike_id":"10c774f2-3fcb-48fa-b675-cd8d6b44aeed","system_id":"levelo_inurba_marseille","lat":43.29928,"lon":5.36508,"is_reserved":false,"is_disabled":false,"rental_uris":{"android":"levelo://app?vid=10c774f2-3fcb-48fa-b675-cd8d6b44aeed","ios":"levelo://app?vid=10c774f2-3fcb-48fa-b675-cd8d6b44aeed"},"vehicle_type_id":"4","last_reported":1783411979,"current_range_meters":3200,"station_id":"ce4bgm92rcd13ifvqbr0","pricing_plan_id":"cebpf4jnsgd1na2vs0mg"},{"bike_id":"afe9a566-d8c0-4f06-a183-9935532dd6e0","system_id":"levelo_inurba_marseille","lat":43.25282,"lon":5.37494,"is_reserved":false,"is_disabled":false,"rental_uris":{"android":"levelo://app?vid=afe9a566-d8c0-4f06-a183-9935532dd6e0","ios":"levelo://app?vid=afe9a566-d8c0-4f06-a183-9935532dd6e0"},"vehicle_type_id":"4","last_reported":1783411979,"current_range_meters":3200,"station_id":"","pricing_plan_id":"cebpf4jnsgd1na2vs0mg"},{"bike_id":"f094764f-2ddf-4452-be4a-c8029998973a","system_id":"levelo_inurba_marseille","lat":43.26673,"lon":5.39541,"is_reserved":false,"is_disabled":false,"rental_uris":{"android":"levelo://app?vid=f094764f-2ddf-4452-be4a-c8029998973a","ios":"levelo://app?vid=f094764f-2ddf-4452-be4a-c8029998973a"},"vehicle_type_id":"4","last_reported":1783411979,"current_range_meters":3200,"station_id":"","pricing_plan_id":"cebpf4jnsgd1na2vs0mg"},{"bike_id":"5ecbb93f-3c9e-44e2-96b4-c4aa4e8c1a25","system_id":"levelo_inurba_marseille","lat":43.29002,"lon":5.35608,"is_reserved":false,"is_disabled":false,"rental_uris":{"android":"levelo://app?vid=5ecbb93f-3c9e-44e2-96b4-c4aa4e8c1a25","ios":"levelo://app?vid=5ecbb93f-3c9e-44e2-96b4-c4aa4e8c1a25"},"vehicle_type_id":"4","last_reported":1783411979,"current_range_meters":3200,"station_id":"ce4bhb92rcd13ifvqen0","pricing_plan_id":"cebpf4jnsgd1na2vs0mg"},{"bike_id":"85706f81-4982-4276-b755-d4181aa895f9","system_id":"levelo_inurba_marseille","lat":43.28392,"lon":5.3846,"is_reserved":false,"is_disabled":false,"rental_uris":{"android":"levelo://app?vid=85706f81-4982-4276-b755-d4181aa895f9","ios":"levelo://app?vid=85706f81-4982-4276-b755-d4181aa895f9"},"vehicle_type_id":"4","last_reported":1783411979,"current_range_meters":3600,"station_id":"","pricing_plan_id":"cebpf4jnsgd1na2vs0mg"},{"bike_id":"fcaab3b6-502e-4318-97e6-a05322f291c8","system_id":"levelo_inurba_marseille","lat":43.28459,"lon":5.35884,"is_reserved":false,"is_disabled":false,"rental_uris":{"android":"levelo://app?vid=fcaab3b6-502e-4318-97e6-a05322f291c8","ios":"levelo://app?vid=fcaab3b6-502e-4318-97e6-a05322f291c8"},"vehicle_type_id":"4","last_reported":1783411979,"current_range_meters":3600,"station_id":"ce4bhah2rcd13ifvqei0","pricing_plan_id":"cebpf4jnsgd1na2vs0mg"},{"bike_id":"fb2e8bd1-8803-4d96-b5e9-5618c029fbea","system_id":"levelo_inurba_marseille","lat":43.28709,"lon":5.37923,"is_reserved":false,"is_disabled":true,"rental_uris":{"android":"levelo://app?vid=fb2e8bd1-8803-4d96-b5e9-5618c029fbea","ios":"levelo://app?vid=fb2e8bd1-8803-4d96-b5e9-5618c029fbea"},"vehicle_type_id":"4","last_reported":1783411979,"current_range_meters":3600,"station_id":"ce4bh9p2rcd13ifvqec0","pricing_plan_id":"cebpf4jnsgd1na2vs0mg"},{"bike_id":"116c1b87-5e89-409d-a771-68d229e41f09","system_id":"levelo_inurba_marseille","lat":43.26501,"lon":5.39538,"is_reserved":false,"is_disabled":false,"rental_uris":{"android":"levelo://app?vid=116c1b87-5e89-409d-a771-68d229e41f09","ios":"levelo://app?vid=116c1b87-5e89-409d-a771-68d229e41f09"},"vehicle_type_id":"4","last_reported":1783411979,"current_range_meters":3600,"station_id":"ce4bhi12rcd13ifvqfq0","pricing_plan_id":"cebpf4jnsgd1na2vs0mg"},{"bike_id":"92a0c0cb-0818-4864-a9ba-8af564118461","system_id":"levelo_inurba_marseille","lat":43.32403,"lon":5.37396,"is_reserved":false,"is_disabled":false,"rental_uris":{"android":"levelo://app?vid=92a0c0cb-0818-4864-a9ba-8af564118461","ios":"levelo://app?vid=92a0c0cb-0818-4864-a9ba-8af564118461"},"vehicle_type_id":"4","last_reported":1783411979,"current_range_meters":3600,"station_id":"","pricing_plan_id":"cebpf4jnsgd1na2vs0mg"},{"bike_id":"2a3cf4a0-4c9d-4bd9-8dc3-a7d0b1e91fdb","system_id":"levelo_inurba_marseille","lat":43.26832,"lon":5.39378,"is_reserved":false,"is_disabled":false,"rental_uris":{"android":"levelo://app?vid=2a3cf4a0-4c9d-4bd9-8dc3-a7d0b1e91fdb","ios":"levelo://app?vid=2a3cf4a0-4c9d-4bd9-8dc3-a7d0b1e91fdb"},"vehicle_type_id":"4","last_reported":1783411979,"current_range_meters":3600,"station_id":"ce4bhh12rcd13ifvqfg0","pricing_plan_id":"cebpf4jnsgd1na2vs0mg"},{"bike_id":"927f034a-0960-4153-81f1-316c469b9213","system_id":"levelo_inurba_marseille","lat":43.2586,"lon":5.39918,"is_reserved":false,"is_disabled":true,"rental_uris":{"android":"levelo://app?vid=927f034a-0960-4153-81f1-316c469b9213","ios":"levelo://app?vid=927f034a-0960-4153-81f1-316c469b9213"},"vehicle_type_id":"4","last_reported":1783411979,"current_range_meters":3600,"station_id":"ce4bhl92rcd13ifvqghg","pricing_plan_id":"cebpf4jnsgd1na2vs0mg"},{"bike_id":"78610874-b30c-4905-9599-bcdb35b4c544","system_id":"levelo_inurba_marseille","lat":43.25582,"lon":5.38231,"is_reserved":false,"is_disabled":false,"rental_uris":{"android":"levelo://app?vid=78610874-b30c-4905-9599-bcdb35b4c544","ios":"levelo://app?vid=78610874-b30c-4905-9599-bcdb35b4c544"},"vehicle_type_id":"4","last_reported":1783411979,"current_range_meters":3600,"station_id":"ce4bhih2rcd13ifvqfs0","pricing_plan_id":"cebpf4jnsgd1na2vs0mg"},{"bike_id":"92bc169b-9c36-4c93-8432-6f60b6f3d084","system_id":"levelo_inurba_marseille","lat":43.31232,"lon":5.36816,"is_reserved":false,"is_disabled":false,"rental_uris":{"android":"levelo://app?vid=92bc169b-9c36-4c93-8432-6f60b6f3d084","ios":"levelo://app?vid=92bc169b-9c36-4c93-8432-6f60b6f3d084"},"vehicle_type_id":"4","last_reported":1783411979,"current_range_meters":3600,"station_id":"ce4bgl92rcd13ifvqbq0","pricing_plan_id":"cebpf4jnsgd1na2vs0mg"},{"bike_id":"da995ece-b413-4ae7-8af4-b3e727781c7e","system_id":"levelo_inurba_marseille","lat":43.28465,"lon":5.43746,"is_reserved":false,"is_disabled":false,"rental_uris":{"android":"levelo://app?vid=da995ece-b413-4ae7-8af4-b3e727781c7e","ios":"levelo://app?vid=da995ece-b413-4ae7-8af4-b3e727781c7e"},"vehicle_type_id":"4","last_reported":1783411979,"current_range_meters":3600,"station_id":"","pricing_plan_id":"cebpf4jnsgd1na2vs0mg"},{"bike_id":"72db5589-dfd0-442a-904d-e9c5bdcd1d4f","system_id":"levelo_inurba_marseille","lat":43.31605,"lon":5.37947,"is_reserved":false,"is_disabled":false,"rental_uris":{"android":"levelo://app?vid=72db5589-dfd0-442a-904d-e9c5bdcd1d4f","ios":"levelo://app?vid=72db5589-dfd0-442a-904d-e9c5bdcd1d4f"},"vehicle_type_id":"4","last_reported":1783411979,"current_range_meters":4000,"station_id":"","pricing_plan_id":"cebpf4jnsgd1na2vs0mg"},{"bike_id":"0e4aee50-3104-442f-8af0-958aae383457","system_id":"levelo_inurba_marseille","lat":43.26948,"lon":5.38635,"is_reserved":false,"is_disabled":false,"rental_uris":{"android":"levelo://app?vid=0e4aee50-3104-442f-8af0-958aae383457","ios":"levelo://app?vid=0e4aee50-3104-442f-8af0-958aae383457"},"vehicle_type_id":"4","last_reported":1783411979,"current_range_meters":4000,"station_id":"ce4bhh92rcd13ifvqfh0","pricing_plan_id":"cebpf4jnsgd1na2vs0mg"},{"bike_id":"0af7f693-01d8-4139-b250-54ff27492633","system_id":"levelo_inurba_marseille","lat":43.31979,"lon":5.38126,"is_reserved":false,"is_disabled":false,"rental_uris":{"android":"levelo://app?vid=0af7f693-01d8-4139-b250-54ff27492633","ios":"levelo://app?vid=0af7f693-01d8-4139-b250-54ff27492633"},"vehicle_type_id":"4","last_reported":1783411979,"current_range_meters":4000,"station_id":"ce4bhr12rcd13ifvqhpg","pricing_plan_id":"cebpf4jnsgd1na2vs0mg"},{"bike_id":"27fc9101-a369-4e47-9076-0eb666625f7a","system_id":"levelo_inurba_marseille","lat":43.31284,"lon":5.40165,"is_reserved":false,"is_disabled":false,"rental_uris":{"android":"levelo://app?vid=27fc9101-a369-4e47-9076-0eb666625f7a","ios":"levelo://app?vid=27fc9101-a369-4e47-9076-0eb666625f7a"},"vehicle_type_id":"4","last_reported":1783411979,"current_range_meters":4000,"station_id":"ce4bh092rcd13ifvqd30","pricing_plan_id":"cebpf4jnsgd1na2vs0mg"},{"bike_id":"e67b1b52-376c-43db-b4b5-a4fe7f9b21e6","system_id":"levelo_inurba_marseille","lat":43.24069,"lon":5.37758,"is_reserved":false,"is_disabled":false,"rental_uris":{"android":"levelo://app?vid=e67b1b52-376c-43db-b4b5-a4fe7f9b21e6","ios":"levelo://app?vid=e67b1b52-376c-43db-b4b5-a4fe7f9b21e6"},"vehicle_type_id":"4","last_reported":1783411979,"current_range_meters":4000,"station_id":"ce4bhnp2rcd13ifvqgvg","pricing_plan_id":"cebpf4jnsgd1na2vs0mg"},{"bike_id":"7a71c416-c3b5-4289-ad0e-531bcb18f06d","system_id":"levelo_inurba_marseille","lat":43.32431,"lon":5.3645,"is_reserved":false,"is_disabled":false,"rental_uris":{"android":"levelo://app?vid=7a71c416-c3b5-4289-ad0e-531bcb18f06d","ios":"levelo://app?vid=7a71c416-c3b5-4289-ad0e-531bcb18f06d"},"vehicle_type_id":"4","last_reported":1783411979,"current_range_meters":4000,"station_id":"","pricing_plan_id":"cebpf4jnsgd1na2vs0mg"},{"bike_id":"20caa1fc-06d5-4252-9f45-594b25108b35","system_id":"levelo_inurba_marseille","lat":43.28476,"lon":5.4839,"is_reserved":false,"is_disabled":false,"rental_uris":{"android":"levelo://app?vid=20caa1fc-06d5-4252-9f45-594b25108b35","ios":"levelo://app?vid=20caa1fc-06d5-4252-9f45-594b25108b35"},"vehicle_type_id":"4","last_reported":1783411979,"current_range_meters":4000,"station_id":"st_d3svhcjqgbts73a3dn0g","pricing_plan_id":"cebpf4jnsgd1na2vs0mg"},{"bike_id":"9db47c28-d135-4619-b753-4c4fa126f9fd","system_id":"levelo_inurba_marseille","lat":43.29225,"lon":5.3604,"is_reserved":false,"is_disabled":true,"rental_uris":{"android":"levelo://app?vid=9db47c28-d135-4619-b753-4c4fa126f9fd","ios":"levelo://app?vid=9db47c28-d135-4619-b753-4c4fa126f9fd"},"vehicle_type_id":"4","last_reported":1783411979,"current_range_meters":4000,"station_id":"ce4bhbh2rcd13ifvqeqg","pricing_plan_id":"cebpf4jnsgd1na2vs0mg"},{"bike_id":"faae4998-2660-4cc6-a836-6400055fc88a","system_id":"levelo_inurba_marseille","lat":43.29866,"lon":5.36282,"is_reserved":false,"is_disabled":true,"rental_uris":{"android":"levelo://app?vid=faae4998-2660-4cc6-a836-6400055fc88a","ios":"levelo://app?vid=faae4998-2660-4cc6-a836-6400055fc88a"},"vehicle_type_id":"4","last_reported":1783411979,"current_range_meters":4000,"station_id":"ce4bgpp2rcd13ifvqc3g","pricing_plan_id":"cebpf4jnsgd1na2vs0mg"},{"bike_id":"82ad741f-832e-4067-91be-189cc7a90751","system_id":"levelo_inurba_marseille","lat":43.28939,"lon":5.36631,"is_reserved":false,"is_disabled":false,"rental_uris":{"android":"levelo://app?vid=82ad741f-832e-4067-91be-189cc7a90751","ios":"levelo://app?vid=82ad741f-832e-4067-91be-189cc7a90751"},"vehicle_type_id":"4","last_reported":1783411979,"current_range_meters":4000,"station_id":"ce4bhap2rcd13ifvqek0","pricing_plan_id":"cebpf4jnsgd1na2vs0mg"},{"bike_id":"be97d0d0-96b1-4dfd-855f-4b3b87855f8b","system_id":"levelo_inurba_marseille","lat":43.28721,"lon":5.42736,"is_reserved":false,"is_disabled":false,"rental_uris":{"android":"levelo://app?vid=be97d0d0-96b1-4dfd-855f-4b3b87855f8b","ios":"levelo://app?vid=be97d0d0-96b1-4dfd-855f-4b3b87855f8b"},"vehicle_type_id":"4","last_reported":1783411979,"current_range_meters":4000,"station_id":"","pricing_plan_id":"cebpf4jnsgd1na2vs0mg"},{"bike_id":"7678e258-73ee-4d26-8d86-8beb357c78a0","system_id":"levelo_inurba_marseille","lat":43.24363,"lon":5.40594,"is_reserved":false,"is_disabled":false,"rental_uris":{"android":"levelo://app?vid=7678e258-73ee-4d26-8d86-8beb357c78a0","ios":"levelo://app?vid=7678e258-73ee-4d26-8d86-8beb357c78a0"},"vehicle_type_id":"4","last_reported":1783411979,"current_range_meters":4000,"station_id":"","pricing_plan_id":"cebpf4jnsgd1na2vs0mg"},{"bike_id":"83fb8ce7-8e88-4970-b350-62286bca9be9","system_id":"levelo_inurba_marseille","lat":43.31204,"lon":5.3685,"is_reserved":false,"is_disabled":false,"rental_uris":{"android":"levelo://app?vid=83fb8ce7-8e88-4970-b350-62286bca9be9","ios":"levelo://app?vid=83fb8ce7-8e88-4970-b350-62286bca9be9"},"vehicle_type_id":"4","last_reported":1783411979,"current_range_meters":4000,"station_id":"ce4bgl92rcd13ifvqbq0","pricing_plan_id":"cebpf4jnsgd1na2vs0mg"},{"bike_id":"d7c33e32-1bf6-466d-abaf-8816e2645afe","system_id":"levelo_inurba_marseille","lat":43.31907,"lon":5.40723,"is_reserved":false,"is_disabled":true,"rental_uris":{"android":"levelo://app?vid=d7c33e32-1bf6-466d-abaf-8816e2645afe","ios":"levelo://app?vid=d7c33e32-1bf6-466d-abaf-8816e2645afe"},"vehicle_type_id":"4","last_reported":1783411979,"current_range_meters":4400,"station_id":"ce4bhq12rcd13ifvqhig","pricing_plan_id":"cebpf4jnsgd1na2vs0mg"},{"bike_id":"634fb6a6-d6f6-4688-8d6c-82ff9d2b60b3","system_id":"levelo_inurba_marseille","lat":43.26228,"lon":5.38768,"is_reserved":false,"is_disabled":false,"rental_uris":{"android":"levelo://app?vid=634fb6a6-d6f6-4688-8d6c-82ff9d2b60b3","ios":"levelo://app?vid=634fb6a6-d6f6-4688-8d6c-82ff9d2b60b3"},"vehicle_type_id":"4","last_reported":1783411979,"current_range_meters":4400,"station_id":"st_d8gjfg747rts73coq3b0","pricing_plan_id":"cebpf4jnsgd1na2vs0mg"},{"bike_id":"572e68b9-d18d-4505-bc29-553721ee1599","system_id":"levelo_inurba_marseille","lat":43.26366,"lon":5.41072,"is_reserved":false,"is_disabled":false,"rental_uris":{"android":"levelo://app?vid=572e68b9-d18d-4505-bc29-553721ee1599","ios":"levelo://app?vid=572e68b9-d18d-4505-bc29-553721ee1599"},"vehicle_type_id":"4","last_reported":1783411979,"current_range_meters":4400,"station_id":"st_d4e5ca6na9uc73bfl5fg","pricing_plan_id":"cebpf4jnsgd1na2vs0mg"},{"bike_id":"7fb54030-81c0-4653-ab50-a6e69be8636f","system_id":"levelo_inurba_marseille","lat":43.26042,"lon":5.37474,"is_reserved":false,"is_disabled":true,"rental_uris":{"android":"levelo://app?vid=7fb54030-81c0-4653-ab50-a6e69be8636f","ios":"levelo://app?vid=7fb54030-81c0-4653-ab50-a6e69be8636f"},"vehicle_type_id":"4","last_reported":1783411979,"current_range_meters":4400,"station_id":"ce4bhgh2rcd13ifvqfa0","pricing_plan_id":"cebpf4jnsgd1na2vs0mg"},{"bike_id":"efce0065-4524-417a-a35d-e4c1a8a9f922","system_id":"levelo_inurba_marseille","lat":43.2821,"lon":5.34904,"is_reserved":false,"is_disabled":false,"rental_uris":{"android":"levelo://app?vid=efce0065-4524-417a-a35d-e4c1a8a9f922","ios":"levelo://app?vid=efce0065-4524-417a-a35d-e4c1a8a9f922"},"vehicle_type_id":"4","last_reported":1783411979,"current_range_meters":4400,"station_id":"","pricing_plan_id":"cebpf4jnsgd1na2vs0mg"},{"bike_id":"1b38264d-b828-4294-b072-9ccc46169fbe","system_id":"levelo_inurba_marseille","lat":43.31128,"lon":5.43848,"is_reserved":false,"is_disabled":false,"rental_uris":{"android":"levelo://app?vid=1b38264d-b828-4294-b072-9ccc46169fbe","ios":"levelo://app?vid=1b38264d-b828-4294-b072-9ccc46169fbe"},"vehicle_type_id":"4","last_reported":1783411979,"current_range_meters":4400,"station_id":"","pricing_plan_id":"cebpf4jnsgd1na2vs0mg"},{"bike_id":"5c27c21d-e49d-4272-89f4-b58751c04dc1","system_id":"levelo_inurba_marseille","lat":43.23431,"lon":5.38129,"is_reserved":false,"is_disabled":false,"rental_uris":{"android":"levelo://app?vid=5c27c21d-e49d-4272-89f4-b58751c04dc1","ios":"levelo://app?vid=5c27c21d-e49d-4272-89f4-b58751c04dc1"},"vehicle_type_id":"4","last_reported":1783411979,"current_range_meters":4400,"station_id":"","pricing_plan_id":"cebpf4jnsgd1na2vs0mg"},{"bike_id":"3112c030-03e7-4ad3-a895-94002cb7d5c7","system_id":"levelo_inurba_marseille","lat":43.23962,"lon":5.36615,"is_reserved":false,"is_disabled":true,"rental_uris":{"android":"levelo://app?vid=3112c030-03e7-4ad3-a895-94002cb7d5c7","ios":"levelo://app?vid=3112c030-03e7-4ad3-a895-94002cb7d5c7"},"vehicle_type_id":"4","last_reported":1783411979,"current_range_meters":4400,"station_id":"ce4bhi12rcd13ifvqfp0","pricing_plan_id":"cebpf4jnsgd1na2vs0mg"},{"bike_id":"3177f657-0de7-42df-990b-aa125d58299f","system_id":"levelo_inurba_marseille","lat":43.27505,"lon":5.4159,"is_reserved":false,"is_disabled":false,"rental_uris":{"android":"levelo://app?vid=3177f657-0de7-42df-990b-aa125d58299f","ios":"levelo://app?vid=3177f657-0de7-42df-990b-aa125d58299f"},"vehicle_type_id":"4","last_reported":1783411979,"current_range_meters":4400,"station_id":"st_d6im8g6chgec73a5pndg","pricing_plan_id":"cebpf4jnsgd1na2vs0mg"},{"bike_id":"a9c01ff4-dfc1-454d-a08e-3145f94f5ebd","system_id":"levelo_inurba_marseille","lat":43.28077,"lon":5.39662,"is_reserved":false,"is_disabled":false,"rental_uris":{"android":"levelo://app?vid=a9c01ff4-dfc1-454d-a08e-3145f94f5ebd","ios":"levelo://app?vid=a9c01ff4-dfc1-454d-a08e-3145f94f5ebd"},"vehicle_type_id":"4","last_reported":1783411979,"current_range_meters":4400,"station_id":"ce4bho12rcd13ifvqh2g","pricing_plan_id":"cebpf4jnsgd1na2vs0mg"},{"bike_id":"e3022a6a-a8f2-4537-83b2-c5cd58afaf3e","system_id":"levelo_inurba_marseille","lat":43.2509,"lon":5.39506,"is_reserved":false,"is_disabled":true,"rental_uris":{"android":"levelo://app?vid=e3022a6a-a8f2-4537-83b2-c5cd58afaf3e","ios":"levelo://app?vid=e3022a6a-a8f2-4537-83b2-c5cd58afaf3e"},"vehicle_type_id":"4","last_reported":1783411979,"current_range_meters":4400,"station_id":"ce4bhm12rcd13ifvqgkg","pricing_plan_id":"cebpf4jnsgd1na2vs0mg"},{"bike_id":"f12954c2-1b6f-4584-a636-0a2083bce431","system_id":"levelo_inurba_marseille","lat":43.31327,"lon":5.40463,"is_reserved":false,"is_disabled":false,"rental_uris":{"android":"levelo://app?vid=f12954c2-1b6f-4584-a636-0a2083bce431","ios":"levelo://app?vid=f12954c2-1b6f-4584-a636-0a2083bce431"},"vehicle_type_id":"4","last_reported":1783411979,"current_range_meters":4400,"station_id":"","pricing_plan_id":"cebpf4jnsgd1na2vs0mg"},{"bike_id":"a6390df4-b61d-48d3-93df-445e3069fe4d","system_id":"levelo_inurba_marseille","lat":43.27319,"lon":5.39109,"is_reserved":false,"is_disabled":false,"rental_uris":{"android":"levelo://app?vid=a6390df4-b61d-48d3-93df-445e3069fe4d","ios":"levelo://app?vid=a6390df4-b61d-48d3-93df-445e3069fe4d"},"vehicle_type_id":"4","last_reported":1783411979,"current_range_meters":4400,"station_id":"ce4bhgp2rcd13ifvqfe0","pricing_plan_id":"cebpf4jnsgd1na2vs0mg"},{"bike_id":"afbe1589-59c1-48af-93b9-b80f53ac4ccc","system_id":"levelo_inurba_marseille","lat":43.30944,"lon":5.39039,"is_reserved":false,"is_disabled":false,"rental_uris":{"android":"levelo://app?vid=afbe1589-59c1-48af-93b9-b80f53ac4ccc","ios":"levelo://app?vid=afbe1589-59c1-48af-93b9-b80f53ac4ccc"},"vehicle_type_id":"4","last_reported":1783411979,"current_range_meters":4400,"station_id":"ce4bgup2rcd13ifvqco0","pricing_plan_id":"cebpf4jnsgd1na2vs0mg"},{"bike_id":"2bfaf2c2-bc6d-4239-b7bd-001079702116","system_id":"levelo_inurba_marseille","lat":43.29289,"lon":5.37443,"is_reserved":false,"is_disabled":false,"rental_uris":{"android":"levelo://app?vid=2bfaf2c2-bc6d-4239-b7bd-001079702116","ios":"levelo://app?vid=2bfaf2c2-bc6d-4239-b7bd-001079702116"},"vehicle_type_id":"4","last_reported":1783411979,"current_range_meters":4400,"station_id":"ce4bgi12rcd13ifvqb70","pricing_plan_id":"cebpf4jnsgd1na2vs0mg"},{"bike_id":"59ec8c16-a749-45d0-89d7-44bdbc3919f9","system_id":"levelo_inurba_marseille","lat":43.25632,"lon":5.40469,"is_reserved":false,"is_disabled":false,"rental_uris":{"android":"levelo://app?vid=59ec8c16-a749-45d0-89d7-44bdbc3919f9","ios":"levelo://app?vid=59ec8c16-a749-45d0-89d7-44bdbc3919f9"},"vehicle_type_id":"4","last_reported":1783411979,"current_range_meters":4400,"station_id":"","pricing_plan_id":"cebpf4jnsgd1na2vs0mg"},{"bike_id":"a40fac1c-fdae-4a33-8735-3f7c9c669ebe","system_id":"levelo_inurba_marseille","lat":43.29756,"lon":5.3822,"is_reserved":false,"is_disabled":false,"rental_uris":{"android":"levelo://app?vid=a40fac1c-fdae-4a33-8735-3f7c9c669ebe","ios":"levelo://app?vid=a40fac1c-fdae-4a33-8735-3f7c9c669ebe"},"vehicle_type_id":"4","last_reported":1783411979,"current_range_meters":4800,"station_id":"","pricing_plan_id":"cebpf4jnsgd1na2vs0mg"},{"bike_id":"48baf9d8-7c54-446d-acef-aec0f74b8a22","system_id":"levelo_inurba_marseille","lat":43.29771,"lon":5.37093,"is_reserved":false,"is_disabled":false,"rental_uris":{"android":"levelo://app?vid=48baf9d8-7c54-446d-acef-aec0f74b8a22","ios":"levelo://app?vid=48baf9d8-7c54-446d-acef-aec0f74b8a22"},"vehicle_type_id":"4","last_reported":1783411979,"current_range_meters":4800,"station_id":"ce4bgop2rcd13ifvqc1g","pricing_plan_id":"cebpf4jnsgd1na2vs0mg"},{"bike_id":"2c2951fb-b920-4961-968e-d0d9a9e1198e","system_id":"levelo_inurba_marseille","lat":43.29205,"lon":5.36044,"is_reserved":false,"is_disabled":false,"rental_uris":{"android":"levelo://app?vid=2c2951fb-b920-4961-968e-d0d9a9e1198e","ios":"levelo://app?vid=2c2951fb-b920-4961-968e-d0d9a9e1198e"},"vehicle_type_id":"4","last_reported":1783411979,"current_range_meters":4800,"station_id":"ce4bhbh2rcd13ifvqeqg","pricing_plan_id":"cebpf4jnsgd1na2vs0mg"},{"bike_id":"f1fa67ea-70e8-494e-90f1-3cd8a54e2aac","system_id":"levelo_inurba_marseille","lat":43.2827,"lon":5.35051,"is_reserved":false,"is_disabled":true,"rental_uris":{"android":"levelo://app?vid=f1fa67ea-70e8-494e-90f1-3cd8a54e2aac","ios":"levelo://app?vid=f1fa67ea-70e8-494e-90f1-3cd8a54e2aac"},"vehicle_type_id":"4","last_reported":1783411979,"current_range_meters":4800,"station_id":"ce4bhbp2rcd13ifvqerg","pricing_plan_id":"cebpf4jnsgd1na2vs0mg"},{"bike_id":"700367e5-6c87-4c9d-b09c-2b54e001a8c5","system_id":"levelo_inurba_marseille","lat":43.29223,"lon":5.36068,"is_reserved":false,"is_disabled":false,"rental_uris":{"android":"levelo://app?vid=700367e5-6c87-4c9d-b09c-2b54e001a8c5","ios":"levelo://app?vid=700367e5-6c87-4c9d-b09c-2b54e001a8c5"},"vehicle_type_id":"4","last_reported":1783411979,"current_range_meters":4800,"station_id":"ce4bhbh2rcd13ifvqeqg","pricing_plan_id":"cebpf4jnsgd1na2vs0mg"},{"bike_id":"da553a3c-9f6b-4c81-beb5-f3cde20a3d26","system_id":"levelo_inurba_marseille","lat":43.29036,"lon":5.39929,"is_reserved":false,"is_disabled":false,"rental_uris":{"android":"levelo://app?vid=da553a3c-9f6b-4c81-beb5-f3cde20a3d26","ios":"levelo://app?vid=da553a3c-9f6b-4c81-beb5-f3cde20a3d26"},"vehicle_type_id":"4","last_reported":1783411979,"current_range_meters":4800,"station_id":"ce4bh392rcd13ifvqdm0","pricing_plan_id":"cebpf4jnsgd1na2vs0mg"},{"bike_id":"83d9625d-b00b-4129-85ca-0b095b690b27","system_id":"levelo_inurba_marseille","lat":43.28959,"lon":5.42726,"is_reserved":false,"is_disabled":false,"rental_uris":{"android":"levelo://app?vid=83d9625d-b00b-4129-85ca-0b095b690b27","ios":"levelo://app?vid=83d9625d-b00b-4129-85ca-0b095b690b27"},"vehicle_type_id":"4","last_reported":1783411979,"current_range_meters":4800,"station_id":"","pricing_plan_id":"cebpf4jnsgd1na2vs0mg"},{"bike_id":"fb2f2e66-d46a-4f12-a999-6378f1f2457f","system_id":"levelo_inurba_marseille","lat":43.33606,"lon":5.41029,"is_reserved":false,"is_disabled":false,"rental_uris":{"android":"levelo://app?vid=fb2f2e66-d46a-4f12-a999-6378f1f2457f","ios":"levelo://app?vid=fb2f2e66-d46a-4f12-a999-6378f1f2457f"},"vehicle_type_id":"4","last_reported":1783411979,"current_range_meters":4800,"station_id":"ce4bhqh2rcd13ifvqhmg","pricing_plan_id":"cebpf4jnsgd1na2vs0mg"},{"bike_id":"0ff58a81-f80e-4fd9-b7d3-014020309c44","system_id":"levelo_inurba_marseille","lat":43.31375,"lon":5.36729,"is_reserved":false,"is_disabled":false,"rental_uris":{"android":"levelo://app?vid=0ff58a81-f80e-4fd9-b7d3-014020309c44","ios":"levelo://app?vid=0ff58a81-f80e-4fd9-b7d3-014020309c44"},"vehicle_type_id":"4","last_reported":1783411979,"current_range_meters":4800,"station_id":"ce4bgr92rcd13ifvqc6g","pricing_plan_id":"cebpf4jnsgd1na2vs0mg"},{"bike_id":"e6866c0b-054c-4d83-8998-355b49dff8d9","system_id":"levelo_inurba_marseille","lat":43.31893,"lon":5.36798,"is_reserved":false,"is_disabled":false,"rental_uris":{"android":"levelo://app?vid=e6866c0b-054c-4d83-8998-355b49dff8d9","ios":"levelo://app?vid=e6866c0b-054c-4d83-8998-355b49dff8d9"},"vehicle_type_id":"4","last_reported":1783411979,"current_range_meters":4800,"station_id":"st_d6o2h0d0559c73evc1b0","pricing_plan_id":"cebpf4jnsgd1na2vs0mg"},{"bike_id":"1b396dbc-cdbe-441c-a6f9-d18101b3cc4f","system_id":"levelo_inurba_marseille","lat":43.3335,"lon":5.41077,"is_reserved":false,"is_disabled":false,"rental_uris":{"android":"levelo://app?vid=1b396dbc-cdbe-441c-a6f9-d18101b3cc4f","ios":"levelo://app?vid=1b396dbc-cdbe-441c-a6f9-d18101b3cc4f"},"vehicle_type_id":"4","last_reported":1783411979,"current_range_meters":4800,"station_id":"","pricing_plan_id":"cebpf4jnsgd1na2vs0mg"},{"bike_id":"1feb4c18-fbf5-4abb-af21-96c8e9d59e53","system_id":"levelo_inurba_marseille","lat":43.30148,"lon":5.38091,"is_reserved":false,"is_disabled":false,"rental_uris":{"android":"levelo://app?vid=1feb4c18-fbf5-4abb-af21-96c8e9d59e53","ios":"levelo://app?vid=1feb4c18-fbf5-4abb-af21-96c8e9d59e53"},"vehicle_type_id":"4","last_reported":1783411979,"current_range_meters":5600,"station_id":"ce4bgjp2rcd13ifvqbh0","pricing_plan_id":"cebpf4jnsgd1na2vs0mg"},{"bike_id":"2116fbda-aa7e-4c51-89b7-624446379050","system_id":"levelo_inurba_marseille","lat":43.27163,"lon":5.40988,"is_reserved":false,"is_disabled":false,"rental_uris":{"android":"levelo://app?vid=2116fbda-aa7e-4c51-89b7-624446379050","ios":"levelo://app?vid=2116fbda-aa7e-4c51-89b7-624446379050"},"vehicle_type_id":"4","last_reported":1783411979,"current_range_meters":5600,"station_id":"ce4bhl12rcd13ifvqgf0","pricing_plan_id":"cebpf4jnsgd1na2vs0mg"},{"bike_id":"812e626a-05c0-41da-9cef-ada4028844ff","system_id":"levelo_inurba_marseille","lat":43.31304,"lon":5.36722,"is_reserved":false,"is_disabled":true,"rental_uris":{"android":"levelo://app?vid=812e626a-05c0-41da-9cef-ada4028844ff","ios":"levelo://app?vid=812e626a-05c0-41da-9cef-ada4028844ff"},"vehicle_type_id":"4","last_reported":1783411979,"current_range_meters":5600,"station_id":"ce4bgr92rcd13ifvqc6g","pricing_plan_id":"cebpf4jnsgd1na2vs0mg"},{"bike_id":"5b0ada4d-76ff-4576-883f-11875d199ef1","system_id":"levelo_inurba_marseille","lat":43.28085,"lon":5.39658,"is_reserved":false,"is_disabled":false,"rental_uris":{"android":"levelo://app?vid=5b0ada4d-76ff-4576-883f-11875d199ef1","ios":"levelo://app?vid=5b0ada4d-76ff-4576-883f-11875d199ef1"},"vehicle_type_id":"4","last_reported":1783411979,"current_range_meters":5600,"station_id":"","pricing_plan_id":"cebpf4jnsgd1na2vs0mg"},{"bike_id":"d0b958a4-0781-4a1e-83d0-28cb0b198006","system_id":"levelo_inurba_marseille","lat":43.29584,"lon":5.38588,"is_reserved":false,"is_disabled":false,"rental_uris":{"android":"levelo://app?vid=d0b958a4-0781-4a1e-83d0-28cb0b198006","ios":"levelo://app?vid=d0b958a4-0781-4a1e-83d0-28cb0b198006"},"vehicle_type_id":"4","last_reported":1783411979,"current_range_meters":5600,"station_id":"","pricing_plan_id":"cebpf4jnsgd1na2vs0mg"},{"bike_id":"8f9589bc-5102-48ec-bff3-0aa876684c01","system_id":"levelo_inurba_marseille","lat":43.29799,"lon":5.44076,"is_reserved":false,"is_disabled":true,"rental_uris":{"android":"levelo://app?vid=8f9589bc-5102-48ec-bff3-0aa876684c01","ios":"levelo://app?vid=8f9589bc-5102-48ec-bff3-0aa876684c01"},"vehicle_type_id":"4","last_reported":1783411979,"current_range_meters":5600,"station_id":"st_d3jp68qikq2c7381ktn0","pricing_plan_id":"cebpf4jnsgd1na2vs0mg"},{"bike_id":"2a11a66d-c7e1-41da-afcf-2c8c7e2cf4bb","system_id":"levelo_inurba_marseille","lat":43.29925,"lon":5.37454,"is_reserved":false,"is_disabled":true,"rental_uris":{"android":"levelo://app?vid=2a11a66d-c7e1-41da-afcf-2c8c7e2cf4bb","ios":"levelo://app?vid=2a11a66d-c7e1-41da-afcf-2c8c7e2cf4bb"},"vehicle_type_id":"4","last_reported":1783411979,"current_range_meters":5600,"station_id":"ce4bgjh2rcd13ifvqbg0","pricing_plan_id":"cebpf4jnsgd1na2vs0mg"},{"bike_id":"bfec31f5-04b3-423c-b573-d91345aa3403","system_id":"levelo_inurba_marseille","lat":43.28615,"lon":5.35098,"is_reserved":false,"is_disabled":false,"rental_uris":{"android":"levelo://app?vid=bfec31f5-04b3-423c-b573-d91345aa3403","ios":"levelo://app?vid=bfec31f5-04b3-423c-b573-d91345aa3403"},"vehicle_type_id":"4","last_reported":1783411979,"current_range_meters":5600,"station_id":"ce4bhch2rcd13ifvqeug","pricing_plan_id":"cebpf4jnsgd1na2vs0mg"},{"bike_id":"88c6974c-054e-4e78-afc5-468065f9180d","system_id":"levelo_inurba_marseille","lat":43.24803,"lon":5.37457,"is_reserved":false,"is_disabled":false,"rental_uris":{"android":"levelo://app?vid=88c6974c-054e-4e78-afc5-468065f9180d","ios":"levelo://app?vid=88c6974c-054e-4e78-afc5-468065f9180d"},"vehicle_type_id":"4","last_reported":1783411979,"current_range_meters":5600,"station_id":"ce4bhgh2rcd13ifvqfb0","pricing_plan_id":"cebpf4jnsgd1na2vs0mg"},{"bike_id":"e5b93264-39b1-4cc8-a950-49cb6d17fefa","system_id":"levelo_inurba_marseille","lat":43.29277,"lon":5.3897,"is_reserved":false,"is_disabled":false,"rental_uris":{"android":"levelo://app?vid=e5b93264-39b1-4cc8-a950-49cb6d17fefa","ios":"levelo://app?vid=e5b93264-39b1-4cc8-a950-49cb6d17fefa"},"vehicle_type_id":"4","last_reported":1783411979,"current_range_meters":5600,"station_id":"","pricing_plan_id":"cebpf4jnsgd1na2vs0mg"},{"bike_id":"8dae7ba7-1dab-4436-b8fe-c71765462ed3","system_id":"levelo_inurba_marseille","lat":43.28142,"lon":5.36373,"is_reserved":false,"is_disabled":false,"rental_uris":{"android":"levelo://app?vid=8dae7ba7-1dab-4436-b8fe-c71765462ed3","ios":"levelo://app?vid=8dae7ba7-1dab-4436-b8fe-c71765462ed3"},"vehicle_type_id":"4","last_reported":1783411979,"current_range_meters":5600,"station_id":"","pricing_plan_id":"cebpf4jnsgd1na2vs0mg"},{"bike_id":"2f0888e8-eb2c-479b-8899-86b577988365","system_id":"levelo_inurba_marseille","lat":43.29733,"lon":5.48359,"is_reserved":false,"is_disabled":false,"rental_uris":{"android":"levelo://app?vid=2f0888e8-eb2c-479b-8899-86b577988365","ios":"levelo://app?vid=2f0888e8-eb2c-479b-8899-86b577988365"},"vehicle_type_id":"4","last_reported":1783411979,"current_range_meters":5600,"station_id":"","pricing_plan_id":"cebpf4jnsgd1na2vs0mg"},{"bike_id":"151318e1-1ede-4f1c-8297-71ff21b43437","system_id":"levelo_inurba_marseille","lat":43.2888,"lon":5.37744,"is_reserved":false,"is_disabled":false,"rental_uris":{"android":"levelo://app?vid=151318e1-1ede-4f1c-8297-71ff21b43437","ios":"levelo://app?vid=151318e1-1ede-4f1c-8297-71ff21b43437"},"vehicle_type_id":"4","last_reported":1783411979,"current_range_meters":5600,"station_id":"","pricing_plan_id":"cebpf4jnsgd1na2vs0mg"},{"bike_id":"9dbc6b5d-d921-4618-b2d6-4ccd5a1ce15a","system_id":"levelo_inurba_marseille","lat":43.31108,"lon":5.38219,"is_reserved":false,"is_disabled":false,"rental_uris":{"android":"levelo://app?vid=9dbc6b5d-d921-4618-b2d6-4ccd5a1ce15a","ios":"levelo://app?vid=9dbc6b5d-d921-4618-b2d6-4ccd5a1ce15a"},"vehicle_type_id":"4","last_reported":1783411979,"current_range_meters":6000,"station_id":"","pricing_plan_id":"cebpf4jnsgd1na2vs0mg"},{"bike_id":"dca82ffe-b8f2-4063-a68f-524492757f64","system_id":"levelo_inurba_marseille","lat":43.27055,"lon":5.4025,"is_reserved":false,"is_disabled":true,"rental_uris":{"android":"levelo://app?vid=dca82ffe-b8f2-4063-a68f-524492757f64","ios":"levelo://app?vid=dca82ffe-b8f2-4063-a68f-524492757f64"},"vehicle_type_id":"4","last_reported":1783411979,"current_range_meters":6000,"station_id":"ce4bhk92rcd13ifvqgc0","pricing_plan_id":"cebpf4jnsgd1na2vs0mg"},{"bike_id":"4461f359-e578-4853-804a-593f2289f613","system_id":"levelo_inurba_marseille","lat":43.29671,"lon":5.40118,"is_reserved":false,"is_disabled":false,"rental_uris":{"android":"levelo://app?vid=4461f359-e578-4853-804a-593f2289f613","ios":"levelo://app?vid=4461f359-e578-4853-804a-593f2289f613"},"vehicle_type_id":"4","last_reported":1783411979,"current_range_meters":6000,"station_id":"","pricing_plan_id":"cebpf4jnsgd1na2vs0mg"},{"bike_id":"8dad15c2-11f5-48f0-b4ae-02ed32279dc9","system_id":"levelo_inurba_marseille","lat":43.30507,"lon":5.37894,"is_reserved":false,"is_disabled":false,"rental_uris":{"android":"levelo://app?vid=8dad15c2-11f5-48f0-b4ae-02ed32279dc9","ios":"levelo://app?vid=8dad15c2-11f5-48f0-b4ae-02ed32279dc9"},"vehicle_type_id":"4","last_reported":1783411979,"current_range_meters":6000,"station_id":"ce4bgup2rcd13ifvqcn0","pricing_plan_id":"cebpf4jnsgd1na2vs0mg"},{"bike_id":"6dba7751-9b32-49d1-8663-50c18acacf6a","system_id":"levelo_inurba_marseille","lat":43.30647,"lon":5.37562,"is_reserved":false,"is_disabled":false,"rental_uris":{"android":"levelo://app?vid=6dba7751-9b32-49d1-8663-50c18acacf6a","ios":"levelo://app?vid=6dba7751-9b32-49d1-8663-50c18acacf6a"},"vehicle_type_id":"4","last_reported":1783411979,"current_range_meters":6000,"station_id":"","pricing_plan_id":"cebpf4jnsgd1na2vs0mg"},{"bike_id":"69aa2a07-fa8e-4241-9a10-c2a605583547","system_id":"levelo_inurba_marseille","lat":43.23874,"lon":5.37116,"is_reserved":false,"is_disabled":false,"rental_uris":{"android":"levelo://app?vid=69aa2a07-fa8e-4241-9a10-c2a605583547","ios":"levelo://app?vid=69aa2a07-fa8e-4241-9a10-c2a605583547"},"vehicle_type_id":"4","last_reported":1783411979,"current_range_meters":6000,"station_id":"","pricing_plan_id":"cebpf4jnsgd1na2vs0mg"},{"bike_id":"e72b4cda-053e-4753-bb27-484e23659644","system_id":"levelo_inurba_marseille","lat":43.30137,"lon":5.37411,"is_reserved":false,"is_disabled":false,"rental_uris":{"android":"levelo://app?vid=e72b4cda-053e-4753-bb27-484e23659644","ios":"levelo://app?vid=e72b4cda-053e-4753-bb27-484e23659644"},"vehicle_type_id":"4","last_reported":1783411979,"current_range_meters":6000,"station_id":"ce4bgs92rcd13ifvqcc0","pricing_plan_id":"cebpf4jnsgd1na2vs0mg"},{"bike_id":"7a11a729-3a4c-4b8e-af25-3300c6f354fe","system_id":"levelo_inurba_marseille","lat":43.32104,"lon":5.36762,"is_reserved":false,"is_disabled":false,"rental_uris":{"android":"levelo://app?vid=7a11a729-3a4c-4b8e-af25-3300c6f354fe","ios":"levelo://app?vid=7a11a729-3a4c-4b8e-af25-3300c6f354fe"},"vehicle_type_id":"4","last_reported":1783411979,"current_range_meters":6000,"station_id":"ce4bhrh2rcd13ifvqhug","pricing_plan_id":"cebpf4jnsgd1na2vs0mg"},{"bike_id":"c94a2e00-6628-4a82-b1d6-ac06673e8561","system_id":"levelo_inurba_marseille","lat":43.30548,"lon":5.36691,"is_reserved":false,"is_disabled":false,"rental_uris":{"android":"levelo://app?vid=c94a2e00-6628-4a82-b1d6-ac06673e8561","ios":"levelo://app?vid=c94a2e00-6628-4a82-b1d6-ac06673e8561"},"vehicle_type_id":"4","last_reported":1783411979,"current_range_meters":6000,"station_id":"ce4bgrp2rcd13ifvqc9g","pricing_plan_id":"cebpf4jnsgd1na2vs0mg"},{"bike_id":"3ee42266-3712-4488-b386-bdbbb5e2d040","system_id":"levelo_inurba_marseille","lat":43.25083,"lon":5.39508,"is_reserved":false,"is_disabled":true,"rental_uris":{"android":"levelo://app?vid=3ee42266-3712-4488-b386-bdbbb5e2d040","ios":"levelo://app?vid=3ee42266-3712-4488-b386-bdbbb5e2d040"},"vehicle_type_id":"4","last_reported":1783411979,"current_range_meters":6000,"station_id":"ce4bhm12rcd13ifvqgkg","pricing_plan_id":"cebpf4jnsgd1na2vs0mg"},{"bike_id":"e7667868-2adf-4474-b30c-08edb42dae74","system_id":"levelo_inurba_marseille","lat":43.22934,"lon":5.35376,"is_reserved":false,"is_disabled":true,"rental_uris":{"android":"levelo://app?vid=e7667868-2adf-4474-b30c-08edb42dae74","ios":"levelo://app?vid=e7667868-2adf-4474-b30c-08edb42dae74"},"vehicle_type_id":"4","last_reported":1783411979,"current_range_meters":6000,"station_id":"cpo3532slgdg3j2ikp40","pricing_plan_id":"cebpf4jnsgd1na2vs0mg"},{"bike_id":"43463906-30d0-4691-953f-eba235a730cf","system_id":"levelo_inurba_marseille","lat":43.33529,"lon":5.37493,"is_reserved":false,"is_disabled":false,"rental_uris":{"android":"levelo://app?vid=43463906-30d0-4691-953f-eba235a730cf","ios":"levelo://app?vid=43463906-30d0-4691-953f-eba235a730cf"},"vehicle_type_id":"4","last_reported":1783411979,"current_range_meters":6000,"station_id":"st_d46tts09ee8s73dlu43g","pricing_plan_id":"cebpf4jnsgd1na2vs0mg"},{"bike_id":"6c1578a9-cf4e-4dca-8bb8-d3addb11f80a","system_id":"levelo_inurba_marseille","lat":43.25143,"lon":5.38571,"is_reserved":false,"is_disabled":false,"rental_uris":{"android":"levelo://app?vid=6c1578a9-cf4e-4dca-8bb8-d3addb11f80a","ios":"levelo://app?vid=6c1578a9-cf4e-4dca-8bb8-d3addb11f80a"},"vehicle_type_id":"4","last_reported":1783411979,"current_range_meters":6000,"station_id":"","pricing_plan_id":"cebpf4jnsgd1na2vs0mg"},{"bike_id":"3bae36b2-9d85-480c-a578-1a97c1dc46de","system_id":"levelo_inurba_marseille","lat":43.31539,"lon":5.3741,"is_reserved":false,"is_disabled":false,"rental_uris":{"android":"levelo://app?vid=3bae36b2-9d85-480c-a578-1a97c1dc46de","ios":"levelo://app?vid=3bae36b2-9d85-480c-a578-1a97c1dc46de"},"vehicle_type_id":"4","last_reported":1783411979,"current_range_meters":6000,"station_id":"","pricing_plan_id":"cebpf4jnsgd1na2vs0mg"},{"bike_id":"ce246acd-8c78-4e93-8d68-b477575009da","system_id":"levelo_inurba_marseille","lat":43.2524,"lon":5.37792,"is_reserved":false,"is_disabled":false,"rental_uris":{"android":"levelo://app?vid=ce246acd-8c78-4e93-8d68-b477575009da","ios":"levelo://app?vid=ce246acd-8c78-4e93-8d68-b477575009da"},"vehicle_type_id":"4","last_reported":1783411979,"current_range_meters":6000,"station_id":"","pricing_plan_id":"cebpf4jnsgd1na2vs0mg"},{"bike_id":"401beb52-7dd5-4e26-b86e-92c4b7a914f4","system_id":"levelo_inurba_marseille","lat":43.28414,"lon":5.34981,"is_reserved":false,"is_disabled":true,"rental_uris":{"android":"levelo://app?vid=401beb52-7dd5-4e26-b86e-92c4b7a914f4","ios":"levelo://app?vid=401beb52-7dd5-4e26-b86e-92c4b7a914f4"},"vehicle_type_id":"4","last_reported":1783411979,"current_range_meters":6400,"station_id":"ce4bhbh2rcd13ifvqepg","pricing_plan_id":"cebpf4jnsgd1na2vs0mg"},{"bike_id":"20cd6934-09a6-4db7-8213-8e0fd256c447","system_id":"levelo_inurba_marseille","lat":43.29585,"lon":5.447,"is_reserved":false,"is_disabled":false,"rental_uris":{"android":"levelo://app?vid=20cd6934-09a6-4db7-8213-8e0fd256c447","ios":"levelo://app?vid=20cd6934-09a6-4db7-8213-8e0fd256c447"},"vehicle_type_id":"4","last_reported":1783411979,"current_range_meters":6400,"station_id":"","pricing_plan_id":"cebpf4jnsgd1na2vs0mg"},{"bike_id":"d09d06ec-6663-4f8c-b230-af578ef3ea45","system_id":"levelo_inurba_marseille","lat":43.2826,"lon":5.3507,"is_reserved":false,"is_disabled":true,"rental_uris":{"android":"levelo://app?vid=d09d06ec-6663-4f8c-b230-af578ef3ea45","ios":"levelo://app?vid=d09d06ec-6663-4f8c-b230-af578ef3ea45"},"vehicle_type_id":"4","last_reported":1783411979,"current_range_meters":6400,"station_id":"ce4bhbp2rcd13ifvqerg","pricing_plan_id":"cebpf4jnsgd1na2vs0mg"},{"bike_id":"03744ad8-71c6-4fb1-adf5-dff2a8be9951","system_id":"levelo_inurba_marseille","lat":43.26367,"lon":5.41084,"is_reserved":false,"is_disabled":false,"rental_uris":{"android":"levelo://app?vid=03744ad8-71c6-4fb1-adf5-dff2a8be9951","ios":"levelo://app?vid=03744ad8-71c6-4fb1-adf5-dff2a8be9951"},"vehicle_type_id":"4","last_reported":1783411979,"current_range_meters":6400,"station_id":"st_d4e5ca6na9uc73bfl5fg","pricing_plan_id":"cebpf4jnsgd1na2vs0mg"},{"bike_id":"9e34d128-1d34-4407-ba36-d96f6162c936","system_id":"levelo_inurba_marseille","lat":43.3128,"lon":5.40158,"is_reserved":false,"is_disabled":false,"rental_uris":{"android":"levelo://app?vid=9e34d128-1d34-4407-ba36-d96f6162c936","ios":"levelo://app?vid=9e34d128-1d34-4407-ba36-d96f6162c936"},"vehicle_type_id":"4","last_reported":1783411979,"current_range_meters":6400,"station_id":"ce4bh092rcd13ifvqd30","pricing_plan_id":"cebpf4jnsgd1na2vs0mg"},{"bike_id":"5080230d-f029-48a2-9a21-e0b3560ba6cc","system_id":"levelo_inurba_marseille","lat":43.31353,"lon":5.36712,"is_reserved":false,"is_disabled":false,"rental_uris":{"android":"levelo://app?vid=5080230d-f029-48a2-9a21-e0b3560ba6cc","ios":"levelo://app?vid=5080230d-f029-48a2-9a21-e0b3560ba6cc"},"vehicle_type_id":"4","last_reported":1783411979,"current_range_meters":6400,"station_id":"ce4bgr92rcd13ifvqc6g","pricing_plan_id":"cebpf4jnsgd1na2vs0mg"},{"bike_id":"2549e1d3-109c-4882-94e1-f40d18d22d6e","system_id":"levelo_inurba_marseille","lat":43.33135,"lon":5.37704,"is_reserved":false,"is_disabled":false,"rental_uris":{"android":"levelo://app?vid=2549e1d3-109c-4882-94e1-f40d18d22d6e","ios":"levelo://app?vid=2549e1d3-109c-4882-94e1-f40d18d22d6e"},"vehicle_type_id":"4","last_reported":1783411979,"current_range_meters":6400,"station_id":"st_d46cu089ee8s73dldbu0","pricing_plan_id":"cebpf4jnsgd1na2vs0mg"},{"bike_id":"ed87084c-f6fb-4d86-804f-9fdee25c7cd7","system_id":"levelo_inurba_marseille","lat":43.2827,"lon":5.35064,"is_reserved":false,"is_disabled":false,"rental_uris":{"android":"levelo://app?vid=ed87084c-f6fb-4d86-804f-9fdee25c7cd7","ios":"levelo://app?vid=ed87084c-f6fb-4d86-804f-9fdee25c7cd7"},"vehicle_type_id":"4","last_reported":1783411979,"current_range_meters":6400,"station_id":"","pricing_plan_id":"cebpf4jnsgd1na2vs0mg"},{"bike_id":"ec21b348-a79c-45e5-a2ca-3a10372453e7","system_id":"levelo_inurba_marseille","lat":43.31926,"lon":5.39874,"is_reserved":false,"is_disabled":false,"rental_uris":{"android":"levelo://app?vid=ec21b348-a79c-45e5-a2ca-3a10372453e7","ios":"levelo://app?vid=ec21b348-a79c-45e5-a2ca-3a10372453e7"},"vehicle_type_id":"4","last_reported":1783411979,"current_range_meters":6400,"station_id":"","pricing_plan_id":"cebpf4jnsgd1na2vs0mg"},{"bike_id":"0a3ef0c6-38f0-4163-8ee6-c449e4ea2d90","system_id":"levelo_inurba_marseille","lat":43.32472,"lon":5.3656,"is_reserved":false,"is_disabled":false,"rental_uris":{"android":"levelo://app?vid=0a3ef0c6-38f0-4163-8ee6-c449e4ea2d90","ios":"levelo://app?vid=0a3ef0c6-38f0-4163-8ee6-c449e4ea2d90"},"vehicle_type_id":"4","last_reported":1783411979,"current_range_meters":6400,"station_id":"ce4bhs12rcd13ifvqhvg","pricing_plan_id":"cebpf4jnsgd1na2vs0mg"},{"bike_id":"b91befbb-6e17-4be1-8cb9-8bec22a584cc","system_id":"levelo_inurba_marseille","lat":43.26546,"lon":5.4221,"is_reserved":false,"is_disabled":false,"rental_uris":{"android":"levelo://app?vid=b91befbb-6e17-4be1-8cb9-8bec22a584cc","ios":"levelo://app?vid=b91befbb-6e17-4be1-8cb9-8bec22a584cc"},"vehicle_type_id":"4","last_reported":1783411979,"current_range_meters":6400,"station_id":"","pricing_plan_id":"cebpf4jnsgd1na2vs0mg"},{"bike_id":"27f705e4-a833-47bd-a747-4c0c5ccbb435","system_id":"levelo_inurba_marseille","lat":43.28615,"lon":5.35101,"is_reserved":false,"is_disabled":false,"rental_uris":{"android":"levelo://app?vid=27f705e4-a833-47bd-a747-4c0c5ccbb435","ios":"levelo://app?vid=27f705e4-a833-47bd-a747-4c0c5ccbb435"},"vehicle_type_id":"4","last_reported":1783411979,"current_range_meters":6400,"station_id":"ce4bhch2rcd13ifvqeug","pricing_plan_id":"cebpf4jnsgd1na2vs0mg"},{"bike_id":"95ceb8b1-62dd-45ea-8657-9d1e0bc1ebf4","system_id":"levelo_inurba_marseille","lat":43.2938,"lon":5.37844,"is_reserved":false,"is_disabled":false,"rental_uris":{"android":"levelo://app?vid=95ceb8b1-62dd-45ea-8657-9d1e0bc1ebf4","ios":"levelo://app?vid=95ceb8b1-62dd-45ea-8657-9d1e0bc1ebf4"},"vehicle_type_id":"4","last_reported":1783411979,"current_range_meters":6400,"station_id":"ce4bgjh2rcd13ifvqbf0","pricing_plan_id":"cebpf4jnsgd1na2vs0mg"},{"bike_id":"7e7db7de-590b-4a1b-a86a-87265c93e888","system_id":"levelo_inurba_marseille","lat":43.31476,"lon":5.39574,"is_reserved":false,"is_disabled":false,"rental_uris":{"android":"levelo://app?vid=7e7db7de-590b-4a1b-a86a-87265c93e888","ios":"levelo://app?vid=7e7db7de-590b-4a1b-a86a-87265c93e888"},"vehicle_type_id":"4","last_reported":1783411979,"current_range_meters":6400,"station_id":"","pricing_plan_id":"cebpf4jnsgd1na2vs0mg"},{"bike_id":"ce984c70-b306-4b18-a72a-4e5e26192971","system_id":"levelo_inurba_marseille","lat":43.23686,"lon":5.36062,"is_reserved":false,"is_disabled":false,"rental_uris":{"android":"levelo://app?vid=ce984c70-b306-4b18-a72a-4e5e26192971","ios":"levelo://app?vid=ce984c70-b306-4b18-a72a-4e5e26192971"},"vehicle_type_id":"4","last_reported":1783411979,"current_range_meters":6400,"station_id":"","pricing_plan_id":"cebpf4jnsgd1na2vs0mg"},{"bike_id":"9152286b-6d8c-4a4a-b4d8-88058b3e6981","system_id":"levelo_inurba_marseille","lat":43.25338,"lon":5.42175,"is_reserved":false,"is_disabled":false,"rental_uris":{"android":"levelo://app?vid=9152286b-6d8c-4a4a-b4d8-88058b3e6981","ios":"levelo://app?vid=9152286b-6d8c-4a4a-b4d8-88058b3e6981"},"vehicle_type_id":"4","last_reported":1783411979,"current_range_meters":6400,"station_id":"st_d2m65c5bi1j21697t3ng","pricing_plan_id":"cebpf4jnsgd1na2vs0mg"},{"bike_id":"48e9f399-608e-4ef3-aef5-0ea0fdd27ad4","system_id":"levelo_inurba_marseille","lat":43.2923,"lon":5.40901,"is_reserved":false,"is_disabled":true,"rental_uris":{"android":"levelo://app?vid=48e9f399-608e-4ef3-aef5-0ea0fdd27ad4","ios":"levelo://app?vid=48e9f399-608e-4ef3-aef5-0ea0fdd27ad4"},"vehicle_type_id":"4","last_reported":1783411979,"current_range_meters":6400,"station_id":"ce4bh192rcd13ifvqdc0","pricing_plan_id":"cebpf4jnsgd1na2vs0mg"},{"bike_id":"299e017c-2e18-42bc-a1e7-ff9688dc2341","system_id":"levelo_inurba_marseille","lat":43.293382,"lon":5.371394,"is_reserved":false,"is_disabled":false,"rental_uris":{"android":"levelo://app?vid=299e017c-2e18-42bc-a1e7-ff9688dc2341","ios":"levelo://app?vid=299e017c-2e18-42bc-a1e7-ff9688dc2341"},"vehicle_type_id":"4","last_reported":1783411979,"current_range_meters":6400,"station_id":"ce4bgh92rcd13ifvqb40","pricing_plan_id":"cebpf4jnsgd1na2vs0mg"},{"bike_id":"93a2e0f6-9758-47ae-87d2-7aa30f47305b","system_id":"levelo_inurba_marseille","lat":43.29539,"lon":5.38531,"is_reserved":false,"is_disabled":false,"rental_uris":{"android":"levelo://app?vid=93a2e0f6-9758-47ae-87d2-7aa30f47305b","ios":"levelo://app?vid=93a2e0f6-9758-47ae-87d2-7aa30f47305b"},"vehicle_type_id":"4","last_reported":1783411979,"current_range_meters":6400,"station_id":"ce4bgih2rcd13ifvqba0","pricing_plan_id":"cebpf4jnsgd1na2vs0mg"},{"bike_id":"c33bac24-7d2b-4184-8c4a-db5ab7b94a68","system_id":"levelo_inurba_marseille","lat":43.25398,"lon":5.42768,"is_reserved":false,"is_disabled":false,"rental_uris":{"android":"levelo://app?vid=c33bac24-7d2b-4184-8c4a-db5ab7b94a68","ios":"levelo://app?vid=c33bac24-7d2b-4184-8c4a-db5ab7b94a68"},"vehicle_type_id":"4","last_reported":1783411979,"current_range_meters":6800,"station_id":"","pricing_plan_id":"cebpf4jnsgd1na2vs0mg"},{"bike_id":"2fa0e237-ba63-4b8c-8993-7270fa3aaacc","system_id":"levelo_inurba_marseille","lat":43.29883,"lon":5.36735,"is_reserved":false,"is_disabled":false,"rental_uris":{"android":"levelo://app?vid=2fa0e237-ba63-4b8c-8993-7270fa3aaacc","ios":"levelo://app?vid=2fa0e237-ba63-4b8c-8993-7270fa3aaacc"},"vehicle_type_id":"4","last_reported":1783411979,"current_range_meters":6800,"station_id":"","pricing_plan_id":"cebpf4jnsgd1na2vs0mg"},{"bike_id":"0961aae5-8acf-4e66-95a7-76ee8fdbcad6","system_id":"levelo_inurba_marseille","lat":43.29582,"lon":5.38079,"is_reserved":false,"is_disabled":true,"rental_uris":{"android":"levelo://app?vid=0961aae5-8acf-4e66-95a7-76ee8fdbcad6","ios":"levelo://app?vid=0961aae5-8acf-4e66-95a7-76ee8fdbcad6"},"vehicle_type_id":"4","last_reported":1783411979,"current_range_meters":6800,"station_id":"ce4bgl12rcd13ifvqbo0","pricing_plan_id":"cebpf4jnsgd1na2vs0mg"},{"bike_id":"ac5f4070-4c77-4a68-8b7a-96e52d7df351","system_id":"levelo_inurba_marseille","lat":43.28395,"lon":5.37912,"is_reserved":false,"is_disabled":false,"rental_uris":{"android":"levelo://app?vid=ac5f4070-4c77-4a68-8b7a-96e52d7df351","ios":"levelo://app?vid=ac5f4070-4c77-4a68-8b7a-96e52d7df351"},"vehicle_type_id":"4","last_reported":1783411979,"current_range_meters":6800,"station_id":"","pricing_plan_id":"cebpf4jnsgd1na2vs0mg"},{"bike_id":"f7809977-bda7-43e8-bb7e-4bef8b6f0f97","system_id":"levelo_inurba_marseille","lat":43.30011,"lon":5.37333,"is_reserved":false,"is_disabled":false,"rental_uris":{"android":"levelo://app?vid=f7809977-bda7-43e8-bb7e-4bef8b6f0f97","ios":"levelo://app?vid=f7809977-bda7-43e8-bb7e-4bef8b6f0f97"},"vehicle_type_id":"4","last_reported":1783411979,"current_range_meters":6800,"station_id":"","pricing_plan_id":"cebpf4jnsgd1na2vs0mg"},{"bike_id":"39d344a6-9f9e-4e03-abbf-54d88c3a78f1","system_id":"levelo_inurba_marseille","lat":43.33761,"lon":5.37463,"is_reserved":false,"is_disabled":false,"rental_uris":{"android":"levelo://app?vid=39d344a6-9f9e-4e03-abbf-54d88c3a78f1","ios":"levelo://app?vid=39d344a6-9f9e-4e03-abbf-54d88c3a78f1"},"vehicle_type_id":"4","last_reported":1783411979,"current_range_meters":6800,"station_id":"","pricing_plan_id":"cebpf4jnsgd1na2vs0mg"},{"bike_id":"fe41a9f8-4643-4315-a096-9f68091db764","system_id":"levelo_inurba_marseille","lat":43.26174,"lon":5.37515,"is_reserved":false,"is_disabled":false,"rental_uris":{"android":"levelo://app?vid=fe41a9f8-4643-4315-a096-9f68091db764","ios":"levelo://app?vid=fe41a9f8-4643-4315-a096-9f68091db764"},"vehicle_type_id":"4","last_reported":1783411979,"current_range_meters":6800,"station_id":"","pricing_plan_id":"cebpf4jnsgd1na2vs0mg"},{"bike_id":"0142e413-32f0-4a67-9da0-eaf8d8ac0718","system_id":"levelo_inurba_marseille","lat":43.31169,"lon":5.44672,"is_reserved":false,"is_disabled":true,"rental_uris":{"android":"levelo://app?vid=0142e413-32f0-4a67-9da0-eaf8d8ac0718","ios":"levelo://app?vid=0142e413-32f0-4a67-9da0-eaf8d8ac0718"},"vehicle_type_id":"4","last_reported":1783411979,"current_range_meters":6800,"station_id":"","pricing_plan_id":"cebpf4jnsgd1na2vs0mg"},{"bike_id":"3f5a3c1b-1dd0-4f63-adc4-fee55e0c9465","system_id":"levelo_inurba_marseille","lat":43.3339,"lon":5.40741,"is_reserved":false,"is_disabled":false,"rental_uris":{"android":"levelo://app?vid=3f5a3c1b-1dd0-4f63-adc4-fee55e0c9465","ios":"levelo://app?vid=3f5a3c1b-1dd0-4f63-adc4-fee55e0c9465"},"vehicle_type_id":"4","last_reported":1783411979,"current_range_meters":6800,"station_id":"","pricing_plan_id":"cebpf4jnsgd1na2vs0mg"},{"bike_id":"30943e09-16fc-488e-ad38-eca01f9d1c7b","system_id":"levelo_inurba_marseille","lat":43.24799,"lon":5.3745,"is_reserved":false,"is_disabled":true,"rental_uris":{"android":"levelo://app?vid=30943e09-16fc-488e-ad38-eca01f9d1c7b","ios":"levelo://app?vid=30943e09-16fc-488e-ad38-eca01f9d1c7b"},"vehicle_type_id":"4","last_reported":1783411979,"current_range_meters":6800,"station_id":"ce4bhgh2rcd13ifvqfb0","pricing_plan_id":"cebpf4jnsgd1na2vs0mg"},{"bike_id":"5d86b446-fd99-4166-8a03-4ca2106a40d6","system_id":"levelo_inurba_marseille","lat":43.25057,"lon":5.40391,"is_reserved":false,"is_disabled":false,"rental_uris":{"android":"levelo://app?vid=5d86b446-fd99-4166-8a03-4ca2106a40d6","ios":"levelo://app?vid=5d86b446-fd99-4166-8a03-4ca2106a40d6"},"vehicle_type_id":"4","last_reported":1783411979,"current_range_meters":6800,"station_id":"","pricing_plan_id":"cebpf4jnsgd1na2vs0mg"},{"bike_id":"6f4fccde-d7eb-45ae-b31f-60bbbc67f714","system_id":"levelo_inurba_marseille","lat":43.29559,"lon":5.37502,"is_reserved":false,"is_disabled":true,"rental_uris":{"android":"levelo://app?vid=6f4fccde-d7eb-45ae-b31f-60bbbc67f714","ios":"levelo://app?vid=6f4fccde-d7eb-45ae-b31f-60bbbc67f714"},"vehicle_type_id":"4","last_reported":1783411979,"current_range_meters":7200,"station_id":"ce4bgh92rcd13ifvqb50","pricing_plan_id":"cebpf4jnsgd1na2vs0mg"},{"bike_id":"509874ba-1226-4675-852c-8be7011afd5a","system_id":"levelo_inurba_marseille","lat":43.28219,"lon":5.39043,"is_reserved":false,"is_disabled":false,"rental_uris":{"android":"levelo://app?vid=509874ba-1226-4675-852c-8be7011afd5a","ios":"levelo://app?vid=509874ba-1226-4675-852c-8be7011afd5a"},"vehicle_type_id":"4","last_reported":1783411979,"current_range_meters":7200,"station_id":"ce4bhn92rcd13ifvqgsg","pricing_plan_id":"cebpf4jnsgd1na2vs0mg"},{"bike_id":"66ad3a53-2f63-4f55-a61f-cc15913d9f59","system_id":"levelo_inurba_marseille","lat":43.30399,"lon":5.38094,"is_reserved":false,"is_disabled":false,"rental_uris":{"android":"levelo://app?vid=66ad3a53-2f63-4f55-a61f-cc15913d9f59","ios":"levelo://app?vid=66ad3a53-2f63-4f55-a61f-cc15913d9f59"},"vehicle_type_id":"4","last_reported":1783411979,"current_range_meters":7200,"station_id":"","pricing_plan_id":"cebpf4jnsgd1na2vs0mg"},{"bike_id":"019acd3a-6fbc-4d83-a626-d74663c6b7da","system_id":"levelo_inurba_marseille","lat":43.26054,"lon":5.39385,"is_reserved":false,"is_disabled":false,"rental_uris":{"android":"levelo://app?vid=019acd3a-6fbc-4d83-a626-d74663c6b7da","ios":"levelo://app?vid=019acd3a-6fbc-4d83-a626-d74663c6b7da"},"vehicle_type_id":"4","last_reported":1783411979,"current_range_meters":7200,"station_id":"ce4bhh92rcd13ifvqfj0","pricing_plan_id":"cebpf4jnsgd1na2vs0mg"},{"bike_id":"1f8f3e40-17a8-4f5c-8f54-b5b36153126c","system_id":"levelo_inurba_marseille","lat":43.28862,"lon":5.425181,"is_reserved":false,"is_disabled":false,"rental_uris":{"android":"levelo://app?vid=1f8f3e40-17a8-4f5c-8f54-b5b36153126c","ios":"levelo://app?vid=1f8f3e40-17a8-4f5c-8f54-b5b36153126c"},"vehicle_type_id":"4","last_reported":1783411979,"current_range_meters":7200,"station_id":"st_d3b462108ojc7389ooeg","pricing_plan_id":"cebpf4jnsgd1na2vs0mg"},{"bike_id":"c223056a-cee4-44b0-b411-9e874d6d5516","system_id":"levelo_inurba_marseille","lat":43.29465,"lon":5.39913,"is_reserved":false,"is_disabled":false,"rental_uris":{"android":"levelo://app?vid=c223056a-cee4-44b0-b411-9e874d6d5516","ios":"levelo://app?vid=c223056a-cee4-44b0-b411-9e874d6d5516"},"vehicle_type_id":"4","last_reported":1783411979,"current_range_meters":7200,"station_id":"","pricing_plan_id":"cebpf4jnsgd1na2vs0mg"},{"bike_id":"a9238693-a4cb-41ad-ba8b-dd97cbaaa5b3","system_id":"levelo_inurba_marseille","lat":43.31221,"lon":5.36839,"is_reserved":false,"is_disabled":false,"rental_uris":{"android":"levelo://app?vid=a9238693-a4cb-41ad-ba8b-dd97cbaaa5b3","ios":"levelo://app?vid=a9238693-a4cb-41ad-ba8b-dd97cbaaa5b3"},"vehicle_type_id":"4","last_reported":1783411979,"current_range_meters":7200,"station_id":"ce4bgl92rcd13ifvqbq0","pricing_plan_id":"cebpf4jnsgd1na2vs0mg"},{"bike_id":"cc738f32-f811-4e3f-b968-0bc0d7c9be0d","system_id":"levelo_inurba_marseille","lat":43.29247,"lon":5.40903,"is_reserved":false,"is_disabled":true,"rental_uris":{"android":"levelo://app?vid=cc738f32-f811-4e3f-b968-0bc0d7c9be0d","ios":"levelo://app?vid=cc738f32-f811-4e3f-b968-0bc0d7c9be0d"},"vehicle_type_id":"4","last_reported":1783411979,"current_range_meters":7200,"station_id":"ce4bh192rcd13ifvqdc0","pricing_plan_id":"cebpf4jnsgd1na2vs0mg"},{"bike_id":"d26f172c-65d0-4541-a03a-fc7202735f10","system_id":"levelo_inurba_marseille","lat":43.30566,"lon":5.36538,"is_reserved":false,"is_disabled":false,"rental_uris":{"android":"levelo://app?vid=d26f172c-65d0-4541-a03a-fc7202735f10","ios":"levelo://app?vid=d26f172c-65d0-4541-a03a-fc7202735f10"},"vehicle_type_id":"4","last_reported":1783411979,"current_range_meters":7200,"station_id":"ce4bgs12rcd13ifvqcag","pricing_plan_id":"cebpf4jnsgd1na2vs0mg"},{"bike_id":"99c042ac-ede0-4c70-ba6b-9d6ab85b5640","system_id":"levelo_inurba_marseille","lat":43.2737,"lon":5.36252,"is_reserved":false,"is_disabled":false,"rental_uris":{"android":"levelo://app?vid=99c042ac-ede0-4c70-ba6b-9d6ab85b5640","ios":"levelo://app?vid=99c042ac-ede0-4c70-ba6b-9d6ab85b5640"},"vehicle_type_id":"4","last_reported":1783411979,"current_range_meters":7200,"station_id":"ce4bhbh2rcd13ifvqeo0","pricing_plan_id":"cebpf4jnsgd1na2vs0mg"},{"bike_id":"d01c050c-01af-4669-9b24-ecb08a878208","system_id":"levelo_inurba_marseille","lat":43.30905,"lon":5.36857,"is_reserved":false,"is_disabled":false,"rental_uris":{"android":"levelo://app?vid=d01c050c-01af-4669-9b24-ecb08a878208","ios":"levelo://app?vid=d01c050c-01af-4669-9b24-ecb08a878208"},"vehicle_type_id":"4","last_reported":1783411979,"current_range_meters":7200,"station_id":"ce4bgn92rcd13ifvqbvg","pricing_plan_id":"cebpf4jnsgd1na2vs0mg"},{"bike_id":"cab93404-54da-4c0f-b059-b48a09d93cc7","system_id":"levelo_inurba_marseille","lat":43.27065,"lon":5.40247,"is_reserved":false,"is_disabled":true,"rental_uris":{"android":"levelo://app?vid=cab93404-54da-4c0f-b059-b48a09d93cc7","ios":"levelo://app?vid=cab93404-54da-4c0f-b059-b48a09d93cc7"},"vehicle_type_id":"4","last_reported":1783411979,"current_range_meters":7200,"station_id":"ce4bhk92rcd13ifvqgc0","pricing_plan_id":"cebpf4jnsgd1na2vs0mg"},{"bike_id":"62e1c5cf-7fe5-466b-aa70-a340c24061c1","system_id":"levelo_inurba_marseille","lat":43.29928,"lon":5.36548,"is_reserved":false,"is_disabled":false,"rental_uris":{"android":"levelo://app?vid=62e1c5cf-7fe5-466b-aa70-a340c24061c1","ios":"levelo://app?vid=62e1c5cf-7fe5-466b-aa70-a340c24061c1"},"vehicle_type_id":"4","last_reported":1783411979,"current_range_meters":7200,"station_id":"ce4bgm92rcd13ifvqbr0","pricing_plan_id":"cebpf4jnsgd1na2vs0mg"},{"bike_id":"ecadc7bf-823d-4875-abd9-39273010d63f","system_id":"levelo_inurba_marseille","lat":43.305502,"lon":5.365712,"is_reserved":false,"is_disabled":false,"rental_uris":{"android":"levelo://app?vid=ecadc7bf-823d-4875-abd9-39273010d63f","ios":"levelo://app?vid=ecadc7bf-823d-4875-abd9-39273010d63f"},"vehicle_type_id":"4","last_reported":1783411979,"current_range_meters":7200,"station_id":"ce4bgs12rcd13ifvqcag","pricing_plan_id":"cebpf4jnsgd1na2vs0mg"},{"bike_id":"d1694267-34d3-45e5-bf77-bdc3ccb3251f","system_id":"levelo_inurba_marseille","lat":43.28267,"lon":5.35061,"is_reserved":false,"is_disabled":false,"rental_uris":{"android":"levelo://app?vid=d1694267-34d3-45e5-bf77-bdc3ccb3251f","ios":"levelo://app?vid=d1694267-34d3-45e5-bf77-bdc3ccb3251f"},"vehicle_type_id":"4","last_reported":1783411979,"current_range_meters":7200,"station_id":"ce4bhbp2rcd13ifvqerg","pricing_plan_id":"cebpf4jnsgd1na2vs0mg"},{"bike_id":"5e3e40d6-9294-40ef-85b7-97206f583b7b","system_id":"levelo_inurba_marseille","lat":43.24385,"lon":5.3704,"is_reserved":false,"is_disabled":false,"rental_uris":{"android":"levelo://app?vid=5e3e40d6-9294-40ef-85b7-97206f583b7b","ios":"levelo://app?vid=5e3e40d6-9294-40ef-85b7-97206f583b7b"},"vehicle_type_id":"4","last_reported":1783411979,"current_range_meters":7200,"station_id":"ce4bhhh2rcd13ifvqfk0","pricing_plan_id":"cebpf4jnsgd1na2vs0mg"},{"bike_id":"28589d0d-2304-431c-b49a-901cb28a29f5","system_id":"levelo_inurba_marseille","lat":43.23725,"lon":5.39009,"is_reserved":false,"is_disabled":false,"rental_uris":{"android":"levelo://app?vid=28589d0d-2304-431c-b49a-901cb28a29f5","ios":"levelo://app?vid=28589d0d-2304-431c-b49a-901cb28a29f5"},"vehicle_type_id":"4","last_reported":1783411979,"current_range_meters":7200,"station_id":"","pricing_plan_id":"cebpf4jnsgd1na2vs0mg"},{"bike_id":"d2069a44-8d9a-4e5c-945e-e3d229029c9a","system_id":"levelo_inurba_marseille","lat":43.28966,"lon":5.37836,"is_reserved":false,"is_disabled":false,"rental_uris":{"android":"levelo://app?vid=d2069a44-8d9a-4e5c-945e-e3d229029c9a","ios":"levelo://app?vid=d2069a44-8d9a-4e5c-945e-e3d229029c9a"},"vehicle_type_id":"4","last_reported":1783411979,"current_range_meters":8000,"station_id":"ce4bh9p2rcd13ifvqed0","pricing_plan_id":"cebpf4jnsgd1na2vs0mg"},{"bike_id":"24dafd05-3350-4a6c-8e12-d7f8e2db1b37","system_id":"levelo_inurba_marseille","lat":43.31496,"lon":5.37294,"is_reserved":false,"is_disabled":false,"rental_uris":{"android":"levelo://app?vid=24dafd05-3350-4a6c-8e12-d7f8e2db1b37","ios":"levelo://app?vid=24dafd05-3350-4a6c-8e12-d7f8e2db1b37"},"vehicle_type_id":"4","last_reported":1783411979,"current_range_meters":8000,"station_id":"ce4bgt12rcd13ifvqcd0","pricing_plan_id":"cebpf4jnsgd1na2vs0mg"},{"bike_id":"2c6d7156-846d-4c6b-a45c-8deca83ab881","system_id":"levelo_inurba_marseille","lat":43.31407,"lon":5.3941,"is_reserved":false,"is_disabled":false,"rental_uris":{"android":"levelo://app?vid=2c6d7156-846d-4c6b-a45c-8deca83ab881","ios":"levelo://app?vid=2c6d7156-846d-4c6b-a45c-8deca83ab881"},"vehicle_type_id":"4","last_reported":1783411979,"current_range_meters":8000,"station_id":"","pricing_plan_id":"cebpf4jnsgd1na2vs0mg"},{"bike_id":"c3c91840-2ba3-4e3e-80b8-7f973ffb9d22","system_id":"levelo_inurba_marseille","lat":43.24634,"lon":5.43142,"is_reserved":false,"is_disabled":false,"rental_uris":{"android":"levelo://app?vid=c3c91840-2ba3-4e3e-80b8-7f973ffb9d22","ios":"levelo://app?vid=c3c91840-2ba3-4e3e-80b8-7f973ffb9d22"},"vehicle_type_id":"4","last_reported":1783411979,"current_range_meters":8000,"station_id":"st_d2m6c4gdas8pm72e190g","pricing_plan_id":"cebpf4jnsgd1na2vs0mg"},{"bike_id":"40a7e3e2-7186-442f-83e0-abe588ec57c5","system_id":"levelo_inurba_marseille","lat":43.27979,"lon":5.38654,"is_reserved":false,"is_disabled":false,"rental_uris":{"android":"levelo://app?vid=40a7e3e2-7186-442f-83e0-abe588ec57c5","ios":"levelo://app?vid=40a7e3e2-7186-442f-83e0-abe588ec57c5"},"vehicle_type_id":"4","last_reported":1783411979,"current_range_meters":8000,"station_id":"","pricing_plan_id":"cebpf4jnsgd1na2vs0mg"},{"bike_id":"81794b5e-7ec2-4f91-8e91-fd6bd8a3372c","system_id":"levelo_inurba_marseille","lat":43.26899,"lon":5.38875,"is_reserved":false,"is_disabled":false,"rental_uris":{"android":"levelo://app?vid=81794b5e-7ec2-4f91-8e91-fd6bd8a3372c","ios":"levelo://app?vid=81794b5e-7ec2-4f91-8e91-fd6bd8a3372c"},"vehicle_type_id":"4","last_reported":1783411979,"current_range_meters":8000,"station_id":"","pricing_plan_id":"cebpf4jnsgd1na2vs0mg"},{"bike_id":"4660eaeb-adc0-4934-9faf-c3ba87eb2cb3","system_id":"levelo_inurba_marseille","lat":43.26369,"lon":5.4107,"is_reserved":false,"is_disabled":false,"rental_uris":{"android":"levelo://app?vid=4660eaeb-adc0-4934-9faf-c3ba87eb2cb3","ios":"levelo://app?vid=4660eaeb-adc0-4934-9faf-c3ba87eb2cb3"},"vehicle_type_id":"4","last_reported":1783411979,"current_range_meters":8000,"station_id":"st_d4e5ca6na9uc73bfl5fg","pricing_plan_id":"cebpf4jnsgd1na2vs0mg"},{"bike_id":"11e0987a-629d-4552-9a97-55d17aefe2e2","system_id":"levelo_inurba_marseille","lat":43.25622,"lon":5.38691,"is_reserved":false,"is_disabled":false,"rental_uris":{"android":"levelo://app?vid=11e0987a-629d-4552-9a97-55d17aefe2e2","ios":"levelo://app?vid=11e0987a-629d-4552-9a97-55d17aefe2e2"},"vehicle_type_id":"4","last_reported":1783411979,"current_range_meters":8000,"station_id":"","pricing_plan_id":"cebpf4jnsgd1na2vs0mg"},{"bike_id":"f32cdf9a-576b-4b27-b9be-a25712691f8e","system_id":"levelo_inurba_marseille","lat":43.31689,"lon":5.37337,"is_reserved":false,"is_disabled":false,"rental_uris":{"android":"levelo://app?vid=f32cdf9a-576b-4b27-b9be-a25712691f8e","ios":"levelo://app?vid=f32cdf9a-576b-4b27-b9be-a25712691f8e"},"vehicle_type_id":"4","last_reported":1783411979,"current_range_meters":8000,"station_id":"","pricing_plan_id":"cebpf4jnsgd1na2vs0mg"},{"bike_id":"2df5ff7b-1eeb-4e1a-a3da-c7877d4ab81a","system_id":"levelo_inurba_marseille","lat":43.23139,"lon":5.43709,"is_reserved":false,"is_disabled":false,"rental_uris":{"android":"levelo://app?vid=2df5ff7b-1eeb-4e1a-a3da-c7877d4ab81a","ios":"levelo://app?vid=2df5ff7b-1eeb-4e1a-a3da-c7877d4ab81a"},"vehicle_type_id":"4","last_reported":1783411979,"current_range_meters":8000,"station_id":"ce4bhmp2rcd13ifvqgog","pricing_plan_id":"cebpf4jnsgd1na2vs0mg"},{"bike_id":"8a60fd99-29f2-48fa-9eaa-21feda21be50","system_id":"levelo_inurba_marseille","lat":43.2717,"lon":5.4099,"is_reserved":false,"is_disabled":false,"rental_uris":{"android":"levelo://app?vid=8a60fd99-29f2-48fa-9eaa-21feda21be50","ios":"levelo://app?vid=8a60fd99-29f2-48fa-9eaa-21feda21be50"},"vehicle_type_id":"4","last_reported":1783411979,"current_range_meters":8000,"station_id":"ce4bhl12rcd13ifvqgf0","pricing_plan_id":"cebpf4jnsgd1na2vs0mg"},{"bike_id":"4a273abb-1cab-40f5-9564-5b61318b5b1d","system_id":"levelo_inurba_marseille","lat":43.26225,"lon":5.40459,"is_reserved":false,"is_disabled":false,"rental_uris":{"android":"levelo://app?vid=4a273abb-1cab-40f5-9564-5b61318b5b1d","ios":"levelo://app?vid=4a273abb-1cab-40f5-9564-5b61318b5b1d"},"vehicle_type_id":"4","last_reported":1783411979,"current_range_meters":8000,"station_id":"ce4bhmh2rcd13ifvqgmg","pricing_plan_id":"cebpf4jnsgd1na2vs0mg"},{"bike_id":"4f1e9d28-b3e7-4b5d-9f54-7209b68a0345","system_id":"levelo_inurba_marseille","lat":43.289316,"lon":5.36391,"is_reserved":false,"is_disabled":true,"rental_uris":{"android":"levelo://app?vid=4f1e9d28-b3e7-4b5d-9f54-7209b68a0345","ios":"levelo://app?vid=4f1e9d28-b3e7-4b5d-9f54-7209b68a0345"},"vehicle_type_id":"4","last_reported":1783411979,"current_range_meters":8000,"station_id":"ce4bhc92rcd13ifvqetg","pricing_plan_id":"cebpf4jnsgd1na2vs0mg"},{"bike_id":"108bd70f-62e9-4002-9e5e-6bb29c3d4e15","system_id":"levelo_inurba_marseille","lat":43.24626,"lon":5.38965,"is_reserved":false,"is_disabled":false,"rental_uris":{"android":"levelo://app?vid=108bd70f-62e9-4002-9e5e-6bb29c3d4e15","ios":"levelo://app?vid=108bd70f-62e9-4002-9e5e-6bb29c3d4e15"},"vehicle_type_id":"4","last_reported":1783411979,"current_range_meters":8000,"station_id":"","pricing_plan_id":"cebpf4jnsgd1na2vs0mg"},{"bike_id":"5349d702-3eef-4360-8c75-b943a368bbbb","system_id":"levelo_inurba_marseille","lat":43.27547,"lon":5.36609,"is_reserved":false,"is_disabled":false,"rental_uris":{"android":"levelo://app?vid=5349d702-3eef-4360-8c75-b943a368bbbb","ios":"levelo://app?vid=5349d702-3eef-4360-8c75-b943a368bbbb"},"vehicle_type_id":"4","last_reported":1783411979,"current_range_meters":8000,"station_id":"","pricing_plan_id":"cebpf4jnsgd1na2vs0mg"},{"bike_id":"0b194c88-54f1-4092-afcf-6f6c3987f017","system_id":"levelo_inurba_marseille","lat":43.31209,"lon":5.36866,"is_reserved":false,"is_disabled":false,"rental_uris":{"android":"levelo://app?vid=0b194c88-54f1-4092-afcf-6f6c3987f017","ios":"levelo://app?vid=0b194c88-54f1-4092-afcf-6f6c3987f017"},"vehicle_type_id":"4","last_reported":1783411979,"current_range_meters":8000,"station_id":"ce4bgl92rcd13ifvqbq0","pricing_plan_id":"cebpf4jnsgd1na2vs0mg"},{"bike_id":"e4958b8b-209e-46b7-8e1a-ec08f34ab210","system_id":"levelo_inurba_marseille","lat":43.32099,"lon":5.36772,"is_reserved":false,"is_disabled":false,"rental_uris":{"android":"levelo://app?vid=e4958b8b-209e-46b7-8e1a-ec08f34ab210","ios":"levelo://app?vid=e4958b8b-209e-46b7-8e1a-ec08f34ab210"},"vehicle_type_id":"4","last_reported":1783411979,"current_range_meters":8000,"station_id":"ce4bhrh2rcd13ifvqhug","pricing_plan_id":"cebpf4jnsgd1na2vs0mg"},{"bike_id":"c63dbb5b-70b5-4cb7-858c-b389153592be","system_id":"levelo_inurba_marseille","lat":43.2637,"lon":5.41081,"is_reserved":false,"is_disabled":false,"rental_uris":{"android":"levelo://app?vid=c63dbb5b-70b5-4cb7-858c-b389153592be","ios":"levelo://app?vid=c63dbb5b-70b5-4cb7-858c-b389153592be"},"vehicle_type_id":"4","last_reported":1783411979,"current_range_meters":8000,"station_id":"st_d4e5ca6na9uc73bfl5fg","pricing_plan_id":"cebpf4jnsgd1na2vs0mg"},{"bike_id":"f656c73b-66f0-4628-958e-49d4903923bd","system_id":"levelo_inurba_marseille","lat":43.31885,"lon":5.36811,"is_reserved":false,"is_disabled":false,"rental_uris":{"android":"levelo://app?vid=f656c73b-66f0-4628-958e-49d4903923bd","ios":"levelo://app?vid=f656c73b-66f0-4628-958e-49d4903923bd"},"vehicle_type_id":"4","last_reported":1783411979,"current_range_meters":8000,"station_id":"st_d6o2h0d0559c73evc1b0","pricing_plan_id":"cebpf4jnsgd1na2vs0mg"},{"bike_id":"4e21efce-ec3a-4034-95a7-46a7bef3fcd2","system_id":"levelo_inurba_marseille","lat":43.337444,"lon":5.374475,"is_reserved":false,"is_disabled":false,"rental_uris":{"android":"levelo://app?vid=4e21efce-ec3a-4034-95a7-46a7bef3fcd2","ios":"levelo://app?vid=4e21efce-ec3a-4034-95a7-46a7bef3fcd2"},"vehicle_type_id":"4","last_reported":1783411979,"current_range_meters":8000,"station_id":"","pricing_plan_id":"cebpf4jnsgd1na2vs0mg"},{"bike_id":"f2758d65-0aaa-415f-b9e8-25b666be3f97","system_id":"levelo_inurba_marseille","lat":43.26225,"lon":5.38757,"is_reserved":false,"is_disabled":false,"rental_uris":{"android":"levelo://app?vid=f2758d65-0aaa-415f-b9e8-25b666be3f97","ios":"levelo://app?vid=f2758d65-0aaa-415f-b9e8-25b666be3f97"},"vehicle_type_id":"4","last_reported":1783411979,"current_range_meters":8000,"station_id":"st_d8gjfg747rts73coq3b0","pricing_plan_id":"cebpf4jnsgd1na2vs0mg"},{"bike_id":"21969074-1fb3-488c-9873-38abdcacbdf0","system_id":"levelo_inurba_marseille","lat":43.287,"lon":5.46686,"is_reserved":false,"is_disabled":false,"rental_uris":{"android":"levelo://app?vid=21969074-1fb3-488c-9873-38abdcacbdf0","ios":"levelo://app?vid=21969074-1fb3-488c-9873-38abdcacbdf0"},"vehicle_type_id":"4","last_reported":1783411979,"current_range_meters":8000,"station_id":"st_d6tc3vkotcvc738tfjhg","pricing_plan_id":"cebpf4jnsgd1na2vs0mg"},{"bike_id":"f1c9c986-5455-4d04-87d5-c59d16c88599","system_id":"levelo_inurba_marseille","lat":43.24734,"lon":5.39185,"is_reserved":false,"is_disabled":false,"rental_uris":{"android":"levelo://app?vid=f1c9c986-5455-4d04-87d5-c59d16c88599","ios":"levelo://app?vid=f1c9c986-5455-4d04-87d5-c59d16c88599"},"vehicle_type_id":"4","last_reported":1783411979,"current_range_meters":8000,"station_id":"","pricing_plan_id":"cebpf4jnsgd1na2vs0mg"},{"bike_id":"529bc5b1-7d8d-4619-a01a-d34c94fb17bd","system_id":"levelo_inurba_marseille","lat":43.30562,"lon":5.36534,"is_reserved":false,"is_disabled":true,"rental_uris":{"android":"levelo://app?vid=529bc5b1-7d8d-4619-a01a-d34c94fb17bd","ios":"levelo://app?vid=529bc5b1-7d8d-4619-a01a-d34c94fb17bd"},"vehicle_type_id":"4","last_reported":1783411979,"current_range_meters":8000,"station_id":"ce4bgs12rcd13ifvqcag","pricing_plan_id":"cebpf4jnsgd1na2vs0mg"},{"bike_id":"19bd13c8-288d-4a5d-b3f9-03c90cb28fed","system_id":"levelo_inurba_marseille","lat":43.26339,"lon":5.38667,"is_reserved":false,"is_disabled":false,"rental_uris":{"android":"levelo://app?vid=19bd13c8-288d-4a5d-b3f9-03c90cb28fed","ios":"levelo://app?vid=19bd13c8-288d-4a5d-b3f9-03c90cb28fed"},"vehicle_type_id":"4","last_reported":1783411979,"current_range_meters":8000,"station_id":"","pricing_plan_id":"cebpf4jnsgd1na2vs0mg"},{"bike_id":"d0208d64-9cdd-47cc-b418-2abbaf29b1fd","system_id":"levelo_inurba_marseille","lat":43.32989,"lon":5.39694,"is_reserved":false,"is_disabled":false,"rental_uris":{"android":"levelo://app?vid=d0208d64-9cdd-47cc-b418-2abbaf29b1fd","ios":"levelo://app?vid=d0208d64-9cdd-47cc-b418-2abbaf29b1fd"},"vehicle_type_id":"4","last_reported":1783411979,"current_range_meters":8000,"station_id":"","pricing_plan_id":"cebpf4jnsgd1na2vs0mg"},{"bike_id":"26807e64-e705-48d3-a4b2-a5a9802a8e7c","system_id":"levelo_inurba_marseille","lat":43.28429,"lon":5.48455,"is_reserved":false,"is_disabled":false,"rental_uris":{"android":"levelo://app?vid=26807e64-e705-48d3-a4b2-a5a9802a8e7c","ios":"levelo://app?vid=26807e64-e705-48d3-a4b2-a5a9802a8e7c"},"vehicle_type_id":"4","last_reported":1783411979,"current_range_meters":8000,"station_id":"st_d3svhcjqgbts73a3dn0g","pricing_plan_id":"cebpf4jnsgd1na2vs0mg"},{"bike_id":"37581272-2b56-4416-9f17-33dc20e76d29","system_id":"levelo_inurba_marseille","lat":43.24393,"lon":5.37072,"is_reserved":false,"is_disabled":false,"rental_uris":{"android":"levelo://app?vid=37581272-2b56-4416-9f17-33dc20e76d29","ios":"levelo://app?vid=37581272-2b56-4416-9f17-33dc20e76d29"},"vehicle_type_id":"4","last_reported":1783411979,"current_range_meters":8000,"station_id":"ce4bhhh2rcd13ifvqfk0","pricing_plan_id":"cebpf4jnsgd1na2vs0mg"},{"bike_id":"33920b0a-fb06-44b0-b8ac-032754cf4530","system_id":"levelo_inurba_marseille","lat":43.31354,"lon":5.36712,"is_reserved":false,"is_disabled":false,"rental_uris":{"android":"levelo://app?vid=33920b0a-fb06-44b0-b8ac-032754cf4530","ios":"levelo://app?vid=33920b0a-fb06-44b0-b8ac-032754cf4530"},"vehicle_type_id":"4","last_reported":1783411979,"current_range_meters":8400,"station_id":"ce4bgr92rcd13ifvqc6g","pricing_plan_id":"cebpf4jnsgd1na2vs0mg"},{"bike_id":"70d36327-627a-4639-a062-a8733bff9c08","system_id":"levelo_inurba_marseille","lat":43.287046,"lon":5.399919,"is_reserved":false,"is_disabled":true,"rental_uris":{"android":"levelo://app?vid=70d36327-627a-4639-a062-a8733bff9c08","ios":"levelo://app?vid=70d36327-627a-4639-a062-a8733bff9c08"},"vehicle_type_id":"4","last_reported":1783411979,"current_range_meters":8400,"station_id":"ce4bho92rcd13ifvqh3g","pricing_plan_id":"cebpf4jnsgd1na2vs0mg"},{"bike_id":"b7841ab8-cf64-4c27-9ae1-388859f4dffe","system_id":"levelo_inurba_marseille","lat":43.2885,"lon":5.42517,"is_reserved":false,"is_disabled":false,"rental_uris":{"android":"levelo://app?vid=b7841ab8-cf64-4c27-9ae1-388859f4dffe","ios":"levelo://app?vid=b7841ab8-cf64-4c27-9ae1-388859f4dffe"},"vehicle_type_id":"4","last_reported":1783411979,"current_range_meters":8400,"station_id":"st_d3b462108ojc7389ooeg","pricing_plan_id":"cebpf4jnsgd1na2vs0mg"},{"bike_id":"a8bc9b95-568e-42e9-904a-dc73a068f4bc","system_id":"levelo_inurba_marseille","lat":43.29251,"lon":5.40917,"is_reserved":false,"is_disabled":true,"rental_uris":{"android":"levelo://app?vid=a8bc9b95-568e-42e9-904a-dc73a068f4bc","ios":"levelo://app?vid=a8bc9b95-568e-42e9-904a-dc73a068f4bc"},"vehicle_type_id":"4","last_reported":1783411979,"current_range_meters":8400,"station_id":"ce4bh192rcd13ifvqdc0","pricing_plan_id":"cebpf4jnsgd1na2vs0mg"},{"bike_id":"b6879253-f1ac-4d6d-9740-19b6fcdcbe7a","system_id":"levelo_inurba_marseille","lat":43.32929,"lon":5.39027,"is_reserved":false,"is_disabled":false,"rental_uris":{"android":"levelo://app?vid=b6879253-f1ac-4d6d-9740-19b6fcdcbe7a","ios":"levelo://app?vid=b6879253-f1ac-4d6d-9740-19b6fcdcbe7a"},"vehicle_type_id":"4","last_reported":1783411979,"current_range_meters":8400,"station_id":"","pricing_plan_id":"cebpf4jnsgd1na2vs0mg"},{"bike_id":"77b41e3f-5c16-4e91-aacc-0bc34f6f7a05","system_id":"levelo_inurba_marseille","lat":43.31667,"lon":5.40557,"is_reserved":false,"is_disabled":false,"rental_uris":{"android":"levelo://app?vid=77b41e3f-5c16-4e91-aacc-0bc34f6f7a05","ios":"levelo://app?vid=77b41e3f-5c16-4e91-aacc-0bc34f6f7a05"},"vehicle_type_id":"4","last_reported":1783411979,"current_range_meters":8400,"station_id":"","pricing_plan_id":"cebpf4jnsgd1na2vs0mg"},{"bike_id":"d1b8ad0a-d39e-4c10-8e9c-0a84eac40b8b","system_id":"levelo_inurba_marseille","lat":43.30154,"lon":5.38079,"is_reserved":false,"is_disabled":false,"rental_uris":{"android":"levelo://app?vid=d1b8ad0a-d39e-4c10-8e9c-0a84eac40b8b","ios":"levelo://app?vid=d1b8ad0a-d39e-4c10-8e9c-0a84eac40b8b"},"vehicle_type_id":"4","last_reported":1783411979,"current_range_meters":8400,"station_id":"ce4bgjp2rcd13ifvqbh0","pricing_plan_id":"cebpf4jnsgd1na2vs0mg"},{"bike_id":"d93f320f-de47-4dc7-a96f-d2b5a1c85600","system_id":"levelo_inurba_marseille","lat":43.26683,"lon":5.38248,"is_reserved":false,"is_disabled":false,"rental_uris":{"android":"levelo://app?vid=d93f320f-de47-4dc7-a96f-d2b5a1c85600","ios":"levelo://app?vid=d93f320f-de47-4dc7-a96f-d2b5a1c85600"},"vehicle_type_id":"4","last_reported":1783411979,"current_range_meters":8400,"station_id":"ce4bhg92rcd13ifvqf90","pricing_plan_id":"cebpf4jnsgd1na2vs0mg"},{"bike_id":"88eb95ed-9cb7-4df2-85e6-77ef1c00196e","system_id":"levelo_inurba_marseille","lat":43.29901,"lon":5.3747,"is_reserved":false,"is_disabled":false,"rental_uris":{"android":"levelo://app?vid=88eb95ed-9cb7-4df2-85e6-77ef1c00196e","ios":"levelo://app?vid=88eb95ed-9cb7-4df2-85e6-77ef1c00196e"},"vehicle_type_id":"4","last_reported":1783411979,"current_range_meters":8400,"station_id":"ce4bgjh2rcd13ifvqbg0","pricing_plan_id":"cebpf4jnsgd1na2vs0mg"},{"bike_id":"8b31f5c9-2ae1-4d64-8375-d3f573749cf2","system_id":"levelo_inurba_marseille","lat":43.28473,"lon":5.38434,"is_reserved":false,"is_disabled":false,"rental_uris":{"android":"levelo://app?vid=8b31f5c9-2ae1-4d64-8375-d3f573749cf2","ios":"levelo://app?vid=8b31f5c9-2ae1-4d64-8375-d3f573749cf2"},"vehicle_type_id":"4","last_reported":1783411979,"current_range_meters":8400,"station_id":"ce4bh512rcd13ifvqe3g","pricing_plan_id":"cebpf4jnsgd1na2vs0mg"},{"bike_id":"c526e977-effa-4911-a937-df5a8ad4590c","system_id":"levelo_inurba_marseille","lat":43.23778,"lon":5.36635,"is_reserved":false,"is_disabled":false,"rental_uris":{"android":"levelo://app?vid=c526e977-effa-4911-a937-df5a8ad4590c","ios":"levelo://app?vid=c526e977-effa-4911-a937-df5a8ad4590c"},"vehicle_type_id":"4","last_reported":1783411979,"current_range_meters":8400,"station_id":"st_d3nk18o9ro0c73en2l3g","pricing_plan_id":"cebpf4jnsgd1na2vs0mg"},{"bike_id":"f74905d4-094b-4e9f-899e-cefeb77e311a","system_id":"levelo_inurba_marseille","lat":43.30574,"lon":5.36511,"is_reserved":false,"is_disabled":true,"rental_uris":{"android":"levelo://app?vid=f74905d4-094b-4e9f-899e-cefeb77e311a","ios":"levelo://app?vid=f74905d4-094b-4e9f-899e-cefeb77e311a"},"vehicle_type_id":"4","last_reported":1783411979,"current_range_meters":8400,"station_id":"ce4bgs12rcd13ifvqcag","pricing_plan_id":"cebpf4jnsgd1na2vs0mg"},{"bike_id":"2982ad70-8105-4048-9513-8d78161b1088","system_id":"levelo_inurba_marseille","lat":43.29221,"lon":5.36043,"is_reserved":false,"is_disabled":false,"rental_uris":{"android":"levelo://app?vid=2982ad70-8105-4048-9513-8d78161b1088","ios":"levelo://app?vid=2982ad70-8105-4048-9513-8d78161b1088"},"vehicle_type_id":"4","last_reported":1783411979,"current_range_meters":8400,"station_id":"ce4bhbh2rcd13ifvqeqg","pricing_plan_id":"cebpf4jnsgd1na2vs0mg"},{"bike_id":"6217a76e-67bf-4b4d-a78e-9136ab60a3a7","system_id":"levelo_inurba_marseille","lat":43.31267,"lon":5.38891,"is_reserved":false,"is_disabled":false,"rental_uris":{"android":"levelo://app?vid=6217a76e-67bf-4b4d-a78e-9136ab60a3a7","ios":"levelo://app?vid=6217a76e-67bf-4b4d-a78e-9136ab60a3a7"},"vehicle_type_id":"4","last_reported":1783411979,"current_range_meters":8400,"station_id":"","pricing_plan_id":"cebpf4jnsgd1na2vs0mg"},{"bike_id":"252d1181-7cba-4203-a6a7-936ef78e828d","system_id":"levelo_inurba_marseille","lat":43.25138,"lon":5.38561,"is_reserved":false,"is_disabled":false,"rental_uris":{"android":"levelo://app?vid=252d1181-7cba-4203-a6a7-936ef78e828d","ios":"levelo://app?vid=252d1181-7cba-4203-a6a7-936ef78e828d"},"vehicle_type_id":"4","last_reported":1783411979,"current_range_meters":8400,"station_id":"","pricing_plan_id":"cebpf4jnsgd1na2vs0mg"},{"bike_id":"a2d180cc-5623-43b1-a97b-c7e627f1d45e","system_id":"levelo_inurba_marseille","lat":43.28373,"lon":5.38506,"is_reserved":false,"is_disabled":false,"rental_uris":{"android":"levelo://app?vid=a2d180cc-5623-43b1-a97b-c7e627f1d45e","ios":"levelo://app?vid=a2d180cc-5623-43b1-a97b-c7e627f1d45e"},"vehicle_type_id":"4","last_reported":1783411979,"current_range_meters":8400,"station_id":"","pricing_plan_id":"cebpf4jnsgd1na2vs0mg"},{"bike_id":"a8da85dd-b9cd-448e-b09b-b2dfd72954e7","system_id":"levelo_inurba_marseille","lat":43.25516,"lon":5.37648,"is_reserved":false,"is_disabled":true,"rental_uris":{"android":"levelo://app?vid=a8da85dd-b9cd-448e-b09b-b2dfd72954e7","ios":"levelo://app?vid=a8da85dd-b9cd-448e-b09b-b2dfd72954e7"},"vehicle_type_id":"4","last_reported":1783411979,"current_range_meters":8400,"station_id":"ce4bhh12rcd13ifvqff0","pricing_plan_id":"cebpf4jnsgd1na2vs0mg"},{"bike_id":"29bf15ed-cb5f-495d-9a7b-afd83bf34a21","system_id":"levelo_inurba_marseille","lat":43.23117,"lon":5.41312,"is_reserved":false,"is_disabled":false,"rental_uris":{"android":"levelo://app?vid=29bf15ed-cb5f-495d-9a7b-afd83bf34a21","ios":"levelo://app?vid=29bf15ed-cb5f-495d-9a7b-afd83bf34a21"},"vehicle_type_id":"4","last_reported":1783411979,"current_range_meters":8400,"station_id":"","pricing_plan_id":"cebpf4jnsgd1na2vs0mg"},{"bike_id":"2016481f-9158-496a-8d25-1444518c18ed","system_id":"levelo_inurba_marseille","lat":43.2658,"lon":5.39034,"is_reserved":false,"is_disabled":false,"rental_uris":{"android":"levelo://app?vid=2016481f-9158-496a-8d25-1444518c18ed","ios":"levelo://app?vid=2016481f-9158-496a-8d25-1444518c18ed"},"vehicle_type_id":"4","last_reported":1783411979,"current_range_meters":8400,"station_id":"ce4bhe12rcd13ifvqf30","pricing_plan_id":"cebpf4jnsgd1na2vs0mg"},{"bike_id":"b58b52e6-c23f-497d-b52f-321f452f23fe","system_id":"levelo_inurba_marseille","lat":43.30529,"lon":5.36703,"is_reserved":false,"is_disabled":false,"rental_uris":{"android":"levelo://app?vid=b58b52e6-c23f-497d-b52f-321f452f23fe","ios":"levelo://app?vid=b58b52e6-c23f-497d-b52f-321f452f23fe"},"vehicle_type_id":"4","last_reported":1783411979,"current_range_meters":8400,"station_id":"ce4bgrp2rcd13ifvqc9g","pricing_plan_id":"cebpf4jnsgd1na2vs0mg"},{"bike_id":"81d96b17-bcd7-4d18-ade9-c8e65af26f25","system_id":"levelo_inurba_marseille","lat":43.3513,"lon":5.36854,"is_reserved":false,"is_disabled":false,"rental_uris":{"android":"levelo://app?vid=81d96b17-bcd7-4d18-ade9-c8e65af26f25","ios":"levelo://app?vid=81d96b17-bcd7-4d18-ade9-c8e65af26f25"},"vehicle_type_id":"4","last_reported":1783411979,"current_range_meters":8400,"station_id":"","pricing_plan_id":"cebpf4jnsgd1na2vs0mg"},{"bike_id":"f0418703-7a27-4dca-9433-bdd8213135dc","system_id":"levelo_inurba_marseille","lat":43.21216,"lon":5.35054,"is_reserved":false,"is_disabled":false,"rental_uris":{"android":"levelo://app?vid=f0418703-7a27-4dca-9433-bdd8213135dc","ios":"levelo://app?vid=f0418703-7a27-4dca-9433-bdd8213135dc"},"vehicle_type_id":"4","last_reported":1783411979,"current_range_meters":8800,"station_id":"st_cvj6sg6p6f1abm77japg","pricing_plan_id":"cebpf4jnsgd1na2vs0mg"},{"bike_id":"c2bd1e2d-ec37-40fa-af52-b2fe0af22a40","system_id":"levelo_inurba_marseille","lat":43.28218,"lon":5.39051,"is_reserved":false,"is_disabled":false,"rental_uris":{"android":"levelo://app?vid=c2bd1e2d-ec37-40fa-af52-b2fe0af22a40","ios":"levelo://app?vid=c2bd1e2d-ec37-40fa-af52-b2fe0af22a40"},"vehicle_type_id":"4","last_reported":1783411979,"current_range_meters":8800,"station_id":"ce4bhn92rcd13ifvqgsg","pricing_plan_id":"cebpf4jnsgd1na2vs0mg"},{"bike_id":"36ac71f0-8ab5-42f4-b955-03285432c1fc","system_id":"levelo_inurba_marseille","lat":43.32604,"lon":5.36605,"is_reserved":false,"is_disabled":false,"rental_uris":{"android":"levelo://app?vid=36ac71f0-8ab5-42f4-b955-03285432c1fc","ios":"levelo://app?vid=36ac71f0-8ab5-42f4-b955-03285432c1fc"},"vehicle_type_id":"4","last_reported":1783411979,"current_range_meters":8800,"station_id":"","pricing_plan_id":"cebpf4jnsgd1na2vs0mg"},{"bike_id":"7155bfde-ce60-489f-98f0-b99791326710","system_id":"levelo_inurba_marseille","lat":43.27937,"lon":5.41039,"is_reserved":false,"is_disabled":false,"rental_uris":{"android":"levelo://app?vid=7155bfde-ce60-489f-98f0-b99791326710","ios":"levelo://app?vid=7155bfde-ce60-489f-98f0-b99791326710"},"vehicle_type_id":"4","last_reported":1783411979,"current_range_meters":8800,"station_id":"ce4bhnp2rcd13ifvqh0g","pricing_plan_id":"cebpf4jnsgd1na2vs0mg"},{"bike_id":"e46c5852-2b83-432c-9089-a1a12e85d39c","system_id":"levelo_inurba_marseille","lat":43.31886,"lon":5.42891,"is_reserved":false,"is_disabled":false,"rental_uris":{"android":"levelo://app?vid=e46c5852-2b83-432c-9089-a1a12e85d39c","ios":"levelo://app?vid=e46c5852-2b83-432c-9089-a1a12e85d39c"},"vehicle_type_id":"4","last_reported":1783411979,"current_range_meters":8800,"station_id":"","pricing_plan_id":"cebpf4jnsgd1na2vs0mg"},{"bike_id":"ff4bba37-8ee4-4d91-8ad0-6f5bf2535057","system_id":"levelo_inurba_marseille","lat":43.2821,"lon":5.39036,"is_reserved":false,"is_disabled":true,"rental_uris":{"android":"levelo://app?vid=ff4bba37-8ee4-4d91-8ad0-6f5bf2535057","ios":"levelo://app?vid=ff4bba37-8ee4-4d91-8ad0-6f5bf2535057"},"vehicle_type_id":"4","last_reported":1783411979,"current_range_meters":8800,"station_id":"ce4bhn92rcd13ifvqgsg","pricing_plan_id":"cebpf4jnsgd1na2vs0mg"},{"bike_id":"17b83c15-a7c0-4c3f-925a-da4393c25d1c","system_id":"levelo_inurba_marseille","lat":43.32099,"lon":5.36781,"is_reserved":false,"is_disabled":false,"rental_uris":{"android":"levelo://app?vid=17b83c15-a7c0-4c3f-925a-da4393c25d1c","ios":"levelo://app?vid=17b83c15-a7c0-4c3f-925a-da4393c25d1c"},"vehicle_type_id":"4","last_reported":1783411979,"current_range_meters":8800,"station_id":"ce4bhrh2rcd13ifvqhug","pricing_plan_id":"cebpf4jnsgd1na2vs0mg"},{"bike_id":"8111af5b-98ce-4e1f-a070-fc614c5f561c","system_id":"levelo_inurba_marseille","lat":43.29001,"lon":5.3561,"is_reserved":false,"is_disabled":false,"rental_uris":{"android":"levelo://app?vid=8111af5b-98ce-4e1f-a070-fc614c5f561c","ios":"levelo://app?vid=8111af5b-98ce-4e1f-a070-fc614c5f561c"},"vehicle_type_id":"4","last_reported":1783411979,"current_range_meters":8800,"station_id":"ce4bhgp2rcd13ifvqfc0","pricing_plan_id":"cebpf4jnsgd1na2vs0mg"},{"bike_id":"c5428954-6a8c-434b-b478-2c2d81e3d859","system_id":"levelo_inurba_marseille","lat":43.29278,"lon":5.40904,"is_reserved":false,"is_disabled":true,"rental_uris":{"android":"levelo://app?vid=c5428954-6a8c-434b-b478-2c2d81e3d859","ios":"levelo://app?vid=c5428954-6a8c-434b-b478-2c2d81e3d859"},"vehicle_type_id":"4","last_reported":1783411979,"current_range_meters":8800,"station_id":"ce4bh192rcd13ifvqdc0","pricing_plan_id":"cebpf4jnsgd1na2vs0mg"},{"bike_id":"44bf66e2-dd1b-46b3-9899-e52a4af86372","system_id":"levelo_inurba_marseille","lat":43.30305,"lon":5.36889,"is_reserved":false,"is_disabled":false,"rental_uris":{"android":"levelo://app?vid=44bf66e2-dd1b-46b3-9899-e52a4af86372","ios":"levelo://app?vid=44bf66e2-dd1b-46b3-9899-e52a4af86372"},"vehicle_type_id":"4","last_reported":1783411979,"current_range_meters":8800,"station_id":"ce4bgqh2rcd13ifvqc5g","pricing_plan_id":"cebpf4jnsgd1na2vs0mg"},{"bike_id":"8302d9a6-ce5a-4b83-8fdb-dfd9baed0a89","system_id":"levelo_inurba_marseille","lat":43.29524,"lon":5.37452,"is_reserved":false,"is_disabled":false,"rental_uris":{"android":"levelo://app?vid=8302d9a6-ce5a-4b83-8fdb-dfd9baed0a89","ios":"levelo://app?vid=8302d9a6-ce5a-4b83-8fdb-dfd9baed0a89"},"vehicle_type_id":"4","last_reported":1783411979,"current_range_meters":8800,"station_id":"ce4bgkp2rcd13ifvqbmg","pricing_plan_id":"cebpf4jnsgd1na2vs0mg"},{"bike_id":"2a6ce6c7-e4f9-467a-95db-cc1b2436b221","system_id":"levelo_inurba_marseille","lat":43.23888,"lon":5.37471,"is_reserved":false,"is_disabled":false,"rental_uris":{"android":"levelo://app?vid=2a6ce6c7-e4f9-467a-95db-cc1b2436b221","ios":"levelo://app?vid=2a6ce6c7-e4f9-467a-95db-cc1b2436b221"},"vehicle_type_id":"4","last_reported":1783411979,"current_range_meters":8800,"station_id":"st_d6sm7csbq4hs73f8fpjg","pricing_plan_id":"cebpf4jnsgd1na2vs0mg"},{"bike_id":"67a2e93b-2965-44d6-8929-48a05b43d102","system_id":"levelo_inurba_marseille","lat":43.28678,"lon":5.46685,"is_reserved":false,"is_disabled":false,"rental_uris":{"android":"levelo://app?vid=67a2e93b-2965-44d6-8929-48a05b43d102","ios":"levelo://app?vid=67a2e93b-2965-44d6-8929-48a05b43d102"},"vehicle_type_id":"4","last_reported":1783411979,"current_range_meters":8800,"station_id":"","pricing_plan_id":"cebpf4jnsgd1na2vs0mg"},{"bike_id":"8feab343-aadc-43ad-bb24-73d5b419b2d0","system_id":"levelo_inurba_marseille","lat":43.24474,"lon":5.39677,"is_reserved":false,"is_disabled":false,"rental_uris":{"android":"levelo://app?vid=8feab343-aadc-43ad-bb24-73d5b419b2d0","ios":"levelo://app?vid=8feab343-aadc-43ad-bb24-73d5b419b2d0"},"vehicle_type_id":"4","last_reported":1783411979,"current_range_meters":8800,"station_id":"","pricing_plan_id":"cebpf4jnsgd1na2vs0mg"},{"bike_id":"e4d06188-1ebb-40af-96d1-d47d43e99821","system_id":"levelo_inurba_marseille","lat":43.29002,"lon":5.35604,"is_reserved":false,"is_disabled":false,"rental_uris":{"android":"levelo://app?vid=e4d06188-1ebb-40af-96d1-d47d43e99821","ios":"levelo://app?vid=e4d06188-1ebb-40af-96d1-d47d43e99821"},"vehicle_type_id":"4","last_reported":1783411979,"current_range_meters":8800,"station_id":"ce4bhb92rcd13ifvqen0","pricing_plan_id":"cebpf4jnsgd1na2vs0mg"},{"bike_id":"f2e0d1c9-ce7a-44b0-b599-61773509016b","system_id":"levelo_inurba_marseille","lat":43.30156,"lon":5.38095,"is_reserved":false,"is_disabled":false,"rental_uris":{"android":"levelo://app?vid=f2e0d1c9-ce7a-44b0-b599-61773509016b","ios":"levelo://app?vid=f2e0d1c9-ce7a-44b0-b599-61773509016b"},