{"last_updated":1743023315,"ttl":60,"version":"2.2","data":{"bikes":[{"bike_id":"c7e23d0e-26bb-4aa1-b39e-4b73a004331d","system_id":"levelo_inurba_marseille","lat":43.31165,"lon":5.38731,"is_reserved":false,"is_disabled":false,"rental_uris":{"android":"levelo://app?vid=c7e23d0e-26bb-4aa1-b39e-4b73a004331d","ios":"levelo://app?vid=c7e23d0e-26bb-4aa1-b39e-4b73a004331d"},"vehicle_type_id":"4","last_reported":1743023316,"current_range_meters":2800,"station_id":"ce4bgv12rcd13ifvqcp0","pricing_plan_id":"cebpf4jnsgd1na2vs0mg"},{"bike_id":"bce68610-5f8e-4ffb-8b6b-1bb1f2431af3","system_id":"levelo_inurba_marseille","lat":43.30937,"lon":5.40141,"is_reserved":false,"is_disabled":false,"rental_uris":{"android":"levelo://app?vid=bce68610-5f8e-4ffb-8b6b-1bb1f2431af3","ios":"levelo://app?vid=bce68610-5f8e-4ffb-8b6b-1bb1f2431af3"},"vehicle_type_id":"4","last_reported":1743023316,"current_range_meters":2800,"station_id":"ce4bgvp2rcd13ifvqct0","pricing_plan_id":"cebpf4jnsgd1na2vs0mg"},{"bike_id":"5a2026a5-ced7-4acb-a533-995f56b56295","system_id":"levelo_inurba_marseille","lat":43.27615,"lon":5.36103,"is_reserved":false,"is_disabled":true,"rental_uris":{"android":"levelo://app?vid=5a2026a5-ced7-4acb-a533-995f56b56295","ios":"levelo://app?vid=5a2026a5-ced7-4acb-a533-995f56b56295"},"vehicle_type_id":"4","last_reported":1743023316,"current_range_meters":2800,"station_id":"ce4bgj92rcd13ifvqbe0","pricing_plan_id":"cebpf4jnsgd1na2vs0mg"},{"bike_id":"1177326d-4069-428b-9b49-b4235e8259f2","system_id":"levelo_inurba_marseille","lat":43.30795,"lon":5.38165,"is_reserved":false,"is_disabled":false,"rental_uris":{"android":"levelo://app?vid=1177326d-4069-428b-9b49-b4235e8259f2","ios":"levelo://app?vid=1177326d-4069-428b-9b49-b4235e8259f2"},"vehicle_type_id":"4","last_reported":1743023316,"current_range_meters":2800,"station_id":"ce4bgt12rcd13ifvqce0","pricing_plan_id":"cebpf4jnsgd1na2vs0mg"},{"bike_id":"cd20d16a-032a-4ea7-a430-255e9d8a59c5","system_id":"levelo_inurba_marseille","lat":43.28302,"lon":5.40764,"is_reserved":false,"is_disabled":false,"rental_uris":{"android":"levelo://app?vid=cd20d16a-032a-4ea7-a430-255e9d8a59c5","ios":"levelo://app?vid=cd20d16a-032a-4ea7-a430-255e9d8a59c5"},"vehicle_type_id":"4","last_reported":1743023316,"current_range_meters":3200,"station_id":"","pricing_plan_id":"cebpf4jnsgd1na2vs0mg"},{"bike_id":"06671c35-5ab0-40c7-8e08-b155c0ed35cb","system_id":"levelo_inurba_marseille","lat":43.28928,"lon":5.38405,"is_reserved":false,"is_disabled":false,"rental_uris":{"android":"levelo://app?vid=06671c35-5ab0-40c7-8e08-b155c0ed35cb","ios":"levelo://app?vid=06671c35-5ab0-40c7-8e08-b155c0ed35cb"},"vehicle_type_id":"4","last_reported":1743023316,"current_range_meters":3600,"station_id":"ce4bh612rcd13ifvqe6g","pricing_plan_id":"cebpf4jnsgd1na2vs0mg"},{"bike_id":"03908684-304c-46cb-8098-7d26df555d11","system_id":"levelo_inurba_marseille","lat":43.29261,"lon":5.39832,"is_reserved":false,"is_disabled":false,"rental_uris":{"android":"levelo://app?vid=03908684-304c-46cb-8098-7d26df555d11","ios":"levelo://app?vid=03908684-304c-46cb-8098-7d26df555d11"},"vehicle_type_id":"4","last_reported":1743023316,"current_range_meters":3600,"station_id":"","pricing_plan_id":"cebpf4jnsgd1na2vs0mg"},{"bike_id":"d9513bf5-f255-462a-a7d5-c6e6b011af31","system_id":"levelo_inurba_marseille","lat":43.27815,"lon":5.4067,"is_reserved":false,"is_disabled":true,"rental_uris":{"android":"levelo://app?vid=d9513bf5-f255-462a-a7d5-c6e6b011af31","ios":"levelo://app?vid=d9513bf5-f255-462a-a7d5-c6e6b011af31"},"vehicle_type_id":"4","last_reported":1743023316,"current_range_meters":3600,"station_id":"ce4bhnh2rcd13ifvqgtg","pricing_plan_id":"cebpf4jnsgd1na2vs0mg"},{"bike_id":"f2efa895-ab28-4e84-8305-8fd52503ea5c","system_id":"levelo_inurba_marseille","lat":43.296037,"lon":5.376451,"is_reserved":false,"is_disabled":false,"rental_uris":{"android":"levelo://app?vid=f2efa895-ab28-4e84-8305-8fd52503ea5c","ios":"levelo://app?vid=f2efa895-ab28-4e84-8305-8fd52503ea5c"},"vehicle_type_id":"4","last_reported":1743023316,"current_range_meters":3600,"station_id":"ce4bh092rcd13ifvqd20","pricing_plan_id":"cebpf4jnsgd1na2vs0mg"},{"bike_id":"e1c0f517-dee2-4e0c-8b09-99e55dd1bcd7","system_id":"levelo_inurba_marseille","lat":43.29801,"lon":5.40401,"is_reserved":false,"is_disabled":false,"rental_uris":{"android":"levelo://app?vid=e1c0f517-dee2-4e0c-8b09-99e55dd1bcd7","ios":"levelo://app?vid=e1c0f517-dee2-4e0c-8b09-99e55dd1bcd7"},"vehicle_type_id":"4","last_reported":1743023316,"current_range_meters":3600,"station_id":"ce4bh112rcd13ifvqd90","pricing_plan_id":"cebpf4jnsgd1na2vs0mg"},{"bike_id":"0206582b-7c8f-43bf-8d47-8c57b9f86e3f","system_id":"levelo_inurba_marseille","lat":43.2897,"lon":5.37846,"is_reserved":false,"is_disabled":false,"rental_uris":{"android":"levelo://app?vid=0206582b-7c8f-43bf-8d47-8c57b9f86e3f","ios":"levelo://app?vid=0206582b-7c8f-43bf-8d47-8c57b9f86e3f"},"vehicle_type_id":"4","last_reported":1743023316,"current_range_meters":3600,"station_id":"ce4bh9p2rcd13ifvqed0","pricing_plan_id":"cebpf4jnsgd1na2vs0mg"},{"bike_id":"f31d5f56-2cdf-4f72-a4d3-1f89d3123ad2","system_id":"levelo_inurba_marseille","lat":43.29298,"lon":5.37195,"is_reserved":false,"is_disabled":false,"rental_uris":{"android":"levelo://app?vid=f31d5f56-2cdf-4f72-a4d3-1f89d3123ad2","ios":"levelo://app?vid=f31d5f56-2cdf-4f72-a4d3-1f89d3123ad2"},"vehicle_type_id":"4","last_reported":1743023316,"current_range_meters":4000,"station_id":"ce4bgh92rcd13ifvqb40","pricing_plan_id":"cebpf4jnsgd1na2vs0mg"},{"bike_id":"a9c99d83-0759-483c-a6a3-bf37c98df50d","system_id":"levelo_inurba_marseille","lat":43.28466,"lon":5.35872,"is_reserved":false,"is_disabled":false,"rental_uris":{"android":"levelo://app?vid=a9c99d83-0759-483c-a6a3-bf37c98df50d","ios":"levelo://app?vid=a9c99d83-0759-483c-a6a3-bf37c98df50d"},"vehicle_type_id":"4","last_reported":1743023316,"current_range_meters":4000,"station_id":"ce4bhah2rcd13ifvqei0","pricing_plan_id":"cebpf4jnsgd1na2vs0mg"},{"bike_id":"ce4e225f-5374-4460-988d-82c7eee3c555","system_id":"levelo_inurba_marseille","lat":43.292763,"lon":5.36845,"is_reserved":false,"is_disabled":true,"rental_uris":{"android":"levelo://app?vid=ce4e225f-5374-4460-988d-82c7eee3c555","ios":"levelo://app?vid=ce4e225f-5374-4460-988d-82c7eee3c555"},"vehicle_type_id":"4","last_reported":1743023316,"current_range_meters":4000,"station_id":"ce4bhbp2rcd13ifvqesg","pricing_plan_id":"cebpf4jnsgd1na2vs0mg"},{"bike_id":"067a94e0-664c-45ca-81c9-c82e3b3a4c44","system_id":"levelo_inurba_marseille","lat":43.28921,"lon":5.384017,"is_reserved":false,"is_disabled":false,"rental_uris":{"android":"levelo://app?vid=067a94e0-664c-45ca-81c9-c82e3b3a4c44","ios":"levelo://app?vid=067a94e0-664c-45ca-81c9-c82e3b3a4c44"},"vehicle_type_id":"4","last_reported":1743023316,"current_range_meters":4000,"station_id":"ce4bh612rcd13ifvqe6g","pricing_plan_id":"cebpf4jnsgd1na2vs0mg"},{"bike_id":"fc507e55-7fe6-4d81-87c3-bf8e75d99534","system_id":"levelo_inurba_marseille","lat":43.248345,"lon":5.374538,"is_reserved":false,"is_disabled":false,"rental_uris":{"android":"levelo://app?vid=fc507e55-7fe6-4d81-87c3-bf8e75d99534","ios":"levelo://app?vid=fc507e55-7fe6-4d81-87c3-bf8e75d99534"},"vehicle_type_id":"4","last_reported":1743023316,"current_range_meters":4000,"station_id":"","pricing_plan_id":"cebpf4jnsgd1na2vs0mg"},{"bike_id":"5bc5431f-38ea-436f-9092-b2e2cdd5def6","system_id":"levelo_inurba_marseille","lat":43.294211,"lon":5.38607,"is_reserved":false,"is_disabled":false,"rental_uris":{"android":"levelo://app?vid=5bc5431f-38ea-436f-9092-b2e2cdd5def6","ios":"levelo://app?vid=5bc5431f-38ea-436f-9092-b2e2cdd5def6"},"vehicle_type_id":"4","last_reported":1743023316,"current_range_meters":4000,"station_id":"","pricing_plan_id":"cebpf4jnsgd1na2vs0mg"},{"bike_id":"51cea5f5-d249-452c-88c3-db05a2ea4b8a","system_id":"levelo_inurba_marseille","lat":43.28438,"lon":5.39205,"is_reserved":false,"is_disabled":false,"rental_uris":{"android":"levelo://app?vid=51cea5f5-d249-452c-88c3-db05a2ea4b8a","ios":"levelo://app?vid=51cea5f5-d249-452c-88c3-db05a2ea4b8a"},"vehicle_type_id":"4","last_reported":1743023316,"current_range_meters":4000,"station_id":"ce4bhoh2rcd13ifvqh5g","pricing_plan_id":"cebpf4jnsgd1na2vs0mg"},{"bike_id":"f393c367-4b1a-4822-a11c-2fc8e333083c","system_id":"levelo_inurba_marseille","lat":43.246564,"lon":5.388959,"is_reserved":false,"is_disabled":false,"rental_uris":{"android":"levelo://app?vid=f393c367-4b1a-4822-a11c-2fc8e333083c","ios":"levelo://app?vid=f393c367-4b1a-4822-a11c-2fc8e333083c"},"vehicle_type_id":"4","last_reported":1743023316,"current_range_meters":4400,"station_id":"ce4bhg12rcd13ifvqf60","pricing_plan_id":"cebpf4jnsgd1na2vs0mg"},{"bike_id":"8f44946b-f6d7-4ade-8fa9-f5b85dd410a4","system_id":"levelo_inurba_marseille","lat":43.29449,"lon":5.38617,"is_reserved":false,"is_disabled":false,"rental_uris":{"android":"levelo://app?vid=8f44946b-f6d7-4ade-8fa9-f5b85dd410a4","ios":"levelo://app?vid=8f44946b-f6d7-4ade-8fa9-f5b85dd410a4"},"vehicle_type_id":"4","last_reported":1743023316,"current_range_meters":4400,"station_id":"ce4bh2h2rcd13ifvqdh0","pricing_plan_id":"cebpf4jnsgd1na2vs0mg"},{"bike_id":"d848d252-107a-426f-bce4-de8ae36f4340","system_id":"levelo_inurba_marseille","lat":43.29093,"lon":5.38123,"is_reserved":false,"is_disabled":false,"rental_uris":{"android":"levelo://app?vid=d848d252-107a-426f-bce4-de8ae36f4340","ios":"levelo://app?vid=d848d252-107a-426f-bce4-de8ae36f4340"},"vehicle_type_id":"4","last_reported":1743023316,"current_range_meters":4400,"station_id":"ce4bh512rcd13ifvqe2g","pricing_plan_id":"cebpf4jnsgd1na2vs0mg"},{"bike_id":"402cc30d-39ca-4056-ad42-effd69fbd9c9","system_id":"levelo_inurba_marseille","lat":43.24073,"lon":5.37751,"is_reserved":false,"is_disabled":false,"rental_uris":{"android":"levelo://app?vid=402cc30d-39ca-4056-ad42-effd69fbd9c9","ios":"levelo://app?vid=402cc30d-39ca-4056-ad42-effd69fbd9c9"},"vehicle_type_id":"4","last_reported":1743023316,"current_range_meters":4400,"station_id":"ce4bhnp2rcd13ifvqgvg","pricing_plan_id":"cebpf4jnsgd1na2vs0mg"},{"bike_id":"40046afd-c6aa-43ea-88bd-183a4d2ec61c","system_id":"levelo_inurba_marseille","lat":43.31609,"lon":5.41667,"is_reserved":false,"is_disabled":false,"rental_uris":{"android":"levelo://app?vid=40046afd-c6aa-43ea-88bd-183a4d2ec61c","ios":"levelo://app?vid=40046afd-c6aa-43ea-88bd-183a4d2ec61c"},"vehicle_type_id":"4","last_reported":1743023316,"current_range_meters":4800,"station_id":"","pricing_plan_id":"cebpf4jnsgd1na2vs0mg"},{"bike_id":"e88119b7-a718-4321-b2dc-884b54d91595","system_id":"levelo_inurba_marseille","lat":43.30783,"lon":5.37669,"is_reserved":false,"is_disabled":false,"rental_uris":{"android":"levelo://app?vid=e88119b7-a718-4321-b2dc-884b54d91595","ios":"levelo://app?vid=e88119b7-a718-4321-b2dc-884b54d91595"},"vehicle_type_id":"4","last_reported":1743023316,"current_range_meters":4400,"station_id":"ce4bgv92rcd13ifvqcq0","pricing_plan_id":"cebpf4jnsgd1na2vs0mg"},{"bike_id":"c987315b-c2f4-4cef-9907-a198f1f04f5a","system_id":"levelo_inurba_marseille","lat":43.28004,"lon":5.40014,"is_reserved":false,"is_disabled":false,"rental_uris":{"android":"levelo://app?vid=c987315b-c2f4-4cef-9907-a198f1f04f5a","ios":"levelo://app?vid=c987315b-c2f4-4cef-9907-a198f1f04f5a"},"vehicle_type_id":"4","last_reported":1743023316,"current_range_meters":4800,"station_id":"ce4bho92rcd13ifvqh4g","pricing_plan_id":"cebpf4jnsgd1na2vs0mg"},{"bike_id":"054613ea-f6f8-4bc5-9db6-662a488460db","system_id":"levelo_inurba_marseille","lat":43.30205,"lon":5.39471,"is_reserved":false,"is_disabled":false,"rental_uris":{"android":"levelo://app?vid=054613ea-f6f8-4bc5-9db6-662a488460db","ios":"levelo://app?vid=054613ea-f6f8-4bc5-9db6-662a488460db"},"vehicle_type_id":"4","last_reported":1743023316,"current_range_meters":4800,"station_id":"ce4bh0p2rcd13ifvqd70","pricing_plan_id":"cebpf4jnsgd1na2vs0mg"},{"bike_id":"7d944d2b-bdbb-4dfe-b8d5-68d8eb03245d","system_id":"levelo_inurba_marseille","lat":43.24652,"lon":5.3889,"is_reserved":false,"is_disabled":false,"rental_uris":{"android":"levelo://app?vid=7d944d2b-bdbb-4dfe-b8d5-68d8eb03245d","ios":"levelo://app?vid=7d944d2b-bdbb-4dfe-b8d5-68d8eb03245d"},"vehicle_type_id":"4","last_reported":1743023316,"current_range_meters":4800,"station_id":"ce4bhg12rcd13ifvqf60","pricing_plan_id":"cebpf4jnsgd1na2vs0mg"},{"bike_id":"1f5e709d-c27d-4647-80aa-22f510a1a0fd","system_id":"levelo_inurba_marseille","lat":43.23168,"lon":5.39983,"is_reserved":false,"is_disabled":false,"rental_uris":{"android":"levelo://app?vid=1f5e709d-c27d-4647-80aa-22f510a1a0fd","ios":"levelo://app?vid=1f5e709d-c27d-4647-80aa-22f510a1a0fd"},"vehicle_type_id":"4","last_reported":1743023316,"current_range_meters":4800,"station_id":"ce4bhn12rcd13ifvqgqg","pricing_plan_id":"cebpf4jnsgd1na2vs0mg"},{"bike_id":"e3c3d455-0e1c-4081-a67b-5dae522f5284","system_id":"levelo_inurba_marseille","lat":43.29029,"lon":5.38652,"is_reserved":false,"is_disabled":false,"rental_uris":{"android":"levelo://app?vid=e3c3d455-0e1c-4081-a67b-5dae522f5284","ios":"levelo://app?vid=e3c3d455-0e1c-4081-a67b-5dae522f5284"},"vehicle_type_id":"4","last_reported":1743023316,"current_range_meters":4800,"station_id":"ce4bh4p2rcd13ifvqe0g","pricing_plan_id":"cebpf4jnsgd1na2vs0mg"},{"bike_id":"80420c83-94fc-4929-a66b-5fc6f7c139bd","system_id":"levelo_inurba_marseille","lat":43.28353,"lon":5.38104,"is_reserved":false,"is_disabled":false,"rental_uris":{"android":"levelo://app?vid=80420c83-94fc-4929-a66b-5fc6f7c139bd","ios":"levelo://app?vid=80420c83-94fc-4929-a66b-5fc6f7c139bd"},"vehicle_type_id":"4","last_reported":1743023316,"current_range_meters":4800,"station_id":"ce4bh412rcd13ifvqdr0","pricing_plan_id":"cebpf4jnsgd1na2vs0mg"},{"bike_id":"05851990-c142-4fa6-a7b5-279d5f80a081","system_id":"levelo_inurba_marseille","lat":43.2942,"lon":5.38613,"is_reserved":false,"is_disabled":false,"rental_uris":{"android":"levelo://app?vid=05851990-c142-4fa6-a7b5-279d5f80a081","ios":"levelo://app?vid=05851990-c142-4fa6-a7b5-279d5f80a081"},"vehicle_type_id":"4","last_reported":1743023316,"current_range_meters":5600,"station_id":"ce4bh2h2rcd13ifvqdh0","pricing_plan_id":"cebpf4jnsgd1na2vs0mg"},{"bike_id":"1166a390-5ee0-4599-b63d-b09cb15c0001","system_id":"levelo_inurba_marseille","lat":43.24075,"lon":5.3776,"is_reserved":false,"is_disabled":false,"rental_uris":{"android":"levelo://app?vid=1166a390-5ee0-4599-b63d-b09cb15c0001","ios":"levelo://app?vid=1166a390-5ee0-4599-b63d-b09cb15c0001"},"vehicle_type_id":"4","last_reported":1743023316,"current_range_meters":5600,"station_id":"ce4bhnp2rcd13ifvqgvg","pricing_plan_id":"cebpf4jnsgd1na2vs0mg"},{"bike_id":"0b792fd1-4611-4b05-b1d5-0145989d2dc8","system_id":"levelo_inurba_marseille","lat":43.25833,"lon":5.39405,"is_reserved":false,"is_disabled":false,"rental_uris":{"android":"levelo://app?vid=0b792fd1-4611-4b05-b1d5-0145989d2dc8","ios":"levelo://app?vid=0b792fd1-4611-4b05-b1d5-0145989d2dc8"},"vehicle_type_id":"4","last_reported":1743023316,"current_range_meters":5600,"station_id":"ce4bhip2rcd13ifvqft0","pricing_plan_id":"cebpf4jnsgd1na2vs0mg"},{"bike_id":"ea058543-5b6a-48af-855d-c8588b5d0075","system_id":"levelo_inurba_marseille","lat":43.28147,"lon":5.42662,"is_reserved":false,"is_disabled":false,"rental_uris":{"android":"levelo://app?vid=ea058543-5b6a-48af-855d-c8588b5d0075","ios":"levelo://app?vid=ea058543-5b6a-48af-855d-c8588b5d0075"},"vehicle_type_id":"4","last_reported":1743023316,"current_range_meters":5600,"station_id":"ce4bhnh2rcd13ifvqgug","pricing_plan_id":"cebpf4jnsgd1na2vs0mg"},{"bike_id":"77823725-c761-49bc-902c-64c32b686ae7","system_id":"levelo_inurba_marseille","lat":43.2306,"lon":5.35486,"is_reserved":false,"is_disabled":false,"rental_uris":{"android":"levelo://app?vid=77823725-c761-49bc-902c-64c32b686ae7","ios":"levelo://app?vid=77823725-c761-49bc-902c-64c32b686ae7"},"vehicle_type_id":"4","last_reported":1743023316,"current_range_meters":5600,"station_id":"cpo3342slgdg3j2ifvpg","pricing_plan_id":"cebpf4jnsgd1na2vs0mg"},{"bike_id":"7e628bd8-f74d-4310-8492-8512d6f315fe","system_id":"levelo_inurba_marseille","lat":43.23206,"lon":5.39973,"is_reserved":false,"is_disabled":false,"rental_uris":{"android":"levelo://app?vid=7e628bd8-f74d-4310-8492-8512d6f315fe","ios":"levelo://app?vid=7e628bd8-f74d-4310-8492-8512d6f315fe"},"vehicle_type_id":"4","last_reported":1743023316,"current_range_meters":5600,"station_id":"ce4bhn12rcd13ifvqgqg","pricing_plan_id":"cebpf4jnsgd1na2vs0mg"},{"bike_id":"3cd9b5bc-fba0-4545-94d0-e86f3d302f0f","system_id":"levelo_inurba_marseille","lat":43.2814,"lon":5.42652,"is_reserved":false,"is_disabled":false,"rental_uris":{"android":"levelo://app?vid=3cd9b5bc-fba0-4545-94d0-e86f3d302f0f","ios":"levelo://app?vid=3cd9b5bc-fba0-4545-94d0-e86f3d302f0f"},"vehicle_type_id":"4","last_reported":1743023316,"current_range_meters":6000,"station_id":"ce4bhnh2rcd13ifvqgug","pricing_plan_id":"cebpf4jnsgd1na2vs0mg"},{"bike_id":"a47800ef-93d2-4317-952e-ba60509693d8","system_id":"levelo_inurba_marseille","lat":43.30927,"lon":5.40139,"is_reserved":false,"is_disabled":false,"rental_uris":{"android":"levelo://app?vid=a47800ef-93d2-4317-952e-ba60509693d8","ios":"levelo://app?vid=a47800ef-93d2-4317-952e-ba60509693d8"},"vehicle_type_id":"4","last_reported":1743023316,"current_range_meters":6000,"station_id":"ce4bgvp2rcd13ifvqct0","pricing_plan_id":"cebpf4jnsgd1na2vs0mg"},{"bike_id":"02ad8c22-e081-411e-88d5-20a7dac6d9a6","system_id":"levelo_inurba_marseille","lat":43.29909,"lon":5.36543,"is_reserved":false,"is_disabled":false,"rental_uris":{"android":"levelo://app?vid=02ad8c22-e081-411e-88d5-20a7dac6d9a6","ios":"levelo://app?vid=02ad8c22-e081-411e-88d5-20a7dac6d9a6"},"vehicle_type_id":"4","last_reported":1743023316,"current_range_meters":6000,"station_id":"ce4bgm92rcd13ifvqbr0","pricing_plan_id":"cebpf4jnsgd1na2vs0mg"},{"bike_id":"e157512c-8da5-4b6e-9c01-be7b95c5d97c","system_id":"levelo_inurba_marseille","lat":43.26818,"lon":5.40268,"is_reserved":false,"is_disabled":false,"rental_uris":{"android":"levelo://app?vid=e157512c-8da5-4b6e-9c01-be7b95c5d97c","ios":"levelo://app?vid=e157512c-8da5-4b6e-9c01-be7b95c5d97c"},"vehicle_type_id":"4","last_reported":1743023316,"current_range_meters":6000,"station_id":"ce501612rcd8frsf0b60","pricing_plan_id":"cebpf4jnsgd1na2vs0mg"},{"bike_id":"b9760421-750e-4656-8e67-3c9ad37b93d6","system_id":"levelo_inurba_marseille","lat":43.30442,"lon":5.388,"is_reserved":false,"is_disabled":false,"rental_uris":{"android":"levelo://app?vid=b9760421-750e-4656-8e67-3c9ad37b93d6","ios":"levelo://app?vid=b9760421-750e-4656-8e67-3c9ad37b93d6"},"vehicle_type_id":"4","last_reported":1743023316,"current_range_meters":6000,"station_id":"","pricing_plan_id":"cebpf4jnsgd1na2vs0mg"},{"bike_id":"2e5e087f-e6ae-43b2-a7b3-4d878496512d","system_id":"levelo_inurba_marseille","lat":43.2926,"lon":5.38429,"is_reserved":false,"is_disabled":false,"rental_uris":{"android":"levelo://app?vid=2e5e087f-e6ae-43b2-a7b3-4d878496512d","ios":"levelo://app?vid=2e5e087f-e6ae-43b2-a7b3-4d878496512d"},"vehicle_type_id":"4","last_reported":1743023316,"current_range_meters":6000,"station_id":"ce4bh692rcd13ifvqea0","pricing_plan_id":"cebpf4jnsgd1na2vs0mg"},{"bike_id":"bb0a4d83-0e37-4dfa-938b-228bbf7033c9","system_id":"levelo_inurba_marseille","lat":43.29038,"lon":5.39954,"is_reserved":false,"is_disabled":false,"rental_uris":{"android":"levelo://app?vid=bb0a4d83-0e37-4dfa-938b-228bbf7033c9","ios":"levelo://app?vid=bb0a4d83-0e37-4dfa-938b-228bbf7033c9"},"vehicle_type_id":"4","last_reported":1743023316,"current_range_meters":6000,"station_id":"ce4bh392rcd13ifvqdm0","pricing_plan_id":"cebpf4jnsgd1na2vs0mg"},{"bike_id":"ac16162e-9eb6-40a2-ae8b-a763f64ec361","system_id":"levelo_inurba_marseille","lat":43.28993,"lon":5.35598,"is_reserved":false,"is_disabled":true,"rental_uris":{"android":"levelo://app?vid=ac16162e-9eb6-40a2-ae8b-a763f64ec361","ios":"levelo://app?vid=ac16162e-9eb6-40a2-ae8b-a763f64ec361"},"vehicle_type_id":"4","last_reported":1743023316,"current_range_meters":6400,"station_id":"ce4bhb92rcd13ifvqen0","pricing_plan_id":"cebpf4jnsgd1na2vs0mg"},{"bike_id":"dbe46375-de9f-4b3e-b80e-634be0afd10e","system_id":"levelo_inurba_marseille","lat":43.284,"lon":5.37535,"is_reserved":false,"is_disabled":false,"rental_uris":{"android":"levelo://app?vid=dbe46375-de9f-4b3e-b80e-634be0afd10e","ios":"levelo://app?vid=dbe46375-de9f-4b3e-b80e-634be0afd10e"},"vehicle_type_id":"4","last_reported":1743023316,"current_range_meters":6400,"station_id":"ce4bh412rcd13ifvqds0","pricing_plan_id":"cebpf4jnsgd1na2vs0mg"},{"bike_id":"2948d63f-5b45-4bfe-b301-41a1fe5d68d8","system_id":"levelo_inurba_marseille","lat":43.28079,"lon":5.39664,"is_reserved":false,"is_disabled":false,"rental_uris":{"android":"levelo://app?vid=2948d63f-5b45-4bfe-b301-41a1fe5d68d8","ios":"levelo://app?vid=2948d63f-5b45-4bfe-b301-41a1fe5d68d8"},"vehicle_type_id":"4","last_reported":1743023316,"current_range_meters":6000,"station_id":"ce4bho12rcd13ifvqh2g","pricing_plan_id":"cebpf4jnsgd1na2vs0mg"},{"bike_id":"bf970b57-b825-4496-a275-2cf564008059","system_id":"levelo_inurba_marseille","lat":43.28716,"lon":5.3795,"is_reserved":false,"is_disabled":false,"rental_uris":{"android":"levelo://app?vid=bf970b57-b825-4496-a275-2cf564008059","ios":"levelo://app?vid=bf970b57-b825-4496-a275-2cf564008059"},"vehicle_type_id":"4","last_reported":1743023316,"current_range_meters":6400,"station_id":"ce4bh9p2rcd13ifvqec0","pricing_plan_id":"cebpf4jnsgd1na2vs0mg"},{"bike_id":"a1b408dc-db40-4efb-b765-69236b76c2f5","system_id":"levelo_inurba_marseille","lat":43.29415,"lon":5.38629,"is_reserved":false,"is_disabled":false,"rental_uris":{"android":"levelo://app?vid=a1b408dc-db40-4efb-b765-69236b76c2f5","ios":"levelo://app?vid=a1b408dc-db40-4efb-b765-69236b76c2f5"},"vehicle_type_id":"4","last_reported":1743023316,"current_range_meters":6400,"station_id":"ce4bh2h2rcd13ifvqdh0","pricing_plan_id":"cebpf4jnsgd1na2vs0mg"},{"bike_id":"ad697fa0-a9a6-4fbc-b5fd-523e15afbc00","system_id":"levelo_inurba_marseille","lat":43.29802,"lon":5.393513,"is_reserved":false,"is_disabled":false,"rental_uris":{"android":"levelo://app?vid=ad697fa0-a9a6-4fbc-b5fd-523e15afbc00","ios":"levelo://app?vid=ad697fa0-a9a6-4fbc-b5fd-523e15afbc00"},"vehicle_type_id":"4","last_reported":1743023316,"current_range_meters":6400,"station_id":"chh1huq6cuj3fo74tm60","pricing_plan_id":"cebpf4jnsgd1na2vs0mg"},{"bike_id":"4aee0769-394a-4e29-b00f-48eebad3d47c","system_id":"levelo_inurba_marseille","lat":43.30805,"lon":5.3818,"is_reserved":false,"is_disabled":false,"rental_uris":{"android":"levelo://app?vid=4aee0769-394a-4e29-b00f-48eebad3d47c","ios":"levelo://app?vid=4aee0769-394a-4e29-b00f-48eebad3d47c"},"vehicle_type_id":"4","last_reported":1743023316,"current_range_meters":6400,"station_id":"ce4bgt12rcd13ifvqce0","pricing_plan_id":"cebpf4jnsgd1na2vs0mg"},{"bike_id":"b743da05-6571-4c50-ad94-ef8652b221a0","system_id":"levelo_inurba_marseille","lat":43.29419,"lon":5.38612,"is_reserved":false,"is_disabled":false,"rental_uris":{"android":"levelo://app?vid=b743da05-6571-4c50-ad94-ef8652b221a0","ios":"levelo://app?vid=b743da05-6571-4c50-ad94-ef8652b221a0"},"vehicle_type_id":"4","last_reported":1743023316,"current_range_meters":6400,"station_id":"ce4bh2h2rcd13ifvqdh0","pricing_plan_id":"cebpf4jnsgd1na2vs0mg"},{"bike_id":"d5804ad3-33e7-454e-b7d4-322b214049f7","system_id":"levelo_inurba_marseille","lat":43.24661,"lon":5.38157,"is_reserved":false,"is_disabled":false,"rental_uris":{"android":"levelo://app?vid=d5804ad3-33e7-454e-b7d4-322b214049f7","ios":"levelo://app?vid=d5804ad3-33e7-454e-b7d4-322b214049f7"},"vehicle_type_id":"4","last_reported":1743023316,"current_range_meters":6400,"station_id":"ce4bhih2rcd13ifvqfr0","pricing_plan_id":"cebpf4jnsgd1na2vs0mg"},{"bike_id":"9601d59f-89ef-43d4-96ab-0586b4d92927","system_id":"levelo_inurba_marseille","lat":43.27829,"lon":5.4072,"is_reserved":false,"is_disabled":false,"rental_uris":{"android":"levelo://app?vid=9601d59f-89ef-43d4-96ab-0586b4d92927","ios":"levelo://app?vid=9601d59f-89ef-43d4-96ab-0586b4d92927"},"vehicle_type_id":"4","last_reported":1743023316,"current_range_meters":6400,"station_id":"ce4bhnh2rcd13ifvqgtg","pricing_plan_id":"cebpf4jnsgd1na2vs0mg"},{"bike_id":"48822a6e-9863-438b-b433-8ccb3f8db96d","system_id":"levelo_inurba_marseille","lat":43.31697,"lon":5.3764,"is_reserved":false,"is_disabled":true,"rental_uris":{"android":"levelo://app?vid=48822a6e-9863-438b-b433-8ccb3f8db96d","ios":"levelo://app?vid=48822a6e-9863-438b-b433-8ccb3f8db96d"},"vehicle_type_id":"4","last_reported":1743023316,"current_range_meters":6400,"station_id":"","pricing_plan_id":"cebpf4jnsgd1na2vs0mg"},{"bike_id":"2bc60d58-eca8-489a-9ab7-436d7b576939","system_id":"levelo_inurba_marseille","lat":43.29903,"lon":5.43651,"is_reserved":false,"is_disabled":false,"rental_uris":{"android":"levelo://app?vid=2bc60d58-eca8-489a-9ab7-436d7b576939","ios":"levelo://app?vid=2bc60d58-eca8-489a-9ab7-436d7b576939"},"vehicle_type_id":"4","last_reported":1743023316,"current_range_meters":6800,"station_id":"ce4bhpp2rcd13ifvqhfg","pricing_plan_id":"cebpf4jnsgd1na2vs0mg"},{"bike_id":"2094bf05-617a-407a-906e-e37bb5a2c126","system_id":"levelo_inurba_marseille","lat":43.265572,"lon":5.373036,"is_reserved":false,"is_disabled":false,"rental_uris":{"android":"levelo://app?vid=2094bf05-617a-407a-906e-e37bb5a2c126","ios":"levelo://app?vid=2094bf05-617a-407a-906e-e37bb5a2c126"},"vehicle_type_id":"4","last_reported":1743023316,"current_range_meters":6800,"station_id":"ce4bhg12rcd13ifvqf70","pricing_plan_id":"cebpf4jnsgd1na2vs0mg"},{"bike_id":"5a4d2d11-ceeb-4cba-9eb4-ee508fac38b2","system_id":"levelo_inurba_marseille","lat":43.29519,"lon":5.38549,"is_reserved":false,"is_disabled":false,"rental_uris":{"android":"levelo://app?vid=5a4d2d11-ceeb-4cba-9eb4-ee508fac38b2","ios":"levelo://app?vid=5a4d2d11-ceeb-4cba-9eb4-ee508fac38b2"},"vehicle_type_id":"4","last_reported":1743023316,"current_range_meters":6800,"station_id":"ce4bgih2rcd13ifvqba0","pricing_plan_id":"cebpf4jnsgd1na2vs0mg"},{"bike_id":"44156654-a4cf-4f20-b992-8a27bbcc69ed","system_id":"levelo_inurba_marseille","lat":43.23192,"lon":5.3998,"is_reserved":false,"is_disabled":true,"rental_uris":{"android":"levelo://app?vid=44156654-a4cf-4f20-b992-8a27bbcc69ed","ios":"levelo://app?vid=44156654-a4cf-4f20-b992-8a27bbcc69ed"},"vehicle_type_id":"4","last_reported":1743023316,"current_range_meters":6800,"station_id":"ce4bhn12rcd13ifvqgqg","pricing_plan_id":"cebpf4jnsgd1na2vs0mg"},{"bike_id":"98c7ca61-6b4e-4129-ad44-4943fd2074d6","system_id":"levelo_inurba_marseille","lat":43.229301,"lon":5.353749,"is_reserved":false,"is_disabled":false,"rental_uris":{"android":"levelo://app?vid=98c7ca61-6b4e-4129-ad44-4943fd2074d6","ios":"levelo://app?vid=98c7ca61-6b4e-4129-ad44-4943fd2074d6"},"vehicle_type_id":"4","last_reported":1743023316,"current_range_meters":6800,"station_id":"cpo3532slgdg3j2ikp40","pricing_plan_id":"cebpf4jnsgd1na2vs0mg"},{"bike_id":"a6460627-511d-44ea-a912-da2085b0a119","system_id":"levelo_inurba_marseille","lat":43.29437,"lon":5.38604,"is_reserved":false,"is_disabled":true,"rental_uris":{"android":"levelo://app?vid=a6460627-511d-44ea-a912-da2085b0a119","ios":"levelo://app?vid=a6460627-511d-44ea-a912-da2085b0a119"},"vehicle_type_id":"4","last_reported":1743023316,"current_range_meters":6800,"station_id":"ce4bh2h2rcd13ifvqdh0","pricing_plan_id":"cebpf4jnsgd1na2vs0mg"},{"bike_id":"b50047ce-3e83-440e-9094-c575aa7f28ac","system_id":"levelo_inurba_marseille","lat":43.2866,"lon":5.36349,"is_reserved":false,"is_disabled":false,"rental_uris":{"android":"levelo://app?vid=b50047ce-3e83-440e-9094-c575aa7f28ac","ios":"levelo://app?vid=b50047ce-3e83-440e-9094-c575aa7f28ac"},"vehicle_type_id":"4","last_reported":1743023316,"current_range_meters":6800,"station_id":"ce4bhah2rcd13ifvqej0","pricing_plan_id":"cebpf4jnsgd1na2vs0mg"},{"bike_id":"46abc687-cc63-467d-9328-afe177712ecf","system_id":"levelo_inurba_marseille","lat":43.30874,"lon":5.39647,"is_reserved":false,"is_disabled":false,"rental_uris":{"android":"levelo://app?vid=46abc687-cc63-467d-9328-afe177712ecf","ios":"levelo://app?vid=46abc687-cc63-467d-9328-afe177712ecf"},"vehicle_type_id":"4","last_reported":1743023316,"current_range_meters":6800,"station_id":"ce4bh012rcd13ifvqcv0","pricing_plan_id":"cebpf4jnsgd1na2vs0mg"},{"bike_id":"8b0643ce-934f-49d4-aae3-32dc3ec1ff83","system_id":"levelo_inurba_marseille","lat":43.2815,"lon":5.42628,"is_reserved":false,"is_disabled":false,"rental_uris":{"android":"levelo://app?vid=8b0643ce-934f-49d4-aae3-32dc3ec1ff83","ios":"levelo://app?vid=8b0643ce-934f-49d4-aae3-32dc3ec1ff83"},"vehicle_type_id":"4","last_reported":1743023316,"current_range_meters":6800,"station_id":"ce4bhnh2rcd13ifvqgug","pricing_plan_id":"cebpf4jnsgd1na2vs0mg"},{"bike_id":"9b539f21-e18f-459d-aac0-7a052764803f","system_id":"levelo_inurba_marseille","lat":43.275662,"lon":5.384207,"is_reserved":false,"is_disabled":false,"rental_uris":{"android":"levelo://app?vid=9b539f21-e18f-459d-aac0-7a052764803f","ios":"levelo://app?vid=9b539f21-e18f-459d-aac0-7a052764803f"},"vehicle_type_id":"4","last_reported":1743023316,"current_range_meters":6400,"station_id":"ce4bhh92rcd13ifvqfi0","pricing_plan_id":"cebpf4jnsgd1na2vs0mg"},{"bike_id":"35f1432b-c929-4f89-82cf-51b4fa739eb0","system_id":"levelo_inurba_marseille","lat":43.28029,"lon":5.36939,"is_reserved":false,"is_disabled":false,"rental_uris":{"android":"levelo://app?vid=35f1432b-c929-4f89-82cf-51b4fa739eb0","ios":"levelo://app?vid=35f1432b-c929-4f89-82cf-51b4fa739eb0"},"vehicle_type_id":"4","last_reported":1743023316,"current_range_meters":6800,"station_id":"ce4bha12rcd13ifvqef0","pricing_plan_id":"cebpf4jnsgd1na2vs0mg"},{"bike_id":"3caf9297-9162-427d-b86d-54632f9b80d9","system_id":"levelo_inurba_marseille","lat":43.27812,"lon":5.4072,"is_reserved":false,"is_disabled":false,"rental_uris":{"android":"levelo://app?vid=3caf9297-9162-427d-b86d-54632f9b80d9","ios":"levelo://app?vid=3caf9297-9162-427d-b86d-54632f9b80d9"},"vehicle_type_id":"4","last_reported":1743023316,"current_range_meters":6800,"station_id":"ce4bhnh2rcd13ifvqgtg","pricing_plan_id":"cebpf4jnsgd1na2vs0mg"},{"bike_id":"14dd5178-331e-4335-96c2-d8f742a2e60c","system_id":"levelo_inurba_marseille","lat":43.29301,"lon":5.37456,"is_reserved":false,"is_disabled":false,"rental_uris":{"android":"levelo://app?vid=14dd5178-331e-4335-96c2-d8f742a2e60c","ios":"levelo://app?vid=14dd5178-331e-4335-96c2-d8f742a2e60c"},"vehicle_type_id":"4","last_reported":1743023316,"current_range_meters":6800,"station_id":"ce4bgi12rcd13ifvqb70","pricing_plan_id":"cebpf4jnsgd1na2vs0mg"},{"bike_id":"574c4439-927a-48bd-8811-7e6eb05db575","system_id":"levelo_inurba_marseille","lat":43.286,"lon":5.35115,"is_reserved":false,"is_disabled":false,"rental_uris":{"android":"levelo://app?vid=574c4439-927a-48bd-8811-7e6eb05db575","ios":"levelo://app?vid=574c4439-927a-48bd-8811-7e6eb05db575"},"vehicle_type_id":"4","last_reported":1743023316,"current_range_meters":6800,"station_id":"ce4bhch2rcd13ifvqeug","pricing_plan_id":"cebpf4jnsgd1na2vs0mg"},{"bike_id":"57014626-68ec-49e6-b84b-5654d517af99","system_id":"levelo_inurba_marseille","lat":43.27948,"lon":5.41041,"is_reserved":false,"is_disabled":false,"rental_uris":{"android":"levelo://app?vid=57014626-68ec-49e6-b84b-5654d517af99","ios":"levelo://app?vid=57014626-68ec-49e6-b84b-5654d517af99"},"vehicle_type_id":"4","last_reported":1743023316,"current_range_meters":7200,"station_id":"ce4bhnp2rcd13ifvqh0g","pricing_plan_id":"cebpf4jnsgd1na2vs0mg"},{"bike_id":"589f1146-20bc-4a88-9ab7-60ee275b3000","system_id":"levelo_inurba_marseille","lat":43.29739,"lon":5.38013,"is_reserved":false,"is_disabled":false,"rental_uris":{"android":"levelo://app?vid=589f1146-20bc-4a88-9ab7-60ee275b3000","ios":"levelo://app?vid=589f1146-20bc-4a88-9ab7-60ee275b3000"},"vehicle_type_id":"4","last_reported":1743023316,"current_range_meters":7200,"station_id":"","pricing_plan_id":"cebpf4jnsgd1na2vs0mg"},{"bike_id":"9e414f59-5d13-4847-984b-695d5e36104b","system_id":"levelo_inurba_marseille","lat":43.27887,"lon":5.41195,"is_reserved":false,"is_disabled":false,"rental_uris":{"android":"levelo://app?vid=9e414f59-5d13-4847-984b-695d5e36104b","ios":"levelo://app?vid=9e414f59-5d13-4847-984b-695d5e36104b"},"vehicle_type_id":"4","last_reported":1743023316,"current_range_meters":7200,"station_id":"","pricing_plan_id":"cebpf4jnsgd1na2vs0mg"},{"bike_id":"b5511e67-0fc7-49f7-845c-c6fd873b52d1","system_id":"levelo_inurba_marseille","lat":43.29006,"lon":5.3864,"is_reserved":false,"is_disabled":false,"rental_uris":{"android":"levelo://app?vid=b5511e67-0fc7-49f7-845c-c6fd873b52d1","ios":"levelo://app?vid=b5511e67-0fc7-49f7-845c-c6fd873b52d1"},"vehicle_type_id":"4","last_reported":1743023316,"current_range_meters":7200,"station_id":"ce4bh4p2rcd13ifvqe0g","pricing_plan_id":"cebpf4jnsgd1na2vs0mg"},{"bike_id":"373c0b4a-e29f-4a29-b37a-1c63dd85abfd","system_id":"levelo_inurba_marseille","lat":43.27997,"lon":5.41665,"is_reserved":false,"is_disabled":false,"rental_uris":{"android":"levelo://app?vid=373c0b4a-e29f-4a29-b37a-1c63dd85abfd","ios":"levelo://app?vid=373c0b4a-e29f-4a29-b37a-1c63dd85abfd"},"vehicle_type_id":"4","last_reported":1743023316,"current_range_meters":7200,"station_id":"ce4bho12rcd13ifvqh1g","pricing_plan_id":"cebpf4jnsgd1na2vs0mg"},{"bike_id":"a5fb06d1-c469-4515-9522-548b956fd2b3","system_id":"levelo_inurba_marseille","lat":43.31769,"lon":5.39004,"is_reserved":false,"is_disabled":false,"rental_uris":{"android":"levelo://app?vid=a5fb06d1-c469-4515-9522-548b956fd2b3","ios":"levelo://app?vid=a5fb06d1-c469-4515-9522-548b956fd2b3"},"vehicle_type_id":"4","last_reported":1743023316,"current_range_meters":7200,"station_id":"ce4bhqp2rcd13ifvqhng","pricing_plan_id":"cebpf4jnsgd1na2vs0mg"},{"bike_id":"bf24ded8-23e1-417c-b5d8-5c062c9776ae","system_id":"levelo_inurba_marseille","lat":43.23188,"lon":5.39982,"is_reserved":false,"is_disabled":false,"rental_uris":{"android":"levelo://app?vid=bf24ded8-23e1-417c-b5d8-5c062c9776ae","ios":"levelo://app?vid=bf24ded8-23e1-417c-b5d8-5c062c9776ae"},"vehicle_type_id":"4","last_reported":1743023316,"current_range_meters":7200,"station_id":"ce4bhn12rcd13ifvqgqg","pricing_plan_id":"cebpf4jnsgd1na2vs0mg"},{"bike_id":"1eaf6ce4-66c4-4c7b-afea-653680f1ffe5","system_id":"levelo_inurba_marseille","lat":43.30538,"lon":5.38422,"is_reserved":false,"is_disabled":false,"rental_uris":{"android":"levelo://app?vid=1eaf6ce4-66c4-4c7b-afea-653680f1ffe5","ios":"levelo://app?vid=1eaf6ce4-66c4-4c7b-afea-653680f1ffe5"},"vehicle_type_id":"4","last_reported":1743023316,"current_range_meters":7200,"station_id":"ce4bgg92rcd13ifvqb30","pricing_plan_id":"cebpf4jnsgd1na2vs0mg"},{"bike_id":"fc2186a3-9143-4ddc-a7af-47ab8ad9a861","system_id":"levelo_inurba_marseille","lat":43.31115,"lon":5.37754,"is_reserved":false,"is_disabled":false,"rental_uris":{"android":"levelo://app?vid=fc2186a3-9143-4ddc-a7af-47ab8ad9a861","ios":"levelo://app?vid=fc2186a3-9143-4ddc-a7af-47ab8ad9a861"},"vehicle_type_id":"4","last_reported":1743023316,"current_range_meters":7200,"station_id":"ce4bgt92rcd13ifvqcg0","pricing_plan_id":"cebpf4jnsgd1na2vs0mg"},{"bike_id":"067247e0-a27c-4e52-9052-c6b9eea5c7f4","system_id":"levelo_inurba_marseille","lat":43.3141,"lon":5.37449,"is_reserved":false,"is_disabled":false,"rental_uris":{"android":"levelo://app?vid=067247e0-a27c-4e52-9052-c6b9eea5c7f4","ios":"levelo://app?vid=067247e0-a27c-4e52-9052-c6b9eea5c7f4"},"vehicle_type_id":"4","last_reported":1743023316,"current_range_meters":7200,"station_id":"","pricing_plan_id":"cebpf4jnsgd1na2vs0mg"},{"bike_id":"3789873a-1dd9-4f31-847a-52f0d7019a2f","system_id":"levelo_inurba_marseille","lat":43.23969,"lon":5.36622,"is_reserved":false,"is_disabled":false,"rental_uris":{"android":"levelo://app?vid=3789873a-1dd9-4f31-847a-52f0d7019a2f","ios":"levelo://app?vid=3789873a-1dd9-4f31-847a-52f0d7019a2f"},"vehicle_type_id":"4","last_reported":1743023316,"current_range_meters":7200,"station_id":"ce4bhi12rcd13ifvqfp0","pricing_plan_id":"cebpf4jnsgd1na2vs0mg"},{"bike_id":"308ec19f-b75d-4169-9e70-bb5e6ffe4a06","system_id":"levelo_inurba_marseille","lat":43.284958,"lon":5.395095,"is_reserved":false,"is_disabled":false,"rental_uris":{"android":"levelo://app?vid=308ec19f-b75d-4169-9e70-bb5e6ffe4a06","ios":"levelo://app?vid=308ec19f-b75d-4169-9e70-bb5e6ffe4a06"},"vehicle_type_id":"4","last_reported":1743023316,"current_range_meters":7200,"station_id":"","pricing_plan_id":"cebpf4jnsgd1na2vs0mg"},{"bike_id":"316628de-9261-4f78-bc0d-0476a50caf90","system_id":"levelo_inurba_marseille","lat":43.2988,"lon":5.43655,"is_reserved":false,"is_disabled":false,"rental_uris":{"android":"levelo://app?vid=316628de-9261-4f78-bc0d-0476a50caf90","ios":"levelo://app?vid=316628de-9261-4f78-bc0d-0476a50caf90"},"vehicle_type_id":"4","last_reported":1743023316,"current_range_meters":7200,"station_id":"ce4bhpp2rcd13ifvqhfg","pricing_plan_id":"cebpf4jnsgd1na2vs0mg"},{"bike_id":"a1dcf5bc-54fc-45f7-9928-5cf9485d7c58","system_id":"levelo_inurba_marseille","lat":43.23183,"lon":5.39989,"is_reserved":false,"is_disabled":false,"rental_uris":{"android":"levelo://app?vid=a1dcf5bc-54fc-45f7-9928-5cf9485d7c58","ios":"levelo://app?vid=a1dcf5bc-54fc-45f7-9928-5cf9485d7c58"},"vehicle_type_id":"4","last_reported":1743023316,"current_range_meters":7200,"station_id":"ce4bhn12rcd13ifvqgqg","pricing_plan_id":"cebpf4jnsgd1na2vs0mg"},{"bike_id":"5a9cff9c-79aa-481b-8c43-53af72a779bb","system_id":"levelo_inurba_marseille","lat":43.293134,"lon":5.372386,"is_reserved":false,"is_disabled":false,"rental_uris":{"android":"levelo://app?vid=5a9cff9c-79aa-481b-8c43-53af72a779bb","ios":"levelo://app?vid=5a9cff9c-79aa-481b-8c43-53af72a779bb"},"vehicle_type_id":"4","last_reported":1743023316,"current_range_meters":7200,"station_id":"","pricing_plan_id":"cebpf4jnsgd1na2vs0mg"},{"bike_id":"ecfbe1b6-91a4-4967-b2f4-1915901f3187","system_id":"levelo_inurba_marseille","lat":43.317526,"lon":5.390169,"is_reserved":false,"is_disabled":false,"rental_uris":{"android":"levelo://app?vid=ecfbe1b6-91a4-4967-b2f4-1915901f3187","ios":"levelo://app?vid=ecfbe1b6-91a4-4967-b2f4-1915901f3187"},"vehicle_type_id":"4","last_reported":1743023316,"current_range_meters":8000,"station_id":"ce4bhqp2rcd13ifvqhng","pricing_plan_id":"cebpf4jnsgd1na2vs0mg"},{"bike_id":"ac227b8d-11e6-4a65-9136-f9cbd67e61e3","system_id":"levelo_inurba_marseille","lat":43.31075,"lon":5.38344,"is_reserved":false,"is_disabled":false,"rental_uris":{"android":"levelo://app?vid=ac227b8d-11e6-4a65-9136-f9cbd67e61e3","ios":"levelo://app?vid=ac227b8d-11e6-4a65-9136-f9cbd67e61e3"},"vehicle_type_id":"4","last_reported":1743023316,"current_range_meters":8000,"station_id":"ce4bgv92rcd13ifvqcr0","pricing_plan_id":"cebpf4jnsgd1na2vs0mg"},{"bike_id":"109e3d7b-f6b1-421e-a566-77c35e038808","system_id":"levelo_inurba_marseille","lat":43.29025,"lon":5.38128,"is_reserved":false,"is_disabled":false,"rental_uris":{"android":"levelo://app?vid=109e3d7b-f6b1-421e-a566-77c35e038808","ios":"levelo://app?vid=109e3d7b-f6b1-421e-a566-77c35e038808"},"vehicle_type_id":"4","last_reported":1743023316,"current_range_meters":8000,"station_id":"ce4bh4p2rcd13ifvqe1g","pricing_plan_id":"cebpf4jnsgd1na2vs0mg"},{"bike_id":"4d6d8a3e-5cdb-4d7b-bbad-abcfee7897a7","system_id":"levelo_inurba_marseille","lat":43.28035,"lon":5.36959,"is_reserved":false,"is_disabled":false,"rental_uris":{"android":"levelo://app?vid=4d6d8a3e-5cdb-4d7b-bbad-abcfee7897a7","ios":"levelo://app?vid=4d6d8a3e-5cdb-4d7b-bbad-abcfee7897a7"},"vehicle_type_id":"4","last_reported":1743023316,"current_range_meters":8000,"station_id":"ce4bha12rcd13ifvqef0","pricing_plan_id":"cebpf4jnsgd1na2vs0mg"},{"bike_id":"2802fb79-e68b-490c-8865-7c0bb63047db","system_id":"levelo_inurba_marseille","lat":43.29784,"lon":5.37094,"is_reserved":false,"is_disabled":false,"rental_uris":{"android":"levelo://app?vid=2802fb79-e68b-490c-8865-7c0bb63047db","ios":"levelo://app?vid=2802fb79-e68b-490c-8865-7c0bb63047db"},"vehicle_type_id":"4","last_reported":1743023316,"current_range_meters":8000,"station_id":"ce4bgop2rcd13ifvqc1g","pricing_plan_id":"cebpf4jnsgd1na2vs0mg"},{"bike_id":"2b7cb951-03a2-4661-9ae4-4caf1591ddb1","system_id":"levelo_inurba_marseille","lat":43.26209,"lon":5.40473,"is_reserved":false,"is_disabled":false,"rental_uris":{"android":"levelo://app?vid=2b7cb951-03a2-4661-9ae4-4caf1591ddb1","ios":"levelo://app?vid=2b7cb951-03a2-4661-9ae4-4caf1591ddb1"},"vehicle_type_id":"4","last_reported":1743023316,"current_range_meters":8000,"station_id":"ce4bhmh2rcd13ifvqgmg","pricing_plan_id":"cebpf4jnsgd1na2vs0mg"},{"bike_id":"ee28380f-2566-499f-8ab8-5a75cb1ed72f","system_id":"levelo_inurba_marseille","lat":43.288329,"lon":5.393258,"is_reserved":false,"is_disabled":true,"rental_uris":{"android":"levelo://app?vid=ee28380f-2566-499f-8ab8-5a75cb1ed72f","ios":"levelo://app?vid=ee28380f-2566-499f-8ab8-5a75cb1ed72f"},"vehicle_type_id":"4","last_reported":1743023316,"current_range_meters":8000,"station_id":"","pricing_plan_id":"cebpf4jnsgd1na2vs0mg"},{"bike_id":"494edb5c-8886-472a-b4b2-0033adc0ccbd","system_id":"levelo_inurba_marseille","lat":43.2319,"lon":5.39986,"is_reserved":false,"is_disabled":false,"rental_uris":{"android":"levelo://app?vid=494edb5c-8886-472a-b4b2-0033adc0ccbd","ios":"levelo://app?vid=494edb5c-8886-472a-b4b2-0033adc0ccbd"},"vehicle_type_id":"4","last_reported":1743023316,"current_range_meters":8000,"station_id":"ce4bhn12rcd13ifvqgqg","pricing_plan_id":"cebpf4jnsgd1na2vs0mg"},{"bike_id":"92ebc5a6-0d9f-45da-9a83-4dce7e1f76a7","system_id":"levelo_inurba_marseille","lat":43.31159,"lon":5.38723,"is_reserved":false,"is_disabled":false,"rental_uris":{"android":"levelo://app?vid=92ebc5a6-0d9f-45da-9a83-4dce7e1f76a7","ios":"levelo://app?vid=92ebc5a6-0d9f-45da-9a83-4dce7e1f76a7"},"vehicle_type_id":"4","last_reported":1743023316,"current_range_meters":8000,"station_id":"ce4bgv12rcd13ifvqcp0","pricing_plan_id":"cebpf4jnsgd1na2vs0mg"},{"bike_id":"40b425b9-9762-4ba6-8fe1-adf62e3496a6","system_id":"levelo_inurba_marseille","lat":43.28349,"lon":5.38109,"is_reserved":false,"is_disabled":false,"rental_uris":{"android":"levelo://app?vid=40b425b9-9762-4ba6-8fe1-adf62e3496a6","ios":"levelo://app?vid=40b425b9-9762-4ba6-8fe1-adf62e3496a6"},"vehicle_type_id":"4","last_reported":1743023316,"current_range_meters":8000,"station_id":"ce4bh412rcd13ifvqdr0","pricing_plan_id":"cebpf4jnsgd1na2vs0mg"},{"bike_id":"41e5f267-ce12-4d49-85f8-a37604430f8e","system_id":"levelo_inurba_marseille","lat":43.22945,"lon":5.3537,"is_reserved":false,"is_disabled":false,"rental_uris":{"android":"levelo://app?vid=41e5f267-ce12-4d49-85f8-a37604430f8e","ios":"levelo://app?vid=41e5f267-ce12-4d49-85f8-a37604430f8e"},"vehicle_type_id":"4","last_reported":1743023316,"current_range_meters":8000,"station_id":"cpo3532slgdg3j2ikp40","pricing_plan_id":"cebpf4jnsgd1na2vs0mg"},{"bike_id":"8654e62d-5293-468f-801d-5e2a7e4cf0b3","system_id":"levelo_inurba_marseille","lat":43.2942,"lon":5.38606,"is_reserved":false,"is_disabled":false,"rental_uris":{"android":"levelo://app?vid=8654e62d-5293-468f-801d-5e2a7e4cf0b3","ios":"levelo://app?vid=8654e62d-5293-468f-801d-5e2a7e4cf0b3"},"vehicle_type_id":"4","last_reported":1743023316,"current_range_meters":8000,"station_id":"ce4bh2h2rcd13ifvqdh0","pricing_plan_id":"cebpf4jnsgd1na2vs0mg"},{"bike_id":"42b0ca94-a44e-49c3-85f7-0688df7be4e4","system_id":"levelo_inurba_marseille","lat":43.31759,"lon":5.39007,"is_reserved":false,"is_disabled":false,"rental_uris":{"android":"levelo://app?vid=42b0ca94-a44e-49c3-85f7-0688df7be4e4","ios":"levelo://app?vid=42b0ca94-a44e-49c3-85f7-0688df7be4e4"},"vehicle_type_id":"4","last_reported":1743023316,"current_range_meters":8400,"station_id":"ce4bhqp2rcd13ifvqhng","pricing_plan_id":"cebpf4jnsgd1na2vs0mg"},{"bike_id":"5ed64443-9999-44c5-a7e4-014dfcbf1e02","system_id":"levelo_inurba_marseille","lat":43.2998,"lon":5.37177,"is_reserved":false,"is_disabled":false,"rental_uris":{"android":"levelo://app?vid=5ed64443-9999-44c5-a7e4-014dfcbf1e02","ios":"levelo://app?vid=5ed64443-9999-44c5-a7e4-014dfcbf1e02"},"vehicle_type_id":"4","last_reported":1743023316,"current_range_meters":8000,"station_id":"ce4bgr92rcd13ifvqc7g","pricing_plan_id":"cebpf4jnsgd1na2vs0mg"},{"bike_id":"d1b78244-7c14-4371-936a-eaa5efe7b84d","system_id":"levelo_inurba_marseille","lat":43.24808,"lon":5.37456,"is_reserved":false,"is_disabled":false,"rental_uris":{"android":"levelo://app?vid=d1b78244-7c14-4371-936a-eaa5efe7b84d","ios":"levelo://app?vid=d1b78244-7c14-4371-936a-eaa5efe7b84d"},"vehicle_type_id":"4","last_reported":1743023316,"current_range_meters":8400,"station_id":"ce4bhgh2rcd13ifvqfb0","pricing_plan_id":"cebpf4jnsgd1na2vs0mg"},{"bike_id":"f331f4a0-921f-47e2-bc64-3b6ed88b17e3","system_id":"levelo_inurba_marseille","lat":43.27169,"lon":5.4099,"is_reserved":false,"is_disabled":false,"rental_uris":{"android":"levelo://app?vid=f331f4a0-921f-47e2-bc64-3b6ed88b17e3","ios":"levelo://app?vid=f331f4a0-921f-47e2-bc64-3b6ed88b17e3"},"vehicle_type_id":"4","last_reported":1743023316,"current_range_meters":8400,"station_id":"ce4bhl12rcd13ifvqgf0","pricing_plan_id":"cebpf4jnsgd1na2vs0mg"},{"bike_id":"45473374-eabb-4db3-bd6c-f156d2935509","system_id":"levelo_inurba_marseille","lat":43.26818,"lon":5.40256,"is_reserved":false,"is_disabled":false,"rental_uris":{"android":"levelo://app?vid=45473374-eabb-4db3-bd6c-f156d2935509","ios":"levelo://app?vid=45473374-eabb-4db3-bd6c-f156d2935509"},"vehicle_type_id":"4","last_reported":1743023316,"current_range_meters":8400,"station_id":"ce501612rcd8frsf0b60","pricing_plan_id":"cebpf4jnsgd1na2vs0mg"},{"bike_id":"94506505-2fcc-41e6-9625-b8826d1b4d3e","system_id":"levelo_inurba_marseille","lat":43.27826,"lon":5.40673,"is_reserved":false,"is_disabled":false,"rental_uris":{"android":"levelo://app?vid=94506505-2fcc-41e6-9625-b8826d1b4d3e","ios":"levelo://app?vid=94506505-2fcc-41e6-9625-b8826d1b4d3e"},"vehicle_type_id":"4","last_reported":1743023316,"current_range_meters":8400,"station_id":"ce4bhnh2rcd13ifvqgtg","pricing_plan_id":"cebpf4jnsgd1na2vs0mg"},{"bike_id":"8a9602e7-e6f2-4dac-845f-cea224e49dd5","system_id":"levelo_inurba_marseille","lat":43.23064,"lon":5.3548,"is_reserved":false,"is_disabled":false,"rental_uris":{"android":"levelo://app?vid=8a9602e7-e6f2-4dac-845f-cea224e49dd5","ios":"levelo://app?vid=8a9602e7-e6f2-4dac-845f-cea224e49dd5"},"vehicle_type_id":"4","last_reported":1743023316,"current_range_meters":8400,"station_id":"cpo3342slgdg3j2ifvpg","pricing_plan_id":"cebpf4jnsgd1na2vs0mg"},{"bike_id":"ae64d049-3c54-4b63-a552-b1e07d06f548","system_id":"levelo_inurba_marseille","lat":43.29116,"lon":5.38121,"is_reserved":false,"is_disabled":true,"rental_uris":{"android":"levelo://app?vid=ae64d049-3c54-4b63-a552-b1e07d06f548","ios":"levelo://app?vid=ae64d049-3c54-4b63-a552-b1e07d06f548"},"vehicle_type_id":"4","last_reported":1743023316,"current_range_meters":8400,"station_id":"ce4bho12rcd13ifvqh1g","pricing_plan_id":"cebpf4jnsgd1na2vs0mg"},{"bike_id":"cbb04385-b733-4245-8069-e7d5530c1471","system_id":"levelo_inurba_marseille","lat":43.31105,"lon":5.37751,"is_reserved":false,"is_disabled":false,"rental_uris":{"android":"levelo://app?vid=cbb04385-b733-4245-8069-e7d5530c1471","ios":"levelo://app?vid=cbb04385-b733-4245-8069-e7d5530c1471"},"vehicle_type_id":"4","last_reported":1743023316,"current_range_meters":8400,"station_id":"ce4bgt92rcd13ifvqcg0","pricing_plan_id":"cebpf4jnsgd1na2vs0mg"},{"bike_id":"cf5aaf9d-591c-401b-8554-050db64bf1b7","system_id":"levelo_inurba_marseille","lat":43.29261,"lon":5.38444,"is_reserved":false,"is_disabled":false,"rental_uris":{"android":"levelo://app?vid=cf5aaf9d-591c-401b-8554-050db64bf1b7","ios":"levelo://app?vid=cf5aaf9d-591c-401b-8554-050db64bf1b7"},"vehicle_type_id":"4","last_reported":1743023316,"current_range_meters":8400,"station_id":"ce4bh692rcd13ifvqea0","pricing_plan_id":"cebpf4jnsgd1na2vs0mg"},{"bike_id":"0f85157f-e95f-45a9-8425-0b390b17aacf","system_id":"levelo_inurba_marseille","lat":43.298914,"lon":5.39681,"is_reserved":false,"is_disabled":false,"rental_uris":{"android":"levelo://app?vid=0f85157f-e95f-45a9-8425-0b390b17aacf","ios":"levelo://app?vid=0f85157f-e95f-45a9-8425-0b390b17aacf"},"vehicle_type_id":"4","last_reported":1743023316,"current_range_meters":10000,"station_id":"ce4bhb12rcd13ifvqel0","pricing_plan_id":"cebpf4jnsgd1na2vs0mg"},{"bike_id":"a01a2189-8b32-4968-87fa-f3888542280a","system_id":"levelo_inurba_marseille","lat":43.28686,"lon":5.37411,"is_reserved":false,"is_disabled":false,"rental_uris":{"android":"levelo://app?vid=a01a2189-8b32-4968-87fa-f3888542280a","ios":"levelo://app?vid=a01a2189-8b32-4968-87fa-f3888542280a"},"vehicle_type_id":"4","last_reported":1743023316,"current_range_meters":8800,"station_id":"ce4bh3p2rcd13ifvqdq0","pricing_plan_id":"cebpf4jnsgd1na2vs0mg"},{"bike_id":"40c6a433-8b8f-4963-93f1-4b8322344100","system_id":"levelo_inurba_marseille","lat":43.28421,"lon":5.34998,"is_reserved":false,"is_disabled":false,"rental_uris":{"android":"levelo://app?vid=40c6a433-8b8f-4963-93f1-4b8322344100","ios":"levelo://app?vid=40c6a433-8b8f-4963-93f1-4b8322344100"},"vehicle_type_id":"4","last_reported":1743023316,"current_range_meters":8800,"station_id":"ce4bhbh2rcd13ifvqepg","pricing_plan_id":"cebpf4jnsgd1na2vs0mg"},{"bike_id":"c80aa782-5a1c-49dc-82a9-5a6684179a01","system_id":"levelo_inurba_marseille","lat":43.28098,"lon":5.37863,"is_reserved":false,"is_disabled":false,"rental_uris":{"android":"levelo://app?vid=c80aa782-5a1c-49dc-82a9-5a6684179a01","ios":"levelo://app?vid=c80aa782-5a1c-49dc-82a9-5a6684179a01"},"vehicle_type_id":"4","last_reported":1743023316,"current_range_meters":8800,"station_id":"ce4bha12rcd13ifvqee0","pricing_plan_id":"cebpf4jnsgd1na2vs0mg"},{"bike_id":"da3d6c27-2c27-4041-b2d5-91965cb51916","system_id":"levelo_inurba_marseille","lat":43.26229,"lon":5.40453,"is_reserved":false,"is_disabled":false,"rental_uris":{"android":"levelo://app?vid=da3d6c27-2c27-4041-b2d5-91965cb51916","ios":"levelo://app?vid=da3d6c27-2c27-4041-b2d5-91965cb51916"},"vehicle_type_id":"4","last_reported":1743023316,"current_range_meters":8800,"station_id":"ce4bhmh2rcd13ifvqgmg","pricing_plan_id":"cebpf4jnsgd1na2vs0mg"},{"bike_id":"01cbffb0-3fb0-4769-96f8-4c2dd20b8277","system_id":"levelo_inurba_marseille","lat":43.285279,"lon":5.405696,"is_reserved":false,"is_disabled":false,"rental_uris":{"android":"levelo://app?vid=01cbffb0-3fb0-4769-96f8-4c2dd20b8277","ios":"levelo://app?vid=01cbffb0-3fb0-4769-96f8-4c2dd20b8277"},"vehicle_type_id":"4","last_reported":1743023316,"current_range_meters":8800,"station_id":"","pricing_plan_id":"cebpf4jnsgd1na2vs0mg"},{"bike_id":"974f5876-effd-44d0-911c-76ea7a107a8c","system_id":"levelo_inurba_marseille","lat":43.333582,"lon":5.359824,"is_reserved":false,"is_disabled":false,"rental_uris":{"android":"levelo://app?vid=974f5876-effd-44d0-911c-76ea7a107a8c","ios":"levelo://app?vid=974f5876-effd-44d0-911c-76ea7a107a8c"},"vehicle_type_id":"4","last_reported":1743023316,"current_range_meters":8800,"station_id":"","pricing_plan_id":"cebpf4jnsgd1na2vs0mg"},{"bike_id":"fa6aeafd-60f6-463d-a63b-28d62c1d9ce3","system_id":"levelo_inurba_marseille","lat":43.27822,"lon":5.40706,"is_reserved":false,"is_disabled":false,"rental_uris":{"android":"levelo://app?vid=fa6aeafd-60f6-463d-a63b-28d62c1d9ce3","ios":"levelo://app?vid=fa6aeafd-60f6-463d-a63b-28d62c1d9ce3"},"vehicle_type_id":"4","last_reported":1743023316,"current_range_meters":8800,"station_id":"ce4bhnh2rcd13ifvqgtg","pricing_plan_id":"cebpf4jnsgd1na2vs0mg"},{"bike_id":"b418d168-f2ad-4db0-9a6f-e88743ba94c8","system_id":"levelo_inurba_marseille","lat":43.29253,"lon":5.37628,"is_reserved":false,"is_disabled":true,"rental_uris":{"android":"levelo://app?vid=b418d168-f2ad-4db0-9a6f-e88743ba94c8","ios":"levelo://app?vid=b418d168-f2ad-4db0-9a6f-e88743ba94c8"},"vehicle_type_id":"4","last_reported":1743023316,"current_range_meters":9200,"station_id":"ce4bgi12rcd13ifvqb80","pricing_plan_id":"cebpf4jnsgd1na2vs0mg"},{"bike_id":"4c92415f-a819-4ef2-818f-79c984694101","system_id":"levelo_inurba_marseille","lat":43.2953,"lon":5.39033,"is_reserved":false,"is_disabled":false,"rental_uris":{"android":"levelo://app?vid=4c92415f-a819-4ef2-818f-79c984694101","ios":"levelo://app?vid=4c92415f-a819-4ef2-818f-79c984694101"},"vehicle_type_id":"4","last_reported":1743023316,"current_range_meters":9200,"station_id":"ce4bh3p2rcd13ifvqdp0","pricing_plan_id":"cebpf4jnsgd1na2vs0mg"},{"bike_id":"ad3a09d6-8194-4bae-a5b1-51b443e279f8","system_id":"levelo_inurba_marseille","lat":43.22924,"lon":5.35375,"is_reserved":false,"is_disabled":false,"rental_uris":{"android":"levelo://app?vid=ad3a09d6-8194-4bae-a5b1-51b443e279f8","ios":"levelo://app?vid=ad3a09d6-8194-4bae-a5b1-51b443e279f8"},"vehicle_type_id":"4","last_reported":1743023316,"current_range_meters":9200,"station_id":"cpo3532slgdg3j2ikp40","pricing_plan_id":"cebpf4jnsgd1na2vs0mg"},{"bike_id":"84a7a785-5392-42bc-8088-fb903bcc7f5c","system_id":"levelo_inurba_marseille","lat":43.23067,"lon":5.3549,"is_reserved":false,"is_disabled":false,"rental_uris":{"android":"levelo://app?vid=84a7a785-5392-42bc-8088-fb903bcc7f5c","ios":"levelo://app?vid=84a7a785-5392-42bc-8088-fb903bcc7f5c"},"vehicle_type_id":"4","last_reported":1743023316,"current_range_meters":9200,"station_id":"cpo3342slgdg3j2ifvpg","pricing_plan_id":"cebpf4jnsgd1na2vs0mg"},{"bike_id":"0a6002c5-2e94-419c-9846-07e4397e2530","system_id":"levelo_inurba_marseille","lat":43.2582,"lon":5.39427,"is_reserved":false,"is_disabled":false,"rental_uris":{"android":"levelo://app?vid=0a6002c5-2e94-419c-9846-07e4397e2530","ios":"levelo://app?vid=0a6002c5-2e94-419c-9846-07e4397e2530"},"vehicle_type_id":"4","last_reported":1743023316,"current_range_meters":9200,"station_id":"ce4bhip2rcd13ifvqft0","pricing_plan_id":"cebpf4jnsgd1na2vs0mg"},{"bike_id":"da155e19-5157-4f97-8747-0c15b0609608","system_id":"levelo_inurba_marseille","lat":43.25751,"lon":5.41115,"is_reserved":false,"is_disabled":false,"rental_uris":{"android":"levelo://app?vid=da155e19-5157-4f97-8747-0c15b0609608","ios":"levelo://app?vid=da155e19-5157-4f97-8747-0c15b0609608"},"vehicle_type_id":"4","last_reported":1743023316,"current_range_meters":9200,"station_id":"ce4bhkp2rcd13ifvqgd0","pricing_plan_id":"cebpf4jnsgd1na2vs0mg"},{"bike_id":"b81f0c9c-8bd4-47d6-9ef8-825a07a939c4","system_id":"levelo_inurba_marseille","lat":43.30539,"lon":5.3843,"is_reserved":false,"is_disabled":false,"rental_uris":{"android":"levelo://app?vid=b81f0c9c-8bd4-47d6-9ef8-825a07a939c4","ios":"levelo://app?vid=b81f0c9c-8bd4-47d6-9ef8-825a07a939c4"},"vehicle_type_id":"4","last_reported":1743023316,"current_range_meters":9200,"station_id":"ce4bgg92rcd13ifvqb30","pricing_plan_id":"cebpf4jnsgd1na2vs0mg"},{"bike_id":"3ebcb0b0-3bd6-455e-9b12-2091542e2b7d","system_id":"levelo_inurba_marseille","lat":43.3145,"lon":5.37376,"is_reserved":false,"is_disabled":false,"rental_uris":{"android":"levelo://app?vid=3ebcb0b0-3bd6-455e-9b12-2091542e2b7d","ios":"levelo://app?vid=3ebcb0b0-3bd6-455e-9b12-2091542e2b7d"},"vehicle_type_id":"4","last_reported":1743023316,"current_range_meters":9200,"station_id":"","pricing_plan_id":"cebpf4jnsgd1na2vs0mg"},{"bike_id":"311fba10-e1e7-45ea-a3dd-40d75763e573","system_id":"levelo_inurba_marseille","lat":43.29848,"lon":5.36283,"is_reserved":false,"is_disabled":false,"rental_uris":{"android":"levelo://app?vid=311fba10-e1e7-45ea-a3dd-40d75763e573","ios":"levelo://app?vid=311fba10-e1e7-45ea-a3dd-40d75763e573"},"vehicle_type_id":"4","last_reported":1743023316,"current_range_meters":9200,"station_id":"ce4bgpp2rcd13ifvqc3g","pricing_plan_id":"cebpf4jnsgd1na2vs0mg"},{"bike_id":"5f18c038-0d3d-41e5-b03a-cf1226490d1b","system_id":"levelo_inurba_marseille","lat":43.29435,"lon":5.38602,"is_reserved":false,"is_disabled":false,"rental_uris":{"android":"levelo://app?vid=5f18c038-0d3d-41e5-b03a-cf1226490d1b","ios":"levelo://app?vid=5f18c038-0d3d-41e5-b03a-cf1226490d1b"},"vehicle_type_id":"4","last_reported":1743023316,"current_range_meters":9200,"station_id":"ce4bh2h2rcd13ifvqdh0","pricing_plan_id":"cebpf4jnsgd1na2vs0mg"},{"bike_id":"434c3a2c-ae70-4bc5-828d-d60fb5859f24","system_id":"levelo_inurba_marseille","lat":43.31072,"lon":5.38349,"is_reserved":false,"is_disabled":false,"rental_uris":{"android":"levelo://app?vid=434c3a2c-ae70-4bc5-828d-d60fb5859f24","ios":"levelo://app?vid=434c3a2c-ae70-4bc5-828d-d60fb5859f24"},"vehicle_type_id":"4","last_reported":1743023316,"current_range_meters":9200,"station_id":"ce4bgv92rcd13ifvqcr0","pricing_plan_id":"cebpf4jnsgd1na2vs0mg"},{"bike_id":"c6760871-6fc1-4414-8469-9dedd0326558","system_id":"levelo_inurba_marseille","lat":43.28933,"lon":5.36393,"is_reserved":false,"is_disabled":false,"rental_uris":{"android":"levelo://app?vid=c6760871-6fc1-4414-8469-9dedd0326558","ios":"levelo://app?vid=c6760871-6fc1-4414-8469-9dedd0326558"},"vehicle_type_id":"4","last_reported":1743023316,"current_range_meters":9600,"station_id":"ce4bhc92rcd13ifvqetg","pricing_plan_id":"cebpf4jnsgd1na2vs0mg"},{"bike_id":"75d929dd-8790-4bc4-8f76-cddf94e4ef97","system_id":"levelo_inurba_marseille","lat":43.29273,"lon":5.38428,"is_reserved":false,"is_disabled":false,"rental_uris":{"android":"levelo://app?vid=75d929dd-8790-4bc4-8f76-cddf94e4ef97","ios":"levelo://app?vid=75d929dd-8790-4bc4-8f76-cddf94e4ef97"},"vehicle_type_id":"4","last_reported":1743023316,"current_range_meters":9600,"station_id":"ce4bh692rcd13ifvqea0","pricing_plan_id":"cebpf4jnsgd1na2vs0mg"},{"bike_id":"dd6c817f-9dd1-461c-8966-5dc19d9e6d2c","system_id":"levelo_inurba_marseille","lat":43.29415,"lon":5.38602,"is_reserved":false,"is_disabled":false,"rental_uris":{"android":"levelo://app?vid=dd6c817f-9dd1-461c-8966-5dc19d9e6d2c","ios":"levelo://app?vid=dd6c817f-9dd1-461c-8966-5dc19d9e6d2c"},"vehicle_type_id":"4","last_reported":1743023316,"current_range_meters":9600,"station_id":"ce4bh2h2rcd13ifvqdh0","pricing_plan_id":"cebpf4jnsgd1na2vs0mg"},{"bike_id":"7ecdf1eb-1860-4582-8c16-fac7ab531f07","system_id":"levelo_inurba_marseille","lat":43.31333,"lon":5.39689,"is_reserved":false,"is_disabled":false,"rental_uris":{"android":"levelo://app?vid=7ecdf1eb-1860-4582-8c16-fac7ab531f07","ios":"levelo://app?vid=7ecdf1eb-1860-4582-8c16-fac7ab531f07"},"vehicle_type_id":"4","last_reported":1743023316,"current_range_meters":9600,"station_id":"ce4bgvp2rcd13ifvqcu0","pricing_plan_id":"cebpf4jnsgd1na2vs0mg"},{"bike_id":"d45a2f6c-957b-46cd-bd89-ee8e58d1536e","system_id":"levelo_inurba_marseille","lat":43.277283,"lon":5.407873,"is_reserved":false,"is_disabled":false,"rental_uris":{"android":"levelo://app?vid=d45a2f6c-957b-46cd-bd89-ee8e58d1536e","ios":"levelo://app?vid=d45a2f6c-957b-46cd-bd89-ee8e58d1536e"},"vehicle_type_id":"4","last_reported":1743023316,"current_range_meters":9600,"station_id":"","pricing_plan_id":"cebpf4jnsgd1na2vs0mg"},{"bike_id":"887a7784-c70b-46f8-9882-d03745b5c9eb","system_id":"levelo_inurba_marseille","lat":43.31096,"lon":5.37757,"is_reserved":false,"is_disabled":false,"rental_uris":{"android":"levelo://app?vid=887a7784-c70b-46f8-9882-d03745b5c9eb","ios":"levelo://app?vid=887a7784-c70b-46f8-9882-d03745b5c9eb"},"vehicle_type_id":"4","last_reported":1743023316,"current_range_meters":9600,"station_id":"ce4bgt92rcd13ifvqcg0","pricing_plan_id":"cebpf4jnsgd1na2vs0mg"},{"bike_id":"9d7bd3fa-8fcd-4c46-9a22-ce42c25ce62b","system_id":"levelo_inurba_marseille","lat":43.278158,"lon":5.404976,"is_reserved":false,"is_disabled":false,"rental_uris":{"android":"levelo://app?vid=9d7bd3fa-8fcd-4c46-9a22-ce42c25ce62b","ios":"levelo://app?vid=9d7bd3fa-8fcd-4c46-9a22-ce42c25ce62b"},"vehicle_type_id":"4","last_reported":1743023316,"current_range_meters":9600,"station_id":"ce4bhdp2rcd13ifvqf20","pricing_plan_id":"cebpf4jnsgd1na2vs0mg"},{"bike_id":"91676e70-27fa-44e5-87c4-1051cdb96837","system_id":"levelo_inurba_marseille","lat":43.29789,"lon":5.37094,"is_reserved":false,"is_disabled":false,"rental_uris":{"android":"levelo://app?vid=91676e70-27fa-44e5-87c4-1051cdb96837","ios":"levelo://app?vid=91676e70-27fa-44e5-87c4-1051cdb96837"},"vehicle_type_id":"4","last_reported":1743023316,"current_range_meters":9600,"station_id":"ce4bgop2rcd13ifvqc1g","pricing_plan_id":"cebpf4jnsgd1na2vs0mg"},{"bike_id":"6493a410-ba38-4b48-997d-2b0a0413cba6","system_id":"levelo_inurba_marseille","lat":43.3088,"lon":5.39643,"is_reserved":false,"is_disabled":false,"rental_uris":{"android":"levelo://app?vid=6493a410-ba38-4b48-997d-2b0a0413cba6","ios":"levelo://app?vid=6493a410-ba38-4b48-997d-2b0a0413cba6"},"vehicle_type_id":"4","last_reported":1743023316,"current_range_meters":9600,"station_id":"ce4bh012rcd13ifvqcv0","pricing_plan_id":"cebpf4jnsgd1na2vs0mg"},{"bike_id":"89c13152-f3e7-4c55-95f7-7d2066cc605b","system_id":"levelo_inurba_marseille","lat":43.2953,"lon":5.39032,"is_reserved":false,"is_disabled":false,"rental_uris":{"android":"levelo://app?vid=89c13152-f3e7-4c55-95f7-7d2066cc605b","ios":"levelo://app?vid=89c13152-f3e7-4c55-95f7-7d2066cc605b"},"vehicle_type_id":"4","last_reported":1743023316,"current_range_meters":9600,"station_id":"ce4bh3p2rcd13ifvqdp0","pricing_plan_id":"cebpf4jnsgd1na2vs0mg"},{"bike_id":"ccdfac36-22da-4f2d-bd50-7bf147cc0fff","system_id":"levelo_inurba_marseille","lat":43.29941,"lon":5.43671,"is_reserved":false,"is_disabled":false,"rental_uris":{"android":"levelo://app?vid=ccdfac36-22da-4f2d-bd50-7bf147cc0fff","ios":"levelo://app?vid=ccdfac36-22da-4f2d-bd50-7bf147cc0fff"},"vehicle_type_id":"4","last_reported":1743023316,"current_range_meters":10000,"station_id":"ce4bhpp2rcd13ifvqhfg","pricing_plan_id":"cebpf4jnsgd1na2vs0mg"},{"bike_id":"67d3c8c2-e873-44b6-a622-5f7452e3a364","system_id":"levelo_inurba_marseille","lat":43.27808,"lon":5.40725,"is_reserved":false,"is_disabled":false,"rental_uris":{"android":"levelo://app?vid=67d3c8c2-e873-44b6-a622-5f7452e3a364","ios":"levelo://app?vid=67d3c8c2-e873-44b6-a622-5f7452e3a364"},"vehicle_type_id":"4","last_reported":1743023316,"current_range_meters":10000,"station_id":"ce4bhnh2rcd13ifvqgtg","pricing_plan_id":"cebpf4jnsgd1na2vs0mg"},{"bike_id":"fc239ae3-8909-4224-b205-b6e4298f0342","system_id":"levelo_inurba_marseille","lat":43.29508,"lon":5.39039,"is_reserved":false,"is_disabled":false,"rental_uris":{"android":"levelo://app?vid=fc239ae3-8909-4224-b205-b6e4298f0342","ios":"levelo://app?vid=fc239ae3-8909-4224-b205-b6e4298f0342"},"vehicle_type_id":"4","last_reported":1743023316,"current_range_meters":10000,"station_id":"ce4bh3p2rcd13ifvqdp0","pricing_plan_id":"cebpf4jnsgd1na2vs0mg"},{"bike_id":"26c95be6-8955-419b-b506-8f03b71ec17d","system_id":"levelo_inurba_marseille","lat":43.32656,"lon":5.40995,"is_reserved":false,"is_disabled":false,"rental_uris":{"android":"levelo://app?vid=26c95be6-8955-419b-b506-8f03b71ec17d","ios":"levelo://app?vid=26c95be6-8955-419b-b506-8f03b71ec17d"},"vehicle_type_id":"4","last_reported":1743023316,"current_range_meters":10000,"station_id":"ce4bhpp2rcd13ifvqhgg","pricing_plan_id":"cebpf4jnsgd1na2vs0mg"},{"bike_id":"818cfe2a-3205-453a-a960-4ebf1f298656","system_id":"levelo_inurba_marseille","lat":43.266876,"lon":5.382761,"is_reserved":false,"is_disabled":true,"rental_uris":{"android":"levelo://app?vid=818cfe2a-3205-453a-a960-4ebf1f298656","ios":"levelo://app?vid=818cfe2a-3205-453a-a960-4ebf1f298656"},"vehicle_type_id":"4","last_reported":1743023316,"current_range_meters":10000,"station_id":"ce4bhg92rcd13ifvqf90","pricing_plan_id":"cebpf4jnsgd1na2vs0mg"},{"bike_id":"8776e27b-0f90-41ea-ba59-3697a608b87b","system_id":"levelo_inurba_marseille","lat":43.29258,"lon":5.38423,"is_reserved":false,"is_disabled":false,"rental_uris":{"android":"levelo://app?vid=8776e27b-0f90-41ea-ba59-3697a608b87b","ios":"levelo://app?vid=8776e27b-0f90-41ea-ba59-3697a608b87b"},"vehicle_type_id":"4","last_reported":1743023316,"current_range_meters":10000,"station_id":"ce4bh692rcd13ifvqea0","pricing_plan_id":"cebpf4jnsgd1na2vs0mg"},{"bike_id":"b7653ff3-439b-431f-9d82-dd9ddf498da0","system_id":"levelo_inurba_marseille","lat":43.292603,"lon":5.384385,"is_reserved":false,"is_disabled":false,"rental_uris":{"android":"levelo://app?vid=b7653ff3-439b-431f-9d82-dd9ddf498da0","ios":"levelo://app?vid=b7653ff3-439b-431f-9d82-dd9ddf498da0"},"vehicle_type_id":"4","last_reported":1743023316,"current_range_meters":10000,"station_id":"ce4bhb12rcd13ifvqel0","pricing_plan_id":"cebpf4jnsgd1na2vs0mg"},{"bike_id":"a5aabdda-40ff-4af8-acd3-0e6fc8d67cdd","system_id":"levelo_inurba_marseille","lat":43.30428,"lon":5.3975,"is_reserved":false,"is_disabled":false,"rental_uris":{"android":"levelo://app?vid=a5aabdda-40ff-4af8-acd3-0e6fc8d67cdd","ios":"levelo://app?vid=a5aabdda-40ff-4af8-acd3-0e6fc8d67cdd"},"vehicle_type_id":"4","last_reported":1743023316,"current_range_meters":9600,"station_id":"ce4bh092rcd13ifvqd20","pricing_plan_id":"cebpf4jnsgd1na2vs0mg"},{"bike_id":"1f832459-222b-42fa-b88e-b9eccf46e63a","system_id":"levelo_inurba_marseille","lat":43.2886,"lon":5.35839,"is_reserved":false,"is_disabled":false,"rental_uris":{"android":"levelo://app?vid=1f832459-222b-42fa-b88e-b9eccf46e63a","ios":"levelo://app?vid=1f832459-222b-42fa-b88e-b9eccf46e63a"},"vehicle_type_id":"4","last_reported":1743023316,"current_range_meters":10000,"station_id":"ce4bhb12rcd13ifvqem0","pricing_plan_id":"cebpf4jnsgd1na2vs0mg"},{"bike_id":"c3b6c1e8-a21b-4d69-a1ed-838ebbe0e13a","system_id":"levelo_inurba_marseille","lat":43.27838,"lon":5.39204,"is_reserved":false,"is_disabled":false,"rental_uris":{"android":"levelo://app?vid=c3b6c1e8-a21b-4d69-a1ed-838ebbe0e13a","ios":"levelo://app?vid=c3b6c1e8-a21b-4d69-a1ed-838ebbe0e13a"},"vehicle_type_id":"4","last_reported":1743023316,"current_range_meters":10000,"station_id":"ce4bhjp2rcd13ifvqga0","pricing_plan_id":"cebpf4jnsgd1na2vs0mg"},{"bike_id":"f408b4d4-0f69-4a55-bf3a-3c3c8e1647f7","system_id":"levelo_inurba_marseille","lat":43.23179,"lon":5.3999,"is_reserved":false,"is_disabled":false,"rental_uris":{"android":"levelo://app?vid=f408b4d4-0f69-4a55-bf3a-3c3c8e1647f7","ios":"levelo://app?vid=f408b4d4-0f69-4a55-bf3a-3c3c8e1647f7"},"vehicle_type_id":"4","last_reported":1743023316,"current_range_meters":10000,"station_id":"ce4bhn12rcd13ifvqgqg","pricing_plan_id":"cebpf4jnsgd1na2vs0mg"},{"bike_id":"147f9420-3123-4079-a76e-cc1846f1244a","system_id":"levelo_inurba_marseille","lat":43.29003,"lon":5.38641,"is_reserved":false,"is_disabled":false,"rental_uris":{"android":"levelo://app?vid=147f9420-3123-4079-a76e-cc1846f1244a","ios":"levelo://app?vid=147f9420-3123-4079-a76e-cc1846f1244a"},"vehicle_type_id":"4","last_reported":1743023316,"current_range_meters":10800,"station_id":"ce4bh4p2rcd13ifvqe0g","pricing_plan_id":"cebpf4jnsgd1na2vs0mg"},{"bike_id":"2c6aa1f7-992e-4bc4-9dcd-22bf5a4fc44e","system_id":"levelo_inurba_marseille","lat":43.28264,"lon":5.35062,"is_reserved":false,"is_disabled":false,"rental_uris":{"android":"levelo://app?vid=2c6aa1f7-992e-4bc4-9dcd-22bf5a4fc44e","ios":"levelo://app?vid=2c6aa1f7-992e-4bc4-9dcd-22bf5a4fc44e"},"vehicle_type_id":"4","last_reported":1743023316,"current_range_meters":10800,"station_id":"ce4bhbp2rcd13ifvqerg","pricing_plan_id":"cebpf4jnsgd1na2vs0mg"},{"bike_id":"92740cd8-0c17-439b-aa2a-7afa649be02d","system_id":"levelo_inurba_marseille","lat":43.29514,"lon":5.39047,"is_reserved":false,"is_disabled":false,"rental_uris":{"android":"levelo://app?vid=92740cd8-0c17-439b-aa2a-7afa649be02d","ios":"levelo://app?vid=92740cd8-0c17-439b-aa2a-7afa649be02d"},"vehicle_type_id":"4","last_reported":1743023316,"current_range_meters":10800,"station_id":"ce4bh3p2rcd13ifvqdp0","pricing_plan_id":"cebpf4jnsgd1na2vs0mg"},{"bike_id":"585c19d1-9fab-41e3-a4b5-c312cbd30ffe","system_id":"levelo_inurba_marseille","lat":43.28013,"lon":5.39984,"is_reserved":false,"is_disabled":false,"rental_uris":{"android":"levelo://app?vid=585c19d1-9fab-41e3-a4b5-c312cbd30ffe","ios":"levelo://app?vid=585c19d1-9fab-41e3-a4b5-c312cbd30ffe"},"vehicle_type_id":"4","last_reported":1743023316,"current_range_meters":10800,"station_id":"ce4bho92rcd13ifvqh4g","pricing_plan_id":"cebpf4jnsgd1na2vs0mg"},{"bike_id":"85d0fa0c-b5b9-41cd-ba43-951901672dab","system_id":"levelo_inurba_marseille","lat":43.25602,"lon":5.3894,"is_reserved":false,"is_disabled":false,"rental_uris":{"android":"levelo://app?vid=85d0fa0c-b5b9-41cd-ba43-951901672dab","ios":"levelo://app?vid=85d0fa0c-b5b9-41cd-ba43-951901672dab"},"vehicle_type_id":"4","last_reported":1743023316,"current_range_meters":10800,"station_id":"","pricing_plan_id":"cebpf4jnsgd1na2vs0mg"},{"bike_id":"da02046a-e8be-4732-a814-bea47c0457a4","system_id":"levelo_inurba_marseille","lat":43.31085,"lon":5.38322,"is_reserved":false,"is_disabled":true,"rental_uris":{"android":"levelo://app?vid=da02046a-e8be-4732-a814-bea47c0457a4","ios":"levelo://app?vid=da02046a-e8be-4732-a814-bea47c0457a4"},"vehicle_type_id":"4","last_reported":1743023316,"current_range_meters":10800,"station_id":"ce4bgv92rcd13ifvqcr0","pricing_plan_id":"cebpf4jnsgd1na2vs0mg"},{"bike_id":"6ab6b099-574d-454a-84a7-96bb5f8025c5","system_id":"levelo_inurba_marseille","lat":43.31174,"lon":5.3873,"is_reserved":false,"is_disabled":false,"rental_uris":{"android":"levelo://app?vid=6ab6b099-574d-454a-84a7-96bb5f8025c5","ios":"levelo://app?vid=6ab6b099-574d-454a-84a7-96bb5f8025c5"},"vehicle_type_id":"4","last_reported":1743023316,"current_range_meters":11200,"station_id":"ce4bgv12rcd13ifvqcp0","pricing_plan_id":"cebpf4jnsgd1na2vs0mg"},{"bike_id":"00ccdc21-1544-425b-979c-c904f6636454","system_id":"levelo_inurba_marseille","lat":43.30539,"lon":5.38426,"is_reserved":false,"is_disabled":true,"rental_uris":{"android":"levelo://app?vid=00ccdc21-1544-425b-979c-c904f6636454","ios":"levelo://app?vid=00ccdc21-1544-425b-979c-c904f6636454"},"vehicle_type_id":"4","last_reported":1743023316,"current_range_meters":11200,"station_id":"ce4bgg92rcd13ifvqb30","pricing_plan_id":"cebpf4jnsgd1na2vs0mg"},{"bike_id":"7a8ef002-9f94-4c12-b6e9-506d43e6eaa6","system_id":"levelo_inurba_marseille","lat":43.30297,"lon":5.39225,"is_reserved":false,"is_disabled":false,"rental_uris":{"android":"levelo://app?vid=7a8ef002-9f94-4c12-b6e9-506d43e6eaa6","ios":"levelo://app?vid=7a8ef002-9f94-4c12-b6e9-506d43e6eaa6"},"vehicle_type_id":"4","last_reported":1743023316,"current_range_meters":13600,"station_id":"ce4bgkh2rcd13ifvqbk0","pricing_plan_id":"cebpf4jnsgd1na2vs0mg"},{"bike_id":"59a81975-3ccd-45d3-b034-018afc9fe0c6","system_id":"levelo_inurba_marseille","lat":43.28003,"lon":5.40013,"is_reserved":false,"is_disabled":false,"rental_uris":{"android":"levelo://app?vid=59a81975-3ccd-45d3-b034-018afc9fe0c6","ios":"levelo://app?vid=59a81975-3ccd-45d3-b034-018afc9fe0c6"},"vehicle_type_id":"4","last_reported":1743023316,"current_range_meters":11200,"station_id":"ce4bho92rcd13ifvqh4g","pricing_plan_id":"cebpf4jnsgd1na2vs0mg"},{"bike_id":"9530ac9e-bee9-47a6-8f85-c726f22780d7","system_id":"levelo_inurba_marseille","lat":43.29195,"lon":5.35801,"is_reserved":false,"is_disabled":false,"rental_uris":{"android":"levelo://app?vid=9530ac9e-bee9-47a6-8f85-c726f22780d7","ios":"levelo://app?vid=9530ac9e-bee9-47a6-8f85-c726f22780d7"},"vehicle_type_id":"4","last_reported":1743023316,"current_range_meters":11200,"station_id":"ce4bhb12rcd13ifvqel0","pricing_plan_id":"cebpf4jnsgd1na2vs0mg"},{"bike_id":"3b43577a-3fa9-4427-9a83-3d2fa4ff2763","system_id":"levelo_inurba_marseille","lat":43.25128,"lon":5.40307,"is_reserved":false,"is_disabled":false,"rental_uris":{"android":"levelo://app?vid=3b43577a-3fa9-4427-9a83-3d2fa4ff2763","ios":"levelo://app?vid=3b43577a-3fa9-4427-9a83-3d2fa4ff2763"},"vehicle_type_id":"4","last_reported":1743023316,"current_range_meters":16000,"station_id":"ce4bhlh2rcd13ifvqgig","pricing_plan_id":"cebpf4jnsgd1na2vs0mg"},{"bike_id":"b9ab712c-57dc-45bf-b4d6-b9ecdf6edd13","system_id":"levelo_inurba_marseille","lat":43.28919,"lon":5.38409,"is_reserved":false,"is_disabled":false,"rental_uris":{"android":"levelo://app?vid=b9ab712c-57dc-45bf-b4d6-b9ecdf6edd13","ios":"levelo://app?vid=b9ab712c-57dc-45bf-b4d6-b9ecdf6edd13"},"vehicle_type_id":"4","last_reported":1743023316,"current_range_meters":11200,"station_id":"ce4bh612rcd13ifvqe6g","pricing_plan_id":"cebpf4jnsgd1na2vs0mg"},{"bike_id":"f816eb6c-c7d4-4f1f-b3c1-9c4bc320a9e5","system_id":"levelo_inurba_marseille","lat":43.30131,"lon":5.39886,"is_reserved":false,"is_disabled":false,"rental_uris":{"android":"levelo://app?vid=f816eb6c-c7d4-4f1f-b3c1-9c4bc320a9e5","ios":"levelo://app?vid=f816eb6c-c7d4-4f1f-b3c1-9c4bc320a9e5"},"vehicle_type_id":"4","last_reported":1743023316,"current_range_meters":11200,"station_id":"ce4bh0h2rcd13ifvqd40","pricing_plan_id":"cebpf4jnsgd1na2vs0mg"},{"bike_id":"2f69c259-678f-4dc6-9847-fd43204ee42a","system_id":"levelo_inurba_marseille","lat":43.25082,"lon":5.39504,"is_reserved":false,"is_disabled":false,"rental_uris":{"android":"levelo://app?vid=2f69c259-678f-4dc6-9847-fd43204ee42a","ios":"levelo://app?vid=2f69c259-678f-4dc6-9847-fd43204ee42a"},"vehicle_type_id":"4","last_reported":1743023316,"current_range_meters":11200,"station_id":"ce4bhm12rcd13ifvqgkg","pricing_plan_id":"cebpf4jnsgd1na2vs0mg"},{"bike_id":"200c13c5-14ab-4741-8f8c-8cd0b9254a69","system_id":"levelo_inurba_marseille","lat":43.29594,"lon":5.38108,"is_reserved":false,"is_disabled":false,"rental_uris":{"android":"levelo://app?vid=200c13c5-14ab-4741-8f8c-8cd0b9254a69","ios":"levelo://app?vid=200c13c5-14ab-4741-8f8c-8cd0b9254a69"},"vehicle_type_id":"4","last_reported":1743023316,"current_range_meters":11600,"station_id":"ce4bgl12rcd13ifvqbo0","pricing_plan_id":"cebpf4jnsgd1na2vs0mg"},{"bike_id":"0efa9a85-a950-471a-88a8-073f5726d25d","system_id":"levelo_inurba_marseille","lat":43.29293,"lon":5.38411,"is_reserved":false,"is_disabled":true,"rental_uris":{"android":"levelo://app?vid=0efa9a85-a950-471a-88a8-073f5726d25d","ios":"levelo://app?vid=0efa9a85-a950-471a-88a8-073f5726d25d"},"vehicle_type_id":"4","last_reported":1743023316,"current_range_meters":11600,"station_id":"ce4bh692rcd13ifvqea0","pricing_plan_id":"cebpf4jnsgd1na2vs0mg"},{"bike_id":"72ff2873-eb3d-4526-97dc-a6ed38586447","system_id":"levelo_inurba_marseille","lat":43.2781,"lon":5.4072,"is_reserved":false,"is_disabled":false,"rental_uris":{"android":"levelo://app?vid=72ff2873-eb3d-4526-97dc-a6ed38586447","ios":"levelo://app?vid=72ff2873-eb3d-4526-97dc-a6ed38586447"},"vehicle_type_id":"4","last_reported":1743023316,"current_range_meters":11600,"station_id":"ce4bhnh2rcd13ifvqgtg","pricing_plan_id":"cebpf4jnsgd1na2vs0mg"},{"bike_id":"36fba024-c9eb-4ff6-a35c-b55c3c0dda63","system_id":"levelo_inurba_marseille","lat":43.24669,"lon":5.38155,"is_reserved":false,"is_disabled":false,"rental_uris":{"android":"levelo://app?vid=36fba024-c9eb-4ff6-a35c-b55c3c0dda63","ios":"levelo://app?vid=36fba024-c9eb-4ff6-a35c-b55c3c0dda63"},"vehicle_type_id":"4","last_reported":1743023316,"current_range_meters":11600,"station_id":"ce4bhih2rcd13ifvqfr0","pricing_plan_id":"cebpf4jnsgd1na2vs0mg"},{"bike_id":"46bc7627-5963-437b-83ed-b3f9497370e8","system_id":"levelo_inurba_marseille","lat":43.29918,"lon":5.43633,"is_reserved":false,"is_disabled":false,"rental_uris":{"android":"levelo://app?vid=46bc7627-5963-437b-83ed-b3f9497370e8","ios":"levelo://app?vid=46bc7627-5963-437b-83ed-b3f9497370e8"},"vehicle_type_id":"4","last_reported":1743023316,"current_range_meters":11600,"station_id":"ce4bhpp2rcd13ifvqhfg","pricing_plan_id":"cebpf4jnsgd1na2vs0mg"},{"bike_id":"3b2e9843-b1c3-484f-9767-13bc20f0e0c2","system_id":"levelo_inurba_marseille","lat":43.29422,"lon":5.38617,"is_reserved":false,"is_disabled":false,"rental_uris":{"android":"levelo://app?vid=3b2e9843-b1c3-484f-9767-13bc20f0e0c2","ios":"levelo://app?vid=3b2e9843-b1c3-484f-9767-13bc20f0e0c2"},"vehicle_type_id":"4","last_reported":1743023316,"current_range_meters":11600,"station_id":"ce4bh2h2rcd13ifvqdh0","pricing_plan_id":"cebpf4jnsgd1na2vs0mg"},{"bike_id":"000afce6-6f60-4b8a-a87b-213d6105417e","system_id":"levelo_inurba_marseille","lat":43.26197,"lon":5.37926,"is_reserved":false,"is_disabled":false,"rental_uris":{"android":"levelo://app?vid=000afce6-6f60-4b8a-a87b-213d6105417e","ios":"levelo://app?vid=000afce6-6f60-4b8a-a87b-213d6105417e"},"vehicle_type_id":"4","last_reported":1743023316,"current_range_meters":11600,"station_id":"ce4bhjp2rcd13ifvqg90","pricing_plan_id":"cebpf4jnsgd1na2vs0mg"},{"bike_id":"902a94fd-86c8-4780-b037-eb5f5ebaefab","system_id":"levelo_inurba_marseille","lat":43.24074,"lon":5.3776,"is_reserved":false,"is_disabled":false,"rental_uris":{"android":"levelo://app?vid=902a94fd-86c8-4780-b037-eb5f5ebaefab","ios":"levelo://app?vid=902a94fd-86c8-4780-b037-eb5f5ebaefab"},"vehicle_type_id":"4","last_reported":1743023316,"current_range_meters":11600,"station_id":"ce4bhnp2rcd13ifvqgvg","pricing_plan_id":"cebpf4jnsgd1na2vs0mg"},{"bike_id":"b30d442b-7284-44ac-87ce-821b5a0ec057","system_id":"levelo_inurba_marseille","lat":43.32099,"lon":5.37155,"is_reserved":false,"is_disabled":false,"rental_uris":{"android":"levelo://app?vid=b30d442b-7284-44ac-87ce-821b5a0ec057","ios":"levelo://app?vid=b30d442b-7284-44ac-87ce-821b5a0ec057"},"vehicle_type_id":"4","last_reported":1743023316,"current_range_meters":12800,"station_id":"","pricing_plan_id":"cebpf4jnsgd1na2vs0mg"},{"bike_id":"b2530e34-b2af-4104-b5ba-b9886aef0320","system_id":"levelo_inurba_marseille","lat":43.29806,"lon":5.38098,"is_reserved":false,"is_disabled":false,"rental_uris":{"android":"levelo://app?vid=b2530e34-b2af-4104-b5ba-b9886aef0320","ios":"levelo://app?vid=b2530e34-b2af-4104-b5ba-b9886aef0320"},"vehicle_type_id":"4","last_reported":1743023316,"current_range_meters":12000,"station_id":"ce4bgip2rcd13ifvqbb0","pricing_plan_id":"cebpf4jnsgd1na2vs0mg"},{"bike_id":"88d6965b-35b9-4a77-bbe7-48f3936aa54f","system_id":"levelo_inurba_marseille","lat":43.271762,"lon":5.409968,"is_reserved":false,"is_disabled":false,"rental_uris":{"android":"levelo://app?vid=88d6965b-35b9-4a77-bbe7-48f3936aa54f","ios":"levelo://app?vid=88d6965b-35b9-4a77-bbe7-48f3936aa54f"},"vehicle_type_id":"4","last_reported":1743023316,"current_range_meters":12000,"station_id":"ce4bhl12rcd13ifvqgf0","pricing_plan_id":"cebpf4jnsgd1na2vs0mg"},{"bike_id":"3ded1608-4f23-4370-bd0f-094558d46664","system_id":"levelo_inurba_marseille","lat":43.2815,"lon":5.42644,"is_reserved":false,"is_disabled":false,"rental_uris":{"android":"levelo://app?vid=3ded1608-4f23-4370-bd0f-094558d46664","ios":"levelo://app?vid=3ded1608-4f23-4370-bd0f-094558d46664"},"vehicle_type_id":"4","last_reported":1743023316,"current_range_meters":12000,"station_id":"ce4bhnh2rcd13ifvqgug","pricing_plan_id":"cebpf4jnsgd1na2vs0mg"},{"bike_id":"5858988e-240b-451f-a0a5-81697b8307fc","system_id":"levelo_inurba_marseille","lat":43.30464,"lon":5.38849,"is_reserved":false,"is_disabled":false,"rental_uris":{"android":"levelo://app?vid=5858988e-240b-451f-a0a5-81697b8307fc","ios":"levelo://app?vid=5858988e-240b-451f-a0a5-81697b8307fc"},"vehicle_type_id":"4","last_reported":1743023316,"current_range_meters":12000,"station_id":"","pricing_plan_id":"cebpf4jnsgd1na2vs0mg"},{"bike_id":"7a3dc8a9-b060-4ba6-9653-7b31fcad2624","system_id":"levelo_inurba_marseille","lat":43.29524,"lon":5.39403,"is_reserved":false,"is_disabled":false,"rental_uris":{"android":"levelo://app?vid=7a3dc8a9-b060-4ba6-9653-7b31fcad2624","ios":"levelo://app?vid=7a3dc8a9-b060-4ba6-9653-7b31fcad2624"},"vehicle_type_id":"4","last_reported":1743023316,"current_range_meters":12000,"station_id":"ce4bh292rcd13ifvqdf0","pricing_plan_id":"cebpf4jnsgd1na2vs0mg"},{"bike_id":"629dc58e-f1fa-4c78-b496-582f20ae1d69","system_id":"levelo_inurba_marseille","lat":43.23152,"lon":5.43722,"is_reserved":false,"is_disabled":false,"rental_uris":{"android":"levelo://app?vid=629dc58e-f1fa-4c78-b496-582f20ae1d69","ios":"levelo://app?vid=629dc58e-f1fa-4c78-b496-582f20ae1d69"},"vehicle_type_id":"4","last_reported":1743023316,"current_range_meters":12000,"station_id":"ce4bhmp2rcd13ifvqgog","pricing_plan_id":"cebpf4jnsgd1na2vs0mg"},{"bike_id":"eeaef509-680b-4e54-938b-2a07d9dee3b3","system_id":"levelo_inurba_marseille","lat":43.25821,"lon":5.39433,"is_reserved":false,"is_disabled":false,"rental_uris":{"android":"levelo://app?vid=eeaef509-680b-4e54-938b-2a07d9dee3b3","ios":"levelo://app?vid=eeaef509-680b-4e54-938b-2a07d9dee3b3"},"vehicle_type_id":"4","last_reported":1743023316,"current_range_meters":12400,"station_id":"ce4bhip2rcd13ifvqft0","pricing_plan_id":"cebpf4jnsgd1na2vs0mg"},{"bike_id":"6c86aa42-88fa-4e9f-b0db-ac020b5456ca","system_id":"levelo_inurba_marseille","lat":43.30324,"lon":5.40439,"is_reserved":false,"is_disabled":false,"rental_uris":{"android":"levelo://app?vid=6c86aa42-88fa-4e9f-b0db-ac020b5456ca","ios":"levelo://app?vid=6c86aa42-88fa-4e9f-b0db-ac020b5456ca"},"vehicle_type_id":"4","last_reported":1743023316,"current_range_meters":12400,"station_id":"ce4bh012rcd13ifvqd10","pricing_plan_id":"cebpf4jnsgd1na2vs0mg"},{"bike_id":"d47f8a08-fdba-472b-b4b8-90ef98ee48e2","system_id":"levelo_inurba_marseille","lat":43.30542,"lon":5.38424,"is_reserved":false,"is_disabled":false,"rental_uris":{"android":"levelo://app?vid=d47f8a08-fdba-472b-b4b8-90ef98ee48e2","ios":"levelo://app?vid=d47f8a08-fdba-472b-b4b8-90ef98ee48e2"},"vehicle_type_id":"4","last_reported":1743023316,"current_range_meters":12400,"station_id":"ce4bgg92rcd13ifvqb30","pricing_plan_id":"cebpf4jnsgd1na2vs0mg"},{"bike_id":"54e67b15-5609-498d-89ef-061094ddaf45","system_id":"levelo_inurba_marseille","lat":43.31168,"lon":5.38714,"is_reserved":false,"is_disabled":false,"rental_uris":{"android":"levelo://app?vid=54e67b15-5609-498d-89ef-061094ddaf45","ios":"levelo://app?vid=54e67b15-5609-498d-89ef-061094ddaf45"},"vehicle_type_id":"4","last_reported":1743023316,"current_range_meters":12400,"station_id":"ce4bgv12rcd13ifvqcp0","pricing_plan_id":"cebpf4jnsgd1na2vs0mg"},{"bike_id":"395c8128-6668-4fea-a2a8-183582182c86","system_id":"levelo_inurba_marseille","lat":43.24806,"lon":5.37456,"is_reserved":false,"is_disabled":false,"rental_uris":{"android":"levelo://app?vid=395c8128-6668-4fea-a2a8-183582182c86","ios":"levelo://app?vid=395c8128-6668-4fea-a2a8-183582182c86"},"vehicle_type_id":"4","last_reported":1743023316,"current_range_meters":12800,"station_id":"ce4bhgh2rcd13ifvqfb0","pricing_plan_id":"cebpf4jnsgd1na2vs0mg"},{"bike_id":"9be70733-6c6c-4c05-89e4-0e3b73501b2d","system_id":"levelo_inurba_marseille","lat":43.29419,"lon":5.38614,"is_reserved":false,"is_disabled":false,"rental_uris":{"android":"levelo://app?vid=9be70733-6c6c-4c05-89e4-0e3b73501b2d","ios":"levelo://app?vid=9be70733-6c6c-4c05-89e4-0e3b73501b2d"},"vehicle_type_id":"4","last_reported":1743023316,"current_range_meters":12800,"station_id":"ce4bh2h2rcd13ifvqdh0","pricing_plan_id":"cebpf4jnsgd1na2vs0mg"},{"bike_id":"5d97e6db-29aa-4dc3-a913-dd5ff76e3f8c","system_id":"levelo_inurba_marseille","lat":43.29418,"lon":5.3861,"is_reserved":false,"is_disabled":true,"rental_uris":{"android":"levelo://app?vid=5d97e6db-29aa-4dc3-a913-dd5ff76e3f8c","ios":"levelo://app?vid=5d97e6db-29aa-4dc3-a913-dd5ff76e3f8c"},"vehicle_type_id":"4","last_reported":1743023316,"current_range_meters":12800,"station_id":"ce4bh2h2rcd13ifvqdh0","pricing_plan_id":"cebpf4jnsgd1na2vs0mg"},{"bike_id":"ef5f0f72-4316-4466-9b19-098e7f1be63f","system_id":"levelo_inurba_marseille","lat":43.29313,"lon":5.37158,"is_reserved":false,"is_disabled":false,"rental_uris":{"android":"levelo://app?vid=ef5f0f72-4316-4466-9b19-098e7f1be63f","ios":"levelo://app?vid=ef5f0f72-4316-4466-9b19-098e7f1be63f"},"vehicle_type_id":"4","last_reported":1743023316,"current_range_meters":12400,"station_id":"ce4bgh92rcd13ifvqb40","pricing_plan_id":"cebpf4jnsgd1na2vs0mg"},{"bike_id":"19d74509-fefc-4037-b916-b59ac3ad8ab9","system_id":"levelo_inurba_marseille","lat":43.29225,"lon":5.38477,"is_reserved":false,"is_disabled":false,"rental_uris":{"android":"levelo://app?vid=19d74509-fefc-4037-b916-b59ac3ad8ab9","ios":"levelo://app?vid=19d74509-fefc-4037-b916-b59ac3ad8ab9"},"vehicle_type_id":"4","last_reported":1743023316,"current_range_meters":12800,"station_id":"","pricing_plan_id":"cebpf4jnsgd1na2vs0mg"},{"bike_id":"1b036368-9f49-48a1-b87f-7e268d514fd1","system_id":"levelo_inurba_marseille","lat":43.28936,"lon":5.36416,"is_reserved":false,"is_disabled":false,"rental_uris":{"android":"levelo://app?vid=1b036368-9f49-48a1-b87f-7e268d514fd1","ios":"levelo://app?vid=1b036368-9f49-48a1-b87f-7e268d514fd1"},"vehicle_type_id":"4","last_reported":1743023316,"current_range_meters":12800,"station_id":"ce4bhc92rcd13ifvqetg","pricing_plan_id":"cebpf4jnsgd1na2vs0mg"},{"bike_id":"13e2d809-5624-48b7-8b17-838850b10cb6","system_id":"levelo_inurba_marseille","lat":43.29799,"lon":5.38097,"is_reserved":false,"is_disabled":false,"rental_uris":{"android":"levelo://app?vid=13e2d809-5624-48b7-8b17-838850b10cb6","ios":"levelo://app?vid=13e2d809-5624-48b7-8b17-838850b10cb6"},"vehicle_type_id":"4","last_reported":1743023316,"current_range_meters":12800,"station_id":"ce4bgip2rcd13ifvqbb0","pricing_plan_id":"cebpf4jnsgd1na2vs0mg"},{"bike_id":"5ac220e2-a87f-4883-88d4-47a02a8d29ee","system_id":"levelo_inurba_marseille","lat":43.293118,"lon":5.374642,"is_reserved":false,"is_disabled":false,"rental_uris":{"android":"levelo://app?vid=5ac220e2-a87f-4883-88d4-47a02a8d29ee","ios":"levelo://app?vid=5ac220e2-a87f-4883-88d4-47a02a8d29ee"},"vehicle_type_id":"4","last_reported":1743023316,"current_range_meters":12800,"station_id":"ce4bhah2rcd13ifvqei0","pricing_plan_id":"cebpf4jnsgd1na2vs0mg"},{"bike_id":"25a61009-7751-4f54-b7fe-e66121469ece","system_id":"levelo_inurba_marseille","lat":43.29881,"lon":5.38911,"is_reserved":false,"is_disabled":false,"rental_uris":{"android":"levelo://app?vid=25a61009-7751-4f54-b7fe-e66121469ece","ios":"levelo://app?vid=25a61009-7751-4f54-b7fe-e66121469ece"},"vehicle_type_id":"4","last_reported":1743023316,"current_range_meters":12800,"station_id":"ce4bh392rcd13ifvqdl0","pricing_plan_id":"cebpf4jnsgd1na2vs0mg"},{"bike_id":"5ca9ac81-53c9-444a-ab66-71f3af25a779","system_id":"levelo_inurba_marseille","lat":43.28011,"lon":5.40017,"is_reserved":false,"is_disabled":false,"rental_uris":{"android":"levelo://app?vid=5ca9ac81-53c9-444a-ab66-71f3af25a779","ios":"levelo://app?vid=5ca9ac81-53c9-444a-ab66-71f3af25a779"},"vehicle_type_id":"4","last_reported":1743023316,"current_range_meters":12800,"station_id":"ce4bho92rcd13ifvqh4g","pricing_plan_id":"cebpf4jnsgd1na2vs0mg"},{"bike_id":"4e647ac6-5d0c-4c95-a71f-e7593d444b64","system_id":"levelo_inurba_marseille","lat":43.29539,"lon":5.38547,"is_reserved":false,"is_disabled":false,"rental_uris":{"android":"levelo://app?vid=4e647ac6-5d0c-4c95-a71f-e7593d444b64","ios":"levelo://app?vid=4e647ac6-5d0c-4c95-a71f-e7593d444b64"},"vehicle_type_id":"4","last_reported":1743023316,"current_range_meters":12800,"station_id":"ce4bgih2rcd13ifvqba0","pricing_plan_id":"cebpf4jnsgd1na2vs0mg"},{"bike_id":"5b967839-1673-4a83-ade3-c17b12309c64","system_id":"levelo_inurba_marseille","lat":43.29879,"lon":5.39746,"is_reserved":false,"is_disabled":false,"rental_uris":{"android":"levelo://app?vid=5b967839-1673-4a83-ade3-c17b12309c64","ios":"levelo://app?vid=5b967839-1673-4a83-ade3-c17b12309c64"},"vehicle_type_id":"4","last_reported":1743023316,"current_range_meters":13600,"station_id":"ce4bh0h2rcd13ifvqd50","pricing_plan_id":"cebpf4jnsgd1na2vs0mg"},{"bike_id":"b2025eeb-74fc-4b2c-8553-c00866040663","system_id":"levelo_inurba_marseille","lat":43.32486,"lon":5.36549,"is_reserved":false,"is_disabled":false,"rental_uris":{"android":"levelo://app?vid=b2025eeb-74fc-4b2c-8553-c00866040663","ios":"levelo://app?vid=b2025eeb-74fc-4b2c-8553-c00866040663"},"vehicle_type_id":"4","last_reported":1743023316,"current_range_meters":13600,"station_id":"ce4bhs12rcd13ifvqhvg","pricing_plan_id":"cebpf4jnsgd1na2vs0mg"},{"bike_id":"8da98eea-4477-4187-85d6-5ffce1ff1848","system_id":"levelo_inurba_marseille","lat":43.28468,"lon":5.3588,"is_reserved":false,"is_disabled":false,"rental_uris":{"android":"levelo://app?vid=8da98eea-4477-4187-85d6-5ffce1ff1848","ios":"levelo://app?vid=8da98eea-4477-4187-85d6-5ffce1ff1848"},"vehicle_type_id":"4","last_reported":1743023316,"current_range_meters":13600,"station_id":"ce4bhah2rcd13ifvqei0","pricing_plan_id":"cebpf4jnsgd1na2vs0mg"},{"bike_id":"a72ddd6c-98c0-46ce-a18d-5861fba07292","system_id":"levelo_inurba_marseille","lat":43.28022,"lon":5.36951,"is_reserved":false,"is_disabled":false,"rental_uris":{"android":"levelo://app?vid=a72ddd6c-98c0-46ce-a18d-5861fba07292","ios":"levelo://app?vid=a72ddd6c-98c0-46ce-a18d-5861fba07292"},"vehicle_type_id":"4","last_reported":1743023316,"current_range_meters":13600,"station_id":"ce4bha12rcd13ifvqef0","pricing_plan_id":"cebpf4jnsgd1na2vs0mg"},{"bike_id":"75c7187b-7cb5-4136-b180-795a32bcbe1d","system_id":"levelo_inurba_marseille","lat":43.27974,"lon":5.38589,"is_reserved":false,"is_disabled":true,"rental_uris":{"android":"levelo://app?vid=75c7187b-7cb5-4136-b180-795a32bcbe1d","ios":"levelo://app?vid=75c7187b-7cb5-4136-b180-795a32bcbe1d"},"vehicle_type_id":"4","last_reported":1743023316,"current_range_meters":13600,"station_id":"","pricing_plan_id":"cebpf4jnsgd1na2vs0mg"},{"bike_id":"0ac88cdf-dd3a-494f-aaa5-2b24d1ce393f","system_id":"levelo_inurba_marseille","lat":43.2319,"lon":5.35551,"is_reserved":false,"is_disabled":false,"rental_uris":{"android":"levelo://app?vid=0ac88cdf-dd3a-494f-aaa5-2b24d1ce393f","ios":"levelo://app?vid=0ac88cdf-dd3a-494f-aaa5-2b24d1ce393f"},"vehicle_type_id":"4","last_reported":1743023316,"current_range_meters":13600,"station_id":"ce4bhu92rcd13ifvqi70","pricing_plan_id":"cebpf4jnsgd1na2vs0mg"},{"bike_id":"c18155db-65c7-4d5a-8c5b-923eb75c675d","system_id":"levelo_inurba_marseille","lat":43.32118,"lon":5.36737,"is_reserved":false,"is_disabled":false,"rental_uris":{"android":"levelo://app?vid=c18155db-65c7-4d5a-8c5b-923eb75c675d","ios":"levelo://app?vid=c18155db-65c7-4d5a-8c5b-923eb75c675d"},"vehicle_type_id":"4","last_reported":1743023316,"current_range_meters":13600,"station_id":"ce4bhrh2rcd13ifvqhug","pricing_plan_id":"cebpf4jnsgd1na2vs0mg"},{"bike_id":"2c84af95-0236-4466-97eb-28fd7ee66649","system_id":"levelo_inurba_marseille","lat":43.30433,"lon":5.38893,"is_reserved":false,"is_disabled":false,"rental_uris":{"android":"levelo://app?vid=2c84af95-0236-4466-97eb-28fd7ee66649","ios":"levelo://app?vid=2c84af95-0236-4466-97eb-28fd7ee66649"},"vehicle_type_id":"4","last_reported":1743023316,"current_range_meters":13600,"station_id":"ce4bgk12rcd13ifvqbi0","pricing_plan_id":"cebpf4jnsgd1na2vs0mg"},{"bike_id":"8ace7717-c45a-48f1-9668-531396bc867c","system_id":"levelo_inurba_marseille","lat":43.27815,"lon":5.40722,"is_reserved":false,"is_disabled":false,"rental_uris":{"android":"levelo://app?vid=8ace7717-c45a-48f1-9668-531396bc867c","ios":"levelo://app?vid=8ace7717-c45a-48f1-9668-531396bc867c"},"vehicle_type_id":"4","last_reported":1743023316,"current_range_meters":13600,"station_id":"ce4bhnh2rcd13ifvqgtg","pricing_plan_id":"cebpf4jnsgd1na2vs0mg"},{"bike_id":"03fcd15e-64d1-4236-82cf-6968047d6073","system_id":"levelo_inurba_marseille","lat":43.30795,"lon":5.3816,"is_reserved":false,"is_disabled":false,"rental_uris":{"android":"levelo://app?vid=03fcd15e-64d1-4236-82cf-6968047d6073","ios":"levelo://app?vid=03fcd15e-64d1-4236-82cf-6968047d6073"},"vehicle_type_id":"4","last_reported":1743023316,"current_range_meters":14000,"station_id":"ce4bgt12rcd13ifvqce0","pricing_plan_id":"cebpf4jnsgd1na2vs0mg"},{"bike_id":"47a390b1-97d0-4459-9348-533507a01aef","system_id":"levelo_inurba_marseille","lat":43.29529,"lon":5.38532,"is_reserved":false,"is_disabled":false,"rental_uris":{"android":"levelo://app?vid=47a390b1-97d0-4459-9348-533507a01aef","ios":"levelo://app?vid=47a390b1-97d0-4459-9348-533507a01aef"},"vehicle_type_id":"4","last_reported":1743023316,"current_range_meters":14000,"station_id":"ce4bgih2rcd13ifvqba0","pricing_plan_id":"cebpf4jnsgd1na2vs0mg"},{"bike_id":"6e208957-05d3-430b-8247-5e3338f51f57","system_id":"levelo_inurba_marseille","lat":43.29907,"lon":5.38133,"is_reserved":false,"is_disabled":true,"rental_uris":{"android":"levelo://app?vid=6e208957-05d3-430b-8247-5e3338f51f57","ios":"levelo://app?vid=6e208957-05d3-430b-8247-5e3338f51f57"},"vehicle_type_id":"4","last_reported":1743023316,"current_range_meters":14000,"station_id":"ce4bgj12rcd13ifvqbc0","pricing_plan_id":"cebpf4jnsgd1na2vs0mg"},{"bike_id":"ae1cb044-1267-46d3-955d-17f27576ac8f","system_id":"levelo_inurba_marseille","lat":43.287,"lon":5.37409,"is_reserved":false,"is_disabled":false,"rental_uris":{"android":"levelo://app?vid=ae1cb044-1267-46d3-955d-17f27576ac8f","ios":"levelo://app?vid=ae1cb044-1267-46d3-955d-17f27576ac8f"},"vehicle_type_id":"4","last_reported":1743023316,"current_range_meters":14000,"station_id":"ce4bh3p2rcd13ifvqdq0","pricing_plan_id":"cebpf4jnsgd1na2vs0mg"},{"bike_id":"1fa51364-a360-4e18-aec2-dcda6305dee4","system_id":"levelo_inurba_marseille","lat":43.29626,"lon":5.40592,"is_reserved":false,"is_disabled":false,"rental_uris":{"android":"levelo://app?vid=1fa51364-a360-4e18-aec2-dcda6305dee4","ios":"levelo://app?vid=1fa51364-a360-4e18-aec2-dcda6305dee4"},"vehicle_type_id":"4","last_reported":1743023316,"current_range_meters":14000,"station_id":"ce4bh0h2rcd13ifvqd60","pricing_plan_id":"cebpf4jnsgd1na2vs0mg"},{"bike_id":"66e58a5f-3028-4234-b1e9-9dba949dad9d","system_id":"levelo_inurba_marseille","lat":43.31169,"lon":5.38727,"is_reserved":false,"is_disabled":false,"rental_uris":{"android":"levelo://app?vid=66e58a5f-3028-4234-b1e9-9dba949dad9d","ios":"levelo://app?vid=66e58a5f-3028-4234-b1e9-9dba949dad9d"},"vehicle_type_id":"4","last_reported":1743023316,"current_range_meters":14000,"station_id":"ce4bgv12rcd13ifvqcp0","pricing_plan_id":"cebpf4jnsgd1na2vs0mg"},{"bike_id":"7a2424ec-cc90-49b7-af08-b008e7091504","system_id":"levelo_inurba_marseille","lat":43.30786,"lon":5.38183,"is_reserved":false,"is_disabled":false,"rental_uris":{"android":"levelo://app?vid=7a2424ec-cc90-49b7-af08-b008e7091504","ios":"levelo://app?vid=7a2424ec-cc90-49b7-af08-b008e7091504"},"vehicle_type_id":"4","last_reported":1743023316,"current_range_meters":14000,"station_id":"ce4bgt12rcd13ifvqce0","pricing_plan_id":"cebpf4jnsgd1na2vs0mg"},{"bike_id":"24360c01-9d6b-43f7-a3ae-0bc2a86ec47d","system_id":"levelo_inurba_marseille","lat":43.28103,"lon":5.37836,"is_reserved":false,"is_disabled":false,"rental_uris":{"android":"levelo://app?vid=24360c01-9d6b-43f7-a3ae-0bc2a86ec47d","ios":"levelo://app?vid=24360c01-9d6b-43f7-a3ae-0bc2a86ec47d"},"vehicle_type_id":"4","last_reported":1743023316,"current_range_meters":14000,"station_id":"ce4bha12rcd13ifvqee0","pricing_plan_id":"cebpf4jnsgd1na2vs0mg"},{"bike_id":"6273781a-9e7d-4bde-99c1-2a57016fe590","system_id":"levelo_inurba_marseille","lat":43.27448,"lon":5.39397,"is_reserved":false,"is_disabled":false,"rental_uris":{"android":"levelo://app?vid=6273781a-9e7d-4bde-99c1-2a57016fe590","ios":"levelo://app?vid=6273781a-9e7d-4bde-99c1-2a57016fe590"},"vehicle_type_id":"4","last_reported":1743023316,"current_range_meters":14000,"station_id":"ce4bhdp2rcd13ifvqf20","pricing_plan_id":"cebpf4jnsgd1na2vs0mg"},{"bike_id":"181b29e9-16fe-4559-9b24-eb1130bfc90a","system_id":"levelo_inurba_marseille","lat":43.28349,"lon":5.38112,"is_reserved":false,"is_disabled":false,"rental_uris":{"android":"levelo://app?vid=181b29e9-16fe-4559-9b24-eb1130bfc90a","ios":"levelo://app?vid=181b29e9-16fe-4559-9b24-eb1130bfc90a"},"vehicle_type_id":"4","last_reported":1743023316,"current_range_meters":14000,"station_id":"ce4bh412rcd13ifvqdr0","pricing_plan_id":"cebpf4jnsgd1na2vs0mg"},{"bike_id":"cf1856d8-4801-45b2-b638-82b9d2c16d54","system_id":"levelo_inurba_marseille","lat":43.29261,"lon":5.38428,"is_reserved":false,"is_disabled":false,"rental_uris":{"android":"levelo://app?vid=cf1856d8-4801-45b2-b638-82b9d2c16d54","ios":"levelo://app?vid=cf1856d8-4801-45b2-b638-82b9d2c16d54"},"vehicle_type_id":"4","last_reported":1743023316,"current_range_meters":14400,"station_id":"ce4bh692rcd13ifvqea0","pricing_plan_id":"cebpf4jnsgd1na2vs0mg"},{"bike_id":"44b3becc-57ea-43ab-89af-8793996f6db6","system_id":"levelo_inurba_marseille","lat":43.29788,"lon":5.39355,"is_reserved":false,"is_disabled":false,"rental_uris":{"android":"levelo://app?vid=44b3becc-57ea-43ab-89af-8793996f6db6","ios":"levelo://app?vid=44b3becc-57ea-43ab-89af-8793996f6db6"},"vehicle_type_id":"4","last_reported":1743023316,"current_range_meters":14400,"station_id":"chh1huq6cuj3fo74tm60","pricing_plan_id":"cebpf4jnsgd1na2vs0mg"},{"bike_id":"2829c9f7-d2c6-4e4c-b9a0-e5436894795c","system_id":"levelo_inurba_marseille","lat":43.29113,"lon":5.38137,"is_reserved":false,"is_disabled":false,"rental_uris":{"android":"levelo://app?vid=2829c9f7-d2c6-4e4c-b9a0-e5436894795c","ios":"levelo://app?vid=2829c9f7-d2c6-4e4c-b9a0-e5436894795c"},"vehicle_type_id":"4","last_reported":1743023316,"current_range_meters":14400,"station_id":"ce4bh512rcd13ifvqe2g","pricing_plan_id":"cebpf4jnsgd1na2vs0mg"},{"bike_id":"379879bf-1f7f-45f5-9cac-b09d574b3620","system_id":"levelo_inurba_marseille","lat":43.27824,"lon":5.407,"is_reserved":false,"is_disabled":false,"rental_uris":{"android":"levelo://app?vid=379879bf-1f7f-45f5-9cac-b09d574b3620","ios":"levelo://app?vid=379879bf-1f7f-45f5-9cac-b09d574b3620"},"vehicle_type_id":"4","last_reported":1743023316,"current_range_meters":14400,"station_id":"ce4bhnh2rcd13ifvqgtg","pricing_plan_id":"cebpf4jnsgd1na2vs0mg"},{"bike_id":"08199114-4c6b-485b-9f93-c9c4a3c339d9","system_id":"levelo_inurba_marseille","lat":43.29191,"lon":5.39322,"is_reserved":false,"is_disabled":false,"rental_uris":{"android":"levelo://app?vid=08199114-4c6b-485b-9f93-c9c4a3c339d9","ios":"levelo://app?vid=08199114-4c6b-485b-9f93-c9c4a3c339d9"},"vehicle_type_id":"4","last_reported":1743023316,"current_range_meters":14400,"station_id":"ce4bh192rcd13ifvqdd0","pricing_plan_id":"cebpf4jnsgd1na2vs0mg"},{"bike_id":"3849f874-d81d-4137-bbdc-cf24f463c5fb","system_id":"levelo_inurba_marseille","lat":43.298108,"lon":5.370793,"is_reserved":false,"is_disabled":false,"rental_uris":{"android":"levelo://app?vid=3849f874-d81d-4137-bbdc-cf24f463c5fb","ios":"levelo://app?vid=3849f874-d81d-4137-bbdc-cf24f463c5fb"},"vehicle_type_id":"4","last_reported":1743023316,"current_range_meters":14000,"station_id":"ce4bgop2rcd13ifvqc1g","pricing_plan_id":"cebpf4jnsgd1na2vs0mg"},{"bike_id":"d96846ae-c6f1-45aa-b54f-d0cedf540f6b","system_id":"levelo_inurba_marseille","lat":43.29442,"lon":5.39746,"is_reserved":false,"is_disabled":false,"rental_uris":{"android":"levelo://app?vid=d96846ae-c6f1-45aa-b54f-d0cedf540f6b","ios":"levelo://app?vid=d96846ae-c6f1-45aa-b54f-d0cedf540f6b"},"vehicle_type_id":"4","last_reported":1743023316,"current_range_meters":14400,"station_id":"ce4bh3h2rcd13ifvqdo0","pricing_plan_id":"cebpf4jnsgd1na2vs0mg"},{"bike_id":"fc8e8371-f4e9-4721-bc19-563801e389dc","system_id":"levelo_inurba_marseille","lat":43.337444,"lon":5.374475,"is_reserved":false,"is_disabled":false,"rental_uris":{"android":"levelo://app?vid=fc8e8371-f4e9-4721-bc19-563801e389dc","ios":"levelo://app?vid=fc8e8371-f4e9-4721-bc19-563801e389dc"},"vehicle_type_id":"4","last_reported":1743023316,"current_range_meters":14400,"station_id":"","pricing_plan_id":"cebpf4jnsgd1na2vs0mg"},{"bike_id":"f0138334-0089-42ca-90c5-f097cd231bd4","system_id":"levelo_inurba_marseille","lat":43.30421,"lon":5.3976,"is_reserved":false,"is_disabled":false,"rental_uris":{"android":"levelo://app?vid=f0138334-0089-42ca-90c5-f097cd231bd4","ios":"levelo://app?vid=f0138334-0089-42ca-90c5-f097cd231bd4"},"vehicle_type_id":"4","last_reported":1743023316,"current_range_meters":14800,"station_id":"ce4bh092rcd13ifvqd20","pricing_plan_id":"cebpf4jnsgd1na2vs0mg"},{"bike_id":"2781c129-d484-4907-82f7-b56cf5040d65","system_id":"levelo_inurba_marseille","lat":43.295288,"lon":5.390324,"is_reserved":false,"is_disabled":false,"rental_uris":{"android":"levelo://app?vid=2781c129-d484-4907-82f7-b56cf5040d65","ios":"levelo://app?vid=2781c129-d484-4907-82f7-b56cf5040d65"},"vehicle_type_id":"4","last_reported":1743023316,"current_range_meters":14800,"station_id":"ce4bh112rcd13ifvqda0","pricing_plan_id":"cebpf4jnsgd1na2vs0mg"},{"bike_id":"25c93242-72e6-4525-aea7-7d96e2cd1825","system_id":"levelo_inurba_marseille","lat":43.33067,"lon":5.40824,"is_reserved":false,"is_disabled":false,"rental_uris":{"android":"levelo://app?vid=25c93242-72e6-4525-aea7-7d96e2cd1825","ios":"levelo://app?vid=25c93242-72e6-4525-aea7-7d96e2cd1825"},"vehicle_type_id":"4","last_reported":1743023316,"current_range_meters":14800,"station_id":"","pricing_plan_id":"cebpf4jnsgd1na2vs0mg"},