{"last_updated":1741004285,"ttl":60,"version":"2.2","data":{"bikes":[{"bike_id":"d1c67288-fe7d-4f05-abb7-0e6d15dba76c","system_id":"levelo_inurba_marseille","lat":43.29678,"lon":5.36694,"is_reserved":false,"is_disabled":false,"rental_uris":{"android":"levelo://app?vid=d1c67288-fe7d-4f05-abb7-0e6d15dba76c","ios":"levelo://app?vid=d1c67288-fe7d-4f05-abb7-0e6d15dba76c"},"vehicle_type_id":"4","last_reported":1741004286,"current_range_meters":3200,"station_id":"ce4bgi12rcd13ifvqb70","pricing_plan_id":"cebpf4jnsgd1na2vs0mg"},{"bike_id":"0eec460e-110e-47db-bce5-8d76a8c4ac63","system_id":"levelo_inurba_marseille","lat":43.30639,"lon":5.40095,"is_reserved":false,"is_disabled":false,"rental_uris":{"android":"levelo://app?vid=0eec460e-110e-47db-bce5-8d76a8c4ac63","ios":"levelo://app?vid=0eec460e-110e-47db-bce5-8d76a8c4ac63"},"vehicle_type_id":"4","last_reported":1741004286,"current_range_meters":3600,"station_id":"ce4bh112rcd13ifvqda0","pricing_plan_id":"cebpf4jnsgd1na2vs0mg"},{"bike_id":"36b93179-a80d-4807-9c01-21ba9e721900","system_id":"levelo_inurba_marseille","lat":43.30954,"lon":5.39037,"is_reserved":false,"is_disabled":false,"rental_uris":{"android":"levelo://app?vid=36b93179-a80d-4807-9c01-21ba9e721900","ios":"levelo://app?vid=36b93179-a80d-4807-9c01-21ba9e721900"},"vehicle_type_id":"4","last_reported":1741004286,"current_range_meters":3600,"station_id":"ce4bgup2rcd13ifvqco0","pricing_plan_id":"cebpf4jnsgd1na2vs0mg"},{"bike_id":"fe2a57d1-8f14-4d92-90fc-50e4ac16c0d8","system_id":"levelo_inurba_marseille","lat":43.31287,"lon":5.40167,"is_reserved":false,"is_disabled":true,"rental_uris":{"android":"levelo://app?vid=fe2a57d1-8f14-4d92-90fc-50e4ac16c0d8","ios":"levelo://app?vid=fe2a57d1-8f14-4d92-90fc-50e4ac16c0d8"},"vehicle_type_id":"4","last_reported":1741004286,"current_range_meters":3600,"station_id":"ce4bh092rcd13ifvqd30","pricing_plan_id":"cebpf4jnsgd1na2vs0mg"},{"bike_id":"793cca73-1ae1-4978-8f21-b720a02e84d5","system_id":"levelo_inurba_marseille","lat":43.27992,"lon":5.4,"is_reserved":false,"is_disabled":true,"rental_uris":{"android":"levelo://app?vid=793cca73-1ae1-4978-8f21-b720a02e84d5","ios":"levelo://app?vid=793cca73-1ae1-4978-8f21-b720a02e84d5"},"vehicle_type_id":"4","last_reported":1741004286,"current_range_meters":4000,"station_id":"ce4bho92rcd13ifvqh4g","pricing_plan_id":"cebpf4jnsgd1na2vs0mg"},{"bike_id":"d100ddaf-7fdd-4b1a-aaf9-dfed2ce5123a","system_id":"levelo_inurba_marseille","lat":43.25816,"lon":5.39421,"is_reserved":false,"is_disabled":false,"rental_uris":{"android":"levelo://app?vid=d100ddaf-7fdd-4b1a-aaf9-dfed2ce5123a","ios":"levelo://app?vid=d100ddaf-7fdd-4b1a-aaf9-dfed2ce5123a"},"vehicle_type_id":"4","last_reported":1741004286,"current_range_meters":4000,"station_id":"ce4bhip2rcd13ifvqft0","pricing_plan_id":"cebpf4jnsgd1na2vs0mg"},{"bike_id":"a3165cdf-5ab4-4888-a98b-fb35d764ec18","system_id":"levelo_inurba_marseille","lat":43.26552,"lon":5.37281,"is_reserved":false,"is_disabled":false,"rental_uris":{"android":"levelo://app?vid=a3165cdf-5ab4-4888-a98b-fb35d764ec18","ios":"levelo://app?vid=a3165cdf-5ab4-4888-a98b-fb35d764ec18"},"vehicle_type_id":"4","last_reported":1741004286,"current_range_meters":4000,"station_id":"ce4bhg12rcd13ifvqf70","pricing_plan_id":"cebpf4jnsgd1na2vs0mg"},{"bike_id":"4495035b-ed8f-413c-a671-44bea6f4d1c8","system_id":"levelo_inurba_marseille","lat":43.27505,"lon":5.4246,"is_reserved":false,"is_disabled":true,"rental_uris":{"android":"levelo://app?vid=4495035b-ed8f-413c-a671-44bea6f4d1c8","ios":"levelo://app?vid=4495035b-ed8f-413c-a671-44bea6f4d1c8"},"vehicle_type_id":"4","last_reported":1741004286,"current_range_meters":4400,"station_id":"ce4bhn92rcd13ifvqgrg","pricing_plan_id":"cebpf4jnsgd1na2vs0mg"},{"bike_id":"6c6f8511-8318-4629-988b-3767a09c7ccf","system_id":"levelo_inurba_marseille","lat":43.31709,"lon":5.37735,"is_reserved":false,"is_disabled":false,"rental_uris":{"android":"levelo://app?vid=6c6f8511-8318-4629-988b-3767a09c7ccf","ios":"levelo://app?vid=6c6f8511-8318-4629-988b-3767a09c7ccf"},"vehicle_type_id":"4","last_reported":1741004286,"current_range_meters":4400,"station_id":"ce4bgth2rcd13ifvqch0","pricing_plan_id":"cebpf4jnsgd1na2vs0mg"},{"bike_id":"59364ffc-b38d-4a5c-953a-0e90a18c2ebb","system_id":"levelo_inurba_marseille","lat":43.26135,"lon":5.39333,"is_reserved":false,"is_disabled":false,"rental_uris":{"android":"levelo://app?vid=59364ffc-b38d-4a5c-953a-0e90a18c2ebb","ios":"levelo://app?vid=59364ffc-b38d-4a5c-953a-0e90a18c2ebb"},"vehicle_type_id":"4","last_reported":1741004286,"current_range_meters":4800,"station_id":"","pricing_plan_id":"cebpf4jnsgd1na2vs0mg"},{"bike_id":"acc0a1d6-cbbf-4dac-86eb-21479649051a","system_id":"levelo_inurba_marseille","lat":43.29578,"lon":5.37496,"is_reserved":false,"is_disabled":true,"rental_uris":{"android":"levelo://app?vid=acc0a1d6-cbbf-4dac-86eb-21479649051a","ios":"levelo://app?vid=acc0a1d6-cbbf-4dac-86eb-21479649051a"},"vehicle_type_id":"4","last_reported":1741004286,"current_range_meters":5600,"station_id":"ce4bgh92rcd13ifvqb50","pricing_plan_id":"cebpf4jnsgd1na2vs0mg"},{"bike_id":"3dc7f799-bc46-44e7-bbb5-ad1a0666e85d","system_id":"levelo_inurba_marseille","lat":43.29188,"lon":5.40915,"is_reserved":false,"is_disabled":false,"rental_uris":{"android":"levelo://app?vid=3dc7f799-bc46-44e7-bbb5-ad1a0666e85d","ios":"levelo://app?vid=3dc7f799-bc46-44e7-bbb5-ad1a0666e85d"},"vehicle_type_id":"4","last_reported":1741004286,"current_range_meters":5600,"station_id":"","pricing_plan_id":"cebpf4jnsgd1na2vs0mg"},{"bike_id":"cf165353-43cd-4c5f-8184-84c0d2105c6c","system_id":"levelo_inurba_marseille","lat":43.25011,"lon":5.389194,"is_reserved":false,"is_disabled":false,"rental_uris":{"android":"levelo://app?vid=cf165353-43cd-4c5f-8184-84c0d2105c6c","ios":"levelo://app?vid=cf165353-43cd-4c5f-8184-84c0d2105c6c"},"vehicle_type_id":"4","last_reported":1741004286,"current_range_meters":5600,"station_id":"ce4bhgp2rcd13ifvqfd0","pricing_plan_id":"cebpf4jnsgd1na2vs0mg"},{"bike_id":"1743755e-68a1-4f9b-b921-f8adea0d4f97","system_id":"levelo_inurba_marseille","lat":43.2961,"lon":5.38078,"is_reserved":false,"is_disabled":false,"rental_uris":{"android":"levelo://app?vid=1743755e-68a1-4f9b-b921-f8adea0d4f97","ios":"levelo://app?vid=1743755e-68a1-4f9b-b921-f8adea0d4f97"},"vehicle_type_id":"4","last_reported":1741004286,"current_range_meters":5600,"station_id":"ce4bgl12rcd13ifvqbo0","pricing_plan_id":"cebpf4jnsgd1na2vs0mg"},{"bike_id":"51da148d-156f-4c37-a526-22dad9efe32a","system_id":"levelo_inurba_marseille","lat":43.2406,"lon":5.37736,"is_reserved":false,"is_disabled":false,"rental_uris":{"android":"levelo://app?vid=51da148d-156f-4c37-a526-22dad9efe32a","ios":"levelo://app?vid=51da148d-156f-4c37-a526-22dad9efe32a"},"vehicle_type_id":"4","last_reported":1741004286,"current_range_meters":5600,"station_id":"ce4bhnp2rcd13ifvqgvg","pricing_plan_id":"cebpf4jnsgd1na2vs0mg"},{"bike_id":"7c26cd75-d05f-4b15-8acb-250da6eb8daf","system_id":"levelo_inurba_marseille","lat":43.30652,"lon":5.36553,"is_reserved":false,"is_disabled":false,"rental_uris":{"android":"levelo://app?vid=7c26cd75-d05f-4b15-8acb-250da6eb8daf","ios":"levelo://app?vid=7c26cd75-d05f-4b15-8acb-250da6eb8daf"},"vehicle_type_id":"4","last_reported":1741004286,"current_range_meters":5600,"station_id":"","pricing_plan_id":"cebpf4jnsgd1na2vs0mg"},{"bike_id":"7294fa1b-6789-4d34-92da-72d6801cf1aa","system_id":"levelo_inurba_marseille","lat":43.327251,"lon":5.362725,"is_reserved":false,"is_disabled":false,"rental_uris":{"android":"levelo://app?vid=7294fa1b-6789-4d34-92da-72d6801cf1aa","ios":"levelo://app?vid=7294fa1b-6789-4d34-92da-72d6801cf1aa"},"vehicle_type_id":"4","last_reported":1741004286,"current_range_meters":5600,"station_id":"","pricing_plan_id":"cebpf4jnsgd1na2vs0mg"},{"bike_id":"104ee841-4554-48cc-a5de-fb2e2e2280da","system_id":"levelo_inurba_marseille","lat":43.33592,"lon":5.40975,"is_reserved":false,"is_disabled":false,"rental_uris":{"android":"levelo://app?vid=104ee841-4554-48cc-a5de-fb2e2e2280da","ios":"levelo://app?vid=104ee841-4554-48cc-a5de-fb2e2e2280da"},"vehicle_type_id":"4","last_reported":1741004286,"current_range_meters":5600,"station_id":"","pricing_plan_id":"cebpf4jnsgd1na2vs0mg"},{"bike_id":"e8dcdfcf-4b4e-432e-9d2f-475e8cd4b0ac","system_id":"levelo_inurba_marseille","lat":43.24181,"lon":5.36387,"is_reserved":false,"is_disabled":false,"rental_uris":{"android":"levelo://app?vid=e8dcdfcf-4b4e-432e-9d2f-475e8cd4b0ac","ios":"levelo://app?vid=e8dcdfcf-4b4e-432e-9d2f-475e8cd4b0ac"},"vehicle_type_id":"4","last_reported":1741004286,"current_range_meters":6000,"station_id":"cpo36qri1sfpv3e86is0","pricing_plan_id":"cebpf4jnsgd1na2vs0mg"},{"bike_id":"6f01950c-5d27-4fd5-b81c-095db3bdb8d5","system_id":"levelo_inurba_marseille","lat":43.29104,"lon":5.38125,"is_reserved":false,"is_disabled":false,"rental_uris":{"android":"levelo://app?vid=6f01950c-5d27-4fd5-b81c-095db3bdb8d5","ios":"levelo://app?vid=6f01950c-5d27-4fd5-b81c-095db3bdb8d5"},"vehicle_type_id":"4","last_reported":1741004286,"current_range_meters":6000,"station_id":"ce4bh512rcd13ifvqe2g","pricing_plan_id":"cebpf4jnsgd1na2vs0mg"},{"bike_id":"d64645aa-3996-48bf-bf72-9e21c08f08d9","system_id":"levelo_inurba_marseille","lat":43.27839,"lon":5.39208,"is_reserved":false,"is_disabled":false,"rental_uris":{"android":"levelo://app?vid=d64645aa-3996-48bf-bf72-9e21c08f08d9","ios":"levelo://app?vid=d64645aa-3996-48bf-bf72-9e21c08f08d9"},"vehicle_type_id":"4","last_reported":1741004286,"current_range_meters":6000,"station_id":"ce4bhjp2rcd13ifvqga0","pricing_plan_id":"cebpf4jnsgd1na2vs0mg"},{"bike_id":"cd0a5007-2d1c-4336-ab7e-3ad9ffd3a5e8","system_id":"levelo_inurba_marseille","lat":43.24079,"lon":5.37753,"is_reserved":false,"is_disabled":false,"rental_uris":{"android":"levelo://app?vid=cd0a5007-2d1c-4336-ab7e-3ad9ffd3a5e8","ios":"levelo://app?vid=cd0a5007-2d1c-4336-ab7e-3ad9ffd3a5e8"},"vehicle_type_id":"4","last_reported":1741004286,"current_range_meters":6000,"station_id":"ce4bhnp2rcd13ifvqgvg","pricing_plan_id":"cebpf4jnsgd1na2vs0mg"},{"bike_id":"9f2f0fee-89b0-47d1-a572-c74294899106","system_id":"levelo_inurba_marseille","lat":43.24079,"lon":5.37756,"is_reserved":false,"is_disabled":false,"rental_uris":{"android":"levelo://app?vid=9f2f0fee-89b0-47d1-a572-c74294899106","ios":"levelo://app?vid=9f2f0fee-89b0-47d1-a572-c74294899106"},"vehicle_type_id":"4","last_reported":1741004286,"current_range_meters":6000,"station_id":"ce4bhnp2rcd13ifvqgvg","pricing_plan_id":"cebpf4jnsgd1na2vs0mg"},{"bike_id":"b79e9a12-491e-4c25-a97c-2e5befd48ff8","system_id":"levelo_inurba_marseille","lat":43.27915,"lon":5.39579,"is_reserved":false,"is_disabled":false,"rental_uris":{"android":"levelo://app?vid=b79e9a12-491e-4c25-a97c-2e5befd48ff8","ios":"levelo://app?vid=b79e9a12-491e-4c25-a97c-2e5befd48ff8"},"vehicle_type_id":"4","last_reported":1741004286,"current_range_meters":6400,"station_id":"ce4bhf92rcd13ifvqf40","pricing_plan_id":"cebpf4jnsgd1na2vs0mg"},{"bike_id":"96fb5ed8-ecf9-4d8e-af55-aa32375331ad","system_id":"levelo_inurba_marseille","lat":43.27992,"lon":5.41659,"is_reserved":false,"is_disabled":false,"rental_uris":{"android":"levelo://app?vid=96fb5ed8-ecf9-4d8e-af55-aa32375331ad","ios":"levelo://app?vid=96fb5ed8-ecf9-4d8e-af55-aa32375331ad"},"vehicle_type_id":"4","last_reported":1741004286,"current_range_meters":6800,"station_id":"ce4bho12rcd13ifvqh1g","pricing_plan_id":"cebpf4jnsgd1na2vs0mg"},{"bike_id":"8a3d5b40-eb12-47f6-995f-1d20a56234be","system_id":"levelo_inurba_marseille","lat":43.30551,"lon":5.3654,"is_reserved":false,"is_disabled":false,"rental_uris":{"android":"levelo://app?vid=8a3d5b40-eb12-47f6-995f-1d20a56234be","ios":"levelo://app?vid=8a3d5b40-eb12-47f6-995f-1d20a56234be"},"vehicle_type_id":"4","last_reported":1741004286,"current_range_meters":6800,"station_id":"ce4bgs12rcd13ifvqcag","pricing_plan_id":"cebpf4jnsgd1na2vs0mg"},{"bike_id":"f4c7dd89-b40a-4625-a20e-daa4d466227e","system_id":"levelo_inurba_marseille","lat":43.24085,"lon":5.37739,"is_reserved":false,"is_disabled":false,"rental_uris":{"android":"levelo://app?vid=f4c7dd89-b40a-4625-a20e-daa4d466227e","ios":"levelo://app?vid=f4c7dd89-b40a-4625-a20e-daa4d466227e"},"vehicle_type_id":"4","last_reported":1741004286,"current_range_meters":6800,"station_id":"ce4bhnp2rcd13ifvqgvg","pricing_plan_id":"cebpf4jnsgd1na2vs0mg"},{"bike_id":"93420957-6a17-4c2c-b1ba-3f6c9b68c384","system_id":"levelo_inurba_marseille","lat":43.28344,"lon":5.38105,"is_reserved":false,"is_disabled":false,"rental_uris":{"android":"levelo://app?vid=93420957-6a17-4c2c-b1ba-3f6c9b68c384","ios":"levelo://app?vid=93420957-6a17-4c2c-b1ba-3f6c9b68c384"},"vehicle_type_id":"4","last_reported":1741004286,"current_range_meters":6800,"station_id":"ce4bh412rcd13ifvqdr0","pricing_plan_id":"cebpf4jnsgd1na2vs0mg"},{"bike_id":"4adb6282-5525-4265-b332-f0effff22887","system_id":"levelo_inurba_marseille","lat":43.25936,"lon":5.40854,"is_reserved":false,"is_disabled":false,"rental_uris":{"android":"levelo://app?vid=4adb6282-5525-4265-b332-f0effff22887","ios":"levelo://app?vid=4adb6282-5525-4265-b332-f0effff22887"},"vehicle_type_id":"4","last_reported":1741004286,"current_range_meters":7200,"station_id":"ce4bhm92rcd13ifvqglg","pricing_plan_id":"cebpf4jnsgd1na2vs0mg"},{"bike_id":"1172b0b0-ff7b-4d5b-bab2-fd3fca45653c","system_id":"levelo_inurba_marseille","lat":43.29095,"lon":5.38138,"is_reserved":false,"is_disabled":false,"rental_uris":{"android":"levelo://app?vid=1172b0b0-ff7b-4d5b-bab2-fd3fca45653c","ios":"levelo://app?vid=1172b0b0-ff7b-4d5b-bab2-fd3fca45653c"},"vehicle_type_id":"4","last_reported":1741004286,"current_range_meters":7200,"station_id":"ce4bh512rcd13ifvqe2g","pricing_plan_id":"cebpf4jnsgd1na2vs0mg"},{"bike_id":"25eb343a-fbd9-441a-8834-980069854a8b","system_id":"levelo_inurba_marseille","lat":43.24397,"lon":5.37064,"is_reserved":false,"is_disabled":false,"rental_uris":{"android":"levelo://app?vid=25eb343a-fbd9-441a-8834-980069854a8b","ios":"levelo://app?vid=25eb343a-fbd9-441a-8834-980069854a8b"},"vehicle_type_id":"4","last_reported":1741004286,"current_range_meters":7200,"station_id":"ce4bhhh2rcd13ifvqfk0","pricing_plan_id":"cebpf4jnsgd1na2vs0mg"},{"bike_id":"9071df38-7025-45ad-932d-29715ce20937","system_id":"levelo_inurba_marseille","lat":43.25815,"lon":5.39433,"is_reserved":false,"is_disabled":false,"rental_uris":{"android":"levelo://app?vid=9071df38-7025-45ad-932d-29715ce20937","ios":"levelo://app?vid=9071df38-7025-45ad-932d-29715ce20937"},"vehicle_type_id":"4","last_reported":1741004286,"current_range_meters":7200,"station_id":"ce4bhip2rcd13ifvqft0","pricing_plan_id":"cebpf4jnsgd1na2vs0mg"},{"bike_id":"ea98410e-2c03-40d7-a821-5afeb9df983a","system_id":"levelo_inurba_marseille","lat":43.33604,"lon":5.41034,"is_reserved":false,"is_disabled":false,"rental_uris":{"android":"levelo://app?vid=ea98410e-2c03-40d7-a821-5afeb9df983a","ios":"levelo://app?vid=ea98410e-2c03-40d7-a821-5afeb9df983a"},"vehicle_type_id":"4","last_reported":1741004286,"current_range_meters":7200,"station_id":"ce4bhqh2rcd13ifvqhmg","pricing_plan_id":"cebpf4jnsgd1na2vs0mg"},{"bike_id":"5572f6cb-310d-4ad2-abbd-18e0a79d9a3f","system_id":"levelo_inurba_marseille","lat":43.312281,"lon":5.368691,"is_reserved":false,"is_disabled":false,"rental_uris":{"android":"levelo://app?vid=5572f6cb-310d-4ad2-abbd-18e0a79d9a3f","ios":"levelo://app?vid=5572f6cb-310d-4ad2-abbd-18e0a79d9a3f"},"vehicle_type_id":"4","last_reported":1741004286,"current_range_meters":7200,"station_id":"ce4bgl92rcd13ifvqbq0","pricing_plan_id":"cebpf4jnsgd1na2vs0mg"},{"bike_id":"5c8b5a6c-0c8f-4be7-9cdc-0fd649eedd34","system_id":"levelo_inurba_marseille","lat":43.23149,"lon":5.43717,"is_reserved":false,"is_disabled":false,"rental_uris":{"android":"levelo://app?vid=5c8b5a6c-0c8f-4be7-9cdc-0fd649eedd34","ios":"levelo://app?vid=5c8b5a6c-0c8f-4be7-9cdc-0fd649eedd34"},"vehicle_type_id":"4","last_reported":1741004286,"current_range_meters":8000,"station_id":"ce4bhmp2rcd13ifvqgog","pricing_plan_id":"cebpf4jnsgd1na2vs0mg"},{"bike_id":"04cb8418-0db0-4937-8408-2cf8ce5fafa4","system_id":"levelo_inurba_marseille","lat":43.30473,"lon":5.37903,"is_reserved":false,"is_disabled":false,"rental_uris":{"android":"levelo://app?vid=04cb8418-0db0-4937-8408-2cf8ce5fafa4","ios":"levelo://app?vid=04cb8418-0db0-4937-8408-2cf8ce5fafa4"},"vehicle_type_id":"4","last_reported":1741004286,"current_range_meters":8000,"station_id":"ce4bgup2rcd13ifvqcn0","pricing_plan_id":"cebpf4jnsgd1na2vs0mg"},{"bike_id":"6496907b-d4d5-4880-9aa3-fc3a9bc77e8a","system_id":"levelo_inurba_marseille","lat":43.28093,"lon":5.37834,"is_reserved":false,"is_disabled":false,"rental_uris":{"android":"levelo://app?vid=6496907b-d4d5-4880-9aa3-fc3a9bc77e8a","ios":"levelo://app?vid=6496907b-d4d5-4880-9aa3-fc3a9bc77e8a"},"vehicle_type_id":"4","last_reported":1741004286,"current_range_meters":8000,"station_id":"ce4bha12rcd13ifvqee0","pricing_plan_id":"cebpf4jnsgd1na2vs0mg"},{"bike_id":"e2f8993b-c738-4706-9ce6-5800bd6ffa22","system_id":"levelo_inurba_marseille","lat":43.24553,"lon":5.39529,"is_reserved":false,"is_disabled":false,"rental_uris":{"android":"levelo://app?vid=e2f8993b-c738-4706-9ce6-5800bd6ffa22","ios":"levelo://app?vid=e2f8993b-c738-4706-9ce6-5800bd6ffa22"},"vehicle_type_id":"4","last_reported":1741004286,"current_range_meters":8000,"station_id":"ce4bhlp2rcd13ifvqgjg","pricing_plan_id":"cebpf4jnsgd1na2vs0mg"},{"bike_id":"a00d07f9-31d2-4a8d-b4d8-0444819c818f","system_id":"levelo_inurba_marseille","lat":43.24075,"lon":5.37762,"is_reserved":false,"is_disabled":false,"rental_uris":{"android":"levelo://app?vid=a00d07f9-31d2-4a8d-b4d8-0444819c818f","ios":"levelo://app?vid=a00d07f9-31d2-4a8d-b4d8-0444819c818f"},"vehicle_type_id":"4","last_reported":1741004286,"current_range_meters":8000,"station_id":"ce4bhnp2rcd13ifvqgvg","pricing_plan_id":"cebpf4jnsgd1na2vs0mg"},{"bike_id":"64df57a6-228d-4dd9-aa12-9ed0bcd9e463","system_id":"levelo_inurba_marseille","lat":43.294311,"lon":5.374869,"is_reserved":false,"is_disabled":false,"rental_uris":{"android":"levelo://app?vid=64df57a6-228d-4dd9-aa12-9ed0bcd9e463","ios":"levelo://app?vid=64df57a6-228d-4dd9-aa12-9ed0bcd9e463"},"vehicle_type_id":"4","last_reported":1741004286,"current_range_meters":8000,"station_id":"ce4bgh92rcd13ifvqb50","pricing_plan_id":"cebpf4jnsgd1na2vs0mg"},{"bike_id":"328260ff-fa45-4907-991c-88fdcd694cdc","system_id":"levelo_inurba_marseille","lat":43.27824,"lon":5.40711,"is_reserved":false,"is_disabled":false,"rental_uris":{"android":"levelo://app?vid=328260ff-fa45-4907-991c-88fdcd694cdc","ios":"levelo://app?vid=328260ff-fa45-4907-991c-88fdcd694cdc"},"vehicle_type_id":"4","last_reported":1741004286,"current_range_meters":8400,"station_id":"ce4bhnh2rcd13ifvqgtg","pricing_plan_id":"cebpf4jnsgd1na2vs0mg"},{"bike_id":"a56b7164-3dfa-4024-a437-3a7a0e6ccdbd","system_id":"levelo_inurba_marseille","lat":43.28444,"lon":5.39208,"is_reserved":false,"is_disabled":false,"rental_uris":{"android":"levelo://app?vid=a56b7164-3dfa-4024-a437-3a7a0e6ccdbd","ios":"levelo://app?vid=a56b7164-3dfa-4024-a437-3a7a0e6ccdbd"},"vehicle_type_id":"4","last_reported":1741004286,"current_range_meters":8400,"station_id":"ce4bhoh2rcd13ifvqh5g","pricing_plan_id":"cebpf4jnsgd1na2vs0mg"},{"bike_id":"0dd152eb-9692-427d-8bd8-393afc2936d7","system_id":"levelo_inurba_marseille","lat":43.29111,"lon":5.38115,"is_reserved":false,"is_disabled":false,"rental_uris":{"android":"levelo://app?vid=0dd152eb-9692-427d-8bd8-393afc2936d7","ios":"levelo://app?vid=0dd152eb-9692-427d-8bd8-393afc2936d7"},"vehicle_type_id":"4","last_reported":1741004286,"current_range_meters":8400,"station_id":"ce4bh512rcd13ifvqe2g","pricing_plan_id":"cebpf4jnsgd1na2vs0mg"},{"bike_id":"72449424-97e3-4fae-916d-b30d76f9cb8c","system_id":"levelo_inurba_marseille","lat":43.27825,"lon":5.40712,"is_reserved":false,"is_disabled":false,"rental_uris":{"android":"levelo://app?vid=72449424-97e3-4fae-916d-b30d76f9cb8c","ios":"levelo://app?vid=72449424-97e3-4fae-916d-b30d76f9cb8c"},"vehicle_type_id":"4","last_reported":1741004286,"current_range_meters":8400,"station_id":"ce4bhnh2rcd13ifvqgtg","pricing_plan_id":"cebpf4jnsgd1na2vs0mg"},{"bike_id":"8bd8f599-10c3-4d2d-9596-0ddafe7d242a","system_id":"levelo_inurba_marseille","lat":43.2408,"lon":5.37742,"is_reserved":false,"is_disabled":false,"rental_uris":{"android":"levelo://app?vid=8bd8f599-10c3-4d2d-9596-0ddafe7d242a","ios":"levelo://app?vid=8bd8f599-10c3-4d2d-9596-0ddafe7d242a"},"vehicle_type_id":"4","last_reported":1741004286,"current_range_meters":8400,"station_id":"ce4bhnp2rcd13ifvqgvg","pricing_plan_id":"cebpf4jnsgd1na2vs0mg"},{"bike_id":"bed6cdb7-0b7d-4f35-827e-40a00535ccf7","system_id":"levelo_inurba_marseille","lat":43.24073,"lon":5.37769,"is_reserved":false,"is_disabled":false,"rental_uris":{"android":"levelo://app?vid=bed6cdb7-0b7d-4f35-827e-40a00535ccf7","ios":"levelo://app?vid=bed6cdb7-0b7d-4f35-827e-40a00535ccf7"},"vehicle_type_id":"4","last_reported":1741004286,"current_range_meters":8400,"station_id":"ce4bhnp2rcd13ifvqgvg","pricing_plan_id":"cebpf4jnsgd1na2vs0mg"},{"bike_id":"30e82071-109b-480c-92f4-f180d443d7b5","system_id":"levelo_inurba_marseille","lat":43.27061,"lon":5.40267,"is_reserved":false,"is_disabled":false,"rental_uris":{"android":"levelo://app?vid=30e82071-109b-480c-92f4-f180d443d7b5","ios":"levelo://app?vid=30e82071-109b-480c-92f4-f180d443d7b5"},"vehicle_type_id":"4","last_reported":1741004286,"current_range_meters":8400,"station_id":"ce4bhk92rcd13ifvqgc0","pricing_plan_id":"cebpf4jnsgd1na2vs0mg"},{"bike_id":"f18d22c0-5ae4-4755-8cc2-88275903ff32","system_id":"levelo_inurba_marseille","lat":43.27798,"lon":5.40686,"is_reserved":false,"is_disabled":false,"rental_uris":{"android":"levelo://app?vid=f18d22c0-5ae4-4755-8cc2-88275903ff32","ios":"levelo://app?vid=f18d22c0-5ae4-4755-8cc2-88275903ff32"},"vehicle_type_id":"4","last_reported":1741004286,"current_range_meters":8800,"station_id":"ce4bhnh2rcd13ifvqgtg","pricing_plan_id":"cebpf4jnsgd1na2vs0mg"},{"bike_id":"618df4b6-8fd4-4ef1-b13a-45a74fe4b862","system_id":"levelo_inurba_marseille","lat":43.24053,"lon":5.3776,"is_reserved":false,"is_disabled":false,"rental_uris":{"android":"levelo://app?vid=618df4b6-8fd4-4ef1-b13a-45a74fe4b862","ios":"levelo://app?vid=618df4b6-8fd4-4ef1-b13a-45a74fe4b862"},"vehicle_type_id":"4","last_reported":1741004286,"current_range_meters":8800,"station_id":"ce4bhnp2rcd13ifvqgvg","pricing_plan_id":"cebpf4jnsgd1na2vs0mg"},{"bike_id":"f98703e3-97af-4df3-98e4-219f514a8f33","system_id":"levelo_inurba_marseille","lat":43.31212,"lon":5.36848,"is_reserved":false,"is_disabled":false,"rental_uris":{"android":"levelo://app?vid=f98703e3-97af-4df3-98e4-219f514a8f33","ios":"levelo://app?vid=f98703e3-97af-4df3-98e4-219f514a8f33"},"vehicle_type_id":"4","last_reported":1741004286,"current_range_meters":8800,"station_id":"ce4bgl92rcd13ifvqbq0","pricing_plan_id":"cebpf4jnsgd1na2vs0mg"},{"bike_id":"5da70b26-5045-4fcf-85cf-7f68a925e135","system_id":"levelo_inurba_marseille","lat":43.27989,"lon":5.41659,"is_reserved":false,"is_disabled":false,"rental_uris":{"android":"levelo://app?vid=5da70b26-5045-4fcf-85cf-7f68a925e135","ios":"levelo://app?vid=5da70b26-5045-4fcf-85cf-7f68a925e135"},"vehicle_type_id":"4","last_reported":1741004286,"current_range_meters":8800,"station_id":"ce4bho12rcd13ifvqh1g","pricing_plan_id":"cebpf4jnsgd1na2vs0mg"},{"bike_id":"b5a9c892-8074-4ce2-9764-14aaca57b99e","system_id":"levelo_inurba_marseille","lat":43.26807,"lon":5.4027,"is_reserved":false,"is_disabled":false,"rental_uris":{"android":"levelo://app?vid=b5a9c892-8074-4ce2-9764-14aaca57b99e","ios":"levelo://app?vid=b5a9c892-8074-4ce2-9764-14aaca57b99e"},"vehicle_type_id":"4","last_reported":1741004286,"current_range_meters":8800,"station_id":"ce501612rcd8frsf0b60","pricing_plan_id":"cebpf4jnsgd1na2vs0mg"},{"bike_id":"922aef49-28d5-49a2-bd60-4a93e401d324","system_id":"levelo_inurba_marseille","lat":43.29867,"lon":5.39728,"is_reserved":false,"is_disabled":false,"rental_uris":{"android":"levelo://app?vid=922aef49-28d5-49a2-bd60-4a93e401d324","ios":"levelo://app?vid=922aef49-28d5-49a2-bd60-4a93e401d324"},"vehicle_type_id":"4","last_reported":1741004286,"current_range_meters":8800,"station_id":"ce4bh0h2rcd13ifvqd50","pricing_plan_id":"cebpf4jnsgd1na2vs0mg"},{"bike_id":"a8c1aea9-e89b-4c4f-9a4f-1da2fe974ed5","system_id":"levelo_inurba_marseille","lat":43.28053,"lon":5.36614,"is_reserved":false,"is_disabled":false,"rental_uris":{"android":"levelo://app?vid=a8c1aea9-e89b-4c4f-9a4f-1da2fe974ed5","ios":"levelo://app?vid=a8c1aea9-e89b-4c4f-9a4f-1da2fe974ed5"},"vehicle_type_id":"4","last_reported":1741004286,"current_range_meters":8800,"station_id":"","pricing_plan_id":"cebpf4jnsgd1na2vs0mg"},{"bike_id":"02589f00-8329-441e-bd87-408f2b71d2e2","system_id":"levelo_inurba_marseille","lat":43.27175,"lon":5.40993,"is_reserved":false,"is_disabled":false,"rental_uris":{"android":"levelo://app?vid=02589f00-8329-441e-bd87-408f2b71d2e2","ios":"levelo://app?vid=02589f00-8329-441e-bd87-408f2b71d2e2"},"vehicle_type_id":"4","last_reported":1741004286,"current_range_meters":8800,"station_id":"ce4bhl12rcd13ifvqgf0","pricing_plan_id":"cebpf4jnsgd1na2vs0mg"},{"bike_id":"40bfbddd-e4f1-4448-a3ae-7becfa907635","system_id":"levelo_inurba_marseille","lat":43.30536,"lon":5.36547,"is_reserved":false,"is_disabled":false,"rental_uris":{"android":"levelo://app?vid=40bfbddd-e4f1-4448-a3ae-7becfa907635","ios":"levelo://app?vid=40bfbddd-e4f1-4448-a3ae-7becfa907635"},"vehicle_type_id":"4","last_reported":1741004286,"current_range_meters":9200,"station_id":"ce4bgs12rcd13ifvqcag","pricing_plan_id":"cebpf4jnsgd1na2vs0mg"},{"bike_id":"58a84421-53ca-4963-b8f9-ccc3421f4ba0","system_id":"levelo_inurba_marseille","lat":43.29307,"lon":5.37171,"is_reserved":false,"is_disabled":false,"rental_uris":{"android":"levelo://app?vid=58a84421-53ca-4963-b8f9-ccc3421f4ba0","ios":"levelo://app?vid=58a84421-53ca-4963-b8f9-ccc3421f4ba0"},"vehicle_type_id":"4","last_reported":1741004286,"current_range_meters":9200,"station_id":"ce4bgh92rcd13ifvqb40","pricing_plan_id":"cebpf4jnsgd1na2vs0mg"},{"bike_id":"1808ccc6-d295-4f5e-beb6-1400f13c98a2","system_id":"levelo_inurba_marseille","lat":43.28154,"lon":5.42654,"is_reserved":false,"is_disabled":false,"rental_uris":{"android":"levelo://app?vid=1808ccc6-d295-4f5e-beb6-1400f13c98a2","ios":"levelo://app?vid=1808ccc6-d295-4f5e-beb6-1400f13c98a2"},"vehicle_type_id":"4","last_reported":1741004286,"current_range_meters":9200,"station_id":"ce4bhnh2rcd13ifvqgug","pricing_plan_id":"cebpf4jnsgd1na2vs0mg"},{"bike_id":"7cf1fd01-db90-4679-a6bb-9832c62fcefa","system_id":"levelo_inurba_marseille","lat":43.26061,"lon":5.39414,"is_reserved":false,"is_disabled":false,"rental_uris":{"android":"levelo://app?vid=7cf1fd01-db90-4679-a6bb-9832c62fcefa","ios":"levelo://app?vid=7cf1fd01-db90-4679-a6bb-9832c62fcefa"},"vehicle_type_id":"4","last_reported":1741004286,"current_range_meters":9200,"station_id":"ce4bhh92rcd13ifvqfj0","pricing_plan_id":"cebpf4jnsgd1na2vs0mg"},{"bike_id":"a31030b5-1c4b-4180-9e2c-38e4e6a0822e","system_id":"levelo_inurba_marseille","lat":43.23185,"lon":5.3999,"is_reserved":false,"is_disabled":false,"rental_uris":{"android":"levelo://app?vid=a31030b5-1c4b-4180-9e2c-38e4e6a0822e","ios":"levelo://app?vid=a31030b5-1c4b-4180-9e2c-38e4e6a0822e"},"vehicle_type_id":"4","last_reported":1741004286,"current_range_meters":9200,"station_id":"ce4bhn12rcd13ifvqgqg","pricing_plan_id":"cebpf4jnsgd1na2vs0mg"},{"bike_id":"9ac37234-c957-4165-ad82-dc1794e53d6e","system_id":"levelo_inurba_marseille","lat":43.29257,"lon":5.38424,"is_reserved":false,"is_disabled":false,"rental_uris":{"android":"levelo://app?vid=9ac37234-c957-4165-ad82-dc1794e53d6e","ios":"levelo://app?vid=9ac37234-c957-4165-ad82-dc1794e53d6e"},"vehicle_type_id":"4","last_reported":1741004286,"current_range_meters":9200,"station_id":"ce4bh692rcd13ifvqea0","pricing_plan_id":"cebpf4jnsgd1na2vs0mg"},{"bike_id":"4aa627e5-5711-4762-8471-751d260e2f9f","system_id":"levelo_inurba_marseille","lat":43.29847,"lon":5.36272,"is_reserved":false,"is_disabled":false,"rental_uris":{"android":"levelo://app?vid=4aa627e5-5711-4762-8471-751d260e2f9f","ios":"levelo://app?vid=4aa627e5-5711-4762-8471-751d260e2f9f"},"vehicle_type_id":"4","last_reported":1741004286,"current_range_meters":9200,"station_id":"ce4bgpp2rcd13ifvqc3g","pricing_plan_id":"cebpf4jnsgd1na2vs0mg"},{"bike_id":"debbb5be-7788-4b46-b6e8-5dd36521d440","system_id":"levelo_inurba_marseille","lat":43.24994,"lon":5.38924,"is_reserved":false,"is_disabled":false,"rental_uris":{"android":"levelo://app?vid=debbb5be-7788-4b46-b6e8-5dd36521d440","ios":"levelo://app?vid=debbb5be-7788-4b46-b6e8-5dd36521d440"},"vehicle_type_id":"4","last_reported":1741004286,"current_range_meters":9200,"station_id":"ce4bhgp2rcd13ifvqfd0","pricing_plan_id":"cebpf4jnsgd1na2vs0mg"},{"bike_id":"d5fbbcbb-d234-4b74-baaa-95e8d08b816c","system_id":"levelo_inurba_marseille","lat":43.30884,"lon":5.39655,"is_reserved":false,"is_disabled":false,"rental_uris":{"android":"levelo://app?vid=d5fbbcbb-d234-4b74-baaa-95e8d08b816c","ios":"levelo://app?vid=d5fbbcbb-d234-4b74-baaa-95e8d08b816c"},"vehicle_type_id":"4","last_reported":1741004286,"current_range_meters":9200,"station_id":"ce4bh012rcd13ifvqcv0","pricing_plan_id":"cebpf4jnsgd1na2vs0mg"},{"bike_id":"fd32c1c7-6ec8-489e-8d74-a0f7dd65b30c","system_id":"levelo_inurba_marseille","lat":43.23155,"lon":5.43686,"is_reserved":false,"is_disabled":false,"rental_uris":{"android":"levelo://app?vid=fd32c1c7-6ec8-489e-8d74-a0f7dd65b30c","ios":"levelo://app?vid=fd32c1c7-6ec8-489e-8d74-a0f7dd65b30c"},"vehicle_type_id":"4","last_reported":1741004286,"current_range_meters":9200,"station_id":"ce4bhmp2rcd13ifvqgog","pricing_plan_id":"cebpf4jnsgd1na2vs0mg"},{"bike_id":"f1464563-33d2-46c2-a276-265c6076bc9d","system_id":"levelo_inurba_marseille","lat":43.2926,"lon":5.38444,"is_reserved":false,"is_disabled":false,"rental_uris":{"android":"levelo://app?vid=f1464563-33d2-46c2-a276-265c6076bc9d","ios":"levelo://app?vid=f1464563-33d2-46c2-a276-265c6076bc9d"},"vehicle_type_id":"4","last_reported":1741004286,"current_range_meters":9600,"station_id":"ce4bh692rcd13ifvqea0","pricing_plan_id":"cebpf4jnsgd1na2vs0mg"},{"bike_id":"cf14d8f9-4ebe-4df6-9a79-4848e458b42c","system_id":"levelo_inurba_marseille","lat":43.2406,"lon":5.37755,"is_reserved":false,"is_disabled":false,"rental_uris":{"android":"levelo://app?vid=cf14d8f9-4ebe-4df6-9a79-4848e458b42c","ios":"levelo://app?vid=cf14d8f9-4ebe-4df6-9a79-4848e458b42c"},"vehicle_type_id":"4","last_reported":1741004286,"current_range_meters":9600,"station_id":"ce4bhnp2rcd13ifvqgvg","pricing_plan_id":"cebpf4jnsgd1na2vs0mg"},{"bike_id":"aad17840-edab-49aa-a5f8-42dc5fdc47b7","system_id":"levelo_inurba_marseille","lat":43.292331,"lon":5.401019,"is_reserved":false,"is_disabled":false,"rental_uris":{"android":"levelo://app?vid=aad17840-edab-49aa-a5f8-42dc5fdc47b7","ios":"levelo://app?vid=aad17840-edab-49aa-a5f8-42dc5fdc47b7"},"vehicle_type_id":"4","last_reported":1741004286,"current_range_meters":9600,"station_id":"ce4bh312rcd13ifvqdk0","pricing_plan_id":"cebpf4jnsgd1na2vs0mg"},{"bike_id":"f79bbb56-6628-4421-8f06-62f2d1467284","system_id":"levelo_inurba_marseille","lat":43.24996,"lon":5.38934,"is_reserved":false,"is_disabled":false,"rental_uris":{"android":"levelo://app?vid=f79bbb56-6628-4421-8f06-62f2d1467284","ios":"levelo://app?vid=f79bbb56-6628-4421-8f06-62f2d1467284"},"vehicle_type_id":"4","last_reported":1741004286,"current_range_meters":9600,"station_id":"ce4bhgp2rcd13ifvqfd0","pricing_plan_id":"cebpf4jnsgd1na2vs0mg"},{"bike_id":"0fca0d86-539a-4bbc-822f-78228a99a620","system_id":"levelo_inurba_marseille","lat":43.33029,"lon":5.39026,"is_reserved":false,"is_disabled":true,"rental_uris":{"android":"levelo://app?vid=0fca0d86-539a-4bbc-822f-78228a99a620","ios":"levelo://app?vid=0fca0d86-539a-4bbc-822f-78228a99a620"},"vehicle_type_id":"4","last_reported":1741004286,"current_range_meters":9600,"station_id":"ce4bhr92rcd13ifvqhrg","pricing_plan_id":"cebpf4jnsgd1na2vs0mg"},{"bike_id":"c0f8817d-9ea3-4843-9ada-70b7e0513e25","system_id":"levelo_inurba_marseille","lat":43.30549,"lon":5.36678,"is_reserved":false,"is_disabled":false,"rental_uris":{"android":"levelo://app?vid=c0f8817d-9ea3-4843-9ada-70b7e0513e25","ios":"levelo://app?vid=c0f8817d-9ea3-4843-9ada-70b7e0513e25"},"vehicle_type_id":"4","last_reported":1741004286,"current_range_meters":9600,"station_id":"ce4bgrp2rcd13ifvqc9g","pricing_plan_id":"cebpf4jnsgd1na2vs0mg"},{"bike_id":"4303ecf9-de97-4c98-9606-420a2555a836","system_id":"levelo_inurba_marseille","lat":43.313602,"lon":5.384948,"is_reserved":false,"is_disabled":false,"rental_uris":{"android":"levelo://app?vid=4303ecf9-de97-4c98-9606-420a2555a836","ios":"levelo://app?vid=4303ecf9-de97-4c98-9606-420a2555a836"},"vehicle_type_id":"4","last_reported":1741004286,"current_range_meters":9600,"station_id":"","pricing_plan_id":"cebpf4jnsgd1na2vs0mg"},{"bike_id":"ff1a59c9-74f4-4336-beec-e23f40e25ebc","system_id":"levelo_inurba_marseille","lat":43.27373,"lon":5.36255,"is_reserved":false,"is_disabled":false,"rental_uris":{"android":"levelo://app?vid=ff1a59c9-74f4-4336-beec-e23f40e25ebc","ios":"levelo://app?vid=ff1a59c9-74f4-4336-beec-e23f40e25ebc"},"vehicle_type_id":"4","last_reported":1741004286,"current_range_meters":10000,"station_id":"ce4bhbh2rcd13ifvqeo0","pricing_plan_id":"cebpf4jnsgd1na2vs0mg"},{"bike_id":"ce38ad6c-fecc-45ad-9995-78aae8a9afee","system_id":"levelo_inurba_marseille","lat":43.31165,"lon":5.38714,"is_reserved":false,"is_disabled":false,"rental_uris":{"android":"levelo://app?vid=ce38ad6c-fecc-45ad-9995-78aae8a9afee","ios":"levelo://app?vid=ce38ad6c-fecc-45ad-9995-78aae8a9afee"},"vehicle_type_id":"4","last_reported":1741004286,"current_range_meters":10000,"station_id":"ce4bgv12rcd13ifvqcp0","pricing_plan_id":"cebpf4jnsgd1na2vs0mg"},{"bike_id":"04992e21-1c07-4a3c-a3d4-9a6d503c2f70","system_id":"levelo_inurba_marseille","lat":43.28663,"lon":5.38672,"is_reserved":false,"is_disabled":false,"rental_uris":{"android":"levelo://app?vid=04992e21-1c07-4a3c-a3d4-9a6d503c2f70","ios":"levelo://app?vid=04992e21-1c07-4a3c-a3d4-9a6d503c2f70"},"vehicle_type_id":"4","last_reported":1741004286,"current_range_meters":10000,"station_id":"ce4bh492rcd13ifvqdug","pricing_plan_id":"cebpf4jnsgd1na2vs0mg"},{"bike_id":"6500699d-c4d0-43e8-8973-0f682c36684d","system_id":"levelo_inurba_marseille","lat":43.23142,"lon":5.43683,"is_reserved":false,"is_disabled":false,"rental_uris":{"android":"levelo://app?vid=6500699d-c4d0-43e8-8973-0f682c36684d","ios":"levelo://app?vid=6500699d-c4d0-43e8-8973-0f682c36684d"},"vehicle_type_id":"4","last_reported":1741004286,"current_range_meters":10000,"station_id":"ce4bhmp2rcd13ifvqgog","pricing_plan_id":"cebpf4jnsgd1na2vs0mg"},{"bike_id":"475c4419-18c4-4939-b5c9-912b72419c48","system_id":"levelo_inurba_marseille","lat":43.28974,"lon":5.36622,"is_reserved":false,"is_disabled":false,"rental_uris":{"android":"levelo://app?vid=475c4419-18c4-4939-b5c9-912b72419c48","ios":"levelo://app?vid=475c4419-18c4-4939-b5c9-912b72419c48"},"vehicle_type_id":"4","last_reported":1741004286,"current_range_meters":10000,"station_id":"ce4bhap2rcd13ifvqek0","pricing_plan_id":"cebpf4jnsgd1na2vs0mg"},{"bike_id":"1f443740-8946-4d48-9b52-4b4a108aa5f0","system_id":"levelo_inurba_marseille","lat":43.259,"lon":5.40894,"is_reserved":false,"is_disabled":false,"rental_uris":{"android":"levelo://app?vid=1f443740-8946-4d48-9b52-4b4a108aa5f0","ios":"levelo://app?vid=1f443740-8946-4d48-9b52-4b4a108aa5f0"},"vehicle_type_id":"4","last_reported":1741004286,"current_range_meters":10000,"station_id":"ce4bhm92rcd13ifvqglg","pricing_plan_id":"cebpf4jnsgd1na2vs0mg"},{"bike_id":"d52c774d-8b41-4bc2-90cd-3de09cb0a100","system_id":"levelo_inurba_marseille","lat":43.24181,"lon":5.36392,"is_reserved":false,"is_disabled":false,"rental_uris":{"android":"levelo://app?vid=d52c774d-8b41-4bc2-90cd-3de09cb0a100","ios":"levelo://app?vid=d52c774d-8b41-4bc2-90cd-3de09cb0a100"},"vehicle_type_id":"4","last_reported":1741004286,"current_range_meters":10800,"station_id":"cpo36qri1sfpv3e86is0","pricing_plan_id":"cebpf4jnsgd1na2vs0mg"},{"bike_id":"9f53ba5d-b5b9-400c-9385-a40ff40381b1","system_id":"levelo_inurba_marseille","lat":43.25118,"lon":5.40315,"is_reserved":false,"is_disabled":false,"rental_uris":{"android":"levelo://app?vid=9f53ba5d-b5b9-400c-9385-a40ff40381b1","ios":"levelo://app?vid=9f53ba5d-b5b9-400c-9385-a40ff40381b1"},"vehicle_type_id":"4","last_reported":1741004286,"current_range_meters":10800,"station_id":"ce4bhlh2rcd13ifvqgig","pricing_plan_id":"cebpf4jnsgd1na2vs0mg"},{"bike_id":"403aebdd-e473-47c3-976a-b0f7f414f63a","system_id":"levelo_inurba_marseille","lat":43.2827,"lon":5.35063,"is_reserved":false,"is_disabled":false,"rental_uris":{"android":"levelo://app?vid=403aebdd-e473-47c3-976a-b0f7f414f63a","ios":"levelo://app?vid=403aebdd-e473-47c3-976a-b0f7f414f63a"},"vehicle_type_id":"4","last_reported":1741004286,"current_range_meters":10800,"station_id":"ce4bhbp2rcd13ifvqerg","pricing_plan_id":"cebpf4jnsgd1na2vs0mg"},{"bike_id":"2eef9cd3-1c04-4703-afce-171d571447f2","system_id":"levelo_inurba_marseille","lat":43.29256,"lon":5.40901,"is_reserved":false,"is_disabled":false,"rental_uris":{"android":"levelo://app?vid=2eef9cd3-1c04-4703-afce-171d571447f2","ios":"levelo://app?vid=2eef9cd3-1c04-4703-afce-171d571447f2"},"vehicle_type_id":"4","last_reported":1741004286,"current_range_meters":10800,"station_id":"ce4bh192rcd13ifvqdc0","pricing_plan_id":"cebpf4jnsgd1na2vs0mg"},{"bike_id":"8ade5181-cd88-4ece-8534-46a6372826ef","system_id":"levelo_inurba_marseille","lat":43.27719,"lon":5.4154,"is_reserved":false,"is_disabled":false,"rental_uris":{"android":"levelo://app?vid=8ade5181-cd88-4ece-8534-46a6372826ef","ios":"levelo://app?vid=8ade5181-cd88-4ece-8534-46a6372826ef"},"vehicle_type_id":"4","last_reported":1741004286,"current_range_meters":10800,"station_id":"","pricing_plan_id":"cebpf4jnsgd1na2vs0mg"},{"bike_id":"153328e4-8011-4129-9e37-f01b8981447e","system_id":"levelo_inurba_marseille","lat":43.28935,"lon":5.35485,"is_reserved":false,"is_disabled":false,"rental_uris":{"android":"levelo://app?vid=153328e4-8011-4129-9e37-f01b8981447e","ios":"levelo://app?vid=153328e4-8011-4129-9e37-f01b8981447e"},"vehicle_type_id":"4","last_reported":1741004286,"current_range_meters":10800,"station_id":"ce4bhgp2rcd13ifvqfe0","pricing_plan_id":"cebpf4jnsgd1na2vs0mg"},{"bike_id":"cd8b34ea-aabe-48d9-b45e-5d83af8db496","system_id":"levelo_inurba_marseille","lat":43.29263,"lon":5.38434,"is_reserved":false,"is_disabled":false,"rental_uris":{"android":"levelo://app?vid=cd8b34ea-aabe-48d9-b45e-5d83af8db496","ios":"levelo://app?vid=cd8b34ea-aabe-48d9-b45e-5d83af8db496"},"vehicle_type_id":"4","last_reported":1741004286,"current_range_meters":10800,"station_id":"ce4bh692rcd13ifvqea0","pricing_plan_id":"cebpf4jnsgd1na2vs0mg"},{"bike_id":"8644a38d-8521-4d97-8de3-5b49eb894965","system_id":"levelo_inurba_marseille","lat":43.30462,"lon":5.37902,"is_reserved":false,"is_disabled":false,"rental_uris":{"android":"levelo://app?vid=8644a38d-8521-4d97-8de3-5b49eb894965","ios":"levelo://app?vid=8644a38d-8521-4d97-8de3-5b49eb894965"},"vehicle_type_id":"4","last_reported":1741004286,"current_range_meters":11200,"station_id":"ce4bgup2rcd13ifvqcn0","pricing_plan_id":"cebpf4jnsgd1na2vs0mg"},{"bike_id":"c8c30254-af6a-4a88-b0b6-9a3a52022bea","system_id":"levelo_inurba_marseille","lat":43.32433,"lon":5.42666,"is_reserved":false,"is_disabled":false,"rental_uris":{"android":"levelo://app?vid=c8c30254-af6a-4a88-b0b6-9a3a52022bea","ios":"levelo://app?vid=c8c30254-af6a-4a88-b0b6-9a3a52022bea"},"vehicle_type_id":"4","last_reported":1741004286,"current_range_meters":11200,"station_id":"","pricing_plan_id":"cebpf4jnsgd1na2vs0mg"},{"bike_id":"8223b746-587e-4861-b0af-1323fd0537ef","system_id":"levelo_inurba_marseille","lat":43.23131,"lon":5.43712,"is_reserved":false,"is_disabled":false,"rental_uris":{"android":"levelo://app?vid=8223b746-587e-4861-b0af-1323fd0537ef","ios":"levelo://app?vid=8223b746-587e-4861-b0af-1323fd0537ef"},"vehicle_type_id":"4","last_reported":1741004286,"current_range_meters":11200,"station_id":"ce4bhmp2rcd13ifvqgog","pricing_plan_id":"cebpf4jnsgd1na2vs0mg"},{"bike_id":"e249ff21-93ff-46d1-906d-0d2417dd6187","system_id":"levelo_inurba_marseille","lat":43.28484,"lon":5.38422,"is_reserved":false,"is_disabled":false,"rental_uris":{"android":"levelo://app?vid=e249ff21-93ff-46d1-906d-0d2417dd6187","ios":"levelo://app?vid=e249ff21-93ff-46d1-906d-0d2417dd6187"},"vehicle_type_id":"4","last_reported":1741004286,"current_range_meters":11200,"station_id":"ce4bh512rcd13ifvqe3g","pricing_plan_id":"cebpf4jnsgd1na2vs0mg"},{"bike_id":"d6dcf2df-22f4-4acc-bb5a-fc34fb6762ee","system_id":"levelo_inurba_marseille","lat":43.2481,"lon":5.37464,"is_reserved":false,"is_disabled":false,"rental_uris":{"android":"levelo://app?vid=d6dcf2df-22f4-4acc-bb5a-fc34fb6762ee","ios":"levelo://app?vid=d6dcf2df-22f4-4acc-bb5a-fc34fb6762ee"},"vehicle_type_id":"4","last_reported":1741004286,"current_range_meters":11200,"station_id":"ce4bhgh2rcd13ifvqfb0","pricing_plan_id":"cebpf4jnsgd1na2vs0mg"},{"bike_id":"b3fd9708-860b-4280-9d2c-4d60854b9d58","system_id":"levelo_inurba_marseille","lat":43.28435,"lon":5.37522,"is_reserved":false,"is_disabled":false,"rental_uris":{"android":"levelo://app?vid=b3fd9708-860b-4280-9d2c-4d60854b9d58","ios":"levelo://app?vid=b3fd9708-860b-4280-9d2c-4d60854b9d58"},"vehicle_type_id":"4","last_reported":1741004286,"current_range_meters":11200,"station_id":"ce4bh412rcd13ifvqds0","pricing_plan_id":"cebpf4jnsgd1na2vs0mg"},{"bike_id":"100fcaf6-edb5-4701-9431-b8defb642405","system_id":"levelo_inurba_marseille","lat":43.24385,"lon":5.37059,"is_reserved":false,"is_disabled":false,"rental_uris":{"android":"levelo://app?vid=100fcaf6-edb5-4701-9431-b8defb642405","ios":"levelo://app?vid=100fcaf6-edb5-4701-9431-b8defb642405"},"vehicle_type_id":"4","last_reported":1741004286,"current_range_meters":11200,"station_id":"ce4bhhh2rcd13ifvqfk0","pricing_plan_id":"cebpf4jnsgd1na2vs0mg"},{"bike_id":"c11fdd45-99e0-4676-8c8e-e8f9d1bb40b5","system_id":"levelo_inurba_marseille","lat":43.27939,"lon":5.4103,"is_reserved":false,"is_disabled":true,"rental_uris":{"android":"levelo://app?vid=c11fdd45-99e0-4676-8c8e-e8f9d1bb40b5","ios":"levelo://app?vid=c11fdd45-99e0-4676-8c8e-e8f9d1bb40b5"},"vehicle_type_id":"4","last_reported":1741004286,"current_range_meters":11600,"station_id":"ce4bhnp2rcd13ifvqh0g","pricing_plan_id":"cebpf4jnsgd1na2vs0mg"},{"bike_id":"71cd5d9d-c4a9-4d7f-b25c-bd7ceef0b27e","system_id":"levelo_inurba_marseille","lat":43.31282,"lon":5.37751,"is_reserved":false,"is_disabled":false,"rental_uris":{"android":"levelo://app?vid=71cd5d9d-c4a9-4d7f-b25c-bd7ceef0b27e","ios":"levelo://app?vid=71cd5d9d-c4a9-4d7f-b25c-bd7ceef0b27e"},"vehicle_type_id":"4","last_reported":1741004286,"current_range_meters":11600,"station_id":"","pricing_plan_id":"cebpf4jnsgd1na2vs0mg"},{"bike_id":"caedf473-9313-4874-87c8-230b4a1efdb8","system_id":"levelo_inurba_marseille","lat":43.32483,"lon":5.36553,"is_reserved":false,"is_disabled":false,"rental_uris":{"android":"levelo://app?vid=caedf473-9313-4874-87c8-230b4a1efdb8","ios":"levelo://app?vid=caedf473-9313-4874-87c8-230b4a1efdb8"},"vehicle_type_id":"4","last_reported":1741004286,"current_range_meters":11600,"station_id":"ce4bhs12rcd13ifvqhvg","pricing_plan_id":"cebpf4jnsgd1na2vs0mg"},{"bike_id":"b014fbaa-3a70-4bd8-84eb-43d5c894c0ea","system_id":"levelo_inurba_marseille","lat":43.31231,"lon":5.36735,"is_reserved":false,"is_disabled":false,"rental_uris":{"android":"levelo://app?vid=b014fbaa-3a70-4bd8-84eb-43d5c894c0ea","ios":"levelo://app?vid=b014fbaa-3a70-4bd8-84eb-43d5c894c0ea"},"vehicle_type_id":"4","last_reported":1741004286,"current_range_meters":11600,"station_id":"","pricing_plan_id":"cebpf4jnsgd1na2vs0mg"},{"bike_id":"3537f7d6-114e-4b03-94e6-47f672d201af","system_id":"levelo_inurba_marseille","lat":43.28979,"lon":5.37837,"is_reserved":false,"is_disabled":false,"rental_uris":{"android":"levelo://app?vid=3537f7d6-114e-4b03-94e6-47f672d201af","ios":"levelo://app?vid=3537f7d6-114e-4b03-94e6-47f672d201af"},"vehicle_type_id":"4","last_reported":1741004286,"current_range_meters":11600,"station_id":"ce4bh9p2rcd13ifvqed0","pricing_plan_id":"cebpf4jnsgd1na2vs0mg"},{"bike_id":"d63de7c1-3e4d-4d43-a0d9-fbfe36af7a5e","system_id":"levelo_inurba_marseille","lat":43.2782,"lon":5.40684,"is_reserved":false,"is_disabled":false,"rental_uris":{"android":"levelo://app?vid=d63de7c1-3e4d-4d43-a0d9-fbfe36af7a5e","ios":"levelo://app?vid=d63de7c1-3e4d-4d43-a0d9-fbfe36af7a5e"},"vehicle_type_id":"4","last_reported":1741004286,"current_range_meters":11600,"station_id":"ce4bhnh2rcd13ifvqgtg","pricing_plan_id":"cebpf4jnsgd1na2vs0mg"},{"bike_id":"09f9869f-64fa-4320-b939-e9efbb24fa6d","system_id":"levelo_inurba_marseille","lat":43.32107,"lon":5.36765,"is_reserved":false,"is_disabled":false,"rental_uris":{"android":"levelo://app?vid=09f9869f-64fa-4320-b939-e9efbb24fa6d","ios":"levelo://app?vid=09f9869f-64fa-4320-b939-e9efbb24fa6d"},"vehicle_type_id":"4","last_reported":1741004286,"current_range_meters":12000,"station_id":"ce4bhrh2rcd13ifvqhug","pricing_plan_id":"cebpf4jnsgd1na2vs0mg"},{"bike_id":"61d6efa7-4506-4922-814b-a518ef959c2b","system_id":"levelo_inurba_marseille","lat":43.26685,"lon":5.38267,"is_reserved":false,"is_disabled":false,"rental_uris":{"android":"levelo://app?vid=61d6efa7-4506-4922-814b-a518ef959c2b","ios":"levelo://app?vid=61d6efa7-4506-4922-814b-a518ef959c2b"},"vehicle_type_id":"4","last_reported":1741004286,"current_range_meters":12000,"station_id":"ce4bhg92rcd13ifvqf90","pricing_plan_id":"cebpf4jnsgd1na2vs0mg"},{"bike_id":"ea2730eb-22a5-45fa-8729-a59f2d2d4e83","system_id":"levelo_inurba_marseille","lat":43.28569,"lon":5.39497,"is_reserved":false,"is_disabled":false,"rental_uris":{"android":"levelo://app?vid=ea2730eb-22a5-45fa-8729-a59f2d2d4e83","ios":"levelo://app?vid=ea2730eb-22a5-45fa-8729-a59f2d2d4e83"},"vehicle_type_id":"4","last_reported":1741004286,"current_range_meters":12000,"station_id":"ce4bh292rcd13ifvqdg0","pricing_plan_id":"cebpf4jnsgd1na2vs0mg"},{"bike_id":"0630f063-19d4-419e-9d1a-b8db622d3e3e","system_id":"levelo_inurba_marseille","lat":43.28976,"lon":5.37821,"is_reserved":false,"is_disabled":false,"rental_uris":{"android":"levelo://app?vid=0630f063-19d4-419e-9d1a-b8db622d3e3e","ios":"levelo://app?vid=0630f063-19d4-419e-9d1a-b8db622d3e3e"},"vehicle_type_id":"4","last_reported":1741004286,"current_range_meters":12000,"station_id":"ce4bh9p2rcd13ifvqed0","pricing_plan_id":"cebpf4jnsgd1na2vs0mg"},{"bike_id":"c8ce68ea-f67a-46a6-a9c9-c7c4878bad16","system_id":"levelo_inurba_marseille","lat":43.27495,"lon":5.42455,"is_reserved":false,"is_disabled":false,"rental_uris":{"android":"levelo://app?vid=c8ce68ea-f67a-46a6-a9c9-c7c4878bad16","ios":"levelo://app?vid=c8ce68ea-f67a-46a6-a9c9-c7c4878bad16"},"vehicle_type_id":"4","last_reported":1741004286,"current_range_meters":12400,"station_id":"ce4bhn92rcd13ifvqgrg","pricing_plan_id":"cebpf4jnsgd1na2vs0mg"},{"bike_id":"41ed89d3-77cd-4311-8513-748a0ca63c4f","system_id":"levelo_inurba_marseille","lat":43.21261,"lon":5.35307,"is_reserved":false,"is_disabled":false,"rental_uris":{"android":"levelo://app?vid=41ed89d3-77cd-4311-8513-748a0ca63c4f","ios":"levelo://app?vid=41ed89d3-77cd-4311-8513-748a0ca63c4f"},"vehicle_type_id":"4","last_reported":1741004286,"current_range_meters":12400,"station_id":"","pricing_plan_id":"cebpf4jnsgd1na2vs0mg"},{"bike_id":"66e9cb08-4b60-466e-b192-efbce12fa18d","system_id":"levelo_inurba_marseille","lat":43.2781,"lon":5.40712,"is_reserved":false,"is_disabled":false,"rental_uris":{"android":"levelo://app?vid=66e9cb08-4b60-466e-b192-efbce12fa18d","ios":"levelo://app?vid=66e9cb08-4b60-466e-b192-efbce12fa18d"},"vehicle_type_id":"4","last_reported":1741004286,"current_range_meters":12400,"station_id":"ce4bhnh2rcd13ifvqgtg","pricing_plan_id":"cebpf4jnsgd1na2vs0mg"},{"bike_id":"f48068d7-ba0c-4612-b5a3-f4fdcef37a83","system_id":"levelo_inurba_marseille","lat":43.286622,"lon":5.386725,"is_reserved":false,"is_disabled":false,"rental_uris":{"android":"levelo://app?vid=f48068d7-ba0c-4612-b5a3-f4fdcef37a83","ios":"levelo://app?vid=f48068d7-ba0c-4612-b5a3-f4fdcef37a83"},"vehicle_type_id":"4","last_reported":1741004286,"current_range_meters":12400,"station_id":"ce4bh692rcd13ifvqea0","pricing_plan_id":"cebpf4jnsgd1na2vs0mg"},{"bike_id":"82fc0ed7-e2ce-4836-aed3-b38de60a97b8","system_id":"levelo_inurba_marseille","lat":43.24176,"lon":5.39724,"is_reserved":false,"is_disabled":false,"rental_uris":{"android":"levelo://app?vid=82fc0ed7-e2ce-4836-aed3-b38de60a97b8","ios":"levelo://app?vid=82fc0ed7-e2ce-4836-aed3-b38de60a97b8"},"vehicle_type_id":"4","last_reported":1741004286,"current_range_meters":12400,"station_id":"ce4bhn12rcd13ifvqgpg","pricing_plan_id":"cebpf4jnsgd1na2vs0mg"},{"bike_id":"2aab36fe-9a35-44ee-9a94-b439fda7a93b","system_id":"levelo_inurba_marseille","lat":43.301531,"lon":5.380913,"is_reserved":false,"is_disabled":false,"rental_uris":{"android":"levelo://app?vid=2aab36fe-9a35-44ee-9a94-b439fda7a93b","ios":"levelo://app?vid=2aab36fe-9a35-44ee-9a94-b439fda7a93b"},"vehicle_type_id":"4","last_reported":1741004286,"current_range_meters":12400,"station_id":"ce4bgjp2rcd13ifvqbh0","pricing_plan_id":"cebpf4jnsgd1na2vs0mg"},{"bike_id":"49f83ab4-9012-434c-a930-7fb5d957b750","system_id":"levelo_inurba_marseille","lat":43.29253,"lon":5.40906,"is_reserved":false,"is_disabled":false,"rental_uris":{"android":"levelo://app?vid=49f83ab4-9012-434c-a930-7fb5d957b750","ios":"levelo://app?vid=49f83ab4-9012-434c-a930-7fb5d957b750"},"vehicle_type_id":"4","last_reported":1741004286,"current_range_meters":12400,"station_id":"ce4bh192rcd13ifvqdc0","pricing_plan_id":"cebpf4jnsgd1na2vs0mg"},{"bike_id":"98a718ec-51d3-4a2c-8b49-1493ee05d8c1","system_id":"levelo_inurba_marseille","lat":43.29577,"lon":5.36748,"is_reserved":false,"is_disabled":false,"rental_uris":{"android":"levelo://app?vid=98a718ec-51d3-4a2c-8b49-1493ee05d8c1","ios":"levelo://app?vid=98a718ec-51d3-4a2c-8b49-1493ee05d8c1"},"vehicle_type_id":"4","last_reported":1741004286,"current_range_meters":12400,"station_id":"ce4bgph2rcd13ifvqc2g","pricing_plan_id":"cebpf4jnsgd1na2vs0mg"},{"bike_id":"1c9de4ee-1854-4430-aa49-a14443550b14","system_id":"levelo_inurba_marseille","lat":43.30558,"lon":5.36532,"is_reserved":false,"is_disabled":false,"rental_uris":{"android":"levelo://app?vid=1c9de4ee-1854-4430-aa49-a14443550b14","ios":"levelo://app?vid=1c9de4ee-1854-4430-aa49-a14443550b14"},"vehicle_type_id":"4","last_reported":1741004286,"current_range_meters":12400,"station_id":"ce4bgs12rcd13ifvqcag","pricing_plan_id":"cebpf4jnsgd1na2vs0mg"},{"bike_id":"38658c88-48f1-44d7-92bd-94dfc27e434c","system_id":"levelo_inurba_marseille","lat":43.23158,"lon":5.43708,"is_reserved":false,"is_disabled":false,"rental_uris":{"android":"levelo://app?vid=38658c88-48f1-44d7-92bd-94dfc27e434c","ios":"levelo://app?vid=38658c88-48f1-44d7-92bd-94dfc27e434c"},"vehicle_type_id":"4","last_reported":1741004286,"current_range_meters":12800,"station_id":"ce4bhmp2rcd13ifvqgog","pricing_plan_id":"cebpf4jnsgd1na2vs0mg"},{"bike_id":"278c4342-3f56-40c4-963c-5a0c3e6c6c97","system_id":"levelo_inurba_marseille","lat":43.27497,"lon":5.42453,"is_reserved":false,"is_disabled":false,"rental_uris":{"android":"levelo://app?vid=278c4342-3f56-40c4-963c-5a0c3e6c6c97","ios":"levelo://app?vid=278c4342-3f56-40c4-963c-5a0c3e6c6c97"},"vehicle_type_id":"4","last_reported":1741004286,"current_range_meters":12800,"station_id":"ce4bhn92rcd13ifvqgrg","pricing_plan_id":"cebpf4jnsgd1na2vs0mg"},{"bike_id":"73044ac8-aa4f-4e43-9050-be90f82c89a0","system_id":"levelo_inurba_marseille","lat":43.27995,"lon":5.40016,"is_reserved":false,"is_disabled":false,"rental_uris":{"android":"levelo://app?vid=73044ac8-aa4f-4e43-9050-be90f82c89a0","ios":"levelo://app?vid=73044ac8-aa4f-4e43-9050-be90f82c89a0"},"vehicle_type_id":"4","last_reported":1741004286,"current_range_meters":13600,"station_id":"ce4bho92rcd13ifvqh4g","pricing_plan_id":"cebpf4jnsgd1na2vs0mg"},{"bike_id":"f71f9016-cd7a-4d2f-a244-6b67297b159e","system_id":"levelo_inurba_marseille","lat":43.27942,"lon":5.41677,"is_reserved":false,"is_disabled":false,"rental_uris":{"android":"levelo://app?vid=f71f9016-cd7a-4d2f-a244-6b67297b159e","ios":"levelo://app?vid=f71f9016-cd7a-4d2f-a244-6b67297b159e"},"vehicle_type_id":"4","last_reported":1741004286,"current_range_meters":13600,"station_id":"","pricing_plan_id":"cebpf4jnsgd1na2vs0mg"},{"bike_id":"53413f38-fd48-49a2-b227-d7e9ca181c35","system_id":"levelo_inurba_marseille","lat":43.27843,"lon":5.39205,"is_reserved":false,"is_disabled":false,"rental_uris":{"android":"levelo://app?vid=53413f38-fd48-49a2-b227-d7e9ca181c35","ios":"levelo://app?vid=53413f38-fd48-49a2-b227-d7e9ca181c35"},"vehicle_type_id":"4","last_reported":1741004286,"current_range_meters":13600,"station_id":"ce4bhjp2rcd13ifvqga0","pricing_plan_id":"cebpf4jnsgd1na2vs0mg"},{"bike_id":"a0096203-baa3-4f54-a2d7-33272b708ed7","system_id":"levelo_inurba_marseille","lat":43.23148,"lon":5.43719,"is_reserved":false,"is_disabled":false,"rental_uris":{"android":"levelo://app?vid=a0096203-baa3-4f54-a2d7-33272b708ed7","ios":"levelo://app?vid=a0096203-baa3-4f54-a2d7-33272b708ed7"},"vehicle_type_id":"4","last_reported":1741004286,"current_range_meters":13600,"station_id":"ce4bhmp2rcd13ifvqgog","pricing_plan_id":"cebpf4jnsgd1na2vs0mg"},{"bike_id":"4b0c1e6f-7d01-4cc1-be9f-f902e288ebfa","system_id":"levelo_inurba_marseille","lat":43.23146,"lon":5.43693,"is_reserved":false,"is_disabled":true,"rental_uris":{"android":"levelo://app?vid=4b0c1e6f-7d01-4cc1-be9f-f902e288ebfa","ios":"levelo://app?vid=4b0c1e6f-7d01-4cc1-be9f-f902e288ebfa"},"vehicle_type_id":"4","last_reported":1741004286,"current_range_meters":13600,"station_id":"ce4bhmp2rcd13ifvqgog","pricing_plan_id":"cebpf4jnsgd1na2vs0mg"},{"bike_id":"af999d6a-aeaa-4e6b-92ea-8c8b7d79521e","system_id":"levelo_inurba_marseille","lat":43.29588,"lon":5.37521,"is_reserved":false,"is_disabled":false,"rental_uris":{"android":"levelo://app?vid=af999d6a-aeaa-4e6b-92ea-8c8b7d79521e","ios":"levelo://app?vid=af999d6a-aeaa-4e6b-92ea-8c8b7d79521e"},"vehicle_type_id":"4","last_reported":1741004286,"current_range_meters":13600,"station_id":"ce4bgh92rcd13ifvqb50","pricing_plan_id":"cebpf4jnsgd1na2vs0mg"},{"bike_id":"362b2e41-0f7d-42ca-85b4-447baad17196","system_id":"levelo_inurba_marseille","lat":43.27201,"lon":5.41805,"is_reserved":false,"is_disabled":false,"rental_uris":{"android":"levelo://app?vid=362b2e41-0f7d-42ca-85b4-447baad17196","ios":"levelo://app?vid=362b2e41-0f7d-42ca-85b4-447baad17196"},"vehicle_type_id":"4","last_reported":1741004286,"current_range_meters":13600,"station_id":"","pricing_plan_id":"cebpf4jnsgd1na2vs0mg"},{"bike_id":"4074c567-734c-4a70-97ac-8899a65e3411","system_id":"levelo_inurba_marseille","lat":43.30638,"lon":5.40082,"is_reserved":false,"is_disabled":false,"rental_uris":{"android":"levelo://app?vid=4074c567-734c-4a70-97ac-8899a65e3411","ios":"levelo://app?vid=4074c567-734c-4a70-97ac-8899a65e3411"},"vehicle_type_id":"4","last_reported":1741004286,"current_range_meters":13600,"station_id":"ce4bh112rcd13ifvqda0","pricing_plan_id":"cebpf4jnsgd1na2vs0mg"},{"bike_id":"3947c993-f1d6-416c-8fc6-be3d14d1f1ef","system_id":"levelo_inurba_marseille","lat":43.26679,"lon":5.38268,"is_reserved":false,"is_disabled":false,"rental_uris":{"android":"levelo://app?vid=3947c993-f1d6-416c-8fc6-be3d14d1f1ef","ios":"levelo://app?vid=3947c993-f1d6-416c-8fc6-be3d14d1f1ef"},"vehicle_type_id":"4","last_reported":1741004286,"current_range_meters":13600,"station_id":"ce4bhg92rcd13ifvqf90","pricing_plan_id":"cebpf4jnsgd1na2vs0mg"},{"bike_id":"f412bafe-32ca-49bc-b144-43373775534e","system_id":"levelo_inurba_marseille","lat":43.24812,"lon":5.37441,"is_reserved":false,"is_disabled":false,"rental_uris":{"android":"levelo://app?vid=f412bafe-32ca-49bc-b144-43373775534e","ios":"levelo://app?vid=f412bafe-32ca-49bc-b144-43373775534e"},"vehicle_type_id":"4","last_reported":1741004286,"current_range_meters":14000,"station_id":"ce4bhgh2rcd13ifvqfb0","pricing_plan_id":"cebpf4jnsgd1na2vs0mg"},{"bike_id":"88f05a57-656e-4260-8cd4-95a6035d5d85","system_id":"levelo_inurba_marseille","lat":43.27815,"lon":5.40718,"is_reserved":false,"is_disabled":false,"rental_uris":{"android":"levelo://app?vid=88f05a57-656e-4260-8cd4-95a6035d5d85","ios":"levelo://app?vid=88f05a57-656e-4260-8cd4-95a6035d5d85"},"vehicle_type_id":"4","last_reported":1741004286,"current_range_meters":14000,"station_id":"ce4bhnh2rcd13ifvqgtg","pricing_plan_id":"cebpf4jnsgd1na2vs0mg"},{"bike_id":"cbe65268-33ed-4753-98c6-a94cc5d92bcb","system_id":"levelo_inurba_marseille","lat":43.24388,"lon":5.37061,"is_reserved":false,"is_disabled":false,"rental_uris":{"android":"levelo://app?vid=cbe65268-33ed-4753-98c6-a94cc5d92bcb","ios":"levelo://app?vid=cbe65268-33ed-4753-98c6-a94cc5d92bcb"},"vehicle_type_id":"4","last_reported":1741004286,"current_range_meters":13600,"station_id":"ce4bhhh2rcd13ifvqfk0","pricing_plan_id":"cebpf4jnsgd1na2vs0mg"},{"bike_id":"e3e31cfb-1072-434d-be52-cf31687eb675","system_id":"levelo_inurba_marseille","lat":43.29301,"lon":5.40104,"is_reserved":false,"is_disabled":false,"rental_uris":{"android":"levelo://app?vid=e3e31cfb-1072-434d-be52-cf31687eb675","ios":"levelo://app?vid=e3e31cfb-1072-434d-be52-cf31687eb675"},"vehicle_type_id":"4","last_reported":1741004286,"current_range_meters":14000,"station_id":"ce4bh312rcd13ifvqdk0","pricing_plan_id":"cebpf4jnsgd1na2vs0mg"},{"bike_id":"a9eb9414-2a65-4d88-b570-c89f28729dd2","system_id":"levelo_inurba_marseille","lat":43.23064,"lon":5.35494,"is_reserved":false,"is_disabled":false,"rental_uris":{"android":"levelo://app?vid=a9eb9414-2a65-4d88-b570-c89f28729dd2","ios":"levelo://app?vid=a9eb9414-2a65-4d88-b570-c89f28729dd2"},"vehicle_type_id":"4","last_reported":1741004286,"current_range_meters":14400,"station_id":"cpo3342slgdg3j2ifvpg","pricing_plan_id":"cebpf4jnsgd1na2vs0mg"},{"bike_id":"0b818497-4d97-451b-b637-cef3d02b5c9d","system_id":"levelo_inurba_marseille","lat":43.31713,"lon":5.43695,"is_reserved":false,"is_disabled":true,"rental_uris":{"android":"levelo://app?vid=0b818497-4d97-451b-b637-cef3d02b5c9d","ios":"levelo://app?vid=0b818497-4d97-451b-b637-cef3d02b5c9d"},"vehicle_type_id":"4","last_reported":1741004286,"current_range_meters":14400,"station_id":"ce4bhp92rcd13ifvqhcg","pricing_plan_id":"cebpf4jnsgd1na2vs0mg"},{"bike_id":"4c18281c-c229-4899-9431-f1c69444bc69","system_id":"levelo_inurba_marseille","lat":43.30301,"lon":5.36889,"is_reserved":false,"is_disabled":false,"rental_uris":{"android":"levelo://app?vid=4c18281c-c229-4899-9431-f1c69444bc69","ios":"levelo://app?vid=4c18281c-c229-4899-9431-f1c69444bc69"},"vehicle_type_id":"4","last_reported":1741004286,"current_range_meters":14400,"station_id":"ce4bgqh2rcd13ifvqc5g","pricing_plan_id":"cebpf4jnsgd1na2vs0mg"},{"bike_id":"f2bc86df-9179-4647-bbcf-80f2be1b2ccc","system_id":"levelo_inurba_marseille","lat":43.27376,"lon":5.36256,"is_reserved":false,"is_disabled":false,"rental_uris":{"android":"levelo://app?vid=f2bc86df-9179-4647-bbcf-80f2be1b2ccc","ios":"levelo://app?vid=f2bc86df-9179-4647-bbcf-80f2be1b2ccc"},"vehicle_type_id":"4","last_reported":1741004286,"current_range_meters":14400,"station_id":"ce4bhbh2rcd13ifvqeo0","pricing_plan_id":"cebpf4jnsgd1na2vs0mg"},{"bike_id":"8d5a005e-adec-405b-9611-e1004fd78c4c","system_id":"levelo_inurba_marseille","lat":43.30432,"lon":5.38886,"is_reserved":false,"is_disabled":true,"rental_uris":{"android":"levelo://app?vid=8d5a005e-adec-405b-9611-e1004fd78c4c","ios":"levelo://app?vid=8d5a005e-adec-405b-9611-e1004fd78c4c"},"vehicle_type_id":"4","last_reported":1741004286,"current_range_meters":14400,"station_id":"ce4bgk12rcd13ifvqbi0","pricing_plan_id":"cebpf4jnsgd1na2vs0mg"},{"bike_id":"f577c9c7-cfbe-46bd-8884-5b11c909a7eb","system_id":"levelo_inurba_marseille","lat":43.28854,"lon":5.35849,"is_reserved":false,"is_disabled":false,"rental_uris":{"android":"levelo://app?vid=f577c9c7-cfbe-46bd-8884-5b11c909a7eb","ios":"levelo://app?vid=f577c9c7-cfbe-46bd-8884-5b11c909a7eb"},"vehicle_type_id":"4","last_reported":1741004286,"current_range_meters":14400,"station_id":"ce4bhb12rcd13ifvqem0","pricing_plan_id":"cebpf4jnsgd1na2vs0mg"},{"bike_id":"b78cd7a2-9a29-42a8-9bee-4f2c2eb8472e","system_id":"levelo_inurba_marseille","lat":43.28417,"lon":5.34974,"is_reserved":false,"is_disabled":false,"rental_uris":{"android":"levelo://app?vid=b78cd7a2-9a29-42a8-9bee-4f2c2eb8472e","ios":"levelo://app?vid=b78cd7a2-9a29-42a8-9bee-4f2c2eb8472e"},"vehicle_type_id":"4","last_reported":1741004286,"current_range_meters":14400,"station_id":"ce4bhbh2rcd13ifvqepg","pricing_plan_id":"cebpf4jnsgd1na2vs0mg"},{"bike_id":"16da4d9d-170d-465d-856e-fc54b7d439d6","system_id":"levelo_inurba_marseille","lat":43.28935,"lon":5.36644,"is_reserved":false,"is_disabled":false,"rental_uris":{"android":"levelo://app?vid=16da4d9d-170d-465d-856e-fc54b7d439d6","ios":"levelo://app?vid=16da4d9d-170d-465d-856e-fc54b7d439d6"},"vehicle_type_id":"4","last_reported":1741004286,"current_range_meters":14400,"station_id":"ce4bhap2rcd13ifvqek0","pricing_plan_id":"cebpf4jnsgd1na2vs0mg"},{"bike_id":"bce611a7-5044-470a-9dc2-ccdbc1151c5c","system_id":"levelo_inurba_marseille","lat":43.32484,"lon":5.36557,"is_reserved":false,"is_disabled":false,"rental_uris":{"android":"levelo://app?vid=bce611a7-5044-470a-9dc2-ccdbc1151c5c","ios":"levelo://app?vid=bce611a7-5044-470a-9dc2-ccdbc1151c5c"},"vehicle_type_id":"4","last_reported":1741004286,"current_range_meters":14400,"station_id":"ce4bhs12rcd13ifvqhvg","pricing_plan_id":"cebpf4jnsgd1na2vs0mg"},{"bike_id":"7377503b-0960-4c1a-a8a1-658150c25466","system_id":"levelo_inurba_marseille","lat":43.31208,"lon":5.36835,"is_reserved":false,"is_disabled":false,"rental_uris":{"android":"levelo://app?vid=7377503b-0960-4c1a-a8a1-658150c25466","ios":"levelo://app?vid=7377503b-0960-4c1a-a8a1-658150c25466"},"vehicle_type_id":"4","last_reported":1741004286,"current_range_meters":14800,"station_id":"ce4bgl92rcd13ifvqbq0","pricing_plan_id":"cebpf4jnsgd1na2vs0mg"},{"bike_id":"2fe8f916-4590-4cd4-978d-98051b849535","system_id":"levelo_inurba_marseille","lat":43.28003,"lon":5.41667,"is_reserved":false,"is_disabled":false,"rental_uris":{"android":"levelo://app?vid=2fe8f916-4590-4cd4-978d-98051b849535","ios":"levelo://app?vid=2fe8f916-4590-4cd4-978d-98051b849535"},"vehicle_type_id":"4","last_reported":1741004286,"current_range_meters":15200,"station_id":"ce4bho12rcd13ifvqh1g","pricing_plan_id":"cebpf4jnsgd1na2vs0mg"},{"bike_id":"cb813df4-3836-4634-974a-d02d99a32d8a","system_id":"levelo_inurba_marseille","lat":43.32705,"lon":5.39232,"is_reserved":false,"is_disabled":true,"rental_uris":{"android":"levelo://app?vid=cb813df4-3836-4634-974a-d02d99a32d8a","ios":"levelo://app?vid=cb813df4-3836-4634-974a-d02d99a32d8a"},"vehicle_type_id":"4","last_reported":1741004286,"current_range_meters":15200,"station_id":"","pricing_plan_id":"cebpf4jnsgd1na2vs0mg"},{"bike_id":"9de42f25-f760-4086-9a08-2934eee1b520","system_id":"levelo_inurba_marseille","lat":43.21261,"lon":5.35346,"is_reserved":false,"is_disabled":false,"rental_uris":{"android":"levelo://app?vid=9de42f25-f760-4086-9a08-2934eee1b520","ios":"levelo://app?vid=9de42f25-f760-4086-9a08-2934eee1b520"},"vehicle_type_id":"4","last_reported":1741004286,"current_range_meters":15200,"station_id":"","pricing_plan_id":"cebpf4jnsgd1na2vs0mg"},{"bike_id":"4a889b84-b11f-4811-9285-06ab95b76212","system_id":"levelo_inurba_marseille","lat":43.250113,"lon":5.389287,"is_reserved":false,"is_disabled":false,"rental_uris":{"android":"levelo://app?vid=4a889b84-b11f-4811-9285-06ab95b76212","ios":"levelo://app?vid=4a889b84-b11f-4811-9285-06ab95b76212"},"vehicle_type_id":"4","last_reported":1741004286,"current_range_meters":15200,"station_id":"ce4bhgp2rcd13ifvqfd0","pricing_plan_id":"cebpf4jnsgd1na2vs0mg"},{"bike_id":"ed2965a1-cbfe-4e23-9666-dce524a34587","system_id":"levelo_inurba_marseille","lat":43.2781,"lon":5.40717,"is_reserved":false,"is_disabled":false,"rental_uris":{"android":"levelo://app?vid=ed2965a1-cbfe-4e23-9666-dce524a34587","ios":"levelo://app?vid=ed2965a1-cbfe-4e23-9666-dce524a34587"},"vehicle_type_id":"4","last_reported":1741004286,"current_range_meters":15200,"station_id":"ce4bhnh2rcd13ifvqgtg","pricing_plan_id":"cebpf4jnsgd1na2vs0mg"},{"bike_id":"c97761dd-6076-40b3-8eb8-a1cca581d281","system_id":"levelo_inurba_marseille","lat":43.25933,"lon":5.40837,"is_reserved":false,"is_disabled":false,"rental_uris":{"android":"levelo://app?vid=c97761dd-6076-40b3-8eb8-a1cca581d281","ios":"levelo://app?vid=c97761dd-6076-40b3-8eb8-a1cca581d281"},"vehicle_type_id":"4","last_reported":1741004286,"current_range_meters":15200,"station_id":"","pricing_plan_id":"cebpf4jnsgd1na2vs0mg"},{"bike_id":"af20a61f-bfb7-4cf0-ac42-5b98f41e7491","system_id":"levelo_inurba_marseille","lat":43.30317,"lon":5.39202,"is_reserved":false,"is_disabled":true,"rental_uris":{"android":"levelo://app?vid=af20a61f-bfb7-4cf0-ac42-5b98f41e7491","ios":"levelo://app?vid=af20a61f-bfb7-4cf0-ac42-5b98f41e7491"},"vehicle_type_id":"4","last_reported":1741004286,"current_range_meters":15200,"station_id":"ce4bgkh2rcd13ifvqbk0","pricing_plan_id":"cebpf4jnsgd1na2vs0mg"},{"bike_id":"923a7320-a0a7-468e-97eb-20f12ca141af","system_id":"levelo_inurba_marseille","lat":43.250118,"lon":5.389124,"is_reserved":false,"is_disabled":false,"rental_uris":{"android":"levelo://app?vid=923a7320-a0a7-468e-97eb-20f12ca141af","ios":"levelo://app?vid=923a7320-a0a7-468e-97eb-20f12ca141af"},"vehicle_type_id":"4","last_reported":1741004286,"current_range_meters":15200,"station_id":"ce4bhgp2rcd13ifvqfd0","pricing_plan_id":"cebpf4jnsgd1na2vs0mg"},{"bike_id":"c6c01a1c-3080-4e5a-b289-e7cf4e155079","system_id":"levelo_inurba_marseille","lat":43.32541,"lon":5.41451,"is_reserved":false,"is_disabled":false,"rental_uris":{"android":"levelo://app?vid=c6c01a1c-3080-4e5a-b289-e7cf4e155079","ios":"levelo://app?vid=c6c01a1c-3080-4e5a-b289-e7cf4e155079"},"vehicle_type_id":"4","last_reported":1741004286,"current_range_meters":15200,"station_id":"ce4bhq12rcd13ifvqhhg","pricing_plan_id":"cebpf4jnsgd1na2vs0mg"},{"bike_id":"5a565ef9-a99b-4821-9856-c17f8a27a2dd","system_id":"levelo_inurba_marseille","lat":43.29317,"lon":5.37143,"is_reserved":false,"is_disabled":true,"rental_uris":{"android":"levelo://app?vid=5a565ef9-a99b-4821-9856-c17f8a27a2dd","ios":"levelo://app?vid=5a565ef9-a99b-4821-9856-c17f8a27a2dd"},"vehicle_type_id":"4","last_reported":1741004286,"current_range_meters":15200,"station_id":"ce4bgh92rcd13ifvqb40","pricing_plan_id":"cebpf4jnsgd1na2vs0mg"},{"bike_id":"c7af57fd-5f22-44d3-855c-b54ff29c18ee","system_id":"levelo_inurba_marseille","lat":43.22929,"lon":5.35379,"is_reserved":false,"is_disabled":false,"rental_uris":{"android":"levelo://app?vid=c7af57fd-5f22-44d3-855c-b54ff29c18ee","ios":"levelo://app?vid=c7af57fd-5f22-44d3-855c-b54ff29c18ee"},"vehicle_type_id":"4","last_reported":1741004286,"current_range_meters":15200,"station_id":"cpo3532slgdg3j2ikp40","pricing_plan_id":"cebpf4jnsgd1na2vs0mg"},{"bike_id":"eaf480d1-5c03-48e6-a01d-75bcddd12b73","system_id":"levelo_inurba_marseille","lat":43.27116,"lon":5.42239,"is_reserved":false,"is_disabled":true,"rental_uris":{"android":"levelo://app?vid=eaf480d1-5c03-48e6-a01d-75bcddd12b73","ios":"levelo://app?vid=eaf480d1-5c03-48e6-a01d-75bcddd12b73"},"vehicle_type_id":"4","last_reported":1741004286,"current_range_meters":16000,"station_id":"","pricing_plan_id":"cebpf4jnsgd1na2vs0mg"},{"bike_id":"e7ec1ac1-2323-47bd-a2b5-7cd3afb282cf","system_id":"levelo_inurba_marseille","lat":43.26553,"lon":5.37295,"is_reserved":false,"is_disabled":false,"rental_uris":{"android":"levelo://app?vid=e7ec1ac1-2323-47bd-a2b5-7cd3afb282cf","ios":"levelo://app?vid=e7ec1ac1-2323-47bd-a2b5-7cd3afb282cf"},"vehicle_type_id":"4","last_reported":1741004286,"current_range_meters":16000,"station_id":"ce4bhg12rcd13ifvqf70","pricing_plan_id":"cebpf4jnsgd1na2vs0mg"},{"bike_id":"94f8fc33-e7a0-4755-85df-9bca974afa53","system_id":"levelo_inurba_marseille","lat":43.24648,"lon":5.38887,"is_reserved":false,"is_disabled":false,"rental_uris":{"android":"levelo://app?vid=94f8fc33-e7a0-4755-85df-9bca974afa53","ios":"levelo://app?vid=94f8fc33-e7a0-4755-85df-9bca974afa53"},"vehicle_type_id":"4","last_reported":1741004286,"current_range_meters":16000,"station_id":"ce4bhg12rcd13ifvqf60","pricing_plan_id":"cebpf4jnsgd1na2vs0mg"},{"bike_id":"2de7d5b3-7301-442d-9873-4263fbe1780f","system_id":"levelo_inurba_marseille","lat":43.29715,"lon":5.37696,"is_reserved":false,"is_disabled":false,"rental_uris":{"android":"levelo://app?vid=2de7d5b3-7301-442d-9873-4263fbe1780f","ios":"levelo://app?vid=2de7d5b3-7301-442d-9873-4263fbe1780f"},"vehicle_type_id":"4","last_reported":1741004286,"current_range_meters":16000,"station_id":"ce4bgkh2rcd13ifvqbl0","pricing_plan_id":"cebpf4jnsgd1na2vs0mg"},{"bike_id":"580f3a39-842a-4fdd-a589-5309eed9d153","system_id":"levelo_inurba_marseille","lat":43.25089,"lon":5.39516,"is_reserved":false,"is_disabled":false,"rental_uris":{"android":"levelo://app?vid=580f3a39-842a-4fdd-a589-5309eed9d153","ios":"levelo://app?vid=580f3a39-842a-4fdd-a589-5309eed9d153"},"vehicle_type_id":"4","last_reported":1741004286,"current_range_meters":16000,"station_id":"ce4bhm12rcd13ifvqgkg","pricing_plan_id":"cebpf4jnsgd1na2vs0mg"},{"bike_id":"73308b2c-d669-4e80-b403-227ab01914aa","system_id":"levelo_inurba_marseille","lat":43.24075,"lon":5.37761,"is_reserved":false,"is_disabled":false,"rental_uris":{"android":"levelo://app?vid=73308b2c-d669-4e80-b403-227ab01914aa","ios":"levelo://app?vid=73308b2c-d669-4e80-b403-227ab01914aa"},"vehicle_type_id":"4","last_reported":1741004286,"current_range_meters":16000,"station_id":"ce4bhnp2rcd13ifvqgvg","pricing_plan_id":"cebpf4jnsgd1na2vs0mg"},{"bike_id":"afa894e1-9bd0-4850-8c05-97f0a1f93ad6","system_id":"levelo_inurba_marseille","lat":43.25024,"lon":5.38905,"is_reserved":false,"is_disabled":false,"rental_uris":{"android":"levelo://app?vid=afa894e1-9bd0-4850-8c05-97f0a1f93ad6","ios":"levelo://app?vid=afa894e1-9bd0-4850-8c05-97f0a1f93ad6"},"vehicle_type_id":"4","last_reported":1741004286,"current_range_meters":16000,"station_id":"ce4bhgp2rcd13ifvqfd0","pricing_plan_id":"cebpf4jnsgd1na2vs0mg"},{"bike_id":"09cd708a-de55-4094-ae87-03f0e3207d77","system_id":"levelo_inurba_marseille","lat":43.29711,"lon":5.37689,"is_reserved":false,"is_disabled":false,"rental_uris":{"android":"levelo://app?vid=09cd708a-de55-4094-ae87-03f0e3207d77","ios":"levelo://app?vid=09cd708a-de55-4094-ae87-03f0e3207d77"},"vehicle_type_id":"4","last_reported":1741004286,"current_range_meters":16000,"station_id":"ce4bgkh2rcd13ifvqbl0","pricing_plan_id":"cebpf4jnsgd1na2vs0mg"},{"bike_id":"55d746f2-370b-43d9-8a44-0b445f693a14","system_id":"levelo_inurba_marseille","lat":43.26674,"lon":5.38264,"is_reserved":false,"is_disabled":false,"rental_uris":{"android":"levelo://app?vid=55d746f2-370b-43d9-8a44-0b445f693a14","ios":"levelo://app?vid=55d746f2-370b-43d9-8a44-0b445f693a14"},"vehicle_type_id":"4","last_reported":1741004286,"current_range_meters":16000,"station_id":"ce4bhg92rcd13ifvqf90","pricing_plan_id":"cebpf4jnsgd1na2vs0mg"},{"bike_id":"90f6a822-0838-416b-b6d5-177c0809c1d7","system_id":"levelo_inurba_marseille","lat":43.30559,"lon":5.36702,"is_reserved":false,"is_disabled":false,"rental_uris":{"android":"levelo://app?vid=90f6a822-0838-416b-b6d5-177c0809c1d7","ios":"levelo://app?vid=90f6a822-0838-416b-b6d5-177c0809c1d7"},"vehicle_type_id":"4","last_reported":1741004286,"current_range_meters":16000,"station_id":"ce4bgrp2rcd13ifvqc9g","pricing_plan_id":"cebpf4jnsgd1na2vs0mg"},{"bike_id":"cb014a6b-6553-43cb-90ee-c6d22cf5883f","system_id":"levelo_inurba_marseille","lat":43.26058,"lon":5.39365,"is_reserved":false,"is_disabled":false,"rental_uris":{"android":"levelo://app?vid=cb014a6b-6553-43cb-90ee-c6d22cf5883f","ios":"levelo://app?vid=cb014a6b-6553-43cb-90ee-c6d22cf5883f"},"vehicle_type_id":"4","last_reported":1741004286,"current_range_meters":16000,"station_id":"ce4bhh92rcd13ifvqfj0","pricing_plan_id":"cebpf4jnsgd1na2vs0mg"},{"bike_id":"44a7153b-0fd7-4509-836b-676bbf84fb06","system_id":"levelo_inurba_marseille","lat":43.231908,"lon":5.355585,"is_reserved":false,"is_disabled":false,"rental_uris":{"android":"levelo://app?vid=44a7153b-0fd7-4509-836b-676bbf84fb06","ios":"levelo://app?vid=44a7153b-0fd7-4509-836b-676bbf84fb06"},"vehicle_type_id":"4","last_reported":1741004286,"current_range_meters":16000,"station_id":"ce4bhu92rcd13ifvqi70","pricing_plan_id":"cebpf4jnsgd1na2vs0mg"},{"bike_id":"057b7c0c-e32b-4596-85a9-7fe183a1fd2c","system_id":"levelo_inurba_marseille","lat":43.27495,"lon":5.42454,"is_reserved":false,"is_disabled":false,"rental_uris":{"android":"levelo://app?vid=057b7c0c-e32b-4596-85a9-7fe183a1fd2c","ios":"levelo://app?vid=057b7c0c-e32b-4596-85a9-7fe183a1fd2c"},"vehicle_type_id":"4","last_reported":1741004286,"current_range_meters":16400,"station_id":"ce4bhn92rcd13ifvqgrg","pricing_plan_id":"cebpf4jnsgd1na2vs0mg"},{"bike_id":"2441f35a-400a-41d1-948a-411f04eb33d8","system_id":"levelo_inurba_marseille","lat":43.241656,"lon":5.364041,"is_reserved":false,"is_disabled":false,"rental_uris":{"android":"levelo://app?vid=2441f35a-400a-41d1-948a-411f04eb33d8","ios":"levelo://app?vid=2441f35a-400a-41d1-948a-411f04eb33d8"},"vehicle_type_id":"4","last_reported":1741004286,"current_range_meters":16400,"station_id":"cpo36qri1sfpv3e86is0","pricing_plan_id":"cebpf4jnsgd1na2vs0mg"},{"bike_id":"fa4a8523-6bf8-40dc-9e13-55b1c2a06650","system_id":"levelo_inurba_marseille","lat":43.24384,"lon":5.37041,"is_reserved":false,"is_disabled":false,"rental_uris":{"android":"levelo://app?vid=fa4a8523-6bf8-40dc-9e13-55b1c2a06650","ios":"levelo://app?vid=fa4a8523-6bf8-40dc-9e13-55b1c2a06650"},"vehicle_type_id":"4","last_reported":1741004286,"current_range_meters":16400,"station_id":"ce4bhhh2rcd13ifvqfk0","pricing_plan_id":"cebpf4jnsgd1na2vs0mg"},{"bike_id":"b06a57f7-690f-408f-8dd5-adbc59abf289","system_id":"levelo_inurba_marseille","lat":43.24811,"lon":5.37439,"is_reserved":false,"is_disabled":false,"rental_uris":{"android":"levelo://app?vid=b06a57f7-690f-408f-8dd5-adbc59abf289","ios":"levelo://app?vid=b06a57f7-690f-408f-8dd5-adbc59abf289"},"vehicle_type_id":"4","last_reported":1741004286,"current_range_meters":16400,"station_id":"ce4bhgh2rcd13ifvqfb0","pricing_plan_id":"cebpf4jnsgd1na2vs0mg"},{"bike_id":"ee1d2ad1-36ca-49dd-a328-f2a9a9994ecb","system_id":"levelo_inurba_marseille","lat":43.310783,"lon":5.381416,"is_reserved":false,"is_disabled":false,"rental_uris":{"android":"levelo://app?vid=ee1d2ad1-36ca-49dd-a328-f2a9a9994ecb","ios":"levelo://app?vid=ee1d2ad1-36ca-49dd-a328-f2a9a9994ecb"},"vehicle_type_id":"4","last_reported":1741004286,"current_range_meters":16800,"station_id":"","pricing_plan_id":"cebpf4jnsgd1na2vs0mg"},{"bike_id":"67fdb080-1cf7-4f60-a1ec-ce86ba0897f0","system_id":"levelo_inurba_marseille","lat":43.30964,"lon":5.39047,"is_reserved":false,"is_disabled":true,"rental_uris":{"android":"levelo://app?vid=67fdb080-1cf7-4f60-a1ec-ce86ba0897f0","ios":"levelo://app?vid=67fdb080-1cf7-4f60-a1ec-ce86ba0897f0"},"vehicle_type_id":"4","last_reported":1741004286,"current_range_meters":16800,"station_id":"ce4bgup2rcd13ifvqco0","pricing_plan_id":"cebpf4jnsgd1na2vs0mg"},{"bike_id":"b3dfd0c9-1112-4234-b22b-49b77c201b05","system_id":"levelo_inurba_marseille","lat":43.29715,"lon":5.3769,"is_reserved":false,"is_disabled":false,"rental_uris":{"android":"levelo://app?vid=b3dfd0c9-1112-4234-b22b-49b77c201b05","ios":"levelo://app?vid=b3dfd0c9-1112-4234-b22b-49b77c201b05"},"vehicle_type_id":"4","last_reported":1741004286,"current_range_meters":16800,"station_id":"ce4bgkh2rcd13ifvqbl0","pricing_plan_id":"cebpf4jnsgd1na2vs0mg"},{"bike_id":"66a7170f-402d-4017-b598-0ff8a2021180","system_id":"levelo_inurba_marseille","lat":43.31995,"lon":5.38138,"is_reserved":false,"is_disabled":false,"rental_uris":{"android":"levelo://app?vid=66a7170f-402d-4017-b598-0ff8a2021180","ios":"levelo://app?vid=66a7170f-402d-4017-b598-0ff8a2021180"},"vehicle_type_id":"4","last_reported":1741004286,"current_range_meters":16800,"station_id":"ce4bhr12rcd13ifvqhpg","pricing_plan_id":"cebpf4jnsgd1na2vs0mg"},{"bike_id":"bceefa18-3210-470b-a055-75e2385cf62f","system_id":"levelo_inurba_marseille","lat":43.23145,"lon":5.43717,"is_reserved":false,"is_disabled":false,"rental_uris":{"android":"levelo://app?vid=bceefa18-3210-470b-a055-75e2385cf62f","ios":"levelo://app?vid=bceefa18-3210-470b-a055-75e2385cf62f"},"vehicle_type_id":"4","last_reported":1741004286,"current_range_meters":16800,"station_id":"ce4bhmp2rcd13ifvqgog","pricing_plan_id":"cebpf4jnsgd1na2vs0mg"},{"bike_id":"ef4bb45d-9d64-487b-a05f-bd456c7d7ed5","system_id":"levelo_inurba_marseille","lat":43.26939,"lon":5.40242,"is_reserved":false,"is_disabled":false,"rental_uris":{"android":"levelo://app?vid=ef4bb45d-9d64-487b-a05f-bd456c7d7ed5","ios":"levelo://app?vid=ef4bb45d-9d64-487b-a05f-bd456c7d7ed5"},"vehicle_type_id":"4","last_reported":1741004286,"current_range_meters":17200,"station_id":"cjm6bp8fraef2m0cb0m0","pricing_plan_id":"cebpf4jnsgd1na2vs0mg"},{"bike_id":"1fc1950f-5c68-4ba8-90a8-b8173654385b","system_id":"levelo_inurba_marseille","lat":43.24997,"lon":5.38931,"is_reserved":false,"is_disabled":false,"rental_uris":{"android":"levelo://app?vid=1fc1950f-5c68-4ba8-90a8-b8173654385b","ios":"levelo://app?vid=1fc1950f-5c68-4ba8-90a8-b8173654385b"},"vehicle_type_id":"4","last_reported":1741004286,"current_range_meters":17200,"station_id":"ce4bhgp2rcd13ifvqfd0","pricing_plan_id":"cebpf4jnsgd1na2vs0mg"},{"bike_id":"d70f2244-0a55-45cf-ada8-5e84407e052a","system_id":"levelo_inurba_marseille","lat":43.24548,"lon":5.39503,"is_reserved":false,"is_disabled":false,"rental_uris":{"android":"levelo://app?vid=d70f2244-0a55-45cf-ada8-5e84407e052a","ios":"levelo://app?vid=d70f2244-0a55-45cf-ada8-5e84407e052a"},"vehicle_type_id":"4","last_reported":1741004286,"current_range_meters":17200,"station_id":"ce4bhlp2rcd13ifvqgjg","pricing_plan_id":"cebpf4jnsgd1na2vs0mg"},{"bike_id":"2088d297-ac0e-4674-b1cb-86b29bb33a9f","system_id":"levelo_inurba_marseille","lat":43.24997,"lon":5.38923,"is_reserved":false,"is_disabled":false,"rental_uris":{"android":"levelo://app?vid=2088d297-ac0e-4674-b1cb-86b29bb33a9f","ios":"levelo://app?vid=2088d297-ac0e-4674-b1cb-86b29bb33a9f"},"vehicle_type_id":"4","last_reported":1741004286,"current_range_meters":17200,"station_id":"ce4bhgp2rcd13ifvqfd0","pricing_plan_id":"cebpf4jnsgd1na2vs0mg"},{"bike_id":"da909fe2-f8e1-42c9-83c4-324b040f7cbb","system_id":"levelo_inurba_marseille","lat":43.27835,"lon":5.39208,"is_reserved":false,"is_disabled":false,"rental_uris":{"android":"levelo://app?vid=da909fe2-f8e1-42c9-83c4-324b040f7cbb","ios":"levelo://app?vid=da909fe2-f8e1-42c9-83c4-324b040f7cbb"},"vehicle_type_id":"4","last_reported":1741004286,"current_range_meters":17200,"station_id":"ce4bhjp2rcd13ifvqga0","pricing_plan_id":"cebpf4jnsgd1na2vs0mg"},{"bike_id":"7096c5dc-bb4b-4991-a0cc-822f311a8360","system_id":"levelo_inurba_marseille","lat":43.28418,"lon":5.34985,"is_reserved":false,"is_disabled":false,"rental_uris":{"android":"levelo://app?vid=7096c5dc-bb4b-4991-a0cc-822f311a8360","ios":"levelo://app?vid=7096c5dc-bb4b-4991-a0cc-822f311a8360"},"vehicle_type_id":"4","last_reported":1741004286,"current_range_meters":17200,"station_id":"ce4bhbh2rcd13ifvqepg","pricing_plan_id":"cebpf4jnsgd1na2vs0mg"},{"bike_id":"6d7b2ace-72c5-43eb-bb52-89a3431a7001","system_id":"levelo_inurba_marseille","lat":43.32536,"lon":5.41424,"is_reserved":false,"is_disabled":false,"rental_uris":{"android":"levelo://app?vid=6d7b2ace-72c5-43eb-bb52-89a3431a7001","ios":"levelo://app?vid=6d7b2ace-72c5-43eb-bb52-89a3431a7001"},"vehicle_type_id":"4","last_reported":1741004286,"current_range_meters":17200,"station_id":"ce4bhq12rcd13ifvqhhg","pricing_plan_id":"cebpf4jnsgd1na2vs0mg"},{"bike_id":"4cbb0c6a-dcad-4e9d-b1a7-e278dd7e4db8","system_id":"levelo_inurba_marseille","lat":43.29363,"lon":5.37867,"is_reserved":false,"is_disabled":false,"rental_uris":{"android":"levelo://app?vid=4cbb0c6a-dcad-4e9d-b1a7-e278dd7e4db8","ios":"levelo://app?vid=4cbb0c6a-dcad-4e9d-b1a7-e278dd7e4db8"},"vehicle_type_id":"4","last_reported":1741004286,"current_range_meters":17200,"station_id":"ce4bgjh2rcd13ifvqbf0","pricing_plan_id":"cebpf4jnsgd1na2vs0mg"},{"bike_id":"49225106-676c-42cd-b93f-fe1a78de3746","system_id":"levelo_inurba_marseille","lat":43.29302,"lon":5.37458,"is_reserved":false,"is_disabled":false,"rental_uris":{"android":"levelo://app?vid=49225106-676c-42cd-b93f-fe1a78de3746","ios":"levelo://app?vid=49225106-676c-42cd-b93f-fe1a78de3746"},"vehicle_type_id":"4","last_reported":1741004286,"current_range_meters":17600,"station_id":"ce4bgi12rcd13ifvqb70","pricing_plan_id":"cebpf4jnsgd1na2vs0mg"},{"bike_id":"8e7049e0-f12b-48c8-ae6d-9473edd241c8","system_id":"levelo_inurba_marseille","lat":43.27493,"lon":5.42458,"is_reserved":false,"is_disabled":false,"rental_uris":{"android":"levelo://app?vid=8e7049e0-f12b-48c8-ae6d-9473edd241c8","ios":"levelo://app?vid=8e7049e0-f12b-48c8-ae6d-9473edd241c8"},"vehicle_type_id":"4","last_reported":1741004286,"current_range_meters":17600,"station_id":"ce4bhn92rcd13ifvqgrg","pricing_plan_id":"cebpf4jnsgd1na2vs0mg"},{"bike_id":"2e12f33e-c418-46ae-bfbb-98019589dae4","system_id":"levelo_inurba_marseille","lat":43.266855,"lon":5.382658,"is_reserved":false,"is_disabled":false,"rental_uris":{"android":"levelo://app?vid=2e12f33e-c418-46ae-bfbb-98019589dae4","ios":"levelo://app?vid=2e12f33e-c418-46ae-bfbb-98019589dae4"},"vehicle_type_id":"4","last_reported":1741004286,"current_range_meters":17600,"station_id":"ce4bhg92rcd13ifvqf90","pricing_plan_id":"cebpf4jnsgd1na2vs0mg"},{"bike_id":"24d875bc-a97d-4545-a462-29bdfd0bff12","system_id":"levelo_inurba_marseille","lat":43.30151,"lon":5.38092,"is_reserved":false,"is_disabled":false,"rental_uris":{"android":"levelo://app?vid=24d875bc-a97d-4545-a462-29bdfd0bff12","ios":"levelo://app?vid=24d875bc-a97d-4545-a462-29bdfd0bff12"},"vehicle_type_id":"4","last_reported":1741004286,"current_range_meters":17600,"station_id":"ce4bgjp2rcd13ifvqbh0","pricing_plan_id":"cebpf4jnsgd1na2vs0mg"},{"bike_id":"31e8bd49-9d82-4485-bd12-3b4ff1304b2e","system_id":"levelo_inurba_marseille","lat":43.30532,"lon":5.36525,"is_reserved":false,"is_disabled":false,"rental_uris":{"android":"levelo://app?vid=31e8bd49-9d82-4485-bd12-3b4ff1304b2e","ios":"levelo://app?vid=31e8bd49-9d82-4485-bd12-3b4ff1304b2e"},"vehicle_type_id":"4","last_reported":1741004286,"current_range_meters":17600,"station_id":"ce4bgs12rcd13ifvqcag","pricing_plan_id":"cebpf4jnsgd1na2vs0mg"},{"bike_id":"e0bbd19f-dbed-424f-998c-e43cb85c9ec3","system_id":"levelo_inurba_marseille","lat":43.24164,"lon":5.36394,"is_reserved":false,"is_disabled":false,"rental_uris":{"android":"levelo://app?vid=e0bbd19f-dbed-424f-998c-e43cb85c9ec3","ios":"levelo://app?vid=e0bbd19f-dbed-424f-998c-e43cb85c9ec3"},"vehicle_type_id":"4","last_reported":1741004286,"current_range_meters":17600,"station_id":"cpo36qri1sfpv3e86is0","pricing_plan_id":"cebpf4jnsgd1na2vs0mg"},{"bike_id":"cfd37df0-b1c6-4f94-a627-4f20422c897a","system_id":"levelo_inurba_marseille","lat":43.27719,"lon":5.4154,"is_reserved":false,"is_disabled":false,"rental_uris":{"android":"levelo://app?vid=cfd37df0-b1c6-4f94-a627-4f20422c897a","ios":"levelo://app?vid=cfd37df0-b1c6-4f94-a627-4f20422c897a"},"vehicle_type_id":"4","last_reported":1741004286,"current_range_meters":17600,"station_id":"","pricing_plan_id":"cebpf4jnsgd1na2vs0mg"},{"bike_id":"4b5b3ba5-d12b-48dd-9530-9a7fe445b051","system_id":"levelo_inurba_marseille","lat":43.29847,"lon":5.36275,"is_reserved":false,"is_disabled":false,"rental_uris":{"android":"levelo://app?vid=4b5b3ba5-d12b-48dd-9530-9a7fe445b051","ios":"levelo://app?vid=4b5b3ba5-d12b-48dd-9530-9a7fe445b051"},"vehicle_type_id":"4","last_reported":1741004286,"current_range_meters":17600,"station_id":"ce4bgpp2rcd13ifvqc3g","pricing_plan_id":"cebpf4jnsgd1na2vs0mg"},{"bike_id":"20028365-39c7-4a99-a7a5-a3ec256550f6","system_id":"levelo_inurba_marseille","lat":43.2319,"lon":5.39983,"is_reserved":false,"is_disabled":false,"rental_uris":{"android":"levelo://app?vid=20028365-39c7-4a99-a7a5-a3ec256550f6","ios":"levelo://app?vid=20028365-39c7-4a99-a7a5-a3ec256550f6"},"vehicle_type_id":"4","last_reported":1741004286,"current_range_meters":17600,"station_id":"ce4bhn12rcd13ifvqgqg","pricing_plan_id":"cebpf4jnsgd1na2vs0mg"},{"bike_id":"01783194-92da-4c7e-8303-1d18a378f6f5","system_id":"levelo_inurba_marseille","lat":43.29934,"lon":5.3651,"is_reserved":false,"is_disabled":false,"rental_uris":{"android":"levelo://app?vid=01783194-92da-4c7e-8303-1d18a378f6f5","ios":"levelo://app?vid=01783194-92da-4c7e-8303-1d18a378f6f5"},"vehicle_type_id":"4","last_reported":1741004286,"current_range_meters":18000,"station_id":"ce4bgm92rcd13ifvqbr0","pricing_plan_id":"cebpf4jnsgd1na2vs0mg"},{"bike_id":"02c85aee-6faf-45a0-bb1f-6c1b5eedd680","system_id":"levelo_inurba_marseille","lat":43.23155,"lon":5.43712,"is_reserved":false,"is_disabled":false,"rental_uris":{"android":"levelo://app?vid=02c85aee-6faf-45a0-bb1f-6c1b5eedd680","ios":"levelo://app?vid=02c85aee-6faf-45a0-bb1f-6c1b5eedd680"},"vehicle_type_id":"4","last_reported":1741004286,"current_range_meters":18000,"station_id":"ce4bhmp2rcd13ifvqgog","pricing_plan_id":"cebpf4jnsgd1na2vs0mg"},{"bike_id":"0e51d764-4581-46d7-ab5a-c1fc77f49cd4","system_id":"levelo_inurba_marseille","lat":43.30135,"lon":5.38784,"is_reserved":false,"is_disabled":false,"rental_uris":{"android":"levelo://app?vid=0e51d764-4581-46d7-ab5a-c1fc77f49cd4","ios":"levelo://app?vid=0e51d764-4581-46d7-ab5a-c1fc77f49cd4"},"vehicle_type_id":"4","last_reported":1741004286,"current_range_meters":18000,"station_id":"ce4bghh2rcd13ifvqb60","pricing_plan_id":"cebpf4jnsgd1na2vs0mg"},{"bike_id":"1c906ecb-aae3-4c98-b5ef-6bb826d22f45","system_id":"levelo_inurba_marseille","lat":43.25871,"lon":5.39899,"is_reserved":false,"is_disabled":false,"rental_uris":{"android":"levelo://app?vid=1c906ecb-aae3-4c98-b5ef-6bb826d22f45","ios":"levelo://app?vid=1c906ecb-aae3-4c98-b5ef-6bb826d22f45"},"vehicle_type_id":"4","last_reported":1741004286,"current_range_meters":18000,"station_id":"ce4bhl92rcd13ifvqghg","pricing_plan_id":"cebpf4jnsgd1na2vs0mg"},{"bike_id":"2092a87c-c34a-4111-a2d9-0d15840f7562","system_id":"levelo_inurba_marseille","lat":43.29843,"lon":5.36267,"is_reserved":false,"is_disabled":false,"rental_uris":{"android":"levelo://app?vid=2092a87c-c34a-4111-a2d9-0d15840f7562","ios":"levelo://app?vid=2092a87c-c34a-4111-a2d9-0d15840f7562"},"vehicle_type_id":"4","last_reported":1741004286,"current_range_meters":18000,"station_id":"ce4bgpp2rcd13ifvqc3g","pricing_plan_id":"cebpf4jnsgd1na2vs0mg"},{"bike_id":"24708318-7a18-41ae-88ee-bd4e6d57d282","system_id":"levelo_inurba_marseille","lat":43.28461,"lon":5.35882,"is_reserved":false,"is_disabled":false,"rental_uris":{"android":"levelo://app?vid=24708318-7a18-41ae-88ee-bd4e6d57d282","ios":"levelo://app?vid=24708318-7a18-41ae-88ee-bd4e6d57d282"},"vehicle_type_id":"4","last_reported":1741004286,"current_range_meters":18000,"station_id":"ce4bhah2rcd13ifvqei0","pricing_plan_id":"cebpf4jnsgd1na2vs0mg"},{"bike_id":"17bbf9e4-fa04-49fc-a679-dc5b70af27d2","system_id":"levelo_inurba_marseille","lat":43.298507,"lon":5.362717,"is_reserved":false,"is_disabled":false,"rental_uris":{"android":"levelo://app?vid=17bbf9e4-fa04-49fc-a679-dc5b70af27d2","ios":"levelo://app?vid=17bbf9e4-fa04-49fc-a679-dc5b70af27d2"},"vehicle_type_id":"4","last_reported":1741004286,"current_range_meters":18000,"station_id":"ce4bgpp2rcd13ifvqc3g","pricing_plan_id":"cebpf4jnsgd1na2vs0mg"},{"bike_id":"63054af1-1c04-448f-9cd7-b9d58e61ba11","system_id":"levelo_inurba_marseille","lat":43.29021,"lon":5.38643,"is_reserved":false,"is_disabled":true,"rental_uris":{"android":"levelo://app?vid=63054af1-1c04-448f-9cd7-b9d58e61ba11","ios":"levelo://app?vid=63054af1-1c04-448f-9cd7-b9d58e61ba11"},"vehicle_type_id":"4","last_reported":1741004286,"current_range_meters":18000,"station_id":"ce4bh4p2rcd13ifvqe0g","pricing_plan_id":"cebpf4jnsgd1na2vs0mg"},{"bike_id":"53b5275f-fb13-4c02-bb8f-b9bf874f63d0","system_id":"levelo_inurba_marseille","lat":43.28568,"lon":5.39498,"is_reserved":false,"is_disabled":false,"rental_uris":{"android":"levelo://app?vid=53b5275f-fb13-4c02-bb8f-b9bf874f63d0","ios":"levelo://app?vid=53b5275f-fb13-4c02-bb8f-b9bf874f63d0"},"vehicle_type_id":"4","last_reported":1741004286,"current_range_meters":18800,"station_id":"ce4bh292rcd13ifvqdg0","pricing_plan_id":"cebpf4jnsgd1na2vs0mg"},{"bike_id":"c8df7b00-0c7c-4454-ada7-85c17f42aafb","system_id":"levelo_inurba_marseille","lat":43.22932,"lon":5.35373,"is_reserved":false,"is_disabled":false,"rental_uris":{"android":"levelo://app?vid=c8df7b00-0c7c-4454-ada7-85c17f42aafb","ios":"levelo://app?vid=c8df7b00-0c7c-4454-ada7-85c17f42aafb"},"vehicle_type_id":"4","last_reported":1741004286,"current_range_meters":18800,"station_id":"cpo3532slgdg3j2ikp40","pricing_plan_id":"cebpf4jnsgd1na2vs0mg"},{"bike_id":"32c2274b-4999-4a2d-84ce-78e2f5326cbc","system_id":"levelo_inurba_marseille","lat":43.28941,"lon":5.36642,"is_reserved":false,"is_disabled":false,"rental_uris":{"android":"levelo://app?vid=32c2274b-4999-4a2d-84ce-78e2f5326cbc","ios":"levelo://app?vid=32c2274b-4999-4a2d-84ce-78e2f5326cbc"},"vehicle_type_id":"4","last_reported":1741004286,"current_range_meters":18000,"station_id":"ce4bhap2rcd13ifvqek0","pricing_plan_id":"cebpf4jnsgd1na2vs0mg"},{"bike_id":"21d576ee-ad99-4344-99a6-48a7647dc728","system_id":"levelo_inurba_marseille","lat":43.32932,"lon":5.42995,"is_reserved":false,"is_disabled":false,"rental_uris":{"android":"levelo://app?vid=21d576ee-ad99-4344-99a6-48a7647dc728","ios":"levelo://app?vid=21d576ee-ad99-4344-99a6-48a7647dc728"},"vehicle_type_id":"4","last_reported":1741004286,"current_range_meters":18800,"station_id":"","pricing_plan_id":"cebpf4jnsgd1na2vs0mg"},{"bike_id":"82217258-5aca-45b6-b1b1-4c65ac2c2dbb","system_id":"levelo_inurba_marseille","lat":43.25085,"lon":5.39516,"is_reserved":false,"is_disabled":false,"rental_uris":{"android":"levelo://app?vid=82217258-5aca-45b6-b1b1-4c65ac2c2dbb","ios":"levelo://app?vid=82217258-5aca-45b6-b1b1-4c65ac2c2dbb"},"vehicle_type_id":"4","last_reported":1741004286,"current_range_meters":18800,"station_id":"ce4bhm12rcd13ifvqgkg","pricing_plan_id":"cebpf4jnsgd1na2vs0mg"},{"bike_id":"6e6bdd94-23be-4b2a-b2e5-0a6e533f6f29","system_id":"levelo_inurba_marseille","lat":43.25497,"lon":5.37656,"is_reserved":false,"is_disabled":false,"rental_uris":{"android":"levelo://app?vid=6e6bdd94-23be-4b2a-b2e5-0a6e533f6f29","ios":"levelo://app?vid=6e6bdd94-23be-4b2a-b2e5-0a6e533f6f29"},"vehicle_type_id":"4","last_reported":1741004286,"current_range_meters":18800,"station_id":"ce4bhh12rcd13ifvqff0","pricing_plan_id":"cebpf4jnsgd1na2vs0mg"},{"bike_id":"a8ce5cee-924f-456e-985e-2b7f5a63d98b","system_id":"levelo_inurba_marseille","lat":43.2734,"lon":5.39105,"is_reserved":false,"is_disabled":false,"rental_uris":{"android":"levelo://app?vid=a8ce5cee-924f-456e-985e-2b7f5a63d98b","ios":"levelo://app?vid=a8ce5cee-924f-456e-985e-2b7f5a63d98b"},"vehicle_type_id":"4","last_reported":1741004286,"current_range_meters":18800,"station_id":"ce4bhgp2rcd13ifvqfe0","pricing_plan_id":"cebpf4jnsgd1na2vs0mg"},{"bike_id":"5515b2ed-d24a-4958-9699-245f169e22b6","system_id":"levelo_inurba_marseille","lat":43.29548,"lon":5.422759,"is_reserved":false,"is_disabled":false,"rental_uris":{"android":"levelo://app?vid=5515b2ed-d24a-4958-9699-245f169e22b6","ios":"levelo://app?vid=5515b2ed-d24a-4958-9699-245f169e22b6"},"vehicle_type_id":"4","last_reported":1741004286,"current_range_meters":18800,"station_id":"ce4bhph2rcd13ifvqhdg","pricing_plan_id":"cebpf4jnsgd1na2vs0mg"},{"bike_id":"e6ce3260-6e42-4334-a434-b7f25aa0a5bb","system_id":"levelo_inurba_marseille","lat":43.3133,"lon":5.39694,"is_reserved":false,"is_disabled":true,"rental_uris":{"android":"levelo://app?vid=e6ce3260-6e42-4334-a434-b7f25aa0a5bb","ios":"levelo://app?vid=e6ce3260-6e42-4334-a434-b7f25aa0a5bb"},"vehicle_type_id":"4","last_reported":1741004286,"current_range_meters":19200,"station_id":"ce4bgvp2rcd13ifvqcu0","pricing_plan_id":"cebpf4jnsgd1na2vs0mg"},{"bike_id":"127d5be1-9be7-4578-8919-71e4d99423ec","system_id":"levelo_inurba_marseille","lat":43.27055,"lon":5.40258,"is_reserved":false,"is_disabled":false,"rental_uris":{"android":"levelo://app?vid=127d5be1-9be7-4578-8919-71e4d99423ec","ios":"levelo://app?vid=127d5be1-9be7-4578-8919-71e4d99423ec"},"vehicle_type_id":"4","last_reported":1741004286,"current_range_meters":19200,"station_id":"ce4bhk92rcd13ifvqgc0","pricing_plan_id":"cebpf4jnsgd1na2vs0mg"},{"bike_id":"ec829cb0-1abc-41cc-bdf2-03325252e782","system_id":"levelo_inurba_marseille","lat":43.24644,"lon":5.38863,"is_reserved":false,"is_disabled":false,"rental_uris":{"android":"levelo://app?vid=ec829cb0-1abc-41cc-bdf2-03325252e782","ios":"levelo://app?vid=ec829cb0-1abc-41cc-bdf2-03325252e782"},"vehicle_type_id":"4","last_reported":1741004286,"current_range_meters":19200,"station_id":"ce4bhg12rcd13ifvqf60","pricing_plan_id":"cebpf4jnsgd1na2vs0mg"},{"bike_id":"ad7f03a8-b253-4da6-871b-2dafec0c2279","system_id":"levelo_inurba_marseille","lat":43.2587,"lon":5.39895,"is_reserved":false,"is_disabled":false,"rental_uris":{"android":"levelo://app?vid=ad7f03a8-b253-4da6-871b-2dafec0c2279","ios":"levelo://app?vid=ad7f03a8-b253-4da6-871b-2dafec0c2279"},"vehicle_type_id":"4","last_reported":1741004286,"current_range_meters":19200,"station_id":"ce4bhl92rcd13ifvqghg","pricing_plan_id":"cebpf4jnsgd1na2vs0mg"},{"bike_id":"a86d001e-24f9-4d14-a5e4-5e6aa34e0a7e","system_id":"levelo_inurba_marseille","lat":43.29232,"lon":5.36097,"is_reserved":false,"is_disabled":false,"rental_uris":{"android":"levelo://app?vid=a86d001e-24f9-4d14-a5e4-5e6aa34e0a7e","ios":"levelo://app?vid=a86d001e-24f9-4d14-a5e4-5e6aa34e0a7e"},"vehicle_type_id":"4","last_reported":1741004286,"current_range_meters":19200,"station_id":"ce4bhbh2rcd13ifvqeqg","pricing_plan_id":"cebpf4jnsgd1na2vs0mg"},{"bike_id":"a3f40c4f-ad4e-4e34-8be2-16dd10c2664f","system_id":"levelo_inurba_marseille","lat":43.27817,"lon":5.40685,"is_reserved":false,"is_disabled":false,"rental_uris":{"android":"levelo://app?vid=a3f40c4f-ad4e-4e34-8be2-16dd10c2664f","ios":"levelo://app?vid=a3f40c4f-ad4e-4e34-8be2-16dd10c2664f"},"vehicle_type_id":"4","last_reported":1741004286,"current_range_meters":19200,"station_id":"ce4bhnh2rcd13ifvqgtg","pricing_plan_id":"cebpf4jnsgd1na2vs0mg"},{"bike_id":"85d9ff46-0ecd-48d2-9a5a-0a1f19da23c5","system_id":"levelo_inurba_marseille","lat":43.29438,"lon":5.39756,"is_reserved":false,"is_disabled":false,"rental_uris":{"android":"levelo://app?vid=85d9ff46-0ecd-48d2-9a5a-0a1f19da23c5","ios":"levelo://app?vid=85d9ff46-0ecd-48d2-9a5a-0a1f19da23c5"},"vehicle_type_id":"4","last_reported":1741004286,"current_range_meters":19600,"station_id":"ce4bh3h2rcd13ifvqdo0","pricing_plan_id":"cebpf4jnsgd1na2vs0mg"},{"bike_id":"8e02a8be-87f8-4cdd-a2dc-efc514d953d5","system_id":"levelo_inurba_marseille","lat":43.30534,"lon":5.36556,"is_reserved":false,"is_disabled":false,"rental_uris":{"android":"levelo://app?vid=8e02a8be-87f8-4cdd-a2dc-efc514d953d5","ios":"levelo://app?vid=8e02a8be-87f8-4cdd-a2dc-efc514d953d5"},"vehicle_type_id":"4","last_reported":1741004286,"current_range_meters":19600,"station_id":"ce4bgs12rcd13ifvqcag","pricing_plan_id":"cebpf4jnsgd1na2vs0mg"},{"bike_id":"bff232b2-bff3-4f96-a704-3c1a1e2f15bd","system_id":"levelo_inurba_marseille","lat":43.28153,"lon":5.42646,"is_reserved":false,"is_disabled":false,"rental_uris":{"android":"levelo://app?vid=bff232b2-bff3-4f96-a704-3c1a1e2f15bd","ios":"levelo://app?vid=bff232b2-bff3-4f96-a704-3c1a1e2f15bd"},"vehicle_type_id":"4","last_reported":1741004286,"current_range_meters":19600,"station_id":"ce4bhnh2rcd13ifvqgug","pricing_plan_id":"cebpf4jnsgd1na2vs0mg"},{"bike_id":"f9c1017b-f2f8-41b5-8237-f8ce77b7d0d9","system_id":"levelo_inurba_marseille","lat":43.31496,"lon":5.37296,"is_reserved":false,"is_disabled":false,"rental_uris":{"android":"levelo://app?vid=f9c1017b-f2f8-41b5-8237-f8ce77b7d0d9","ios":"levelo://app?vid=f9c1017b-f2f8-41b5-8237-f8ce77b7d0d9"},"vehicle_type_id":"4","last_reported":1741004286,"current_range_meters":19600,"station_id":"ce4bgt12rcd13ifvqcd0","pricing_plan_id":"cebpf4jnsgd1na2vs0mg"},{"bike_id":"bcd32e76-b50e-43c8-acbc-811b9e7cccd1","system_id":"levelo_inurba_marseille","lat":43.286864,"lon":5.400729,"is_reserved":false,"is_disabled":false,"rental_uris":{"android":"levelo://app?vid=bcd32e76-b50e-43c8-acbc-811b9e7cccd1","ios":"levelo://app?vid=bcd32e76-b50e-43c8-acbc-811b9e7cccd1"},"vehicle_type_id":"4","last_reported":1741004286,"current_range_meters":19600,"station_id":"","pricing_plan_id":"cebpf4jnsgd1na2vs0mg"},{"bike_id":"c8134fc0-79d4-470e-98a2-74375b91daf0","system_id":"levelo_inurba_marseille","lat":43.26056,"lon":5.39381,"is_reserved":false,"is_disabled":false,"rental_uris":{"android":"levelo://app?vid=c8134fc0-79d4-470e-98a2-74375b91daf0","ios":"levelo://app?vid=c8134fc0-79d4-470e-98a2-74375b91daf0"},"vehicle_type_id":"4","last_reported":1741004286,"current_range_meters":19600,"station_id":"ce4bhh92rcd13ifvqfj0","pricing_plan_id":"cebpf4jnsgd1na2vs0mg"},{"bike_id":"9d5733f4-230a-4949-929f-c9e5241932dd","system_id":"levelo_inurba_marseille","lat":43.29359,"lon":5.37832,"is_reserved":false,"is_disabled":false,"rental_uris":{"android":"levelo://app?vid=9d5733f4-230a-4949-929f-c9e5241932dd","ios":"levelo://app?vid=9d5733f4-230a-4949-929f-c9e5241932dd"},"vehicle_type_id":"4","last_reported":1741004286,"current_range_meters":19600,"station_id":"ce4bgjh2rcd13ifvqbf0","pricing_plan_id":"cebpf4jnsgd1na2vs0mg"},{"bike_id":"f66ba047-eb1e-4c71-b5da-460a1f07fb55","system_id":"levelo_inurba_marseille","lat":43.27324,"lon":5.39081,"is_reserved":false,"is_disabled":true,"rental_uris":{"android":"levelo://app?vid=f66ba047-eb1e-4c71-b5da-460a1f07fb55","ios":"levelo://app?vid=f66ba047-eb1e-4c71-b5da-460a1f07fb55"},"vehicle_type_id":"4","last_reported":1741004286,"current_range_meters":19600,"station_id":"ce4bhgp2rcd13ifvqfe0","pricing_plan_id":"cebpf4jnsgd1na2vs0mg"},{"bike_id":"75860c09-d076-4045-9a32-90a82c3b2a59","system_id":"levelo_inurba_marseille","lat":43.269256,"lon":5.366493,"is_reserved":false,"is_disabled":false,"rental_uris":{"android":"levelo://app?vid=75860c09-d076-4045-9a32-90a82c3b2a59","ios":"levelo://app?vid=75860c09-d076-4045-9a32-90a82c3b2a59"},"vehicle_type_id":"4","last_reported":1741004286,"current_range_meters":19600,"station_id":"ce4bgh92rcd13ifvqb50","pricing_plan_id":"cebpf4jnsgd1na2vs0mg"},{"bike_id":"fb6d80fe-1d48-40bd-ae8c-e918f75f650f","system_id":"levelo_inurba_marseille","lat":43.2807,"lon":5.39656,"is_reserved":false,"is_disabled":false,"rental_uris":{"android":"levelo://app?vid=fb6d80fe-1d48-40bd-ae8c-e918f75f650f","ios":"levelo://app?vid=fb6d80fe-1d48-40bd-ae8c-e918f75f650f"},"vehicle_type_id":"4","last_reported":1741004286,"current_range_meters":19600,"station_id":"ce4bho12rcd13ifvqh2g","pricing_plan_id":"cebpf4jnsgd1na2vs0mg"},{"bike_id":"68ae45ba-6a1c-4075-8498-31af3254d9fa","system_id":"levelo_inurba_marseille","lat":43.3014,"lon":5.38062,"is_reserved":false,"is_disabled":false,"rental_uris":{"android":"levelo://app?vid=68ae45ba-6a1c-4075-8498-31af3254d9fa","ios":"levelo://app?vid=68ae45ba-6a1c-4075-8498-31af3254d9fa"},"vehicle_type_id":"4","last_reported":1741004286,"current_range_meters":19600,"station_id":"ce4bgjp2rcd13ifvqbh0","pricing_plan_id":"cebpf4jnsgd1na2vs0mg"},{"bike_id":"7a39fade-d276-4114-a046-b38bdc8510ed","system_id":"levelo_inurba_marseille","lat":43.29273,"lon":5.36844,"is_reserved":false,"is_disabled":false,"rental_uris":{"android":"levelo://app?vid=7a39fade-d276-4114-a046-b38bdc8510ed","ios":"levelo://app?vid=7a39fade-d276-4114-a046-b38bdc8510ed"},"vehicle_type_id":"4","last_reported":1741004286,"current_range_meters":20000,"station_id":"ce4bhbp2rcd13ifvqesg","pricing_plan_id":"cebpf4jnsgd1na2vs0mg"},{"bike_id":"47ca7176-dcba-4b9e-8dbb-e2bb239319ab","system_id":"levelo_inurba_marseille","lat":43.31422,"lon":5.38493,"is_reserved":false,"is_disabled":false,"rental_uris":{"android":"levelo://app?vid=47ca7176-dcba-4b9e-8dbb-e2bb239319ab","ios":"levelo://app?vid=47ca7176-dcba-4b9e-8dbb-e2bb239319ab"},