{"last_updated":1744896058,"ttl":60,"version":"2.2","data":{"bikes":[{"bike_id":"834ec9e1-9d50-4bee-85ae-d1db335c55e5","system_id":"levelo_inurba_marseille","lat":43.31806,"lon":5.36821,"is_reserved":false,"is_disabled":false,"rental_uris":{"android":"levelo://app?vid=834ec9e1-9d50-4bee-85ae-d1db335c55e5","ios":"levelo://app?vid=834ec9e1-9d50-4bee-85ae-d1db335c55e5"},"vehicle_type_id":"4","last_reported":1744896058,"current_range_meters":2800,"station_id":"","pricing_plan_id":"cebpf4jnsgd1na2vs0mg"},{"bike_id":"8626aa5e-aa01-416d-b7c7-84dc0ecfb28a","system_id":"levelo_inurba_marseille","lat":43.30537,"lon":5.36542,"is_reserved":false,"is_disabled":false,"rental_uris":{"android":"levelo://app?vid=8626aa5e-aa01-416d-b7c7-84dc0ecfb28a","ios":"levelo://app?vid=8626aa5e-aa01-416d-b7c7-84dc0ecfb28a"},"vehicle_type_id":"4","last_reported":1744896058,"current_range_meters":2800,"station_id":"ce4bgs12rcd13ifvqcag","pricing_plan_id":"cebpf4jnsgd1na2vs0mg"},{"bike_id":"4be423fc-b49d-4203-8abc-985b45dfd65e","system_id":"levelo_inurba_marseille","lat":43.32915,"lon":5.43381,"is_reserved":false,"is_disabled":false,"rental_uris":{"android":"levelo://app?vid=4be423fc-b49d-4203-8abc-985b45dfd65e","ios":"levelo://app?vid=4be423fc-b49d-4203-8abc-985b45dfd65e"},"vehicle_type_id":"4","last_reported":1744896058,"current_range_meters":2800,"station_id":"","pricing_plan_id":"cebpf4jnsgd1na2vs0mg"},{"bike_id":"e830f15f-1fc7-4598-869b-2baaf3289f9f","system_id":"levelo_inurba_marseille","lat":43.32562,"lon":5.41441,"is_reserved":false,"is_disabled":false,"rental_uris":{"android":"levelo://app?vid=e830f15f-1fc7-4598-869b-2baaf3289f9f","ios":"levelo://app?vid=e830f15f-1fc7-4598-869b-2baaf3289f9f"},"vehicle_type_id":"4","last_reported":1744896058,"current_range_meters":3200,"station_id":"ce4bhq12rcd13ifvqhhg","pricing_plan_id":"cebpf4jnsgd1na2vs0mg"},{"bike_id":"65bf5b83-8270-4edc-bc61-6491ec8c1274","system_id":"levelo_inurba_marseille","lat":43.2955,"lon":5.42277,"is_reserved":false,"is_disabled":false,"rental_uris":{"android":"levelo://app?vid=65bf5b83-8270-4edc-bc61-6491ec8c1274","ios":"levelo://app?vid=65bf5b83-8270-4edc-bc61-6491ec8c1274"},"vehicle_type_id":"4","last_reported":1744896058,"current_range_meters":3200,"station_id":"ce4bhph2rcd13ifvqhdg","pricing_plan_id":"cebpf4jnsgd1na2vs0mg"},{"bike_id":"376f754b-7bba-4962-babe-b49b1468281c","system_id":"levelo_inurba_marseille","lat":43.30926,"lon":5.40156,"is_reserved":false,"is_disabled":true,"rental_uris":{"android":"levelo://app?vid=376f754b-7bba-4962-babe-b49b1468281c","ios":"levelo://app?vid=376f754b-7bba-4962-babe-b49b1468281c"},"vehicle_type_id":"4","last_reported":1744896058,"current_range_meters":3200,"station_id":"ce4bgvp2rcd13ifvqct0","pricing_plan_id":"cebpf4jnsgd1na2vs0mg"},{"bike_id":"c661ba04-9507-4f08-810b-5fba987c3992","system_id":"levelo_inurba_marseille","lat":43.305598,"lon":5.367302,"is_reserved":false,"is_disabled":false,"rental_uris":{"android":"levelo://app?vid=c661ba04-9507-4f08-810b-5fba987c3992","ios":"levelo://app?vid=c661ba04-9507-4f08-810b-5fba987c3992"},"vehicle_type_id":"4","last_reported":1744896058,"current_range_meters":3600,"station_id":"ce4bgrp2rcd13ifvqc9g","pricing_plan_id":"cebpf4jnsgd1na2vs0mg"},{"bike_id":"27d65429-e235-4ad4-8e99-624219bf772a","system_id":"levelo_inurba_marseille","lat":43.30736,"lon":5.42436,"is_reserved":false,"is_disabled":false,"rental_uris":{"android":"levelo://app?vid=27d65429-e235-4ad4-8e99-624219bf772a","ios":"levelo://app?vid=27d65429-e235-4ad4-8e99-624219bf772a"},"vehicle_type_id":"4","last_reported":1744896058,"current_range_meters":3600,"station_id":"st_cvj6ca6bvosntc0bfgr0","pricing_plan_id":"cebpf4jnsgd1na2vs0mg"},{"bike_id":"6d55a935-65c9-4137-9a56-cf2cf1c4412b","system_id":"levelo_inurba_marseille","lat":43.29191,"lon":5.39322,"is_reserved":false,"is_disabled":false,"rental_uris":{"android":"levelo://app?vid=6d55a935-65c9-4137-9a56-cf2cf1c4412b","ios":"levelo://app?vid=6d55a935-65c9-4137-9a56-cf2cf1c4412b"},"vehicle_type_id":"4","last_reported":1744896058,"current_range_meters":4400,"station_id":"ce4bh192rcd13ifvqdd0","pricing_plan_id":"cebpf4jnsgd1na2vs0mg"},{"bike_id":"e1efcb6b-7920-42d5-8c5d-fb3a27ec6ba1","system_id":"levelo_inurba_marseille","lat":43.2937,"lon":5.37846,"is_reserved":false,"is_disabled":false,"rental_uris":{"android":"levelo://app?vid=e1efcb6b-7920-42d5-8c5d-fb3a27ec6ba1","ios":"levelo://app?vid=e1efcb6b-7920-42d5-8c5d-fb3a27ec6ba1"},"vehicle_type_id":"4","last_reported":1744896058,"current_range_meters":4800,"station_id":"ce4bgjh2rcd13ifvqbf0","pricing_plan_id":"cebpf4jnsgd1na2vs0mg"},{"bike_id":"2aa9b6e6-52b4-4684-a7c9-830a69f612f1","system_id":"levelo_inurba_marseille","lat":43.295698,"lon":5.375333,"is_reserved":false,"is_disabled":false,"rental_uris":{"android":"levelo://app?vid=2aa9b6e6-52b4-4684-a7c9-830a69f612f1","ios":"levelo://app?vid=2aa9b6e6-52b4-4684-a7c9-830a69f612f1"},"vehicle_type_id":"4","last_reported":1744896058,"current_range_meters":4800,"station_id":"ce4bgh92rcd13ifvqb50","pricing_plan_id":"cebpf4jnsgd1na2vs0mg"},{"bike_id":"e86f50e0-914d-4c94-b81c-73c8a5f0aa16","system_id":"levelo_inurba_marseille","lat":43.27339,"lon":5.39116,"is_reserved":false,"is_disabled":false,"rental_uris":{"android":"levelo://app?vid=e86f50e0-914d-4c94-b81c-73c8a5f0aa16","ios":"levelo://app?vid=e86f50e0-914d-4c94-b81c-73c8a5f0aa16"},"vehicle_type_id":"4","last_reported":1744896058,"current_range_meters":4800,"station_id":"ce4bhgp2rcd13ifvqfe0","pricing_plan_id":"cebpf4jnsgd1na2vs0mg"},{"bike_id":"a50b162a-861d-4a71-b07e-4d1e4b5deed2","system_id":"levelo_inurba_marseille","lat":43.27617,"lon":5.3612,"is_reserved":false,"is_disabled":false,"rental_uris":{"android":"levelo://app?vid=a50b162a-861d-4a71-b07e-4d1e4b5deed2","ios":"levelo://app?vid=a50b162a-861d-4a71-b07e-4d1e4b5deed2"},"vehicle_type_id":"4","last_reported":1744896058,"current_range_meters":5600,"station_id":"ce4bgj92rcd13ifvqbe0","pricing_plan_id":"cebpf4jnsgd1na2vs0mg"},{"bike_id":"132168d4-7307-4779-88d2-bc9c78f14e33","system_id":"levelo_inurba_marseille","lat":43.23152,"lon":5.43703,"is_reserved":false,"is_disabled":false,"rental_uris":{"android":"levelo://app?vid=132168d4-7307-4779-88d2-bc9c78f14e33","ios":"levelo://app?vid=132168d4-7307-4779-88d2-bc9c78f14e33"},"vehicle_type_id":"4","last_reported":1744896058,"current_range_meters":6000,"station_id":"ce4bhmp2rcd13ifvqgog","pricing_plan_id":"cebpf4jnsgd1na2vs0mg"},{"bike_id":"935aa0a8-5f22-4910-b281-da9f1019d387","system_id":"levelo_inurba_marseille","lat":43.29278,"lon":5.38433,"is_reserved":false,"is_disabled":false,"rental_uris":{"android":"levelo://app?vid=935aa0a8-5f22-4910-b281-da9f1019d387","ios":"levelo://app?vid=935aa0a8-5f22-4910-b281-da9f1019d387"},"vehicle_type_id":"4","last_reported":1744896058,"current_range_meters":6000,"station_id":"ce4bh692rcd13ifvqea0","pricing_plan_id":"cebpf4jnsgd1na2vs0mg"},{"bike_id":"16a3d94d-2285-4ce9-a7ec-33ae5d19285c","system_id":"levelo_inurba_marseille","lat":43.29525,"lon":5.39407,"is_reserved":false,"is_disabled":false,"rental_uris":{"android":"levelo://app?vid=16a3d94d-2285-4ce9-a7ec-33ae5d19285c","ios":"levelo://app?vid=16a3d94d-2285-4ce9-a7ec-33ae5d19285c"},"vehicle_type_id":"4","last_reported":1744896058,"current_range_meters":6000,"station_id":"ce4bh292rcd13ifvqdf0","pricing_plan_id":"cebpf4jnsgd1na2vs0mg"},{"bike_id":"bbbe58a6-00b8-4003-bb4e-4c398e4041b8","system_id":"levelo_inurba_marseille","lat":43.29631,"lon":5.40595,"is_reserved":false,"is_disabled":false,"rental_uris":{"android":"levelo://app?vid=bbbe58a6-00b8-4003-bb4e-4c398e4041b8","ios":"levelo://app?vid=bbbe58a6-00b8-4003-bb4e-4c398e4041b8"},"vehicle_type_id":"4","last_reported":1744896058,"current_range_meters":6400,"station_id":"ce4bh0h2rcd13ifvqd60","pricing_plan_id":"cebpf4jnsgd1na2vs0mg"},{"bike_id":"b4ae753d-5d6a-45f4-9c28-83b88c237880","system_id":"levelo_inurba_marseille","lat":43.29535,"lon":5.38547,"is_reserved":false,"is_disabled":false,"rental_uris":{"android":"levelo://app?vid=b4ae753d-5d6a-45f4-9c28-83b88c237880","ios":"levelo://app?vid=b4ae753d-5d6a-45f4-9c28-83b88c237880"},"vehicle_type_id":"4","last_reported":1744896058,"current_range_meters":6400,"station_id":"ce4bgih2rcd13ifvqba0","pricing_plan_id":"cebpf4jnsgd1na2vs0mg"},{"bike_id":"b2264eb1-5e1f-4f92-929e-c66b4b54a200","system_id":"levelo_inurba_marseille","lat":43.28608,"lon":5.37064,"is_reserved":false,"is_disabled":false,"rental_uris":{"android":"levelo://app?vid=b2264eb1-5e1f-4f92-929e-c66b4b54a200","ios":"levelo://app?vid=b2264eb1-5e1f-4f92-929e-c66b4b54a200"},"vehicle_type_id":"4","last_reported":1744896058,"current_range_meters":6800,"station_id":"ce4bht12rcd13ifvqi60","pricing_plan_id":"cebpf4jnsgd1na2vs0mg"},{"bike_id":"24223659-7e57-4a0b-a27e-833ef817663a","system_id":"levelo_inurba_marseille","lat":43.25581,"lon":5.3824,"is_reserved":false,"is_disabled":false,"rental_uris":{"android":"levelo://app?vid=24223659-7e57-4a0b-a27e-833ef817663a","ios":"levelo://app?vid=24223659-7e57-4a0b-a27e-833ef817663a"},"vehicle_type_id":"4","last_reported":1744896058,"current_range_meters":6800,"station_id":"ce4bhih2rcd13ifvqfs0","pricing_plan_id":"cebpf4jnsgd1na2vs0mg"},{"bike_id":"b0dbd109-dd07-40d7-86e1-bf3b86717302","system_id":"levelo_inurba_marseille","lat":43.28,"lon":5.40013,"is_reserved":false,"is_disabled":false,"rental_uris":{"android":"levelo://app?vid=b0dbd109-dd07-40d7-86e1-bf3b86717302","ios":"levelo://app?vid=b0dbd109-dd07-40d7-86e1-bf3b86717302"},"vehicle_type_id":"4","last_reported":1744896058,"current_range_meters":6800,"station_id":"ce4bho92rcd13ifvqh4g","pricing_plan_id":"cebpf4jnsgd1na2vs0mg"},{"bike_id":"751ec6b4-a903-4445-a13d-51a5efaa2210","system_id":"levelo_inurba_marseille","lat":43.29252,"lon":5.37618,"is_reserved":false,"is_disabled":false,"rental_uris":{"android":"levelo://app?vid=751ec6b4-a903-4445-a13d-51a5efaa2210","ios":"levelo://app?vid=751ec6b4-a903-4445-a13d-51a5efaa2210"},"vehicle_type_id":"4","last_reported":1744896058,"current_range_meters":8000,"station_id":"ce4bgi12rcd13ifvqb80","pricing_plan_id":"cebpf4jnsgd1na2vs0mg"},{"bike_id":"cf5aad55-aba0-4efb-be56-1fea425b6b05","system_id":"levelo_inurba_marseille","lat":43.23152,"lon":5.43717,"is_reserved":false,"is_disabled":false,"rental_uris":{"android":"levelo://app?vid=cf5aad55-aba0-4efb-be56-1fea425b6b05","ios":"levelo://app?vid=cf5aad55-aba0-4efb-be56-1fea425b6b05"},"vehicle_type_id":"4","last_reported":1744896058,"current_range_meters":8000,"station_id":"ce4bhmp2rcd13ifvqgog","pricing_plan_id":"cebpf4jnsgd1na2vs0mg"},{"bike_id":"af48bf10-f22a-4b9c-b860-2d8bb727cf09","system_id":"levelo_inurba_marseille","lat":43.27812,"lon":5.40711,"is_reserved":false,"is_disabled":false,"rental_uris":{"android":"levelo://app?vid=af48bf10-f22a-4b9c-b860-2d8bb727cf09","ios":"levelo://app?vid=af48bf10-f22a-4b9c-b860-2d8bb727cf09"},"vehicle_type_id":"4","last_reported":1744896058,"current_range_meters":8400,"station_id":"ce4bhnh2rcd13ifvqgtg","pricing_plan_id":"cebpf4jnsgd1na2vs0mg"},{"bike_id":"408eca25-c9e3-4259-ba41-7160925f4d7a","system_id":"levelo_inurba_marseille","lat":43.217438,"lon":5.345986,"is_reserved":false,"is_disabled":false,"rental_uris":{"android":"levelo://app?vid=408eca25-c9e3-4259-ba41-7160925f4d7a","ios":"levelo://app?vid=408eca25-c9e3-4259-ba41-7160925f4d7a"},"vehicle_type_id":"4","last_reported":1744896058,"current_range_meters":8400,"station_id":"st_cvj6r9ubvosntc0bgbag","pricing_plan_id":"cebpf4jnsgd1na2vs0mg"},{"bike_id":"17d425c7-2ff7-47af-abf9-ee9063cee3be","system_id":"levelo_inurba_marseille","lat":43.33589,"lon":5.41007,"is_reserved":false,"is_disabled":false,"rental_uris":{"android":"levelo://app?vid=17d425c7-2ff7-47af-abf9-ee9063cee3be","ios":"levelo://app?vid=17d425c7-2ff7-47af-abf9-ee9063cee3be"},"vehicle_type_id":"4","last_reported":1744896058,"current_range_meters":8400,"station_id":"ce4bhqh2rcd13ifvqhmg","pricing_plan_id":"cebpf4jnsgd1na2vs0mg"},{"bike_id":"16d39edd-fbf0-4d3c-8ab4-7df592c3acdb","system_id":"levelo_inurba_marseille","lat":43.29633,"lon":5.4059,"is_reserved":false,"is_disabled":false,"rental_uris":{"android":"levelo://app?vid=16d39edd-fbf0-4d3c-8ab4-7df592c3acdb","ios":"levelo://app?vid=16d39edd-fbf0-4d3c-8ab4-7df592c3acdb"},"vehicle_type_id":"4","last_reported":1744896058,"current_range_meters":8400,"station_id":"ce4bh0h2rcd13ifvqd60","pricing_plan_id":"cebpf4jnsgd1na2vs0mg"},{"bike_id":"994695a9-98fd-4da6-9191-c96330e6cffb","system_id":"levelo_inurba_marseille","lat":43.21752,"lon":5.34587,"is_reserved":false,"is_disabled":false,"rental_uris":{"android":"levelo://app?vid=994695a9-98fd-4da6-9191-c96330e6cffb","ios":"levelo://app?vid=994695a9-98fd-4da6-9191-c96330e6cffb"},"vehicle_type_id":"4","last_reported":1744896058,"current_range_meters":8400,"station_id":"st_cvj6r9ubvosntc0bgbag","pricing_plan_id":"cebpf4jnsgd1na2vs0mg"},{"bike_id":"09002642-e1dc-4dc3-a673-71dae931d56f","system_id":"levelo_inurba_marseille","lat":43.21747,"lon":5.34601,"is_reserved":false,"is_disabled":false,"rental_uris":{"android":"levelo://app?vid=09002642-e1dc-4dc3-a673-71dae931d56f","ios":"levelo://app?vid=09002642-e1dc-4dc3-a673-71dae931d56f"},"vehicle_type_id":"4","last_reported":1744896058,"current_range_meters":8800,"station_id":"st_cvj6r9ubvosntc0bgbag","pricing_plan_id":"cebpf4jnsgd1na2vs0mg"},{"bike_id":"b66512e9-6177-4d4b-801b-0a909db33f3b","system_id":"levelo_inurba_marseille","lat":43.3377,"lon":5.37431,"is_reserved":false,"is_disabled":false,"rental_uris":{"android":"levelo://app?vid=b66512e9-6177-4d4b-801b-0a909db33f3b","ios":"levelo://app?vid=b66512e9-6177-4d4b-801b-0a909db33f3b"},"vehicle_type_id":"4","last_reported":1744896058,"current_range_meters":8800,"station_id":"","pricing_plan_id":"cebpf4jnsgd1na2vs0mg"},{"bike_id":"081736b6-fc5c-4e94-8e6f-87323a3c4c8f","system_id":"levelo_inurba_marseille","lat":43.29018,"lon":5.37587,"is_reserved":false,"is_disabled":false,"rental_uris":{"android":"levelo://app?vid=081736b6-fc5c-4e94-8e6f-87323a3c4c8f","ios":"levelo://app?vid=081736b6-fc5c-4e94-8e6f-87323a3c4c8f"},"vehicle_type_id":"4","last_reported":1744896058,"current_range_meters":8800,"station_id":"ce4bh692rcd13ifvqe90","pricing_plan_id":"cebpf4jnsgd1na2vs0mg"},{"bike_id":"d2b3fbe7-5ad7-4bf0-b536-8872522773e4","system_id":"levelo_inurba_marseille","lat":43.29889,"lon":5.38893,"is_reserved":false,"is_disabled":false,"rental_uris":{"android":"levelo://app?vid=d2b3fbe7-5ad7-4bf0-b536-8872522773e4","ios":"levelo://app?vid=d2b3fbe7-5ad7-4bf0-b536-8872522773e4"},"vehicle_type_id":"4","last_reported":1744896058,"current_range_meters":8800,"station_id":"ce4bh392rcd13ifvqdl0","pricing_plan_id":"cebpf4jnsgd1na2vs0mg"},{"bike_id":"74f644e2-cb89-47f4-ba0d-808a5ce06eb5","system_id":"levelo_inurba_marseille","lat":43.27206,"lon":5.39186,"is_reserved":false,"is_disabled":false,"rental_uris":{"android":"levelo://app?vid=74f644e2-cb89-47f4-ba0d-808a5ce06eb5","ios":"levelo://app?vid=74f644e2-cb89-47f4-ba0d-808a5ce06eb5"},"vehicle_type_id":"4","last_reported":1744896058,"current_range_meters":9200,"station_id":"ce4bhhp2rcd13ifvqfm0","pricing_plan_id":"cebpf4jnsgd1na2vs0mg"},{"bike_id":"43c500b5-2d92-478f-a24d-8b463f921000","system_id":"levelo_inurba_marseille","lat":43.25121,"lon":5.40325,"is_reserved":false,"is_disabled":false,"rental_uris":{"android":"levelo://app?vid=43c500b5-2d92-478f-a24d-8b463f921000","ios":"levelo://app?vid=43c500b5-2d92-478f-a24d-8b463f921000"},"vehicle_type_id":"4","last_reported":1744896058,"current_range_meters":9200,"station_id":"ce4bhlh2rcd13ifvqgig","pricing_plan_id":"cebpf4jnsgd1na2vs0mg"},{"bike_id":"5b7230a4-d128-4a6e-a192-c2939351a109","system_id":"levelo_inurba_marseille","lat":43.30294,"lon":5.36859,"is_reserved":false,"is_disabled":false,"rental_uris":{"android":"levelo://app?vid=5b7230a4-d128-4a6e-a192-c2939351a109","ios":"levelo://app?vid=5b7230a4-d128-4a6e-a192-c2939351a109"},"vehicle_type_id":"4","last_reported":1744896058,"current_range_meters":9200,"station_id":"ce4bgqh2rcd13ifvqc5g","pricing_plan_id":"cebpf4jnsgd1na2vs0mg"},{"bike_id":"fd674592-a758-4b21-b194-88036176295c","system_id":"levelo_inurba_marseille","lat":43.30432,"lon":5.3888,"is_reserved":false,"is_disabled":false,"rental_uris":{"android":"levelo://app?vid=fd674592-a758-4b21-b194-88036176295c","ios":"levelo://app?vid=fd674592-a758-4b21-b194-88036176295c"},"vehicle_type_id":"4","last_reported":1744896058,"current_range_meters":9200,"station_id":"ce4bgk12rcd13ifvqbi0","pricing_plan_id":"cebpf4jnsgd1na2vs0mg"},{"bike_id":"1d4dfec9-e6ff-46a1-9295-2722f0963b42","system_id":"levelo_inurba_marseille","lat":43.24664,"lon":5.38171,"is_reserved":false,"is_disabled":false,"rental_uris":{"android":"levelo://app?vid=1d4dfec9-e6ff-46a1-9295-2722f0963b42","ios":"levelo://app?vid=1d4dfec9-e6ff-46a1-9295-2722f0963b42"},"vehicle_type_id":"4","last_reported":1744896058,"current_range_meters":9600,"station_id":"ce4bhih2rcd13ifvqfr0","pricing_plan_id":"cebpf4jnsgd1na2vs0mg"},{"bike_id":"98a94d64-454b-44d9-8843-7a0852134d2d","system_id":"levelo_inurba_marseille","lat":43.2781,"lon":5.40717,"is_reserved":false,"is_disabled":false,"rental_uris":{"android":"levelo://app?vid=98a94d64-454b-44d9-8843-7a0852134d2d","ios":"levelo://app?vid=98a94d64-454b-44d9-8843-7a0852134d2d"},"vehicle_type_id":"4","last_reported":1744896058,"current_range_meters":9600,"station_id":"ce4bhnh2rcd13ifvqgtg","pricing_plan_id":"cebpf4jnsgd1na2vs0mg"},{"bike_id":"af88db6c-6ed6-4cd1-bda5-d2603147fa04","system_id":"levelo_inurba_marseille","lat":43.33582,"lon":5.41026,"is_reserved":false,"is_disabled":false,"rental_uris":{"android":"levelo://app?vid=af88db6c-6ed6-4cd1-bda5-d2603147fa04","ios":"levelo://app?vid=af88db6c-6ed6-4cd1-bda5-d2603147fa04"},"vehicle_type_id":"4","last_reported":1744896058,"current_range_meters":9600,"station_id":"ce4bhqh2rcd13ifvqhmg","pricing_plan_id":"cebpf4jnsgd1na2vs0mg"},{"bike_id":"1bdba7a7-a82e-4252-906c-80db6beb180e","system_id":"levelo_inurba_marseille","lat":43.29121,"lon":5.40407,"is_reserved":false,"is_disabled":false,"rental_uris":{"android":"levelo://app?vid=1bdba7a7-a82e-4252-906c-80db6beb180e","ios":"levelo://app?vid=1bdba7a7-a82e-4252-906c-80db6beb180e"},"vehicle_type_id":"4","last_reported":1744896058,"current_range_meters":10000,"station_id":"","pricing_plan_id":"cebpf4jnsgd1na2vs0mg"},{"bike_id":"96e57b32-e02f-41de-8e0c-268db5f3fff5","system_id":"levelo_inurba_marseille","lat":43.304707,"lon":5.379023,"is_reserved":false,"is_disabled":false,"rental_uris":{"android":"levelo://app?vid=96e57b32-e02f-41de-8e0c-268db5f3fff5","ios":"levelo://app?vid=96e57b32-e02f-41de-8e0c-268db5f3fff5"},"vehicle_type_id":"4","last_reported":1744896058,"current_range_meters":10000,"station_id":"ce4bgup2rcd13ifvqcn0","pricing_plan_id":"cebpf4jnsgd1na2vs0mg"},{"bike_id":"2df22311-bac1-4b8f-abff-11893969de63","system_id":"levelo_inurba_marseille","lat":43.30937,"lon":5.37994,"is_reserved":false,"is_disabled":false,"rental_uris":{"android":"levelo://app?vid=2df22311-bac1-4b8f-abff-11893969de63","ios":"levelo://app?vid=2df22311-bac1-4b8f-abff-11893969de63"},"vehicle_type_id":"4","last_reported":1744896058,"current_range_meters":10000,"station_id":"","pricing_plan_id":"cebpf4jnsgd1na2vs0mg"},{"bike_id":"2b3136a1-5f3e-4481-9cc8-a9cb0c63e956","system_id":"levelo_inurba_marseille","lat":43.284668,"lon":5.384033,"is_reserved":false,"is_disabled":false,"rental_uris":{"android":"levelo://app?vid=2b3136a1-5f3e-4481-9cc8-a9cb0c63e956","ios":"levelo://app?vid=2b3136a1-5f3e-4481-9cc8-a9cb0c63e956"},"vehicle_type_id":"4","last_reported":1744896058,"current_range_meters":10000,"station_id":"ce4bhbh2rcd13ifvqeo0","pricing_plan_id":"cebpf4jnsgd1na2vs0mg"},{"bike_id":"2eaac241-5ecf-4055-9531-ccc7a552c53c","system_id":"levelo_inurba_marseille","lat":43.29565,"lon":5.39961,"is_reserved":false,"is_disabled":false,"rental_uris":{"android":"levelo://app?vid=2eaac241-5ecf-4055-9531-ccc7a552c53c","ios":"levelo://app?vid=2eaac241-5ecf-4055-9531-ccc7a552c53c"},"vehicle_type_id":"4","last_reported":1744896058,"current_range_meters":10000,"station_id":"ce4bh312rcd13ifvqdj0","pricing_plan_id":"cebpf4jnsgd1na2vs0mg"},{"bike_id":"7bcc7c88-573b-4e6a-9819-d78f0ca42610","system_id":"levelo_inurba_marseille","lat":43.30182,"lon":5.366358,"is_reserved":false,"is_disabled":false,"rental_uris":{"android":"levelo://app?vid=7bcc7c88-573b-4e6a-9819-d78f0ca42610","ios":"levelo://app?vid=7bcc7c88-573b-4e6a-9819-d78f0ca42610"},"vehicle_type_id":"4","last_reported":1744896058,"current_range_meters":10000,"station_id":"ce4bgrh2rcd13ifvqc8g","pricing_plan_id":"cebpf4jnsgd1na2vs0mg"},{"bike_id":"5a127f48-c8a9-427c-a19b-29b0c540925d","system_id":"levelo_inurba_marseille","lat":43.26488,"lon":5.39578,"is_reserved":false,"is_disabled":false,"rental_uris":{"android":"levelo://app?vid=5a127f48-c8a9-427c-a19b-29b0c540925d","ios":"levelo://app?vid=5a127f48-c8a9-427c-a19b-29b0c540925d"},"vehicle_type_id":"4","last_reported":1744896058,"current_range_meters":10000,"station_id":"ce4bhi12rcd13ifvqfq0","pricing_plan_id":"cebpf4jnsgd1na2vs0mg"},{"bike_id":"0a0b0a73-2b27-49fb-801a-3111dcebfbac","system_id":"levelo_inurba_marseille","lat":43.27488,"lon":5.42471,"is_reserved":false,"is_disabled":false,"rental_uris":{"android":"levelo://app?vid=0a0b0a73-2b27-49fb-801a-3111dcebfbac","ios":"levelo://app?vid=0a0b0a73-2b27-49fb-801a-3111dcebfbac"},"vehicle_type_id":"4","last_reported":1744896058,"current_range_meters":10000,"station_id":"ce4bhn92rcd13ifvqgrg","pricing_plan_id":"cebpf4jnsgd1na2vs0mg"},{"bike_id":"6a42fdd6-075d-4748-811a-29f5845c8920","system_id":"levelo_inurba_marseille","lat":43.21756,"lon":5.3463,"is_reserved":false,"is_disabled":false,"rental_uris":{"android":"levelo://app?vid=6a42fdd6-075d-4748-811a-29f5845c8920","ios":"levelo://app?vid=6a42fdd6-075d-4748-811a-29f5845c8920"},"vehicle_type_id":"4","last_reported":1744896058,"current_range_meters":10800,"station_id":"st_cvj6r9ubvosntc0bgbag","pricing_plan_id":"cebpf4jnsgd1na2vs0mg"},{"bike_id":"4f3dfbf4-d1ae-44db-8110-b28c7d24107a","system_id":"levelo_inurba_marseille","lat":43.27066,"lon":5.40265,"is_reserved":false,"is_disabled":false,"rental_uris":{"android":"levelo://app?vid=4f3dfbf4-d1ae-44db-8110-b28c7d24107a","ios":"levelo://app?vid=4f3dfbf4-d1ae-44db-8110-b28c7d24107a"},"vehicle_type_id":"4","last_reported":1744896058,"current_range_meters":10800,"station_id":"ce4bhk92rcd13ifvqgc0","pricing_plan_id":"cebpf4jnsgd1na2vs0mg"},{"bike_id":"f9851b5c-06cd-4f30-9eb4-e1db76bb168b","system_id":"levelo_inurba_marseille","lat":43.2867,"lon":5.36356,"is_reserved":false,"is_disabled":false,"rental_uris":{"android":"levelo://app?vid=f9851b5c-06cd-4f30-9eb4-e1db76bb168b","ios":"levelo://app?vid=f9851b5c-06cd-4f30-9eb4-e1db76bb168b"},"vehicle_type_id":"4","last_reported":1744896058,"current_range_meters":10800,"station_id":"ce4bhah2rcd13ifvqej0","pricing_plan_id":"cebpf4jnsgd1na2vs0mg"},{"bike_id":"9eb6a99a-3a7d-482d-9100-7bb5a94c2b9f","system_id":"levelo_inurba_marseille","lat":43.2606,"lon":5.39403,"is_reserved":false,"is_disabled":false,"rental_uris":{"android":"levelo://app?vid=9eb6a99a-3a7d-482d-9100-7bb5a94c2b9f","ios":"levelo://app?vid=9eb6a99a-3a7d-482d-9100-7bb5a94c2b9f"},"vehicle_type_id":"4","last_reported":1744896058,"current_range_meters":10000,"station_id":"ce4bhh92rcd13ifvqfj0","pricing_plan_id":"cebpf4jnsgd1na2vs0mg"},{"bike_id":"9f8e06d3-5872-4f4e-b571-578e00489c6c","system_id":"levelo_inurba_marseille","lat":43.26201,"lon":5.37455,"is_reserved":false,"is_disabled":false,"rental_uris":{"android":"levelo://app?vid=9f8e06d3-5872-4f4e-b571-578e00489c6c","ios":"levelo://app?vid=9f8e06d3-5872-4f4e-b571-578e00489c6c"},"vehicle_type_id":"4","last_reported":1744896058,"current_range_meters":10800,"station_id":"ce4bhgp2rcd13ifvqfc0","pricing_plan_id":"cebpf4jnsgd1na2vs0mg"},{"bike_id":"08d3412c-cd97-4c1f-85dc-02eac0bb2d59","system_id":"levelo_inurba_marseille","lat":43.29375,"lon":5.37851,"is_reserved":false,"is_disabled":false,"rental_uris":{"android":"levelo://app?vid=08d3412c-cd97-4c1f-85dc-02eac0bb2d59","ios":"levelo://app?vid=08d3412c-cd97-4c1f-85dc-02eac0bb2d59"},"vehicle_type_id":"4","last_reported":1744896058,"current_range_meters":11200,"station_id":"ce4bgjh2rcd13ifvqbf0","pricing_plan_id":"cebpf4jnsgd1na2vs0mg"},{"bike_id":"04d60e61-5211-4dc6-b278-a2e7fbfe5a2c","system_id":"levelo_inurba_marseille","lat":43.26201,"lon":5.37932,"is_reserved":false,"is_disabled":false,"rental_uris":{"android":"levelo://app?vid=04d60e61-5211-4dc6-b278-a2e7fbfe5a2c","ios":"levelo://app?vid=04d60e61-5211-4dc6-b278-a2e7fbfe5a2c"},"vehicle_type_id":"4","last_reported":1744896058,"current_range_meters":11200,"station_id":"ce4bhjp2rcd13ifvqg90","pricing_plan_id":"cebpf4jnsgd1na2vs0mg"},{"bike_id":"02a239c9-9aef-4dc0-b990-3c5f18fad5da","system_id":"levelo_inurba_marseille","lat":43.29974,"lon":5.38498,"is_reserved":false,"is_disabled":false,"rental_uris":{"android":"levelo://app?vid=02a239c9-9aef-4dc0-b990-3c5f18fad5da","ios":"levelo://app?vid=02a239c9-9aef-4dc0-b990-3c5f18fad5da"},"vehicle_type_id":"4","last_reported":1744896058,"current_range_meters":11200,"station_id":"ce4bgj92rcd13ifvqbd0","pricing_plan_id":"cebpf4jnsgd1na2vs0mg"},{"bike_id":"46b15e80-a1cd-4582-8cbb-d7607d0f87bf","system_id":"levelo_inurba_marseille","lat":43.30147,"lon":5.38082,"is_reserved":false,"is_disabled":false,"rental_uris":{"android":"levelo://app?vid=46b15e80-a1cd-4582-8cbb-d7607d0f87bf","ios":"levelo://app?vid=46b15e80-a1cd-4582-8cbb-d7607d0f87bf"},"vehicle_type_id":"4","last_reported":1744896058,"current_range_meters":11600,"station_id":"ce4bgjp2rcd13ifvqbh0","pricing_plan_id":"cebpf4jnsgd1na2vs0mg"},{"bike_id":"aae1e5a7-8f8b-462e-a6db-878b1252f2fe","system_id":"levelo_inurba_marseille","lat":43.30432,"lon":5.3889,"is_reserved":false,"is_disabled":false,"rental_uris":{"android":"levelo://app?vid=aae1e5a7-8f8b-462e-a6db-878b1252f2fe","ios":"levelo://app?vid=aae1e5a7-8f8b-462e-a6db-878b1252f2fe"},"vehicle_type_id":"4","last_reported":1744896058,"current_range_meters":11200,"station_id":"ce4bgk12rcd13ifvqbi0","pricing_plan_id":"cebpf4jnsgd1na2vs0mg"},{"bike_id":"afe9dfdb-e897-4c4c-9c40-7bf651421097","system_id":"levelo_inurba_marseille","lat":43.29175,"lon":5.37156,"is_reserved":false,"is_disabled":false,"rental_uris":{"android":"levelo://app?vid=afe9dfdb-e897-4c4c-9c40-7bf651421097","ios":"levelo://app?vid=afe9dfdb-e897-4c4c-9c40-7bf651421097"},"vehicle_type_id":"4","last_reported":1744896058,"current_range_meters":11200,"station_id":"ce4bha92rcd13ifvqeh0","pricing_plan_id":"cebpf4jnsgd1na2vs0mg"},{"bike_id":"b3368a4b-172f-436c-89f1-5b68b3612fbc","system_id":"levelo_inurba_marseille","lat":43.29567,"lon":5.4228,"is_reserved":false,"is_disabled":false,"rental_uris":{"android":"levelo://app?vid=b3368a4b-172f-436c-89f1-5b68b3612fbc","ios":"levelo://app?vid=b3368a4b-172f-436c-89f1-5b68b3612fbc"},"vehicle_type_id":"4","last_reported":1744896058,"current_range_meters":12000,"station_id":"ce4bhph2rcd13ifvqhdg","pricing_plan_id":"cebpf4jnsgd1na2vs0mg"},{"bike_id":"6182d45b-191a-4249-88bd-5fad61239bca","system_id":"levelo_inurba_marseille","lat":43.21753,"lon":5.34593,"is_reserved":false,"is_disabled":false,"rental_uris":{"android":"levelo://app?vid=6182d45b-191a-4249-88bd-5fad61239bca","ios":"levelo://app?vid=6182d45b-191a-4249-88bd-5fad61239bca"},"vehicle_type_id":"4","last_reported":1744896058,"current_range_meters":12000,"station_id":"st_cvj6r9ubvosntc0bgbag","pricing_plan_id":"cebpf4jnsgd1na2vs0mg"},{"bike_id":"c6df4557-9f73-4116-9e46-36186b05b4e0","system_id":"levelo_inurba_marseille","lat":43.28153,"lon":5.42644,"is_reserved":false,"is_disabled":false,"rental_uris":{"android":"levelo://app?vid=c6df4557-9f73-4116-9e46-36186b05b4e0","ios":"levelo://app?vid=c6df4557-9f73-4116-9e46-36186b05b4e0"},"vehicle_type_id":"4","last_reported":1744896058,"current_range_meters":12000,"station_id":"ce4bhnh2rcd13ifvqgug","pricing_plan_id":"cebpf4jnsgd1na2vs0mg"},{"bike_id":"ff935f1c-246d-4e07-a399-40ad7e059de5","system_id":"levelo_inurba_marseille","lat":43.25496,"lon":5.37655,"is_reserved":false,"is_disabled":true,"rental_uris":{"android":"levelo://app?vid=ff935f1c-246d-4e07-a399-40ad7e059de5","ios":"levelo://app?vid=ff935f1c-246d-4e07-a399-40ad7e059de5"},"vehicle_type_id":"4","last_reported":1744896058,"current_range_meters":12400,"station_id":"ce4bhh12rcd13ifvqff0","pricing_plan_id":"cebpf4jnsgd1na2vs0mg"},{"bike_id":"9ae4de2b-65d6-4c8d-9fd9-eb2927f36e22","system_id":"levelo_inurba_marseille","lat":43.23343,"lon":5.36449,"is_reserved":false,"is_disabled":false,"rental_uris":{"android":"levelo://app?vid=9ae4de2b-65d6-4c8d-9fd9-eb2927f36e22","ios":"levelo://app?vid=9ae4de2b-65d6-4c8d-9fd9-eb2927f36e22"},"vehicle_type_id":"4","last_reported":1744896058,"current_range_meters":12400,"station_id":"","pricing_plan_id":"cebpf4jnsgd1na2vs0mg"},{"bike_id":"cc601d9d-f3a5-4022-b97b-485f0ad7ebad","system_id":"levelo_inurba_marseille","lat":43.240723,"lon":5.377379,"is_reserved":false,"is_disabled":false,"rental_uris":{"android":"levelo://app?vid=cc601d9d-f3a5-4022-b97b-485f0ad7ebad","ios":"levelo://app?vid=cc601d9d-f3a5-4022-b97b-485f0ad7ebad"},"vehicle_type_id":"4","last_reported":1744896058,"current_range_meters":12400,"station_id":"ce4bhnp2rcd13ifvqgvg","pricing_plan_id":"cebpf4jnsgd1na2vs0mg"},{"bike_id":"da0699e6-fffb-42fd-bda2-fa249cfedfd8","system_id":"levelo_inurba_marseille","lat":43.31491,"lon":5.37305,"is_reserved":false,"is_disabled":false,"rental_uris":{"android":"levelo://app?vid=da0699e6-fffb-42fd-bda2-fa249cfedfd8","ios":"levelo://app?vid=da0699e6-fffb-42fd-bda2-fa249cfedfd8"},"vehicle_type_id":"4","last_reported":1744896058,"current_range_meters":12800,"station_id":"ce4bgt12rcd13ifvqcd0","pricing_plan_id":"cebpf4jnsgd1na2vs0mg"},{"bike_id":"686d5080-0b2b-462b-997f-95fdfd2e51b5","system_id":"levelo_inurba_marseille","lat":43.30148,"lon":5.38075,"is_reserved":false,"is_disabled":false,"rental_uris":{"android":"levelo://app?vid=686d5080-0b2b-462b-997f-95fdfd2e51b5","ios":"levelo://app?vid=686d5080-0b2b-462b-997f-95fdfd2e51b5"},"vehicle_type_id":"4","last_reported":1744896058,"current_range_meters":12800,"station_id":"ce4bgjp2rcd13ifvqbh0","pricing_plan_id":"cebpf4jnsgd1na2vs0mg"},{"bike_id":"10186643-4fbb-4b44-a420-79bfc6e1cf87","system_id":"levelo_inurba_marseille","lat":43.29714,"lon":5.36609,"is_reserved":false,"is_disabled":false,"rental_uris":{"android":"levelo://app?vid=10186643-4fbb-4b44-a420-79bfc6e1cf87","ios":"levelo://app?vid=10186643-4fbb-4b44-a420-79bfc6e1cf87"},"vehicle_type_id":"4","last_reported":1744896058,"current_range_meters":12800,"station_id":"ce4bgn12rcd13ifvqbt0","pricing_plan_id":"cebpf4jnsgd1na2vs0mg"},{"bike_id":"0b7b9afc-b2db-43f5-aeb8-7a1248a5408e","system_id":"levelo_inurba_marseille","lat":43.3127,"lon":5.37742,"is_reserved":false,"is_disabled":false,"rental_uris":{"android":"levelo://app?vid=0b7b9afc-b2db-43f5-aeb8-7a1248a5408e","ios":"levelo://app?vid=0b7b9afc-b2db-43f5-aeb8-7a1248a5408e"},"vehicle_type_id":"4","last_reported":1744896058,"current_range_meters":13600,"station_id":"","pricing_plan_id":"cebpf4jnsgd1na2vs0mg"},{"bike_id":"ec8c9ac7-1e95-4171-97f3-226ce1e3c951","system_id":"levelo_inurba_marseille","lat":43.32126,"lon":5.36767,"is_reserved":false,"is_disabled":false,"rental_uris":{"android":"levelo://app?vid=ec8c9ac7-1e95-4171-97f3-226ce1e3c951","ios":"levelo://app?vid=ec8c9ac7-1e95-4171-97f3-226ce1e3c951"},"vehicle_type_id":"4","last_reported":1744896058,"current_range_meters":14000,"station_id":"ce4bhrh2rcd13ifvqhug","pricing_plan_id":"cebpf4jnsgd1na2vs0mg"},{"bike_id":"bbb0741f-35b0-425b-a2f0-22b6760b2020","system_id":"levelo_inurba_marseille","lat":43.29672,"lon":5.37762,"is_reserved":false,"is_disabled":false,"rental_uris":{"android":"levelo://app?vid=bbb0741f-35b0-425b-a2f0-22b6760b2020","ios":"levelo://app?vid=bbb0741f-35b0-425b-a2f0-22b6760b2020"},"vehicle_type_id":"4","last_reported":1744896058,"current_range_meters":13600,"station_id":"ce4bh092rcd13ifvqd30","pricing_plan_id":"cebpf4jnsgd1na2vs0mg"},{"bike_id":"f0532844-ab82-482e-bf61-b9f524248ad1","system_id":"levelo_inurba_marseille","lat":43.29418,"lon":5.38622,"is_reserved":false,"is_disabled":false,"rental_uris":{"android":"levelo://app?vid=f0532844-ab82-482e-bf61-b9f524248ad1","ios":"levelo://app?vid=f0532844-ab82-482e-bf61-b9f524248ad1"},"vehicle_type_id":"4","last_reported":1744896058,"current_range_meters":14000,"station_id":"ce4bh2h2rcd13ifvqdh0","pricing_plan_id":"cebpf4jnsgd1na2vs0mg"},{"bike_id":"ffa64ee9-a7ca-4183-a012-534ec11a6645","system_id":"levelo_inurba_marseille","lat":43.30277,"lon":5.37699,"is_reserved":false,"is_disabled":false,"rental_uris":{"android":"levelo://app?vid=ffa64ee9-a7ca-4183-a012-534ec11a6645","ios":"levelo://app?vid=ffa64ee9-a7ca-4183-a012-534ec11a6645"},"vehicle_type_id":"4","last_reported":1744896058,"current_range_meters":14400,"station_id":"ce4bguh2rcd13ifvqcj0","pricing_plan_id":"cebpf4jnsgd1na2vs0mg"},{"bike_id":"386b66dd-54dd-4f23-9399-5feab1b083fa","system_id":"levelo_inurba_marseille","lat":43.30135,"lon":5.37421,"is_reserved":false,"is_disabled":false,"rental_uris":{"android":"levelo://app?vid=386b66dd-54dd-4f23-9399-5feab1b083fa","ios":"levelo://app?vid=386b66dd-54dd-4f23-9399-5feab1b083fa"},"vehicle_type_id":"4","last_reported":1744896058,"current_range_meters":14400,"station_id":"ce4bgs92rcd13ifvqcc0","pricing_plan_id":"cebpf4jnsgd1na2vs0mg"},{"bike_id":"04517870-cb32-4b4f-8117-0f0f3525ebd4","system_id":"levelo_inurba_marseille","lat":43.30798,"lon":5.38149,"is_reserved":false,"is_disabled":false,"rental_uris":{"android":"levelo://app?vid=04517870-cb32-4b4f-8117-0f0f3525ebd4","ios":"levelo://app?vid=04517870-cb32-4b4f-8117-0f0f3525ebd4"},"vehicle_type_id":"4","last_reported":1744896058,"current_range_meters":14400,"station_id":"ce4bgt12rcd13ifvqce0","pricing_plan_id":"cebpf4jnsgd1na2vs0mg"},{"bike_id":"cf3329ec-bccf-4616-bb03-e54570cc46bb","system_id":"levelo_inurba_marseille","lat":43.27073,"lon":5.42284,"is_reserved":false,"is_disabled":false,"rental_uris":{"android":"levelo://app?vid=cf3329ec-bccf-4616-bb03-e54570cc46bb","ios":"levelo://app?vid=cf3329ec-bccf-4616-bb03-e54570cc46bb"},"vehicle_type_id":"4","last_reported":1744896058,"current_range_meters":14000,"station_id":"ce4bhk92rcd13ifvqgb0","pricing_plan_id":"cebpf4jnsgd1na2vs0mg"},{"bike_id":"de759f1d-4a1e-4e12-93ca-1a5827ce7413","system_id":"levelo_inurba_marseille","lat":43.29042,"lon":5.39961,"is_reserved":false,"is_disabled":false,"rental_uris":{"android":"levelo://app?vid=de759f1d-4a1e-4e12-93ca-1a5827ce7413","ios":"levelo://app?vid=de759f1d-4a1e-4e12-93ca-1a5827ce7413"},"vehicle_type_id":"4","last_reported":1744896058,"current_range_meters":14400,"station_id":"ce4bh392rcd13ifvqdm0","pricing_plan_id":"cebpf4jnsgd1na2vs0mg"},{"bike_id":"173d39b4-7a97-4693-9385-db8bda0fe199","system_id":"levelo_inurba_marseille","lat":43.21755,"lon":5.34603,"is_reserved":false,"is_disabled":false,"rental_uris":{"android":"levelo://app?vid=173d39b4-7a97-4693-9385-db8bda0fe199","ios":"levelo://app?vid=173d39b4-7a97-4693-9385-db8bda0fe199"},"vehicle_type_id":"4","last_reported":1744896058,"current_range_meters":14800,"station_id":"st_cvj6r9ubvosntc0bgbag","pricing_plan_id":"cebpf4jnsgd1na2vs0mg"},{"bike_id":"0291b7a7-5f86-48ec-8437-eba04e7bafe8","system_id":"levelo_inurba_marseille","lat":43.32312,"lon":5.36701,"is_reserved":false,"is_disabled":false,"rental_uris":{"android":"levelo://app?vid=0291b7a7-5f86-48ec-8437-eba04e7bafe8","ios":"levelo://app?vid=0291b7a7-5f86-48ec-8437-eba04e7bafe8"},"vehicle_type_id":"4","last_reported":1744896058,"current_range_meters":14800,"station_id":"ce4bhsh2rcd13ifvqi2g","pricing_plan_id":"cebpf4jnsgd1na2vs0mg"},{"bike_id":"4f5949cd-aa32-4e2a-8f94-d009bdd8c8cd","system_id":"levelo_inurba_marseille","lat":43.30376,"lon":5.42485,"is_reserved":false,"is_disabled":false,"rental_uris":{"android":"levelo://app?vid=4f5949cd-aa32-4e2a-8f94-d009bdd8c8cd","ios":"levelo://app?vid=4f5949cd-aa32-4e2a-8f94-d009bdd8c8cd"},"vehicle_type_id":"4","last_reported":1744896058,"current_range_meters":14800,"station_id":"ce4bhoh2rcd13ifvqh6g","pricing_plan_id":"cebpf4jnsgd1na2vs0mg"},{"bike_id":"9690ce0c-2b16-4e77-8667-cd440ef274c8","system_id":"levelo_inurba_marseille","lat":43.32541,"lon":5.41424,"is_reserved":false,"is_disabled":false,"rental_uris":{"android":"levelo://app?vid=9690ce0c-2b16-4e77-8667-cd440ef274c8","ios":"levelo://app?vid=9690ce0c-2b16-4e77-8667-cd440ef274c8"},"vehicle_type_id":"4","last_reported":1744896058,"current_range_meters":14800,"station_id":"ce4bhq12rcd13ifvqhhg","pricing_plan_id":"cebpf4jnsgd1na2vs0mg"},{"bike_id":"826a96a7-f3c4-4546-8927-07babefd37fc","system_id":"levelo_inurba_marseille","lat":43.30276,"lon":5.37679,"is_reserved":false,"is_disabled":false,"rental_uris":{"android":"levelo://app?vid=826a96a7-f3c4-4546-8927-07babefd37fc","ios":"levelo://app?vid=826a96a7-f3c4-4546-8927-07babefd37fc"},"vehicle_type_id":"4","last_reported":1744896058,"current_range_meters":15200,"station_id":"ce4bguh2rcd13ifvqcj0","pricing_plan_id":"cebpf4jnsgd1na2vs0mg"},{"bike_id":"3af48173-ba90-4f90-a09a-afe24b29a50c","system_id":"levelo_inurba_marseille","lat":43.24177,"lon":5.39728,"is_reserved":false,"is_disabled":false,"rental_uris":{"android":"levelo://app?vid=3af48173-ba90-4f90-a09a-afe24b29a50c","ios":"levelo://app?vid=3af48173-ba90-4f90-a09a-afe24b29a50c"},"vehicle_type_id":"4","last_reported":1744896058,"current_range_meters":15200,"station_id":"ce4bhn12rcd13ifvqgpg","pricing_plan_id":"cebpf4jnsgd1na2vs0mg"},{"bike_id":"09231111-76a0-4667-bdaf-79e95d543085","system_id":"levelo_inurba_marseille","lat":43.297953,"lon":5.380961,"is_reserved":false,"is_disabled":false,"rental_uris":{"android":"levelo://app?vid=09231111-76a0-4667-bdaf-79e95d543085","ios":"levelo://app?vid=09231111-76a0-4667-bdaf-79e95d543085"},"vehicle_type_id":"4","last_reported":1744896058,"current_range_meters":14800,"station_id":"ce4bgip2rcd13ifvqbb0","pricing_plan_id":"cebpf4jnsgd1na2vs0mg"},{"bike_id":"cc7ac33d-b61e-49f5-ad83-554a3d040679","system_id":"levelo_inurba_marseille","lat":43.30462,"lon":5.37905,"is_reserved":false,"is_disabled":false,"rental_uris":{"android":"levelo://app?vid=cc7ac33d-b61e-49f5-ad83-554a3d040679","ios":"levelo://app?vid=cc7ac33d-b61e-49f5-ad83-554a3d040679"},"vehicle_type_id":"4","last_reported":1744896058,"current_range_meters":15200,"station_id":"ce4bgup2rcd13ifvqcn0","pricing_plan_id":"cebpf4jnsgd1na2vs0mg"},{"bike_id":"41fb0398-f2fe-4abb-ae37-a38f47615ea9","system_id":"levelo_inurba_marseille","lat":43.32351,"lon":5.36749,"is_reserved":false,"is_disabled":false,"rental_uris":{"android":"levelo://app?vid=41fb0398-f2fe-4abb-ae37-a38f47615ea9","ios":"levelo://app?vid=41fb0398-f2fe-4abb-ae37-a38f47615ea9"},"vehicle_type_id":"4","last_reported":1744896058,"current_range_meters":16000,"station_id":"ce4bhsh2rcd13ifvqi2g","pricing_plan_id":"cebpf4jnsgd1na2vs0mg"},{"bike_id":"e14c265e-eca3-4791-a3e7-f534121ae166","system_id":"levelo_inurba_marseille","lat":43.22939,"lon":5.35365,"is_reserved":false,"is_disabled":false,"rental_uris":{"android":"levelo://app?vid=e14c265e-eca3-4791-a3e7-f534121ae166","ios":"levelo://app?vid=e14c265e-eca3-4791-a3e7-f534121ae166"},"vehicle_type_id":"4","last_reported":1744896058,"current_range_meters":16000,"station_id":"cpo3532slgdg3j2ikp40","pricing_plan_id":"cebpf4jnsgd1na2vs0mg"},{"bike_id":"253d64a4-2bd7-4354-846c-68cf33fcf00b","system_id":"levelo_inurba_marseille","lat":43.29248,"lon":5.40899,"is_reserved":false,"is_disabled":false,"rental_uris":{"android":"levelo://app?vid=253d64a4-2bd7-4354-846c-68cf33fcf00b","ios":"levelo://app?vid=253d64a4-2bd7-4354-846c-68cf33fcf00b"},"vehicle_type_id":"4","last_reported":1744896058,"current_range_meters":16000,"station_id":"ce4bh192rcd13ifvqdc0","pricing_plan_id":"cebpf4jnsgd1na2vs0mg"},{"bike_id":"f2183042-6a6b-40fa-947c-641546f00033","system_id":"levelo_inurba_marseille","lat":43.31372,"lon":5.38499,"is_reserved":false,"is_disabled":false,"rental_uris":{"android":"levelo://app?vid=f2183042-6a6b-40fa-947c-641546f00033","ios":"levelo://app?vid=f2183042-6a6b-40fa-947c-641546f00033"},"vehicle_type_id":"4","last_reported":1744896058,"current_range_meters":16000,"station_id":"ce4bgt92rcd13ifvqcf0","pricing_plan_id":"cebpf4jnsgd1na2vs0mg"},{"bike_id":"d750596a-6ac6-4755-84cc-45acd4464f3d","system_id":"levelo_inurba_marseille","lat":43.2441,"lon":5.37046,"is_reserved":false,"is_disabled":false,"rental_uris":{"android":"levelo://app?vid=d750596a-6ac6-4755-84cc-45acd4464f3d","ios":"levelo://app?vid=d750596a-6ac6-4755-84cc-45acd4464f3d"},"vehicle_type_id":"4","last_reported":1744896058,"current_range_meters":16400,"station_id":"ce4bhhh2rcd13ifvqfk0","pricing_plan_id":"cebpf4jnsgd1na2vs0mg"},{"bike_id":"135f0758-d03d-42f1-a2d6-49e93dc7a634","system_id":"levelo_inurba_marseille","lat":43.29864,"lon":5.36248,"is_reserved":false,"is_disabled":false,"rental_uris":{"android":"levelo://app?vid=135f0758-d03d-42f1-a2d6-49e93dc7a634","ios":"levelo://app?vid=135f0758-d03d-42f1-a2d6-49e93dc7a634"},"vehicle_type_id":"4","last_reported":1744896058,"current_range_meters":16400,"station_id":"ce4bgpp2rcd13ifvqc3g","pricing_plan_id":"cebpf4jnsgd1na2vs0mg"},{"bike_id":"6d7ddff6-e1aa-4cdd-a98f-45b892971672","system_id":"levelo_inurba_marseille","lat":43.284587,"lon":5.35888,"is_reserved":false,"is_disabled":false,"rental_uris":{"android":"levelo://app?vid=6d7ddff6-e1aa-4cdd-a98f-45b892971672","ios":"levelo://app?vid=6d7ddff6-e1aa-4cdd-a98f-45b892971672"},"vehicle_type_id":"4","last_reported":1744896058,"current_range_meters":17200,"station_id":"ce4bhah2rcd13ifvqei0","pricing_plan_id":"cebpf4jnsgd1na2vs0mg"},{"bike_id":"970f877b-c46d-4720-8cdf-57556975230d","system_id":"levelo_inurba_marseille","lat":43.26497,"lon":5.39551,"is_reserved":false,"is_disabled":false,"rental_uris":{"android":"levelo://app?vid=970f877b-c46d-4720-8cdf-57556975230d","ios":"levelo://app?vid=970f877b-c46d-4720-8cdf-57556975230d"},"vehicle_type_id":"4","last_reported":1744896058,"current_range_meters":17200,"station_id":"ce4bhi12rcd13ifvqfq0","pricing_plan_id":"cebpf4jnsgd1na2vs0mg"},{"bike_id":"5807070e-7591-4608-b97d-4da390ac25a7","system_id":"levelo_inurba_marseille","lat":43.21747,"lon":5.34608,"is_reserved":false,"is_disabled":false,"rental_uris":{"android":"levelo://app?vid=5807070e-7591-4608-b97d-4da390ac25a7","ios":"levelo://app?vid=5807070e-7591-4608-b97d-4da390ac25a7"},"vehicle_type_id":"4","last_reported":1744896058,"current_range_meters":17200,"station_id":"st_cvj6r9ubvosntc0bgbag","pricing_plan_id":"cebpf4jnsgd1na2vs0mg"},{"bike_id":"502eb57f-58c1-46b5-bbab-f82b11336169","system_id":"levelo_inurba_marseille","lat":43.30531,"lon":5.36516,"is_reserved":false,"is_disabled":false,"rental_uris":{"android":"levelo://app?vid=502eb57f-58c1-46b5-bbab-f82b11336169","ios":"levelo://app?vid=502eb57f-58c1-46b5-bbab-f82b11336169"},"vehicle_type_id":"4","last_reported":1744896058,"current_range_meters":17200,"station_id":"ce4bgs12rcd13ifvqcag","pricing_plan_id":"cebpf4jnsgd1na2vs0mg"},{"bike_id":"1ce2e4b6-92ac-4019-987f-f7e2d80b4e6b","system_id":"levelo_inurba_marseille","lat":43.27494,"lon":5.4247,"is_reserved":false,"is_disabled":false,"rental_uris":{"android":"levelo://app?vid=1ce2e4b6-92ac-4019-987f-f7e2d80b4e6b","ios":"levelo://app?vid=1ce2e4b6-92ac-4019-987f-f7e2d80b4e6b"},"vehicle_type_id":"4","last_reported":1744896058,"current_range_meters":17200,"station_id":"ce4bhn92rcd13ifvqgrg","pricing_plan_id":"cebpf4jnsgd1na2vs0mg"},{"bike_id":"72252ee0-6b29-4ecb-b919-233f7db6d4bd","system_id":"levelo_inurba_marseille","lat":43.21751,"lon":5.34593,"is_reserved":false,"is_disabled":false,"rental_uris":{"android":"levelo://app?vid=72252ee0-6b29-4ecb-b919-233f7db6d4bd","ios":"levelo://app?vid=72252ee0-6b29-4ecb-b919-233f7db6d4bd"},"vehicle_type_id":"4","last_reported":1744896058,"current_range_meters":17200,"station_id":"st_cvj6r9ubvosntc0bgbag","pricing_plan_id":"cebpf4jnsgd1na2vs0mg"},{"bike_id":"cd7019b0-ac1d-4cf9-ab89-437a78b8b10d","system_id":"levelo_inurba_marseille","lat":43.24388,"lon":5.37063,"is_reserved":false,"is_disabled":false,"rental_uris":{"android":"levelo://app?vid=cd7019b0-ac1d-4cf9-ab89-437a78b8b10d","ios":"levelo://app?vid=cd7019b0-ac1d-4cf9-ab89-437a78b8b10d"},"vehicle_type_id":"4","last_reported":1744896058,"current_range_meters":17200,"station_id":"ce4bhhh2rcd13ifvqfk0","pricing_plan_id":"cebpf4jnsgd1na2vs0mg"},{"bike_id":"bbb1c662-cc65-4c72-8489-de78d2f0f12f","system_id":"levelo_inurba_marseille","lat":43.23057,"lon":5.35498,"is_reserved":false,"is_disabled":false,"rental_uris":{"android":"levelo://app?vid=bbb1c662-cc65-4c72-8489-de78d2f0f12f","ios":"levelo://app?vid=bbb1c662-cc65-4c72-8489-de78d2f0f12f"},"vehicle_type_id":"4","last_reported":1744896058,"current_range_meters":17600,"station_id":"cpo3342slgdg3j2ifvpg","pricing_plan_id":"cebpf4jnsgd1na2vs0mg"},{"bike_id":"4db06d98-ef3f-4322-bb1a-56487e040895","system_id":"levelo_inurba_marseille","lat":43.24167,"lon":5.39739,"is_reserved":false,"is_disabled":false,"rental_uris":{"android":"levelo://app?vid=4db06d98-ef3f-4322-bb1a-56487e040895","ios":"levelo://app?vid=4db06d98-ef3f-4322-bb1a-56487e040895"},"vehicle_type_id":"4","last_reported":1744896058,"current_range_meters":17600,"station_id":"ce4bhn12rcd13ifvqgpg","pricing_plan_id":"cebpf4jnsgd1na2vs0mg"},{"bike_id":"a17920db-4b7e-474c-ab57-3b97ec496a14","system_id":"levelo_inurba_marseille","lat":43.24183,"lon":5.39711,"is_reserved":false,"is_disabled":false,"rental_uris":{"android":"levelo://app?vid=a17920db-4b7e-474c-ab57-3b97ec496a14","ios":"levelo://app?vid=a17920db-4b7e-474c-ab57-3b97ec496a14"},"vehicle_type_id":"4","last_reported":1744896058,"current_range_meters":17600,"station_id":"ce4bhn12rcd13ifvqgpg","pricing_plan_id":"cebpf4jnsgd1na2vs0mg"},{"bike_id":"27b3ba2d-8527-4708-b5f8-ea02e0221e0e","system_id":"levelo_inurba_marseille","lat":43.28954,"lon":5.39613,"is_reserved":false,"is_disabled":false,"rental_uris":{"android":"levelo://app?vid=27b3ba2d-8527-4708-b5f8-ea02e0221e0e","ios":"levelo://app?vid=27b3ba2d-8527-4708-b5f8-ea02e0221e0e"},"vehicle_type_id":"4","last_reported":1744896058,"current_range_meters":17600,"station_id":"ce4bh3h2rcd13ifvqdn0","pricing_plan_id":"cebpf4jnsgd1na2vs0mg"},{"bike_id":"8105409d-e5da-4233-9e00-0e43b0f47dfa","system_id":"levelo_inurba_marseille","lat":43.32369,"lon":5.38889,"is_reserved":false,"is_disabled":false,"rental_uris":{"android":"levelo://app?vid=8105409d-e5da-4233-9e00-0e43b0f47dfa","ios":"levelo://app?vid=8105409d-e5da-4233-9e00-0e43b0f47dfa"},"vehicle_type_id":"4","last_reported":1744896058,"current_range_meters":17600,"station_id":"ce4bhqp2rcd13ifvqhog","pricing_plan_id":"cebpf4jnsgd1na2vs0mg"},{"bike_id":"754114bc-4553-440d-b1ae-482ca959b22d","system_id":"levelo_inurba_marseille","lat":43.27567,"lon":5.38434,"is_reserved":false,"is_disabled":false,"rental_uris":{"android":"levelo://app?vid=754114bc-4553-440d-b1ae-482ca959b22d","ios":"levelo://app?vid=754114bc-4553-440d-b1ae-482ca959b22d"},"vehicle_type_id":"4","last_reported":1744896058,"current_range_meters":17200,"station_id":"ce4bhh92rcd13ifvqfi0","pricing_plan_id":"cebpf4jnsgd1na2vs0mg"},{"bike_id":"a0ddb0a5-f7f0-4281-aa27-9e82747cc573","system_id":"levelo_inurba_marseille","lat":43.33754,"lon":5.37491,"is_reserved":false,"is_disabled":false,"rental_uris":{"android":"levelo://app?vid=a0ddb0a5-f7f0-4281-aa27-9e82747cc573","ios":"levelo://app?vid=a0ddb0a5-f7f0-4281-aa27-9e82747cc573"},"vehicle_type_id":"4","last_reported":1744896058,"current_range_meters":17600,"station_id":"","pricing_plan_id":"cebpf4jnsgd1na2vs0mg"},{"bike_id":"1a6c6265-f293-423c-aef3-0a5624a75870","system_id":"levelo_inurba_marseille","lat":43.29045,"lon":5.35913,"is_reserved":false,"is_disabled":false,"rental_uris":{"android":"levelo://app?vid=1a6c6265-f293-423c-aef3-0a5624a75870","ios":"levelo://app?vid=1a6c6265-f293-423c-aef3-0a5624a75870"},"vehicle_type_id":"4","last_reported":1744896058,"current_range_meters":18000,"station_id":"ce4bha92rcd13ifvqeg0","pricing_plan_id":"cebpf4jnsgd1na2vs0mg"},{"bike_id":"7ed91d22-3d5b-4254-83bf-64eb2a7d5481","system_id":"levelo_inurba_marseille","lat":43.22502,"lon":5.34794,"is_reserved":false,"is_disabled":false,"rental_uris":{"android":"levelo://app?vid=7ed91d22-3d5b-4254-83bf-64eb2a7d5481","ios":"levelo://app?vid=7ed91d22-3d5b-4254-83bf-64eb2a7d5481"},"vehicle_type_id":"4","last_reported":1744896058,"current_range_meters":18000,"station_id":"","pricing_plan_id":"cebpf4jnsgd1na2vs0mg"},{"bike_id":"6bcd098e-e5f1-4c0b-9b8c-581b4c8e510d","system_id":"levelo_inurba_marseille","lat":43.28699,"lon":5.39981,"is_reserved":false,"is_disabled":false,"rental_uris":{"android":"levelo://app?vid=6bcd098e-e5f1-4c0b-9b8c-581b4c8e510d","ios":"levelo://app?vid=6bcd098e-e5f1-4c0b-9b8c-581b4c8e510d"},"vehicle_type_id":"4","last_reported":1744896058,"current_range_meters":17600,"station_id":"ce4bho92rcd13ifvqh3g","pricing_plan_id":"cebpf4jnsgd1na2vs0mg"},{"bike_id":"36e34577-052a-4e3f-88f0-24973e6ae84e","system_id":"levelo_inurba_marseille","lat":43.30153,"lon":5.38081,"is_reserved":false,"is_disabled":false,"rental_uris":{"android":"levelo://app?vid=36e34577-052a-4e3f-88f0-24973e6ae84e","ios":"levelo://app?vid=36e34577-052a-4e3f-88f0-24973e6ae84e"},"vehicle_type_id":"4","last_reported":1744896058,"current_range_meters":18000,"station_id":"ce4bgjp2rcd13ifvqbh0","pricing_plan_id":"cebpf4jnsgd1na2vs0mg"},{"bike_id":"0853db6b-da22-4f8d-b9f0-5929a96ab008","system_id":"levelo_inurba_marseille","lat":43.28697,"lon":5.39956,"is_reserved":false,"is_disabled":false,"rental_uris":{"android":"levelo://app?vid=0853db6b-da22-4f8d-b9f0-5929a96ab008","ios":"levelo://app?vid=0853db6b-da22-4f8d-b9f0-5929a96ab008"},"vehicle_type_id":"4","last_reported":1744896058,"current_range_meters":18800,"station_id":"ce4bho92rcd13ifvqh3g","pricing_plan_id":"cebpf4jnsgd1na2vs0mg"},{"bike_id":"de198bd0-7983-4053-9e2a-81263acf03d1","system_id":"levelo_inurba_marseille","lat":43.30381,"lon":5.39823,"is_reserved":false,"is_disabled":false,"rental_uris":{"android":"levelo://app?vid=de198bd0-7983-4053-9e2a-81263acf03d1","ios":"levelo://app?vid=de198bd0-7983-4053-9e2a-81263acf03d1"},"vehicle_type_id":"4","last_reported":1744896058,"current_range_meters":18800,"station_id":"ce4bh092rcd13ifvqd20","pricing_plan_id":"cebpf4jnsgd1na2vs0mg"},{"bike_id":"2052dc63-8ee1-4b61-9715-d5f11bb2c19a","system_id":"levelo_inurba_marseille","lat":43.26497,"lon":5.39517,"is_reserved":false,"is_disabled":false,"rental_uris":{"android":"levelo://app?vid=2052dc63-8ee1-4b61-9715-d5f11bb2c19a","ios":"levelo://app?vid=2052dc63-8ee1-4b61-9715-d5f11bb2c19a"},"vehicle_type_id":"4","last_reported":1744896058,"current_range_meters":18800,"station_id":"ce4bhi12rcd13ifvqfq0","pricing_plan_id":"cebpf4jnsgd1na2vs0mg"},{"bike_id":"4cdeb94d-6b8c-4d5b-a59f-49def5ff14db","system_id":"levelo_inurba_marseille","lat":43.27504,"lon":5.42467,"is_reserved":false,"is_disabled":false,"rental_uris":{"android":"levelo://app?vid=4cdeb94d-6b8c-4d5b-a59f-49def5ff14db","ios":"levelo://app?vid=4cdeb94d-6b8c-4d5b-a59f-49def5ff14db"},"vehicle_type_id":"4","last_reported":1744896058,"current_range_meters":18800,"station_id":"ce4bhn92rcd13ifvqgrg","pricing_plan_id":"cebpf4jnsgd1na2vs0mg"},{"bike_id":"c0ee038b-e766-4150-bc15-bfd92f633a0e","system_id":"levelo_inurba_marseille","lat":43.21679,"lon":5.346301,"is_reserved":false,"is_disabled":false,"rental_uris":{"android":"levelo://app?vid=c0ee038b-e766-4150-bc15-bfd92f633a0e","ios":"levelo://app?vid=c0ee038b-e766-4150-bc15-bfd92f633a0e"},"vehicle_type_id":"4","last_reported":1744896058,"current_range_meters":18800,"station_id":"st_cvj6r9ubvosntc0bgbag","pricing_plan_id":"cebpf4jnsgd1na2vs0mg"},{"bike_id":"bb74353b-d6ea-486a-9d02-c5f9afba6107","system_id":"levelo_inurba_marseille","lat":43.23154,"lon":5.43724,"is_reserved":false,"is_disabled":false,"rental_uris":{"android":"levelo://app?vid=bb74353b-d6ea-486a-9d02-c5f9afba6107","ios":"levelo://app?vid=bb74353b-d6ea-486a-9d02-c5f9afba6107"},"vehicle_type_id":"4","last_reported":1744896058,"current_range_meters":18800,"station_id":"ce4bhmp2rcd13ifvqgog","pricing_plan_id":"cebpf4jnsgd1na2vs0mg"},{"bike_id":"ef6e9c6f-8f69-4fcf-9727-b556a001e5bc","system_id":"levelo_inurba_marseille","lat":43.29559,"lon":5.4228,"is_reserved":false,"is_disabled":false,"rental_uris":{"android":"levelo://app?vid=ef6e9c6f-8f69-4fcf-9727-b556a001e5bc","ios":"levelo://app?vid=ef6e9c6f-8f69-4fcf-9727-b556a001e5bc"},"vehicle_type_id":"4","last_reported":1744896058,"current_range_meters":18800,"station_id":"ce4bhph2rcd13ifvqhdg","pricing_plan_id":"cebpf4jnsgd1na2vs0mg"},{"bike_id":"52c8e519-404c-4308-b0c0-7bf87824ef0d","system_id":"levelo_inurba_marseille","lat":43.275483,"lon":5.359445,"is_reserved":false,"is_disabled":false,"rental_uris":{"android":"levelo://app?vid=52c8e519-404c-4308-b0c0-7bf87824ef0d","ios":"levelo://app?vid=52c8e519-404c-4308-b0c0-7bf87824ef0d"},"vehicle_type_id":"4","last_reported":1744896058,"current_range_meters":18000,"station_id":"ce4bgj92rcd13ifvqbe0","pricing_plan_id":"cebpf4jnsgd1na2vs0mg"},{"bike_id":"332d50ef-0349-465a-a3f8-a14d47a27c91","system_id":"levelo_inurba_marseille","lat":43.30532,"lon":5.36528,"is_reserved":false,"is_disabled":false,"rental_uris":{"android":"levelo://app?vid=332d50ef-0349-465a-a3f8-a14d47a27c91","ios":"levelo://app?vid=332d50ef-0349-465a-a3f8-a14d47a27c91"},"vehicle_type_id":"4","last_reported":1744896058,"current_range_meters":18800,"station_id":"ce4bgs12rcd13ifvqcag","pricing_plan_id":"cebpf4jnsgd1na2vs0mg"},{"bike_id":"7eb8853e-3665-40f5-8308-1299f0674652","system_id":"levelo_inurba_marseille","lat":43.30379,"lon":5.42473,"is_reserved":false,"is_disabled":false,"rental_uris":{"android":"levelo://app?vid=7eb8853e-3665-40f5-8308-1299f0674652","ios":"levelo://app?vid=7eb8853e-3665-40f5-8308-1299f0674652"},"vehicle_type_id":"4","last_reported":1744896058,"current_range_meters":18800,"station_id":"ce4bhoh2rcd13ifvqh6g","pricing_plan_id":"cebpf4jnsgd1na2vs0mg"},{"bike_id":"934a8fc0-98f8-4aaf-a145-d485dee937c7","system_id":"levelo_inurba_marseille","lat":43.32351,"lon":5.36745,"is_reserved":false,"is_disabled":false,"rental_uris":{"android":"levelo://app?vid=934a8fc0-98f8-4aaf-a145-d485dee937c7","ios":"levelo://app?vid=934a8fc0-98f8-4aaf-a145-d485dee937c7"},"vehicle_type_id":"4","last_reported":1744896058,"current_range_meters":18800,"station_id":"ce4bhsh2rcd13ifvqi2g","pricing_plan_id":"cebpf4jnsgd1na2vs0mg"},{"bike_id":"a77bdd15-388e-4dfa-ae84-9a1f1930181f","system_id":"levelo_inurba_marseille","lat":43.29239,"lon":5.37619,"is_reserved":false,"is_disabled":false,"rental_uris":{"android":"levelo://app?vid=a77bdd15-388e-4dfa-ae84-9a1f1930181f","ios":"levelo://app?vid=a77bdd15-388e-4dfa-ae84-9a1f1930181f"},"vehicle_type_id":"4","last_reported":1744896058,"current_range_meters":18800,"station_id":"ce4bgi12rcd13ifvqb80","pricing_plan_id":"cebpf4jnsgd1na2vs0mg"},{"bike_id":"789c3822-56ca-4769-bcd4-8845bdea2fda","system_id":"levelo_inurba_marseille","lat":43.24166,"lon":5.36392,"is_reserved":false,"is_disabled":false,"rental_uris":{"android":"levelo://app?vid=789c3822-56ca-4769-bcd4-8845bdea2fda","ios":"levelo://app?vid=789c3822-56ca-4769-bcd4-8845bdea2fda"},"vehicle_type_id":"4","last_reported":1744896058,"current_range_meters":19200,"station_id":"cpo36qri1sfpv3e86is0","pricing_plan_id":"cebpf4jnsgd1na2vs0mg"},{"bike_id":"f4527fc2-9f3a-46ed-9398-7a9de9e54306","system_id":"levelo_inurba_marseille","lat":43.29788,"lon":5.38107,"is_reserved":false,"is_disabled":false,"rental_uris":{"android":"levelo://app?vid=f4527fc2-9f3a-46ed-9398-7a9de9e54306","ios":"levelo://app?vid=f4527fc2-9f3a-46ed-9398-7a9de9e54306"},"vehicle_type_id":"4","last_reported":1744896058,"current_range_meters":18800,"station_id":"ce4bgip2rcd13ifvqbb0","pricing_plan_id":"cebpf4jnsgd1na2vs0mg"},{"bike_id":"33efbe4e-e642-4271-be29-4926b421ca5b","system_id":"levelo_inurba_marseille","lat":43.24163,"lon":5.36405,"is_reserved":false,"is_disabled":false,"rental_uris":{"android":"levelo://app?vid=33efbe4e-e642-4271-be29-4926b421ca5b","ios":"levelo://app?vid=33efbe4e-e642-4271-be29-4926b421ca5b"},"vehicle_type_id":"4","last_reported":1744896058,"current_range_meters":19200,"station_id":"cpo36qri1sfpv3e86is0","pricing_plan_id":"cebpf4jnsgd1na2vs0mg"},{"bike_id":"d8d59c92-8de2-4596-a397-fd542dc3c8d6","system_id":"levelo_inurba_marseille","lat":43.29034,"lon":5.38648,"is_reserved":false,"is_disabled":false,"rental_uris":{"android":"levelo://app?vid=d8d59c92-8de2-4596-a397-fd542dc3c8d6","ios":"levelo://app?vid=d8d59c92-8de2-4596-a397-fd542dc3c8d6"},"vehicle_type_id":"4","last_reported":1744896058,"current_range_meters":19200,"station_id":"ce4bh4p2rcd13ifvqe0g","pricing_plan_id":"cebpf4jnsgd1na2vs0mg"},{"bike_id":"fdf102c3-d7b9-4c4a-84da-0254278b1adc","system_id":"levelo_inurba_marseille","lat":43.30132,"lon":5.37417,"is_reserved":false,"is_disabled":false,"rental_uris":{"android":"levelo://app?vid=fdf102c3-d7b9-4c4a-84da-0254278b1adc","ios":"levelo://app?vid=fdf102c3-d7b9-4c4a-84da-0254278b1adc"},"vehicle_type_id":"4","last_reported":1744896058,"current_range_meters":19200,"station_id":"ce4bgs92rcd13ifvqcc0","pricing_plan_id":"cebpf4jnsgd1na2vs0mg"},{"bike_id":"88cf4a9f-cedb-45d1-a7e2-5d3017808f37","system_id":"levelo_inurba_marseille","lat":43.29709,"lon":5.37659,"is_reserved":false,"is_disabled":false,"rental_uris":{"android":"levelo://app?vid=88cf4a9f-cedb-45d1-a7e2-5d3017808f37","ios":"levelo://app?vid=88cf4a9f-cedb-45d1-a7e2-5d3017808f37"},"vehicle_type_id":"4","last_reported":1744896058,"current_range_meters":19200,"station_id":"ce4bgkh2rcd13ifvqbl0","pricing_plan_id":"cebpf4jnsgd1na2vs0mg"},{"bike_id":"674a28bd-2c43-49e3-b1b7-3ef77eb06d84","system_id":"levelo_inurba_marseille","lat":43.2418,"lon":5.39733,"is_reserved":false,"is_disabled":false,"rental_uris":{"android":"levelo://app?vid=674a28bd-2c43-49e3-b1b7-3ef77eb06d84","ios":"levelo://app?vid=674a28bd-2c43-49e3-b1b7-3ef77eb06d84"},"vehicle_type_id":"4","last_reported":1744896058,"current_range_meters":19600,"station_id":"ce4bhn12rcd13ifvqgpg","pricing_plan_id":"cebpf4jnsgd1na2vs0mg"},{"bike_id":"68342d9f-f0b6-47e7-b690-b27078e67a77","system_id":"levelo_inurba_marseille","lat":43.24168,"lon":5.36393,"is_reserved":false,"is_disabled":false,"rental_uris":{"android":"levelo://app?vid=68342d9f-f0b6-47e7-b690-b27078e67a77","ios":"levelo://app?vid=68342d9f-f0b6-47e7-b690-b27078e67a77"},"vehicle_type_id":"4","last_reported":1744896058,"current_range_meters":19600,"station_id":"cpo36qri1sfpv3e86is0","pricing_plan_id":"cebpf4jnsgd1na2vs0mg"},{"bike_id":"f332932e-b174-483a-8274-751626cfe4bb","system_id":"levelo_inurba_marseille","lat":43.27997,"lon":5.40016,"is_reserved":false,"is_disabled":false,"rental_uris":{"android":"levelo://app?vid=f332932e-b174-483a-8274-751626cfe4bb","ios":"levelo://app?vid=f332932e-b174-483a-8274-751626cfe4bb"},"vehicle_type_id":"4","last_reported":1744896058,"current_range_meters":19600,"station_id":"ce4bho92rcd13ifvqh4g","pricing_plan_id":"cebpf4jnsgd1na2vs0mg"},{"bike_id":"ca2e1c0e-b4f2-46ea-9bc6-4832bf223e90","system_id":"levelo_inurba_marseille","lat":43.25815,"lon":5.39429,"is_reserved":false,"is_disabled":false,"rental_uris":{"android":"levelo://app?vid=ca2e1c0e-b4f2-46ea-9bc6-4832bf223e90","ios":"levelo://app?vid=ca2e1c0e-b4f2-46ea-9bc6-4832bf223e90"},"vehicle_type_id":"4","last_reported":1744896058,"current_range_meters":19600,"station_id":"ce4bhip2rcd13ifvqft0","pricing_plan_id":"cebpf4jnsgd1na2vs0mg"},{"bike_id":"baecf04b-7089-4e93-9766-36898fc68960","system_id":"levelo_inurba_marseille","lat":43.298471,"lon":5.36294,"is_reserved":false,"is_disabled":false,"rental_uris":{"android":"levelo://app?vid=baecf04b-7089-4e93-9766-36898fc68960","ios":"levelo://app?vid=baecf04b-7089-4e93-9766-36898fc68960"},"vehicle_type_id":"4","last_reported":1744896058,"current_range_meters":19600,"station_id":"ce4bgpp2rcd13ifvqc3g","pricing_plan_id":"cebpf4jnsgd1na2vs0mg"},{"bike_id":"9bb7361c-307f-49cb-ac99-d77623f20e19","system_id":"levelo_inurba_marseille","lat":43.32479,"lon":5.36559,"is_reserved":false,"is_disabled":false,"rental_uris":{"android":"levelo://app?vid=9bb7361c-307f-49cb-ac99-d77623f20e19","ios":"levelo://app?vid=9bb7361c-307f-49cb-ac99-d77623f20e19"},"vehicle_type_id":"4","last_reported":1744896058,"current_range_meters":19600,"station_id":"ce4bhs12rcd13ifvqhvg","pricing_plan_id":"cebpf4jnsgd1na2vs0mg"},{"bike_id":"f9d3fbe6-73e5-424e-af02-f446d5b07152","system_id":"levelo_inurba_marseille","lat":43.217564,"lon":5.346059,"is_reserved":false,"is_disabled":false,"rental_uris":{"android":"levelo://app?vid=f9d3fbe6-73e5-424e-af02-f446d5b07152","ios":"levelo://app?vid=f9d3fbe6-73e5-424e-af02-f446d5b07152"},"vehicle_type_id":"4","last_reported":1744896058,"current_range_meters":19600,"station_id":"st_cvj6r9ubvosntc0bgbag","pricing_plan_id":"cebpf4jnsgd1na2vs0mg"},{"bike_id":"7aead43f-5f89-4721-8bca-6914c66b830d","system_id":"levelo_inurba_marseille","lat":43.299347,"lon":5.372008,"is_reserved":false,"is_disabled":false,"rental_uris":{"android":"levelo://app?vid=7aead43f-5f89-4721-8bca-6914c66b830d","ios":"levelo://app?vid=7aead43f-5f89-4721-8bca-6914c66b830d"},"vehicle_type_id":"4","last_reported":1744896058,"current_range_meters":19600,"station_id":"ce4bgjp2rcd13ifvqbh0","pricing_plan_id":"cebpf4jnsgd1na2vs0mg"},{"bike_id":"3d478ed8-ed25-416a-87f2-402df3b77c0b","system_id":"levelo_inurba_marseille","lat":43.24183,"lon":5.3973,"is_reserved":false,"is_disabled":false,"rental_uris":{"android":"levelo://app?vid=3d478ed8-ed25-416a-87f2-402df3b77c0b","ios":"levelo://app?vid=3d478ed8-ed25-416a-87f2-402df3b77c0b"},"vehicle_type_id":"4","last_reported":1744896058,"current_range_meters":19600,"station_id":"ce4bhn12rcd13ifvqgpg","pricing_plan_id":"cebpf4jnsgd1na2vs0mg"},{"bike_id":"5e328f7a-692b-480d-8aaa-c7ad9af84ca8","system_id":"levelo_inurba_marseille","lat":43.29893,"lon":5.38158,"is_reserved":false,"is_disabled":false,"rental_uris":{"android":"levelo://app?vid=5e328f7a-692b-480d-8aaa-c7ad9af84ca8","ios":"levelo://app?vid=5e328f7a-692b-480d-8aaa-c7ad9af84ca8"},"vehicle_type_id":"4","last_reported":1744896058,"current_range_meters":19600,"station_id":"ce4bgj12rcd13ifvqbc0","pricing_plan_id":"cebpf4jnsgd1na2vs0mg"},{"bike_id":"73c10104-2f58-4feb-9909-74734621b8b0","system_id":"levelo_inurba_marseille","lat":43.30938,"lon":5.39049,"is_reserved":false,"is_disabled":false,"rental_uris":{"android":"levelo://app?vid=73c10104-2f58-4feb-9909-74734621b8b0","ios":"levelo://app?vid=73c10104-2f58-4feb-9909-74734621b8b0"},"vehicle_type_id":"4","last_reported":1744896058,"current_range_meters":20000,"station_id":"ce4bgup2rcd13ifvqco0","pricing_plan_id":"cebpf4jnsgd1na2vs0mg"},{"bike_id":"fb8bacf0-f425-4f1e-a42b-ae7af43e94bd","system_id":"levelo_inurba_marseille","lat":43.31993,"lon":5.3816,"is_reserved":false,"is_disabled":false,"rental_uris":{"android":"levelo://app?vid=fb8bacf0-f425-4f1e-a42b-ae7af43e94bd","ios":"levelo://app?vid=fb8bacf0-f425-4f1e-a42b-ae7af43e94bd"},"vehicle_type_id":"4","last_reported":1744896058,"current_range_meters":20000,"station_id":"ce4bhr12rcd13ifvqhpg","pricing_plan_id":"cebpf4jnsgd1na2vs0mg"},{"bike_id":"f08c3efd-c24b-49c5-963c-8b6537807095","system_id":"levelo_inurba_marseille","lat":43.31485,"lon":5.37309,"is_reserved":false,"is_disabled":false,"rental_uris":{"android":"levelo://app?vid=f08c3efd-c24b-49c5-963c-8b6537807095","ios":"levelo://app?vid=f08c3efd-c24b-49c5-963c-8b6537807095"},"vehicle_type_id":"4","last_reported":1744896058,"current_range_meters":20000,"station_id":"ce4bgt12rcd13ifvqcd0","pricing_plan_id":"cebpf4jnsgd1na2vs0mg"},{"bike_id":"23d15469-2966-44f5-9501-f0f436ef1b80","system_id":"levelo_inurba_marseille","lat":43.29496,"lon":5.37496,"is_reserved":false,"is_disabled":false,"rental_uris":{"android":"levelo://app?vid=23d15469-2966-44f5-9501-f0f436ef1b80","ios":"levelo://app?vid=23d15469-2966-44f5-9501-f0f436ef1b80"},"vehicle_type_id":"4","last_reported":1744896058,"current_range_meters":20000,"station_id":"ce4bgkp2rcd13ifvqbmg","pricing_plan_id":"cebpf4jnsgd1na2vs0mg"},{"bike_id":"11aba779-b9a1-49cb-90d3-0669feeb74c9","system_id":"levelo_inurba_marseille","lat":43.21186,"lon":5.35072,"is_reserved":false,"is_disabled":false,"rental_uris":{"android":"levelo://app?vid=11aba779-b9a1-49cb-90d3-0669feeb74c9","ios":"levelo://app?vid=11aba779-b9a1-49cb-90d3-0669feeb74c9"},"vehicle_type_id":"4","last_reported":1744896058,"current_range_meters":20000,"station_id":"st_cvj6sg6p6f1abm77japg","pricing_plan_id":"cebpf4jnsgd1na2vs0mg"},{"bike_id":"c305c827-8b59-4e6c-91de-4d8a3fcbcac2","system_id":"levelo_inurba_marseille","lat":43.24167,"lon":5.36396,"is_reserved":false,"is_disabled":false,"rental_uris":{"android":"levelo://app?vid=c305c827-8b59-4e6c-91de-4d8a3fcbcac2","ios":"levelo://app?vid=c305c827-8b59-4e6c-91de-4d8a3fcbcac2"},"vehicle_type_id":"4","last_reported":1744896058,"current_range_meters":20000,"station_id":"cpo36qri1sfpv3e86is0","pricing_plan_id":"cebpf4jnsgd1na2vs0mg"},{"bike_id":"efb996b3-bed7-4ae8-93ff-d4d1352bc8f1","system_id":"levelo_inurba_marseille","lat":43.302809,"lon":5.376993,"is_reserved":false,"is_disabled":false,"rental_uris":{"android":"levelo://app?vid=efb996b3-bed7-4ae8-93ff-d4d1352bc8f1","ios":"levelo://app?vid=efb996b3-bed7-4ae8-93ff-d4d1352bc8f1"},"vehicle_type_id":"4","last_reported":1744896058,"current_range_meters":20400,"station_id":"ce4bguh2rcd13ifvqcj0","pricing_plan_id":"cebpf4jnsgd1na2vs0mg"},{"bike_id":"f333f110-959a-46ad-821a-d1feadf162d8","system_id":"levelo_inurba_marseille","lat":43.30543,"lon":5.36709,"is_reserved":false,"is_disabled":false,"rental_uris":{"android":"levelo://app?vid=f333f110-959a-46ad-821a-d1feadf162d8","ios":"levelo://app?vid=f333f110-959a-46ad-821a-d1feadf162d8"},"vehicle_type_id":"4","last_reported":1744896058,"current_range_meters":20400,"station_id":"ce4bgrp2rcd13ifvqc9g","pricing_plan_id":"cebpf4jnsgd1na2vs0mg"},{"bike_id":"725808e0-d92b-4cff-a3e3-10e5bf3a5400","system_id":"levelo_inurba_marseille","lat":43.29717,"lon":5.37688,"is_reserved":false,"is_disabled":false,"rental_uris":{"android":"levelo://app?vid=725808e0-d92b-4cff-a3e3-10e5bf3a5400","ios":"levelo://app?vid=725808e0-d92b-4cff-a3e3-10e5bf3a5400"},"vehicle_type_id":"4","last_reported":1744896058,"current_range_meters":20400,"station_id":"ce4bgkh2rcd13ifvqbl0","pricing_plan_id":"cebpf4jnsgd1na2vs0mg"},{"bike_id":"ecd9b5fe-4b17-4d30-a270-9ff21e0a9ad2","system_id":"levelo_inurba_marseille","lat":43.24159,"lon":5.36388,"is_reserved":false,"is_disabled":false,"rental_uris":{"android":"levelo://app?vid=ecd9b5fe-4b17-4d30-a270-9ff21e0a9ad2","ios":"levelo://app?vid=ecd9b5fe-4b17-4d30-a270-9ff21e0a9ad2"},"vehicle_type_id":"4","last_reported":1744896058,"current_range_meters":20400,"station_id":"cpo36qri1sfpv3e86is0","pricing_plan_id":"cebpf4jnsgd1na2vs0mg"},{"bike_id":"a547fcce-d9e8-4e33-9846-fc0b06b7bed4","system_id":"levelo_inurba_marseille","lat":43.29028,"lon":5.37578,"is_reserved":false,"is_disabled":false,"rental_uris":{"android":"levelo://app?vid=a547fcce-d9e8-4e33-9846-fc0b06b7bed4","ios":"levelo://app?vid=a547fcce-d9e8-4e33-9846-fc0b06b7bed4"},"vehicle_type_id":"4","last_reported":1744896058,"current_range_meters":20400,"station_id":"ce4bh692rcd13ifvqe90","pricing_plan_id":"cebpf4jnsgd1na2vs0mg"},{"bike_id":"6f4329b6-e54e-4d4b-b594-e33cd309be1d","system_id":"levelo_inurba_marseille","lat":43.27555,"lon":5.38437,"is_reserved":false,"is_disabled":false,"rental_uris":{"android":"levelo://app?vid=6f4329b6-e54e-4d4b-b594-e33cd309be1d","ios":"levelo://app?vid=6f4329b6-e54e-4d4b-b594-e33cd309be1d"},"vehicle_type_id":"4","last_reported":1744896058,"current_range_meters":20800,"station_id":"ce4bhh92rcd13ifvqfi0","pricing_plan_id":"cebpf4jnsgd1na2vs0mg"},{"bike_id":"d39e5537-c00a-4bf8-9f22-53966b448679","system_id":"levelo_inurba_marseille","lat":43.29555,"lon":5.42295,"is_reserved":false,"is_disabled":false,"rental_uris":{"android":"levelo://app?vid=d39e5537-c00a-4bf8-9f22-53966b448679","ios":"levelo://app?vid=d39e5537-c00a-4bf8-9f22-53966b448679"},"vehicle_type_id":"4","last_reported":1744896058,"current_range_meters":20800,"station_id":"ce4bhph2rcd13ifvqhdg","pricing_plan_id":"cebpf4jnsgd1na2vs0mg"},{"bike_id":"4a9baae4-e4bf-4333-8248-9c8de03744b1","system_id":"levelo_inurba_marseille","lat":43.29281,"lon":5.40113,"is_reserved":false,"is_disabled":false,"rental_uris":{"android":"levelo://app?vid=4a9baae4-e4bf-4333-8248-9c8de03744b1","ios":"levelo://app?vid=4a9baae4-e4bf-4333-8248-9c8de03744b1"},"vehicle_type_id":"4","last_reported":1744896058,"current_range_meters":20400,"station_id":"ce4bh312rcd13ifvqdk0","pricing_plan_id":"cebpf4jnsgd1na2vs0mg"},{"bike_id":"05f9b99d-7805-460c-b863-06baeb2f9dc2","system_id":"levelo_inurba_marseille","lat":43.30162,"lon":5.38093,"is_reserved":false,"is_disabled":false,"rental_uris":{"android":"levelo://app?vid=05f9b99d-7805-460c-b863-06baeb2f9dc2","ios":"levelo://app?vid=05f9b99d-7805-460c-b863-06baeb2f9dc2"},"vehicle_type_id":"4","last_reported":1744896058,"current_range_meters":20800,"station_id":"ce4bgjp2rcd13ifvqbh0","pricing_plan_id":"cebpf4jnsgd1na2vs0mg"},{"bike_id":"767ac8e2-0e80-4549-a954-7d5c8496a13a","system_id":"levelo_inurba_marseille","lat":43.30532,"lon":5.36528,"is_reserved":false,"is_disabled":false,"rental_uris":{"android":"levelo://app?vid=767ac8e2-0e80-4549-a954-7d5c8496a13a","ios":"levelo://app?vid=767ac8e2-0e80-4549-a954-7d5c8496a13a"},"vehicle_type_id":"4","last_reported":1744896058,"current_range_meters":20800,"station_id":"ce4bgs12rcd13ifvqcag","pricing_plan_id":"cebpf4jnsgd1na2vs0mg"},{"bike_id":"775ed2b5-908c-4ec4-b9ab-1de32efc1438","system_id":"levelo_inurba_marseille","lat":43.26192,"lon":5.404,"is_reserved":false,"is_disabled":false,"rental_uris":{"android":"levelo://app?vid=775ed2b5-908c-4ec4-b9ab-1de32efc1438","ios":"levelo://app?vid=775ed2b5-908c-4ec4-b9ab-1de32efc1438"},"vehicle_type_id":"4","last_reported":1744896058,"current_range_meters":20800,"station_id":"ce4bhmh2rcd13ifvqgmg","pricing_plan_id":"cebpf4jnsgd1na2vs0mg"},{"bike_id":"259a96ec-eb0e-4ded-b1e0-59c0a2524494","system_id":"levelo_inurba_marseille","lat":43.28156,"lon":5.42654,"is_reserved":false,"is_disabled":false,"rental_uris":{"android":"levelo://app?vid=259a96ec-eb0e-4ded-b1e0-59c0a2524494","ios":"levelo://app?vid=259a96ec-eb0e-4ded-b1e0-59c0a2524494"},"vehicle_type_id":"4","last_reported":1744896058,"current_range_meters":20800,"station_id":"ce4bhnh2rcd13ifvqgug","pricing_plan_id":"cebpf4jnsgd1na2vs0mg"},{"bike_id":"cc937bc8-27c1-44e9-a469-8b24e9cfd941","system_id":"levelo_inurba_marseille","lat":43.29849,"lon":5.36257,"is_reserved":false,"is_disabled":false,"rental_uris":{"android":"levelo://app?vid=cc937bc8-27c1-44e9-a469-8b24e9cfd941","ios":"levelo://app?vid=cc937bc8-27c1-44e9-a469-8b24e9cfd941"},"vehicle_type_id":"4","last_reported":1744896058,"current_range_meters":21600,"station_id":"ce4bgpp2rcd13ifvqc3g","pricing_plan_id":"cebpf4jnsgd1na2vs0mg"},{"bike_id":"33bf5d63-424c-48d6-a0cb-a0565488ee3e","system_id":"levelo_inurba_marseille","lat":43.24207,"lon":5.39694,"is_reserved":false,"is_disabled":false,"rental_uris":{"android":"levelo://app?vid=33bf5d63-424c-48d6-a0cb-a0565488ee3e","ios":"levelo://app?vid=33bf5d63-424c-48d6-a0cb-a0565488ee3e"},"vehicle_type_id":"4","last_reported":1744896058,"current_range_meters":21600,"station_id":"ce4bhn12rcd13ifvqgpg","pricing_plan_id":"cebpf4jnsgd1na2vs0mg"},{"bike_id":"a98846e9-8bfc-47f7-8530-12eb548f5820","system_id":"levelo_inurba_marseille","lat":43.28962,"lon":5.37868,"is_reserved":false,"is_disabled":false,"rental_uris":{"android":"levelo://app?vid=a98846e9-8bfc-47f7-8530-12eb548f5820","ios":"levelo://app?vid=a98846e9-8bfc-47f7-8530-12eb548f5820"},"vehicle_type_id":"4","last_reported":1744896058,"current_range_meters":21600,"station_id":"ce4bh9p2rcd13ifvqed0","pricing_plan_id":"cebpf4jnsgd1na2vs0mg"},{"bike_id":"5dc89f48-2844-42e3-838f-b754cbd7fcfd","system_id":"levelo_inurba_marseille","lat":43.27567,"lon":5.38434,"is_reserved":false,"is_disabled":false,"rental_uris":{"android":"levelo://app?vid=5dc89f48-2844-42e3-838f-b754cbd7fcfd","ios":"levelo://app?vid=5dc89f48-2844-42e3-838f-b754cbd7fcfd"},"vehicle_type_id":"4","last_reported":1744896058,"current_range_meters":20800,"station_id":"ce4bhh92rcd13ifvqfi0","pricing_plan_id":"cebpf4jnsgd1na2vs0mg"},{"bike_id":"ec5a8877-0b86-481e-8a31-a6206423c498","system_id":"levelo_inurba_marseille","lat":43.2921,"lon":5.35798,"is_reserved":false,"is_disabled":false,"rental_uris":{"android":"levelo://app?vid=ec5a8877-0b86-481e-8a31-a6206423c498","ios":"levelo://app?vid=ec5a8877-0b86-481e-8a31-a6206423c498"},"vehicle_type_id":"4","last_reported":1744896058,"current_range_meters":21600,"station_id":"ce4bhb12rcd13ifvqel0","pricing_plan_id":"cebpf4jnsgd1na2vs0mg"},{"bike_id":"027b2073-b736-4e32-b176-9832600d0d35","system_id":"levelo_inurba_marseille","lat":43.29032,"lon":5.38119,"is_reserved":false,"is_disabled":false,"rental_uris":{"android":"levelo://app?vid=027b2073-b736-4e32-b176-9832600d0d35","ios":"levelo://app?vid=027b2073-b736-4e32-b176-9832600d0d35"},"vehicle_type_id":"4","last_reported":1744896058,"current_range_meters":21600,"station_id":"ce4bh4p2rcd13ifvqe1g","pricing_plan_id":"cebpf4jnsgd1na2vs0mg"},{"bike_id":"f1d513e7-93f2-472b-b840-4c42490aad95","system_id":"levelo_inurba_marseille","lat":43.24165,"lon":5.36395,"is_reserved":false,"is_disabled":false,"rental_uris":{"android":"levelo://app?vid=f1d513e7-93f2-472b-b840-4c42490aad95","ios":"levelo://app?vid=f1d513e7-93f2-472b-b840-4c42490aad95"},"vehicle_type_id":"4","last_reported":1744896058,"current_range_meters":21600,"station_id":"cpo36qri1sfpv3e86is0","pricing_plan_id":"cebpf4jnsgd1na2vs0mg"},{"bike_id":"d7641d14-38c5-4a79-a2b8-593f40989d83","system_id":"levelo_inurba_marseille","lat":43.30907,"lon":5.36838,"is_reserved":false,"is_disabled":false,"rental_uris":{"android":"levelo://app?vid=d7641d14-38c5-4a79-a2b8-593f40989d83","ios":"levelo://app?vid=d7641d14-38c5-4a79-a2b8-593f40989d83"},"vehicle_type_id":"4","last_reported":1744896058,"current_range_meters":21600,"station_id":"ce4bgn92rcd13ifvqbvg","pricing_plan_id":"cebpf4jnsgd1na2vs0mg"},{"bike_id":"a7e5501e-04ff-4a0b-8881-2ded46718a88","system_id":"levelo_inurba_marseille","lat":43.27998,"lon":5.41661,"is_reserved":false,"is_disabled":false,"rental_uris":{"android":"levelo://app?vid=a7e5501e-04ff-4a0b-8881-2ded46718a88","ios":"levelo://app?vid=a7e5501e-04ff-4a0b-8881-2ded46718a88"},"vehicle_type_id":"4","last_reported":1744896058,"current_range_meters":21600,"station_id":"ce4bho12rcd13ifvqh1g","pricing_plan_id":"cebpf4jnsgd1na2vs0mg"},{"bike_id":"5edff29b-8597-4123-8eac-13badbdfa345","system_id":"levelo_inurba_marseille","lat":43.29291,"lon":5.37433,"is_reserved":false,"is_disabled":false,"rental_uris":{"android":"levelo://app?vid=5edff29b-8597-4123-8eac-13badbdfa345","ios":"levelo://app?vid=5edff29b-8597-4123-8eac-13badbdfa345"},"vehicle_type_id":"4","last_reported":1744896058,"current_range_meters":22000,"station_id":"ce4bgi12rcd13ifvqb70","pricing_plan_id":"cebpf4jnsgd1na2vs0mg"},{"bike_id":"9eb6738d-486c-4d0a-88f4-70b8d81983d1","system_id":"levelo_inurba_marseille","lat":43.21743,"lon":5.34601,"is_reserved":false,"is_disabled":false,"rental_uris":{"android":"levelo://app?vid=9eb6738d-486c-4d0a-88f4-70b8d81983d1","ios":"levelo://app?vid=9eb6738d-486c-4d0a-88f4-70b8d81983d1"},"vehicle_type_id":"4","last_reported":1744896058,"current_range_meters":22000,"station_id":"st_cvj6r9ubvosntc0bgbag","pricing_plan_id":"cebpf4jnsgd1na2vs0mg"},{"bike_id":"5e6be620-a3d0-49c3-9ff0-b85332cde817","system_id":"levelo_inurba_marseille","lat":43.23191,"lon":5.35567,"is_reserved":false,"is_disabled":false,"rental_uris":{"android":"levelo://app?vid=5e6be620-a3d0-49c3-9ff0-b85332cde817","ios":"levelo://app?vid=5e6be620-a3d0-49c3-9ff0-b85332cde817"},"vehicle_type_id":"4","last_reported":1744896058,"current_range_meters":22000,"station_id":"ce4bhu92rcd13ifvqi70","pricing_plan_id":"cebpf4jnsgd1na2vs0mg"},{"bike_id":"80bac1fe-218c-4068-937c-4aa733df023f","system_id":"levelo_inurba_marseille","lat":43.28614,"lon":5.37058,"is_reserved":false,"is_disabled":false,"rental_uris":{"android":"levelo://app?vid=80bac1fe-218c-4068-937c-4aa733df023f","ios":"levelo://app?vid=80bac1fe-218c-4068-937c-4aa733df023f"},"vehicle_type_id":"4","last_reported":1744896058,"current_range_meters":22000,"station_id":"ce4bht12rcd13ifvqi60","pricing_plan_id":"cebpf4jnsgd1na2vs0mg"},{"bike_id":"6b263e6b-aafb-45b2-8f6c-e9526fac004d","system_id":"levelo_inurba_marseille","lat":43.258209,"lon":5.394312,"is_reserved":false,"is_disabled":false,"rental_uris":{"android":"levelo://app?vid=6b263e6b-aafb-45b2-8f6c-e9526fac004d","ios":"levelo://app?vid=6b263e6b-aafb-45b2-8f6c-e9526fac004d"},"vehicle_type_id":"4","last_reported":1744896058,"current_range_meters":22400,"station_id":"ce4bhip2rcd13ifvqft0","pricing_plan_id":"cebpf4jnsgd1na2vs0mg"},{"bike_id":"873bcab6-b973-48ed-b129-34762c209441","system_id":"levelo_inurba_marseille","lat":43.31481,"lon":5.37296,"is_reserved":false,"is_disabled":false,"rental_uris":{"android":"levelo://app?vid=873bcab6-b973-48ed-b129-34762c209441","ios":"levelo://app?vid=873bcab6-b973-48ed-b129-34762c209441"},"vehicle_type_id":"4","last_reported":1744896058,"current_range_meters":22400,"station_id":"ce4bgt12rcd13ifvqcd0","pricing_plan_id":"cebpf4jnsgd1na2vs0mg"},{"bike_id":"4a5588ad-9692-461a-82d8-8aa592bf739b","system_id":"levelo_inurba_marseille","lat":43.29437,"lon":5.39728,"is_reserved":false,"is_disabled":false,"rental_uris":{"android":"levelo://app?vid=4a5588ad-9692-461a-82d8-8aa592bf739b","ios":"levelo://app?vid=4a5588ad-9692-461a-82d8-8aa592bf739b"},"vehicle_type_id":"4","last_reported":1744896058,"current_range_meters":22800,"station_id":"ce4bh3h2rcd13ifvqdo0","pricing_plan_id":"cebpf4jnsgd1na2vs0mg"},{"bike_id":"91aa591a-3e56-4092-a295-ecb6aebe69eb","system_id":"levelo_inurba_marseille","lat":43.225,"lon":5.34794,"is_reserved":false,"is_disabled":false,"rental_uris":{"android":"levelo://app?vid=91aa591a-3e56-4092-a295-ecb6aebe69eb","ios":"levelo://app?vid=91aa591a-3e56-4092-a295-ecb6aebe69eb"},"vehicle_type_id":"4","last_reported":1744896058,"current_range_meters":22800,"station_id":"st_cvj5dfep6f1abm77gieg","pricing_plan_id":"cebpf4jnsgd1na2vs0mg"},{"bike_id":"4c0c8837-fb19-45d8-b725-c8c956a4bea5","system_id":"levelo_inurba_marseille","lat":43.31073,"lon":5.38363,"is_reserved":false,"is_disabled":false,"rental_uris":{"android":"levelo://app?vid=4c0c8837-fb19-45d8-b725-c8c956a4bea5","ios":"levelo://app?vid=4c0c8837-fb19-45d8-b725-c8c956a4bea5"},"vehicle_type_id":"4","last_reported":1744896058,"current_range_meters":22800,"station_id":"ce4bgv92rcd13ifvqcr0","pricing_plan_id":"cebpf4jnsgd1na2vs0mg"},{"bike_id":"aea2afb6-112e-4c3a-968a-5eb5aa77e9be","system_id":"levelo_inurba_marseille","lat":43.212,"lon":5.35071,"is_reserved":false,"is_disabled":false,"rental_uris":{"android":"levelo://app?vid=aea2afb6-112e-4c3a-968a-5eb5aa77e9be","ios":"levelo://app?vid=aea2afb6-112e-4c3a-968a-5eb5aa77e9be"},"vehicle_type_id":"4","last_reported":1744896058,"current_range_meters":22800,"station_id":"st_cvj6sg6p6f1abm77japg","pricing_plan_id":"cebpf4jnsgd1na2vs0mg"},{"bike_id":"09ed2f99-3de5-46d0-a2e0-ed554d61393f","system_id":"levelo_inurba_marseille","lat":43.31023,"lon":5.3841,"is_reserved":false,"is_disabled":false,"rental_uris":{"android":"levelo://app?vid=09ed2f99-3de5-46d0-a2e0-ed554d61393f","ios":"levelo://app?vid=09ed2f99-3de5-46d0-a2e0-ed554d61393f"},"vehicle_type_id":"4","last_reported":1744896058,"current_range_meters":22800,"station_id":"","pricing_plan_id":"cebpf4jnsgd1na2vs0mg"},{"bike_id":"db2488d1-77a1-4eb3-9b9b-b51975bfb43c","system_id":"levelo_inurba_marseille","lat":43.301429,"lon":5.374258,"is_reserved":false,"is_disabled":false,"rental_uris":{"android":"levelo://app?vid=db2488d1-77a1-4eb3-9b9b-b51975bfb43c","ios":"levelo://app?vid=db2488d1-77a1-4eb3-9b9b-b51975bfb43c"},"vehicle_type_id":"4","last_reported":1744896058,"current_range_meters":22800,"station_id":"ce4bgs92rcd13ifvqcc0","pricing_plan_id":"cebpf4jnsgd1na2vs0mg"},{"bike_id":"00d581ac-66ee-49cb-be11-8690be55750e","system_id":"levelo_inurba_marseille","lat":43.31759,"lon":5.39015,"is_reserved":false,"is_disabled":false,"rental_uris":{"android":"levelo://app?vid=00d581ac-66ee-49cb-be11-8690be55750e","ios":"levelo://app?vid=00d581ac-66ee-49cb-be11-8690be55750e"},"vehicle_type_id":"4","last_reported":1744896058,"current_range_meters":22400,"station_id":"ce4bhqp2rcd13ifvqhng","pricing_plan_id":"cebpf4jnsgd1na2vs0mg"},{"bike_id":"5a5a1976-b3cb-4860-8a5b-2827c19e93e8","system_id":"levelo_inurba_marseille","lat":43.28456,"lon":5.35899,"is_reserved":false,"is_disabled":false,"rental_uris":{"android":"levelo://app?vid=5a5a1976-b3cb-4860-8a5b-2827c19e93e8","ios":"levelo://app?vid=5a5a1976-b3cb-4860-8a5b-2827c19e93e8"},"vehicle_type_id":"4","last_reported":1744896058,"current_range_meters":22800,"station_id":"ce4bhah2rcd13ifvqei0","pricing_plan_id":"cebpf4jnsgd1na2vs0mg"},{"bike_id":"145c4457-16bc-4609-ba48-f85c0de3dd2f","system_id":"levelo_inurba_marseille","lat":43.29842,"lon":5.36274,"is_reserved":false,"is_disabled":false,"rental_uris":{"android":"levelo://app?vid=145c4457-16bc-4609-ba48-f85c0de3dd2f","ios":"levelo://app?vid=145c4457-16bc-4609-ba48-f85c0de3dd2f"},"vehicle_type_id":"4","last_reported":1744896058,"current_range_meters":22800,"station_id":"ce4bgpp2rcd13ifvqc3g","pricing_plan_id":"cebpf4jnsgd1na2vs0mg"},{"bike_id":"e0bf5ac3-1bcf-4cac-91b6-fefd9414e6f7","system_id":"levelo_inurba_marseille","lat":43.29597,"lon":5.38102,"is_reserved":false,"is_disabled":false,"rental_uris":{"android":"levelo://app?vid=e0bf5ac3-1bcf-4cac-91b6-fefd9414e6f7","ios":"levelo://app?vid=e0bf5ac3-1bcf-4cac-91b6-fefd9414e6f7"},"vehicle_type_id":"4","last_reported":1744896058,"current_range_meters":23200,"station_id":"ce4bgl12rcd13ifvqbo0","pricing_plan_id":"cebpf4jnsgd1na2vs0mg"},{"bike_id":"06e7d774-1948-4f7b-b3b3-1277899b39c3","system_id":"levelo_inurba_marseille","lat":43.29901,"lon":5.38147,"is_reserved":false,"is_disabled":false,"rental_uris":{"android":"levelo://app?vid=06e7d774-1948-4f7b-b3b3-1277899b39c3","ios":"levelo://app?vid=06e7d774-1948-4f7b-b3b3-1277899b39c3"},"vehicle_type_id":"4","last_reported":1744896058,"current_range_meters":23200,"station_id":"ce4bgj12rcd13ifvqbc0","pricing_plan_id":"cebpf4jnsgd1na2vs0mg"},{"bike_id":"d05b7cc4-f88b-4d02-ae6c-c344f22c0e5c","system_id":"levelo_inurba_marseille","lat":43.29767,"lon":5.3653,"is_reserved":false,"is_disabled":false,"rental_uris":{"android":"levelo://app?vid=d05b7cc4-f88b-4d02-ae6c-c344f22c0e5c","ios":"levelo://app?vid=d05b7cc4-f88b-4d02-ae6c-c344f22c0e5c"},"vehicle_type_id":"4","last_reported":1744896058,"current_range_meters":23200,"station_id":"","pricing_plan_id":"cebpf4jnsgd1na2vs0mg"},{"bike_id":"bc514015-bbd8-4e9b-98c8-50ddd6252791","system_id":"levelo_inurba_marseille","lat":43.28859,"lon":5.35835,"is_reserved":false,"is_disabled":false,"rental_uris":{"android":"levelo://app?vid=bc514015-bbd8-4e9b-98c8-50ddd6252791","ios":"levelo://app?vid=bc514015-bbd8-4e9b-98c8-50ddd6252791"},"vehicle_type_id":"4","last_reported":1744896058,"current_range_meters":23200,"station_id":"ce4bhb12rcd13ifvqem0","pricing_plan_id":"cebpf4jnsgd1na2vs0mg"},{"bike_id":"7d1b0b4b-e95b-4533-8309-734860489786","system_id":"levelo_inurba_marseille","lat":43.27501,"lon":5.41129,"is_reserved":false,"is_disabled":false,"rental_uris":{"android":"levelo://app?vid=7d1b0b4b-e95b-4533-8309-734860489786","ios":"levelo://app?vid=7d1b0b4b-e95b-4533-8309-734860489786"},"vehicle_type_id":"4","last_reported":1744896058,"current_range_meters":23200,"station_id":"","pricing_plan_id":"cebpf4jnsgd1na2vs0mg"},{"bike_id":"7e9fbd33-cfb6-44a6-96fc-1f60d0c215f7","system_id":"levelo_inurba_marseille","lat":43.32323,"lon":5.36708,"is_reserved":false,"is_disabled":false,"rental_uris":{"android":"levelo://app?vid=7e9fbd33-cfb6-44a6-96fc-1f60d0c215f7","ios":"levelo://app?vid=7e9fbd33-cfb6-44a6-96fc-1f60d0c215f7"},"vehicle_type_id":"4","last_reported":1744896058,"current_range_meters":23200,"station_id":"ce4bhsh2rcd13ifvqi2g","pricing_plan_id":"cebpf4jnsgd1na2vs0mg"},{"bike_id":"ae1111c6-a6eb-49f4-b3d4-8325287d85e1","system_id":"levelo_inurba_marseille","lat":43.245718,"lon":5.395088,"is_reserved":false,"is_disabled":false,"rental_uris":{"android":"levelo://app?vid=ae1111c6-a6eb-49f4-b3d4-8325287d85e1","ios":"levelo://app?vid=ae1111c6-a6eb-49f4-b3d4-8325287d85e1"},"vehicle_type_id":"4","last_reported":1744896058,"current_range_meters":23200,"station_id":"ce4bhlp2rcd13ifvqgjg","pricing_plan_id":"cebpf4jnsgd1na2vs0mg"},{"bike_id":"8ea2237f-83ea-4547-994f-b4e446b2b67b","system_id":"levelo_inurba_marseille","lat":43.29827,"lon":5.36325,"is_reserved":false,"is_disabled":false,"rental_uris":{"android":"levelo://app?vid=8ea2237f-83ea-4547-994f-b4e446b2b67b","ios":"levelo://app?vid=8ea2237f-83ea-4547-994f-b4e446b2b67b"},"vehicle_type_id":"4","last_reported":1744896058,"current_range_meters":23200,"station_id":"ce4bgpp2rcd13ifvqc3g","pricing_plan_id":"cebpf4jnsgd1na2vs0mg"},{"bike_id":"639dbc56-41c4-4bb5-8e85-171a941d174c","system_id":"levelo_inurba_marseille","lat":43.27573,"lon":5.38421,"is_reserved":false,"is_disabled":false,"rental_uris":{"android":"levelo://app?vid=639dbc56-41c4-4bb5-8e85-171a941d174c","ios":"levelo://app?vid=639dbc56-41c4-4bb5-8e85-171a941d174c"},"vehicle_type_id":"4","last_reported":1744896058,"current_range_meters":23200,"station_id":"ce4bhh92rcd13ifvqfi0","pricing_plan_id":"cebpf4jnsgd1na2vs0mg"},{"bike_id":"f1f30861-2e48-4970-9f7d-33998edd71f6","system_id":"levelo_inurba_marseille","lat":43.29583,"lon":5.36743,"is_reserved":false,"is_disabled":false,"rental_uris":{"android":"levelo://app?vid=f1f30861-2e48-4970-9f7d-33998edd71f6","ios":"levelo://app?vid=f1f30861-2e48-4970-9f7d-33998edd71f6"},"vehicle_type_id":"4","last_reported":1744896058,"current_range_meters":24000,"station_id":"ce4bgph2rcd13ifvqc2g","pricing_plan_id":"cebpf4jnsgd1na2vs0mg"},{"bike_id":"4f172882-e66e-4d6c-944a-b9671eae4dda","system_id":"levelo_inurba_marseille","lat":43.24176,"lon":5.3972,"is_reserved":false,"is_disabled":false,"rental_uris":{"android":"levelo://app?vid=4f172882-e66e-4d6c-944a-b9671eae4dda","ios":"levelo://app?vid=4f172882-e66e-4d6c-944a-b9671eae4dda"},"vehicle_type_id":"4","last_reported":1744896058,"current_range_meters":24000,"station_id":"ce4bhn12rcd13ifvqgpg","pricing_plan_id":"cebpf4jnsgd1na2vs0mg"},{"bike_id":"379dee3f-34cd-468c-aca0-cf546e557097","system_id":"levelo_inurba_marseille","lat":43.26562,"lon":5.39004,"is_reserved":false,"is_disabled":false,"rental_uris":{"android":"levelo://app?vid=379dee3f-34cd-468c-aca0-cf546e557097","ios":"levelo://app?vid=379dee3f-34cd-468c-aca0-cf546e557097"},"vehicle_type_id":"4","last_reported":1744896058,"current_range_meters":24000,"station_id":"ce4bhe12rcd13ifvqf30","pricing_plan_id":"cebpf4jnsgd1na2vs0mg"},{"bike_id":"24213b37-b766-4d9c-a174-f6bf34920497","system_id":"levelo_inurba_marseille","lat":43.28469,"lon":5.384178,"is_reserved":false,"is_disabled":false,"rental_uris":{"android":"levelo://app?vid=24213b37-b766-4d9c-a174-f6bf34920497","ios":"levelo://app?vid=24213b37-b766-4d9c-a174-f6bf34920497"},"vehicle_type_id":"4","last_reported":1744896058,"current_range_meters":24000,"station_id":"ce4bh512rcd13ifvqe3g","pricing_plan_id":"cebpf4jnsgd1na2vs0mg"},{"bike_id":"17de6571-3c1c-4621-995b-d445cb9c6f14","system_id":"levelo_inurba_marseille","lat":43.211952,"lon":5.350782,"is_reserved":false,"is_disabled":false,"rental_uris":{"android":"levelo://app?vid=17de6571-3c1c-4621-995b-d445cb9c6f14","ios":"levelo://app?vid=17de6571-3c1c-4621-995b-d445cb9c6f14"},"vehicle_type_id":"4","last_reported":1744896058,"current_range_meters":24000,"station_id":"st_cvj6sg6p6f1abm77japg","pricing_plan_id":"cebpf4jnsgd1na2vs0mg"},{"bike_id":"5e16def3-4aa0-400c-838f-5a39a551f427","system_id":"levelo_inurba_marseille","lat":43.296113,"lon":5.377146,"is_reserved":false,"is_disabled":false,"rental_uris":{"android":"levelo://app?vid=5e16def3-4aa0-400c-838f-5a39a551f427","ios":"levelo://app?vid=5e16def3-4aa0-400c-838f-5a39a551f427"},"vehicle_type_id":"4","last_reported":1744896058,"current_range_meters":23200,"station_id":"ce4bgi92rcd13ifvqb90","pricing_plan_id":"cebpf4jnsgd1na2vs0mg"},{"bike_id":"7a597853-937c-4204-b8b9-87d3c6b4e8ef","system_id":"levelo_inurba_marseille","lat":43.24175,"lon":5.36391,"is_reserved":false,"is_disabled":false,"rental_uris":{"android":"levelo://app?vid=7a597853-937c-4204-b8b9-87d3c6b4e8ef","ios":"levelo://app?vid=7a597853-937c-4204-b8b9-87d3c6b4e8ef"},"vehicle_type_id":"4","last_reported":1744896058,"current_range_meters":24000,"station_id":"cpo36qri1sfpv3e86is0","pricing_plan_id":"cebpf4jnsgd1na2vs0mg"},{"bike_id":"33203d26-945b-4a55-92a5-97548cc35c7f","system_id":"levelo_inurba_marseille","lat":43.301613,"lon":5.380439,"is_reserved":false,"is_disabled":false,"rental_uris":{"android":"levelo://app?vid=33203d26-945b-4a55-92a5-97548cc35c7f","ios":"levelo://app?vid=33203d26-945b-4a55-92a5-97548cc35c7f"},"vehicle_type_id":"4","last_reported":1744896058,"current_range_meters":24000,"station_id":"ce4bgjp2rcd13ifvqbh0","pricing_plan_id":"cebpf4jnsgd1na2vs0mg"},{"bike_id":"e4d3a7be-4116-4c95-ab58-e5bbfafcec60","system_id":"levelo_inurba_marseille","lat":43.30428,"lon":5.3975,"is_reserved":false,"is_disabled":false,"rental_uris":{"android":"levelo://app?vid=e4d3a7be-4116-4c95-ab58-e5bbfafcec60","ios":"levelo://app?vid=e4d3a7be-4116-4c95-ab58-e5bbfafcec60"},"vehicle_type_id":"4","last_reported":1744896058,"current_range_meters":24000,"station_id":"ce4bh092rcd13ifvqd20","pricing_plan_id":"cebpf4jnsgd1na2vs0mg"},{"bike_id":"aad06c3e-b981-4c88-87c2-21b5a38add65","system_id":"levelo_inurba_marseille","lat":43.3055,"lon":5.36542,"is_reserved":false,"is_disabled":false,"rental_uris":{"android":"levelo://app?vid=aad06c3e-b981-4c88-87c2-21b5a38add65","ios":"levelo://app?vid=aad06c3e-b981-4c88-87c2-21b5a38add65"},"vehicle_type_id":"4","last_reported":1744896058,"current_range_meters":24000,"station_id":"ce4bgs12rcd13ifvqcag","pricing_plan_id":"cebpf4jnsgd1na2vs0mg"},{"bike_id":"a3cb3541-e34e-4e91-96bd-3d2be11ba3ea","system_id":"levelo_inurba_marseille","lat":43.30459,"lon":5.37909,"is_reserved":false,"is_disabled":false,"rental_uris":{"android":"levelo://app?vid=a3cb3541-e34e-4e91-96bd-3d2be11ba3ea","ios":"levelo://app?vid=a3cb3541-e34e-4e91-96bd-3d2be11ba3ea"},"vehicle_type_id":"4","last_reported":1744896058,"current_range_meters":24000,"station_id":"ce4bgup2rcd13ifvqcn0","pricing_plan_id":"cebpf4jnsgd1na2vs0mg"},{"bike_id":"ede48029-e8b6-4aa0-af1f-17eac8fd1017","system_id":"levelo_inurba_marseille","lat":43.29021,"lon":5.3864,"is_reserved":false,"is_disabled":false,"rental_uris":{"android":"levelo://app?vid=ede48029-e8b6-4aa0-af1f-17eac8fd1017","ios":"levelo://app?vid=ede48029-e8b6-4aa0-af1f-17eac8fd1017"},"vehicle_type_id":"4","last_reported":1744896058,"current_range_meters":24400,"station_id":"ce4bh4p2rcd13ifvqe0g","pricing_plan_id":"cebpf4jnsgd1na2vs0mg"},{"bike_id":"a6abf2e4-011a-4292-8018-b780ce80cdf7","system_id":"levelo_inurba_marseille","lat":43.315318,"lon":5.380188,"is_reserved":false,"is_disabled":false,"rental_uris":{"android":"levelo://app?vid=a6abf2e4-011a-4292-8018-b780ce80cdf7","ios":"levelo://app?vid=a6abf2e4-011a-4292-8018-b780ce80cdf7"},"vehicle_type_id":"4","last_reported":1744896058,"current_range_meters":24400,"station_id":"ce4bhsp2rcd13ifvqi50","pricing_plan_id":"cebpf4jnsgd1na2vs0mg"},{"bike_id":"faa39510-290d-4c69-ba73-d4db05184fce","system_id":"levelo_inurba_marseille","lat":43.29028,"lon":5.37566,"is_reserved":false,"is_disabled":false,"rental_uris":{"android":"levelo://app?vid=faa39510-290d-4c69-ba73-d4db05184fce","ios":"levelo://app?vid=faa39510-290d-4c69-ba73-d4db05184fce"},"vehicle_type_id":"4","last_reported":1744896058,"current_range_meters":24000,"station_id":"ce4bh692rcd13ifvqe90","pricing_plan_id":"cebpf4jnsgd1na2vs0mg"},{"bike_id":"cea6fef1-eeeb-45a4-943f-c32bad00a2e4","system_id":"levelo_inurba_marseille","lat":43.32368,"lon":5.38884,"is_reserved":false,"is_disabled":false,"rental_uris":{"android":"levelo://app?vid=cea6fef1-eeeb-45a4-943f-c32bad00a2e4","ios":"levelo://app?vid=cea6fef1-eeeb-45a4-943f-c32bad00a2e4"},"vehicle_type_id":"4","last_reported":1744896058,"current_range_meters":24400,"station_id":"ce4bhqp2rcd13ifvqhog","pricing_plan_id":"cebpf4jnsgd1na2vs0mg"},{"bike_id":"3c37d3ec-c1f3-47c3-9356-b25b0d14152b","system_id":"levelo_inurba_marseille","lat":43.28606,"lon":5.37082,"is_reserved":false,"is_disabled":false,"rental_uris":{"android":"levelo://app?vid=3c37d3ec-c1f3-47c3-9356-b25b0d14152b","ios":"levelo://app?vid=3c37d3ec-c1f3-47c3-9356-b25b0d14152b"},"vehicle_type_id":"4","last_reported":1744896058,"current_range_meters":24400,"station_id":"ce4bht12rcd13ifvqi60","pricing_plan_id":"cebpf4jnsgd1na2vs0mg"},{"bike_id":"fb1a25d3-7167-4f86-8cc5-d4c858af78db","system_id":"levelo_inurba_marseille","lat":43.29742,"lon":5.37679,"is_reserved":false,"is_disabled":false,"rental_uris":{"android":"levelo://app?vid=fb1a25d3-7167-4f86-8cc5-d4c858af78db","ios":"levelo://app?vid=fb1a25d3-7167-4f86-8cc5-d4c858af78db"},"vehicle_type_id":"4","last_reported":1744896058,"current_range_meters":24400,"station_id":"ce4bgkh2rcd13ifvqbl0","pricing_plan_id":"cebpf4jnsgd1na2vs0mg"},{"bike_id":"ea6f3156-6bf9-480d-b5a4-e86741095d10","system_id":"levelo_inurba_marseille","lat":43.30454,"lon":5.37904,"is_reserved":false,"is_disabled":false,"rental_uris":{"android":"levelo://app?vid=ea6f3156-6bf9-480d-b5a4-e86741095d10","ios":"levelo://app?vid=ea6f3156-6bf9-480d-b5a4-e86741095d10"},"vehicle_type_id":"4","last_reported":1744896058,"current_range_meters":24400,"station_id":"ce4bgup2rcd13ifvqcn0","pricing_plan_id":"cebpf4jnsgd1na2vs0mg"},{"bike_id":"53594186-252d-4f72-9f65-f145f5078eaa","system_id":"levelo_inurba_marseille","lat":43.3013,"lon":5.39852,"is_reserved":false,"is_disabled":false,"rental_uris":{"android":"levelo://app?vid=53594186-252d-4f72-9f65-f145f5078eaa","ios":"levelo://app?vid=53594186-252d-4f72-9f65-f145f5078eaa"},"vehicle_type_id":"4","last_reported":1744896058,"current_range_meters":24000,"station_id":"ce4bh0h2rcd13ifvqd40","pricing_plan_id":"cebpf4jnsgd1na2vs0mg"},{"bike_id":"cc57b88c-ecb4-4caf-96f3-2be5e8ab0e99","system_id":"levelo_inurba_marseille","lat":43.30557,"lon":5.36562,"is_reserved":false,"is_disabled":false,"rental_uris":{"android":"levelo://app?vid=cc57b88c-ecb4-4caf-96f3-2be5e8ab0e99","ios":"levelo://app?vid=cc57b88c-ecb4-4caf-96f3-2be5e8ab0e99"},"vehicle_type_id":"4","last_reported":1744896058,"current_range_meters":24400,"station_id":"ce4bgs12rcd13ifvqcag","pricing_plan_id":"cebpf4jnsgd1na2vs0mg"},{"bike_id":"548f45f6-d91b-4110-956b-95786a047831","system_id":"levelo_inurba_marseille","lat":43.2992,"lon":5.37459,"is_reserved":false,"is_disabled":false,"rental_uris":{"android":"levelo://app?vid=548f45f6-d91b-4110-956b-95786a047831","ios":"levelo://app?vid=548f45f6-d91b-4110-956b-95786a047831"},"vehicle_type_id":"4","last_reported":1744896058,"current_range_meters":24400,"station_id":"ce4bgjh2rcd13ifvqbg0","pricing_plan_id":"cebpf4jnsgd1na2vs0mg"},{"bike_id":"0cfc8eae-ff78-4266-9aec-2db1fdb7bb97","system_id":"levelo_inurba_marseille","lat":43.24168,"lon":5.36397,"is_reserved":false,"is_disabled":false,"rental_uris":{"android":"levelo://app?vid=0cfc8eae-ff78-4266-9aec-2db1fdb7bb97","ios":"levelo://app?vid=0cfc8eae-ff78-4266-9aec-2db1fdb7bb97"},"vehicle_type_id":"4","last_reported":1744896058,"current_range_meters":24800,"station_id":"cpo36qri1sfpv3e86is0","pricing_plan_id":"cebpf4jnsgd1na2vs0mg"},{"bike_id":"30d83665-dd72-4da8-9473-63d27bf279bb","system_id":"levelo_inurba_marseille","lat":43.29912,"lon":5.39734,"is_reserved":false,"is_disabled":false,"rental_uris":{"android":"levelo://app?vid=30d83665-dd72-4da8-9473-63d27bf279bb","ios":"levelo://app?vid=30d83665-dd72-4da8-9473-63d27bf279bb"},"vehicle_type_id":"4","last_reported":1744896058,"current_range_meters":24800,"station_id":"ce4bh0h2rcd13ifvqd50","pricing_plan_id":"cebpf4jnsgd1na2vs0mg"},{"bike_id":"e11628a9-4a6a-4aea-a48d-922fb358951a","system_id":"levelo_inurba_marseille","lat":43.23147,"lon":5.43711,"is_reserved":false,"is_disabled":false,"rental_uris":{"android":"levelo://app?vid=e11628a9-4a6a-4aea-a48d-922fb358951a","ios":"levelo://app?vid=e11628a9-4a6a-4aea-a48d-922fb358951a"},"vehicle_type_id":"4","last_reported":1744896058,"current_range_meters":24800,"station_id":"ce4bhmp2rcd13ifvqgog","pricing_plan_id":"cebpf4jnsgd1na2vs0mg"},{"bike_id":"ab3c5c6e-7d63-4852-b222-ef196ad8f6cf","system_id":"levelo_inurba_marseille","lat":43.24544,"lon":5.3951,"is_reserved":false,"is_disabled":false,"rental_uris":{"android":"levelo://app?vid=ab3c5c6e-7d63-4852-b222-ef196ad8f6cf","ios":"levelo://app?vid=ab3c5c6e-7d63-4852-b222-ef196ad8f6cf"},"vehicle_type_id":"4","last_reported":1744896058,"current_range_meters":24800,"station_id":"ce4bhlp2rcd13ifvqgjg","pricing_plan_id":"cebpf4jnsgd1na2vs0mg"},{"bike_id":"dd98f6e4-626f-4712-86ab-cbda4699522f","system_id":"levelo_inurba_marseille","lat":43.29847,"lon":5.36286,"is_reserved":false,"is_disabled":false,"rental_uris":{"android":"levelo://app?vid=dd98f6e4-626f-4712-86ab-cbda4699522f","ios":"levelo://app?vid=dd98f6e4-626f-4712-86ab-cbda4699522f"},"vehicle_type_id":"4","last_reported":1744896058,"current_range_meters":24800,"station_id":"ce4bgpp2rcd13ifvqc3g","pricing_plan_id":"cebpf4jnsgd1na2vs0mg"},{"bike_id":"baf8f993-b001-4a25-83f9-b89aff6d6c7c","system_id":"levelo_inurba_marseille","lat":43.29721,"lon":5.366,"is_reserved":false,"is_disabled":false,"rental_uris":{"android":"levelo://app?vid=baf8f993-b001-4a25-83f9-b89aff6d6c7c","ios":"levelo://app?vid=baf8f993-b001-4a25-83f9-b89aff6d6c7c"},"vehicle_type_id":"4","last_reported":1744896058,"current_range_meters":25200,"station_id":"ce4bgn12rcd13ifvqbt0","pricing_plan_id":"cebpf4jnsgd1na2vs0mg"},{"bike_id":"d45e4c4f-e3c2-4617-863e-8b2db4afaa27","system_id":"levelo_inurba_marseille","lat":43.30433,"lon":5.38884,"is_reserved":false,"is_disabled":false,"rental_uris":{"android":"levelo://app?vid=d45e4c4f-e3c2-4617-863e-8b2db4afaa27","ios":"levelo://app?vid=d45e4c4f-e3c2-4617-863e-8b2db4afaa27"},"vehicle_type_id":"4","last_reported":1744896058,"current_range_meters":25200,"station_id":"ce4bgk12rcd13ifvqbi0","pricing_plan_id":"cebpf4jnsgd1na2vs0mg"},{"bike_id":"23c3ee7e-0c6a-4486-b0c1-566ed64ddba4","system_id":"levelo_inurba_marseille","lat":43.2466,"lon":5.38166,"is_reserved":false,"is_disabled":false,"rental_uris":{"android":"levelo://app?vid=23c3ee7e-0c6a-4486-b0c1-566ed64ddba4","ios":"levelo://app?vid=23c3ee7e-0c6a-4486-b0c1-566ed64ddba4"},"vehicle_type_id":"4","last_reported":1744896058,"current_range_meters":25200,"station_id":"ce4bhgp2rcd13ifvqfd0","pricing_plan_id":"cebpf4jnsgd1na2vs0mg"},{"bike_id":"ce03ad46-9270-40bd-95e3-665a24df5431","system_id":"levelo_inurba_marseille","lat":43.30468,"lon":5.37909,"is_reserved":false,"is_disabled":false,"rental_uris":{"android":"levelo://app?vid=ce03ad46-9270-40bd-95e3-665a24df5431","ios":"levelo://app?vid=ce03ad46-9270-40bd-95e3-665a24df5431"},"vehicle_type_id":"4","last_reported":1744896058,"current_range_meters":25200,"station_id":"ce4bgup2rcd13ifvqcn0","pricing_plan_id":"cebpf4jnsgd1na2vs0mg"},{"bike_id":"eceaa14c-f102-42ab-a67a-8e059f1e3ab6","system_id":"levelo_inurba_marseille","lat":43.26921,"lon":5.38695,"is_reserved":false,"is_disabled":false,"rental_uris":{"android":"levelo://app?vid=eceaa14c-f102-42ab-a67a-8e059f1e3ab6","ios":"levelo://app?vid=eceaa14c-f102-42ab-a67a-8e059f1e3ab6"},"vehicle_type_id":"4","last_reported":1744896058,"current_range_meters":24800,"station_id":"ce4bhh92rcd13ifvqfh0","pricing_plan_id":"cebpf4jnsgd1na2vs0mg"},{"bike_id":"8586d6bb-85bb-491d-9e22-600640f394dc","system_id":"levelo_inurba_marseille","lat":43.31332,"lon":5.36727,"is_reserved":false,"is_disabled":false,"rental_uris":{"android":"levelo://app?vid=8586d6bb-85bb-491d-9e22-600640f394dc","ios":"levelo://app?vid=8586d6bb-85bb-491d-9e22-600640f394dc"},"vehicle_type_id":"4","last_reported":1744896058,"current_range_meters":25200,"station_id":"ce4bgr92rcd13ifvqc6g","pricing_plan_id":"cebpf4jnsgd1na2vs0mg"},