{"last_updated":1704650923,"ttl":30,"version":"2.2","data":{"bikes":[{"bike_id":"b10b63da-8f6d-4693-9358-23d257fcef2d","system_id":"levelo_inurba_marseille","lat":43.313579,"lon":5.366995,"is_reserved":false,"is_disabled":false,"rental_uris":{"android":"levelo://app?vid=b10b63da-8f6d-4693-9358-23d257fcef2d","ios":"levelo://app?vid=b10b63da-8f6d-4693-9358-23d257fcef2d"},"vehicle_type_id":"4","last_reported":1704650923,"current_range_meters":16000,"station_id":"ce4bgr92rcd13ifvqc6g","pricing_plan_id":"free"},{"bike_id":"8157d312-30a4-4fcd-b114-0b3239aa6fe3","system_id":"levelo_inurba_marseille","lat":43.312239,"lon":5.368562,"is_reserved":false,"is_disabled":false,"rental_uris":{"android":"levelo://app?vid=8157d312-30a4-4fcd-b114-0b3239aa6fe3","ios":"levelo://app?vid=8157d312-30a4-4fcd-b114-0b3239aa6fe3"},"vehicle_type_id":"4","last_reported":1704650923,"current_range_meters":18400,"station_id":"ce4bgl92rcd13ifvqbq0","pricing_plan_id":"free"},{"bike_id":"049bc376-e997-4ff6-b884-cb62aa67f02f","system_id":"levelo_inurba_marseille","lat":43.312239,"lon":5.368562,"is_reserved":false,"is_disabled":false,"rental_uris":{"android":"levelo://app?vid=049bc376-e997-4ff6-b884-cb62aa67f02f","ios":"levelo://app?vid=049bc376-e997-4ff6-b884-cb62aa67f02f"},"vehicle_type_id":"4","last_reported":1704650923,"current_range_meters":23600,"station_id":"ce4bgl92rcd13ifvqbq0","pricing_plan_id":"free"},{"bike_id":"b8c40b33-ce06-453e-9bf8-9cd202338174","system_id":"levelo_inurba_marseille","lat":43.312239,"lon":5.368562,"is_reserved":false,"is_disabled":false,"rental_uris":{"android":"levelo://app?vid=b8c40b33-ce06-453e-9bf8-9cd202338174","ios":"levelo://app?vid=b8c40b33-ce06-453e-9bf8-9cd202338174"},"vehicle_type_id":"4","last_reported":1704650923,"current_range_meters":24000,"station_id":"ce4bgl92rcd13ifvqbq0","pricing_plan_id":"free"},{"bike_id":"4d9b3fb5-7659-4498-949e-c9449b34a779","system_id":"levelo_inurba_marseille","lat":43.309076,"lon":5.368465,"is_reserved":false,"is_disabled":false,"rental_uris":{"android":"levelo://app?vid=4d9b3fb5-7659-4498-949e-c9449b34a779","ios":"levelo://app?vid=4d9b3fb5-7659-4498-949e-c9449b34a779"},"vehicle_type_id":"4","last_reported":1704650923,"current_range_meters":30000,"station_id":"ce4bgn92rcd13ifvqbvg","pricing_plan_id":"free"},{"bike_id":"52486857-0c23-42a4-b515-4863dfdbaea3","system_id":"levelo_inurba_marseille","lat":43.314811,"lon":5.373103,"is_reserved":false,"is_disabled":false,"rental_uris":{"android":"levelo://app?vid=52486857-0c23-42a4-b515-4863dfdbaea3","ios":"levelo://app?vid=52486857-0c23-42a4-b515-4863dfdbaea3"},"vehicle_type_id":"4","last_reported":1704650923,"current_range_meters":27600,"station_id":"ce4bgt12rcd13ifvqcd0","pricing_plan_id":"free"},{"bike_id":"b8f4d36e-efcf-4260-8c5b-dd262ffdeebd","system_id":"levelo_inurba_marseille","lat":43.314811,"lon":5.373103,"is_reserved":false,"is_disabled":false,"rental_uris":{"android":"levelo://app?vid=b8f4d36e-efcf-4260-8c5b-dd262ffdeebd","ios":"levelo://app?vid=b8f4d36e-efcf-4260-8c5b-dd262ffdeebd"},"vehicle_type_id":"4","last_reported":1704650923,"current_range_meters":13600,"station_id":"ce4bgt12rcd13ifvqcd0","pricing_plan_id":"free"},{"bike_id":"a18c9f18-dd23-4fa3-ae4c-750a813ec2dd","system_id":"levelo_inurba_marseille","lat":43.31701,"lon":5.37388,"is_reserved":false,"is_disabled":false,"rental_uris":{"android":"levelo://app?vid=a18c9f18-dd23-4fa3-ae4c-750a813ec2dd","ios":"levelo://app?vid=a18c9f18-dd23-4fa3-ae4c-750a813ec2dd"},"vehicle_type_id":"4","last_reported":1704650923,"current_range_meters":13600,"station_id":"","pricing_plan_id":"free"},{"bike_id":"b1f2a827-e24f-4839-9e25-709f9ffd496a","system_id":"levelo_inurba_marseille","lat":43.305989,"lon":5.37225,"is_reserved":false,"is_disabled":false,"rental_uris":{"android":"levelo://app?vid=b1f2a827-e24f-4839-9e25-709f9ffd496a","ios":"levelo://app?vid=b1f2a827-e24f-4839-9e25-709f9ffd496a"},"vehicle_type_id":"4","last_reported":1704650923,"current_range_meters":31200,"station_id":"ce4bgqh2rcd13ifvqc4g","pricing_plan_id":"free"},{"bike_id":"b3884226-e240-462a-961c-7bf4e645d04a","system_id":"levelo_inurba_marseille","lat":43.305989,"lon":5.37225,"is_reserved":false,"is_disabled":false,"rental_uris":{"android":"levelo://app?vid=b3884226-e240-462a-961c-7bf4e645d04a","ios":"levelo://app?vid=b3884226-e240-462a-961c-7bf4e645d04a"},"vehicle_type_id":"4","last_reported":1704650923,"current_range_meters":31600,"station_id":"ce4bgqh2rcd13ifvqc4g","pricing_plan_id":"free"},{"bike_id":"b90a90dd-8ade-4e70-8f8d-486b527052f8","system_id":"levelo_inurba_marseille","lat":43.305989,"lon":5.37225,"is_reserved":false,"is_disabled":false,"rental_uris":{"android":"levelo://app?vid=b90a90dd-8ade-4e70-8f8d-486b527052f8","ios":"levelo://app?vid=b90a90dd-8ade-4e70-8f8d-486b527052f8"},"vehicle_type_id":"4","last_reported":1704650923,"current_range_meters":30800,"station_id":"ce4bgqh2rcd13ifvqc4g","pricing_plan_id":"free"},{"bike_id":"c8ad30f4-5fe4-473a-a500-546af7004f58","system_id":"levelo_inurba_marseille","lat":43.305989,"lon":5.37225,"is_reserved":false,"is_disabled":false,"rental_uris":{"android":"levelo://app?vid=c8ad30f4-5fe4-473a-a500-546af7004f58","ios":"levelo://app?vid=c8ad30f4-5fe4-473a-a500-546af7004f58"},"vehicle_type_id":"4","last_reported":1704650923,"current_range_meters":6000,"station_id":"ce4bgqh2rcd13ifvqc4g","pricing_plan_id":"free"},{"bike_id":"e4db8820-0453-4dc8-bcac-a17e1df51c88","system_id":"levelo_inurba_marseille","lat":43.311131,"lon":5.377651,"is_reserved":false,"is_disabled":false,"rental_uris":{"android":"levelo://app?vid=e4db8820-0453-4dc8-bcac-a17e1df51c88","ios":"levelo://app?vid=e4db8820-0453-4dc8-bcac-a17e1df51c88"},"vehicle_type_id":"4","last_reported":1704650923,"current_range_meters":3600,"station_id":"ce4bgt92rcd13ifvqcg0","pricing_plan_id":"free"},{"bike_id":"6c98e08b-78bf-4e59-ace9-426537fcd7ae","system_id":"levelo_inurba_marseille","lat":43.311131,"lon":5.377651,"is_reserved":false,"is_disabled":false,"rental_uris":{"android":"levelo://app?vid=6c98e08b-78bf-4e59-ace9-426537fcd7ae","ios":"levelo://app?vid=6c98e08b-78bf-4e59-ace9-426537fcd7ae"},"vehicle_type_id":"4","last_reported":1704650923,"current_range_meters":18000,"station_id":"ce4bgt92rcd13ifvqcg0","pricing_plan_id":"free"},{"bike_id":"5b4c787e-c640-42c3-a8e6-83b515251ae5","system_id":"levelo_inurba_marseille","lat":43.311125,"lon":5.377624,"is_reserved":false,"is_disabled":false,"rental_uris":{"android":"levelo://app?vid=5b4c787e-c640-42c3-a8e6-83b515251ae5","ios":"levelo://app?vid=5b4c787e-c640-42c3-a8e6-83b515251ae5"},"vehicle_type_id":"4","last_reported":1704650923,"current_range_meters":30000,"station_id":"ce4bgt92rcd13ifvqcg0","pricing_plan_id":"free"},{"bike_id":"e9d62abe-72b8-4ea7-be6b-000966464cb3","system_id":"levelo_inurba_marseille","lat":43.307945,"lon":5.376487,"is_reserved":false,"is_disabled":false,"rental_uris":{"android":"levelo://app?vid=e9d62abe-72b8-4ea7-be6b-000966464cb3","ios":"levelo://app?vid=e9d62abe-72b8-4ea7-be6b-000966464cb3"},"vehicle_type_id":"4","last_reported":1704650923,"current_range_meters":17200,"station_id":"ce4bgv92rcd13ifvqcq0","pricing_plan_id":"free"},{"bike_id":"c27164bb-00c3-4aad-835a-842d6afb65c5","system_id":"levelo_inurba_marseille","lat":43.307945,"lon":5.376487,"is_reserved":false,"is_disabled":false,"rental_uris":{"android":"levelo://app?vid=c27164bb-00c3-4aad-835a-842d6afb65c5","ios":"levelo://app?vid=c27164bb-00c3-4aad-835a-842d6afb65c5"},"vehicle_type_id":"4","last_reported":1704650923,"current_range_meters":24800,"station_id":"ce4bgv92rcd13ifvqcq0","pricing_plan_id":"free"},{"bike_id":"8fa21645-ff1e-418c-aee4-12ebbef07b75","system_id":"levelo_inurba_marseille","lat":43.317075,"lon":5.377367,"is_reserved":false,"is_disabled":false,"rental_uris":{"android":"levelo://app?vid=8fa21645-ff1e-418c-aee4-12ebbef07b75","ios":"levelo://app?vid=8fa21645-ff1e-418c-aee4-12ebbef07b75"},"vehicle_type_id":"4","last_reported":1704650923,"current_range_meters":30400,"station_id":"ce4bgth2rcd13ifvqch0","pricing_plan_id":"free"},{"bike_id":"c4e90871-bb94-4085-82dc-ccbd997a22ca","system_id":"levelo_inurba_marseille","lat":43.315295,"lon":5.379102,"is_reserved":false,"is_disabled":false,"rental_uris":{"android":"levelo://app?vid=c4e90871-bb94-4085-82dc-ccbd997a22ca","ios":"levelo://app?vid=c4e90871-bb94-4085-82dc-ccbd997a22ca"},"vehicle_type_id":"4","last_reported":1704650923,"current_range_meters":4800,"station_id":"","pricing_plan_id":"free"},{"bike_id":"7959a8b6-d809-48c3-a2c2-571f7a9a114f","system_id":"levelo_inurba_marseille","lat":43.315363,"lon":5.38037,"is_reserved":false,"is_disabled":false,"rental_uris":{"android":"levelo://app?vid=7959a8b6-d809-48c3-a2c2-571f7a9a114f","ios":"levelo://app?vid=7959a8b6-d809-48c3-a2c2-571f7a9a114f"},"vehicle_type_id":"4","last_reported":1704650923,"current_range_meters":0,"station_id":"ce4bhsp2rcd13ifvqi50","pricing_plan_id":"free"},{"bike_id":"410d56b4-8422-4bc5-a962-9b4ea6b59eab","system_id":"levelo_inurba_marseille","lat":43.301939,"lon":5.366286,"is_reserved":false,"is_disabled":false,"rental_uris":{"android":"levelo://app?vid=410d56b4-8422-4bc5-a962-9b4ea6b59eab","ios":"levelo://app?vid=410d56b4-8422-4bc5-a962-9b4ea6b59eab"},"vehicle_type_id":"4","last_reported":1704650923,"current_range_meters":29200,"station_id":"ce4bgrh2rcd13ifvqc8g","pricing_plan_id":"free"},{"bike_id":"2c259b73-b9c4-411b-9715-616a4f947c75","system_id":"levelo_inurba_marseille","lat":43.301939,"lon":5.366286,"is_reserved":false,"is_disabled":false,"rental_uris":{"android":"levelo://app?vid=2c259b73-b9c4-411b-9715-616a4f947c75","ios":"levelo://app?vid=2c259b73-b9c4-411b-9715-616a4f947c75"},"vehicle_type_id":"4","last_reported":1704650923,"current_range_meters":22800,"station_id":"ce4bgrh2rcd13ifvqc8g","pricing_plan_id":"free"},{"bike_id":"195bf941-2526-4bd8-a0cc-39b0a173f631","system_id":"levelo_inurba_marseille","lat":43.308012,"lon":5.381511,"is_reserved":false,"is_disabled":false,"rental_uris":{"android":"levelo://app?vid=195bf941-2526-4bd8-a0cc-39b0a173f631","ios":"levelo://app?vid=195bf941-2526-4bd8-a0cc-39b0a173f631"},"vehicle_type_id":"4","last_reported":1704650923,"current_range_meters":13200,"station_id":"ce4bgt12rcd13ifvqce0","pricing_plan_id":"free"},{"bike_id":"0c29ffd8-1203-4792-8b15-e9b65c3a2504","system_id":"levelo_inurba_marseille","lat":43.308012,"lon":5.381511,"is_reserved":false,"is_disabled":false,"rental_uris":{"android":"levelo://app?vid=0c29ffd8-1203-4792-8b15-e9b65c3a2504","ios":"levelo://app?vid=0c29ffd8-1203-4792-8b15-e9b65c3a2504"},"vehicle_type_id":"4","last_reported":1704650923,"current_range_meters":0,"station_id":"ce4bgt12rcd13ifvqce0","pricing_plan_id":"free"},{"bike_id":"d2d0a1a3-091d-4636-804c-d927c0a92b70","system_id":"levelo_inurba_marseille","lat":43.308012,"lon":5.381511,"is_reserved":false,"is_disabled":false,"rental_uris":{"android":"levelo://app?vid=d2d0a1a3-091d-4636-804c-d927c0a92b70","ios":"levelo://app?vid=d2d0a1a3-091d-4636-804c-d927c0a92b70"},"vehicle_type_id":"4","last_reported":1704650923,"current_range_meters":5600,"station_id":"ce4bgt12rcd13ifvqce0","pricing_plan_id":"free"},{"bike_id":"7016b837-46e9-4637-95cf-02e2c5743a4a","system_id":"levelo_inurba_marseille","lat":43.324771,"lon":5.36557,"is_reserved":false,"is_disabled":false,"rental_uris":{"android":"levelo://app?vid=7016b837-46e9-4637-95cf-02e2c5743a4a","ios":"levelo://app?vid=7016b837-46e9-4637-95cf-02e2c5743a4a"},"vehicle_type_id":"4","last_reported":1704650923,"current_range_meters":20400,"station_id":"ce4bhs12rcd13ifvqhvg","pricing_plan_id":"free"},{"bike_id":"9a5d20fc-5739-4188-aece-a966211e1333","system_id":"levelo_inurba_marseille","lat":43.324771,"lon":5.36557,"is_reserved":false,"is_disabled":false,"rental_uris":{"android":"levelo://app?vid=9a5d20fc-5739-4188-aece-a966211e1333","ios":"levelo://app?vid=9a5d20fc-5739-4188-aece-a966211e1333"},"vehicle_type_id":"4","last_reported":1704650923,"current_range_meters":14400,"station_id":"ce4bhs12rcd13ifvqhvg","pricing_plan_id":"free"},{"bike_id":"2aa100e7-2671-4c1b-a1f0-ab7832afcbad","system_id":"levelo_inurba_marseille","lat":43.324771,"lon":5.36557,"is_reserved":false,"is_disabled":false,"rental_uris":{"android":"levelo://app?vid=2aa100e7-2671-4c1b-a1f0-ab7832afcbad","ios":"levelo://app?vid=2aa100e7-2671-4c1b-a1f0-ab7832afcbad"},"vehicle_type_id":"4","last_reported":1704650923,"current_range_meters":24800,"station_id":"ce4bhs12rcd13ifvqhvg","pricing_plan_id":"free"},{"bike_id":"df2d1d2f-b592-479c-bf22-20329818d5fe","system_id":"levelo_inurba_marseille","lat":43.324771,"lon":5.36557,"is_reserved":false,"is_disabled":false,"rental_uris":{"android":"levelo://app?vid=df2d1d2f-b592-479c-bf22-20329818d5fe","ios":"levelo://app?vid=df2d1d2f-b592-479c-bf22-20329818d5fe"},"vehicle_type_id":"4","last_reported":1704650923,"current_range_meters":23200,"station_id":"ce4bhs12rcd13ifvqhvg","pricing_plan_id":"free"},{"bike_id":"e61fee9e-3d86-4b89-bcc3-4b1b5679e636","system_id":"levelo_inurba_marseille","lat":43.30281,"lon":5.377,"is_reserved":false,"is_disabled":false,"rental_uris":{"android":"levelo://app?vid=e61fee9e-3d86-4b89-bcc3-4b1b5679e636","ios":"levelo://app?vid=e61fee9e-3d86-4b89-bcc3-4b1b5679e636"},"vehicle_type_id":"4","last_reported":1704650923,"current_range_meters":0,"station_id":"","pricing_plan_id":"free"},{"bike_id":"12483ab3-6f1e-4309-9e58-c3e970b4a4a1","system_id":"levelo_inurba_marseille","lat":43.30143,"lon":5.37413,"is_reserved":false,"is_disabled":false,"rental_uris":{"android":"levelo://app?vid=12483ab3-6f1e-4309-9e58-c3e970b4a4a1","ios":"levelo://app?vid=12483ab3-6f1e-4309-9e58-c3e970b4a4a1"},"vehicle_type_id":"4","last_reported":1704650923,"current_range_meters":19600,"station_id":"ce4bgs92rcd13ifvqcc0","pricing_plan_id":"free"},{"bike_id":"3b895bb9-7233-4d46-99c9-62a50ed78e04","system_id":"levelo_inurba_marseille","lat":43.319935,"lon":5.381699,"is_reserved":false,"is_disabled":false,"rental_uris":{"android":"levelo://app?vid=3b895bb9-7233-4d46-99c9-62a50ed78e04","ios":"levelo://app?vid=3b895bb9-7233-4d46-99c9-62a50ed78e04"},"vehicle_type_id":"4","last_reported":1704650923,"current_range_meters":12000,"station_id":"ce4bhr12rcd13ifvqhpg","pricing_plan_id":"free"},{"bike_id":"3e0e29d7-a53a-4f4d-8ff3-903400df9725","system_id":"levelo_inurba_marseille","lat":43.313571,"lon":5.384829,"is_reserved":false,"is_disabled":false,"rental_uris":{"android":"levelo://app?vid=3e0e29d7-a53a-4f4d-8ff3-903400df9725","ios":"levelo://app?vid=3e0e29d7-a53a-4f4d-8ff3-903400df9725"},"vehicle_type_id":"4","last_reported":1704650923,"current_range_meters":30400,"station_id":"ce4bgt92rcd13ifvqcf0","pricing_plan_id":"free"},{"bike_id":"1fd8a700-212b-4fe0-9bf7-6e06635b60b5","system_id":"levelo_inurba_marseille","lat":43.299209,"lon":5.365547,"is_reserved":false,"is_disabled":false,"rental_uris":{"android":"levelo://app?vid=1fd8a700-212b-4fe0-9bf7-6e06635b60b5","ios":"levelo://app?vid=1fd8a700-212b-4fe0-9bf7-6e06635b60b5"},"vehicle_type_id":"4","last_reported":1704650923,"current_range_meters":19600,"station_id":"ce4bgm92rcd13ifvqbr0","pricing_plan_id":"free"},{"bike_id":"f5f482e3-d57a-41b6-a02a-219602f18024","system_id":"levelo_inurba_marseille","lat":43.313571,"lon":5.384829,"is_reserved":false,"is_disabled":false,"rental_uris":{"android":"levelo://app?vid=f5f482e3-d57a-41b6-a02a-219602f18024","ios":"levelo://app?vid=f5f482e3-d57a-41b6-a02a-219602f18024"},"vehicle_type_id":"4","last_reported":1704650923,"current_range_meters":26000,"station_id":"ce4bgt92rcd13ifvqcf0","pricing_plan_id":"free"},{"bike_id":"0eb32ac2-a88f-4300-b22f-71882fc48395","system_id":"levelo_inurba_marseille","lat":43.313571,"lon":5.384829,"is_reserved":false,"is_disabled":false,"rental_uris":{"android":"levelo://app?vid=0eb32ac2-a88f-4300-b22f-71882fc48395","ios":"levelo://app?vid=0eb32ac2-a88f-4300-b22f-71882fc48395"},"vehicle_type_id":"4","last_reported":1704650923,"current_range_meters":15200,"station_id":"ce4bgt92rcd13ifvqcf0","pricing_plan_id":"free"},{"bike_id":"3931d105-ff65-4921-9e0c-31a0e33ea608","system_id":"levelo_inurba_marseille","lat":43.313571,"lon":5.384829,"is_reserved":false,"is_disabled":false,"rental_uris":{"android":"levelo://app?vid=3931d105-ff65-4921-9e0c-31a0e33ea608","ios":"levelo://app?vid=3931d105-ff65-4921-9e0c-31a0e33ea608"},"vehicle_type_id":"4","last_reported":1704650923,"current_range_meters":26400,"station_id":"ce4bgt92rcd13ifvqcf0","pricing_plan_id":"free"},{"bike_id":"17504bde-947a-4cd6-98b3-9a4c66aca99b","system_id":"levelo_inurba_marseille","lat":43.313827,"lon":5.385007,"is_reserved":false,"is_disabled":false,"rental_uris":{"android":"levelo://app?vid=17504bde-947a-4cd6-98b3-9a4c66aca99b","ios":"levelo://app?vid=17504bde-947a-4cd6-98b3-9a4c66aca99b"},"vehicle_type_id":"4","last_reported":1704650923,"current_range_meters":1200,"station_id":"","pricing_plan_id":"free"},{"bike_id":"97bf5000-aae4-4158-ad17-50edc7d5b1e8","system_id":"levelo_inurba_marseille","lat":43.299724,"lon":5.371829,"is_reserved":false,"is_disabled":false,"rental_uris":{"android":"levelo://app?vid=97bf5000-aae4-4158-ad17-50edc7d5b1e8","ios":"levelo://app?vid=97bf5000-aae4-4158-ad17-50edc7d5b1e8"},"vehicle_type_id":"4","last_reported":1704650923,"current_range_meters":9600,"station_id":"ce4bgr92rcd13ifvqc7g","pricing_plan_id":"free"},{"bike_id":"b22604ec-0c4b-41b4-a20e-38add68f7682","system_id":"levelo_inurba_marseille","lat":43.32565,"lon":5.37489,"is_reserved":false,"is_disabled":false,"rental_uris":{"android":"levelo://app?vid=b22604ec-0c4b-41b4-a20e-38add68f7682","ios":"levelo://app?vid=b22604ec-0c4b-41b4-a20e-38add68f7682"},"vehicle_type_id":"4","last_reported":1704650923,"current_range_meters":8000,"station_id":"","pricing_plan_id":"free"},{"bike_id":"90f624c9-e920-42f0-bdb2-c7157855cdc0","system_id":"levelo_inurba_marseille","lat":43.31154,"lon":5.38682,"is_reserved":false,"is_disabled":false,"rental_uris":{"android":"levelo://app?vid=90f624c9-e920-42f0-bdb2-c7157855cdc0","ios":"levelo://app?vid=90f624c9-e920-42f0-bdb2-c7157855cdc0"},"vehicle_type_id":"4","last_reported":1704650923,"current_range_meters":8000,"station_id":"ce4bgv12rcd13ifvqcp0","pricing_plan_id":"free"},{"bike_id":"b8a225ac-7232-435b-95e1-3ab0d7a72362","system_id":"levelo_inurba_marseille","lat":43.311722,"lon":5.387247,"is_reserved":false,"is_disabled":false,"rental_uris":{"android":"levelo://app?vid=b8a225ac-7232-435b-95e1-3ab0d7a72362","ios":"levelo://app?vid=b8a225ac-7232-435b-95e1-3ab0d7a72362"},"vehicle_type_id":"4","last_reported":1704650923,"current_range_meters":5200,"station_id":"ce4bgv12rcd13ifvqcp0","pricing_plan_id":"free"},{"bike_id":"cc495013-a9b7-4492-a4e4-0f0aca4a9939","system_id":"levelo_inurba_marseille","lat":43.322872,"lon":5.382756,"is_reserved":false,"is_disabled":false,"rental_uris":{"android":"levelo://app?vid=cc495013-a9b7-4492-a4e4-0f0aca4a9939","ios":"levelo://app?vid=cc495013-a9b7-4492-a4e4-0f0aca4a9939"},"vehicle_type_id":"4","last_reported":1704650923,"current_range_meters":6400,"station_id":"ce4bhr12rcd13ifvqhqg","pricing_plan_id":"free"},{"bike_id":"297a7823-4b34-45b3-8282-c78d31cc9f05","system_id":"levelo_inurba_marseille","lat":43.32293,"lon":5.38271,"is_reserved":false,"is_disabled":false,"rental_uris":{"android":"levelo://app?vid=297a7823-4b34-45b3-8282-c78d31cc9f05","ios":"levelo://app?vid=297a7823-4b34-45b3-8282-c78d31cc9f05"},"vehicle_type_id":"4","last_reported":1704650923,"current_range_meters":28800,"station_id":"ce4bhr12rcd13ifvqhqg","pricing_plan_id":"free"},{"bike_id":"d0aaa14f-1070-4a80-a2f2-78508dd9f6bd","system_id":"levelo_inurba_marseille","lat":43.322872,"lon":5.382756,"is_reserved":false,"is_disabled":false,"rental_uris":{"android":"levelo://app?vid=d0aaa14f-1070-4a80-a2f2-78508dd9f6bd","ios":"levelo://app?vid=d0aaa14f-1070-4a80-a2f2-78508dd9f6bd"},"vehicle_type_id":"4","last_reported":1704650923,"current_range_meters":31200,"station_id":"ce4bhr12rcd13ifvqhqg","pricing_plan_id":"free"},{"bike_id":"09da622d-5ec6-4261-a95d-695d32c570ab","system_id":"levelo_inurba_marseille","lat":43.32287,"lon":5.38279,"is_reserved":false,"is_disabled":false,"rental_uris":{"android":"levelo://app?vid=09da622d-5ec6-4261-a95d-695d32c570ab","ios":"levelo://app?vid=09da622d-5ec6-4261-a95d-695d32c570ab"},"vehicle_type_id":"4","last_reported":1704650923,"current_range_meters":9600,"station_id":"ce4bhr12rcd13ifvqhqg","pricing_plan_id":"free"},{"bike_id":"5021f406-3153-4a9e-a450-00a19314acbe","system_id":"levelo_inurba_marseille","lat":43.32821,"lon":5.3668,"is_reserved":false,"is_disabled":false,"rental_uris":{"android":"levelo://app?vid=5021f406-3153-4a9e-a450-00a19314acbe","ios":"levelo://app?vid=5021f406-3153-4a9e-a450-00a19314acbe"},"vehicle_type_id":"4","last_reported":1704650923,"current_range_meters":30000,"station_id":"ce4bhs92rcd13ifvqi0g","pricing_plan_id":"free"},{"bike_id":"48de57f3-12a8-4253-90b5-aab66c42162c","system_id":"levelo_inurba_marseille","lat":43.32822,"lon":5.36686,"is_reserved":false,"is_disabled":false,"rental_uris":{"android":"levelo://app?vid=48de57f3-12a8-4253-90b5-aab66c42162c","ios":"levelo://app?vid=48de57f3-12a8-4253-90b5-aab66c42162c"},"vehicle_type_id":"4","last_reported":1704650923,"current_range_meters":16800,"station_id":"ce4bhs92rcd13ifvqi0g","pricing_plan_id":"free"},{"bike_id":"387c1dff-fb7e-4547-838e-1af3f69c4219","system_id":"levelo_inurba_marseille","lat":43.32823,"lon":5.36678,"is_reserved":false,"is_disabled":false,"rental_uris":{"android":"levelo://app?vid=387c1dff-fb7e-4547-838e-1af3f69c4219","ios":"levelo://app?vid=387c1dff-fb7e-4547-838e-1af3f69c4219"},"vehicle_type_id":"4","last_reported":1704650923,"current_range_meters":22000,"station_id":"ce4bhs92rcd13ifvqi0g","pricing_plan_id":"free"},{"bike_id":"c224ea64-7bb8-45be-8a3a-d137d9e17684","system_id":"levelo_inurba_marseille","lat":43.32824,"lon":5.36678,"is_reserved":false,"is_disabled":false,"rental_uris":{"android":"levelo://app?vid=c224ea64-7bb8-45be-8a3a-d137d9e17684","ios":"levelo://app?vid=c224ea64-7bb8-45be-8a3a-d137d9e17684"},"vehicle_type_id":"4","last_reported":1704650923,"current_range_meters":12800,"station_id":"ce4bhs92rcd13ifvqi0g","pricing_plan_id":"free"},{"bike_id":"064b14d2-f3e9-43be-a725-c95d6c66fd15","system_id":"levelo_inurba_marseille","lat":43.328371,"lon":5.366909,"is_reserved":false,"is_disabled":false,"rental_uris":{"android":"levelo://app?vid=064b14d2-f3e9-43be-a725-c95d6c66fd15","ios":"levelo://app?vid=064b14d2-f3e9-43be-a725-c95d6c66fd15"},"vehicle_type_id":"4","last_reported":1704650923,"current_range_meters":21600,"station_id":"ce4bhs92rcd13ifvqi0g","pricing_plan_id":"free"},{"bike_id":"66addf4b-70b7-4ac4-8e17-37956e9ecfbb","system_id":"levelo_inurba_marseille","lat":43.32825,"lon":5.36683,"is_reserved":false,"is_disabled":false,"rental_uris":{"android":"levelo://app?vid=66addf4b-70b7-4ac4-8e17-37956e9ecfbb","ios":"levelo://app?vid=66addf4b-70b7-4ac4-8e17-37956e9ecfbb"},"vehicle_type_id":"4","last_reported":1704650923,"current_range_meters":18800,"station_id":"ce4bhs92rcd13ifvqi0g","pricing_plan_id":"free"},{"bike_id":"72905f78-9c33-4138-8385-d331d9223abd","system_id":"levelo_inurba_marseille","lat":43.32825,"lon":5.36682,"is_reserved":false,"is_disabled":false,"rental_uris":{"android":"levelo://app?vid=72905f78-9c33-4138-8385-d331d9223abd","ios":"levelo://app?vid=72905f78-9c33-4138-8385-d331d9223abd"},"vehicle_type_id":"4","last_reported":1704650923,"current_range_meters":14000,"station_id":"ce4bhs92rcd13ifvqi0g","pricing_plan_id":"free"},{"bike_id":"ca02ca89-8dd5-4fc4-9a30-db37a36b7ff7","system_id":"levelo_inurba_marseille","lat":43.328253,"lon":5.366756,"is_reserved":false,"is_disabled":false,"rental_uris":{"android":"levelo://app?vid=ca02ca89-8dd5-4fc4-9a30-db37a36b7ff7","ios":"levelo://app?vid=ca02ca89-8dd5-4fc4-9a30-db37a36b7ff7"},"vehicle_type_id":"4","last_reported":1704650923,"current_range_meters":28000,"station_id":"ce4bhs92rcd13ifvqi0g","pricing_plan_id":"free"},{"bike_id":"42895378-a21e-445b-8e89-325727904609","system_id":"levelo_inurba_marseille","lat":43.328371,"lon":5.366909,"is_reserved":false,"is_disabled":false,"rental_uris":{"android":"levelo://app?vid=42895378-a21e-445b-8e89-325727904609","ios":"levelo://app?vid=42895378-a21e-445b-8e89-325727904609"},"vehicle_type_id":"4","last_reported":1704650923,"current_range_meters":21200,"station_id":"ce4bhs92rcd13ifvqi0g","pricing_plan_id":"free"},{"bike_id":"a791cb05-0716-4f7c-bfab-5cd10f4022f6","system_id":"levelo_inurba_marseille","lat":43.328276,"lon":5.366787,"is_reserved":false,"is_disabled":false,"rental_uris":{"android":"levelo://app?vid=a791cb05-0716-4f7c-bfab-5cd10f4022f6","ios":"levelo://app?vid=a791cb05-0716-4f7c-bfab-5cd10f4022f6"},"vehicle_type_id":"4","last_reported":1704650923,"current_range_meters":16000,"station_id":"ce4bhs92rcd13ifvqi0g","pricing_plan_id":"free"},{"bike_id":"0725f2a6-de18-43ea-a245-f699ddc19b55","system_id":"levelo_inurba_marseille","lat":43.328371,"lon":5.366909,"is_reserved":false,"is_disabled":false,"rental_uris":{"android":"levelo://app?vid=0725f2a6-de18-43ea-a245-f699ddc19b55","ios":"levelo://app?vid=0725f2a6-de18-43ea-a245-f699ddc19b55"},"vehicle_type_id":"4","last_reported":1704650923,"current_range_meters":7600,"station_id":"ce4bhs92rcd13ifvqi0g","pricing_plan_id":"free"},{"bike_id":"8341e063-523f-4d25-880b-99eb6edf220f","system_id":"levelo_inurba_marseille","lat":43.328285,"lon":5.366855,"is_reserved":false,"is_disabled":false,"rental_uris":{"android":"levelo://app?vid=8341e063-523f-4d25-880b-99eb6edf220f","ios":"levelo://app?vid=8341e063-523f-4d25-880b-99eb6edf220f"},"vehicle_type_id":"4","last_reported":1704650923,"current_range_meters":14800,"station_id":"ce4bhs92rcd13ifvqi0g","pricing_plan_id":"free"},{"bike_id":"7bdd941f-cf9a-4a9b-9dc5-a7a443cd77c7","system_id":"levelo_inurba_marseille","lat":43.32829,"lon":5.36685,"is_reserved":false,"is_disabled":false,"rental_uris":{"android":"levelo://app?vid=7bdd941f-cf9a-4a9b-9dc5-a7a443cd77c7","ios":"levelo://app?vid=7bdd941f-cf9a-4a9b-9dc5-a7a443cd77c7"},"vehicle_type_id":"4","last_reported":1704650923,"current_range_meters":20400,"station_id":"ce4bhs92rcd13ifvqi0g","pricing_plan_id":"free"},{"bike_id":"ee966a52-c4f3-4b5b-b8b2-c85b17eb5fb4","system_id":"levelo_inurba_marseille","lat":43.328371,"lon":5.366909,"is_reserved":false,"is_disabled":false,"rental_uris":{"android":"levelo://app?vid=ee966a52-c4f3-4b5b-b8b2-c85b17eb5fb4","ios":"levelo://app?vid=ee966a52-c4f3-4b5b-b8b2-c85b17eb5fb4"},"vehicle_type_id":"4","last_reported":1704650923,"current_range_meters":14800,"station_id":"ce4bhs92rcd13ifvqi0g","pricing_plan_id":"free"},{"bike_id":"9383789e-2a1a-4049-a767-e1f78cbdfc52","system_id":"levelo_inurba_marseille","lat":43.328371,"lon":5.366909,"is_reserved":false,"is_disabled":false,"rental_uris":{"android":"levelo://app?vid=9383789e-2a1a-4049-a767-e1f78cbdfc52","ios":"levelo://app?vid=9383789e-2a1a-4049-a767-e1f78cbdfc52"},"vehicle_type_id":"4","last_reported":1704650923,"current_range_meters":17600,"station_id":"ce4bhs92rcd13ifvqi0g","pricing_plan_id":"free"},{"bike_id":"43f47c35-ec23-411b-b2fa-7957e35eab11","system_id":"levelo_inurba_marseille","lat":43.328371,"lon":5.366909,"is_reserved":false,"is_disabled":false,"rental_uris":{"android":"levelo://app?vid=43f47c35-ec23-411b-b2fa-7957e35eab11","ios":"levelo://app?vid=43f47c35-ec23-411b-b2fa-7957e35eab11"},"vehicle_type_id":"4","last_reported":1704650923,"current_range_meters":9600,"station_id":"ce4bhs92rcd13ifvqi0g","pricing_plan_id":"free"},{"bike_id":"e22d5d66-2c33-444c-9a95-5d6517dd879c","system_id":"levelo_inurba_marseille","lat":43.328371,"lon":5.366909,"is_reserved":false,"is_disabled":false,"rental_uris":{"android":"levelo://app?vid=e22d5d66-2c33-444c-9a95-5d6517dd879c","ios":"levelo://app?vid=e22d5d66-2c33-444c-9a95-5d6517dd879c"},"vehicle_type_id":"4","last_reported":1704650923,"current_range_meters":5200,"station_id":"ce4bhs92rcd13ifvqi0g","pricing_plan_id":"free"},{"bike_id":"81e55073-d7d2-4074-ae81-cfb417cd49cb","system_id":"levelo_inurba_marseille","lat":43.2968,"lon":5.37291,"is_reserved":false,"is_disabled":false,"rental_uris":{"android":"levelo://app?vid=81e55073-d7d2-4074-ae81-cfb417cd49cb","ios":"levelo://app?vid=81e55073-d7d2-4074-ae81-cfb417cd49cb"},"vehicle_type_id":"4","last_reported":1704650923,"current_range_meters":16000,"station_id":"ce4bgk12rcd13ifvqbj0","pricing_plan_id":"free"},{"bike_id":"6f09ad08-9b6e-40a3-9698-b65f963e9c11","system_id":"levelo_inurba_marseille","lat":43.299028,"lon":5.381509,"is_reserved":false,"is_disabled":false,"rental_uris":{"android":"levelo://app?vid=6f09ad08-9b6e-40a3-9698-b65f963e9c11","ios":"levelo://app?vid=6f09ad08-9b6e-40a3-9698-b65f963e9c11"},"vehicle_type_id":"4","last_reported":1704650923,"current_range_meters":4400,"station_id":"ce4bgj12rcd13ifvqbc0","pricing_plan_id":"free"},{"bike_id":"a4daa67c-afc7-482a-8acc-4910e49fc910","system_id":"levelo_inurba_marseille","lat":43.299028,"lon":5.381509,"is_reserved":false,"is_disabled":false,"rental_uris":{"android":"levelo://app?vid=a4daa67c-afc7-482a-8acc-4910e49fc910","ios":"levelo://app?vid=a4daa67c-afc7-482a-8acc-4910e49fc910"},"vehicle_type_id":"4","last_reported":1704650923,"current_range_meters":30000,"station_id":"ce4bgj12rcd13ifvqbc0","pricing_plan_id":"free"},{"bike_id":"851f5fea-8323-496c-9ac7-fefca932e732","system_id":"levelo_inurba_marseille","lat":43.317557,"lon":5.390173,"is_reserved":false,"is_disabled":false,"rental_uris":{"android":"levelo://app?vid=851f5fea-8323-496c-9ac7-fefca932e732","ios":"levelo://app?vid=851f5fea-8323-496c-9ac7-fefca932e732"},"vehicle_type_id":"4","last_reported":1704650923,"current_range_meters":10800,"station_id":"ce4bhqp2rcd13ifvqhng","pricing_plan_id":"free"},{"bike_id":"38862af0-fa44-4c70-9b4a-0a115ec9e9c9","system_id":"levelo_inurba_marseille","lat":43.317557,"lon":5.390173,"is_reserved":false,"is_disabled":false,"rental_uris":{"android":"levelo://app?vid=38862af0-fa44-4c70-9b4a-0a115ec9e9c9","ios":"levelo://app?vid=38862af0-fa44-4c70-9b4a-0a115ec9e9c9"},"vehicle_type_id":"4","last_reported":1704650923,"current_range_meters":26400,"station_id":"ce4bhqp2rcd13ifvqhng","pricing_plan_id":"free"},{"bike_id":"ca4f6ccc-37b2-496e-acdb-734afc021218","system_id":"levelo_inurba_marseille","lat":43.295748,"lon":5.37522,"is_reserved":false,"is_disabled":false,"rental_uris":{"android":"levelo://app?vid=ca4f6ccc-37b2-496e-acdb-734afc021218","ios":"levelo://app?vid=ca4f6ccc-37b2-496e-acdb-734afc021218"},"vehicle_type_id":"4","last_reported":1704650923,"current_range_meters":11200,"station_id":"ce4bgh92rcd13ifvqb50","pricing_plan_id":"free"},{"bike_id":"ca765713-6d8f-471c-9c5f-9537bdd1270c","system_id":"levelo_inurba_marseille","lat":43.295748,"lon":5.37522,"is_reserved":false,"is_disabled":false,"rental_uris":{"android":"levelo://app?vid=ca765713-6d8f-471c-9c5f-9537bdd1270c","ios":"levelo://app?vid=ca765713-6d8f-471c-9c5f-9537bdd1270c"},"vehicle_type_id":"4","last_reported":1704650923,"current_range_meters":22000,"station_id":"ce4bgh92rcd13ifvqb50","pricing_plan_id":"free"},{"bike_id":"d9753e1d-2da4-4e44-b2b6-d79f41e73377","system_id":"levelo_inurba_marseille","lat":43.295279,"lon":5.375048,"is_reserved":false,"is_disabled":false,"rental_uris":{"android":"levelo://app?vid=d9753e1d-2da4-4e44-b2b6-d79f41e73377","ios":"levelo://app?vid=d9753e1d-2da4-4e44-b2b6-d79f41e73377"},"vehicle_type_id":"4","last_reported":1704650923,"current_range_meters":14800,"station_id":"ce4bgkp2rcd13ifvqbmg","pricing_plan_id":"free"},{"bike_id":"322db0c4-37f3-4ea2-8c0e-a066ea746145","system_id":"levelo_inurba_marseille","lat":43.295279,"lon":5.375048,"is_reserved":false,"is_disabled":false,"rental_uris":{"android":"levelo://app?vid=322db0c4-37f3-4ea2-8c0e-a066ea746145","ios":"levelo://app?vid=322db0c4-37f3-4ea2-8c0e-a066ea746145"},"vehicle_type_id":"4","last_reported":1704650923,"current_range_meters":27200,"station_id":"ce4bgkp2rcd13ifvqbmg","pricing_plan_id":"free"},{"bike_id":"2c92961b-5b9d-4d1d-af82-7b54ab1f4b3c","system_id":"levelo_inurba_marseille","lat":43.295279,"lon":5.375048,"is_reserved":false,"is_disabled":false,"rental_uris":{"android":"levelo://app?vid=2c92961b-5b9d-4d1d-af82-7b54ab1f4b3c","ios":"levelo://app?vid=2c92961b-5b9d-4d1d-af82-7b54ab1f4b3c"},"vehicle_type_id":"4","last_reported":1704650923,"current_range_meters":8400,"station_id":"ce4bgkp2rcd13ifvqbmg","pricing_plan_id":"free"},{"bike_id":"d898b308-810e-46f9-bc8b-2ce33210849a","system_id":"levelo_inurba_marseille","lat":43.295279,"lon":5.375048,"is_reserved":false,"is_disabled":false,"rental_uris":{"android":"levelo://app?vid=d898b308-810e-46f9-bc8b-2ce33210849a","ios":"levelo://app?vid=d898b308-810e-46f9-bc8b-2ce33210849a"},"vehicle_type_id":"4","last_reported":1704650923,"current_range_meters":21200,"station_id":"ce4bgkp2rcd13ifvqbmg","pricing_plan_id":"free"},{"bike_id":"204dea3f-87e7-4326-9f54-6cdab23e9e5a","system_id":"levelo_inurba_marseille","lat":43.32362,"lon":5.388757,"is_reserved":false,"is_disabled":false,"rental_uris":{"android":"levelo://app?vid=204dea3f-87e7-4326-9f54-6cdab23e9e5a","ios":"levelo://app?vid=204dea3f-87e7-4326-9f54-6cdab23e9e5a"},"vehicle_type_id":"4","last_reported":1704650923,"current_range_meters":30000,"station_id":"ce4bhqp2rcd13ifvqhog","pricing_plan_id":"free"},{"bike_id":"da229820-ed43-4fdb-b036-417b200b269b","system_id":"levelo_inurba_marseille","lat":43.29602,"lon":5.381084,"is_reserved":false,"is_disabled":false,"rental_uris":{"android":"levelo://app?vid=da229820-ed43-4fdb-b036-417b200b269b","ios":"levelo://app?vid=da229820-ed43-4fdb-b036-417b200b269b"},"vehicle_type_id":"4","last_reported":1704650923,"current_range_meters":22800,"station_id":"ce4bgl12rcd13ifvqbo0","pricing_plan_id":"free"},{"bike_id":"a531d438-95ac-42fa-b8fd-a06d9bdff22c","system_id":"levelo_inurba_marseille","lat":43.299717,"lon":5.384845,"is_reserved":false,"is_disabled":false,"rental_uris":{"android":"levelo://app?vid=a531d438-95ac-42fa-b8fd-a06d9bdff22c","ios":"levelo://app?vid=a531d438-95ac-42fa-b8fd-a06d9bdff22c"},"vehicle_type_id":"4","last_reported":1704650923,"current_range_meters":23600,"station_id":"ce4bgj92rcd13ifvqbd0","pricing_plan_id":"free"},{"bike_id":"6bd3aa75-97f3-4b36-b887-b9244d1e2e0e","system_id":"levelo_inurba_marseille","lat":43.29602,"lon":5.381084,"is_reserved":false,"is_disabled":false,"rental_uris":{"android":"levelo://app?vid=6bd3aa75-97f3-4b36-b887-b9244d1e2e0e","ios":"levelo://app?vid=6bd3aa75-97f3-4b36-b887-b9244d1e2e0e"},"vehicle_type_id":"4","last_reported":1704650923,"current_range_meters":23200,"station_id":"ce4bgl12rcd13ifvqbo0","pricing_plan_id":"free"},{"bike_id":"b71f329e-3e60-4679-95cd-8bd58aa7741c","system_id":"levelo_inurba_marseille","lat":43.284462,"lon":5.392121,"is_reserved":false,"is_disabled":false,"rental_uris":{"android":"levelo://app?vid=b71f329e-3e60-4679-95cd-8bd58aa7741c","ios":"levelo://app?vid=b71f329e-3e60-4679-95cd-8bd58aa7741c"},"vehicle_type_id":"4","last_reported":1704650923,"current_range_meters":16400,"station_id":"ce4bhoh2rcd13ifvqh5g","pricing_plan_id":"free"},{"bike_id":"ab0e400d-a840-4b1c-85f0-5cc9c6427f2c","system_id":"levelo_inurba_marseille","lat":43.293259,"lon":5.371586,"is_reserved":false,"is_disabled":false,"rental_uris":{"android":"levelo://app?vid=ab0e400d-a840-4b1c-85f0-5cc9c6427f2c","ios":"levelo://app?vid=ab0e400d-a840-4b1c-85f0-5cc9c6427f2c"},"vehicle_type_id":"4","last_reported":1704650923,"current_range_meters":14400,"station_id":"ce4bgh92rcd13ifvqb40","pricing_plan_id":"free"},{"bike_id":"625e9029-a5b3-4061-a426-9c7f5bdd45c2","system_id":"levelo_inurba_marseille","lat":43.305994,"lon":5.393687,"is_reserved":false,"is_disabled":false,"rental_uris":{"android":"levelo://app?vid=625e9029-a5b3-4061-a426-9c7f5bdd45c2","ios":"levelo://app?vid=625e9029-a5b3-4061-a426-9c7f5bdd45c2"},"vehicle_type_id":"4","last_reported":1704650923,"current_range_meters":22400,"station_id":"ce4bh0p2rcd13ifvqd80","pricing_plan_id":"free"},{"bike_id":"d734b4d7-8f84-4178-abf5-5906a0a282a6","system_id":"levelo_inurba_marseille","lat":43.305994,"lon":5.393687,"is_reserved":false,"is_disabled":false,"rental_uris":{"android":"levelo://app?vid=d734b4d7-8f84-4178-abf5-5906a0a282a6","ios":"levelo://app?vid=d734b4d7-8f84-4178-abf5-5906a0a282a6"},"vehicle_type_id":"4","last_reported":1704650923,"current_range_meters":13600,"station_id":"ce4bh0p2rcd13ifvqd80","pricing_plan_id":"free"},{"bike_id":"8cab86e9-ebd6-419d-9660-ff471c03170a","system_id":"levelo_inurba_marseille","lat":43.293009,"lon":5.374584,"is_reserved":false,"is_disabled":false,"rental_uris":{"android":"levelo://app?vid=8cab86e9-ebd6-419d-9660-ff471c03170a","ios":"levelo://app?vid=8cab86e9-ebd6-419d-9660-ff471c03170a"},"vehicle_type_id":"4","last_reported":1704650923,"current_range_meters":5600,"station_id":"ce4bgi12rcd13ifvqb70","pricing_plan_id":"free"},{"bike_id":"47486a15-3c39-4502-a26b-f7e6faecea18","system_id":"levelo_inurba_marseille","lat":43.305994,"lon":5.393687,"is_reserved":false,"is_disabled":false,"rental_uris":{"android":"levelo://app?vid=47486a15-3c39-4502-a26b-f7e6faecea18","ios":"levelo://app?vid=47486a15-3c39-4502-a26b-f7e6faecea18"},"vehicle_type_id":"4","last_reported":1704650923,"current_range_meters":23200,"station_id":"ce4bh0p2rcd13ifvqd80","pricing_plan_id":"free"},{"bike_id":"0a0bc8e2-1b13-4ed7-a730-a2843386c884","system_id":"levelo_inurba_marseille","lat":43.292311,"lon":5.360731,"is_reserved":false,"is_disabled":false,"rental_uris":{"android":"levelo://app?vid=0a0bc8e2-1b13-4ed7-a730-a2843386c884","ios":"levelo://app?vid=0a0bc8e2-1b13-4ed7-a730-a2843386c884"},"vehicle_type_id":"4","last_reported":1704650923,"current_range_meters":10400,"station_id":"ce4bhbh2rcd13ifvqeqg","pricing_plan_id":"free"},{"bike_id":"00201432-9b80-43da-90de-0d84ad7437da","system_id":"levelo_inurba_marseille","lat":43.292311,"lon":5.360731,"is_reserved":false,"is_disabled":false,"rental_uris":{"android":"levelo://app?vid=00201432-9b80-43da-90de-0d84ad7437da","ios":"levelo://app?vid=00201432-9b80-43da-90de-0d84ad7437da"},"vehicle_type_id":"4","last_reported":1704650923,"current_range_meters":0,"station_id":"ce4bhbh2rcd13ifvqeqg","pricing_plan_id":"free"},{"bike_id":"b67b8a3e-3e74-4765-a26e-62ef0fd7963d","system_id":"levelo_inurba_marseille","lat":43.30085,"lon":5.390856,"is_reserved":false,"is_disabled":false,"rental_uris":{"android":"levelo://app?vid=b67b8a3e-3e74-4765-a26e-62ef0fd7963d","ios":"levelo://app?vid=b67b8a3e-3e74-4765-a26e-62ef0fd7963d"},"vehicle_type_id":"4","last_reported":1704650923,"current_range_meters":25200,"station_id":"ce4bh192rcd13ifvqdb0","pricing_plan_id":"free"},{"bike_id":"f0f9a935-cc3f-4fc2-8ddf-0f1331c10f01","system_id":"levelo_inurba_marseille","lat":43.291671,"lon":5.371575,"is_reserved":false,"is_disabled":false,"rental_uris":{"android":"levelo://app?vid=f0f9a935-cc3f-4fc2-8ddf-0f1331c10f01","ios":"levelo://app?vid=f0f9a935-cc3f-4fc2-8ddf-0f1331c10f01"},"vehicle_type_id":"4","last_reported":1704650923,"current_range_meters":13600,"station_id":"ce4bha92rcd13ifvqeh0","pricing_plan_id":"free"},{"bike_id":"7a550fd6-1fc6-4ae0-8e5b-c6a00703ff29","system_id":"levelo_inurba_marseille","lat":43.291671,"lon":5.371575,"is_reserved":false,"is_disabled":false,"rental_uris":{"android":"levelo://app?vid=7a550fd6-1fc6-4ae0-8e5b-c6a00703ff29","ios":"levelo://app?vid=7a550fd6-1fc6-4ae0-8e5b-c6a00703ff29"},"vehicle_type_id":"4","last_reported":1704650923,"current_range_meters":22000,"station_id":"ce4bha92rcd13ifvqeh0","pricing_plan_id":"free"},{"bike_id":"11ac2253-006b-4dd3-b35e-bc3dde1ffb54","system_id":"levelo_inurba_marseille","lat":43.291994,"lon":5.357886,"is_reserved":false,"is_disabled":false,"rental_uris":{"android":"levelo://app?vid=11ac2253-006b-4dd3-b35e-bc3dde1ffb54","ios":"levelo://app?vid=11ac2253-006b-4dd3-b35e-bc3dde1ffb54"},"vehicle_type_id":"4","last_reported":1704650923,"current_range_meters":4400,"station_id":"ce4bhb12rcd13ifvqel0","pricing_plan_id":"free"},{"bike_id":"381528b0-d19f-4289-b4ab-ca494aad36ce","system_id":"levelo_inurba_marseille","lat":43.309038,"lon":5.396546,"is_reserved":false,"is_disabled":false,"rental_uris":{"android":"levelo://app?vid=381528b0-d19f-4289-b4ab-ca494aad36ce","ios":"levelo://app?vid=381528b0-d19f-4289-b4ab-ca494aad36ce"},"vehicle_type_id":"4","last_reported":1704650923,"current_range_meters":13600,"station_id":"ce4bh012rcd13ifvqcv0","pricing_plan_id":"free"},{"bike_id":"6b6f06f0-e94a-4953-ba53-dbc708084855","system_id":"levelo_inurba_marseille","lat":43.313291,"lon":5.396838,"is_reserved":false,"is_disabled":false,"rental_uris":{"android":"levelo://app?vid=6b6f06f0-e94a-4953-ba53-dbc708084855","ios":"levelo://app?vid=6b6f06f0-e94a-4953-ba53-dbc708084855"},"vehicle_type_id":"4","last_reported":1704650923,"current_range_meters":17200,"station_id":"ce4bgvp2rcd13ifvqcu0","pricing_plan_id":"free"},{"bike_id":"6248bf44-adbe-4f05-9c81-8e34c3084d50","system_id":"levelo_inurba_marseille","lat":43.309038,"lon":5.396546,"is_reserved":false,"is_disabled":false,"rental_uris":{"android":"levelo://app?vid=6248bf44-adbe-4f05-9c81-8e34c3084d50","ios":"levelo://app?vid=6248bf44-adbe-4f05-9c81-8e34c3084d50"},"vehicle_type_id":"4","last_reported":1704650923,"current_range_meters":10000,"station_id":"ce4bh012rcd13ifvqcv0","pricing_plan_id":"free"},{"bike_id":"13891aaa-69b1-4f7b-89ca-818cd6913a95","system_id":"levelo_inurba_marseille","lat":43.30272,"lon":5.3941,"is_reserved":false,"is_disabled":false,"rental_uris":{"android":"levelo://app?vid=13891aaa-69b1-4f7b-89ca-818cd6913a95","ios":"levelo://app?vid=13891aaa-69b1-4f7b-89ca-818cd6913a95"},"vehicle_type_id":"4","last_reported":1704650923,"current_range_meters":3200,"station_id":"","pricing_plan_id":"free"},{"bike_id":"4a294100-65aa-4443-ad63-eec76303248e","system_id":"levelo_inurba_marseille","lat":43.296277,"lon":5.377108,"is_reserved":false,"is_disabled":false,"rental_uris":{"android":"levelo://app?vid=4a294100-65aa-4443-ad63-eec76303248e","ios":"levelo://app?vid=4a294100-65aa-4443-ad63-eec76303248e"},"vehicle_type_id":"4","last_reported":1704650923,"current_range_meters":9200,"station_id":"ce4bgi92rcd13ifvqb90","pricing_plan_id":"free"},{"bike_id":"82cca830-60d4-4187-b2b9-8cb67b6c084c","system_id":"levelo_inurba_marseille","lat":43.294162,"lon":5.386292,"is_reserved":false,"is_disabled":false,"rental_uris":{"android":"levelo://app?vid=82cca830-60d4-4187-b2b9-8cb67b6c084c","ios":"levelo://app?vid=82cca830-60d4-4187-b2b9-8cb67b6c084c"},"vehicle_type_id":"4","last_reported":1704650923,"current_range_meters":19200,"station_id":"ce4bh2h2rcd13ifvqdh0","pricing_plan_id":"free"},{"bike_id":"46335c2c-15d4-47bf-92b6-7bd2494b6585","system_id":"levelo_inurba_marseille","lat":43.289468,"lon":5.363719,"is_reserved":false,"is_disabled":false,"rental_uris":{"android":"levelo://app?vid=46335c2c-15d4-47bf-92b6-7bd2494b6585","ios":"levelo://app?vid=46335c2c-15d4-47bf-92b6-7bd2494b6585"},"vehicle_type_id":"4","last_reported":1704650923,"current_range_meters":23600,"station_id":"ce4bhc92rcd13ifvqetg","pricing_plan_id":"free"},{"bike_id":"894cd4be-d1bd-4230-a0b1-7379edba412e","system_id":"levelo_inurba_marseille","lat":43.292642,"lon":5.384254,"is_reserved":false,"is_disabled":false,"rental_uris":{"android":"levelo://app?vid=894cd4be-d1bd-4230-a0b1-7379edba412e","ios":"levelo://app?vid=894cd4be-d1bd-4230-a0b1-7379edba412e"},"vehicle_type_id":"4","last_reported":1704650923,"current_range_meters":14800,"station_id":"ce4bh692rcd13ifvqea0","pricing_plan_id":"free"},{"bike_id":"84f18844-d28d-4577-8724-ded23644d40e","system_id":"levelo_inurba_marseille","lat":43.292642,"lon":5.384254,"is_reserved":false,"is_disabled":false,"rental_uris":{"android":"levelo://app?vid=84f18844-d28d-4577-8724-ded23644d40e","ios":"levelo://app?vid=84f18844-d28d-4577-8724-ded23644d40e"},"vehicle_type_id":"4","last_reported":1704650923,"current_range_meters":24400,"station_id":"ce4bh692rcd13ifvqea0","pricing_plan_id":"free"},{"bike_id":"a5a76750-7373-4576-8b7b-bb5b8c7d8560","system_id":"levelo_inurba_marseille","lat":43.290103,"lon":5.356114,"is_reserved":false,"is_disabled":false,"rental_uris":{"android":"levelo://app?vid=a5a76750-7373-4576-8b7b-bb5b8c7d8560","ios":"levelo://app?vid=a5a76750-7373-4576-8b7b-bb5b8c7d8560"},"vehicle_type_id":"4","last_reported":1704650923,"current_range_meters":21200,"station_id":"ce4bhb92rcd13ifvqen0","pricing_plan_id":"free"},{"bike_id":"6216f5dd-85e9-4acc-a902-87b308cc67ab","system_id":"levelo_inurba_marseille","lat":43.290995,"lon":5.381361,"is_reserved":false,"is_disabled":false,"rental_uris":{"android":"levelo://app?vid=6216f5dd-85e9-4acc-a902-87b308cc67ab","ios":"levelo://app?vid=6216f5dd-85e9-4acc-a902-87b308cc67ab"},"vehicle_type_id":"4","last_reported":1704650923,"current_range_meters":8400,"station_id":"ce4bh512rcd13ifvqe2g","pricing_plan_id":"free"},{"bike_id":"09eb7555-ccff-4348-aff6-423a5a79f366","system_id":"levelo_inurba_marseille","lat":43.29785,"lon":5.39337,"is_reserved":false,"is_disabled":false,"rental_uris":{"android":"levelo://app?vid=09eb7555-ccff-4348-aff6-423a5a79f366","ios":"levelo://app?vid=09eb7555-ccff-4348-aff6-423a5a79f366"},"vehicle_type_id":"4","last_reported":1704650923,"current_range_meters":16400,"station_id":"chh1huq6cuj3fo74tm60","pricing_plan_id":"free"},{"bike_id":"c84c446e-0cb4-4798-9da0-75c81900654a","system_id":"levelo_inurba_marseille","lat":43.289743,"lon":5.378304,"is_reserved":false,"is_disabled":false,"rental_uris":{"android":"levelo://app?vid=c84c446e-0cb4-4798-9da0-75c81900654a","ios":"levelo://app?vid=c84c446e-0cb4-4798-9da0-75c81900654a"},"vehicle_type_id":"4","last_reported":1704650923,"current_range_meters":15600,"station_id":"ce4bh9p2rcd13ifvqed0","pricing_plan_id":"free"},{"bike_id":"090deaf9-923f-473d-8cff-dad347e1ac5b","system_id":"levelo_inurba_marseille","lat":43.295169,"lon":5.390426,"is_reserved":false,"is_disabled":false,"rental_uris":{"android":"levelo://app?vid=090deaf9-923f-473d-8cff-dad347e1ac5b","ios":"levelo://app?vid=090deaf9-923f-473d-8cff-dad347e1ac5b"},"vehicle_type_id":"4","last_reported":1704650923,"current_range_meters":12000,"station_id":"ce4bh3p2rcd13ifvqdp0","pricing_plan_id":"free"},{"bike_id":"29877edf-f914-4818-a395-be7aee9e9d72","system_id":"levelo_inurba_marseille","lat":43.330442,"lon":5.389148,"is_reserved":false,"is_disabled":false,"rental_uris":{"android":"levelo://app?vid=29877edf-f914-4818-a395-be7aee9e9d72","ios":"levelo://app?vid=29877edf-f914-4818-a395-be7aee9e9d72"},"vehicle_type_id":"4","last_reported":1704650923,"current_range_meters":14400,"station_id":"ce4bhr92rcd13ifvqhrg","pricing_plan_id":"free"},{"bike_id":"8625464e-66d0-4621-bd34-1a2874fb7a19","system_id":"levelo_inurba_marseille","lat":43.330442,"lon":5.389148,"is_reserved":false,"is_disabled":false,"rental_uris":{"android":"levelo://app?vid=8625464e-66d0-4621-bd34-1a2874fb7a19","ios":"levelo://app?vid=8625464e-66d0-4621-bd34-1a2874fb7a19"},"vehicle_type_id":"4","last_reported":1704650923,"current_range_meters":30400,"station_id":"ce4bhr92rcd13ifvqhrg","pricing_plan_id":"free"},{"bike_id":"b00b787d-2817-4635-bcd3-511737abb05f","system_id":"levelo_inurba_marseille","lat":43.295169,"lon":5.390426,"is_reserved":false,"is_disabled":false,"rental_uris":{"android":"levelo://app?vid=b00b787d-2817-4635-bcd3-511737abb05f","ios":"levelo://app?vid=b00b787d-2817-4635-bcd3-511737abb05f"},"vehicle_type_id":"4","last_reported":1704650923,"current_range_meters":21600,"station_id":"ce4bh3p2rcd13ifvqdp0","pricing_plan_id":"free"},{"bike_id":"7c7a6206-545f-4749-ace7-a0c9f17d3062","system_id":"levelo_inurba_marseille","lat":43.330442,"lon":5.389148,"is_reserved":false,"is_disabled":false,"rental_uris":{"android":"levelo://app?vid=7c7a6206-545f-4749-ace7-a0c9f17d3062","ios":"levelo://app?vid=7c7a6206-545f-4749-ace7-a0c9f17d3062"},"vehicle_type_id":"4","last_reported":1704650923,"current_range_meters":13200,"station_id":"ce4bhr92rcd13ifvqhrg","pricing_plan_id":"free"},{"bike_id":"57a59c67-703f-4a83-aae5-f27109cb99b9","system_id":"levelo_inurba_marseille","lat":43.330442,"lon":5.389148,"is_reserved":false,"is_disabled":false,"rental_uris":{"android":"levelo://app?vid=57a59c67-703f-4a83-aae5-f27109cb99b9","ios":"levelo://app?vid=57a59c67-703f-4a83-aae5-f27109cb99b9"},"vehicle_type_id":"4","last_reported":1704650923,"current_range_meters":18400,"station_id":"ce4bhr92rcd13ifvqhrg","pricing_plan_id":"free"},{"bike_id":"604d70e1-4bfc-4c1a-ad50-5c45b428d61e","system_id":"levelo_inurba_marseille","lat":43.330442,"lon":5.389148,"is_reserved":false,"is_disabled":false,"rental_uris":{"android":"levelo://app?vid=604d70e1-4bfc-4c1a-ad50-5c45b428d61e","ios":"levelo://app?vid=604d70e1-4bfc-4c1a-ad50-5c45b428d61e"},"vehicle_type_id":"4","last_reported":1704650923,"current_range_meters":18000,"station_id":"ce4bhr92rcd13ifvqhrg","pricing_plan_id":"free"},{"bike_id":"0076ad9a-038a-4802-b9a7-67a0e35d5ea6","system_id":"levelo_inurba_marseille","lat":43.28856,"lon":5.358371,"is_reserved":false,"is_disabled":false,"rental_uris":{"android":"levelo://app?vid=0076ad9a-038a-4802-b9a7-67a0e35d5ea6","ios":"levelo://app?vid=0076ad9a-038a-4802-b9a7-67a0e35d5ea6"},"vehicle_type_id":"4","last_reported":1704650923,"current_range_meters":24400,"station_id":"ce4bhb12rcd13ifvqem0","pricing_plan_id":"free"},{"bike_id":"a1a87bdc-0eae-4a7b-b02a-4453fcbd701b","system_id":"levelo_inurba_marseille","lat":43.28856,"lon":5.358371,"is_reserved":false,"is_disabled":false,"rental_uris":{"android":"levelo://app?vid=a1a87bdc-0eae-4a7b-b02a-4453fcbd701b","ios":"levelo://app?vid=a1a87bdc-0eae-4a7b-b02a-4453fcbd701b"},"vehicle_type_id":"4","last_reported":1704650923,"current_range_meters":20000,"station_id":"ce4bhb12rcd13ifvqem0","pricing_plan_id":"free"},{"bike_id":"231d3db0-7a1e-4ff6-8adc-4b558e8a5f59","system_id":"levelo_inurba_marseille","lat":43.28856,"lon":5.358371,"is_reserved":false,"is_disabled":false,"rental_uris":{"android":"levelo://app?vid=231d3db0-7a1e-4ff6-8adc-4b558e8a5f59","ios":"levelo://app?vid=231d3db0-7a1e-4ff6-8adc-4b558e8a5f59"},"vehicle_type_id":"4","last_reported":1704650923,"current_range_meters":30400,"station_id":"ce4bhb12rcd13ifvqem0","pricing_plan_id":"free"},{"bike_id":"51e49ad7-a5e2-44ba-aef5-cc1321cffcf6","system_id":"levelo_inurba_marseille","lat":43.28856,"lon":5.358371,"is_reserved":false,"is_disabled":false,"rental_uris":{"android":"levelo://app?vid=51e49ad7-a5e2-44ba-aef5-cc1321cffcf6","ios":"levelo://app?vid=51e49ad7-a5e2-44ba-aef5-cc1321cffcf6"},"vehicle_type_id":"4","last_reported":1704650923,"current_range_meters":22800,"station_id":"ce4bhb12rcd13ifvqem0","pricing_plan_id":"free"},{"bike_id":"159f7ec5-3d57-446d-b5ac-ca5a4823fee7","system_id":"levelo_inurba_marseille","lat":43.312609,"lon":5.401662,"is_reserved":false,"is_disabled":false,"rental_uris":{"android":"levelo://app?vid=159f7ec5-3d57-446d-b5ac-ca5a4823fee7","ios":"levelo://app?vid=159f7ec5-3d57-446d-b5ac-ca5a4823fee7"},"vehicle_type_id":"4","last_reported":1704650923,"current_range_meters":0,"station_id":"ce4bh092rcd13ifvqd30","pricing_plan_id":"free"},{"bike_id":"5791b47d-c38d-489b-998a-b7c291fbe942","system_id":"levelo_inurba_marseille","lat":43.312609,"lon":5.401662,"is_reserved":false,"is_disabled":false,"rental_uris":{"android":"levelo://app?vid=5791b47d-c38d-489b-998a-b7c291fbe942","ios":"levelo://app?vid=5791b47d-c38d-489b-998a-b7c291fbe942"},"vehicle_type_id":"4","last_reported":1704650923,"current_range_meters":8400,"station_id":"ce4bh092rcd13ifvqd30","pricing_plan_id":"free"},{"bike_id":"f8a3da29-94f0-4552-9d34-9ba54a31b9f2","system_id":"levelo_inurba_marseille","lat":43.30645,"lon":5.400933,"is_reserved":false,"is_disabled":false,"rental_uris":{"android":"levelo://app?vid=f8a3da29-94f0-4552-9d34-9ba54a31b9f2","ios":"levelo://app?vid=f8a3da29-94f0-4552-9d34-9ba54a31b9f2"},"vehicle_type_id":"4","last_reported":1704650923,"current_range_meters":28400,"station_id":"ce4bh112rcd13ifvqda0","pricing_plan_id":"free"},{"bike_id":"cb69f871-8e3b-426d-bdcb-209868adc7f5","system_id":"levelo_inurba_marseille","lat":43.306412,"lon":5.401035,"is_reserved":false,"is_disabled":false,"rental_uris":{"android":"levelo://app?vid=cb69f871-8e3b-426d-bdcb-209868adc7f5","ios":"levelo://app?vid=cb69f871-8e3b-426d-bdcb-209868adc7f5"},"vehicle_type_id":"4","last_reported":1704650923,"current_range_meters":26800,"station_id":"ce4bh112rcd13ifvqda0","pricing_plan_id":"free"},{"bike_id":"aacbc8c6-c33e-4749-87a6-b9e33c89cf6e","system_id":"levelo_inurba_marseille","lat":43.3064,"lon":5.40094,"is_reserved":false,"is_disabled":false,"rental_uris":{"android":"levelo://app?vid=aacbc8c6-c33e-4749-87a6-b9e33c89cf6e","ios":"levelo://app?vid=aacbc8c6-c33e-4749-87a6-b9e33c89cf6e"},"vehicle_type_id":"4","last_reported":1704650923,"current_range_meters":13200,"station_id":"ce4bh112rcd13ifvqda0","pricing_plan_id":"free"},{"bike_id":"db90828e-6649-4868-9eb7-1dd1fbf3f786","system_id":"levelo_inurba_marseille","lat":43.301117,"lon":5.398795,"is_reserved":false,"is_disabled":false,"rental_uris":{"android":"levelo://app?vid=db90828e-6649-4868-9eb7-1dd1fbf3f786","ios":"levelo://app?vid=db90828e-6649-4868-9eb7-1dd1fbf3f786"},"vehicle_type_id":"4","last_reported":1704650923,"current_range_meters":6400,"station_id":"ce4bh0h2rcd13ifvqd40","pricing_plan_id":"free"},{"bike_id":"20d3a974-482e-43e5-acc5-1ae3efe35892","system_id":"levelo_inurba_marseille","lat":43.33779,"lon":5.374597,"is_reserved":false,"is_disabled":false,"rental_uris":{"android":"levelo://app?vid=20d3a974-482e-43e5-acc5-1ae3efe35892","ios":"levelo://app?vid=20d3a974-482e-43e5-acc5-1ae3efe35892"},"vehicle_type_id":"4","last_reported":1704650923,"current_range_meters":28800,"station_id":"","pricing_plan_id":"free"},{"bike_id":"ef73a9a3-96ee-4923-bafc-6087de96c097","system_id":"levelo_inurba_marseille","lat":43.301117,"lon":5.398795,"is_reserved":false,"is_disabled":false,"rental_uris":{"android":"levelo://app?vid=ef73a9a3-96ee-4923-bafc-6087de96c097","ios":"levelo://app?vid=ef73a9a3-96ee-4923-bafc-6087de96c097"},"vehicle_type_id":"4","last_reported":1704650923,"current_range_meters":15600,"station_id":"ce4bh0h2rcd13ifvqd40","pricing_plan_id":"free"},{"bike_id":"94b3ddfa-090a-43a9-858e-5ccda96b1594","system_id":"levelo_inurba_marseille","lat":43.28727,"lon":5.36078,"is_reserved":false,"is_disabled":false,"rental_uris":{"android":"levelo://app?vid=94b3ddfa-090a-43a9-858e-5ccda96b1594","ios":"levelo://app?vid=94b3ddfa-090a-43a9-858e-5ccda96b1594"},"vehicle_type_id":"4","last_reported":1704650923,"current_range_meters":26000,"station_id":"cki0cbj6b192h4jlfktg","pricing_plan_id":"free"},{"bike_id":"78cbef46-88c0-4d52-8fd9-6801cf65847b","system_id":"levelo_inurba_marseille","lat":43.28727,"lon":5.36078,"is_reserved":false,"is_disabled":false,"rental_uris":{"android":"levelo://app?vid=78cbef46-88c0-4d52-8fd9-6801cf65847b","ios":"levelo://app?vid=78cbef46-88c0-4d52-8fd9-6801cf65847b"},"vehicle_type_id":"4","last_reported":1704650923,"current_range_meters":21600,"station_id":"cki0cbj6b192h4jlfktg","pricing_plan_id":"free"},{"bike_id":"c23a8040-7b01-4d2f-949d-bdbfb0e3e476","system_id":"levelo_inurba_marseille","lat":43.28727,"lon":5.36078,"is_reserved":false,"is_disabled":false,"rental_uris":{"android":"levelo://app?vid=c23a8040-7b01-4d2f-949d-bdbfb0e3e476","ios":"levelo://app?vid=c23a8040-7b01-4d2f-949d-bdbfb0e3e476"},"vehicle_type_id":"4","last_reported":1704650923,"current_range_meters":18000,"station_id":"cki0cbj6b192h4jlfktg","pricing_plan_id":"free"},{"bike_id":"1bc3d37a-1760-4675-9326-081430932173","system_id":"levelo_inurba_marseille","lat":43.28727,"lon":5.36078,"is_reserved":false,"is_disabled":false,"rental_uris":{"android":"levelo://app?vid=1bc3d37a-1760-4675-9326-081430932173","ios":"levelo://app?vid=1bc3d37a-1760-4675-9326-081430932173"},"vehicle_type_id":"4","last_reported":1704650923,"current_range_meters":9600,"station_id":"cki0cbj6b192h4jlfktg","pricing_plan_id":"free"},{"bike_id":"f06195f3-6c81-43d8-bbfd-3542ed544cc7","system_id":"levelo_inurba_marseille","lat":43.286961,"lon":5.373785,"is_reserved":false,"is_disabled":false,"rental_uris":{"android":"levelo://app?vid=f06195f3-6c81-43d8-bbfd-3542ed544cc7","ios":"levelo://app?vid=f06195f3-6c81-43d8-bbfd-3542ed544cc7"},"vehicle_type_id":"4","last_reported":1704650923,"current_range_meters":22400,"station_id":"ce4bh3p2rcd13ifvqdq0","pricing_plan_id":"free"},{"bike_id":"09e15a03-619e-4bc3-8f6b-b98b57e8a3b2","system_id":"levelo_inurba_marseille","lat":43.286591,"lon":5.363346,"is_reserved":false,"is_disabled":false,"rental_uris":{"android":"levelo://app?vid=09e15a03-619e-4bc3-8f6b-b98b57e8a3b2","ios":"levelo://app?vid=09e15a03-619e-4bc3-8f6b-b98b57e8a3b2"},"vehicle_type_id":"4","last_reported":1704650923,"current_range_meters":24800,"station_id":"ce4bhah2rcd13ifvqej0","pricing_plan_id":"free"},{"bike_id":"76eca19a-eb7d-48ad-803f-1b31773e812b","system_id":"levelo_inurba_marseille","lat":43.286961,"lon":5.373785,"is_reserved":false,"is_disabled":false,"rental_uris":{"android":"levelo://app?vid=76eca19a-eb7d-48ad-803f-1b31773e812b","ios":"levelo://app?vid=76eca19a-eb7d-48ad-803f-1b31773e812b"},"vehicle_type_id":"4","last_reported":1704650923,"current_range_meters":29200,"station_id":"ce4bh3p2rcd13ifvqdq0","pricing_plan_id":"free"},{"bike_id":"15789396-3928-430d-9d93-4182c82332b9","system_id":"levelo_inurba_marseille","lat":43.284538,"lon":5.358657,"is_reserved":false,"is_disabled":false,"rental_uris":{"android":"levelo://app?vid=15789396-3928-430d-9d93-4182c82332b9","ios":"levelo://app?vid=15789396-3928-430d-9d93-4182c82332b9"},"vehicle_type_id":"4","last_reported":1704650923,"current_range_meters":4000,"station_id":"ce4bhah2rcd13ifvqei0","pricing_plan_id":"free"},{"bike_id":"7dbf238d-a61b-4973-8d46-eeb9118e914e","system_id":"levelo_inurba_marseille","lat":43.290336,"lon":5.386425,"is_reserved":false,"is_disabled":false,"rental_uris":{"android":"levelo://app?vid=7dbf238d-a61b-4973-8d46-eeb9118e914e","ios":"levelo://app?vid=7dbf238d-a61b-4973-8d46-eeb9118e914e"},"vehicle_type_id":"4","last_reported":1704650923,"current_range_meters":21200,"station_id":"ce4bh4p2rcd13ifvqe0g","pricing_plan_id":"free"},{"bike_id":"eca1a873-e03c-433d-a5b3-e1781ddd6ae4","system_id":"levelo_inurba_marseille","lat":43.290336,"lon":5.386425,"is_reserved":false,"is_disabled":false,"rental_uris":{"android":"levelo://app?vid=eca1a873-e03c-433d-a5b3-e1781ddd6ae4","ios":"levelo://app?vid=eca1a873-e03c-433d-a5b3-e1781ddd6ae4"},"vehicle_type_id":"4","last_reported":1704650923,"current_range_meters":18000,"station_id":"ce4bh4p2rcd13ifvqe0g","pricing_plan_id":"free"},{"bike_id":"a8b7ee4a-5458-4906-8e0c-1240508f1d31","system_id":"levelo_inurba_marseille","lat":43.290336,"lon":5.386425,"is_reserved":false,"is_disabled":false,"rental_uris":{"android":"levelo://app?vid=a8b7ee4a-5458-4906-8e0c-1240508f1d31","ios":"levelo://app?vid=a8b7ee4a-5458-4906-8e0c-1240508f1d31"},"vehicle_type_id":"4","last_reported":1704650923,"current_range_meters":7600,"station_id":"ce4bh4p2rcd13ifvqe0g","pricing_plan_id":"free"},{"bike_id":"775402d8-f928-4185-9051-ce1a1f1a96c0","system_id":"levelo_inurba_marseille","lat":43.286039,"lon":5.370679,"is_reserved":false,"is_disabled":false,"rental_uris":{"android":"levelo://app?vid=775402d8-f928-4185-9051-ce1a1f1a96c0","ios":"levelo://app?vid=775402d8-f928-4185-9051-ce1a1f1a96c0"},"vehicle_type_id":"4","last_reported":1704650923,"current_range_meters":18400,"station_id":"ce4bht12rcd13ifvqi60","pricing_plan_id":"free"},{"bike_id":"4ca48828-b76f-4b36-9df2-ad86be569508","system_id":"levelo_inurba_marseille","lat":43.286039,"lon":5.370679,"is_reserved":false,"is_disabled":false,"rental_uris":{"android":"levelo://app?vid=4ca48828-b76f-4b36-9df2-ad86be569508","ios":"levelo://app?vid=4ca48828-b76f-4b36-9df2-ad86be569508"},"vehicle_type_id":"4","last_reported":1704650923,"current_range_meters":30000,"station_id":"ce4bht12rcd13ifvqi60","pricing_plan_id":"free"},{"bike_id":"e9e8caca-0bcc-46f9-b82b-56fe2c67521b","system_id":"levelo_inurba_marseille","lat":43.286039,"lon":5.370681,"is_reserved":false,"is_disabled":false,"rental_uris":{"android":"levelo://app?vid=e9e8caca-0bcc-46f9-b82b-56fe2c67521b","ios":"levelo://app?vid=e9e8caca-0bcc-46f9-b82b-56fe2c67521b"},"vehicle_type_id":"4","last_reported":1704650923,"current_range_meters":12400,"station_id":"ce4bht12rcd13ifvqi60","pricing_plan_id":"free"},{"bike_id":"0f221119-267a-4f7d-a052-c67fe7ca31b8","system_id":"levelo_inurba_marseille","lat":43.286039,"lon":5.370681,"is_reserved":false,"is_disabled":false,"rental_uris":{"android":"levelo://app?vid=0f221119-267a-4f7d-a052-c67fe7ca31b8","ios":"levelo://app?vid=0f221119-267a-4f7d-a052-c67fe7ca31b8"},"vehicle_type_id":"4","last_reported":1704650923,"current_range_meters":18800,"station_id":"ce4bht12rcd13ifvqi60","pricing_plan_id":"free"},{"bike_id":"661e035e-5d4a-4ebd-a8c4-9c67960edce8","system_id":"levelo_inurba_marseille","lat":43.287185,"lon":5.379373,"is_reserved":false,"is_disabled":false,"rental_uris":{"android":"levelo://app?vid=661e035e-5d4a-4ebd-a8c4-9c67960edce8","ios":"levelo://app?vid=661e035e-5d4a-4ebd-a8c4-9c67960edce8"},"vehicle_type_id":"4","last_reported":1704650923,"current_range_meters":31200,"station_id":"ce4bh9p2rcd13ifvqec0","pricing_plan_id":"free"},{"bike_id":"29dedcd6-517b-4df3-bdb4-bca3f4656425","system_id":"levelo_inurba_marseille","lat":43.316828,"lon":5.404723,"is_reserved":false,"is_disabled":false,"rental_uris":{"android":"levelo://app?vid=29dedcd6-517b-4df3-bdb4-bca3f4656425","ios":"levelo://app?vid=29dedcd6-517b-4df3-bdb4-bca3f4656425"},"vehicle_type_id":"4","last_reported":1704650923,"current_range_meters":3200,"station_id":"ce4bh012rcd13ifvqd00","pricing_plan_id":"free"},{"bike_id":"593c23b9-909b-4128-89f7-c6882668af9d","system_id":"levelo_inurba_marseille","lat":43.323464,"lon":5.406297,"is_reserved":false,"is_disabled":false,"rental_uris":{"android":"levelo://app?vid=593c23b9-909b-4128-89f7-c6882668af9d","ios":"levelo://app?vid=593c23b9-909b-4128-89f7-c6882668af9d"},"vehicle_type_id":"4","last_reported":1704650923,"current_range_meters":22400,"station_id":"ce4bhq92rcd13ifvqhjg","pricing_plan_id":"free"},{"bike_id":"6eacd2a0-bb96-4527-a348-75c812ee9f3d","system_id":"levelo_inurba_marseille","lat":43.291994,"lon":5.392907,"is_reserved":false,"is_disabled":false,"rental_uris":{"android":"levelo://app?vid=6eacd2a0-bb96-4527-a348-75c812ee9f3d","ios":"levelo://app?vid=6eacd2a0-bb96-4527-a348-75c812ee9f3d"},"vehicle_type_id":"4","last_reported":1704650923,"current_range_meters":4800,"station_id":"ce4bh192rcd13ifvqdd0","pricing_plan_id":"free"},{"bike_id":"b17864a7-4900-4094-9c2a-fa761bdeac8e","system_id":"levelo_inurba_marseille","lat":43.291994,"lon":5.392907,"is_reserved":false,"is_disabled":false,"rental_uris":{"android":"levelo://app?vid=b17864a7-4900-4094-9c2a-fa761bdeac8e","ios":"levelo://app?vid=b17864a7-4900-4094-9c2a-fa761bdeac8e"},"vehicle_type_id":"4","last_reported":1704650923,"current_range_meters":19600,"station_id":"ce4bh192rcd13ifvqdd0","pricing_plan_id":"free"},{"bike_id":"327c80cc-07cd-42ec-b8b8-396c0b81d9a9","system_id":"levelo_inurba_marseille","lat":43.284514,"lon":5.358877,"is_reserved":false,"is_disabled":false,"rental_uris":{"android":"levelo://app?vid=327c80cc-07cd-42ec-b8b8-396c0b81d9a9","ios":"levelo://app?vid=327c80cc-07cd-42ec-b8b8-396c0b81d9a9"},"vehicle_type_id":"4","last_reported":1704650923,"current_range_meters":29200,"station_id":"ce4bhah2rcd13ifvqei0","pricing_plan_id":"free"},{"bike_id":"51a87278-e903-4db0-92ef-fe92a5e422cb","system_id":"levelo_inurba_marseille","lat":43.284514,"lon":5.358864,"is_reserved":false,"is_disabled":false,"rental_uris":{"android":"levelo://app?vid=51a87278-e903-4db0-92ef-fe92a5e422cb","ios":"levelo://app?vid=51a87278-e903-4db0-92ef-fe92a5e422cb"},"vehicle_type_id":"4","last_reported":1704650923,"current_range_meters":29600,"station_id":"ce4bhah2rcd13ifvqei0","pricing_plan_id":"free"},{"bike_id":"36a1eac0-a778-473c-a36d-19e73c7406f9","system_id":"levelo_inurba_marseille","lat":43.284508,"lon":5.358899,"is_reserved":false,"is_disabled":false,"rental_uris":{"android":"levelo://app?vid=36a1eac0-a778-473c-a36d-19e73c7406f9","ios":"levelo://app?vid=36a1eac0-a778-473c-a36d-19e73c7406f9"},"vehicle_type_id":"4","last_reported":1704650923,"current_range_meters":17600,"station_id":"ce4bhah2rcd13ifvqei0","pricing_plan_id":"free"},{"bike_id":"b0d9c37a-12b7-4fcf-b2cc-70034df7a04b","system_id":"levelo_inurba_marseille","lat":43.29847,"lon":5.40139,"is_reserved":false,"is_disabled":false,"rental_uris":{"android":"levelo://app?vid=b0d9c37a-12b7-4fcf-b2cc-70034df7a04b","ios":"levelo://app?vid=b0d9c37a-12b7-4fcf-b2cc-70034df7a04b"},"vehicle_type_id":"4","last_reported":1704650923,"current_range_meters":0,"station_id":"","pricing_plan_id":"free"},{"bike_id":"154efb84-26fc-49e6-ada6-5bf0c44dd6f0","system_id":"levelo_inurba_marseille","lat":43.285856,"lon":5.350771,"is_reserved":false,"is_disabled":false,"rental_uris":{"android":"levelo://app?vid=154efb84-26fc-49e6-ada6-5bf0c44dd6f0","ios":"levelo://app?vid=154efb84-26fc-49e6-ada6-5bf0c44dd6f0"},"vehicle_type_id":"4","last_reported":1704650923,"current_range_meters":30400,"station_id":"ce4bhch2rcd13ifvqeug","pricing_plan_id":"free"},{"bike_id":"f33f3718-5e21-44c0-9543-4ce12d1faec9","system_id":"levelo_inurba_marseille","lat":43.285856,"lon":5.350771,"is_reserved":false,"is_disabled":false,"rental_uris":{"android":"levelo://app?vid=f33f3718-5e21-44c0-9543-4ce12d1faec9","ios":"levelo://app?vid=f33f3718-5e21-44c0-9543-4ce12d1faec9"},"vehicle_type_id":"4","last_reported":1704650923,"current_range_meters":27200,"station_id":"ce4bhch2rcd13ifvqeug","pricing_plan_id":"free"},{"bike_id":"77dcd9db-8541-482e-80ea-3465701dc93c","system_id":"levelo_inurba_marseille","lat":43.285856,"lon":5.350771,"is_reserved":false,"is_disabled":false,"rental_uris":{"android":"levelo://app?vid=77dcd9db-8541-482e-80ea-3465701dc93c","ios":"levelo://app?vid=77dcd9db-8541-482e-80ea-3465701dc93c"},"vehicle_type_id":"4","last_reported":1704650923,"current_range_meters":13600,"station_id":"ce4bhch2rcd13ifvqeug","pricing_plan_id":"free"},{"bike_id":"35653274-7267-4866-a014-dfc9d30e8eeb","system_id":"levelo_inurba_marseille","lat":43.285856,"lon":5.350771,"is_reserved":false,"is_disabled":false,"rental_uris":{"android":"levelo://app?vid=35653274-7267-4866-a014-dfc9d30e8eeb","ios":"levelo://app?vid=35653274-7267-4866-a014-dfc9d30e8eeb"},"vehicle_type_id":"4","last_reported":1704650923,"current_range_meters":20400,"station_id":"ce4bhch2rcd13ifvqeug","pricing_plan_id":"free"},{"bike_id":"00b48936-7085-4cf8-b9f8-bfaeaa1c2437","system_id":"levelo_inurba_marseille","lat":43.285856,"lon":5.350771,"is_reserved":false,"is_disabled":false,"rental_uris":{"android":"levelo://app?vid=00b48936-7085-4cf8-b9f8-bfaeaa1c2437","ios":"levelo://app?vid=00b48936-7085-4cf8-b9f8-bfaeaa1c2437"},"vehicle_type_id":"4","last_reported":1704650923,"current_range_meters":17600,"station_id":"ce4bhch2rcd13ifvqeug","pricing_plan_id":"free"},{"bike_id":"e7d08906-0d87-4715-8ffa-bdb9be03abd3","system_id":"levelo_inurba_marseille","lat":43.285856,"lon":5.350771,"is_reserved":false,"is_disabled":false,"rental_uris":{"android":"levelo://app?vid=e7d08906-0d87-4715-8ffa-bdb9be03abd3","ios":"levelo://app?vid=e7d08906-0d87-4715-8ffa-bdb9be03abd3"},"vehicle_type_id":"4","last_reported":1704650923,"current_range_meters":16400,"station_id":"ce4bhch2rcd13ifvqeug","pricing_plan_id":"free"},{"bike_id":"43b3ea92-a636-409a-a2bf-2cfcdf83346d","system_id":"levelo_inurba_marseille","lat":43.285856,"lon":5.350771,"is_reserved":false,"is_disabled":false,"rental_uris":{"android":"levelo://app?vid=43b3ea92-a636-409a-a2bf-2cfcdf83346d","ios":"levelo://app?vid=43b3ea92-a636-409a-a2bf-2cfcdf83346d"},"vehicle_type_id":"4","last_reported":1704650923,"current_range_meters":23200,"station_id":"ce4bhch2rcd13ifvqeug","pricing_plan_id":"free"},{"bike_id":"5688a380-9bf4-41fc-824e-d906fd2a2179","system_id":"levelo_inurba_marseille","lat":43.285856,"lon":5.350771,"is_reserved":false,"is_disabled":false,"rental_uris":{"android":"levelo://app?vid=5688a380-9bf4-41fc-824e-d906fd2a2179","ios":"levelo://app?vid=5688a380-9bf4-41fc-824e-d906fd2a2179"},"vehicle_type_id":"4","last_reported":1704650923,"current_range_meters":11600,"station_id":"ce4bhch2rcd13ifvqeug","pricing_plan_id":"free"},{"bike_id":"7e545478-533c-4cff-816a-9cd5b9b3b5a2","system_id":"levelo_inurba_marseille","lat":43.285856,"lon":5.350771,"is_reserved":false,"is_disabled":false,"rental_uris":{"android":"levelo://app?vid=7e545478-533c-4cff-816a-9cd5b9b3b5a2","ios":"levelo://app?vid=7e545478-533c-4cff-816a-9cd5b9b3b5a2"},"vehicle_type_id":"4","last_reported":1704650923,"current_range_meters":28400,"station_id":"ce4bhch2rcd13ifvqeug","pricing_plan_id":"free"},{"bike_id":"8c6eeb45-c128-4b96-b66c-af4f71c249ba","system_id":"levelo_inurba_marseille","lat":43.285856,"lon":5.350771,"is_reserved":false,"is_disabled":false,"rental_uris":{"android":"levelo://app?vid=8c6eeb45-c128-4b96-b66c-af4f71c249ba","ios":"levelo://app?vid=8c6eeb45-c128-4b96-b66c-af4f71c249ba"},"vehicle_type_id":"4","last_reported":1704650923,"current_range_meters":15600,"station_id":"ce4bhch2rcd13ifvqeug","pricing_plan_id":"free"},{"bike_id":"24eba78a-c372-41c1-bed0-57b50127114e","system_id":"levelo_inurba_marseille","lat":43.285856,"lon":5.350771,"is_reserved":false,"is_disabled":false,"rental_uris":{"android":"levelo://app?vid=24eba78a-c372-41c1-bed0-57b50127114e","ios":"levelo://app?vid=24eba78a-c372-41c1-bed0-57b50127114e"},"vehicle_type_id":"4","last_reported":1704650923,"current_range_meters":20000,"station_id":"ce4bhch2rcd13ifvqeug","pricing_plan_id":"free"},{"bike_id":"ab696d19-e390-44ba-b572-f2505948ecd4","system_id":"levelo_inurba_marseille","lat":43.285856,"lon":5.350771,"is_reserved":false,"is_disabled":false,"rental_uris":{"android":"levelo://app?vid=ab696d19-e390-44ba-b572-f2505948ecd4","ios":"levelo://app?vid=ab696d19-e390-44ba-b572-f2505948ecd4"},"vehicle_type_id":"4","last_reported":1704650923,"current_range_meters":30000,"station_id":"ce4bhch2rcd13ifvqeug","pricing_plan_id":"free"},{"bike_id":"01e59b64-29e9-4e48-86ad-7a3b4b582e04","system_id":"levelo_inurba_marseille","lat":43.285856,"lon":5.350771,"is_reserved":false,"is_disabled":false,"rental_uris":{"android":"levelo://app?vid=01e59b64-29e9-4e48-86ad-7a3b4b582e04","ios":"levelo://app?vid=01e59b64-29e9-4e48-86ad-7a3b4b582e04"},"vehicle_type_id":"4","last_reported":1704650923,"current_range_meters":26800,"station_id":"ce4bhch2rcd13ifvqeug","pricing_plan_id":"free"},{"bike_id":"dffb7f5d-3b19-429d-ac37-bf521bd72a68","system_id":"levelo_inurba_marseille","lat":43.28611,"lon":5.35105,"is_reserved":false,"is_disabled":false,"rental_uris":{"android":"levelo://app?vid=dffb7f5d-3b19-429d-ac37-bf521bd72a68","ios":"levelo://app?vid=dffb7f5d-3b19-429d-ac37-bf521bd72a68"},"vehicle_type_id":"4","last_reported":1704650923,"current_range_meters":29600,"station_id":"ce4bhch2rcd13ifvqeug","pricing_plan_id":"free"},{"bike_id":"a1892345-5b8b-4d72-862f-98c2e2973e31","system_id":"levelo_inurba_marseille","lat":43.295713,"lon":5.399639,"is_reserved":false,"is_disabled":false,"rental_uris":{"android":"levelo://app?vid=a1892345-5b8b-4d72-862f-98c2e2973e31","ios":"levelo://app?vid=a1892345-5b8b-4d72-862f-98c2e2973e31"},"vehicle_type_id":"4","last_reported":1704650923,"current_range_meters":14400,"station_id":"ce4bh312rcd13ifvqdj0","pricing_plan_id":"free"},{"bike_id":"7a3f5f2e-39c9-47aa-9206-1b8273a52d86","system_id":"levelo_inurba_marseille","lat":43.28679,"lon":5.38665,"is_reserved":false,"is_disabled":false,"rental_uris":{"android":"levelo://app?vid=7a3f5f2e-39c9-47aa-9206-1b8273a52d86","ios":"levelo://app?vid=7a3f5f2e-39c9-47aa-9206-1b8273a52d86"},"vehicle_type_id":"4","last_reported":1704650923,"current_range_meters":17600,"station_id":"ce4bh492rcd13ifvqdug","pricing_plan_id":"free"},{"bike_id":"97d9d91d-22fb-41a3-80cd-081a59ed5abf","system_id":"levelo_inurba_marseille","lat":43.319179,"lon":5.407725,"is_reserved":false,"is_disabled":false,"rental_uris":{"android":"levelo://app?vid=97d9d91d-22fb-41a3-80cd-081a59ed5abf","ios":"levelo://app?vid=97d9d91d-22fb-41a3-80cd-081a59ed5abf"},"vehicle_type_id":"4","last_reported":1704650923,"current_range_meters":25200,"station_id":"ce4bhq12rcd13ifvqhig","pricing_plan_id":"free"},{"bike_id":"728c58ac-3ac6-447b-b406-5706c85ad82e","system_id":"levelo_inurba_marseille","lat":43.33717,"lon":5.391857,"is_reserved":false,"is_disabled":false,"rental_uris":{"android":"levelo://app?vid=728c58ac-3ac6-447b-b406-5706c85ad82e","ios":"levelo://app?vid=728c58ac-3ac6-447b-b406-5706c85ad82e"},"vehicle_type_id":"4","last_reported":1704650923,"current_range_meters":26800,"station_id":"ce4bhr92rcd13ifvqhsg","pricing_plan_id":"free"},{"bike_id":"54bec85a-3ad1-4ccc-9cab-e86a90c0ca6c","system_id":"levelo_inurba_marseille","lat":43.323464,"lon":5.406297,"is_reserved":false,"is_disabled":false,"rental_uris":{"android":"levelo://app?vid=54bec85a-3ad1-4ccc-9cab-e86a90c0ca6c","ios":"levelo://app?vid=54bec85a-3ad1-4ccc-9cab-e86a90c0ca6c"},"vehicle_type_id":"4","last_reported":1704650923,"current_range_meters":31200,"station_id":"ce4bhq92rcd13ifvqhjg","pricing_plan_id":"free"},{"bike_id":"9a026a9c-e1f2-43d3-8608-c6ab90da980a","system_id":"levelo_inurba_marseille","lat":43.323464,"lon":5.406297,"is_reserved":false,"is_disabled":false,"rental_uris":{"android":"levelo://app?vid=9a026a9c-e1f2-43d3-8608-c6ab90da980a","ios":"levelo://app?vid=9a026a9c-e1f2-43d3-8608-c6ab90da980a"},"vehicle_type_id":"4","last_reported":1704650923,"current_range_meters":8800,"station_id":"ce4bhq92rcd13ifvqhjg","pricing_plan_id":"free"},{"bike_id":"747b4a07-a8db-40b3-a2bf-387b48385f47","system_id":"levelo_inurba_marseille","lat":43.323464,"lon":5.406297,"is_reserved":false,"is_disabled":false,"rental_uris":{"android":"levelo://app?vid=747b4a07-a8db-40b3-a2bf-387b48385f47","ios":"levelo://app?vid=747b4a07-a8db-40b3-a2bf-387b48385f47"},"vehicle_type_id":"4","last_reported":1704650923,"current_range_meters":19600,"station_id":"ce4bhq92rcd13ifvqhjg","pricing_plan_id":"free"},{"bike_id":"4f2d6879-e71b-4c31-8419-1a3fbf59a310","system_id":"levelo_inurba_marseille","lat":43.323464,"lon":5.406297,"is_reserved":false,"is_disabled":false,"rental_uris":{"android":"levelo://app?vid=4f2d6879-e71b-4c31-8419-1a3fbf59a310","ios":"levelo://app?vid=4f2d6879-e71b-4c31-8419-1a3fbf59a310"},"vehicle_type_id":"4","last_reported":1704650923,"current_range_meters":14000,"station_id":"ce4bhq92rcd13ifvqhjg","pricing_plan_id":"free"},{"bike_id":"6ea575bd-d1a5-48a2-b9f6-fc299a42d9be","system_id":"levelo_inurba_marseille","lat":43.284793,"lon":5.384113,"is_reserved":false,"is_disabled":false,"rental_uris":{"android":"levelo://app?vid=6ea575bd-d1a5-48a2-b9f6-fc299a42d9be","ios":"levelo://app?vid=6ea575bd-d1a5-48a2-b9f6-fc299a42d9be"},"vehicle_type_id":"4","last_reported":1704650923,"current_range_meters":7200,"station_id":"ce4bh512rcd13ifvqe3g","pricing_plan_id":"free"},{"bike_id":"3b282e90-40e4-49d5-b20c-0f62461394f6","system_id":"levelo_inurba_marseille","lat":43.284793,"lon":5.384113,"is_reserved":false,"is_disabled":false,"rental_uris":{"android":"levelo://app?vid=3b282e90-40e4-49d5-b20c-0f62461394f6","ios":"levelo://app?vid=3b282e90-40e4-49d5-b20c-0f62461394f6"},"vehicle_type_id":"4","last_reported":1704650923,"current_range_meters":18000,"station_id":"ce4bh512rcd13ifvqe3g","pricing_plan_id":"free"},{"bike_id":"8bb25e95-8096-4724-b8b0-ea9f1fa2f7bc","system_id":"levelo_inurba_marseille","lat":43.288501,"lon":5.393087,"is_reserved":false,"is_disabled":false,"rental_uris":{"android":"levelo://app?vid=8bb25e95-8096-4724-b8b0-ea9f1fa2f7bc","ios":"levelo://app?vid=8bb25e95-8096-4724-b8b0-ea9f1fa2f7bc"},"vehicle_type_id":"4","last_reported":1704650923,"current_range_meters":24400,"station_id":"ce4bh2p2rcd13ifvqdi0","pricing_plan_id":"free"},{"bike_id":"b027da95-6912-4380-a313-a08050a60e03","system_id":"levelo_inurba_marseille","lat":43.288501,"lon":5.393087,"is_reserved":false,"is_disabled":false,"rental_uris":{"android":"levelo://app?vid=b027da95-6912-4380-a313-a08050a60e03","ios":"levelo://app?vid=b027da95-6912-4380-a313-a08050a60e03"},"vehicle_type_id":"4","last_reported":1704650923,"current_range_meters":23200,"station_id":"ce4bh2p2rcd13ifvqdi0","pricing_plan_id":"free"},{"bike_id":"4714bef9-5f38-4c26-b888-7b40cc11f281","system_id":"levelo_inurba_marseille","lat":43.284286,"lon":5.349926,"is_reserved":false,"is_disabled":false,"rental_uris":{"android":"levelo://app?vid=4714bef9-5f38-4c26-b888-7b40cc11f281","ios":"levelo://app?vid=4714bef9-5f38-4c26-b888-7b40cc11f281"},"vehicle_type_id":"4","last_reported":1704650923,"current_range_meters":31200,"station_id":"ce4bhbh2rcd13ifvqepg","pricing_plan_id":"free"},{"bike_id":"9d0a329e-7926-423a-8004-1e619b4bdcb6","system_id":"levelo_inurba_marseille","lat":43.284278,"lon":5.349927,"is_reserved":false,"is_disabled":false,"rental_uris":{"android":"levelo://app?vid=9d0a329e-7926-423a-8004-1e619b4bdcb6","ios":"levelo://app?vid=9d0a329e-7926-423a-8004-1e619b4bdcb6"},"vehicle_type_id":"4","last_reported":1704650923,"current_range_meters":17200,"station_id":"ce4bhbh2rcd13ifvqepg","pricing_plan_id":"free"},{"bike_id":"74c757a3-57f5-43bc-9cbd-c0caf045d565","system_id":"levelo_inurba_marseille","lat":43.284219,"lon":5.3497,"is_reserved":false,"is_disabled":false,"rental_uris":{"android":"levelo://app?vid=74c757a3-57f5-43bc-9cbd-c0caf045d565","ios":"levelo://app?vid=74c757a3-57f5-43bc-9cbd-c0caf045d565"},"vehicle_type_id":"4","last_reported":1704650923,"current_range_meters":24800,"station_id":"ce4bhbh2rcd13ifvqepg","pricing_plan_id":"free"},{"bike_id":"6a1e180d-f929-4d8f-8941-3479abb7bbca","system_id":"levelo_inurba_marseille","lat":43.28426,"lon":5.34988,"is_reserved":false,"is_disabled":false,"rental_uris":{"android":"levelo://app?vid=6a1e180d-f929-4d8f-8941-3479abb7bbca","ios":"levelo://app?vid=6a1e180d-f929-4d8f-8941-3479abb7bbca"},"vehicle_type_id":"4","last_reported":1704650923,"current_range_meters":31200,"station_id":"ce4bhbh2rcd13ifvqepg","pricing_plan_id":"free"},{"bike_id":"5ca77a76-ab50-4e73-b9bd-7fc47fded293","system_id":"levelo_inurba_marseille","lat":43.284222,"lon":5.349933,"is_reserved":false,"is_disabled":false,"rental_uris":{"android":"levelo://app?vid=5ca77a76-ab50-4e73-b9bd-7fc47fded293","ios":"levelo://app?vid=5ca77a76-ab50-4e73-b9bd-7fc47fded293"},"vehicle_type_id":"4","last_reported":1704650923,"current_range_meters":14400,"station_id":"ce4bhbh2rcd13ifvqepg","pricing_plan_id":"free"},{"bike_id":"9329076a-0d3e-4112-be77-66dd924dd8e2","system_id":"levelo_inurba_marseille","lat":43.284204,"lon":5.34996,"is_reserved":false,"is_disabled":false,"rental_uris":{"android":"levelo://app?vid=9329076a-0d3e-4112-be77-66dd924dd8e2","ios":"levelo://app?vid=9329076a-0d3e-4112-be77-66dd924dd8e2"},"vehicle_type_id":"4","last_reported":1704650923,"current_range_meters":28400,"station_id":"ce4bhbh2rcd13ifvqepg","pricing_plan_id":"free"},{"bike_id":"9117797d-3df0-46d0-9e5c-883fbec69ea3","system_id":"levelo_inurba_marseille","lat":43.28421,"lon":5.34991,"is_reserved":false,"is_disabled":false,"rental_uris":{"android":"levelo://app?vid=9117797d-3df0-46d0-9e5c-883fbec69ea3","ios":"levelo://app?vid=9117797d-3df0-46d0-9e5c-883fbec69ea3"},"vehicle_type_id":"4","last_reported":1704650923,"current_range_meters":31200,"station_id":"ce4bhbh2rcd13ifvqepg","pricing_plan_id":"free"},{"bike_id":"fabe0504-9122-43de-9f4b-69221269fdb6","system_id":"levelo_inurba_marseille","lat":43.292724,"lon":5.401131,"is_reserved":false,"is_disabled":false,"rental_uris":{"android":"levelo://app?vid=fabe0504-9122-43de-9f4b-69221269fdb6","ios":"levelo://app?vid=fabe0504-9122-43de-9f4b-69221269fdb6"},"vehicle_type_id":"4","last_reported":1704650923,"current_range_meters":20000,"station_id":"ce4bh312rcd13ifvqdk0","pricing_plan_id":"free"},{"bike_id":"09194f40-338c-48e7-984a-f79a54720ed6","system_id":"levelo_inurba_marseille","lat":43.282744,"lon":5.350533,"is_reserved":false,"is_disabled":false,"rental_uris":{"android":"levelo://app?vid=09194f40-338c-48e7-984a-f79a54720ed6","ios":"levelo://app?vid=09194f40-338c-48e7-984a-f79a54720ed6"},"vehicle_type_id":"4","last_reported":1704650923,"current_range_meters":22000,"station_id":"ce4bhbp2rcd13ifvqerg","pricing_plan_id":"free"},{"bike_id":"4b847a8b-7e64-4c63-8715-4737c7f632cb","system_id":"levelo_inurba_marseille","lat":43.28371,"lon":5.38633,"is_reserved":false,"is_disabled":false,"rental_uris":{"android":"levelo://app?vid=4b847a8b-7e64-4c63-8715-4737c7f632cb","ios":"levelo://app?vid=4b847a8b-7e64-4c63-8715-4737c7f632cb"},"vehicle_type_id":"4","last_reported":1704650923,"current_range_meters":0,"station_id":"ce4bh492rcd13ifvqdvg","pricing_plan_id":"free"},{"bike_id":"6e440d5a-3eb6-4e95-a4ec-e38d70d33a34","system_id":"levelo_inurba_marseille","lat":43.282754,"lon":5.350519,"is_reserved":false,"is_disabled":false,"rental_uris":{"android":"levelo://app?vid=6e440d5a-3eb6-4e95-a4ec-e38d70d33a34","ios":"levelo://app?vid=6e440d5a-3eb6-4e95-a4ec-e38d70d33a34"},"vehicle_type_id":"4","last_reported":1704650923,"current_range_meters":19600,"station_id":"ce4bhbp2rcd13ifvqerg","pricing_plan_id":"free"},{"bike_id":"258f56c3-bf0f-4c75-acf7-b482235e4cba","system_id":"levelo_inurba_marseille","lat":43.283502,"lon":5.386471,"is_reserved":false,"is_disabled":false,"rental_uris":{"android":"levelo://app?vid=258f56c3-bf0f-4c75-acf7-b482235e4cba","ios":"levelo://app?vid=258f56c3-bf0f-4c75-acf7-b482235e4cba"},"vehicle_type_id":"4","last_reported":1704650923,"current_range_meters":10400,"station_id":"ce4bh492rcd13ifvqdvg","pricing_plan_id":"free"},{"bike_id":"c14ac830-cf17-4704-bf76-4f4813059a2d","system_id":"levelo_inurba_marseille","lat":43.281044,"lon":5.378308,"is_reserved":false,"is_disabled":false,"rental_uris":{"android":"levelo://app?vid=c14ac830-cf17-4704-bf76-4f4813059a2d","ios":"levelo://app?vid=c14ac830-cf17-4704-bf76-4f4813059a2d"},"vehicle_type_id":"4","last_reported":1704650923,"current_range_meters":26000,"station_id":"ce4bha12rcd13ifvqee0","pricing_plan_id":"free"},{"bike_id":"448eb62d-da74-4b2d-86aa-406a138a080c","system_id":"levelo_inurba_marseille","lat":43.296263,"lon":5.40601,"is_reserved":false,"is_disabled":false,"rental_uris":{"android":"levelo://app?vid=448eb62d-da74-4b2d-86aa-406a138a080c","ios":"levelo://app?vid=448eb62d-da74-4b2d-86aa-406a138a080c"},"vehicle_type_id":"4","last_reported":1704650923,"current_range_meters":19600,"station_id":"ce4bh0h2rcd13ifvqd60","pricing_plan_id":"free"},{"bike_id":"e770b47a-81da-4ce0-b26a-1c64a0c21704","system_id":"levelo_inurba_marseille","lat":43.290412,"lon":5.399633,"is_reserved":false,"is_disabled":false,"rental_uris":{"android":"levelo://app?vid=e770b47a-81da-4ce0-b26a-1c64a0c21704","ios":"levelo://app?vid=e770b47a-81da-4ce0-b26a-1c64a0c21704"},"vehicle_type_id":"4","last_reported":1704650923,"current_range_meters":21600,"station_id":"ce4bh392rcd13ifvqdm0","pricing_plan_id":"free"},{"bike_id":"55bf4767-28f6-4bd8-bf77-c6232720d590","system_id":"levelo_inurba_marseille","lat":43.281044,"lon":5.378308,"is_reserved":false,"is_disabled":false,"rental_uris":{"android":"levelo://app?vid=55bf4767-28f6-4bd8-bf77-c6232720d590","ios":"levelo://app?vid=55bf4767-28f6-4bd8-bf77-c6232720d590"},"vehicle_type_id":"4","last_reported":1704650923,"current_range_meters":14000,"station_id":"ce4bha12rcd13ifvqee0","pricing_plan_id":"free"},{"bike_id":"eaa90fd2-2ea4-4b85-a6cc-d985d51986cd","system_id":"levelo_inurba_marseille","lat":43.284462,"lon":5.392121,"is_reserved":false,"is_disabled":false,"rental_uris":{"android":"levelo://app?vid=eaa90fd2-2ea4-4b85-a6cc-d985d51986cd","ios":"levelo://app?vid=eaa90fd2-2ea4-4b85-a6cc-d985d51986cd"},"vehicle_type_id":"4","last_reported":1704650923,"current_range_meters":22400,"station_id":"ce4bhoh2rcd13ifvqh5g","pricing_plan_id":"free"},{"bike_id":"ab2673a0-6b00-4f51-bbb7-19b917438b10","system_id":"levelo_inurba_marseille","lat":43.284462,"lon":5.392121,"is_reserved":false,"is_disabled":false,"rental_uris":{"android":"levelo://app?vid=ab2673a0-6b00-4f51-bbb7-19b917438b10","ios":"levelo://app?vid=ab2673a0-6b00-4f51-bbb7-19b917438b10"},"vehicle_type_id":"4","last_reported":1704650923,"current_range_meters":18000,"station_id":"ce4bhoh2rcd13ifvqh5g","pricing_plan_id":"free"},{"bike_id":"56ec1b34-f0ea-4795-bc2e-a865c3c8660d","system_id":"levelo_inurba_marseille","lat":43.284462,"lon":5.392121,"is_reserved":false,"is_disabled":false,"rental_uris":{"android":"levelo://app?vid=56ec1b34-f0ea-4795-bc2e-a865c3c8660d","ios":"levelo://app?vid=56ec1b34-f0ea-4795-bc2e-a865c3c8660d"},"vehicle_type_id":"4","last_reported":1704650923,"current_range_meters":21200,"station_id":"ce4bhoh2rcd13ifvqh5g","pricing_plan_id":"free"},{"bike_id":"51318296-8206-4c3a-bf8d-f49caa4d5cfa","system_id":"levelo_inurba_marseille","lat":43.285742,"lon":5.395004,"is_reserved":false,"is_disabled":false,"rental_uris":{"android":"levelo://app?vid=51318296-8206-4c3a-bf8d-f49caa4d5cfa","ios":"levelo://app?vid=51318296-8206-4c3a-bf8d-f49caa4d5cfa"},"vehicle_type_id":"4","last_reported":1704650923,"current_range_meters":13600,"station_id":"ce4bh292rcd13ifvqdg0","pricing_plan_id":"free"},{"bike_id":"3c20101a-5c5e-4d73-9bb0-309dd553784f","system_id":"levelo_inurba_marseille","lat":43.28573,"lon":5.394992,"is_reserved":false,"is_disabled":false,"rental_uris":{"android":"levelo://app?vid=3c20101a-5c5e-4d73-9bb0-309dd553784f","ios":"levelo://app?vid=3c20101a-5c5e-4d73-9bb0-309dd553784f"},"vehicle_type_id":"4","last_reported":1704650923,"current_range_meters":22800,"station_id":"ce4bh292rcd13ifvqdg0","pricing_plan_id":"free"},{"bike_id":"86cb403d-6696-4a42-a005-226f225aee3b","system_id":"levelo_inurba_marseille","lat":43.28573,"lon":5.394992,"is_reserved":false,"is_disabled":false,"rental_uris":{"android":"levelo://app?vid=86cb403d-6696-4a42-a005-226f225aee3b","ios":"levelo://app?vid=86cb403d-6696-4a42-a005-226f225aee3b"},"vehicle_type_id":"4","last_reported":1704650923,"current_range_meters":0,"station_id":"ce4bh292rcd13ifvqdg0","pricing_plan_id":"free"},{"bike_id":"a0d20dd8-a3b3-4fa3-a6e9-2896226abf35","system_id":"levelo_inurba_marseille","lat":43.3266,"lon":5.40987,"is_reserved":false,"is_disabled":false,"rental_uris":{"android":"levelo://app?vid=a0d20dd8-a3b3-4fa3-a6e9-2896226abf35","ios":"levelo://app?vid=a0d20dd8-a3b3-4fa3-a6e9-2896226abf35"},"vehicle_type_id":"4","last_reported":1704650923,"current_range_meters":6400,"station_id":"","pricing_plan_id":"free"},{"bike_id":"5a738bd9-dc0f-452a-9a31-4033b8244259","system_id":"levelo_inurba_marseille","lat":43.304188,"lon":5.412904,"is_reserved":false,"is_disabled":false,"rental_uris":{"android":"levelo://app?vid=5a738bd9-dc0f-452a-9a31-4033b8244259","ios":"levelo://app?vid=5a738bd9-dc0f-452a-9a31-4033b8244259"},"vehicle_type_id":"4","last_reported":1704650923,"current_range_meters":23200,"station_id":"ce4bhop2rcd13ifvqh8g","pricing_plan_id":"free"},{"bike_id":"c2867a31-c33a-4a63-a295-f27318ea481d","system_id":"levelo_inurba_marseille","lat":43.287154,"lon":5.399979,"is_reserved":false,"is_disabled":false,"rental_uris":{"android":"levelo://app?vid=c2867a31-c33a-4a63-a295-f27318ea481d","ios":"levelo://app?vid=c2867a31-c33a-4a63-a295-f27318ea481d"},"vehicle_type_id":"4","last_reported":1704650923,"current_range_meters":13600,"station_id":"ce4bho92rcd13ifvqh3g","pricing_plan_id":"free"},{"bike_id":"e8d48184-9222-4a95-9cb3-42bb93355b33","system_id":"levelo_inurba_marseille","lat":43.292569,"lon":5.409107,"is_reserved":false,"is_disabled":false,"rental_uris":{"android":"levelo://app?vid=e8d48184-9222-4a95-9cb3-42bb93355b33","ios":"levelo://app?vid=e8d48184-9222-4a95-9cb3-42bb93355b33"},"vehicle_type_id":"4","last_reported":1704650923,"current_range_meters":12000,"station_id":"ce4bh192rcd13ifvqdc0","pricing_plan_id":"free"},{"bike_id":"11785d7f-298d-4fe4-bef4-9aa22a4db212","system_id":"levelo_inurba_marseille","lat":43.292571,"lon":5.409107,"is_reserved":false,"is_disabled":false,"rental_uris":{"android":"levelo://app?vid=11785d7f-298d-4fe4-bef4-9aa22a4db212","ios":"levelo://app?vid=11785d7f-298d-4fe4-bef4-9aa22a4db212"},"vehicle_type_id":"4","last_reported":1704650923,"current_range_meters":18400,"station_id":"ce4bh192rcd13ifvqdc0","pricing_plan_id":"free"},{"bike_id":"d7cbb38a-8dfc-4662-bc5c-dddee84c05ae","system_id":"levelo_inurba_marseille","lat":43.292569,"lon":5.409107,"is_reserved":false,"is_disabled":false,"rental_uris":{"android":"levelo://app?vid=d7cbb38a-8dfc-4662-bc5c-dddee84c05ae","ios":"levelo://app?vid=d7cbb38a-8dfc-4662-bc5c-dddee84c05ae"},"vehicle_type_id":"4","last_reported":1704650923,"current_range_meters":22000,"station_id":"ce4bh192rcd13ifvqdc0","pricing_plan_id":"free"},{"bike_id":"523863fa-e6fa-4b14-8884-602c332d5c4d","system_id":"levelo_inurba_marseille","lat":43.27618,"lon":5.361009,"is_reserved":false,"is_disabled":false,"rental_uris":{"android":"levelo://app?vid=523863fa-e6fa-4b14-8884-602c332d5c4d","ios":"levelo://app?vid=523863fa-e6fa-4b14-8884-602c332d5c4d"},"vehicle_type_id":"4","last_reported":1704650923,"current_range_meters":29600,"station_id":"ce4bgj92rcd13ifvqbe0","pricing_plan_id":"free"},{"bike_id":"17322b9d-f7b4-4df3-8d2b-b8cefe8acb8d","system_id":"levelo_inurba_marseille","lat":43.27618,"lon":5.361009,"is_reserved":false,"is_disabled":false,"rental_uris":{"android":"levelo://app?vid=17322b9d-f7b4-4df3-8d2b-b8cefe8acb8d","ios":"levelo://app?vid=17322b9d-f7b4-4df3-8d2b-b8cefe8acb8d"},"vehicle_type_id":"4","last_reported":1704650923,"current_range_meters":13200,"station_id":"ce4bgj92rcd13ifvqbe0","pricing_plan_id":"free"},{"bike_id":"72a5756a-b282-4368-a100-de977146136c","system_id":"levelo_inurba_marseille","lat":43.276179,"lon":5.361009,"is_reserved":false,"is_disabled":false,"rental_uris":{"android":"levelo://app?vid=72a5756a-b282-4368-a100-de977146136c","ios":"levelo://app?vid=72a5756a-b282-4368-a100-de977146136c"},"vehicle_type_id":"4","last_reported":1704650923,"current_range_meters":30000,"station_id":"ce4bgj92rcd13ifvqbe0","pricing_plan_id":"free"},{"bike_id":"6839e748-dc98-4408-8bd8-32786d880019","system_id":"levelo_inurba_marseille","lat":43.280755,"lon":5.39657,"is_reserved":false,"is_disabled":false,"rental_uris":{"android":"levelo://app?vid=6839e748-dc98-4408-8bd8-32786d880019","ios":"levelo://app?vid=6839e748-dc98-4408-8bd8-32786d880019"},"vehicle_type_id":"4","last_reported":1704650923,"current_range_meters":13600,"station_id":"","pricing_plan_id":"free"},{"bike_id":"fba911de-24ed-44b3-9638-3159465196b8","system_id":"levelo_inurba_marseille","lat":43.303837,"lon":5.418724,"is_reserved":false,"is_disabled":false,"rental_uris":{"android":"levelo://app?vid=fba911de-24ed-44b3-9638-3159465196b8","ios":"levelo://app?vid=fba911de-24ed-44b3-9638-3159465196b8"},"vehicle_type_id":"4","last_reported":1704650923,"current_range_meters":31600,"station_id":"ce4bhop2rcd13ifvqh7g","pricing_plan_id":"free"},{"bike_id":"9d5095a4-b951-4636-9005-60267ecaf2d3","system_id":"levelo_inurba_marseille","lat":43.303837,"lon":5.418724,"is_reserved":false,"is_disabled":false,"rental_uris":{"android":"levelo://app?vid=9d5095a4-b951-4636-9005-60267ecaf2d3","ios":"levelo://app?vid=9d5095a4-b951-4636-9005-60267ecaf2d3"},"vehicle_type_id":"4","last_reported":1704650923,"current_range_meters":27200,"station_id":"ce4bhop2rcd13ifvqh7g","pricing_plan_id":"free"},{"bike_id":"5231e673-a2ef-4dea-9bc1-cba40dff5c04","system_id":"levelo_inurba_marseille","lat":43.278401,"lon":5.392152,"is_reserved":false,"is_disabled":false,"rental_uris":{"android":"levelo://app?vid=5231e673-a2ef-4dea-9bc1-cba40dff5c04","ios":"levelo://app?vid=5231e673-a2ef-4dea-9bc1-cba40dff5c04"},"vehicle_type_id":"4","last_reported":1704650923,"current_range_meters":28800,"station_id":"ce4bhjp2rcd13ifvqga0","pricing_plan_id":"free"},{"bike_id":"9790b669-5315-4c5b-a304-dd8190dab293","system_id":"levelo_inurba_marseille","lat":43.278401,"lon":5.392152,"is_reserved":false,"is_disabled":false,"rental_uris":{"android":"levelo://app?vid=9790b669-5315-4c5b-a304-dd8190dab293","ios":"levelo://app?vid=9790b669-5315-4c5b-a304-dd8190dab293"},"vehicle_type_id":"4","last_reported":1704650923,"current_range_meters":16400,"station_id":"ce4bhjp2rcd13ifvqga0","pricing_plan_id":"free"},{"bike_id":"594a030d-9f54-4fda-ad9e-bbb4a20b5f62","system_id":"levelo_inurba_marseille","lat":43.336148,"lon":5.410349,"is_reserved":false,"is_disabled":false,"rental_uris":{"android":"levelo://app?vid=594a030d-9f54-4fda-ad9e-bbb4a20b5f62","ios":"levelo://app?vid=594a030d-9f54-4fda-ad9e-bbb4a20b5f62"},"vehicle_type_id":"4","last_reported":1704650923,"current_range_meters":29200,"station_id":"ce4bhqh2rcd13ifvqhmg","pricing_plan_id":"free"},{"bike_id":"0b0f6566-d4fc-4c82-baa8-5cb00e20fd25","system_id":"levelo_inurba_marseille","lat":43.275625,"lon":5.384392,"is_reserved":false,"is_disabled":false,"rental_uris":{"android":"levelo://app?vid=0b0f6566-d4fc-4c82-baa8-5cb00e20fd25","ios":"levelo://app?vid=0b0f6566-d4fc-4c82-baa8-5cb00e20fd25"},"vehicle_type_id":"4","last_reported":1704650923,"current_range_meters":20400,"station_id":"ce4bhh92rcd13ifvqfi0","pricing_plan_id":"free"},{"bike_id":"c7a633b5-c4af-4c4b-89ca-f9e06db5e9e8","system_id":"levelo_inurba_marseille","lat":43.336134,"lon":5.410341,"is_reserved":false,"is_disabled":false,"rental_uris":{"android":"levelo://app?vid=c7a633b5-c4af-4c4b-89ca-f9e06db5e9e8","ios":"levelo://app?vid=c7a633b5-c4af-4c4b-89ca-f9e06db5e9e8"},"vehicle_type_id":"4","last_reported":1704650923,"current_range_meters":27600,"station_id":"ce4bhqh2rcd13ifvqhmg","pricing_plan_id":"free"},{"bike_id":"b64097b7-cafd-40c8-9192-664316f67849","system_id":"levelo_inurba_marseille","lat":43.317121,"lon":5.423936,"is_reserved":false,"is_disabled":false,"rental_uris":{"android":"levelo://app?vid=b64097b7-cafd-40c8-9192-664316f67849","ios":"levelo://app?vid=b64097b7-cafd-40c8-9192-664316f67849"},"vehicle_type_id":"4","last_reported":1704650923,"current_range_meters":26800,"station_id":"ce4bhp92rcd13ifvqhbg","pricing_plan_id":"free"},{"bike_id":"4d4e406f-b1e6-4f20-884f-ad2fc27ab912","system_id":"levelo_inurba_marseille","lat":43.317121,"lon":5.423936,"is_reserved":false,"is_disabled":false,"rental_uris":{"android":"levelo://app?vid=4d4e406f-b1e6-4f20-884f-ad2fc27ab912","ios":"levelo://app?vid=4d4e406f-b1e6-4f20-884f-ad2fc27ab912"},"vehicle_type_id":"4","last_reported":1704650923,"current_range_meters":4800,"station_id":"ce4bhp92rcd13ifvqhbg","pricing_plan_id":"free"},{"bike_id":"19e8c19f-11ce-4729-92bc-b992643ea336","system_id":"levelo_inurba_marseille","lat":43.340804,"lon":5.410219,"is_reserved":false,"is_disabled":false,"rental_uris":{"android":"levelo://app?vid=19e8c19f-11ce-4729-92bc-b992643ea336","ios":"levelo://app?vid=19e8c19f-11ce-4729-92bc-b992643ea336"},"vehicle_type_id":"4","last_reported":1704650923,"current_range_meters":30000,"station_id":"ce4bhqh2rcd13ifvqhlg","pricing_plan_id":"free"},{"bike_id":"461657c9-e33a-46b1-991e-8729539ba8aa","system_id":"levelo_inurba_marseille","lat":43.341438,"lon":5.409065,"is_reserved":false,"is_disabled":false,"rental_uris":{"android":"levelo://app?vid=461657c9-e33a-46b1-991e-8729539ba8aa","ios":"levelo://app?vid=461657c9-e33a-46b1-991e-8729539ba8aa"},"vehicle_type_id":"4","last_reported":1704650923,"current_range_meters":11200,"station_id":"","pricing_plan_id":"free"},{"bike_id":"20699dd4-7c9a-46a4-a1a1-34f78c61192f","system_id":"levelo_inurba_marseille","lat":43.274099,"lon":5.394019,"is_reserved":false,"is_disabled":false,"rental_uris":{"android":"levelo://app?vid=20699dd4-7c9a-46a4-a1a1-34f78c61192f","ios":"levelo://app?vid=20699dd4-7c9a-46a4-a1a1-34f78c61192f"},"vehicle_type_id":"4","last_reported":1704650923,"current_range_meters":13200,"station_id":"ce4bhdp2rcd13ifvqf20","pricing_plan_id":"free"},{"bike_id":"b8140412-0c61-4cab-ac86-9472d68608ab","system_id":"levelo_inurba_marseille","lat":43.304096,"lon":5.425385,"is_reserved":false,"is_disabled":false,"rental_uris":{"android":"levelo://app?vid=b8140412-0c61-4cab-ac86-9472d68608ab","ios":"levelo://app?vid=b8140412-0c61-4cab-ac86-9472d68608ab"},"vehicle_type_id":"4","last_reported":1704650923,"current_range_meters":14800,"station_id":"ce4bhoh2rcd13ifvqh6g","pricing_plan_id":"free"},{"bike_id":"81a23135-3941-416d-ab43-83471a99c15c","system_id":"levelo_inurba_marseille","lat":43.304096,"lon":5.425385,"is_reserved":false,"is_disabled":false,"rental_uris":{"android":"levelo://app?vid=81a23135-3941-416d-ab43-83471a99c15c","ios":"levelo://app?vid=81a23135-3941-416d-ab43-83471a99c15c"},"vehicle_type_id":"4","last_reported":1704650923,"current_range_meters":26000,"station_id":"ce4bhoh2rcd13ifvqh6g","pricing_plan_id":"free"},{"bike_id":"7a41f29a-db12-4983-af35-9821b88287e4","system_id":"levelo_inurba_marseille","lat":43.304096,"lon":5.425385,"is_reserved":false,"is_disabled":false,"rental_uris":{"android":"levelo://app?vid=7a41f29a-db12-4983-af35-9821b88287e4","ios":"levelo://app?vid=7a41f29a-db12-4983-af35-9821b88287e4"},"vehicle_type_id":"4","last_reported":1704650923,"current_range_meters":31200,"station_id":"ce4bhoh2rcd13ifvqh6g","pricing_plan_id":"free"},{"bike_id":"faa71789-d447-4d81-9df5-1c4b0d588e51","system_id":"levelo_inurba_marseille","lat":43.304096,"lon":5.425385,"is_reserved":false,"is_disabled":false,"rental_uris":{"android":"levelo://app?vid=faa71789-d447-4d81-9df5-1c4b0d588e51","ios":"levelo://app?vid=faa71789-d447-4d81-9df5-1c4b0d588e51"},"vehicle_type_id":"4","last_reported":1704650923,"current_range_meters":8000,"station_id":"ce4bhoh2rcd13ifvqh6g","pricing_plan_id":"free"},{"bike_id":"287d1458-a279-4139-94f8-da980c4a9cdb","system_id":"levelo_inurba_marseille","lat":43.30415,"lon":5.42544,"is_reserved":false,"is_disabled":false,"rental_uris":{"android":"levelo://app?vid=287d1458-a279-4139-94f8-da980c4a9cdb","ios":"levelo://app?vid=287d1458-a279-4139-94f8-da980c4a9cdb"},"vehicle_type_id":"4","last_reported":1704650923,"current_range_meters":31200,"station_id":"ce4bhoh2rcd13ifvqh6g","pricing_plan_id":"free"},{"bike_id":"fe589162-f93b-484a-bd31-393bd54cbc2f","system_id":"levelo_inurba_marseille","lat":43.304096,"lon":5.425385,"is_reserved":false,"is_disabled":false,"rental_uris":{"android":"levelo://app?vid=fe589162-f93b-484a-bd31-393bd54cbc2f","ios":"levelo://app?vid=fe589162-f93b-484a-bd31-393bd54cbc2f"},"vehicle_type_id":"4","last_reported":1704650923,"current_range_meters":21200,"station_id":"ce4bhoh2rcd13ifvqh6g","pricing_plan_id":"free"},{"bike_id":"270b80df-71a9-494c-aeb9-e3859dc7d43f","system_id":"levelo_inurba_marseille","lat":43.304096,"lon":5.425385,"is_reserved":false,"is_disabled":false,"rental_uris":{"android":"levelo://app?vid=270b80df-71a9-494c-aeb9-e3859dc7d43f","ios":"levelo://app?vid=270b80df-71a9-494c-aeb9-e3859dc7d43f"},"vehicle_type_id":"4","last_reported":1704650923,"current_range_meters":30400,"station_id":"ce4bhoh2rcd13ifvqh6g","pricing_plan_id":"free"},{"bike_id":"e7cbbbff-b9d7-4c64-89bd-140b0f668fbf","system_id":"levelo_inurba_marseille","lat":43.294933,"lon":5.422425,"is_reserved":false,"is_disabled":false,"rental_uris":{"android":"levelo://app?vid=e7cbbbff-b9d7-4c64-89bd-140b0f668fbf","ios":"levelo://app?vid=e7cbbbff-b9d7-4c64-89bd-140b0f668fbf"},"vehicle_type_id":"4","last_reported":1704650923,"current_range_meters":21200,"station_id":"","pricing_plan_id":"free"},{"bike_id":"0b428910-d016-4361-a886-4844f3d45691","system_id":"levelo_inurba_marseille","lat":43.29552,"lon":5.422847,"is_reserved":false,"is_disabled":false,"rental_uris":{"android":"levelo://app?vid=0b428910-d016-4361-a886-4844f3d45691","ios":"levelo://app?vid=0b428910-d016-4361-a886-4844f3d45691"},"vehicle_type_id":"4","last_reported":1704650923,"current_range_meters":26000,"station_id":"ce4bhph2rcd13ifvqhdg","pricing_plan_id":"free"},{"bike_id":"82529683-b70c-458a-bc97-a342b2d34b55","system_id":"levelo_inurba_marseille","lat":43.295523,"lon":5.422926,"is_reserved":false,"is_disabled":false,"rental_uris":{"android":"levelo://app?vid=82529683-b70c-458a-bc97-a342b2d34b55","ios":"levelo://app?vid=82529683-b70c-458a-bc97-a342b2d34b55"},"vehicle_type_id":"4","last_reported":1704650923,"current_range_meters":28400,"station_id":"ce4bhph2rcd13ifvqhdg","pricing_plan_id":"free"},