{"last_updated":1686686826,"ttl":30,"version":"2.2","data":{"bikes":[{"bike_id":"a142fcc1-dd44-4e45-a4d3-f750f9811ffe","system_id":"levelo_inurba_marseille","lat":43.31219,"lon":5.36805,"is_reserved":false,"is_disabled":false,"rental_uris":{"android":"levelo://app?vid=a142fcc1-dd44-4e45-a4d3-f750f9811ffe","ios":"levelo://app?vid=a142fcc1-dd44-4e45-a4d3-f750f9811ffe"},"vehicle_type_id":"4","last_reported":1686686827,"current_range_meters":11200,"station_id":"","pricing_plan_id":"free"},{"bike_id":"2236174f-9b48-4e77-bc47-17f9275c2cb6","system_id":"levelo_inurba_marseille","lat":43.309076,"lon":5.368465,"is_reserved":false,"is_disabled":false,"rental_uris":{"android":"levelo://app?vid=2236174f-9b48-4e77-bc47-17f9275c2cb6","ios":"levelo://app?vid=2236174f-9b48-4e77-bc47-17f9275c2cb6"},"vehicle_type_id":"4","last_reported":1686686827,"current_range_meters":800,"station_id":"ce4bgn92rcd13ifvqbvg","pricing_plan_id":"free"},{"bike_id":"5bf8b6b5-e4a6-4e54-9f23-7a2e4632bdfa","system_id":"levelo_inurba_marseille","lat":43.309076,"lon":5.368465,"is_reserved":false,"is_disabled":false,"rental_uris":{"android":"levelo://app?vid=5bf8b6b5-e4a6-4e54-9f23-7a2e4632bdfa","ios":"levelo://app?vid=5bf8b6b5-e4a6-4e54-9f23-7a2e4632bdfa"},"vehicle_type_id":"4","last_reported":1686686827,"current_range_meters":30800,"station_id":"ce4bgn92rcd13ifvqbvg","pricing_plan_id":"free"},{"bike_id":"d3f4d128-e3e0-42f3-90d4-976936865e13","system_id":"levelo_inurba_marseille","lat":43.31718,"lon":5.36783,"is_reserved":false,"is_disabled":false,"rental_uris":{"android":"levelo://app?vid=d3f4d128-e3e0-42f3-90d4-976936865e13","ios":"levelo://app?vid=d3f4d128-e3e0-42f3-90d4-976936865e13"},"vehicle_type_id":"4","last_reported":1686686827,"current_range_meters":8000,"station_id":"","pricing_plan_id":"free"},{"bike_id":"1909005c-dd54-42f6-9507-e15af31b0f6f","system_id":"levelo_inurba_marseille","lat":43.308606,"lon":5.372099,"is_reserved":false,"is_disabled":false,"rental_uris":{"android":"levelo://app?vid=1909005c-dd54-42f6-9507-e15af31b0f6f","ios":"levelo://app?vid=1909005c-dd54-42f6-9507-e15af31b0f6f"},"vehicle_type_id":"4","last_reported":1686686827,"current_range_meters":4000,"station_id":"ce4bguh2rcd13ifvqckg","pricing_plan_id":"free"},{"bike_id":"c467708f-edb2-41e1-9886-5f26b940ab77","system_id":"levelo_inurba_marseille","lat":43.31687,"lon":5.37217,"is_reserved":false,"is_disabled":false,"rental_uris":{"android":"levelo://app?vid=c467708f-edb2-41e1-9886-5f26b940ab77","ios":"levelo://app?vid=c467708f-edb2-41e1-9886-5f26b940ab77"},"vehicle_type_id":"4","last_reported":1686686827,"current_range_meters":24800,"station_id":"","pricing_plan_id":"free"},{"bike_id":"b81f946f-64cf-4e0b-baa9-17ca19b957cb","system_id":"levelo_inurba_marseille","lat":43.30812,"lon":5.3717,"is_reserved":false,"is_disabled":false,"rental_uris":{"android":"levelo://app?vid=b81f946f-64cf-4e0b-baa9-17ca19b957cb","ios":"levelo://app?vid=b81f946f-64cf-4e0b-baa9-17ca19b957cb"},"vehicle_type_id":"4","last_reported":1686686827,"current_range_meters":20400,"station_id":"","pricing_plan_id":"free"},{"bike_id":"76f5681c-8d7c-4b1e-812c-d50673a300b9","system_id":"levelo_inurba_marseille","lat":43.305368,"lon":5.367343,"is_reserved":false,"is_disabled":false,"rental_uris":{"android":"levelo://app?vid=76f5681c-8d7c-4b1e-812c-d50673a300b9","ios":"levelo://app?vid=76f5681c-8d7c-4b1e-812c-d50673a300b9"},"vehicle_type_id":"4","last_reported":1686686827,"current_range_meters":25200,"station_id":"ce4bgrp2rcd13ifvqc9g","pricing_plan_id":"free"},{"bike_id":"24b5a833-fbb4-41ab-a944-eef5346c8c23","system_id":"levelo_inurba_marseille","lat":43.31761,"lon":5.37493,"is_reserved":false,"is_disabled":false,"rental_uris":{"android":"levelo://app?vid=24b5a833-fbb4-41ab-a944-eef5346c8c23","ios":"levelo://app?vid=24b5a833-fbb4-41ab-a944-eef5346c8c23"},"vehicle_type_id":"4","last_reported":1686686827,"current_range_meters":9200,"station_id":"","pricing_plan_id":"free"},{"bike_id":"25f01d42-b32d-4e3e-b724-9b0a55e82783","system_id":"levelo_inurba_marseille","lat":43.305989,"lon":5.37225,"is_reserved":false,"is_disabled":false,"rental_uris":{"android":"levelo://app?vid=25f01d42-b32d-4e3e-b724-9b0a55e82783","ios":"levelo://app?vid=25f01d42-b32d-4e3e-b724-9b0a55e82783"},"vehicle_type_id":"4","last_reported":1686686827,"current_range_meters":31200,"station_id":"ce4bgqh2rcd13ifvqc4g","pricing_plan_id":"free"},{"bike_id":"2424216c-0462-4ad0-b127-d0366c91b61c","system_id":"levelo_inurba_marseille","lat":43.317075,"lon":5.377367,"is_reserved":false,"is_disabled":false,"rental_uris":{"android":"levelo://app?vid=2424216c-0462-4ad0-b127-d0366c91b61c","ios":"levelo://app?vid=2424216c-0462-4ad0-b127-d0366c91b61c"},"vehicle_type_id":"4","last_reported":1686686827,"current_range_meters":30800,"station_id":"ce4bgth2rcd13ifvqch0","pricing_plan_id":"free"},{"bike_id":"4a754460-fadd-46aa-8025-e29151f697b6","system_id":"levelo_inurba_marseille","lat":43.317075,"lon":5.377367,"is_reserved":false,"is_disabled":false,"rental_uris":{"android":"levelo://app?vid=4a754460-fadd-46aa-8025-e29151f697b6","ios":"levelo://app?vid=4a754460-fadd-46aa-8025-e29151f697b6"},"vehicle_type_id":"4","last_reported":1686686827,"current_range_meters":31200,"station_id":"ce4bgth2rcd13ifvqch0","pricing_plan_id":"free"},{"bike_id":"ff78f526-10b8-468f-b250-f826397e5fbc","system_id":"levelo_inurba_marseille","lat":43.31875,"lon":5.37712,"is_reserved":false,"is_disabled":false,"rental_uris":{"android":"levelo://app?vid=ff78f526-10b8-468f-b250-f826397e5fbc","ios":"levelo://app?vid=ff78f526-10b8-468f-b250-f826397e5fbc"},"vehicle_type_id":"4","last_reported":1686686827,"current_range_meters":17600,"station_id":"","pricing_plan_id":"free"},{"bike_id":"09e2162d-8797-43ad-977d-8ed6ed96204e","system_id":"levelo_inurba_marseille","lat":43.303046,"lon":5.368981,"is_reserved":false,"is_disabled":false,"rental_uris":{"android":"levelo://app?vid=09e2162d-8797-43ad-977d-8ed6ed96204e","ios":"levelo://app?vid=09e2162d-8797-43ad-977d-8ed6ed96204e"},"vehicle_type_id":"4","last_reported":1686686827,"current_range_meters":16000,"station_id":"ce4bgqh2rcd13ifvqc5g","pricing_plan_id":"free"},{"bike_id":"0a717cde-1ac9-415c-b563-f704564cdf71","system_id":"levelo_inurba_marseille","lat":43.31542,"lon":5.38019,"is_reserved":false,"is_disabled":false,"rental_uris":{"android":"levelo://app?vid=0a717cde-1ac9-415c-b563-f704564cdf71","ios":"levelo://app?vid=0a717cde-1ac9-415c-b563-f704564cdf71"},"vehicle_type_id":"4","last_reported":1686686827,"current_range_meters":10800,"station_id":"ce4bhsp2rcd13ifvqi50","pricing_plan_id":"free"},{"bike_id":"f521cccb-0871-4033-a6dd-e1868aa86a17","system_id":"levelo_inurba_marseille","lat":43.315289,"lon":5.380349,"is_reserved":false,"is_disabled":false,"rental_uris":{"android":"levelo://app?vid=f521cccb-0871-4033-a6dd-e1868aa86a17","ios":"levelo://app?vid=f521cccb-0871-4033-a6dd-e1868aa86a17"},"vehicle_type_id":"4","last_reported":1686686827,"current_range_meters":12800,"station_id":"ce4bhsp2rcd13ifvqi50","pricing_plan_id":"free"},{"bike_id":"972b2c5b-48dd-48ee-92dd-a1511407ceb2","system_id":"levelo_inurba_marseille","lat":43.315289,"lon":5.380349,"is_reserved":false,"is_disabled":false,"rental_uris":{"android":"levelo://app?vid=972b2c5b-48dd-48ee-92dd-a1511407ceb2","ios":"levelo://app?vid=972b2c5b-48dd-48ee-92dd-a1511407ceb2"},"vehicle_type_id":"4","last_reported":1686686827,"current_range_meters":21200,"station_id":"ce4bhsp2rcd13ifvqi50","pricing_plan_id":"free"},{"bike_id":"d0caa287-3e21-4548-b965-509c24cb9293","system_id":"levelo_inurba_marseille","lat":43.315289,"lon":5.380349,"is_reserved":false,"is_disabled":false,"rental_uris":{"android":"levelo://app?vid=d0caa287-3e21-4548-b965-509c24cb9293","ios":"levelo://app?vid=d0caa287-3e21-4548-b965-509c24cb9293"},"vehicle_type_id":"4","last_reported":1686686827,"current_range_meters":4800,"station_id":"ce4bhsp2rcd13ifvqi50","pricing_plan_id":"free"},{"bike_id":"f6abd20f-e21b-4dbe-a6bc-709e43f579cc","system_id":"levelo_inurba_marseille","lat":43.31605,"lon":5.38051,"is_reserved":false,"is_disabled":false,"rental_uris":{"android":"levelo://app?vid=f6abd20f-e21b-4dbe-a6bc-709e43f579cc","ios":"levelo://app?vid=f6abd20f-e21b-4dbe-a6bc-709e43f579cc"},"vehicle_type_id":"4","last_reported":1686686827,"current_range_meters":29200,"station_id":"","pricing_plan_id":"free"},{"bike_id":"b7392909-6bad-439e-ac21-6a4034ad1d3a","system_id":"levelo_inurba_marseille","lat":43.30803,"lon":5.38145,"is_reserved":false,"is_disabled":false,"rental_uris":{"android":"levelo://app?vid=b7392909-6bad-439e-ac21-6a4034ad1d3a","ios":"levelo://app?vid=b7392909-6bad-439e-ac21-6a4034ad1d3a"},"vehicle_type_id":"4","last_reported":1686686827,"current_range_meters":31200,"station_id":"ce4bgt12rcd13ifvqce0","pricing_plan_id":"free"},{"bike_id":"00c1192d-7b09-4af5-807f-0e360391cdd3","system_id":"levelo_inurba_marseille","lat":43.30809,"lon":5.38156,"is_reserved":false,"is_disabled":false,"rental_uris":{"android":"levelo://app?vid=00c1192d-7b09-4af5-807f-0e360391cdd3","ios":"levelo://app?vid=00c1192d-7b09-4af5-807f-0e360391cdd3"},"vehicle_type_id":"4","last_reported":1686686827,"current_range_meters":31200,"station_id":"ce4bgt12rcd13ifvqce0","pricing_plan_id":"free"},{"bike_id":"8df126b9-0aca-43e5-9f38-11c5f465e26b","system_id":"levelo_inurba_marseille","lat":43.308012,"lon":5.381511,"is_reserved":false,"is_disabled":false,"rental_uris":{"android":"levelo://app?vid=8df126b9-0aca-43e5-9f38-11c5f465e26b","ios":"levelo://app?vid=8df126b9-0aca-43e5-9f38-11c5f465e26b"},"vehicle_type_id":"4","last_reported":1686686827,"current_range_meters":28000,"station_id":"ce4bgt12rcd13ifvqce0","pricing_plan_id":"free"},{"bike_id":"d34d035f-e5d7-4deb-9d55-bbffd97e55ba","system_id":"levelo_inurba_marseille","lat":43.304606,"lon":5.379026,"is_reserved":false,"is_disabled":false,"rental_uris":{"android":"levelo://app?vid=d34d035f-e5d7-4deb-9d55-bbffd97e55ba","ios":"levelo://app?vid=d34d035f-e5d7-4deb-9d55-bbffd97e55ba"},"vehicle_type_id":"4","last_reported":1686686827,"current_range_meters":4800,"station_id":"ce4bgup2rcd13ifvqcn0","pricing_plan_id":"free"},{"bike_id":"b8e1b433-44f0-4c5d-96c9-65e2154c9b64","system_id":"levelo_inurba_marseille","lat":43.304606,"lon":5.379026,"is_reserved":false,"is_disabled":false,"rental_uris":{"android":"levelo://app?vid=b8e1b433-44f0-4c5d-96c9-65e2154c9b64","ios":"levelo://app?vid=b8e1b433-44f0-4c5d-96c9-65e2154c9b64"},"vehicle_type_id":"4","last_reported":1686686827,"current_range_meters":31200,"station_id":"ce4bgup2rcd13ifvqcn0","pricing_plan_id":"free"},{"bike_id":"32827146-2d6b-4fb1-b00e-6b2f535ca544","system_id":"levelo_inurba_marseille","lat":43.30472,"lon":5.37905,"is_reserved":false,"is_disabled":false,"rental_uris":{"android":"levelo://app?vid=32827146-2d6b-4fb1-b00e-6b2f535ca544","ios":"levelo://app?vid=32827146-2d6b-4fb1-b00e-6b2f535ca544"},"vehicle_type_id":"4","last_reported":1686686827,"current_range_meters":29600,"station_id":"ce4bgup2rcd13ifvqcn0","pricing_plan_id":"free"},{"bike_id":"ea23afac-587f-47b8-899e-3daced690e7e","system_id":"levelo_inurba_marseille","lat":43.304606,"lon":5.379026,"is_reserved":false,"is_disabled":false,"rental_uris":{"android":"levelo://app?vid=ea23afac-587f-47b8-899e-3daced690e7e","ios":"levelo://app?vid=ea23afac-587f-47b8-899e-3daced690e7e"},"vehicle_type_id":"4","last_reported":1686686827,"current_range_meters":2400,"station_id":"ce4bgup2rcd13ifvqcn0","pricing_plan_id":"free"},{"bike_id":"a117b82c-bcbb-4a18-88cf-c2559f76d885","system_id":"levelo_inurba_marseille","lat":43.304606,"lon":5.379026,"is_reserved":false,"is_disabled":false,"rental_uris":{"android":"levelo://app?vid=a117b82c-bcbb-4a18-88cf-c2559f76d885","ios":"levelo://app?vid=a117b82c-bcbb-4a18-88cf-c2559f76d885"},"vehicle_type_id":"4","last_reported":1686686827,"current_range_meters":16400,"station_id":"ce4bgup2rcd13ifvqcn0","pricing_plan_id":"free"},{"bike_id":"7cf91c58-233d-47e2-884b-deb022f1c384","system_id":"levelo_inurba_marseille","lat":43.304606,"lon":5.379026,"is_reserved":false,"is_disabled":false,"rental_uris":{"android":"levelo://app?vid=7cf91c58-233d-47e2-884b-deb022f1c384","ios":"levelo://app?vid=7cf91c58-233d-47e2-884b-deb022f1c384"},"vehicle_type_id":"4","last_reported":1686686827,"current_range_meters":30800,"station_id":"ce4bgup2rcd13ifvqcn0","pricing_plan_id":"free"},{"bike_id":"bcf5ed4f-43bf-45cd-8dcf-5dd3796eca0d","system_id":"levelo_inurba_marseille","lat":43.304606,"lon":5.379026,"is_reserved":false,"is_disabled":false,"rental_uris":{"android":"levelo://app?vid=bcf5ed4f-43bf-45cd-8dcf-5dd3796eca0d","ios":"levelo://app?vid=bcf5ed4f-43bf-45cd-8dcf-5dd3796eca0d"},"vehicle_type_id":"4","last_reported":1686686827,"current_range_meters":30800,"station_id":"ce4bgup2rcd13ifvqcn0","pricing_plan_id":"free"},{"bike_id":"6716b7c2-b8eb-4093-a4f2-366af7fd8734","system_id":"levelo_inurba_marseille","lat":43.304606,"lon":5.379026,"is_reserved":false,"is_disabled":false,"rental_uris":{"android":"levelo://app?vid=6716b7c2-b8eb-4093-a4f2-366af7fd8734","ios":"levelo://app?vid=6716b7c2-b8eb-4093-a4f2-366af7fd8734"},"vehicle_type_id":"4","last_reported":1686686827,"current_range_meters":26000,"station_id":"ce4bgup2rcd13ifvqcn0","pricing_plan_id":"free"},{"bike_id":"42b44d19-5665-4a61-a0b4-cdf295723913","system_id":"levelo_inurba_marseille","lat":43.304606,"lon":5.379026,"is_reserved":false,"is_disabled":false,"rental_uris":{"android":"levelo://app?vid=42b44d19-5665-4a61-a0b4-cdf295723913","ios":"levelo://app?vid=42b44d19-5665-4a61-a0b4-cdf295723913"},"vehicle_type_id":"4","last_reported":1686686827,"current_range_meters":20400,"station_id":"ce4bgup2rcd13ifvqcn0","pricing_plan_id":"free"},{"bike_id":"fe52c795-9d49-4f4e-841d-8ae321a9df95","system_id":"levelo_inurba_marseille","lat":43.304606,"lon":5.379026,"is_reserved":false,"is_disabled":false,"rental_uris":{"android":"levelo://app?vid=fe52c795-9d49-4f4e-841d-8ae321a9df95","ios":"levelo://app?vid=fe52c795-9d49-4f4e-841d-8ae321a9df95"},"vehicle_type_id":"4","last_reported":1686686827,"current_range_meters":19200,"station_id":"ce4bgup2rcd13ifvqcn0","pricing_plan_id":"free"},{"bike_id":"e5234372-8b0f-44e5-a9bf-00c2c417a54f","system_id":"levelo_inurba_marseille","lat":43.304606,"lon":5.379026,"is_reserved":false,"is_disabled":false,"rental_uris":{"android":"levelo://app?vid=e5234372-8b0f-44e5-a9bf-00c2c417a54f","ios":"levelo://app?vid=e5234372-8b0f-44e5-a9bf-00c2c417a54f"},"vehicle_type_id":"4","last_reported":1686686827,"current_range_meters":25200,"station_id":"ce4bgup2rcd13ifvqcn0","pricing_plan_id":"free"},{"bike_id":"ffd76f75-3998-4004-b84a-fa39729a00f1","system_id":"levelo_inurba_marseille","lat":43.304606,"lon":5.379026,"is_reserved":false,"is_disabled":false,"rental_uris":{"android":"levelo://app?vid=ffd76f75-3998-4004-b84a-fa39729a00f1","ios":"levelo://app?vid=ffd76f75-3998-4004-b84a-fa39729a00f1"},"vehicle_type_id":"4","last_reported":1686686827,"current_range_meters":25600,"station_id":"ce4bgup2rcd13ifvqcn0","pricing_plan_id":"free"},{"bike_id":"f133f5e9-98bc-4a77-a50a-dd76b8de86bd","system_id":"levelo_inurba_marseille","lat":43.304606,"lon":5.379026,"is_reserved":false,"is_disabled":false,"rental_uris":{"android":"levelo://app?vid=f133f5e9-98bc-4a77-a50a-dd76b8de86bd","ios":"levelo://app?vid=f133f5e9-98bc-4a77-a50a-dd76b8de86bd"},"vehicle_type_id":"4","last_reported":1686686827,"current_range_meters":32000,"station_id":"ce4bgup2rcd13ifvqcn0","pricing_plan_id":"free"},{"bike_id":"e3359b07-1352-4b10-9a61-f82e1851ddee","system_id":"levelo_inurba_marseille","lat":43.304606,"lon":5.379026,"is_reserved":false,"is_disabled":false,"rental_uris":{"android":"levelo://app?vid=e3359b07-1352-4b10-9a61-f82e1851ddee","ios":"levelo://app?vid=e3359b07-1352-4b10-9a61-f82e1851ddee"},"vehicle_type_id":"4","last_reported":1686686827,"current_range_meters":31600,"station_id":"ce4bgup2rcd13ifvqcn0","pricing_plan_id":"free"},{"bike_id":"65d46665-c398-4924-ada2-79b30d22dd76","system_id":"levelo_inurba_marseille","lat":43.304606,"lon":5.379026,"is_reserved":false,"is_disabled":false,"rental_uris":{"android":"levelo://app?vid=65d46665-c398-4924-ada2-79b30d22dd76","ios":"levelo://app?vid=65d46665-c398-4924-ada2-79b30d22dd76"},"vehicle_type_id":"4","last_reported":1686686827,"current_range_meters":31600,"station_id":"ce4bgup2rcd13ifvqcn0","pricing_plan_id":"free"},{"bike_id":"e6d5f0fb-c8b3-49d7-b92d-2ef531c05609","system_id":"levelo_inurba_marseille","lat":43.30143,"lon":5.37413,"is_reserved":false,"is_disabled":false,"rental_uris":{"android":"levelo://app?vid=e6d5f0fb-c8b3-49d7-b92d-2ef531c05609","ios":"levelo://app?vid=e6d5f0fb-c8b3-49d7-b92d-2ef531c05609"},"vehicle_type_id":"4","last_reported":1686686827,"current_range_meters":29600,"station_id":"ce4bgs92rcd13ifvqcc0","pricing_plan_id":"free"},{"bike_id":"edfc63d6-3c54-4e3f-bfa5-fd9585ee064c","system_id":"levelo_inurba_marseille","lat":43.31995,"lon":5.38161,"is_reserved":false,"is_disabled":false,"rental_uris":{"android":"levelo://app?vid=edfc63d6-3c54-4e3f-bfa5-fd9585ee064c","ios":"levelo://app?vid=edfc63d6-3c54-4e3f-bfa5-fd9585ee064c"},"vehicle_type_id":"4","last_reported":1686686827,"current_range_meters":31200,"station_id":"ce4bhr12rcd13ifvqhpg","pricing_plan_id":"free"},{"bike_id":"7de29bad-bc40-4388-a98e-5a07caa7d030","system_id":"levelo_inurba_marseille","lat":43.32003,"lon":5.38155,"is_reserved":false,"is_disabled":false,"rental_uris":{"android":"levelo://app?vid=7de29bad-bc40-4388-a98e-5a07caa7d030","ios":"levelo://app?vid=7de29bad-bc40-4388-a98e-5a07caa7d030"},"vehicle_type_id":"4","last_reported":1686686827,"current_range_meters":31200,"station_id":"ce4bhr12rcd13ifvqhpg","pricing_plan_id":"free"},{"bike_id":"692f9216-e4db-44bd-a7bb-707044154d04","system_id":"levelo_inurba_marseille","lat":43.31369,"lon":5.38478,"is_reserved":false,"is_disabled":false,"rental_uris":{"android":"levelo://app?vid=692f9216-e4db-44bd-a7bb-707044154d04","ios":"levelo://app?vid=692f9216-e4db-44bd-a7bb-707044154d04"},"vehicle_type_id":"4","last_reported":1686686827,"current_range_meters":5600,"station_id":"ce4bgt92rcd13ifvqcf0","pricing_plan_id":"free"},{"bike_id":"0487d59f-aa5a-4b33-b2c8-a12658edf228","system_id":"levelo_inurba_marseille","lat":43.311722,"lon":5.387247,"is_reserved":false,"is_disabled":false,"rental_uris":{"android":"levelo://app?vid=0487d59f-aa5a-4b33-b2c8-a12658edf228","ios":"levelo://app?vid=0487d59f-aa5a-4b33-b2c8-a12658edf228"},"vehicle_type_id":"4","last_reported":1686686827,"current_range_meters":31200,"station_id":"ce4bgv12rcd13ifvqcp0","pricing_plan_id":"free"},{"bike_id":"86c2d9e7-a58b-42b4-9974-ec8e0bd6cd97","system_id":"levelo_inurba_marseille","lat":43.311722,"lon":5.387247,"is_reserved":false,"is_disabled":false,"rental_uris":{"android":"levelo://app?vid=86c2d9e7-a58b-42b4-9974-ec8e0bd6cd97","ios":"levelo://app?vid=86c2d9e7-a58b-42b4-9974-ec8e0bd6cd97"},"vehicle_type_id":"4","last_reported":1686686827,"current_range_meters":6800,"station_id":"ce4bgv12rcd13ifvqcp0","pricing_plan_id":"free"},{"bike_id":"1cd84885-cb42-4b4c-8192-18430e202d4c","system_id":"levelo_inurba_marseille","lat":43.311722,"lon":5.387247,"is_reserved":false,"is_disabled":false,"rental_uris":{"android":"levelo://app?vid=1cd84885-cb42-4b4c-8192-18430e202d4c","ios":"levelo://app?vid=1cd84885-cb42-4b4c-8192-18430e202d4c"},"vehicle_type_id":"4","last_reported":1686686827,"current_range_meters":2000,"station_id":"ce4bgv12rcd13ifvqcp0","pricing_plan_id":"free"},{"bike_id":"b008a40b-52ae-461d-9bb5-99a7bee05b7b","system_id":"levelo_inurba_marseille","lat":43.29864,"lon":5.37488,"is_reserved":false,"is_disabled":false,"rental_uris":{"android":"levelo://app?vid=b008a40b-52ae-461d-9bb5-99a7bee05b7b","ios":"levelo://app?vid=b008a40b-52ae-461d-9bb5-99a7bee05b7b"},"vehicle_type_id":"4","last_reported":1686686827,"current_range_meters":30400,"station_id":"","pricing_plan_id":"free"},{"bike_id":"276442ee-92d7-42b0-afe9-df01f0310bb8","system_id":"levelo_inurba_marseille","lat":43.328371,"lon":5.366912,"is_reserved":false,"is_disabled":false,"rental_uris":{"android":"levelo://app?vid=276442ee-92d7-42b0-afe9-df01f0310bb8","ios":"levelo://app?vid=276442ee-92d7-42b0-afe9-df01f0310bb8"},"vehicle_type_id":"4","last_reported":1686686827,"current_range_meters":22800,"station_id":"ce4bhs92rcd13ifvqi0g","pricing_plan_id":"free"},{"bike_id":"88d0330c-5bb0-4a19-9b65-d4683b42e015","system_id":"levelo_inurba_marseille","lat":43.29683,"lon":5.36046,"is_reserved":false,"is_disabled":false,"rental_uris":{"android":"levelo://app?vid=88d0330c-5bb0-4a19-9b65-d4683b42e015","ios":"levelo://app?vid=88d0330c-5bb0-4a19-9b65-d4683b42e015"},"vehicle_type_id":"4","last_reported":1686686827,"current_range_meters":20800,"station_id":"ce4bgpp2rcd13ifvqc3g","pricing_plan_id":"free"},{"bike_id":"5075f3e7-232c-462e-8d99-e4f44d51784f","system_id":"levelo_inurba_marseille","lat":43.296935,"lon":5.376544,"is_reserved":false,"is_disabled":false,"rental_uris":{"android":"levelo://app?vid=5075f3e7-232c-462e-8d99-e4f44d51784f","ios":"levelo://app?vid=5075f3e7-232c-462e-8d99-e4f44d51784f"},"vehicle_type_id":"4","last_reported":1686686827,"current_range_meters":29600,"station_id":"ce4bgkh2rcd13ifvqbl0","pricing_plan_id":"free"},{"bike_id":"945a4040-c7fd-44ef-a5ca-ba9e3e890838","system_id":"levelo_inurba_marseille","lat":43.309589,"lon":5.390258,"is_reserved":false,"is_disabled":false,"rental_uris":{"android":"levelo://app?vid=945a4040-c7fd-44ef-a5ca-ba9e3e890838","ios":"levelo://app?vid=945a4040-c7fd-44ef-a5ca-ba9e3e890838"},"vehicle_type_id":"4","last_reported":1686686827,"current_range_meters":7600,"station_id":"ce4bgup2rcd13ifvqco0","pricing_plan_id":"free"},{"bike_id":"85d0761c-4a65-4190-ad52-c4872fe212f2","system_id":"levelo_inurba_marseille","lat":43.31757,"lon":5.39015,"is_reserved":false,"is_disabled":false,"rental_uris":{"android":"levelo://app?vid=85d0761c-4a65-4190-ad52-c4872fe212f2","ios":"levelo://app?vid=85d0761c-4a65-4190-ad52-c4872fe212f2"},"vehicle_type_id":"4","last_reported":1686686827,"current_range_meters":10800,"station_id":"ce4bhqp2rcd13ifvqhng","pricing_plan_id":"free"},{"bike_id":"c4815757-4b82-49b1-a7fa-5c68229f4c6e","system_id":"levelo_inurba_marseille","lat":43.317557,"lon":5.390173,"is_reserved":false,"is_disabled":false,"rental_uris":{"android":"levelo://app?vid=c4815757-4b82-49b1-a7fa-5c68229f4c6e","ios":"levelo://app?vid=c4815757-4b82-49b1-a7fa-5c68229f4c6e"},"vehicle_type_id":"4","last_reported":1686686827,"current_range_meters":31200,"station_id":"ce4bhqp2rcd13ifvqhng","pricing_plan_id":"free"},{"bike_id":"8b8d5d4f-355b-4890-a606-e1abd1faad1f","system_id":"levelo_inurba_marseille","lat":43.317557,"lon":5.390173,"is_reserved":false,"is_disabled":false,"rental_uris":{"android":"levelo://app?vid=8b8d5d4f-355b-4890-a606-e1abd1faad1f","ios":"levelo://app?vid=8b8d5d4f-355b-4890-a606-e1abd1faad1f"},"vehicle_type_id":"4","last_reported":1686686827,"current_range_meters":31200,"station_id":"ce4bhqp2rcd13ifvqhng","pricing_plan_id":"free"},{"bike_id":"3aeb5edb-6189-47cd-bb49-e2a928ab8142","system_id":"levelo_inurba_marseille","lat":43.317557,"lon":5.390173,"is_reserved":false,"is_disabled":false,"rental_uris":{"android":"levelo://app?vid=3aeb5edb-6189-47cd-bb49-e2a928ab8142","ios":"levelo://app?vid=3aeb5edb-6189-47cd-bb49-e2a928ab8142"},"vehicle_type_id":"4","last_reported":1686686827,"current_range_meters":17200,"station_id":"ce4bhqp2rcd13ifvqhng","pricing_plan_id":"free"},{"bike_id":"c53dc16d-2429-4c8e-bb40-2e14de4412e5","system_id":"levelo_inurba_marseille","lat":43.298037,"lon":5.381066,"is_reserved":false,"is_disabled":false,"rental_uris":{"android":"levelo://app?vid=c53dc16d-2429-4c8e-bb40-2e14de4412e5","ios":"levelo://app?vid=c53dc16d-2429-4c8e-bb40-2e14de4412e5"},"vehicle_type_id":"4","last_reported":1686686827,"current_range_meters":30000,"station_id":"ce4bgip2rcd13ifvqbb0","pricing_plan_id":"free"},{"bike_id":"0cbfb058-bd23-4cd3-b7b0-be2f1e5bdfce","system_id":"levelo_inurba_marseille","lat":43.29612,"lon":5.37682,"is_reserved":false,"is_disabled":false,"rental_uris":{"android":"levelo://app?vid=0cbfb058-bd23-4cd3-b7b0-be2f1e5bdfce","ios":"levelo://app?vid=0cbfb058-bd23-4cd3-b7b0-be2f1e5bdfce"},"vehicle_type_id":"4","last_reported":1686686827,"current_range_meters":31200,"station_id":"","pricing_plan_id":"free"},{"bike_id":"322ad072-43ce-41ad-8a4f-7c89178e9bdb","system_id":"levelo_inurba_marseille","lat":43.30432,"lon":5.38898,"is_reserved":false,"is_disabled":false,"rental_uris":{"android":"levelo://app?vid=322ad072-43ce-41ad-8a4f-7c89178e9bdb","ios":"levelo://app?vid=322ad072-43ce-41ad-8a4f-7c89178e9bdb"},"vehicle_type_id":"4","last_reported":1686686827,"current_range_meters":13200,"station_id":"ce4bgk12rcd13ifvqbi0","pricing_plan_id":"free"},{"bike_id":"ef1e982a-7fab-4338-8e82-16f4d1f227db","system_id":"levelo_inurba_marseille","lat":43.29976,"lon":5.38493,"is_reserved":false,"is_disabled":false,"rental_uris":{"android":"levelo://app?vid=ef1e982a-7fab-4338-8e82-16f4d1f227db","ios":"levelo://app?vid=ef1e982a-7fab-4338-8e82-16f4d1f227db"},"vehicle_type_id":"4","last_reported":1686686827,"current_range_meters":3600,"station_id":"ce4bgj92rcd13ifvqbd0","pricing_plan_id":"free"},{"bike_id":"af5b164a-9a2d-47d1-95a9-20b0c3a09788","system_id":"levelo_inurba_marseille","lat":43.3236,"lon":5.38864,"is_reserved":false,"is_disabled":false,"rental_uris":{"android":"levelo://app?vid=af5b164a-9a2d-47d1-95a9-20b0c3a09788","ios":"levelo://app?vid=af5b164a-9a2d-47d1-95a9-20b0c3a09788"},"vehicle_type_id":"4","last_reported":1686686827,"current_range_meters":31200,"station_id":"ce4bhqp2rcd13ifvqhog","pricing_plan_id":"free"},{"bike_id":"2c9ad911-25e0-4222-8751-d809dfadd582","system_id":"levelo_inurba_marseille","lat":43.32367,"lon":5.388836,"is_reserved":false,"is_disabled":false,"rental_uris":{"android":"levelo://app?vid=2c9ad911-25e0-4222-8751-d809dfadd582","ios":"levelo://app?vid=2c9ad911-25e0-4222-8751-d809dfadd582"},"vehicle_type_id":"4","last_reported":1686686827,"current_range_meters":19200,"station_id":"ce4bhqp2rcd13ifvqhog","pricing_plan_id":"free"},{"bike_id":"c5cd0f6c-8309-4e42-80e9-0a1a5e67f832","system_id":"levelo_inurba_marseille","lat":43.32366,"lon":5.38879,"is_reserved":false,"is_disabled":false,"rental_uris":{"android":"levelo://app?vid=c5cd0f6c-8309-4e42-80e9-0a1a5e67f832","ios":"levelo://app?vid=c5cd0f6c-8309-4e42-80e9-0a1a5e67f832"},"vehicle_type_id":"4","last_reported":1686686827,"current_range_meters":4800,"station_id":"ce4bhqp2rcd13ifvqhog","pricing_plan_id":"free"},{"bike_id":"d06456ec-a075-49ef-88a6-a611e3db32cf","system_id":"levelo_inurba_marseille","lat":43.32363,"lon":5.38882,"is_reserved":false,"is_disabled":false,"rental_uris":{"android":"levelo://app?vid=d06456ec-a075-49ef-88a6-a611e3db32cf","ios":"levelo://app?vid=d06456ec-a075-49ef-88a6-a611e3db32cf"},"vehicle_type_id":"4","last_reported":1686686827,"current_range_meters":22000,"station_id":"ce4bhqp2rcd13ifvqhog","pricing_plan_id":"free"},{"bike_id":"c249ee5d-650e-45b1-accb-7ac50e94d326","system_id":"levelo_inurba_marseille","lat":43.32367,"lon":5.38881,"is_reserved":false,"is_disabled":false,"rental_uris":{"android":"levelo://app?vid=c249ee5d-650e-45b1-accb-7ac50e94d326","ios":"levelo://app?vid=c249ee5d-650e-45b1-accb-7ac50e94d326"},"vehicle_type_id":"4","last_reported":1686686827,"current_range_meters":24000,"station_id":"ce4bhqp2rcd13ifvqhog","pricing_plan_id":"free"},{"bike_id":"84a08174-fce2-43c3-b175-57cb52176f14","system_id":"levelo_inurba_marseille","lat":43.32367,"lon":5.388836,"is_reserved":false,"is_disabled":false,"rental_uris":{"android":"levelo://app?vid=84a08174-fce2-43c3-b175-57cb52176f14","ios":"levelo://app?vid=84a08174-fce2-43c3-b175-57cb52176f14"},"vehicle_type_id":"4","last_reported":1686686827,"current_range_meters":26400,"station_id":"ce4bhqp2rcd13ifvqhog","pricing_plan_id":"free"},{"bike_id":"43374d09-36db-4572-803d-06dcf60b579e","system_id":"levelo_inurba_marseille","lat":43.32368,"lon":5.38883,"is_reserved":false,"is_disabled":false,"rental_uris":{"android":"levelo://app?vid=43374d09-36db-4572-803d-06dcf60b579e","ios":"levelo://app?vid=43374d09-36db-4572-803d-06dcf60b579e"},"vehicle_type_id":"4","last_reported":1686686827,"current_range_meters":19600,"station_id":"ce4bhqp2rcd13ifvqhog","pricing_plan_id":"free"},{"bike_id":"ce47f1c8-04af-4f1a-b3c3-3c83d1150abd","system_id":"levelo_inurba_marseille","lat":43.32421,"lon":5.38858,"is_reserved":false,"is_disabled":false,"rental_uris":{"android":"levelo://app?vid=ce47f1c8-04af-4f1a-b3c3-3c83d1150abd","ios":"levelo://app?vid=ce47f1c8-04af-4f1a-b3c3-3c83d1150abd"},"vehicle_type_id":"4","last_reported":1686686827,"current_range_meters":30400,"station_id":"","pricing_plan_id":"free"},{"bike_id":"997f220f-405a-4d51-ab30-68d19d644925","system_id":"levelo_inurba_marseille","lat":43.29598,"lon":5.38086,"is_reserved":false,"is_disabled":false,"rental_uris":{"android":"levelo://app?vid=997f220f-405a-4d51-ab30-68d19d644925","ios":"levelo://app?vid=997f220f-405a-4d51-ab30-68d19d644925"},"vehicle_type_id":"4","last_reported":1686686827,"current_range_meters":30400,"station_id":"ce4bgl12rcd13ifvqbo0","pricing_plan_id":"free"},{"bike_id":"1a7208c7-5e0a-451c-80e8-31b016865ea3","system_id":"levelo_inurba_marseille","lat":43.293249,"lon":5.371578,"is_reserved":false,"is_disabled":false,"rental_uris":{"android":"levelo://app?vid=1a7208c7-5e0a-451c-80e8-31b016865ea3","ios":"levelo://app?vid=1a7208c7-5e0a-451c-80e8-31b016865ea3"},"vehicle_type_id":"4","last_reported":1686686827,"current_range_meters":4800,"station_id":"ce4bgh92rcd13ifvqb40","pricing_plan_id":"free"},{"bike_id":"557e6f19-b01f-4da5-9a61-f16ab3863897","system_id":"levelo_inurba_marseille","lat":43.29543,"lon":5.3814,"is_reserved":false,"is_disabled":false,"rental_uris":{"android":"levelo://app?vid=557e6f19-b01f-4da5-9a61-f16ab3863897","ios":"levelo://app?vid=557e6f19-b01f-4da5-9a61-f16ab3863897"},"vehicle_type_id":"4","last_reported":1686686827,"current_range_meters":0,"station_id":"","pricing_plan_id":"free"},{"bike_id":"074f0e9f-48af-43e7-962a-a376361dde1e","system_id":"levelo_inurba_marseille","lat":43.305994,"lon":5.393687,"is_reserved":false,"is_disabled":false,"rental_uris":{"android":"levelo://app?vid=074f0e9f-48af-43e7-962a-a376361dde1e","ios":"levelo://app?vid=074f0e9f-48af-43e7-962a-a376361dde1e"},"vehicle_type_id":"4","last_reported":1686686827,"current_range_meters":11200,"station_id":"ce4bh0p2rcd13ifvqd80","pricing_plan_id":"free"},{"bike_id":"a58c7dcf-2ff3-489b-a37b-e0e14dedbeaa","system_id":"levelo_inurba_marseille","lat":43.302992,"lon":5.392136,"is_reserved":false,"is_disabled":false,"rental_uris":{"android":"levelo://app?vid=a58c7dcf-2ff3-489b-a37b-e0e14dedbeaa","ios":"levelo://app?vid=a58c7dcf-2ff3-489b-a37b-e0e14dedbeaa"},"vehicle_type_id":"4","last_reported":1686686827,"current_range_meters":31200,"station_id":"ce4bgkh2rcd13ifvqbk0","pricing_plan_id":"free"},{"bike_id":"63e971f1-3fdd-401e-88b1-f27c39f77e97","system_id":"levelo_inurba_marseille","lat":43.29568,"lon":5.38298,"is_reserved":false,"is_disabled":false,"rental_uris":{"android":"levelo://app?vid=63e971f1-3fdd-401e-88b1-f27c39f77e97","ios":"levelo://app?vid=63e971f1-3fdd-401e-88b1-f27c39f77e97"},"vehicle_type_id":"4","last_reported":1686686827,"current_range_meters":4800,"station_id":"","pricing_plan_id":"free"},{"bike_id":"781c85d1-ea3a-4961-9aee-d8ac601fee2e","system_id":"levelo_inurba_marseille","lat":43.29274,"lon":5.3597,"is_reserved":false,"is_disabled":false,"rental_uris":{"android":"levelo://app?vid=781c85d1-ea3a-4961-9aee-d8ac601fee2e","ios":"levelo://app?vid=781c85d1-ea3a-4961-9aee-d8ac601fee2e"},"vehicle_type_id":"4","last_reported":1686686827,"current_range_meters":13200,"station_id":"","pricing_plan_id":"free"},{"bike_id":"aeffd0c9-6e3b-41a8-acbe-aab615c6b6c1","system_id":"levelo_inurba_marseille","lat":43.30304,"lon":5.39203,"is_reserved":false,"is_disabled":false,"rental_uris":{"android":"levelo://app?vid=aeffd0c9-6e3b-41a8-acbe-aab615c6b6c1","ios":"levelo://app?vid=aeffd0c9-6e3b-41a8-acbe-aab615c6b6c1"},"vehicle_type_id":"4","last_reported":1686686827,"current_range_meters":31200,"station_id":"ce4bgkh2rcd13ifvqbk0","pricing_plan_id":"free"},{"bike_id":"47f55822-03ea-4b41-9860-7df3916ae10d","system_id":"levelo_inurba_marseille","lat":43.302992,"lon":5.392136,"is_reserved":false,"is_disabled":false,"rental_uris":{"android":"levelo://app?vid=47f55822-03ea-4b41-9860-7df3916ae10d","ios":"levelo://app?vid=47f55822-03ea-4b41-9860-7df3916ae10d"},"vehicle_type_id":"4","last_reported":1686686827,"current_range_meters":30400,"station_id":"ce4bgkh2rcd13ifvqbk0","pricing_plan_id":"free"},{"bike_id":"4c37b6b9-4726-43e2-99a6-4c5913dfba8f","system_id":"levelo_inurba_marseille","lat":43.2936,"lon":5.37835,"is_reserved":false,"is_disabled":false,"rental_uris":{"android":"levelo://app?vid=4c37b6b9-4726-43e2-99a6-4c5913dfba8f","ios":"levelo://app?vid=4c37b6b9-4726-43e2-99a6-4c5913dfba8f"},"vehicle_type_id":"4","last_reported":1686686827,"current_range_meters":0,"station_id":"ce4bgjh2rcd13ifvqbf0","pricing_plan_id":"free"},{"bike_id":"9509ad3d-cbf9-4665-98ac-4d4ecb6aa669","system_id":"levelo_inurba_marseille","lat":43.31033,"lon":5.39552,"is_reserved":false,"is_disabled":false,"rental_uris":{"android":"levelo://app?vid=9509ad3d-cbf9-4665-98ac-4d4ecb6aa669","ios":"levelo://app?vid=9509ad3d-cbf9-4665-98ac-4d4ecb6aa669"},"vehicle_type_id":"4","last_reported":1686686827,"current_range_meters":3200,"station_id":"","pricing_plan_id":"free"},{"bike_id":"5aaf8ff8-ba82-4091-ae61-a07c3dd99411","system_id":"levelo_inurba_marseille","lat":43.30085,"lon":5.390856,"is_reserved":false,"is_disabled":false,"rental_uris":{"android":"levelo://app?vid=5aaf8ff8-ba82-4091-ae61-a07c3dd99411","ios":"levelo://app?vid=5aaf8ff8-ba82-4091-ae61-a07c3dd99411"},"vehicle_type_id":"4","last_reported":1686686827,"current_range_meters":10400,"station_id":"ce4bh192rcd13ifvqdb0","pricing_plan_id":"free"},{"bike_id":"1500591f-7bf0-4e1a-93cc-f5416fda89e6","system_id":"levelo_inurba_marseille","lat":43.29226,"lon":5.36063,"is_reserved":false,"is_disabled":false,"rental_uris":{"android":"levelo://app?vid=1500591f-7bf0-4e1a-93cc-f5416fda89e6","ios":"levelo://app?vid=1500591f-7bf0-4e1a-93cc-f5416fda89e6"},"vehicle_type_id":"4","last_reported":1686686827,"current_range_meters":31600,"station_id":"ce4bhbh2rcd13ifvqeqg","pricing_plan_id":"free"},{"bike_id":"8ec4c3fa-7798-4eba-8ae5-e9bbd70bdebd","system_id":"levelo_inurba_marseille","lat":43.300852,"lon":5.390859,"is_reserved":false,"is_disabled":false,"rental_uris":{"android":"levelo://app?vid=8ec4c3fa-7798-4eba-8ae5-e9bbd70bdebd","ios":"levelo://app?vid=8ec4c3fa-7798-4eba-8ae5-e9bbd70bdebd"},"vehicle_type_id":"4","last_reported":1686686827,"current_range_meters":27600,"station_id":"ce4bh192rcd13ifvqdb0","pricing_plan_id":"free"},{"bike_id":"283bc49d-571d-4529-9dee-c7c433f616b1","system_id":"levelo_inurba_marseille","lat":43.292311,"lon":5.360731,"is_reserved":false,"is_disabled":false,"rental_uris":{"android":"levelo://app?vid=283bc49d-571d-4529-9dee-c7c433f616b1","ios":"levelo://app?vid=283bc49d-571d-4529-9dee-c7c433f616b1"},"vehicle_type_id":"4","last_reported":1686686827,"current_range_meters":20800,"station_id":"ce4bhbh2rcd13ifvqeqg","pricing_plan_id":"free"},{"bike_id":"234fe079-70d4-499b-b791-fe695d6e0678","system_id":"levelo_inurba_marseille","lat":43.30085,"lon":5.390856,"is_reserved":false,"is_disabled":false,"rental_uris":{"android":"levelo://app?vid=234fe079-70d4-499b-b791-fe695d6e0678","ios":"levelo://app?vid=234fe079-70d4-499b-b791-fe695d6e0678"},"vehicle_type_id":"4","last_reported":1686686827,"current_range_meters":25600,"station_id":"ce4bh192rcd13ifvqdb0","pricing_plan_id":"free"},{"bike_id":"2c431140-6b28-4e9a-8895-afac7219b6da","system_id":"levelo_inurba_marseille","lat":43.298764,"lon":5.388973,"is_reserved":false,"is_disabled":false,"rental_uris":{"android":"levelo://app?vid=2c431140-6b28-4e9a-8895-afac7219b6da","ios":"levelo://app?vid=2c431140-6b28-4e9a-8895-afac7219b6da"},"vehicle_type_id":"4","last_reported":1686686827,"current_range_meters":3200,"station_id":"ce4bh392rcd13ifvqdl0","pricing_plan_id":"free"},{"bike_id":"05ed5723-83d0-41ea-be60-46a379fcab4e","system_id":"levelo_inurba_marseille","lat":43.313251,"lon":5.396824,"is_reserved":false,"is_disabled":false,"rental_uris":{"android":"levelo://app?vid=05ed5723-83d0-41ea-be60-46a379fcab4e","ios":"levelo://app?vid=05ed5723-83d0-41ea-be60-46a379fcab4e"},"vehicle_type_id":"4","last_reported":1686686827,"current_range_meters":31200,"station_id":"ce4bgvp2rcd13ifvqcu0","pricing_plan_id":"free"},{"bike_id":"05d7730b-6eda-40c6-a595-6ed891207c31","system_id":"levelo_inurba_marseille","lat":43.309038,"lon":5.396546,"is_reserved":false,"is_disabled":false,"rental_uris":{"android":"levelo://app?vid=05d7730b-6eda-40c6-a595-6ed891207c31","ios":"levelo://app?vid=05d7730b-6eda-40c6-a595-6ed891207c31"},"vehicle_type_id":"4","last_reported":1686686827,"current_range_meters":11200,"station_id":"ce4bh012rcd13ifvqcv0","pricing_plan_id":"free"},{"bike_id":"aedb8809-4386-440a-a07e-c9104becfe4f","system_id":"levelo_inurba_marseille","lat":43.291994,"lon":5.357886,"is_reserved":false,"is_disabled":false,"rental_uris":{"android":"levelo://app?vid=aedb8809-4386-440a-a07e-c9104becfe4f","ios":"levelo://app?vid=aedb8809-4386-440a-a07e-c9104becfe4f"},"vehicle_type_id":"4","last_reported":1686686827,"current_range_meters":0,"station_id":"ce4bhb12rcd13ifvqel0","pricing_plan_id":"free"},{"bike_id":"08161066-584b-42db-9ab6-07331d7189ec","system_id":"levelo_inurba_marseille","lat":43.31325,"lon":5.39689,"is_reserved":false,"is_disabled":false,"rental_uris":{"android":"levelo://app?vid=08161066-584b-42db-9ab6-07331d7189ec","ios":"levelo://app?vid=08161066-584b-42db-9ab6-07331d7189ec"},"vehicle_type_id":"4","last_reported":1686686827,"current_range_meters":30800,"station_id":"ce4bgvp2rcd13ifvqcu0","pricing_plan_id":"free"},{"bike_id":"c9ca12a9-20b6-4deb-b996-7eff6c4d6d94","system_id":"levelo_inurba_marseille","lat":43.309038,"lon":5.396546,"is_reserved":false,"is_disabled":false,"rental_uris":{"android":"levelo://app?vid=c9ca12a9-20b6-4deb-b996-7eff6c4d6d94","ios":"levelo://app?vid=c9ca12a9-20b6-4deb-b996-7eff6c4d6d94"},"vehicle_type_id":"4","last_reported":1686686827,"current_range_meters":4000,"station_id":"ce4bh012rcd13ifvqcv0","pricing_plan_id":"free"},{"bike_id":"ba96fff3-f000-42cb-93d3-0d757fd41ba9","system_id":"levelo_inurba_marseille","lat":43.29529,"lon":5.385581,"is_reserved":false,"is_disabled":false,"rental_uris":{"android":"levelo://app?vid=ba96fff3-f000-42cb-93d3-0d757fd41ba9","ios":"levelo://app?vid=ba96fff3-f000-42cb-93d3-0d757fd41ba9"},"vehicle_type_id":"4","last_reported":1686686827,"current_range_meters":29200,"station_id":"ce4bgih2rcd13ifvqba0","pricing_plan_id":"free"},{"bike_id":"cfe07a6e-cebe-4e68-9fa2-5ebcaea50437","system_id":"levelo_inurba_marseille","lat":43.29529,"lon":5.385581,"is_reserved":false,"is_disabled":false,"rental_uris":{"android":"levelo://app?vid=cfe07a6e-cebe-4e68-9fa2-5ebcaea50437","ios":"levelo://app?vid=cfe07a6e-cebe-4e68-9fa2-5ebcaea50437"},"vehicle_type_id":"4","last_reported":1686686827,"current_range_meters":28000,"station_id":"ce4bgih2rcd13ifvqba0","pricing_plan_id":"free"},{"bike_id":"260a32d5-53c0-47e7-b141-74750a817c38","system_id":"levelo_inurba_marseille","lat":43.29529,"lon":5.385581,"is_reserved":false,"is_disabled":false,"rental_uris":{"android":"levelo://app?vid=260a32d5-53c0-47e7-b141-74750a817c38","ios":"levelo://app?vid=260a32d5-53c0-47e7-b141-74750a817c38"},"vehicle_type_id":"4","last_reported":1686686827,"current_range_meters":7600,"station_id":"ce4bgih2rcd13ifvqba0","pricing_plan_id":"free"},{"bike_id":"da6dea1b-2068-4363-a9bd-feab2205206d","system_id":"levelo_inurba_marseille","lat":43.290779,"lon":5.371482,"is_reserved":false,"is_disabled":false,"rental_uris":{"android":"levelo://app?vid=da6dea1b-2068-4363-a9bd-feab2205206d","ios":"levelo://app?vid=da6dea1b-2068-4363-a9bd-feab2205206d"},"vehicle_type_id":"4","last_reported":1686686827,"current_range_meters":2400,"station_id":"ce4bh5p2rcd13ifvqe4g","pricing_plan_id":"free"},{"bike_id":"d1feed0e-38ea-482f-9389-2fc5d3dec766","system_id":"levelo_inurba_marseille","lat":43.290631,"lon":5.359244,"is_reserved":false,"is_disabled":false,"rental_uris":{"android":"levelo://app?vid=d1feed0e-38ea-482f-9389-2fc5d3dec766","ios":"levelo://app?vid=d1feed0e-38ea-482f-9389-2fc5d3dec766"},"vehicle_type_id":"4","last_reported":1686686827,"current_range_meters":29200,"station_id":"ce4bha92rcd13ifvqeg0","pricing_plan_id":"free"},{"bike_id":"493fb1ee-17cc-4d1b-b5af-395a549fe380","system_id":"levelo_inurba_marseille","lat":43.294153,"lon":5.386305,"is_reserved":false,"is_disabled":false,"rental_uris":{"android":"levelo://app?vid=493fb1ee-17cc-4d1b-b5af-395a549fe380","ios":"levelo://app?vid=493fb1ee-17cc-4d1b-b5af-395a549fe380"},"vehicle_type_id":"4","last_reported":1686686827,"current_range_meters":8400,"station_id":"ce4bh2h2rcd13ifvqdh0","pricing_plan_id":"free"},{"bike_id":"ad4b2903-1549-4280-81c2-0ade3ae6df46","system_id":"levelo_inurba_marseille","lat":43.294153,"lon":5.386305,"is_reserved":false,"is_disabled":false,"rental_uris":{"android":"levelo://app?vid=ad4b2903-1549-4280-81c2-0ade3ae6df46","ios":"levelo://app?vid=ad4b2903-1549-4280-81c2-0ade3ae6df46"},"vehicle_type_id":"4","last_reported":1686686827,"current_range_meters":8000,"station_id":"ce4bh2h2rcd13ifvqdh0","pricing_plan_id":"free"},{"bike_id":"867c41e0-b241-47ea-a13f-5837793c5553","system_id":"levelo_inurba_marseille","lat":43.294162,"lon":5.386292,"is_reserved":false,"is_disabled":false,"rental_uris":{"android":"levelo://app?vid=867c41e0-b241-47ea-a13f-5837793c5553","ios":"levelo://app?vid=867c41e0-b241-47ea-a13f-5837793c5553"},"vehicle_type_id":"4","last_reported":1686686827,"current_range_meters":14000,"station_id":"ce4bh2h2rcd13ifvqdh0","pricing_plan_id":"free"},{"bike_id":"d59be7d6-da7f-4e6f-b949-1637b1b5df3c","system_id":"levelo_inurba_marseille","lat":43.294153,"lon":5.386305,"is_reserved":false,"is_disabled":false,"rental_uris":{"android":"levelo://app?vid=d59be7d6-da7f-4e6f-b949-1637b1b5df3c","ios":"levelo://app?vid=d59be7d6-da7f-4e6f-b949-1637b1b5df3c"},"vehicle_type_id":"4","last_reported":1686686827,"current_range_meters":22400,"station_id":"ce4bh2h2rcd13ifvqdh0","pricing_plan_id":"free"},{"bike_id":"c79e39bb-429f-44ad-87e3-712bcf32b445","system_id":"levelo_inurba_marseille","lat":43.29415,"lon":5.3862,"is_reserved":false,"is_disabled":false,"rental_uris":{"android":"levelo://app?vid=c79e39bb-429f-44ad-87e3-712bcf32b445","ios":"levelo://app?vid=c79e39bb-429f-44ad-87e3-712bcf32b445"},"vehicle_type_id":"4","last_reported":1686686827,"current_range_meters":0,"station_id":"ce4bh2h2rcd13ifvqdh0","pricing_plan_id":"free"},{"bike_id":"23879da9-cd5f-4cdb-beea-b84b16fcc6d1","system_id":"levelo_inurba_marseille","lat":43.289184,"lon":5.366408,"is_reserved":false,"is_disabled":false,"rental_uris":{"android":"levelo://app?vid=23879da9-cd5f-4cdb-beea-b84b16fcc6d1","ios":"levelo://app?vid=23879da9-cd5f-4cdb-beea-b84b16fcc6d1"},"vehicle_type_id":"4","last_reported":1686686827,"current_range_meters":6000,"station_id":"ce4bhap2rcd13ifvqek0","pricing_plan_id":"free"},{"bike_id":"e9dba127-d888-4ec6-b07f-c7e3cdf8c8f5","system_id":"levelo_inurba_marseille","lat":43.29417,"lon":5.38628,"is_reserved":false,"is_disabled":false,"rental_uris":{"android":"levelo://app?vid=e9dba127-d888-4ec6-b07f-c7e3cdf8c8f5","ios":"levelo://app?vid=e9dba127-d888-4ec6-b07f-c7e3cdf8c8f5"},"vehicle_type_id":"4","last_reported":1686686827,"current_range_meters":10400,"station_id":"ce4bh2h2rcd13ifvqdh0","pricing_plan_id":"free"},{"bike_id":"e70b3bdb-c58b-4d0c-8823-50c4562aa999","system_id":"levelo_inurba_marseille","lat":43.29415,"lon":5.38625,"is_reserved":false,"is_disabled":false,"rental_uris":{"android":"levelo://app?vid=e70b3bdb-c58b-4d0c-8823-50c4562aa999","ios":"levelo://app?vid=e70b3bdb-c58b-4d0c-8823-50c4562aa999"},"vehicle_type_id":"4","last_reported":1686686827,"current_range_meters":4400,"station_id":"ce4bh2h2rcd13ifvqdh0","pricing_plan_id":"free"},{"bike_id":"c4aee8ca-0eb2-46b3-bcc4-8b39746579e9","system_id":"levelo_inurba_marseille","lat":43.289184,"lon":5.366408,"is_reserved":false,"is_disabled":false,"rental_uris":{"android":"levelo://app?vid=c4aee8ca-0eb2-46b3-bcc4-8b39746579e9","ios":"levelo://app?vid=c4aee8ca-0eb2-46b3-bcc4-8b39746579e9"},"vehicle_type_id":"4","last_reported":1686686827,"current_range_meters":20800,"station_id":"ce4bhap2rcd13ifvqek0","pricing_plan_id":"free"},{"bike_id":"22de5377-2fc8-4829-a210-0f2ee1973feb","system_id":"levelo_inurba_marseille","lat":43.29414,"lon":5.38627,"is_reserved":false,"is_disabled":false,"rental_uris":{"android":"levelo://app?vid=22de5377-2fc8-4829-a210-0f2ee1973feb","ios":"levelo://app?vid=22de5377-2fc8-4829-a210-0f2ee1973feb"},"vehicle_type_id":"4","last_reported":1686686827,"current_range_meters":1600,"station_id":"ce4bh2h2rcd13ifvqdh0","pricing_plan_id":"free"},{"bike_id":"5ac71b54-a64e-49b2-8128-74ca8615da3d","system_id":"levelo_inurba_marseille","lat":43.29413,"lon":5.38628,"is_reserved":false,"is_disabled":false,"rental_uris":{"android":"levelo://app?vid=5ac71b54-a64e-49b2-8128-74ca8615da3d","ios":"levelo://app?vid=5ac71b54-a64e-49b2-8128-74ca8615da3d"},"vehicle_type_id":"4","last_reported":1686686827,"current_range_meters":800,"station_id":"ce4bh2h2rcd13ifvqdh0","pricing_plan_id":"free"},{"bike_id":"32b44eb0-91fe-4829-922c-88ed04ba2ad1","system_id":"levelo_inurba_marseille","lat":43.289184,"lon":5.366408,"is_reserved":false,"is_disabled":false,"rental_uris":{"android":"levelo://app?vid=32b44eb0-91fe-4829-922c-88ed04ba2ad1","ios":"levelo://app?vid=32b44eb0-91fe-4829-922c-88ed04ba2ad1"},"vehicle_type_id":"4","last_reported":1686686827,"current_range_meters":31200,"station_id":"ce4bhap2rcd13ifvqek0","pricing_plan_id":"free"},{"bike_id":"9986c192-0baa-4a15-a423-16e87eb64818","system_id":"levelo_inurba_marseille","lat":43.289184,"lon":5.366408,"is_reserved":false,"is_disabled":false,"rental_uris":{"android":"levelo://app?vid=9986c192-0baa-4a15-a423-16e87eb64818","ios":"levelo://app?vid=9986c192-0baa-4a15-a423-16e87eb64818"},"vehicle_type_id":"4","last_reported":1686686827,"current_range_meters":12800,"station_id":"ce4bhap2rcd13ifvqek0","pricing_plan_id":"free"},{"bike_id":"f6b7aa41-2165-490b-9aa8-29ea657c8aff","system_id":"levelo_inurba_marseille","lat":43.289184,"lon":5.366408,"is_reserved":false,"is_disabled":false,"rental_uris":{"android":"levelo://app?vid=f6b7aa41-2165-490b-9aa8-29ea657c8aff","ios":"levelo://app?vid=f6b7aa41-2165-490b-9aa8-29ea657c8aff"},"vehicle_type_id":"4","last_reported":1686686827,"current_range_meters":8800,"station_id":"ce4bhap2rcd13ifvqek0","pricing_plan_id":"free"},{"bike_id":"bfe2418b-5d4e-4cfc-a069-10e55bb4560c","system_id":"levelo_inurba_marseille","lat":43.289184,"lon":5.366408,"is_reserved":false,"is_disabled":false,"rental_uris":{"android":"levelo://app?vid=bfe2418b-5d4e-4cfc-a069-10e55bb4560c","ios":"levelo://app?vid=bfe2418b-5d4e-4cfc-a069-10e55bb4560c"},"vehicle_type_id":"4","last_reported":1686686827,"current_range_meters":25600,"station_id":"ce4bhap2rcd13ifvqek0","pricing_plan_id":"free"},{"bike_id":"ef2195f9-e831-475a-971f-793887504855","system_id":"levelo_inurba_marseille","lat":43.289184,"lon":5.366408,"is_reserved":false,"is_disabled":false,"rental_uris":{"android":"levelo://app?vid=ef2195f9-e831-475a-971f-793887504855","ios":"levelo://app?vid=ef2195f9-e831-475a-971f-793887504855"},"vehicle_type_id":"4","last_reported":1686686827,"current_range_meters":20000,"station_id":"ce4bhap2rcd13ifvqek0","pricing_plan_id":"free"},{"bike_id":"5ee9bb9f-343a-469a-aac7-578a7b204518","system_id":"levelo_inurba_marseille","lat":43.289184,"lon":5.366408,"is_reserved":false,"is_disabled":false,"rental_uris":{"android":"levelo://app?vid=5ee9bb9f-343a-469a-aac7-578a7b204518","ios":"levelo://app?vid=5ee9bb9f-343a-469a-aac7-578a7b204518"},"vehicle_type_id":"4","last_reported":1686686827,"current_range_meters":13600,"station_id":"ce4bhap2rcd13ifvqek0","pricing_plan_id":"free"},{"bike_id":"14dc1299-62af-4563-8ae6-497d2d22a8b3","system_id":"levelo_inurba_marseille","lat":43.289184,"lon":5.366408,"is_reserved":false,"is_disabled":false,"rental_uris":{"android":"levelo://app?vid=14dc1299-62af-4563-8ae6-497d2d22a8b3","ios":"levelo://app?vid=14dc1299-62af-4563-8ae6-497d2d22a8b3"},"vehicle_type_id":"4","last_reported":1686686827,"current_range_meters":22800,"station_id":"ce4bhap2rcd13ifvqek0","pricing_plan_id":"free"},{"bike_id":"4dcfc115-de22-48ea-8cc7-0d192de9b448","system_id":"levelo_inurba_marseille","lat":43.289184,"lon":5.366408,"is_reserved":false,"is_disabled":false,"rental_uris":{"android":"levelo://app?vid=4dcfc115-de22-48ea-8cc7-0d192de9b448","ios":"levelo://app?vid=4dcfc115-de22-48ea-8cc7-0d192de9b448"},"vehicle_type_id":"4","last_reported":1686686827,"current_range_meters":0,"station_id":"ce4bhap2rcd13ifvqek0","pricing_plan_id":"free"},{"bike_id":"0a4beee8-1d0b-40b6-a628-dd56857f4693","system_id":"levelo_inurba_marseille","lat":43.294032,"lon":5.386342,"is_reserved":false,"is_disabled":false,"rental_uris":{"android":"levelo://app?vid=0a4beee8-1d0b-40b6-a628-dd56857f4693","ios":"levelo://app?vid=0a4beee8-1d0b-40b6-a628-dd56857f4693"},"vehicle_type_id":"4","last_reported":1686686827,"current_range_meters":11200,"station_id":"","pricing_plan_id":"free"},{"bike_id":"684a77bd-6ba4-4abd-8bb7-ab171fd2e497","system_id":"levelo_inurba_marseille","lat":43.309038,"lon":5.396546,"is_reserved":false,"is_disabled":false,"rental_uris":{"android":"levelo://app?vid=684a77bd-6ba4-4abd-8bb7-ab171fd2e497","ios":"levelo://app?vid=684a77bd-6ba4-4abd-8bb7-ab171fd2e497"},"vehicle_type_id":"4","last_reported":1686686827,"current_range_meters":20000,"station_id":"ce4bh012rcd13ifvqcv0","pricing_plan_id":"free"},{"bike_id":"95491407-62a1-4129-867c-116625f1c469","system_id":"levelo_inurba_marseille","lat":43.292644,"lon":5.384257,"is_reserved":false,"is_disabled":false,"rental_uris":{"android":"levelo://app?vid=95491407-62a1-4129-867c-116625f1c469","ios":"levelo://app?vid=95491407-62a1-4129-867c-116625f1c469"},"vehicle_type_id":"4","last_reported":1686686827,"current_range_meters":7200,"station_id":"ce4bh692rcd13ifvqea0","pricing_plan_id":"free"},{"bike_id":"797a979a-02ef-4317-8b00-67de50a310fa","system_id":"levelo_inurba_marseille","lat":43.29263,"lon":5.38444,"is_reserved":false,"is_disabled":false,"rental_uris":{"android":"levelo://app?vid=797a979a-02ef-4317-8b00-67de50a310fa","ios":"levelo://app?vid=797a979a-02ef-4317-8b00-67de50a310fa"},"vehicle_type_id":"4","last_reported":1686686827,"current_range_meters":16800,"station_id":"ce4bh692rcd13ifvqea0","pricing_plan_id":"free"},{"bike_id":"3f0488e0-05ce-4c9a-ad47-93a1714aadbc","system_id":"levelo_inurba_marseille","lat":43.292644,"lon":5.384257,"is_reserved":false,"is_disabled":false,"rental_uris":{"android":"levelo://app?vid=3f0488e0-05ce-4c9a-ad47-93a1714aadbc","ios":"levelo://app?vid=3f0488e0-05ce-4c9a-ad47-93a1714aadbc"},"vehicle_type_id":"4","last_reported":1686686827,"current_range_meters":8000,"station_id":"ce4bh692rcd13ifvqea0","pricing_plan_id":"free"},{"bike_id":"4eeb2b9c-2157-4a54-b0d9-b5925a776444","system_id":"levelo_inurba_marseille","lat":43.33043,"lon":5.38921,"is_reserved":false,"is_disabled":false,"rental_uris":{"android":"levelo://app?vid=4eeb2b9c-2157-4a54-b0d9-b5925a776444","ios":"levelo://app?vid=4eeb2b9c-2157-4a54-b0d9-b5925a776444"},"vehicle_type_id":"4","last_reported":1686686827,"current_range_meters":7600,"station_id":"ce4bhr92rcd13ifvqhrg","pricing_plan_id":"free"},{"bike_id":"7f364558-371a-4684-8393-b10b2b88d6ba","system_id":"levelo_inurba_marseille","lat":43.290995,"lon":5.381361,"is_reserved":false,"is_disabled":false,"rental_uris":{"android":"levelo://app?vid=7f364558-371a-4684-8393-b10b2b88d6ba","ios":"levelo://app?vid=7f364558-371a-4684-8393-b10b2b88d6ba"},"vehicle_type_id":"4","last_reported":1686686827,"current_range_meters":29200,"station_id":"ce4bh512rcd13ifvqe2g","pricing_plan_id":"free"},{"bike_id":"d8cac411-fd58-46dd-8500-8dd16dd0473b","system_id":"levelo_inurba_marseille","lat":43.297814,"lon":5.393513,"is_reserved":false,"is_disabled":false,"rental_uris":{"android":"levelo://app?vid=d8cac411-fd58-46dd-8500-8dd16dd0473b","ios":"levelo://app?vid=d8cac411-fd58-46dd-8500-8dd16dd0473b"},"vehicle_type_id":"4","last_reported":1686686827,"current_range_meters":0,"station_id":"chh1huq6cuj3fo74tm60","pricing_plan_id":"free"},{"bike_id":"8d00fd40-ee50-4fdf-a7cc-c5c22e44958c","system_id":"levelo_inurba_marseille","lat":43.295169,"lon":5.390426,"is_reserved":false,"is_disabled":false,"rental_uris":{"android":"levelo://app?vid=8d00fd40-ee50-4fdf-a7cc-c5c22e44958c","ios":"levelo://app?vid=8d00fd40-ee50-4fdf-a7cc-c5c22e44958c"},"vehicle_type_id":"4","last_reported":1686686827,"current_range_meters":27200,"station_id":"ce4bh3p2rcd13ifvqdp0","pricing_plan_id":"free"},{"bike_id":"7a8ee1d0-0cf9-4ced-aea6-17bc4447d478","system_id":"levelo_inurba_marseille","lat":43.29518,"lon":5.39042,"is_reserved":false,"is_disabled":false,"rental_uris":{"android":"levelo://app?vid=7a8ee1d0-0cf9-4ced-aea6-17bc4447d478","ios":"levelo://app?vid=7a8ee1d0-0cf9-4ced-aea6-17bc4447d478"},"vehicle_type_id":"4","last_reported":1686686827,"current_range_meters":28400,"station_id":"ce4bh3p2rcd13ifvqdp0","pricing_plan_id":"free"},{"bike_id":"6485b115-9dfe-4b29-b1e3-d3afd704a8be","system_id":"levelo_inurba_marseille","lat":43.337317,"lon":5.374437,"is_reserved":false,"is_disabled":false,"rental_uris":{"android":"levelo://app?vid=6485b115-9dfe-4b29-b1e3-d3afd704a8be","ios":"levelo://app?vid=6485b115-9dfe-4b29-b1e3-d3afd704a8be"},"vehicle_type_id":"4","last_reported":1686686827,"current_range_meters":28400,"station_id":"","pricing_plan_id":"free"},{"bike_id":"c0fb8083-e02d-4dec-b1b9-fa095e6c5b75","system_id":"levelo_inurba_marseille","lat":43.337396,"lon":5.374526,"is_reserved":false,"is_disabled":false,"rental_uris":{"android":"levelo://app?vid=c0fb8083-e02d-4dec-b1b9-fa095e6c5b75","ios":"levelo://app?vid=c0fb8083-e02d-4dec-b1b9-fa095e6c5b75"},"vehicle_type_id":"4","last_reported":1686686827,"current_range_meters":11600,"station_id":"ce4bhp92rcd13ifvqhag","pricing_plan_id":"free"},{"bike_id":"ea03c79d-f315-40db-8e1e-c8c7f4d4a21b","system_id":"levelo_inurba_marseille","lat":43.33745,"lon":5.37441,"is_reserved":false,"is_disabled":false,"rental_uris":{"android":"levelo://app?vid=ea03c79d-f315-40db-8e1e-c8c7f4d4a21b","ios":"levelo://app?vid=ea03c79d-f315-40db-8e1e-c8c7f4d4a21b"},"vehicle_type_id":"4","last_reported":1686686827,"current_range_meters":29200,"station_id":"","pricing_plan_id":"free"},{"bike_id":"a731bbdd-f59f-4647-9d97-b39963d2ac1b","system_id":"levelo_inurba_marseille","lat":43.33758,"lon":5.37429,"is_reserved":false,"is_disabled":false,"rental_uris":{"android":"levelo://app?vid=a731bbdd-f59f-4647-9d97-b39963d2ac1b","ios":"levelo://app?vid=a731bbdd-f59f-4647-9d97-b39963d2ac1b"},"vehicle_type_id":"4","last_reported":1686686827,"current_range_meters":29600,"station_id":"","pricing_plan_id":"free"},{"bike_id":"588e34a7-ba7a-48c7-91de-0e47ded90344","system_id":"levelo_inurba_marseille","lat":43.33757,"lon":5.37461,"is_reserved":false,"is_disabled":false,"rental_uris":{"android":"levelo://app?vid=588e34a7-ba7a-48c7-91de-0e47ded90344","ios":"levelo://app?vid=588e34a7-ba7a-48c7-91de-0e47ded90344"},"vehicle_type_id":"4","last_reported":1686686827,"current_range_meters":30400,"station_id":"","pricing_plan_id":"free"},{"bike_id":"bc2160ce-d82f-4091-92b8-753a5390acfa","system_id":"levelo_inurba_marseille","lat":43.30642,"lon":5.401031,"is_reserved":false,"is_disabled":false,"rental_uris":{"android":"levelo://app?vid=bc2160ce-d82f-4091-92b8-753a5390acfa","ios":"levelo://app?vid=bc2160ce-d82f-4091-92b8-753a5390acfa"},"vehicle_type_id":"4","last_reported":1686686827,"current_range_meters":1200,"station_id":"ce4bh112rcd13ifvqda0","pricing_plan_id":"free"},{"bike_id":"b54d7825-53c3-4d57-b48f-bc67877c2517","system_id":"levelo_inurba_marseille","lat":43.337628,"lon":5.374598,"is_reserved":false,"is_disabled":false,"rental_uris":{"android":"levelo://app?vid=b54d7825-53c3-4d57-b48f-bc67877c2517","ios":"levelo://app?vid=b54d7825-53c3-4d57-b48f-bc67877c2517"},"vehicle_type_id":"4","last_reported":1686686827,"current_range_meters":30800,"station_id":"","pricing_plan_id":"free"},{"bike_id":"ada2a247-7155-44b8-95b3-81bbecf0b87f","system_id":"levelo_inurba_marseille","lat":43.33771,"lon":5.37427,"is_reserved":false,"is_disabled":false,"rental_uris":{"android":"levelo://app?vid=ada2a247-7155-44b8-95b3-81bbecf0b87f","ios":"levelo://app?vid=ada2a247-7155-44b8-95b3-81bbecf0b87f"},"vehicle_type_id":"4","last_reported":1686686827,"current_range_meters":31200,"station_id":"","pricing_plan_id":"free"},{"bike_id":"78bc956e-df6c-4f69-88e2-4c2c560953a9","system_id":"levelo_inurba_marseille","lat":43.30642,"lon":5.401031,"is_reserved":false,"is_disabled":false,"rental_uris":{"android":"levelo://app?vid=78bc956e-df6c-4f69-88e2-4c2c560953a9","ios":"levelo://app?vid=78bc956e-df6c-4f69-88e2-4c2c560953a9"},"vehicle_type_id":"4","last_reported":1686686827,"current_range_meters":6000,"station_id":"ce4bh112rcd13ifvqda0","pricing_plan_id":"free"},{"bike_id":"c7fd6733-e098-420d-a7b9-474273986877","system_id":"levelo_inurba_marseille","lat":43.30642,"lon":5.401031,"is_reserved":false,"is_disabled":false,"rental_uris":{"android":"levelo://app?vid=c7fd6733-e098-420d-a7b9-474273986877","ios":"levelo://app?vid=c7fd6733-e098-420d-a7b9-474273986877"},"vehicle_type_id":"4","last_reported":1686686827,"current_range_meters":0,"station_id":"ce4bh112rcd13ifvqda0","pricing_plan_id":"free"},{"bike_id":"acce9be2-e8fd-4174-b0df-43811d7cabb6","system_id":"levelo_inurba_marseille","lat":43.30642,"lon":5.401031,"is_reserved":false,"is_disabled":false,"rental_uris":{"android":"levelo://app?vid=acce9be2-e8fd-4174-b0df-43811d7cabb6","ios":"levelo://app?vid=acce9be2-e8fd-4174-b0df-43811d7cabb6"},"vehicle_type_id":"4","last_reported":1686686827,"current_range_meters":24400,"station_id":"ce4bh112rcd13ifvqda0","pricing_plan_id":"free"},{"bike_id":"7058861e-f221-421d-a5d8-a99728b13f28","system_id":"levelo_inurba_marseille","lat":43.30642,"lon":5.401031,"is_reserved":false,"is_disabled":false,"rental_uris":{"android":"levelo://app?vid=7058861e-f221-421d-a5d8-a99728b13f28","ios":"levelo://app?vid=7058861e-f221-421d-a5d8-a99728b13f28"},"vehicle_type_id":"4","last_reported":1686686827,"current_range_meters":18400,"station_id":"ce4bh112rcd13ifvqda0","pricing_plan_id":"free"},{"bike_id":"59b1272e-e659-43c9-93ec-2bd2cbe1d35b","system_id":"levelo_inurba_marseille","lat":43.3378,"lon":5.37426,"is_reserved":false,"is_disabled":false,"rental_uris":{"android":"levelo://app?vid=59b1272e-e659-43c9-93ec-2bd2cbe1d35b","ios":"levelo://app?vid=59b1272e-e659-43c9-93ec-2bd2cbe1d35b"},"vehicle_type_id":"4","last_reported":1686686827,"current_range_meters":26000,"station_id":"","pricing_plan_id":"free"},{"bike_id":"bd3f63b1-f571-4147-a7e4-3cbc2c2c0312","system_id":"levelo_inurba_marseille","lat":43.30642,"lon":5.401031,"is_reserved":false,"is_disabled":false,"rental_uris":{"android":"levelo://app?vid=bd3f63b1-f571-4147-a7e4-3cbc2c2c0312","ios":"levelo://app?vid=bd3f63b1-f571-4147-a7e4-3cbc2c2c0312"},"vehicle_type_id":"4","last_reported":1686686827,"current_range_meters":30800,"station_id":"ce4bh112rcd13ifvqda0","pricing_plan_id":"free"},{"bike_id":"4fae6ba7-4f07-42b6-af8f-934e9e93529c","system_id":"levelo_inurba_marseille","lat":43.29871,"lon":5.39724,"is_reserved":false,"is_disabled":false,"rental_uris":{"android":"levelo://app?vid=4fae6ba7-4f07-42b6-af8f-934e9e93529c","ios":"levelo://app?vid=4fae6ba7-4f07-42b6-af8f-934e9e93529c"},"vehicle_type_id":"4","last_reported":1686686827,"current_range_meters":400,"station_id":"ce4bh0h2rcd13ifvqd50","pricing_plan_id":"free"},{"bike_id":"016cb9b0-f625-4865-9355-4b66c4fa816d","system_id":"levelo_inurba_marseille","lat":43.286691,"lon":5.363306,"is_reserved":false,"is_disabled":false,"rental_uris":{"android":"levelo://app?vid=016cb9b0-f625-4865-9355-4b66c4fa816d","ios":"levelo://app?vid=016cb9b0-f625-4865-9355-4b66c4fa816d"},"vehicle_type_id":"4","last_reported":1686686827,"current_range_meters":8000,"station_id":"ce4bhah2rcd13ifvqej0","pricing_plan_id":"free"},{"bike_id":"2031bcbc-4e58-442f-8b6d-248d16ac224e","system_id":"levelo_inurba_marseille","lat":43.286591,"lon":5.363346,"is_reserved":false,"is_disabled":false,"rental_uris":{"android":"levelo://app?vid=2031bcbc-4e58-442f-8b6d-248d16ac224e","ios":"levelo://app?vid=2031bcbc-4e58-442f-8b6d-248d16ac224e"},"vehicle_type_id":"4","last_reported":1686686827,"current_range_meters":10400,"station_id":"ce4bhah2rcd13ifvqej0","pricing_plan_id":"free"},{"bike_id":"103287c6-4d51-4b4e-931d-42be4bac375c","system_id":"levelo_inurba_marseille","lat":43.28703,"lon":5.37382,"is_reserved":false,"is_disabled":false,"rental_uris":{"android":"levelo://app?vid=103287c6-4d51-4b4e-931d-42be4bac375c","ios":"levelo://app?vid=103287c6-4d51-4b4e-931d-42be4bac375c"},"vehicle_type_id":"4","last_reported":1686686827,"current_range_meters":19200,"station_id":"","pricing_plan_id":"free"},{"bike_id":"2d318e7a-7645-4fee-bf99-5299776d3e9c","system_id":"levelo_inurba_marseille","lat":43.28666,"lon":5.36345,"is_reserved":false,"is_disabled":false,"rental_uris":{"android":"levelo://app?vid=2d318e7a-7645-4fee-bf99-5299776d3e9c","ios":"levelo://app?vid=2d318e7a-7645-4fee-bf99-5299776d3e9c"},"vehicle_type_id":"4","last_reported":1686686827,"current_range_meters":12000,"station_id":"ce4bhah2rcd13ifvqej0","pricing_plan_id":"free"},{"bike_id":"6331f4f1-6430-45ea-aff3-d0555306eb11","system_id":"levelo_inurba_marseille","lat":43.286591,"lon":5.363346,"is_reserved":false,"is_disabled":false,"rental_uris":{"android":"levelo://app?vid=6331f4f1-6430-45ea-aff3-d0555306eb11","ios":"levelo://app?vid=6331f4f1-6430-45ea-aff3-d0555306eb11"},"vehicle_type_id":"4","last_reported":1686686827,"current_range_meters":4800,"station_id":"ce4bhah2rcd13ifvqej0","pricing_plan_id":"free"},{"bike_id":"4be5dcf8-abb9-4ab4-b59f-540cd5199675","system_id":"levelo_inurba_marseille","lat":43.286591,"lon":5.363346,"is_reserved":false,"is_disabled":false,"rental_uris":{"android":"levelo://app?vid=4be5dcf8-abb9-4ab4-b59f-540cd5199675","ios":"levelo://app?vid=4be5dcf8-abb9-4ab4-b59f-540cd5199675"},"vehicle_type_id":"4","last_reported":1686686827,"current_range_meters":17200,"station_id":"ce4bhah2rcd13ifvqej0","pricing_plan_id":"free"},{"bike_id":"9cf6f045-0f26-44fb-94fc-3f5f7745fa98","system_id":"levelo_inurba_marseille","lat":43.28662,"lon":5.36361,"is_reserved":false,"is_disabled":false,"rental_uris":{"android":"levelo://app?vid=9cf6f045-0f26-44fb-94fc-3f5f7745fa98","ios":"levelo://app?vid=9cf6f045-0f26-44fb-94fc-3f5f7745fa98"},"vehicle_type_id":"4","last_reported":1686686827,"current_range_meters":0,"station_id":"ce4bhah2rcd13ifvqej0","pricing_plan_id":"free"},{"bike_id":"0166d14d-130f-4e84-a441-a16724dc32fc","system_id":"levelo_inurba_marseille","lat":43.298681,"lon":5.397225,"is_reserved":false,"is_disabled":false,"rental_uris":{"android":"levelo://app?vid=0166d14d-130f-4e84-a441-a16724dc32fc","ios":"levelo://app?vid=0166d14d-130f-4e84-a441-a16724dc32fc"},"vehicle_type_id":"4","last_reported":1686686827,"current_range_meters":20400,"station_id":"ce4bh0h2rcd13ifvqd50","pricing_plan_id":"free"},{"bike_id":"0b8ae5a1-d65d-4f84-8535-8041df476248","system_id":"levelo_inurba_marseille","lat":43.298681,"lon":5.397225,"is_reserved":false,"is_disabled":false,"rental_uris":{"android":"levelo://app?vid=0b8ae5a1-d65d-4f84-8535-8041df476248","ios":"levelo://app?vid=0b8ae5a1-d65d-4f84-8535-8041df476248"},"vehicle_type_id":"4","last_reported":1686686827,"current_range_meters":6000,"station_id":"ce4bh0h2rcd13ifvqd50","pricing_plan_id":"free"},{"bike_id":"5d3de7d3-b04f-487c-a7ae-45bb6dd1817f","system_id":"levelo_inurba_marseille","lat":43.286591,"lon":5.363346,"is_reserved":false,"is_disabled":false,"rental_uris":{"android":"levelo://app?vid=5d3de7d3-b04f-487c-a7ae-45bb6dd1817f","ios":"levelo://app?vid=5d3de7d3-b04f-487c-a7ae-45bb6dd1817f"},"vehicle_type_id":"4","last_reported":1686686827,"current_range_meters":14800,"station_id":"ce4bhah2rcd13ifvqej0","pricing_plan_id":"free"},{"bike_id":"a7105e77-4086-40ea-addd-a715a28be212","system_id":"levelo_inurba_marseille","lat":43.286591,"lon":5.363346,"is_reserved":false,"is_disabled":false,"rental_uris":{"android":"levelo://app?vid=a7105e77-4086-40ea-addd-a715a28be212","ios":"levelo://app?vid=a7105e77-4086-40ea-addd-a715a28be212"},"vehicle_type_id":"4","last_reported":1686686827,"current_range_meters":6400,"station_id":"ce4bhah2rcd13ifvqej0","pricing_plan_id":"free"},{"bike_id":"bc5936d4-3c89-4dcf-bf8c-b33e90258b68","system_id":"levelo_inurba_marseille","lat":43.28655,"lon":5.36358,"is_reserved":false,"is_disabled":false,"rental_uris":{"android":"levelo://app?vid=bc5936d4-3c89-4dcf-bf8c-b33e90258b68","ios":"levelo://app?vid=bc5936d4-3c89-4dcf-bf8c-b33e90258b68"},"vehicle_type_id":"4","last_reported":1686686827,"current_range_meters":20800,"station_id":"ce4bhah2rcd13ifvqej0","pricing_plan_id":"free"},{"bike_id":"c4d543c9-7ec4-4959-b989-223222418ef8","system_id":"levelo_inurba_marseille","lat":43.295194,"lon":5.39397,"is_reserved":false,"is_disabled":false,"rental_uris":{"android":"levelo://app?vid=c4d543c9-7ec4-4959-b989-223222418ef8","ios":"levelo://app?vid=c4d543c9-7ec4-4959-b989-223222418ef8"},"vehicle_type_id":"4","last_reported":1686686827,"current_range_meters":0,"station_id":"ce4bh292rcd13ifvqdf0","pricing_plan_id":"free"},{"bike_id":"35a2310b-3e20-4aca-abd7-0b06627cb930","system_id":"levelo_inurba_marseille","lat":43.295194,"lon":5.39397,"is_reserved":false,"is_disabled":false,"rental_uris":{"android":"levelo://app?vid=35a2310b-3e20-4aca-abd7-0b06627cb930","ios":"levelo://app?vid=35a2310b-3e20-4aca-abd7-0b06627cb930"},"vehicle_type_id":"4","last_reported":1686686827,"current_range_meters":29600,"station_id":"ce4bh292rcd13ifvqdf0","pricing_plan_id":"free"},{"bike_id":"1ab0a19f-ebd1-4b46-98ac-9e12978073cf","system_id":"levelo_inurba_marseille","lat":43.295196,"lon":5.39397,"is_reserved":false,"is_disabled":false,"rental_uris":{"android":"levelo://app?vid=1ab0a19f-ebd1-4b46-98ac-9e12978073cf","ios":"levelo://app?vid=1ab0a19f-ebd1-4b46-98ac-9e12978073cf"},"vehicle_type_id":"4","last_reported":1686686827,"current_range_meters":7600,"station_id":"ce4bh292rcd13ifvqdf0","pricing_plan_id":"free"},{"bike_id":"5c371e7d-9d34-4a35-8db3-194694324033","system_id":"levelo_inurba_marseille","lat":43.29518,"lon":5.39404,"is_reserved":false,"is_disabled":false,"rental_uris":{"android":"levelo://app?vid=5c371e7d-9d34-4a35-8db3-194694324033","ios":"levelo://app?vid=5c371e7d-9d34-4a35-8db3-194694324033"},"vehicle_type_id":"4","last_reported":1686686827,"current_range_meters":4000,"station_id":"ce4bh292rcd13ifvqdf0","pricing_plan_id":"free"},{"bike_id":"8c9be84a-d5ea-4379-a6e1-12331ba92857","system_id":"levelo_inurba_marseille","lat":43.302759,"lon":5.400793,"is_reserved":false,"is_disabled":false,"rental_uris":{"android":"levelo://app?vid=8c9be84a-d5ea-4379-a6e1-12331ba92857","ios":"levelo://app?vid=8c9be84a-d5ea-4379-a6e1-12331ba92857"},"vehicle_type_id":"4","last_reported":1686686827,"current_range_meters":28000,"station_id":"ce4bgvh2rcd13ifvqcs0","pricing_plan_id":"free"},{"bike_id":"23e397a6-0e5c-4a83-8c5d-b7e528469981","system_id":"levelo_inurba_marseille","lat":43.302759,"lon":5.400793,"is_reserved":false,"is_disabled":false,"rental_uris":{"android":"levelo://app?vid=23e397a6-0e5c-4a83-8c5d-b7e528469981","ios":"levelo://app?vid=23e397a6-0e5c-4a83-8c5d-b7e528469981"},"vehicle_type_id":"4","last_reported":1686686827,"current_range_meters":0,"station_id":"ce4bgvh2rcd13ifvqcs0","pricing_plan_id":"free"},{"bike_id":"a7f81aec-7604-4b22-b094-1e8e6c69274b","system_id":"levelo_inurba_marseille","lat":43.286039,"lon":5.370681,"is_reserved":false,"is_disabled":false,"rental_uris":{"android":"levelo://app?vid=a7f81aec-7604-4b22-b094-1e8e6c69274b","ios":"levelo://app?vid=a7f81aec-7604-4b22-b094-1e8e6c69274b"},"vehicle_type_id":"4","last_reported":1686686827,"current_range_meters":4800,"station_id":"ce4bht12rcd13ifvqi60","pricing_plan_id":"free"},{"bike_id":"bc171ba6-4366-4f6d-a9c9-2e9124ddb71c","system_id":"levelo_inurba_marseille","lat":43.286039,"lon":5.370679,"is_reserved":false,"is_disabled":false,"rental_uris":{"android":"levelo://app?vid=bc171ba6-4366-4f6d-a9c9-2e9124ddb71c","ios":"levelo://app?vid=bc171ba6-4366-4f6d-a9c9-2e9124ddb71c"},"vehicle_type_id":"4","last_reported":1686686827,"current_range_meters":24400,"station_id":"ce4bht12rcd13ifvqi60","pricing_plan_id":"free"},{"bike_id":"d7a27e8d-b763-4424-a828-c6574598aa0a","system_id":"levelo_inurba_marseille","lat":43.287184,"lon":5.37937,"is_reserved":false,"is_disabled":false,"rental_uris":{"android":"levelo://app?vid=d7a27e8d-b763-4424-a828-c6574598aa0a","ios":"levelo://app?vid=d7a27e8d-b763-4424-a828-c6574598aa0a"},"vehicle_type_id":"4","last_reported":1686686827,"current_range_meters":14000,"station_id":"ce4bh9p2rcd13ifvqec0","pricing_plan_id":"free"},{"bike_id":"b8d6f831-60e5-403e-a5b1-f4b81dd44c09","system_id":"levelo_inurba_marseille","lat":43.287185,"lon":5.379373,"is_reserved":false,"is_disabled":false,"rental_uris":{"android":"levelo://app?vid=b8d6f831-60e5-403e-a5b1-f4b81dd44c09","ios":"levelo://app?vid=b8d6f831-60e5-403e-a5b1-f4b81dd44c09"},"vehicle_type_id":"4","last_reported":1686686827,"current_range_meters":16800,"station_id":"ce4bh9p2rcd13ifvqec0","pricing_plan_id":"free"},{"bike_id":"7ed3d3d8-7dd8-4f3f-b986-d2cd05fee469","system_id":"levelo_inurba_marseille","lat":43.287185,"lon":5.379373,"is_reserved":false,"is_disabled":false,"rental_uris":{"android":"levelo://app?vid=7ed3d3d8-7dd8-4f3f-b986-d2cd05fee469","ios":"levelo://app?vid=7ed3d3d8-7dd8-4f3f-b986-d2cd05fee469"},"vehicle_type_id":"4","last_reported":1686686827,"current_range_meters":15200,"station_id":"ce4bh9p2rcd13ifvqec0","pricing_plan_id":"free"},{"bike_id":"cfff95a2-018c-4a9f-a29c-e0815f3d7e42","system_id":"levelo_inurba_marseille","lat":43.287185,"lon":5.379373,"is_reserved":false,"is_disabled":false,"rental_uris":{"android":"levelo://app?vid=cfff95a2-018c-4a9f-a29c-e0815f3d7e42","ios":"levelo://app?vid=cfff95a2-018c-4a9f-a29c-e0815f3d7e42"},"vehicle_type_id":"4","last_reported":1686686827,"current_range_meters":20000,"station_id":"ce4bh9p2rcd13ifvqec0","pricing_plan_id":"free"},{"bike_id":"29cc1a12-1226-472d-a787-d0bf7bea768e","system_id":"levelo_inurba_marseille","lat":43.287185,"lon":5.379373,"is_reserved":false,"is_disabled":false,"rental_uris":{"android":"levelo://app?vid=29cc1a12-1226-472d-a787-d0bf7bea768e","ios":"levelo://app?vid=29cc1a12-1226-472d-a787-d0bf7bea768e"},"vehicle_type_id":"4","last_reported":1686686827,"current_range_meters":6800,"station_id":"ce4bh9p2rcd13ifvqec0","pricing_plan_id":"free"},{"bike_id":"7a243aef-7b52-434a-a484-401bcbf161af","system_id":"levelo_inurba_marseille","lat":43.316517,"lon":5.404375,"is_reserved":false,"is_disabled":false,"rental_uris":{"android":"levelo://app?vid=7a243aef-7b52-434a-a484-401bcbf161af","ios":"levelo://app?vid=7a243aef-7b52-434a-a484-401bcbf161af"},"vehicle_type_id":"4","last_reported":1686686827,"current_range_meters":1600,"station_id":"ce4bh012rcd13ifvqd00","pricing_plan_id":"free"},{"bike_id":"58ad9de2-0832-42c7-bd15-2e8d56dda42f","system_id":"levelo_inurba_marseille","lat":43.316517,"lon":5.404375,"is_reserved":false,"is_disabled":false,"rental_uris":{"android":"levelo://app?vid=58ad9de2-0832-42c7-bd15-2e8d56dda42f","ios":"levelo://app?vid=58ad9de2-0832-42c7-bd15-2e8d56dda42f"},"vehicle_type_id":"4","last_reported":1686686827,"current_range_meters":3600,"station_id":"ce4bh012rcd13ifvqd00","pricing_plan_id":"free"},{"bike_id":"57334764-c3ab-45cd-9f29-b8eb7306d5e4","system_id":"levelo_inurba_marseille","lat":43.291994,"lon":5.392907,"is_reserved":false,"is_disabled":false,"rental_uris":{"android":"levelo://app?vid=57334764-c3ab-45cd-9f29-b8eb7306d5e4","ios":"levelo://app?vid=57334764-c3ab-45cd-9f29-b8eb7306d5e4"},"vehicle_type_id":"4","last_reported":1686686827,"current_range_meters":13600,"station_id":"ce4bh192rcd13ifvqdd0","pricing_plan_id":"free"},{"bike_id":"2b21876a-6264-4fb4-b344-e598dbc527d3","system_id":"levelo_inurba_marseille","lat":43.28505,"lon":5.37449,"is_reserved":false,"is_disabled":false,"rental_uris":{"android":"levelo://app?vid=2b21876a-6264-4fb4-b344-e598dbc527d3","ios":"levelo://app?vid=2b21876a-6264-4fb4-b344-e598dbc527d3"},"vehicle_type_id":"4","last_reported":1686686827,"current_range_meters":9200,"station_id":"","pricing_plan_id":"free"},{"bike_id":"6b135970-618d-4391-bb90-1b73c37ab165","system_id":"levelo_inurba_marseille","lat":43.284534,"lon":5.358662,"is_reserved":false,"is_disabled":false,"rental_uris":{"android":"levelo://app?vid=6b135970-618d-4391-bb90-1b73c37ab165","ios":"levelo://app?vid=6b135970-618d-4391-bb90-1b73c37ab165"},"vehicle_type_id":"4","last_reported":1686686827,"current_range_meters":23200,"station_id":"ce4bhah2rcd13ifvqei0","pricing_plan_id":"free"},{"bike_id":"7055644a-746e-4f00-8125-3a6a21e843b2","system_id":"levelo_inurba_marseille","lat":43.284534,"lon":5.358662,"is_reserved":false,"is_disabled":false,"rental_uris":{"android":"levelo://app?vid=7055644a-746e-4f00-8125-3a6a21e843b2","ios":"levelo://app?vid=7055644a-746e-4f00-8125-3a6a21e843b2"},"vehicle_type_id":"4","last_reported":1686686827,"current_range_meters":2800,"station_id":"ce4bhah2rcd13ifvqei0","pricing_plan_id":"free"},{"bike_id":"55cc9f1f-8cfd-4fc8-ae6b-6909a8089b19","system_id":"levelo_inurba_marseille","lat":43.284534,"lon":5.358662,"is_reserved":false,"is_disabled":false,"rental_uris":{"android":"levelo://app?vid=55cc9f1f-8cfd-4fc8-ae6b-6909a8089b19","ios":"levelo://app?vid=55cc9f1f-8cfd-4fc8-ae6b-6909a8089b19"},"vehicle_type_id":"4","last_reported":1686686827,"current_range_meters":1600,"station_id":"ce4bhah2rcd13ifvqei0","pricing_plan_id":"free"},{"bike_id":"690f04f6-4f3a-447f-9494-d460b3e46778","system_id":"levelo_inurba_marseille","lat":43.284534,"lon":5.358662,"is_reserved":false,"is_disabled":false,"rental_uris":{"android":"levelo://app?vid=690f04f6-4f3a-447f-9494-d460b3e46778","ios":"levelo://app?vid=690f04f6-4f3a-447f-9494-d460b3e46778"},"vehicle_type_id":"4","last_reported":1686686827,"current_range_meters":400,"station_id":"ce4bhah2rcd13ifvqei0","pricing_plan_id":"free"},{"bike_id":"7e18a9d1-d0af-48c1-82c5-423e7bd8f5ef","system_id":"levelo_inurba_marseille","lat":43.28454,"lon":5.35896,"is_reserved":false,"is_disabled":false,"rental_uris":{"android":"levelo://app?vid=7e18a9d1-d0af-48c1-82c5-423e7bd8f5ef","ios":"levelo://app?vid=7e18a9d1-d0af-48c1-82c5-423e7bd8f5ef"},"vehicle_type_id":"4","last_reported":1686686827,"current_range_meters":4400,"station_id":"ce4bhah2rcd13ifvqei0","pricing_plan_id":"free"},{"bike_id":"7759e3c8-6667-4a6f-8548-81fb845146bd","system_id":"levelo_inurba_marseille","lat":43.284534,"lon":5.358662,"is_reserved":false,"is_disabled":false,"rental_uris":{"android":"levelo://app?vid=7759e3c8-6667-4a6f-8548-81fb845146bd","ios":"levelo://app?vid=7759e3c8-6667-4a6f-8548-81fb845146bd"},"vehicle_type_id":"4","last_reported":1686686827,"current_range_meters":11200,"station_id":"ce4bhah2rcd13ifvqei0","pricing_plan_id":"free"},{"bike_id":"96c6d250-0fcf-4329-957e-fddcb3159f66","system_id":"levelo_inurba_marseille","lat":43.284534,"lon":5.358662,"is_reserved":false,"is_disabled":false,"rental_uris":{"android":"levelo://app?vid=96c6d250-0fcf-4329-957e-fddcb3159f66","ios":"levelo://app?vid=96c6d250-0fcf-4329-957e-fddcb3159f66"},"vehicle_type_id":"4","last_reported":1686686827,"current_range_meters":8800,"station_id":"ce4bhah2rcd13ifvqei0","pricing_plan_id":"free"},{"bike_id":"750604c3-4c39-4652-95c0-f85c6c81de7a","system_id":"levelo_inurba_marseille","lat":43.284534,"lon":5.358662,"is_reserved":false,"is_disabled":false,"rental_uris":{"android":"levelo://app?vid=750604c3-4c39-4652-95c0-f85c6c81de7a","ios":"levelo://app?vid=750604c3-4c39-4652-95c0-f85c6c81de7a"},"vehicle_type_id":"4","last_reported":1686686827,"current_range_meters":6400,"station_id":"ce4bhah2rcd13ifvqei0","pricing_plan_id":"free"},{"bike_id":"ca772d30-db6e-45ff-9a9d-189ce99f3058","system_id":"levelo_inurba_marseille","lat":43.285856,"lon":5.350771,"is_reserved":false,"is_disabled":false,"rental_uris":{"android":"levelo://app?vid=ca772d30-db6e-45ff-9a9d-189ce99f3058","ios":"levelo://app?vid=ca772d30-db6e-45ff-9a9d-189ce99f3058"},"vehicle_type_id":"4","last_reported":1686686827,"current_range_meters":0,"station_id":"ce4bhch2rcd13ifvqeug","pricing_plan_id":"free"},{"bike_id":"f4d7ddb7-33f1-42fc-9b78-eeb7e44b93f4","system_id":"levelo_inurba_marseille","lat":43.2861,"lon":5.351,"is_reserved":false,"is_disabled":false,"rental_uris":{"android":"levelo://app?vid=f4d7ddb7-33f1-42fc-9b78-eeb7e44b93f4","ios":"levelo://app?vid=f4d7ddb7-33f1-42fc-9b78-eeb7e44b93f4"},"vehicle_type_id":"4","last_reported":1686686827,"current_range_meters":30800,"station_id":"","pricing_plan_id":"free"},{"bike_id":"9b6bcc82-171f-4fe6-8f56-d5101e37b75a","system_id":"levelo_inurba_marseille","lat":43.28398,"lon":5.37523,"is_reserved":false,"is_disabled":false,"rental_uris":{"android":"levelo://app?vid=9b6bcc82-171f-4fe6-8f56-d5101e37b75a","ios":"levelo://app?vid=9b6bcc82-171f-4fe6-8f56-d5101e37b75a"},"vehicle_type_id":"4","last_reported":1686686827,"current_range_meters":2000,"station_id":"","pricing_plan_id":"free"},{"bike_id":"5edff5b9-a1ba-40bf-b372-7e34a865256f","system_id":"levelo_inurba_marseille","lat":43.296263,"lon":5.40601,"is_reserved":false,"is_disabled":false,"rental_uris":{"android":"levelo://app?vid=5edff5b9-a1ba-40bf-b372-7e34a865256f","ios":"levelo://app?vid=5edff5b9-a1ba-40bf-b372-7e34a865256f"},"vehicle_type_id":"4","last_reported":1686686827,"current_range_meters":12000,"station_id":"ce4bh0h2rcd13ifvqd60","pricing_plan_id":"free"},{"bike_id":"f62ba153-082f-40a0-996c-72d65e874915","system_id":"levelo_inurba_marseille","lat":43.323464,"lon":5.406297,"is_reserved":false,"is_disabled":false,"rental_uris":{"android":"levelo://app?vid=f62ba153-082f-40a0-996c-72d65e874915","ios":"levelo://app?vid=f62ba153-082f-40a0-996c-72d65e874915"},"vehicle_type_id":"4","last_reported":1686686827,"current_range_meters":30800,"station_id":"ce4bhq92rcd13ifvqhjg","pricing_plan_id":"free"},{"bike_id":"3809e364-cfe3-479b-9723-8a57900a25ad","system_id":"levelo_inurba_marseille","lat":43.323464,"lon":5.406297,"is_reserved":false,"is_disabled":false,"rental_uris":{"android":"levelo://app?vid=3809e364-cfe3-479b-9723-8a57900a25ad","ios":"levelo://app?vid=3809e364-cfe3-479b-9723-8a57900a25ad"},"vehicle_type_id":"4","last_reported":1686686827,"current_range_meters":20800,"station_id":"ce4bhq92rcd13ifvqhjg","pricing_plan_id":"free"},{"bike_id":"484885b6-3140-4a4f-8522-b35d52385562","system_id":"levelo_inurba_marseille","lat":43.323464,"lon":5.406297,"is_reserved":false,"is_disabled":false,"rental_uris":{"android":"levelo://app?vid=484885b6-3140-4a4f-8522-b35d52385562","ios":"levelo://app?vid=484885b6-3140-4a4f-8522-b35d52385562"},"vehicle_type_id":"4","last_reported":1686686827,"current_range_meters":29600,"station_id":"ce4bhq92rcd13ifvqhjg","pricing_plan_id":"free"},{"bike_id":"e2fc70b8-7548-494f-8e43-0c065153422e","system_id":"levelo_inurba_marseille","lat":43.323464,"lon":5.406297,"is_reserved":false,"is_disabled":false,"rental_uris":{"android":"levelo://app?vid=e2fc70b8-7548-494f-8e43-0c065153422e","ios":"levelo://app?vid=e2fc70b8-7548-494f-8e43-0c065153422e"},"vehicle_type_id":"4","last_reported":1686686827,"current_range_meters":31600,"station_id":"ce4bhq92rcd13ifvqhjg","pricing_plan_id":"free"},{"bike_id":"16e5fedd-6e86-436a-a0a2-72c7cd60a6ea","system_id":"levelo_inurba_marseille","lat":43.32356,"lon":5.40629,"is_reserved":false,"is_disabled":false,"rental_uris":{"android":"levelo://app?vid=16e5fedd-6e86-436a-a0a2-72c7cd60a6ea","ios":"levelo://app?vid=16e5fedd-6e86-436a-a0a2-72c7cd60a6ea"},"vehicle_type_id":"4","last_reported":1686686827,"current_range_meters":31200,"station_id":"ce4bhq92rcd13ifvqhjg","pricing_plan_id":"free"},{"bike_id":"fe567aea-957e-4104-bc6c-977fa42d46fa","system_id":"levelo_inurba_marseille","lat":43.284219,"lon":5.3497,"is_reserved":false,"is_disabled":false,"rental_uris":{"android":"levelo://app?vid=fe567aea-957e-4104-bc6c-977fa42d46fa","ios":"levelo://app?vid=fe567aea-957e-4104-bc6c-977fa42d46fa"},"vehicle_type_id":"4","last_reported":1686686827,"current_range_meters":24800,"station_id":"ce4bhbh2rcd13ifvqepg","pricing_plan_id":"free"},{"bike_id":"c23776d9-98e7-4fa9-8d70-4de0e2254906","system_id":"levelo_inurba_marseille","lat":43.284219,"lon":5.3497,"is_reserved":false,"is_disabled":false,"rental_uris":{"android":"levelo://app?vid=c23776d9-98e7-4fa9-8d70-4de0e2254906","ios":"levelo://app?vid=c23776d9-98e7-4fa9-8d70-4de0e2254906"},"vehicle_type_id":"4","last_reported":1686686827,"current_range_meters":0,"station_id":"ce4bhbh2rcd13ifvqepg","pricing_plan_id":"free"},{"bike_id":"f6503eda-7ae0-4a9f-9e5f-8bb8eb793075","system_id":"levelo_inurba_marseille","lat":43.28422,"lon":5.3499,"is_reserved":false,"is_disabled":false,"rental_uris":{"android":"levelo://app?vid=f6503eda-7ae0-4a9f-9e5f-8bb8eb793075","ios":"levelo://app?vid=f6503eda-7ae0-4a9f-9e5f-8bb8eb793075"},"vehicle_type_id":"4","last_reported":1686686827,"current_range_meters":30800,"station_id":"ce4bhbh2rcd13ifvqepg","pricing_plan_id":"free"},{"bike_id":"9074261e-d861-4f7d-b572-805f5bb91966","system_id":"levelo_inurba_marseille","lat":43.29461,"lon":5.40272,"is_reserved":false,"is_disabled":false,"rental_uris":{"android":"levelo://app?vid=9074261e-d861-4f7d-b572-805f5bb91966","ios":"levelo://app?vid=9074261e-d861-4f7d-b572-805f5bb91966"},"vehicle_type_id":"4","last_reported":1686686827,"current_range_meters":1600,"station_id":"","pricing_plan_id":"free"},{"bike_id":"c97c3920-feaa-467f-a681-b447217aa138","system_id":"levelo_inurba_marseille","lat":43.292724,"lon":5.401131,"is_reserved":false,"is_disabled":false,"rental_uris":{"android":"levelo://app?vid=c97c3920-feaa-467f-a681-b447217aa138","ios":"levelo://app?vid=c97c3920-feaa-467f-a681-b447217aa138"},"vehicle_type_id":"4","last_reported":1686686827,"current_range_meters":6800,"station_id":"ce4bh312rcd13ifvqdk0","pricing_plan_id":"free"},{"bike_id":"cd18c65b-b98d-4db5-98dc-a1af59ad3273","system_id":"levelo_inurba_marseille","lat":43.292724,"lon":5.401131,"is_reserved":false,"is_disabled":false,"rental_uris":{"android":"levelo://app?vid=cd18c65b-b98d-4db5-98dc-a1af59ad3273","ios":"levelo://app?vid=cd18c65b-b98d-4db5-98dc-a1af59ad3273"},"vehicle_type_id":"4","last_reported":1686686827,"current_range_meters":23600,"station_id":"ce4bh312rcd13ifvqdk0","pricing_plan_id":"free"},{"bike_id":"8e74b860-9b25-4628-acb5-1bed02c7b7d7","system_id":"levelo_inurba_marseille","lat":43.289363,"lon":5.396322,"is_reserved":false,"is_disabled":false,"rental_uris":{"android":"levelo://app?vid=8e74b860-9b25-4628-acb5-1bed02c7b7d7","ios":"levelo://app?vid=8e74b860-9b25-4628-acb5-1bed02c7b7d7"},"vehicle_type_id":"4","last_reported":1686686827,"current_range_meters":7200,"station_id":"ce4bh3h2rcd13ifvqdn0","pricing_plan_id":"free"},{"bike_id":"570de051-0ae2-43ea-9301-9c5f85654b26","system_id":"levelo_inurba_marseille","lat":43.28039,"lon":5.369297,"is_reserved":false,"is_disabled":false,"rental_uris":{"android":"levelo://app?vid=570de051-0ae2-43ea-9301-9c5f85654b26","ios":"levelo://app?vid=570de051-0ae2-43ea-9301-9c5f85654b26"},"vehicle_type_id":"4","last_reported":1686686827,"current_range_meters":16000,"station_id":"ce4bha12rcd13ifvqef0","pricing_plan_id":"free"},{"bike_id":"9f9896ab-314a-4ea7-8c06-fff422c96084","system_id":"levelo_inurba_marseille","lat":43.29041,"lon":5.399634,"is_reserved":false,"is_disabled":false,"rental_uris":{"android":"levelo://app?vid=9f9896ab-314a-4ea7-8c06-fff422c96084","ios":"levelo://app?vid=9f9896ab-314a-4ea7-8c06-fff422c96084"},"vehicle_type_id":"4","last_reported":1686686827,"current_range_meters":28000,"station_id":"ce4bh392rcd13ifvqdm0","pricing_plan_id":"free"},{"bike_id":"71163962-ad67-4e6b-8366-d5b2c8cae856","system_id":"levelo_inurba_marseille","lat":43.281044,"lon":5.378308,"is_reserved":false,"is_disabled":false,"rental_uris":{"android":"levelo://app?vid=71163962-ad67-4e6b-8366-d5b2c8cae856","ios":"levelo://app?vid=71163962-ad67-4e6b-8366-d5b2c8cae856"},"vehicle_type_id":"4","last_reported":1686686827,"current_range_meters":8800,"station_id":"ce4bha12rcd13ifvqee0","pricing_plan_id":"free"},{"bike_id":"3868d128-f259-4bc4-9e45-9220524150b3","system_id":"levelo_inurba_marseille","lat":43.281044,"lon":5.378308,"is_reserved":false,"is_disabled":false,"rental_uris":{"android":"levelo://app?vid=3868d128-f259-4bc4-9e45-9220524150b3","ios":"levelo://app?vid=3868d128-f259-4bc4-9e45-9220524150b3"},"vehicle_type_id":"4","last_reported":1686686827,"current_range_meters":10400,"station_id":"ce4bha12rcd13ifvqee0","pricing_plan_id":"free"},{"bike_id":"03b71865-978c-4d72-9c17-305b4a2605e5","system_id":"levelo_inurba_marseille","lat":43.28107,"lon":5.37834,"is_reserved":false,"is_disabled":false,"rental_uris":{"android":"levelo://app?vid=03b71865-978c-4d72-9c17-305b4a2605e5","ios":"levelo://app?vid=03b71865-978c-4d72-9c17-305b4a2605e5"},"vehicle_type_id":"4","last_reported":1686686827,"current_range_meters":0,"station_id":"ce4bha12rcd13ifvqee0","pricing_plan_id":"free"},{"bike_id":"9d7ae28a-1f4b-45ee-b85b-b3df1c519740","system_id":"levelo_inurba_marseille","lat":43.29628,"lon":5.40593,"is_reserved":false,"is_disabled":false,"rental_uris":{"android":"levelo://app?vid=9d7ae28a-1f4b-45ee-b85b-b3df1c519740","ios":"levelo://app?vid=9d7ae28a-1f4b-45ee-b85b-b3df1c519740"},"vehicle_type_id":"4","last_reported":1686686827,"current_range_meters":22400,"station_id":"ce4bh0h2rcd13ifvqd60","pricing_plan_id":"free"},{"bike_id":"eb00436e-ce22-4fe1-b83d-c05914d47d04","system_id":"levelo_inurba_marseille","lat":43.28573,"lon":5.394992,"is_reserved":false,"is_disabled":false,"rental_uris":{"android":"levelo://app?vid=eb00436e-ce22-4fe1-b83d-c05914d47d04","ios":"levelo://app?vid=eb00436e-ce22-4fe1-b83d-c05914d47d04"},"vehicle_type_id":"4","last_reported":1686686827,"current_range_meters":0,"station_id":"ce4bh292rcd13ifvqdg0","pricing_plan_id":"free"},{"bike_id":"d2c48a20-f5de-45a0-bb34-3923efddac30","system_id":"levelo_inurba_marseille","lat":43.27911,"lon":5.38012,"is_reserved":false,"is_disabled":false,"rental_uris":{"android":"levelo://app?vid=d2c48a20-f5de-45a0-bb34-3923efddac30","ios":"levelo://app?vid=d2c48a20-f5de-45a0-bb34-3923efddac30"},"vehicle_type_id":"4","last_reported":1686686827,"current_range_meters":14400,"station_id":"","pricing_plan_id":"free"},{"bike_id":"5da9798f-bef8-48bb-9567-c9f89f27a834","system_id":"levelo_inurba_marseille","lat":43.27911,"lon":5.38012,"is_reserved":false,"is_disabled":false,"rental_uris":{"android":"levelo://app?vid=5da9798f-bef8-48bb-9567-c9f89f27a834","ios":"levelo://app?vid=5da9798f-bef8-48bb-9567-c9f89f27a834"},"vehicle_type_id":"4","last_reported":1686686827,"current_range_meters":11600,"station_id":"","pricing_plan_id":"free"},{"bike_id":"04165d48-d13a-47c2-93f8-c6e73b4152c5","system_id":"levelo_inurba_marseille","lat":43.27905,"lon":5.38012,"is_reserved":false,"is_disabled":false,"rental_uris":{"android":"levelo://app?vid=04165d48-d13a-47c2-93f8-c6e73b4152c5","ios":"levelo://app?vid=04165d48-d13a-47c2-93f8-c6e73b4152c5"},"vehicle_type_id":"4","last_reported":1686686827,"current_range_meters":6400,"station_id":"","pricing_plan_id":"free"},{"bike_id":"59b1b216-e044-4c3f-b2a4-ead0c66d3cce","system_id":"levelo_inurba_marseille","lat":43.27903,"lon":5.38013,"is_reserved":false,"is_disabled":false,"rental_uris":{"android":"levelo://app?vid=59b1b216-e044-4c3f-b2a4-ead0c66d3cce","ios":"levelo://app?vid=59b1b216-e044-4c3f-b2a4-ead0c66d3cce"},"vehicle_type_id":"4","last_reported":1686686827,"current_range_meters":6400,"station_id":"","pricing_plan_id":"free"},{"bike_id":"78d0c06f-7e48-4c69-bfbd-abed3def92ed","system_id":"levelo_inurba_marseille","lat":43.287154,"lon":5.399979,"is_reserved":false,"is_disabled":false,"rental_uris":{"android":"levelo://app?vid=78d0c06f-7e48-4c69-bfbd-abed3def92ed","ios":"levelo://app?vid=78d0c06f-7e48-4c69-bfbd-abed3def92ed"},"vehicle_type_id":"4","last_reported":1686686827,"current_range_meters":22000,"station_id":"ce4bho92rcd13ifvqh3g","pricing_plan_id":"free"},{"bike_id":"6f95fa79-b1e5-4917-b3bc-088c54678d57","system_id":"levelo_inurba_marseille","lat":43.287154,"lon":5.399979,"is_reserved":false,"is_disabled":false,"rental_uris":{"android":"levelo://app?vid=6f95fa79-b1e5-4917-b3bc-088c54678d57","ios":"levelo://app?vid=6f95fa79-b1e5-4917-b3bc-088c54678d57"},"vehicle_type_id":"4","last_reported":1686686827,"current_range_meters":1200,"station_id":"ce4bho92rcd13ifvqh3g","pricing_plan_id":"free"},{"bike_id":"15f01fce-f5cf-419d-ae29-8030534102be","system_id":"levelo_inurba_marseille","lat":43.287154,"lon":5.399979,"is_reserved":false,"is_disabled":false,"rental_uris":{"android":"levelo://app?vid=15f01fce-f5cf-419d-ae29-8030534102be","ios":"levelo://app?vid=15f01fce-f5cf-419d-ae29-8030534102be"},"vehicle_type_id":"4","last_reported":1686686827,"current_range_meters":22000,"station_id":"ce4bho92rcd13ifvqh3g","pricing_plan_id":"free"},{"bike_id":"7e9c162d-a463-42b8-9bb0-155eeb6da9b5","system_id":"levelo_inurba_marseille","lat":43.320045,"lon":5.415048,"is_reserved":false,"is_disabled":false,"rental_uris":{"android":"levelo://app?vid=7e9c162d-a463-42b8-9bb0-155eeb6da9b5","ios":"levelo://app?vid=7e9c162d-a463-42b8-9bb0-155eeb6da9b5"},"vehicle_type_id":"4","last_reported":1686686827,"current_range_meters":8800,"station_id":"ce4bhq92rcd13ifvqhkg","pricing_plan_id":"free"},{"bike_id":"e092d1ff-a70f-4a98-acb3-92abfd84b6b1","system_id":"levelo_inurba_marseille","lat":43.292571,"lon":5.409107,"is_reserved":false,"is_disabled":false,"rental_uris":{"android":"levelo://app?vid=e092d1ff-a70f-4a98-acb3-92abfd84b6b1","ios":"levelo://app?vid=e092d1ff-a70f-4a98-acb3-92abfd84b6b1"},"vehicle_type_id":"4","last_reported":1686686827,"current_range_meters":20400,"station_id":"ce4bh192rcd13ifvqdc0","pricing_plan_id":"free"},{"bike_id":"ae39e40d-71b9-4312-8a15-c9263c849f97","system_id":"levelo_inurba_marseille","lat":43.29796,"lon":5.41337,"is_reserved":false,"is_disabled":false,"rental_uris":{"android":"levelo://app?vid=ae39e40d-71b9-4312-8a15-c9263c849f97","ios":"levelo://app?vid=ae39e40d-71b9-4312-8a15-c9263c849f97"},"vehicle_type_id":"4","last_reported":1686686827,"current_range_meters":19600,"station_id":"","pricing_plan_id":"free"},{"bike_id":"0a685758-6b77-4e42-b817-f0d461bfb4d5","system_id":"levelo_inurba_marseille","lat":43.29163,"lon":5.41033,"is_reserved":false,"is_disabled":false,"rental_uris":{"android":"levelo://app?vid=0a685758-6b77-4e42-b817-f0d461bfb4d5","ios":"levelo://app?vid=0a685758-6b77-4e42-b817-f0d461bfb4d5"},"vehicle_type_id":"4","last_reported":1686686827,"current_range_meters":4000,"station_id":"","pricing_plan_id":"free"},{"bike_id":"770e2aee-a0d7-4cf8-bd81-76f434059406","system_id":"levelo_inurba_marseille","lat":43.280784,"lon":5.396622,"is_reserved":false,"is_disabled":false,"rental_uris":{"android":"levelo://app?vid=770e2aee-a0d7-4cf8-bd81-76f434059406","ios":"levelo://app?vid=770e2aee-a0d7-4cf8-bd81-76f434059406"},"vehicle_type_id":"4","last_reported":1686686827,"current_range_meters":8800,"station_id":"ce4bho12rcd13ifvqh2g","pricing_plan_id":"free"},{"bike_id":"f48d4898-3d5c-4c00-80d8-5839d1aea1c4","system_id":"levelo_inurba_marseille","lat":43.303837,"lon":5.418724,"is_reserved":false,"is_disabled":false,"rental_uris":{"android":"levelo://app?vid=f48d4898-3d5c-4c00-80d8-5839d1aea1c4","ios":"levelo://app?vid=f48d4898-3d5c-4c00-80d8-5839d1aea1c4"},"vehicle_type_id":"4","last_reported":1686686827,"current_range_meters":0,"station_id":"ce4bhop2rcd13ifvqh7g","pricing_plan_id":"free"},{"bike_id":"8fbca65c-a23d-4cc4-a400-26310f603d7f","system_id":"levelo_inurba_marseille","lat":43.278399,"lon":5.392139,"is_reserved":false,"is_disabled":false,"rental_uris":{"android":"levelo://app?vid=8fbca65c-a23d-4cc4-a400-26310f603d7f","ios":"levelo://app?vid=8fbca65c-a23d-4cc4-a400-26310f603d7f"},"vehicle_type_id":"4","last_reported":1686686827,"current_range_meters":0,"station_id":"ce4bhjp2rcd13ifvqga0","pricing_plan_id":"free"},{"bike_id":"95caca00-3d9e-4253-a36c-6417efc33752","system_id":"levelo_inurba_marseille","lat":43.278399,"lon":5.392139,"is_reserved":false,"is_disabled":false,"rental_uris":{"android":"levelo://app?vid=95caca00-3d9e-4253-a36c-6417efc33752","ios":"levelo://app?vid=95caca00-3d9e-4253-a36c-6417efc33752"},"vehicle_type_id":"4","last_reported":1686686827,"current_range_meters":24800,"station_id":"ce4bhjp2rcd13ifvqga0","pricing_plan_id":"free"},{"bike_id":"ab66bd5e-4a0e-4970-86f5-76e1af05e3c3","system_id":"levelo_inurba_marseille","lat":43.278399,"lon":5.392139,"is_reserved":false,"is_disabled":false,"rental_uris":{"android":"levelo://app?vid=ab66bd5e-4a0e-4970-86f5-76e1af05e3c3","ios":"levelo://app?vid=ab66bd5e-4a0e-4970-86f5-76e1af05e3c3"},"vehicle_type_id":"4","last_reported":1686686827,"current_range_meters":26800,"station_id":"ce4bhjp2rcd13ifvqga0","pricing_plan_id":"free"},{"bike_id":"f70faa8f-272e-48d2-b9b5-29ca99348113","system_id":"levelo_inurba_marseille","lat":43.28055,"lon":5.39725,"is_reserved":false,"is_disabled":false,"rental_uris":{"android":"levelo://app?vid=f70faa8f-272e-48d2-b9b5-29ca99348113","ios":"levelo://app?vid=f70faa8f-272e-48d2-b9b5-29ca99348113"},"vehicle_type_id":"4","last_reported":1686686827,"current_range_meters":7200,"station_id":"","pricing_plan_id":"free"},{"bike_id":"c726dc25-3f4a-4197-b3a3-d19d215f8da5","system_id":"levelo_inurba_marseille","lat":43.278399,"lon":5.392139,"is_reserved":false,"is_disabled":false,"rental_uris":{"android":"levelo://app?vid=c726dc25-3f4a-4197-b3a3-d19d215f8da5","ios":"levelo://app?vid=c726dc25-3f4a-4197-b3a3-d19d215f8da5"},"vehicle_type_id":"4","last_reported":1686686827,"current_range_meters":0,"station_id":"ce4bhjp2rcd13ifvqga0","pricing_plan_id":"free"},{"bike_id":"0f337e4d-b7f7-41c0-989e-42d8b7089282","system_id":"levelo_inurba_marseille","lat":43.33612,"lon":5.410321,"is_reserved":false,"is_disabled":false,"rental_uris":{"android":"levelo://app?vid=0f337e4d-b7f7-41c0-989e-42d8b7089282","ios":"levelo://app?vid=0f337e4d-b7f7-41c0-989e-42d8b7089282"},"vehicle_type_id":"4","last_reported":1686686827,"current_range_meters":11200,"station_id":"ce4bhqh2rcd13ifvqhmg","pricing_plan_id":"free"},{"bike_id":"f606c9d6-cd38-49d9-baf5-d956462ed807","system_id":"levelo_inurba_marseille","lat":43.33612,"lon":5.410321,"is_reserved":false,"is_disabled":false,"rental_uris":{"android":"levelo://app?vid=f606c9d6-cd38-49d9-baf5-d956462ed807","ios":"levelo://app?vid=f606c9d6-cd38-49d9-baf5-d956462ed807"},"vehicle_type_id":"4","last_reported":1686686827,"current_range_meters":10800,"station_id":"ce4bhqh2rcd13ifvqhmg","pricing_plan_id":"free"},{"bike_id":"08f4c5ab-c0f0-4dd6-999c-1fe3a1513f27","system_id":"levelo_inurba_marseille","lat":43.336134,"lon":5.410341,"is_reserved":false,"is_disabled":false,"rental_uris":{"android":"levelo://app?vid=08f4c5ab-c0f0-4dd6-999c-1fe3a1513f27","ios":"levelo://app?vid=08f4c5ab-c0f0-4dd6-999c-1fe3a1513f27"},"vehicle_type_id":"4","last_reported":1686686827,"current_range_meters":15200,"station_id":"ce4bhqh2rcd13ifvqhmg","pricing_plan_id":"free"},{"bike_id":"a8f8b517-09b4-4197-94bb-6fa9d03dd022","system_id":"levelo_inurba_marseille","lat":43.27631,"lon":5.39186,"is_reserved":false,"is_disabled":false,"rental_uris":{"android":"levelo://app?vid=a8f8b517-09b4-4197-94bb-6fa9d03dd022","ios":"levelo://app?vid=a8f8b517-09b4-4197-94bb-6fa9d03dd022"},"vehicle_type_id":"4","last_reported":1686686827,"current_range_meters":26800,"station_id":"","pricing_plan_id":"free"},{"bike_id":"7f1dfc86-2b3a-4d66-b5f8-66bbcf97fa3a","system_id":"levelo_inurba_marseille","lat":43.317121,"lon":5.423936,"is_reserved":false,"is_disabled":false,"rental_uris":{"android":"levelo://app?vid=7f1dfc86-2b3a-4d66-b5f8-66bbcf97fa3a","ios":"levelo://app?vid=7f1dfc86-2b3a-4d66-b5f8-66bbcf97fa3a"},"vehicle_type_id":"4","last_reported":1686686827,"current_range_meters":23200,"station_id":"ce4bhp92rcd13ifvqhbg","pricing_plan_id":"free"},{"bike_id":"60369bb0-0d71-43b9-a915-5d4c7e589c53","system_id":"levelo_inurba_marseille","lat":43.317121,"lon":5.423936,"is_reserved":false,"is_disabled":false,"rental_uris":{"android":"levelo://app?vid=60369bb0-0d71-43b9-a915-5d4c7e589c53","ios":"levelo://app?vid=60369bb0-0d71-43b9-a915-5d4c7e589c53"},"vehicle_type_id":"4","last_reported":1686686827,"current_range_meters":31200,"station_id":"ce4bhp92rcd13ifvqhbg","pricing_plan_id":"free"},{"bike_id":"753c6b72-ca8a-45ae-bd9d-8eca801d7a1c","system_id":"levelo_inurba_marseille","lat":43.27614,"lon":5.39489,"is_reserved":false,"is_disabled":false,"rental_uris":{"android":"levelo://app?vid=753c6b72-ca8a-45ae-bd9d-8eca801d7a1c","ios":"levelo://app?vid=753c6b72-ca8a-45ae-bd9d-8eca801d7a1c"},"vehicle_type_id":"4","last_reported":1686686827,"current_range_meters":4400,"station_id":"","pricing_plan_id":"free"},{"bike_id":"f82c4e0b-ce86-4de4-962b-f266d6ba506e","system_id":"levelo_inurba_marseille","lat":43.273125,"lon":5.390731,"is_reserved":false,"is_disabled":false,"rental_uris":{"android":"levelo://app?vid=f82c4e0b-ce86-4de4-962b-f266d6ba506e","ios":"levelo://app?vid=f82c4e0b-ce86-4de4-962b-f266d6ba506e"},"vehicle_type_id":"4","last_reported":1686686827,"current_range_meters":26000,"station_id":"ce4bhgp2rcd13ifvqfe0","pricing_plan_id":"free"},{"bike_id":"fb707731-62a7-4733-a865-4477d95a678f","system_id":"levelo_inurba_marseille","lat":43.27431,"lon":5.39413,"is_reserved":false,"is_disabled":false,"rental_uris":{"android":"levelo://app?vid=fb707731-62a7-4733-a865-4477d95a678f","ios":"levelo://app?vid=fb707731-62a7-4733-a865-4477d95a678f"},"vehicle_type_id":"4","last_reported":1686686827,"current_range_meters":9200,"station_id":"","pricing_plan_id":"free"},{"bike_id":"9a129c7f-beb5-4d42-95a2-6eca48744e6a","system_id":"levelo_inurba_marseille","lat":43.27132,"lon":5.38924,"is_reserved":false,"is_disabled":false,"rental_uris":{"android":"levelo://app?vid=9a129c7f-beb5-4d42-95a2-6eca48744e6a","ios":"levelo://app?vid=9a129c7f-beb5-4d42-95a2-6eca48744e6a"},"vehicle_type_id":"4","last_reported":1686686827,"current_range_meters":27200,"station_id":"","pricing_plan_id":"free"},{"bike_id":"13f8dd5b-a81d-4cff-ac6f-b64e762d8a2b","system_id":"levelo_inurba_marseille","lat":43.278128,"lon":5.407195,"is_reserved":false,"is_disabled":false,"rental_uris":{"android":"levelo://app?vid=13f8dd5b-a81d-4cff-ac6f-b64e762d8a2b","ios":"levelo://app?vid=13f8dd5b-a81d-4cff-ac6f-b64e762d8a2b"},"vehicle_type_id":"4","last_reported":1686686827,"current_range_meters":30000,"station_id":"ce4bhnh2rcd13ifvqgtg","pricing_plan_id":"free"},{"bike_id":"ecf886ba-9f33-4bbb-b609-9525919783a8","system_id":"levelo_inurba_marseille","lat":43.27816,"lon":5.40714,"is_reserved":false,"is_disabled":false,"rental_uris":{"android":"levelo://app?vid=ecf886ba-9f33-4bbb-b609-9525919783a8","ios":"levelo://app?vid=ecf886ba-9f33-4bbb-b609-9525919783a8"},"vehicle_type_id":"4","last_reported":1686686827,"current_range_meters":25600,"station_id":"ce4bhnh2rcd13ifvqgtg","pricing_plan_id":"free"},{"bike_id":"fcdf4b66-1439-4710-975b-1d128f835ff6","system_id":"levelo_inurba_marseille","lat":43.278128,"lon":5.407195,"is_reserved":false,"is_disabled":false,"rental_uris":{"android":"levelo://app?vid=fcdf4b66-1439-4710-975b-1d128f835ff6","ios":"levelo://app?vid=fcdf4b66-1439-4710-975b-1d128f835ff6"},"vehicle_type_id":"4","last_reported":1686686827,"current_range_meters":10000,"station_id":"ce4bhnh2rcd13ifvqgtg","pricing_plan_id":"free"},{"bike_id":"475d751e-efaa-4216-828c-cd8cba373551","system_id":"levelo_inurba_marseille","lat":43.278128,"lon":5.407195,"is_reserved":false,"is_disabled":false,"rental_uris":{"android":"levelo://app?vid=475d751e-efaa-4216-828c-cd8cba373551","ios":"levelo://app?vid=475d751e-efaa-4216-828c-cd8cba373551"},"vehicle_type_id":"4","last_reported":1686686827,"current_range_meters":12800,"station_id":"ce4bhnh2rcd13ifvqgtg","pricing_plan_id":"free"},