{"last_updated":1692577890,"ttl":30,"version":"2.2","data":{"bikes":[{"bike_id":"f22ca441-4e4e-4660-b824-b2f46943e54d","system_id":"levelo_inurba_marseille","lat":43.312239,"lon":5.368562,"is_reserved":false,"is_disabled":false,"rental_uris":{"android":"levelo://app?vid=f22ca441-4e4e-4660-b824-b2f46943e54d","ios":"levelo://app?vid=f22ca441-4e4e-4660-b824-b2f46943e54d"},"vehicle_type_id":"4","last_reported":1692577890,"current_range_meters":31200,"station_id":"ce4bgl92rcd13ifvqbq0","pricing_plan_id":"free"},{"bike_id":"4dbbb524-4f42-40bf-9c68-48bbdf95025b","system_id":"levelo_inurba_marseille","lat":43.314811,"lon":5.373103,"is_reserved":false,"is_disabled":false,"rental_uris":{"android":"levelo://app?vid=4dbbb524-4f42-40bf-9c68-48bbdf95025b","ios":"levelo://app?vid=4dbbb524-4f42-40bf-9c68-48bbdf95025b"},"vehicle_type_id":"4","last_reported":1692577890,"current_range_meters":16000,"station_id":"ce4bgt12rcd13ifvqcd0","pricing_plan_id":"free"},{"bike_id":"f77715aa-9a28-436c-9184-9a2778fdf8ab","system_id":"levelo_inurba_marseille","lat":43.314811,"lon":5.373103,"is_reserved":false,"is_disabled":false,"rental_uris":{"android":"levelo://app?vid=f77715aa-9a28-436c-9184-9a2778fdf8ab","ios":"levelo://app?vid=f77715aa-9a28-436c-9184-9a2778fdf8ab"},"vehicle_type_id":"4","last_reported":1692577890,"current_range_meters":29600,"station_id":"ce4bgt12rcd13ifvqcd0","pricing_plan_id":"free"},{"bike_id":"c8e7117c-ca77-4756-833e-ab04910afea7","system_id":"levelo_inurba_marseille","lat":43.314811,"lon":5.373103,"is_reserved":false,"is_disabled":false,"rental_uris":{"android":"levelo://app?vid=c8e7117c-ca77-4756-833e-ab04910afea7","ios":"levelo://app?vid=c8e7117c-ca77-4756-833e-ab04910afea7"},"vehicle_type_id":"4","last_reported":1692577890,"current_range_meters":16000,"station_id":"ce4bgt12rcd13ifvqcd0","pricing_plan_id":"free"},{"bike_id":"0808185d-a55f-47d9-99a8-af92da85a2b8","system_id":"levelo_inurba_marseille","lat":43.314811,"lon":5.373103,"is_reserved":false,"is_disabled":false,"rental_uris":{"android":"levelo://app?vid=0808185d-a55f-47d9-99a8-af92da85a2b8","ios":"levelo://app?vid=0808185d-a55f-47d9-99a8-af92da85a2b8"},"vehicle_type_id":"4","last_reported":1692577890,"current_range_meters":4000,"station_id":"ce4bgt12rcd13ifvqcd0","pricing_plan_id":"free"},{"bike_id":"dab6a689-a101-413f-8b5c-1bb9b52878c8","system_id":"levelo_inurba_marseille","lat":43.314811,"lon":5.373103,"is_reserved":false,"is_disabled":false,"rental_uris":{"android":"levelo://app?vid=dab6a689-a101-413f-8b5c-1bb9b52878c8","ios":"levelo://app?vid=dab6a689-a101-413f-8b5c-1bb9b52878c8"},"vehicle_type_id":"4","last_reported":1692577890,"current_range_meters":26400,"station_id":"ce4bgt12rcd13ifvqcd0","pricing_plan_id":"free"},{"bike_id":"13fb9659-d9e4-49d7-a76e-64d7c5c87e6a","system_id":"levelo_inurba_marseille","lat":43.314811,"lon":5.373103,"is_reserved":false,"is_disabled":false,"rental_uris":{"android":"levelo://app?vid=13fb9659-d9e4-49d7-a76e-64d7c5c87e6a","ios":"levelo://app?vid=13fb9659-d9e4-49d7-a76e-64d7c5c87e6a"},"vehicle_type_id":"4","last_reported":1692577890,"current_range_meters":1600,"station_id":"ce4bgt12rcd13ifvqcd0","pricing_plan_id":"free"},{"bike_id":"7aa30f89-96cf-4042-b72b-558f2ad862a9","system_id":"levelo_inurba_marseille","lat":43.314811,"lon":5.373103,"is_reserved":false,"is_disabled":false,"rental_uris":{"android":"levelo://app?vid=7aa30f89-96cf-4042-b72b-558f2ad862a9","ios":"levelo://app?vid=7aa30f89-96cf-4042-b72b-558f2ad862a9"},"vehicle_type_id":"4","last_reported":1692577890,"current_range_meters":400,"station_id":"ce4bgt12rcd13ifvqcd0","pricing_plan_id":"free"},{"bike_id":"4add9375-bb0d-49f9-81c7-d427681bc070","system_id":"levelo_inurba_marseille","lat":43.314811,"lon":5.373103,"is_reserved":false,"is_disabled":false,"rental_uris":{"android":"levelo://app?vid=4add9375-bb0d-49f9-81c7-d427681bc070","ios":"levelo://app?vid=4add9375-bb0d-49f9-81c7-d427681bc070"},"vehicle_type_id":"4","last_reported":1692577890,"current_range_meters":800,"station_id":"ce4bgt12rcd13ifvqcd0","pricing_plan_id":"free"},{"bike_id":"8be986d5-b1b6-483a-a0f7-9bc11abcd990","system_id":"levelo_inurba_marseille","lat":43.314811,"lon":5.373103,"is_reserved":false,"is_disabled":false,"rental_uris":{"android":"levelo://app?vid=8be986d5-b1b6-483a-a0f7-9bc11abcd990","ios":"levelo://app?vid=8be986d5-b1b6-483a-a0f7-9bc11abcd990"},"vehicle_type_id":"4","last_reported":1692577890,"current_range_meters":19200,"station_id":"ce4bgt12rcd13ifvqcd0","pricing_plan_id":"free"},{"bike_id":"ca63eeb4-ca5d-4686-b5fb-f4f0ce0fc2c9","system_id":"levelo_inurba_marseille","lat":43.314811,"lon":5.373104,"is_reserved":false,"is_disabled":false,"rental_uris":{"android":"levelo://app?vid=ca63eeb4-ca5d-4686-b5fb-f4f0ce0fc2c9","ios":"levelo://app?vid=ca63eeb4-ca5d-4686-b5fb-f4f0ce0fc2c9"},"vehicle_type_id":"4","last_reported":1692577890,"current_range_meters":16400,"station_id":"ce4bgt12rcd13ifvqcd0","pricing_plan_id":"free"},{"bike_id":"31f43891-0c30-4f96-8537-db51e6d78be4","system_id":"levelo_inurba_marseille","lat":43.309039,"lon":5.371797,"is_reserved":false,"is_disabled":false,"rental_uris":{"android":"levelo://app?vid=31f43891-0c30-4f96-8537-db51e6d78be4","ios":"levelo://app?vid=31f43891-0c30-4f96-8537-db51e6d78be4"},"vehicle_type_id":"4","last_reported":1692577890,"current_range_meters":3600,"station_id":"ce4bguh2rcd13ifvqckg","pricing_plan_id":"free"},{"bike_id":"bd9c02be-796e-49e4-aa62-1a8b2334d95b","system_id":"levelo_inurba_marseille","lat":43.309039,"lon":5.371797,"is_reserved":false,"is_disabled":false,"rental_uris":{"android":"levelo://app?vid=bd9c02be-796e-49e4-aa62-1a8b2334d95b","ios":"levelo://app?vid=bd9c02be-796e-49e4-aa62-1a8b2334d95b"},"vehicle_type_id":"4","last_reported":1692577890,"current_range_meters":19600,"station_id":"ce4bguh2rcd13ifvqckg","pricing_plan_id":"free"},{"bike_id":"386ed8e3-b71e-4f68-86af-202c5b76503e","system_id":"levelo_inurba_marseille","lat":43.30549,"lon":5.36712,"is_reserved":false,"is_disabled":false,"rental_uris":{"android":"levelo://app?vid=386ed8e3-b71e-4f68-86af-202c5b76503e","ios":"levelo://app?vid=386ed8e3-b71e-4f68-86af-202c5b76503e"},"vehicle_type_id":"4","last_reported":1692577890,"current_range_meters":18000,"station_id":"ce4bgrp2rcd13ifvqc9g","pricing_plan_id":"free"},{"bike_id":"9fbe6e18-d192-44c2-98b5-cafb68b41aa4","system_id":"levelo_inurba_marseille","lat":43.30548,"lon":5.36538,"is_reserved":false,"is_disabled":false,"rental_uris":{"android":"levelo://app?vid=9fbe6e18-d192-44c2-98b5-cafb68b41aa4","ios":"levelo://app?vid=9fbe6e18-d192-44c2-98b5-cafb68b41aa4"},"vehicle_type_id":"4","last_reported":1692577890,"current_range_meters":4000,"station_id":"ce4bgs12rcd13ifvqcag","pricing_plan_id":"free"},{"bike_id":"88357bbb-aefe-4241-95ce-f83aa07b6c71","system_id":"levelo_inurba_marseille","lat":43.30534,"lon":5.36716,"is_reserved":false,"is_disabled":false,"rental_uris":{"android":"levelo://app?vid=88357bbb-aefe-4241-95ce-f83aa07b6c71","ios":"levelo://app?vid=88357bbb-aefe-4241-95ce-f83aa07b6c71"},"vehicle_type_id":"4","last_reported":1692577890,"current_range_meters":4400,"station_id":"ce4bgrp2rcd13ifvqc9g","pricing_plan_id":"free"},{"bike_id":"29707406-31dd-49f6-9dd3-ba462a3e6357","system_id":"levelo_inurba_marseille","lat":43.311131,"lon":5.377651,"is_reserved":false,"is_disabled":false,"rental_uris":{"android":"levelo://app?vid=29707406-31dd-49f6-9dd3-ba462a3e6357","ios":"levelo://app?vid=29707406-31dd-49f6-9dd3-ba462a3e6357"},"vehicle_type_id":"4","last_reported":1692577890,"current_range_meters":7200,"station_id":"ce4bgt92rcd13ifvqcg0","pricing_plan_id":"free"},{"bike_id":"1b818f29-ec70-4c52-93cc-fa2f18789a62","system_id":"levelo_inurba_marseille","lat":43.311131,"lon":5.377651,"is_reserved":false,"is_disabled":false,"rental_uris":{"android":"levelo://app?vid=1b818f29-ec70-4c52-93cc-fa2f18789a62","ios":"levelo://app?vid=1b818f29-ec70-4c52-93cc-fa2f18789a62"},"vehicle_type_id":"4","last_reported":1692577890,"current_range_meters":800,"station_id":"ce4bgt92rcd13ifvqcg0","pricing_plan_id":"free"},{"bike_id":"50b917f4-0be1-4df0-ae7c-5c159a1cb216","system_id":"levelo_inurba_marseille","lat":43.311131,"lon":5.377651,"is_reserved":false,"is_disabled":false,"rental_uris":{"android":"levelo://app?vid=50b917f4-0be1-4df0-ae7c-5c159a1cb216","ios":"levelo://app?vid=50b917f4-0be1-4df0-ae7c-5c159a1cb216"},"vehicle_type_id":"4","last_reported":1692577890,"current_range_meters":22000,"station_id":"ce4bgt92rcd13ifvqcg0","pricing_plan_id":"free"},{"bike_id":"34ac6ba1-e570-4dbb-9474-6e0157c64802","system_id":"levelo_inurba_marseille","lat":43.311131,"lon":5.377651,"is_reserved":false,"is_disabled":false,"rental_uris":{"android":"levelo://app?vid=34ac6ba1-e570-4dbb-9474-6e0157c64802","ios":"levelo://app?vid=34ac6ba1-e570-4dbb-9474-6e0157c64802"},"vehicle_type_id":"4","last_reported":1692577890,"current_range_meters":31200,"station_id":"ce4bgt92rcd13ifvqcg0","pricing_plan_id":"free"},{"bike_id":"f46aea9f-065f-4a8f-a4b5-05b7fc6b4bb5","system_id":"levelo_inurba_marseille","lat":43.311131,"lon":5.377651,"is_reserved":false,"is_disabled":false,"rental_uris":{"android":"levelo://app?vid=f46aea9f-065f-4a8f-a4b5-05b7fc6b4bb5","ios":"levelo://app?vid=f46aea9f-065f-4a8f-a4b5-05b7fc6b4bb5"},"vehicle_type_id":"4","last_reported":1692577890,"current_range_meters":25600,"station_id":"ce4bgt92rcd13ifvqcg0","pricing_plan_id":"free"},{"bike_id":"839cabe4-705a-4fe2-8236-e955be991055","system_id":"levelo_inurba_marseille","lat":43.31114,"lon":5.37769,"is_reserved":false,"is_disabled":false,"rental_uris":{"android":"levelo://app?vid=839cabe4-705a-4fe2-8236-e955be991055","ios":"levelo://app?vid=839cabe4-705a-4fe2-8236-e955be991055"},"vehicle_type_id":"4","last_reported":1692577890,"current_range_meters":0,"station_id":"ce4bgt92rcd13ifvqcg0","pricing_plan_id":"free"},{"bike_id":"9bbd4272-2f2a-4898-ab92-3fee67f97c1c","system_id":"levelo_inurba_marseille","lat":43.31118,"lon":5.37771,"is_reserved":false,"is_disabled":false,"rental_uris":{"android":"levelo://app?vid=9bbd4272-2f2a-4898-ab92-3fee67f97c1c","ios":"levelo://app?vid=9bbd4272-2f2a-4898-ab92-3fee67f97c1c"},"vehicle_type_id":"4","last_reported":1692577890,"current_range_meters":1600,"station_id":"ce4bgt92rcd13ifvqcg0","pricing_plan_id":"free"},{"bike_id":"48707bdc-5fe6-412f-b897-a80c6f7735ca","system_id":"levelo_inurba_marseille","lat":43.31115,"lon":5.37772,"is_reserved":false,"is_disabled":false,"rental_uris":{"android":"levelo://app?vid=48707bdc-5fe6-412f-b897-a80c6f7735ca","ios":"levelo://app?vid=48707bdc-5fe6-412f-b897-a80c6f7735ca"},"vehicle_type_id":"4","last_reported":1692577890,"current_range_meters":3600,"station_id":"ce4bgt92rcd13ifvqcg0","pricing_plan_id":"free"},{"bike_id":"76a15a06-e972-4a10-9c5a-a2a8dfd0f197","system_id":"levelo_inurba_marseille","lat":43.31113,"lon":5.37772,"is_reserved":false,"is_disabled":false,"rental_uris":{"android":"levelo://app?vid=76a15a06-e972-4a10-9c5a-a2a8dfd0f197","ios":"levelo://app?vid=76a15a06-e972-4a10-9c5a-a2a8dfd0f197"},"vehicle_type_id":"4","last_reported":1692577890,"current_range_meters":11600,"station_id":"ce4bgt92rcd13ifvqcg0","pricing_plan_id":"free"},{"bike_id":"cf0a67ba-a196-4c32-b936-d96d20704c3a","system_id":"levelo_inurba_marseille","lat":43.3111,"lon":5.37775,"is_reserved":false,"is_disabled":false,"rental_uris":{"android":"levelo://app?vid=cf0a67ba-a196-4c32-b936-d96d20704c3a","ios":"levelo://app?vid=cf0a67ba-a196-4c32-b936-d96d20704c3a"},"vehicle_type_id":"4","last_reported":1692577890,"current_range_meters":7600,"station_id":"ce4bgt92rcd13ifvqcg0","pricing_plan_id":"free"},{"bike_id":"4ff2f5ca-4b9e-4d36-9028-a50a7496c73d","system_id":"levelo_inurba_marseille","lat":43.30792,"lon":5.37651,"is_reserved":false,"is_disabled":false,"rental_uris":{"android":"levelo://app?vid=4ff2f5ca-4b9e-4d36-9028-a50a7496c73d","ios":"levelo://app?vid=4ff2f5ca-4b9e-4d36-9028-a50a7496c73d"},"vehicle_type_id":"4","last_reported":1692577890,"current_range_meters":4800,"station_id":"ce4bgv92rcd13ifvqcq0","pricing_plan_id":"free"},{"bike_id":"acd0d663-3c59-4f34-8da3-051d50b3fb64","system_id":"levelo_inurba_marseille","lat":43.307945,"lon":5.376487,"is_reserved":false,"is_disabled":false,"rental_uris":{"android":"levelo://app?vid=acd0d663-3c59-4f34-8da3-051d50b3fb64","ios":"levelo://app?vid=acd0d663-3c59-4f34-8da3-051d50b3fb64"},"vehicle_type_id":"4","last_reported":1692577890,"current_range_meters":2400,"station_id":"ce4bgv92rcd13ifvqcq0","pricing_plan_id":"free"},{"bike_id":"643f142d-b0dd-486c-8732-24bab6ac803e","system_id":"levelo_inurba_marseille","lat":43.307945,"lon":5.376487,"is_reserved":false,"is_disabled":false,"rental_uris":{"android":"levelo://app?vid=643f142d-b0dd-486c-8732-24bab6ac803e","ios":"levelo://app?vid=643f142d-b0dd-486c-8732-24bab6ac803e"},"vehicle_type_id":"4","last_reported":1692577890,"current_range_meters":0,"station_id":"ce4bgv92rcd13ifvqcq0","pricing_plan_id":"free"},{"bike_id":"94a0c5bf-a3c7-44dd-b1c9-235dd914373c","system_id":"levelo_inurba_marseille","lat":43.317075,"lon":5.377367,"is_reserved":false,"is_disabled":false,"rental_uris":{"android":"levelo://app?vid=94a0c5bf-a3c7-44dd-b1c9-235dd914373c","ios":"levelo://app?vid=94a0c5bf-a3c7-44dd-b1c9-235dd914373c"},"vehicle_type_id":"4","last_reported":1692577890,"current_range_meters":15200,"station_id":"ce4bgth2rcd13ifvqch0","pricing_plan_id":"free"},{"bike_id":"dd37bf7a-b0f3-490a-94f8-e10104e49abd","system_id":"levelo_inurba_marseille","lat":43.317075,"lon":5.377367,"is_reserved":false,"is_disabled":false,"rental_uris":{"android":"levelo://app?vid=dd37bf7a-b0f3-490a-94f8-e10104e49abd","ios":"levelo://app?vid=dd37bf7a-b0f3-490a-94f8-e10104e49abd"},"vehicle_type_id":"4","last_reported":1692577890,"current_range_meters":0,"station_id":"ce4bgth2rcd13ifvqch0","pricing_plan_id":"free"},{"bike_id":"065788a5-fc73-4e3f-b549-fb8acf37715d","system_id":"levelo_inurba_marseille","lat":43.295748,"lon":5.37522,"is_reserved":false,"is_disabled":false,"rental_uris":{"android":"levelo://app?vid=065788a5-fc73-4e3f-b549-fb8acf37715d","ios":"levelo://app?vid=065788a5-fc73-4e3f-b549-fb8acf37715d"},"vehicle_type_id":"4","last_reported":1692577890,"current_range_meters":4800,"station_id":"ce4bgh92rcd13ifvqb50","pricing_plan_id":"free"},{"bike_id":"0d765e00-0cb5-4e84-bb27-b4b775c5f332","system_id":"levelo_inurba_marseille","lat":43.30307,"lon":5.36902,"is_reserved":false,"is_disabled":false,"rental_uris":{"android":"levelo://app?vid=0d765e00-0cb5-4e84-bb27-b4b775c5f332","ios":"levelo://app?vid=0d765e00-0cb5-4e84-bb27-b4b775c5f332"},"vehicle_type_id":"4","last_reported":1692577890,"current_range_meters":10800,"station_id":"ce4bgqh2rcd13ifvqc5g","pricing_plan_id":"free"},{"bike_id":"327fe0dc-08c0-428e-baf6-82942cb2943b","system_id":"levelo_inurba_marseille","lat":43.315293,"lon":5.380349,"is_reserved":false,"is_disabled":false,"rental_uris":{"android":"levelo://app?vid=327fe0dc-08c0-428e-baf6-82942cb2943b","ios":"levelo://app?vid=327fe0dc-08c0-428e-baf6-82942cb2943b"},"vehicle_type_id":"4","last_reported":1692577890,"current_range_meters":2800,"station_id":"ce4bhsp2rcd13ifvqi50","pricing_plan_id":"free"},{"bike_id":"779f8c7d-f6c1-4cc9-a593-c88874220bcf","system_id":"levelo_inurba_marseille","lat":43.315293,"lon":5.380349,"is_reserved":false,"is_disabled":false,"rental_uris":{"android":"levelo://app?vid=779f8c7d-f6c1-4cc9-a593-c88874220bcf","ios":"levelo://app?vid=779f8c7d-f6c1-4cc9-a593-c88874220bcf"},"vehicle_type_id":"4","last_reported":1692577890,"current_range_meters":22800,"station_id":"ce4bhsp2rcd13ifvqi50","pricing_plan_id":"free"},{"bike_id":"1d2ae54a-e144-46f8-bb04-f060fcfe7c20","system_id":"levelo_inurba_marseille","lat":43.31525,"lon":5.38034,"is_reserved":false,"is_disabled":false,"rental_uris":{"android":"levelo://app?vid=1d2ae54a-e144-46f8-bb04-f060fcfe7c20","ios":"levelo://app?vid=1d2ae54a-e144-46f8-bb04-f060fcfe7c20"},"vehicle_type_id":"4","last_reported":1692577890,"current_range_meters":0,"station_id":"ce4bhsp2rcd13ifvqi50","pricing_plan_id":"free"},{"bike_id":"c07a5808-4fa9-4b9f-82dd-5358face4cd3","system_id":"levelo_inurba_marseille","lat":43.3019,"lon":5.36621,"is_reserved":false,"is_disabled":false,"rental_uris":{"android":"levelo://app?vid=c07a5808-4fa9-4b9f-82dd-5358face4cd3","ios":"levelo://app?vid=c07a5808-4fa9-4b9f-82dd-5358face4cd3"},"vehicle_type_id":"4","last_reported":1692577890,"current_range_meters":400,"station_id":"ce4bgrh2rcd13ifvqc8g","pricing_plan_id":"free"},{"bike_id":"3e187eb8-d878-45fd-8c43-aeadfe512cc1","system_id":"levelo_inurba_marseille","lat":43.30793,"lon":5.38155,"is_reserved":false,"is_disabled":false,"rental_uris":{"android":"levelo://app?vid=3e187eb8-d878-45fd-8c43-aeadfe512cc1","ios":"levelo://app?vid=3e187eb8-d878-45fd-8c43-aeadfe512cc1"},"vehicle_type_id":"4","last_reported":1692577890,"current_range_meters":15200,"station_id":"ce4bgt12rcd13ifvqce0","pricing_plan_id":"free"},{"bike_id":"4112a395-9530-4fb2-84c7-f4ddeab4e7c4","system_id":"levelo_inurba_marseille","lat":43.3079,"lon":5.38165,"is_reserved":false,"is_disabled":false,"rental_uris":{"android":"levelo://app?vid=4112a395-9530-4fb2-84c7-f4ddeab4e7c4","ios":"levelo://app?vid=4112a395-9530-4fb2-84c7-f4ddeab4e7c4"},"vehicle_type_id":"4","last_reported":1692577890,"current_range_meters":3600,"station_id":"ce4bgt12rcd13ifvqce0","pricing_plan_id":"free"},{"bike_id":"056e109f-faff-4a01-86e8-54e325b9478d","system_id":"levelo_inurba_marseille","lat":43.304606,"lon":5.379026,"is_reserved":false,"is_disabled":false,"rental_uris":{"android":"levelo://app?vid=056e109f-faff-4a01-86e8-54e325b9478d","ios":"levelo://app?vid=056e109f-faff-4a01-86e8-54e325b9478d"},"vehicle_type_id":"4","last_reported":1692577890,"current_range_meters":31200,"station_id":"ce4bgup2rcd13ifvqcn0","pricing_plan_id":"free"},{"bike_id":"5e0a8134-2eed-4805-bbbc-1dcaf2497289","system_id":"levelo_inurba_marseille","lat":43.304606,"lon":5.379026,"is_reserved":false,"is_disabled":false,"rental_uris":{"android":"levelo://app?vid=5e0a8134-2eed-4805-bbbc-1dcaf2497289","ios":"levelo://app?vid=5e0a8134-2eed-4805-bbbc-1dcaf2497289"},"vehicle_type_id":"4","last_reported":1692577890,"current_range_meters":29600,"station_id":"ce4bgup2rcd13ifvqcn0","pricing_plan_id":"free"},{"bike_id":"1f606798-084c-49f7-affe-cc6402e360c0","system_id":"levelo_inurba_marseille","lat":43.304606,"lon":5.379026,"is_reserved":false,"is_disabled":false,"rental_uris":{"android":"levelo://app?vid=1f606798-084c-49f7-affe-cc6402e360c0","ios":"levelo://app?vid=1f606798-084c-49f7-affe-cc6402e360c0"},"vehicle_type_id":"4","last_reported":1692577890,"current_range_meters":27600,"station_id":"ce4bgup2rcd13ifvqcn0","pricing_plan_id":"free"},{"bike_id":"7ee830a6-ac6f-4834-a44b-a9c00d12fdc8","system_id":"levelo_inurba_marseille","lat":43.304606,"lon":5.379026,"is_reserved":false,"is_disabled":false,"rental_uris":{"android":"levelo://app?vid=7ee830a6-ac6f-4834-a44b-a9c00d12fdc8","ios":"levelo://app?vid=7ee830a6-ac6f-4834-a44b-a9c00d12fdc8"},"vehicle_type_id":"4","last_reported":1692577890,"current_range_meters":31200,"station_id":"ce4bgup2rcd13ifvqcn0","pricing_plan_id":"free"},{"bike_id":"0ea8af23-c10d-4950-9652-31fe42081869","system_id":"levelo_inurba_marseille","lat":43.304606,"lon":5.379026,"is_reserved":false,"is_disabled":false,"rental_uris":{"android":"levelo://app?vid=0ea8af23-c10d-4950-9652-31fe42081869","ios":"levelo://app?vid=0ea8af23-c10d-4950-9652-31fe42081869"},"vehicle_type_id":"4","last_reported":1692577890,"current_range_meters":31200,"station_id":"ce4bgup2rcd13ifvqcn0","pricing_plan_id":"free"},{"bike_id":"f4f53c64-4225-4e08-b31d-d34120ed2bbe","system_id":"levelo_inurba_marseille","lat":43.304606,"lon":5.379026,"is_reserved":false,"is_disabled":false,"rental_uris":{"android":"levelo://app?vid=f4f53c64-4225-4e08-b31d-d34120ed2bbe","ios":"levelo://app?vid=f4f53c64-4225-4e08-b31d-d34120ed2bbe"},"vehicle_type_id":"4","last_reported":1692577890,"current_range_meters":30000,"station_id":"ce4bgup2rcd13ifvqcn0","pricing_plan_id":"free"},{"bike_id":"d7dcceb8-c4ff-4ff6-93b2-fc5f5467bd2c","system_id":"levelo_inurba_marseille","lat":43.301454,"lon":5.374233,"is_reserved":false,"is_disabled":false,"rental_uris":{"android":"levelo://app?vid=d7dcceb8-c4ff-4ff6-93b2-fc5f5467bd2c","ios":"levelo://app?vid=d7dcceb8-c4ff-4ff6-93b2-fc5f5467bd2c"},"vehicle_type_id":"4","last_reported":1692577890,"current_range_meters":14400,"station_id":"ce4bhdp2rcd13ifvqf20","pricing_plan_id":"free"},{"bike_id":"b4fecacf-0541-46f0-9b4a-699db193b0ef","system_id":"levelo_inurba_marseille","lat":43.31996,"lon":5.38149,"is_reserved":false,"is_disabled":false,"rental_uris":{"android":"levelo://app?vid=b4fecacf-0541-46f0-9b4a-699db193b0ef","ios":"levelo://app?vid=b4fecacf-0541-46f0-9b4a-699db193b0ef"},"vehicle_type_id":"4","last_reported":1692577890,"current_range_meters":16400,"station_id":"ce4bhr12rcd13ifvqhpg","pricing_plan_id":"free"},{"bike_id":"34a2d6ee-ebe0-4be0-be87-9b25b49342ce","system_id":"levelo_inurba_marseille","lat":43.31994,"lon":5.38153,"is_reserved":false,"is_disabled":false,"rental_uris":{"android":"levelo://app?vid=34a2d6ee-ebe0-4be0-be87-9b25b49342ce","ios":"levelo://app?vid=34a2d6ee-ebe0-4be0-be87-9b25b49342ce"},"vehicle_type_id":"4","last_reported":1692577890,"current_range_meters":0,"station_id":"ce4bhr12rcd13ifvqhpg","pricing_plan_id":"free"},{"bike_id":"b177fc79-b535-4018-b92c-0c516ad3675c","system_id":"levelo_inurba_marseille","lat":43.31997,"lon":5.38155,"is_reserved":false,"is_disabled":false,"rental_uris":{"android":"levelo://app?vid=b177fc79-b535-4018-b92c-0c516ad3675c","ios":"levelo://app?vid=b177fc79-b535-4018-b92c-0c516ad3675c"},"vehicle_type_id":"4","last_reported":1692577890,"current_range_meters":10800,"station_id":"ce4bhr12rcd13ifvqhpg","pricing_plan_id":"free"},{"bike_id":"95528a33-426b-46a5-8823-a9faf8db8be0","system_id":"levelo_inurba_marseille","lat":43.32001,"lon":5.38154,"is_reserved":false,"is_disabled":false,"rental_uris":{"android":"levelo://app?vid=95528a33-426b-46a5-8823-a9faf8db8be0","ios":"levelo://app?vid=95528a33-426b-46a5-8823-a9faf8db8be0"},"vehicle_type_id":"4","last_reported":1692577890,"current_range_meters":4400,"station_id":"ce4bhr12rcd13ifvqhpg","pricing_plan_id":"free"},{"bike_id":"ae5c898d-ade2-401d-95b7-76584725a01f","system_id":"levelo_inurba_marseille","lat":43.32,"lon":5.38155,"is_reserved":false,"is_disabled":false,"rental_uris":{"android":"levelo://app?vid=ae5c898d-ade2-401d-95b7-76584725a01f","ios":"levelo://app?vid=ae5c898d-ade2-401d-95b7-76584725a01f"},"vehicle_type_id":"4","last_reported":1692577890,"current_range_meters":4800,"station_id":"ce4bhr12rcd13ifvqhpg","pricing_plan_id":"free"},{"bike_id":"9e6b440e-7886-4c35-8865-2d81934ae637","system_id":"levelo_inurba_marseille","lat":43.313721,"lon":5.384875,"is_reserved":false,"is_disabled":false,"rental_uris":{"android":"levelo://app?vid=9e6b440e-7886-4c35-8865-2d81934ae637","ios":"levelo://app?vid=9e6b440e-7886-4c35-8865-2d81934ae637"},"vehicle_type_id":"4","last_reported":1692577890,"current_range_meters":16400,"station_id":"","pricing_plan_id":"free"},{"bike_id":"dd31b44e-98bc-4a58-8c59-08f02d2c08f5","system_id":"levelo_inurba_marseille","lat":43.313571,"lon":5.384829,"is_reserved":false,"is_disabled":false,"rental_uris":{"android":"levelo://app?vid=dd31b44e-98bc-4a58-8c59-08f02d2c08f5","ios":"levelo://app?vid=dd31b44e-98bc-4a58-8c59-08f02d2c08f5"},"vehicle_type_id":"4","last_reported":1692577890,"current_range_meters":5600,"station_id":"ce4bgt92rcd13ifvqcf0","pricing_plan_id":"free"},{"bike_id":"95dc9ecf-047e-4c3a-bb12-a5676cb36ad4","system_id":"levelo_inurba_marseille","lat":43.3216,"lon":5.38166,"is_reserved":false,"is_disabled":false,"rental_uris":{"android":"levelo://app?vid=95dc9ecf-047e-4c3a-bb12-a5676cb36ad4","ios":"levelo://app?vid=95dc9ecf-047e-4c3a-bb12-a5676cb36ad4"},"vehicle_type_id":"4","last_reported":1692577890,"current_range_meters":13200,"station_id":"","pricing_plan_id":"free"},{"bike_id":"5025aa91-9c2e-4caa-ac29-7503a1fb09b5","system_id":"levelo_inurba_marseille","lat":43.305364,"lon":5.384119,"is_reserved":false,"is_disabled":false,"rental_uris":{"android":"levelo://app?vid=5025aa91-9c2e-4caa-ac29-7503a1fb09b5","ios":"levelo://app?vid=5025aa91-9c2e-4caa-ac29-7503a1fb09b5"},"vehicle_type_id":"4","last_reported":1692577890,"current_range_meters":0,"station_id":"ce4bgg92rcd13ifvqb30","pricing_plan_id":"free"},{"bike_id":"e3e34699-0d40-4201-8f08-d96e2b995f91","system_id":"levelo_inurba_marseille","lat":43.3054,"lon":5.38435,"is_reserved":false,"is_disabled":false,"rental_uris":{"android":"levelo://app?vid=e3e34699-0d40-4201-8f08-d96e2b995f91","ios":"levelo://app?vid=e3e34699-0d40-4201-8f08-d96e2b995f91"},"vehicle_type_id":"4","last_reported":1692577890,"current_range_meters":6800,"station_id":"ce4bgg92rcd13ifvqb30","pricing_plan_id":"free"},{"bike_id":"9baf8f2e-a296-4b67-9500-e03d654fbcb6","system_id":"levelo_inurba_marseille","lat":43.311722,"lon":5.387247,"is_reserved":false,"is_disabled":false,"rental_uris":{"android":"levelo://app?vid=9baf8f2e-a296-4b67-9500-e03d654fbcb6","ios":"levelo://app?vid=9baf8f2e-a296-4b67-9500-e03d654fbcb6"},"vehicle_type_id":"4","last_reported":1692577890,"current_range_meters":13600,"station_id":"ce4bgv12rcd13ifvqcp0","pricing_plan_id":"free"},{"bike_id":"0a5a0003-71a2-4064-b2f3-cd8fea0d69ed","system_id":"levelo_inurba_marseille","lat":43.311722,"lon":5.387247,"is_reserved":false,"is_disabled":false,"rental_uris":{"android":"levelo://app?vid=0a5a0003-71a2-4064-b2f3-cd8fea0d69ed","ios":"levelo://app?vid=0a5a0003-71a2-4064-b2f3-cd8fea0d69ed"},"vehicle_type_id":"4","last_reported":1692577890,"current_range_meters":31600,"station_id":"ce4bgv12rcd13ifvqcp0","pricing_plan_id":"free"},{"bike_id":"7c38fb8d-f3b9-4283-8253-e9cd805e6d27","system_id":"levelo_inurba_marseille","lat":43.311722,"lon":5.387247,"is_reserved":false,"is_disabled":false,"rental_uris":{"android":"levelo://app?vid=7c38fb8d-f3b9-4283-8253-e9cd805e6d27","ios":"levelo://app?vid=7c38fb8d-f3b9-4283-8253-e9cd805e6d27"},"vehicle_type_id":"4","last_reported":1692577890,"current_range_meters":26400,"station_id":"ce4bgv12rcd13ifvqcp0","pricing_plan_id":"free"},{"bike_id":"e043dc60-625f-43b4-aa30-315072314797","system_id":"levelo_inurba_marseille","lat":43.311722,"lon":5.387247,"is_reserved":false,"is_disabled":false,"rental_uris":{"android":"levelo://app?vid=e043dc60-625f-43b4-aa30-315072314797","ios":"levelo://app?vid=e043dc60-625f-43b4-aa30-315072314797"},"vehicle_type_id":"4","last_reported":1692577890,"current_range_meters":10000,"station_id":"ce4bgv12rcd13ifvqcp0","pricing_plan_id":"free"},{"bike_id":"a8df194e-bd2f-4c6a-b6d2-d1b05b502c09","system_id":"levelo_inurba_marseille","lat":43.311722,"lon":5.387247,"is_reserved":false,"is_disabled":false,"rental_uris":{"android":"levelo://app?vid=a8df194e-bd2f-4c6a-b6d2-d1b05b502c09","ios":"levelo://app?vid=a8df194e-bd2f-4c6a-b6d2-d1b05b502c09"},"vehicle_type_id":"4","last_reported":1692577890,"current_range_meters":22000,"station_id":"ce4bgv12rcd13ifvqcp0","pricing_plan_id":"free"},{"bike_id":"b3083b0f-ec4c-4414-9d63-102a80d326aa","system_id":"levelo_inurba_marseille","lat":43.311722,"lon":5.387247,"is_reserved":false,"is_disabled":false,"rental_uris":{"android":"levelo://app?vid=b3083b0f-ec4c-4414-9d63-102a80d326aa","ios":"levelo://app?vid=b3083b0f-ec4c-4414-9d63-102a80d326aa"},"vehicle_type_id":"4","last_reported":1692577890,"current_range_meters":16800,"station_id":"ce4bgv12rcd13ifvqcp0","pricing_plan_id":"free"},{"bike_id":"b885f463-e8c5-42cc-902f-7152167ce1c7","system_id":"levelo_inurba_marseille","lat":43.29907,"lon":5.3749,"is_reserved":false,"is_disabled":false,"rental_uris":{"android":"levelo://app?vid=b885f463-e8c5-42cc-902f-7152167ce1c7","ios":"levelo://app?vid=b885f463-e8c5-42cc-902f-7152167ce1c7"},"vehicle_type_id":"4","last_reported":1692577890,"current_range_meters":30400,"station_id":"ce4bgjh2rcd13ifvqbg0","pricing_plan_id":"free"},{"bike_id":"5b5c8cae-b425-4976-9ba8-5ae205664d6b","system_id":"levelo_inurba_marseille","lat":43.32282,"lon":5.38258,"is_reserved":false,"is_disabled":false,"rental_uris":{"android":"levelo://app?vid=5b5c8cae-b425-4976-9ba8-5ae205664d6b","ios":"levelo://app?vid=5b5c8cae-b425-4976-9ba8-5ae205664d6b"},"vehicle_type_id":"4","last_reported":1692577890,"current_range_meters":11600,"station_id":"ce4bhr12rcd13ifvqhqg","pricing_plan_id":"free"},{"bike_id":"110bd150-ae2d-4085-890c-a8f4481980e0","system_id":"levelo_inurba_marseille","lat":43.32283,"lon":5.38279,"is_reserved":false,"is_disabled":false,"rental_uris":{"android":"levelo://app?vid=110bd150-ae2d-4085-890c-a8f4481980e0","ios":"levelo://app?vid=110bd150-ae2d-4085-890c-a8f4481980e0"},"vehicle_type_id":"4","last_reported":1692577890,"current_range_meters":23600,"station_id":"ce4bhr12rcd13ifvqhqg","pricing_plan_id":"free"},{"bike_id":"a1f7b084-f437-4e0c-8b20-334f54c48d59","system_id":"levelo_inurba_marseille","lat":43.32286,"lon":5.38279,"is_reserved":false,"is_disabled":false,"rental_uris":{"android":"levelo://app?vid=a1f7b084-f437-4e0c-8b20-334f54c48d59","ios":"levelo://app?vid=a1f7b084-f437-4e0c-8b20-334f54c48d59"},"vehicle_type_id":"4","last_reported":1692577890,"current_range_meters":12000,"station_id":"ce4bhr12rcd13ifvqhqg","pricing_plan_id":"free"},{"bike_id":"b9784bc4-a1f4-4e7b-a996-3746dcc4c656","system_id":"levelo_inurba_marseille","lat":43.32286,"lon":5.3828,"is_reserved":false,"is_disabled":false,"rental_uris":{"android":"levelo://app?vid=b9784bc4-a1f4-4e7b-a996-3746dcc4c656","ios":"levelo://app?vid=b9784bc4-a1f4-4e7b-a996-3746dcc4c656"},"vehicle_type_id":"4","last_reported":1692577890,"current_range_meters":3600,"station_id":"ce4bhr12rcd13ifvqhqg","pricing_plan_id":"free"},{"bike_id":"b73e61ac-fe20-4679-bfdf-8851c01afe62","system_id":"levelo_inurba_marseille","lat":43.328371,"lon":5.366909,"is_reserved":false,"is_disabled":false,"rental_uris":{"android":"levelo://app?vid=b73e61ac-fe20-4679-bfdf-8851c01afe62","ios":"levelo://app?vid=b73e61ac-fe20-4679-bfdf-8851c01afe62"},"vehicle_type_id":"4","last_reported":1692577890,"current_range_meters":31200,"station_id":"ce4bhs92rcd13ifvqi0g","pricing_plan_id":"free"},{"bike_id":"4d3f66e9-dc37-43a3-942c-d824e17e5a8e","system_id":"levelo_inurba_marseille","lat":43.32825,"lon":5.36692,"is_reserved":false,"is_disabled":false,"rental_uris":{"android":"levelo://app?vid=4d3f66e9-dc37-43a3-942c-d824e17e5a8e","ios":"levelo://app?vid=4d3f66e9-dc37-43a3-942c-d824e17e5a8e"},"vehicle_type_id":"4","last_reported":1692577890,"current_range_meters":30800,"station_id":"ce4bhs92rcd13ifvqi0g","pricing_plan_id":"free"},{"bike_id":"b344e2d0-98e1-4428-84f2-63b39a30dc96","system_id":"levelo_inurba_marseille","lat":43.29735,"lon":5.36402,"is_reserved":false,"is_disabled":false,"rental_uris":{"android":"levelo://app?vid=b344e2d0-98e1-4428-84f2-63b39a30dc96","ios":"levelo://app?vid=b344e2d0-98e1-4428-84f2-63b39a30dc96"},"vehicle_type_id":"4","last_reported":1692577890,"current_range_meters":29600,"station_id":"","pricing_plan_id":"free"},{"bike_id":"5b8e48f9-77d7-46c4-8853-5410f28c6930","system_id":"levelo_inurba_marseille","lat":43.328371,"lon":5.366909,"is_reserved":false,"is_disabled":false,"rental_uris":{"android":"levelo://app?vid=5b8e48f9-77d7-46c4-8853-5410f28c6930","ios":"levelo://app?vid=5b8e48f9-77d7-46c4-8853-5410f28c6930"},"vehicle_type_id":"4","last_reported":1692577890,"current_range_meters":2400,"station_id":"ce4bhs92rcd13ifvqi0g","pricing_plan_id":"free"},{"bike_id":"4cbec067-4527-483a-818d-69c4afd2ea31","system_id":"levelo_inurba_marseille","lat":43.32828,"lon":5.36683,"is_reserved":false,"is_disabled":false,"rental_uris":{"android":"levelo://app?vid=4cbec067-4527-483a-818d-69c4afd2ea31","ios":"levelo://app?vid=4cbec067-4527-483a-818d-69c4afd2ea31"},"vehicle_type_id":"4","last_reported":1692577890,"current_range_meters":17200,"station_id":"ce4bhs92rcd13ifvqi0g","pricing_plan_id":"free"},{"bike_id":"788315a1-e7c6-4c9b-837c-71a5bc2f0d62","system_id":"levelo_inurba_marseille","lat":43.328371,"lon":5.366909,"is_reserved":false,"is_disabled":false,"rental_uris":{"android":"levelo://app?vid=788315a1-e7c6-4c9b-837c-71a5bc2f0d62","ios":"levelo://app?vid=788315a1-e7c6-4c9b-837c-71a5bc2f0d62"},"vehicle_type_id":"4","last_reported":1692577890,"current_range_meters":0,"station_id":"ce4bhs92rcd13ifvqi0g","pricing_plan_id":"free"},{"bike_id":"dd789220-e7b5-42c1-b9dc-dc4243148021","system_id":"levelo_inurba_marseille","lat":43.297163,"lon":5.365866,"is_reserved":false,"is_disabled":false,"rental_uris":{"android":"levelo://app?vid=dd789220-e7b5-42c1-b9dc-dc4243148021","ios":"levelo://app?vid=dd789220-e7b5-42c1-b9dc-dc4243148021"},"vehicle_type_id":"4","last_reported":1692577890,"current_range_meters":31200,"station_id":"ce4bgn12rcd13ifvqbt0","pricing_plan_id":"free"},{"bike_id":"bb155e93-116e-494a-9911-2df351c7dae8","system_id":"levelo_inurba_marseille","lat":43.296129,"lon":5.370777,"is_reserved":false,"is_disabled":false,"rental_uris":{"android":"levelo://app?vid=bb155e93-116e-494a-9911-2df351c7dae8","ios":"levelo://app?vid=bb155e93-116e-494a-9911-2df351c7dae8"},"vehicle_type_id":"4","last_reported":1692577890,"current_range_meters":29200,"station_id":"ce4bgnh2rcd13ifvqc0g","pricing_plan_id":"free"},{"bike_id":"d3139180-8ba9-4c91-b6e4-8baae3c22113","system_id":"levelo_inurba_marseille","lat":43.29601,"lon":5.37193,"is_reserved":false,"is_disabled":false,"rental_uris":{"android":"levelo://app?vid=d3139180-8ba9-4c91-b6e4-8baae3c22113","ios":"levelo://app?vid=d3139180-8ba9-4c91-b6e4-8baae3c22113"},"vehicle_type_id":"4","last_reported":1692577890,"current_range_meters":28800,"station_id":"","pricing_plan_id":"free"},{"bike_id":"8320eb4f-6aa7-4584-8597-838921a0dc4f","system_id":"levelo_inurba_marseille","lat":43.304278,"lon":5.388868,"is_reserved":false,"is_disabled":false,"rental_uris":{"android":"levelo://app?vid=8320eb4f-6aa7-4584-8597-838921a0dc4f","ios":"levelo://app?vid=8320eb4f-6aa7-4584-8597-838921a0dc4f"},"vehicle_type_id":"4","last_reported":1692577890,"current_range_meters":15200,"station_id":"ce4bgk12rcd13ifvqbi0","pricing_plan_id":"free"},{"bike_id":"a4df99ce-0488-49dd-a888-94686f562e88","system_id":"levelo_inurba_marseille","lat":43.295748,"lon":5.37522,"is_reserved":false,"is_disabled":false,"rental_uris":{"android":"levelo://app?vid=a4df99ce-0488-49dd-a888-94686f562e88","ios":"levelo://app?vid=a4df99ce-0488-49dd-a888-94686f562e88"},"vehicle_type_id":"4","last_reported":1692577890,"current_range_meters":27600,"station_id":"ce4bgh92rcd13ifvqb50","pricing_plan_id":"free"},{"bike_id":"e16cf163-a1ff-4c4e-81f9-284234adb92d","system_id":"levelo_inurba_marseille","lat":43.296263,"lon":5.377094,"is_reserved":false,"is_disabled":false,"rental_uris":{"android":"levelo://app?vid=e16cf163-a1ff-4c4e-81f9-284234adb92d","ios":"levelo://app?vid=e16cf163-a1ff-4c4e-81f9-284234adb92d"},"vehicle_type_id":"4","last_reported":1692577890,"current_range_meters":4400,"station_id":"ce4bgi92rcd13ifvqb90","pricing_plan_id":"free"},{"bike_id":"fcb2e047-26c1-4978-886e-4ad1b47be7ba","system_id":"levelo_inurba_marseille","lat":43.296263,"lon":5.377094,"is_reserved":false,"is_disabled":false,"rental_uris":{"android":"levelo://app?vid=fcb2e047-26c1-4978-886e-4ad1b47be7ba","ios":"levelo://app?vid=fcb2e047-26c1-4978-886e-4ad1b47be7ba"},"vehicle_type_id":"4","last_reported":1692577890,"current_range_meters":18400,"station_id":"ce4bgi92rcd13ifvqb90","pricing_plan_id":"free"},{"bike_id":"6fd64036-0157-4405-a8ee-a5fd2b0697fa","system_id":"levelo_inurba_marseille","lat":43.29534,"lon":5.37499,"is_reserved":false,"is_disabled":false,"rental_uris":{"android":"levelo://app?vid=6fd64036-0157-4405-a8ee-a5fd2b0697fa","ios":"levelo://app?vid=6fd64036-0157-4405-a8ee-a5fd2b0697fa"},"vehicle_type_id":"4","last_reported":1692577890,"current_range_meters":0,"station_id":"","pricing_plan_id":"free"},{"bike_id":"00883cd9-a56a-4720-bb55-237d0136a4a1","system_id":"levelo_inurba_marseille","lat":43.32367,"lon":5.388836,"is_reserved":false,"is_disabled":false,"rental_uris":{"android":"levelo://app?vid=00883cd9-a56a-4720-bb55-237d0136a4a1","ios":"levelo://app?vid=00883cd9-a56a-4720-bb55-237d0136a4a1"},"vehicle_type_id":"4","last_reported":1692577890,"current_range_meters":20800,"station_id":"ce4bhqp2rcd13ifvqhog","pricing_plan_id":"free"},{"bike_id":"bc9e6d49-f8e7-4cb1-a846-fd83d3476f98","system_id":"levelo_inurba_marseille","lat":43.32364,"lon":5.38886,"is_reserved":false,"is_disabled":false,"rental_uris":{"android":"levelo://app?vid=bc9e6d49-f8e7-4cb1-a846-fd83d3476f98","ios":"levelo://app?vid=bc9e6d49-f8e7-4cb1-a846-fd83d3476f98"},"vehicle_type_id":"4","last_reported":1692577890,"current_range_meters":8800,"station_id":"ce4bhqp2rcd13ifvqhog","pricing_plan_id":"free"},{"bike_id":"8b17ed69-7b3c-4552-89f3-1db065881068","system_id":"levelo_inurba_marseille","lat":43.32367,"lon":5.388836,"is_reserved":false,"is_disabled":false,"rental_uris":{"android":"levelo://app?vid=8b17ed69-7b3c-4552-89f3-1db065881068","ios":"levelo://app?vid=8b17ed69-7b3c-4552-89f3-1db065881068"},"vehicle_type_id":"4","last_reported":1692577890,"current_range_meters":18000,"station_id":"ce4bhqp2rcd13ifvqhog","pricing_plan_id":"free"},{"bike_id":"de5fad82-eecf-4a53-a43a-5e8156b72f59","system_id":"levelo_inurba_marseille","lat":43.32368,"lon":5.38887,"is_reserved":false,"is_disabled":false,"rental_uris":{"android":"levelo://app?vid=de5fad82-eecf-4a53-a43a-5e8156b72f59","ios":"levelo://app?vid=de5fad82-eecf-4a53-a43a-5e8156b72f59"},"vehicle_type_id":"4","last_reported":1692577890,"current_range_meters":5600,"station_id":"ce4bhqp2rcd13ifvqhog","pricing_plan_id":"free"},{"bike_id":"d3be0501-53f1-4474-8f0a-4cac2f2d86d3","system_id":"levelo_inurba_marseille","lat":43.305994,"lon":5.393687,"is_reserved":false,"is_disabled":false,"rental_uris":{"android":"levelo://app?vid=d3be0501-53f1-4474-8f0a-4cac2f2d86d3","ios":"levelo://app?vid=d3be0501-53f1-4474-8f0a-4cac2f2d86d3"},"vehicle_type_id":"4","last_reported":1692577890,"current_range_meters":22800,"station_id":"ce4bh0p2rcd13ifvqd80","pricing_plan_id":"free"},{"bike_id":"7c4834a2-d4cf-4c49-88a0-dc3fa0c038b4","system_id":"levelo_inurba_marseille","lat":43.305994,"lon":5.393687,"is_reserved":false,"is_disabled":false,"rental_uris":{"android":"levelo://app?vid=7c4834a2-d4cf-4c49-88a0-dc3fa0c038b4","ios":"levelo://app?vid=7c4834a2-d4cf-4c49-88a0-dc3fa0c038b4"},"vehicle_type_id":"4","last_reported":1692577890,"current_range_meters":9200,"station_id":"ce4bh0p2rcd13ifvqd80","pricing_plan_id":"free"},{"bike_id":"64664962-4ccf-430e-8404-34441ee8119e","system_id":"levelo_inurba_marseille","lat":43.305994,"lon":5.393687,"is_reserved":false,"is_disabled":false,"rental_uris":{"android":"levelo://app?vid=64664962-4ccf-430e-8404-34441ee8119e","ios":"levelo://app?vid=64664962-4ccf-430e-8404-34441ee8119e"},"vehicle_type_id":"4","last_reported":1692577890,"current_range_meters":14800,"station_id":"ce4bh0p2rcd13ifvqd80","pricing_plan_id":"free"},{"bike_id":"83b7a958-a8a9-44f8-8f61-e6d116fa71cd","system_id":"levelo_inurba_marseille","lat":43.305994,"lon":5.393687,"is_reserved":false,"is_disabled":false,"rental_uris":{"android":"levelo://app?vid=83b7a958-a8a9-44f8-8f61-e6d116fa71cd","ios":"levelo://app?vid=83b7a958-a8a9-44f8-8f61-e6d116fa71cd"},"vehicle_type_id":"4","last_reported":1692577890,"current_range_meters":25200,"station_id":"ce4bh0p2rcd13ifvqd80","pricing_plan_id":"free"},{"bike_id":"361b9167-1217-4223-a9ee-6630e161feb1","system_id":"levelo_inurba_marseille","lat":43.30596,"lon":5.39366,"is_reserved":false,"is_disabled":false,"rental_uris":{"android":"levelo://app?vid=361b9167-1217-4223-a9ee-6630e161feb1","ios":"levelo://app?vid=361b9167-1217-4223-a9ee-6630e161feb1"},"vehicle_type_id":"4","last_reported":1692577890,"current_range_meters":4400,"station_id":"ce4bh0p2rcd13ifvqd80","pricing_plan_id":"free"},{"bike_id":"b91d80ad-4026-44ee-8374-e48b8b9bdf57","system_id":"levelo_inurba_marseille","lat":43.305994,"lon":5.393687,"is_reserved":false,"is_disabled":false,"rental_uris":{"android":"levelo://app?vid=b91d80ad-4026-44ee-8374-e48b8b9bdf57","ios":"levelo://app?vid=b91d80ad-4026-44ee-8374-e48b8b9bdf57"},"vehicle_type_id":"4","last_reported":1692577890,"current_range_meters":22000,"station_id":"ce4bh0p2rcd13ifvqd80","pricing_plan_id":"free"},{"bike_id":"15baf1b5-45bb-4fb7-b2fb-96a375fa7f36","system_id":"levelo_inurba_marseille","lat":43.305994,"lon":5.393687,"is_reserved":false,"is_disabled":false,"rental_uris":{"android":"levelo://app?vid=15baf1b5-45bb-4fb7-b2fb-96a375fa7f36","ios":"levelo://app?vid=15baf1b5-45bb-4fb7-b2fb-96a375fa7f36"},"vehicle_type_id":"4","last_reported":1692577890,"current_range_meters":23200,"station_id":"ce4bh0p2rcd13ifvqd80","pricing_plan_id":"free"},{"bike_id":"38fef587-7cc5-4800-b069-87b8f296a10a","system_id":"levelo_inurba_marseille","lat":43.293009,"lon":5.374584,"is_reserved":false,"is_disabled":false,"rental_uris":{"android":"levelo://app?vid=38fef587-7cc5-4800-b069-87b8f296a10a","ios":"levelo://app?vid=38fef587-7cc5-4800-b069-87b8f296a10a"},"vehicle_type_id":"4","last_reported":1692577890,"current_range_meters":31200,"station_id":"ce4bgi12rcd13ifvqb70","pricing_plan_id":"free"},{"bike_id":"0fb1b61d-8844-41a8-a6ab-2d42269528e9","system_id":"levelo_inurba_marseille","lat":43.30596,"lon":5.39369,"is_reserved":false,"is_disabled":false,"rental_uris":{"android":"levelo://app?vid=0fb1b61d-8844-41a8-a6ab-2d42269528e9","ios":"levelo://app?vid=0fb1b61d-8844-41a8-a6ab-2d42269528e9"},"vehicle_type_id":"4","last_reported":1692577890,"current_range_meters":4000,"station_id":"ce4bh0p2rcd13ifvqd80","pricing_plan_id":"free"},{"bike_id":"e2175cd7-3808-4235-8f4f-23540f6fe81c","system_id":"levelo_inurba_marseille","lat":43.305994,"lon":5.393687,"is_reserved":false,"is_disabled":false,"rental_uris":{"android":"levelo://app?vid=e2175cd7-3808-4235-8f4f-23540f6fe81c","ios":"levelo://app?vid=e2175cd7-3808-4235-8f4f-23540f6fe81c"},"vehicle_type_id":"4","last_reported":1692577890,"current_range_meters":24000,"station_id":"ce4bh0p2rcd13ifvqd80","pricing_plan_id":"free"},{"bike_id":"ddc07ebf-c2fb-4923-bd5c-63f8514278c4","system_id":"levelo_inurba_marseille","lat":43.30307,"lon":5.39207,"is_reserved":false,"is_disabled":false,"rental_uris":{"android":"levelo://app?vid=ddc07ebf-c2fb-4923-bd5c-63f8514278c4","ios":"levelo://app?vid=ddc07ebf-c2fb-4923-bd5c-63f8514278c4"},"vehicle_type_id":"4","last_reported":1692577890,"current_range_meters":10000,"station_id":"ce4bgkh2rcd13ifvqbk0","pricing_plan_id":"free"},{"bike_id":"7fe0e31d-d7b1-44a4-abf7-b0587fba9771","system_id":"levelo_inurba_marseille","lat":43.30301,"lon":5.39207,"is_reserved":false,"is_disabled":false,"rental_uris":{"android":"levelo://app?vid=7fe0e31d-d7b1-44a4-abf7-b0587fba9771","ios":"levelo://app?vid=7fe0e31d-d7b1-44a4-abf7-b0587fba9771"},"vehicle_type_id":"4","last_reported":1692577890,"current_range_meters":14000,"station_id":"ce4bgkh2rcd13ifvqbk0","pricing_plan_id":"free"},{"bike_id":"0724f352-a262-45b7-9b71-9a09ff17d945","system_id":"levelo_inurba_marseille","lat":43.3029,"lon":5.39204,"is_reserved":false,"is_disabled":false,"rental_uris":{"android":"levelo://app?vid=0724f352-a262-45b7-9b71-9a09ff17d945","ios":"levelo://app?vid=0724f352-a262-45b7-9b71-9a09ff17d945"},"vehicle_type_id":"4","last_reported":1692577890,"current_range_meters":18000,"station_id":"ce4bgkh2rcd13ifvqbk0","pricing_plan_id":"free"},{"bike_id":"087db6d8-54eb-45da-accd-af22e33b4b4e","system_id":"levelo_inurba_marseille","lat":43.29223,"lon":5.36058,"is_reserved":false,"is_disabled":false,"rental_uris":{"android":"levelo://app?vid=087db6d8-54eb-45da-accd-af22e33b4b4e","ios":"levelo://app?vid=087db6d8-54eb-45da-accd-af22e33b4b4e"},"vehicle_type_id":"4","last_reported":1692577890,"current_range_meters":30800,"station_id":"ce4bhbh2rcd13ifvqeqg","pricing_plan_id":"free"},{"bike_id":"e4610e1c-62f6-4618-aaf5-96364723d254","system_id":"levelo_inurba_marseille","lat":43.292311,"lon":5.360731,"is_reserved":false,"is_disabled":false,"rental_uris":{"android":"levelo://app?vid=e4610e1c-62f6-4618-aaf5-96364723d254","ios":"levelo://app?vid=e4610e1c-62f6-4618-aaf5-96364723d254"},"vehicle_type_id":"4","last_reported":1692577890,"current_range_meters":29600,"station_id":"ce4bhbh2rcd13ifvqeqg","pricing_plan_id":"free"},{"bike_id":"fbc09a18-86e5-4bb3-b46d-7ffc94c4319d","system_id":"levelo_inurba_marseille","lat":43.29211,"lon":5.36044,"is_reserved":false,"is_disabled":false,"rental_uris":{"android":"levelo://app?vid=fbc09a18-86e5-4bb3-b46d-7ffc94c4319d","ios":"levelo://app?vid=fbc09a18-86e5-4bb3-b46d-7ffc94c4319d"},"vehicle_type_id":"4","last_reported":1692577890,"current_range_meters":31200,"station_id":"ce4bhbh2rcd13ifvqeqg","pricing_plan_id":"free"},{"bike_id":"a6d28f4d-61c7-412f-a5d7-ab1701db555e","system_id":"levelo_inurba_marseille","lat":43.309038,"lon":5.396546,"is_reserved":false,"is_disabled":false,"rental_uris":{"android":"levelo://app?vid=a6d28f4d-61c7-412f-a5d7-ab1701db555e","ios":"levelo://app?vid=a6d28f4d-61c7-412f-a5d7-ab1701db555e"},"vehicle_type_id":"4","last_reported":1692577890,"current_range_meters":21200,"station_id":"ce4bh012rcd13ifvqcv0","pricing_plan_id":"free"},{"bike_id":"4c8eddff-e7ff-4d5e-82a2-56cea9a67080","system_id":"levelo_inurba_marseille","lat":43.309038,"lon":5.396546,"is_reserved":false,"is_disabled":false,"rental_uris":{"android":"levelo://app?vid=4c8eddff-e7ff-4d5e-82a2-56cea9a67080","ios":"levelo://app?vid=4c8eddff-e7ff-4d5e-82a2-56cea9a67080"},"vehicle_type_id":"4","last_reported":1692577890,"current_range_meters":31200,"station_id":"ce4bh012rcd13ifvqcv0","pricing_plan_id":"free"},{"bike_id":"95b54788-5695-465f-8812-ff9ad7063f81","system_id":"levelo_inurba_marseille","lat":43.29194,"lon":5.35803,"is_reserved":false,"is_disabled":false,"rental_uris":{"android":"levelo://app?vid=95b54788-5695-465f-8812-ff9ad7063f81","ios":"levelo://app?vid=95b54788-5695-465f-8812-ff9ad7063f81"},"vehicle_type_id":"4","last_reported":1692577890,"current_range_meters":30400,"station_id":"ce4bhb12rcd13ifvqel0","pricing_plan_id":"free"},{"bike_id":"feb78bf1-5dc3-4cec-9b0f-1cf07cf4443a","system_id":"levelo_inurba_marseille","lat":43.313291,"lon":5.396838,"is_reserved":false,"is_disabled":false,"rental_uris":{"android":"levelo://app?vid=feb78bf1-5dc3-4cec-9b0f-1cf07cf4443a","ios":"levelo://app?vid=feb78bf1-5dc3-4cec-9b0f-1cf07cf4443a"},"vehicle_type_id":"4","last_reported":1692577890,"current_range_meters":31200,"station_id":"ce4bgvp2rcd13ifvqcu0","pricing_plan_id":"free"},{"bike_id":"54197310-ab91-47f3-a3c7-4902d64c6527","system_id":"levelo_inurba_marseille","lat":43.3088,"lon":5.39645,"is_reserved":false,"is_disabled":false,"rental_uris":{"android":"levelo://app?vid=54197310-ab91-47f3-a3c7-4902d64c6527","ios":"levelo://app?vid=54197310-ab91-47f3-a3c7-4902d64c6527"},"vehicle_type_id":"4","last_reported":1692577890,"current_range_meters":30400,"station_id":"ce4bh012rcd13ifvqcv0","pricing_plan_id":"free"},{"bike_id":"bb33eda1-8fa8-460d-8400-c26a07ee274f","system_id":"levelo_inurba_marseille","lat":43.308855,"lon":5.396507,"is_reserved":false,"is_disabled":false,"rental_uris":{"android":"levelo://app?vid=bb33eda1-8fa8-460d-8400-c26a07ee274f","ios":"levelo://app?vid=bb33eda1-8fa8-460d-8400-c26a07ee274f"},"vehicle_type_id":"4","last_reported":1692577890,"current_range_meters":31200,"station_id":"ce4bh012rcd13ifvqcv0","pricing_plan_id":"free"},{"bike_id":"915de029-d7cb-41fe-91e8-46faf462cf92","system_id":"levelo_inurba_marseille","lat":43.308878,"lon":5.396528,"is_reserved":false,"is_disabled":false,"rental_uris":{"android":"levelo://app?vid=915de029-d7cb-41fe-91e8-46faf462cf92","ios":"levelo://app?vid=915de029-d7cb-41fe-91e8-46faf462cf92"},"vehicle_type_id":"4","last_reported":1692577890,"current_range_meters":31200,"station_id":"ce4bh012rcd13ifvqcv0","pricing_plan_id":"free"},{"bike_id":"bc5c6bfd-3e41-4c41-a52e-882ce419d4c2","system_id":"levelo_inurba_marseille","lat":43.308906,"lon":5.396561,"is_reserved":false,"is_disabled":false,"rental_uris":{"android":"levelo://app?vid=bc5c6bfd-3e41-4c41-a52e-882ce419d4c2","ios":"levelo://app?vid=bc5c6bfd-3e41-4c41-a52e-882ce419d4c2"},"vehicle_type_id":"4","last_reported":1692577890,"current_range_meters":15600,"station_id":"ce4bh012rcd13ifvqcv0","pricing_plan_id":"free"},{"bike_id":"a435ad5f-dd98-4de3-8edb-f81f9585f29c","system_id":"levelo_inurba_marseille","lat":43.29178,"lon":5.35815,"is_reserved":false,"is_disabled":false,"rental_uris":{"android":"levelo://app?vid=a435ad5f-dd98-4de3-8edb-f81f9585f29c","ios":"levelo://app?vid=a435ad5f-dd98-4de3-8edb-f81f9585f29c"},"vehicle_type_id":"4","last_reported":1692577890,"current_range_meters":31200,"station_id":"ce4bhb12rcd13ifvqel0","pricing_plan_id":"free"},{"bike_id":"ed405518-e00f-42a1-a9e1-81eddb55ccd4","system_id":"levelo_inurba_marseille","lat":43.309038,"lon":5.396546,"is_reserved":false,"is_disabled":false,"rental_uris":{"android":"levelo://app?vid=ed405518-e00f-42a1-a9e1-81eddb55ccd4","ios":"levelo://app?vid=ed405518-e00f-42a1-a9e1-81eddb55ccd4"},"vehicle_type_id":"4","last_reported":1692577890,"current_range_meters":13600,"station_id":"ce4bh012rcd13ifvqcv0","pricing_plan_id":"free"},{"bike_id":"89d5631c-41ee-4b2c-a21c-72910447517e","system_id":"levelo_inurba_marseille","lat":43.308888,"lon":5.396599,"is_reserved":false,"is_disabled":false,"rental_uris":{"android":"levelo://app?vid=89d5631c-41ee-4b2c-a21c-72910447517e","ios":"levelo://app?vid=89d5631c-41ee-4b2c-a21c-72910447517e"},"vehicle_type_id":"4","last_reported":1692577890,"current_range_meters":12800,"station_id":"ce4bh012rcd13ifvqcv0","pricing_plan_id":"free"},{"bike_id":"9f6a074a-ed26-4796-88a5-1352e7e0002f","system_id":"levelo_inurba_marseille","lat":43.31337,"lon":5.39719,"is_reserved":false,"is_disabled":false,"rental_uris":{"android":"levelo://app?vid=9f6a074a-ed26-4796-88a5-1352e7e0002f","ios":"levelo://app?vid=9f6a074a-ed26-4796-88a5-1352e7e0002f"},"vehicle_type_id":"4","last_reported":1692577890,"current_range_meters":31200,"station_id":"ce4bgvp2rcd13ifvqcu0","pricing_plan_id":"free"},{"bike_id":"8ab3a051-6318-4ae1-9398-fcdfdc00e93e","system_id":"levelo_inurba_marseille","lat":43.302008,"lon":5.394694,"is_reserved":false,"is_disabled":false,"rental_uris":{"android":"levelo://app?vid=8ab3a051-6318-4ae1-9398-fcdfdc00e93e","ios":"levelo://app?vid=8ab3a051-6318-4ae1-9398-fcdfdc00e93e"},"vehicle_type_id":"4","last_reported":1692577890,"current_range_meters":26400,"station_id":"ce4bh0p2rcd13ifvqd70","pricing_plan_id":"free"},{"bike_id":"4bb2fbf9-47bb-4b6d-9fc1-7114f1405aee","system_id":"levelo_inurba_marseille","lat":43.302008,"lon":5.394694,"is_reserved":false,"is_disabled":false,"rental_uris":{"android":"levelo://app?vid=4bb2fbf9-47bb-4b6d-9fc1-7114f1405aee","ios":"levelo://app?vid=4bb2fbf9-47bb-4b6d-9fc1-7114f1405aee"},"vehicle_type_id":"4","last_reported":1692577890,"current_range_meters":20400,"station_id":"ce4bh0p2rcd13ifvqd70","pricing_plan_id":"free"},{"bike_id":"bc78b485-9441-4914-b2f9-13188e5d6a78","system_id":"levelo_inurba_marseille","lat":43.302008,"lon":5.394694,"is_reserved":false,"is_disabled":false,"rental_uris":{"android":"levelo://app?vid=bc78b485-9441-4914-b2f9-13188e5d6a78","ios":"levelo://app?vid=bc78b485-9441-4914-b2f9-13188e5d6a78"},"vehicle_type_id":"4","last_reported":1692577890,"current_range_meters":26000,"station_id":"ce4bh0p2rcd13ifvqd70","pricing_plan_id":"free"},{"bike_id":"ceb7e448-efae-4318-b3d9-138b63038455","system_id":"levelo_inurba_marseille","lat":43.289184,"lon":5.366408,"is_reserved":false,"is_disabled":false,"rental_uris":{"android":"levelo://app?vid=ceb7e448-efae-4318-b3d9-138b63038455","ios":"levelo://app?vid=ceb7e448-efae-4318-b3d9-138b63038455"},"vehicle_type_id":"4","last_reported":1692577890,"current_range_meters":18000,"station_id":"ce4bhap2rcd13ifvqek0","pricing_plan_id":"free"},{"bike_id":"acaa7502-6395-4eb4-9f38-6c505ad18cfb","system_id":"levelo_inurba_marseille","lat":43.289184,"lon":5.366408,"is_reserved":false,"is_disabled":false,"rental_uris":{"android":"levelo://app?vid=acaa7502-6395-4eb4-9f38-6c505ad18cfb","ios":"levelo://app?vid=acaa7502-6395-4eb4-9f38-6c505ad18cfb"},"vehicle_type_id":"4","last_reported":1692577890,"current_range_meters":27600,"station_id":"ce4bhap2rcd13ifvqek0","pricing_plan_id":"free"},{"bike_id":"58d2009c-0a40-4b5a-b971-df8f6dd47e41","system_id":"levelo_inurba_marseille","lat":43.304296,"lon":5.397513,"is_reserved":false,"is_disabled":false,"rental_uris":{"android":"levelo://app?vid=58d2009c-0a40-4b5a-b971-df8f6dd47e41","ios":"levelo://app?vid=58d2009c-0a40-4b5a-b971-df8f6dd47e41"},"vehicle_type_id":"4","last_reported":1692577890,"current_range_meters":22800,"station_id":"ce4bh092rcd13ifvqd20","pricing_plan_id":"free"},{"bike_id":"5b7f50a3-53b2-47ee-bdad-b00c074dea51","system_id":"levelo_inurba_marseille","lat":43.304274,"lon":5.397513,"is_reserved":false,"is_disabled":false,"rental_uris":{"android":"levelo://app?vid=5b7f50a3-53b2-47ee-bdad-b00c074dea51","ios":"levelo://app?vid=5b7f50a3-53b2-47ee-bdad-b00c074dea51"},"vehicle_type_id":"4","last_reported":1692577890,"current_range_meters":19600,"station_id":"ce4bh092rcd13ifvqd20","pricing_plan_id":"free"},{"bike_id":"06f42ee0-4b4e-4431-821d-fa731fdcb786","system_id":"levelo_inurba_marseille","lat":43.30432,"lon":5.39757,"is_reserved":false,"is_disabled":false,"rental_uris":{"android":"levelo://app?vid=06f42ee0-4b4e-4431-821d-fa731fdcb786","ios":"levelo://app?vid=06f42ee0-4b4e-4431-821d-fa731fdcb786"},"vehicle_type_id":"4","last_reported":1692577890,"current_range_meters":14400,"station_id":"ce4bh092rcd13ifvqd20","pricing_plan_id":"free"},{"bike_id":"f220fda5-758c-40ad-b2eb-ef45f8dd0b94","system_id":"levelo_inurba_marseille","lat":43.304296,"lon":5.397513,"is_reserved":false,"is_disabled":false,"rental_uris":{"android":"levelo://app?vid=f220fda5-758c-40ad-b2eb-ef45f8dd0b94","ios":"levelo://app?vid=f220fda5-758c-40ad-b2eb-ef45f8dd0b94"},"vehicle_type_id":"4","last_reported":1692577890,"current_range_meters":30400,"station_id":"ce4bh092rcd13ifvqd20","pricing_plan_id":"free"},{"bike_id":"eb950724-6c95-4fb2-915f-35b08a8cfd23","system_id":"levelo_inurba_marseille","lat":43.33039,"lon":5.38916,"is_reserved":false,"is_disabled":false,"rental_uris":{"android":"levelo://app?vid=eb950724-6c95-4fb2-915f-35b08a8cfd23","ios":"levelo://app?vid=eb950724-6c95-4fb2-915f-35b08a8cfd23"},"vehicle_type_id":"4","last_reported":1692577890,"current_range_meters":15200,"station_id":"ce4bhr92rcd13ifvqhrg","pricing_plan_id":"free"},{"bike_id":"d2b15eb2-4474-4e56-aace-fe335ab0092e","system_id":"levelo_inurba_marseille","lat":43.33038,"lon":5.38919,"is_reserved":false,"is_disabled":false,"rental_uris":{"android":"levelo://app?vid=d2b15eb2-4474-4e56-aace-fe335ab0092e","ios":"levelo://app?vid=d2b15eb2-4474-4e56-aace-fe335ab0092e"},"vehicle_type_id":"4","last_reported":1692577890,"current_range_meters":31200,"station_id":"ce4bhr92rcd13ifvqhrg","pricing_plan_id":"free"},{"bike_id":"de450cac-4370-4660-9455-3e94463307a2","system_id":"levelo_inurba_marseille","lat":43.33034,"lon":5.38926,"is_reserved":false,"is_disabled":false,"rental_uris":{"android":"levelo://app?vid=de450cac-4370-4660-9455-3e94463307a2","ios":"levelo://app?vid=de450cac-4370-4660-9455-3e94463307a2"},"vehicle_type_id":"4","last_reported":1692577890,"current_range_meters":31200,"station_id":"ce4bhr92rcd13ifvqhrg","pricing_plan_id":"free"},{"bike_id":"5036c72a-6252-47f4-a9fb-50fd514d506a","system_id":"levelo_inurba_marseille","lat":43.33039,"lon":5.38919,"is_reserved":false,"is_disabled":false,"rental_uris":{"android":"levelo://app?vid=5036c72a-6252-47f4-a9fb-50fd514d506a","ios":"levelo://app?vid=5036c72a-6252-47f4-a9fb-50fd514d506a"},"vehicle_type_id":"4","last_reported":1692577890,"current_range_meters":17600,"station_id":"ce4bhr92rcd13ifvqhrg","pricing_plan_id":"free"},{"bike_id":"3b3e7c42-cded-4bde-b175-99650afa4f17","system_id":"levelo_inurba_marseille","lat":43.33043,"lon":5.38913,"is_reserved":false,"is_disabled":false,"rental_uris":{"android":"levelo://app?vid=3b3e7c42-cded-4bde-b175-99650afa4f17","ios":"levelo://app?vid=3b3e7c42-cded-4bde-b175-99650afa4f17"},"vehicle_type_id":"4","last_reported":1692577890,"current_range_meters":19600,"station_id":"ce4bhr92rcd13ifvqhrg","pricing_plan_id":"free"},{"bike_id":"77d0692c-7c08-44a6-94c9-dd065cc4c536","system_id":"levelo_inurba_marseille","lat":43.33045,"lon":5.38911,"is_reserved":false,"is_disabled":false,"rental_uris":{"android":"levelo://app?vid=77d0692c-7c08-44a6-94c9-dd065cc4c536","ios":"levelo://app?vid=77d0692c-7c08-44a6-94c9-dd065cc4c536"},"vehicle_type_id":"4","last_reported":1692577890,"current_range_meters":30400,"station_id":"ce4bhr92rcd13ifvqhrg","pricing_plan_id":"free"},{"bike_id":"263a0f88-00b4-47fe-8ede-c245713078bf","system_id":"levelo_inurba_marseille","lat":43.33038,"lon":5.38923,"is_reserved":false,"is_disabled":false,"rental_uris":{"android":"levelo://app?vid=263a0f88-00b4-47fe-8ede-c245713078bf","ios":"levelo://app?vid=263a0f88-00b4-47fe-8ede-c245713078bf"},"vehicle_type_id":"4","last_reported":1692577890,"current_range_meters":22000,"station_id":"ce4bhr92rcd13ifvqhrg","pricing_plan_id":"free"},{"bike_id":"287c6b38-6f7a-44e1-9ca5-4697e102d8cd","system_id":"levelo_inurba_marseille","lat":43.33036,"lon":5.38927,"is_reserved":false,"is_disabled":false,"rental_uris":{"android":"levelo://app?vid=287c6b38-6f7a-44e1-9ca5-4697e102d8cd","ios":"levelo://app?vid=287c6b38-6f7a-44e1-9ca5-4697e102d8cd"},"vehicle_type_id":"4","last_reported":1692577890,"current_range_meters":31200,"station_id":"ce4bhr92rcd13ifvqhrg","pricing_plan_id":"free"},{"bike_id":"c65152a1-dca7-4ee4-9864-308587d5ed74","system_id":"levelo_inurba_marseille","lat":43.3304,"lon":5.38922,"is_reserved":false,"is_disabled":false,"rental_uris":{"android":"levelo://app?vid=c65152a1-dca7-4ee4-9864-308587d5ed74","ios":"levelo://app?vid=c65152a1-dca7-4ee4-9864-308587d5ed74"},"vehicle_type_id":"4","last_reported":1692577890,"current_range_meters":18000,"station_id":"ce4bhr92rcd13ifvqhrg","pricing_plan_id":"free"},{"bike_id":"a5d7998c-4c76-4390-bbcf-8c2a2abd7eba","system_id":"levelo_inurba_marseille","lat":43.3304,"lon":5.38923,"is_reserved":false,"is_disabled":false,"rental_uris":{"android":"levelo://app?vid=a5d7998c-4c76-4390-bbcf-8c2a2abd7eba","ios":"levelo://app?vid=a5d7998c-4c76-4390-bbcf-8c2a2abd7eba"},"vehicle_type_id":"4","last_reported":1692577890,"current_range_meters":26800,"station_id":"ce4bhr92rcd13ifvqhrg","pricing_plan_id":"free"},{"bike_id":"f7005a11-f4b8-40eb-a1e9-6d3833ad8114","system_id":"levelo_inurba_marseille","lat":43.33045,"lon":5.38917,"is_reserved":false,"is_disabled":false,"rental_uris":{"android":"levelo://app?vid=f7005a11-f4b8-40eb-a1e9-6d3833ad8114","ios":"levelo://app?vid=f7005a11-f4b8-40eb-a1e9-6d3833ad8114"},"vehicle_type_id":"4","last_reported":1692577890,"current_range_meters":24400,"station_id":"ce4bhr92rcd13ifvqhrg","pricing_plan_id":"free"},{"bike_id":"c8619c93-5f6a-45f4-8e07-c81fcc1e21be","system_id":"levelo_inurba_marseille","lat":43.33044,"lon":5.38919,"is_reserved":false,"is_disabled":false,"rental_uris":{"android":"levelo://app?vid=c8619c93-5f6a-45f4-8e07-c81fcc1e21be","ios":"levelo://app?vid=c8619c93-5f6a-45f4-8e07-c81fcc1e21be"},"vehicle_type_id":"4","last_reported":1692577890,"current_range_meters":22400,"station_id":"ce4bhr92rcd13ifvqhrg","pricing_plan_id":"free"},{"bike_id":"86eac789-1e56-496d-abfa-705e29d378c7","system_id":"levelo_inurba_marseille","lat":43.33043,"lon":5.38921,"is_reserved":false,"is_disabled":false,"rental_uris":{"android":"levelo://app?vid=86eac789-1e56-496d-abfa-705e29d378c7","ios":"levelo://app?vid=86eac789-1e56-496d-abfa-705e29d378c7"},"vehicle_type_id":"4","last_reported":1692577890,"current_range_meters":25200,"station_id":"ce4bhr92rcd13ifvqhrg","pricing_plan_id":"free"},{"bike_id":"9e24a65c-fe1e-45dc-88b9-dd0cad85064c","system_id":"levelo_inurba_marseille","lat":43.33046,"lon":5.38917,"is_reserved":false,"is_disabled":false,"rental_uris":{"android":"levelo://app?vid=9e24a65c-fe1e-45dc-88b9-dd0cad85064c","ios":"levelo://app?vid=9e24a65c-fe1e-45dc-88b9-dd0cad85064c"},"vehicle_type_id":"4","last_reported":1692577890,"current_range_meters":25200,"station_id":"ce4bhr92rcd13ifvqhrg","pricing_plan_id":"free"},{"bike_id":"708f7f21-b221-4c14-94b6-b5d8e3289350","system_id":"levelo_inurba_marseille","lat":43.33045,"lon":5.3892,"is_reserved":false,"is_disabled":false,"rental_uris":{"android":"levelo://app?vid=708f7f21-b221-4c14-94b6-b5d8e3289350","ios":"levelo://app?vid=708f7f21-b221-4c14-94b6-b5d8e3289350"},"vehicle_type_id":"4","last_reported":1692577890,"current_range_meters":16400,"station_id":"ce4bhr92rcd13ifvqhrg","pricing_plan_id":"free"},{"bike_id":"311cb0a1-d2bd-42c8-aa64-be9b063c2c5e","system_id":"levelo_inurba_marseille","lat":43.33045,"lon":5.38922,"is_reserved":false,"is_disabled":false,"rental_uris":{"android":"levelo://app?vid=311cb0a1-d2bd-42c8-aa64-be9b063c2c5e","ios":"levelo://app?vid=311cb0a1-d2bd-42c8-aa64-be9b063c2c5e"},"vehicle_type_id":"4","last_reported":1692577890,"current_range_meters":21600,"station_id":"ce4bhr92rcd13ifvqhrg","pricing_plan_id":"free"},{"bike_id":"52662068-d06a-40c1-bfee-ce6664dc3a83","system_id":"levelo_inurba_marseille","lat":43.33048,"lon":5.3892,"is_reserved":false,"is_disabled":false,"rental_uris":{"android":"levelo://app?vid=52662068-d06a-40c1-bfee-ce6664dc3a83","ios":"levelo://app?vid=52662068-d06a-40c1-bfee-ce6664dc3a83"},"vehicle_type_id":"4","last_reported":1692577890,"current_range_meters":31200,"station_id":"ce4bhr92rcd13ifvqhrg","pricing_plan_id":"free"},{"bike_id":"a8f93cbc-a1a8-4918-9270-613c2d9d614c","system_id":"levelo_inurba_marseille","lat":43.2979,"lon":5.3934,"is_reserved":false,"is_disabled":false,"rental_uris":{"android":"levelo://app?vid=a8f93cbc-a1a8-4918-9270-613c2d9d614c","ios":"levelo://app?vid=a8f93cbc-a1a8-4918-9270-613c2d9d614c"},"vehicle_type_id":"4","last_reported":1692577890,"current_range_meters":7200,"station_id":"chh1huq6cuj3fo74tm60","pricing_plan_id":"free"},{"bike_id":"483baaf5-5510-4c9d-b1ac-4daf8fc95845","system_id":"levelo_inurba_marseille","lat":43.312609,"lon":5.401662,"is_reserved":false,"is_disabled":false,"rental_uris":{"android":"levelo://app?vid=483baaf5-5510-4c9d-b1ac-4daf8fc95845","ios":"levelo://app?vid=483baaf5-5510-4c9d-b1ac-4daf8fc95845"},"vehicle_type_id":"4","last_reported":1692577890,"current_range_meters":9600,"station_id":"ce4bh092rcd13ifvqd30","pricing_plan_id":"free"},{"bike_id":"753651cb-1607-4ffc-97f4-df65170cc673","system_id":"levelo_inurba_marseille","lat":43.312609,"lon":5.401662,"is_reserved":false,"is_disabled":false,"rental_uris":{"android":"levelo://app?vid=753651cb-1607-4ffc-97f4-df65170cc673","ios":"levelo://app?vid=753651cb-1607-4ffc-97f4-df65170cc673"},"vehicle_type_id":"4","last_reported":1692577890,"current_range_meters":14400,"station_id":"ce4bh092rcd13ifvqd30","pricing_plan_id":"free"},{"bike_id":"0dbff658-d426-413c-b8d4-21ca938ee664","system_id":"levelo_inurba_marseille","lat":43.31266,"lon":5.40176,"is_reserved":false,"is_disabled":false,"rental_uris":{"android":"levelo://app?vid=0dbff658-d426-413c-b8d4-21ca938ee664","ios":"levelo://app?vid=0dbff658-d426-413c-b8d4-21ca938ee664"},"vehicle_type_id":"4","last_reported":1692577890,"current_range_meters":8800,"station_id":"ce4bh092rcd13ifvqd30","pricing_plan_id":"free"},{"bike_id":"8abca657-dfd7-43ed-9a5d-e1e4067084c3","system_id":"levelo_inurba_marseille","lat":43.30921,"lon":5.40143,"is_reserved":false,"is_disabled":false,"rental_uris":{"android":"levelo://app?vid=8abca657-dfd7-43ed-9a5d-e1e4067084c3","ios":"levelo://app?vid=8abca657-dfd7-43ed-9a5d-e1e4067084c3"},"vehicle_type_id":"4","last_reported":1692577890,"current_range_meters":20400,"station_id":"ce4bgvp2rcd13ifvqct0","pricing_plan_id":"free"},{"bike_id":"a56136f6-47ec-4fb1-bad0-6e72756ac6a5","system_id":"levelo_inurba_marseille","lat":43.3092,"lon":5.40145,"is_reserved":false,"is_disabled":false,"rental_uris":{"android":"levelo://app?vid=a56136f6-47ec-4fb1-bad0-6e72756ac6a5","ios":"levelo://app?vid=a56136f6-47ec-4fb1-bad0-6e72756ac6a5"},"vehicle_type_id":"4","last_reported":1692577890,"current_range_meters":20400,"station_id":"ce4bgvp2rcd13ifvqct0","pricing_plan_id":"free"},{"bike_id":"e466bb0f-a77c-4aa1-9822-4dcb8ea93d8e","system_id":"levelo_inurba_marseille","lat":43.31266,"lon":5.4018,"is_reserved":false,"is_disabled":false,"rental_uris":{"android":"levelo://app?vid=e466bb0f-a77c-4aa1-9822-4dcb8ea93d8e","ios":"levelo://app?vid=e466bb0f-a77c-4aa1-9822-4dcb8ea93d8e"},"vehicle_type_id":"4","last_reported":1692577890,"current_range_meters":13600,"station_id":"ce4bh092rcd13ifvqd30","pricing_plan_id":"free"},{"bike_id":"30723a85-0202-4647-9837-f6a8200b3328","system_id":"levelo_inurba_marseille","lat":43.30931,"lon":5.40148,"is_reserved":false,"is_disabled":false,"rental_uris":{"android":"levelo://app?vid=30723a85-0202-4647-9837-f6a8200b3328","ios":"levelo://app?vid=30723a85-0202-4647-9837-f6a8200b3328"},"vehicle_type_id":"4","last_reported":1692577890,"current_range_meters":7600,"station_id":"ce4bgvp2rcd13ifvqct0","pricing_plan_id":"free"},{"bike_id":"3b4cc115-c82c-4fa6-a8f3-0f5e7121504c","system_id":"levelo_inurba_marseille","lat":43.312609,"lon":5.401662,"is_reserved":false,"is_disabled":false,"rental_uris":{"android":"levelo://app?vid=3b4cc115-c82c-4fa6-a8f3-0f5e7121504c","ios":"levelo://app?vid=3b4cc115-c82c-4fa6-a8f3-0f5e7121504c"},"vehicle_type_id":"4","last_reported":1692577890,"current_range_meters":13600,"station_id":"ce4bh092rcd13ifvqd30","pricing_plan_id":"free"},{"bike_id":"15ffda53-1fd8-4097-a5eb-d1e9ce53adc5","system_id":"levelo_inurba_marseille","lat":43.30931,"lon":5.40149,"is_reserved":false,"is_disabled":false,"rental_uris":{"android":"levelo://app?vid=15ffda53-1fd8-4097-a5eb-d1e9ce53adc5","ios":"levelo://app?vid=15ffda53-1fd8-4097-a5eb-d1e9ce53adc5"},"vehicle_type_id":"4","last_reported":1692577890,"current_range_meters":11200,"station_id":"ce4bgvp2rcd13ifvqct0","pricing_plan_id":"free"},{"bike_id":"2241bce1-ebf9-4d91-b7e5-fe08a6544f42","system_id":"levelo_inurba_marseille","lat":43.33748,"lon":5.37494,"is_reserved":false,"is_disabled":false,"rental_uris":{"android":"levelo://app?vid=2241bce1-ebf9-4d91-b7e5-fe08a6544f42","ios":"levelo://app?vid=2241bce1-ebf9-4d91-b7e5-fe08a6544f42"},"vehicle_type_id":"4","last_reported":1692577890,"current_range_meters":18000,"station_id":"","pricing_plan_id":"free"},{"bike_id":"77293018-4aeb-4bf5-83dc-97b41dd08fff","system_id":"levelo_inurba_marseille","lat":43.30942,"lon":5.40156,"is_reserved":false,"is_disabled":false,"rental_uris":{"android":"levelo://app?vid=77293018-4aeb-4bf5-83dc-97b41dd08fff","ios":"levelo://app?vid=77293018-4aeb-4bf5-83dc-97b41dd08fff"},"vehicle_type_id":"4","last_reported":1692577890,"current_range_meters":2800,"station_id":"ce4bgvp2rcd13ifvqct0","pricing_plan_id":"free"},{"bike_id":"754440c1-2290-485e-b635-23fe51a7d203","system_id":"levelo_inurba_marseille","lat":43.30651,"lon":5.40091,"is_reserved":false,"is_disabled":false,"rental_uris":{"android":"levelo://app?vid=754440c1-2290-485e-b635-23fe51a7d203","ios":"levelo://app?vid=754440c1-2290-485e-b635-23fe51a7d203"},"vehicle_type_id":"4","last_reported":1692577890,"current_range_meters":0,"station_id":"ce4bh112rcd13ifvqda0","pricing_plan_id":"free"},{"bike_id":"1836c989-5d05-46c2-914f-3d9a54d9f49d","system_id":"levelo_inurba_marseille","lat":43.30659,"lon":5.40094,"is_reserved":false,"is_disabled":false,"rental_uris":{"android":"levelo://app?vid=1836c989-5d05-46c2-914f-3d9a54d9f49d","ios":"levelo://app?vid=1836c989-5d05-46c2-914f-3d9a54d9f49d"},"vehicle_type_id":"4","last_reported":1692577890,"current_range_meters":8000,"station_id":"ce4bh112rcd13ifvqda0","pricing_plan_id":"free"},{"bike_id":"0da24a39-5174-41db-b945-de50dee4b34e","system_id":"levelo_inurba_marseille","lat":43.30642,"lon":5.40094,"is_reserved":false,"is_disabled":false,"rental_uris":{"android":"levelo://app?vid=0da24a39-5174-41db-b945-de50dee4b34e","ios":"levelo://app?vid=0da24a39-5174-41db-b945-de50dee4b34e"},"vehicle_type_id":"4","last_reported":1692577890,"current_range_meters":3200,"station_id":"ce4bh112rcd13ifvqda0","pricing_plan_id":"free"},{"bike_id":"003f9415-f8d0-4511-96f3-909a1241acb4","system_id":"levelo_inurba_marseille","lat":43.30646,"lon":5.40103,"is_reserved":false,"is_disabled":false,"rental_uris":{"android":"levelo://app?vid=003f9415-f8d0-4511-96f3-909a1241acb4","ios":"levelo://app?vid=003f9415-f8d0-4511-96f3-909a1241acb4"},"vehicle_type_id":"4","last_reported":1692577890,"current_range_meters":5200,"station_id":"ce4bh112rcd13ifvqda0","pricing_plan_id":"free"},{"bike_id":"4c299ce7-440e-40b9-8606-eaea3d2f5077","system_id":"levelo_inurba_marseille","lat":43.30644,"lon":5.40103,"is_reserved":false,"is_disabled":false,"rental_uris":{"android":"levelo://app?vid=4c299ce7-440e-40b9-8606-eaea3d2f5077","ios":"levelo://app?vid=4c299ce7-440e-40b9-8606-eaea3d2f5077"},"vehicle_type_id":"4","last_reported":1692577890,"current_range_meters":0,"station_id":"ce4bh112rcd13ifvqda0","pricing_plan_id":"free"},{"bike_id":"8cd243bd-95e6-428a-8394-30b2303d5871","system_id":"levelo_inurba_marseille","lat":43.30635,"lon":5.40101,"is_reserved":false,"is_disabled":false,"rental_uris":{"android":"levelo://app?vid=8cd243bd-95e6-428a-8394-30b2303d5871","ios":"levelo://app?vid=8cd243bd-95e6-428a-8394-30b2303d5871"},"vehicle_type_id":"4","last_reported":1692577890,"current_range_meters":21200,"station_id":"ce4bh112rcd13ifvqda0","pricing_plan_id":"free"},{"bike_id":"587a9269-918a-47c7-b134-04e06d40bb15","system_id":"levelo_inurba_marseille","lat":43.301117,"lon":5.398795,"is_reserved":false,"is_disabled":false,"rental_uris":{"android":"levelo://app?vid=587a9269-918a-47c7-b134-04e06d40bb15","ios":"levelo://app?vid=587a9269-918a-47c7-b134-04e06d40bb15"},"vehicle_type_id":"4","last_reported":1692577890,"current_range_meters":30000,"station_id":"ce4bh0h2rcd13ifvqd40","pricing_plan_id":"free"},{"bike_id":"4dfb1725-5d57-42b5-8be4-a7823039a73b","system_id":"levelo_inurba_marseille","lat":43.30117,"lon":5.39863,"is_reserved":false,"is_disabled":false,"rental_uris":{"android":"levelo://app?vid=4dfb1725-5d57-42b5-8be4-a7823039a73b","ios":"levelo://app?vid=4dfb1725-5d57-42b5-8be4-a7823039a73b"},"vehicle_type_id":"4","last_reported":1692577890,"current_range_meters":17200,"station_id":"ce4bh0h2rcd13ifvqd40","pricing_plan_id":"free"},{"bike_id":"596bd0b6-6e48-4071-b22f-05e0a1866f95","system_id":"levelo_inurba_marseille","lat":43.30117,"lon":5.39869,"is_reserved":false,"is_disabled":false,"rental_uris":{"android":"levelo://app?vid=596bd0b6-6e48-4071-b22f-05e0a1866f95","ios":"levelo://app?vid=596bd0b6-6e48-4071-b22f-05e0a1866f95"},"vehicle_type_id":"4","last_reported":1692577890,"current_range_meters":23200,"station_id":"ce4bh0h2rcd13ifvqd40","pricing_plan_id":"free"},{"bike_id":"0ceabe6f-7af8-4d18-b9bc-0d9bb4492fd3","system_id":"levelo_inurba_marseille","lat":43.286591,"lon":5.363346,"is_reserved":false,"is_disabled":false,"rental_uris":{"android":"levelo://app?vid=0ceabe6f-7af8-4d18-b9bc-0d9bb4492fd3","ios":"levelo://app?vid=0ceabe6f-7af8-4d18-b9bc-0d9bb4492fd3"},"vehicle_type_id":"4","last_reported":1692577890,"current_range_meters":0,"station_id":"ce4bhah2rcd13ifvqej0","pricing_plan_id":"free"},{"bike_id":"47de05cd-5fa5-43a6-8e6a-cbe9de5a88ad","system_id":"levelo_inurba_marseille","lat":43.29872,"lon":5.39733,"is_reserved":false,"is_disabled":false,"rental_uris":{"android":"levelo://app?vid=47de05cd-5fa5-43a6-8e6a-cbe9de5a88ad","ios":"levelo://app?vid=47de05cd-5fa5-43a6-8e6a-cbe9de5a88ad"},"vehicle_type_id":"4","last_reported":1692577890,"current_range_meters":0,"station_id":"ce4bh0h2rcd13ifvqd50","pricing_plan_id":"free"},{"bike_id":"c650c6ad-2ae9-4953-969f-b3163f89199f","system_id":"levelo_inurba_marseille","lat":43.298681,"lon":5.397225,"is_reserved":false,"is_disabled":false,"rental_uris":{"android":"levelo://app?vid=c650c6ad-2ae9-4953-969f-b3163f89199f","ios":"levelo://app?vid=c650c6ad-2ae9-4953-969f-b3163f89199f"},"vehicle_type_id":"4","last_reported":1692577890,"current_range_meters":0,"station_id":"ce4bh0h2rcd13ifvqd50","pricing_plan_id":"free"},{"bike_id":"75199276-b705-4ad7-b6a9-49aeaa84628a","system_id":"levelo_inurba_marseille","lat":43.286591,"lon":5.363346,"is_reserved":false,"is_disabled":false,"rental_uris":{"android":"levelo://app?vid=75199276-b705-4ad7-b6a9-49aeaa84628a","ios":"levelo://app?vid=75199276-b705-4ad7-b6a9-49aeaa84628a"},"vehicle_type_id":"4","last_reported":1692577890,"current_range_meters":30800,"station_id":"ce4bhah2rcd13ifvqej0","pricing_plan_id":"free"},{"bike_id":"1e0ed0a8-daad-41a2-ae01-b382503672bc","system_id":"levelo_inurba_marseille","lat":43.295196,"lon":5.39397,"is_reserved":false,"is_disabled":false,"rental_uris":{"android":"levelo://app?vid=1e0ed0a8-daad-41a2-ae01-b382503672bc","ios":"levelo://app?vid=1e0ed0a8-daad-41a2-ae01-b382503672bc"},"vehicle_type_id":"4","last_reported":1692577890,"current_range_meters":28800,"station_id":"ce4bh292rcd13ifvqdf0","pricing_plan_id":"free"},{"bike_id":"8d4a95d3-f608-4f41-aedf-5504a19cbfb6","system_id":"levelo_inurba_marseille","lat":43.295194,"lon":5.39397,"is_reserved":false,"is_disabled":false,"rental_uris":{"android":"levelo://app?vid=8d4a95d3-f608-4f41-aedf-5504a19cbfb6","ios":"levelo://app?vid=8d4a95d3-f608-4f41-aedf-5504a19cbfb6"},"vehicle_type_id":"4","last_reported":1692577890,"current_range_meters":8400,"station_id":"ce4bh292rcd13ifvqdf0","pricing_plan_id":"free"},{"bike_id":"a7bd3cbe-1e56-404a-b4be-73bd3be251de","system_id":"levelo_inurba_marseille","lat":43.302759,"lon":5.400793,"is_reserved":false,"is_disabled":false,"rental_uris":{"android":"levelo://app?vid=a7bd3cbe-1e56-404a-b4be-73bd3be251de","ios":"levelo://app?vid=a7bd3cbe-1e56-404a-b4be-73bd3be251de"},"vehicle_type_id":"4","last_reported":1692577890,"current_range_meters":7200,"station_id":"ce4bgvh2rcd13ifvqcs0","pricing_plan_id":"free"},{"bike_id":"ca7ba66f-1200-4a92-9f03-16f854668aaa","system_id":"levelo_inurba_marseille","lat":43.302759,"lon":5.400793,"is_reserved":false,"is_disabled":false,"rental_uris":{"android":"levelo://app?vid=ca7ba66f-1200-4a92-9f03-16f854668aaa","ios":"levelo://app?vid=ca7ba66f-1200-4a92-9f03-16f854668aaa"},"vehicle_type_id":"4","last_reported":1692577890,"current_range_meters":30000,"station_id":"ce4bgvh2rcd13ifvqcs0","pricing_plan_id":"free"},{"bike_id":"4462f763-0955-4f06-b687-d81eed8a744b","system_id":"levelo_inurba_marseille","lat":43.302759,"lon":5.400793,"is_reserved":false,"is_disabled":false,"rental_uris":{"android":"levelo://app?vid=4462f763-0955-4f06-b687-d81eed8a744b","ios":"levelo://app?vid=4462f763-0955-4f06-b687-d81eed8a744b"},"vehicle_type_id":"4","last_reported":1692577890,"current_range_meters":31200,"station_id":"ce4bgvh2rcd13ifvqcs0","pricing_plan_id":"free"},{"bike_id":"9c955510-951b-424b-9e06-79255dd619d8","system_id":"levelo_inurba_marseille","lat":43.30248,"lon":5.40078,"is_reserved":false,"is_disabled":false,"rental_uris":{"android":"levelo://app?vid=9c955510-951b-424b-9e06-79255dd619d8","ios":"levelo://app?vid=9c955510-951b-424b-9e06-79255dd619d8"},"vehicle_type_id":"4","last_reported":1692577890,"current_range_meters":5200,"station_id":"ce4bgvh2rcd13ifvqcs0","pricing_plan_id":"free"},{"bike_id":"2fb55280-5710-47a9-9131-24d3176fa6b2","system_id":"levelo_inurba_marseille","lat":43.302759,"lon":5.400793,"is_reserved":false,"is_disabled":false,"rental_uris":{"android":"levelo://app?vid=2fb55280-5710-47a9-9131-24d3176fa6b2","ios":"levelo://app?vid=2fb55280-5710-47a9-9131-24d3176fa6b2"},"vehicle_type_id":"4","last_reported":1692577890,"current_range_meters":20400,"station_id":"ce4bgvh2rcd13ifvqcs0","pricing_plan_id":"free"},{"bike_id":"39786470-0d44-49f0-83d1-cb7e8e8bda83","system_id":"levelo_inurba_marseille","lat":43.29015,"lon":5.38654,"is_reserved":false,"is_disabled":false,"rental_uris":{"android":"levelo://app?vid=39786470-0d44-49f0-83d1-cb7e8e8bda83","ios":"levelo://app?vid=39786470-0d44-49f0-83d1-cb7e8e8bda83"},"vehicle_type_id":"4","last_reported":1692577890,"current_range_meters":20400,"station_id":"ce4bh4p2rcd13ifvqe0g","pricing_plan_id":"free"},{"bike_id":"9bafb55f-58a3-444b-bfc5-b5a6ecb68f42","system_id":"levelo_inurba_marseille","lat":43.30249,"lon":5.40084,"is_reserved":false,"is_disabled":false,"rental_uris":{"android":"levelo://app?vid=9bafb55f-58a3-444b-bfc5-b5a6ecb68f42","ios":"levelo://app?vid=9bafb55f-58a3-444b-bfc5-b5a6ecb68f42"},"vehicle_type_id":"4","last_reported":1692577890,"current_range_meters":12000,"station_id":"ce4bgvh2rcd13ifvqcs0","pricing_plan_id":"free"},{"bike_id":"8f1ed0a6-01aa-4a87-a819-76ea66250633","system_id":"levelo_inurba_marseille","lat":43.30247,"lon":5.40084,"is_reserved":false,"is_disabled":false,"rental_uris":{"android":"levelo://app?vid=8f1ed0a6-01aa-4a87-a819-76ea66250633","ios":"levelo://app?vid=8f1ed0a6-01aa-4a87-a819-76ea66250633"},"vehicle_type_id":"4","last_reported":1692577890,"current_range_meters":0,"station_id":"ce4bgvh2rcd13ifvqcs0","pricing_plan_id":"free"},{"bike_id":"a82828d8-9b38-4654-8626-102f45f4df92","system_id":"levelo_inurba_marseille","lat":43.302759,"lon":5.400793,"is_reserved":false,"is_disabled":false,"rental_uris":{"android":"levelo://app?vid=a82828d8-9b38-4654-8626-102f45f4df92","ios":"levelo://app?vid=a82828d8-9b38-4654-8626-102f45f4df92"},"vehicle_type_id":"4","last_reported":1692577890,"current_range_meters":30800,"station_id":"ce4bgvh2rcd13ifvqcs0","pricing_plan_id":"free"},{"bike_id":"11d9307b-6b00-46f1-a235-37dd238df970","system_id":"levelo_inurba_marseille","lat":43.2861,"lon":5.37068,"is_reserved":false,"is_disabled":false,"rental_uris":{"android":"levelo://app?vid=11d9307b-6b00-46f1-a235-37dd238df970","ios":"levelo://app?vid=11d9307b-6b00-46f1-a235-37dd238df970"},"vehicle_type_id":"4","last_reported":1692577890,"current_range_meters":15200,"station_id":"ce4bht12rcd13ifvqi60","pricing_plan_id":"free"},{"bike_id":"87966a9f-e955-4b65-b515-7c6a3c4f0d11","system_id":"levelo_inurba_marseille","lat":43.302759,"lon":5.400793,"is_reserved":false,"is_disabled":false,"rental_uris":{"android":"levelo://app?vid=87966a9f-e955-4b65-b515-7c6a3c4f0d11","ios":"levelo://app?vid=87966a9f-e955-4b65-b515-7c6a3c4f0d11"},"vehicle_type_id":"4","last_reported":1692577890,"current_range_meters":31200,"station_id":"ce4bgvh2rcd13ifvqcs0","pricing_plan_id":"free"},{"bike_id":"ec6d1909-eeec-4cf0-a44b-033d68343f63","system_id":"levelo_inurba_marseille","lat":43.28605,"lon":5.37064,"is_reserved":false,"is_disabled":false,"rental_uris":{"android":"levelo://app?vid=ec6d1909-eeec-4cf0-a44b-033d68343f63","ios":"levelo://app?vid=ec6d1909-eeec-4cf0-a44b-033d68343f63"},"vehicle_type_id":"4","last_reported":1692577890,"current_range_meters":15200,"station_id":"ce4bht12rcd13ifvqi60","pricing_plan_id":"free"},{"bike_id":"5219f043-9289-42d9-8317-37aeeb0a2f11","system_id":"levelo_inurba_marseille","lat":43.28603,"lon":5.3707,"is_reserved":false,"is_disabled":false,"rental_uris":{"android":"levelo://app?vid=5219f043-9289-42d9-8317-37aeeb0a2f11","ios":"levelo://app?vid=5219f043-9289-42d9-8317-37aeeb0a2f11"},"vehicle_type_id":"4","last_reported":1692577890,"current_range_meters":5200,"station_id":"ce4bht12rcd13ifvqi60","pricing_plan_id":"free"},{"bike_id":"cd12af34-545e-4336-9199-d60028070528","system_id":"levelo_inurba_marseille","lat":43.31645,"lon":5.404305,"is_reserved":false,"is_disabled":false,"rental_uris":{"android":"levelo://app?vid=cd12af34-545e-4336-9199-d60028070528","ios":"levelo://app?vid=cd12af34-545e-4336-9199-d60028070528"},"vehicle_type_id":"4","last_reported":1692577890,"current_range_meters":20000,"station_id":"ce4bh012rcd13ifvqd00","pricing_plan_id":"free"},{"bike_id":"baa476d6-7089-4cbb-a000-c513ae936a5c","system_id":"levelo_inurba_marseille","lat":43.31645,"lon":5.40431,"is_reserved":false,"is_disabled":false,"rental_uris":{"android":"levelo://app?vid=baa476d6-7089-4cbb-a000-c513ae936a5c","ios":"levelo://app?vid=baa476d6-7089-4cbb-a000-c513ae936a5c"},"vehicle_type_id":"4","last_reported":1692577890,"current_range_meters":31200,"station_id":"ce4bh012rcd13ifvqd00","pricing_plan_id":"free"},{"bike_id":"23a231cb-7413-4292-abd1-305ea6c8fb20","system_id":"levelo_inurba_marseille","lat":43.31643,"lon":5.40437,"is_reserved":false,"is_disabled":false,"rental_uris":{"android":"levelo://app?vid=23a231cb-7413-4292-abd1-305ea6c8fb20","ios":"levelo://app?vid=23a231cb-7413-4292-abd1-305ea6c8fb20"},"vehicle_type_id":"4","last_reported":1692577890,"current_range_meters":17600,"station_id":"ce4bh012rcd13ifvqd00","pricing_plan_id":"free"},{"bike_id":"b3ea07d1-3303-43ef-8075-98059fcaa4ea","system_id":"levelo_inurba_marseille","lat":43.31641,"lon":5.4044,"is_reserved":false,"is_disabled":false,"rental_uris":{"android":"levelo://app?vid=b3ea07d1-3303-43ef-8075-98059fcaa4ea","ios":"levelo://app?vid=b3ea07d1-3303-43ef-8075-98059fcaa4ea"},"vehicle_type_id":"4","last_reported":1692577890,"current_range_meters":31200,"station_id":"ce4bh012rcd13ifvqd00","pricing_plan_id":"free"},{"bike_id":"7da9e437-1e79-4b5f-9ab0-65254ac17dd7","system_id":"levelo_inurba_marseille","lat":43.31649,"lon":5.40441,"is_reserved":false,"is_disabled":false,"rental_uris":{"android":"levelo://app?vid=7da9e437-1e79-4b5f-9ab0-65254ac17dd7","ios":"levelo://app?vid=7da9e437-1e79-4b5f-9ab0-65254ac17dd7"},"vehicle_type_id":"4","last_reported":1692577890,"current_range_meters":19600,"station_id":"ce4bh012rcd13ifvqd00","pricing_plan_id":"free"},{"bike_id":"a7ea2cc5-016c-4c75-b37b-d6c4792fb8f6","system_id":"levelo_inurba_marseille","lat":43.31646,"lon":5.40443,"is_reserved":false,"is_disabled":false,"rental_uris":{"android":"levelo://app?vid=a7ea2cc5-016c-4c75-b37b-d6c4792fb8f6","ios":"levelo://app?vid=a7ea2cc5-016c-4c75-b37b-d6c4792fb8f6"},"vehicle_type_id":"4","last_reported":1692577890,"current_range_meters":2400,"station_id":"ce4bh012rcd13ifvqd00","pricing_plan_id":"free"},{"bike_id":"8079c9f4-61b0-48a7-bfae-fbf36abe289a","system_id":"levelo_inurba_marseille","lat":43.291994,"lon":5.392907,"is_reserved":false,"is_disabled":false,"rental_uris":{"android":"levelo://app?vid=8079c9f4-61b0-48a7-bfae-fbf36abe289a","ios":"levelo://app?vid=8079c9f4-61b0-48a7-bfae-fbf36abe289a"},"vehicle_type_id":"4","last_reported":1692577890,"current_range_meters":31600,"station_id":"ce4bh192rcd13ifvqdd0","pricing_plan_id":"free"},{"bike_id":"c5aad747-05f8-4f5a-a2cd-7bba7ceb7b06","system_id":"levelo_inurba_marseille","lat":43.291994,"lon":5.392907,"is_reserved":false,"is_disabled":false,"rental_uris":{"android":"levelo://app?vid=c5aad747-05f8-4f5a-a2cd-7bba7ceb7b06","ios":"levelo://app?vid=c5aad747-05f8-4f5a-a2cd-7bba7ceb7b06"},"vehicle_type_id":"4","last_reported":1692577890,"current_range_meters":26400,"station_id":"ce4bh192rcd13ifvqdd0","pricing_plan_id":"free"},{"bike_id":"b0edcc80-df2d-4056-a9df-f6d15fb2f79d","system_id":"levelo_inurba_marseille","lat":43.284538,"lon":5.358657,"is_reserved":false,"is_disabled":false,"rental_uris":{"android":"levelo://app?vid=b0edcc80-df2d-4056-a9df-f6d15fb2f79d","ios":"levelo://app?vid=b0edcc80-df2d-4056-a9df-f6d15fb2f79d"},"vehicle_type_id":"4","last_reported":1692577890,"current_range_meters":12400,"station_id":"ce4bhah2rcd13ifvqei0","pricing_plan_id":"free"},{"bike_id":"16739fe0-b133-4b65-a7a1-b69521c121ff","system_id":"levelo_inurba_marseille","lat":43.284538,"lon":5.358657,"is_reserved":false,"is_disabled":false,"rental_uris":{"android":"levelo://app?vid=16739fe0-b133-4b65-a7a1-b69521c121ff","ios":"levelo://app?vid=16739fe0-b133-4b65-a7a1-b69521c121ff"},"vehicle_type_id":"4","last_reported":1692577890,"current_range_meters":9200,"station_id":"ce4bhah2rcd13ifvqei0","pricing_plan_id":"free"},{"bike_id":"4dbf0e68-b3e3-459b-ab22-3c160608ea64","system_id":"levelo_inurba_marseille","lat":43.294314,"lon":5.397498,"is_reserved":false,"is_disabled":false,"rental_uris":{"android":"levelo://app?vid=4dbf0e68-b3e3-459b-ab22-3c160608ea64","ios":"levelo://app?vid=4dbf0e68-b3e3-459b-ab22-3c160608ea64"},"vehicle_type_id":"4","last_reported":1692577890,"current_range_meters":0,"station_id":"ce4bh3h2rcd13ifvqdo0","pricing_plan_id":"free"},{"bike_id":"d90cef20-fc2f-4399-99f7-380e23500f9c","system_id":"levelo_inurba_marseille","lat":43.29435,"lon":5.39756,"is_reserved":false,"is_disabled":false,"rental_uris":{"android":"levelo://app?vid=d90cef20-fc2f-4399-99f7-380e23500f9c","ios":"levelo://app?vid=d90cef20-fc2f-4399-99f7-380e23500f9c"},"vehicle_type_id":"4","last_reported":1692577890,"current_range_meters":17600,"station_id":"ce4bh3h2rcd13ifvqdo0","pricing_plan_id":"free"},{"bike_id":"9ec31f2e-f3d5-4672-86ef-eea700eb490d","system_id":"levelo_inurba_marseille","lat":43.28618,"lon":5.351,"is_reserved":false,"is_disabled":false,"rental_uris":{"android":"levelo://app?vid=9ec31f2e-f3d5-4672-86ef-eea700eb490d","ios":"levelo://app?vid=9ec31f2e-f3d5-4672-86ef-eea700eb490d"},"vehicle_type_id":"4","last_reported":1692577890,"current_range_meters":31200,"station_id":"ce4bhch2rcd13ifvqeug","pricing_plan_id":"free"},{"bike_id":"35eec3a1-aa54-4990-8eb4-78e6c0dd24d0","system_id":"levelo_inurba_marseille","lat":43.285856,"lon":5.350771,"is_reserved":false,"is_disabled":false,"rental_uris":{"android":"levelo://app?vid=35eec3a1-aa54-4990-8eb4-78e6c0dd24d0","ios":"levelo://app?vid=35eec3a1-aa54-4990-8eb4-78e6c0dd24d0"},"vehicle_type_id":"4","last_reported":1692577890,"current_range_meters":26800,"station_id":"ce4bhch2rcd13ifvqeug","pricing_plan_id":"free"},{"bike_id":"5fdede8c-93b7-4cc9-8ce6-c0921960be1e","system_id":"levelo_inurba_marseille","lat":43.28613,"lon":5.35108,"is_reserved":false,"is_disabled":false,"rental_uris":{"android":"levelo://app?vid=5fdede8c-93b7-4cc9-8ce6-c0921960be1e","ios":"levelo://app?vid=5fdede8c-93b7-4cc9-8ce6-c0921960be1e"},"vehicle_type_id":"4","last_reported":1692577890,"current_range_meters":21600,"station_id":"ce4bhch2rcd13ifvqeug","pricing_plan_id":"free"},{"bike_id":"a2c32cf1-b704-441b-8d27-e5eddf289748","system_id":"levelo_inurba_marseille","lat":43.28614,"lon":5.35101,"is_reserved":false,"is_disabled":false,"rental_uris":{"android":"levelo://app?vid=a2c32cf1-b704-441b-8d27-e5eddf289748","ios":"levelo://app?vid=a2c32cf1-b704-441b-8d27-e5eddf289748"},"vehicle_type_id":"4","last_reported":1692577890,"current_range_meters":31200,"station_id":"ce4bhch2rcd13ifvqeug","pricing_plan_id":"free"},{"bike_id":"2776bef4-1bee-488c-863d-9251e2927d06","system_id":"levelo_inurba_marseille","lat":43.28611,"lon":5.3511,"is_reserved":false,"is_disabled":false,"rental_uris":{"android":"levelo://app?vid=2776bef4-1bee-488c-863d-9251e2927d06","ios":"levelo://app?vid=2776bef4-1bee-488c-863d-9251e2927d06"},"vehicle_type_id":"4","last_reported":1692577890,"current_range_meters":24000,"station_id":"ce4bhch2rcd13ifvqeug","pricing_plan_id":"free"},{"bike_id":"30e4980c-f729-43a7-b8e4-96dad2889bdc","system_id":"levelo_inurba_marseille","lat":43.28612,"lon":5.35105,"is_reserved":false,"is_disabled":false,"rental_uris":{"android":"levelo://app?vid=30e4980c-f729-43a7-b8e4-96dad2889bdc","ios":"levelo://app?vid=30e4980c-f729-43a7-b8e4-96dad2889bdc"},"vehicle_type_id":"4","last_reported":1692577890,"current_range_meters":28000,"station_id":"ce4bhch2rcd13ifvqeug","pricing_plan_id":"free"},{"bike_id":"cb9cefe3-93d3-471a-8c55-e8a1e9e2f2bd","system_id":"levelo_inurba_marseille","lat":43.285856,"lon":5.350771,"is_reserved":false,"is_disabled":false,"rental_uris":{"android":"levelo://app?vid=cb9cefe3-93d3-471a-8c55-e8a1e9e2f2bd","ios":"levelo://app?vid=cb9cefe3-93d3-471a-8c55-e8a1e9e2f2bd"},"vehicle_type_id":"4","last_reported":1692577890,"current_range_meters":31200,"station_id":"ce4bhch2rcd13ifvqeug","pricing_plan_id":"free"},{"bike_id":"cc361827-92bc-4d4a-a95a-980aaef04c15","system_id":"levelo_inurba_marseille","lat":43.285848,"lon":5.350787,"is_reserved":false,"is_disabled":false,"rental_uris":{"android":"levelo://app?vid=cc361827-92bc-4d4a-a95a-980aaef04c15","ios":"levelo://app?vid=cc361827-92bc-4d4a-a95a-980aaef04c15"},"vehicle_type_id":"4","last_reported":1692577890,"current_range_meters":31200,"station_id":"ce4bhch2rcd13ifvqeug","pricing_plan_id":"free"},{"bike_id":"2363d3b5-6c15-401a-a59c-ee80bd4af927","system_id":"levelo_inurba_marseille","lat":43.28415,"lon":5.37522,"is_reserved":false,"is_disabled":false,"rental_uris":{"android":"levelo://app?vid=2363d3b5-6c15-401a-a59c-ee80bd4af927","ios":"levelo://app?vid=2363d3b5-6c15-401a-a59c-ee80bd4af927"},"vehicle_type_id":"4","last_reported":1692577890,"current_range_meters":15200,"station_id":"ce4bh412rcd13ifvqds0","pricing_plan_id":"free"},{"bike_id":"6950f0e4-1daa-497a-9637-b81ddfb5766e","system_id":"levelo_inurba_marseille","lat":43.29562,"lon":5.39962,"is_reserved":false,"is_disabled":false,"rental_uris":{"android":"levelo://app?vid=6950f0e4-1daa-497a-9637-b81ddfb5766e","ios":"levelo://app?vid=6950f0e4-1daa-497a-9637-b81ddfb5766e"},"vehicle_type_id":"4","last_reported":1692577890,"current_range_meters":10000,"station_id":"ce4bh312rcd13ifvqdj0","pricing_plan_id":"free"},{"bike_id":"75d8b6fb-1f4f-4dbb-a121-18552da971ac","system_id":"levelo_inurba_marseille","lat":43.284028,"lon":5.375108,"is_reserved":false,"is_disabled":false,"rental_uris":{"android":"levelo://app?vid=75d8b6fb-1f4f-4dbb-a121-18552da971ac","ios":"levelo://app?vid=75d8b6fb-1f4f-4dbb-a121-18552da971ac"},"vehicle_type_id":"4","last_reported":1692577890,"current_range_meters":3200,"station_id":"ce4bh412rcd13ifvqds0","pricing_plan_id":"free"},{"bike_id":"01187f36-c4c5-467a-94e3-c31e8fc83c14","system_id":"levelo_inurba_marseille","lat":43.283975,"lon":5.375105,"is_reserved":false,"is_disabled":false,"rental_uris":{"android":"levelo://app?vid=01187f36-c4c5-467a-94e3-c31e8fc83c14","ios":"levelo://app?vid=01187f36-c4c5-467a-94e3-c31e8fc83c14"},"vehicle_type_id":"4","last_reported":1692577890,"current_range_meters":11200,"station_id":"","pricing_plan_id":"free"},{"bike_id":"79ae07f7-3d9b-456b-927e-8e880eafedba","system_id":"levelo_inurba_marseille","lat":43.32551,"lon":5.40419,"is_reserved":false,"is_disabled":false,"rental_uris":{"android":"levelo://app?vid=79ae07f7-3d9b-456b-927e-8e880eafedba","ios":"levelo://app?vid=79ae07f7-3d9b-456b-927e-8e880eafedba"},"vehicle_type_id":"4","last_reported":1692577890,"current_range_meters":1600,"station_id":"","pricing_plan_id":"free"},{"bike_id":"340f6909-f2c6-4d5e-b430-714bfe4886d2","system_id":"levelo_inurba_marseille","lat":43.33713,"lon":5.39179,"is_reserved":false,"is_disabled":false,"rental_uris":{"android":"levelo://app?vid=340f6909-f2c6-4d5e-b430-714bfe4886d2","ios":"levelo://app?vid=340f6909-f2c6-4d5e-b430-714bfe4886d2"},"vehicle_type_id":"4","last_reported":1692577890,"current_range_meters":31200,"station_id":"ce4bhr92rcd13ifvqhsg","pricing_plan_id":"free"},{"bike_id":"2b3f06e0-8f2d-4133-9563-f19f57fe46e5","system_id":"levelo_inurba_marseille","lat":43.33716,"lon":5.39183,"is_reserved":false,"is_disabled":false,"rental_uris":{"android":"levelo://app?vid=2b3f06e0-8f2d-4133-9563-f19f57fe46e5","ios":"levelo://app?vid=2b3f06e0-8f2d-4133-9563-f19f57fe46e5"},"vehicle_type_id":"4","last_reported":1692577890,"current_range_meters":27200,"station_id":"ce4bhr92rcd13ifvqhsg","pricing_plan_id":"free"},{"bike_id":"17105054-6fd8-493b-b0be-1ed88688055c","system_id":"levelo_inurba_marseille","lat":43.337168,"lon":5.391825,"is_reserved":false,"is_disabled":false,"rental_uris":{"android":"levelo://app?vid=17105054-6fd8-493b-b0be-1ed88688055c","ios":"levelo://app?vid=17105054-6fd8-493b-b0be-1ed88688055c"},"vehicle_type_id":"4","last_reported":1692577890,"current_range_meters":24000,"station_id":"ce4bhr92rcd13ifvqhsg","pricing_plan_id":"free"},{"bike_id":"5b1fb66f-b33e-4a00-8edf-9261c9b5976c","system_id":"levelo_inurba_marseille","lat":43.33719,"lon":5.39187,"is_reserved":false,"is_disabled":false,"rental_uris":{"android":"levelo://app?vid=5b1fb66f-b33e-4a00-8edf-9261c9b5976c","ios":"levelo://app?vid=5b1fb66f-b33e-4a00-8edf-9261c9b5976c"},"vehicle_type_id":"4","last_reported":1692577890,"current_range_meters":31200,"station_id":"ce4bhr92rcd13ifvqhsg","pricing_plan_id":"free"},{"bike_id":"57ce3eb8-ba2b-4d74-a22f-ba5a662e4d0b","system_id":"levelo_inurba_marseille","lat":43.33723,"lon":5.39181,"is_reserved":false,"is_disabled":false,"rental_uris":{"android":"levelo://app?vid=57ce3eb8-ba2b-4d74-a22f-ba5a662e4d0b","ios":"levelo://app?vid=57ce3eb8-ba2b-4d74-a22f-ba5a662e4d0b"},"vehicle_type_id":"4","last_reported":1692577890,"current_range_meters":31200,"station_id":"ce4bhr92rcd13ifvqhsg","pricing_plan_id":"free"},{"bike_id":"e45012d8-673a-4bd6-93d3-a427f767a00d","system_id":"levelo_inurba_marseille","lat":43.33722,"lon":5.39186,"is_reserved":false,"is_disabled":false,"rental_uris":{"android":"levelo://app?vid=e45012d8-673a-4bd6-93d3-a427f767a00d","ios":"levelo://app?vid=e45012d8-673a-4bd6-93d3-a427f767a00d"},"vehicle_type_id":"4","last_reported":1692577890,"current_range_meters":21600,"station_id":"ce4bhr92rcd13ifvqhsg","pricing_plan_id":"free"},{"bike_id":"12c0f407-4ac2-49d3-b1e8-783bd26a8644","system_id":"levelo_inurba_marseille","lat":43.33725,"lon":5.39185,"is_reserved":false,"is_disabled":false,"rental_uris":{"android":"levelo://app?vid=12c0f407-4ac2-49d3-b1e8-783bd26a8644","ios":"levelo://app?vid=12c0f407-4ac2-49d3-b1e8-783bd26a8644"},"vehicle_type_id":"4","last_reported":1692577890,"current_range_meters":23200,"station_id":"ce4bhr92rcd13ifvqhsg","pricing_plan_id":"free"},{"bike_id":"72fc020d-a1d4-460a-a3d1-6187a1ea65d2","system_id":"levelo_inurba_marseille","lat":43.33725,"lon":5.39186,"is_reserved":false,"is_disabled":false,"rental_uris":{"android":"levelo://app?vid=72fc020d-a1d4-460a-a3d1-6187a1ea65d2","ios":"levelo://app?vid=72fc020d-a1d4-460a-a3d1-6187a1ea65d2"},"vehicle_type_id":"4","last_reported":1692577890,"current_range_meters":20800,"station_id":"ce4bhr92rcd13ifvqhsg","pricing_plan_id":"free"},{"bike_id":"7d2969ab-a065-4a23-b19e-667095d799c9","system_id":"levelo_inurba_marseille","lat":43.33724,"lon":5.39188,"is_reserved":false,"is_disabled":false,"rental_uris":{"android":"levelo://app?vid=7d2969ab-a065-4a23-b19e-667095d799c9","ios":"levelo://app?vid=7d2969ab-a065-4a23-b19e-667095d799c9"},"vehicle_type_id":"4","last_reported":1692577890,"current_range_meters":30400,"station_id":"ce4bhr92rcd13ifvqhsg","pricing_plan_id":"free"},{"bike_id":"cb97d7f6-ab64-4d52-b2f3-b33486c80b80","system_id":"levelo_inurba_marseille","lat":43.337168,"lon":5.391825,"is_reserved":false,"is_disabled":false,"rental_uris":{"android":"levelo://app?vid=cb97d7f6-ab64-4d52-b2f3-b33486c80b80","ios":"levelo://app?vid=cb97d7f6-ab64-4d52-b2f3-b33486c80b80"},"vehicle_type_id":"4","last_reported":1692577890,"current_range_meters":12000,"station_id":"ce4bhr92rcd13ifvqhsg","pricing_plan_id":"free"},{"bike_id":"8bd09c71-02ae-4371-8b55-ce1e7e2bf2df","system_id":"levelo_inurba_marseille","lat":43.33722,"lon":5.39192,"is_reserved":false,"is_disabled":false,"rental_uris":{"android":"levelo://app?vid=8bd09c71-02ae-4371-8b55-ce1e7e2bf2df","ios":"levelo://app?vid=8bd09c71-02ae-4371-8b55-ce1e7e2bf2df"},"vehicle_type_id":"4","last_reported":1692577890,"current_range_meters":23600,"station_id":"ce4bhr92rcd13ifvqhsg","pricing_plan_id":"free"},{"bike_id":"02f29c2d-847e-4148-9200-bdb4c19acc46","system_id":"levelo_inurba_marseille","lat":43.33727,"lon":5.39184,"is_reserved":false,"is_disabled":false,"rental_uris":{"android":"levelo://app?vid=02f29c2d-847e-4148-9200-bdb4c19acc46","ios":"levelo://app?vid=02f29c2d-847e-4148-9200-bdb4c19acc46"},"vehicle_type_id":"4","last_reported":1692577890,"current_range_meters":23600,"station_id":"ce4bhr92rcd13ifvqhsg","pricing_plan_id":"free"},{"bike_id":"0dda2562-498f-4f90-abfb-f3c666db2d2e","system_id":"levelo_inurba_marseille","lat":43.33725,"lon":5.39188,"is_reserved":false,"is_disabled":false,"rental_uris":{"android":"levelo://app?vid=0dda2562-498f-4f90-abfb-f3c666db2d2e","ios":"levelo://app?vid=0dda2562-498f-4f90-abfb-f3c666db2d2e"},"vehicle_type_id":"4","last_reported":1692577890,"current_range_meters":17600,"station_id":"ce4bhr92rcd13ifvqhsg","pricing_plan_id":"free"},{"bike_id":"c24cecf2-0503-470c-b3d3-fc37f377f710","system_id":"levelo_inurba_marseille","lat":43.33722,"lon":5.39194,"is_reserved":false,"is_disabled":false,"rental_uris":{"android":"levelo://app?vid=c24cecf2-0503-470c-b3d3-fc37f377f710","ios":"levelo://app?vid=c24cecf2-0503-470c-b3d3-fc37f377f710"},"vehicle_type_id":"4","last_reported":1692577890,"current_range_meters":23200,"station_id":"ce4bhr92rcd13ifvqhsg","pricing_plan_id":"free"},{"bike_id":"01f563c5-7ac0-4d44-b1b3-0549f3b949f3","system_id":"levelo_inurba_marseille","lat":43.3373,"lon":5.39187,"is_reserved":false,"is_disabled":false,"rental_uris":{"android":"levelo://app?vid=01f563c5-7ac0-4d44-b1b3-0549f3b949f3","ios":"levelo://app?vid=01f563c5-7ac0-4d44-b1b3-0549f3b949f3"},"vehicle_type_id":"4","last_reported":1692577890,"current_range_meters":24000,"station_id":"ce4bhr92rcd13ifvqhsg","pricing_plan_id":"free"},{"bike_id":"ebe8b2a4-a0a6-4658-92c7-1d289d393571","system_id":"levelo_inurba_marseille","lat":43.33742,"lon":5.39189,"is_reserved":false,"is_disabled":false,"rental_uris":{"android":"levelo://app?vid=ebe8b2a4-a0a6-4658-92c7-1d289d393571","ios":"levelo://app?vid=ebe8b2a4-a0a6-4658-92c7-1d289d393571"},"vehicle_type_id":"4","last_reported":1692577890,"current_range_meters":31200,"station_id":"ce4bhr92rcd13ifvqhsg","pricing_plan_id":"free"},{"bike_id":"9faa76d7-4648-487b-8d12-1463748fb985","system_id":"levelo_inurba_marseille","lat":43.283498,"lon":5.380948,"is_reserved":false,"is_disabled":false,"rental_uris":{"android":"levelo://app?vid=9faa76d7-4648-487b-8d12-1463748fb985","ios":"levelo://app?vid=9faa76d7-4648-487b-8d12-1463748fb985"},"vehicle_type_id":"4","last_reported":1692577890,"current_range_meters":0,"station_id":"ce4bh412rcd13ifvqdr0","pricing_plan_id":"free"},{"bike_id":"5148f752-41ce-47af-9cf0-c7d7813fcef0","system_id":"levelo_inurba_marseille","lat":43.29783,"lon":5.40416,"is_reserved":false,"is_disabled":false,"rental_uris":{"android":"levelo://app?vid=5148f752-41ce-47af-9cf0-c7d7813fcef0","ios":"levelo://app?vid=5148f752-41ce-47af-9cf0-c7d7813fcef0"},"vehicle_type_id":"4","last_reported":1692577890,"current_range_meters":28000,"station_id":"ce4bh112rcd13ifvqd90","pricing_plan_id":"free"},{"bike_id":"f50aca5f-cf5b-4020-925f-826a2e34874f","system_id":"levelo_inurba_marseille","lat":43.289363,"lon":5.396322,"is_reserved":false,"is_disabled":false,"rental_uris":{"android":"levelo://app?vid=f50aca5f-cf5b-4020-925f-826a2e34874f","ios":"levelo://app?vid=f50aca5f-cf5b-4020-925f-826a2e34874f"},"vehicle_type_id":"4","last_reported":1692577890,"current_range_meters":31200,"station_id":"ce4bh3h2rcd13ifvqdn0","pricing_plan_id":"free"},{"bike_id":"5cec26ac-344f-432b-af34-450b75305b9b","system_id":"levelo_inurba_marseille","lat":43.29274,"lon":5.4012,"is_reserved":false,"is_disabled":false,"rental_uris":{"android":"levelo://app?vid=5cec26ac-344f-432b-af34-450b75305b9b","ios":"levelo://app?vid=5cec26ac-344f-432b-af34-450b75305b9b"},"vehicle_type_id":"4","last_reported":1692577890,"current_range_meters":30800,"station_id":"ce4bh312rcd13ifvqdk0","pricing_plan_id":"free"},{"bike_id":"892b356f-fe0e-4e77-a020-588b9d0c513b","system_id":"levelo_inurba_marseille","lat":43.282754,"lon":5.350519,"is_reserved":false,"is_disabled":false,"rental_uris":{"android":"levelo://app?vid=892b356f-fe0e-4e77-a020-588b9d0c513b","ios":"levelo://app?vid=892b356f-fe0e-4e77-a020-588b9d0c513b"},"vehicle_type_id":"4","last_reported":1692577890,"current_range_meters":27600,"station_id":"ce4bhbp2rcd13ifvqerg","pricing_plan_id":"free"},{"bike_id":"88940920-727e-47f8-bee6-24feedff1167","system_id":"levelo_inurba_marseille","lat":43.282744,"lon":5.350533,"is_reserved":false,"is_disabled":false,"rental_uris":{"android":"levelo://app?vid=88940920-727e-47f8-bee6-24feedff1167","ios":"levelo://app?vid=88940920-727e-47f8-bee6-24feedff1167"},"vehicle_type_id":"4","last_reported":1692577890,"current_range_meters":29600,"station_id":"ce4bhbp2rcd13ifvqerg","pricing_plan_id":"free"},{"bike_id":"9f46cfde-4f76-4076-bade-5765c2d3d473","system_id":"levelo_inurba_marseille","lat":43.28039,"lon":5.369297,"is_reserved":false,"is_disabled":false,"rental_uris":{"android":"levelo://app?vid=9f46cfde-4f76-4076-bade-5765c2d3d473","ios":"levelo://app?vid=9f46cfde-4f76-4076-bade-5765c2d3d473"},