{"last_updated":1746803432,"ttl":60,"version":"2.2","data":{"bikes":[{"bike_id":"3d6003a8-f31b-47b7-afc3-f38923d65f9c","system_id":"levelo_inurba_marseille","lat":43.27169,"lon":5.40991,"is_reserved":false,"is_disabled":false,"rental_uris":{"android":"levelo://app?vid=3d6003a8-f31b-47b7-afc3-f38923d65f9c","ios":"levelo://app?vid=3d6003a8-f31b-47b7-afc3-f38923d65f9c"},"vehicle_type_id":"4","last_reported":1746803433,"current_range_meters":2800,"station_id":"ce4bhl12rcd13ifvqgf0","pricing_plan_id":"cebpf4jnsgd1na2vs0mg"},{"bike_id":"1ab37792-eeb3-4ae8-8658-886ab18a95a0","system_id":"levelo_inurba_marseille","lat":43.29041,"lon":5.37571,"is_reserved":false,"is_disabled":false,"rental_uris":{"android":"levelo://app?vid=1ab37792-eeb3-4ae8-8658-886ab18a95a0","ios":"levelo://app?vid=1ab37792-eeb3-4ae8-8658-886ab18a95a0"},"vehicle_type_id":"4","last_reported":1746803433,"current_range_meters":3200,"station_id":"ce4bh692rcd13ifvqe90","pricing_plan_id":"cebpf4jnsgd1na2vs0mg"},{"bike_id":"e70a6cc7-17eb-4c4e-8e7c-f66b5cfc0fab","system_id":"levelo_inurba_marseille","lat":43.211914,"lon":5.350791,"is_reserved":false,"is_disabled":false,"rental_uris":{"android":"levelo://app?vid=e70a6cc7-17eb-4c4e-8e7c-f66b5cfc0fab","ios":"levelo://app?vid=e70a6cc7-17eb-4c4e-8e7c-f66b5cfc0fab"},"vehicle_type_id":"4","last_reported":1746803433,"current_range_meters":3600,"station_id":"st_cvj6sg6p6f1abm77japg","pricing_plan_id":"cebpf4jnsgd1na2vs0mg"},{"bike_id":"4ff99ac0-be95-4246-9988-60a7e5e62177","system_id":"levelo_inurba_marseille","lat":43.23157,"lon":5.437,"is_reserved":false,"is_disabled":false,"rental_uris":{"android":"levelo://app?vid=4ff99ac0-be95-4246-9988-60a7e5e62177","ios":"levelo://app?vid=4ff99ac0-be95-4246-9988-60a7e5e62177"},"vehicle_type_id":"4","last_reported":1746803433,"current_range_meters":4000,"station_id":"ce4bhmp2rcd13ifvqgog","pricing_plan_id":"cebpf4jnsgd1na2vs0mg"},{"bike_id":"9b6bdfac-846f-4561-97e2-04a2625fd90c","system_id":"levelo_inurba_marseille","lat":43.29029,"lon":5.39988,"is_reserved":false,"is_disabled":false,"rental_uris":{"android":"levelo://app?vid=9b6bdfac-846f-4561-97e2-04a2625fd90c","ios":"levelo://app?vid=9b6bdfac-846f-4561-97e2-04a2625fd90c"},"vehicle_type_id":"4","last_reported":1746803433,"current_range_meters":4400,"station_id":"ce4bh392rcd13ifvqdm0","pricing_plan_id":"cebpf4jnsgd1na2vs0mg"},{"bike_id":"62569796-622d-40e5-90ee-27643c6094c7","system_id":"levelo_inurba_marseille","lat":43.27051,"lon":5.4027,"is_reserved":false,"is_disabled":false,"rental_uris":{"android":"levelo://app?vid=62569796-622d-40e5-90ee-27643c6094c7","ios":"levelo://app?vid=62569796-622d-40e5-90ee-27643c6094c7"},"vehicle_type_id":"4","last_reported":1746803433,"current_range_meters":4400,"station_id":"ce4bhk92rcd13ifvqgc0","pricing_plan_id":"cebpf4jnsgd1na2vs0mg"},{"bike_id":"f422e94b-fde0-4ff4-87f6-c497bb51c460","system_id":"levelo_inurba_marseille","lat":43.271283,"lon":5.392487,"is_reserved":false,"is_disabled":false,"rental_uris":{"android":"levelo://app?vid=f422e94b-fde0-4ff4-87f6-c497bb51c460","ios":"levelo://app?vid=f422e94b-fde0-4ff4-87f6-c497bb51c460"},"vehicle_type_id":"4","last_reported":1746803433,"current_range_meters":4400,"station_id":"","pricing_plan_id":"cebpf4jnsgd1na2vs0mg"},{"bike_id":"bca1b0aa-9d23-4e65-8a1a-70887fd20e5f","system_id":"levelo_inurba_marseille","lat":43.23056,"lon":5.3549,"is_reserved":false,"is_disabled":false,"rental_uris":{"android":"levelo://app?vid=bca1b0aa-9d23-4e65-8a1a-70887fd20e5f","ios":"levelo://app?vid=bca1b0aa-9d23-4e65-8a1a-70887fd20e5f"},"vehicle_type_id":"4","last_reported":1746803433,"current_range_meters":4800,"station_id":"cpo3342slgdg3j2ifvpg","pricing_plan_id":"cebpf4jnsgd1na2vs0mg"},{"bike_id":"9b24126f-7fff-4483-bfb4-bb1860ebcbf5","system_id":"levelo_inurba_marseille","lat":43.31067,"lon":5.38359,"is_reserved":false,"is_disabled":false,"rental_uris":{"android":"levelo://app?vid=9b24126f-7fff-4483-bfb4-bb1860ebcbf5","ios":"levelo://app?vid=9b24126f-7fff-4483-bfb4-bb1860ebcbf5"},"vehicle_type_id":"4","last_reported":1746803433,"current_range_meters":4800,"station_id":"ce4bgv92rcd13ifvqcr0","pricing_plan_id":"cebpf4jnsgd1na2vs0mg"},{"bike_id":"bc5aac6c-5ce4-4cce-acd7-da7f893a997e","system_id":"levelo_inurba_marseille","lat":43.31885,"lon":5.40742,"is_reserved":false,"is_disabled":false,"rental_uris":{"android":"levelo://app?vid=bc5aac6c-5ce4-4cce-acd7-da7f893a997e","ios":"levelo://app?vid=bc5aac6c-5ce4-4cce-acd7-da7f893a997e"},"vehicle_type_id":"4","last_reported":1746803433,"current_range_meters":4400,"station_id":"ce4bhq12rcd13ifvqhig","pricing_plan_id":"cebpf4jnsgd1na2vs0mg"},{"bike_id":"0cba48ed-624f-44a3-9dc6-72077c94faf5","system_id":"levelo_inurba_marseille","lat":43.30938,"lon":5.40148,"is_reserved":false,"is_disabled":false,"rental_uris":{"android":"levelo://app?vid=0cba48ed-624f-44a3-9dc6-72077c94faf5","ios":"levelo://app?vid=0cba48ed-624f-44a3-9dc6-72077c94faf5"},"vehicle_type_id":"4","last_reported":1746803433,"current_range_meters":4800,"station_id":"ce4bgvp2rcd13ifvqct0","pricing_plan_id":"cebpf4jnsgd1na2vs0mg"},{"bike_id":"c8142ff4-c608-4b73-ac6a-4859689a35ab","system_id":"levelo_inurba_marseille","lat":43.30954,"lon":5.39001,"is_reserved":false,"is_disabled":false,"rental_uris":{"android":"levelo://app?vid=c8142ff4-c608-4b73-ac6a-4859689a35ab","ios":"levelo://app?vid=c8142ff4-c608-4b73-ac6a-4859689a35ab"},"vehicle_type_id":"4","last_reported":1746803433,"current_range_meters":5600,"station_id":"","pricing_plan_id":"cebpf4jnsgd1na2vs0mg"},{"bike_id":"0d277dbc-6875-4a71-a0ee-f3a7c42e38ec","system_id":"levelo_inurba_marseille","lat":43.28469,"lon":5.38429,"is_reserved":false,"is_disabled":false,"rental_uris":{"android":"levelo://app?vid=0d277dbc-6875-4a71-a0ee-f3a7c42e38ec","ios":"levelo://app?vid=0d277dbc-6875-4a71-a0ee-f3a7c42e38ec"},"vehicle_type_id":"4","last_reported":1746803433,"current_range_meters":5600,"station_id":"ce4bh512rcd13ifvqe3g","pricing_plan_id":"cebpf4jnsgd1na2vs0mg"},{"bike_id":"28552905-eb51-4578-bd39-8556e098b6b6","system_id":"levelo_inurba_marseille","lat":43.27991,"lon":5.41662,"is_reserved":false,"is_disabled":false,"rental_uris":{"android":"levelo://app?vid=28552905-eb51-4578-bd39-8556e098b6b6","ios":"levelo://app?vid=28552905-eb51-4578-bd39-8556e098b6b6"},"vehicle_type_id":"4","last_reported":1746803433,"current_range_meters":6000,"station_id":"ce4bho12rcd13ifvqh1g","pricing_plan_id":"cebpf4jnsgd1na2vs0mg"},{"bike_id":"f7deba3c-527b-463d-ad0f-ea80e0190f9a","system_id":"levelo_inurba_marseille","lat":43.27992,"lon":5.37029,"is_reserved":false,"is_disabled":false,"rental_uris":{"android":"levelo://app?vid=f7deba3c-527b-463d-ad0f-ea80e0190f9a","ios":"levelo://app?vid=f7deba3c-527b-463d-ad0f-ea80e0190f9a"},"vehicle_type_id":"4","last_reported":1746803433,"current_range_meters":6000,"station_id":"","pricing_plan_id":"cebpf4jnsgd1na2vs0mg"},{"bike_id":"296e9069-2ddd-4117-8122-23efd7532f6b","system_id":"levelo_inurba_marseille","lat":43.28166,"lon":5.42637,"is_reserved":false,"is_disabled":false,"rental_uris":{"android":"levelo://app?vid=296e9069-2ddd-4117-8122-23efd7532f6b","ios":"levelo://app?vid=296e9069-2ddd-4117-8122-23efd7532f6b"},"vehicle_type_id":"4","last_reported":1746803433,"current_range_meters":6400,"station_id":"ce4bhnh2rcd13ifvqgug","pricing_plan_id":"cebpf4jnsgd1na2vs0mg"},{"bike_id":"94f4299a-cda7-409d-94d5-223444d4cb2d","system_id":"levelo_inurba_marseille","lat":43.29797,"lon":5.40401,"is_reserved":false,"is_disabled":false,"rental_uris":{"android":"levelo://app?vid=94f4299a-cda7-409d-94d5-223444d4cb2d","ios":"levelo://app?vid=94f4299a-cda7-409d-94d5-223444d4cb2d"},"vehicle_type_id":"4","last_reported":1746803433,"current_range_meters":6800,"station_id":"ce4bh112rcd13ifvqd90","pricing_plan_id":"cebpf4jnsgd1na2vs0mg"},{"bike_id":"4415766b-22f7-4402-897e-35ad29af0d2e","system_id":"levelo_inurba_marseille","lat":43.25493,"lon":5.37648,"is_reserved":false,"is_disabled":false,"rental_uris":{"android":"levelo://app?vid=4415766b-22f7-4402-897e-35ad29af0d2e","ios":"levelo://app?vid=4415766b-22f7-4402-897e-35ad29af0d2e"},"vehicle_type_id":"4","last_reported":1746803433,"current_range_meters":6800,"station_id":"ce4bhh12rcd13ifvqff0","pricing_plan_id":"cebpf4jnsgd1na2vs0mg"},{"bike_id":"2923f40e-eab6-465f-9130-926833203966","system_id":"levelo_inurba_marseille","lat":43.30625,"lon":5.40101,"is_reserved":false,"is_disabled":false,"rental_uris":{"android":"levelo://app?vid=2923f40e-eab6-465f-9130-926833203966","ios":"levelo://app?vid=2923f40e-eab6-465f-9130-926833203966"},"vehicle_type_id":"4","last_reported":1746803433,"current_range_meters":6800,"station_id":"ce4bh112rcd13ifvqda0","pricing_plan_id":"cebpf4jnsgd1na2vs0mg"},{"bike_id":"3a965e32-0e21-402c-babe-9fa80d6674d3","system_id":"levelo_inurba_marseille","lat":43.2719,"lon":5.41003,"is_reserved":false,"is_disabled":false,"rental_uris":{"android":"levelo://app?vid=3a965e32-0e21-402c-babe-9fa80d6674d3","ios":"levelo://app?vid=3a965e32-0e21-402c-babe-9fa80d6674d3"},"vehicle_type_id":"4","last_reported":1746803433,"current_range_meters":7200,"station_id":"ce4bhl12rcd13ifvqgf0","pricing_plan_id":"cebpf4jnsgd1na2vs0mg"},{"bike_id":"fc01e7d0-8b46-40f1-8398-55071e760a2f","system_id":"levelo_inurba_marseille","lat":43.25578,"lon":5.38247,"is_reserved":false,"is_disabled":false,"rental_uris":{"android":"levelo://app?vid=fc01e7d0-8b46-40f1-8398-55071e760a2f","ios":"levelo://app?vid=fc01e7d0-8b46-40f1-8398-55071e760a2f"},"vehicle_type_id":"4","last_reported":1746803433,"current_range_meters":8000,"station_id":"ce4bhih2rcd13ifvqfs0","pricing_plan_id":"cebpf4jnsgd1na2vs0mg"},{"bike_id":"f495dbb7-6f18-4cc7-9215-fb82f3ec19bc","system_id":"levelo_inurba_marseille","lat":43.25593,"lon":5.3823,"is_reserved":false,"is_disabled":false,"rental_uris":{"android":"levelo://app?vid=f495dbb7-6f18-4cc7-9215-fb82f3ec19bc","ios":"levelo://app?vid=f495dbb7-6f18-4cc7-9215-fb82f3ec19bc"},"vehicle_type_id":"4","last_reported":1746803433,"current_range_meters":8000,"station_id":"ce4bhih2rcd13ifvqfs0","pricing_plan_id":"cebpf4jnsgd1na2vs0mg"},{"bike_id":"1342e8ca-3317-4f6b-bd65-bfd1bef1daa2","system_id":"levelo_inurba_marseille","lat":43.28038,"lon":5.36951,"is_reserved":false,"is_disabled":false,"rental_uris":{"android":"levelo://app?vid=1342e8ca-3317-4f6b-bd65-bfd1bef1daa2","ios":"levelo://app?vid=1342e8ca-3317-4f6b-bd65-bfd1bef1daa2"},"vehicle_type_id":"4","last_reported":1746803433,"current_range_meters":8000,"station_id":"ce4bha12rcd13ifvqef0","pricing_plan_id":"cebpf4jnsgd1na2vs0mg"},{"bike_id":"f673a50d-776a-4d4f-8bc2-0f75017ffb52","system_id":"levelo_inurba_marseille","lat":43.284499,"lon":5.358347,"is_reserved":false,"is_disabled":false,"rental_uris":{"android":"levelo://app?vid=f673a50d-776a-4d4f-8bc2-0f75017ffb52","ios":"levelo://app?vid=f673a50d-776a-4d4f-8bc2-0f75017ffb52"},"vehicle_type_id":"4","last_reported":1746803433,"current_range_meters":8400,"station_id":"ce4bhah2rcd13ifvqei0","pricing_plan_id":"cebpf4jnsgd1na2vs0mg"},{"bike_id":"283c096d-9775-40df-9ef5-3ff56b9146cb","system_id":"levelo_inurba_marseille","lat":43.22923,"lon":5.35383,"is_reserved":false,"is_disabled":true,"rental_uris":{"android":"levelo://app?vid=283c096d-9775-40df-9ef5-3ff56b9146cb","ios":"levelo://app?vid=283c096d-9775-40df-9ef5-3ff56b9146cb"},"vehicle_type_id":"4","last_reported":1746803433,"current_range_meters":8400,"station_id":"cpo3532slgdg3j2ikp40","pricing_plan_id":"cebpf4jnsgd1na2vs0mg"},{"bike_id":"ae95deac-1566-41b2-9b93-8885f5cc3e9d","system_id":"levelo_inurba_marseille","lat":43.31326,"lon":5.3969,"is_reserved":false,"is_disabled":false,"rental_uris":{"android":"levelo://app?vid=ae95deac-1566-41b2-9b93-8885f5cc3e9d","ios":"levelo://app?vid=ae95deac-1566-41b2-9b93-8885f5cc3e9d"},"vehicle_type_id":"4","last_reported":1746803433,"current_range_meters":8400,"station_id":"ce4bgvp2rcd13ifvqcu0","pricing_plan_id":"cebpf4jnsgd1na2vs0mg"},{"bike_id":"47bb6f34-9c89-4a6c-b2ec-6a2d3e007f08","system_id":"levelo_inurba_marseille","lat":43.25724,"lon":5.41113,"is_reserved":false,"is_disabled":false,"rental_uris":{"android":"levelo://app?vid=47bb6f34-9c89-4a6c-b2ec-6a2d3e007f08","ios":"levelo://app?vid=47bb6f34-9c89-4a6c-b2ec-6a2d3e007f08"},"vehicle_type_id":"4","last_reported":1746803433,"current_range_meters":8400,"station_id":"ce4bhkp2rcd13ifvqgd0","pricing_plan_id":"cebpf4jnsgd1na2vs0mg"},{"bike_id":"bcd6a740-9967-4422-8c14-7c774953510b","system_id":"levelo_inurba_marseille","lat":43.30798,"lon":5.43526,"is_reserved":false,"is_disabled":false,"rental_uris":{"android":"levelo://app?vid=bcd6a740-9967-4422-8c14-7c774953510b","ios":"levelo://app?vid=bcd6a740-9967-4422-8c14-7c774953510b"},"vehicle_type_id":"4","last_reported":1746803433,"current_range_meters":8400,"station_id":"ce4bhph2rcd13ifvqheg","pricing_plan_id":"cebpf4jnsgd1na2vs0mg"},{"bike_id":"75a3b2a5-d06e-428f-a331-9e3eabc34804","system_id":"levelo_inurba_marseille","lat":43.292,"lon":5.35808,"is_reserved":false,"is_disabled":false,"rental_uris":{"android":"levelo://app?vid=75a3b2a5-d06e-428f-a331-9e3eabc34804","ios":"levelo://app?vid=75a3b2a5-d06e-428f-a331-9e3eabc34804"},"vehicle_type_id":"4","last_reported":1746803433,"current_range_meters":8400,"station_id":"ce4bhb12rcd13ifvqel0","pricing_plan_id":"cebpf4jnsgd1na2vs0mg"},{"bike_id":"c86848ba-02ca-4626-aea6-7407e0722649","system_id":"levelo_inurba_marseille","lat":43.25499,"lon":5.37648,"is_reserved":false,"is_disabled":false,"rental_uris":{"android":"levelo://app?vid=c86848ba-02ca-4626-aea6-7407e0722649","ios":"levelo://app?vid=c86848ba-02ca-4626-aea6-7407e0722649"},"vehicle_type_id":"4","last_reported":1746803433,"current_range_meters":8400,"station_id":"ce4bhh12rcd13ifvqff0","pricing_plan_id":"cebpf4jnsgd1na2vs0mg"},{"bike_id":"aa5b56fd-285c-4f0b-8b82-69d5d5f3e2b3","system_id":"levelo_inurba_marseille","lat":43.32293,"lon":5.38278,"is_reserved":false,"is_disabled":false,"rental_uris":{"android":"levelo://app?vid=aa5b56fd-285c-4f0b-8b82-69d5d5f3e2b3","ios":"levelo://app?vid=aa5b56fd-285c-4f0b-8b82-69d5d5f3e2b3"},"vehicle_type_id":"4","last_reported":1746803433,"current_range_meters":8800,"station_id":"ce4bhr12rcd13ifvqhqg","pricing_plan_id":"cebpf4jnsgd1na2vs0mg"},{"bike_id":"caf9033d-5f00-49c3-b1ee-1328b62008dc","system_id":"levelo_inurba_marseille","lat":43.33603,"lon":5.42828,"is_reserved":false,"is_disabled":false,"rental_uris":{"android":"levelo://app?vid=caf9033d-5f00-49c3-b1ee-1328b62008dc","ios":"levelo://app?vid=caf9033d-5f00-49c3-b1ee-1328b62008dc"},"vehicle_type_id":"4","last_reported":1746803433,"current_range_meters":8800,"station_id":"","pricing_plan_id":"cebpf4jnsgd1na2vs0mg"},{"bike_id":"ab796442-4b2f-430a-affa-ccdd8323edf6","system_id":"levelo_inurba_marseille","lat":43.325171,"lon":5.41502,"is_reserved":false,"is_disabled":false,"rental_uris":{"android":"levelo://app?vid=ab796442-4b2f-430a-affa-ccdd8323edf6","ios":"levelo://app?vid=ab796442-4b2f-430a-affa-ccdd8323edf6"},"vehicle_type_id":"4","last_reported":1746803433,"current_range_meters":9200,"station_id":"ce4bhq12rcd13ifvqhhg","pricing_plan_id":"cebpf4jnsgd1na2vs0mg"},{"bike_id":"83c74e56-6bc7-4f67-b45c-e94700a8be86","system_id":"levelo_inurba_marseille","lat":43.28346,"lon":5.38108,"is_reserved":false,"is_disabled":false,"rental_uris":{"android":"levelo://app?vid=83c74e56-6bc7-4f67-b45c-e94700a8be86","ios":"levelo://app?vid=83c74e56-6bc7-4f67-b45c-e94700a8be86"},"vehicle_type_id":"4","last_reported":1746803433,"current_range_meters":9200,"station_id":"ce4bh412rcd13ifvqdr0","pricing_plan_id":"cebpf4jnsgd1na2vs0mg"},{"bike_id":"9d8ed56c-99f7-4a36-bea1-a90f28c728aa","system_id":"levelo_inurba_marseille","lat":43.29966,"lon":5.385,"is_reserved":false,"is_disabled":false,"rental_uris":{"android":"levelo://app?vid=9d8ed56c-99f7-4a36-bea1-a90f28c728aa","ios":"levelo://app?vid=9d8ed56c-99f7-4a36-bea1-a90f28c728aa"},"vehicle_type_id":"4","last_reported":1746803433,"current_range_meters":9200,"station_id":"ce4bgj92rcd13ifvqbd0","pricing_plan_id":"cebpf4jnsgd1na2vs0mg"},{"bike_id":"40e732e1-5df3-409b-823c-91d552e297a0","system_id":"levelo_inurba_marseille","lat":43.30807,"lon":5.43525,"is_reserved":false,"is_disabled":false,"rental_uris":{"android":"levelo://app?vid=40e732e1-5df3-409b-823c-91d552e297a0","ios":"levelo://app?vid=40e732e1-5df3-409b-823c-91d552e297a0"},"vehicle_type_id":"4","last_reported":1746803433,"current_range_meters":9200,"station_id":"ce4bhph2rcd13ifvqheg","pricing_plan_id":"cebpf4jnsgd1na2vs0mg"},{"bike_id":"a9f28f34-fa0a-40ce-8912-55bd069bc8ed","system_id":"levelo_inurba_marseille","lat":43.25576,"lon":5.3823,"is_reserved":false,"is_disabled":false,"rental_uris":{"android":"levelo://app?vid=a9f28f34-fa0a-40ce-8912-55bd069bc8ed","ios":"levelo://app?vid=a9f28f34-fa0a-40ce-8912-55bd069bc8ed"},"vehicle_type_id":"4","last_reported":1746803433,"current_range_meters":9200,"station_id":"ce4bhih2rcd13ifvqfs0","pricing_plan_id":"cebpf4jnsgd1na2vs0mg"},{"bike_id":"86080b0d-88d3-44fb-8250-cb3e321c6ff2","system_id":"levelo_inurba_marseille","lat":43.25825,"lon":5.39437,"is_reserved":false,"is_disabled":false,"rental_uris":{"android":"levelo://app?vid=86080b0d-88d3-44fb-8250-cb3e321c6ff2","ios":"levelo://app?vid=86080b0d-88d3-44fb-8250-cb3e321c6ff2"},"vehicle_type_id":"4","last_reported":1746803433,"current_range_meters":9200,"station_id":"ce4bhip2rcd13ifvqft0","pricing_plan_id":"cebpf4jnsgd1na2vs0mg"},{"bike_id":"e8aafcf6-8fff-4909-9cec-c5dee8e7f485","system_id":"levelo_inurba_marseille","lat":43.30948,"lon":5.39051,"is_reserved":false,"is_disabled":false,"rental_uris":{"android":"levelo://app?vid=e8aafcf6-8fff-4909-9cec-c5dee8e7f485","ios":"levelo://app?vid=e8aafcf6-8fff-4909-9cec-c5dee8e7f485"},"vehicle_type_id":"4","last_reported":1746803433,"current_range_meters":9200,"station_id":"ce4bgup2rcd13ifvqco0","pricing_plan_id":"cebpf4jnsgd1na2vs0mg"},{"bike_id":"812e31b7-42f9-4d63-b220-e99af5c192ed","system_id":"levelo_inurba_marseille","lat":43.31175,"lon":5.41628,"is_reserved":false,"is_disabled":false,"rental_uris":{"android":"levelo://app?vid=812e31b7-42f9-4d63-b220-e99af5c192ed","ios":"levelo://app?vid=812e31b7-42f9-4d63-b220-e99af5c192ed"},"vehicle_type_id":"4","last_reported":1746803433,"current_range_meters":9200,"station_id":"","pricing_plan_id":"cebpf4jnsgd1na2vs0mg"},{"bike_id":"fb6a795c-28f9-4c4a-9c0d-30eff75d45b3","system_id":"levelo_inurba_marseille","lat":43.30309,"lon":5.39215,"is_reserved":false,"is_disabled":false,"rental_uris":{"android":"levelo://app?vid=fb6a795c-28f9-4c4a-9c0d-30eff75d45b3","ios":"levelo://app?vid=fb6a795c-28f9-4c4a-9c0d-30eff75d45b3"},"vehicle_type_id":"4","last_reported":1746803433,"current_range_meters":9600,"station_id":"ce4bgkh2rcd13ifvqbk0","pricing_plan_id":"cebpf4jnsgd1na2vs0mg"},{"bike_id":"802b4631-4782-4fe7-8e9d-97e2ededd5dc","system_id":"levelo_inurba_marseille","lat":43.30965,"lon":5.39047,"is_reserved":false,"is_disabled":false,"rental_uris":{"android":"levelo://app?vid=802b4631-4782-4fe7-8e9d-97e2ededd5dc","ios":"levelo://app?vid=802b4631-4782-4fe7-8e9d-97e2ededd5dc"},"vehicle_type_id":"4","last_reported":1746803433,"current_range_meters":9600,"station_id":"ce4bgup2rcd13ifvqco0","pricing_plan_id":"cebpf4jnsgd1na2vs0mg"},{"bike_id":"caccb556-2ad0-45b8-84b8-819024dd44e6","system_id":"levelo_inurba_marseille","lat":43.29797,"lon":5.36781,"is_reserved":false,"is_disabled":false,"rental_uris":{"android":"levelo://app?vid=caccb556-2ad0-45b8-84b8-819024dd44e6","ios":"levelo://app?vid=caccb556-2ad0-45b8-84b8-819024dd44e6"},"vehicle_type_id":"4","last_reported":1746803433,"current_range_meters":9600,"station_id":"","pricing_plan_id":"cebpf4jnsgd1na2vs0mg"},{"bike_id":"a5035683-e922-4659-b77f-9b07031bc84e","system_id":"levelo_inurba_marseille","lat":43.21757,"lon":5.34599,"is_reserved":false,"is_disabled":true,"rental_uris":{"android":"levelo://app?vid=a5035683-e922-4659-b77f-9b07031bc84e","ios":"levelo://app?vid=a5035683-e922-4659-b77f-9b07031bc84e"},"vehicle_type_id":"4","last_reported":1746803433,"current_range_meters":9600,"station_id":"st_cvj6r9ubvosntc0bgbag","pricing_plan_id":"cebpf4jnsgd1na2vs0mg"},{"bike_id":"ee25d368-e403-434e-a62a-54f67729bad1","system_id":"levelo_inurba_marseille","lat":43.25007,"lon":5.38927,"is_reserved":false,"is_disabled":false,"rental_uris":{"android":"levelo://app?vid=ee25d368-e403-434e-a62a-54f67729bad1","ios":"levelo://app?vid=ee25d368-e403-434e-a62a-54f67729bad1"},"vehicle_type_id":"4","last_reported":1746803433,"current_range_meters":9600,"station_id":"ce4bhgp2rcd13ifvqfd0","pricing_plan_id":"cebpf4jnsgd1na2vs0mg"},{"bike_id":"d31d8582-4dc2-49f6-922f-cd72c8ef16c2","system_id":"levelo_inurba_marseille","lat":43.3091,"lon":5.37147,"is_reserved":false,"is_disabled":false,"rental_uris":{"android":"levelo://app?vid=d31d8582-4dc2-49f6-922f-cd72c8ef16c2","ios":"levelo://app?vid=d31d8582-4dc2-49f6-922f-cd72c8ef16c2"},"vehicle_type_id":"4","last_reported":1746803433,"current_range_meters":9600,"station_id":"ce4bguh2rcd13ifvqckg","pricing_plan_id":"cebpf4jnsgd1na2vs0mg"},{"bike_id":"59707e55-c388-4624-a76f-3d65389613f0","system_id":"levelo_inurba_marseille","lat":43.29035,"lon":5.37563,"is_reserved":false,"is_disabled":false,"rental_uris":{"android":"levelo://app?vid=59707e55-c388-4624-a76f-3d65389613f0","ios":"levelo://app?vid=59707e55-c388-4624-a76f-3d65389613f0"},"vehicle_type_id":"4","last_reported":1746803433,"current_range_meters":10000,"station_id":"ce4bh692rcd13ifvqe90","pricing_plan_id":"cebpf4jnsgd1na2vs0mg"},{"bike_id":"b0c54ead-2c9a-4d45-904a-5e1b9abf7338","system_id":"levelo_inurba_marseille","lat":43.27882,"lon":5.44097,"is_reserved":false,"is_disabled":false,"rental_uris":{"android":"levelo://app?vid=b0c54ead-2c9a-4d45-904a-5e1b9abf7338","ios":"levelo://app?vid=b0c54ead-2c9a-4d45-904a-5e1b9abf7338"},"vehicle_type_id":"4","last_reported":1746803433,"current_range_meters":10000,"station_id":"","pricing_plan_id":"cebpf4jnsgd1na2vs0mg"},{"bike_id":"ce63f322-e26b-4bac-a30a-3249748e6083","system_id":"levelo_inurba_marseille","lat":43.25583,"lon":5.38239,"is_reserved":false,"is_disabled":false,"rental_uris":{"android":"levelo://app?vid=ce63f322-e26b-4bac-a30a-3249748e6083","ios":"levelo://app?vid=ce63f322-e26b-4bac-a30a-3249748e6083"},"vehicle_type_id":"4","last_reported":1746803433,"current_range_meters":10000,"station_id":"ce4bhih2rcd13ifvqfs0","pricing_plan_id":"cebpf4jnsgd1na2vs0mg"},{"bike_id":"c42d0137-01db-4e02-8a6e-f9af61ad1319","system_id":"levelo_inurba_marseille","lat":43.314347,"lon":5.373137,"is_reserved":false,"is_disabled":false,"rental_uris":{"android":"levelo://app?vid=c42d0137-01db-4e02-8a6e-f9af61ad1319","ios":"levelo://app?vid=c42d0137-01db-4e02-8a6e-f9af61ad1319"},"vehicle_type_id":"4","last_reported":1746803433,"current_range_meters":10000,"station_id":"","pricing_plan_id":"cebpf4jnsgd1na2vs0mg"},{"bike_id":"a3311ec9-23c4-4260-b3a4-89881836631b","system_id":"levelo_inurba_marseille","lat":43.29632,"lon":5.40599,"is_reserved":false,"is_disabled":false,"rental_uris":{"android":"levelo://app?vid=a3311ec9-23c4-4260-b3a4-89881836631b","ios":"levelo://app?vid=a3311ec9-23c4-4260-b3a4-89881836631b"},"vehicle_type_id":"4","last_reported":1746803433,"current_range_meters":10000,"station_id":"ce4bh0h2rcd13ifvqd60","pricing_plan_id":"cebpf4jnsgd1na2vs0mg"},{"bike_id":"5e539fc1-1181-4cd8-a150-63791303e21e","system_id":"levelo_inurba_marseille","lat":43.31093,"lon":5.42417,"is_reserved":false,"is_disabled":false,"rental_uris":{"android":"levelo://app?vid=5e539fc1-1181-4cd8-a150-63791303e21e","ios":"levelo://app?vid=5e539fc1-1181-4cd8-a150-63791303e21e"},"vehicle_type_id":"4","last_reported":1746803433,"current_range_meters":10800,"station_id":"ce4bhp92rcd13ifvqhag","pricing_plan_id":"cebpf4jnsgd1na2vs0mg"},{"bike_id":"3f7d7f77-fbb1-4827-8e23-d947836ca87b","system_id":"levelo_inurba_marseille","lat":43.26213,"lon":5.37441,"is_reserved":false,"is_disabled":false,"rental_uris":{"android":"levelo://app?vid=3f7d7f77-fbb1-4827-8e23-d947836ca87b","ios":"levelo://app?vid=3f7d7f77-fbb1-4827-8e23-d947836ca87b"},"vehicle_type_id":"4","last_reported":1746803433,"current_range_meters":10800,"station_id":"ce4bhgp2rcd13ifvqfc0","pricing_plan_id":"cebpf4jnsgd1na2vs0mg"},{"bike_id":"6fa74ce8-f299-4d6e-bae1-741bd54af124","system_id":"levelo_inurba_marseille","lat":43.27075,"lon":5.42285,"is_reserved":false,"is_disabled":false,"rental_uris":{"android":"levelo://app?vid=6fa74ce8-f299-4d6e-bae1-741bd54af124","ios":"levelo://app?vid=6fa74ce8-f299-4d6e-bae1-741bd54af124"},"vehicle_type_id":"4","last_reported":1746803433,"current_range_meters":10800,"station_id":"ce4bhk92rcd13ifvqgb0","pricing_plan_id":"cebpf4jnsgd1na2vs0mg"},{"bike_id":"2fbc5113-34c5-4504-96c9-8350bb0d3905","system_id":"levelo_inurba_marseille","lat":43.31079,"lon":5.42435,"is_reserved":false,"is_disabled":false,"rental_uris":{"android":"levelo://app?vid=2fbc5113-34c5-4504-96c9-8350bb0d3905","ios":"levelo://app?vid=2fbc5113-34c5-4504-96c9-8350bb0d3905"},"vehicle_type_id":"4","last_reported":1746803433,"current_range_meters":10800,"station_id":"ce4bhp92rcd13ifvqhag","pricing_plan_id":"cebpf4jnsgd1na2vs0mg"},{"bike_id":"044478cb-8194-4092-b984-4fc9c042ef68","system_id":"levelo_inurba_marseille","lat":43.28764,"lon":5.46515,"is_reserved":false,"is_disabled":false,"rental_uris":{"android":"levelo://app?vid=044478cb-8194-4092-b984-4fc9c042ef68","ios":"levelo://app?vid=044478cb-8194-4092-b984-4fc9c042ef68"},"vehicle_type_id":"4","last_reported":1746803433,"current_range_meters":10800,"station_id":"","pricing_plan_id":"cebpf4jnsgd1na2vs0mg"},{"bike_id":"e5083f9d-6974-4e10-b33a-f847338b71c7","system_id":"levelo_inurba_marseille","lat":43.32657,"lon":5.40991,"is_reserved":false,"is_disabled":false,"rental_uris":{"android":"levelo://app?vid=e5083f9d-6974-4e10-b33a-f847338b71c7","ios":"levelo://app?vid=e5083f9d-6974-4e10-b33a-f847338b71c7"},"vehicle_type_id":"4","last_reported":1746803433,"current_range_meters":10800,"station_id":"ce4bhpp2rcd13ifvqhgg","pricing_plan_id":"cebpf4jnsgd1na2vs0mg"},{"bike_id":"5bee1775-528f-49e6-9c3e-19f7744c053e","system_id":"levelo_inurba_marseille","lat":43.27992,"lon":5.41658,"is_reserved":false,"is_disabled":false,"rental_uris":{"android":"levelo://app?vid=5bee1775-528f-49e6-9c3e-19f7744c053e","ios":"levelo://app?vid=5bee1775-528f-49e6-9c3e-19f7744c053e"},"vehicle_type_id":"4","last_reported":1746803433,"current_range_meters":11200,"station_id":"ce4bho12rcd13ifvqh1g","pricing_plan_id":"cebpf4jnsgd1na2vs0mg"},{"bike_id":"5844f93e-b169-4646-8756-9c97175d7619","system_id":"levelo_inurba_marseille","lat":43.27811,"lon":5.40712,"is_reserved":false,"is_disabled":false,"rental_uris":{"android":"levelo://app?vid=5844f93e-b169-4646-8756-9c97175d7619","ios":"levelo://app?vid=5844f93e-b169-4646-8756-9c97175d7619"},"vehicle_type_id":"4","last_reported":1746803433,"current_range_meters":11200,"station_id":"ce4bhnh2rcd13ifvqgtg","pricing_plan_id":"cebpf4jnsgd1na2vs0mg"},{"bike_id":"e3df9051-cf96-46d7-9ede-d9c2bdb9c6fa","system_id":"levelo_inurba_marseille","lat":43.284646,"lon":5.35883,"is_reserved":false,"is_disabled":false,"rental_uris":{"android":"levelo://app?vid=e3df9051-cf96-46d7-9ede-d9c2bdb9c6fa","ios":"levelo://app?vid=e3df9051-cf96-46d7-9ede-d9c2bdb9c6fa"},"vehicle_type_id":"4","last_reported":1746803433,"current_range_meters":11200,"station_id":"ce4bhah2rcd13ifvqei0","pricing_plan_id":"cebpf4jnsgd1na2vs0mg"},{"bike_id":"d173aa68-ac29-4aee-be94-a2dc30490f90","system_id":"levelo_inurba_marseille","lat":43.25764,"lon":5.41084,"is_reserved":false,"is_disabled":false,"rental_uris":{"android":"levelo://app?vid=d173aa68-ac29-4aee-be94-a2dc30490f90","ios":"levelo://app?vid=d173aa68-ac29-4aee-be94-a2dc30490f90"},"vehicle_type_id":"4","last_reported":1746803433,"current_range_meters":11600,"station_id":"","pricing_plan_id":"cebpf4jnsgd1na2vs0mg"},{"bike_id":"d4d80d54-0eab-4ba4-bf50-24764e918410","system_id":"levelo_inurba_marseille","lat":43.21752,"lon":5.34603,"is_reserved":false,"is_disabled":false,"rental_uris":{"android":"levelo://app?vid=d4d80d54-0eab-4ba4-bf50-24764e918410","ios":"levelo://app?vid=d4d80d54-0eab-4ba4-bf50-24764e918410"},"vehicle_type_id":"4","last_reported":1746803433,"current_range_meters":11600,"station_id":"st_cvj6r9ubvosntc0bgbag","pricing_plan_id":"cebpf4jnsgd1na2vs0mg"},{"bike_id":"ece27808-caa3-4deb-96c7-04097c718c7c","system_id":"levelo_inurba_marseille","lat":43.28694,"lon":5.40004,"is_reserved":false,"is_disabled":true,"rental_uris":{"android":"levelo://app?vid=ece27808-caa3-4deb-96c7-04097c718c7c","ios":"levelo://app?vid=ece27808-caa3-4deb-96c7-04097c718c7c"},"vehicle_type_id":"4","last_reported":1746803433,"current_range_meters":11600,"station_id":"ce4bho92rcd13ifvqh3g","pricing_plan_id":"cebpf4jnsgd1na2vs0mg"},{"bike_id":"0c984cac-3759-43a7-abe6-fa02d6bc5576","system_id":"levelo_inurba_marseille","lat":43.289214,"lon":5.363056,"is_reserved":false,"is_disabled":false,"rental_uris":{"android":"levelo://app?vid=0c984cac-3759-43a7-abe6-fa02d6bc5576","ios":"levelo://app?vid=0c984cac-3759-43a7-abe6-fa02d6bc5576"},"vehicle_type_id":"4","last_reported":1746803433,"current_range_meters":12000,"station_id":"ce4bh692rcd13ifvqe90","pricing_plan_id":"cebpf4jnsgd1na2vs0mg"},{"bike_id":"257486f5-03bd-4b74-b96f-72b61bd25309","system_id":"levelo_inurba_marseille","lat":43.28617,"lon":5.35111,"is_reserved":false,"is_disabled":false,"rental_uris":{"android":"levelo://app?vid=257486f5-03bd-4b74-b96f-72b61bd25309","ios":"levelo://app?vid=257486f5-03bd-4b74-b96f-72b61bd25309"},"vehicle_type_id":"4","last_reported":1746803433,"current_range_meters":12000,"station_id":"ce4bhch2rcd13ifvqeug","pricing_plan_id":"cebpf4jnsgd1na2vs0mg"},{"bike_id":"b1e42b9e-5b48-43d9-92de-a8d440c57a60","system_id":"levelo_inurba_marseille","lat":43.30136,"lon":5.388,"is_reserved":false,"is_disabled":false,"rental_uris":{"android":"levelo://app?vid=b1e42b9e-5b48-43d9-92de-a8d440c57a60","ios":"levelo://app?vid=b1e42b9e-5b48-43d9-92de-a8d440c57a60"},"vehicle_type_id":"4","last_reported":1746803433,"current_range_meters":12000,"station_id":"ce4bghh2rcd13ifvqb60","pricing_plan_id":"cebpf4jnsgd1na2vs0mg"},{"bike_id":"f6b981a0-ed96-4c66-827a-e9337192e17b","system_id":"levelo_inurba_marseille","lat":43.27071,"lon":5.42273,"is_reserved":false,"is_disabled":false,"rental_uris":{"android":"levelo://app?vid=f6b981a0-ed96-4c66-827a-e9337192e17b","ios":"levelo://app?vid=f6b981a0-ed96-4c66-827a-e9337192e17b"},"vehicle_type_id":"4","last_reported":1746803433,"current_range_meters":12400,"station_id":"ce4bhk92rcd13ifvqgb0","pricing_plan_id":"cebpf4jnsgd1na2vs0mg"},{"bike_id":"47f96c26-d90a-4292-86a2-a1fc200468dd","system_id":"levelo_inurba_marseille","lat":43.32388,"lon":5.36763,"is_reserved":false,"is_disabled":false,"rental_uris":{"android":"levelo://app?vid=47f96c26-d90a-4292-86a2-a1fc200468dd","ios":"levelo://app?vid=47f96c26-d90a-4292-86a2-a1fc200468dd"},"vehicle_type_id":"4","last_reported":1746803433,"current_range_meters":12400,"station_id":"ce4bhsh2rcd13ifvqi2g","pricing_plan_id":"cebpf4jnsgd1na2vs0mg"},{"bike_id":"988f4673-384f-4566-8e08-c35536ca2252","system_id":"levelo_inurba_marseille","lat":43.28466,"lon":5.35903,"is_reserved":false,"is_disabled":false,"rental_uris":{"android":"levelo://app?vid=988f4673-384f-4566-8e08-c35536ca2252","ios":"levelo://app?vid=988f4673-384f-4566-8e08-c35536ca2252"},"vehicle_type_id":"4","last_reported":1746803433,"current_range_meters":12800,"station_id":"ce4bhah2rcd13ifvqei0","pricing_plan_id":"cebpf4jnsgd1na2vs0mg"},{"bike_id":"4fc2916e-fd8a-4057-add3-fd7205558b49","system_id":"levelo_inurba_marseille","lat":43.31462,"lon":5.39097,"is_reserved":false,"is_disabled":false,"rental_uris":{"android":"levelo://app?vid=4fc2916e-fd8a-4057-add3-fd7205558b49","ios":"levelo://app?vid=4fc2916e-fd8a-4057-add3-fd7205558b49"},"vehicle_type_id":"4","last_reported":1746803433,"current_range_meters":12800,"station_id":"","pricing_plan_id":"cebpf4jnsgd1na2vs0mg"},{"bike_id":"3b35f6f5-ad0e-413b-9668-844be448a2ec","system_id":"levelo_inurba_marseille","lat":43.3092,"lon":5.40153,"is_reserved":false,"is_disabled":false,"rental_uris":{"android":"levelo://app?vid=3b35f6f5-ad0e-413b-9668-844be448a2ec","ios":"levelo://app?vid=3b35f6f5-ad0e-413b-9668-844be448a2ec"},"vehicle_type_id":"4","last_reported":1746803433,"current_range_meters":13600,"station_id":"ce4bgvp2rcd13ifvqct0","pricing_plan_id":"cebpf4jnsgd1na2vs0mg"},{"bike_id":"e6282093-23fb-41a9-859d-c0d9ad966535","system_id":"levelo_inurba_marseille","lat":43.31545,"lon":5.3823,"is_reserved":false,"is_disabled":false,"rental_uris":{"android":"levelo://app?vid=e6282093-23fb-41a9-859d-c0d9ad966535","ios":"levelo://app?vid=e6282093-23fb-41a9-859d-c0d9ad966535"},"vehicle_type_id":"4","last_reported":1746803433,"current_range_meters":13600,"station_id":"","pricing_plan_id":"cebpf4jnsgd1na2vs0mg"},{"bike_id":"3b97e1f0-de81-4158-a8d7-c239dede3a0f","system_id":"levelo_inurba_marseille","lat":43.29024,"lon":5.37565,"is_reserved":false,"is_disabled":false,"rental_uris":{"android":"levelo://app?vid=3b97e1f0-de81-4158-a8d7-c239dede3a0f","ios":"levelo://app?vid=3b97e1f0-de81-4158-a8d7-c239dede3a0f"},"vehicle_type_id":"4","last_reported":1746803433,"current_range_meters":14000,"station_id":"ce4bh692rcd13ifvqe90","pricing_plan_id":"cebpf4jnsgd1na2vs0mg"},{"bike_id":"6ad39717-20e3-4702-b52f-5c6afeb90f34","system_id":"levelo_inurba_marseille","lat":43.29086,"lon":5.38147,"is_reserved":false,"is_disabled":false,"rental_uris":{"android":"levelo://app?vid=6ad39717-20e3-4702-b52f-5c6afeb90f34","ios":"levelo://app?vid=6ad39717-20e3-4702-b52f-5c6afeb90f34"},"vehicle_type_id":"4","last_reported":1746803433,"current_range_meters":14000,"station_id":"ce4bh512rcd13ifvqe2g","pricing_plan_id":"cebpf4jnsgd1na2vs0mg"},{"bike_id":"afd03639-64be-4172-8ff2-afd9769e42b0","system_id":"levelo_inurba_marseille","lat":43.29298,"lon":5.37472,"is_reserved":false,"is_disabled":false,"rental_uris":{"android":"levelo://app?vid=afd03639-64be-4172-8ff2-afd9769e42b0","ios":"levelo://app?vid=afd03639-64be-4172-8ff2-afd9769e42b0"},"vehicle_type_id":"4","last_reported":1746803433,"current_range_meters":14000,"station_id":"ce4bgi12rcd13ifvqb70","pricing_plan_id":"cebpf4jnsgd1na2vs0mg"},{"bike_id":"e63b60b0-5923-4373-bcee-c8f0f75bc108","system_id":"levelo_inurba_marseille","lat":43.31324,"lon":5.39705,"is_reserved":false,"is_disabled":false,"rental_uris":{"android":"levelo://app?vid=e63b60b0-5923-4373-bcee-c8f0f75bc108","ios":"levelo://app?vid=e63b60b0-5923-4373-bcee-c8f0f75bc108"},"vehicle_type_id":"4","last_reported":1746803433,"current_range_meters":14400,"station_id":"ce4bgvp2rcd13ifvqcu0","pricing_plan_id":"cebpf4jnsgd1na2vs0mg"},{"bike_id":"0cba2588-f0b4-4c5b-aeab-0ec8bbbf3064","system_id":"levelo_inurba_marseille","lat":43.25587,"lon":5.38242,"is_reserved":false,"is_disabled":false,"rental_uris":{"android":"levelo://app?vid=0cba2588-f0b4-4c5b-aeab-0ec8bbbf3064","ios":"levelo://app?vid=0cba2588-f0b4-4c5b-aeab-0ec8bbbf3064"},"vehicle_type_id":"4","last_reported":1746803433,"current_range_meters":14400,"station_id":"ce4bhih2rcd13ifvqfs0","pricing_plan_id":"cebpf4jnsgd1na2vs0mg"},{"bike_id":"c45f3e38-7be8-4c2c-b503-67b6924070e7","system_id":"levelo_inurba_marseille","lat":43.29913,"lon":5.3748,"is_reserved":false,"is_disabled":false,"rental_uris":{"android":"levelo://app?vid=c45f3e38-7be8-4c2c-b503-67b6924070e7","ios":"levelo://app?vid=c45f3e38-7be8-4c2c-b503-67b6924070e7"},"vehicle_type_id":"4","last_reported":1746803433,"current_range_meters":14400,"station_id":"ce4bgjh2rcd13ifvqbg0","pricing_plan_id":"cebpf4jnsgd1na2vs0mg"},{"bike_id":"48aa4cf8-13c1-492f-9847-5a2026c312f6","system_id":"levelo_inurba_marseille","lat":43.27831,"lon":5.39215,"is_reserved":false,"is_disabled":false,"rental_uris":{"android":"levelo://app?vid=48aa4cf8-13c1-492f-9847-5a2026c312f6","ios":"levelo://app?vid=48aa4cf8-13c1-492f-9847-5a2026c312f6"},"vehicle_type_id":"4","last_reported":1746803433,"current_range_meters":14800,"station_id":"ce4bhjp2rcd13ifvqga0","pricing_plan_id":"cebpf4jnsgd1na2vs0mg"},{"bike_id":"6a87e8bd-689d-4bb4-893e-f1031249a475","system_id":"levelo_inurba_marseille","lat":43.27329,"lon":5.39089,"is_reserved":false,"is_disabled":false,"rental_uris":{"android":"levelo://app?vid=6a87e8bd-689d-4bb4-893e-f1031249a475","ios":"levelo://app?vid=6a87e8bd-689d-4bb4-893e-f1031249a475"},"vehicle_type_id":"4","last_reported":1746803433,"current_range_meters":14800,"station_id":"ce4bhgp2rcd13ifvqfe0","pricing_plan_id":"cebpf4jnsgd1na2vs0mg"},{"bike_id":"f969b97c-1c1a-4079-a8d8-16efa103018e","system_id":"levelo_inurba_marseille","lat":43.25939,"lon":5.40886,"is_reserved":false,"is_disabled":false,"rental_uris":{"android":"levelo://app?vid=f969b97c-1c1a-4079-a8d8-16efa103018e","ios":"levelo://app?vid=f969b97c-1c1a-4079-a8d8-16efa103018e"},"vehicle_type_id":"4","last_reported":1746803433,"current_range_meters":14800,"station_id":"ce4bhm92rcd13ifvqglg","pricing_plan_id":"cebpf4jnsgd1na2vs0mg"},{"bike_id":"d95f3fdb-7ca6-4fd0-a7a7-dafcd2cb686c","system_id":"levelo_inurba_marseille","lat":43.31225,"lon":5.3686,"is_reserved":false,"is_disabled":false,"rental_uris":{"android":"levelo://app?vid=d95f3fdb-7ca6-4fd0-a7a7-dafcd2cb686c","ios":"levelo://app?vid=d95f3fdb-7ca6-4fd0-a7a7-dafcd2cb686c"},"vehicle_type_id":"4","last_reported":1746803433,"current_range_meters":14800,"station_id":"ce4bgl92rcd13ifvqbq0","pricing_plan_id":"cebpf4jnsgd1na2vs0mg"},{"bike_id":"36289249-4039-40e0-a76e-1a5e9f604c50","system_id":"levelo_inurba_marseille","lat":43.29786,"lon":5.39341,"is_reserved":false,"is_disabled":false,"rental_uris":{"android":"levelo://app?vid=36289249-4039-40e0-a76e-1a5e9f604c50","ios":"levelo://app?vid=36289249-4039-40e0-a76e-1a5e9f604c50"},"vehicle_type_id":"4","last_reported":1746803433,"current_range_meters":15200,"station_id":"chh1huq6cuj3fo74tm60","pricing_plan_id":"cebpf4jnsgd1na2vs0mg"},{"bike_id":"dda1d4e0-47fb-49bb-a4fc-7ae5d4a69303","system_id":"levelo_inurba_marseille","lat":43.29773,"lon":5.37105,"is_reserved":false,"is_disabled":false,"rental_uris":{"android":"levelo://app?vid=dda1d4e0-47fb-49bb-a4fc-7ae5d4a69303","ios":"levelo://app?vid=dda1d4e0-47fb-49bb-a4fc-7ae5d4a69303"},"vehicle_type_id":"4","last_reported":1746803433,"current_range_meters":15200,"station_id":"ce4bgop2rcd13ifvqc1g","pricing_plan_id":"cebpf4jnsgd1na2vs0mg"},{"bike_id":"2d31a37a-e231-488d-b32a-338d1999e869","system_id":"levelo_inurba_marseille","lat":43.305478,"lon":5.367098,"is_reserved":false,"is_disabled":false,"rental_uris":{"android":"levelo://app?vid=2d31a37a-e231-488d-b32a-338d1999e869","ios":"levelo://app?vid=2d31a37a-e231-488d-b32a-338d1999e869"},"vehicle_type_id":"4","last_reported":1746803433,"current_range_meters":15200,"station_id":"ce4bgrp2rcd13ifvqc9g","pricing_plan_id":"cebpf4jnsgd1na2vs0mg"},{"bike_id":"d57dd267-6380-4564-bbe3-3492c5e151ff","system_id":"levelo_inurba_marseille","lat":43.28039,"lon":5.36944,"is_reserved":false,"is_disabled":false,"rental_uris":{"android":"levelo://app?vid=d57dd267-6380-4564-bbe3-3492c5e151ff","ios":"levelo://app?vid=d57dd267-6380-4564-bbe3-3492c5e151ff"},"vehicle_type_id":"4","last_reported":1746803433,"current_range_meters":15200,"station_id":"ce4bha12rcd13ifvqef0","pricing_plan_id":"cebpf4jnsgd1na2vs0mg"},{"bike_id":"41abf7b5-86ad-4d45-bf93-a0b6661cb999","system_id":"levelo_inurba_marseille","lat":43.29014,"lon":5.38631,"is_reserved":false,"is_disabled":false,"rental_uris":{"android":"levelo://app?vid=41abf7b5-86ad-4d45-bf93-a0b6661cb999","ios":"levelo://app?vid=41abf7b5-86ad-4d45-bf93-a0b6661cb999"},"vehicle_type_id":"4","last_reported":1746803433,"current_range_meters":16000,"station_id":"ce4bh4p2rcd13ifvqe0g","pricing_plan_id":"cebpf4jnsgd1na2vs0mg"},{"bike_id":"3b71b76a-e628-44f1-bfe5-63f5b202d3de","system_id":"levelo_inurba_marseille","lat":43.28979,"lon":5.37847,"is_reserved":false,"is_disabled":false,"rental_uris":{"android":"levelo://app?vid=3b71b76a-e628-44f1-bfe5-63f5b202d3de","ios":"levelo://app?vid=3b71b76a-e628-44f1-bfe5-63f5b202d3de"},"vehicle_type_id":"4","last_reported":1746803433,"current_range_meters":16000,"station_id":"ce4bh9p2rcd13ifvqed0","pricing_plan_id":"cebpf4jnsgd1na2vs0mg"},{"bike_id":"dddbe910-d9d3-4ff2-8337-6e18e8a1a107","system_id":"levelo_inurba_marseille","lat":43.239685,"lon":5.366399,"is_reserved":false,"is_disabled":false,"rental_uris":{"android":"levelo://app?vid=dddbe910-d9d3-4ff2-8337-6e18e8a1a107","ios":"levelo://app?vid=dddbe910-d9d3-4ff2-8337-6e18e8a1a107"},"vehicle_type_id":"4","last_reported":1746803433,"current_range_meters":16000,"station_id":"ce4bhi12rcd13ifvqfp0","pricing_plan_id":"cebpf4jnsgd1na2vs0mg"},{"bike_id":"71eafe54-f3d2-4978-a324-05892d411c7d","system_id":"levelo_inurba_marseille","lat":43.26242,"lon":5.40424,"is_reserved":false,"is_disabled":false,"rental_uris":{"android":"levelo://app?vid=71eafe54-f3d2-4978-a324-05892d411c7d","ios":"levelo://app?vid=71eafe54-f3d2-4978-a324-05892d411c7d"},"vehicle_type_id":"4","last_reported":1746803433,"current_range_meters":16000,"station_id":"ce4bhmh2rcd13ifvqgmg","pricing_plan_id":"cebpf4jnsgd1na2vs0mg"},{"bike_id":"1f67836b-1b40-476f-9a50-7f6ff65e0774","system_id":"levelo_inurba_marseille","lat":43.32276,"lon":5.38299,"is_reserved":false,"is_disabled":false,"rental_uris":{"android":"levelo://app?vid=1f67836b-1b40-476f-9a50-7f6ff65e0774","ios":"levelo://app?vid=1f67836b-1b40-476f-9a50-7f6ff65e0774"},"vehicle_type_id":"4","last_reported":1746803433,"current_range_meters":16000,"station_id":"ce4bhr12rcd13ifvqhqg","pricing_plan_id":"cebpf4jnsgd1na2vs0mg"},{"bike_id":"e0a47593-7c88-426a-8486-54137388fa50","system_id":"levelo_inurba_marseille","lat":43.286107,"lon":5.370674,"is_reserved":false,"is_disabled":false,"rental_uris":{"android":"levelo://app?vid=e0a47593-7c88-426a-8486-54137388fa50","ios":"levelo://app?vid=e0a47593-7c88-426a-8486-54137388fa50"},"vehicle_type_id":"4","last_reported":1746803433,"current_range_meters":16400,"station_id":"ce4bh412rcd13ifvqds0","pricing_plan_id":"cebpf4jnsgd1na2vs0mg"},{"bike_id":"c9f5ad81-5948-4954-9b26-84830816572a","system_id":"levelo_inurba_marseille","lat":43.21751,"lon":5.34597,"is_reserved":false,"is_disabled":false,"rental_uris":{"android":"levelo://app?vid=c9f5ad81-5948-4954-9b26-84830816572a","ios":"levelo://app?vid=c9f5ad81-5948-4954-9b26-84830816572a"},"vehicle_type_id":"4","last_reported":1746803433,"current_range_meters":16400,"station_id":"st_cvj6r9ubvosntc0bgbag","pricing_plan_id":"cebpf4jnsgd1na2vs0mg"},{"bike_id":"577b6fa1-01aa-4b90-beb1-386dce7ef354","system_id":"levelo_inurba_marseille","lat":43.25949,"lon":5.40914,"is_reserved":false,"is_disabled":false,"rental_uris":{"android":"levelo://app?vid=577b6fa1-01aa-4b90-beb1-386dce7ef354","ios":"levelo://app?vid=577b6fa1-01aa-4b90-beb1-386dce7ef354"},"vehicle_type_id":"4","last_reported":1746803433,"current_range_meters":16400,"station_id":"ce4bhm92rcd13ifvqglg","pricing_plan_id":"cebpf4jnsgd1na2vs0mg"},{"bike_id":"7a1be62d-d6e7-43c4-b7d9-c6816f6cc61d","system_id":"levelo_inurba_marseille","lat":43.30926,"lon":5.40147,"is_reserved":false,"is_disabled":false,"rental_uris":{"android":"levelo://app?vid=7a1be62d-d6e7-43c4-b7d9-c6816f6cc61d","ios":"levelo://app?vid=7a1be62d-d6e7-43c4-b7d9-c6816f6cc61d"},"vehicle_type_id":"4","last_reported":1746803433,"current_range_meters":16800,"station_id":"ce4bgvp2rcd13ifvqct0","pricing_plan_id":"cebpf4jnsgd1na2vs0mg"},{"bike_id":"0bdcdff3-8294-49b9-80e9-145bbc1ad711","system_id":"levelo_inurba_marseille","lat":43.32247,"lon":5.36685,"is_reserved":false,"is_disabled":false,"rental_uris":{"android":"levelo://app?vid=0bdcdff3-8294-49b9-80e9-145bbc1ad711","ios":"levelo://app?vid=0bdcdff3-8294-49b9-80e9-145bbc1ad711"},"vehicle_type_id":"4","last_reported":1746803433,"current_range_meters":16800,"station_id":"","pricing_plan_id":"cebpf4jnsgd1na2vs0mg"},{"bike_id":"b992555e-2b73-4f07-bb2a-e9a8b263b103","system_id":"levelo_inurba_marseille","lat":43.23967,"lon":5.36641,"is_reserved":false,"is_disabled":false,"rental_uris":{"android":"levelo://app?vid=b992555e-2b73-4f07-bb2a-e9a8b263b103","ios":"levelo://app?vid=b992555e-2b73-4f07-bb2a-e9a8b263b103"},"vehicle_type_id":"4","last_reported":1746803433,"current_range_meters":16800,"station_id":"ce4bhi12rcd13ifvqfp0","pricing_plan_id":"cebpf4jnsgd1na2vs0mg"},{"bike_id":"cf6bc856-5840-4cc7-87f8-ebcb25a380e4","system_id":"levelo_inurba_marseille","lat":43.25574,"lon":5.38241,"is_reserved":false,"is_disabled":false,"rental_uris":{"android":"levelo://app?vid=cf6bc856-5840-4cc7-87f8-ebcb25a380e4","ios":"levelo://app?vid=cf6bc856-5840-4cc7-87f8-ebcb25a380e4"},"vehicle_type_id":"4","last_reported":1746803433,"current_range_meters":16800,"station_id":"ce4bhih2rcd13ifvqfs0","pricing_plan_id":"cebpf4jnsgd1na2vs0mg"},{"bike_id":"019b96bc-fd6f-4055-95fb-5888b667414b","system_id":"levelo_inurba_marseille","lat":43.2978,"lon":5.38112,"is_reserved":false,"is_disabled":false,"rental_uris":{"android":"levelo://app?vid=019b96bc-fd6f-4055-95fb-5888b667414b","ios":"levelo://app?vid=019b96bc-fd6f-4055-95fb-5888b667414b"},"vehicle_type_id":"4","last_reported":1746803433,"current_range_meters":16800,"station_id":"ce4bgip2rcd13ifvqbb0","pricing_plan_id":"cebpf4jnsgd1na2vs0mg"},{"bike_id":"9a919805-a5a4-497f-a929-c9e08814771d","system_id":"levelo_inurba_marseille","lat":43.27986,"lon":5.41663,"is_reserved":false,"is_disabled":true,"rental_uris":{"android":"levelo://app?vid=9a919805-a5a4-497f-a929-c9e08814771d","ios":"levelo://app?vid=9a919805-a5a4-497f-a929-c9e08814771d"},"vehicle_type_id":"4","last_reported":1746803433,"current_range_meters":16800,"station_id":"ce4bho12rcd13ifvqh1g","pricing_plan_id":"cebpf4jnsgd1na2vs0mg"},{"bike_id":"245f20b5-1965-4966-9329-db69f1936ed6","system_id":"levelo_inurba_marseille","lat":43.29011,"lon":5.35608,"is_reserved":false,"is_disabled":false,"rental_uris":{"android":"levelo://app?vid=245f20b5-1965-4966-9329-db69f1936ed6","ios":"levelo://app?vid=245f20b5-1965-4966-9329-db69f1936ed6"},"vehicle_type_id":"4","last_reported":1746803433,"current_range_meters":16800,"station_id":"ce4bhb92rcd13ifvqen0","pricing_plan_id":"cebpf4jnsgd1na2vs0mg"},{"bike_id":"53461a45-8b50-4620-9ae1-d4232e8275a1","system_id":"levelo_inurba_marseille","lat":43.31269,"lon":5.40177,"is_reserved":false,"is_disabled":false,"rental_uris":{"android":"levelo://app?vid=53461a45-8b50-4620-9ae1-d4232e8275a1","ios":"levelo://app?vid=53461a45-8b50-4620-9ae1-d4232e8275a1"},"vehicle_type_id":"4","last_reported":1746803433,"current_range_meters":16800,"station_id":"ce4bh092rcd13ifvqd30","pricing_plan_id":"cebpf4jnsgd1na2vs0mg"},{"bike_id":"efd0c34b-e2cc-4bb9-b93d-a573eeedfbd3","system_id":"levelo_inurba_marseille","lat":43.21193,"lon":5.3507,"is_reserved":false,"is_disabled":false,"rental_uris":{"android":"levelo://app?vid=efd0c34b-e2cc-4bb9-b93d-a573eeedfbd3","ios":"levelo://app?vid=efd0c34b-e2cc-4bb9-b93d-a573eeedfbd3"},"vehicle_type_id":"4","last_reported":1746803433,"current_range_meters":16800,"station_id":"st_cvj6sg6p6f1abm77japg","pricing_plan_id":"cebpf4jnsgd1na2vs0mg"},{"bike_id":"19fbfea0-3b16-459f-b5df-95ecc2acee0f","system_id":"levelo_inurba_marseille","lat":43.27062,"lon":5.40271,"is_reserved":false,"is_disabled":false,"rental_uris":{"android":"levelo://app?vid=19fbfea0-3b16-459f-b5df-95ecc2acee0f","ios":"levelo://app?vid=19fbfea0-3b16-459f-b5df-95ecc2acee0f"},"vehicle_type_id":"4","last_reported":1746803433,"current_range_meters":17200,"station_id":"ce4bhk92rcd13ifvqgc0","pricing_plan_id":"cebpf4jnsgd1na2vs0mg"},{"bike_id":"6e24abe9-ff49-40a5-bfac-cd5aacf6ebea","system_id":"levelo_inurba_marseille","lat":43.22931,"lon":5.35378,"is_reserved":false,"is_disabled":false,"rental_uris":{"android":"levelo://app?vid=6e24abe9-ff49-40a5-bfac-cd5aacf6ebea","ios":"levelo://app?vid=6e24abe9-ff49-40a5-bfac-cd5aacf6ebea"},"vehicle_type_id":"4","last_reported":1746803433,"current_range_meters":17200,"station_id":"cpo3532slgdg3j2ikp40","pricing_plan_id":"cebpf4jnsgd1na2vs0mg"},{"bike_id":"b6446285-e6c3-4ee4-af0e-71fa7c8f43d1","system_id":"levelo_inurba_marseille","lat":43.30536,"lon":5.38427,"is_reserved":false,"is_disabled":false,"rental_uris":{"android":"levelo://app?vid=b6446285-e6c3-4ee4-af0e-71fa7c8f43d1","ios":"levelo://app?vid=b6446285-e6c3-4ee4-af0e-71fa7c8f43d1"},"vehicle_type_id":"4","last_reported":1746803433,"current_range_meters":17200,"station_id":"ce4bgg92rcd13ifvqb30","pricing_plan_id":"cebpf4jnsgd1na2vs0mg"},{"bike_id":"7911d9df-be53-4908-8d00-3efa42a5a46d","system_id":"levelo_inurba_marseille","lat":43.29907,"lon":5.4365,"is_reserved":false,"is_disabled":false,"rental_uris":{"android":"levelo://app?vid=7911d9df-be53-4908-8d00-3efa42a5a46d","ios":"levelo://app?vid=7911d9df-be53-4908-8d00-3efa42a5a46d"},"vehicle_type_id":"4","last_reported":1746803433,"current_range_meters":17200,"station_id":"ce4bhpp2rcd13ifvqhfg","pricing_plan_id":"cebpf4jnsgd1na2vs0mg"},{"bike_id":"d83f83de-5648-4dfb-a106-77087748e1c7","system_id":"levelo_inurba_marseille","lat":43.31077,"lon":5.38356,"is_reserved":false,"is_disabled":false,"rental_uris":{"android":"levelo://app?vid=d83f83de-5648-4dfb-a106-77087748e1c7","ios":"levelo://app?vid=d83f83de-5648-4dfb-a106-77087748e1c7"},"vehicle_type_id":"4","last_reported":1746803433,"current_range_meters":17200,"station_id":"ce4bgv92rcd13ifvqcr0","pricing_plan_id":"cebpf4jnsgd1na2vs0mg"},{"bike_id":"2fad4681-0200-41a5-a3ab-13c6018ac41f","system_id":"levelo_inurba_marseille","lat":43.2901,"lon":5.35602,"is_reserved":false,"is_disabled":false,"rental_uris":{"android":"levelo://app?vid=2fad4681-0200-41a5-a3ab-13c6018ac41f","ios":"levelo://app?vid=2fad4681-0200-41a5-a3ab-13c6018ac41f"},"vehicle_type_id":"4","last_reported":1746803433,"current_range_meters":17600,"station_id":"ce4bhb92rcd13ifvqen0","pricing_plan_id":"cebpf4jnsgd1na2vs0mg"},{"bike_id":"881c097a-b180-44f5-9d6b-1f54f714978b","system_id":"levelo_inurba_marseille","lat":43.27086,"lon":5.42277,"is_reserved":false,"is_disabled":false,"rental_uris":{"android":"levelo://app?vid=881c097a-b180-44f5-9d6b-1f54f714978b","ios":"levelo://app?vid=881c097a-b180-44f5-9d6b-1f54f714978b"},"vehicle_type_id":"4","last_reported":1746803433,"current_range_meters":17600,"station_id":"ce4bhk92rcd13ifvqgb0","pricing_plan_id":"cebpf4jnsgd1na2vs0mg"},{"bike_id":"2123204f-4eac-47d2-b050-b6c347eaee89","system_id":"levelo_inurba_marseille","lat":43.23186,"lon":5.39981,"is_reserved":false,"is_disabled":false,"rental_uris":{"android":"levelo://app?vid=2123204f-4eac-47d2-b050-b6c347eaee89","ios":"levelo://app?vid=2123204f-4eac-47d2-b050-b6c347eaee89"},"vehicle_type_id":"4","last_reported":1746803433,"current_range_meters":17600,"station_id":"ce4bhn12rcd13ifvqgqg","pricing_plan_id":"cebpf4jnsgd1na2vs0mg"},{"bike_id":"e089d9b3-9c52-459c-b665-2faf9f46df43","system_id":"levelo_inurba_marseille","lat":43.27071,"lon":5.42277,"is_reserved":false,"is_disabled":false,"rental_uris":{"android":"levelo://app?vid=e089d9b3-9c52-459c-b665-2faf9f46df43","ios":"levelo://app?vid=e089d9b3-9c52-459c-b665-2faf9f46df43"},"vehicle_type_id":"4","last_reported":1746803433,"current_range_meters":17600,"station_id":"ce4bhk92rcd13ifvqgb0","pricing_plan_id":"cebpf4jnsgd1na2vs0mg"},{"bike_id":"071a7087-60a6-48df-a85c-9056ab58fb1b","system_id":"levelo_inurba_marseille","lat":43.28469,"lon":5.38433,"is_reserved":false,"is_disabled":false,"rental_uris":{"android":"levelo://app?vid=071a7087-60a6-48df-a85c-9056ab58fb1b","ios":"levelo://app?vid=071a7087-60a6-48df-a85c-9056ab58fb1b"},"vehicle_type_id":"4","last_reported":1746803433,"current_range_meters":18000,"station_id":"ce4bh512rcd13ifvqe3g","pricing_plan_id":"cebpf4jnsgd1na2vs0mg"},{"bike_id":"9d5f51b6-844c-4d70-a1db-8fd8fc1a0846","system_id":"levelo_inurba_marseille","lat":43.32649,"lon":5.41032,"is_reserved":false,"is_disabled":false,"rental_uris":{"android":"levelo://app?vid=9d5f51b6-844c-4d70-a1db-8fd8fc1a0846","ios":"levelo://app?vid=9d5f51b6-844c-4d70-a1db-8fd8fc1a0846"},"vehicle_type_id":"4","last_reported":1746803433,"current_range_meters":18000,"station_id":"ce4bhpp2rcd13ifvqhgg","pricing_plan_id":"cebpf4jnsgd1na2vs0mg"},{"bike_id":"c65732d7-d6e4-4134-b90d-85c2276db215","system_id":"levelo_inurba_marseille","lat":43.2623,"lon":5.4048,"is_reserved":false,"is_disabled":false,"rental_uris":{"android":"levelo://app?vid=c65732d7-d6e4-4134-b90d-85c2276db215","ios":"levelo://app?vid=c65732d7-d6e4-4134-b90d-85c2276db215"},"vehicle_type_id":"4","last_reported":1746803433,"current_range_meters":18000,"station_id":"ce4bhmh2rcd13ifvqgmg","pricing_plan_id":"cebpf4jnsgd1na2vs0mg"},{"bike_id":"1313d0e5-2911-481e-90b8-1b869d095531","system_id":"levelo_inurba_marseille","lat":43.30886,"lon":5.37202,"is_reserved":false,"is_disabled":false,"rental_uris":{"android":"levelo://app?vid=1313d0e5-2911-481e-90b8-1b869d095531","ios":"levelo://app?vid=1313d0e5-2911-481e-90b8-1b869d095531"},"vehicle_type_id":"4","last_reported":1746803433,"current_range_meters":18000,"station_id":"ce4bguh2rcd13ifvqckg","pricing_plan_id":"cebpf4jnsgd1na2vs0mg"},{"bike_id":"e7c39c03-ecdf-420f-8127-d1a8dade25f8","system_id":"levelo_inurba_marseille","lat":43.29581,"lon":5.36747,"is_reserved":false,"is_disabled":false,"rental_uris":{"android":"levelo://app?vid=e7c39c03-ecdf-420f-8127-d1a8dade25f8","ios":"levelo://app?vid=e7c39c03-ecdf-420f-8127-d1a8dade25f8"},"vehicle_type_id":"4","last_reported":1746803433,"current_range_meters":18000,"station_id":"ce4bgph2rcd13ifvqc2g","pricing_plan_id":"cebpf4jnsgd1na2vs0mg"},{"bike_id":"3c53e76e-b2b6-4175-87e9-db930cf91cc8","system_id":"levelo_inurba_marseille","lat":43.29304,"lon":5.37173,"is_reserved":false,"is_disabled":false,"rental_uris":{"android":"levelo://app?vid=3c53e76e-b2b6-4175-87e9-db930cf91cc8","ios":"levelo://app?vid=3c53e76e-b2b6-4175-87e9-db930cf91cc8"},"vehicle_type_id":"4","last_reported":1746803433,"current_range_meters":18000,"station_id":"ce4bgh92rcd13ifvqb40","pricing_plan_id":"cebpf4jnsgd1na2vs0mg"},{"bike_id":"bb495b1d-188b-49e3-8195-6b30e0477e72","system_id":"levelo_inurba_marseille","lat":43.25016,"lon":5.38936,"is_reserved":false,"is_disabled":false,"rental_uris":{"android":"levelo://app?vid=bb495b1d-188b-49e3-8195-6b30e0477e72","ios":"levelo://app?vid=bb495b1d-188b-49e3-8195-6b30e0477e72"},"vehicle_type_id":"4","last_reported":1746803433,"current_range_meters":18000,"station_id":"ce4bhgp2rcd13ifvqfd0","pricing_plan_id":"cebpf4jnsgd1na2vs0mg"},{"bike_id":"11eb7e10-6e14-46c9-a77d-eae4cbb99313","system_id":"levelo_inurba_marseille","lat":43.32485,"lon":5.36568,"is_reserved":false,"is_disabled":false,"rental_uris":{"android":"levelo://app?vid=11eb7e10-6e14-46c9-a77d-eae4cbb99313","ios":"levelo://app?vid=11eb7e10-6e14-46c9-a77d-eae4cbb99313"},"vehicle_type_id":"4","last_reported":1746803433,"current_range_meters":18000,"station_id":"ce4bhs12rcd13ifvqhvg","pricing_plan_id":"cebpf4jnsgd1na2vs0mg"},{"bike_id":"ba67fa6b-678e-4b80-9681-871b5a02307d","system_id":"levelo_inurba_marseille","lat":43.3172,"lon":5.424065,"is_reserved":false,"is_disabled":false,"rental_uris":{"android":"levelo://app?vid=ba67fa6b-678e-4b80-9681-871b5a02307d","ios":"levelo://app?vid=ba67fa6b-678e-4b80-9681-871b5a02307d"},"vehicle_type_id":"4","last_reported":1746803433,"current_range_meters":18000,"station_id":"ce4bhp92rcd13ifvqhbg","pricing_plan_id":"cebpf4jnsgd1na2vs0mg"},{"bike_id":"47f295dd-4d08-4591-b5b0-d872e15fe70a","system_id":"levelo_inurba_marseille","lat":43.29421,"lon":5.38625,"is_reserved":false,"is_disabled":false,"rental_uris":{"android":"levelo://app?vid=47f295dd-4d08-4591-b5b0-d872e15fe70a","ios":"levelo://app?vid=47f295dd-4d08-4591-b5b0-d872e15fe70a"},"vehicle_type_id":"4","last_reported":1746803433,"current_range_meters":18000,"station_id":"ce4bh2h2rcd13ifvqdh0","pricing_plan_id":"cebpf4jnsgd1na2vs0mg"},{"bike_id":"fc2577e7-1497-425b-9d4f-ab8d7dc843c6","system_id":"levelo_inurba_marseille","lat":43.33771,"lon":5.37485,"is_reserved":false,"is_disabled":false,"rental_uris":{"android":"levelo://app?vid=fc2577e7-1497-425b-9d4f-ab8d7dc843c6","ios":"levelo://app?vid=fc2577e7-1497-425b-9d4f-ab8d7dc843c6"},"vehicle_type_id":"4","last_reported":1746803433,"current_range_meters":18800,"station_id":"","pricing_plan_id":"cebpf4jnsgd1na2vs0mg"},{"bike_id":"e90e6229-3161-4e01-8a9d-f04571c861dc","system_id":"levelo_inurba_marseille","lat":43.32336,"lon":5.36701,"is_reserved":false,"is_disabled":false,"rental_uris":{"android":"levelo://app?vid=e90e6229-3161-4e01-8a9d-f04571c861dc","ios":"levelo://app?vid=e90e6229-3161-4e01-8a9d-f04571c861dc"},"vehicle_type_id":"4","last_reported":1746803433,"current_range_meters":18800,"station_id":"ce4bhsh2rcd13ifvqi2g","pricing_plan_id":"cebpf4jnsgd1na2vs0mg"},{"bike_id":"17508b04-f061-4d8e-951a-e24982101938","system_id":"levelo_inurba_marseille","lat":43.27923,"lon":5.39576,"is_reserved":false,"is_disabled":false,"rental_uris":{"android":"levelo://app?vid=17508b04-f061-4d8e-951a-e24982101938","ios":"levelo://app?vid=17508b04-f061-4d8e-951a-e24982101938"},"vehicle_type_id":"4","last_reported":1746803433,"current_range_meters":18800,"station_id":"ce4bhf92rcd13ifvqf40","pricing_plan_id":"cebpf4jnsgd1na2vs0mg"},{"bike_id":"83645043-14d9-4196-a00c-5cc7e92a5c5f","system_id":"levelo_inurba_marseille","lat":43.30475,"lon":5.37913,"is_reserved":false,"is_disabled":false,"rental_uris":{"android":"levelo://app?vid=83645043-14d9-4196-a00c-5cc7e92a5c5f","ios":"levelo://app?vid=83645043-14d9-4196-a00c-5cc7e92a5c5f"},"vehicle_type_id":"4","last_reported":1746803433,"current_range_meters":18800,"station_id":"ce4bgup2rcd13ifvqcn0","pricing_plan_id":"cebpf4jnsgd1na2vs0mg"},{"bike_id":"1935cf09-1bf1-47f0-b89c-eceecac44d7a","system_id":"levelo_inurba_marseille","lat":43.24662,"lon":5.38166,"is_reserved":false,"is_disabled":false,"rental_uris":{"android":"levelo://app?vid=1935cf09-1bf1-47f0-b89c-eceecac44d7a","ios":"levelo://app?vid=1935cf09-1bf1-47f0-b89c-eceecac44d7a"},"vehicle_type_id":"4","last_reported":1746803433,"current_range_meters":18800,"station_id":"ce4bhih2rcd13ifvqfr0","pricing_plan_id":"cebpf4jnsgd1na2vs0mg"},{"bike_id":"545e5687-b7df-4883-81be-75a8925d5f91","system_id":"levelo_inurba_marseille","lat":43.337444,"lon":5.374475,"is_reserved":false,"is_disabled":false,"rental_uris":{"android":"levelo://app?vid=545e5687-b7df-4883-81be-75a8925d5f91","ios":"levelo://app?vid=545e5687-b7df-4883-81be-75a8925d5f91"},"vehicle_type_id":"4","last_reported":1746803433,"current_range_meters":18800,"station_id":"","pricing_plan_id":"cebpf4jnsgd1na2vs0mg"},{"bike_id":"94cd8564-a06e-4cc5-88d9-996fbf8639fe","system_id":"levelo_inurba_marseille","lat":43.21749,"lon":5.34605,"is_reserved":false,"is_disabled":true,"rental_uris":{"android":"levelo://app?vid=94cd8564-a06e-4cc5-88d9-996fbf8639fe","ios":"levelo://app?vid=94cd8564-a06e-4cc5-88d9-996fbf8639fe"},"vehicle_type_id":"4","last_reported":1746803433,"current_range_meters":19200,"station_id":"st_cvj6r9ubvosntc0bgbag","pricing_plan_id":"cebpf4jnsgd1na2vs0mg"},{"bike_id":"e0f0158a-f153-4aee-92fe-983606455577","system_id":"levelo_inurba_marseille","lat":43.26806,"lon":5.40268,"is_reserved":false,"is_disabled":false,"rental_uris":{"android":"levelo://app?vid=e0f0158a-f153-4aee-92fe-983606455577","ios":"levelo://app?vid=e0f0158a-f153-4aee-92fe-983606455577"},"vehicle_type_id":"4","last_reported":1746803433,"current_range_meters":19200,"station_id":"ce501612rcd8frsf0b60","pricing_plan_id":"cebpf4jnsgd1na2vs0mg"},{"bike_id":"b13d2bbf-4690-48c9-8ac4-849f269373a4","system_id":"levelo_inurba_marseille","lat":43.28465,"lon":5.3589,"is_reserved":false,"is_disabled":false,"rental_uris":{"android":"levelo://app?vid=b13d2bbf-4690-48c9-8ac4-849f269373a4","ios":"levelo://app?vid=b13d2bbf-4690-48c9-8ac4-849f269373a4"},"vehicle_type_id":"4","last_reported":1746803433,"current_range_meters":19200,"station_id":"ce4bhah2rcd13ifvqei0","pricing_plan_id":"cebpf4jnsgd1na2vs0mg"},{"bike_id":"fca7529b-acca-44a2-b5f2-f4a83a21c82e","system_id":"levelo_inurba_marseille","lat":43.29301,"lon":5.37465,"is_reserved":false,"is_disabled":false,"rental_uris":{"android":"levelo://app?vid=fca7529b-acca-44a2-b5f2-f4a83a21c82e","ios":"levelo://app?vid=fca7529b-acca-44a2-b5f2-f4a83a21c82e"},"vehicle_type_id":"4","last_reported":1746803433,"current_range_meters":19200,"station_id":"ce4bgi12rcd13ifvqb70","pricing_plan_id":"cebpf4jnsgd1na2vs0mg"},{"bike_id":"5f27aaee-8f53-4824-b769-d94b5b5cf7d9","system_id":"levelo_inurba_marseille","lat":43.30466,"lon":5.37903,"is_reserved":false,"is_disabled":false,"rental_uris":{"android":"levelo://app?vid=5f27aaee-8f53-4824-b769-d94b5b5cf7d9","ios":"levelo://app?vid=5f27aaee-8f53-4824-b769-d94b5b5cf7d9"},"vehicle_type_id":"4","last_reported":1746803433,"current_range_meters":19200,"station_id":"ce4bgup2rcd13ifvqcn0","pricing_plan_id":"cebpf4jnsgd1na2vs0mg"},{"bike_id":"66d39f5f-1aac-423b-9ea7-bf9c1b0e5079","system_id":"levelo_inurba_marseille","lat":43.27489,"lon":5.41188,"is_reserved":false,"is_disabled":false,"rental_uris":{"android":"levelo://app?vid=66d39f5f-1aac-423b-9ea7-bf9c1b0e5079","ios":"levelo://app?vid=66d39f5f-1aac-423b-9ea7-bf9c1b0e5079"},"vehicle_type_id":"4","last_reported":1746803433,"current_range_meters":19200,"station_id":"","pricing_plan_id":"cebpf4jnsgd1na2vs0mg"},{"bike_id":"974f16b5-8e23-4e1b-8aab-5c9e52e62cd1","system_id":"levelo_inurba_marseille","lat":43.30138,"lon":5.38076,"is_reserved":false,"is_disabled":false,"rental_uris":{"android":"levelo://app?vid=974f16b5-8e23-4e1b-8aab-5c9e52e62cd1","ios":"levelo://app?vid=974f16b5-8e23-4e1b-8aab-5c9e52e62cd1"},"vehicle_type_id":"4","last_reported":1746803433,"current_range_meters":19600,"station_id":"ce4bgjp2rcd13ifvqbh0","pricing_plan_id":"cebpf4jnsgd1na2vs0mg"},{"bike_id":"c31504de-bb52-40bd-8b51-98ea8e8667e8","system_id":"levelo_inurba_marseille","lat":43.286047,"lon":5.370648,"is_reserved":false,"is_disabled":false,"rental_uris":{"android":"levelo://app?vid=c31504de-bb52-40bd-8b51-98ea8e8667e8","ios":"levelo://app?vid=c31504de-bb52-40bd-8b51-98ea8e8667e8"},"vehicle_type_id":"4","last_reported":1746803433,"current_range_meters":19600,"station_id":"ce4bht12rcd13ifvqi60","pricing_plan_id":"cebpf4jnsgd1na2vs0mg"},{"bike_id":"c282ab10-140b-4575-9507-5b6f87f9934d","system_id":"levelo_inurba_marseille","lat":43.25822,"lon":5.39439,"is_reserved":false,"is_disabled":false,"rental_uris":{"android":"levelo://app?vid=c282ab10-140b-4575-9507-5b6f87f9934d","ios":"levelo://app?vid=c282ab10-140b-4575-9507-5b6f87f9934d"},"vehicle_type_id":"4","last_reported":1746803433,"current_range_meters":19600,"station_id":"ce4bhip2rcd13ifvqft0","pricing_plan_id":"cebpf4jnsgd1na2vs0mg"},{"bike_id":"b83a54f4-4311-42df-baa6-bea127e73081","system_id":"levelo_inurba_marseille","lat":43.30879,"lon":5.37195,"is_reserved":false,"is_disabled":false,"rental_uris":{"android":"levelo://app?vid=b83a54f4-4311-42df-baa6-bea127e73081","ios":"levelo://app?vid=b83a54f4-4311-42df-baa6-bea127e73081"},"vehicle_type_id":"4","last_reported":1746803433,"current_range_meters":19600,"station_id":"ce4bguh2rcd13ifvqckg","pricing_plan_id":"cebpf4jnsgd1na2vs0mg"},{"bike_id":"9b84e65f-2424-4f8e-b51b-21355d123536","system_id":"levelo_inurba_marseille","lat":43.31497,"lon":5.37273,"is_reserved":false,"is_disabled":false,"rental_uris":{"android":"levelo://app?vid=9b84e65f-2424-4f8e-b51b-21355d123536","ios":"levelo://app?vid=9b84e65f-2424-4f8e-b51b-21355d123536"},"vehicle_type_id":"4","last_reported":1746803433,"current_range_meters":20000,"station_id":"ce4bgt12rcd13ifvqcd0","pricing_plan_id":"cebpf4jnsgd1na2vs0mg"},{"bike_id":"c0128f3e-a761-43f8-affb-ff5be3db4dfb","system_id":"levelo_inurba_marseille","lat":43.29605,"lon":5.38105,"is_reserved":false,"is_disabled":false,"rental_uris":{"android":"levelo://app?vid=c0128f3e-a761-43f8-affb-ff5be3db4dfb","ios":"levelo://app?vid=c0128f3e-a761-43f8-affb-ff5be3db4dfb"},"vehicle_type_id":"4","last_reported":1746803433,"current_range_meters":20000,"station_id":"ce4bgl12rcd13ifvqbo0","pricing_plan_id":"cebpf4jnsgd1na2vs0mg"},{"bike_id":"85682a22-ab3d-414a-90ee-ec8f3495826b","system_id":"levelo_inurba_marseille","lat":43.2926,"lon":5.38442,"is_reserved":false,"is_disabled":false,"rental_uris":{"android":"levelo://app?vid=85682a22-ab3d-414a-90ee-ec8f3495826b","ios":"levelo://app?vid=85682a22-ab3d-414a-90ee-ec8f3495826b"},"vehicle_type_id":"4","last_reported":1746803433,"current_range_meters":20000,"station_id":"ce4bh692rcd13ifvqea0","pricing_plan_id":"cebpf4jnsgd1na2vs0mg"},{"bike_id":"8610d7ba-975a-47cd-b350-5a337faa2470","system_id":"levelo_inurba_marseille","lat":43.28418,"lon":5.34985,"is_reserved":false,"is_disabled":false,"rental_uris":{"android":"levelo://app?vid=8610d7ba-975a-47cd-b350-5a337faa2470","ios":"levelo://app?vid=8610d7ba-975a-47cd-b350-5a337faa2470"},"vehicle_type_id":"4","last_reported":1746803433,"current_range_meters":20000,"station_id":"ce4bhbh2rcd13ifvqepg","pricing_plan_id":"cebpf4jnsgd1na2vs0mg"},{"bike_id":"a2ecf5ed-ee38-492c-a3d4-7b451966edc4","system_id":"levelo_inurba_marseille","lat":43.30877,"lon":5.39664,"is_reserved":false,"is_disabled":false,"rental_uris":{"android":"levelo://app?vid=a2ecf5ed-ee38-492c-a3d4-7b451966edc4","ios":"levelo://app?vid=a2ecf5ed-ee38-492c-a3d4-7b451966edc4"},"vehicle_type_id":"4","last_reported":1746803433,"current_range_meters":20000,"station_id":"ce4bh012rcd13ifvqcv0","pricing_plan_id":"cebpf4jnsgd1na2vs0mg"},{"bike_id":"77b48df3-3ba3-4210-8658-624cbc9c424a","system_id":"levelo_inurba_marseille","lat":43.25744,"lon":5.41075,"is_reserved":false,"is_disabled":false,"rental_uris":{"android":"levelo://app?vid=77b48df3-3ba3-4210-8658-624cbc9c424a","ios":"levelo://app?vid=77b48df3-3ba3-4210-8658-624cbc9c424a"},"vehicle_type_id":"4","last_reported":1746803433,"current_range_meters":20400,"station_id":"ce4bhkp2rcd13ifvqgd0","pricing_plan_id":"cebpf4jnsgd1na2vs0mg"},{"bike_id":"a1121b36-b5cd-4dda-96ef-13a3dfaa55e1","system_id":"levelo_inurba_marseille","lat":43.301401,"lon":5.387791,"is_reserved":false,"is_disabled":false,"rental_uris":{"android":"levelo://app?vid=a1121b36-b5cd-4dda-96ef-13a3dfaa55e1","ios":"levelo://app?vid=a1121b36-b5cd-4dda-96ef-13a3dfaa55e1"},"vehicle_type_id":"4","last_reported":1746803433,"current_range_meters":20400,"station_id":"","pricing_plan_id":"cebpf4jnsgd1na2vs0mg"},{"bike_id":"4dee8068-b933-43cf-8cbc-dbc1722ad2a7","system_id":"levelo_inurba_marseille","lat":43.23202,"lon":5.39973,"is_reserved":false,"is_disabled":false,"rental_uris":{"android":"levelo://app?vid=4dee8068-b933-43cf-8cbc-dbc1722ad2a7","ios":"levelo://app?vid=4dee8068-b933-43cf-8cbc-dbc1722ad2a7"},"vehicle_type_id":"4","last_reported":1746803433,"current_range_meters":20400,"station_id":"ce4bhn12rcd13ifvqgqg","pricing_plan_id":"cebpf4jnsgd1na2vs0mg"},{"bike_id":"a7ad83d4-b109-4b29-aaf3-aaaf261d1a57","system_id":"levelo_inurba_marseille","lat":43.25948,"lon":5.40909,"is_reserved":false,"is_disabled":false,"rental_uris":{"android":"levelo://app?vid=a7ad83d4-b109-4b29-aaf3-aaaf261d1a57","ios":"levelo://app?vid=a7ad83d4-b109-4b29-aaf3-aaaf261d1a57"},"vehicle_type_id":"4","last_reported":1746803433,"current_range_meters":20400,"station_id":"ce4bhm92rcd13ifvqglg","pricing_plan_id":"cebpf4jnsgd1na2vs0mg"},{"bike_id":"f34a79fb-9a2a-4d46-9bae-b3621d640434","system_id":"levelo_inurba_marseille","lat":43.31077,"lon":5.42436,"is_reserved":false,"is_disabled":true,"rental_uris":{"android":"levelo://app?vid=f34a79fb-9a2a-4d46-9bae-b3621d640434","ios":"levelo://app?vid=f34a79fb-9a2a-4d46-9bae-b3621d640434"},"vehicle_type_id":"4","last_reported":1746803433,"current_range_meters":20400,"station_id":"ce4bhp92rcd13ifvqhag","pricing_plan_id":"cebpf4jnsgd1na2vs0mg"},{"bike_id":"36db3327-e6bb-46a3-9550-28ef738c3a25","system_id":"levelo_inurba_marseille","lat":43.317257,"lon":5.423993,"is_reserved":false,"is_disabled":false,"rental_uris":{"android":"levelo://app?vid=36db3327-e6bb-46a3-9550-28ef738c3a25","ios":"levelo://app?vid=36db3327-e6bb-46a3-9550-28ef738c3a25"},"vehicle_type_id":"4","last_reported":1746803433,"current_range_meters":20400,"station_id":"ce4bhp92rcd13ifvqhbg","pricing_plan_id":"cebpf4jnsgd1na2vs0mg"},{"bike_id":"6519b47e-9950-4d92-8563-4c9e133cff56","system_id":"levelo_inurba_marseille","lat":43.326521,"lon":5.409997,"is_reserved":false,"is_disabled":false,"rental_uris":{"android":"levelo://app?vid=6519b47e-9950-4d92-8563-4c9e133cff56","ios":"levelo://app?vid=6519b47e-9950-4d92-8563-4c9e133cff56"},"vehicle_type_id":"4","last_reported":1746803433,"current_range_meters":20800,"station_id":"ce4bhpp2rcd13ifvqhgg","pricing_plan_id":"cebpf4jnsgd1na2vs0mg"},{"bike_id":"445dae77-6ed6-4620-80aa-51e425f3eb5b","system_id":"levelo_inurba_marseille","lat":43.29203,"lon":5.35815,"is_reserved":false,"is_disabled":false,"rental_uris":{"android":"levelo://app?vid=445dae77-6ed6-4620-80aa-51e425f3eb5b","ios":"levelo://app?vid=445dae77-6ed6-4620-80aa-51e425f3eb5b"},"vehicle_type_id":"4","last_reported":1746803433,"current_range_meters":20800,"station_id":"ce4bhb12rcd13ifvqel0","pricing_plan_id":"cebpf4jnsgd1na2vs0mg"},{"bike_id":"eab3fd09-dee2-4ae4-a5d8-0efb82d893af","system_id":"levelo_inurba_marseille","lat":43.30145,"lon":5.36437,"is_reserved":false,"is_disabled":false,"rental_uris":{"android":"levelo://app?vid=eab3fd09-dee2-4ae4-a5d8-0efb82d893af","ios":"levelo://app?vid=eab3fd09-dee2-4ae4-a5d8-0efb82d893af"},"vehicle_type_id":"4","last_reported":1746803433,"current_range_meters":20800,"station_id":"","pricing_plan_id":"cebpf4jnsgd1na2vs0mg"},{"bike_id":"a67cf144-8c38-42e5-a353-4ca8a0fe508f","system_id":"levelo_inurba_marseille","lat":43.29911,"lon":5.38152,"is_reserved":false,"is_disabled":false,"rental_uris":{"android":"levelo://app?vid=a67cf144-8c38-42e5-a353-4ca8a0fe508f","ios":"levelo://app?vid=a67cf144-8c38-42e5-a353-4ca8a0fe508f"},"vehicle_type_id":"4","last_reported":1746803433,"current_range_meters":20800,"station_id":"ce4bgj12rcd13ifvqbc0","pricing_plan_id":"cebpf4jnsgd1na2vs0mg"},{"bike_id":"58017607-f1da-4d90-b40d-ee90228378fa","system_id":"levelo_inurba_marseille","lat":43.30305,"lon":5.39204,"is_reserved":false,"is_disabled":false,"rental_uris":{"android":"levelo://app?vid=58017607-f1da-4d90-b40d-ee90228378fa","ios":"levelo://app?vid=58017607-f1da-4d90-b40d-ee90228378fa"},"vehicle_type_id":"4","last_reported":1746803433,"current_range_meters":21600,"station_id":"ce4bgkh2rcd13ifvqbk0","pricing_plan_id":"cebpf4jnsgd1na2vs0mg"},{"bike_id":"737d6b9e-1201-43d3-ade4-1cdf6e01a511","system_id":"levelo_inurba_marseille","lat":43.211906,"lon":5.350748,"is_reserved":false,"is_disabled":false,"rental_uris":{"android":"levelo://app?vid=737d6b9e-1201-43d3-ade4-1cdf6e01a511","ios":"levelo://app?vid=737d6b9e-1201-43d3-ade4-1cdf6e01a511"},"vehicle_type_id":"4","last_reported":1746803433,"current_range_meters":21600,"station_id":"st_cvj6sg6p6f1abm77japg","pricing_plan_id":"cebpf4jnsgd1na2vs0mg"},{"bike_id":"9fe38e8f-d76e-4c3a-a2a2-cbf098afdcab","system_id":"levelo_inurba_marseille","lat":43.30632,"lon":5.40099,"is_reserved":false,"is_disabled":false,"rental_uris":{"android":"levelo://app?vid=9fe38e8f-d76e-4c3a-a2a2-cbf098afdcab","ios":"levelo://app?vid=9fe38e8f-d76e-4c3a-a2a2-cbf098afdcab"},"vehicle_type_id":"4","last_reported":1746803433,"current_range_meters":21600,"station_id":"ce4bh112rcd13ifvqda0","pricing_plan_id":"cebpf4jnsgd1na2vs0mg"},{"bike_id":"1bcc491e-cc70-48dc-b908-cb8a5b6d2641","system_id":"levelo_inurba_marseille","lat":43.29643,"lon":5.40595,"is_reserved":false,"is_disabled":false,"rental_uris":{"android":"levelo://app?vid=1bcc491e-cc70-48dc-b908-cb8a5b6d2641","ios":"levelo://app?vid=1bcc491e-cc70-48dc-b908-cb8a5b6d2641"},"vehicle_type_id":"4","last_reported":1746803433,"current_range_meters":21600,"station_id":"ce4bh0h2rcd13ifvqd60","pricing_plan_id":"cebpf4jnsgd1na2vs0mg"},{"bike_id":"2d6856ac-db8e-4729-a56c-d8940dfaff9b","system_id":"levelo_inurba_marseille","lat":43.25935,"lon":5.40952,"is_reserved":false,"is_disabled":false,"rental_uris":{"android":"levelo://app?vid=2d6856ac-db8e-4729-a56c-d8940dfaff9b","ios":"levelo://app?vid=2d6856ac-db8e-4729-a56c-d8940dfaff9b"},"vehicle_type_id":"4","last_reported":1746803433,"current_range_meters":21600,"station_id":"ce4bhm92rcd13ifvqglg","pricing_plan_id":"cebpf4jnsgd1na2vs0mg"},{"bike_id":"589be833-6fc8-4c7e-abe3-20b2a016c12e","system_id":"levelo_inurba_marseille","lat":43.21199,"lon":5.35068,"is_reserved":false,"is_disabled":false,"rental_uris":{"android":"levelo://app?vid=589be833-6fc8-4c7e-abe3-20b2a016c12e","ios":"levelo://app?vid=589be833-6fc8-4c7e-abe3-20b2a016c12e"},"vehicle_type_id":"4","last_reported":1746803433,"current_range_meters":22000,"station_id":"st_cvj6sg6p6f1abm77japg","pricing_plan_id":"cebpf4jnsgd1na2vs0mg"},{"bike_id":"917080c9-e368-4138-b248-2dd4d1a7e183","system_id":"levelo_inurba_marseille","lat":43.30127,"lon":5.37433,"is_reserved":false,"is_disabled":false,"rental_uris":{"android":"levelo://app?vid=917080c9-e368-4138-b248-2dd4d1a7e183","ios":"levelo://app?vid=917080c9-e368-4138-b248-2dd4d1a7e183"},"vehicle_type_id":"4","last_reported":1746803433,"current_range_meters":22000,"station_id":"ce4bgs92rcd13ifvqcc0","pricing_plan_id":"cebpf4jnsgd1na2vs0mg"},{"bike_id":"6e55105a-9520-4a70-a829-912c163fc353","system_id":"levelo_inurba_marseille","lat":43.29714,"lon":5.36585,"is_reserved":false,"is_disabled":false,"rental_uris":{"android":"levelo://app?vid=6e55105a-9520-4a70-a829-912c163fc353","ios":"levelo://app?vid=6e55105a-9520-4a70-a829-912c163fc353"},"vehicle_type_id":"4","last_reported":1746803433,"current_range_meters":22000,"station_id":"ce4bgn12rcd13ifvqbt0","pricing_plan_id":"cebpf4jnsgd1na2vs0mg"},{"bike_id":"0fb6b147-e9a8-4345-a220-93d47a47a517","system_id":"levelo_inurba_marseille","lat":43.22934,"lon":5.35381,"is_reserved":false,"is_disabled":false,"rental_uris":{"android":"levelo://app?vid=0fb6b147-e9a8-4345-a220-93d47a47a517","ios":"levelo://app?vid=0fb6b147-e9a8-4345-a220-93d47a47a517"},"vehicle_type_id":"4","last_reported":1746803433,"current_range_meters":22000,"station_id":"cpo3532slgdg3j2ikp40","pricing_plan_id":"cebpf4jnsgd1na2vs0mg"},{"bike_id":"41166f60-b9b5-4c3c-85a9-793a7cc16071","system_id":"levelo_inurba_marseille","lat":43.30531,"lon":5.36705,"is_reserved":false,"is_disabled":false,"rental_uris":{"android":"levelo://app?vid=41166f60-b9b5-4c3c-85a9-793a7cc16071","ios":"levelo://app?vid=41166f60-b9b5-4c3c-85a9-793a7cc16071"},"vehicle_type_id":"4","last_reported":1746803433,"current_range_meters":22000,"station_id":"ce4bgrp2rcd13ifvqc9g","pricing_plan_id":"cebpf4jnsgd1na2vs0mg"},{"bike_id":"f1df0062-9ef6-4ff7-b56d-9fd0a4176eec","system_id":"levelo_inurba_marseille","lat":43.29331,"lon":5.37159,"is_reserved":false,"is_disabled":false,"rental_uris":{"android":"levelo://app?vid=f1df0062-9ef6-4ff7-b56d-9fd0a4176eec","ios":"levelo://app?vid=f1df0062-9ef6-4ff7-b56d-9fd0a4176eec"},"vehicle_type_id":"4","last_reported":1746803433,"current_range_meters":22000,"station_id":"ce4bgh92rcd13ifvqb40","pricing_plan_id":"cebpf4jnsgd1na2vs0mg"},{"bike_id":"11bac9a6-0e04-4c68-9615-f13539342864","system_id":"levelo_inurba_marseille","lat":43.21206,"lon":5.35084,"is_reserved":false,"is_disabled":false,"rental_uris":{"android":"levelo://app?vid=11bac9a6-0e04-4c68-9615-f13539342864","ios":"levelo://app?vid=11bac9a6-0e04-4c68-9615-f13539342864"},"vehicle_type_id":"4","last_reported":1746803433,"current_range_meters":22400,"station_id":"st_cvj6sg6p6f1abm77japg","pricing_plan_id":"cebpf4jnsgd1na2vs0mg"},{"bike_id":"ae3531a9-d1ea-41e1-9e2c-2610225086e7","system_id":"levelo_inurba_marseille","lat":43.3303,"lon":5.39006,"is_reserved":false,"is_disabled":false,"rental_uris":{"android":"levelo://app?vid=ae3531a9-d1ea-41e1-9e2c-2610225086e7","ios":"levelo://app?vid=ae3531a9-d1ea-41e1-9e2c-2610225086e7"},"vehicle_type_id":"4","last_reported":1746803433,"current_range_meters":22400,"station_id":"ce4bhr92rcd13ifvqhrg","pricing_plan_id":"cebpf4jnsgd1na2vs0mg"},{"bike_id":"41fb1b4e-f0b2-47b8-a7ca-db437515f380","system_id":"levelo_inurba_marseille","lat":43.26227,"lon":5.40416,"is_reserved":false,"is_disabled":false,"rental_uris":{"android":"levelo://app?vid=41fb1b4e-f0b2-47b8-a7ca-db437515f380","ios":"levelo://app?vid=41fb1b4e-f0b2-47b8-a7ca-db437515f380"},"vehicle_type_id":"4","last_reported":1746803433,"current_range_meters":22400,"station_id":"ce4bhmh2rcd13ifvqgmg","pricing_plan_id":"cebpf4jnsgd1na2vs0mg"},{"bike_id":"208e8df3-7b29-42bc-89f8-27bc227ebf6e","system_id":"levelo_inurba_marseille","lat":43.29026,"lon":5.38128,"is_reserved":false,"is_disabled":false,"rental_uris":{"android":"levelo://app?vid=208e8df3-7b29-42bc-89f8-27bc227ebf6e","ios":"levelo://app?vid=208e8df3-7b29-42bc-89f8-27bc227ebf6e"},"vehicle_type_id":"4","last_reported":1746803433,"current_range_meters":22400,"station_id":"ce4bh4p2rcd13ifvqe1g","pricing_plan_id":"cebpf4jnsgd1na2vs0mg"},{"bike_id":"8c0b2fd9-6fa8-4dd0-ad3e-03b45ce7f449","system_id":"levelo_inurba_marseille","lat":43.29002,"lon":5.35615,"is_reserved":false,"is_disabled":false,"rental_uris":{"android":"levelo://app?vid=8c0b2fd9-6fa8-4dd0-ad3e-03b45ce7f449","ios":"levelo://app?vid=8c0b2fd9-6fa8-4dd0-ad3e-03b45ce7f449"},"vehicle_type_id":"4","last_reported":1746803433,"current_range_meters":22400,"station_id":"ce4bhb92rcd13ifvqen0","pricing_plan_id":"cebpf4jnsgd1na2vs0mg"},{"bike_id":"df6418ae-f290-4684-ba22-8ce4650d2535","system_id":"levelo_inurba_marseille","lat":43.299001,"lon":5.381553,"is_reserved":false,"is_disabled":false,"rental_uris":{"android":"levelo://app?vid=df6418ae-f290-4684-ba22-8ce4650d2535","ios":"levelo://app?vid=df6418ae-f290-4684-ba22-8ce4650d2535"},"vehicle_type_id":"4","last_reported":1746803433,"current_range_meters":22400,"station_id":"ce4bgj12rcd13ifvqbc0","pricing_plan_id":"cebpf4jnsgd1na2vs0mg"},{"bike_id":"99ab0b52-1e8f-4e02-91dd-e66dc1e333eb","system_id":"levelo_inurba_marseille","lat":43.25573,"lon":5.38251,"is_reserved":false,"is_disabled":false,"rental_uris":{"android":"levelo://app?vid=99ab0b52-1e8f-4e02-91dd-e66dc1e333eb","ios":"levelo://app?vid=99ab0b52-1e8f-4e02-91dd-e66dc1e333eb"},"vehicle_type_id":"4","last_reported":1746803433,"current_range_meters":22800,"station_id":"ce4bhih2rcd13ifvqfs0","pricing_plan_id":"cebpf4jnsgd1na2vs0mg"},{"bike_id":"69c75cee-6d90-40ed-83e8-8acfd3e0b275","system_id":"levelo_inurba_marseille","lat":43.23192,"lon":5.39979,"is_reserved":false,"is_disabled":false,"rental_uris":{"android":"levelo://app?vid=69c75cee-6d90-40ed-83e8-8acfd3e0b275","ios":"levelo://app?vid=69c75cee-6d90-40ed-83e8-8acfd3e0b275"},"vehicle_type_id":"4","last_reported":1746803433,"current_range_meters":22800,"station_id":"ce4bhn12rcd13ifvqgqg","pricing_plan_id":"cebpf4jnsgd1na2vs0mg"},{"bike_id":"0af67476-1b3e-418b-a311-9b79e3065f37","system_id":"levelo_inurba_marseille","lat":43.28611,"lon":5.37062,"is_reserved":false,"is_disabled":false,"rental_uris":{"android":"levelo://app?vid=0af67476-1b3e-418b-a311-9b79e3065f37","ios":"levelo://app?vid=0af67476-1b3e-418b-a311-9b79e3065f37"},"vehicle_type_id":"4","last_reported":1746803433,"current_range_meters":22800,"station_id":"ce4bht12rcd13ifvqi60","pricing_plan_id":"cebpf4jnsgd1na2vs0mg"},{"bike_id":"56ed6698-5a16-4388-b486-f860714a9994","system_id":"levelo_inurba_marseille","lat":43.28675,"lon":5.3866,"is_reserved":false,"is_disabled":false,"rental_uris":{"android":"levelo://app?vid=56ed6698-5a16-4388-b486-f860714a9994","ios":"levelo://app?vid=56ed6698-5a16-4388-b486-f860714a9994"},"vehicle_type_id":"4","last_reported":1746803433,"current_range_meters":22800,"station_id":"ce4bh492rcd13ifvqdug","pricing_plan_id":"cebpf4jnsgd1na2vs0mg"},{"bike_id":"1112df4d-33b1-44da-b208-20da763da086","system_id":"levelo_inurba_marseille","lat":43.29232,"lon":5.3606,"is_reserved":false,"is_disabled":false,"rental_uris":{"android":"levelo://app?vid=1112df4d-33b1-44da-b208-20da763da086","ios":"levelo://app?vid=1112df4d-33b1-44da-b208-20da763da086"},"vehicle_type_id":"4","last_reported":1746803433,"current_range_meters":22800,"station_id":"ce4bhbh2rcd13ifvqeqg","pricing_plan_id":"cebpf4jnsgd1na2vs0mg"},{"bike_id":"11056a4a-df74-456a-9e82-921fe113feb2","system_id":"levelo_inurba_marseille","lat":43.290159,"lon":5.381299,"is_reserved":false,"is_disabled":false,"rental_uris":{"android":"levelo://app?vid=11056a4a-df74-456a-9e82-921fe113feb2","ios":"levelo://app?vid=11056a4a-df74-456a-9e82-921fe113feb2"},"vehicle_type_id":"4","last_reported":1746803433,"current_range_meters":22800,"station_id":"","pricing_plan_id":"cebpf4jnsgd1na2vs0mg"},{"bike_id":"22c719f8-72b4-4e32-8060-e5605b5507d4","system_id":"levelo_inurba_marseille","lat":43.2512,"lon":5.4032,"is_reserved":false,"is_disabled":false,"rental_uris":{"android":"levelo://app?vid=22c719f8-72b4-4e32-8060-e5605b5507d4","ios":"levelo://app?vid=22c719f8-72b4-4e32-8060-e5605b5507d4"},"vehicle_type_id":"4","last_reported":1746803433,"current_range_meters":22800,"station_id":"ce4bhlh2rcd13ifvqgig","pricing_plan_id":"cebpf4jnsgd1na2vs0mg"},{"bike_id":"0df3293b-2088-4f90-8b25-8b550fa6d9dc","system_id":"levelo_inurba_marseille","lat":43.28859,"lon":5.35854,"is_reserved":false,"is_disabled":false,"rental_uris":{"android":"levelo://app?vid=0df3293b-2088-4f90-8b25-8b550fa6d9dc","ios":"levelo://app?vid=0df3293b-2088-4f90-8b25-8b550fa6d9dc"},"vehicle_type_id":"4","last_reported":1746803433,"current_range_meters":22800,"station_id":"ce4bhb12rcd13ifvqem0","pricing_plan_id":"cebpf4jnsgd1na2vs0mg"},{"bike_id":"edeb0dc8-6d32-4686-a20c-0908c4071b42","system_id":"levelo_inurba_marseille","lat":43.28076,"lon":5.39661,"is_reserved":false,"is_disabled":false,"rental_uris":{"android":"levelo://app?vid=edeb0dc8-6d32-4686-a20c-0908c4071b42","ios":"levelo://app?vid=edeb0dc8-6d32-4686-a20c-0908c4071b42"},"vehicle_type_id":"4","last_reported":1746803433,"current_range_meters":22800,"station_id":"ce4bho12rcd13ifvqh2g","pricing_plan_id":"cebpf4jnsgd1na2vs0mg"},{"bike_id":"7a0bb88e-b6cf-46f3-a0c6-e5f47021a93e","system_id":"levelo_inurba_marseille","lat":43.28376,"lon":5.38638,"is_reserved":false,"is_disabled":false,"rental_uris":{"android":"levelo://app?vid=7a0bb88e-b6cf-46f3-a0c6-e5f47021a93e","ios":"levelo://app?vid=7a0bb88e-b6cf-46f3-a0c6-e5f47021a93e"},"vehicle_type_id":"4","last_reported":1746803433,"current_range_meters":22800,"station_id":"ce4bh492rcd13ifvqdvg","pricing_plan_id":"cebpf4jnsgd1na2vs0mg"},{"bike_id":"012dfa14-10be-4844-9961-346df49d1cab","system_id":"levelo_inurba_marseille","lat":43.32346,"lon":5.4061,"is_reserved":false,"is_disabled":false,"rental_uris":{"android":"levelo://app?vid=012dfa14-10be-4844-9961-346df49d1cab","ios":"levelo://app?vid=012dfa14-10be-4844-9961-346df49d1cab"},"vehicle_type_id":"4","last_reported":1746803433,"current_range_meters":22800,"station_id":"ce4bhq92rcd13ifvqhjg","pricing_plan_id":"cebpf4jnsgd1na2vs0mg"},{"bike_id":"51175372-f1e7-4651-801b-e3b291a6302e","system_id":"levelo_inurba_marseille","lat":43.262227,"lon":5.404604,"is_reserved":false,"is_disabled":false,"rental_uris":{"android":"levelo://app?vid=51175372-f1e7-4651-801b-e3b291a6302e","ios":"levelo://app?vid=51175372-f1e7-4651-801b-e3b291a6302e"},"vehicle_type_id":"4","last_reported":1746803433,"current_range_meters":23200,"station_id":"ce4bhmh2rcd13ifvqgmg","pricing_plan_id":"cebpf4jnsgd1na2vs0mg"},{"bike_id":"22dfe0da-df85-494d-9101-fcefa8018d5f","system_id":"levelo_inurba_marseille","lat":43.31307,"lon":5.3968,"is_reserved":false,"is_disabled":false,"rental_uris":{"android":"levelo://app?vid=22dfe0da-df85-494d-9101-fcefa8018d5f","ios":"levelo://app?vid=22dfe0da-df85-494d-9101-fcefa8018d5f"},"vehicle_type_id":"4","last_reported":1746803433,"current_range_meters":23200,"station_id":"ce4bgvp2rcd13ifvqcu0","pricing_plan_id":"cebpf4jnsgd1na2vs0mg"},{"bike_id":"98edc46c-0ae8-48be-ad87-79a885abe6d1","system_id":"levelo_inurba_marseille","lat":43.28974,"lon":5.37831,"is_reserved":false,"is_disabled":false,"rental_uris":{"android":"levelo://app?vid=98edc46c-0ae8-48be-ad87-79a885abe6d1","ios":"levelo://app?vid=98edc46c-0ae8-48be-ad87-79a885abe6d1"},"vehicle_type_id":"4","last_reported":1746803433,"current_range_meters":23200,"station_id":"ce4bh9p2rcd13ifvqed0","pricing_plan_id":"cebpf4jnsgd1na2vs0mg"},{"bike_id":"2e4162a9-971a-4301-bdb1-08f5dc624b10","system_id":"levelo_inurba_marseille","lat":43.29059,"lon":5.371525,"is_reserved":false,"is_disabled":false,"rental_uris":{"android":"levelo://app?vid=2e4162a9-971a-4301-bdb1-08f5dc624b10","ios":"levelo://app?vid=2e4162a9-971a-4301-bdb1-08f5dc624b10"},"vehicle_type_id":"4","last_reported":1746803433,"current_range_meters":23200,"station_id":"ce4bgj12rcd13ifvqbc0","pricing_plan_id":"cebpf4jnsgd1na2vs0mg"},{"bike_id":"f4f815af-7a16-4a43-b423-5446444b0cc3","system_id":"levelo_inurba_marseille","lat":43.30134,"lon":5.37416,"is_reserved":false,"is_disabled":false,"rental_uris":{"android":"levelo://app?vid=f4f815af-7a16-4a43-b423-5446444b0cc3","ios":"levelo://app?vid=f4f815af-7a16-4a43-b423-5446444b0cc3"},"vehicle_type_id":"4","last_reported":1746803433,"current_range_meters":24000,"station_id":"ce4bgs92rcd13ifvqcc0","pricing_plan_id":"cebpf4jnsgd1na2vs0mg"},{"bike_id":"07b7c45e-6fb6-4a28-a1a3-c11c4d6cd5bb","system_id":"levelo_inurba_marseille","lat":43.25004,"lon":5.38924,"is_reserved":false,"is_disabled":false,"rental_uris":{"android":"levelo://app?vid=07b7c45e-6fb6-4a28-a1a3-c11c4d6cd5bb","ios":"levelo://app?vid=07b7c45e-6fb6-4a28-a1a3-c11c4d6cd5bb"},"vehicle_type_id":"4","last_reported":1746803433,"current_range_meters":24000,"station_id":"ce4bhgp2rcd13ifvqfd0","pricing_plan_id":"cebpf4jnsgd1na2vs0mg"},{"bike_id":"1b56ba6c-b3a4-47df-b065-d5a834e587a0","system_id":"levelo_inurba_marseille","lat":43.31715,"lon":5.42415,"is_reserved":false,"is_disabled":false,"rental_uris":{"android":"levelo://app?vid=1b56ba6c-b3a4-47df-b065-d5a834e587a0","ios":"levelo://app?vid=1b56ba6c-b3a4-47df-b065-d5a834e587a0"},"vehicle_type_id":"4","last_reported":1746803433,"current_range_meters":24000,"station_id":"ce4bhp92rcd13ifvqhbg","pricing_plan_id":"cebpf4jnsgd1na2vs0mg"},{"bike_id":"5f99e19f-3d56-42a6-a1ff-d12647e86b30","system_id":"levelo_inurba_marseille","lat":43.29018,"lon":5.38141,"is_reserved":false,"is_disabled":false,"rental_uris":{"android":"levelo://app?vid=5f99e19f-3d56-42a6-a1ff-d12647e86b30","ios":"levelo://app?vid=5f99e19f-3d56-42a6-a1ff-d12647e86b30"},"vehicle_type_id":"4","last_reported":1746803433,"current_range_meters":24000,"station_id":"ce4bh4p2rcd13ifvqe1g","pricing_plan_id":"cebpf4jnsgd1na2vs0mg"},{"bike_id":"476e9a7a-ec3f-450b-862d-ed342c24b485","system_id":"levelo_inurba_marseille","lat":43.29006,"lon":5.35614,"is_reserved":false,"is_disabled":false,"rental_uris":{"android":"levelo://app?vid=476e9a7a-ec3f-450b-862d-ed342c24b485","ios":"levelo://app?vid=476e9a7a-ec3f-450b-862d-ed342c24b485"},"vehicle_type_id":"4","last_reported":1746803433,"current_range_meters":24000,"station_id":"ce4bhb92rcd13ifvqen0","pricing_plan_id":"cebpf4jnsgd1na2vs0mg"},{"bike_id":"f52c819d-ca4b-4640-b458-b877db1bf990","system_id":"levelo_inurba_marseille","lat":43.298936,"lon":5.410173,"is_reserved":false,"is_disabled":false,"rental_uris":{"android":"levelo://app?vid=f52c819d-ca4b-4640-b458-b877db1bf990","ios":"levelo://app?vid=f52c819d-ca4b-4640-b458-b877db1bf990"},"vehicle_type_id":"4","last_reported":1746803433,"current_range_meters":24400,"station_id":"","pricing_plan_id":"cebpf4jnsgd1na2vs0mg"},{"bike_id":"f398beb7-092b-43ff-a74c-df30761990fe","system_id":"levelo_inurba_marseille","lat":43.26221,"lon":5.37405,"is_reserved":false,"is_disabled":false,"rental_uris":{"android":"levelo://app?vid=f398beb7-092b-43ff-a74c-df30761990fe","ios":"levelo://app?vid=f398beb7-092b-43ff-a74c-df30761990fe"},"vehicle_type_id":"4","last_reported":1746803433,"current_range_meters":24400,"station_id":"ce4bhgp2rcd13ifvqfc0","pricing_plan_id":"cebpf4jnsgd1na2vs0mg"},{"bike_id":"2dd9eb1f-6fa8-4c48-8f99-3fa6c55aef3a","system_id":"levelo_inurba_marseille","lat":43.28167,"lon":5.42621,"is_reserved":false,"is_disabled":false,"rental_uris":{"android":"levelo://app?vid=2dd9eb1f-6fa8-4c48-8f99-3fa6c55aef3a","ios":"levelo://app?vid=2dd9eb1f-6fa8-4c48-8f99-3fa6c55aef3a"},"vehicle_type_id":"4","last_reported":1746803433,"current_range_meters":24400,"station_id":"ce4bhnh2rcd13ifvqgug","pricing_plan_id":"cebpf4jnsgd1na2vs0mg"},{"bike_id":"b5fd848c-1d42-489e-a97c-c13fb764cc87","system_id":"levelo_inurba_marseille","lat":43.27173,"lon":5.40993,"is_reserved":false,"is_disabled":false,"rental_uris":{"android":"levelo://app?vid=b5fd848c-1d42-489e-a97c-c13fb764cc87","ios":"levelo://app?vid=b5fd848c-1d42-489e-a97c-c13fb764cc87"},"vehicle_type_id":"4","last_reported":1746803433,"current_range_meters":24000,"station_id":"ce4bhl12rcd13ifvqgf0","pricing_plan_id":"cebpf4jnsgd1na2vs0mg"},{"bike_id":"830ca2f3-14a2-40d4-b14d-f14634d8ac66","system_id":"levelo_inurba_marseille","lat":43.31695,"lon":5.43717,"is_reserved":false,"is_disabled":false,"rental_uris":{"android":"levelo://app?vid=830ca2f3-14a2-40d4-b14d-f14634d8ac66","ios":"levelo://app?vid=830ca2f3-14a2-40d4-b14d-f14634d8ac66"},"vehicle_type_id":"4","last_reported":1746803433,"current_range_meters":24800,"station_id":"ce4bhp92rcd13ifvqhcg","pricing_plan_id":"cebpf4jnsgd1na2vs0mg"},{"bike_id":"9093992d-d536-4d13-8f81-76348d4a8475","system_id":"levelo_inurba_marseille","lat":43.255036,"lon":5.376513,"is_reserved":false,"is_disabled":false,"rental_uris":{"android":"levelo://app?vid=9093992d-d536-4d13-8f81-76348d4a8475","ios":"levelo://app?vid=9093992d-d536-4d13-8f81-76348d4a8475"},"vehicle_type_id":"4","last_reported":1746803433,"current_range_meters":24800,"station_id":"ce4bhh12rcd13ifvqff0","pricing_plan_id":"cebpf4jnsgd1na2vs0mg"},{"bike_id":"acf77805-950b-44ab-ae1b-154f7dd2c12b","system_id":"levelo_inurba_marseille","lat":43.28005,"lon":5.40014,"is_reserved":false,"is_disabled":false,"rental_uris":{"android":"levelo://app?vid=acf77805-950b-44ab-ae1b-154f7dd2c12b","ios":"levelo://app?vid=acf77805-950b-44ab-ae1b-154f7dd2c12b"},"vehicle_type_id":"4","last_reported":1746803433,"current_range_meters":24400,"station_id":"ce4bho92rcd13ifvqh4g","pricing_plan_id":"cebpf4jnsgd1na2vs0mg"},{"bike_id":"c685de6c-7e1c-4f6d-a85e-677faf50b2ff","system_id":"levelo_inurba_marseille","lat":43.21197,"lon":5.35081,"is_reserved":false,"is_disabled":false,"rental_uris":{"android":"levelo://app?vid=c685de6c-7e1c-4f6d-a85e-677faf50b2ff","ios":"levelo://app?vid=c685de6c-7e1c-4f6d-a85e-677faf50b2ff"},"vehicle_type_id":"4","last_reported":1746803433,"current_range_meters":24800,"station_id":"st_cvj6sg6p6f1abm77japg","pricing_plan_id":"cebpf4jnsgd1na2vs0mg"},{"bike_id":"3717eafc-de4b-4631-8914-081a7dc14e94","system_id":"levelo_inurba_marseille","lat":43.29264,"lon":5.37647,"is_reserved":false,"is_disabled":false,"rental_uris":{"android":"levelo://app?vid=3717eafc-de4b-4631-8914-081a7dc14e94","ios":"levelo://app?vid=3717eafc-de4b-4631-8914-081a7dc14e94"},"vehicle_type_id":"4","last_reported":1746803433,"current_range_meters":24800,"station_id":"ce4bgi12rcd13ifvqb80","pricing_plan_id":"cebpf4jnsgd1na2vs0mg"},{"bike_id":"31ba6f64-65dc-46ca-93bd-943cca7fd40b","system_id":"levelo_inurba_marseille","lat":43.29589,"lon":5.38115,"is_reserved":false,"is_disabled":false,"rental_uris":{"android":"levelo://app?vid=31ba6f64-65dc-46ca-93bd-943cca7fd40b","ios":"levelo://app?vid=31ba6f64-65dc-46ca-93bd-943cca7fd40b"},"vehicle_type_id":"4","last_reported":1746803433,"current_range_meters":25200,"station_id":"ce4bgl12rcd13ifvqbo0","pricing_plan_id":"cebpf4jnsgd1na2vs0mg"},{"bike_id":"679f7e5d-8d76-4dda-8276-82b8e0e9a230","system_id":"levelo_inurba_marseille","lat":43.29186,"lon":5.35797,"is_reserved":false,"is_disabled":false,"rental_uris":{"android":"levelo://app?vid=679f7e5d-8d76-4dda-8276-82b8e0e9a230","ios":"levelo://app?vid=679f7e5d-8d76-4dda-8276-82b8e0e9a230"},"vehicle_type_id":"4","last_reported":1746803433,"current_range_meters":25200,"station_id":"ce4bhb12rcd13ifvqel0","pricing_plan_id":"cebpf4jnsgd1na2vs0mg"},{"bike_id":"02bac07a-9186-49eb-a666-f70d86d99978","system_id":"levelo_inurba_marseille","lat":43.2119,"lon":5.35083,"is_reserved":false,"is_disabled":false,"rental_uris":{"android":"levelo://app?vid=02bac07a-9186-49eb-a666-f70d86d99978","ios":"levelo://app?vid=02bac07a-9186-49eb-a666-f70d86d99978"},"vehicle_type_id":"4","last_reported":1746803433,"current_range_meters":25200,"station_id":"st_cvj6sg6p6f1abm77japg","pricing_plan_id":"cebpf4jnsgd1na2vs0mg"},{"bike_id":"83f71cbe-148c-4317-9b2d-2147ad025591","system_id":"levelo_inurba_marseille","lat":43.27491,"lon":5.42479,"is_reserved":false,"is_disabled":false,"rental_uris":{"android":"levelo://app?vid=83f71cbe-148c-4317-9b2d-2147ad025591","ios":"levelo://app?vid=83f71cbe-148c-4317-9b2d-2147ad025591"},"vehicle_type_id":"4","last_reported":1746803433,"current_range_meters":25200,"station_id":"ce4bhn92rcd13ifvqgrg","pricing_plan_id":"cebpf4jnsgd1na2vs0mg"},{"bike_id":"49fac454-5a2c-437f-94e8-368de68ded9f","system_id":"levelo_inurba_marseille","lat":43.29573,"lon":5.37523,"is_reserved":false,"is_disabled":false,"rental_uris":{"android":"levelo://app?vid=49fac454-5a2c-437f-94e8-368de68ded9f","ios":"levelo://app?vid=49fac454-5a2c-437f-94e8-368de68ded9f"},"vehicle_type_id":"4","last_reported":1746803433,"current_range_meters":25200,"station_id":"ce4bgh92rcd13ifvqb50","pricing_plan_id":"cebpf4jnsgd1na2vs0mg"},{"bike_id":"48ed43fb-4ad0-4001-acee-f6ea4523cfc5","system_id":"levelo_inurba_marseille","lat":43.286004,"lon":5.477164,"is_reserved":false,"is_disabled":false,"rental_uris":{"android":"levelo://app?vid=48ed43fb-4ad0-4001-acee-f6ea4523cfc5","ios":"levelo://app?vid=48ed43fb-4ad0-4001-acee-f6ea4523cfc5"},"vehicle_type_id":"4","last_reported":1746803433,"current_range_meters":25600,"station_id":"","pricing_plan_id":"cebpf4jnsgd1na2vs0mg"},{"bike_id":"17d04247-5bd2-4457-b4ce-76163cce39e3","system_id":"levelo_inurba_marseille","lat":43.259392,"lon":5.40901,"is_reserved":false,"is_disabled":false,"rental_uris":{"android":"levelo://app?vid=17d04247-5bd2-4457-b4ce-76163cce39e3","ios":"levelo://app?vid=17d04247-5bd2-4457-b4ce-76163cce39e3"},"vehicle_type_id":"4","last_reported":1746803433,"current_range_meters":25600,"station_id":"ce4bhm92rcd13ifvqglg","pricing_plan_id":"cebpf4jnsgd1na2vs0mg"},{"bike_id":"8a2bdf2f-59ac-417f-a89f-497316ede914","system_id":"levelo_inurba_marseille","lat":43.30475,"lon":5.37913,"is_reserved":false,"is_disabled":false,"rental_uris":{"android":"levelo://app?vid=8a2bdf2f-59ac-417f-a89f-497316ede914","ios":"levelo://app?vid=8a2bdf2f-59ac-417f-a89f-497316ede914"},"vehicle_type_id":"4","last_reported":1746803433,"current_range_meters":25600,"station_id":"ce4bgup2rcd13ifvqcn0","pricing_plan_id":"cebpf4jnsgd1na2vs0mg"},{"bike_id":"ed44d301-c597-4fd6-8af6-e98340d07f44","system_id":"levelo_inurba_marseille","lat":43.30239,"lon":5.4005,"is_reserved":false,"is_disabled":false,"rental_uris":{"android":"levelo://app?vid=ed44d301-c597-4fd6-8af6-e98340d07f44","ios":"levelo://app?vid=ed44d301-c597-4fd6-8af6-e98340d07f44"},"vehicle_type_id":"4","last_reported":1746803433,"current_range_meters":25600,"station_id":"ce4bgvh2rcd13ifvqcs0","pricing_plan_id":"cebpf4jnsgd1na2vs0mg"},{"bike_id":"d40e366f-4ae0-4dfa-9f12-1000efe370f1","system_id":"levelo_inurba_marseille","lat":43.313723,"lon":5.366957,"is_reserved":false,"is_disabled":false,"rental_uris":{"android":"levelo://app?vid=d40e366f-4ae0-4dfa-9f12-1000efe370f1","ios":"levelo://app?vid=d40e366f-4ae0-4dfa-9f12-1000efe370f1"},"vehicle_type_id":"4","last_reported":1746803433,"current_range_meters":26000,"station_id":"ce4bgr92rcd13ifvqc6g","pricing_plan_id":"cebpf4jnsgd1na2vs0mg"},{"bike_id":"576cc3ab-5f65-49aa-896c-387360e84d6e","system_id":"levelo_inurba_marseille","lat":43.27057,"lon":5.40274,"is_reserved":false,"is_disabled":false,"rental_uris":{"android":"levelo://app?vid=576cc3ab-5f65-49aa-896c-387360e84d6e","ios":"levelo://app?vid=576cc3ab-5f65-49aa-896c-387360e84d6e"},"vehicle_type_id":"4","last_reported":1746803433,"current_range_meters":26000,"station_id":"ce4bhk92rcd13ifvqgc0","pricing_plan_id":"cebpf4jnsgd1na2vs0mg"},{"bike_id":"986f24ae-804a-4214-93ff-c1f4076d2933","system_id":"levelo_inurba_marseille","lat":43.21747,"lon":5.34598,"is_reserved":false,"is_disabled":false,"rental_uris":{"android":"levelo://app?vid=986f24ae-804a-4214-93ff-c1f4076d2933","ios":"levelo://app?vid=986f24ae-804a-4214-93ff-c1f4076d2933"},"vehicle_type_id":"4","last_reported":1746803433,"current_range_meters":26000,"station_id":"st_cvj6r9ubvosntc0bgbag","pricing_plan_id":"cebpf4jnsgd1na2vs0mg"},{"bike_id":"5b7e078f-23ab-44e1-815e-d244c9121605","system_id":"levelo_inurba_marseille","lat":43.29886,"lon":5.38902,"is_reserved":false,"is_disabled":false,"rental_uris":{"android":"levelo://app?vid=5b7e078f-23ab-44e1-815e-d244c9121605","ios":"levelo://app?vid=5b7e078f-23ab-44e1-815e-d244c9121605"},"vehicle_type_id":"4","last_reported":1746803433,"current_range_meters":26000,"station_id":"ce4bh392rcd13ifvqdl0","pricing_plan_id":"cebpf4jnsgd1na2vs0mg"},{"bike_id":"721faebf-7a23-4100-aee1-aac9b428466d","system_id":"levelo_inurba_marseille","lat":43.21206,"lon":5.35059,"is_reserved":false,"is_disabled":false,"rental_uris":{"android":"levelo://app?vid=721faebf-7a23-4100-aee1-aac9b428466d","ios":"levelo://app?vid=721faebf-7a23-4100-aee1-aac9b428466d"},"vehicle_type_id":"4","last_reported":1746803433,"current_range_meters":26000,"station_id":"st_cvj6sg6p6f1abm77japg","pricing_plan_id":"cebpf4jnsgd1na2vs0mg"},{"bike_id":"7ae1c6cb-c021-4e30-a925-682fcdbf55d1","system_id":"levelo_inurba_marseille","lat":43.28665,"lon":5.386762,"is_reserved":false,"is_disabled":false,"rental_uris":{"android":"levelo://app?vid=7ae1c6cb-c021-4e30-a925-682fcdbf55d1","ios":"levelo://app?vid=7ae1c6cb-c021-4e30-a925-682fcdbf55d1"},"vehicle_type_id":"4","last_reported":1746803433,"current_range_meters":26800,"station_id":"ce4bh492rcd13ifvqdug","pricing_plan_id":"cebpf4jnsgd1na2vs0mg"},{"bike_id":"05163a99-4fad-4583-bbf2-71e30ca0ceff","system_id":"levelo_inurba_marseille","lat":43.286699,"lon":5.386642,"is_reserved":false,"is_disabled":false,"rental_uris":{"android":"levelo://app?vid=05163a99-4fad-4583-bbf2-71e30ca0ceff","ios":"levelo://app?vid=05163a99-4fad-4583-bbf2-71e30ca0ceff"},"vehicle_type_id":"4","last_reported":1746803433,"current_range_meters":26800,"station_id":"ce4bh492rcd13ifvqdug","pricing_plan_id":"cebpf4jnsgd1na2vs0mg"},{"bike_id":"a97f9f1d-4c98-4d2a-a714-ba51a2930089","system_id":"levelo_inurba_marseille","lat":43.302977,"lon":5.3922,"is_reserved":false,"is_disabled":false,"rental_uris":{"android":"levelo://app?vid=a97f9f1d-4c98-4d2a-a714-ba51a2930089","ios":"levelo://app?vid=a97f9f1d-4c98-4d2a-a714-ba51a2930089"},"vehicle_type_id":"4","last_reported":1746803433,"current_range_meters":26800,"station_id":"ce4bgkh2rcd13ifvqbk0","pricing_plan_id":"cebpf4jnsgd1na2vs0mg"},{"bike_id":"147cbfd3-323d-4a8e-9f4f-83a8262fff1b","system_id":"levelo_inurba_marseille","lat":43.281582,"lon":5.426479,"is_reserved":false,"is_disabled":false,"rental_uris":{"android":"levelo://app?vid=147cbfd3-323d-4a8e-9f4f-83a8262fff1b","ios":"levelo://app?vid=147cbfd3-323d-4a8e-9f4f-83a8262fff1b"},"vehicle_type_id":"4","last_reported":1746803433,"current_range_meters":26800,"station_id":"ce4bhnh2rcd13ifvqgug","pricing_plan_id":"cebpf4jnsgd1na2vs0mg"},{"bike_id":"0b9ca4fb-f893-43f8-9caf-c2f90dbde54a","system_id":"levelo_inurba_marseille","lat":43.2879,"lon":5.36357,"is_reserved":false,"is_disabled":false,"rental_uris":{"android":"levelo://app?vid=0b9ca4fb-f893-43f8-9caf-c2f90dbde54a","ios":"levelo://app?vid=0b9ca4fb-f893-43f8-9caf-c2f90dbde54a"},"vehicle_type_id":"4","last_reported":1746803433,"current_range_meters":26800,"station_id":"","pricing_plan_id":"cebpf4jnsgd1na2vs0mg"},{"bike_id":"642d96f9-80e8-4578-830d-986e2d52a3a9","system_id":"levelo_inurba_marseille","lat":43.29167,"lon":5.37158,"is_reserved":false,"is_disabled":false,"rental_uris":{"android":"levelo://app?vid=642d96f9-80e8-4578-830d-986e2d52a3a9","ios":"levelo://app?vid=642d96f9-80e8-4578-830d-986e2d52a3a9"},"vehicle_type_id":"4","last_reported":1746803433,"current_range_meters":26800,"station_id":"ce4bha92rcd13ifvqeh0","pricing_plan_id":"cebpf4jnsgd1na2vs0mg"},