{"last_updated":1730149694,"ttl":60,"version":"2.2","data":{"bikes":[{"bike_id":"9d03e314-eec0-487f-bf11-155efdcb9e76","system_id":"levelo_inurba_marseille","lat":43.26557,"lon":5.3728,"is_reserved":false,"is_disabled":false,"rental_uris":{"android":"levelo://app?vid=9d03e314-eec0-487f-bf11-155efdcb9e76","ios":"levelo://app?vid=9d03e314-eec0-487f-bf11-155efdcb9e76"},"vehicle_type_id":"4","last_reported":1730149694,"current_range_meters":34000,"station_id":"ce4bhg12rcd13ifvqf70","pricing_plan_id":"cebpf4jnsgd1na2vs0mg"},{"bike_id":"5b6da0fb-5d65-41eb-8aa7-edd3cba55e1e","system_id":"levelo_inurba_marseille","lat":43.30352,"lon":5.41881,"is_reserved":false,"is_disabled":false,"rental_uris":{"android":"levelo://app?vid=5b6da0fb-5d65-41eb-8aa7-edd3cba55e1e","ios":"levelo://app?vid=5b6da0fb-5d65-41eb-8aa7-edd3cba55e1e"},"vehicle_type_id":"4","last_reported":1730149694,"current_range_meters":4800,"station_id":"ce4bhop2rcd13ifvqh7g","pricing_plan_id":"cebpf4jnsgd1na2vs0mg"},{"bike_id":"9e4044e9-dd72-4f58-b85b-2423a1de6b75","system_id":"levelo_inurba_marseille","lat":43.27175,"lon":5.41002,"is_reserved":false,"is_disabled":false,"rental_uris":{"android":"levelo://app?vid=9e4044e9-dd72-4f58-b85b-2423a1de6b75","ios":"levelo://app?vid=9e4044e9-dd72-4f58-b85b-2423a1de6b75"},"vehicle_type_id":"4","last_reported":1730149694,"current_range_meters":10000,"station_id":"ce4bhl12rcd13ifvqgf0","pricing_plan_id":"cebpf4jnsgd1na2vs0mg"},{"bike_id":"4aebdb59-bbc7-456e-b060-33c91b8172d0","system_id":"levelo_inurba_marseille","lat":43.29915,"lon":5.38257,"is_reserved":false,"is_disabled":false,"rental_uris":{"android":"levelo://app?vid=4aebdb59-bbc7-456e-b060-33c91b8172d0","ios":"levelo://app?vid=4aebdb59-bbc7-456e-b060-33c91b8172d0"},"vehicle_type_id":"4","last_reported":1730149694,"current_range_meters":29600,"station_id":"","pricing_plan_id":"cebpf4jnsgd1na2vs0mg"},{"bike_id":"83f7db1f-5175-4f37-854b-cde355acc9c6","system_id":"levelo_inurba_marseille","lat":43.3229,"lon":5.38282,"is_reserved":false,"is_disabled":false,"rental_uris":{"android":"levelo://app?vid=83f7db1f-5175-4f37-854b-cde355acc9c6","ios":"levelo://app?vid=83f7db1f-5175-4f37-854b-cde355acc9c6"},"vehicle_type_id":"4","last_reported":1730149694,"current_range_meters":38800,"station_id":"ce4bhr12rcd13ifvqhqg","pricing_plan_id":"cebpf4jnsgd1na2vs0mg"},{"bike_id":"2c150317-9044-4f0b-91f2-739e1e482702","system_id":"levelo_inurba_marseille","lat":43.30427,"lon":5.39755,"is_reserved":false,"is_disabled":false,"rental_uris":{"android":"levelo://app?vid=2c150317-9044-4f0b-91f2-739e1e482702","ios":"levelo://app?vid=2c150317-9044-4f0b-91f2-739e1e482702"},"vehicle_type_id":"4","last_reported":1730149694,"current_range_meters":15200,"station_id":"ce4bh092rcd13ifvqd20","pricing_plan_id":"cebpf4jnsgd1na2vs0mg"},{"bike_id":"8691266c-b078-424b-a387-0bb56f925da9","system_id":"levelo_inurba_marseille","lat":43.30425,"lon":5.39758,"is_reserved":false,"is_disabled":false,"rental_uris":{"android":"levelo://app?vid=8691266c-b078-424b-a387-0bb56f925da9","ios":"levelo://app?vid=8691266c-b078-424b-a387-0bb56f925da9"},"vehicle_type_id":"4","last_reported":1730149694,"current_range_meters":37600,"station_id":"ce4bh092rcd13ifvqd20","pricing_plan_id":"cebpf4jnsgd1na2vs0mg"},{"bike_id":"79962e24-45d6-4bc1-ae9c-33ce3d4cfd10","system_id":"levelo_inurba_marseille","lat":43.30093,"lon":5.39078,"is_reserved":false,"is_disabled":false,"rental_uris":{"android":"levelo://app?vid=79962e24-45d6-4bc1-ae9c-33ce3d4cfd10","ios":"levelo://app?vid=79962e24-45d6-4bc1-ae9c-33ce3d4cfd10"},"vehicle_type_id":"4","last_reported":1730149694,"current_range_meters":34000,"station_id":"ce4bh192rcd13ifvqdb0","pricing_plan_id":"cebpf4jnsgd1na2vs0mg"},{"bike_id":"d55c9e77-4a35-4dfb-8600-34e8d3a87e3b","system_id":"levelo_inurba_marseille","lat":43.30297,"lon":5.39215,"is_reserved":false,"is_disabled":false,"rental_uris":{"android":"levelo://app?vid=d55c9e77-4a35-4dfb-8600-34e8d3a87e3b","ios":"levelo://app?vid=d55c9e77-4a35-4dfb-8600-34e8d3a87e3b"},"vehicle_type_id":"4","last_reported":1730149694,"current_range_meters":36400,"station_id":"ce4bgkh2rcd13ifvqbk0","pricing_plan_id":"cebpf4jnsgd1na2vs0mg"},{"bike_id":"bd7bf632-923c-4e86-90d2-6bac60005ce8","system_id":"levelo_inurba_marseille","lat":43.2695,"lon":5.3864,"is_reserved":false,"is_disabled":false,"rental_uris":{"android":"levelo://app?vid=bd7bf632-923c-4e86-90d2-6bac60005ce8","ios":"levelo://app?vid=bd7bf632-923c-4e86-90d2-6bac60005ce8"},"vehicle_type_id":"4","last_reported":1730149694,"current_range_meters":38400,"station_id":"ce4bhh92rcd13ifvqfh0","pricing_plan_id":"cebpf4jnsgd1na2vs0mg"},{"bike_id":"62b5614c-5f33-4953-a27e-e0c821552090","system_id":"levelo_inurba_marseille","lat":43.23189,"lon":5.35544,"is_reserved":false,"is_disabled":false,"rental_uris":{"android":"levelo://app?vid=62b5614c-5f33-4953-a27e-e0c821552090","ios":"levelo://app?vid=62b5614c-5f33-4953-a27e-e0c821552090"},"vehicle_type_id":"4","last_reported":1730149694,"current_range_meters":38000,"station_id":"ce4bhu92rcd13ifvqi70","pricing_plan_id":"cebpf4jnsgd1na2vs0mg"},{"bike_id":"b380b0eb-d307-4448-9cec-68025981a610","system_id":"levelo_inurba_marseille","lat":43.29524,"lon":5.39406,"is_reserved":false,"is_disabled":false,"rental_uris":{"android":"levelo://app?vid=b380b0eb-d307-4448-9cec-68025981a610","ios":"levelo://app?vid=b380b0eb-d307-4448-9cec-68025981a610"},"vehicle_type_id":"4","last_reported":1730149694,"current_range_meters":38800,"station_id":"ce4bh292rcd13ifvqdf0","pricing_plan_id":"cebpf4jnsgd1na2vs0mg"},{"bike_id":"bc1da436-2a2e-45da-b2a5-32f7806ffa51","system_id":"levelo_inurba_marseille","lat":43.30423,"lon":5.39756,"is_reserved":false,"is_disabled":false,"rental_uris":{"android":"levelo://app?vid=bc1da436-2a2e-45da-b2a5-32f7806ffa51","ios":"levelo://app?vid=bc1da436-2a2e-45da-b2a5-32f7806ffa51"},"vehicle_type_id":"4","last_reported":1730149694,"current_range_meters":12000,"station_id":"ce4bh092rcd13ifvqd20","pricing_plan_id":"cebpf4jnsgd1na2vs0mg"},{"bike_id":"28971a98-def1-4d76-b092-878b2587d9f4","system_id":"levelo_inurba_marseille","lat":43.28367,"lon":5.38628,"is_reserved":false,"is_disabled":false,"rental_uris":{"android":"levelo://app?vid=28971a98-def1-4d76-b092-878b2587d9f4","ios":"levelo://app?vid=28971a98-def1-4d76-b092-878b2587d9f4"},"vehicle_type_id":"4","last_reported":1730149694,"current_range_meters":12000,"station_id":"ce4bh492rcd13ifvqdvg","pricing_plan_id":"cebpf4jnsgd1na2vs0mg"},{"bike_id":"7ef5bbb9-d299-47c2-8408-1446871a4d1e","system_id":"levelo_inurba_marseille","lat":43.33026,"lon":5.39035,"is_reserved":false,"is_disabled":false,"rental_uris":{"android":"levelo://app?vid=7ef5bbb9-d299-47c2-8408-1446871a4d1e","ios":"levelo://app?vid=7ef5bbb9-d299-47c2-8408-1446871a4d1e"},"vehicle_type_id":"4","last_reported":1730149694,"current_range_meters":15200,"station_id":"ce4bhr92rcd13ifvqhrg","pricing_plan_id":"cebpf4jnsgd1na2vs0mg"},{"bike_id":"9c36184f-ceff-4ea5-b950-1cf6d04728f0","system_id":"levelo_inurba_marseille","lat":43.2695,"lon":5.38635,"is_reserved":false,"is_disabled":false,"rental_uris":{"android":"levelo://app?vid=9c36184f-ceff-4ea5-b950-1cf6d04728f0","ios":"levelo://app?vid=9c36184f-ceff-4ea5-b950-1cf6d04728f0"},"vehicle_type_id":"4","last_reported":1730149694,"current_range_meters":38800,"station_id":"ce4bhh92rcd13ifvqfh0","pricing_plan_id":"cebpf4jnsgd1na2vs0mg"},{"bike_id":"302c1c60-4abe-41ff-baba-35758250be05","system_id":"levelo_inurba_marseille","lat":43.29442,"lon":5.3975,"is_reserved":false,"is_disabled":false,"rental_uris":{"android":"levelo://app?vid=302c1c60-4abe-41ff-baba-35758250be05","ios":"levelo://app?vid=302c1c60-4abe-41ff-baba-35758250be05"},"vehicle_type_id":"4","last_reported":1730149694,"current_range_meters":38800,"station_id":"ce4bh3h2rcd13ifvqdo0","pricing_plan_id":"cebpf4jnsgd1na2vs0mg"},{"bike_id":"9da47013-7556-4f47-95c9-7f7ca36bde87","system_id":"levelo_inurba_marseille","lat":43.28933,"lon":5.36632,"is_reserved":false,"is_disabled":false,"rental_uris":{"android":"levelo://app?vid=9da47013-7556-4f47-95c9-7f7ca36bde87","ios":"levelo://app?vid=9da47013-7556-4f47-95c9-7f7ca36bde87"},"vehicle_type_id":"4","last_reported":1730149694,"current_range_meters":32400,"station_id":"ce4bhap2rcd13ifvqek0","pricing_plan_id":"cebpf4jnsgd1na2vs0mg"},{"bike_id":"0415be9b-88d6-4d85-9d1e-3930b85f0223","system_id":"levelo_inurba_marseille","lat":43.30423,"lon":5.39751,"is_reserved":false,"is_disabled":false,"rental_uris":{"android":"levelo://app?vid=0415be9b-88d6-4d85-9d1e-3930b85f0223","ios":"levelo://app?vid=0415be9b-88d6-4d85-9d1e-3930b85f0223"},"vehicle_type_id":"4","last_reported":1730149694,"current_range_meters":38800,"station_id":"ce4bh092rcd13ifvqd20","pricing_plan_id":"cebpf4jnsgd1na2vs0mg"},{"bike_id":"8d191566-d8a6-44ba-bebe-2a9d6ff01fde","system_id":"levelo_inurba_marseille","lat":43.27237,"lon":5.38696,"is_reserved":false,"is_disabled":false,"rental_uris":{"android":"levelo://app?vid=8d191566-d8a6-44ba-bebe-2a9d6ff01fde","ios":"levelo://app?vid=8d191566-d8a6-44ba-bebe-2a9d6ff01fde"},"vehicle_type_id":"4","last_reported":1730149694,"current_range_meters":26800,"station_id":"","pricing_plan_id":"cebpf4jnsgd1na2vs0mg"},{"bike_id":"96cb4b23-31f3-4064-a516-f3e71567da49","system_id":"levelo_inurba_marseille","lat":43.29373,"lon":5.37864,"is_reserved":false,"is_disabled":false,"rental_uris":{"android":"levelo://app?vid=96cb4b23-31f3-4064-a516-f3e71567da49","ios":"levelo://app?vid=96cb4b23-31f3-4064-a516-f3e71567da49"},"vehicle_type_id":"4","last_reported":1730149694,"current_range_meters":3200,"station_id":"ce4bgjh2rcd13ifvqbf0","pricing_plan_id":"cebpf4jnsgd1na2vs0mg"},{"bike_id":"18d073cb-83b6-4a56-b36c-f24538a0e583","system_id":"levelo_inurba_marseille","lat":43.23177,"lon":5.39983,"is_reserved":false,"is_disabled":false,"rental_uris":{"android":"levelo://app?vid=18d073cb-83b6-4a56-b36c-f24538a0e583","ios":"levelo://app?vid=18d073cb-83b6-4a56-b36c-f24538a0e583"},"vehicle_type_id":"4","last_reported":1730149694,"current_range_meters":8800,"station_id":"ce4bhn12rcd13ifvqgqg","pricing_plan_id":"cebpf4jnsgd1na2vs0mg"},{"bike_id":"012c2ee5-d9ed-4efb-8323-b37e2b97ac55","system_id":"levelo_inurba_marseille","lat":43.231819,"lon":5.399857,"is_reserved":false,"is_disabled":false,"rental_uris":{"android":"levelo://app?vid=012c2ee5-d9ed-4efb-8323-b37e2b97ac55","ios":"levelo://app?vid=012c2ee5-d9ed-4efb-8323-b37e2b97ac55"},"vehicle_type_id":"4","last_reported":1730149694,"current_range_meters":27200,"station_id":"ce4bhn12rcd13ifvqgqg","pricing_plan_id":"cebpf4jnsgd1na2vs0mg"},{"bike_id":"fb65aaac-8bcd-42f1-b8e9-772193da838a","system_id":"levelo_inurba_marseille","lat":43.27577,"lon":5.38412,"is_reserved":false,"is_disabled":false,"rental_uris":{"android":"levelo://app?vid=fb65aaac-8bcd-42f1-b8e9-772193da838a","ios":"levelo://app?vid=fb65aaac-8bcd-42f1-b8e9-772193da838a"},"vehicle_type_id":"4","last_reported":1730149694,"current_range_meters":3600,"station_id":"ce4bhh92rcd13ifvqfi0","pricing_plan_id":"cebpf4jnsgd1na2vs0mg"},{"bike_id":"c4c72365-ffe5-41ac-9f84-8616ea86cf9c","system_id":"levelo_inurba_marseille","lat":43.29774,"lon":5.37086,"is_reserved":false,"is_disabled":false,"rental_uris":{"android":"levelo://app?vid=c4c72365-ffe5-41ac-9f84-8616ea86cf9c","ios":"levelo://app?vid=c4c72365-ffe5-41ac-9f84-8616ea86cf9c"},"vehicle_type_id":"4","last_reported":1730149694,"current_range_meters":11200,"station_id":"ce4bgop2rcd13ifvqc1g","pricing_plan_id":"cebpf4jnsgd1na2vs0mg"},{"bike_id":"9028ceb3-d950-4419-9b34-cbe99059c190","system_id":"levelo_inurba_marseille","lat":43.32333,"lon":5.4062,"is_reserved":false,"is_disabled":false,"rental_uris":{"android":"levelo://app?vid=9028ceb3-d950-4419-9b34-cbe99059c190","ios":"levelo://app?vid=9028ceb3-d950-4419-9b34-cbe99059c190"},"vehicle_type_id":"4","last_reported":1730149694,"current_range_meters":20000,"station_id":"ce4bhq92rcd13ifvqhjg","pricing_plan_id":"cebpf4jnsgd1na2vs0mg"},{"bike_id":"92f6ed1c-79dc-4eb8-b37f-584bfe085c1d","system_id":"levelo_inurba_marseille","lat":43.312608,"lon":5.401687,"is_reserved":false,"is_disabled":false,"rental_uris":{"android":"levelo://app?vid=92f6ed1c-79dc-4eb8-b37f-584bfe085c1d","ios":"levelo://app?vid=92f6ed1c-79dc-4eb8-b37f-584bfe085c1d"},"vehicle_type_id":"4","last_reported":1730149694,"current_range_meters":24800,"station_id":"ce4bh092rcd13ifvqd30","pricing_plan_id":"cebpf4jnsgd1na2vs0mg"},{"bike_id":"c4589ab5-bcbe-4008-b577-c015e773a1a8","system_id":"levelo_inurba_marseille","lat":43.32334,"lon":5.40625,"is_reserved":false,"is_disabled":false,"rental_uris":{"android":"levelo://app?vid=c4589ab5-bcbe-4008-b577-c015e773a1a8","ios":"levelo://app?vid=c4589ab5-bcbe-4008-b577-c015e773a1a8"},"vehicle_type_id":"4","last_reported":1730149694,"current_range_meters":38000,"station_id":"ce4bhq92rcd13ifvqhjg","pricing_plan_id":"cebpf4jnsgd1na2vs0mg"},{"bike_id":"bd8baaec-45d2-4e43-93df-f9f2bae82e2e","system_id":"levelo_inurba_marseille","lat":43.30417,"lon":5.39729,"is_reserved":false,"is_disabled":false,"rental_uris":{"android":"levelo://app?vid=bd8baaec-45d2-4e43-93df-f9f2bae82e2e","ios":"levelo://app?vid=bd8baaec-45d2-4e43-93df-f9f2bae82e2e"},"vehicle_type_id":"4","last_reported":1730149694,"current_range_meters":38800,"station_id":"ce4bh092rcd13ifvqd20","pricing_plan_id":"cebpf4jnsgd1na2vs0mg"},{"bike_id":"559e0993-d3ec-4994-8a4d-edbc5593d328","system_id":"levelo_inurba_marseille","lat":43.22934,"lon":5.35378,"is_reserved":false,"is_disabled":false,"rental_uris":{"android":"levelo://app?vid=559e0993-d3ec-4994-8a4d-edbc5593d328","ios":"levelo://app?vid=559e0993-d3ec-4994-8a4d-edbc5593d328"},"vehicle_type_id":"4","last_reported":1730149694,"current_range_meters":39200,"station_id":"cpo3532slgdg3j2ikp40","pricing_plan_id":"cebpf4jnsgd1na2vs0mg"},{"bike_id":"86a744ef-5964-4bef-a0fc-8c89e3157945","system_id":"levelo_inurba_marseille","lat":43.30253,"lon":5.40057,"is_reserved":false,"is_disabled":false,"rental_uris":{"android":"levelo://app?vid=86a744ef-5964-4bef-a0fc-8c89e3157945","ios":"levelo://app?vid=86a744ef-5964-4bef-a0fc-8c89e3157945"},"vehicle_type_id":"4","last_reported":1730149694,"current_range_meters":30800,"station_id":"ce4bgvh2rcd13ifvqcs0","pricing_plan_id":"cebpf4jnsgd1na2vs0mg"},{"bike_id":"5d473ec4-2745-4406-90b3-7a99a8f9839a","system_id":"levelo_inurba_marseille","lat":43.31161,"lon":5.3872,"is_reserved":false,"is_disabled":false,"rental_uris":{"android":"levelo://app?vid=5d473ec4-2745-4406-90b3-7a99a8f9839a","ios":"levelo://app?vid=5d473ec4-2745-4406-90b3-7a99a8f9839a"},"vehicle_type_id":"4","last_reported":1730149694,"current_range_meters":22000,"station_id":"ce4bgv12rcd13ifvqcp0","pricing_plan_id":"cebpf4jnsgd1na2vs0mg"},{"bike_id":"8706ceeb-0c9c-420d-a36b-ac84e47f7c85","system_id":"levelo_inurba_marseille","lat":43.28852,"lon":5.3931,"is_reserved":false,"is_disabled":false,"rental_uris":{"android":"levelo://app?vid=8706ceeb-0c9c-420d-a36b-ac84e47f7c85","ios":"levelo://app?vid=8706ceeb-0c9c-420d-a36b-ac84e47f7c85"},"vehicle_type_id":"4","last_reported":1730149694,"current_range_meters":6400,"station_id":"ce4bh2p2rcd13ifvqdi0","pricing_plan_id":"cebpf4jnsgd1na2vs0mg"},{"bike_id":"d1dacee6-8f47-4ca5-823b-a2ea6c3413e8","system_id":"levelo_inurba_marseille","lat":43.23195,"lon":5.35559,"is_reserved":false,"is_disabled":false,"rental_uris":{"android":"levelo://app?vid=d1dacee6-8f47-4ca5-823b-a2ea6c3413e8","ios":"levelo://app?vid=d1dacee6-8f47-4ca5-823b-a2ea6c3413e8"},"vehicle_type_id":"4","last_reported":1730149694,"current_range_meters":38800,"station_id":"ce4bhu92rcd13ifvqi70","pricing_plan_id":"cebpf4jnsgd1na2vs0mg"},{"bike_id":"7a608df9-d38c-4539-9618-def54653a395","system_id":"levelo_inurba_marseille","lat":43.29774,"lon":5.37111,"is_reserved":false,"is_disabled":false,"rental_uris":{"android":"levelo://app?vid=7a608df9-d38c-4539-9618-def54653a395","ios":"levelo://app?vid=7a608df9-d38c-4539-9618-def54653a395"},"vehicle_type_id":"4","last_reported":1730149694,"current_range_meters":33600,"station_id":"ce4bgop2rcd13ifvqc1g","pricing_plan_id":"cebpf4jnsgd1na2vs0mg"},{"bike_id":"409aaf5e-680b-47ec-83f6-033c62068ffa","system_id":"levelo_inurba_marseille","lat":43.28106,"lon":5.37835,"is_reserved":false,"is_disabled":false,"rental_uris":{"android":"levelo://app?vid=409aaf5e-680b-47ec-83f6-033c62068ffa","ios":"levelo://app?vid=409aaf5e-680b-47ec-83f6-033c62068ffa"},"vehicle_type_id":"4","last_reported":1730149694,"current_range_meters":38800,"station_id":"ce4bha12rcd13ifvqee0","pricing_plan_id":"cebpf4jnsgd1na2vs0mg"},{"bike_id":"918a42ab-9b9b-4598-9aeb-f8b26ea46eb4","system_id":"levelo_inurba_marseille","lat":43.29029,"lon":5.38636,"is_reserved":false,"is_disabled":false,"rental_uris":{"android":"levelo://app?vid=918a42ab-9b9b-4598-9aeb-f8b26ea46eb4","ios":"levelo://app?vid=918a42ab-9b9b-4598-9aeb-f8b26ea46eb4"},"vehicle_type_id":"4","last_reported":1730149694,"current_range_meters":38800,"station_id":"ce4bh4p2rcd13ifvqe0g","pricing_plan_id":"cebpf4jnsgd1na2vs0mg"},{"bike_id":"7e62271c-c4d7-4c96-a4f4-15fb78c7fc3d","system_id":"levelo_inurba_marseille","lat":43.30125,"lon":5.39881,"is_reserved":false,"is_disabled":false,"rental_uris":{"android":"levelo://app?vid=7e62271c-c4d7-4c96-a4f4-15fb78c7fc3d","ios":"levelo://app?vid=7e62271c-c4d7-4c96-a4f4-15fb78c7fc3d"},"vehicle_type_id":"4","last_reported":1730149694,"current_range_meters":38800,"station_id":"ce4bh0h2rcd13ifvqd40","pricing_plan_id":"cebpf4jnsgd1na2vs0mg"},{"bike_id":"f0da82b0-3e16-4540-a7c0-29e93e9fb7b4","system_id":"levelo_inurba_marseille","lat":43.31994,"lon":5.38163,"is_reserved":false,"is_disabled":false,"rental_uris":{"android":"levelo://app?vid=f0da82b0-3e16-4540-a7c0-29e93e9fb7b4","ios":"levelo://app?vid=f0da82b0-3e16-4540-a7c0-29e93e9fb7b4"},"vehicle_type_id":"4","last_reported":1730149694,"current_range_meters":12000,"station_id":"ce4bhr12rcd13ifvqhpg","pricing_plan_id":"cebpf4jnsgd1na2vs0mg"},{"bike_id":"f8e40ec6-02d7-48d8-9484-3fe6f97bc7b1","system_id":"levelo_inurba_marseille","lat":43.28669,"lon":5.36346,"is_reserved":false,"is_disabled":false,"rental_uris":{"android":"levelo://app?vid=f8e40ec6-02d7-48d8-9484-3fe6f97bc7b1","ios":"levelo://app?vid=f8e40ec6-02d7-48d8-9484-3fe6f97bc7b1"},"vehicle_type_id":"4","last_reported":1730149694,"current_range_meters":28800,"station_id":"ce4bhah2rcd13ifvqej0","pricing_plan_id":"cebpf4jnsgd1na2vs0mg"},{"bike_id":"4b1f45ca-5ba1-42a7-87e4-e9967261b64c","system_id":"levelo_inurba_marseille","lat":43.31077,"lon":5.42428,"is_reserved":false,"is_disabled":false,"rental_uris":{"android":"levelo://app?vid=4b1f45ca-5ba1-42a7-87e4-e9967261b64c","ios":"levelo://app?vid=4b1f45ca-5ba1-42a7-87e4-e9967261b64c"},"vehicle_type_id":"4","last_reported":1730149694,"current_range_meters":37600,"station_id":"ce4bhp92rcd13ifvqhag","pricing_plan_id":"cebpf4jnsgd1na2vs0mg"},{"bike_id":"5b0a34de-11b0-4ff8-9149-d6c3310f6681","system_id":"levelo_inurba_marseille","lat":43.29525,"lon":5.38533,"is_reserved":false,"is_disabled":false,"rental_uris":{"android":"levelo://app?vid=5b0a34de-11b0-4ff8-9149-d6c3310f6681","ios":"levelo://app?vid=5b0a34de-11b0-4ff8-9149-d6c3310f6681"},"vehicle_type_id":"4","last_reported":1730149694,"current_range_meters":3600,"station_id":"ce4bgih2rcd13ifvqba0","pricing_plan_id":"cebpf4jnsgd1na2vs0mg"},{"bike_id":"adeacf7c-16b9-4173-ab8e-c49573383005","system_id":"levelo_inurba_marseille","lat":43.32659,"lon":5.40997,"is_reserved":false,"is_disabled":false,"rental_uris":{"android":"levelo://app?vid=adeacf7c-16b9-4173-ab8e-c49573383005","ios":"levelo://app?vid=adeacf7c-16b9-4173-ab8e-c49573383005"},"vehicle_type_id":"4","last_reported":1730149694,"current_range_meters":25200,"station_id":"ce4bhpp2rcd13ifvqhgg","pricing_plan_id":"cebpf4jnsgd1na2vs0mg"},{"bike_id":"17c8cb4b-2976-4794-8802-8c9f68880de3","system_id":"levelo_inurba_marseille","lat":43.31351,"lon":5.36719,"is_reserved":false,"is_disabled":false,"rental_uris":{"android":"levelo://app?vid=17c8cb4b-2976-4794-8802-8c9f68880de3","ios":"levelo://app?vid=17c8cb4b-2976-4794-8802-8c9f68880de3"},"vehicle_type_id":"4","last_reported":1730149694,"current_range_meters":14800,"station_id":"ce4bgr92rcd13ifvqc6g","pricing_plan_id":"cebpf4jnsgd1na2vs0mg"},{"bike_id":"e8704b43-e640-4b15-94fd-4d4ba609b22b","system_id":"levelo_inurba_marseille","lat":43.3112,"lon":5.37765,"is_reserved":false,"is_disabled":false,"rental_uris":{"android":"levelo://app?vid=e8704b43-e640-4b15-94fd-4d4ba609b22b","ios":"levelo://app?vid=e8704b43-e640-4b15-94fd-4d4ba609b22b"},"vehicle_type_id":"4","last_reported":1730149694,"current_range_meters":38800,"station_id":"ce4bgt92rcd13ifvqcg0","pricing_plan_id":"cebpf4jnsgd1na2vs0mg"},{"bike_id":"a8a27773-600f-442e-8ba4-acb77b9cacff","system_id":"levelo_inurba_marseille","lat":43.29581,"lon":5.36741,"is_reserved":false,"is_disabled":false,"rental_uris":{"android":"levelo://app?vid=a8a27773-600f-442e-8ba4-acb77b9cacff","ios":"levelo://app?vid=a8a27773-600f-442e-8ba4-acb77b9cacff"},"vehicle_type_id":"4","last_reported":1730149694,"current_range_meters":14400,"station_id":"ce4bgph2rcd13ifvqc2g","pricing_plan_id":"cebpf4jnsgd1na2vs0mg"},{"bike_id":"edee228c-76f1-4f9d-b4f7-5773b8a0b850","system_id":"levelo_inurba_marseille","lat":43.23193,"lon":5.35552,"is_reserved":false,"is_disabled":false,"rental_uris":{"android":"levelo://app?vid=edee228c-76f1-4f9d-b4f7-5773b8a0b850","ios":"levelo://app?vid=edee228c-76f1-4f9d-b4f7-5773b8a0b850"},"vehicle_type_id":"4","last_reported":1730149694,"current_range_meters":24000,"station_id":"ce4bhu92rcd13ifvqi70","pricing_plan_id":"cebpf4jnsgd1na2vs0mg"},{"bike_id":"de64aefc-2736-480f-8f17-3a77ec3af0e8","system_id":"levelo_inurba_marseille","lat":43.25579,"lon":5.38231,"is_reserved":false,"is_disabled":false,"rental_uris":{"android":"levelo://app?vid=de64aefc-2736-480f-8f17-3a77ec3af0e8","ios":"levelo://app?vid=de64aefc-2736-480f-8f17-3a77ec3af0e8"},"vehicle_type_id":"4","last_reported":1730149694,"current_range_meters":38800,"station_id":"ce4bhih2rcd13ifvqfs0","pricing_plan_id":"cebpf4jnsgd1na2vs0mg"},{"bike_id":"343b87d6-7bc3-47bb-aa46-9d61479b7b91","system_id":"levelo_inurba_marseille","lat":43.31328,"lon":5.39693,"is_reserved":false,"is_disabled":false,"rental_uris":{"android":"levelo://app?vid=343b87d6-7bc3-47bb-aa46-9d61479b7b91","ios":"levelo://app?vid=343b87d6-7bc3-47bb-aa46-9d61479b7b91"},"vehicle_type_id":"4","last_reported":1730149694,"current_range_meters":27600,"station_id":"ce4bgvp2rcd13ifvqcu0","pricing_plan_id":"cebpf4jnsgd1na2vs0mg"},{"bike_id":"27a3bee1-4ace-4ffd-b4ef-7e7fd88242e2","system_id":"levelo_inurba_marseille","lat":43.31117,"lon":5.37762,"is_reserved":false,"is_disabled":false,"rental_uris":{"android":"levelo://app?vid=27a3bee1-4ace-4ffd-b4ef-7e7fd88242e2","ios":"levelo://app?vid=27a3bee1-4ace-4ffd-b4ef-7e7fd88242e2"},"vehicle_type_id":"4","last_reported":1730149694,"current_range_meters":36400,"station_id":"ce4bgt92rcd13ifvqcg0","pricing_plan_id":"cebpf4jnsgd1na2vs0mg"},{"bike_id":"e204fd36-0aeb-4cd1-8004-a91abecc45e7","system_id":"levelo_inurba_marseille","lat":43.291885,"lon":5.393098,"is_reserved":false,"is_disabled":false,"rental_uris":{"android":"levelo://app?vid=e204fd36-0aeb-4cd1-8004-a91abecc45e7","ios":"levelo://app?vid=e204fd36-0aeb-4cd1-8004-a91abecc45e7"},"vehicle_type_id":"4","last_reported":1730149694,"current_range_meters":37600,"station_id":"ce4bgip2rcd13ifvqbb0","pricing_plan_id":"cebpf4jnsgd1na2vs0mg"},{"bike_id":"cc4f48bc-1ebf-481e-a42a-ef03c2092f7c","system_id":"levelo_inurba_marseille","lat":43.27898,"lon":5.38008,"is_reserved":false,"is_disabled":false,"rental_uris":{"android":"levelo://app?vid=cc4f48bc-1ebf-481e-a42a-ef03c2092f7c","ios":"levelo://app?vid=cc4f48bc-1ebf-481e-a42a-ef03c2092f7c"},"vehicle_type_id":"4","last_reported":1730149694,"current_range_meters":37600,"station_id":"ce4bhf92rcd13ifvqf50","pricing_plan_id":"cebpf4jnsgd1na2vs0mg"},{"bike_id":"8dbc8004-b936-46b7-a08f-c23fdb5990a5","system_id":"levelo_inurba_marseille","lat":43.3065,"lon":5.40085,"is_reserved":false,"is_disabled":false,"rental_uris":{"android":"levelo://app?vid=8dbc8004-b936-46b7-a08f-c23fdb5990a5","ios":"levelo://app?vid=8dbc8004-b936-46b7-a08f-c23fdb5990a5"},"vehicle_type_id":"4","last_reported":1730149694,"current_range_meters":39200,"station_id":"ce4bh112rcd13ifvqda0","pricing_plan_id":"cebpf4jnsgd1na2vs0mg"},{"bike_id":"ed33e0fd-26d8-42ed-b26e-d63294267c63","system_id":"levelo_inurba_marseille","lat":43.28846,"lon":5.35859,"is_reserved":false,"is_disabled":false,"rental_uris":{"android":"levelo://app?vid=ed33e0fd-26d8-42ed-b26e-d63294267c63","ios":"levelo://app?vid=ed33e0fd-26d8-42ed-b26e-d63294267c63"},"vehicle_type_id":"4","last_reported":1730149694,"current_range_meters":20800,"station_id":"ce4bhb12rcd13ifvqem0","pricing_plan_id":"cebpf4jnsgd1na2vs0mg"},{"bike_id":"2f921f60-1890-404a-898c-6dae28d2ff64","system_id":"levelo_inurba_marseille","lat":43.3211,"lon":5.3678,"is_reserved":false,"is_disabled":false,"rental_uris":{"android":"levelo://app?vid=2f921f60-1890-404a-898c-6dae28d2ff64","ios":"levelo://app?vid=2f921f60-1890-404a-898c-6dae28d2ff64"},"vehicle_type_id":"4","last_reported":1730149694,"current_range_meters":38400,"station_id":"ce4bhrh2rcd13ifvqhug","pricing_plan_id":"cebpf4jnsgd1na2vs0mg"},{"bike_id":"e7c28416-4a7f-4d06-99c7-70505e487027","system_id":"levelo_inurba_marseille","lat":43.29272,"lon":5.36836,"is_reserved":false,"is_disabled":false,"rental_uris":{"android":"levelo://app?vid=e7c28416-4a7f-4d06-99c7-70505e487027","ios":"levelo://app?vid=e7c28416-4a7f-4d06-99c7-70505e487027"},"vehicle_type_id":"4","last_reported":1730149694,"current_range_meters":38800,"station_id":"ce4bhbp2rcd13ifvqesg","pricing_plan_id":"cebpf4jnsgd1na2vs0mg"},{"bike_id":"cd420958-f98b-438b-bf94-edd1a2ff26f8","system_id":"levelo_inurba_marseille","lat":43.31692,"lon":5.40471,"is_reserved":false,"is_disabled":false,"rental_uris":{"android":"levelo://app?vid=cd420958-f98b-438b-bf94-edd1a2ff26f8","ios":"levelo://app?vid=cd420958-f98b-438b-bf94-edd1a2ff26f8"},"vehicle_type_id":"4","last_reported":1730149694,"current_range_meters":25600,"station_id":"ce4bh012rcd13ifvqd00","pricing_plan_id":"cebpf4jnsgd1na2vs0mg"},{"bike_id":"9989b398-ea1f-43b4-92f6-cb3a0e8d8247","system_id":"levelo_inurba_marseille","lat":43.313318,"lon":5.396978,"is_reserved":false,"is_disabled":false,"rental_uris":{"android":"levelo://app?vid=9989b398-ea1f-43b4-92f6-cb3a0e8d8247","ios":"levelo://app?vid=9989b398-ea1f-43b4-92f6-cb3a0e8d8247"},"vehicle_type_id":"4","last_reported":1730149694,"current_range_meters":38800,"station_id":"ce4bgvp2rcd13ifvqcu0","pricing_plan_id":"cebpf4jnsgd1na2vs0mg"},{"bike_id":"81b63680-0762-4f4a-aaa3-4fa9f45b5418","system_id":"levelo_inurba_marseille","lat":43.3122,"lon":5.36851,"is_reserved":false,"is_disabled":false,"rental_uris":{"android":"levelo://app?vid=81b63680-0762-4f4a-aaa3-4fa9f45b5418","ios":"levelo://app?vid=81b63680-0762-4f4a-aaa3-4fa9f45b5418"},"vehicle_type_id":"4","last_reported":1730149694,"current_range_meters":38800,"station_id":"ce4bgl92rcd13ifvqbq0","pricing_plan_id":"cebpf4jnsgd1na2vs0mg"},{"bike_id":"3ece1632-2cd7-47b8-8c35-2f00c04a5941","system_id":"levelo_inurba_marseille","lat":43.2942,"lon":5.38612,"is_reserved":false,"is_disabled":false,"rental_uris":{"android":"levelo://app?vid=3ece1632-2cd7-47b8-8c35-2f00c04a5941","ios":"levelo://app?vid=3ece1632-2cd7-47b8-8c35-2f00c04a5941"},"vehicle_type_id":"4","last_reported":1730149694,"current_range_meters":38000,"station_id":"ce4bh2h2rcd13ifvqdh0","pricing_plan_id":"cebpf4jnsgd1na2vs0mg"},{"bike_id":"5bb2358b-cdbe-4758-a53b-b3d6e8b9778f","system_id":"levelo_inurba_marseille","lat":43.3026,"lon":5.40062,"is_reserved":false,"is_disabled":false,"rental_uris":{"android":"levelo://app?vid=5bb2358b-cdbe-4758-a53b-b3d6e8b9778f","ios":"levelo://app?vid=5bb2358b-cdbe-4758-a53b-b3d6e8b9778f"},"vehicle_type_id":"4","last_reported":1730149694,"current_range_meters":38800,"station_id":"ce4bgvh2rcd13ifvqcs0","pricing_plan_id":"cebpf4jnsgd1na2vs0mg"},{"bike_id":"8876377b-7139-451e-af58-ac554c84a384","system_id":"levelo_inurba_marseille","lat":43.32481,"lon":5.36562,"is_reserved":false,"is_disabled":false,"rental_uris":{"android":"levelo://app?vid=8876377b-7139-451e-af58-ac554c84a384","ios":"levelo://app?vid=8876377b-7139-451e-af58-ac554c84a384"},"vehicle_type_id":"4","last_reported":1730149694,"current_range_meters":37600,"station_id":"ce4bhs12rcd13ifvqhvg","pricing_plan_id":"cebpf4jnsgd1na2vs0mg"},{"bike_id":"58750843-dc43-4f10-8f78-8975e20a15ef","system_id":"levelo_inurba_marseille","lat":43.27183,"lon":5.4099,"is_reserved":false,"is_disabled":false,"rental_uris":{"android":"levelo://app?vid=58750843-dc43-4f10-8f78-8975e20a15ef","ios":"levelo://app?vid=58750843-dc43-4f10-8f78-8975e20a15ef"},"vehicle_type_id":"4","last_reported":1730149694,"current_range_meters":2800,"station_id":"ce4bhl12rcd13ifvqgf0","pricing_plan_id":"cebpf4jnsgd1na2vs0mg"},{"bike_id":"d9d4a298-8acd-4d1c-8825-3408f5f02c5a","system_id":"levelo_inurba_marseille","lat":43.30805,"lon":5.43524,"is_reserved":false,"is_disabled":false,"rental_uris":{"android":"levelo://app?vid=d9d4a298-8acd-4d1c-8825-3408f5f02c5a","ios":"levelo://app?vid=d9d4a298-8acd-4d1c-8825-3408f5f02c5a"},"vehicle_type_id":"4","last_reported":1730149694,"current_range_meters":30000,"station_id":"ce4bhph2rcd13ifvqheg","pricing_plan_id":"cebpf4jnsgd1na2vs0mg"},{"bike_id":"df61b96c-b629-4fb1-8a4b-d3354e3de566","system_id":"levelo_inurba_marseille","lat":43.28271,"lon":5.35069,"is_reserved":false,"is_disabled":false,"rental_uris":{"android":"levelo://app?vid=df61b96c-b629-4fb1-8a4b-d3354e3de566","ios":"levelo://app?vid=df61b96c-b629-4fb1-8a4b-d3354e3de566"},"vehicle_type_id":"4","last_reported":1730149694,"current_range_meters":38800,"station_id":"ce4bhbp2rcd13ifvqerg","pricing_plan_id":"cebpf4jnsgd1na2vs0mg"},{"bike_id":"b749049c-0b95-4e56-9192-1f2a45bed9f3","system_id":"levelo_inurba_marseille","lat":43.29452,"lon":5.38318,"is_reserved":false,"is_disabled":false,"rental_uris":{"android":"levelo://app?vid=b749049c-0b95-4e56-9192-1f2a45bed9f3","ios":"levelo://app?vid=b749049c-0b95-4e56-9192-1f2a45bed9f3"},"vehicle_type_id":"4","last_reported":1730149694,"current_range_meters":29600,"station_id":"","pricing_plan_id":"cebpf4jnsgd1na2vs0mg"},{"bike_id":"468aa9c7-6f8e-48c3-85e9-d3d7a1cdcc52","system_id":"levelo_inurba_marseille","lat":43.27111,"lon":5.40296,"is_reserved":false,"is_disabled":false,"rental_uris":{"android":"levelo://app?vid=468aa9c7-6f8e-48c3-85e9-d3d7a1cdcc52","ios":"levelo://app?vid=468aa9c7-6f8e-48c3-85e9-d3d7a1cdcc52"},"vehicle_type_id":"4","last_reported":1730149694,"current_range_meters":32400,"station_id":"","pricing_plan_id":"cebpf4jnsgd1na2vs0mg"},{"bike_id":"cdb47324-5f09-417b-9c69-253828aede39","system_id":"levelo_inurba_marseille","lat":43.30324,"lon":5.40441,"is_reserved":false,"is_disabled":false,"rental_uris":{"android":"levelo://app?vid=cdb47324-5f09-417b-9c69-253828aede39","ios":"levelo://app?vid=cdb47324-5f09-417b-9c69-253828aede39"},"vehicle_type_id":"4","last_reported":1730149694,"current_range_meters":38800,"station_id":"ce4bh012rcd13ifvqd10","pricing_plan_id":"cebpf4jnsgd1na2vs0mg"},{"bike_id":"b7deb22c-cd27-491b-a9d6-00448ff7ef42","system_id":"levelo_inurba_marseille","lat":43.29277,"lon":5.40129,"is_reserved":false,"is_disabled":false,"rental_uris":{"android":"levelo://app?vid=b7deb22c-cd27-491b-a9d6-00448ff7ef42","ios":"levelo://app?vid=b7deb22c-cd27-491b-a9d6-00448ff7ef42"},"vehicle_type_id":"4","last_reported":1730149694,"current_range_meters":38800,"station_id":"ce4bh312rcd13ifvqdk0","pricing_plan_id":"cebpf4jnsgd1na2vs0mg"},{"bike_id":"dc0edb13-5c23-4261-8134-535c742da1e3","system_id":"levelo_inurba_marseille","lat":43.26944,"lon":5.388233,"is_reserved":false,"is_disabled":false,"rental_uris":{"android":"levelo://app?vid=dc0edb13-5c23-4261-8134-535c742da1e3","ios":"levelo://app?vid=dc0edb13-5c23-4261-8134-535c742da1e3"},"vehicle_type_id":"4","last_reported":1730149694,"current_range_meters":38800,"station_id":"ce4bhhh2rcd13ifvqfl0","pricing_plan_id":"cebpf4jnsgd1na2vs0mg"},{"bike_id":"fe0f4ad9-8221-48ed-be5d-c64547a2f47a","system_id":"levelo_inurba_marseille","lat":43.2863,"lon":5.38358,"is_reserved":false,"is_disabled":false,"rental_uris":{"android":"levelo://app?vid=fe0f4ad9-8221-48ed-be5d-c64547a2f47a","ios":"levelo://app?vid=fe0f4ad9-8221-48ed-be5d-c64547a2f47a"},"vehicle_type_id":"4","last_reported":1730149694,"current_range_meters":19600,"station_id":"ce4bh4p2rcd13ifvqe1g","pricing_plan_id":"cebpf4jnsgd1na2vs0mg"},{"bike_id":"874cf7cd-35e4-40b8-9bd0-202ef026488c","system_id":"levelo_inurba_marseille","lat":43.30651,"lon":5.40095,"is_reserved":false,"is_disabled":false,"rental_uris":{"android":"levelo://app?vid=874cf7cd-35e4-40b8-9bd0-202ef026488c","ios":"levelo://app?vid=874cf7cd-35e4-40b8-9bd0-202ef026488c"},"vehicle_type_id":"4","last_reported":1730149694,"current_range_meters":38400,"station_id":"ce4bh112rcd13ifvqda0","pricing_plan_id":"cebpf4jnsgd1na2vs0mg"},{"bike_id":"a846678d-cd93-4890-9fdc-977c67090280","system_id":"levelo_inurba_marseille","lat":43.28409,"lon":5.37509,"is_reserved":false,"is_disabled":false,"rental_uris":{"android":"levelo://app?vid=a846678d-cd93-4890-9fdc-977c67090280","ios":"levelo://app?vid=a846678d-cd93-4890-9fdc-977c67090280"},"vehicle_type_id":"4","last_reported":1730149694,"current_range_meters":34800,"station_id":"ce4bh412rcd13ifvqds0","pricing_plan_id":"cebpf4jnsgd1na2vs0mg"},{"bike_id":"4bcd1886-adca-47f0-b11a-c93bb04ae42e","system_id":"levelo_inurba_marseille","lat":43.281,"lon":5.37837,"is_reserved":false,"is_disabled":false,"rental_uris":{"android":"levelo://app?vid=4bcd1886-adca-47f0-b11a-c93bb04ae42e","ios":"levelo://app?vid=4bcd1886-adca-47f0-b11a-c93bb04ae42e"},"vehicle_type_id":"4","last_reported":1730149694,"current_range_meters":32400,"station_id":"ce4bha12rcd13ifvqee0","pricing_plan_id":"cebpf4jnsgd1na2vs0mg"},{"bike_id":"c103f3cf-a699-4d79-9cc1-df1ab22121e9","system_id":"levelo_inurba_marseille","lat":43.28662,"lon":5.3635,"is_reserved":false,"is_disabled":false,"rental_uris":{"android":"levelo://app?vid=c103f3cf-a699-4d79-9cc1-df1ab22121e9","ios":"levelo://app?vid=c103f3cf-a699-4d79-9cc1-df1ab22121e9"},"vehicle_type_id":"4","last_reported":1730149694,"current_range_meters":36000,"station_id":"ce4bhah2rcd13ifvqej0","pricing_plan_id":"cebpf4jnsgd1na2vs0mg"},{"bike_id":"21b0d405-022c-4046-9483-b0c711fb60b5","system_id":"levelo_inurba_marseille","lat":43.29553,"lon":5.42281,"is_reserved":false,"is_disabled":false,"rental_uris":{"android":"levelo://app?vid=21b0d405-022c-4046-9483-b0c711fb60b5","ios":"levelo://app?vid=21b0d405-022c-4046-9483-b0c711fb60b5"},"vehicle_type_id":"4","last_reported":1730149694,"current_range_meters":39200,"station_id":"ce4bhph2rcd13ifvqhdg","pricing_plan_id":"cebpf4jnsgd1na2vs0mg"},{"bike_id":"1ad13ac1-ad8c-4b13-a7c2-2e902ff3b0d6","system_id":"levelo_inurba_marseille","lat":43.26493,"lon":5.39555,"is_reserved":false,"is_disabled":false,"rental_uris":{"android":"levelo://app?vid=1ad13ac1-ad8c-4b13-a7c2-2e902ff3b0d6","ios":"levelo://app?vid=1ad13ac1-ad8c-4b13-a7c2-2e902ff3b0d6"},"vehicle_type_id":"4","last_reported":1730149694,"current_range_meters":14800,"station_id":"ce4bhi12rcd13ifvqfq0","pricing_plan_id":"cebpf4jnsgd1na2vs0mg"},{"bike_id":"b3c95314-deff-4948-8213-391859cbe57d","system_id":"levelo_inurba_marseille","lat":43.29571,"lon":5.39975,"is_reserved":false,"is_disabled":false,"rental_uris":{"android":"levelo://app?vid=b3c95314-deff-4948-8213-391859cbe57d","ios":"levelo://app?vid=b3c95314-deff-4948-8213-391859cbe57d"},"vehicle_type_id":"4","last_reported":1730149694,"current_range_meters":38800,"station_id":"ce4bh312rcd13ifvqdj0","pricing_plan_id":"cebpf4jnsgd1na2vs0mg"},{"bike_id":"d7870a3d-e1f0-4599-8e44-e305221e683a","system_id":"levelo_inurba_marseille","lat":43.28933,"lon":5.38405,"is_reserved":false,"is_disabled":false,"rental_uris":{"android":"levelo://app?vid=d7870a3d-e1f0-4599-8e44-e305221e683a","ios":"levelo://app?vid=d7870a3d-e1f0-4599-8e44-e305221e683a"},"vehicle_type_id":"4","last_reported":1730149694,"current_range_meters":27600,"station_id":"ce4bh612rcd13ifvqe6g","pricing_plan_id":"cebpf4jnsgd1na2vs0mg"},{"bike_id":"c86cffa9-e820-40b9-8f73-d9dc37d19dc5","system_id":"levelo_inurba_marseille","lat":43.30707,"lon":5.40156,"is_reserved":false,"is_disabled":false,"rental_uris":{"android":"levelo://app?vid=c86cffa9-e820-40b9-8f73-d9dc37d19dc5","ios":"levelo://app?vid=c86cffa9-e820-40b9-8f73-d9dc37d19dc5"},"vehicle_type_id":"4","last_reported":1730149694,"current_range_meters":30400,"station_id":"ce4bhq92rcd13ifvqhkg","pricing_plan_id":"cebpf4jnsgd1na2vs0mg"},{"bike_id":"43b735fd-ebeb-4334-a409-6698b7b6c280","system_id":"levelo_inurba_marseille","lat":43.267823,"lon":5.394104,"is_reserved":false,"is_disabled":false,"rental_uris":{"android":"levelo://app?vid=43b735fd-ebeb-4334-a409-6698b7b6c280","ios":"levelo://app?vid=43b735fd-ebeb-4334-a409-6698b7b6c280"},"vehicle_type_id":"4","last_reported":1730149694,"current_range_meters":8800,"station_id":"ce4bhi12rcd13ifvqfq0","pricing_plan_id":"cebpf4jnsgd1na2vs0mg"},{"bike_id":"e113f747-4daa-44f7-a218-9e030daa2565","system_id":"levelo_inurba_marseille","lat":43.321,"lon":5.36769,"is_reserved":false,"is_disabled":false,"rental_uris":{"android":"levelo://app?vid=e113f747-4daa-44f7-a218-9e030daa2565","ios":"levelo://app?vid=e113f747-4daa-44f7-a218-9e030daa2565"},"vehicle_type_id":"4","last_reported":1730149694,"current_range_meters":19200,"station_id":"ce4bhrh2rcd13ifvqhug","pricing_plan_id":"cebpf4jnsgd1na2vs0mg"},{"bike_id":"66e28388-948c-4989-b2c4-2a01d249c29c","system_id":"levelo_inurba_marseille","lat":43.29529,"lon":5.38539,"is_reserved":false,"is_disabled":false,"rental_uris":{"android":"levelo://app?vid=66e28388-948c-4989-b2c4-2a01d249c29c","ios":"levelo://app?vid=66e28388-948c-4989-b2c4-2a01d249c29c"},"vehicle_type_id":"4","last_reported":1730149694,"current_range_meters":20800,"station_id":"ce4bgih2rcd13ifvqba0","pricing_plan_id":"cebpf4jnsgd1na2vs0mg"},{"bike_id":"c83bf92a-895e-4031-90cc-0a4806604b3f","system_id":"levelo_inurba_marseille","lat":43.23054,"lon":5.35491,"is_reserved":false,"is_disabled":false,"rental_uris":{"android":"levelo://app?vid=c83bf92a-895e-4031-90cc-0a4806604b3f","ios":"levelo://app?vid=c83bf92a-895e-4031-90cc-0a4806604b3f"},"vehicle_type_id":"4","last_reported":1730149694,"current_range_meters":36000,"station_id":"cpo3342slgdg3j2ifvpg","pricing_plan_id":"cebpf4jnsgd1na2vs0mg"},{"bike_id":"3f4e9f7d-d364-447b-b7a3-5938ab5df8c4","system_id":"levelo_inurba_marseille","lat":43.32487,"lon":5.36559,"is_reserved":false,"is_disabled":false,"rental_uris":{"android":"levelo://app?vid=3f4e9f7d-d364-447b-b7a3-5938ab5df8c4","ios":"levelo://app?vid=3f4e9f7d-d364-447b-b7a3-5938ab5df8c4"},"vehicle_type_id":"4","last_reported":1730149694,"current_range_meters":27200,"station_id":"ce4bhs12rcd13ifvqhvg","pricing_plan_id":"cebpf4jnsgd1na2vs0mg"},{"bike_id":"9fd56fad-5f3d-42b4-b491-7b57b76bc0cf","system_id":"levelo_inurba_marseille","lat":43.27817,"lon":5.4072,"is_reserved":false,"is_disabled":false,"rental_uris":{"android":"levelo://app?vid=9fd56fad-5f3d-42b4-b491-7b57b76bc0cf","ios":"levelo://app?vid=9fd56fad-5f3d-42b4-b491-7b57b76bc0cf"},"vehicle_type_id":"4","last_reported":1730149694,"current_range_meters":14800,"station_id":"ce4bhnh2rcd13ifvqgtg","pricing_plan_id":"cebpf4jnsgd1na2vs0mg"},{"bike_id":"d84610d6-c6a3-4a38-822d-08ccd78292c6","system_id":"levelo_inurba_marseille","lat":43.2894,"lon":5.36402,"is_reserved":false,"is_disabled":false,"rental_uris":{"android":"levelo://app?vid=d84610d6-c6a3-4a38-822d-08ccd78292c6","ios":"levelo://app?vid=d84610d6-c6a3-4a38-822d-08ccd78292c6"},"vehicle_type_id":"4","last_reported":1730149694,"current_range_meters":38800,"station_id":"ce4bhc92rcd13ifvqetg","pricing_plan_id":"cebpf4jnsgd1na2vs0mg"},{"bike_id":"29e730b5-77d0-469f-aebb-f8f3daf3000c","system_id":"levelo_inurba_marseille","lat":43.24656,"lon":5.38157,"is_reserved":false,"is_disabled":false,"rental_uris":{"android":"levelo://app?vid=29e730b5-77d0-469f-aebb-f8f3daf3000c","ios":"levelo://app?vid=29e730b5-77d0-469f-aebb-f8f3daf3000c"},"vehicle_type_id":"4","last_reported":1730149694,"current_range_meters":32000,"station_id":"ce4bhih2rcd13ifvqfr0","pricing_plan_id":"cebpf4jnsgd1na2vs0mg"},{"bike_id":"4f8e0151-b9cf-42df-91c6-a6845ec26e07","system_id":"levelo_inurba_marseille","lat":43.27836,"lon":5.39211,"is_reserved":false,"is_disabled":false,"rental_uris":{"android":"levelo://app?vid=4f8e0151-b9cf-42df-91c6-a6845ec26e07","ios":"levelo://app?vid=4f8e0151-b9cf-42df-91c6-a6845ec26e07"},"vehicle_type_id":"4","last_reported":1730149694,"current_range_meters":23200,"station_id":"ce4bhjp2rcd13ifvqga0","pricing_plan_id":"cebpf4jnsgd1na2vs0mg"},{"bike_id":"817841de-45b8-450f-a0c6-5a2991569958","system_id":"levelo_inurba_marseille","lat":43.289282,"lon":5.363999,"is_reserved":false,"is_disabled":false,"rental_uris":{"android":"levelo://app?vid=817841de-45b8-450f-a0c6-5a2991569958","ios":"levelo://app?vid=817841de-45b8-450f-a0c6-5a2991569958"},"vehicle_type_id":"4","last_reported":1730149694,"current_range_meters":32800,"station_id":"ce4bhc92rcd13ifvqetg","pricing_plan_id":"cebpf4jnsgd1na2vs0mg"},{"bike_id":"10149f16-101d-4052-bc8a-a0b969091069","system_id":"levelo_inurba_marseille","lat":43.28852,"lon":5.35863,"is_reserved":false,"is_disabled":false,"rental_uris":{"android":"levelo://app?vid=10149f16-101d-4052-bc8a-a0b969091069","ios":"levelo://app?vid=10149f16-101d-4052-bc8a-a0b969091069"},"vehicle_type_id":"4","last_reported":1730149694,"current_range_meters":38800,"station_id":"ce4bhb12rcd13ifvqem0","pricing_plan_id":"cebpf4jnsgd1na2vs0mg"},{"bike_id":"092d9adb-0090-4b63-8ef2-d7a0874608c2","system_id":"levelo_inurba_marseille","lat":43.29284,"lon":5.4012,"is_reserved":false,"is_disabled":false,"rental_uris":{"android":"levelo://app?vid=092d9adb-0090-4b63-8ef2-d7a0874608c2","ios":"levelo://app?vid=092d9adb-0090-4b63-8ef2-d7a0874608c2"},"vehicle_type_id":"4","last_reported":1730149694,"current_range_meters":39200,"station_id":"ce4bh312rcd13ifvqdk0","pricing_plan_id":"cebpf4jnsgd1na2vs0mg"},{"bike_id":"aa8f4925-471b-4b88-b998-03124e04a231","system_id":"levelo_inurba_marseille","lat":43.29039,"lon":5.39969,"is_reserved":false,"is_disabled":false,"rental_uris":{"android":"levelo://app?vid=aa8f4925-471b-4b88-b998-03124e04a231","ios":"levelo://app?vid=aa8f4925-471b-4b88-b998-03124e04a231"},"vehicle_type_id":"4","last_reported":1730149694,"current_range_meters":38800,"station_id":"ce4bh392rcd13ifvqdm0","pricing_plan_id":"cebpf4jnsgd1na2vs0mg"},{"bike_id":"58dae29b-f48b-40fb-a35a-9f2acd3829e3","system_id":"levelo_inurba_marseille","lat":43.27839,"lon":5.39218,"is_reserved":false,"is_disabled":false,"rental_uris":{"android":"levelo://app?vid=58dae29b-f48b-40fb-a35a-9f2acd3829e3","ios":"levelo://app?vid=58dae29b-f48b-40fb-a35a-9f2acd3829e3"},"vehicle_type_id":"4","last_reported":1730149694,"current_range_meters":8400,"station_id":"ce4bhjp2rcd13ifvqga0","pricing_plan_id":"cebpf4jnsgd1na2vs0mg"},{"bike_id":"4d1d08db-cff8-4cc6-8b78-f2c19a05ae5b","system_id":"levelo_inurba_marseille","lat":43.29531,"lon":5.38539,"is_reserved":false,"is_disabled":false,"rental_uris":{"android":"levelo://app?vid=4d1d08db-cff8-4cc6-8b78-f2c19a05ae5b","ios":"levelo://app?vid=4d1d08db-cff8-4cc6-8b78-f2c19a05ae5b"},"vehicle_type_id":"4","last_reported":1730149694,"current_range_meters":15200,"station_id":"ce4bgih2rcd13ifvqba0","pricing_plan_id":"cebpf4jnsgd1na2vs0mg"},{"bike_id":"4d66afb4-54af-4867-a686-241e6de1cbbd","system_id":"levelo_inurba_marseille","lat":43.32551,"lon":5.4145,"is_reserved":false,"is_disabled":false,"rental_uris":{"android":"levelo://app?vid=4d66afb4-54af-4867-a686-241e6de1cbbd","ios":"levelo://app?vid=4d66afb4-54af-4867-a686-241e6de1cbbd"},"vehicle_type_id":"4","last_reported":1730149694,"current_range_meters":38000,"station_id":"ce4bhq12rcd13ifvqhhg","pricing_plan_id":"cebpf4jnsgd1na2vs0mg"},{"bike_id":"d7130213-5f63-4734-a5d3-ec784fc960ee","system_id":"levelo_inurba_marseille","lat":43.28427,"lon":5.36075,"is_reserved":false,"is_disabled":false,"rental_uris":{"android":"levelo://app?vid=d7130213-5f63-4734-a5d3-ec784fc960ee","ios":"levelo://app?vid=d7130213-5f63-4734-a5d3-ec784fc960ee"},"vehicle_type_id":"4","last_reported":1730149694,"current_range_meters":12800,"station_id":"","pricing_plan_id":"cebpf4jnsgd1na2vs0mg"},{"bike_id":"90c8200e-54ac-43e4-b6dc-b62c65fea28e","system_id":"levelo_inurba_marseille","lat":43.29531,"lon":5.38536,"is_reserved":false,"is_disabled":false,"rental_uris":{"android":"levelo://app?vid=90c8200e-54ac-43e4-b6dc-b62c65fea28e","ios":"levelo://app?vid=90c8200e-54ac-43e4-b6dc-b62c65fea28e"},"vehicle_type_id":"4","last_reported":1730149694,"current_range_meters":5600,"station_id":"ce4bgih2rcd13ifvqba0","pricing_plan_id":"cebpf4jnsgd1na2vs0mg"},{"bike_id":"7b7dffd3-846d-43d0-8b5c-786ecc645cca","system_id":"levelo_inurba_marseille","lat":43.28941,"lon":5.36633,"is_reserved":false,"is_disabled":false,"rental_uris":{"android":"levelo://app?vid=7b7dffd3-846d-43d0-8b5c-786ecc645cca","ios":"levelo://app?vid=7b7dffd3-846d-43d0-8b5c-786ecc645cca"},"vehicle_type_id":"4","last_reported":1730149694,"current_range_meters":39200,"station_id":"ce4bhap2rcd13ifvqek0","pricing_plan_id":"cebpf4jnsgd1na2vs0mg"},{"bike_id":"8ff214c0-7c27-4a71-8a7a-6fc7b318ca0e","system_id":"levelo_inurba_marseille","lat":43.29965,"lon":5.38508,"is_reserved":false,"is_disabled":false,"rental_uris":{"android":"levelo://app?vid=8ff214c0-7c27-4a71-8a7a-6fc7b318ca0e","ios":"levelo://app?vid=8ff214c0-7c27-4a71-8a7a-6fc7b318ca0e"},"vehicle_type_id":"4","last_reported":1730149694,"current_range_meters":9200,"station_id":"ce4bgt12rcd13ifvqce0","pricing_plan_id":"cebpf4jnsgd1na2vs0mg"},{"bike_id":"6eeb570e-5001-43cc-b0b1-007d89caa70a","system_id":"levelo_inurba_marseille","lat":43.29439,"lon":5.39756,"is_reserved":false,"is_disabled":false,"rental_uris":{"android":"levelo://app?vid=6eeb570e-5001-43cc-b0b1-007d89caa70a","ios":"levelo://app?vid=6eeb570e-5001-43cc-b0b1-007d89caa70a"},"vehicle_type_id":"4","last_reported":1730149694,"current_range_meters":23200,"station_id":"ce4bh3h2rcd13ifvqdo0","pricing_plan_id":"cebpf4jnsgd1na2vs0mg"},{"bike_id":"f3b058ed-8a0e-4829-adb4-cf1ea18a2a53","system_id":"levelo_inurba_marseille","lat":43.29788,"lon":5.39354,"is_reserved":false,"is_disabled":false,"rental_uris":{"android":"levelo://app?vid=f3b058ed-8a0e-4829-adb4-cf1ea18a2a53","ios":"levelo://app?vid=f3b058ed-8a0e-4829-adb4-cf1ea18a2a53"},"vehicle_type_id":"4","last_reported":1730149694,"current_range_meters":14800,"station_id":"chh1huq6cuj3fo74tm60","pricing_plan_id":"cebpf4jnsgd1na2vs0mg"},{"bike_id":"483a242c-ff66-4b30-9b1e-99fa173f6f27","system_id":"levelo_inurba_marseille","lat":43.28103,"lon":5.37842,"is_reserved":false,"is_disabled":false,"rental_uris":{"android":"levelo://app?vid=483a242c-ff66-4b30-9b1e-99fa173f6f27","ios":"levelo://app?vid=483a242c-ff66-4b30-9b1e-99fa173f6f27"},"vehicle_type_id":"4","last_reported":1730149694,"current_range_meters":36800,"station_id":"ce4bha12rcd13ifvqee0","pricing_plan_id":"cebpf4jnsgd1na2vs0mg"},{"bike_id":"8c481f3d-6b8d-4cff-9fe9-4866a2d5404c","system_id":"levelo_inurba_marseille","lat":43.31173,"lon":5.3872,"is_reserved":false,"is_disabled":false,"rental_uris":{"android":"levelo://app?vid=8c481f3d-6b8d-4cff-9fe9-4866a2d5404c","ios":"levelo://app?vid=8c481f3d-6b8d-4cff-9fe9-4866a2d5404c"},"vehicle_type_id":"4","last_reported":1730149694,"current_range_meters":29600,"station_id":"ce4bgv12rcd13ifvqcp0","pricing_plan_id":"cebpf4jnsgd1na2vs0mg"},{"bike_id":"0767fba8-2acc-437e-85a2-d8e45257d9b6","system_id":"levelo_inurba_marseille","lat":43.31328,"lon":5.39695,"is_reserved":false,"is_disabled":false,"rental_uris":{"android":"levelo://app?vid=0767fba8-2acc-437e-85a2-d8e45257d9b6","ios":"levelo://app?vid=0767fba8-2acc-437e-85a2-d8e45257d9b6"},"vehicle_type_id":"4","last_reported":1730149694,"current_range_meters":37600,"station_id":"ce4bgvp2rcd13ifvqcu0","pricing_plan_id":"cebpf4jnsgd1na2vs0mg"},{"bike_id":"f7a50275-88a4-4be4-ac33-5cce1242cfaa","system_id":"levelo_inurba_marseille","lat":43.31657,"lon":5.37687,"is_reserved":false,"is_disabled":false,"rental_uris":{"android":"levelo://app?vid=f7a50275-88a4-4be4-ac33-5cce1242cfaa","ios":"levelo://app?vid=f7a50275-88a4-4be4-ac33-5cce1242cfaa"},"vehicle_type_id":"4","last_reported":1730149694,"current_range_meters":37600,"station_id":"","pricing_plan_id":"cebpf4jnsgd1na2vs0mg"},{"bike_id":"9b575f07-8453-485c-ab0e-07627718c373","system_id":"levelo_inurba_marseille","lat":43.29635,"lon":5.40591,"is_reserved":false,"is_disabled":false,"rental_uris":{"android":"levelo://app?vid=9b575f07-8453-485c-ab0e-07627718c373","ios":"levelo://app?vid=9b575f07-8453-485c-ab0e-07627718c373"},"vehicle_type_id":"4","last_reported":1730149694,"current_range_meters":38800,"station_id":"ce4bh0h2rcd13ifvqd60","pricing_plan_id":"cebpf4jnsgd1na2vs0mg"},{"bike_id":"c60fcbfa-5bba-48ae-bafc-8dcd56afe436","system_id":"levelo_inurba_marseille","lat":43.28661,"lon":5.36347,"is_reserved":false,"is_disabled":false,"rental_uris":{"android":"levelo://app?vid=c60fcbfa-5bba-48ae-bafc-8dcd56afe436","ios":"levelo://app?vid=c60fcbfa-5bba-48ae-bafc-8dcd56afe436"},"vehicle_type_id":"4","last_reported":1730149694,"current_range_meters":9600,"station_id":"ce4bhah2rcd13ifvqej0","pricing_plan_id":"cebpf4jnsgd1na2vs0mg"},{"bike_id":"0ad1c1ac-95e3-40f0-9596-991e2ab8e647","system_id":"levelo_inurba_marseille","lat":43.29167,"lon":5.37165,"is_reserved":false,"is_disabled":false,"rental_uris":{"android":"levelo://app?vid=0ad1c1ac-95e3-40f0-9596-991e2ab8e647","ios":"levelo://app?vid=0ad1c1ac-95e3-40f0-9596-991e2ab8e647"},"vehicle_type_id":"4","last_reported":1730149694,"current_range_meters":38800,"station_id":"ce4bha92rcd13ifvqeh0","pricing_plan_id":"cebpf4jnsgd1na2vs0mg"},{"bike_id":"6627e12e-9cb1-4b91-ab1a-b51812344191","system_id":"levelo_inurba_marseille","lat":43.27066,"lon":5.42274,"is_reserved":false,"is_disabled":false,"rental_uris":{"android":"levelo://app?vid=6627e12e-9cb1-4b91-ab1a-b51812344191","ios":"levelo://app?vid=6627e12e-9cb1-4b91-ab1a-b51812344191"},"vehicle_type_id":"4","last_reported":1730149694,"current_range_meters":23200,"station_id":"ce4bhk92rcd13ifvqgb0","pricing_plan_id":"cebpf4jnsgd1na2vs0mg"},{"bike_id":"238c563d-4a0f-4c3f-949b-b2b701e7c233","system_id":"levelo_inurba_marseille","lat":43.29792,"lon":5.38088,"is_reserved":false,"is_disabled":false,"rental_uris":{"android":"levelo://app?vid=238c563d-4a0f-4c3f-949b-b2b701e7c233","ios":"levelo://app?vid=238c563d-4a0f-4c3f-949b-b2b701e7c233"},"vehicle_type_id":"4","last_reported":1730149694,"current_range_meters":34000,"station_id":"ce4bgip2rcd13ifvqbb0","pricing_plan_id":"cebpf4jnsgd1na2vs0mg"},{"bike_id":"4a7d2e78-51b9-46d2-bf89-98a48709d13a","system_id":"levelo_inurba_marseille","lat":43.31722,"lon":5.42395,"is_reserved":false,"is_disabled":false,"rental_uris":{"android":"levelo://app?vid=4a7d2e78-51b9-46d2-bf89-98a48709d13a","ios":"levelo://app?vid=4a7d2e78-51b9-46d2-bf89-98a48709d13a"},"vehicle_type_id":"4","last_reported":1730149694,"current_range_meters":39200,"station_id":"ce4bhp92rcd13ifvqhbg","pricing_plan_id":"cebpf4jnsgd1na2vs0mg"},{"bike_id":"bdad40da-4714-4179-a84e-4bbe5a2c808e","system_id":"levelo_inurba_marseille","lat":43.268147,"lon":5.411201,"is_reserved":false,"is_disabled":false,"rental_uris":{"android":"levelo://app?vid=bdad40da-4714-4179-a84e-4bbe5a2c808e","ios":"levelo://app?vid=bdad40da-4714-4179-a84e-4bbe5a2c808e"},"vehicle_type_id":"4","last_reported":1730149694,"current_range_meters":22800,"station_id":"","pricing_plan_id":"cebpf4jnsgd1na2vs0mg"},{"bike_id":"49cbb257-b422-4752-8852-fd416a7dd3f9","system_id":"levelo_inurba_marseille","lat":43.29908,"lon":5.38162,"is_reserved":false,"is_disabled":false,"rental_uris":{"android":"levelo://app?vid=49cbb257-b422-4752-8852-fd416a7dd3f9","ios":"levelo://app?vid=49cbb257-b422-4752-8852-fd416a7dd3f9"},"vehicle_type_id":"4","last_reported":1730149694,"current_range_meters":38000,"station_id":"ce4bgj12rcd13ifvqbc0","pricing_plan_id":"cebpf4jnsgd1na2vs0mg"},{"bike_id":"0c53382f-83fb-45ec-871d-d4e880c7383e","system_id":"levelo_inurba_marseille","lat":43.27995,"lon":5.40032,"is_reserved":false,"is_disabled":false,"rental_uris":{"android":"levelo://app?vid=0c53382f-83fb-45ec-871d-d4e880c7383e","ios":"levelo://app?vid=0c53382f-83fb-45ec-871d-d4e880c7383e"},"vehicle_type_id":"4","last_reported":1730149694,"current_range_meters":13600,"station_id":"ce4bho92rcd13ifvqh4g","pricing_plan_id":"cebpf4jnsgd1na2vs0mg"},{"bike_id":"6f487d93-ed54-4bc3-8917-f0af52bd63dd","system_id":"levelo_inurba_marseille","lat":43.27922,"lon":5.39582,"is_reserved":false,"is_disabled":false,"rental_uris":{"android":"levelo://app?vid=6f487d93-ed54-4bc3-8917-f0af52bd63dd","ios":"levelo://app?vid=6f487d93-ed54-4bc3-8917-f0af52bd63dd"},"vehicle_type_id":"4","last_reported":1730149694,"current_range_meters":8000,"station_id":"ce4bhf92rcd13ifvqf40","pricing_plan_id":"cebpf4jnsgd1na2vs0mg"},{"bike_id":"eadfee46-9822-40ad-8cda-cc07633b3b78","system_id":"levelo_inurba_marseille","lat":43.27902,"lon":5.38018,"is_reserved":false,"is_disabled":false,"rental_uris":{"android":"levelo://app?vid=eadfee46-9822-40ad-8cda-cc07633b3b78","ios":"levelo://app?vid=eadfee46-9822-40ad-8cda-cc07633b3b78"},"vehicle_type_id":"4","last_reported":1730149694,"current_range_meters":9600,"station_id":"ce4bhf92rcd13ifvqf50","pricing_plan_id":"cebpf4jnsgd1na2vs0mg"},{"bike_id":"9befed88-9f8c-464c-b07b-093bd97066bb","system_id":"levelo_inurba_marseille","lat":43.29805,"lon":5.37136,"is_reserved":false,"is_disabled":false,"rental_uris":{"android":"levelo://app?vid=9befed88-9f8c-464c-b07b-093bd97066bb","ios":"levelo://app?vid=9befed88-9f8c-464c-b07b-093bd97066bb"},"vehicle_type_id":"4","last_reported":1730149694,"current_range_meters":13600,"station_id":"","pricing_plan_id":"cebpf4jnsgd1na2vs0mg"},{"bike_id":"c8a92740-2b09-4ca5-9043-1ba83935e34d","system_id":"levelo_inurba_marseille","lat":43.24382,"lon":5.37062,"is_reserved":false,"is_disabled":false,"rental_uris":{"android":"levelo://app?vid=c8a92740-2b09-4ca5-9043-1ba83935e34d","ios":"levelo://app?vid=c8a92740-2b09-4ca5-9043-1ba83935e34d"},"vehicle_type_id":"4","last_reported":1730149694,"current_range_meters":38800,"station_id":"ce4bhhh2rcd13ifvqfk0","pricing_plan_id":"cebpf4jnsgd1na2vs0mg"},{"bike_id":"f37e3b02-a49c-4c4e-b112-f9c8c24edf90","system_id":"levelo_inurba_marseille","lat":43.27201,"lon":5.39126,"is_reserved":false,"is_disabled":false,"rental_uris":{"android":"levelo://app?vid=f37e3b02-a49c-4c4e-b112-f9c8c24edf90","ios":"levelo://app?vid=f37e3b02-a49c-4c4e-b112-f9c8c24edf90"},"vehicle_type_id":"4","last_reported":1730149694,"current_range_meters":4000,"station_id":"ce4bhhp2rcd13ifvqfm0","pricing_plan_id":"cebpf4jnsgd1na2vs0mg"},{"bike_id":"60f32535-25cf-438a-ad7f-66bbda915bb8","system_id":"levelo_inurba_marseille","lat":43.31491,"lon":5.3731,"is_reserved":false,"is_disabled":false,"rental_uris":{"android":"levelo://app?vid=60f32535-25cf-438a-ad7f-66bbda915bb8","ios":"levelo://app?vid=60f32535-25cf-438a-ad7f-66bbda915bb8"},"vehicle_type_id":"4","last_reported":1730149694,"current_range_meters":8400,"station_id":"ce4bgt12rcd13ifvqcd0","pricing_plan_id":"cebpf4jnsgd1na2vs0mg"},{"bike_id":"4d7cd612-2f6c-4fd3-bdc9-5bd019ab530d","system_id":"levelo_inurba_marseille","lat":43.29291,"lon":5.3744,"is_reserved":false,"is_disabled":false,"rental_uris":{"android":"levelo://app?vid=4d7cd612-2f6c-4fd3-bdc9-5bd019ab530d","ios":"levelo://app?vid=4d7cd612-2f6c-4fd3-bdc9-5bd019ab530d"},"vehicle_type_id":"4","last_reported":1730149694,"current_range_meters":38000,"station_id":"ce4bgi12rcd13ifvqb70","pricing_plan_id":"cebpf4jnsgd1na2vs0mg"},{"bike_id":"c2109502-035f-4c7d-9877-3da5cfbec630","system_id":"levelo_inurba_marseille","lat":43.304749,"lon":5.379321,"is_reserved":false,"is_disabled":false,"rental_uris":{"android":"levelo://app?vid=c2109502-035f-4c7d-9877-3da5cfbec630","ios":"levelo://app?vid=c2109502-035f-4c7d-9877-3da5cfbec630"},"vehicle_type_id":"4","last_reported":1730149694,"current_range_meters":22000,"station_id":"ce4bgup2rcd13ifvqcn0","pricing_plan_id":"cebpf4jnsgd1na2vs0mg"},{"bike_id":"030d5436-e5c6-49ae-96dd-772652ca16f5","system_id":"levelo_inurba_marseille","lat":43.32477,"lon":5.38927,"is_reserved":false,"is_disabled":false,"rental_uris":{"android":"levelo://app?vid=030d5436-e5c6-49ae-96dd-772652ca16f5","ios":"levelo://app?vid=030d5436-e5c6-49ae-96dd-772652ca16f5"},"vehicle_type_id":"4","last_reported":1730149694,"current_range_meters":33600,"station_id":"","pricing_plan_id":"cebpf4jnsgd1na2vs0mg"},{"bike_id":"99be546e-23a0-4a8f-897d-f4ebd4b3bc15","system_id":"levelo_inurba_marseille","lat":43.27378,"lon":5.36257,"is_reserved":false,"is_disabled":false,"rental_uris":{"android":"levelo://app?vid=99be546e-23a0-4a8f-897d-f4ebd4b3bc15","ios":"levelo://app?vid=99be546e-23a0-4a8f-897d-f4ebd4b3bc15"},"vehicle_type_id":"4","last_reported":1730149694,"current_range_meters":38800,"station_id":"ce4bhbh2rcd13ifvqeo0","pricing_plan_id":"cebpf4jnsgd1na2vs0mg"},{"bike_id":"5e918a46-16d8-438e-88a0-86a0e45c5e53","system_id":"levelo_inurba_marseille","lat":43.25107,"lon":5.40322,"is_reserved":false,"is_disabled":false,"rental_uris":{"android":"levelo://app?vid=5e918a46-16d8-438e-88a0-86a0e45c5e53","ios":"levelo://app?vid=5e918a46-16d8-438e-88a0-86a0e45c5e53"},"vehicle_type_id":"4","last_reported":1730149694,"current_range_meters":18800,"station_id":"ce4bhlh2rcd13ifvqgig","pricing_plan_id":"cebpf4jnsgd1na2vs0mg"},{"bike_id":"844023ff-6d0b-454c-9110-ed149a7ecdf3","system_id":"levelo_inurba_marseille","lat":43.33608,"lon":5.4103,"is_reserved":false,"is_disabled":false,"rental_uris":{"android":"levelo://app?vid=844023ff-6d0b-454c-9110-ed149a7ecdf3","ios":"levelo://app?vid=844023ff-6d0b-454c-9110-ed149a7ecdf3"},"vehicle_type_id":"4","last_reported":1730149694,"current_range_meters":20000,"station_id":"ce4bhqh2rcd13ifvqhmg","pricing_plan_id":"cebpf4jnsgd1na2vs0mg"},{"bike_id":"db407270-14e4-450d-916b-188e766022fd","system_id":"levelo_inurba_marseille","lat":43.2808,"lon":5.396631,"is_reserved":false,"is_disabled":false,"rental_uris":{"android":"levelo://app?vid=db407270-14e4-450d-916b-188e766022fd","ios":"levelo://app?vid=db407270-14e4-450d-916b-188e766022fd"},"vehicle_type_id":"4","last_reported":1730149694,"current_range_meters":19600,"station_id":"ce4bho12rcd13ifvqh2g","pricing_plan_id":"cebpf4jnsgd1na2vs0mg"},{"bike_id":"d68f8255-cc10-4db7-bc68-d9dd662dbe47","system_id":"levelo_inurba_marseille","lat":43.29512,"lon":5.39043,"is_reserved":false,"is_disabled":false,"rental_uris":{"android":"levelo://app?vid=d68f8255-cc10-4db7-bc68-d9dd662dbe47","ios":"levelo://app?vid=d68f8255-cc10-4db7-bc68-d9dd662dbe47"},"vehicle_type_id":"4","last_reported":1730149694,"current_range_meters":38800,"station_id":"ce4bh3p2rcd13ifvqdp0","pricing_plan_id":"cebpf4jnsgd1na2vs0mg"},{"bike_id":"1b0fd3f0-29d5-4908-8ab9-1a00b8883aba","system_id":"levelo_inurba_marseille","lat":43.30877,"lon":5.39622,"is_reserved":false,"is_disabled":false,"rental_uris":{"android":"levelo://app?vid=1b0fd3f0-29d5-4908-8ab9-1a00b8883aba","ios":"levelo://app?vid=1b0fd3f0-29d5-4908-8ab9-1a00b8883aba"},"vehicle_type_id":"4","last_reported":1730149694,"current_range_meters":38800,"station_id":"ce4bh012rcd13ifvqcv0","pricing_plan_id":"cebpf4jnsgd1na2vs0mg"},{"bike_id":"86af7185-af18-474c-bcb9-202fb450d530","system_id":"levelo_inurba_marseille","lat":43.28364,"lon":5.38629,"is_reserved":false,"is_disabled":false,"rental_uris":{"android":"levelo://app?vid=86af7185-af18-474c-bcb9-202fb450d530","ios":"levelo://app?vid=86af7185-af18-474c-bcb9-202fb450d530"},"vehicle_type_id":"4","last_reported":1730149694,"current_range_meters":37600,"station_id":"ce4bh492rcd13ifvqdvg","pricing_plan_id":"cebpf4jnsgd1na2vs0mg"},{"bike_id":"bf0f96cf-0556-405e-a53d-bf2cceb406fb","system_id":"levelo_inurba_marseille","lat":43.28707,"lon":5.37393,"is_reserved":false,"is_disabled":false,"rental_uris":{"android":"levelo://app?vid=bf0f96cf-0556-405e-a53d-bf2cceb406fb","ios":"levelo://app?vid=bf0f96cf-0556-405e-a53d-bf2cceb406fb"},"vehicle_type_id":"4","last_reported":1730149694,"current_range_meters":12400,"station_id":"ce4bh3p2rcd13ifvqdq0","pricing_plan_id":"cebpf4jnsgd1na2vs0mg"},{"bike_id":"3fa1b05c-d131-4259-9b07-281e38d6f244","system_id":"levelo_inurba_marseille","lat":43.29224,"lon":5.36071,"is_reserved":false,"is_disabled":false,"rental_uris":{"android":"levelo://app?vid=3fa1b05c-d131-4259-9b07-281e38d6f244","ios":"levelo://app?vid=3fa1b05c-d131-4259-9b07-281e38d6f244"},"vehicle_type_id":"4","last_reported":1730149694,"current_range_meters":32000,"station_id":"ce4bhbh2rcd13ifvqeqg","pricing_plan_id":"cebpf4jnsgd1na2vs0mg"},{"bike_id":"a60e8fab-5a8d-4000-b39b-72a3ca76ff87","system_id":"levelo_inurba_marseille","lat":43.29795,"lon":5.3935,"is_reserved":false,"is_disabled":false,"rental_uris":{"android":"levelo://app?vid=a60e8fab-5a8d-4000-b39b-72a3ca76ff87","ios":"levelo://app?vid=a60e8fab-5a8d-4000-b39b-72a3ca76ff87"},"vehicle_type_id":"4","last_reported":1730149694,"current_range_meters":38800,"station_id":"chh1huq6cuj3fo74tm60","pricing_plan_id":"cebpf4jnsgd1na2vs0mg"},{"bike_id":"95524438-3562-41dc-9a8e-cbd1cf94ed37","system_id":"levelo_inurba_marseille","lat":43.302586,"lon":5.400748,"is_reserved":false,"is_disabled":false,"rental_uris":{"android":"levelo://app?vid=95524438-3562-41dc-9a8e-cbd1cf94ed37","ios":"levelo://app?vid=95524438-3562-41dc-9a8e-cbd1cf94ed37"},"vehicle_type_id":"4","last_reported":1730149694,"current_range_meters":4800,"station_id":"ce4bgvh2rcd13ifvqcs0","pricing_plan_id":"cebpf4jnsgd1na2vs0mg"},{"bike_id":"e31650d1-6313-4c09-96ff-bc5a7403b852","system_id":"levelo_inurba_marseille","lat":43.323303,"lon":5.406317,"is_reserved":false,"is_disabled":false,"rental_uris":{"android":"levelo://app?vid=e31650d1-6313-4c09-96ff-bc5a7403b852","ios":"levelo://app?vid=e31650d1-6313-4c09-96ff-bc5a7403b852"},"vehicle_type_id":"4","last_reported":1730149694,"current_range_meters":38400,"station_id":"ce4bhq92rcd13ifvqhjg","pricing_plan_id":"cebpf4jnsgd1na2vs0mg"},{"bike_id":"aefac986-b0c6-43dd-b63b-a00cd751d12d","system_id":"levelo_inurba_marseille","lat":43.3199,"lon":5.38147,"is_reserved":false,"is_disabled":false,"rental_uris":{"android":"levelo://app?vid=aefac986-b0c6-43dd-b63b-a00cd751d12d","ios":"levelo://app?vid=aefac986-b0c6-43dd-b63b-a00cd751d12d"},"vehicle_type_id":"4","last_reported":1730149694,"current_range_meters":38800,"station_id":"ce4bhr12rcd13ifvqhpg","pricing_plan_id":"cebpf4jnsgd1na2vs0mg"},{"bike_id":"f581e29b-f342-4b13-9690-dc98c45a898a","system_id":"levelo_inurba_marseille","lat":43.28668,"lon":5.36358,"is_reserved":false,"is_disabled":false,"rental_uris":{"android":"levelo://app?vid=f581e29b-f342-4b13-9690-dc98c45a898a","ios":"levelo://app?vid=f581e29b-f342-4b13-9690-dc98c45a898a"},"vehicle_type_id":"4","last_reported":1730149694,"current_range_meters":26800,"station_id":"ce4bhah2rcd13ifvqej0","pricing_plan_id":"cebpf4jnsgd1na2vs0mg"},{"bike_id":"3349e631-1dd3-4485-a190-bed9d9005520","system_id":"levelo_inurba_marseille","lat":43.29513,"lon":5.39039,"is_reserved":false,"is_disabled":false,"rental_uris":{"android":"levelo://app?vid=3349e631-1dd3-4485-a190-bed9d9005520","ios":"levelo://app?vid=3349e631-1dd3-4485-a190-bed9d9005520"},"vehicle_type_id":"4","last_reported":1730149694,"current_range_meters":8800,"station_id":"ce4bh3p2rcd13ifvqdp0","pricing_plan_id":"cebpf4jnsgd1na2vs0mg"},{"bike_id":"a115272b-d982-443a-87c0-8ebb7cafe252","system_id":"levelo_inurba_marseille","lat":43.24072,"lon":5.37762,"is_reserved":false,"is_disabled":false,"rental_uris":{"android":"levelo://app?vid=a115272b-d982-443a-87c0-8ebb7cafe252","ios":"levelo://app?vid=a115272b-d982-443a-87c0-8ebb7cafe252"},"vehicle_type_id":"4","last_reported":1730149694,"current_range_meters":27200,"station_id":"ce4bhnp2rcd13ifvqgvg","pricing_plan_id":"cebpf4jnsgd1na2vs0mg"},{"bike_id":"b9342b5e-ebd2-487d-abdc-955016487de0","system_id":"levelo_inurba_marseille","lat":43.29028,"lon":5.38642,"is_reserved":false,"is_disabled":false,"rental_uris":{"android":"levelo://app?vid=b9342b5e-ebd2-487d-abdc-955016487de0","ios":"levelo://app?vid=b9342b5e-ebd2-487d-abdc-955016487de0"},"vehicle_type_id":"4","last_reported":1730149694,"current_range_meters":38800,"station_id":"ce4bh4p2rcd13ifvqe0g","pricing_plan_id":"cebpf4jnsgd1na2vs0mg"},{"bike_id":"cfa23440-bce2-49da-ad16-56ca9ad4d0c8","system_id":"levelo_inurba_marseille","lat":43.30543,"lon":5.38424,"is_reserved":false,"is_disabled":false,"rental_uris":{"android":"levelo://app?vid=cfa23440-bce2-49da-ad16-56ca9ad4d0c8","ios":"levelo://app?vid=cfa23440-bce2-49da-ad16-56ca9ad4d0c8"},"vehicle_type_id":"4","last_reported":1730149694,"current_range_meters":3600,"station_id":"ce4bgg92rcd13ifvqb30","pricing_plan_id":"cebpf4jnsgd1na2vs0mg"},{"bike_id":"d69e25e2-20ff-49df-8a54-e2627fc9db27","system_id":"levelo_inurba_marseille","lat":43.25868,"lon":5.399,"is_reserved":false,"is_disabled":false,"rental_uris":{"android":"levelo://app?vid=d69e25e2-20ff-49df-8a54-e2627fc9db27","ios":"levelo://app?vid=d69e25e2-20ff-49df-8a54-e2627fc9db27"},"vehicle_type_id":"4","last_reported":1730149694,"current_range_meters":18000,"station_id":"ce4bhl92rcd13ifvqghg","pricing_plan_id":"cebpf4jnsgd1na2vs0mg"},{"bike_id":"b7c42eaa-6f41-4bc8-9fdf-775fc8c8bc19","system_id":"levelo_inurba_marseille","lat":43.29027,"lon":5.38642,"is_reserved":false,"is_disabled":false,"rental_uris":{"android":"levelo://app?vid=b7c42eaa-6f41-4bc8-9fdf-775fc8c8bc19","ios":"levelo://app?vid=b7c42eaa-6f41-4bc8-9fdf-775fc8c8bc19"},"vehicle_type_id":"4","last_reported":1730149694,"current_range_meters":38800,"station_id":"ce4bh4p2rcd13ifvqe0g","pricing_plan_id":"cebpf4jnsgd1na2vs0mg"},{"bike_id":"1eff294a-efba-4a3e-8998-9849ddb2d364","system_id":"levelo_inurba_marseille","lat":43.27917,"lon":5.39579,"is_reserved":false,"is_disabled":false,"rental_uris":{"android":"levelo://app?vid=1eff294a-efba-4a3e-8998-9849ddb2d364","ios":"levelo://app?vid=1eff294a-efba-4a3e-8998-9849ddb2d364"},"vehicle_type_id":"4","last_reported":1730149694,"current_range_meters":9600,"station_id":"ce4bhf92rcd13ifvqf40","pricing_plan_id":"cebpf4jnsgd1na2vs0mg"},{"bike_id":"698899f6-3487-4fb4-b742-af5da9820346","system_id":"levelo_inurba_marseille","lat":43.32654,"lon":5.40993,"is_reserved":false,"is_disabled":false,"rental_uris":{"android":"levelo://app?vid=698899f6-3487-4fb4-b742-af5da9820346","ios":"levelo://app?vid=698899f6-3487-4fb4-b742-af5da9820346"},"vehicle_type_id":"4","last_reported":1730149694,"current_range_meters":26800,"station_id":"ce4bhpp2rcd13ifvqhgg","pricing_plan_id":"cebpf4jnsgd1na2vs0mg"},{"bike_id":"c6a47bda-4a0e-4854-beb1-47fe1761ed49","system_id":"levelo_inurba_marseille","lat":43.29793,"lon":5.39349,"is_reserved":false,"is_disabled":false,"rental_uris":{"android":"levelo://app?vid=c6a47bda-4a0e-4854-beb1-47fe1761ed49","ios":"levelo://app?vid=c6a47bda-4a0e-4854-beb1-47fe1761ed49"},"vehicle_type_id":"4","last_reported":1730149694,"current_range_meters":6000,"station_id":"chh1huq6cuj3fo74tm60","pricing_plan_id":"cebpf4jnsgd1na2vs0mg"},{"bike_id":"cc633c17-6943-48fb-a445-c09d9165cc72","system_id":"levelo_inurba_marseille","lat":43.2904,"lon":5.37569,"is_reserved":false,"is_disabled":false,"rental_uris":{"android":"levelo://app?vid=cc633c17-6943-48fb-a445-c09d9165cc72","ios":"levelo://app?vid=cc633c17-6943-48fb-a445-c09d9165cc72"},"vehicle_type_id":"4","last_reported":1730149694,"current_range_meters":8400,"station_id":"ce4bh692rcd13ifvqe90","pricing_plan_id":"cebpf4jnsgd1na2vs0mg"},{"bike_id":"fa4a7c8e-90af-43ce-97fc-f0675b565220","system_id":"levelo_inurba_marseille","lat":43.28465,"lon":5.38408,"is_reserved":false,"is_disabled":false,"rental_uris":{"android":"levelo://app?vid=fa4a7c8e-90af-43ce-97fc-f0675b565220","ios":"levelo://app?vid=fa4a7c8e-90af-43ce-97fc-f0675b565220"},"vehicle_type_id":"4","last_reported":1730149694,"current_range_meters":39200,"station_id":"ce4bh512rcd13ifvqe3g","pricing_plan_id":"cebpf4jnsgd1na2vs0mg"},{"bike_id":"03892c30-173f-42f0-aa9b-9ffed04c53bd","system_id":"levelo_inurba_marseille","lat":43.29712,"lon":5.36617,"is_reserved":false,"is_disabled":false,"rental_uris":{"android":"levelo://app?vid=03892c30-173f-42f0-aa9b-9ffed04c53bd","ios":"levelo://app?vid=03892c30-173f-42f0-aa9b-9ffed04c53bd"},"vehicle_type_id":"4","last_reported":1730149694,"current_range_meters":38000,"station_id":"ce4bgn12rcd13ifvqbt0","pricing_plan_id":"cebpf4jnsgd1na2vs0mg"},{"bike_id":"59a1c04e-9ef7-4774-9e53-a91b07118830","system_id":"levelo_inurba_marseille","lat":43.25083,"lon":5.39519,"is_reserved":false,"is_disabled":false,"rental_uris":{"android":"levelo://app?vid=59a1c04e-9ef7-4774-9e53-a91b07118830","ios":"levelo://app?vid=59a1c04e-9ef7-4774-9e53-a91b07118830"},"vehicle_type_id":"4","last_reported":1730149694,"current_range_meters":38400,"station_id":"ce4bhm12rcd13ifvqgkg","pricing_plan_id":"cebpf4jnsgd1na2vs0mg"},{"bike_id":"fd541e4a-7b9a-453a-8959-e0c3ee2ad888","system_id":"levelo_inurba_marseille","lat":43.29598,"lon":5.38087,"is_reserved":false,"is_disabled":false,"rental_uris":{"android":"levelo://app?vid=fd541e4a-7b9a-453a-8959-e0c3ee2ad888","ios":"levelo://app?vid=fd541e4a-7b9a-453a-8959-e0c3ee2ad888"},"vehicle_type_id":"4","last_reported":1730149694,"current_range_meters":38800,"station_id":"ce4bgl12rcd13ifvqbo0","pricing_plan_id":"cebpf4jnsgd1na2vs0mg"},{"bike_id":"510a5fc5-038b-4b7e-95a7-062cbdaa3be9","system_id":"levelo_inurba_marseille","lat":43.31281,"lon":5.40172,"is_reserved":false,"is_disabled":false,"rental_uris":{"android":"levelo://app?vid=510a5fc5-038b-4b7e-95a7-062cbdaa3be9","ios":"levelo://app?vid=510a5fc5-038b-4b7e-95a7-062cbdaa3be9"},"vehicle_type_id":"4","last_reported":1730149694,"current_range_meters":27200,"station_id":"ce4bh092rcd13ifvqd30","pricing_plan_id":"cebpf4jnsgd1na2vs0mg"},{"bike_id":"5a343c2c-b013-4634-aadf-9e6e4e37fb46","system_id":"levelo_inurba_marseille","lat":43.31491,"lon":5.37304,"is_reserved":false,"is_disabled":false,"rental_uris":{"android":"levelo://app?vid=5a343c2c-b013-4634-aadf-9e6e4e37fb46","ios":"levelo://app?vid=5a343c2c-b013-4634-aadf-9e6e4e37fb46"},"vehicle_type_id":"4","last_reported":1730149694,"current_range_meters":17600,"station_id":"ce4bgt12rcd13ifvqcd0","pricing_plan_id":"cebpf4jnsgd1na2vs0mg"},{"bike_id":"52943259-5173-48b7-b0d4-1cea8ec620d3","system_id":"levelo_inurba_marseille","lat":43.3149,"lon":5.37311,"is_reserved":false,"is_disabled":false,"rental_uris":{"android":"levelo://app?vid=52943259-5173-48b7-b0d4-1cea8ec620d3","ios":"levelo://app?vid=52943259-5173-48b7-b0d4-1cea8ec620d3"},"vehicle_type_id":"4","last_reported":1730149694,"current_range_meters":26800,"station_id":"ce4bgt12rcd13ifvqcd0","pricing_plan_id":"cebpf4jnsgd1na2vs0mg"},{"bike_id":"a4603ba6-3f91-46d7-ad56-9b320fac50c1","system_id":"levelo_inurba_marseille","lat":43.30888,"lon":5.37187,"is_reserved":false,"is_disabled":false,"rental_uris":{"android":"levelo://app?vid=a4603ba6-3f91-46d7-ad56-9b320fac50c1","ios":"levelo://app?vid=a4603ba6-3f91-46d7-ad56-9b320fac50c1"},"vehicle_type_id":"4","last_reported":1730149694,"current_range_meters":6800,"station_id":"ce4bguh2rcd13ifvqckg","pricing_plan_id":"cebpf4jnsgd1na2vs0mg"},{"bike_id":"62ed7d85-9705-4807-9d30-adf2337d9b38","system_id":"levelo_inurba_marseille","lat":43.29978,"lon":5.37172,"is_reserved":false,"is_disabled":false,"rental_uris":{"android":"levelo://app?vid=62ed7d85-9705-4807-9d30-adf2337d9b38","ios":"levelo://app?vid=62ed7d85-9705-4807-9d30-adf2337d9b38"},"vehicle_type_id":"4","last_reported":1730149694,"current_range_meters":19600,"station_id":"ce4bgr92rcd13ifvqc7g","pricing_plan_id":"cebpf4jnsgd1na2vs0mg"},{"bike_id":"0eb100d0-e5b9-4108-a314-d924c6127ca1","system_id":"levelo_inurba_marseille","lat":43.306786,"lon":5.367381,"is_reserved":false,"is_disabled":false,"rental_uris":{"android":"levelo://app?vid=0eb100d0-e5b9-4108-a314-d924c6127ca1","ios":"levelo://app?vid=0eb100d0-e5b9-4108-a314-d924c6127ca1"},"vehicle_type_id":"4","last_reported":1730149694,"current_range_meters":34000,"station_id":"ce4bguh2rcd13ifvqckg","pricing_plan_id":"cebpf4jnsgd1na2vs0mg"},{"bike_id":"e94be738-1f81-4ef2-8919-b6162fbe12c8","system_id":"levelo_inurba_marseille","lat":43.32364,"lon":5.38886,"is_reserved":false,"is_disabled":false,"rental_uris":{"android":"levelo://app?vid=e94be738-1f81-4ef2-8919-b6162fbe12c8","ios":"levelo://app?vid=e94be738-1f81-4ef2-8919-b6162fbe12c8"},"vehicle_type_id":"4","last_reported":1730149694,"current_range_meters":31200,"station_id":"ce4bhqp2rcd13ifvqhog","pricing_plan_id":"cebpf4jnsgd1na2vs0mg"},{"bike_id":"79d0c65a-0682-43e2-951d-f793c152a2de","system_id":"levelo_inurba_marseille","lat":43.2903,"lon":5.39989,"is_reserved":false,"is_disabled":false,"rental_uris":{"android":"levelo://app?vid=79d0c65a-0682-43e2-951d-f793c152a2de","ios":"levelo://app?vid=79d0c65a-0682-43e2-951d-f793c152a2de"},"vehicle_type_id":"4","last_reported":1730149694,"current_range_meters":38800,"station_id":"ce4bh392rcd13ifvqdm0","pricing_plan_id":"cebpf4jnsgd1na2vs0mg"},{"bike_id":"dc237b6c-1567-4f4d-a603-8cd2d7e59d10","system_id":"levelo_inurba_marseille","lat":43.29899,"lon":5.38152,"is_reserved":false,"is_disabled":false,"rental_uris":{"android":"levelo://app?vid=dc237b6c-1567-4f4d-a603-8cd2d7e59d10","ios":"levelo://app?vid=dc237b6c-1567-4f4d-a603-8cd2d7e59d10"},"vehicle_type_id":"4","last_reported":1730149694,"current_range_meters":37600,"station_id":"ce4bgj12rcd13ifvqbc0","pricing_plan_id":"cebpf4jnsgd1na2vs0mg"},{"bike_id":"7fda42aa-28d7-4fc7-858b-960ce986865c","system_id":"levelo_inurba_marseille","lat":43.23192,"lon":5.35546,"is_reserved":false,"is_disabled":false,"rental_uris":{"android":"levelo://app?vid=7fda42aa-28d7-4fc7-858b-960ce986865c","ios":"levelo://app?vid=7fda42aa-28d7-4fc7-858b-960ce986865c"},"vehicle_type_id":"4","last_reported":1730149694,"current_range_meters":20800,"station_id":"ce4bhu92rcd13ifvqi70","pricing_plan_id":"cebpf4jnsgd1na2vs0mg"},{"bike_id":"13af717a-3dc4-4773-857d-74f753a7a4cf","system_id":"levelo_inurba_marseille","lat":43.28926,"lon":5.36631,"is_reserved":false,"is_disabled":false,"rental_uris":{"android":"levelo://app?vid=13af717a-3dc4-4773-857d-74f753a7a4cf","ios":"levelo://app?vid=13af717a-3dc4-4773-857d-74f753a7a4cf"},"vehicle_type_id":"4","last_reported":1730149694,"current_range_meters":4000,"station_id":"ce4bhap2rcd13ifvqek0","pricing_plan_id":"cebpf4jnsgd1na2vs0mg"},{"bike_id":"49f32741-11bd-4708-beba-7f7f852ef140","system_id":"levelo_inurba_marseille","lat":43.31362,"lon":5.38487,"is_reserved":false,"is_disabled":false,"rental_uris":{"android":"levelo://app?vid=49f32741-11bd-4708-beba-7f7f852ef140","ios":"levelo://app?vid=49f32741-11bd-4708-beba-7f7f852ef140"},"vehicle_type_id":"4","last_reported":1730149694,"current_range_meters":2800,"station_id":"ce4bgt92rcd13ifvqcf0","pricing_plan_id":"cebpf4jnsgd1na2vs0mg"},{"bike_id":"83467386-666c-4ada-becc-1dacdd2aa408","system_id":"levelo_inurba_marseille","lat":43.27805,"lon":5.40719,"is_reserved":false,"is_disabled":false,"rental_uris":{"android":"levelo://app?vid=83467386-666c-4ada-becc-1dacdd2aa408","ios":"levelo://app?vid=83467386-666c-4ada-becc-1dacdd2aa408"},"vehicle_type_id":"4","last_reported":1730149694,"current_range_meters":4000,"station_id":"ce4bhnh2rcd13ifvqgtg","pricing_plan_id":"cebpf4jnsgd1na2vs0mg"},{"bike_id":"cf7e6558-3551-4e04-b42d-9ddce72c2b12","system_id":"levelo_inurba_marseille","lat":43.27375,"lon":5.36247,"is_reserved":false,"is_disabled":false,"rental_uris":{"android":"levelo://app?vid=cf7e6558-3551-4e04-b42d-9ddce72c2b12","ios":"levelo://app?vid=cf7e6558-3551-4e04-b42d-9ddce72c2b12"},"vehicle_type_id":"4","last_reported":1730149694,"current_range_meters":31200,"station_id":"ce4bhbh2rcd13ifvqeo0","pricing_plan_id":"cebpf4jnsgd1na2vs0mg"},{"bike_id":"414b37e3-7f51-47d0-b26c-139d06b823ac","system_id":"levelo_inurba_marseille","lat":43.28004,"lon":5.40003,"is_reserved":false,"is_disabled":false,"rental_uris":{"android":"levelo://app?vid=414b37e3-7f51-47d0-b26c-139d06b823ac","ios":"levelo://app?vid=414b37e3-7f51-47d0-b26c-139d06b823ac"},"vehicle_type_id":"4","last_reported":1730149694,"current_range_meters":2800,"station_id":"ce4bho92rcd13ifvqh4g","pricing_plan_id":"cebpf4jnsgd1na2vs0mg"},{"bike_id":"dcd98ba9-c8cc-4340-a071-62f2c6f4e9dc","system_id":"levelo_inurba_marseille","lat":43.3088,"lon":5.3719,"is_reserved":false,"is_disabled":false,"rental_uris":{"android":"levelo://app?vid=dcd98ba9-c8cc-4340-a071-62f2c6f4e9dc","ios":"levelo://app?vid=dcd98ba9-c8cc-4340-a071-62f2c6f4e9dc"},"vehicle_type_id":"4","last_reported":1730149694,"current_range_meters":7200,"station_id":"ce4bguh2rcd13ifvqckg","pricing_plan_id":"cebpf4jnsgd1na2vs0mg"},{"bike_id":"82aeab4e-d74d-4b17-9d95-0eab62ee46b1","system_id":"levelo_inurba_marseille","lat":43.30882,"lon":5.39634,"is_reserved":false,"is_disabled":false,"rental_uris":{"android":"levelo://app?vid=82aeab4e-d74d-4b17-9d95-0eab62ee46b1","ios":"levelo://app?vid=82aeab4e-d74d-4b17-9d95-0eab62ee46b1"},"vehicle_type_id":"4","last_reported":1730149694,"current_range_meters":38800,"station_id":"ce4bh012rcd13ifvqcv0","pricing_plan_id":"cebpf4jnsgd1na2vs0mg"},{"bike_id":"3385be90-c633-4d01-9e3f-6641d5889db0","system_id":"levelo_inurba_marseille","lat":43.29713,"lon":5.3661,"is_reserved":false,"is_disabled":false,"rental_uris":{"android":"levelo://app?vid=3385be90-c633-4d01-9e3f-6641d5889db0","ios":"levelo://app?vid=3385be90-c633-4d01-9e3f-6641d5889db0"},"vehicle_type_id":"4","last_reported":1730149694,"current_range_meters":32400,"station_id":"ce4bgn12rcd13ifvqbt0","pricing_plan_id":"cebpf4jnsgd1na2vs0mg"},{"bike_id":"5c05f131-a563-4378-9457-751dbcbf2546","system_id":"levelo_inurba_marseille","lat":43.288502,"lon":5.358508,"is_reserved":false,"is_disabled":false,"rental_uris":{"android":"levelo://app?vid=5c05f131-a563-4378-9457-751dbcbf2546","ios":"levelo://app?vid=5c05f131-a563-4378-9457-751dbcbf2546"},"vehicle_type_id":"4","last_reported":1730149694,"current_range_meters":21600,"station_id":"ce4bhb12rcd13ifvqem0","pricing_plan_id":"cebpf4jnsgd1na2vs0mg"},{"bike_id":"b813d4d8-9d97-470a-b667-136139dc5331","system_id":"levelo_inurba_marseille","lat":43.30886,"lon":5.372,"is_reserved":false,"is_disabled":false,"rental_uris":{"android":"levelo://app?vid=b813d4d8-9d97-470a-b667-136139dc5331","ios":"levelo://app?vid=b813d4d8-9d97-470a-b667-136139dc5331"},"vehicle_type_id":"4","last_reported":1730149694,"current_range_meters":40000,"station_id":"ce4bguh2rcd13ifvqckg","pricing_plan_id":"cebpf4jnsgd1na2vs0mg"},{"bike_id":"6d426020-479c-4cb2-808a-4d4613fbd9f4","system_id":"levelo_inurba_marseille","lat":43.29031,"lon":5.38641,"is_reserved":false,"is_disabled":false,"rental_uris":{"android":"levelo://app?vid=6d426020-479c-4cb2-808a-4d4613fbd9f4","ios":"levelo://app?vid=6d426020-479c-4cb2-808a-4d4613fbd9f4"},"vehicle_type_id":"4","last_reported":1730149694,"current_range_meters":38800,"station_id":"ce4bh4p2rcd13ifvqe0g","pricing_plan_id":"cebpf4jnsgd1na2vs0mg"},{"bike_id":"37635e21-b06e-48a7-92ec-abffe892e01e","system_id":"levelo_inurba_marseille","lat":43.30887,"lon":5.37198,"is_reserved":false,"is_disabled":false,"rental_uris":{"android":"levelo://app?vid=37635e21-b06e-48a7-92ec-abffe892e01e","ios":"levelo://app?vid=37635e21-b06e-48a7-92ec-abffe892e01e"},"vehicle_type_id":"4","last_reported":1730149694,"current_range_meters":38800,"station_id":"ce4bguh2rcd13ifvqckg","pricing_plan_id":"cebpf4jnsgd1na2vs0mg"},{"bike_id":"df742668-dada-40fd-989b-2ddf5c08a54b","system_id":"levelo_inurba_marseille","lat":43.30651,"lon":5.40091,"is_reserved":false,"is_disabled":false,"rental_uris":{"android":"levelo://app?vid=df742668-dada-40fd-989b-2ddf5c08a54b","ios":"levelo://app?vid=df742668-dada-40fd-989b-2ddf5c08a54b"},"vehicle_type_id":"4","last_reported":1730149694,"current_range_meters":39200,"station_id":"ce4bh112rcd13ifvqda0","pricing_plan_id":"cebpf4jnsgd1na2vs0mg"},{"bike_id":"981b25ee-865f-4306-97e7-20533eed109e","system_id":"levelo_inurba_marseille","lat":43.29579,"lon":5.37521,"is_reserved":false,"is_disabled":false,"rental_uris":{"android":"levelo://app?vid=981b25ee-865f-4306-97e7-20533eed109e","ios":"levelo://app?vid=981b25ee-865f-4306-97e7-20533eed109e"},"vehicle_type_id":"4","last_reported":1730149694,"current_range_meters":26800,"station_id":"ce4bgh92rcd13ifvqb50","pricing_plan_id":"cebpf4jnsgd1na2vs0mg"},{"bike_id":"fe25f5d9-6650-4a56-850d-364c19acef0a","system_id":"levelo_inurba_marseille","lat":43.28946,"lon":5.36403,"is_reserved":false,"is_disabled":false,"rental_uris":{"android":"levelo://app?vid=fe25f5d9-6650-4a56-850d-364c19acef0a","ios":"levelo://app?vid=fe25f5d9-6650-4a56-850d-364c19acef0a"},"vehicle_type_id":"4","last_reported":1730149694,"current_range_meters":18000,"station_id":"ce4bhc92rcd13ifvqetg","pricing_plan_id":"cebpf4jnsgd1na2vs0mg"},{"bike_id":"f868bb34-7843-446d-b500-343057d56adc","system_id":"levelo_inurba_marseille","lat":43.28454,"lon":5.35901,"is_reserved":false,"is_disabled":false,"rental_uris":{"android":"levelo://app?vid=f868bb34-7843-446d-b500-343057d56adc","ios":"levelo://app?vid=f868bb34-7843-446d-b500-343057d56adc"},"vehicle_type_id":"4","last_reported":1730149694,"current_range_meters":9200,"station_id":"ce4bhah2rcd13ifvqei0","pricing_plan_id":"cebpf4jnsgd1na2vs0mg"},{"bike_id":"f4b58118-bd8b-48c2-94fd-250965cf9e7a","system_id":"levelo_inurba_marseille","lat":43.23185,"lon":5.39981,"is_reserved":false,"is_disabled":false,"rental_uris":{"android":"levelo://app?vid=f4b58118-bd8b-48c2-94fd-250965cf9e7a","ios":"levelo://app?vid=f4b58118-bd8b-48c2-94fd-250965cf9e7a"},"vehicle_type_id":"4","last_reported":1730149694,"current_range_meters":20400,"station_id":"ce4bhn12rcd13ifvqgqg","pricing_plan_id":"cebpf4jnsgd1na2vs0mg"},{"bike_id":"1312e32e-f045-4767-9a1d-f1ecdb3bf349","system_id":"levelo_inurba_marseille","lat":43.29534,"lon":5.38542,"is_reserved":false,"is_disabled":false,"rental_uris":{"android":"levelo://app?vid=1312e32e-f045-4767-9a1d-f1ecdb3bf349","ios":"levelo://app?vid=1312e32e-f045-4767-9a1d-f1ecdb3bf349"},"vehicle_type_id":"4","last_reported":1730149694,"current_range_meters":12000,"station_id":"ce4bgih2rcd13ifvqba0","pricing_plan_id":"cebpf4jnsgd1na2vs0mg"},{"bike_id":"4ae2e272-931c-4fbf-a857-d2cbf5973e54","system_id":"levelo_inurba_marseille","lat":43.30163,"lon":5.36641,"is_reserved":false,"is_disabled":false,"rental_uris":{"android":"levelo://app?vid=4ae2e272-931c-4fbf-a857-d2cbf5973e54","ios":"levelo://app?vid=4ae2e272-931c-4fbf-a857-d2cbf5973e54"},"vehicle_type_id":"4","last_reported":1730149694,"current_range_meters":30400,"station_id":"ce4bgjh2rcd13ifvqbf0","pricing_plan_id":"cebpf4jnsgd1na2vs0mg"},{"bike_id":"96be379b-25c9-4df6-a7e1-d02fd6e58f6d","system_id":"levelo_inurba_marseille","lat":43.25825,"lon":5.39433,"is_reserved":false,"is_disabled":false,"rental_uris":{"android":"levelo://app?vid=96be379b-25c9-4df6-a7e1-d02fd6e58f6d","ios":"levelo://app?vid=96be379b-25c9-4df6-a7e1-d02fd6e58f6d"},"vehicle_type_id":"4","last_reported":1730149694,"current_range_meters":11200,"station_id":"ce4bhip2rcd13ifvqft0","pricing_plan_id":"cebpf4jnsgd1na2vs0mg"},{"bike_id":"fbfdf18c-b235-49fc-8361-4cc1f402764c","system_id":"levelo_inurba_marseille","lat":43.2942,"lon":5.38608,"is_reserved":false,"is_disabled":false,"rental_uris":{"android":"levelo://app?vid=fbfdf18c-b235-49fc-8361-4cc1f402764c","ios":"levelo://app?vid=fbfdf18c-b235-49fc-8361-4cc1f402764c"},"vehicle_type_id":"4","last_reported":1730149694,"current_range_meters":8800,"station_id":"ce4bh2h2rcd13ifvqdh0","pricing_plan_id":"cebpf4jnsgd1na2vs0mg"},{"bike_id":"8fac999c-77b0-4bab-95c9-b9a6a3bb48b2","system_id":"levelo_inurba_marseille","lat":43.31262,"lon":5.40165,"is_reserved":false,"is_disabled":false,"rental_uris":{"android":"levelo://app?vid=8fac999c-77b0-4bab-95c9-b9a6a3bb48b2","ios":"levelo://app?vid=8fac999c-77b0-4bab-95c9-b9a6a3bb48b2"},"vehicle_type_id":"4","last_reported":1730149694,"current_range_meters":32000,"station_id":"ce4bh092rcd13ifvqd30","pricing_plan_id":"cebpf4jnsgd1na2vs0mg"},{"bike_id":"dec3dc47-699a-4724-8780-38f800bd0b11","system_id":"levelo_inurba_marseille","lat":43.28943,"lon":5.36634,"is_reserved":false,"is_disabled":false,"rental_uris":{"android":"levelo://app?vid=dec3dc47-699a-4724-8780-38f800bd0b11","ios":"levelo://app?vid=dec3dc47-699a-4724-8780-38f800bd0b11"},"vehicle_type_id":"4","last_reported":1730149694,"current_range_meters":39200,"station_id":"ce4bhap2rcd13ifvqek0","pricing_plan_id":"cebpf4jnsgd1na2vs0mg"},{"bike_id":"4f21f473-d6ef-4678-b028-ed29a51ab020","system_id":"levelo_inurba_marseille","lat":43.31676,"lon":5.43554,"is_reserved":false,"is_disabled":false,"rental_uris":{"android":"levelo://app?vid=4f21f473-d6ef-4678-b028-ed29a51ab020","ios":"levelo://app?vid=4f21f473-d6ef-4678-b028-ed29a51ab020"},"vehicle_type_id":"4","last_reported":1730149694,"current_range_meters":27600,"station_id":"","pricing_plan_id":"cebpf4jnsgd1na2vs0mg"},{"bike_id":"0a23fda2-fd77-4479-8a89-43818ad7b0be","system_id":"levelo_inurba_marseille","lat":43.30329,"lon":5.4044,"is_reserved":false,"is_disabled":false,"rental_uris":{"android":"levelo://app?vid=0a23fda2-fd77-4479-8a89-43818ad7b0be","ios":"levelo://app?vid=0a23fda2-fd77-4479-8a89-43818ad7b0be"},"vehicle_type_id":"4","last_reported":1730149694,"current_range_meters":20400,"station_id":"ce4bh012rcd13ifvqd10","pricing_plan_id":"cebpf4jnsgd1na2vs0mg"},{"bike_id":"d97d7e58-0bdb-4114-9249-8f863e0e9a7c","system_id":"levelo_inurba_marseille","lat":43.2841,"lon":5.37514,"is_reserved":false,"is_disabled":false,"rental_uris":{"android":"levelo://app?vid=d97d7e58-0bdb-4114-9249-8f863e0e9a7c","ios":"levelo://app?vid=d97d7e58-0bdb-4114-9249-8f863e0e9a7c"},"vehicle_type_id":"4","last_reported":1730149694,"current_range_meters":9200,"station_id":"ce4bh412rcd13ifvqds0","pricing_plan_id":"cebpf4jnsgd1na2vs0mg"},{"bike_id":"73c3c11a-6f24-4899-a04d-d5cdd86831b7","system_id":"levelo_inurba_marseille","lat":43.31324,"lon":5.39696,"is_reserved":false,"is_disabled":false,"rental_uris":{"android":"levelo://app?vid=73c3c11a-6f24-4899-a04d-d5cdd86831b7","ios":"levelo://app?vid=73c3c11a-6f24-4899-a04d-d5cdd86831b7"},"vehicle_type_id":"4","last_reported":1730149694,"current_range_meters":28800,"station_id":"ce4bgvp2rcd13ifvqcu0","pricing_plan_id":"cebpf4jnsgd1na2vs0mg"},{"bike_id":"f06a33d9-a4b8-4248-8422-bfa380d536dc","system_id":"levelo_inurba_marseille","lat":43.28108,"lon":5.3784,"is_reserved":false,"is_disabled":false,"rental_uris":{"android":"levelo://app?vid=f06a33d9-a4b8-4248-8422-bfa380d536dc","ios":"levelo://app?vid=f06a33d9-a4b8-4248-8422-bfa380d536dc"},"vehicle_type_id":"4","last_reported":1730149694,"current_range_meters":17200,"station_id":"ce4bha12rcd13ifvqee0","pricing_plan_id":"cebpf4jnsgd1na2vs0mg"},{"bike_id":"5d8df523-bcf5-40d9-87db-5f6aac45833a","system_id":"levelo_inurba_marseille","lat":43.28102,"lon":5.37848,"is_reserved":false,"is_disabled":false,"rental_uris":{"android":"levelo://app?vid=5d8df523-bcf5-40d9-87db-5f6aac45833a","ios":"levelo://app?vid=5d8df523-bcf5-40d9-87db-5f6aac45833a"},"vehicle_type_id":"4","last_reported":1730149694,"current_range_meters":36000,"station_id":"ce4bha12rcd13ifvqee0","pricing_plan_id":"cebpf4jnsgd1na2vs0mg"},{"bike_id":"3251f402-92c3-4eb1-bef5-47958be735a8","system_id":"levelo_inurba_marseille","lat":43.29027,"lon":5.37566,"is_reserved":false,"is_disabled":false,"rental_uris":{"android":"levelo://app?vid=3251f402-92c3-4eb1-bef5-47958be735a8","ios":"levelo://app?vid=3251f402-92c3-4eb1-bef5-47958be735a8"},"vehicle_type_id":"4","last_reported":1730149694,"current_range_meters":24400,"station_id":"ce4bh692rcd13ifvqe90","pricing_plan_id":"cebpf4jnsgd1na2vs0mg"},{"bike_id":"8b34a2ee-ed56-4dc7-bc1c-f3aa05af698b","system_id":"levelo_inurba_marseille","lat":43.28706,"lon":5.37395,"is_reserved":false,"is_disabled":false,"rental_uris":{"android":"levelo://app?vid=8b34a2ee-ed56-4dc7-bc1c-f3aa05af698b","ios":"levelo://app?vid=8b34a2ee-ed56-4dc7-bc1c-f3aa05af698b"},"vehicle_type_id":"4","last_reported":1730149694,"current_range_meters":39200,"station_id":"ce4bh3p2rcd13ifvqdq0","pricing_plan_id":"cebpf4jnsgd1na2vs0mg"},{"bike_id":"b7cdb225-b8d2-428a-9659-1844801c9c20","system_id":"levelo_inurba_marseille","lat":43.31326,"lon":5.39694,"is_reserved":false,"is_disabled":false,"rental_uris":{"android":"levelo://app?vid=b7cdb225-b8d2-428a-9659-1844801c9c20","ios":"levelo://app?vid=b7cdb225-b8d2-428a-9659-1844801c9c20"},"vehicle_type_id":"4","last_reported":1730149694,"current_range_meters":35600,"station_id":"ce4bgvp2rcd13ifvqcu0","pricing_plan_id":"cebpf4jnsgd1na2vs0mg"},{"bike_id":"587f35f1-4ca3-4726-938e-103307e4500f","system_id":"levelo_inurba_marseille","lat":43.28949,"lon":5.36391,"is_reserved":false,"is_disabled":false,"rental_uris":{"android":"levelo://app?vid=587f35f1-4ca3-4726-938e-103307e4500f","ios":"levelo://app?vid=587f35f1-4ca3-4726-938e-103307e4500f"},"vehicle_type_id":"4","last_reported":1730149694,"current_range_meters":25200,"station_id":"ce4bhc92rcd13ifvqetg","pricing_plan_id":"cebpf4jnsgd1na2vs0mg"},{"bike_id":"1933d696-0ab7-4cb5-bc66-64413a631f6f","system_id":"levelo_inurba_marseille","lat":43.28697,"lon":5.37396,"is_reserved":false,"is_disabled":false,"rental_uris":{"android":"levelo://app?vid=1933d696-0ab7-4cb5-bc66-64413a631f6f","ios":"levelo://app?vid=1933d696-0ab7-4cb5-bc66-64413a631f6f"},"vehicle_type_id":"4","last_reported":1730149694,"current_range_meters":35200,"station_id":"ce4bh3p2rcd13ifvqdq0","pricing_plan_id":"cebpf4jnsgd1na2vs0mg"},{"bike_id":"ea61c08b-a012-48ae-8394-6dadba3ed845","system_id":"levelo_inurba_marseille","lat":43.30321,"lon":5.40423,"is_reserved":false,"is_disabled":false,"rental_uris":{"android":"levelo://app?vid=ea61c08b-a012-48ae-8394-6dadba3ed845","ios":"levelo://app?vid=ea61c08b-a012-48ae-8394-6dadba3ed845"},"vehicle_type_id":"4","last_reported":1730149694,"current_range_meters":32400,"station_id":"ce4bh012rcd13ifvqd10","pricing_plan_id":"cebpf4jnsgd1na2vs0mg"},{"bike_id":"31667409-da4c-4835-82b7-8670e324a15d","system_id":"levelo_inurba_marseille","lat":43.28935,"lon":5.36633,"is_reserved":false,"is_disabled":false,"rental_uris":{"android":"levelo://app?vid=31667409-da4c-4835-82b7-8670e324a15d","ios":"levelo://app?vid=31667409-da4c-4835-82b7-8670e324a15d"},"vehicle_type_id":"4","last_reported":1730149694,"current_range_meters":17600,"station_id":"ce4bhap2rcd13ifvqek0","pricing_plan_id":"cebpf4jnsgd1na2vs0mg"},{"bike_id":"322ab797-980a-4657-b653-ad8aac214a45","system_id":"levelo_inurba_marseille","lat":43.2695,"lon":5.38647,"is_reserved":false,"is_disabled":false,"rental_uris":{"android":"levelo://app?vid=322ab797-980a-4657-b653-ad8aac214a45","ios":"levelo://app?vid=322ab797-980a-4657-b653-ad8aac214a45"},"vehicle_type_id":"4","last_reported":1730149694,"current_range_meters":38800,"station_id":"ce4bhh92rcd13ifvqfh0","pricing_plan_id":"cebpf4jnsgd1na2vs0mg"},{"bike_id":"124ad471-eb5a-4502-a27e-211d0965082e","system_id":"levelo_inurba_marseille","lat":43.27612,"lon":5.36125,"is_reserved":false,"is_disabled":false,"rental_uris":{"android":"levelo://app?vid=124ad471-eb5a-4502-a27e-211d0965082e","ios":"levelo://app?vid=124ad471-eb5a-4502-a27e-211d0965082e"},"vehicle_type_id":"4","last_reported":1730149694,"current_range_meters":38800,"station_id":"ce4bgj92rcd13ifvqbe0","pricing_plan_id":"cebpf4jnsgd1na2vs0mg"},{"bike_id":"7a149a9b-24ed-4621-8de1-69522f0c7171","system_id":"levelo_inurba_marseille","lat":43.30889,"lon":5.39635,"is_reserved":false,"is_disabled":false,"rental_uris":{"android":"levelo://app?vid=7a149a9b-24ed-4621-8de1-69522f0c7171","ios":"levelo://app?vid=7a149a9b-24ed-4621-8de1-69522f0c7171"},"vehicle_type_id":"4","last_reported":1730149694,"current_range_meters":33600,"station_id":"ce4bh012rcd13ifvqcv0","pricing_plan_id":"cebpf4jnsgd1na2vs0mg"},{"bike_id":"99f4035c-ed76-4f26-827d-613ebe127107","system_id":"levelo_inurba_marseille","lat":43.27996,"lon":5.40003,"is_reserved":false,"is_disabled":false,"rental_uris":{"android":"levelo://app?vid=99f4035c-ed76-4f26-827d-613ebe127107","ios":"levelo://app?vid=99f4035c-ed76-4f26-827d-613ebe127107"},"vehicle_type_id":"4","last_reported":1730149694,"current_range_meters":38800,"station_id":"ce4bho92rcd13ifvqh4g","pricing_plan_id":"cebpf4jnsgd1na2vs0mg"},{"bike_id":"cfee1988-9f0f-43b5-972d-658b297c2748","system_id":"levelo_inurba_marseille","lat":43.302958,"lon":5.39205,"is_reserved":false,"is_disabled":false,"rental_uris":{"android":"levelo://app?vid=cfee1988-9f0f-43b5-972d-658b297c2748","ios":"levelo://app?vid=cfee1988-9f0f-43b5-972d-658b297c2748"},"vehicle_type_id":"4","last_reported":1730149694,"current_range_meters":38800,"station_id":"ce4bgkh2rcd13ifvqbk0","pricing_plan_id":"cebpf4jnsgd1na2vs0mg"},{"bike_id":"df4da2d7-04e5-48a1-8925-07bc05ee873d","system_id":"levelo_inurba_marseille","lat":43.239668,"lon":5.366252,"is_reserved":false,"is_disabled":false,"rental_uris":{"android":"levelo://app?vid=df4da2d7-04e5-48a1-8925-07bc05ee873d","ios":"levelo://app?vid=df4da2d7-04e5-48a1-8925-07bc05ee873d"},"vehicle_type_id":"4","last_reported":1730149694,"current_range_meters":38800,"station_id":"ce4bhi12rcd13ifvqfp0","pricing_plan_id":"cebpf4jnsgd1na2vs0mg"},{"bike_id":"d4cdfe6e-f3f3-4d1c-9ca4-d819134db47d","system_id":"levelo_inurba_marseille","lat":43.29432,"lon":5.39752,"is_reserved":false,"is_disabled":false,"rental_uris":{"android":"levelo://app?vid=d4cdfe6e-f3f3-4d1c-9ca4-d819134db47d","ios":"levelo://app?vid=d4cdfe6e-f3f3-4d1c-9ca4-d819134db47d"},"vehicle_type_id":"4","last_reported":1730149694,"current_range_meters":2800,"station_id":"ce4bh3h2rcd13ifvqdo0","pricing_plan_id":"cebpf4jnsgd1na2vs0mg"},{"bike_id":"737837b8-7066-4d20-89f3-91917ea0193c","system_id":"levelo_inurba_marseille","lat":43.2846,"lon":5.35888,"is_reserved":false,"is_disabled":false,"rental_uris":{"android":"levelo://app?vid=737837b8-7066-4d20-89f3-91917ea0193c","ios":"levelo://app?vid=737837b8-7066-4d20-89f3-91917ea0193c"},"vehicle_type_id":"4","last_reported":1730149694,"current_range_meters":22400,"station_id":"ce4bhah2rcd13ifvqei0","pricing_plan_id":"cebpf4jnsgd1na2vs0mg"},{"bike_id":"44c44a23-c3ac-44d2-bc27-cf3f585be3c1","system_id":"levelo_inurba_marseille","lat":43.30892,"lon":5.39645,"is_reserved":false,"is_disabled":false,"rental_uris":{"android":"levelo://app?vid=44c44a23-c3ac-44d2-bc27-cf3f585be3c1","ios":"levelo://app?vid=44c44a23-c3ac-44d2-bc27-cf3f585be3c1"},"vehicle_type_id":"4","last_reported":1730149694,"current_range_meters":4800,"station_id":"ce4bh012rcd13ifvqcv0","pricing_plan_id":"cebpf4jnsgd1na2vs0mg"},{"bike_id":"185a6e9d-9b98-484f-a00a-a37864a2d7b5","system_id":"levelo_inurba_marseille","lat":43.29306,"lon":5.37191,"is_reserved":false,"is_disabled":false,"rental_uris":{"android":"levelo://app?vid=185a6e9d-9b98-484f-a00a-a37864a2d7b5","ios":"levelo://app?vid=185a6e9d-9b98-484f-a00a-a37864a2d7b5"},"vehicle_type_id":"4","last_reported":1730149694,"current_range_meters":28800,"station_id":"ce4bgh92rcd13ifvqb40","pricing_plan_id":"cebpf4jnsgd1na2vs0mg"},{"bike_id":"dda48482-bb25-488a-b8aa-27ddaee48b7c","system_id":"levelo_inurba_marseille","lat":43.30634,"lon":5.40083,"is_reserved":false,"is_disabled":false,"rental_uris":{"android":"levelo://app?vid=dda48482-bb25-488a-b8aa-27ddaee48b7c","ios":"levelo://app?vid=dda48482-bb25-488a-b8aa-27ddaee48b7c"},"vehicle_type_id":"4","last_reported":1730149694,"current_range_meters":22000,"station_id":"ce4bh112rcd13ifvqda0","pricing_plan_id":"cebpf4jnsgd1na2vs0mg"},{"bike_id":"1f02a00c-e697-4446-8389-72dcdacc9f45","system_id":"levelo_inurba_marseille","lat":43.32481,"lon":5.36572,"is_reserved":false,"is_disabled":false,"rental_uris":{"android":"levelo://app?vid=1f02a00c-e697-4446-8389-72dcdacc9f45","ios":"levelo://app?vid=1f02a00c-e697-4446-8389-72dcdacc9f45"},"vehicle_type_id":"4","last_reported":1730149694,"current_range_meters":32000,"station_id":"ce4bhs12rcd13ifvqhvg","pricing_plan_id":"cebpf4jnsgd1na2vs0mg"},{"bike_id":"a9096ef8-d41d-4536-a2eb-7d561cd688d6","system_id":"levelo_inurba_marseille","lat":43.29854,"lon":5.36291,"is_reserved":false,"is_disabled":false,"rental_uris":{"android":"levelo://app?vid=a9096ef8-d41d-4536-a2eb-7d561cd688d6","ios":"levelo://app?vid=a9096ef8-d41d-4536-a2eb-7d561cd688d6"},"vehicle_type_id":"4","last_reported":1730149694,"current_range_meters":36400,"station_id":"ce4bgpp2rcd13ifvqc3g","pricing_plan_id":"cebpf4jnsgd1na2vs0mg"},{"bike_id":"8e93bc1b-1b4f-4129-bbbf-603daf4b7dff","system_id":"levelo_inurba_marseille","lat":43.29558,"lon":5.3996,"is_reserved":false,"is_disabled":false,"rental_uris":{"android":"levelo://app?vid=8e93bc1b-1b4f-4129-bbbf-603daf4b7dff","ios":"levelo://app?vid=8e93bc1b-1b4f-4129-bbbf-603daf4b7dff"},"vehicle_type_id":"4","last_reported":1730149694,"current_range_meters":38800,"station_id":"ce4bh312rcd13ifvqdj0","pricing_plan_id":"cebpf4jnsgd1na2vs0mg"},{"bike_id":"b2e0ebd1-1fb9-476e-bcdd-62319b5e79c4","system_id":"levelo_inurba_marseille","lat":43.29881,"lon":5.38914,"is_reserved":false,"is_disabled":false,"rental_uris":{"android":"levelo://app?vid=b2e0ebd1-1fb9-476e-bcdd-62319b5e79c4","ios":"levelo://app?vid=b2e0ebd1-1fb9-476e-bcdd-62319b5e79c4"},"vehicle_type_id":"4","last_reported":1730149694,"current_range_meters":25200,"station_id":"ce4bh392rcd13ifvqdl0","pricing_plan_id":"cebpf4jnsgd1na2vs0mg"},{"bike_id":"1ec29269-684b-4ca6-b904-1947e56f39eb","system_id":"levelo_inurba_marseille","lat":43.2969,"lon":5.37291,"is_reserved":false,"is_disabled":false,"rental_uris":{"android":"levelo://app?vid=1ec29269-684b-4ca6-b904-1947e56f39eb","ios":"levelo://app?vid=1ec29269-684b-4ca6-b904-1947e56f39eb"},"vehicle_type_id":"4","last_reported":1730149694,"current_range_meters":38800,"station_id":"ce4bgk12rcd13ifvqbj0","pricing_plan_id":"cebpf4jnsgd1na2vs0mg"},{"bike_id":"a202a1c1-08b7-4727-8318-f9aeef312751","system_id":"levelo_inurba_marseille","lat":43.25817,"lon":5.39418,"is_reserved":false,"is_disabled":false,"rental_uris":{"android":"levelo://app?vid=a202a1c1-08b7-4727-8318-f9aeef312751","ios":"levelo://app?vid=a202a1c1-08b7-4727-8318-f9aeef312751"},"vehicle_type_id":"4","last_reported":1730149694,"current_range_meters":16800,"station_id":"ce4bhip2rcd13ifvqft0","pricing_plan_id":"cebpf4jnsgd1na2vs0mg"},{"bike_id":"1fae7eeb-dee3-4945-8e95-ba4348be2125","system_id":"levelo_inurba_marseille","lat":43.2811,"lon":5.37839,"is_reserved":false,"is_disabled":false,"rental_uris":{"android":"levelo://app?vid=1fae7eeb-dee3-4945-8e95-ba4348be2125","ios":"levelo://app?vid=1fae7eeb-dee3-4945-8e95-ba4348be2125"},"vehicle_type_id":"4","last_reported":1730149694,"current_range_meters":24800,"station_id":"ce4bha12rcd13ifvqee0","pricing_plan_id":"cebpf4jnsgd1na2vs0mg"},{"bike_id":"d6aa198d-8bc3-46fe-b194-9ee8756e7b92","system_id":"levelo_inurba_marseille","lat":43.30646,"lon":5.40084,"is_reserved":false,"is_disabled":false,"rental_uris":{"android":"levelo://app?vid=d6aa198d-8bc3-46fe-b194-9ee8756e7b92","ios":"levelo://app?vid=d6aa198d-8bc3-46fe-b194-9ee8756e7b92"},"vehicle_type_id":"4","last_reported":1730149694,"current_range_meters":36800,"station_id":"ce4bh112rcd13ifvqda0","pricing_plan_id":"cebpf4jnsgd1na2vs0mg"},{"bike_id":"b58344b2-0596-4519-acb1-31f568d12e30","system_id":"levelo_inurba_marseille","lat":43.29789,"lon":5.40368,"is_reserved":false,"is_disabled":false,"rental_uris":{"android":"levelo://app?vid=b58344b2-0596-4519-acb1-31f568d12e30","ios":"levelo://app?vid=b58344b2-0596-4519-acb1-31f568d12e30"},"vehicle_type_id":"4","last_reported":1730149694,"current_range_meters":13600,"station_id":"ce4bh112rcd13ifvqd90","pricing_plan_id":"cebpf4jnsgd1na2vs0mg"},{"bike_id":"aa5e28a6-a26c-439b-bb54-7413d413a825","system_id":"levelo_inurba_marseille","lat":43.29352,"lon":5.38213,"is_reserved":false,"is_disabled":false,"rental_uris":{"android":"levelo://app?vid=aa5e28a6-a26c-439b-bb54-7413d413a825","ios":"levelo://app?vid=aa5e28a6-a26c-439b-bb54-7413d413a825"},"vehicle_type_id":"4","last_reported":1730149694,"current_range_meters":7200,"station_id":"ce4bgl12rcd13ifvqbo0","pricing_plan_id":"cebpf4jnsgd1na2vs0mg"},