{"last_updated":1778593987,"ttl":60,"version":"2.2","data":{"bikes":[{"bike_id":"8c850238-df9c-4ba5-bf83-e259ef80075b","system_id":"levelo_inurba_marseille","lat":43.31172,"lon":5.38716,"is_reserved":false,"is_disabled":false,"rental_uris":{"android":"levelo://app?vid=8c850238-df9c-4ba5-bf83-e259ef80075b","ios":"levelo://app?vid=8c850238-df9c-4ba5-bf83-e259ef80075b"},"vehicle_type_id":"4","last_reported":1778593988,"current_range_meters":2800,"station_id":"ce4bgv12rcd13ifvqcp0","pricing_plan_id":"cebpf4jnsgd1na2vs0mg"},{"bike_id":"958ce1b7-db7f-4a81-912d-62ad435ddf58","system_id":"levelo_inurba_marseille","lat":43.24652,"lon":5.38895,"is_reserved":false,"is_disabled":true,"rental_uris":{"android":"levelo://app?vid=958ce1b7-db7f-4a81-912d-62ad435ddf58","ios":"levelo://app?vid=958ce1b7-db7f-4a81-912d-62ad435ddf58"},"vehicle_type_id":"4","last_reported":1778593988,"current_range_meters":2800,"station_id":"ce4bhg12rcd13ifvqf60","pricing_plan_id":"cebpf4jnsgd1na2vs0mg"},{"bike_id":"4562930c-bf5c-41f0-bcb5-70b71347e059","system_id":"levelo_inurba_marseille","lat":43.26959,"lon":5.38657,"is_reserved":false,"is_disabled":true,"rental_uris":{"android":"levelo://app?vid=4562930c-bf5c-41f0-bcb5-70b71347e059","ios":"levelo://app?vid=4562930c-bf5c-41f0-bcb5-70b71347e059"},"vehicle_type_id":"4","last_reported":1778593988,"current_range_meters":2800,"station_id":"ce4bhh92rcd13ifvqfh0","pricing_plan_id":"cebpf4jnsgd1na2vs0mg"},{"bike_id":"a75090a0-bf7b-4124-b8be-cb86f28f9193","system_id":"levelo_inurba_marseille","lat":43.23203,"lon":5.39978,"is_reserved":false,"is_disabled":false,"rental_uris":{"android":"levelo://app?vid=a75090a0-bf7b-4124-b8be-cb86f28f9193","ios":"levelo://app?vid=a75090a0-bf7b-4124-b8be-cb86f28f9193"},"vehicle_type_id":"4","last_reported":1778593988,"current_range_meters":2800,"station_id":"ce4bhn12rcd13ifvqgqg","pricing_plan_id":"cebpf4jnsgd1na2vs0mg"},{"bike_id":"5396284c-9242-4a80-b00c-4bfbf5422e0d","system_id":"levelo_inurba_marseille","lat":43.26574,"lon":5.39007,"is_reserved":false,"is_disabled":false,"rental_uris":{"android":"levelo://app?vid=5396284c-9242-4a80-b00c-4bfbf5422e0d","ios":"levelo://app?vid=5396284c-9242-4a80-b00c-4bfbf5422e0d"},"vehicle_type_id":"4","last_reported":1778593988,"current_range_meters":2800,"station_id":"ce4bhe12rcd13ifvqf30","pricing_plan_id":"cebpf4jnsgd1na2vs0mg"},{"bike_id":"5ef7dbea-89fe-469a-b5aa-7acab1d76b25","system_id":"levelo_inurba_marseille","lat":43.29484,"lon":5.38648,"is_reserved":false,"is_disabled":false,"rental_uris":{"android":"levelo://app?vid=5ef7dbea-89fe-469a-b5aa-7acab1d76b25","ios":"levelo://app?vid=5ef7dbea-89fe-469a-b5aa-7acab1d76b25"},"vehicle_type_id":"4","last_reported":1778593988,"current_range_meters":2800,"station_id":"","pricing_plan_id":"cebpf4jnsgd1na2vs0mg"},{"bike_id":"f04c9cad-033b-4671-90a0-c080b107e1f1","system_id":"levelo_inurba_marseille","lat":43.28697,"lon":5.4668,"is_reserved":false,"is_disabled":false,"rental_uris":{"android":"levelo://app?vid=f04c9cad-033b-4671-90a0-c080b107e1f1","ios":"levelo://app?vid=f04c9cad-033b-4671-90a0-c080b107e1f1"},"vehicle_type_id":"4","last_reported":1778593988,"current_range_meters":2800,"station_id":"st_d6tc3vkotcvc738tfjhg","pricing_plan_id":"cebpf4jnsgd1na2vs0mg"},{"bike_id":"b3ba9aa9-c72b-4452-9535-7f1ada541eac","system_id":"levelo_inurba_marseille","lat":43.2977,"lon":5.371,"is_reserved":false,"is_disabled":false,"rental_uris":{"android":"levelo://app?vid=b3ba9aa9-c72b-4452-9535-7f1ada541eac","ios":"levelo://app?vid=b3ba9aa9-c72b-4452-9535-7f1ada541eac"},"vehicle_type_id":"4","last_reported":1778593988,"current_range_meters":2800,"station_id":"ce4bgop2rcd13ifvqc1g","pricing_plan_id":"cebpf4jnsgd1na2vs0mg"},{"bike_id":"278ab637-5efb-4d38-892a-0119aef1e079","system_id":"levelo_inurba_marseille","lat":43.33546,"lon":5.37437,"is_reserved":false,"is_disabled":false,"rental_uris":{"android":"levelo://app?vid=278ab637-5efb-4d38-892a-0119aef1e079","ios":"levelo://app?vid=278ab637-5efb-4d38-892a-0119aef1e079"},"vehicle_type_id":"4","last_reported":1778593988,"current_range_meters":3200,"station_id":"st_d46tts09ee8s73dlu43g","pricing_plan_id":"cebpf4jnsgd1na2vs0mg"},{"bike_id":"59d1c8ca-a1da-4ef6-82e6-cd1ef07f4ded","system_id":"levelo_inurba_marseille","lat":43.2815,"lon":5.4264,"is_reserved":false,"is_disabled":true,"rental_uris":{"android":"levelo://app?vid=59d1c8ca-a1da-4ef6-82e6-cd1ef07f4ded","ios":"levelo://app?vid=59d1c8ca-a1da-4ef6-82e6-cd1ef07f4ded"},"vehicle_type_id":"4","last_reported":1778593988,"current_range_meters":3200,"station_id":"ce4bhnh2rcd13ifvqgug","pricing_plan_id":"cebpf4jnsgd1na2vs0mg"},{"bike_id":"1cda2a20-a2aa-413c-a4dd-92b6a2a3d744","system_id":"levelo_inurba_marseille","lat":43.26576,"lon":5.37344,"is_reserved":false,"is_disabled":true,"rental_uris":{"android":"levelo://app?vid=1cda2a20-a2aa-413c-a4dd-92b6a2a3d744","ios":"levelo://app?vid=1cda2a20-a2aa-413c-a4dd-92b6a2a3d744"},"vehicle_type_id":"4","last_reported":1778593988,"current_range_meters":3200,"station_id":"ce4bhg12rcd13ifvqf70","pricing_plan_id":"cebpf4jnsgd1na2vs0mg"},{"bike_id":"ace9f39d-dc6b-4bb6-85fb-072f0b39420c","system_id":"levelo_inurba_marseille","lat":43.24469,"lon":5.42529,"is_reserved":false,"is_disabled":false,"rental_uris":{"android":"levelo://app?vid=ace9f39d-dc6b-4bb6-85fb-072f0b39420c","ios":"levelo://app?vid=ace9f39d-dc6b-4bb6-85fb-072f0b39420c"},"vehicle_type_id":"4","last_reported":1778593988,"current_range_meters":3200,"station_id":"st_d4a3vfp97mjs738cd8kg","pricing_plan_id":"cebpf4jnsgd1na2vs0mg"},{"bike_id":"49d857a6-a8e6-4709-bf83-565b3cb79d8e","system_id":"levelo_inurba_marseille","lat":43.29274,"lon":5.39107,"is_reserved":false,"is_disabled":false,"rental_uris":{"android":"levelo://app?vid=49d857a6-a8e6-4709-bf83-565b3cb79d8e","ios":"levelo://app?vid=49d857a6-a8e6-4709-bf83-565b3cb79d8e"},"vehicle_type_id":"4","last_reported":1778593988,"current_range_meters":3200,"station_id":"","pricing_plan_id":"cebpf4jnsgd1na2vs0mg"},{"bike_id":"506bf8f1-4063-496c-997e-e616c740cb63","system_id":"levelo_inurba_marseille","lat":43.22556,"lon":5.41635,"is_reserved":false,"is_disabled":false,"rental_uris":{"android":"levelo://app?vid=506bf8f1-4063-496c-997e-e616c740cb63","ios":"levelo://app?vid=506bf8f1-4063-496c-997e-e616c740cb63"},"vehicle_type_id":"4","last_reported":1778593988,"current_range_meters":3200,"station_id":"st_d2o4gvlbi1j2169b742g","pricing_plan_id":"cebpf4jnsgd1na2vs0mg"},{"bike_id":"8cb077d1-ed60-4ac3-815b-0445abf36ebe","system_id":"levelo_inurba_marseille","lat":43.269309,"lon":5.389231,"is_reserved":false,"is_disabled":false,"rental_uris":{"android":"levelo://app?vid=8cb077d1-ed60-4ac3-815b-0445abf36ebe","ios":"levelo://app?vid=8cb077d1-ed60-4ac3-815b-0445abf36ebe"},"vehicle_type_id":"4","last_reported":1778593988,"current_range_meters":3200,"station_id":"ce4bhhh2rcd13ifvqfl0","pricing_plan_id":"cebpf4jnsgd1na2vs0mg"},{"bike_id":"9ae94f50-b5c7-4257-b218-d1c2747f87d2","system_id":"levelo_inurba_marseille","lat":43.28693,"lon":5.37955,"is_reserved":false,"is_disabled":false,"rental_uris":{"android":"levelo://app?vid=9ae94f50-b5c7-4257-b218-d1c2747f87d2","ios":"levelo://app?vid=9ae94f50-b5c7-4257-b218-d1c2747f87d2"},"vehicle_type_id":"4","last_reported":1778593988,"current_range_meters":3200,"station_id":"ce4bh9p2rcd13ifvqec0","pricing_plan_id":"cebpf4jnsgd1na2vs0mg"},{"bike_id":"6688ffe8-439f-4cf3-aad3-e5b4dbb05635","system_id":"levelo_inurba_marseille","lat":43.21171,"lon":5.35062,"is_reserved":false,"is_disabled":false,"rental_uris":{"android":"levelo://app?vid=6688ffe8-439f-4cf3-aad3-e5b4dbb05635","ios":"levelo://app?vid=6688ffe8-439f-4cf3-aad3-e5b4dbb05635"},"vehicle_type_id":"4","last_reported":1778593988,"current_range_meters":3200,"station_id":"st_cvj6sg6p6f1abm77japg","pricing_plan_id":"cebpf4jnsgd1na2vs0mg"},{"bike_id":"92451cea-094f-48eb-90c7-ab59f50f048d","system_id":"levelo_inurba_marseille","lat":43.3377,"lon":5.37487,"is_reserved":false,"is_disabled":false,"rental_uris":{"android":"levelo://app?vid=92451cea-094f-48eb-90c7-ab59f50f048d","ios":"levelo://app?vid=92451cea-094f-48eb-90c7-ab59f50f048d"},"vehicle_type_id":"4","last_reported":1778593988,"current_range_meters":3600,"station_id":"st_d46tts09ee8s73dlu43g","pricing_plan_id":"cebpf4jnsgd1na2vs0mg"},{"bike_id":"0f53e0ce-114e-4420-896f-7965871864a7","system_id":"levelo_inurba_marseille","lat":43.2466,"lon":5.38204,"is_reserved":false,"is_disabled":false,"rental_uris":{"android":"levelo://app?vid=0f53e0ce-114e-4420-896f-7965871864a7","ios":"levelo://app?vid=0f53e0ce-114e-4420-896f-7965871864a7"},"vehicle_type_id":"4","last_reported":1778593988,"current_range_meters":3600,"station_id":"ce4bhih2rcd13ifvqfr0","pricing_plan_id":"cebpf4jnsgd1na2vs0mg"},{"bike_id":"66983a47-b821-425f-ad2d-beef691e712e","system_id":"levelo_inurba_marseille","lat":43.24118,"lon":5.37708,"is_reserved":false,"is_disabled":true,"rental_uris":{"android":"levelo://app?vid=66983a47-b821-425f-ad2d-beef691e712e","ios":"levelo://app?vid=66983a47-b821-425f-ad2d-beef691e712e"},"vehicle_type_id":"4","last_reported":1778593988,"current_range_meters":3600,"station_id":"","pricing_plan_id":"cebpf4jnsgd1na2vs0mg"},{"bike_id":"fd4d9517-7915-453f-bbef-9af70d358b4b","system_id":"levelo_inurba_marseille","lat":43.29633,"lon":5.40593,"is_reserved":false,"is_disabled":false,"rental_uris":{"android":"levelo://app?vid=fd4d9517-7915-453f-bbef-9af70d358b4b","ios":"levelo://app?vid=fd4d9517-7915-453f-bbef-9af70d358b4b"},"vehicle_type_id":"4","last_reported":1778593988,"current_range_meters":3600,"station_id":"ce4bh0h2rcd13ifvqd60","pricing_plan_id":"cebpf4jnsgd1na2vs0mg"},{"bike_id":"71c57bcc-ba9b-40de-9aea-e601aff09a18","system_id":"levelo_inurba_marseille","lat":43.231558,"lon":5.437148,"is_reserved":false,"is_disabled":false,"rental_uris":{"android":"levelo://app?vid=71c57bcc-ba9b-40de-9aea-e601aff09a18","ios":"levelo://app?vid=71c57bcc-ba9b-40de-9aea-e601aff09a18"},"vehicle_type_id":"4","last_reported":1778593988,"current_range_meters":3600,"station_id":"ce4bhmp2rcd13ifvqgog","pricing_plan_id":"cebpf4jnsgd1na2vs0mg"},{"bike_id":"13ef4adb-0a7e-4e5b-a9ed-7d5f1a0dc683","system_id":"levelo_inurba_marseille","lat":43.31365,"lon":5.38486,"is_reserved":false,"is_disabled":false,"rental_uris":{"android":"levelo://app?vid=13ef4adb-0a7e-4e5b-a9ed-7d5f1a0dc683","ios":"levelo://app?vid=13ef4adb-0a7e-4e5b-a9ed-7d5f1a0dc683"},"vehicle_type_id":"4","last_reported":1778593988,"current_range_meters":3600,"station_id":"ce4bgt92rcd13ifvqcf0","pricing_plan_id":"cebpf4jnsgd1na2vs0mg"},{"bike_id":"36a8230c-721c-4328-a9b6-c5c9ffd75279","system_id":"levelo_inurba_marseille","lat":43.33148,"lon":5.37683,"is_reserved":false,"is_disabled":true,"rental_uris":{"android":"levelo://app?vid=36a8230c-721c-4328-a9b6-c5c9ffd75279","ios":"levelo://app?vid=36a8230c-721c-4328-a9b6-c5c9ffd75279"},"vehicle_type_id":"4","last_reported":1778593988,"current_range_meters":3600,"station_id":"st_d46cu089ee8s73dldbu0","pricing_plan_id":"cebpf4jnsgd1na2vs0mg"},{"bike_id":"acfc7ecf-c004-4642-9bde-1fa9e32d6f0a","system_id":"levelo_inurba_marseille","lat":43.31428,"lon":5.39795,"is_reserved":false,"is_disabled":false,"rental_uris":{"android":"levelo://app?vid=acfc7ecf-c004-4642-9bde-1fa9e32d6f0a","ios":"levelo://app?vid=acfc7ecf-c004-4642-9bde-1fa9e32d6f0a"},"vehicle_type_id":"4","last_reported":1778593988,"current_range_meters":3600,"station_id":"","pricing_plan_id":"cebpf4jnsgd1na2vs0mg"},{"bike_id":"08a6b3bd-9a62-405f-a487-c9346e36fd92","system_id":"levelo_inurba_marseille","lat":43.3091,"lon":5.36856,"is_reserved":false,"is_disabled":false,"rental_uris":{"android":"levelo://app?vid=08a6b3bd-9a62-405f-a487-c9346e36fd92","ios":"levelo://app?vid=08a6b3bd-9a62-405f-a487-c9346e36fd92"},"vehicle_type_id":"4","last_reported":1778593988,"current_range_meters":3600,"station_id":"ce4bgn92rcd13ifvqbvg","pricing_plan_id":"cebpf4jnsgd1na2vs0mg"},{"bike_id":"e3f608e7-bb58-4c91-8dc3-b1b5e763e75e","system_id":"levelo_inurba_marseille","lat":43.2723,"lon":5.39285,"is_reserved":false,"is_disabled":false,"rental_uris":{"android":"levelo://app?vid=e3f608e7-bb58-4c91-8dc3-b1b5e763e75e","ios":"levelo://app?vid=e3f608e7-bb58-4c91-8dc3-b1b5e763e75e"},"vehicle_type_id":"4","last_reported":1778593988,"current_range_meters":3600,"station_id":"ce4bhhp2rcd13ifvqfm0","pricing_plan_id":"cebpf4jnsgd1na2vs0mg"},{"bike_id":"45aece37-61e8-41f8-83d4-51ce4151c1f4","system_id":"levelo_inurba_marseille","lat":43.279995,"lon":5.416688,"is_reserved":false,"is_disabled":false,"rental_uris":{"android":"levelo://app?vid=45aece37-61e8-41f8-83d4-51ce4151c1f4","ios":"levelo://app?vid=45aece37-61e8-41f8-83d4-51ce4151c1f4"},"vehicle_type_id":"4","last_reported":1778593988,"current_range_meters":3600,"station_id":"st_d4e5ca6na9uc73bfl5fg","pricing_plan_id":"cebpf4jnsgd1na2vs0mg"},{"bike_id":"e0f7083b-8cbf-4655-befb-4d8e591eb2a1","system_id":"levelo_inurba_marseille","lat":43.28121,"lon":5.37718,"is_reserved":false,"is_disabled":false,"rental_uris":{"android":"levelo://app?vid=e0f7083b-8cbf-4655-befb-4d8e591eb2a1","ios":"levelo://app?vid=e0f7083b-8cbf-4655-befb-4d8e591eb2a1"},"vehicle_type_id":"4","last_reported":1778593988,"current_range_meters":3600,"station_id":"","pricing_plan_id":"cebpf4jnsgd1na2vs0mg"},{"bike_id":"886623eb-c5a8-473d-a2fc-60bc38a10a8c","system_id":"levelo_inurba_marseille","lat":43.32004,"lon":5.38146,"is_reserved":false,"is_disabled":false,"rental_uris":{"android":"levelo://app?vid=886623eb-c5a8-473d-a2fc-60bc38a10a8c","ios":"levelo://app?vid=886623eb-c5a8-473d-a2fc-60bc38a10a8c"},"vehicle_type_id":"4","last_reported":1778593988,"current_range_meters":3600,"station_id":"ce4bhr12rcd13ifvqhpg","pricing_plan_id":"cebpf4jnsgd1na2vs0mg"},{"bike_id":"07b30fd1-e131-41c8-8fcb-ed255c5ec415","system_id":"levelo_inurba_marseille","lat":43.29205,"lon":5.42691,"is_reserved":false,"is_disabled":false,"rental_uris":{"android":"levelo://app?vid=07b30fd1-e131-41c8-8fcb-ed255c5ec415","ios":"levelo://app?vid=07b30fd1-e131-41c8-8fcb-ed255c5ec415"},"vehicle_type_id":"4","last_reported":1778593988,"current_range_meters":3600,"station_id":"","pricing_plan_id":"cebpf4jnsgd1na2vs0mg"},{"bike_id":"eb703512-726e-4d88-846c-a718cf3676e0","system_id":"levelo_inurba_marseille","lat":43.26371,"lon":5.41083,"is_reserved":false,"is_disabled":false,"rental_uris":{"android":"levelo://app?vid=eb703512-726e-4d88-846c-a718cf3676e0","ios":"levelo://app?vid=eb703512-726e-4d88-846c-a718cf3676e0"},"vehicle_type_id":"4","last_reported":1778593988,"current_range_meters":4000,"station_id":"st_d4e5ca6na9uc73bfl5fg","pricing_plan_id":"cebpf4jnsgd1na2vs0mg"},{"bike_id":"71e73191-816f-4a27-9453-d924762a6240","system_id":"levelo_inurba_marseille","lat":43.30137,"lon":5.38055,"is_reserved":false,"is_disabled":false,"rental_uris":{"android":"levelo://app?vid=71e73191-816f-4a27-9453-d924762a6240","ios":"levelo://app?vid=71e73191-816f-4a27-9453-d924762a6240"},"vehicle_type_id":"4","last_reported":1778593988,"current_range_meters":4000,"station_id":"ce4bgjp2rcd13ifvqbh0","pricing_plan_id":"cebpf4jnsgd1na2vs0mg"},{"bike_id":"62ee0c78-8fa6-4eca-895f-94aed9c67f82","system_id":"levelo_inurba_marseille","lat":43.31732,"lon":5.40508,"is_reserved":false,"is_disabled":false,"rental_uris":{"android":"levelo://app?vid=62ee0c78-8fa6-4eca-895f-94aed9c67f82","ios":"levelo://app?vid=62ee0c78-8fa6-4eca-895f-94aed9c67f82"},"vehicle_type_id":"4","last_reported":1778593988,"current_range_meters":4000,"station_id":"ce4bh012rcd13ifvqd00","pricing_plan_id":"cebpf4jnsgd1na2vs0mg"},{"bike_id":"d4b266d2-7798-46fd-9e06-5a29b9cf97b9","system_id":"levelo_inurba_marseille","lat":43.24072,"lon":5.37734,"is_reserved":false,"is_disabled":false,"rental_uris":{"android":"levelo://app?vid=d4b266d2-7798-46fd-9e06-5a29b9cf97b9","ios":"levelo://app?vid=d4b266d2-7798-46fd-9e06-5a29b9cf97b9"},"vehicle_type_id":"4","last_reported":1778593988,"current_range_meters":4000,"station_id":"ce4bhnp2rcd13ifvqgvg","pricing_plan_id":"cebpf4jnsgd1na2vs0mg"},{"bike_id":"7be8a2bf-0eab-4a6a-a373-4fa83ae79a43","system_id":"levelo_inurba_marseille","lat":43.231771,"lon":5.39988,"is_reserved":false,"is_disabled":false,"rental_uris":{"android":"levelo://app?vid=7be8a2bf-0eab-4a6a-a373-4fa83ae79a43","ios":"levelo://app?vid=7be8a2bf-0eab-4a6a-a373-4fa83ae79a43"},"vehicle_type_id":"4","last_reported":1778593988,"current_range_meters":4000,"station_id":"ce4bhn12rcd13ifvqgqg","pricing_plan_id":"cebpf4jnsgd1na2vs0mg"},{"bike_id":"71472d68-a559-4d19-94ef-9e760eb01dd3","system_id":"levelo_inurba_marseille","lat":43.31255,"lon":5.36888,"is_reserved":false,"is_disabled":true,"rental_uris":{"android":"levelo://app?vid=71472d68-a559-4d19-94ef-9e760eb01dd3","ios":"levelo://app?vid=71472d68-a559-4d19-94ef-9e760eb01dd3"},"vehicle_type_id":"4","last_reported":1778593988,"current_range_meters":4000,"station_id":"ce4bgl92rcd13ifvqbq0","pricing_plan_id":"cebpf4jnsgd1na2vs0mg"},{"bike_id":"c540012b-dbab-4ca7-9968-4eabde74da24","system_id":"levelo_inurba_marseille","lat":43.27322,"lon":5.39085,"is_reserved":false,"is_disabled":false,"rental_uris":{"android":"levelo://app?vid=c540012b-dbab-4ca7-9968-4eabde74da24","ios":"levelo://app?vid=c540012b-dbab-4ca7-9968-4eabde74da24"},"vehicle_type_id":"4","last_reported":1778593988,"current_range_meters":4000,"station_id":"ce4bhgp2rcd13ifvqfe0","pricing_plan_id":"cebpf4jnsgd1na2vs0mg"},{"bike_id":"4b600278-649a-412f-a79d-3b414074a2a0","system_id":"levelo_inurba_marseille","lat":43.26208,"lon":5.40456,"is_reserved":false,"is_disabled":false,"rental_uris":{"android":"levelo://app?vid=4b600278-649a-412f-a79d-3b414074a2a0","ios":"levelo://app?vid=4b600278-649a-412f-a79d-3b414074a2a0"},"vehicle_type_id":"4","last_reported":1778593988,"current_range_meters":4000,"station_id":"ce4bhmh2rcd13ifvqgmg","pricing_plan_id":"cebpf4jnsgd1na2vs0mg"},{"bike_id":"0f19004c-8f50-46f9-a9d9-6bfd8920cac5","system_id":"levelo_inurba_marseille","lat":43.30153,"lon":5.38098,"is_reserved":false,"is_disabled":false,"rental_uris":{"android":"levelo://app?vid=0f19004c-8f50-46f9-a9d9-6bfd8920cac5","ios":"levelo://app?vid=0f19004c-8f50-46f9-a9d9-6bfd8920cac5"},"vehicle_type_id":"4","last_reported":1778593988,"current_range_meters":4000,"station_id":"ce4bgjp2rcd13ifvqbh0","pricing_plan_id":"cebpf4jnsgd1na2vs0mg"},{"bike_id":"5801074c-1cdd-488c-9ab0-2c4332a34a58","system_id":"levelo_inurba_marseille","lat":43.26792,"lon":5.39409,"is_reserved":false,"is_disabled":false,"rental_uris":{"android":"levelo://app?vid=5801074c-1cdd-488c-9ab0-2c4332a34a58","ios":"levelo://app?vid=5801074c-1cdd-488c-9ab0-2c4332a34a58"},"vehicle_type_id":"4","last_reported":1778593988,"current_range_meters":4000,"station_id":"ce4bhh12rcd13ifvqfg0","pricing_plan_id":"cebpf4jnsgd1na2vs0mg"},{"bike_id":"54d91a13-5899-47f6-bec9-71223c378664","system_id":"levelo_inurba_marseille","lat":43.28484,"lon":5.48384,"is_reserved":false,"is_disabled":false,"rental_uris":{"android":"levelo://app?vid=54d91a13-5899-47f6-bec9-71223c378664","ios":"levelo://app?vid=54d91a13-5899-47f6-bec9-71223c378664"},"vehicle_type_id":"4","last_reported":1778593988,"current_range_meters":4000,"station_id":"","pricing_plan_id":"cebpf4jnsgd1na2vs0mg"},{"bike_id":"febba32d-820b-482d-a26a-27263adac621","system_id":"levelo_inurba_marseille","lat":43.30562,"lon":5.36545,"is_reserved":false,"is_disabled":false,"rental_uris":{"android":"levelo://app?vid=febba32d-820b-482d-a26a-27263adac621","ios":"levelo://app?vid=febba32d-820b-482d-a26a-27263adac621"},"vehicle_type_id":"4","last_reported":1778593988,"current_range_meters":4400,"station_id":"ce4bgs12rcd13ifvqcag","pricing_plan_id":"cebpf4jnsgd1na2vs0mg"},{"bike_id":"d5785ec9-6274-44d0-9968-955992c9d661","system_id":"levelo_inurba_marseille","lat":43.2417,"lon":5.36403,"is_reserved":false,"is_disabled":false,"rental_uris":{"android":"levelo://app?vid=d5785ec9-6274-44d0-9968-955992c9d661","ios":"levelo://app?vid=d5785ec9-6274-44d0-9968-955992c9d661"},"vehicle_type_id":"4","last_reported":1778593988,"current_range_meters":4400,"station_id":"cpo36qri1sfpv3e86is0","pricing_plan_id":"cebpf4jnsgd1na2vs0mg"},{"bike_id":"63d94166-dc89-46d5-b4d3-595a07629c5c","system_id":"levelo_inurba_marseille","lat":43.32493,"lon":5.38302,"is_reserved":false,"is_disabled":false,"rental_uris":{"android":"levelo://app?vid=63d94166-dc89-46d5-b4d3-595a07629c5c","ios":"levelo://app?vid=63d94166-dc89-46d5-b4d3-595a07629c5c"},"vehicle_type_id":"4","last_reported":1778593988,"current_range_meters":4400,"station_id":"st_d4asgbiv49dc73anf9m0","pricing_plan_id":"cebpf4jnsgd1na2vs0mg"},{"bike_id":"2dcab839-fffc-4e79-b33a-d5c7f531157f","system_id":"levelo_inurba_marseille","lat":43.28789,"lon":5.42422,"is_reserved":false,"is_disabled":false,"rental_uris":{"android":"levelo://app?vid=2dcab839-fffc-4e79-b33a-d5c7f531157f","ios":"levelo://app?vid=2dcab839-fffc-4e79-b33a-d5c7f531157f"},"vehicle_type_id":"4","last_reported":1778593988,"current_range_meters":4400,"station_id":"","pricing_plan_id":"cebpf4jnsgd1na2vs0mg"},{"bike_id":"8f87a66e-499f-40d3-81f4-ef3b647adc53","system_id":"levelo_inurba_marseille","lat":43.28163,"lon":5.42628,"is_reserved":false,"is_disabled":false,"rental_uris":{"android":"levelo://app?vid=8f87a66e-499f-40d3-81f4-ef3b647adc53","ios":"levelo://app?vid=8f87a66e-499f-40d3-81f4-ef3b647adc53"},"vehicle_type_id":"4","last_reported":1778593988,"current_range_meters":4800,"station_id":"ce4bhnh2rcd13ifvqgug","pricing_plan_id":"cebpf4jnsgd1na2vs0mg"},{"bike_id":"d903db2b-3c4f-4ebd-adb5-e9d51955ecf8","system_id":"levelo_inurba_marseille","lat":43.27538,"lon":5.35902,"is_reserved":false,"is_disabled":false,"rental_uris":{"android":"levelo://app?vid=d903db2b-3c4f-4ebd-adb5-e9d51955ecf8","ios":"levelo://app?vid=d903db2b-3c4f-4ebd-adb5-e9d51955ecf8"},"vehicle_type_id":"4","last_reported":1778593988,"current_range_meters":4800,"station_id":"","pricing_plan_id":"cebpf4jnsgd1na2vs0mg"},{"bike_id":"7e021223-aa2b-4b4f-a31f-7890483c30ec","system_id":"levelo_inurba_marseille","lat":43.31113,"lon":5.36776,"is_reserved":false,"is_disabled":false,"rental_uris":{"android":"levelo://app?vid=7e021223-aa2b-4b4f-a31f-7890483c30ec","ios":"levelo://app?vid=7e021223-aa2b-4b4f-a31f-7890483c30ec"},"vehicle_type_id":"4","last_reported":1778593988,"current_range_meters":4800,"station_id":"","pricing_plan_id":"cebpf4jnsgd1na2vs0mg"},{"bike_id":"bf608530-b991-434d-ac45-a3dafc806da6","system_id":"levelo_inurba_marseille","lat":43.28831,"lon":5.40004,"is_reserved":false,"is_disabled":false,"rental_uris":{"android":"levelo://app?vid=bf608530-b991-434d-ac45-a3dafc806da6","ios":"levelo://app?vid=bf608530-b991-434d-ac45-a3dafc806da6"},"vehicle_type_id":"4","last_reported":1778593988,"current_range_meters":4800,"station_id":"","pricing_plan_id":"cebpf4jnsgd1na2vs0mg"},{"bike_id":"abb01880-eb55-456f-a1a7-f90749223be2","system_id":"levelo_inurba_marseille","lat":43.30097,"lon":5.39071,"is_reserved":false,"is_disabled":false,"rental_uris":{"android":"levelo://app?vid=abb01880-eb55-456f-a1a7-f90749223be2","ios":"levelo://app?vid=abb01880-eb55-456f-a1a7-f90749223be2"},"vehicle_type_id":"4","last_reported":1778593988,"current_range_meters":4800,"station_id":"ce4bh192rcd13ifvqdb0","pricing_plan_id":"cebpf4jnsgd1na2vs0mg"},{"bike_id":"828feb75-1174-4011-8ada-a5fc2e3f1216","system_id":"levelo_inurba_marseille","lat":43.3095,"lon":5.39074,"is_reserved":false,"is_disabled":false,"rental_uris":{"android":"levelo://app?vid=828feb75-1174-4011-8ada-a5fc2e3f1216","ios":"levelo://app?vid=828feb75-1174-4011-8ada-a5fc2e3f1216"},"vehicle_type_id":"4","last_reported":1778593988,"current_range_meters":4800,"station_id":"ce4bgup2rcd13ifvqco0","pricing_plan_id":"cebpf4jnsgd1na2vs0mg"},{"bike_id":"dc0a6e21-47dd-44a5-9f73-3b0019341943","system_id":"levelo_inurba_marseille","lat":43.30503,"lon":5.45954,"is_reserved":false,"is_disabled":false,"rental_uris":{"android":"levelo://app?vid=dc0a6e21-47dd-44a5-9f73-3b0019341943","ios":"levelo://app?vid=dc0a6e21-47dd-44a5-9f73-3b0019341943"},"vehicle_type_id":"4","last_reported":1778593988,"current_range_meters":4800,"station_id":"","pricing_plan_id":"cebpf4jnsgd1na2vs0mg"},{"bike_id":"819a3868-e86b-4761-85f7-cd647e1f51b3","system_id":"levelo_inurba_marseille","lat":43.21194,"lon":5.35067,"is_reserved":false,"is_disabled":false,"rental_uris":{"android":"levelo://app?vid=819a3868-e86b-4761-85f7-cd647e1f51b3","ios":"levelo://app?vid=819a3868-e86b-4761-85f7-cd647e1f51b3"},"vehicle_type_id":"4","last_reported":1778593988,"current_range_meters":4800,"station_id":"st_cvj6sg6p6f1abm77japg","pricing_plan_id":"cebpf4jnsgd1na2vs0mg"},{"bike_id":"25b9dc4f-c248-45b1-9690-d5295a2d7264","system_id":"levelo_inurba_marseille","lat":43.29968,"lon":5.385,"is_reserved":false,"is_disabled":false,"rental_uris":{"android":"levelo://app?vid=25b9dc4f-c248-45b1-9690-d5295a2d7264","ios":"levelo://app?vid=25b9dc4f-c248-45b1-9690-d5295a2d7264"},"vehicle_type_id":"4","last_reported":1778593988,"current_range_meters":4800,"station_id":"ce4bgj92rcd13ifvqbd0","pricing_plan_id":"cebpf4jnsgd1na2vs0mg"},{"bike_id":"e29f13ba-8f18-4046-9cea-a6d1edec3557","system_id":"levelo_inurba_marseille","lat":43.31899,"lon":5.40959,"is_reserved":false,"is_disabled":false,"rental_uris":{"android":"levelo://app?vid=e29f13ba-8f18-4046-9cea-a6d1edec3557","ios":"levelo://app?vid=e29f13ba-8f18-4046-9cea-a6d1edec3557"},"vehicle_type_id":"4","last_reported":1778593988,"current_range_meters":4800,"station_id":"","pricing_plan_id":"cebpf4jnsgd1na2vs0mg"},{"bike_id":"0bc1bb54-fa51-4c55-9baf-bc7a6c001a1a","system_id":"levelo_inurba_marseille","lat":43.246674,"lon":5.381505,"is_reserved":false,"is_disabled":false,"rental_uris":{"android":"levelo://app?vid=0bc1bb54-fa51-4c55-9baf-bc7a6c001a1a","ios":"levelo://app?vid=0bc1bb54-fa51-4c55-9baf-bc7a6c001a1a"},"vehicle_type_id":"4","last_reported":1778593988,"current_range_meters":4800,"station_id":"ce4bhih2rcd13ifvqfr0","pricing_plan_id":"cebpf4jnsgd1na2vs0mg"},{"bike_id":"d0eb9e4e-742b-4b52-9327-5497c0977f67","system_id":"levelo_inurba_marseille","lat":43.29231,"lon":5.36102,"is_reserved":false,"is_disabled":false,"rental_uris":{"android":"levelo://app?vid=d0eb9e4e-742b-4b52-9327-5497c0977f67","ios":"levelo://app?vid=d0eb9e4e-742b-4b52-9327-5497c0977f67"},"vehicle_type_id":"4","last_reported":1778593988,"current_range_meters":4800,"station_id":"ce4bhbh2rcd13ifvqeqg","pricing_plan_id":"cebpf4jnsgd1na2vs0mg"},{"bike_id":"07d081a3-9c0b-4b29-8485-7cabbd40fc57","system_id":"levelo_inurba_marseille","lat":43.297003,"lon":5.365941,"is_reserved":false,"is_disabled":false,"rental_uris":{"android":"levelo://app?vid=07d081a3-9c0b-4b29-8485-7cabbd40fc57","ios":"levelo://app?vid=07d081a3-9c0b-4b29-8485-7cabbd40fc57"},"vehicle_type_id":"4","last_reported":1778593988,"current_range_meters":4800,"station_id":"ce4bgn12rcd13ifvqbt0","pricing_plan_id":"cebpf4jnsgd1na2vs0mg"},{"bike_id":"9ec631be-d357-4dea-a511-e39edb2edb25","system_id":"levelo_inurba_marseille","lat":43.30428,"lon":5.39738,"is_reserved":false,"is_disabled":false,"rental_uris":{"android":"levelo://app?vid=9ec631be-d357-4dea-a511-e39edb2edb25","ios":"levelo://app?vid=9ec631be-d357-4dea-a511-e39edb2edb25"},"vehicle_type_id":"4","last_reported":1778593988,"current_range_meters":4800,"station_id":"ce4bh092rcd13ifvqd20","pricing_plan_id":"cebpf4jnsgd1na2vs0mg"},{"bike_id":"34c9039f-5b9d-4b04-915e-a26ad8a3f6f1","system_id":"levelo_inurba_marseille","lat":43.28489,"lon":5.38411,"is_reserved":false,"is_disabled":false,"rental_uris":{"android":"levelo://app?vid=34c9039f-5b9d-4b04-915e-a26ad8a3f6f1","ios":"levelo://app?vid=34c9039f-5b9d-4b04-915e-a26ad8a3f6f1"},"vehicle_type_id":"4","last_reported":1778593988,"current_range_meters":4800,"station_id":"ce4bh512rcd13ifvqe3g","pricing_plan_id":"cebpf4jnsgd1na2vs0mg"},{"bike_id":"eb3e0cbc-edbc-405b-8bcf-bd2109caf947","system_id":"levelo_inurba_marseille","lat":43.23136,"lon":5.44336,"is_reserved":false,"is_disabled":false,"rental_uris":{"android":"levelo://app?vid=eb3e0cbc-edbc-405b-8bcf-bd2109caf947","ios":"levelo://app?vid=eb3e0cbc-edbc-405b-8bcf-bd2109caf947"},"vehicle_type_id":"4","last_reported":1778593988,"current_range_meters":4800,"station_id":"","pricing_plan_id":"cebpf4jnsgd1na2vs0mg"},{"bike_id":"03ab3f20-2d1e-40f5-9b31-b818a49a20bd","system_id":"levelo_inurba_marseille","lat":43.27672,"lon":5.38878,"is_reserved":false,"is_disabled":false,"rental_uris":{"android":"levelo://app?vid=03ab3f20-2d1e-40f5-9b31-b818a49a20bd","ios":"levelo://app?vid=03ab3f20-2d1e-40f5-9b31-b818a49a20bd"},"vehicle_type_id":"4","last_reported":1778593988,"current_range_meters":4800,"station_id":"ce4bhi12rcd13ifvqfo0","pricing_plan_id":"cebpf4jnsgd1na2vs0mg"},{"bike_id":"b9cb9e7c-b0e2-4edb-9352-36d8e9015a08","system_id":"levelo_inurba_marseille","lat":43.26369,"lon":5.41076,"is_reserved":false,"is_disabled":false,"rental_uris":{"android":"levelo://app?vid=b9cb9e7c-b0e2-4edb-9352-36d8e9015a08","ios":"levelo://app?vid=b9cb9e7c-b0e2-4edb-9352-36d8e9015a08"},"vehicle_type_id":"4","last_reported":1778593988,"current_range_meters":5600,"station_id":"st_d4e5ca6na9uc73bfl5fg","pricing_plan_id":"cebpf4jnsgd1na2vs0mg"},{"bike_id":"bac30a61-71cc-4cc3-bd26-d836945583a9","system_id":"levelo_inurba_marseille","lat":43.24804,"lon":5.37457,"is_reserved":false,"is_disabled":false,"rental_uris":{"android":"levelo://app?vid=bac30a61-71cc-4cc3-bd26-d836945583a9","ios":"levelo://app?vid=bac30a61-71cc-4cc3-bd26-d836945583a9"},"vehicle_type_id":"4","last_reported":1778593988,"current_range_meters":5600,"station_id":"ce4bhgh2rcd13ifvqfb0","pricing_plan_id":"cebpf4jnsgd1na2vs0mg"},{"bike_id":"0f1807cc-9d93-4021-8b9a-9457f4117b8b","system_id":"levelo_inurba_marseille","lat":43.32108,"lon":5.3678,"is_reserved":false,"is_disabled":false,"rental_uris":{"android":"levelo://app?vid=0f1807cc-9d93-4021-8b9a-9457f4117b8b","ios":"levelo://app?vid=0f1807cc-9d93-4021-8b9a-9457f4117b8b"},"vehicle_type_id":"4","last_reported":1778593988,"current_range_meters":5600,"station_id":"ce4bhrh2rcd13ifvqhug","pricing_plan_id":"cebpf4jnsgd1na2vs0mg"},{"bike_id":"daa7168a-7e89-4c13-9120-19d3be838e10","system_id":"levelo_inurba_marseille","lat":43.28704,"lon":5.46673,"is_reserved":false,"is_disabled":false,"rental_uris":{"android":"levelo://app?vid=daa7168a-7e89-4c13-9120-19d3be838e10","ios":"levelo://app?vid=daa7168a-7e89-4c13-9120-19d3be838e10"},"vehicle_type_id":"4","last_reported":1778593988,"current_range_meters":5600,"station_id":"st_d6tc3vkotcvc738tfjhg","pricing_plan_id":"cebpf4jnsgd1na2vs0mg"},{"bike_id":"958393e8-8aca-45f0-8fe3-5442b42fce84","system_id":"levelo_inurba_marseille","lat":43.31359,"lon":5.36702,"is_reserved":false,"is_disabled":false,"rental_uris":{"android":"levelo://app?vid=958393e8-8aca-45f0-8fe3-5442b42fce84","ios":"levelo://app?vid=958393e8-8aca-45f0-8fe3-5442b42fce84"},"vehicle_type_id":"4","last_reported":1778593988,"current_range_meters":5600,"station_id":"ce4bgr92rcd13ifvqc6g","pricing_plan_id":"cebpf4jnsgd1na2vs0mg"},{"bike_id":"ec356ca0-79ee-4a7c-886e-170471134b26","system_id":"levelo_inurba_marseille","lat":43.27434,"lon":5.39406,"is_reserved":false,"is_disabled":false,"rental_uris":{"android":"levelo://app?vid=ec356ca0-79ee-4a7c-886e-170471134b26","ios":"levelo://app?vid=ec356ca0-79ee-4a7c-886e-170471134b26"},"vehicle_type_id":"4","last_reported":1778593988,"current_range_meters":5600,"station_id":"ce4bhdp2rcd13ifvqf20","pricing_plan_id":"cebpf4jnsgd1na2vs0mg"},{"bike_id":"5a1ea2de-417d-4de1-b842-7fe8ee6c04c6","system_id":"levelo_inurba_marseille","lat":43.29017,"lon":5.42427,"is_reserved":false,"is_disabled":false,"rental_uris":{"android":"levelo://app?vid=5a1ea2de-417d-4de1-b842-7fe8ee6c04c6","ios":"levelo://app?vid=5a1ea2de-417d-4de1-b842-7fe8ee6c04c6"},"vehicle_type_id":"4","last_reported":1778593988,"current_range_meters":5600,"station_id":"","pricing_plan_id":"cebpf4jnsgd1na2vs0mg"},{"bike_id":"6cd00c4a-e627-4609-bca3-9ff8f838f854","system_id":"levelo_inurba_marseille","lat":43.2839,"lon":5.34991,"is_reserved":false,"is_disabled":false,"rental_uris":{"android":"levelo://app?vid=6cd00c4a-e627-4609-bca3-9ff8f838f854","ios":"levelo://app?vid=6cd00c4a-e627-4609-bca3-9ff8f838f854"},"vehicle_type_id":"4","last_reported":1778593988,"current_range_meters":5600,"station_id":"ce4bhbh2rcd13ifvqepg","pricing_plan_id":"cebpf4jnsgd1na2vs0mg"},{"bike_id":"89135c42-a4fd-4bce-a5be-5bccd6787014","system_id":"levelo_inurba_marseille","lat":43.25085,"lon":5.39517,"is_reserved":false,"is_disabled":false,"rental_uris":{"android":"levelo://app?vid=89135c42-a4fd-4bce-a5be-5bccd6787014","ios":"levelo://app?vid=89135c42-a4fd-4bce-a5be-5bccd6787014"},"vehicle_type_id":"4","last_reported":1778593988,"current_range_meters":6000,"station_id":"ce4bhm12rcd13ifvqgkg","pricing_plan_id":"cebpf4jnsgd1na2vs0mg"},{"bike_id":"5a217a9a-35c6-4189-9735-ae3b222b3dcb","system_id":"levelo_inurba_marseille","lat":43.26965,"lon":5.38631,"is_reserved":false,"is_disabled":false,"rental_uris":{"android":"levelo://app?vid=5a217a9a-35c6-4189-9735-ae3b222b3dcb","ios":"levelo://app?vid=5a217a9a-35c6-4189-9735-ae3b222b3dcb"},"vehicle_type_id":"4","last_reported":1778593988,"current_range_meters":6000,"station_id":"ce4bhh92rcd13ifvqfh0","pricing_plan_id":"cebpf4jnsgd1na2vs0mg"},{"bike_id":"19ec71e3-1aab-43d1-a914-af77a617339e","system_id":"levelo_inurba_marseille","lat":43.29564,"lon":5.37535,"is_reserved":false,"is_disabled":false,"rental_uris":{"android":"levelo://app?vid=19ec71e3-1aab-43d1-a914-af77a617339e","ios":"levelo://app?vid=19ec71e3-1aab-43d1-a914-af77a617339e"},"vehicle_type_id":"4","last_reported":1778593988,"current_range_meters":6000,"station_id":"ce4bgh92rcd13ifvqb50","pricing_plan_id":"cebpf4jnsgd1na2vs0mg"},{"bike_id":"0b19dc2f-f47e-4191-ac23-8583d8e624bd","system_id":"levelo_inurba_marseille","lat":43.29568,"lon":5.39961,"is_reserved":false,"is_disabled":false,"rental_uris":{"android":"levelo://app?vid=0b19dc2f-f47e-4191-ac23-8583d8e624bd","ios":"levelo://app?vid=0b19dc2f-f47e-4191-ac23-8583d8e624bd"},"vehicle_type_id":"4","last_reported":1778593988,"current_range_meters":6000,"station_id":"ce4bh312rcd13ifvqdj0","pricing_plan_id":"cebpf4jnsgd1na2vs0mg"},{"bike_id":"dba3a41e-5817-4dab-887a-39cfc182c3e4","system_id":"levelo_inurba_marseille","lat":43.23796,"lon":5.36635,"is_reserved":false,"is_disabled":true,"rental_uris":{"android":"levelo://app?vid=dba3a41e-5817-4dab-887a-39cfc182c3e4","ios":"levelo://app?vid=dba3a41e-5817-4dab-887a-39cfc182c3e4"},"vehicle_type_id":"4","last_reported":1778593988,"current_range_meters":6000,"station_id":"st_d3nk18o9ro0c73en2l3g","pricing_plan_id":"cebpf4jnsgd1na2vs0mg"},{"bike_id":"17d8926b-3f70-4955-bb5e-0b52af3409be","system_id":"levelo_inurba_marseille","lat":43.31345,"lon":5.36715,"is_reserved":false,"is_disabled":false,"rental_uris":{"android":"levelo://app?vid=17d8926b-3f70-4955-bb5e-0b52af3409be","ios":"levelo://app?vid=17d8926b-3f70-4955-bb5e-0b52af3409be"},"vehicle_type_id":"4","last_reported":1778593988,"current_range_meters":6000,"station_id":"ce4bgr92rcd13ifvqc6g","pricing_plan_id":"cebpf4jnsgd1na2vs0mg"},{"bike_id":"5414dbd6-9e6a-430b-aed5-52e8d3f95a9e","system_id":"levelo_inurba_marseille","lat":43.29537,"lon":5.37517,"is_reserved":false,"is_disabled":false,"rental_uris":{"android":"levelo://app?vid=5414dbd6-9e6a-430b-aed5-52e8d3f95a9e","ios":"levelo://app?vid=5414dbd6-9e6a-430b-aed5-52e8d3f95a9e"},"vehicle_type_id":"4","last_reported":1778593988,"current_range_meters":6000,"station_id":"ce4bgkp2rcd13ifvqbmg","pricing_plan_id":"cebpf4jnsgd1na2vs0mg"},{"bike_id":"fc101313-b544-4212-853d-8148542a0e38","system_id":"levelo_inurba_marseille","lat":43.29259,"lon":5.36845,"is_reserved":false,"is_disabled":false,"rental_uris":{"android":"levelo://app?vid=fc101313-b544-4212-853d-8148542a0e38","ios":"levelo://app?vid=fc101313-b544-4212-853d-8148542a0e38"},"vehicle_type_id":"4","last_reported":1778593988,"current_range_meters":6000,"station_id":"ce4bhbp2rcd13ifvqesg","pricing_plan_id":"cebpf4jnsgd1na2vs0mg"},{"bike_id":"4965a78c-1ccb-4c9f-afe0-cb443e32bde4","system_id":"levelo_inurba_marseille","lat":43.2862,"lon":5.37058,"is_reserved":false,"is_disabled":false,"rental_uris":{"android":"levelo://app?vid=4965a78c-1ccb-4c9f-afe0-cb443e32bde4","ios":"levelo://app?vid=4965a78c-1ccb-4c9f-afe0-cb443e32bde4"},"vehicle_type_id":"4","last_reported":1778593988,"current_range_meters":6000,"station_id":"ce4bht12rcd13ifvqi60","pricing_plan_id":"cebpf4jnsgd1na2vs0mg"},{"bike_id":"6b202fbb-8f2a-4564-ad29-7dd7b34fa443","system_id":"levelo_inurba_marseille","lat":43.2886,"lon":5.42507,"is_reserved":false,"is_disabled":false,"rental_uris":{"android":"levelo://app?vid=6b202fbb-8f2a-4564-ad29-7dd7b34fa443","ios":"levelo://app?vid=6b202fbb-8f2a-4564-ad29-7dd7b34fa443"},"vehicle_type_id":"4","last_reported":1778593988,"current_range_meters":6000,"station_id":"st_d3b462108ojc7389ooeg","pricing_plan_id":"cebpf4jnsgd1na2vs0mg"},{"bike_id":"06ace5d7-3d4b-48bb-9ba8-5a2e1fabdaaf","system_id":"levelo_inurba_marseille","lat":43.337518,"lon":5.374433,"is_reserved":false,"is_disabled":false,"rental_uris":{"android":"levelo://app?vid=06ace5d7-3d4b-48bb-9ba8-5a2e1fabdaaf","ios":"levelo://app?vid=06ace5d7-3d4b-48bb-9ba8-5a2e1fabdaaf"},"vehicle_type_id":"4","last_reported":1778593988,"current_range_meters":6000,"station_id":"","pricing_plan_id":"cebpf4jnsgd1na2vs0mg"},{"bike_id":"b4ee9029-83ef-474f-b695-be30a116871b","system_id":"levelo_inurba_marseille","lat":43.30226,"lon":5.38155,"is_reserved":false,"is_disabled":false,"rental_uris":{"android":"levelo://app?vid=b4ee9029-83ef-474f-b695-be30a116871b","ios":"levelo://app?vid=b4ee9029-83ef-474f-b695-be30a116871b"},"vehicle_type_id":"4","last_reported":1778593988,"current_range_meters":6000,"station_id":"","pricing_plan_id":"cebpf4jnsgd1na2vs0mg"},{"bike_id":"1c6ae1bf-d70c-4086-81fe-d36416668ca6","system_id":"levelo_inurba_marseille","lat":43.2979,"lon":5.38088,"is_reserved":false,"is_disabled":false,"rental_uris":{"android":"levelo://app?vid=1c6ae1bf-d70c-4086-81fe-d36416668ca6","ios":"levelo://app?vid=1c6ae1bf-d70c-4086-81fe-d36416668ca6"},"vehicle_type_id":"4","last_reported":1778593988,"current_range_meters":6000,"station_id":"ce4bgip2rcd13ifvqbb0","pricing_plan_id":"cebpf4jnsgd1na2vs0mg"},{"bike_id":"8822872b-a491-4b2c-9590-dd31d95df0ea","system_id":"levelo_inurba_marseille","lat":43.28158,"lon":5.42636,"is_reserved":false,"is_disabled":false,"rental_uris":{"android":"levelo://app?vid=8822872b-a491-4b2c-9590-dd31d95df0ea","ios":"levelo://app?vid=8822872b-a491-4b2c-9590-dd31d95df0ea"},"vehicle_type_id":"4","last_reported":1778593988,"current_range_meters":6000,"station_id":"ce4bhnh2rcd13ifvqgug","pricing_plan_id":"cebpf4jnsgd1na2vs0mg"},{"bike_id":"b37bbdca-682b-450a-8daa-c7dd676ecf29","system_id":"levelo_inurba_marseille","lat":43.24469,"lon":5.42537,"is_reserved":false,"is_disabled":false,"rental_uris":{"android":"levelo://app?vid=b37bbdca-682b-450a-8daa-c7dd676ecf29","ios":"levelo://app?vid=b37bbdca-682b-450a-8daa-c7dd676ecf29"},"vehicle_type_id":"4","last_reported":1778593988,"current_range_meters":6000,"station_id":"st_d4a3vfp97mjs738cd8kg","pricing_plan_id":"cebpf4jnsgd1na2vs0mg"},{"bike_id":"54314955-1c88-4cfd-86f6-8fba7187f7a6","system_id":"levelo_inurba_marseille","lat":43.2873,"lon":5.42712,"is_reserved":false,"is_disabled":false,"rental_uris":{"android":"levelo://app?vid=54314955-1c88-4cfd-86f6-8fba7187f7a6","ios":"levelo://app?vid=54314955-1c88-4cfd-86f6-8fba7187f7a6"},"vehicle_type_id":"4","last_reported":1778593988,"current_range_meters":6400,"station_id":"","pricing_plan_id":"cebpf4jnsgd1na2vs0mg"},{"bike_id":"a9feddb6-75e3-4803-af21-ae7907b42033","system_id":"levelo_inurba_marseille","lat":43.28567,"lon":5.38311,"is_reserved":false,"is_disabled":false,"rental_uris":{"android":"levelo://app?vid=a9feddb6-75e3-4803-af21-ae7907b42033","ios":"levelo://app?vid=a9feddb6-75e3-4803-af21-ae7907b42033"},"vehicle_type_id":"4","last_reported":1778593988,"current_range_meters":6400,"station_id":"","pricing_plan_id":"cebpf4jnsgd1na2vs0mg"},{"bike_id":"8b6e9039-e7dd-4239-a71e-f73853cee6bf","system_id":"levelo_inurba_marseille","lat":43.24396,"lon":5.37023,"is_reserved":false,"is_disabled":false,"rental_uris":{"android":"levelo://app?vid=8b6e9039-e7dd-4239-a71e-f73853cee6bf","ios":"levelo://app?vid=8b6e9039-e7dd-4239-a71e-f73853cee6bf"},"vehicle_type_id":"4","last_reported":1778593988,"current_range_meters":6400,"station_id":"ce4bhhh2rcd13ifvqfk0","pricing_plan_id":"cebpf4jnsgd1na2vs0mg"},{"bike_id":"658fd94b-36a1-48a0-bcda-1b9792123e95","system_id":"levelo_inurba_marseille","lat":43.28262,"lon":5.39015,"is_reserved":false,"is_disabled":false,"rental_uris":{"android":"levelo://app?vid=658fd94b-36a1-48a0-bcda-1b9792123e95","ios":"levelo://app?vid=658fd94b-36a1-48a0-bcda-1b9792123e95"},"vehicle_type_id":"4","last_reported":1778593988,"current_range_meters":6400,"station_id":"","pricing_plan_id":"cebpf4jnsgd1na2vs0mg"},{"bike_id":"f75200eb-c556-489f-9d74-42038266db2e","system_id":"levelo_inurba_marseille","lat":43.29219,"lon":5.39952,"is_reserved":false,"is_disabled":false,"rental_uris":{"android":"levelo://app?vid=f75200eb-c556-489f-9d74-42038266db2e","ios":"levelo://app?vid=f75200eb-c556-489f-9d74-42038266db2e"},"vehicle_type_id":"4","last_reported":1778593988,"current_range_meters":6400,"station_id":"ce4bh312rcd13ifvqdk0","pricing_plan_id":"cebpf4jnsgd1na2vs0mg"},{"bike_id":"207c2587-1b64-4eec-a720-4ddbe5cf407c","system_id":"levelo_inurba_marseille","lat":43.24821,"lon":5.37458,"is_reserved":false,"is_disabled":false,"rental_uris":{"android":"levelo://app?vid=207c2587-1b64-4eec-a720-4ddbe5cf407c","ios":"levelo://app?vid=207c2587-1b64-4eec-a720-4ddbe5cf407c"},"vehicle_type_id":"4","last_reported":1778593988,"current_range_meters":6400,"station_id":"ce4bhgh2rcd13ifvqfb0","pricing_plan_id":"cebpf4jnsgd1na2vs0mg"},{"bike_id":"8cc87c10-3b5a-408c-8df6-84b259b5d13a","system_id":"levelo_inurba_marseille","lat":43.29876,"lon":5.39723,"is_reserved":false,"is_disabled":false,"rental_uris":{"android":"levelo://app?vid=8cc87c10-3b5a-408c-8df6-84b259b5d13a","ios":"levelo://app?vid=8cc87c10-3b5a-408c-8df6-84b259b5d13a"},"vehicle_type_id":"4","last_reported":1778593988,"current_range_meters":6400,"station_id":"ce4bh0h2rcd13ifvqd50","pricing_plan_id":"cebpf4jnsgd1na2vs0mg"},{"bike_id":"4e9e9f19-6747-44e6-895b-68838dd6a1c5","system_id":"levelo_inurba_marseille","lat":43.32367,"lon":5.36769,"is_reserved":false,"is_disabled":false,"rental_uris":{"android":"levelo://app?vid=4e9e9f19-6747-44e6-895b-68838dd6a1c5","ios":"levelo://app?vid=4e9e9f19-6747-44e6-895b-68838dd6a1c5"},"vehicle_type_id":"4","last_reported":1778593988,"current_range_meters":6400,"station_id":"ce4bhsh2rcd13ifvqi2g","pricing_plan_id":"cebpf4jnsgd1na2vs0mg"},{"bike_id":"671d7714-da8c-4ed0-921e-984c7d7ab4b1","system_id":"levelo_inurba_marseille","lat":43.298062,"lon":5.381075,"is_reserved":false,"is_disabled":false,"rental_uris":{"android":"levelo://app?vid=671d7714-da8c-4ed0-921e-984c7d7ab4b1","ios":"levelo://app?vid=671d7714-da8c-4ed0-921e-984c7d7ab4b1"},"vehicle_type_id":"4","last_reported":1778593988,"current_range_meters":6400,"station_id":"ce4bgip2rcd13ifvqbb0","pricing_plan_id":"cebpf4jnsgd1na2vs0mg"},{"bike_id":"5cc21f04-4957-44ae-8a95-adbef905a1a8","system_id":"levelo_inurba_marseille","lat":43.27244,"lon":5.39091,"is_reserved":false,"is_disabled":false,"rental_uris":{"android":"levelo://app?vid=5cc21f04-4957-44ae-8a95-adbef905a1a8","ios":"levelo://app?vid=5cc21f04-4957-44ae-8a95-adbef905a1a8"},"vehicle_type_id":"4","last_reported":1778593988,"current_range_meters":6400,"station_id":"","pricing_plan_id":"cebpf4jnsgd1na2vs0mg"},{"bike_id":"ecf17411-20c6-4dca-88e2-1404766199bf","system_id":"levelo_inurba_marseille","lat":43.26488,"lon":5.39538,"is_reserved":false,"is_disabled":false,"rental_uris":{"android":"levelo://app?vid=ecf17411-20c6-4dca-88e2-1404766199bf","ios":"levelo://app?vid=ecf17411-20c6-4dca-88e2-1404766199bf"},"vehicle_type_id":"4","last_reported":1778593988,"current_range_meters":6400,"station_id":"ce4bhi12rcd13ifvqfq0","pricing_plan_id":"cebpf4jnsgd1na2vs0mg"},{"bike_id":"8624df24-7f5d-4ea6-8070-301983b4bdac","system_id":"levelo_inurba_marseille","lat":43.25873,"lon":5.39902,"is_reserved":false,"is_disabled":false,"rental_uris":{"android":"levelo://app?vid=8624df24-7f5d-4ea6-8070-301983b4bdac","ios":"levelo://app?vid=8624df24-7f5d-4ea6-8070-301983b4bdac"},"vehicle_type_id":"4","last_reported":1778593988,"current_range_meters":6400,"station_id":"ce4bhl92rcd13ifvqghg","pricing_plan_id":"cebpf4jnsgd1na2vs0mg"},{"bike_id":"8e43356a-6894-4729-8a36-e254d80b24c0","system_id":"levelo_inurba_marseille","lat":43.29134,"lon":5.43262,"is_reserved":false,"is_disabled":false,"rental_uris":{"android":"levelo://app?vid=8e43356a-6894-4729-8a36-e254d80b24c0","ios":"levelo://app?vid=8e43356a-6894-4729-8a36-e254d80b24c0"},"vehicle_type_id":"4","last_reported":1778593988,"current_range_meters":6400,"station_id":"","pricing_plan_id":"cebpf4jnsgd1na2vs0mg"},{"bike_id":"efa15b71-10b5-4df8-9b0d-308348a89006","system_id":"levelo_inurba_marseille","lat":43.29625,"lon":5.37742,"is_reserved":false,"is_disabled":false,"rental_uris":{"android":"levelo://app?vid=efa15b71-10b5-4df8-9b0d-308348a89006","ios":"levelo://app?vid=efa15b71-10b5-4df8-9b0d-308348a89006"},"vehicle_type_id":"4","last_reported":1778593988,"current_range_meters":6800,"station_id":"ce4bgi92rcd13ifvqb90","pricing_plan_id":"cebpf4jnsgd1na2vs0mg"},{"bike_id":"0e6d4b56-486f-4728-b003-09b611c4e69e","system_id":"levelo_inurba_marseille","lat":43.28851,"lon":5.35841,"is_reserved":false,"is_disabled":false,"rental_uris":{"android":"levelo://app?vid=0e6d4b56-486f-4728-b003-09b611c4e69e","ios":"levelo://app?vid=0e6d4b56-486f-4728-b003-09b611c4e69e"},"vehicle_type_id":"4","last_reported":1778593988,"current_range_meters":6800,"station_id":"ce4bhb12rcd13ifvqem0","pricing_plan_id":"cebpf4jnsgd1na2vs0mg"},{"bike_id":"5364d659-2bce-4dc8-b02e-ea69db54c28a","system_id":"levelo_inurba_marseille","lat":43.29838,"lon":5.37794,"is_reserved":false,"is_disabled":false,"rental_uris":{"android":"levelo://app?vid=5364d659-2bce-4dc8-b02e-ea69db54c28a","ios":"levelo://app?vid=5364d659-2bce-4dc8-b02e-ea69db54c28a"},"vehicle_type_id":"4","last_reported":1778593988,"current_range_meters":6800,"station_id":"","pricing_plan_id":"cebpf4jnsgd1na2vs0mg"},{"bike_id":"378bbc50-2aee-43c3-96a0-6df81ec832de","system_id":"levelo_inurba_marseille","lat":43.26214,"lon":5.3792,"is_reserved":false,"is_disabled":false,"rental_uris":{"android":"levelo://app?vid=378bbc50-2aee-43c3-96a0-6df81ec832de","ios":"levelo://app?vid=378bbc50-2aee-43c3-96a0-6df81ec832de"},"vehicle_type_id":"4","last_reported":1778593988,"current_range_meters":6800,"station_id":"ce4bhjp2rcd13ifvqg90","pricing_plan_id":"cebpf4jnsgd1na2vs0mg"},{"bike_id":"3d1b8187-2065-4639-a12e-041af299aefc","system_id":"levelo_inurba_marseille","lat":43.24805,"lon":5.3745,"is_reserved":false,"is_disabled":false,"rental_uris":{"android":"levelo://app?vid=3d1b8187-2065-4639-a12e-041af299aefc","ios":"levelo://app?vid=3d1b8187-2065-4639-a12e-041af299aefc"},"vehicle_type_id":"4","last_reported":1778593988,"current_range_meters":6800,"station_id":"ce4bhgh2rcd13ifvqfb0","pricing_plan_id":"cebpf4jnsgd1na2vs0mg"},{"bike_id":"1917a97e-c339-486c-b156-b1a3a1600fbc","system_id":"levelo_inurba_marseille","lat":43.29789,"lon":5.38105,"is_reserved":false,"is_disabled":false,"rental_uris":{"android":"levelo://app?vid=1917a97e-c339-486c-b156-b1a3a1600fbc","ios":"levelo://app?vid=1917a97e-c339-486c-b156-b1a3a1600fbc"},"vehicle_type_id":"4","last_reported":1778593988,"current_range_meters":6800,"station_id":"ce4bgip2rcd13ifvqbb0","pricing_plan_id":"cebpf4jnsgd1na2vs0mg"},{"bike_id":"0aa7ad68-6543-44c7-b783-c835d85af183","system_id":"levelo_inurba_marseille","lat":43.30885,"lon":5.37173,"is_reserved":false,"is_disabled":false,"rental_uris":{"android":"levelo://app?vid=0aa7ad68-6543-44c7-b783-c835d85af183","ios":"levelo://app?vid=0aa7ad68-6543-44c7-b783-c835d85af183"},"vehicle_type_id":"4","last_reported":1778593988,"current_range_meters":6800,"station_id":"ce4bguh2rcd13ifvqckg","pricing_plan_id":"cebpf4jnsgd1na2vs0mg"},{"bike_id":"decc2d0c-7b17-47ef-a524-e34576147aba","system_id":"levelo_inurba_marseille","lat":43.3148,"lon":5.37318,"is_reserved":false,"is_disabled":false,"rental_uris":{"android":"levelo://app?vid=decc2d0c-7b17-47ef-a524-e34576147aba","ios":"levelo://app?vid=decc2d0c-7b17-47ef-a524-e34576147aba"},"vehicle_type_id":"4","last_reported":1778593988,"current_range_meters":6800,"station_id":"ce4bgt12rcd13ifvqcd0","pricing_plan_id":"cebpf4jnsgd1na2vs0mg"},{"bike_id":"56aa3777-5c73-49cb-b27f-d7e4ca259c3e","system_id":"levelo_inurba_marseille","lat":43.25097,"lon":5.39527,"is_reserved":false,"is_disabled":false,"rental_uris":{"android":"levelo://app?vid=56aa3777-5c73-49cb-b27f-d7e4ca259c3e","ios":"levelo://app?vid=56aa3777-5c73-49cb-b27f-d7e4ca259c3e"},"vehicle_type_id":"4","last_reported":1778593988,"current_range_meters":6800,"station_id":"ce4bhm12rcd13ifvqgkg","pricing_plan_id":"cebpf4jnsgd1na2vs0mg"},{"bike_id":"6e666f96-c688-4409-94d9-c2a457f4a119","system_id":"levelo_inurba_marseille","lat":43.29559,"lon":5.37527,"is_reserved":false,"is_disabled":false,"rental_uris":{"android":"levelo://app?vid=6e666f96-c688-4409-94d9-c2a457f4a119","ios":"levelo://app?vid=6e666f96-c688-4409-94d9-c2a457f4a119"},"vehicle_type_id":"4","last_reported":1778593988,"current_range_meters":6800,"station_id":"ce4bgh92rcd13ifvqb50","pricing_plan_id":"cebpf4jnsgd1na2vs0mg"},{"bike_id":"5f28b92f-95f1-473f-8879-716da130e1e0","system_id":"levelo_inurba_marseille","lat":43.2749,"lon":5.42464,"is_reserved":false,"is_disabled":false,"rental_uris":{"android":"levelo://app?vid=5f28b92f-95f1-473f-8879-716da130e1e0","ios":"levelo://app?vid=5f28b92f-95f1-473f-8879-716da130e1e0"},"vehicle_type_id":"4","last_reported":1778593988,"current_range_meters":6800,"station_id":"ce4bhn92rcd13ifvqgrg","pricing_plan_id":"cebpf4jnsgd1na2vs0mg"},{"bike_id":"ef4ca4e7-37d0-415d-9f28-b6cd5899199a","system_id":"levelo_inurba_marseille","lat":43.29379,"lon":5.37855,"is_reserved":false,"is_disabled":false,"rental_uris":{"android":"levelo://app?vid=ef4ca4e7-37d0-415d-9f28-b6cd5899199a","ios":"levelo://app?vid=ef4ca4e7-37d0-415d-9f28-b6cd5899199a"},"vehicle_type_id":"4","last_reported":1778593988,"current_range_meters":6800,"station_id":"ce4bgjh2rcd13ifvqbf0","pricing_plan_id":"cebpf4jnsgd1na2vs0mg"},{"bike_id":"07a9b671-4f11-4201-95b6-67d884bae6f1","system_id":"levelo_inurba_marseille","lat":43.25026,"lon":5.40387,"is_reserved":false,"is_disabled":false,"rental_uris":{"android":"levelo://app?vid=07a9b671-4f11-4201-95b6-67d884bae6f1","ios":"levelo://app?vid=07a9b671-4f11-4201-95b6-67d884bae6f1"},"vehicle_type_id":"4","last_reported":1778593988,"current_range_meters":6800,"station_id":"","pricing_plan_id":"cebpf4jnsgd1na2vs0mg"},{"bike_id":"68cb6979-53a2-4f04-b852-ff192ff30c79","system_id":"levelo_inurba_marseille","lat":43.31507,"lon":5.37317,"is_reserved":false,"is_disabled":false,"rental_uris":{"android":"levelo://app?vid=68cb6979-53a2-4f04-b852-ff192ff30c79","ios":"levelo://app?vid=68cb6979-53a2-4f04-b852-ff192ff30c79"},"vehicle_type_id":"4","last_reported":1778593988,"current_range_meters":6800,"station_id":"ce4bgt12rcd13ifvqcd0","pricing_plan_id":"cebpf4jnsgd1na2vs0mg"},{"bike_id":"961d13c3-999c-4407-b4d8-269868d84ef6","system_id":"levelo_inurba_marseille","lat":43.2528,"lon":5.3801,"is_reserved":false,"is_disabled":false,"rental_uris":{"android":"levelo://app?vid=961d13c3-999c-4407-b4d8-269868d84ef6","ios":"levelo://app?vid=961d13c3-999c-4407-b4d8-269868d84ef6"},"vehicle_type_id":"4","last_reported":1778593988,"current_range_meters":6800,"station_id":"","pricing_plan_id":"cebpf4jnsgd1na2vs0mg"},{"bike_id":"d58493a2-d835-445a-90a5-a425086573ad","system_id":"levelo_inurba_marseille","lat":43.2671,"lon":5.39566,"is_reserved":false,"is_disabled":false,"rental_uris":{"android":"levelo://app?vid=d58493a2-d835-445a-90a5-a425086573ad","ios":"levelo://app?vid=d58493a2-d835-445a-90a5-a425086573ad"},"vehicle_type_id":"4","last_reported":1778593988,"current_range_meters":7200,"station_id":"ce4bhh12rcd13ifvqfg0","pricing_plan_id":"cebpf4jnsgd1na2vs0mg"},{"bike_id":"7eeaae49-e5ae-480b-aac7-0267ac4b47fd","system_id":"levelo_inurba_marseille","lat":43.25576,"lon":5.38225,"is_reserved":false,"is_disabled":false,"rental_uris":{"android":"levelo://app?vid=7eeaae49-e5ae-480b-aac7-0267ac4b47fd","ios":"levelo://app?vid=7eeaae49-e5ae-480b-aac7-0267ac4b47fd"},"vehicle_type_id":"4","last_reported":1778593988,"current_range_meters":7200,"station_id":"ce4bhih2rcd13ifvqfs0","pricing_plan_id":"cebpf4jnsgd1na2vs0mg"},{"bike_id":"61042484-dcc3-4e21-b302-39f97578454f","system_id":"levelo_inurba_marseille","lat":43.31225,"lon":5.38109,"is_reserved":false,"is_disabled":true,"rental_uris":{"android":"levelo://app?vid=61042484-dcc3-4e21-b302-39f97578454f","ios":"levelo://app?vid=61042484-dcc3-4e21-b302-39f97578454f"},"vehicle_type_id":"4","last_reported":1778593988,"current_range_meters":7200,"station_id":"","pricing_plan_id":"cebpf4jnsgd1na2vs0mg"},{"bike_id":"a4cbb020-25cd-4395-88b1-6332aba218a8","system_id":"levelo_inurba_marseille","lat":43.24078,"lon":5.37781,"is_reserved":false,"is_disabled":false,"rental_uris":{"android":"levelo://app?vid=a4cbb020-25cd-4395-88b1-6332aba218a8","ios":"levelo://app?vid=a4cbb020-25cd-4395-88b1-6332aba218a8"},"vehicle_type_id":"4","last_reported":1778593988,"current_range_meters":7200,"station_id":"ce4bhnp2rcd13ifvqgvg","pricing_plan_id":"cebpf4jnsgd1na2vs0mg"},{"bike_id":"c2e976b4-7573-4ea6-97e0-eb4dbbe39a6b","system_id":"levelo_inurba_marseille","lat":43.27591,"lon":5.39657,"is_reserved":false,"is_disabled":false,"rental_uris":{"android":"levelo://app?vid=c2e976b4-7573-4ea6-97e0-eb4dbbe39a6b","ios":"levelo://app?vid=c2e976b4-7573-4ea6-97e0-eb4dbbe39a6b"},"vehicle_type_id":"4","last_reported":1778593988,"current_range_meters":7200,"station_id":"","pricing_plan_id":"cebpf4jnsgd1na2vs0mg"},{"bike_id":"a3931dae-05f0-4e1d-8b68-01fdd7d05951","system_id":"levelo_inurba_marseille","lat":43.27508,"lon":5.41599,"is_reserved":false,"is_disabled":true,"rental_uris":{"android":"levelo://app?vid=a3931dae-05f0-4e1d-8b68-01fdd7d05951","ios":"levelo://app?vid=a3931dae-05f0-4e1d-8b68-01fdd7d05951"},"vehicle_type_id":"4","last_reported":1778593988,"current_range_meters":7200,"station_id":"st_d6im8g6chgec73a5pndg","pricing_plan_id":"cebpf4jnsgd1na2vs0mg"},{"bike_id":"3221c962-f595-4abe-9544-0ec9befbad3c","system_id":"levelo_inurba_marseille","lat":43.26692,"lon":5.38258,"is_reserved":false,"is_disabled":false,"rental_uris":{"android":"levelo://app?vid=3221c962-f595-4abe-9544-0ec9befbad3c","ios":"levelo://app?vid=3221c962-f595-4abe-9544-0ec9befbad3c"},"vehicle_type_id":"4","last_reported":1778593988,"current_range_meters":7200,"station_id":"ce4bhg92rcd13ifvqf90","pricing_plan_id":"cebpf4jnsgd1na2vs0mg"},{"bike_id":"1b2c8958-e91f-45f0-b73e-ce7ed72a04f7","system_id":"levelo_inurba_marseille","lat":43.295743,"lon":5.397636,"is_reserved":false,"is_disabled":true,"rental_uris":{"android":"levelo://app?vid=1b2c8958-e91f-45f0-b73e-ce7ed72a04f7","ios":"levelo://app?vid=1b2c8958-e91f-45f0-b73e-ce7ed72a04f7"},"vehicle_type_id":"4","last_reported":1778593988,"current_range_meters":7200,"station_id":"","pricing_plan_id":"cebpf4jnsgd1na2vs0mg"},{"bike_id":"95552473-a32b-49e5-a6c9-92815a2ac96e","system_id":"levelo_inurba_marseille","lat":43.32826,"lon":5.42671,"is_reserved":false,"is_disabled":false,"rental_uris":{"android":"levelo://app?vid=95552473-a32b-49e5-a6c9-92815a2ac96e","ios":"levelo://app?vid=95552473-a32b-49e5-a6c9-92815a2ac96e"},"vehicle_type_id":"4","last_reported":1778593988,"current_range_meters":7200,"station_id":"","pricing_plan_id":"cebpf4jnsgd1na2vs0mg"},{"bike_id":"279c2496-9670-4c61-ab04-35665bfe4d90","system_id":"levelo_inurba_marseille","lat":43.30889,"lon":5.37186,"is_reserved":false,"is_disabled":false,"rental_uris":{"android":"levelo://app?vid=279c2496-9670-4c61-ab04-35665bfe4d90","ios":"levelo://app?vid=279c2496-9670-4c61-ab04-35665bfe4d90"},"vehicle_type_id":"4","last_reported":1778593988,"current_range_meters":7200,"station_id":"ce4bguh2rcd13ifvqckg","pricing_plan_id":"cebpf4jnsgd1na2vs0mg"},{"bike_id":"e3f00e19-537c-4444-9706-eaa6ed947b90","system_id":"levelo_inurba_marseille","lat":43.295185,"lon":5.393967,"is_reserved":false,"is_disabled":false,"rental_uris":{"android":"levelo://app?vid=e3f00e19-537c-4444-9706-eaa6ed947b90","ios":"levelo://app?vid=e3f00e19-537c-4444-9706-eaa6ed947b90"},"vehicle_type_id":"4","last_reported":1778593988,"current_range_meters":7200,"station_id":"ce4bh292rcd13ifvqdf0","pricing_plan_id":"cebpf4jnsgd1na2vs0mg"},{"bike_id":"e3e6a269-338b-482e-8c7f-7dca167d167b","system_id":"levelo_inurba_marseille","lat":43.27512,"lon":5.41705,"is_reserved":false,"is_disabled":true,"rental_uris":{"android":"levelo://app?vid=e3e6a269-338b-482e-8c7f-7dca167d167b","ios":"levelo://app?vid=e3e6a269-338b-482e-8c7f-7dca167d167b"},"vehicle_type_id":"4","last_reported":1778593988,"current_range_meters":7200,"station_id":"","pricing_plan_id":"cebpf4jnsgd1na2vs0mg"},{"bike_id":"3f7e3d20-77ab-4a50-8755-71a990796d24","system_id":"levelo_inurba_marseille","lat":43.29523,"lon":5.39405,"is_reserved":false,"is_disabled":false,"rental_uris":{"android":"levelo://app?vid=3f7e3d20-77ab-4a50-8755-71a990796d24","ios":"levelo://app?vid=3f7e3d20-77ab-4a50-8755-71a990796d24"},"vehicle_type_id":"4","last_reported":1778593988,"current_range_meters":7200,"station_id":"ce4bh292rcd13ifvqdf0","pricing_plan_id":"cebpf4jnsgd1na2vs0mg"},{"bike_id":"3f82aa07-d984-4275-ac3c-e138b7093b2f","system_id":"levelo_inurba_marseille","lat":43.30549,"lon":5.36551,"is_reserved":false,"is_disabled":false,"rental_uris":{"android":"levelo://app?vid=3f82aa07-d984-4275-ac3c-e138b7093b2f","ios":"levelo://app?vid=3f82aa07-d984-4275-ac3c-e138b7093b2f"},"vehicle_type_id":"4","last_reported":1778593988,"current_range_meters":7200,"station_id":"ce4bgs12rcd13ifvqcag","pricing_plan_id":"cebpf4jnsgd1na2vs0mg"},{"bike_id":"3c82fede-e601-429d-89f1-7f4874f401e0","system_id":"levelo_inurba_marseille","lat":43.28934,"lon":5.36409,"is_reserved":false,"is_disabled":false,"rental_uris":{"android":"levelo://app?vid=3c82fede-e601-429d-89f1-7f4874f401e0","ios":"levelo://app?vid=3c82fede-e601-429d-89f1-7f4874f401e0"},"vehicle_type_id":"4","last_reported":1778593988,"current_range_meters":7200,"station_id":"ce4bhc92rcd13ifvqetg","pricing_plan_id":"cebpf4jnsgd1na2vs0mg"},{"bike_id":"567bfb47-c0d6-4499-8f86-361b50ed20d9","system_id":"levelo_inurba_marseille","lat":43.24074,"lon":5.37775,"is_reserved":false,"is_disabled":false,"rental_uris":{"android":"levelo://app?vid=567bfb47-c0d6-4499-8f86-361b50ed20d9","ios":"levelo://app?vid=567bfb47-c0d6-4499-8f86-361b50ed20d9"},"vehicle_type_id":"4","last_reported":1778593988,"current_range_meters":7200,"station_id":"ce4bhnp2rcd13ifvqgvg","pricing_plan_id":"cebpf4jnsgd1na2vs0mg"},{"bike_id":"be8f55a4-f3d2-47ad-a885-44464522724f","system_id":"levelo_inurba_marseille","lat":43.31499,"lon":5.37294,"is_reserved":false,"is_disabled":false,"rental_uris":{"android":"levelo://app?vid=be8f55a4-f3d2-47ad-a885-44464522724f","ios":"levelo://app?vid=be8f55a4-f3d2-47ad-a885-44464522724f"},"vehicle_type_id":"4","last_reported":1778593988,"current_range_meters":8000,"station_id":"ce4bgt12rcd13ifvqcd0","pricing_plan_id":"cebpf4jnsgd1na2vs0mg"},{"bike_id":"0d5a6d54-dad4-453d-9b1a-d94782ee22c6","system_id":"levelo_inurba_marseille","lat":43.32345,"lon":5.36544,"is_reserved":false,"is_disabled":false,"rental_uris":{"android":"levelo://app?vid=0d5a6d54-dad4-453d-9b1a-d94782ee22c6","ios":"levelo://app?vid=0d5a6d54-dad4-453d-9b1a-d94782ee22c6"},"vehicle_type_id":"4","last_reported":1778593988,"current_range_meters":8000,"station_id":"","pricing_plan_id":"cebpf4jnsgd1na2vs0mg"},{"bike_id":"8a439fb6-3a39-4b09-8c8e-ef58fa31b19f","system_id":"levelo_inurba_marseille","lat":43.30136,"lon":5.37418,"is_reserved":false,"is_disabled":false,"rental_uris":{"android":"levelo://app?vid=8a439fb6-3a39-4b09-8c8e-ef58fa31b19f","ios":"levelo://app?vid=8a439fb6-3a39-4b09-8c8e-ef58fa31b19f"},"vehicle_type_id":"4","last_reported":1778593988,"current_range_meters":8000,"station_id":"ce4bgs92rcd13ifvqcc0","pricing_plan_id":"cebpf4jnsgd1na2vs0mg"},{"bike_id":"436f1e8e-0b53-497c-9398-11b3c2f49470","system_id":"levelo_inurba_marseille","lat":43.29271,"lon":5.36828,"is_reserved":false,"is_disabled":false,"rental_uris":{"android":"levelo://app?vid=436f1e8e-0b53-497c-9398-11b3c2f49470","ios":"levelo://app?vid=436f1e8e-0b53-497c-9398-11b3c2f49470"},"vehicle_type_id":"4","last_reported":1778593988,"current_range_meters":8000,"station_id":"ce4bhbp2rcd13ifvqesg","pricing_plan_id":"cebpf4jnsgd1na2vs0mg"},{"bike_id":"c98c8ccc-2a0d-4d2d-b848-d2960fb09d3c","system_id":"levelo_inurba_marseille","lat":43.25492,"lon":5.37647,"is_reserved":false,"is_disabled":false,"rental_uris":{"android":"levelo://app?vid=c98c8ccc-2a0d-4d2d-b848-d2960fb09d3c","ios":"levelo://app?vid=c98c8ccc-2a0d-4d2d-b848-d2960fb09d3c"},"vehicle_type_id":"4","last_reported":1778593988,"current_range_meters":8000,"station_id":"ce4bhh12rcd13ifvqff0","pricing_plan_id":"cebpf4jnsgd1na2vs0mg"},{"bike_id":"d35a06ec-59ff-4145-9e17-45c0c55c2c94","system_id":"levelo_inurba_marseille","lat":43.27996,"lon":5.41669,"is_reserved":false,"is_disabled":false,"rental_uris":{"android":"levelo://app?vid=d35a06ec-59ff-4145-9e17-45c0c55c2c94","ios":"levelo://app?vid=d35a06ec-59ff-4145-9e17-45c0c55c2c94"},"vehicle_type_id":"4","last_reported":1778593988,"current_range_meters":8000,"station_id":"ce4bho12rcd13ifvqh1g","pricing_plan_id":"cebpf4jnsgd1na2vs0mg"},{"bike_id":"459fc2e3-31a5-42d3-b5d7-1290e092236c","system_id":"levelo_inurba_marseille","lat":43.29582,"lon":5.37469,"is_reserved":false,"is_disabled":false,"rental_uris":{"android":"levelo://app?vid=459fc2e3-31a5-42d3-b5d7-1290e092236c","ios":"levelo://app?vid=459fc2e3-31a5-42d3-b5d7-1290e092236c"},"vehicle_type_id":"4","last_reported":1778593988,"current_range_meters":8000,"station_id":"ce4bgh92rcd13ifvqb50","pricing_plan_id":"cebpf4jnsgd1na2vs0mg"},{"bike_id":"fe5898b3-5b3a-4283-9f3c-6e76ee173612","system_id":"levelo_inurba_marseille","lat":43.31364,"lon":5.38498,"is_reserved":false,"is_disabled":false,"rental_uris":{"android":"levelo://app?vid=fe5898b3-5b3a-4283-9f3c-6e76ee173612","ios":"levelo://app?vid=fe5898b3-5b3a-4283-9f3c-6e76ee173612"},"vehicle_type_id":"4","last_reported":1778593988,"current_range_meters":8000,"station_id":"ce4bgt92rcd13ifvqcf0","pricing_plan_id":"cebpf4jnsgd1na2vs0mg"},{"bike_id":"519846f8-60ff-47d1-8bd8-155843ccdbf7","system_id":"levelo_inurba_marseille","lat":43.289372,"lon":5.366415,"is_reserved":false,"is_disabled":false,"rental_uris":{"android":"levelo://app?vid=519846f8-60ff-47d1-8bd8-155843ccdbf7","ios":"levelo://app?vid=519846f8-60ff-47d1-8bd8-155843ccdbf7"},"vehicle_type_id":"4","last_reported":1778593988,"current_range_meters":8000,"station_id":"ce4bhap2rcd13ifvqek0","pricing_plan_id":"cebpf4jnsgd1na2vs0mg"},{"bike_id":"0870703c-9632-42b9-931e-cbac088f00b2","system_id":"levelo_inurba_marseille","lat":43.2749,"lon":5.42428,"is_reserved":false,"is_disabled":false,"rental_uris":{"android":"levelo://app?vid=0870703c-9632-42b9-931e-cbac088f00b2","ios":"levelo://app?vid=0870703c-9632-42b9-931e-cbac088f00b2"},"vehicle_type_id":"4","last_reported":1778593988,"current_range_meters":8000,"station_id":"ce4bhn92rcd13ifvqgrg","pricing_plan_id":"cebpf4jnsgd1na2vs0mg"},{"bike_id":"408f76bf-020f-4630-8b88-57b5ece0a8da","system_id":"levelo_inurba_marseille","lat":43.30557,"lon":5.3655,"is_reserved":false,"is_disabled":false,"rental_uris":{"android":"levelo://app?vid=408f76bf-020f-4630-8b88-57b5ece0a8da","ios":"levelo://app?vid=408f76bf-020f-4630-8b88-57b5ece0a8da"},"vehicle_type_id":"4","last_reported":1778593988,"current_range_meters":8000,"station_id":"ce4bgs12rcd13ifvqcag","pricing_plan_id":"cebpf4jnsgd1na2vs0mg"},{"bike_id":"2f82e6c8-9e5a-41e6-aac9-a6c4ce540919","system_id":"levelo_inurba_marseille","lat":43.31241,"lon":5.36835,"is_reserved":false,"is_disabled":false,"rental_uris":{"android":"levelo://app?vid=2f82e6c8-9e5a-41e6-aac9-a6c4ce540919","ios":"levelo://app?vid=2f82e6c8-9e5a-41e6-aac9-a6c4ce540919"},"vehicle_type_id":"4","last_reported":1778593988,"current_range_meters":8000,"station_id":"ce4bgl92rcd13ifvqbq0","pricing_plan_id":"cebpf4jnsgd1na2vs0mg"},{"bike_id":"5b555884-50ab-4c24-b311-dd4d7dcbfd7e","system_id":"levelo_inurba_marseille","lat":43.3124,"lon":5.38942,"is_reserved":false,"is_disabled":false,"rental_uris":{"android":"levelo://app?vid=5b555884-50ab-4c24-b311-dd4d7dcbfd7e","ios":"levelo://app?vid=5b555884-50ab-4c24-b311-dd4d7dcbfd7e"},"vehicle_type_id":"4","last_reported":1778593988,"current_range_meters":8000,"station_id":"","pricing_plan_id":"cebpf4jnsgd1na2vs0mg"},{"bike_id":"cf04080a-7c8b-4158-bc26-df539cc3a91a","system_id":"levelo_inurba_marseille","lat":43.25089,"lon":5.395253,"is_reserved":false,"is_disabled":true,"rental_uris":{"android":"levelo://app?vid=cf04080a-7c8b-4158-bc26-df539cc3a91a","ios":"levelo://app?vid=cf04080a-7c8b-4158-bc26-df539cc3a91a"},"vehicle_type_id":"4","last_reported":1778593988,"current_range_meters":8000,"station_id":"ce4bhm12rcd13ifvqgkg","pricing_plan_id":"cebpf4jnsgd1na2vs0mg"},{"bike_id":"9d75be5e-2026-482f-a8b3-e2c84e1d252b","system_id":"levelo_inurba_marseille","lat":43.33012,"lon":5.39063,"is_reserved":false,"is_disabled":false,"rental_uris":{"android":"levelo://app?vid=9d75be5e-2026-482f-a8b3-e2c84e1d252b","ios":"levelo://app?vid=9d75be5e-2026-482f-a8b3-e2c84e1d252b"},"vehicle_type_id":"4","last_reported":1778593988,"current_range_meters":8000,"station_id":"ce4bhr92rcd13ifvqhrg","pricing_plan_id":"cebpf4jnsgd1na2vs0mg"},{"bike_id":"4886c252-2728-4a7b-8055-7bc754291d67","system_id":"levelo_inurba_marseille","lat":43.26202,"lon":5.40378,"is_reserved":false,"is_disabled":false,"rental_uris":{"android":"levelo://app?vid=4886c252-2728-4a7b-8055-7bc754291d67","ios":"levelo://app?vid=4886c252-2728-4a7b-8055-7bc754291d67"},"vehicle_type_id":"4","last_reported":1778593988,"current_range_meters":8400,"station_id":"","pricing_plan_id":"cebpf4jnsgd1na2vs0mg"},{"bike_id":"64b62b18-b814-4dc3-8090-c8c0105a73f8","system_id":"levelo_inurba_marseille","lat":43.299713,"lon":5.37188,"is_reserved":false,"is_disabled":false,"rental_uris":{"android":"levelo://app?vid=64b62b18-b814-4dc3-8090-c8c0105a73f8","ios":"levelo://app?vid=64b62b18-b814-4dc3-8090-c8c0105a73f8"},"vehicle_type_id":"4","last_reported":1778593988,"current_range_meters":8400,"station_id":"ce4bgr92rcd13ifvqc7g","pricing_plan_id":"cebpf4jnsgd1na2vs0mg"},{"bike_id":"8041a9e7-7ab4-4d1b-ace9-fc5ba24c4b93","system_id":"levelo_inurba_marseille","lat":43.22562,"lon":5.41622,"is_reserved":false,"is_disabled":false,"rental_uris":{"android":"levelo://app?vid=8041a9e7-7ab4-4d1b-ace9-fc5ba24c4b93","ios":"levelo://app?vid=8041a9e7-7ab4-4d1b-ace9-fc5ba24c4b93"},"vehicle_type_id":"4","last_reported":1778593988,"current_range_meters":8400,"station_id":"st_d2o4gvlbi1j2169b742g","pricing_plan_id":"cebpf4jnsgd1na2vs0mg"},{"bike_id":"076b8b25-32f2-44ed-9aec-b4a4ccc49598","system_id":"levelo_inurba_marseille","lat":43.29808,"lon":5.3814,"is_reserved":false,"is_disabled":true,"rental_uris":{"android":"levelo://app?vid=076b8b25-32f2-44ed-9aec-b4a4ccc49598","ios":"levelo://app?vid=076b8b25-32f2-44ed-9aec-b4a4ccc49598"},"vehicle_type_id":"4","last_reported":1778593988,"current_range_meters":8400,"station_id":"ce4bgip2rcd13ifvqbb0","pricing_plan_id":"cebpf4jnsgd1na2vs0mg"},{"bike_id":"013e8b40-097e-4275-9f50-27618cd0886f","system_id":"levelo_inurba_marseille","lat":43.26952,"lon":5.38645,"is_reserved":false,"is_disabled":false,"rental_uris":{"android":"levelo://app?vid=013e8b40-097e-4275-9f50-27618cd0886f","ios":"levelo://app?vid=013e8b40-097e-4275-9f50-27618cd0886f"},"vehicle_type_id":"4","last_reported":1778593988,"current_range_meters":8400,"station_id":"ce4bhh92rcd13ifvqfh0","pricing_plan_id":"cebpf4jnsgd1na2vs0mg"},{"bike_id":"77da0299-61ed-4586-ad63-53f57f7af2df","system_id":"levelo_inurba_marseille","lat":43.28153,"lon":5.42638,"is_reserved":false,"is_disabled":false,"rental_uris":{"android":"levelo://app?vid=77da0299-61ed-4586-ad63-53f57f7af2df","ios":"levelo://app?vid=77da0299-61ed-4586-ad63-53f57f7af2df"},"vehicle_type_id":"4","last_reported":1778593988,"current_range_meters":8400,"station_id":"ce4bhnh2rcd13ifvqgug","pricing_plan_id":"cebpf4jnsgd1na2vs0mg"},{"bike_id":"4c733966-71e1-46b9-81e1-8d24e59b65ce","system_id":"levelo_inurba_marseille","lat":43.225297,"lon":5.34839,"is_reserved":false,"is_disabled":true,"rental_uris":{"android":"levelo://app?vid=4c733966-71e1-46b9-81e1-8d24e59b65ce","ios":"levelo://app?vid=4c733966-71e1-46b9-81e1-8d24e59b65ce"},"vehicle_type_id":"4","last_reported":1778593988,"current_range_meters":8400,"station_id":"st_cvj5dfep6f1abm77gieg","pricing_plan_id":"cebpf4jnsgd1na2vs0mg"},{"bike_id":"76943fa3-6b31-4a9f-afda-0223c4298d51","system_id":"levelo_inurba_marseille","lat":43.30548,"lon":5.36522,"is_reserved":false,"is_disabled":false,"rental_uris":{"android":"levelo://app?vid=76943fa3-6b31-4a9f-afda-0223c4298d51","ios":"levelo://app?vid=76943fa3-6b31-4a9f-afda-0223c4298d51"},"vehicle_type_id":"4","last_reported":1778593988,"current_range_meters":8400,"station_id":"ce4bgs12rcd13ifvqcag","pricing_plan_id":"cebpf4jnsgd1na2vs0mg"},{"bike_id":"2b5c237b-a062-4473-af89-af69f731105f","system_id":"levelo_inurba_marseille","lat":43.29895,"lon":5.37847,"is_reserved":false,"is_disabled":false,"rental_uris":{"android":"levelo://app?vid=2b5c237b-a062-4473-af89-af69f731105f","ios":"levelo://app?vid=2b5c237b-a062-4473-af89-af69f731105f"},"vehicle_type_id":"4","last_reported":1778593988,"current_range_meters":8400,"station_id":"","pricing_plan_id":"cebpf4jnsgd1na2vs0mg"},{"bike_id":"ed07d83a-5616-42c3-9e06-32e9fee57f06","system_id":"levelo_inurba_marseille","lat":43.30748,"lon":5.42434,"is_reserved":false,"is_disabled":false,"rental_uris":{"android":"levelo://app?vid=ed07d83a-5616-42c3-9e06-32e9fee57f06","ios":"levelo://app?vid=ed07d83a-5616-42c3-9e06-32e9fee57f06"},"vehicle_type_id":"4","last_reported":1778593988,"current_range_meters":8400,"station_id":"st_cvj6ca6bvosntc0bfgr0","pricing_plan_id":"cebpf4jnsgd1na2vs0mg"},{"bike_id":"43302585-f9da-4c87-a288-e7c99bafe380","system_id":"levelo_inurba_marseille","lat":43.3128,"lon":5.36824,"is_reserved":false,"is_disabled":false,"rental_uris":{"android":"levelo://app?vid=43302585-f9da-4c87-a288-e7c99bafe380","ios":"levelo://app?vid=43302585-f9da-4c87-a288-e7c99bafe380"},"vehicle_type_id":"4","last_reported":1778593988,"current_range_meters":8400,"station_id":"","pricing_plan_id":"cebpf4jnsgd1na2vs0mg"},{"bike_id":"1a1babba-dfe2-4613-a7d4-1e24607ca3f1","system_id":"levelo_inurba_marseille","lat":43.26032,"lon":5.37546,"is_reserved":false,"is_disabled":false,"rental_uris":{"android":"levelo://app?vid=1a1babba-dfe2-4613-a7d4-1e24607ca3f1","ios":"levelo://app?vid=1a1babba-dfe2-4613-a7d4-1e24607ca3f1"},"vehicle_type_id":"4","last_reported":1778593988,"current_range_meters":8400,"station_id":"ce4bhgh2rcd13ifvqfa0","pricing_plan_id":"cebpf4jnsgd1na2vs0mg"},{"bike_id":"211cea86-71fd-43ef-9b6e-844e35d10a69","system_id":"levelo_inurba_marseille","lat":43.26198,"lon":5.37448,"is_reserved":false,"is_disabled":true,"rental_uris":{"android":"levelo://app?vid=211cea86-71fd-43ef-9b6e-844e35d10a69","ios":"levelo://app?vid=211cea86-71fd-43ef-9b6e-844e35d10a69"},"vehicle_type_id":"4","last_reported":1778593988,"current_range_meters":8400,"station_id":"ce4bhgp2rcd13ifvqfc0","pricing_plan_id":"cebpf4jnsgd1na2vs0mg"},{"bike_id":"29c820fa-c7f5-4efe-8206-9ddc3e7ed463","system_id":"levelo_inurba_marseille","lat":43.31242,"lon":5.36831,"is_reserved":false,"is_disabled":false,"rental_uris":{"android":"levelo://app?vid=29c820fa-c7f5-4efe-8206-9ddc3e7ed463","ios":"levelo://app?vid=29c820fa-c7f5-4efe-8206-9ddc3e7ed463"},"vehicle_type_id":"4","last_reported":1778593988,"current_range_meters":8400,"station_id":"ce4bgl92rcd13ifvqbq0","pricing_plan_id":"cebpf4jnsgd1na2vs0mg"},{"bike_id":"f60b91b9-51c6-4fc1-a195-4fc757f89302","system_id":"levelo_inurba_marseille","lat":43.30552,"lon":5.36722,"is_reserved":false,"is_disabled":false,"rental_uris":{"android":"levelo://app?vid=f60b91b9-51c6-4fc1-a195-4fc757f89302","ios":"levelo://app?vid=f60b91b9-51c6-4fc1-a195-4fc757f89302"},"vehicle_type_id":"4","last_reported":1778593988,"current_range_meters":8400,"station_id":"ce4bgrp2rcd13ifvqc9g","pricing_plan_id":"cebpf4jnsgd1na2vs0mg"},{"bike_id":"5d30d8b2-85ea-4de4-b68c-5146034d4fac","system_id":"levelo_inurba_marseille","lat":43.31218,"lon":5.36862,"is_reserved":false,"is_disabled":false,"rental_uris":{"android":"levelo://app?vid=5d30d8b2-85ea-4de4-b68c-5146034d4fac","ios":"levelo://app?vid=5d30d8b2-85ea-4de4-b68c-5146034d4fac"},"vehicle_type_id":"4","last_reported":1778593988,"current_range_meters":8800,"station_id":"ce4bgl92rcd13ifvqbq0","pricing_plan_id":"cebpf4jnsgd1na2vs0mg"},{"bike_id":"364e2ea5-b4f9-4fd6-8f9d-a8257d9d7719","system_id":"levelo_inurba_marseille","lat":43.3128,"lon":5.40173,"is_reserved":false,"is_disabled":false,"rental_uris":{"android":"levelo://app?vid=364e2ea5-b4f9-4fd6-8f9d-a8257d9d7719","ios":"levelo://app?vid=364e2ea5-b4f9-4fd6-8f9d-a8257d9d7719"},"vehicle_type_id":"4","last_reported":1778593988,"current_range_meters":8800,"station_id":"ce4bh092rcd13ifvqd30","pricing_plan_id":"cebpf4jnsgd1na2vs0mg"},{"bike_id":"56fe50ff-84fa-4658-bb03-1d4649f8766d","system_id":"levelo_inurba_marseille","lat":43.292732,"lon":5.368372,"is_reserved":false,"is_disabled":false,"rental_uris":{"android":"levelo://app?vid=56fe50ff-84fa-4658-bb03-1d4649f8766d","ios":"levelo://app?vid=56fe50ff-84fa-4658-bb03-1d4649f8766d"},"vehicle_type_id":"4","last_reported":1778593988,"current_range_meters":8800,"station_id":"ce4bhb12rcd13ifvqel0","pricing_plan_id":"cebpf4jnsgd1na2vs0mg"},{"bike_id":"6489a795-5e35-46fb-ac9c-80a8ffe64d4b","system_id":"levelo_inurba_marseille","lat":43.28267,"lon":5.35063,"is_reserved":false,"is_disabled":false,"rental_uris":{"android":"levelo://app?vid=6489a795-5e35-46fb-ac9c-80a8ffe64d4b","ios":"levelo://app?vid=6489a795-5e35-46fb-ac9c-80a8ffe64d4b"},"vehicle_type_id":"4","last_reported":1778593988,"current_range_meters":8800,"station_id":"ce4bhbp2rcd13ifvqerg","pricing_plan_id":"cebpf4jnsgd1na2vs0mg"},{"bike_id":"c142b36d-1df8-420a-8c08-44302a9a3b30","system_id":"levelo_inurba_marseille","lat":43.29613,"lon":5.37695,"is_reserved":false,"is_disabled":false,"rental_uris":{"android":"levelo://app?vid=c142b36d-1df8-420a-8c08-44302a9a3b30","ios":"levelo://app?vid=c142b36d-1df8-420a-8c08-44302a9a3b30"},"vehicle_type_id":"4","last_reported":1778593988,"current_range_meters":8800,"station_id":"ce4bgi92rcd13ifvqb90","pricing_plan_id":"cebpf4jnsgd1na2vs0mg"},{"bike_id":"1dec4592-f318-4ccc-9124-479c7e8f7178","system_id":"levelo_inurba_marseille","lat":43.29219,"lon":5.38373,"is_reserved":false,"is_disabled":false,"rental_uris":{"android":"levelo://app?vid=1dec4592-f318-4ccc-9124-479c7e8f7178","ios":"levelo://app?vid=1dec4592-f318-4ccc-9124-479c7e8f7178"},"vehicle_type_id":"4","last_reported":1778593988,"current_range_meters":8800,"station_id":"","pricing_plan_id":"cebpf4jnsgd1na2vs0mg"},{"bike_id":"828f4787-7c0f-47c9-b213-ff60195eaa3e","system_id":"levelo_inurba_marseille","lat":43.29646,"lon":5.40668,"is_reserved":false,"is_disabled":true,"rental_uris":{"android":"levelo://app?vid=828f4787-7c0f-47c9-b213-ff60195eaa3e","ios":"levelo://app?vid=828f4787-7c0f-47c9-b213-ff60195eaa3e"},"vehicle_type_id":"4","last_reported":1778593988,"current_range_meters":8800,"station_id":"","pricing_plan_id":"cebpf4jnsgd1na2vs0mg"},{"bike_id":"d257960a-edb4-4348-90b0-b5fd8baf1634","system_id":"levelo_inurba_marseille","lat":43.31691,"lon":5.37759,"is_reserved":false,"is_disabled":true,"rental_uris":{"android":"levelo://app?vid=d257960a-edb4-4348-90b0-b5fd8baf1634","ios":"levelo://app?vid=d257960a-edb4-4348-90b0-b5fd8baf1634"},"vehicle_type_id":"4","last_reported":1778593988,"current_range_meters":8800,"station_id":"ce4bgth2rcd13ifvqch0","pricing_plan_id":"cebpf4jnsgd1na2vs0mg"},{"bike_id":"4196c41d-8bac-4f59-809d-20c5bacf0921","system_id":"levelo_inurba_marseille","lat":43.28705,"lon":5.46704,"is_reserved":false,"is_disabled":false,"rental_uris":{"android":"levelo://app?vid=4196c41d-8bac-4f59-809d-20c5bacf0921","ios":"levelo://app?vid=4196c41d-8bac-4f59-809d-20c5bacf0921"},"vehicle_type_id":"4","last_reported":1778593988,"current_range_meters":8800,"station_id":"st_d6tc3vkotcvc738tfjhg","pricing_plan_id":"cebpf4jnsgd1na2vs0mg"},{"bike_id":"c57b9d8b-726c-424e-a5d4-cee105e1ed0e","system_id":"levelo_inurba_marseille","lat":43.26204,"lon":5.37942,"is_reserved":false,"is_disabled":false,"rental_uris":{"android":"levelo://app?vid=c57b9d8b-726c-424e-a5d4-cee105e1ed0e","ios":"levelo://app?vid=c57b9d8b-726c-424e-a5d4-cee105e1ed0e"},"vehicle_type_id":"4","last_reported":1778593988,"current_range_meters":8800,"station_id":"ce4bhjp2rcd13ifvqg90","pricing_plan_id":"cebpf4jnsgd1na2vs0mg"},{"bike_id":"1b1dd76b-a1b6-4d82-a590-795de9aeee25","system_id":"levelo_inurba_marseille","lat":43.28706,"lon":5.46685,"is_reserved":false,"is_disabled":false,"rental_uris":{"android":"levelo://app?vid=1b1dd76b-a1b6-4d82-a590-795de9aeee25","ios":"levelo://app?vid=1b1dd76b-a1b6-4d82-a590-795de9aeee25"},"vehicle_type_id":"4","last_reported":1778593988,"current_range_meters":8800,"station_id":"st_d6tc3vkotcvc738tfjhg","pricing_plan_id":"cebpf4jnsgd1na2vs0mg"},{"bike_id":"47695ea7-1d52-49dd-9fa5-c42f860b9ae5","system_id":"levelo_inurba_marseille","lat":43.28221,"lon":5.39051,"is_reserved":false,"is_disabled":false,"rental_uris":{"android":"levelo://app?vid=47695ea7-1d52-49dd-9fa5-c42f860b9ae5","ios":"levelo://app?vid=47695ea7-1d52-49dd-9fa5-c42f860b9ae5"},"vehicle_type_id":"4","last_reported":1778593988,"current_range_meters":8800,"station_id":"ce4bhn92rcd13ifvqgsg","pricing_plan_id":"cebpf4jnsgd1na2vs0mg"},{"bike_id":"14384631-0ce1-4d75-b12f-7aca779707c5","system_id":"levelo_inurba_marseille","lat":43.26686,"lon":5.38251,"is_reserved":false,"is_disabled":false,"rental_uris":{"android":"levelo://app?vid=14384631-0ce1-4d75-b12f-7aca779707c5","ios":"levelo://app?vid=14384631-0ce1-4d75-b12f-7aca779707c5"},"vehicle_type_id":"4","last_reported":1778593988,"current_range_meters":8800,"station_id":"ce4bhg92rcd13ifvqf90","pricing_plan_id":"cebpf4jnsgd1na2vs0mg"},{"bike_id":"bd2e6dcd-9e24-403c-ab4b-c007d495a20d","system_id":"levelo_inurba_marseille","lat":43.30892,"lon":5.37204,"is_reserved":false,"is_disabled":false,"rental_uris":{"android":"levelo://app?vid=bd2e6dcd-9e24-403c-ab4b-c007d495a20d","ios":"levelo://app?vid=bd2e6dcd-9e24-403c-ab4b-c007d495a20d"},"vehicle_type_id":"4","last_reported":1778593988,"current_range_meters":8800,"station_id":"ce4bguh2rcd13ifvqckg","pricing_plan_id":"cebpf4jnsgd1na2vs0mg"},{"bike_id":"c441cb5d-c111-433b-bf8f-3bdb7298ef11","system_id":"levelo_inurba_marseille","lat":43.29595,"lon":5.36764,"is_reserved":false,"is_disabled":false,"rental_uris":{"android":"levelo://app?vid=c441cb5d-c111-433b-bf8f-3bdb7298ef11","ios":"levelo://app?vid=c441cb5d-c111-433b-bf8f-3bdb7298ef11"},"vehicle_type_id":"4","last_reported":1778593988,"current_range_meters":8800,"station_id":"ce4bgph2rcd13ifvqc2g","pricing_plan_id":"cebpf4jnsgd1na2vs0mg"},{"bike_id":"2978f96a-e193-46cd-81f8-9f46fefbcf17","system_id":"levelo_inurba_marseille","lat":43.2862,"lon":5.35098,"is_reserved":false,"is_disabled":false,"rental_uris":{"android":"levelo://app?vid=2978f96a-e193-46cd-81f8-9f46fefbcf17","ios":"levelo://app?vid=2978f96a-e193-46cd-81f8-9f46fefbcf17"},"vehicle_type_id":"4","last_reported":1778593988,"current_range_meters":8800,"station_id":"ce4bhch2rcd13ifvqeug","pricing_plan_id":"cebpf4jnsgd1na2vs0mg"},{"bike_id":"cfd7fc74-f008-454f-a788-184da23ecd1c","system_id":"levelo_inurba_marseille","lat":43.297043,"lon":5.37696,"is_reserved":false,"is_disabled":false,"rental_uris":{"android":"levelo://app?vid=cfd7fc74-f008-454f-a788-184da23ecd1c","ios":"levelo://app?vid=cfd7fc74-f008-454f-a788-184da23ecd1c"},"vehicle_type_id":"4","last_reported":1778593988,"current_range_meters":8800,"station_id":"ce4bgkh2rcd13ifvqbl0","pricing_plan_id":"cebpf4jnsgd1na2vs0mg"},{"bike_id":"c703cedd-5468-4663-85d8-453a5d01b8ca","system_id":"levelo_inurba_marseille","lat":43.27324,"lon":5.39105,"is_reserved":false,"is_disabled":false,"rental_uris":{"android":"levelo://app?vid=c703cedd-5468-4663-85d8-453a5d01b8ca","ios":"levelo://app?vid=c703cedd-5468-4663-85d8-453a5d01b8ca"},"vehicle_type_id":"4","last_reported":1778593988,"current_range_meters":8800,"station_id":"ce4bhgp2rcd13ifvqfe0","pricing_plan_id":"cebpf4jnsgd1na2vs0mg"},{"bike_id":"bb55775a-a4c1-4ea3-b36a-f789137f4a38","system_id":"levelo_inurba_marseille","lat":43.30529,"lon":5.36516,"is_reserved":false,"is_disabled":false,"rental_uris":{"android":"levelo://app?vid=bb55775a-a4c1-4ea3-b36a-f789137f4a38","ios":"levelo://app?vid=bb55775a-a4c1-4ea3-b36a-f789137f4a38"},"vehicle_type_id":"4","last_reported":1778593988,"current_range_meters":8800,"station_id":"","pricing_plan_id":"cebpf4jnsgd1na2vs0mg"},{"bike_id":"d1ce3700-9b67-4369-be30-7d378c992b37","system_id":"levelo_inurba_marseille","lat":43.30952,"lon":5.39025,"is_reserved":false,"is_disabled":false,"rental_uris":{"android":"levelo://app?vid=d1ce3700-9b67-4369-be30-7d378c992b37","ios":"levelo://app?vid=d1ce3700-9b67-4369-be30-7d378c992b37"},"vehicle_type_id":"4","last_reported":1778593988,"current_range_meters":8800,"station_id":"ce4bgup2rcd13ifvqco0","pricing_plan_id":"cebpf4jnsgd1na2vs0mg"},{"bike_id":"7d495a91-4757-4bd7-b72f-ad237a9371f1","system_id":"levelo_inurba_marseille","lat":43.21208,"lon":5.35072,"is_reserved":false,"is_disabled":false,"rental_uris":{"android":"levelo://app?vid=7d495a91-4757-4bd7-b72f-ad237a9371f1","ios":"levelo://app?vid=7d495a91-4757-4bd7-b72f-ad237a9371f1"},"vehicle_type_id":"4","last_reported":1778593988,"current_range_meters":8800,"station_id":"st_cvj6sg6p6f1abm77japg","pricing_plan_id":"cebpf4jnsgd1na2vs0mg"},{"bike_id":"ca5d15a2-4551-47c7-81f7-fd4ddf43d165","system_id":"levelo_inurba_marseille","lat":43.25945,"lon":5.40878,"is_reserved":false,"is_disabled":false,"rental_uris":{"android":"levelo://app?vid=ca5d15a2-4551-47c7-81f7-fd4ddf43d165","ios":"levelo://app?vid=ca5d15a2-4551-47c7-81f7-fd4ddf43d165"},"vehicle_type_id":"4","last_reported":1778593988,"current_range_meters":8800,"station_id":"ce4bhm92rcd13ifvqglg","pricing_plan_id":"cebpf4jnsgd1na2vs0mg"},{"bike_id":"bb672065-b99a-4985-81e7-6bce3ae49cb5","system_id":"levelo_inurba_marseille","lat":43.31366,"lon":5.38491,"is_reserved":false,"is_disabled":false,"rental_uris":{"android":"levelo://app?vid=bb672065-b99a-4985-81e7-6bce3ae49cb5","ios":"levelo://app?vid=bb672065-b99a-4985-81e7-6bce3ae49cb5"},"vehicle_type_id":"4","last_reported":1778593988,"current_range_meters":8800,"station_id":"ce4bgt92rcd13ifvqcf0","pricing_plan_id":"cebpf4jnsgd1na2vs0mg"},{"bike_id":"b6da4a61-eef8-4590-a30c-5d4218354e88","system_id":"levelo_inurba_marseille","lat":43.28207,"lon":5.35399,"is_reserved":false,"is_disabled":false,"rental_uris":{"android":"levelo://app?vid=b6da4a61-eef8-4590-a30c-5d4218354e88","ios":"levelo://app?vid=b6da4a61-eef8-4590-a30c-5d4218354e88"},"vehicle_type_id":"4","last_reported":1778593988,"current_range_meters":8800,"station_id":"","pricing_plan_id":"cebpf4jnsgd1na2vs0mg"},{"bike_id":"0836c42f-d603-4c0c-8417-9495ced20ce6","system_id":"levelo_inurba_marseille","lat":43.25732,"lon":5.41099,"is_reserved":false,"is_disabled":false,"rental_uris":{"android":"levelo://app?vid=0836c42f-d603-4c0c-8417-9495ced20ce6","ios":"levelo://app?vid=0836c42f-d603-4c0c-8417-9495ced20ce6"},"vehicle_type_id":"4","last_reported":1778593988,"current_range_meters":8800,"station_id":"ce4bhkp2rcd13ifvqgd0","pricing_plan_id":"cebpf4jnsgd1na2vs0mg"},{"bike_id":"a712f1e6-3e9f-4d3d-9060-7d05cac60b76","system_id":"levelo_inurba_marseille","lat":43.30144,"lon":5.381,"is_reserved":false,"is_disabled":false,"rental_uris":{"android":"levelo://app?vid=a712f1e6-3e9f-4d3d-9060-7d05cac60b76","ios":"levelo://app?vid=a712f1e6-3e9f-4d3d-9060-7d05cac60b76"},"vehicle_type_id":"4","last_reported":1778593988,"current_range_meters":9200,"station_id":"ce4bgjp2rcd13ifvqbh0","pricing_plan_id":"cebpf4jnsgd1na2vs0mg"},{"bike_id":"19e877fd-e015-4a86-8008-1a0d333eea65","system_id":"levelo_inurba_marseille","lat":43.33555,"lon":5.37457,"is_reserved":false,"is_disabled":false,"rental_uris":{"android":"levelo://app?vid=19e877fd-e015-4a86-8008-1a0d333eea65","ios":"levelo://app?vid=19e877fd-e015-4a86-8008-1a0d333eea65"},"vehicle_type_id":"4","last_reported":1778593988,"current_range_meters":9200,"station_id":"st_d46tts09ee8s73dlu43g","pricing_plan_id":"cebpf4jnsgd1na2vs0mg"},{"bike_id":"39ffdda9-68c0-4585-afb4-2c2bb5ee0d1a","system_id":"levelo_inurba_marseille","lat":43.33617,"lon":5.4107,"is_reserved":false,"is_disabled":false,"rental_uris":{"android":"levelo://app?vid=39ffdda9-68c0-4585-afb4-2c2bb5ee0d1a","ios":"levelo://app?vid=39ffdda9-68c0-4585-afb4-2c2bb5ee0d1a"},"vehicle_type_id":"4","last_reported":1778593988,"current_range_meters":9200,"station_id":"ce4bhqh2rcd13ifvqhmg","pricing_plan_id":"cebpf4jnsgd1na2vs0mg"},{"bike_id":"fe7a0d9c-0084-4844-b185-7d72c7dc5377","system_id":"levelo_inurba_marseille","lat":43.26033,"lon":5.37546,"is_reserved":false,"is_disabled":false,"rental_uris":{"android":"levelo://app?vid=fe7a0d9c-0084-4844-b185-7d72c7dc5377","ios":"levelo://app?vid=fe7a0d9c-0084-4844-b185-7d72c7dc5377"},"vehicle_type_id":"4","last_reported":1778593988,"current_range_meters":9200,"station_id":"ce4bhgh2rcd13ifvqfa0","pricing_plan_id":"cebpf4jnsgd1na2vs0mg"},{"bike_id":"fc32b354-c934-4e68-a673-fefd084b5285","system_id":"levelo_inurba_marseille","lat":43.28849,"lon":5.39321,"is_reserved":false,"is_disabled":false,"rental_uris":{"android":"levelo://app?vid=fc32b354-c934-4e68-a673-fefd084b5285","ios":"levelo://app?vid=fc32b354-c934-4e68-a673-fefd084b5285"},"vehicle_type_id":"4","last_reported":1778593988,"current_range_meters":9200,"station_id":"ce4bh2p2rcd13ifvqdi0","pricing_plan_id":"cebpf4jnsgd1na2vs0mg"},{"bike_id":"b477be1e-64c7-4e90-bc42-6fe97cda14a2","system_id":"levelo_inurba_marseille","lat":43.29483,"lon":5.43304,"is_reserved":false,"is_disabled":false,"rental_uris":{"android":"levelo://app?vid=b477be1e-64c7-4e90-bc42-6fe97cda14a2","ios":"levelo://app?vid=b477be1e-64c7-4e90-bc42-6fe97cda14a2"},"vehicle_type_id":"4","last_reported":1778593988,"current_range_meters":9200,"station_id":"st_d3j5ugp08ojc73fj9d10","pricing_plan_id":"cebpf4jnsgd1na2vs0mg"},{"bike_id":"66c05b1d-87a7-4580-a322-0ef49ffa863e","system_id":"levelo_inurba_marseille","lat":43.24025,"lon":5.37834,"is_reserved":false,"is_disabled":false,"rental_uris":{"android":"levelo://app?vid=66c05b1d-87a7-4580-a322-0ef49ffa863e","ios":"levelo://app?vid=66c05b1d-87a7-4580-a322-0ef49ffa863e"},"vehicle_type_id":"4","last_reported":1778593988,"current_range_meters":9200,"station_id":"ce4bhnp2rcd13ifvqgvg","pricing_plan_id":"cebpf4jnsgd1na2vs0mg"},{"bike_id":"908cf990-7a0d-42fa-9fba-f0da4ae84b10","system_id":"levelo_inurba_marseille","lat":43.26558,"lon":5.40325,"is_reserved":false,"is_disabled":false,"rental_uris":{"android":"levelo://app?vid=908cf990-7a0d-42fa-9fba-f0da4ae84b10","ios":"levelo://app?vid=908cf990-7a0d-42fa-9fba-f0da4ae84b10"},"vehicle_type_id":"4","last_reported":1778593988,"current_range_meters":9200,"station_id":"ce4bhmp2rcd13ifvqgng","pricing_plan_id":"cebpf4jnsgd1na2vs0mg"},{"bike_id":"8f83bb02-6707-4339-923f-da64d3050dc0","system_id":"levelo_inurba_marseille","lat":43.29918,"lon":5.37493,"is_reserved":false,"is_disabled":false,"rental_uris":{"android":"levelo://app?vid=8f83bb02-6707-4339-923f-da64d3050dc0","ios":"levelo://app?vid=8f83bb02-6707-4339-923f-da64d3050dc0"},"vehicle_type_id":"4","last_reported":1778593988,"current_range_meters":9200,"station_id":"ce4bgjh2rcd13ifvqbg0","pricing_plan_id":"cebpf4jnsgd1na2vs0mg"},{"bike_id":"12d8531b-50be-4a1a-bbec-c75f1effe2c9","system_id":"levelo_inurba_marseille","lat":43.30168,"lon":5.37426,"is_reserved":false,"is_disabled":false,"rental_uris":{"android":"levelo://app?vid=12d8531b-50be-4a1a-bbec-c75f1effe2c9","ios":"levelo://app?vid=12d8531b-50be-4a1a-bbec-c75f1effe2c9"},"vehicle_type_id":"4","last_reported":1778593988,"current_range_meters":9200,"station_id":"ce4bgs92rcd13ifvqcc0","pricing_plan_id":"cebpf4jnsgd1na2vs0mg"},{"bike_id":"00f9e8e9-a796-4063-972a-6a13a52bcfd2","system_id":"levelo_inurba_marseille","lat":43.28661,"lon":5.36257,"is_reserved":false,"is_disabled":false,"rental_uris":{"android":"levelo://app?vid=00f9e8e9-a796-4063-972a-6a13a52bcfd2","ios":"levelo://app?vid=00f9e8e9-a796-4063-972a-6a13a52bcfd2"},"vehicle_type_id":"4","last_reported":1778593988,"current_range_meters":9200,"station_id":"","pricing_plan_id":"cebpf4jnsgd1na2vs0mg"},{"bike_id":"934d4809-4536-441b-aaf1-479c851d3d5a","system_id":"levelo_inurba_marseille","lat":43.31278,"lon":5.40507,"is_reserved":false,"is_disabled":false,"rental_uris":{"android":"levelo://app?vid=934d4809-4536-441b-aaf1-479c851d3d5a","ios":"levelo://app?vid=934d4809-4536-441b-aaf1-479c851d3d5a"},"vehicle_type_id":"4","last_reported":1778593988,"current_range_meters":9200,"station_id":"","pricing_plan_id":"cebpf4jnsgd1na2vs0mg"},{"bike_id":"326317d9-2470-4611-af61-d896b56d1fcb","system_id":"levelo_inurba_marseille","lat":43.29561,"lon":5.37524,"is_reserved":false,"is_disabled":false,"rental_uris":{"android":"levelo://app?vid=326317d9-2470-4611-af61-d896b56d1fcb","ios":"levelo://app?vid=326317d9-2470-4611-af61-d896b56d1fcb"},"vehicle_type_id":"4","last_reported":1778593988,"current_range_meters":9200,"station_id":"ce4bgh92rcd13ifvqb50","pricing_plan_id":"cebpf4jnsgd1na2vs0mg"},{"bike_id":"c7496d06-71c2-475a-8309-3ae9058efa8d","system_id":"levelo_inurba_marseille","lat":43.29952,"lon":5.36518,"is_reserved":false,"is_disabled":false,"rental_uris":{"android":"levelo://app?vid=c7496d06-71c2-475a-8309-3ae9058efa8d","ios":"levelo://app?vid=c7496d06-71c2-475a-8309-3ae9058efa8d"},"vehicle_type_id":"4","last_reported":1778593988,"current_range_meters":9200,"station_id":"ce4bgm92rcd13ifvqbr0","pricing_plan_id":"cebpf4jnsgd1na2vs0mg"},{"bike_id":"1da6257b-f1af-4a48-8996-6c5a6ab19545","system_id":"levelo_inurba_marseille","lat":43.24679,"lon":5.3817,"is_reserved":false,"is_disabled":false,"rental_uris":{"android":"levelo://app?vid=1da6257b-f1af-4a48-8996-6c5a6ab19545","ios":"levelo://app?vid=1da6257b-f1af-4a48-8996-6c5a6ab19545"},"vehicle_type_id":"4","last_reported":1778593988,"current_range_meters":9200,"station_id":"ce4bhih2rcd13ifvqfr0","pricing_plan_id":"cebpf4jnsgd1na2vs0mg"},{"bike_id":"18685895-466d-4c2f-a21e-1a8a9b6395c4","system_id":"levelo_inurba_marseille","lat":43.2971,"lon":5.36614,"is_reserved":false,"is_disabled":false,"rental_uris":{"android":"levelo://app?vid=18685895-466d-4c2f-a21e-1a8a9b6395c4","ios":"levelo://app?vid=18685895-466d-4c2f-a21e-1a8a9b6395c4"},"vehicle_type_id":"4","last_reported":1778593988,"current_range_meters":9600,"station_id":"ce4bgn12rcd13ifvqbt0","pricing_plan_id":"cebpf4jnsgd1na2vs0mg"},{"bike_id":"69bd2677-d642-4800-a56f-a00a17ab0579","system_id":"levelo_inurba_marseille","lat":43.32118,"lon":5.36757,"is_reserved":false,"is_disabled":false,"rental_uris":{"android":"levelo://app?vid=69bd2677-d642-4800-a56f-a00a17ab0579","ios":"levelo://app?vid=69bd2677-d642-4800-a56f-a00a17ab0579"},"vehicle_type_id":"4","last_reported":1778593988,"current_range_meters":9600,"station_id":"ce4bhrh2rcd13ifvqhug","pricing_plan_id":"cebpf4jnsgd1na2vs0mg"},{"bike_id":"ef194a8f-7603-42b3-a6ac-2e86357e9c0a","system_id":"levelo_inurba_marseille","lat":43.241,"lon":5.37834,"is_reserved":false,"is_disabled":false,"rental_uris":{"android":"levelo://app?vid=ef194a8f-7603-42b3-a6ac-2e86357e9c0a","ios":"levelo://app?vid=ef194a8f-7603-42b3-a6ac-2e86357e9c0a"},"vehicle_type_id":"4","last_reported":1778593988,"current_range_meters":9600,"station_id":"","pricing_plan_id":"cebpf4jnsgd1na2vs0mg"},{"bike_id":"a4d945d4-1963-4ebe-ac62-54ee257867f3","system_id":"levelo_inurba_marseille","lat":43.33546,"lon":5.37461,"is_reserved":false,"is_disabled":false,"rental_uris":{"android":"levelo://app?vid=a4d945d4-1963-4ebe-ac62-54ee257867f3","ios":"levelo://app?vid=a4d945d4-1963-4ebe-ac62-54ee257867f3"},"vehicle_type_id":"4","last_reported":1778593988,"current_range_meters":9600,"station_id":"st_d46tts09ee8s73dlu43g","pricing_plan_id":"cebpf4jnsgd1na2vs0mg"},{"bike_id":"1602c824-ae5a-4f68-ae9a-a09d00daa24b","system_id":"levelo_inurba_marseille","lat":43.2255,"lon":5.34869,"is_reserved":false,"is_disabled":true,"rental_uris":{"android":"levelo://app?vid=1602c824-ae5a-4f68-ae9a-a09d00daa24b","ios":"levelo://app?vid=1602c824-ae5a-4f68-ae9a-a09d00daa24b"},"vehicle_type_id":"4","last_reported":1778593988,"current_range_meters":9600,"station_id":"st_cvj5dfep6f1abm77gieg","pricing_plan_id":"cebpf4jnsgd1na2vs0mg"},{"bike_id":"2aaf8d3d-dddc-4659-85e7-34b3b97fa5bc","system_id":"levelo_inurba_marseille","lat":43.21202,"lon":5.35117,"is_reserved":false,"is_disabled":false,"rental_uris":{"android":"levelo://app?vid=2aaf8d3d-dddc-4659-85e7-34b3b97fa5bc","ios":"levelo://app?vid=2aaf8d3d-dddc-4659-85e7-34b3b97fa5bc"},"vehicle_type_id":"4","last_reported":1778593988,"current_range_meters":9600,"station_id":"st_cvj6sg6p6f1abm77japg","pricing_plan_id":"cebpf4jnsgd1na2vs0mg"},{"bike_id":"ebd8f9ad-6dbf-4370-981c-97ed5030338e","system_id":"levelo_inurba_marseille","lat":43.29262,"lon":5.36851,"is_reserved":false,"is_disabled":false,"rental_uris":{"android":"levelo://app?vid=ebd8f9ad-6dbf-4370-981c-97ed5030338e","ios":"levelo://app?vid=ebd8f9ad-6dbf-4370-981c-97ed5030338e"},"vehicle_type_id":"4","last_reported":1778593988,"current_range_meters":9600,"station_id":"ce4bhbp2rcd13ifvqesg","pricing_plan_id":"cebpf4jnsgd1na2vs0mg"},{"bike_id":"badc5408-efbf-4d71-a93c-ec4f6d2da24e","system_id":"levelo_inurba_marseille","lat":43.26684,"lon":5.38275,"is_reserved":false,"is_disabled":false,"rental_uris":{"android":"levelo://app?vid=badc5408-efbf-4d71-a93c-ec4f6d2da24e","ios":"levelo://app?vid=badc5408-efbf-4d71-a93c-ec4f6d2da24e"},"vehicle_type_id":"4","last_reported":1778593988,"current_range_meters":9600,"station_id":"ce4bhg92rcd13ifvqf90","pricing_plan_id":"cebpf4jnsgd1na2vs0mg"},{"bike_id":"cca4895c-4595-412c-9faa-e7dc65c0f85a","system_id":"levelo_inurba_marseille","lat":43.31361,"lon":5.36705,"is_reserved":false,"is_disabled":false,"rental_uris":{"android":"levelo://app?vid=cca4895c-4595-412c-9faa-e7dc65c0f85a","ios":"levelo://app?vid=cca4895c-4595-412c-9faa-e7dc65c0f85a"},"vehicle_type_id":"4","last_reported":1778593988,"current_range_meters":9600,"station_id":"ce4bgr92rcd13ifvqc6g","pricing_plan_id":"cebpf4jnsgd1na2vs0mg"},{"bike_id":"daf36de4-5f48-4df6-aec3-ec3ea77047c4","system_id":"levelo_inurba_marseille","lat":43.27175,"lon":5.40992,"is_reserved":false,"is_disabled":false,"rental_uris":{"android":"levelo://app?vid=daf36de4-5f48-4df6-aec3-ec3ea77047c4","ios":"levelo://app?vid=daf36de4-5f48-4df6-aec3-ec3ea77047c4"},"vehicle_type_id":"4","last_reported":1778593988,"current_range_meters":9600,"station_id":"ce4bhl12rcd13ifvqgf0","pricing_plan_id":"cebpf4jnsgd1na2vs0mg"},{"bike_id":"9b961a31-cfde-4e00-b115-e3b09edd838d","system_id":"levelo_inurba_marseille","lat":43.21203,"lon":5.35068,"is_reserved":false,"is_disabled":false,"rental_uris":{"android":"levelo://app?vid=9b961a31-cfde-4e00-b115-e3b09edd838d","ios":"levelo://app?vid=9b961a31-cfde-4e00-b115-e3b09edd838d"},"vehicle_type_id":"4","last_reported":1778593988,"current_range_meters":9600,"station_id":"st_cvj6sg6p6f1abm77japg","pricing_plan_id":"cebpf4jnsgd1na2vs0mg"},{"bike_id":"08ab16f0-a680-480f-b65f-99fa1ffed561","system_id":"levelo_inurba_marseille","lat":43.27319,"lon":5.3908,"is_reserved":false,"is_disabled":false,"rental_uris":{"android":"levelo://app?vid=08ab16f0-a680-480f-b65f-99fa1ffed561","ios":"levelo://app?vid=08ab16f0-a680-480f-b65f-99fa1ffed561"},"vehicle_type_id":"4","last_reported":1778593988,"current_range_meters":9600,"station_id":"ce4bhgp2rcd13ifvqfe0","pricing_plan_id":"cebpf4jnsgd1na2vs0mg"},{"bike_id":"0ad9f56c-0cb1-4ddd-bfff-c7b211f4a077","system_id":"levelo_inurba_marseille","lat":43.23475,"lon":5.37221,"is_reserved":false,"is_disabled":false,"rental_uris":{"android":"levelo://app?vid=0ad9f56c-0cb1-4ddd-bfff-c7b211f4a077","ios":"levelo://app?vid=0ad9f56c-0cb1-4ddd-bfff-c7b211f4a077"},"vehicle_type_id":"4","last_reported":1778593988,"current_range_meters":9600,"station_id":"","pricing_plan_id":"cebpf4jnsgd1na2vs0mg"},{"bike_id":"8307325c-1ac4-459b-8469-b35d704f1579","system_id":"levelo_inurba_marseille","lat":43.29794,"lon":5.38089,"is_reserved":false,"is_disabled":false,"rental_uris":{"android":"levelo://app?vid=8307325c-1ac4-459b-8469-b35d704f1579","ios":"levelo://app?vid=8307325c-1ac4-459b-8469-b35d704f1579"},"vehicle_type_id":"4","last_reported":1778593988,"current_range_meters":9600,"station_id":"ce4bgip2rcd13ifvqbb0","pricing_plan_id":"cebpf4jnsgd1na2vs0mg"},{"bike_id":"3312291b-6a3d-4a64-9eb9-1b53a49958e0","system_id":"levelo_inurba_marseille","lat":43.30988,"lon":5.38983,"is_reserved":false,"is_disabled":false,"rental_uris":{"android":"levelo://app?vid=3312291b-6a3d-4a64-9eb9-1b53a49958e0","ios":"levelo://app?vid=3312291b-6a3d-4a64-9eb9-1b53a49958e0"},"vehicle_type_id":"4","last_reported":1778593988,"current_range_meters":9600,"station_id":"ce4bgup2rcd13ifvqco0","pricing_plan_id":"cebpf4jnsgd1na2vs0mg"},{"bike_id":"a0d38ea6-8e8a-45b5-8f7e-1fec7d574d01","system_id":"levelo_inurba_marseille","lat":43.3095,"lon":5.39028,"is_reserved":false,"is_disabled":false,"rental_uris":{"android":"levelo://app?vid=a0d38ea6-8e8a-45b5-8f7e-1fec7d574d01","ios":"levelo://app?vid=a0d38ea6-8e8a-45b5-8f7e-1fec7d574d01"},"vehicle_type_id":"4","last_reported":1778593988,"current_range_meters":9600,"station_id":"ce4bgup2rcd13ifvqco0","pricing_plan_id":"cebpf4jnsgd1na2vs0mg"},{"bike_id":"6f8b0d63-4a27-4c64-8991-130a8e2c7266","system_id":"levelo_inurba_marseille","lat":43.33161,"lon":5.37682,"is_reserved":false,"is_disabled":false,"rental_uris":{"android":"levelo://app?vid=6f8b0d63-4a27-4c64-8991-130a8e2c7266","ios":"levelo://app?vid=6f8b0d63-4a27-4c64-8991-130a8e2c7266"},"vehicle_type_id":"4","last_reported":1778593988,"current_range_meters":9600,"station_id":"st_d46cu089ee8s73dldbu0","pricing_plan_id":"cebpf4jnsgd1na2vs0mg"},{"bike_id":"6d10e77f-997f-4f2a-b956-fdb7587d128a","system_id":"levelo_inurba_marseille","lat":43.295,"lon":5.43294,"is_reserved":false,"is_disabled":false,"rental_uris":{"android":"levelo://app?vid=6d10e77f-997f-4f2a-b956-fdb7587d128a","ios":"levelo://app?vid=6d10e77f-997f-4f2a-b956-fdb7587d128a"},"vehicle_type_id":"4","last_reported":1778593988,"current_range_meters":9600,"station_id":"st_d3j5ugp08ojc73fj9d10","pricing_plan_id":"cebpf4jnsgd1na2vs0mg"},{"bike_id":"6a1b12d4-4492-447a-a50d-b047142fd7fa","system_id":"levelo_inurba_marseille","lat":43.27989,"lon":5.40013,"is_reserved":false,"is_disabled":false,"rental_uris":{"android":"levelo://app?vid=6a1b12d4-4492-447a-a50d-b047142fd7fa","ios":"levelo://app?vid=6a1b12d4-4492-447a-a50d-b047142fd7fa"},"vehicle_type_id":"4","last_reported":1778593988,"current_range_meters":9600,"station_id":"ce4bho92rcd13ifvqh4g","pricing_plan_id":"cebpf4jnsgd1na2vs0mg"},{"bike_id":"d9a37163-3331-4018-a462-8c7a00929518","system_id":"levelo_inurba_marseille","lat":43.27959,"lon":5.38737,"is_reserved":false,"is_disabled":false,"rental_uris":{"android":"levelo://app?vid=d9a37163-3331-4018-a462-8c7a00929518","ios":"levelo://app?vid=d9a37163-3331-4018-a462-8c7a00929518"},"vehicle_type_id":"4","last_reported":1778593988,"current_range_meters":9600,"station_id":"ce4bhg12rcd13ifvqf80","pricing_plan_id":"cebpf4jnsgd1na2vs0mg"},{"bike_id":"f1dcd1ab-2da7-440d-add3-e5bd00972fed","system_id":"levelo_inurba_marseille","lat":43.23787,"lon":5.36629,"is_reserved":false,"is_disabled":false,"rental_uris":{"android":"levelo://app?vid=f1dcd1ab-2da7-440d-add3-e5bd00972fed","ios":"levelo://app?vid=f1dcd1ab-2da7-440d-add3-e5bd00972fed"},