{"last_updated":1783256806,"ttl":60,"version":"2.2","data":{"bikes":[{"bike_id":"ba0c28b1-8732-48e2-8079-f25b2b3fbc3c","system_id":"levelo_inurba_marseille","lat":43.337444,"lon":5.374475,"is_reserved":false,"is_disabled":false,"rental_uris":{"android":"levelo://app?vid=ba0c28b1-8732-48e2-8079-f25b2b3fbc3c","ios":"levelo://app?vid=ba0c28b1-8732-48e2-8079-f25b2b3fbc3c"},"vehicle_type_id":"4","last_reported":1783256808,"current_range_meters":0,"station_id":"","pricing_plan_id":"cebpf4jnsgd1na2vs0mg"},{"bike_id":"f6a588f6-73ad-4dc2-9dac-0fa0dfa77cde","system_id":"levelo_inurba_marseille","lat":43.30943,"lon":5.3905,"is_reserved":false,"is_disabled":true,"rental_uris":{"android":"levelo://app?vid=f6a588f6-73ad-4dc2-9dac-0fa0dfa77cde","ios":"levelo://app?vid=f6a588f6-73ad-4dc2-9dac-0fa0dfa77cde"},"vehicle_type_id":"4","last_reported":1783256808,"current_range_meters":2800,"station_id":"ce4bgup2rcd13ifvqco0","pricing_plan_id":"cebpf4jnsgd1na2vs0mg"},{"bike_id":"e6848630-9072-460b-b017-5daf7a537da6","system_id":"levelo_inurba_marseille","lat":43.27907,"lon":5.38021,"is_reserved":false,"is_disabled":false,"rental_uris":{"android":"levelo://app?vid=e6848630-9072-460b-b017-5daf7a537da6","ios":"levelo://app?vid=e6848630-9072-460b-b017-5daf7a537da6"},"vehicle_type_id":"4","last_reported":1783256808,"current_range_meters":2800,"station_id":"ce4bhf92rcd13ifvqf50","pricing_plan_id":"cebpf4jnsgd1na2vs0mg"},{"bike_id":"0afbfa5b-a988-460e-ab1f-a6790b3b99dc","system_id":"levelo_inurba_marseille","lat":43.29066,"lon":5.4225,"is_reserved":false,"is_disabled":false,"rental_uris":{"android":"levelo://app?vid=0afbfa5b-a988-460e-ab1f-a6790b3b99dc","ios":"levelo://app?vid=0afbfa5b-a988-460e-ab1f-a6790b3b99dc"},"vehicle_type_id":"4","last_reported":1783256808,"current_range_meters":2800,"station_id":"","pricing_plan_id":"cebpf4jnsgd1na2vs0mg"},{"bike_id":"0097db39-22ab-462c-ab27-eaa866ac43b5","system_id":"levelo_inurba_marseille","lat":43.23464,"lon":5.40916,"is_reserved":false,"is_disabled":false,"rental_uris":{"android":"levelo://app?vid=0097db39-22ab-462c-ab27-eaa866ac43b5","ios":"levelo://app?vid=0097db39-22ab-462c-ab27-eaa866ac43b5"},"vehicle_type_id":"4","last_reported":1783256808,"current_range_meters":2800,"station_id":"","pricing_plan_id":"cebpf4jnsgd1na2vs0mg"},{"bike_id":"e1aeaea0-6aa3-47b7-9443-0d104aca327e","system_id":"levelo_inurba_marseille","lat":43.28413,"lon":5.37535,"is_reserved":false,"is_disabled":false,"rental_uris":{"android":"levelo://app?vid=e1aeaea0-6aa3-47b7-9443-0d104aca327e","ios":"levelo://app?vid=e1aeaea0-6aa3-47b7-9443-0d104aca327e"},"vehicle_type_id":"4","last_reported":1783256808,"current_range_meters":2800,"station_id":"ce4bh412rcd13ifvqds0","pricing_plan_id":"cebpf4jnsgd1na2vs0mg"},{"bike_id":"92aafff9-d542-4522-9717-6f6a661152bc","system_id":"levelo_inurba_marseille","lat":43.29069,"lon":5.37157,"is_reserved":false,"is_disabled":false,"rental_uris":{"android":"levelo://app?vid=92aafff9-d542-4522-9717-6f6a661152bc","ios":"levelo://app?vid=92aafff9-d542-4522-9717-6f6a661152bc"},"vehicle_type_id":"4","last_reported":1783256808,"current_range_meters":2800,"station_id":"ce4bh5p2rcd13ifvqe4g","pricing_plan_id":"cebpf4jnsgd1na2vs0mg"},{"bike_id":"1a8c74c1-d558-4b75-b95c-71233c4f0d79","system_id":"levelo_inurba_marseille","lat":43.3092,"lon":5.3685,"is_reserved":false,"is_disabled":false,"rental_uris":{"android":"levelo://app?vid=1a8c74c1-d558-4b75-b95c-71233c4f0d79","ios":"levelo://app?vid=1a8c74c1-d558-4b75-b95c-71233c4f0d79"},"vehicle_type_id":"4","last_reported":1783256808,"current_range_meters":2800,"station_id":"ce4bgn92rcd13ifvqbvg","pricing_plan_id":"cebpf4jnsgd1na2vs0mg"},{"bike_id":"2259ff17-d88b-4c0b-bd45-29703333fa4e","system_id":"levelo_inurba_marseille","lat":43.28933,"lon":5.36376,"is_reserved":false,"is_disabled":true,"rental_uris":{"android":"levelo://app?vid=2259ff17-d88b-4c0b-bd45-29703333fa4e","ios":"levelo://app?vid=2259ff17-d88b-4c0b-bd45-29703333fa4e"},"vehicle_type_id":"4","last_reported":1783256808,"current_range_meters":2800,"station_id":"ce4bhc92rcd13ifvqetg","pricing_plan_id":"cebpf4jnsgd1na2vs0mg"},{"bike_id":"fac4a2a9-f183-4819-8342-54d4e46837b9","system_id":"levelo_inurba_marseille","lat":43.24405,"lon":5.37066,"is_reserved":false,"is_disabled":false,"rental_uris":{"android":"levelo://app?vid=fac4a2a9-f183-4819-8342-54d4e46837b9","ios":"levelo://app?vid=fac4a2a9-f183-4819-8342-54d4e46837b9"},"vehicle_type_id":"4","last_reported":1783256808,"current_range_meters":2800,"station_id":"ce4bhhh2rcd13ifvqfk0","pricing_plan_id":"cebpf4jnsgd1na2vs0mg"},{"bike_id":"f37aa11b-792f-4a06-bdbd-c449f5d0628a","system_id":"levelo_inurba_marseille","lat":43.26235,"lon":5.37919,"is_reserved":false,"is_disabled":false,"rental_uris":{"android":"levelo://app?vid=f37aa11b-792f-4a06-bdbd-c449f5d0628a","ios":"levelo://app?vid=f37aa11b-792f-4a06-bdbd-c449f5d0628a"},"vehicle_type_id":"4","last_reported":1783256808,"current_range_meters":2800,"station_id":"ce4bhjp2rcd13ifvqg90","pricing_plan_id":"cebpf4jnsgd1na2vs0mg"},{"bike_id":"370012cd-d205-46eb-8a80-a3b9f0a7309d","system_id":"levelo_inurba_marseille","lat":43.24794,"lon":5.37462,"is_reserved":false,"is_disabled":true,"rental_uris":{"android":"levelo://app?vid=370012cd-d205-46eb-8a80-a3b9f0a7309d","ios":"levelo://app?vid=370012cd-d205-46eb-8a80-a3b9f0a7309d"},"vehicle_type_id":"4","last_reported":1783256808,"current_range_meters":2800,"station_id":"ce4bhgh2rcd13ifvqfb0","pricing_plan_id":"cebpf4jnsgd1na2vs0mg"},{"bike_id":"0258c125-282f-4adb-84e3-d806703dc533","system_id":"levelo_inurba_marseille","lat":43.31283,"lon":5.39407,"is_reserved":false,"is_disabled":false,"rental_uris":{"android":"levelo://app?vid=0258c125-282f-4adb-84e3-d806703dc533","ios":"levelo://app?vid=0258c125-282f-4adb-84e3-d806703dc533"},"vehicle_type_id":"4","last_reported":1783256808,"current_range_meters":2800,"station_id":"","pricing_plan_id":"cebpf4jnsgd1na2vs0mg"},{"bike_id":"7eb74a52-ce5b-4870-b1ae-8b4b41035c5f","system_id":"levelo_inurba_marseille","lat":43.26213,"lon":5.37447,"is_reserved":false,"is_disabled":false,"rental_uris":{"android":"levelo://app?vid=7eb74a52-ce5b-4870-b1ae-8b4b41035c5f","ios":"levelo://app?vid=7eb74a52-ce5b-4870-b1ae-8b4b41035c5f"},"vehicle_type_id":"4","last_reported":1783256808,"current_range_meters":2800,"station_id":"ce4bhgp2rcd13ifvqfc0","pricing_plan_id":"cebpf4jnsgd1na2vs0mg"},{"bike_id":"0313c58d-aaac-4942-b0ef-1389a3396711","system_id":"levelo_inurba_marseille","lat":43.32472,"lon":5.36568,"is_reserved":false,"is_disabled":true,"rental_uris":{"android":"levelo://app?vid=0313c58d-aaac-4942-b0ef-1389a3396711","ios":"levelo://app?vid=0313c58d-aaac-4942-b0ef-1389a3396711"},"vehicle_type_id":"4","last_reported":1783256808,"current_range_meters":2800,"station_id":"ce4bhs12rcd13ifvqhvg","pricing_plan_id":"cebpf4jnsgd1na2vs0mg"},{"bike_id":"cac178b0-4568-4b29-afe4-fc8ec30a6f6b","system_id":"levelo_inurba_marseille","lat":43.28412,"lon":5.3753,"is_reserved":false,"is_disabled":false,"rental_uris":{"android":"levelo://app?vid=cac178b0-4568-4b29-afe4-fc8ec30a6f6b","ios":"levelo://app?vid=cac178b0-4568-4b29-afe4-fc8ec30a6f6b"},"vehicle_type_id":"4","last_reported":1783256808,"current_range_meters":2800,"station_id":"ce4bh412rcd13ifvqds0","pricing_plan_id":"cebpf4jnsgd1na2vs0mg"},{"bike_id":"bbc4114e-8917-4ae3-9524-c61197d9a885","system_id":"levelo_inurba_marseille","lat":43.29035,"lon":5.43984,"is_reserved":false,"is_disabled":false,"rental_uris":{"android":"levelo://app?vid=bbc4114e-8917-4ae3-9524-c61197d9a885","ios":"levelo://app?vid=bbc4114e-8917-4ae3-9524-c61197d9a885"},"vehicle_type_id":"4","last_reported":1783256808,"current_range_meters":2800,"station_id":"","pricing_plan_id":"cebpf4jnsgd1na2vs0mg"},{"bike_id":"d093438b-5abc-469e-baeb-0e71e88c0762","system_id":"levelo_inurba_marseille","lat":43.28137,"lon":5.36366,"is_reserved":false,"is_disabled":false,"rental_uris":{"android":"levelo://app?vid=d093438b-5abc-469e-baeb-0e71e88c0762","ios":"levelo://app?vid=d093438b-5abc-469e-baeb-0e71e88c0762"},"vehicle_type_id":"4","last_reported":1783256808,"current_range_meters":2800,"station_id":"","pricing_plan_id":"cebpf4jnsgd1na2vs0mg"},{"bike_id":"00b17dcc-452c-402b-b66b-783128b0be06","system_id":"levelo_inurba_marseille","lat":43.2749,"lon":5.42553,"is_reserved":false,"is_disabled":false,"rental_uris":{"android":"levelo://app?vid=00b17dcc-452c-402b-b66b-783128b0be06","ios":"levelo://app?vid=00b17dcc-452c-402b-b66b-783128b0be06"},"vehicle_type_id":"4","last_reported":1783256808,"current_range_meters":2800,"station_id":"st_d8t4bh7nbrqs73arha60","pricing_plan_id":"cebpf4jnsgd1na2vs0mg"},{"bike_id":"a53bde85-5c99-45a9-829e-ba6410d488a7","system_id":"levelo_inurba_marseille","lat":43.24584,"lon":5.39719,"is_reserved":false,"is_disabled":false,"rental_uris":{"android":"levelo://app?vid=a53bde85-5c99-45a9-829e-ba6410d488a7","ios":"levelo://app?vid=a53bde85-5c99-45a9-829e-ba6410d488a7"},"vehicle_type_id":"4","last_reported":1783256808,"current_range_meters":2800,"station_id":"","pricing_plan_id":"cebpf4jnsgd1na2vs0mg"},{"bike_id":"cd46bd91-e455-450b-a5e5-8a44ccfd9654","system_id":"levelo_inurba_marseille","lat":43.28674,"lon":5.38665,"is_reserved":false,"is_disabled":false,"rental_uris":{"android":"levelo://app?vid=cd46bd91-e455-450b-a5e5-8a44ccfd9654","ios":"levelo://app?vid=cd46bd91-e455-450b-a5e5-8a44ccfd9654"},"vehicle_type_id":"4","last_reported":1783256808,"current_range_meters":3200,"station_id":"ce4bh492rcd13ifvqdug","pricing_plan_id":"cebpf4jnsgd1na2vs0mg"},{"bike_id":"3d692cc6-3a09-406c-ad06-972b7f2b54c6","system_id":"levelo_inurba_marseille","lat":43.26682,"lon":5.38269,"is_reserved":false,"is_disabled":false,"rental_uris":{"android":"levelo://app?vid=3d692cc6-3a09-406c-ad06-972b7f2b54c6","ios":"levelo://app?vid=3d692cc6-3a09-406c-ad06-972b7f2b54c6"},"vehicle_type_id":"4","last_reported":1783256808,"current_range_meters":3200,"station_id":"ce4bhg92rcd13ifvqf90","pricing_plan_id":"cebpf4jnsgd1na2vs0mg"},{"bike_id":"96da04ba-12af-40e6-928e-fdec4ff2d05f","system_id":"levelo_inurba_marseille","lat":43.31757,"lon":5.39017,"is_reserved":false,"is_disabled":false,"rental_uris":{"android":"levelo://app?vid=96da04ba-12af-40e6-928e-fdec4ff2d05f","ios":"levelo://app?vid=96da04ba-12af-40e6-928e-fdec4ff2d05f"},"vehicle_type_id":"4","last_reported":1783256808,"current_range_meters":3200,"station_id":"ce4bhqp2rcd13ifvqhng","pricing_plan_id":"cebpf4jnsgd1na2vs0mg"},{"bike_id":"7dcdb77e-5520-404c-a8e4-5410b21ff636","system_id":"levelo_inurba_marseille","lat":43.296,"lon":5.42404,"is_reserved":false,"is_disabled":false,"rental_uris":{"android":"levelo://app?vid=7dcdb77e-5520-404c-a8e4-5410b21ff636","ios":"levelo://app?vid=7dcdb77e-5520-404c-a8e4-5410b21ff636"},"vehicle_type_id":"4","last_reported":1783256808,"current_range_meters":3200,"station_id":"","pricing_plan_id":"cebpf4jnsgd1na2vs0mg"},{"bike_id":"fa60f93d-ad38-4af6-be84-609fd8fcf28e","system_id":"levelo_inurba_marseille","lat":43.2749,"lon":5.42543,"is_reserved":false,"is_disabled":false,"rental_uris":{"android":"levelo://app?vid=fa60f93d-ad38-4af6-be84-609fd8fcf28e","ios":"levelo://app?vid=fa60f93d-ad38-4af6-be84-609fd8fcf28e"},"vehicle_type_id":"4","last_reported":1783256808,"current_range_meters":3200,"station_id":"st_d8t4bh7nbrqs73arha60","pricing_plan_id":"cebpf4jnsgd1na2vs0mg"},{"bike_id":"ed01a916-b908-4f14-b13a-8da3103bed47","system_id":"levelo_inurba_marseille","lat":43.28428,"lon":5.34983,"is_reserved":false,"is_disabled":false,"rental_uris":{"android":"levelo://app?vid=ed01a916-b908-4f14-b13a-8da3103bed47","ios":"levelo://app?vid=ed01a916-b908-4f14-b13a-8da3103bed47"},"vehicle_type_id":"4","last_reported":1783256808,"current_range_meters":3200,"station_id":"ce4bhbh2rcd13ifvqepg","pricing_plan_id":"cebpf4jnsgd1na2vs0mg"},{"bike_id":"6f37e172-e521-4e45-91cc-413b9ad92298","system_id":"levelo_inurba_marseille","lat":43.29335,"lon":5.37605,"is_reserved":false,"is_disabled":true,"rental_uris":{"android":"levelo://app?vid=6f37e172-e521-4e45-91cc-413b9ad92298","ios":"levelo://app?vid=6f37e172-e521-4e45-91cc-413b9ad92298"},"vehicle_type_id":"4","last_reported":1783256808,"current_range_meters":3200,"station_id":"","pricing_plan_id":"cebpf4jnsgd1na2vs0mg"},{"bike_id":"d728b632-da17-49b6-bee6-586bce6b51e3","system_id":"levelo_inurba_marseille","lat":43.25229,"lon":5.41029,"is_reserved":false,"is_disabled":false,"rental_uris":{"android":"levelo://app?vid=d728b632-da17-49b6-bee6-586bce6b51e3","ios":"levelo://app?vid=d728b632-da17-49b6-bee6-586bce6b51e3"},"vehicle_type_id":"4","last_reported":1783256808,"current_range_meters":3200,"station_id":"","pricing_plan_id":"cebpf4jnsgd1na2vs0mg"},{"bike_id":"be14d72b-ec18-44f3-b0c0-3b262635bc8f","system_id":"levelo_inurba_marseille","lat":43.29681,"lon":5.36589,"is_reserved":false,"is_disabled":true,"rental_uris":{"android":"levelo://app?vid=be14d72b-ec18-44f3-b0c0-3b262635bc8f","ios":"levelo://app?vid=be14d72b-ec18-44f3-b0c0-3b262635bc8f"},"vehicle_type_id":"4","last_reported":1783256808,"current_range_meters":3200,"station_id":"ce4bgn12rcd13ifvqbt0","pricing_plan_id":"cebpf4jnsgd1na2vs0mg"},{"bike_id":"abf1c1fa-1405-476f-bd73-54723798211b","system_id":"levelo_inurba_marseille","lat":43.23706,"lon":5.40208,"is_reserved":false,"is_disabled":false,"rental_uris":{"android":"levelo://app?vid=abf1c1fa-1405-476f-bd73-54723798211b","ios":"levelo://app?vid=abf1c1fa-1405-476f-bd73-54723798211b"},"vehicle_type_id":"4","last_reported":1783256808,"current_range_meters":3200,"station_id":"","pricing_plan_id":"cebpf4jnsgd1na2vs0mg"},{"bike_id":"4c986123-5e2d-4e54-a19e-58aafac449d4","system_id":"levelo_inurba_marseille","lat":43.28374,"lon":5.38652,"is_reserved":false,"is_disabled":true,"rental_uris":{"android":"levelo://app?vid=4c986123-5e2d-4e54-a19e-58aafac449d4","ios":"levelo://app?vid=4c986123-5e2d-4e54-a19e-58aafac449d4"},"vehicle_type_id":"4","last_reported":1783256808,"current_range_meters":3200,"station_id":"ce4bh492rcd13ifvqdvg","pricing_plan_id":"cebpf4jnsgd1na2vs0mg"},{"bike_id":"1794f7d7-2f0d-42c6-b48d-787e4af12d1b","system_id":"levelo_inurba_marseille","lat":43.2936,"lon":5.3786,"is_reserved":false,"is_disabled":false,"rental_uris":{"android":"levelo://app?vid=1794f7d7-2f0d-42c6-b48d-787e4af12d1b","ios":"levelo://app?vid=1794f7d7-2f0d-42c6-b48d-787e4af12d1b"},"vehicle_type_id":"4","last_reported":1783256808,"current_range_meters":3200,"station_id":"ce4bgjh2rcd13ifvqbf0","pricing_plan_id":"cebpf4jnsgd1na2vs0mg"},{"bike_id":"61cd84df-f76f-41ad-9da2-1b4df883e51c","system_id":"levelo_inurba_marseille","lat":43.26238,"lon":5.38981,"is_reserved":false,"is_disabled":false,"rental_uris":{"android":"levelo://app?vid=61cd84df-f76f-41ad-9da2-1b4df883e51c","ios":"levelo://app?vid=61cd84df-f76f-41ad-9da2-1b4df883e51c"},"vehicle_type_id":"4","last_reported":1783256808,"current_range_meters":3200,"station_id":"","pricing_plan_id":"cebpf4jnsgd1na2vs0mg"},{"bike_id":"2de3b86d-011d-4c19-81e0-a1ba6193a85a","system_id":"levelo_inurba_marseille","lat":43.311135,"lon":5.377582,"is_reserved":false,"is_disabled":false,"rental_uris":{"android":"levelo://app?vid=2de3b86d-011d-4c19-81e0-a1ba6193a85a","ios":"levelo://app?vid=2de3b86d-011d-4c19-81e0-a1ba6193a85a"},"vehicle_type_id":"4","last_reported":1783256808,"current_range_meters":3600,"station_id":"ce4bgt92rcd13ifvqcg0","pricing_plan_id":"cebpf4jnsgd1na2vs0mg"},{"bike_id":"50aa6815-cb65-48bd-999a-1d2dfbbe24c7","system_id":"levelo_inurba_marseille","lat":43.28487,"lon":5.48395,"is_reserved":false,"is_disabled":false,"rental_uris":{"android":"levelo://app?vid=50aa6815-cb65-48bd-999a-1d2dfbbe24c7","ios":"levelo://app?vid=50aa6815-cb65-48bd-999a-1d2dfbbe24c7"},"vehicle_type_id":"4","last_reported":1783256808,"current_range_meters":3600,"station_id":"st_d3svhcjqgbts73a3dn0g","pricing_plan_id":"cebpf4jnsgd1na2vs0mg"},{"bike_id":"369ec573-4742-46b6-9e9d-d58fd190a334","system_id":"levelo_inurba_marseille","lat":43.29223,"lon":5.36064,"is_reserved":false,"is_disabled":true,"rental_uris":{"android":"levelo://app?vid=369ec573-4742-46b6-9e9d-d58fd190a334","ios":"levelo://app?vid=369ec573-4742-46b6-9e9d-d58fd190a334"},"vehicle_type_id":"4","last_reported":1783256808,"current_range_meters":3600,"station_id":"ce4bhbh2rcd13ifvqeqg","pricing_plan_id":"cebpf4jnsgd1na2vs0mg"},{"bike_id":"aac6d6f5-5414-4268-950d-e95baa8a24a9","system_id":"levelo_inurba_marseille","lat":43.32475,"lon":5.36573,"is_reserved":false,"is_disabled":false,"rental_uris":{"android":"levelo://app?vid=aac6d6f5-5414-4268-950d-e95baa8a24a9","ios":"levelo://app?vid=aac6d6f5-5414-4268-950d-e95baa8a24a9"},"vehicle_type_id":"4","last_reported":1783256808,"current_range_meters":3600,"station_id":"ce4bhs12rcd13ifvqhvg","pricing_plan_id":"cebpf4jnsgd1na2vs0mg"},{"bike_id":"3edad406-7310-4441-b103-43aa843ff572","system_id":"levelo_inurba_marseille","lat":43.27939,"lon":5.37216,"is_reserved":false,"is_disabled":false,"rental_uris":{"android":"levelo://app?vid=3edad406-7310-4441-b103-43aa843ff572","ios":"levelo://app?vid=3edad406-7310-4441-b103-43aa843ff572"},"vehicle_type_id":"4","last_reported":1783256808,"current_range_meters":3600,"station_id":"","pricing_plan_id":"cebpf4jnsgd1na2vs0mg"},{"bike_id":"693afbfa-e70f-40d9-9271-5aba390db9b6","system_id":"levelo_inurba_marseille","lat":43.24107,"lon":5.36285,"is_reserved":false,"is_disabled":false,"rental_uris":{"android":"levelo://app?vid=693afbfa-e70f-40d9-9271-5aba390db9b6","ios":"levelo://app?vid=693afbfa-e70f-40d9-9271-5aba390db9b6"},"vehicle_type_id":"4","last_reported":1783256808,"current_range_meters":3600,"station_id":"","pricing_plan_id":"cebpf4jnsgd1na2vs0mg"},{"bike_id":"72c67655-ad78-4a2f-a6f6-e2cf1dacbdd4","system_id":"levelo_inurba_marseille","lat":43.30537,"lon":5.36553,"is_reserved":false,"is_disabled":false,"rental_uris":{"android":"levelo://app?vid=72c67655-ad78-4a2f-a6f6-e2cf1dacbdd4","ios":"levelo://app?vid=72c67655-ad78-4a2f-a6f6-e2cf1dacbdd4"},"vehicle_type_id":"4","last_reported":1783256808,"current_range_meters":3600,"station_id":"ce4bgs12rcd13ifvqcag","pricing_plan_id":"cebpf4jnsgd1na2vs0mg"},{"bike_id":"a0d2ee0e-56af-4887-b2d2-9cbe195e41fd","system_id":"levelo_inurba_marseille","lat":43.28616,"lon":5.39865,"is_reserved":false,"is_disabled":false,"rental_uris":{"android":"levelo://app?vid=a0d2ee0e-56af-4887-b2d2-9cbe195e41fd","ios":"levelo://app?vid=a0d2ee0e-56af-4887-b2d2-9cbe195e41fd"},"vehicle_type_id":"4","last_reported":1783256808,"current_range_meters":3600,"station_id":"st_d4a7ka997mjs738ck50g","pricing_plan_id":"cebpf4jnsgd1na2vs0mg"},{"bike_id":"40fdd1cf-c3bf-484e-8ffd-9f5f22190a77","system_id":"levelo_inurba_marseille","lat":43.32091,"lon":5.36781,"is_reserved":false,"is_disabled":false,"rental_uris":{"android":"levelo://app?vid=40fdd1cf-c3bf-484e-8ffd-9f5f22190a77","ios":"levelo://app?vid=40fdd1cf-c3bf-484e-8ffd-9f5f22190a77"},"vehicle_type_id":"4","last_reported":1783256808,"current_range_meters":3600,"station_id":"ce4bhrh2rcd13ifvqhug","pricing_plan_id":"cebpf4jnsgd1na2vs0mg"},{"bike_id":"47c959d0-db89-49fb-a730-37e0297ef951","system_id":"levelo_inurba_marseille","lat":43.24388,"lon":5.37071,"is_reserved":false,"is_disabled":false,"rental_uris":{"android":"levelo://app?vid=47c959d0-db89-49fb-a730-37e0297ef951","ios":"levelo://app?vid=47c959d0-db89-49fb-a730-37e0297ef951"},"vehicle_type_id":"4","last_reported":1783256808,"current_range_meters":3600,"station_id":"ce4bhhh2rcd13ifvqfk0","pricing_plan_id":"cebpf4jnsgd1na2vs0mg"},{"bike_id":"cbe59d2c-49d6-4f50-ba21-2cd592250670","system_id":"levelo_inurba_marseille","lat":43.2843,"lon":5.37519,"is_reserved":false,"is_disabled":false,"rental_uris":{"android":"levelo://app?vid=cbe59d2c-49d6-4f50-ba21-2cd592250670","ios":"levelo://app?vid=cbe59d2c-49d6-4f50-ba21-2cd592250670"},"vehicle_type_id":"4","last_reported":1783256808,"current_range_meters":3600,"station_id":"ce4bh412rcd13ifvqds0","pricing_plan_id":"cebpf4jnsgd1na2vs0mg"},{"bike_id":"09332366-3bb5-43a0-9a3c-67100b8dcff3","system_id":"levelo_inurba_marseille","lat":43.231511,"lon":5.43725,"is_reserved":false,"is_disabled":false,"rental_uris":{"android":"levelo://app?vid=09332366-3bb5-43a0-9a3c-67100b8dcff3","ios":"levelo://app?vid=09332366-3bb5-43a0-9a3c-67100b8dcff3"},"vehicle_type_id":"4","last_reported":1783256808,"current_range_meters":3600,"station_id":"ce4bhmp2rcd13ifvqgog","pricing_plan_id":"cebpf4jnsgd1na2vs0mg"},{"bike_id":"91536602-64c3-4f05-937f-5ff1f849ba25","system_id":"levelo_inurba_marseille","lat":43.3001,"lon":5.36278,"is_reserved":false,"is_disabled":false,"rental_uris":{"android":"levelo://app?vid=91536602-64c3-4f05-937f-5ff1f849ba25","ios":"levelo://app?vid=91536602-64c3-4f05-937f-5ff1f849ba25"},"vehicle_type_id":"4","last_reported":1783256808,"current_range_meters":3600,"station_id":"","pricing_plan_id":"cebpf4jnsgd1na2vs0mg"},{"bike_id":"51e7e5db-21d7-4eef-9556-8d53c85c4ede","system_id":"levelo_inurba_marseille","lat":43.25136,"lon":5.40327,"is_reserved":false,"is_disabled":false,"rental_uris":{"android":"levelo://app?vid=51e7e5db-21d7-4eef-9556-8d53c85c4ede","ios":"levelo://app?vid=51e7e5db-21d7-4eef-9556-8d53c85c4ede"},"vehicle_type_id":"4","last_reported":1783256808,"current_range_meters":3600,"station_id":"ce4bhlh2rcd13ifvqgig","pricing_plan_id":"cebpf4jnsgd1na2vs0mg"},{"bike_id":"2c52e4bc-365b-40fb-ace9-a63bc2aa685a","system_id":"levelo_inurba_marseille","lat":43.33079,"lon":5.38568,"is_reserved":false,"is_disabled":false,"rental_uris":{"android":"levelo://app?vid=2c52e4bc-365b-40fb-ace9-a63bc2aa685a","ios":"levelo://app?vid=2c52e4bc-365b-40fb-ace9-a63bc2aa685a"},"vehicle_type_id":"4","last_reported":1783256808,"current_range_meters":3600,"station_id":"","pricing_plan_id":"cebpf4jnsgd1na2vs0mg"},{"bike_id":"bc4d0762-345e-4958-8a00-7a36f85ab3bc","system_id":"levelo_inurba_marseille","lat":43.28607,"lon":5.39895,"is_reserved":false,"is_disabled":false,"rental_uris":{"android":"levelo://app?vid=bc4d0762-345e-4958-8a00-7a36f85ab3bc","ios":"levelo://app?vid=bc4d0762-345e-4958-8a00-7a36f85ab3bc"},"vehicle_type_id":"4","last_reported":1783256808,"current_range_meters":3600,"station_id":"st_d4a7ka997mjs738ck50g","pricing_plan_id":"cebpf4jnsgd1na2vs0mg"},{"bike_id":"74dd42d2-011d-4240-9da0-6f3bae8738dc","system_id":"levelo_inurba_marseille","lat":43.29782,"lon":5.37104,"is_reserved":false,"is_disabled":false,"rental_uris":{"android":"levelo://app?vid=74dd42d2-011d-4240-9da0-6f3bae8738dc","ios":"levelo://app?vid=74dd42d2-011d-4240-9da0-6f3bae8738dc"},"vehicle_type_id":"4","last_reported":1783256808,"current_range_meters":3600,"station_id":"ce4bgop2rcd13ifvqc1g","pricing_plan_id":"cebpf4jnsgd1na2vs0mg"},{"bike_id":"ab57a3e5-b462-4376-98bb-7c42cd02bea9","system_id":"levelo_inurba_marseille","lat":43.28305,"lon":5.35104,"is_reserved":false,"is_disabled":false,"rental_uris":{"android":"levelo://app?vid=ab57a3e5-b462-4376-98bb-7c42cd02bea9","ios":"levelo://app?vid=ab57a3e5-b462-4376-98bb-7c42cd02bea9"},"vehicle_type_id":"4","last_reported":1783256808,"current_range_meters":3600,"station_id":"","pricing_plan_id":"cebpf4jnsgd1na2vs0mg"},{"bike_id":"4185ea77-b98b-47f0-96e2-08db26559139","system_id":"levelo_inurba_marseille","lat":43.29807,"lon":5.38118,"is_reserved":false,"is_disabled":false,"rental_uris":{"android":"levelo://app?vid=4185ea77-b98b-47f0-96e2-08db26559139","ios":"levelo://app?vid=4185ea77-b98b-47f0-96e2-08db26559139"},"vehicle_type_id":"4","last_reported":1783256808,"current_range_meters":3600,"station_id":"ce4bgip2rcd13ifvqbb0","pricing_plan_id":"cebpf4jnsgd1na2vs0mg"},{"bike_id":"74f8cf15-3e70-4973-8fc9-8593a5616b35","system_id":"levelo_inurba_marseille","lat":43.261848,"lon":5.373663,"is_reserved":false,"is_disabled":false,"rental_uris":{"android":"levelo://app?vid=74f8cf15-3e70-4973-8fc9-8593a5616b35","ios":"levelo://app?vid=74f8cf15-3e70-4973-8fc9-8593a5616b35"},"vehicle_type_id":"4","last_reported":1783256808,"current_range_meters":3600,"station_id":"ce4bhgp2rcd13ifvqfc0","pricing_plan_id":"cebpf4jnsgd1na2vs0mg"},{"bike_id":"e5c4979f-c748-44fe-94b1-b0f2584621b1","system_id":"levelo_inurba_marseille","lat":43.24262,"lon":5.3796,"is_reserved":false,"is_disabled":false,"rental_uris":{"android":"levelo://app?vid=e5c4979f-c748-44fe-94b1-b0f2584621b1","ios":"levelo://app?vid=e5c4979f-c748-44fe-94b1-b0f2584621b1"},"vehicle_type_id":"4","last_reported":1783256808,"current_range_meters":3600,"station_id":"","pricing_plan_id":"cebpf4jnsgd1na2vs0mg"},{"bike_id":"367e2c77-1840-403a-b532-0336e7732bd2","system_id":"levelo_inurba_marseille","lat":43.25554,"lon":5.38233,"is_reserved":false,"is_disabled":true,"rental_uris":{"android":"levelo://app?vid=367e2c77-1840-403a-b532-0336e7732bd2","ios":"levelo://app?vid=367e2c77-1840-403a-b532-0336e7732bd2"},"vehicle_type_id":"4","last_reported":1783256808,"current_range_meters":4000,"station_id":"ce4bhih2rcd13ifvqfs0","pricing_plan_id":"cebpf4jnsgd1na2vs0mg"},{"bike_id":"20f8ab00-fc74-4cdd-a7d8-2acda8d1d753","system_id":"levelo_inurba_marseille","lat":43.29913,"lon":5.38138,"is_reserved":false,"is_disabled":false,"rental_uris":{"android":"levelo://app?vid=20f8ab00-fc74-4cdd-a7d8-2acda8d1d753","ios":"levelo://app?vid=20f8ab00-fc74-4cdd-a7d8-2acda8d1d753"},"vehicle_type_id":"4","last_reported":1783256808,"current_range_meters":4000,"station_id":"ce4bgj12rcd13ifvqbc0","pricing_plan_id":"cebpf4jnsgd1na2vs0mg"},{"bike_id":"b7c7c1e8-84e9-49fb-a54d-fbe5086cd61a","system_id":"levelo_inurba_marseille","lat":43.27809,"lon":5.40717,"is_reserved":false,"is_disabled":true,"rental_uris":{"android":"levelo://app?vid=b7c7c1e8-84e9-49fb-a54d-fbe5086cd61a","ios":"levelo://app?vid=b7c7c1e8-84e9-49fb-a54d-fbe5086cd61a"},"vehicle_type_id":"4","last_reported":1783256808,"current_range_meters":4000,"station_id":"ce4bhnh2rcd13ifvqgtg","pricing_plan_id":"cebpf4jnsgd1na2vs0mg"},{"bike_id":"4c907ce7-e11d-49a7-8a2b-f8e6d28203bb","system_id":"levelo_inurba_marseille","lat":43.28862,"lon":5.42537,"is_reserved":false,"is_disabled":false,"rental_uris":{"android":"levelo://app?vid=4c907ce7-e11d-49a7-8a2b-f8e6d28203bb","ios":"levelo://app?vid=4c907ce7-e11d-49a7-8a2b-f8e6d28203bb"},"vehicle_type_id":"4","last_reported":1783256808,"current_range_meters":4000,"station_id":"st_d3b462108ojc7389ooeg","pricing_plan_id":"cebpf4jnsgd1na2vs0mg"},{"bike_id":"a77df645-5a3d-4473-87f8-fcae29a5431e","system_id":"levelo_inurba_marseille","lat":43.28467,"lon":5.39191,"is_reserved":false,"is_disabled":false,"rental_uris":{"android":"levelo://app?vid=a77df645-5a3d-4473-87f8-fcae29a5431e","ios":"levelo://app?vid=a77df645-5a3d-4473-87f8-fcae29a5431e"},"vehicle_type_id":"4","last_reported":1783256808,"current_range_meters":4000,"station_id":"ce4bhoh2rcd13ifvqh5g","pricing_plan_id":"cebpf4jnsgd1na2vs0mg"},{"bike_id":"f4c490b5-dc48-483a-b891-cbc3d779a738","system_id":"levelo_inurba_marseille","lat":43.31636,"lon":5.38815,"is_reserved":false,"is_disabled":false,"rental_uris":{"android":"levelo://app?vid=f4c490b5-dc48-483a-b891-cbc3d779a738","ios":"levelo://app?vid=f4c490b5-dc48-483a-b891-cbc3d779a738"},"vehicle_type_id":"4","last_reported":1783256808,"current_range_meters":4000,"station_id":"","pricing_plan_id":"cebpf4jnsgd1na2vs0mg"},{"bike_id":"0a9ebcff-1b56-45db-9b33-1cda38943cf9","system_id":"levelo_inurba_marseille","lat":43.24453,"lon":5.40767,"is_reserved":false,"is_disabled":false,"rental_uris":{"android":"levelo://app?vid=0a9ebcff-1b56-45db-9b33-1cda38943cf9","ios":"levelo://app?vid=0a9ebcff-1b56-45db-9b33-1cda38943cf9"},"vehicle_type_id":"4","last_reported":1783256808,"current_range_meters":4000,"station_id":"","pricing_plan_id":"cebpf4jnsgd1na2vs0mg"},{"bike_id":"de76c1be-f1d0-4727-8792-90a853f6e111","system_id":"levelo_inurba_marseille","lat":43.298054,"lon":5.38115,"is_reserved":false,"is_disabled":false,"rental_uris":{"android":"levelo://app?vid=de76c1be-f1d0-4727-8792-90a853f6e111","ios":"levelo://app?vid=de76c1be-f1d0-4727-8792-90a853f6e111"},"vehicle_type_id":"4","last_reported":1783256808,"current_range_meters":4000,"station_id":"ce4bgip2rcd13ifvqbb0","pricing_plan_id":"cebpf4jnsgd1na2vs0mg"},{"bike_id":"afc26b3c-afb3-4f24-a125-d0aec1cd5a1e","system_id":"levelo_inurba_marseille","lat":43.29801,"lon":5.36227,"is_reserved":false,"is_disabled":false,"rental_uris":{"android":"levelo://app?vid=afc26b3c-afb3-4f24-a125-d0aec1cd5a1e","ios":"levelo://app?vid=afc26b3c-afb3-4f24-a125-d0aec1cd5a1e"},"vehicle_type_id":"4","last_reported":1783256808,"current_range_meters":4000,"station_id":"ce4bgpp2rcd13ifvqc3g","pricing_plan_id":"cebpf4jnsgd1na2vs0mg"},{"bike_id":"190f53f5-1748-48a1-9fe2-500cc8cefa8e","system_id":"levelo_inurba_marseille","lat":43.32549,"lon":5.36553,"is_reserved":false,"is_disabled":false,"rental_uris":{"android":"levelo://app?vid=190f53f5-1748-48a1-9fe2-500cc8cefa8e","ios":"levelo://app?vid=190f53f5-1748-48a1-9fe2-500cc8cefa8e"},"vehicle_type_id":"4","last_reported":1783256808,"current_range_meters":4000,"station_id":"","pricing_plan_id":"cebpf4jnsgd1na2vs0mg"},{"bike_id":"5658cfe3-ed59-45e9-8a44-0561163fcd3f","system_id":"levelo_inurba_marseille","lat":43.30838,"lon":5.40489,"is_reserved":false,"is_disabled":false,"rental_uris":{"android":"levelo://app?vid=5658cfe3-ed59-45e9-8a44-0561163fcd3f","ios":"levelo://app?vid=5658cfe3-ed59-45e9-8a44-0561163fcd3f"},"vehicle_type_id":"4","last_reported":1783256808,"current_range_meters":4000,"station_id":"","pricing_plan_id":"cebpf4jnsgd1na2vs0mg"},{"bike_id":"c0643689-abcd-49c5-86ec-fde085ff4591","system_id":"levelo_inurba_marseille","lat":43.2439,"lon":5.37061,"is_reserved":false,"is_disabled":false,"rental_uris":{"android":"levelo://app?vid=c0643689-abcd-49c5-86ec-fde085ff4591","ios":"levelo://app?vid=c0643689-abcd-49c5-86ec-fde085ff4591"},"vehicle_type_id":"4","last_reported":1783256808,"current_range_meters":4000,"station_id":"ce4bhhh2rcd13ifvqfk0","pricing_plan_id":"cebpf4jnsgd1na2vs0mg"},{"bike_id":"cdb96f67-4069-4baa-a896-228f7764dacd","system_id":"levelo_inurba_marseille","lat":43.29575,"lon":5.37863,"is_reserved":false,"is_disabled":false,"rental_uris":{"android":"levelo://app?vid=cdb96f67-4069-4baa-a896-228f7764dacd","ios":"levelo://app?vid=cdb96f67-4069-4baa-a896-228f7764dacd"},"vehicle_type_id":"4","last_reported":1783256808,"current_range_meters":4400,"station_id":"","pricing_plan_id":"cebpf4jnsgd1na2vs0mg"},{"bike_id":"3bc6d12d-59c0-4162-9cda-07f3d37dc2e0","system_id":"levelo_inurba_marseille","lat":43.24427,"lon":5.40285,"is_reserved":false,"is_disabled":false,"rental_uris":{"android":"levelo://app?vid=3bc6d12d-59c0-4162-9cda-07f3d37dc2e0","ios":"levelo://app?vid=3bc6d12d-59c0-4162-9cda-07f3d37dc2e0"},"vehicle_type_id":"4","last_reported":1783256808,"current_range_meters":4400,"station_id":"","pricing_plan_id":"cebpf4jnsgd1na2vs0mg"},{"bike_id":"b2206209-3ca9-41e2-80e2-68b97279a6f4","system_id":"levelo_inurba_marseille","lat":43.24724,"lon":5.38142,"is_reserved":false,"is_disabled":false,"rental_uris":{"android":"levelo://app?vid=b2206209-3ca9-41e2-80e2-68b97279a6f4","ios":"levelo://app?vid=b2206209-3ca9-41e2-80e2-68b97279a6f4"},"vehicle_type_id":"4","last_reported":1783256808,"current_range_meters":4400,"station_id":"","pricing_plan_id":"cebpf4jnsgd1na2vs0mg"},{"bike_id":"0df3073c-4d91-4aad-99ca-3266164a2dbe","system_id":"levelo_inurba_marseille","lat":43.28402,"lon":5.3752,"is_reserved":false,"is_disabled":true,"rental_uris":{"android":"levelo://app?vid=0df3073c-4d91-4aad-99ca-3266164a2dbe","ios":"levelo://app?vid=0df3073c-4d91-4aad-99ca-3266164a2dbe"},"vehicle_type_id":"4","last_reported":1783256808,"current_range_meters":4400,"station_id":"ce4bh412rcd13ifvqds0","pricing_plan_id":"cebpf4jnsgd1na2vs0mg"},{"bike_id":"a5ec9e1c-2bb9-4fc8-9fad-6f1a5d35bb6b","system_id":"levelo_inurba_marseille","lat":43.29828,"lon":5.37863,"is_reserved":false,"is_disabled":false,"rental_uris":{"android":"levelo://app?vid=a5ec9e1c-2bb9-4fc8-9fad-6f1a5d35bb6b","ios":"levelo://app?vid=a5ec9e1c-2bb9-4fc8-9fad-6f1a5d35bb6b"},"vehicle_type_id":"4","last_reported":1783256808,"current_range_meters":4400,"station_id":"","pricing_plan_id":"cebpf4jnsgd1na2vs0mg"},{"bike_id":"99e93820-d80d-42e1-9f2c-86076952350c","system_id":"levelo_inurba_marseille","lat":43.29256,"lon":5.409,"is_reserved":false,"is_disabled":false,"rental_uris":{"android":"levelo://app?vid=99e93820-d80d-42e1-9f2c-86076952350c","ios":"levelo://app?vid=99e93820-d80d-42e1-9f2c-86076952350c"},"vehicle_type_id":"4","last_reported":1783256808,"current_range_meters":4400,"station_id":"ce4bh192rcd13ifvqdc0","pricing_plan_id":"cebpf4jnsgd1na2vs0mg"},{"bike_id":"9721af8c-8419-4a7c-ac70-241e4be05937","system_id":"levelo_inurba_marseille","lat":43.24629,"lon":5.4317,"is_reserved":false,"is_disabled":false,"rental_uris":{"android":"levelo://app?vid=9721af8c-8419-4a7c-ac70-241e4be05937","ios":"levelo://app?vid=9721af8c-8419-4a7c-ac70-241e4be05937"},"vehicle_type_id":"4","last_reported":1783256808,"current_range_meters":4400,"station_id":"st_d2m6c4gdas8pm72e190g","pricing_plan_id":"cebpf4jnsgd1na2vs0mg"},{"bike_id":"3403c1be-a548-49ed-b8fa-161da6d67db3","system_id":"levelo_inurba_marseille","lat":43.21748,"lon":5.34594,"is_reserved":false,"is_disabled":false,"rental_uris":{"android":"levelo://app?vid=3403c1be-a548-49ed-b8fa-161da6d67db3","ios":"levelo://app?vid=3403c1be-a548-49ed-b8fa-161da6d67db3"},"vehicle_type_id":"4","last_reported":1783256808,"current_range_meters":4400,"station_id":"st_cvj6r9ubvosntc0bgbag","pricing_plan_id":"cebpf4jnsgd1na2vs0mg"},{"bike_id":"093f2aee-57dd-4ef8-94a9-d1c03b3fa122","system_id":"levelo_inurba_marseille","lat":43.27507,"lon":5.42438,"is_reserved":false,"is_disabled":false,"rental_uris":{"android":"levelo://app?vid=093f2aee-57dd-4ef8-94a9-d1c03b3fa122","ios":"levelo://app?vid=093f2aee-57dd-4ef8-94a9-d1c03b3fa122"},"vehicle_type_id":"4","last_reported":1783256808,"current_range_meters":4400,"station_id":"ce4bhn92rcd13ifvqgrg","pricing_plan_id":"cebpf4jnsgd1na2vs0mg"},{"bike_id":"c0080d7a-1f56-488a-9914-bd2925216be0","system_id":"levelo_inurba_marseille","lat":43.22549,"lon":5.41639,"is_reserved":false,"is_disabled":false,"rental_uris":{"android":"levelo://app?vid=c0080d7a-1f56-488a-9914-bd2925216be0","ios":"levelo://app?vid=c0080d7a-1f56-488a-9914-bd2925216be0"},"vehicle_type_id":"4","last_reported":1783256808,"current_range_meters":4400,"station_id":"st_d2o4gvlbi1j2169b742g","pricing_plan_id":"cebpf4jnsgd1na2vs0mg"},{"bike_id":"fe2f0279-1f03-4e44-b147-ac7c214b831e","system_id":"levelo_inurba_marseille","lat":43.28419,"lon":5.34996,"is_reserved":false,"is_disabled":false,"rental_uris":{"android":"levelo://app?vid=fe2f0279-1f03-4e44-b147-ac7c214b831e","ios":"levelo://app?vid=fe2f0279-1f03-4e44-b147-ac7c214b831e"},"vehicle_type_id":"4","last_reported":1783256808,"current_range_meters":4400,"station_id":"ce4bhbh2rcd13ifvqepg","pricing_plan_id":"cebpf4jnsgd1na2vs0mg"},{"bike_id":"053ac7f0-2661-4959-8f04-39a48999ab79","system_id":"levelo_inurba_marseille","lat":43.24666,"lon":5.38151,"is_reserved":false,"is_disabled":false,"rental_uris":{"android":"levelo://app?vid=053ac7f0-2661-4959-8f04-39a48999ab79","ios":"levelo://app?vid=053ac7f0-2661-4959-8f04-39a48999ab79"},"vehicle_type_id":"4","last_reported":1783256808,"current_range_meters":4400,"station_id":"ce4bhih2rcd13ifvqfr0","pricing_plan_id":"cebpf4jnsgd1na2vs0mg"},{"bike_id":"3af208fb-ed62-4f29-bcd1-b301d13a9628","system_id":"levelo_inurba_marseille","lat":43.28382,"lon":5.36517,"is_reserved":false,"is_disabled":false,"rental_uris":{"android":"levelo://app?vid=3af208fb-ed62-4f29-bcd1-b301d13a9628","ios":"levelo://app?vid=3af208fb-ed62-4f29-bcd1-b301d13a9628"},"vehicle_type_id":"4","last_reported":1783256808,"current_range_meters":4400,"station_id":"","pricing_plan_id":"cebpf4jnsgd1na2vs0mg"},{"bike_id":"68bb8da2-8db8-44f6-9935-ac67224c4048","system_id":"levelo_inurba_marseille","lat":43.21743,"lon":5.34619,"is_reserved":false,"is_disabled":false,"rental_uris":{"android":"levelo://app?vid=68bb8da2-8db8-44f6-9935-ac67224c4048","ios":"levelo://app?vid=68bb8da2-8db8-44f6-9935-ac67224c4048"},"vehicle_type_id":"4","last_reported":1783256808,"current_range_meters":4800,"station_id":"st_cvj6r9ubvosntc0bgbag","pricing_plan_id":"cebpf4jnsgd1na2vs0mg"},{"bike_id":"8fee7d24-2407-40c0-82b1-3dfb558327f1","system_id":"levelo_inurba_marseille","lat":43.27851,"lon":5.40701,"is_reserved":false,"is_disabled":false,"rental_uris":{"android":"levelo://app?vid=8fee7d24-2407-40c0-82b1-3dfb558327f1","ios":"levelo://app?vid=8fee7d24-2407-40c0-82b1-3dfb558327f1"},"vehicle_type_id":"4","last_reported":1783256808,"current_range_meters":4800,"station_id":"ce4bhnh2rcd13ifvqgtg","pricing_plan_id":"cebpf4jnsgd1na2vs0mg"},{"bike_id":"f32649e7-7632-4652-b17b-3ae6b603dcc2","system_id":"levelo_inurba_marseille","lat":43.32137,"lon":5.36744,"is_reserved":false,"is_disabled":false,"rental_uris":{"android":"levelo://app?vid=f32649e7-7632-4652-b17b-3ae6b603dcc2","ios":"levelo://app?vid=f32649e7-7632-4652-b17b-3ae6b603dcc2"},"vehicle_type_id":"4","last_reported":1783256808,"current_range_meters":4800,"station_id":"","pricing_plan_id":"cebpf4jnsgd1na2vs0mg"},{"bike_id":"a82796c5-40ef-4807-b26d-66152c959991","system_id":"levelo_inurba_marseille","lat":43.28001,"lon":5.39873,"is_reserved":false,"is_disabled":false,"rental_uris":{"android":"levelo://app?vid=a82796c5-40ef-4807-b26d-66152c959991","ios":"levelo://app?vid=a82796c5-40ef-4807-b26d-66152c959991"},"vehicle_type_id":"4","last_reported":1783256808,"current_range_meters":4800,"station_id":"","pricing_plan_id":"cebpf4jnsgd1na2vs0mg"},{"bike_id":"b74986d2-a017-40be-8756-6f69c7af4c8a","system_id":"levelo_inurba_marseille","lat":43.29253,"lon":5.36046,"is_reserved":false,"is_disabled":true,"rental_uris":{"android":"levelo://app?vid=b74986d2-a017-40be-8756-6f69c7af4c8a","ios":"levelo://app?vid=b74986d2-a017-40be-8756-6f69c7af4c8a"},"vehicle_type_id":"4","last_reported":1783256808,"current_range_meters":4800,"station_id":"ce4bhbh2rcd13ifvqeqg","pricing_plan_id":"cebpf4jnsgd1na2vs0mg"},{"bike_id":"de6914c1-a127-4bad-9192-c1a2795bb81d","system_id":"levelo_inurba_marseille","lat":43.21203,"lon":5.35068,"is_reserved":false,"is_disabled":false,"rental_uris":{"android":"levelo://app?vid=de6914c1-a127-4bad-9192-c1a2795bb81d","ios":"levelo://app?vid=de6914c1-a127-4bad-9192-c1a2795bb81d"},"vehicle_type_id":"4","last_reported":1783256808,"current_range_meters":4800,"station_id":"st_cvj6sg6p6f1abm77japg","pricing_plan_id":"cebpf4jnsgd1na2vs0mg"},{"bike_id":"40c60d26-7793-4225-aaf2-3a67b9faf4fc","system_id":"levelo_inurba_marseille","lat":43.23478,"lon":5.38053,"is_reserved":false,"is_disabled":false,"rental_uris":{"android":"levelo://app?vid=40c60d26-7793-4225-aaf2-3a67b9faf4fc","ios":"levelo://app?vid=40c60d26-7793-4225-aaf2-3a67b9faf4fc"},"vehicle_type_id":"4","last_reported":1783256808,"current_range_meters":4800,"station_id":"","pricing_plan_id":"cebpf4jnsgd1na2vs0mg"},{"bike_id":"088182ea-2bd6-40ef-86b0-d95840f0c12b","system_id":"levelo_inurba_marseille","lat":43.26949,"lon":5.38628,"is_reserved":false,"is_disabled":false,"rental_uris":{"android":"levelo://app?vid=088182ea-2bd6-40ef-86b0-d95840f0c12b","ios":"levelo://app?vid=088182ea-2bd6-40ef-86b0-d95840f0c12b"},"vehicle_type_id":"4","last_reported":1783256808,"current_range_meters":4800,"station_id":"ce4bhh92rcd13ifvqfh0","pricing_plan_id":"cebpf4jnsgd1na2vs0mg"},{"bike_id":"16b653a5-8438-42da-8c11-4595940aa2a0","system_id":"levelo_inurba_marseille","lat":43.28259,"lon":5.35083,"is_reserved":false,"is_disabled":false,"rental_uris":{"android":"levelo://app?vid=16b653a5-8438-42da-8c11-4595940aa2a0","ios":"levelo://app?vid=16b653a5-8438-42da-8c11-4595940aa2a0"},"vehicle_type_id":"4","last_reported":1783256808,"current_range_meters":4800,"station_id":"ce4bhbp2rcd13ifvqerg","pricing_plan_id":"cebpf4jnsgd1na2vs0mg"},{"bike_id":"e2770b29-2b53-4a1b-b237-7b8799569b06","system_id":"levelo_inurba_marseille","lat":43.29526,"lon":5.394,"is_reserved":false,"is_disabled":true,"rental_uris":{"android":"levelo://app?vid=e2770b29-2b53-4a1b-b237-7b8799569b06","ios":"levelo://app?vid=e2770b29-2b53-4a1b-b237-7b8799569b06"},"vehicle_type_id":"4","last_reported":1783256808,"current_range_meters":4800,"station_id":"ce4bh292rcd13ifvqdf0","pricing_plan_id":"cebpf4jnsgd1na2vs0mg"},{"bike_id":"57d9c15b-7c63-477b-8ce1-278b28289b8f","system_id":"levelo_inurba_marseille","lat":43.27388,"lon":5.36261,"is_reserved":false,"is_disabled":false,"rental_uris":{"android":"levelo://app?vid=57d9c15b-7c63-477b-8ce1-278b28289b8f","ios":"levelo://app?vid=57d9c15b-7c63-477b-8ce1-278b28289b8f"},"vehicle_type_id":"4","last_reported":1783256808,"current_range_meters":4800,"station_id":"ce4bhbh2rcd13ifvqeo0","pricing_plan_id":"cebpf4jnsgd1na2vs0mg"},{"bike_id":"8c51c550-068e-4ee8-9e6b-2b6156bd353f","system_id":"levelo_inurba_marseille","lat":43.30175,"lon":5.36661,"is_reserved":false,"is_disabled":true,"rental_uris":{"android":"levelo://app?vid=8c51c550-068e-4ee8-9e6b-2b6156bd353f","ios":"levelo://app?vid=8c51c550-068e-4ee8-9e6b-2b6156bd353f"},"vehicle_type_id":"4","last_reported":1783256808,"current_range_meters":4800,"station_id":"ce4bgrh2rcd13ifvqc8g","pricing_plan_id":"cebpf4jnsgd1na2vs0mg"},{"bike_id":"0fdbc3ef-7188-40c6-a067-aca72c198ee6","system_id":"levelo_inurba_marseille","lat":43.23197,"lon":5.35554,"is_reserved":false,"is_disabled":false,"rental_uris":{"android":"levelo://app?vid=0fdbc3ef-7188-40c6-a067-aca72c198ee6","ios":"levelo://app?vid=0fdbc3ef-7188-40c6-a067-aca72c198ee6"},"vehicle_type_id":"4","last_reported":1783256808,"current_range_meters":4800,"station_id":"ce4bhu92rcd13ifvqi70","pricing_plan_id":"cebpf4jnsgd1na2vs0mg"},{"bike_id":"910a0e56-3842-458a-b929-4deeebc2ab76","system_id":"levelo_inurba_marseille","lat":43.21187,"lon":5.35074,"is_reserved":false,"is_disabled":false,"rental_uris":{"android":"levelo://app?vid=910a0e56-3842-458a-b929-4deeebc2ab76","ios":"levelo://app?vid=910a0e56-3842-458a-b929-4deeebc2ab76"},"vehicle_type_id":"4","last_reported":1783256808,"current_range_meters":4800,"station_id":"st_cvj6sg6p6f1abm77japg","pricing_plan_id":"cebpf4jnsgd1na2vs0mg"},{"bike_id":"d1cdcfbb-a242-478a-9f0c-9ee2c708daa5","system_id":"levelo_inurba_marseille","lat":43.33008,"lon":5.3902,"is_reserved":false,"is_disabled":false,"rental_uris":{"android":"levelo://app?vid=d1cdcfbb-a242-478a-9f0c-9ee2c708daa5","ios":"levelo://app?vid=d1cdcfbb-a242-478a-9f0c-9ee2c708daa5"},"vehicle_type_id":"4","last_reported":1783256808,"current_range_meters":4800,"station_id":"ce4bhr92rcd13ifvqhrg","pricing_plan_id":"cebpf4jnsgd1na2vs0mg"},{"bike_id":"d6788e7d-6ca0-41b0-9b54-a846cce64917","system_id":"levelo_inurba_marseille","lat":43.26592,"lon":5.39044,"is_reserved":false,"is_disabled":false,"rental_uris":{"android":"levelo://app?vid=d6788e7d-6ca0-41b0-9b54-a846cce64917","ios":"levelo://app?vid=d6788e7d-6ca0-41b0-9b54-a846cce64917"},"vehicle_type_id":"4","last_reported":1783256808,"current_range_meters":4800,"station_id":"","pricing_plan_id":"cebpf4jnsgd1na2vs0mg"},{"bike_id":"3ccbf15d-251b-4ab8-91b9-371c1e19fbde","system_id":"levelo_inurba_marseille","lat":43.21719,"lon":5.34619,"is_reserved":false,"is_disabled":false,"rental_uris":{"android":"levelo://app?vid=3ccbf15d-251b-4ab8-91b9-371c1e19fbde","ios":"levelo://app?vid=3ccbf15d-251b-4ab8-91b9-371c1e19fbde"},"vehicle_type_id":"4","last_reported":1783256808,"current_range_meters":4800,"station_id":"st_cvj6r9ubvosntc0bgbag","pricing_plan_id":"cebpf4jnsgd1na2vs0mg"},{"bike_id":"ffea6b56-400a-490d-82be-58d6b97c6449","system_id":"levelo_inurba_marseille","lat":43.28866,"lon":5.42532,"is_reserved":false,"is_disabled":false,"rental_uris":{"android":"levelo://app?vid=ffea6b56-400a-490d-82be-58d6b97c6449","ios":"levelo://app?vid=ffea6b56-400a-490d-82be-58d6b97c6449"},"vehicle_type_id":"4","last_reported":1783256808,"current_range_meters":4800,"station_id":"st_d3b462108ojc7389ooeg","pricing_plan_id":"cebpf4jnsgd1na2vs0mg"},{"bike_id":"cfededdf-d184-49a5-9a38-77d80de7a8f0","system_id":"levelo_inurba_marseille","lat":43.24397,"lon":5.37073,"is_reserved":false,"is_disabled":false,"rental_uris":{"android":"levelo://app?vid=cfededdf-d184-49a5-9a38-77d80de7a8f0","ios":"levelo://app?vid=cfededdf-d184-49a5-9a38-77d80de7a8f0"},"vehicle_type_id":"4","last_reported":1783256808,"current_range_meters":4800,"station_id":"ce4bhhh2rcd13ifvqfk0","pricing_plan_id":"cebpf4jnsgd1na2vs0mg"},{"bike_id":"e4ee63c7-9eff-4911-8f46-91d4a1859e49","system_id":"levelo_inurba_marseille","lat":43.21194,"lon":5.35077,"is_reserved":false,"is_disabled":false,"rental_uris":{"android":"levelo://app?vid=e4ee63c7-9eff-4911-8f46-91d4a1859e49","ios":"levelo://app?vid=e4ee63c7-9eff-4911-8f46-91d4a1859e49"},"vehicle_type_id":"4","last_reported":1783256808,"current_range_meters":4800,"station_id":"st_cvj6sg6p6f1abm77japg","pricing_plan_id":"cebpf4jnsgd1na2vs0mg"},{"bike_id":"a8630b62-777a-4641-a240-5e6176515018","system_id":"levelo_inurba_marseille","lat":43.30924,"lon":5.40134,"is_reserved":false,"is_disabled":false,"rental_uris":{"android":"levelo://app?vid=a8630b62-777a-4641-a240-5e6176515018","ios":"levelo://app?vid=a8630b62-777a-4641-a240-5e6176515018"},"vehicle_type_id":"4","last_reported":1783256808,"current_range_meters":4800,"station_id":"ce4bgvp2rcd13ifvqct0","pricing_plan_id":"cebpf4jnsgd1na2vs0mg"},{"bike_id":"2f1e7c27-cdbb-4552-bcb6-438088afd41d","system_id":"levelo_inurba_marseille","lat":43.297995,"lon":5.381091,"is_reserved":false,"is_disabled":false,"rental_uris":{"android":"levelo://app?vid=2f1e7c27-cdbb-4552-bcb6-438088afd41d","ios":"levelo://app?vid=2f1e7c27-cdbb-4552-bcb6-438088afd41d"},"vehicle_type_id":"4","last_reported":1783256808,"current_range_meters":5600,"station_id":"ce4bgl12rcd13ifvqbo0","pricing_plan_id":"cebpf4jnsgd1na2vs0mg"},{"bike_id":"25801e0a-e313-4f6c-8662-d1791b0082b9","system_id":"levelo_inurba_marseille","lat":43.25115,"lon":5.40323,"is_reserved":false,"is_disabled":false,"rental_uris":{"android":"levelo://app?vid=25801e0a-e313-4f6c-8662-d1791b0082b9","ios":"levelo://app?vid=25801e0a-e313-4f6c-8662-d1791b0082b9"},"vehicle_type_id":"4","last_reported":1783256808,"current_range_meters":5600,"station_id":"ce4bhlh2rcd13ifvqgig","pricing_plan_id":"cebpf4jnsgd1na2vs0mg"},{"bike_id":"6bfed8b6-c2f0-4dd2-afe2-1ed7b81e9669","system_id":"levelo_inurba_marseille","lat":43.23969,"lon":5.36628,"is_reserved":false,"is_disabled":false,"rental_uris":{"android":"levelo://app?vid=6bfed8b6-c2f0-4dd2-afe2-1ed7b81e9669","ios":"levelo://app?vid=6bfed8b6-c2f0-4dd2-afe2-1ed7b81e9669"},"vehicle_type_id":"4","last_reported":1783256808,"current_range_meters":5600,"station_id":"ce4bhi12rcd13ifvqfp0","pricing_plan_id":"cebpf4jnsgd1na2vs0mg"},{"bike_id":"fcab8291-54cf-4f07-b71f-72d3463ad791","system_id":"levelo_inurba_marseille","lat":43.25583,"lon":5.38251,"is_reserved":false,"is_disabled":false,"rental_uris":{"android":"levelo://app?vid=fcab8291-54cf-4f07-b71f-72d3463ad791","ios":"levelo://app?vid=fcab8291-54cf-4f07-b71f-72d3463ad791"},"vehicle_type_id":"4","last_reported":1783256808,"current_range_meters":5600,"station_id":"ce4bhih2rcd13ifvqfs0","pricing_plan_id":"cebpf4jnsgd1na2vs0mg"},{"bike_id":"98d9ab63-952f-49d0-8775-50ac81ca5fd7","system_id":"levelo_inurba_marseille","lat":43.30924,"lon":5.37497,"is_reserved":false,"is_disabled":false,"rental_uris":{"android":"levelo://app?vid=98d9ab63-952f-49d0-8775-50ac81ca5fd7","ios":"levelo://app?vid=98d9ab63-952f-49d0-8775-50ac81ca5fd7"},"vehicle_type_id":"4","last_reported":1783256808,"current_range_meters":5600,"station_id":"","pricing_plan_id":"cebpf4jnsgd1na2vs0mg"},{"bike_id":"4c4e2f1a-d78a-450d-8bca-dbfc6ce53623","system_id":"levelo_inurba_marseille","lat":43.29028,"lon":5.38127,"is_reserved":false,"is_disabled":false,"rental_uris":{"android":"levelo://app?vid=4c4e2f1a-d78a-450d-8bca-dbfc6ce53623","ios":"levelo://app?vid=4c4e2f1a-d78a-450d-8bca-dbfc6ce53623"},"vehicle_type_id":"4","last_reported":1783256808,"current_range_meters":5600,"station_id":"ce4bh4p2rcd13ifvqe1g","pricing_plan_id":"cebpf4jnsgd1na2vs0mg"},{"bike_id":"558cffce-bef5-4f7b-b636-7f88d54a4bba","system_id":"levelo_inurba_marseille","lat":43.21263,"lon":5.35064,"is_reserved":false,"is_disabled":false,"rental_uris":{"android":"levelo://app?vid=558cffce-bef5-4f7b-b636-7f88d54a4bba","ios":"levelo://app?vid=558cffce-bef5-4f7b-b636-7f88d54a4bba"},"vehicle_type_id":"4","last_reported":1783256808,"current_range_meters":5600,"station_id":"","pricing_plan_id":"cebpf4jnsgd1na2vs0mg"},{"bike_id":"bde4fe8f-be40-4b5e-85e0-e4fdf22fb694","system_id":"levelo_inurba_marseille","lat":43.29281,"lon":5.36847,"is_reserved":false,"is_disabled":true,"rental_uris":{"android":"levelo://app?vid=bde4fe8f-be40-4b5e-85e0-e4fdf22fb694","ios":"levelo://app?vid=bde4fe8f-be40-4b5e-85e0-e4fdf22fb694"},"vehicle_type_id":"4","last_reported":1783256808,"current_range_meters":5600,"station_id":"ce4bhbp2rcd13ifvqesg","pricing_plan_id":"cebpf4jnsgd1na2vs0mg"},{"bike_id":"9d2eadd5-f5c0-4915-bb50-65d143b9507c","system_id":"levelo_inurba_marseille","lat":43.28533,"lon":5.44105,"is_reserved":false,"is_disabled":false,"rental_uris":{"android":"levelo://app?vid=9d2eadd5-f5c0-4915-bb50-65d143b9507c","ios":"levelo://app?vid=9d2eadd5-f5c0-4915-bb50-65d143b9507c"},"vehicle_type_id":"4","last_reported":1783256808,"current_range_meters":5600,"station_id":"st_d3j3df2ikq2c7380ej80","pricing_plan_id":"cebpf4jnsgd1na2vs0mg"},{"bike_id":"87598ed7-b27b-4140-aaea-c015765247bb","system_id":"levelo_inurba_marseille","lat":43.21172,"lon":5.35086,"is_reserved":false,"is_disabled":false,"rental_uris":{"android":"levelo://app?vid=87598ed7-b27b-4140-aaea-c015765247bb","ios":"levelo://app?vid=87598ed7-b27b-4140-aaea-c015765247bb"},"vehicle_type_id":"4","last_reported":1783256808,"current_range_meters":5600,"station_id":"st_cvj6sg6p6f1abm77japg","pricing_plan_id":"cebpf4jnsgd1na2vs0mg"},{"bike_id":"7a71c416-c3b5-4289-ad0e-531bcb18f06d","system_id":"levelo_inurba_marseille","lat":43.33158,"lon":5.37719,"is_reserved":false,"is_disabled":false,"rental_uris":{"android":"levelo://app?vid=7a71c416-c3b5-4289-ad0e-531bcb18f06d","ios":"levelo://app?vid=7a71c416-c3b5-4289-ad0e-531bcb18f06d"},"vehicle_type_id":"4","last_reported":1783256808,"current_range_meters":5600,"station_id":"st_d46cu089ee8s73dldbu0","pricing_plan_id":"cebpf4jnsgd1na2vs0mg"},{"bike_id":"96c8693b-b989-4afb-b270-4ead78d811ff","system_id":"levelo_inurba_marseille","lat":43.28264,"lon":5.35089,"is_reserved":false,"is_disabled":false,"rental_uris":{"android":"levelo://app?vid=96c8693b-b989-4afb-b270-4ead78d811ff","ios":"levelo://app?vid=96c8693b-b989-4afb-b270-4ead78d811ff"},"vehicle_type_id":"4","last_reported":1783256808,"current_range_meters":5600,"station_id":"ce4bhbp2rcd13ifvqerg","pricing_plan_id":"cebpf4jnsgd1na2vs0mg"},{"bike_id":"637ca6f2-621c-4ae1-adb4-7b5112bde475","system_id":"levelo_inurba_marseille","lat":43.28656,"lon":5.36352,"is_reserved":false,"is_disabled":true,"rental_uris":{"android":"levelo://app?vid=637ca6f2-621c-4ae1-adb4-7b5112bde475","ios":"levelo://app?vid=637ca6f2-621c-4ae1-adb4-7b5112bde475"},"vehicle_type_id":"4","last_reported":1783256808,"current_range_meters":5600,"station_id":"ce4bhah2rcd13ifvqej0","pricing_plan_id":"cebpf4jnsgd1na2vs0mg"},{"bike_id":"7fcca41e-2146-47b2-bf38-372ba8763a88","system_id":"levelo_inurba_marseille","lat":43.27978,"lon":5.41687,"is_reserved":false,"is_disabled":false,"rental_uris":{"android":"levelo://app?vid=7fcca41e-2146-47b2-bf38-372ba8763a88","ios":"levelo://app?vid=7fcca41e-2146-47b2-bf38-372ba8763a88"},"vehicle_type_id":"4","last_reported":1783256808,"current_range_meters":5600,"station_id":"ce4bho12rcd13ifvqh1g","pricing_plan_id":"cebpf4jnsgd1na2vs0mg"},{"bike_id":"9efeb665-6ac9-4e70-ba70-20bf3b204b4c","system_id":"levelo_inurba_marseille","lat":43.299059,"lon":5.381578,"is_reserved":false,"is_disabled":false,"rental_uris":{"android":"levelo://app?vid=9efeb665-6ac9-4e70-ba70-20bf3b204b4c","ios":"levelo://app?vid=9efeb665-6ac9-4e70-ba70-20bf3b204b4c"},"vehicle_type_id":"4","last_reported":1783256808,"current_range_meters":5600,"station_id":"ce4bgip2rcd13ifvqbb0","pricing_plan_id":"cebpf4jnsgd1na2vs0mg"},{"bike_id":"69e417ad-b027-4e19-ab2c-a27b60962176","system_id":"levelo_inurba_marseille","lat":43.33524,"lon":5.37455,"is_reserved":false,"is_disabled":false,"rental_uris":{"android":"levelo://app?vid=69e417ad-b027-4e19-ab2c-a27b60962176","ios":"levelo://app?vid=69e417ad-b027-4e19-ab2c-a27b60962176"},"vehicle_type_id":"4","last_reported":1783256808,"current_range_meters":5600,"station_id":"st_d46tts09ee8s73dlu43g","pricing_plan_id":"cebpf4jnsgd1na2vs0mg"},{"bike_id":"0e329229-8565-4a9d-b593-532bd3ccbaef","system_id":"levelo_inurba_marseille","lat":43.31233,"lon":5.38779,"is_reserved":false,"is_disabled":false,"rental_uris":{"android":"levelo://app?vid=0e329229-8565-4a9d-b593-532bd3ccbaef","ios":"levelo://app?vid=0e329229-8565-4a9d-b593-532bd3ccbaef"},"vehicle_type_id":"4","last_reported":1783256808,"current_range_meters":6000,"station_id":"","pricing_plan_id":"cebpf4jnsgd1na2vs0mg"},{"bike_id":"183aea5c-d661-450f-b481-dd58e2ca7c18","system_id":"levelo_inurba_marseille","lat":43.30537,"lon":5.36567,"is_reserved":false,"is_disabled":false,"rental_uris":{"android":"levelo://app?vid=183aea5c-d661-450f-b481-dd58e2ca7c18","ios":"levelo://app?vid=183aea5c-d661-450f-b481-dd58e2ca7c18"},"vehicle_type_id":"4","last_reported":1783256808,"current_range_meters":6000,"station_id":"ce4bgs12rcd13ifvqcag","pricing_plan_id":"cebpf4jnsgd1na2vs0mg"},{"bike_id":"90956858-67b4-4bbd-82de-736588e9511e","system_id":"levelo_inurba_marseille","lat":43.2255,"lon":5.41626,"is_reserved":false,"is_disabled":false,"rental_uris":{"android":"levelo://app?vid=90956858-67b4-4bbd-82de-736588e9511e","ios":"levelo://app?vid=90956858-67b4-4bbd-82de-736588e9511e"},"vehicle_type_id":"4","last_reported":1783256808,"current_range_meters":6000,"station_id":"st_d2o4gvlbi1j2169b742g","pricing_plan_id":"cebpf4jnsgd1na2vs0mg"},{"bike_id":"4c4f87e3-f39e-4907-a603-871d43ed3075","system_id":"levelo_inurba_marseille","lat":43.29846,"lon":5.36293,"is_reserved":false,"is_disabled":false,"rental_uris":{"android":"levelo://app?vid=4c4f87e3-f39e-4907-a603-871d43ed3075","ios":"levelo://app?vid=4c4f87e3-f39e-4907-a603-871d43ed3075"},"vehicle_type_id":"4","last_reported":1783256808,"current_range_meters":6000,"station_id":"ce4bgpp2rcd13ifvqc3g","pricing_plan_id":"cebpf4jnsgd1na2vs0mg"},{"bike_id":"88634da4-5d5a-4c95-95d4-0e111a943869","system_id":"levelo_inurba_marseille","lat":43.3229,"lon":5.38282,"is_reserved":false,"is_disabled":false,"rental_uris":{"android":"levelo://app?vid=88634da4-5d5a-4c95-95d4-0e111a943869","ios":"levelo://app?vid=88634da4-5d5a-4c95-95d4-0e111a943869"},"vehicle_type_id":"4","last_reported":1783256808,"current_range_meters":6000,"station_id":"ce4bhr12rcd13ifvqhqg","pricing_plan_id":"cebpf4jnsgd1na2vs0mg"},{"bike_id":"f803775f-8fe2-4d7e-82f4-f1c4f606bb2a","system_id":"levelo_inurba_marseille","lat":43.28158,"lon":5.42643,"is_reserved":false,"is_disabled":false,"rental_uris":{"android":"levelo://app?vid=f803775f-8fe2-4d7e-82f4-f1c4f606bb2a","ios":"levelo://app?vid=f803775f-8fe2-4d7e-82f4-f1c4f606bb2a"},"vehicle_type_id":"4","last_reported":1783256808,"current_range_meters":6000,"station_id":"ce4bhnh2rcd13ifvqgug","pricing_plan_id":"cebpf4jnsgd1na2vs0mg"},{"bike_id":"30e5b618-0263-40cd-a20a-4da69594c6a8","system_id":"levelo_inurba_marseille","lat":43.3061,"lon":5.3722,"is_reserved":false,"is_disabled":false,"rental_uris":{"android":"levelo://app?vid=30e5b618-0263-40cd-a20a-4da69594c6a8","ios":"levelo://app?vid=30e5b618-0263-40cd-a20a-4da69594c6a8"},"vehicle_type_id":"4","last_reported":1783256808,"current_range_meters":6000,"station_id":"ce4bgqh2rcd13ifvqc4g","pricing_plan_id":"cebpf4jnsgd1na2vs0mg"},{"bike_id":"defe664f-116a-400b-aa68-5aba6647b941","system_id":"levelo_inurba_marseille","lat":43.29305,"lon":5.44583,"is_reserved":false,"is_disabled":false,"rental_uris":{"android":"levelo://app?vid=defe664f-116a-400b-aa68-5aba6647b941","ios":"levelo://app?vid=defe664f-116a-400b-aa68-5aba6647b941"},"vehicle_type_id":"4","last_reported":1783256808,"current_range_meters":6000,"station_id":"","pricing_plan_id":"cebpf4jnsgd1na2vs0mg"},{"bike_id":"65392fcd-1ac7-4e71-a7e6-d798a3ac0b61","system_id":"levelo_inurba_marseille","lat":43.28265,"lon":5.35086,"is_reserved":false,"is_disabled":false,"rental_uris":{"android":"levelo://app?vid=65392fcd-1ac7-4e71-a7e6-d798a3ac0b61","ios":"levelo://app?vid=65392fcd-1ac7-4e71-a7e6-d798a3ac0b61"},"vehicle_type_id":"4","last_reported":1783256808,"current_range_meters":6000,"station_id":"ce4bhbp2rcd13ifvqerg","pricing_plan_id":"cebpf4jnsgd1na2vs0mg"},{"bike_id":"4e1c0cf9-2e81-480e-9596-0a87abe43cf0","system_id":"levelo_inurba_marseille","lat":43.24688,"lon":5.38118,"is_reserved":false,"is_disabled":false,"rental_uris":{"android":"levelo://app?vid=4e1c0cf9-2e81-480e-9596-0a87abe43cf0","ios":"levelo://app?vid=4e1c0cf9-2e81-480e-9596-0a87abe43cf0"},"vehicle_type_id":"4","last_reported":1783256808,"current_range_meters":6000,"station_id":"","pricing_plan_id":"cebpf4jnsgd1na2vs0mg"},{"bike_id":"9972642f-35aa-4c20-918a-dcbc07e9e004","system_id":"levelo_inurba_marseille","lat":43.2957,"lon":5.36737,"is_reserved":false,"is_disabled":true,"rental_uris":{"android":"levelo://app?vid=9972642f-35aa-4c20-918a-dcbc07e9e004","ios":"levelo://app?vid=9972642f-35aa-4c20-918a-dcbc07e9e004"},"vehicle_type_id":"4","last_reported":1783256808,"current_range_meters":6000,"station_id":"ce4bgph2rcd13ifvqc2g","pricing_plan_id":"cebpf4jnsgd1na2vs0mg"},{"bike_id":"b473cc03-d67b-4284-a63e-1679f323e96c","system_id":"levelo_inurba_marseille","lat":43.2175,"lon":5.346,"is_reserved":false,"is_disabled":false,"rental_uris":{"android":"levelo://app?vid=b473cc03-d67b-4284-a63e-1679f323e96c","ios":"levelo://app?vid=b473cc03-d67b-4284-a63e-1679f323e96c"},"vehicle_type_id":"4","last_reported":1783256808,"current_range_meters":6000,"station_id":"st_cvj6r9ubvosntc0bgbag","pricing_plan_id":"cebpf4jnsgd1na2vs0mg"},{"bike_id":"d455396b-25c8-4bf4-aa48-4df15ad83f7e","system_id":"levelo_inurba_marseille","lat":43.33873,"lon":5.34775,"is_reserved":false,"is_disabled":false,"rental_uris":{"android":"levelo://app?vid=d455396b-25c8-4bf4-aa48-4df15ad83f7e","ios":"levelo://app?vid=d455396b-25c8-4bf4-aa48-4df15ad83f7e"},"vehicle_type_id":"4","last_reported":1783256808,"current_range_meters":6000,"station_id":"","pricing_plan_id":"cebpf4jnsgd1na2vs0mg"},{"bike_id":"4db1a738-7f04-42e5-a031-6eb9900c6581","system_id":"levelo_inurba_marseille","lat":43.26216,"lon":5.37435,"is_reserved":false,"is_disabled":false,"rental_uris":{"android":"levelo://app?vid=4db1a738-7f04-42e5-a031-6eb9900c6581","ios":"levelo://app?vid=4db1a738-7f04-42e5-a031-6eb9900c6581"},"vehicle_type_id":"4","last_reported":1783256808,"current_range_meters":6000,"station_id":"ce4bhgp2rcd13ifvqfc0","pricing_plan_id":"cebpf4jnsgd1na2vs0mg"},{"bike_id":"d051061f-d3f4-48a6-9cb6-831fa44cd9aa","system_id":"levelo_inurba_marseille","lat":43.27139,"lon":5.38873,"is_reserved":false,"is_disabled":false,"rental_uris":{"android":"levelo://app?vid=d051061f-d3f4-48a6-9cb6-831fa44cd9aa","ios":"levelo://app?vid=d051061f-d3f4-48a6-9cb6-831fa44cd9aa"},"vehicle_type_id":"4","last_reported":1783256808,"current_range_meters":6000,"station_id":"","pricing_plan_id":"cebpf4jnsgd1na2vs0mg"},{"bike_id":"75ebe46d-92d1-4961-ac06-6553a761dcd0","system_id":"levelo_inurba_marseille","lat":43.305431,"lon":5.365512,"is_reserved":false,"is_disabled":false,"rental_uris":{"android":"levelo://app?vid=75ebe46d-92d1-4961-ac06-6553a761dcd0","ios":"levelo://app?vid=75ebe46d-92d1-4961-ac06-6553a761dcd0"},"vehicle_type_id":"4","last_reported":1783256808,"current_range_meters":6000,"station_id":"ce4bgs12rcd13ifvqcag","pricing_plan_id":"cebpf4jnsgd1na2vs0mg"},{"bike_id":"f5d895ef-c089-403e-ab80-fa5c68c05b11","system_id":"levelo_inurba_marseille","lat":43.29981,"lon":5.37199,"is_reserved":false,"is_disabled":false,"rental_uris":{"android":"levelo://app?vid=f5d895ef-c089-403e-ab80-fa5c68c05b11","ios":"levelo://app?vid=f5d895ef-c089-403e-ab80-fa5c68c05b11"},"vehicle_type_id":"4","last_reported":1783256808,"current_range_meters":6400,"station_id":"ce4bgr92rcd13ifvqc7g","pricing_plan_id":"cebpf4jnsgd1na2vs0mg"},{"bike_id":"026d743f-b269-4b26-9a04-b0be72b26db1","system_id":"levelo_inurba_marseille","lat":43.3055,"lon":5.36549,"is_reserved":false,"is_disabled":false,"rental_uris":{"android":"levelo://app?vid=026d743f-b269-4b26-9a04-b0be72b26db1","ios":"levelo://app?vid=026d743f-b269-4b26-9a04-b0be72b26db1"},"vehicle_type_id":"4","last_reported":1783256808,"current_range_meters":6400,"station_id":"ce4bgs12rcd13ifvqcag","pricing_plan_id":"cebpf4jnsgd1na2vs0mg"},{"bike_id":"9d91e96d-4bb3-4134-a429-804f0026c3b9","system_id":"levelo_inurba_marseille","lat":43.30155,"lon":5.38091,"is_reserved":false,"is_disabled":false,"rental_uris":{"android":"levelo://app?vid=9d91e96d-4bb3-4134-a429-804f0026c3b9","ios":"levelo://app?vid=9d91e96d-4bb3-4134-a429-804f0026c3b9"},"vehicle_type_id":"4","last_reported":1783256808,"current_range_meters":6400,"station_id":"ce4bgjp2rcd13ifvqbh0","pricing_plan_id":"cebpf4jnsgd1na2vs0mg"},{"bike_id":"4d52a61b-5c30-41df-a6ac-71b42f016aed","system_id":"levelo_inurba_marseille","lat":43.25856,"lon":5.399,"is_reserved":false,"is_disabled":true,"rental_uris":{"android":"levelo://app?vid=4d52a61b-5c30-41df-a6ac-71b42f016aed","ios":"levelo://app?vid=4d52a61b-5c30-41df-a6ac-71b42f016aed"},"vehicle_type_id":"4","last_reported":1783256808,"current_range_meters":6400,"station_id":"ce4bhl92rcd13ifvqghg","pricing_plan_id":"cebpf4jnsgd1na2vs0mg"},{"bike_id":"d832a3d0-79c6-4ba7-ac9f-b53b8986b84b","system_id":"levelo_inurba_marseille","lat":43.293733,"lon":5.378506,"is_reserved":false,"is_disabled":false,"rental_uris":{"android":"levelo://app?vid=d832a3d0-79c6-4ba7-ac9f-b53b8986b84b","ios":"levelo://app?vid=d832a3d0-79c6-4ba7-ac9f-b53b8986b84b"},"vehicle_type_id":"4","last_reported":1783256808,"current_range_meters":6400,"station_id":"ce4bhch2rcd13ifvqeug","pricing_plan_id":"cebpf4jnsgd1na2vs0mg"},{"bike_id":"a351dbfd-b396-4fee-bbf9-64048b7d5b49","system_id":"levelo_inurba_marseille","lat":43.26772,"lon":5.39431,"is_reserved":false,"is_disabled":false,"rental_uris":{"android":"levelo://app?vid=a351dbfd-b396-4fee-bbf9-64048b7d5b49","ios":"levelo://app?vid=a351dbfd-b396-4fee-bbf9-64048b7d5b49"},"vehicle_type_id":"4","last_reported":1783256808,"current_range_meters":6400,"station_id":"ce4bhh12rcd13ifvqfg0","pricing_plan_id":"cebpf4jnsgd1na2vs0mg"},{"bike_id":"93d3fb66-f34f-4759-ab74-73ca751cb508","system_id":"levelo_inurba_marseille","lat":43.28613,"lon":5.37067,"is_reserved":false,"is_disabled":false,"rental_uris":{"android":"levelo://app?vid=93d3fb66-f34f-4759-ab74-73ca751cb508","ios":"levelo://app?vid=93d3fb66-f34f-4759-ab74-73ca751cb508"},"vehicle_type_id":"4","last_reported":1783256808,"current_range_meters":6400,"station_id":"ce4bht12rcd13ifvqi60","pricing_plan_id":"cebpf4jnsgd1na2vs0mg"},{"bike_id":"0280cae0-08d7-4f06-a94a-abe8e009ab51","system_id":"levelo_inurba_marseille","lat":43.24872,"lon":5.39414,"is_reserved":false,"is_disabled":false,"rental_uris":{"android":"levelo://app?vid=0280cae0-08d7-4f06-a94a-abe8e009ab51","ios":"levelo://app?vid=0280cae0-08d7-4f06-a94a-abe8e009ab51"},"vehicle_type_id":"4","last_reported":1783256808,"current_range_meters":6400,"station_id":"","pricing_plan_id":"cebpf4jnsgd1na2vs0mg"},{"bike_id":"f56c5a55-490f-470f-bccd-8a878283165b","system_id":"levelo_inurba_marseille","lat":43.31785,"lon":5.36828,"is_reserved":false,"is_disabled":false,"rental_uris":{"android":"levelo://app?vid=f56c5a55-490f-470f-bccd-8a878283165b","ios":"levelo://app?vid=f56c5a55-490f-470f-bccd-8a878283165b"},"vehicle_type_id":"4","last_reported":1783256808,"current_range_meters":6400,"station_id":"","pricing_plan_id":"cebpf4jnsgd1na2vs0mg"},{"bike_id":"2a8f592d-3ebd-4853-bf23-1a2cca68a093","system_id":"levelo_inurba_marseille","lat":43.27102,"lon":5.38525,"is_reserved":false,"is_disabled":false,"rental_uris":{"android":"levelo://app?vid=2a8f592d-3ebd-4853-bf23-1a2cca68a093","ios":"levelo://app?vid=2a8f592d-3ebd-4853-bf23-1a2cca68a093"},"vehicle_type_id":"4","last_reported":1783256808,"current_range_meters":6400,"station_id":"","pricing_plan_id":"cebpf4jnsgd1na2vs0mg"},{"bike_id":"74c027a4-4b67-40ff-a2fc-35f79d498796","system_id":"levelo_inurba_marseille","lat":43.2919,"lon":5.36092,"is_reserved":false,"is_disabled":true,"rental_uris":{"android":"levelo://app?vid=74c027a4-4b67-40ff-a2fc-35f79d498796","ios":"levelo://app?vid=74c027a4-4b67-40ff-a2fc-35f79d498796"},"vehicle_type_id":"4","last_reported":1783256808,"current_range_meters":6400,"station_id":"ce4bhbh2rcd13ifvqeqg","pricing_plan_id":"cebpf4jnsgd1na2vs0mg"},{"bike_id":"ed5c7db6-f8ab-4b3b-8e18-9436ad688be6","system_id":"levelo_inurba_marseille","lat":43.28605,"lon":5.37081,"is_reserved":false,"is_disabled":false,"rental_uris":{"android":"levelo://app?vid=ed5c7db6-f8ab-4b3b-8e18-9436ad688be6","ios":"levelo://app?vid=ed5c7db6-f8ab-4b3b-8e18-9436ad688be6"},"vehicle_type_id":"4","last_reported":1783256808,"current_range_meters":6400,"station_id":"ce4bht12rcd13ifvqi60","pricing_plan_id":"cebpf4jnsgd1na2vs0mg"},{"bike_id":"a0b4dd2c-256f-4eb7-82e7-460d8c6a2a20","system_id":"levelo_inurba_marseille","lat":43.30435,"lon":5.41271,"is_reserved":false,"is_disabled":false,"rental_uris":{"android":"levelo://app?vid=a0b4dd2c-256f-4eb7-82e7-460d8c6a2a20","ios":"levelo://app?vid=a0b4dd2c-256f-4eb7-82e7-460d8c6a2a20"},"vehicle_type_id":"4","last_reported":1783256808,"current_range_meters":6400,"station_id":"ce4bhop2rcd13ifvqh8g","pricing_plan_id":"cebpf4jnsgd1na2vs0mg"},{"bike_id":"a12a4f83-c050-4064-a9cd-bf7775a31f2f","system_id":"levelo_inurba_marseille","lat":43.24723,"lon":5.38047,"is_reserved":false,"is_disabled":true,"rental_uris":{"android":"levelo://app?vid=a12a4f83-c050-4064-a9cd-bf7775a31f2f","ios":"levelo://app?vid=a12a4f83-c050-4064-a9cd-bf7775a31f2f"},"vehicle_type_id":"4","last_reported":1783256808,"current_range_meters":6400,"station_id":"","pricing_plan_id":"cebpf4jnsgd1na2vs0mg"},{"bike_id":"a8055f4e-5735-422c-91db-c20d9674cbb0","system_id":"levelo_inurba_marseille","lat":43.2903,"lon":5.35928,"is_reserved":false,"is_disabled":false,"rental_uris":{"android":"levelo://app?vid=a8055f4e-5735-422c-91db-c20d9674cbb0","ios":"levelo://app?vid=a8055f4e-5735-422c-91db-c20d9674cbb0"},"vehicle_type_id":"4","last_reported":1783256808,"current_range_meters":6400,"station_id":"ce4bha92rcd13ifvqeg0","pricing_plan_id":"cebpf4jnsgd1na2vs0mg"},{"bike_id":"18b32042-2ccb-461d-8eea-5f94cbdb60d5","system_id":"levelo_inurba_marseille","lat":43.23779,"lon":5.36632,"is_reserved":false,"is_disabled":false,"rental_uris":{"android":"levelo://app?vid=18b32042-2ccb-461d-8eea-5f94cbdb60d5","ios":"levelo://app?vid=18b32042-2ccb-461d-8eea-5f94cbdb60d5"},"vehicle_type_id":"4","last_reported":1783256808,"current_range_meters":6400,"station_id":"st_d3nk18o9ro0c73en2l3g","pricing_plan_id":"cebpf4jnsgd1na2vs0mg"},{"bike_id":"a1f32e76-4126-4796-9783-810ced54e16b","system_id":"levelo_inurba_marseille","lat":43.29801,"lon":5.40408,"is_reserved":false,"is_disabled":false,"rental_uris":{"android":"levelo://app?vid=a1f32e76-4126-4796-9783-810ced54e16b","ios":"levelo://app?vid=a1f32e76-4126-4796-9783-810ced54e16b"},"vehicle_type_id":"4","last_reported":1783256808,"current_range_meters":6400,"station_id":"ce4bh112rcd13ifvqd90","pricing_plan_id":"cebpf4jnsgd1na2vs0mg"},{"bike_id":"9c12c30a-463e-4048-88ba-53706e1568c1","system_id":"levelo_inurba_marseille","lat":43.26192,"lon":5.37449,"is_reserved":false,"is_disabled":false,"rental_uris":{"android":"levelo://app?vid=9c12c30a-463e-4048-88ba-53706e1568c1","ios":"levelo://app?vid=9c12c30a-463e-4048-88ba-53706e1568c1"},"vehicle_type_id":"4","last_reported":1783256808,"current_range_meters":6400,"station_id":"ce4bhgp2rcd13ifvqfc0","pricing_plan_id":"cebpf4jnsgd1na2vs0mg"},{"bike_id":"31e7fdab-f53e-4cb3-b546-319b2e74490c","system_id":"levelo_inurba_marseille","lat":43.28611,"lon":5.39877,"is_reserved":false,"is_disabled":false,"rental_uris":{"android":"levelo://app?vid=31e7fdab-f53e-4cb3-b546-319b2e74490c","ios":"levelo://app?vid=31e7fdab-f53e-4cb3-b546-319b2e74490c"},"vehicle_type_id":"4","last_reported":1783256808,"current_range_meters":6400,"station_id":"st_d4a7ka997mjs738ck50g","pricing_plan_id":"cebpf4jnsgd1na2vs0mg"},{"bike_id":"7c427d21-5ba3-47e9-b621-2ca7d29df3d2","system_id":"levelo_inurba_marseille","lat":43.28465,"lon":5.43722,"is_reserved":false,"is_disabled":false,"rental_uris":{"android":"levelo://app?vid=7c427d21-5ba3-47e9-b621-2ca7d29df3d2","ios":"levelo://app?vid=7c427d21-5ba3-47e9-b621-2ca7d29df3d2"},"vehicle_type_id":"4","last_reported":1783256808,"current_range_meters":6400,"station_id":"","pricing_plan_id":"cebpf4jnsgd1na2vs0mg"},{"bike_id":"67ff903d-b2b0-4196-be8d-ce9048cbff4d","system_id":"levelo_inurba_marseille","lat":43.23004,"lon":5.44485,"is_reserved":false,"is_disabled":false,"rental_uris":{"android":"levelo://app?vid=67ff903d-b2b0-4196-be8d-ce9048cbff4d","ios":"levelo://app?vid=67ff903d-b2b0-4196-be8d-ce9048cbff4d"},"vehicle_type_id":"4","last_reported":1783256808,"current_range_meters":6400,"station_id":"","pricing_plan_id":"cebpf4jnsgd1na2vs0mg"},{"bike_id":"5cf8ff3f-002e-4490-b36d-5909b772d854","system_id":"levelo_inurba_marseille","lat":43.22544,"lon":5.34842,"is_reserved":false,"is_disabled":true,"rental_uris":{"android":"levelo://app?vid=5cf8ff3f-002e-4490-b36d-5909b772d854","ios":"levelo://app?vid=5cf8ff3f-002e-4490-b36d-5909b772d854"},"vehicle_type_id":"4","last_reported":1783256808,"current_range_meters":6800,"station_id":"st_cvj5dfep6f1abm77gieg","pricing_plan_id":"cebpf4jnsgd1na2vs0mg"},{"bike_id":"f324c59c-f2fc-4335-81b3-a92700649997","system_id":"levelo_inurba_marseille","lat":43.271713,"lon":5.409982,"is_reserved":false,"is_disabled":false,"rental_uris":{"android":"levelo://app?vid=f324c59c-f2fc-4335-81b3-a92700649997","ios":"levelo://app?vid=f324c59c-f2fc-4335-81b3-a92700649997"},"vehicle_type_id":"4","last_reported":1783256808,"current_range_meters":6800,"station_id":"ce4bhl12rcd13ifvqgf0","pricing_plan_id":"cebpf4jnsgd1na2vs0mg"},{"bike_id":"c4a7a3ff-f8e3-4b7f-a75b-898005731fb4","system_id":"levelo_inurba_marseille","lat":43.29227,"lon":5.36062,"is_reserved":false,"is_disabled":false,"rental_uris":{"android":"levelo://app?vid=c4a7a3ff-f8e3-4b7f-a75b-898005731fb4","ios":"levelo://app?vid=c4a7a3ff-f8e3-4b7f-a75b-898005731fb4"},"vehicle_type_id":"4","last_reported":1783256808,"current_range_meters":6800,"station_id":"ce4bhbh2rcd13ifvqeqg","pricing_plan_id":"cebpf4jnsgd1na2vs0mg"},{"bike_id":"097703ec-cc97-424c-9bee-1ad2d40222d4","system_id":"levelo_inurba_marseille","lat":43.24781,"lon":5.37472,"is_reserved":false,"is_disabled":false,"rental_uris":{"android":"levelo://app?vid=097703ec-cc97-424c-9bee-1ad2d40222d4","ios":"levelo://app?vid=097703ec-cc97-424c-9bee-1ad2d40222d4"},"vehicle_type_id":"4","last_reported":1783256808,"current_range_meters":6800,"station_id":"ce4bhgh2rcd13ifvqfb0","pricing_plan_id":"cebpf4jnsgd1na2vs0mg"},{"bike_id":"6b4bd43f-9d60-40f8-96cc-0292b478f552","system_id":"levelo_inurba_marseille","lat":43.28779,"lon":5.4662,"is_reserved":false,"is_disabled":false,"rental_uris":{"android":"levelo://app?vid=6b4bd43f-9d60-40f8-96cc-0292b478f552","ios":"levelo://app?vid=6b4bd43f-9d60-40f8-96cc-0292b478f552"},"vehicle_type_id":"4","last_reported":1783256808,"current_range_meters":6800,"station_id":"","pricing_plan_id":"cebpf4jnsgd1na2vs0mg"},{"bike_id":"f09628bd-af70-48e6-aa9a-6efef7d99b2d","system_id":"levelo_inurba_marseille","lat":43.28408,"lon":5.3752,"is_reserved":false,"is_disabled":false,"rental_uris":{"android":"levelo://app?vid=f09628bd-af70-48e6-aa9a-6efef7d99b2d","ios":"levelo://app?vid=f09628bd-af70-48e6-aa9a-6efef7d99b2d"},"vehicle_type_id":"4","last_reported":1783256808,"current_range_meters":6800,"station_id":"ce4bh412rcd13ifvqds0","pricing_plan_id":"cebpf4jnsgd1na2vs0mg"},{"bike_id":"38360f99-2bce-4f28-bc36-3bc8367dcc77","system_id":"levelo_inurba_marseille","lat":43.302907,"lon":5.377195,"is_reserved":false,"is_disabled":false,"rental_uris":{"android":"levelo://app?vid=38360f99-2bce-4f28-bc36-3bc8367dcc77","ios":"levelo://app?vid=38360f99-2bce-4f28-bc36-3bc8367dcc77"},"vehicle_type_id":"4","last_reported":1783256808,"current_range_meters":6800,"station_id":"ce4bgqh2rcd13ifvqc5g","pricing_plan_id":"cebpf4jnsgd1na2vs0mg"},{"bike_id":"a2613146-db20-4e7e-b1f7-38cdda4d3df3","system_id":"levelo_inurba_marseille","lat":43.2622,"lon":5.37923,"is_reserved":false,"is_disabled":false,"rental_uris":{"android":"levelo://app?vid=a2613146-db20-4e7e-b1f7-38cdda4d3df3","ios":"levelo://app?vid=a2613146-db20-4e7e-b1f7-38cdda4d3df3"},"vehicle_type_id":"4","last_reported":1783256808,"current_range_meters":6800,"station_id":"ce4bhjp2rcd13ifvqg90","pricing_plan_id":"cebpf4jnsgd1na2vs0mg"},{"bike_id":"6f74e72f-4daa-466c-8061-7f39615bd85c","system_id":"levelo_inurba_marseille","lat":43.29217,"lon":5.36052,"is_reserved":false,"is_disabled":false,"rental_uris":{"android":"levelo://app?vid=6f74e72f-4daa-466c-8061-7f39615bd85c","ios":"levelo://app?vid=6f74e72f-4daa-466c-8061-7f39615bd85c"},"vehicle_type_id":"4","last_reported":1783256808,"current_range_meters":6800,"station_id":"ce4bhbh2rcd13ifvqeqg","pricing_plan_id":"cebpf4jnsgd1na2vs0mg"},{"bike_id":"c64fd8b2-f458-4a6e-88eb-895f5a6985c2","system_id":"levelo_inurba_marseille","lat":43.31427,"lon":5.39374,"is_reserved":false,"is_disabled":true,"rental_uris":{"android":"levelo://app?vid=c64fd8b2-f458-4a6e-88eb-895f5a6985c2","ios":"levelo://app?vid=c64fd8b2-f458-4a6e-88eb-895f5a6985c2"},"vehicle_type_id":"4","last_reported":1783256808,"current_range_meters":6800,"station_id":"","pricing_plan_id":"cebpf4jnsgd1na2vs0mg"},{"bike_id":"8220ecc2-6bf9-4e7d-8a35-6858c0daf5f4","system_id":"levelo_inurba_marseille","lat":43.21188,"lon":5.35072,"is_reserved":false,"is_disabled":false,"rental_uris":{"android":"levelo://app?vid=8220ecc2-6bf9-4e7d-8a35-6858c0daf5f4","ios":"levelo://app?vid=8220ecc2-6bf9-4e7d-8a35-6858c0daf5f4"},"vehicle_type_id":"4","last_reported":1783256808,"current_range_meters":6800,"station_id":"st_cvj6sg6p6f1abm77japg","pricing_plan_id":"cebpf4jnsgd1na2vs0mg"},{"bike_id":"b99fa2fa-6caa-4e97-a941-8427d6ff2309","system_id":"levelo_inurba_marseille","lat":43.26208,"lon":5.38891,"is_reserved":false,"is_disabled":true,"rental_uris":{"android":"levelo://app?vid=b99fa2fa-6caa-4e97-a941-8427d6ff2309","ios":"levelo://app?vid=b99fa2fa-6caa-4e97-a941-8427d6ff2309"},"vehicle_type_id":"4","last_reported":1783256808,"current_range_meters":6800,"station_id":"","pricing_plan_id":"cebpf4jnsgd1na2vs0mg"},{"bike_id":"ac4ad5e2-af49-4da0-beb8-96d8d81381d5","system_id":"levelo_inurba_marseille","lat":43.27838,"lon":5.39205,"is_reserved":false,"is_disabled":false,"rental_uris":{"android":"levelo://app?vid=ac4ad5e2-af49-4da0-beb8-96d8d81381d5","ios":"levelo://app?vid=ac4ad5e2-af49-4da0-beb8-96d8d81381d5"},"vehicle_type_id":"4","last_reported":1783256808,"current_range_meters":6800,"station_id":"ce4bhjp2rcd13ifvqga0","pricing_plan_id":"cebpf4jnsgd1na2vs0mg"},{"bike_id":"3892050e-cb6a-457e-90e6-5def440715fd","system_id":"levelo_inurba_marseille","lat":43.28698,"lon":5.46685,"is_reserved":false,"is_disabled":false,"rental_uris":{"android":"levelo://app?vid=3892050e-cb6a-457e-90e6-5def440715fd","ios":"levelo://app?vid=3892050e-cb6a-457e-90e6-5def440715fd"},"vehicle_type_id":"4","last_reported":1783256808,"current_range_meters":6800,"station_id":"st_d6tc3vkotcvc738tfjhg","pricing_plan_id":"cebpf4jnsgd1na2vs0mg"},{"bike_id":"66f64495-157d-434d-a3ef-5a17f45e04e3","system_id":"levelo_inurba_marseille","lat":43.24111,"lon":5.41001,"is_reserved":false,"is_disabled":false,"rental_uris":{"android":"levelo://app?vid=66f64495-157d-434d-a3ef-5a17f45e04e3","ios":"levelo://app?vid=66f64495-157d-434d-a3ef-5a17f45e04e3"},"vehicle_type_id":"4","last_reported":1783256808,"current_range_meters":6800,"station_id":"","pricing_plan_id":"cebpf4jnsgd1na2vs0mg"},{"bike_id":"95e2c5d3-ee09-417b-93c0-7f04fa895ada","system_id":"levelo_inurba_marseille","lat":43.31933,"lon":5.37383,"is_reserved":false,"is_disabled":false,"rental_uris":{"android":"levelo://app?vid=95e2c5d3-ee09-417b-93c0-7f04fa895ada","ios":"levelo://app?vid=95e2c5d3-ee09-417b-93c0-7f04fa895ada"},"vehicle_type_id":"4","last_reported":1783256808,"current_range_meters":6800,"station_id":"","pricing_plan_id":"cebpf4jnsgd1na2vs0mg"},{"bike_id":"6bce2861-f5f1-47d6-aa09-94e878a50d41","system_id":"levelo_inurba_marseille","lat":43.21738,"lon":5.34614,"is_reserved":false,"is_disabled":false,"rental_uris":{"android":"levelo://app?vid=6bce2861-f5f1-47d6-aa09-94e878a50d41","ios":"levelo://app?vid=6bce2861-f5f1-47d6-aa09-94e878a50d41"},"vehicle_type_id":"4","last_reported":1783256808,"current_range_meters":6800,"station_id":"st_cvj6r9ubvosntc0bgbag","pricing_plan_id":"cebpf4jnsgd1na2vs0mg"},{"bike_id":"1ee117dc-6d9b-4a29-ad43-0e31c488dfd4","system_id":"levelo_inurba_marseille","lat":43.24661,"lon":5.38612,"is_reserved":false,"is_disabled":false,"rental_uris":{"android":"levelo://app?vid=1ee117dc-6d9b-4a29-ad43-0e31c488dfd4","ios":"levelo://app?vid=1ee117dc-6d9b-4a29-ad43-0e31c488dfd4"},"vehicle_type_id":"4","last_reported":1783256808,"current_range_meters":6800,"station_id":"","pricing_plan_id":"cebpf4jnsgd1na2vs0mg"},{"bike_id":"1ef77d10-3808-4032-a625-bdc5532d78f3","system_id":"levelo_inurba_marseille","lat":43.28953,"lon":5.37851,"is_reserved":false,"is_disabled":true,"rental_uris":{"android":"levelo://app?vid=1ef77d10-3808-4032-a625-bdc5532d78f3","ios":"levelo://app?vid=1ef77d10-3808-4032-a625-bdc5532d78f3"},"vehicle_type_id":"4","last_reported":1783256808,"current_range_meters":6800,"station_id":"ce4bh9p2rcd13ifvqed0","pricing_plan_id":"cebpf4jnsgd1na2vs0mg"},{"bike_id":"37036fc4-bb34-42eb-962d-747d8ef27ab6","system_id":"levelo_inurba_marseille","lat":43.23055,"lon":5.35491,"is_reserved":false,"is_disabled":false,"rental_uris":{"android":"levelo://app?vid=37036fc4-bb34-42eb-962d-747d8ef27ab6","ios":"levelo://app?vid=37036fc4-bb34-42eb-962d-747d8ef27ab6"},"vehicle_type_id":"4","last_reported":1783256808,"current_range_meters":6800,"station_id":"cpo3342slgdg3j2ifvpg","pricing_plan_id":"cebpf4jnsgd1na2vs0mg"},{"bike_id":"538d14f4-4ba3-469b-9def-ddf4ba4a14fb","system_id":"levelo_inurba_marseille","lat":43.31329,"lon":5.39688,"is_reserved":false,"is_disabled":false,"rental_uris":{"android":"levelo://app?vid=538d14f4-4ba3-469b-9def-ddf4ba4a14fb","ios":"levelo://app?vid=538d14f4-4ba3-469b-9def-ddf4ba4a14fb"},"vehicle_type_id":"4","last_reported":1783256808,"current_range_meters":6800,"station_id":"ce4bgvp2rcd13ifvqcu0","pricing_plan_id":"cebpf4jnsgd1na2vs0mg"},{"bike_id":"32245022-13f3-4a0a-9c8b-5d1257f6f7a6","system_id":"levelo_inurba_marseille","lat":43.22932,"lon":5.35377,"is_reserved":false,"is_disabled":false,"rental_uris":{"android":"levelo://app?vid=32245022-13f3-4a0a-9c8b-5d1257f6f7a6","ios":"levelo://app?vid=32245022-13f3-4a0a-9c8b-5d1257f6f7a6"},"vehicle_type_id":"4","last_reported":1783256808,"current_range_meters":6800,"station_id":"cpo3532slgdg3j2ikp40","pricing_plan_id":"cebpf4jnsgd1na2vs0mg"},{"bike_id":"7f12e5a2-955f-42a0-87a4-54480f18e191","system_id":"levelo_inurba_marseille","lat":43.289465,"lon":5.363946,"is_reserved":false,"is_disabled":false,"rental_uris":{"android":"levelo://app?vid=7f12e5a2-955f-42a0-87a4-54480f18e191","ios":"levelo://app?vid=7f12e5a2-955f-42a0-87a4-54480f18e191"},"vehicle_type_id":"4","last_reported":1783256808,"current_range_meters":6800,"station_id":"","pricing_plan_id":"cebpf4jnsgd1na2vs0mg"},{"bike_id":"313ef95b-d3db-4c35-8b9f-1253ffce3dd1","system_id":"levelo_inurba_marseille","lat":43.22931,"lon":5.35372,"is_reserved":false,"is_disabled":false,"rental_uris":{"android":"levelo://app?vid=313ef95b-d3db-4c35-8b9f-1253ffce3dd1","ios":"levelo://app?vid=313ef95b-d3db-4c35-8b9f-1253ffce3dd1"},"vehicle_type_id":"4","last_reported":1783256808,"current_range_meters":6800,"station_id":"cpo3532slgdg3j2ikp40","pricing_plan_id":"cebpf4jnsgd1na2vs0mg"},{"bike_id":"0f95566e-59c5-4a75-aa55-2a54908e483c","system_id":"levelo_inurba_marseille","lat":43.28425,"lon":5.35009,"is_reserved":false,"is_disabled":false,"rental_uris":{"android":"levelo://app?vid=0f95566e-59c5-4a75-aa55-2a54908e483c","ios":"levelo://app?vid=0f95566e-59c5-4a75-aa55-2a54908e483c"},"vehicle_type_id":"4","last_reported":1783256808,"current_range_meters":7200,"station_id":"ce4bhbh2rcd13ifvqepg","pricing_plan_id":"cebpf4jnsgd1na2vs0mg"},{"bike_id":"08aa9e82-acd5-4c73-9542-29caeaf3b759","system_id":"levelo_inurba_marseille","lat":43.2997,"lon":5.37191,"is_reserved":false,"is_disabled":false,"rental_uris":{"android":"levelo://app?vid=08aa9e82-acd5-4c73-9542-29caeaf3b759","ios":"levelo://app?vid=08aa9e82-acd5-4c73-9542-29caeaf3b759"},"vehicle_type_id":"4","last_reported":1783256808,"current_range_meters":7200,"station_id":"ce4bgr92rcd13ifvqc7g","pricing_plan_id":"cebpf4jnsgd1na2vs0mg"},{"bike_id":"8add3d14-7583-4bbe-a39a-8070d5f4d47a","system_id":"levelo_inurba_marseille","lat":43.32492,"lon":5.38305,"is_reserved":false,"is_disabled":false,"rental_uris":{"android":"levelo://app?vid=8add3d14-7583-4bbe-a39a-8070d5f4d47a","ios":"levelo://app?vid=8add3d14-7583-4bbe-a39a-8070d5f4d47a"},"vehicle_type_id":"4","last_reported":1783256808,"current_range_meters":7200,"station_id":"st_d4asgbiv49dc73anf9m0","pricing_plan_id":"cebpf4jnsgd1na2vs0mg"},{"bike_id":"ffc1a511-9f6c-4972-9ed7-31229f3c6516","system_id":"levelo_inurba_marseille","lat":43.30289,"lon":5.37711,"is_reserved":false,"is_disabled":false,"rental_uris":{"android":"levelo://app?vid=ffc1a511-9f6c-4972-9ed7-31229f3c6516","ios":"levelo://app?vid=ffc1a511-9f6c-4972-9ed7-31229f3c6516"},"vehicle_type_id":"4","last_reported":1783256808,"current_range_meters":7200,"station_id":"ce4bguh2rcd13ifvqcj0","pricing_plan_id":"cebpf4jnsgd1na2vs0mg"},{"bike_id":"2d3dd4f4-c2be-4315-be3d-f35763bc2c71","system_id":"levelo_inurba_marseille","lat":43.26698,"lon":5.40188,"is_reserved":false,"is_disabled":false,"rental_uris":{"android":"levelo://app?vid=2d3dd4f4-c2be-4315-be3d-f35763bc2c71","ios":"levelo://app?vid=2d3dd4f4-c2be-4315-be3d-f35763bc2c71"},"vehicle_type_id":"4","last_reported":1783256808,"current_range_meters":7200,"station_id":"","pricing_plan_id":"cebpf4jnsgd1na2vs0mg"},{"bike_id":"6988656b-b9bf-42fd-86c6-85441f215ca5","system_id":"levelo_inurba_marseille","lat":43.21185,"lon":5.35093,"is_reserved":false,"is_disabled":false,"rental_uris":{"android":"levelo://app?vid=6988656b-b9bf-42fd-86c6-85441f215ca5","ios":"levelo://app?vid=6988656b-b9bf-42fd-86c6-85441f215ca5"},"vehicle_type_id":"4","last_reported":1783256808,"current_range_meters":7200,"station_id":"st_cvj6sg6p6f1abm77japg","pricing_plan_id":"cebpf4jnsgd1na2vs0mg"},{"bike_id":"8573ae4c-c9fc-4ff8-a5e9-0df2486e1c40","system_id":"levelo_inurba_marseille","lat":43.26024,"lon":5.37555,"is_reserved":false,"is_disabled":true,"rental_uris":{"android":"levelo://app?vid=8573ae4c-c9fc-4ff8-a5e9-0df2486e1c40","ios":"levelo://app?vid=8573ae4c-c9fc-4ff8-a5e9-0df2486e1c40"},"vehicle_type_id":"4","last_reported":1783256808,"current_range_meters":7200,"station_id":"ce4bhgh2rcd13ifvqfa0","pricing_plan_id":"cebpf4jnsgd1na2vs0mg"},{"bike_id":"a4f9ee3b-b427-4829-b639-bd7508b29e83","system_id":"levelo_inurba_marseille","lat":43.28278,"lon":5.35072,"is_reserved":false,"is_disabled":true,"rental_uris":{"android":"levelo://app?vid=a4f9ee3b-b427-4829-b639-bd7508b29e83","ios":"levelo://app?vid=a4f9ee3b-b427-4829-b639-bd7508b29e83"},"vehicle_type_id":"4","last_reported":1783256808,"current_range_meters":7200,"station_id":"ce4bhbp2rcd13ifvqerg","pricing_plan_id":"cebpf4jnsgd1na2vs0mg"},{"bike_id":"84e58cca-640c-4814-a6dc-5730ba4b678b","system_id":"levelo_inurba_marseille","lat":43.26028,"lon":5.3753,"is_reserved":false,"is_disabled":false,"rental_uris":{"android":"levelo://app?vid=84e58cca-640c-4814-a6dc-5730ba4b678b","ios":"levelo://app?vid=84e58cca-640c-4814-a6dc-5730ba4b678b"},"vehicle_type_id":"4","last_reported":1783256808,"current_range_meters":7200,"station_id":"ce4bhgh2rcd13ifvqfa0","pricing_plan_id":"cebpf4jnsgd1na2vs0mg"},{"bike_id":"d542e80b-c621-4744-a175-6c723a1aa866","system_id":"levelo_inurba_marseille","lat":43.29286,"lon":5.44527,"is_reserved":false,"is_disabled":false,"rental_uris":{"android":"levelo://app?vid=d542e80b-c621-4744-a175-6c723a1aa866","ios":"levelo://app?vid=d542e80b-c621-4744-a175-6c723a1aa866"},"vehicle_type_id":"4","last_reported":1783256808,"current_range_meters":7200,"station_id":"","pricing_plan_id":"cebpf4jnsgd1na2vs0mg"},{"bike_id":"4ea05420-4688-4f88-ab4d-87e93bd11b74","system_id":"levelo_inurba_marseille","lat":43.29256,"lon":5.40915,"is_reserved":false,"is_disabled":false,"rental_uris":{"android":"levelo://app?vid=4ea05420-4688-4f88-ab4d-87e93bd11b74","ios":"levelo://app?vid=4ea05420-4688-4f88-ab4d-87e93bd11b74"},"vehicle_type_id":"4","last_reported":1783256808,"current_range_meters":7200,"station_id":"ce4bh192rcd13ifvqdc0","pricing_plan_id":"cebpf4jnsgd1na2vs0mg"},{"bike_id":"acb6b183-d4d6-4d8e-974e-924b61f91a80","system_id":"levelo_inurba_marseille","lat":43.34394,"lon":5.42057,"is_reserved":false,"is_disabled":false,"rental_uris":{"android":"levelo://app?vid=acb6b183-d4d6-4d8e-974e-924b61f91a80","ios":"levelo://app?vid=acb6b183-d4d6-4d8e-974e-924b61f91a80"},"vehicle_type_id":"4","last_reported":1783256808,"current_range_meters":7200,"station_id":"","pricing_plan_id":"cebpf4jnsgd1na2vs0mg"},{"bike_id":"fc5d7b22-bed1-4640-a4b2-9379b1406486","system_id":"levelo_inurba_marseille","lat":43.2944,"lon":5.38367,"is_reserved":false,"is_disabled":true,"rental_uris":{"android":"levelo://app?vid=fc5d7b22-bed1-4640-a4b2-9379b1406486","ios":"levelo://app?vid=fc5d7b22-bed1-4640-a4b2-9379b1406486"},"vehicle_type_id":"4","last_reported":1783256808,"current_range_meters":7200,"station_id":"","pricing_plan_id":"cebpf4jnsgd1na2vs0mg"},{"bike_id":"51687ee8-dba7-4061-9600-574b19684104","system_id":"levelo_inurba_marseille","lat":43.30727,"lon":5.38428,"is_reserved":false,"is_disabled":false,"rental_uris":{"android":"levelo://app?vid=51687ee8-dba7-4061-9600-574b19684104","ios":"levelo://app?vid=51687ee8-dba7-4061-9600-574b19684104"},"vehicle_type_id":"4","last_reported":1783256808,"current_range_meters":7200,"station_id":"","pricing_plan_id":"cebpf4jnsgd1na2vs0mg"},{"bike_id":"5632bdc0-9030-4ab1-9a7d-a2b34cf1a1e4","system_id":"levelo_inurba_marseille","lat":43.29496,"lon":5.43325,"is_reserved":false,"is_disabled":false,"rental_uris":{"android":"levelo://app?vid=5632bdc0-9030-4ab1-9a7d-a2b34cf1a1e4","ios":"levelo://app?vid=5632bdc0-9030-4ab1-9a7d-a2b34cf1a1e4"},"vehicle_type_id":"4","last_reported":1783256808,"current_range_meters":7200,"station_id":"st_d3j5ugp08ojc73fj9d10","pricing_plan_id":"cebpf4jnsgd1na2vs0mg"},{"bike_id":"042aa53d-4ec3-477c-b412-9e56cf0ac38d","system_id":"levelo_inurba_marseille","lat":43.31884,"lon":5.36814,"is_reserved":false,"is_disabled":false,"rental_uris":{"android":"levelo://app?vid=042aa53d-4ec3-477c-b412-9e56cf0ac38d","ios":"levelo://app?vid=042aa53d-4ec3-477c-b412-9e56cf0ac38d"},"vehicle_type_id":"4","last_reported":1783256808,"current_range_meters":8000,"station_id":"st_d6o2h0d0559c73evc1b0","pricing_plan_id":"cebpf4jnsgd1na2vs0mg"},{"bike_id":"d1f95cf9-3c50-44e1-afec-1a16e5b009af","system_id":"levelo_inurba_marseille","lat":43.266713,"lon":5.372395,"is_reserved":false,"is_disabled":false,"rental_uris":{"android":"levelo://app?vid=d1f95cf9-3c50-44e1-afec-1a16e5b009af","ios":"levelo://app?vid=d1f95cf9-3c50-44e1-afec-1a16e5b009af"},"vehicle_type_id":"4","last_reported":1783256808,"current_range_meters":8000,"station_id":"","pricing_plan_id":"cebpf4jnsgd1na2vs0mg"},{"bike_id":"12b2d4ce-4735-4507-9fde-29557bacb2eb","system_id":"levelo_inurba_marseille","lat":43.28476,"lon":5.48388,"is_reserved":false,"is_disabled":false,"rental_uris":{"android":"levelo://app?vid=12b2d4ce-4735-4507-9fde-29557bacb2eb","ios":"levelo://app?vid=12b2d4ce-4735-4507-9fde-29557bacb2eb"},"vehicle_type_id":"4","last_reported":1783256808,"current_range_meters":8000,"station_id":"st_d3svhcjqgbts73a3dn0g","pricing_plan_id":"cebpf4jnsgd1na2vs0mg"},{"bike_id":"5dc48db0-1136-47a8-b177-77beb9d80bc9","system_id":"levelo_inurba_marseille","lat":43.22559,"lon":5.41627,"is_reserved":false,"is_disabled":false,"rental_uris":{"android":"levelo://app?vid=5dc48db0-1136-47a8-b177-77beb9d80bc9","ios":"levelo://app?vid=5dc48db0-1136-47a8-b177-77beb9d80bc9"},"vehicle_type_id":"4","last_reported":1783256808,"current_range_meters":8000,"station_id":"st_d2o4gvlbi1j2169b742g","pricing_plan_id":"cebpf4jnsgd1na2vs0mg"},{"bike_id":"73c8701a-5534-4d6e-b634-9acc1e8fe67a","system_id":"levelo_inurba_marseille","lat":43.27474,"lon":5.42467,"is_reserved":false,"is_disabled":false,"rental_uris":{"android":"levelo://app?vid=73c8701a-5534-4d6e-b634-9acc1e8fe67a","ios":"levelo://app?vid=73c8701a-5534-4d6e-b634-9acc1e8fe67a"},"vehicle_type_id":"4","last_reported":1783256808,"current_range_meters":8000,"station_id":"ce4bhn92rcd13ifvqgrg","pricing_plan_id":"cebpf4jnsgd1na2vs0mg"},{"bike_id":"71ddf079-8693-46db-a7af-dd5b97b998a9","system_id":"levelo_inurba_marseille","lat":43.27951,"lon":5.41055,"is_reserved":false,"is_disabled":false,"rental_uris":{"android":"levelo://app?vid=71ddf079-8693-46db-a7af-dd5b97b998a9","ios":"levelo://app?vid=71ddf079-8693-46db-a7af-dd5b97b998a9"},"vehicle_type_id":"4","last_reported":1783256808,"current_range_meters":8000,"station_id":"ce4bhnp2rcd13ifvqh0g","pricing_plan_id":"cebpf4jnsgd1na2vs0mg"},{"bike_id":"0c4fde27-93c3-47d0-83a8-1bb2e3555851","system_id":"levelo_inurba_marseille","lat":43.28664,"lon":5.36357,"is_reserved":false,"is_disabled":false,"rental_uris":{"android":"levelo://app?vid=0c4fde27-93c3-47d0-83a8-1bb2e3555851","ios":"levelo://app?vid=0c4fde27-93c3-47d0-83a8-1bb2e3555851"},"vehicle_type_id":"4","last_reported":1783256808,"current_range_meters":8000,"station_id":"ce4bhah2rcd13ifvqej0","pricing_plan_id":"cebpf4jnsgd1na2vs0mg"},{"bike_id":"cc738f32-f811-4e3f-b968-0bc0d7c9be0d","system_id":"levelo_inurba_marseille","lat":43.29253,"lon":5.40923,"is_reserved":false,"is_disabled":true,"rental_uris":{"android":"levelo://app?vid=cc738f32-f811-4e3f-b968-0bc0d7c9be0d","ios":"levelo://app?vid=cc738f32-f811-4e3f-b968-0bc0d7c9be0d"},"vehicle_type_id":"4","last_reported":1783256808,"current_range_meters":8000,"station_id":"ce4bh192rcd13ifvqdc0","pricing_plan_id":"cebpf4jnsgd1na2vs0mg"},{"bike_id":"ebb69cdb-f57c-486a-9d37-3814132e26e5","system_id":"levelo_inurba_marseille","lat":43.28046,"lon":5.36935,"is_reserved":false,"is_disabled":true,"rental_uris":{"android":"levelo://app?vid=ebb69cdb-f57c-486a-9d37-3814132e26e5","ios":"levelo://app?vid=ebb69cdb-f57c-486a-9d37-3814132e26e5"},"vehicle_type_id":"4","last_reported":1783256808,"current_range_meters":8000,"station_id":"ce4bha12rcd13ifvqef0","pricing_plan_id":"cebpf4jnsgd1na2vs0mg"},{"bike_id":"8bc199c6-fa2d-4c70-9249-7d435dcab9a6","system_id":"levelo_inurba_marseille","lat":43.29277,"lon":5.3684,"is_reserved":false,"is_disabled":true,"rental_uris":{"android":"levelo://app?vid=8bc199c6-fa2d-4c70-9249-7d435dcab9a6","ios":"levelo://app?vid=8bc199c6-fa2d-4c70-9249-7d435dcab9a6"},"vehicle_type_id":"4","last_reported":1783256808,"current_range_meters":8000,"station_id":"ce4bhbp2rcd13ifvqesg","pricing_plan_id":"cebpf4jnsgd1na2vs0mg"},{"bike_id":"ca803bbb-df34-4e95-a7c2-94aa897ae6b5","system_id":"levelo_inurba_marseille","lat":43.28694,"lon":5.46687,"is_reserved":false,"is_disabled":false,"rental_uris":{"android":"levelo://app?vid=ca803bbb-df34-4e95-a7c2-94aa897ae6b5","ios":"levelo://app?vid=ca803bbb-df34-4e95-a7c2-94aa897ae6b5"},"vehicle_type_id":"4","last_reported":1783256808,"current_range_meters":8000,"station_id":"st_d6tc3vkotcvc738tfjhg","pricing_plan_id":"cebpf4jnsgd1na2vs0mg"},{"bike_id":"537ca998-8fd3-4dae-915c-356daecbb82f","system_id":"levelo_inurba_marseille","lat":43.29029,"lon":5.38657,"is_reserved":false,"is_disabled":true,"rental_uris":{"android":"levelo://app?vid=537ca998-8fd3-4dae-915c-356daecbb82f","ios":"levelo://app?vid=537ca998-8fd3-4dae-915c-356daecbb82f"},"vehicle_type_id":"4","last_reported":1783256808,"current_range_meters":8000,"station_id":"ce4bh4p2rcd13ifvqe0g","pricing_plan_id":"cebpf4jnsgd1na2vs0mg"},{"bike_id":"340264c8-89c7-4d2d-be30-5376c771062a","system_id":"levelo_inurba_marseille","lat":43.27679,"lon":5.38872,"is_reserved":false,"is_disabled":false,"rental_uris":{"android":"levelo://app?vid=340264c8-89c7-4d2d-be30-5376c771062a","ios":"levelo://app?vid=340264c8-89c7-4d2d-be30-5376c771062a"},"vehicle_type_id":"4","last_reported":1783256808,"current_range_meters":8000,"station_id":"ce4bhi12rcd13ifvqfo0","pricing_plan_id":"cebpf4jnsgd1na2vs0mg"},{"bike_id":"c9445652-b236-402b-8ec1-fb5567a22b0f","system_id":"levelo_inurba_marseille","lat":43.24438,"lon":5.40957,"is_reserved":false,"is_disabled":false,"rental_uris":{"android":"levelo://app?vid=c9445652-b236-402b-8ec1-fb5567a22b0f","ios":"levelo://app?vid=c9445652-b236-402b-8ec1-fb5567a22b0f"},"vehicle_type_id":"4","last_reported":1783256808,"current_range_meters":8000,"station_id":"","pricing_plan_id":"cebpf4jnsgd1na2vs0mg"},{"bike_id":"c1c88b11-92f5-437b-85af-b745aa920b32","system_id":"levelo_inurba_marseille","lat":43.26777,"lon":5.38645,"is_reserved":false,"is_disabled":false,"rental_uris":{"android":"levelo://app?vid=c1c88b11-92f5-437b-85af-b745aa920b32","ios":"levelo://app?vid=c1c88b11-92f5-437b-85af-b745aa920b32"},"vehicle_type_id":"4","last_reported":1783256808,"current_range_meters":8000,"station_id":"","pricing_plan_id":"cebpf4jnsgd1na2vs0mg"},{"bike_id":"028c7fed-5f2f-40d0-baa1-a58613675508","system_id":"levelo_inurba_marseille","lat":43.25327,"lon":5.42188,"is_reserved":false,"is_disabled":false,"rental_uris":{"android":"levelo://app?vid=028c7fed-5f2f-40d0-baa1-a58613675508","ios":"levelo://app?vid=028c7fed-5f2f-40d0-baa1-a58613675508"},"vehicle_type_id":"4","last_reported":1783256808,"current_range_meters":8400,"station_id":"st_d2m65c5bi1j21697t3ng","pricing_plan_id":"cebpf4jnsgd1na2vs0mg"},{"bike_id":"ea89dd83-0733-49ba-a9ff-ec3be4e92228","system_id":"levelo_inurba_marseille","lat":43.30461,"lon":5.37912,"is_reserved":false,"is_disabled":false,"rental_uris":{"android":"levelo://app?vid=ea89dd83-0733-49ba-a9ff-ec3be4e92228","ios":"levelo://app?vid=ea89dd83-0733-49ba-a9ff-ec3be4e92228"},"vehicle_type_id":"4","last_reported":1783256808,"current_range_meters":8400,"station_id":"ce4bgup2rcd13ifvqcn0","pricing_plan_id":"cebpf4jnsgd1na2vs0mg"},{"bike_id":"90ae1f49-a39f-4c58-be95-3a19082f7294","system_id":"levelo_inurba_marseille","lat":43.28705,"lon":5.37385,"is_reserved":false,"is_disabled":false,"rental_uris":{"android":"levelo://app?vid=90ae1f49-a39f-4c58-be95-3a19082f7294","ios":"levelo://app?vid=90ae1f49-a39f-4c58-be95-3a19082f7294"},"vehicle_type_id":"4","last_reported":1783256808,"current_range_meters":8400,"station_id":"ce4bh3p2rcd13ifvqdq0","pricing_plan_id":"cebpf4jnsgd1na2vs0mg"},{"bike_id":"e21b25e3-cdbf-4694-9a84-c74b628bddb8","system_id":"levelo_inurba_marseille","lat":43.26068,"lon":5.39396,"is_reserved":false,"is_disabled":false,"rental_uris":{"android":"levelo://app?vid=e21b25e3-cdbf-4694-9a84-c74b628bddb8","ios":"levelo://app?vid=e21b25e3-cdbf-4694-9a84-c74b628bddb8"},"vehicle_type_id":"4","last_reported":1783256808,"current_range_meters":8400,"station_id":"ce4bhh92rcd13ifvqfj0","pricing_plan_id":"cebpf4jnsgd1na2vs0mg"},{"bike_id":"f1fa67ea-70e8-494e-90f1-3cd8a54e2aac","system_id":"levelo_inurba_marseille","lat":43.28275,"lon":5.35075,"is_reserved":false,"is_disabled":true,"rental_uris":{"android":"levelo://app?vid=f1fa67ea-70e8-494e-90f1-3cd8a54e2aac","ios":"levelo://app?vid=f1fa67ea-70e8-494e-90f1-3cd8a54e2aac"},"vehicle_type_id":"4","last_reported":1783256808,"current_range_meters":8400,"station_id":"ce4bhbp2rcd13ifvqerg","pricing_plan_id":"cebpf4jnsgd1na2vs0mg"},{"bike_id":"ae9653ca-a981-4fa4-848f-da55e76d424c","system_id":"levelo_inurba_marseille","lat":43.27204,"lon":5.40959,"is_reserved":false,"is_disabled":false,"rental_uris":{"android":"levelo://app?vid=ae9653ca-a981-4fa4-848f-da55e76d424c","ios":"levelo://app?vid=ae9653ca-a981-4fa4-848f-da55e76d424c"},"vehicle_type_id":"4","last_reported":1783256808,"current_range_meters":8400,"station_id":"ce4bhl12rcd13ifvqgf0","pricing_plan_id":"cebpf4jnsgd1na2vs0mg"},{"bike_id":"6b703ae7-b021-4d07-a990-ef927f27bcc0","system_id":"levelo_inurba_marseille","lat":43.25434,"lon":5.37611,"is_reserved":false,"is_disabled":false,"rental_uris":{"android":"levelo://app?vid=6b703ae7-b021-4d07-a990-ef927f27bcc0","ios":"levelo://app?vid=6b703ae7-b021-4d07-a990-ef927f27bcc0"},"vehicle_type_id":"4","last_reported":1783256808,"current_range_meters":8400,"station_id":"","pricing_plan_id":"cebpf4jnsgd1na2vs0mg"},{"bike_id":"1a447539-86ef-458e-8f93-24be922cd0cc","system_id":"levelo_inurba_marseille","lat":43.2717,"lon":5.40994,"is_reserved":false,"is_disabled":false,"rental_uris":{"android":"levelo://app?vid=1a447539-86ef-458e-8f93-24be922cd0cc","ios":"levelo://app?vid=1a447539-86ef-458e-8f93-24be922cd0cc"},"vehicle_type_id":"4","last_reported":1783256808,"current_range_meters":8400,"station_id":"ce4bhl12rcd13ifvqgf0","pricing_plan_id":"cebpf4jnsgd1na2vs0mg"},{"bike_id":"ac8e9804-088a-4e11-97cc-e1fd369d6c0d","system_id":"levelo_inurba_marseille","lat":43.25058,"lon":5.40439,"is_reserved":false,"is_disabled":false,"rental_uris":{"android":"levelo://app?vid=ac8e9804-088a-4e11-97cc-e1fd369d6c0d","ios":"levelo://app?vid=ac8e9804-088a-4e11-97cc-e1fd369d6c0d"},"vehicle_type_id":"4","last_reported":1783256808,"current_range_meters":8400,"station_id":"","pricing_plan_id":"cebpf4jnsgd1na2vs0mg"},{"bike_id":"887ba036-3af1-4eb7-98d3-a156223b2c60","system_id":"levelo_inurba_marseille","lat":43.2919,"lon":5.35604,"is_reserved":false,"is_disabled":false,"rental_uris":{"android":"levelo://app?vid=887ba036-3af1-4eb7-98d3-a156223b2c60","ios":"levelo://app?vid=887ba036-3af1-4eb7-98d3-a156223b2c60"},"vehicle_type_id":"4","last_reported":1783256808,"current_range_meters":8400,"station_id":"","pricing_plan_id":"cebpf4jnsgd1na2vs0mg"},{"bike_id":"d3445804-aa86-4322-9d7c-8853ed1e9664","system_id":"levelo_inurba_marseille","lat":43.29559,"lon":5.42289,"is_reserved":false,"is_disabled":false,"rental_uris":{"android":"levelo://app?vid=d3445804-aa86-4322-9d7c-8853ed1e9664","ios":"levelo://app?vid=d3445804-aa86-4322-9d7c-8853ed1e9664"},"vehicle_type_id":"4","last_reported":1783256808,"current_range_meters":8400,"station_id":"ce4bhph2rcd13ifvqhdg","pricing_plan_id":"cebpf4jnsgd1na2vs0mg"},{"bike_id":"64bf0160-8d27-43dd-b37b-f0902d5032ce","system_id":"levelo_inurba_marseille","lat":43.295,"lon":5.43305,"is_reserved":false,"is_disabled":false,"rental_uris":{"android":"levelo://app?vid=64bf0160-8d27-43dd-b37b-f0902d5032ce","ios":"levelo://app?vid=64bf0160-8d27-43dd-b37b-f0902d5032ce"},"vehicle_type_id":"4","last_reported":1783256808,"current_range_meters":8400,"station_id":"st_d3j5ugp08ojc73fj9d10","pricing_plan_id":"cebpf4jnsgd1na2vs0mg"},{"bike_id":"2a7dad97-12f9-4af9-a8c8-7e70ea279c5c","system_id":"levelo_inurba_marseille","lat":43.27386,"lon":5.36258,"is_reserved":false,"is_disabled":false,"rental_uris":{"android":"levelo://app?vid=2a7dad97-12f9-4af9-a8c8-7e70ea279c5c","ios":"levelo://app?vid=2a7dad97-12f9-4af9-a8c8-7e70ea279c5c"},"vehicle_type_id":"4","last_reported":1783256808,"current_range_meters":8400,"station_id":"ce4bhbh2rcd13ifvqeo0","pricing_plan_id":"cebpf4jnsgd1na2vs0mg"},{"bike_id":"45c3e3f9-70c8-4770-9ce3-4857834d6f95","system_id":"levelo_inurba_marseille","lat":43.25091,"lon":5.39524,"is_reserved":false,"is_disabled":false,"rental_uris":{"android":"levelo://app?vid=45c3e3f9-70c8-4770-9ce3-4857834d6f95","ios":"levelo://app?vid=45c3e3f9-70c8-4770-9ce3-4857834d6f95"},"vehicle_type_id":"4","last_reported":1783256808,"current_range_meters":8400,"station_id":"ce4bhm12rcd13ifvqgkg","pricing_plan_id":"cebpf4jnsgd1na2vs0mg"},{"bike_id":"734a2b36-f813-4ac8-aa3c-52e586919a54","system_id":"levelo_inurba_marseille","lat":43.23192,"lon":5.35558,"is_reserved":false,"is_disabled":false,"rental_uris":{"android":"levelo://app?vid=734a2b36-f813-4ac8-aa3c-52e586919a54","ios":"levelo://app?vid=734a2b36-f813-4ac8-aa3c-52e586919a54"},