{"last_updated":1751372490,"ttl":60,"version":"2.2","data":{"bikes":[{"bike_id":"3da29fb8-fc97-44c6-b9ac-31dd456b2fd4","system_id":"levelo_inurba_marseille","lat":43.33771,"lon":5.37424,"is_reserved":false,"is_disabled":true,"rental_uris":{"android":"levelo://app?vid=3da29fb8-fc97-44c6-b9ac-31dd456b2fd4","ios":"levelo://app?vid=3da29fb8-fc97-44c6-b9ac-31dd456b2fd4"},"vehicle_type_id":"4","last_reported":1751372490,"current_range_meters":0,"station_id":"","pricing_plan_id":"cebpf4jnsgd1na2vs0mg"},{"bike_id":"01861ad8-a8d7-4be6-816e-651927c87584","system_id":"levelo_inurba_marseille","lat":43.33751,"lon":5.37456,"is_reserved":false,"is_disabled":true,"rental_uris":{"android":"levelo://app?vid=01861ad8-a8d7-4be6-816e-651927c87584","ios":"levelo://app?vid=01861ad8-a8d7-4be6-816e-651927c87584"},"vehicle_type_id":"4","last_reported":1751372490,"current_range_meters":0,"station_id":"","pricing_plan_id":"cebpf4jnsgd1na2vs0mg"},{"bike_id":"c0233825-48c7-4308-99a0-0cbf10efd402","system_id":"levelo_inurba_marseille","lat":43.32271,"lon":5.37455,"is_reserved":false,"is_disabled":true,"rental_uris":{"android":"levelo://app?vid=c0233825-48c7-4308-99a0-0cbf10efd402","ios":"levelo://app?vid=c0233825-48c7-4308-99a0-0cbf10efd402"},"vehicle_type_id":"4","last_reported":1751372490,"current_range_meters":0,"station_id":"","pricing_plan_id":"cebpf4jnsgd1na2vs0mg"},{"bike_id":"3168b9fb-97d2-4a0e-b7ee-673bb8cf7525","system_id":"levelo_inurba_marseille","lat":43.277753,"lon":5.35568,"is_reserved":false,"is_disabled":true,"rental_uris":{"android":"levelo://app?vid=3168b9fb-97d2-4a0e-b7ee-673bb8cf7525","ios":"levelo://app?vid=3168b9fb-97d2-4a0e-b7ee-673bb8cf7525"},"vehicle_type_id":"4","last_reported":1751372490,"current_range_meters":0,"station_id":"","pricing_plan_id":"cebpf4jnsgd1na2vs0mg"},{"bike_id":"1d934d30-6a85-4b30-9a35-9bb4ad4cb2ca","system_id":"levelo_inurba_marseille","lat":43.32726,"lon":5.42399,"is_reserved":false,"is_disabled":true,"rental_uris":{"android":"levelo://app?vid=1d934d30-6a85-4b30-9a35-9bb4ad4cb2ca","ios":"levelo://app?vid=1d934d30-6a85-4b30-9a35-9bb4ad4cb2ca"},"vehicle_type_id":"4","last_reported":1751372490,"current_range_meters":0,"station_id":"","pricing_plan_id":"cebpf4jnsgd1na2vs0mg"},{"bike_id":"2850ea7e-df18-492b-825f-2053f060420f","system_id":"levelo_inurba_marseille","lat":43.29728,"lon":5.38236,"is_reserved":false,"is_disabled":true,"rental_uris":{"android":"levelo://app?vid=2850ea7e-df18-492b-825f-2053f060420f","ios":"levelo://app?vid=2850ea7e-df18-492b-825f-2053f060420f"},"vehicle_type_id":"4","last_reported":1751372490,"current_range_meters":0,"station_id":"","pricing_plan_id":"cebpf4jnsgd1na2vs0mg"},{"bike_id":"3378c13c-e4e0-45be-9bfe-f3a4bc2c600e","system_id":"levelo_inurba_marseille","lat":43.29769,"lon":5.46024,"is_reserved":false,"is_disabled":true,"rental_uris":{"android":"levelo://app?vid=3378c13c-e4e0-45be-9bfe-f3a4bc2c600e","ios":"levelo://app?vid=3378c13c-e4e0-45be-9bfe-f3a4bc2c600e"},"vehicle_type_id":"4","last_reported":1751372490,"current_range_meters":0,"station_id":"","pricing_plan_id":"cebpf4jnsgd1na2vs0mg"},{"bike_id":"2ccccc82-c8a9-4c3b-909d-52c0bf697aa3","system_id":"levelo_inurba_marseille","lat":43.27616,"lon":5.35889,"is_reserved":false,"is_disabled":true,"rental_uris":{"android":"levelo://app?vid=2ccccc82-c8a9-4c3b-909d-52c0bf697aa3","ios":"levelo://app?vid=2ccccc82-c8a9-4c3b-909d-52c0bf697aa3"},"vehicle_type_id":"4","last_reported":1751372490,"current_range_meters":0,"station_id":"","pricing_plan_id":"cebpf4jnsgd1na2vs0mg"},{"bike_id":"c9700359-7f1e-4ea5-8eb5-d9c4ea1b8ef7","system_id":"levelo_inurba_marseille","lat":43.263219,"lon":5.374054,"is_reserved":false,"is_disabled":true,"rental_uris":{"android":"levelo://app?vid=c9700359-7f1e-4ea5-8eb5-d9c4ea1b8ef7","ios":"levelo://app?vid=c9700359-7f1e-4ea5-8eb5-d9c4ea1b8ef7"},"vehicle_type_id":"4","last_reported":1751372490,"current_range_meters":0,"station_id":"","pricing_plan_id":"cebpf4jnsgd1na2vs0mg"},{"bike_id":"3035be0e-7c3d-4f7d-a1cb-7a1af59e497b","system_id":"levelo_inurba_marseille","lat":43.29693,"lon":5.36035,"is_reserved":false,"is_disabled":true,"rental_uris":{"android":"levelo://app?vid=3035be0e-7c3d-4f7d-a1cb-7a1af59e497b","ios":"levelo://app?vid=3035be0e-7c3d-4f7d-a1cb-7a1af59e497b"},"vehicle_type_id":"4","last_reported":1751372490,"current_range_meters":0,"station_id":"","pricing_plan_id":"cebpf4jnsgd1na2vs0mg"},{"bike_id":"bb99217f-b54c-44c9-b007-c7f9996fde08","system_id":"levelo_inurba_marseille","lat":43.28848,"lon":5.35857,"is_reserved":false,"is_disabled":true,"rental_uris":{"android":"levelo://app?vid=bb99217f-b54c-44c9-b007-c7f9996fde08","ios":"levelo://app?vid=bb99217f-b54c-44c9-b007-c7f9996fde08"},"vehicle_type_id":"4","last_reported":1751372490,"current_range_meters":0,"station_id":"ce4bhb12rcd13ifvqem0","pricing_plan_id":"cebpf4jnsgd1na2vs0mg"},{"bike_id":"ea22bb3f-e05c-459a-9831-699dcb9acaeb","system_id":"levelo_inurba_marseille","lat":43.29279,"lon":5.368496,"is_reserved":false,"is_disabled":true,"rental_uris":{"android":"levelo://app?vid=ea22bb3f-e05c-459a-9831-699dcb9acaeb","ios":"levelo://app?vid=ea22bb3f-e05c-459a-9831-699dcb9acaeb"},"vehicle_type_id":"4","last_reported":1751372490,"current_range_meters":0,"station_id":"ce4bhbp2rcd13ifvqesg","pricing_plan_id":"cebpf4jnsgd1na2vs0mg"},{"bike_id":"453d087c-a682-476a-ba85-3e6771fb57ff","system_id":"levelo_inurba_marseille","lat":43.27961,"lon":5.38728,"is_reserved":false,"is_disabled":true,"rental_uris":{"android":"levelo://app?vid=453d087c-a682-476a-ba85-3e6771fb57ff","ios":"levelo://app?vid=453d087c-a682-476a-ba85-3e6771fb57ff"},"vehicle_type_id":"4","last_reported":1751372490,"current_range_meters":0,"station_id":"ce4bhg12rcd13ifvqf80","pricing_plan_id":"cebpf4jnsgd1na2vs0mg"},{"bike_id":"816f05e8-ec23-4bf5-86cb-a39286c04e0e","system_id":"levelo_inurba_marseille","lat":43.24414,"lon":5.37071,"is_reserved":false,"is_disabled":true,"rental_uris":{"android":"levelo://app?vid=816f05e8-ec23-4bf5-86cb-a39286c04e0e","ios":"levelo://app?vid=816f05e8-ec23-4bf5-86cb-a39286c04e0e"},"vehicle_type_id":"4","last_reported":1751372490,"current_range_meters":0,"station_id":"ce4bhhh2rcd13ifvqfk0","pricing_plan_id":"cebpf4jnsgd1na2vs0mg"},{"bike_id":"ee731810-37f8-4e7b-8aee-c2490535e4f7","system_id":"levelo_inurba_marseille","lat":43.27685,"lon":5.38913,"is_reserved":false,"is_disabled":true,"rental_uris":{"android":"levelo://app?vid=ee731810-37f8-4e7b-8aee-c2490535e4f7","ios":"levelo://app?vid=ee731810-37f8-4e7b-8aee-c2490535e4f7"},"vehicle_type_id":"4","last_reported":1751372490,"current_range_meters":0,"station_id":"ce4bhi12rcd13ifvqfo0","pricing_plan_id":"cebpf4jnsgd1na2vs0mg"},{"bike_id":"c28f004a-44dd-4fc5-9e7f-d5d7cece7df1","system_id":"levelo_inurba_marseille","lat":43.2707,"lon":5.42286,"is_reserved":false,"is_disabled":true,"rental_uris":{"android":"levelo://app?vid=c28f004a-44dd-4fc5-9e7f-d5d7cece7df1","ios":"levelo://app?vid=c28f004a-44dd-4fc5-9e7f-d5d7cece7df1"},"vehicle_type_id":"4","last_reported":1751372490,"current_range_meters":0,"station_id":"ce4bhk92rcd13ifvqgb0","pricing_plan_id":"cebpf4jnsgd1na2vs0mg"},{"bike_id":"f7abb8d7-8f5e-48fe-ac52-159e83347b0e","system_id":"levelo_inurba_marseille","lat":43.271719,"lon":5.410008,"is_reserved":false,"is_disabled":true,"rental_uris":{"android":"levelo://app?vid=f7abb8d7-8f5e-48fe-ac52-159e83347b0e","ios":"levelo://app?vid=f7abb8d7-8f5e-48fe-ac52-159e83347b0e"},"vehicle_type_id":"4","last_reported":1751372490,"current_range_meters":0,"station_id":"ce4bhl12rcd13ifvqgf0","pricing_plan_id":"cebpf4jnsgd1na2vs0mg"},{"bike_id":"37552715-d29e-4f5b-b79d-967e2fbfdfe3","system_id":"levelo_inurba_marseille","lat":43.23141,"lon":5.43725,"is_reserved":false,"is_disabled":true,"rental_uris":{"android":"levelo://app?vid=37552715-d29e-4f5b-b79d-967e2fbfdfe3","ios":"levelo://app?vid=37552715-d29e-4f5b-b79d-967e2fbfdfe3"},"vehicle_type_id":"4","last_reported":1751372490,"current_range_meters":0,"station_id":"ce4bhmp2rcd13ifvqgog","pricing_plan_id":"cebpf4jnsgd1na2vs0mg"},{"bike_id":"4a78cc22-d633-46fc-9314-a51aa464cdd5","system_id":"levelo_inurba_marseille","lat":43.23176,"lon":5.39976,"is_reserved":false,"is_disabled":true,"rental_uris":{"android":"levelo://app?vid=4a78cc22-d633-46fc-9314-a51aa464cdd5","ios":"levelo://app?vid=4a78cc22-d633-46fc-9314-a51aa464cdd5"},"vehicle_type_id":"4","last_reported":1751372490,"current_range_meters":0,"station_id":"ce4bhn12rcd13ifvqgqg","pricing_plan_id":"cebpf4jnsgd1na2vs0mg"},{"bike_id":"289203e1-8390-4fd2-a184-a4735cc5bd92","system_id":"levelo_inurba_marseille","lat":43.28079,"lon":5.39664,"is_reserved":false,"is_disabled":true,"rental_uris":{"android":"levelo://app?vid=289203e1-8390-4fd2-a184-a4735cc5bd92","ios":"levelo://app?vid=289203e1-8390-4fd2-a184-a4735cc5bd92"},"vehicle_type_id":"4","last_reported":1751372490,"current_range_meters":0,"station_id":"ce4bho12rcd13ifvqh2g","pricing_plan_id":"cebpf4jnsgd1na2vs0mg"},{"bike_id":"9418efcb-9652-42bc-b8cb-428107bc9139","system_id":"levelo_inurba_marseille","lat":43.32333,"lon":5.40645,"is_reserved":false,"is_disabled":true,"rental_uris":{"android":"levelo://app?vid=9418efcb-9652-42bc-b8cb-428107bc9139","ios":"levelo://app?vid=9418efcb-9652-42bc-b8cb-428107bc9139"},"vehicle_type_id":"4","last_reported":1751372490,"current_range_meters":0,"station_id":"ce4bhq92rcd13ifvqhjg","pricing_plan_id":"cebpf4jnsgd1na2vs0mg"},{"bike_id":"6dece33c-c9d6-43dc-8723-f2dabe39d9a8","system_id":"levelo_inurba_marseille","lat":43.293732,"lon":5.378586,"is_reserved":false,"is_disabled":false,"rental_uris":{"android":"levelo://app?vid=6dece33c-c9d6-43dc-8723-f2dabe39d9a8","ios":"levelo://app?vid=6dece33c-c9d6-43dc-8723-f2dabe39d9a8"},"vehicle_type_id":"4","last_reported":1751372490,"current_range_meters":400,"station_id":"ce4bgjh2rcd13ifvqbf0","pricing_plan_id":"cebpf4jnsgd1na2vs0mg"},{"bike_id":"730f3a83-1477-4c8e-aa98-8938748656b7","system_id":"levelo_inurba_marseille","lat":43.31359,"lon":5.36727,"is_reserved":false,"is_disabled":true,"rental_uris":{"android":"levelo://app?vid=730f3a83-1477-4c8e-aa98-8938748656b7","ios":"levelo://app?vid=730f3a83-1477-4c8e-aa98-8938748656b7"},"vehicle_type_id":"4","last_reported":1751372490,"current_range_meters":400,"station_id":"ce4bgr92rcd13ifvqc6g","pricing_plan_id":"cebpf4jnsgd1na2vs0mg"},{"bike_id":"48469a09-3d0d-4f41-8645-1d892c57f0fb","system_id":"levelo_inurba_marseille","lat":43.300963,"lon":5.391113,"is_reserved":false,"is_disabled":true,"rental_uris":{"android":"levelo://app?vid=48469a09-3d0d-4f41-8645-1d892c57f0fb","ios":"levelo://app?vid=48469a09-3d0d-4f41-8645-1d892c57f0fb"},"vehicle_type_id":"4","last_reported":1751372490,"current_range_meters":400,"station_id":"ce4bh192rcd13ifvqdb0","pricing_plan_id":"cebpf4jnsgd1na2vs0mg"},{"bike_id":"75171e1b-7301-4727-a2db-3e4ae81253fa","system_id":"levelo_inurba_marseille","lat":43.26561,"lon":5.39032,"is_reserved":false,"is_disabled":true,"rental_uris":{"android":"levelo://app?vid=75171e1b-7301-4727-a2db-3e4ae81253fa","ios":"levelo://app?vid=75171e1b-7301-4727-a2db-3e4ae81253fa"},"vehicle_type_id":"4","last_reported":1751372490,"current_range_meters":400,"station_id":"ce4bhe12rcd13ifvqf30","pricing_plan_id":"cebpf4jnsgd1na2vs0mg"},{"bike_id":"7c617506-95d5-4b87-8210-9fb58a8633f5","system_id":"levelo_inurba_marseille","lat":43.23156,"lon":5.43746,"is_reserved":false,"is_disabled":true,"rental_uris":{"android":"levelo://app?vid=7c617506-95d5-4b87-8210-9fb58a8633f5","ios":"levelo://app?vid=7c617506-95d5-4b87-8210-9fb58a8633f5"},"vehicle_type_id":"4","last_reported":1751372490,"current_range_meters":400,"station_id":"ce4bhmp2rcd13ifvqgog","pricing_plan_id":"cebpf4jnsgd1na2vs0mg"},{"bike_id":"fef598a8-1773-4f6b-b1b5-c047abf388a6","system_id":"levelo_inurba_marseille","lat":43.30415,"lon":5.4129,"is_reserved":false,"is_disabled":true,"rental_uris":{"android":"levelo://app?vid=fef598a8-1773-4f6b-b1b5-c047abf388a6","ios":"levelo://app?vid=fef598a8-1773-4f6b-b1b5-c047abf388a6"},"vehicle_type_id":"4","last_reported":1751372490,"current_range_meters":400,"station_id":"ce4bhop2rcd13ifvqh8g","pricing_plan_id":"cebpf4jnsgd1na2vs0mg"},{"bike_id":"aa7c1294-53bb-4f8d-b10f-8f1ee41d4dc6","system_id":"levelo_inurba_marseille","lat":43.2991,"lon":5.38141,"is_reserved":false,"is_disabled":true,"rental_uris":{"android":"levelo://app?vid=aa7c1294-53bb-4f8d-b10f-8f1ee41d4dc6","ios":"levelo://app?vid=aa7c1294-53bb-4f8d-b10f-8f1ee41d4dc6"},"vehicle_type_id":"4","last_reported":1751372490,"current_range_meters":800,"station_id":"ce4bgj12rcd13ifvqbc0","pricing_plan_id":"cebpf4jnsgd1na2vs0mg"},{"bike_id":"7225b1a5-e406-4c52-b620-7ecc2458ae5f","system_id":"levelo_inurba_marseille","lat":43.29973,"lon":5.38489,"is_reserved":false,"is_disabled":true,"rental_uris":{"android":"levelo://app?vid=7225b1a5-e406-4c52-b620-7ecc2458ae5f","ios":"levelo://app?vid=7225b1a5-e406-4c52-b620-7ecc2458ae5f"},"vehicle_type_id":"4","last_reported":1751372490,"current_range_meters":800,"station_id":"ce4bgj92rcd13ifvqbd0","pricing_plan_id":"cebpf4jnsgd1na2vs0mg"},{"bike_id":"f019deff-dd60-4bb4-b939-30c1da464bf6","system_id":"levelo_inurba_marseille","lat":43.28558,"lon":5.39462,"is_reserved":false,"is_disabled":true,"rental_uris":{"android":"levelo://app?vid=f019deff-dd60-4bb4-b939-30c1da464bf6","ios":"levelo://app?vid=f019deff-dd60-4bb4-b939-30c1da464bf6"},"vehicle_type_id":"4","last_reported":1751372490,"current_range_meters":800,"station_id":"ce4bh292rcd13ifvqdg0","pricing_plan_id":"cebpf4jnsgd1na2vs0mg"},{"bike_id":"a2e408a0-3023-4ca2-8851-775812262359","system_id":"levelo_inurba_marseille","lat":43.2743,"lon":5.39422,"is_reserved":false,"is_disabled":true,"rental_uris":{"android":"levelo://app?vid=a2e408a0-3023-4ca2-8851-775812262359","ios":"levelo://app?vid=a2e408a0-3023-4ca2-8851-775812262359"},"vehicle_type_id":"4","last_reported":1751372490,"current_range_meters":800,"station_id":"ce4bhdp2rcd13ifvqf20","pricing_plan_id":"cebpf4jnsgd1na2vs0mg"},{"bike_id":"d29f4831-ac45-4fc7-af33-27e1bf5d9dee","system_id":"levelo_inurba_marseille","lat":43.26209,"lon":5.37445,"is_reserved":false,"is_disabled":true,"rental_uris":{"android":"levelo://app?vid=d29f4831-ac45-4fc7-af33-27e1bf5d9dee","ios":"levelo://app?vid=d29f4831-ac45-4fc7-af33-27e1bf5d9dee"},"vehicle_type_id":"4","last_reported":1751372490,"current_range_meters":800,"station_id":"ce4bhgp2rcd13ifvqfc0","pricing_plan_id":"cebpf4jnsgd1na2vs0mg"},{"bike_id":"f3bb54e5-5710-469b-95d1-519f2df26e28","system_id":"levelo_inurba_marseille","lat":43.3026,"lon":5.38189,"is_reserved":false,"is_disabled":true,"rental_uris":{"android":"levelo://app?vid=f3bb54e5-5710-469b-95d1-519f2df26e28","ios":"levelo://app?vid=f3bb54e5-5710-469b-95d1-519f2df26e28"},"vehicle_type_id":"4","last_reported":1751372490,"current_range_meters":1200,"station_id":"","pricing_plan_id":"cebpf4jnsgd1na2vs0mg"},{"bike_id":"a2925c89-c3b2-420b-9d57-1d5d74283141","system_id":"levelo_inurba_marseille","lat":43.27677,"lon":5.38875,"is_reserved":false,"is_disabled":true,"rental_uris":{"android":"levelo://app?vid=a2925c89-c3b2-420b-9d57-1d5d74283141","ios":"levelo://app?vid=a2925c89-c3b2-420b-9d57-1d5d74283141"},"vehicle_type_id":"4","last_reported":1751372490,"current_range_meters":1200,"station_id":"","pricing_plan_id":"cebpf4jnsgd1na2vs0mg"},{"bike_id":"46ed2b9f-1912-466e-b039-bc4b03b9c281","system_id":"levelo_inurba_marseille","lat":43.23774,"lon":5.36198,"is_reserved":false,"is_disabled":true,"rental_uris":{"android":"levelo://app?vid=46ed2b9f-1912-466e-b039-bc4b03b9c281","ios":"levelo://app?vid=46ed2b9f-1912-466e-b039-bc4b03b9c281"},"vehicle_type_id":"4","last_reported":1751372490,"current_range_meters":1200,"station_id":"","pricing_plan_id":"cebpf4jnsgd1na2vs0mg"},{"bike_id":"d4f12fcd-b8e6-4824-8126-b760f91bd432","system_id":"levelo_inurba_marseille","lat":43.307941,"lon":5.376412,"is_reserved":false,"is_disabled":true,"rental_uris":{"android":"levelo://app?vid=d4f12fcd-b8e6-4824-8126-b760f91bd432","ios":"levelo://app?vid=d4f12fcd-b8e6-4824-8126-b760f91bd432"},"vehicle_type_id":"4","last_reported":1751372490,"current_range_meters":1200,"station_id":"ce4bgv92rcd13ifvqcq0","pricing_plan_id":"cebpf4jnsgd1na2vs0mg"},{"bike_id":"8b89af98-e916-4489-9ec0-52b13b42d26f","system_id":"levelo_inurba_marseille","lat":43.29272,"lon":5.38461,"is_reserved":false,"is_disabled":true,"rental_uris":{"android":"levelo://app?vid=8b89af98-e916-4489-9ec0-52b13b42d26f","ios":"levelo://app?vid=8b89af98-e916-4489-9ec0-52b13b42d26f"},"vehicle_type_id":"4","last_reported":1751372490,"current_range_meters":1200,"station_id":"ce4bh692rcd13ifvqea0","pricing_plan_id":"cebpf4jnsgd1na2vs0mg"},{"bike_id":"ae7bb415-8317-4907-8c49-afc11dd67163","system_id":"levelo_inurba_marseille","lat":43.27921,"lon":5.39579,"is_reserved":false,"is_disabled":true,"rental_uris":{"android":"levelo://app?vid=ae7bb415-8317-4907-8c49-afc11dd67163","ios":"levelo://app?vid=ae7bb415-8317-4907-8c49-afc11dd67163"},"vehicle_type_id":"4","last_reported":1751372490,"current_range_meters":1200,"station_id":"ce4bhf92rcd13ifvqf40","pricing_plan_id":"cebpf4jnsgd1na2vs0mg"},{"bike_id":"c1d7c74c-f4b6-4a96-8b0b-60a6d06c4f08","system_id":"levelo_inurba_marseille","lat":43.30547,"lon":5.36562,"is_reserved":false,"is_disabled":true,"rental_uris":{"android":"levelo://app?vid=c1d7c74c-f4b6-4a96-8b0b-60a6d06c4f08","ios":"levelo://app?vid=c1d7c74c-f4b6-4a96-8b0b-60a6d06c4f08"},"vehicle_type_id":"4","last_reported":1751372490,"current_range_meters":1600,"station_id":"ce4bgs12rcd13ifvqcag","pricing_plan_id":"cebpf4jnsgd1na2vs0mg"},{"bike_id":"fa73f5a0-0b67-4f78-bb31-5def4f2ff7c9","system_id":"levelo_inurba_marseille","lat":43.28418,"lon":5.3751,"is_reserved":false,"is_disabled":true,"rental_uris":{"android":"levelo://app?vid=fa73f5a0-0b67-4f78-bb31-5def4f2ff7c9","ios":"levelo://app?vid=fa73f5a0-0b67-4f78-bb31-5def4f2ff7c9"},"vehicle_type_id":"4","last_reported":1751372490,"current_range_meters":1600,"station_id":"ce4bh412rcd13ifvqds0","pricing_plan_id":"cebpf4jnsgd1na2vs0mg"},{"bike_id":"137d327d-bee2-4083-b69b-6b9b27098594","system_id":"levelo_inurba_marseille","lat":43.24998,"lon":5.389072,"is_reserved":false,"is_disabled":true,"rental_uris":{"android":"levelo://app?vid=137d327d-bee2-4083-b69b-6b9b27098594","ios":"levelo://app?vid=137d327d-bee2-4083-b69b-6b9b27098594"},"vehicle_type_id":"4","last_reported":1751372490,"current_range_meters":1600,"station_id":"ce4bhgp2rcd13ifvqfd0","pricing_plan_id":"cebpf4jnsgd1na2vs0mg"},{"bike_id":"dbf90e11-c368-4965-a824-607e00955203","system_id":"levelo_inurba_marseille","lat":43.27079,"lon":5.42286,"is_reserved":false,"is_disabled":true,"rental_uris":{"android":"levelo://app?vid=dbf90e11-c368-4965-a824-607e00955203","ios":"levelo://app?vid=dbf90e11-c368-4965-a824-607e00955203"},"vehicle_type_id":"4","last_reported":1751372490,"current_range_meters":1600,"station_id":"ce4bhk92rcd13ifvqgb0","pricing_plan_id":"cebpf4jnsgd1na2vs0mg"},{"bike_id":"6346854d-967c-470e-9bcf-0ee9cbb31745","system_id":"levelo_inurba_marseille","lat":43.26919,"lon":5.420446,"is_reserved":false,"is_disabled":false,"rental_uris":{"android":"levelo://app?vid=6346854d-967c-470e-9bcf-0ee9cbb31745","ios":"levelo://app?vid=6346854d-967c-470e-9bcf-0ee9cbb31745"},"vehicle_type_id":"4","last_reported":1751372490,"current_range_meters":2800,"station_id":"","pricing_plan_id":"cebpf4jnsgd1na2vs0mg"},{"bike_id":"7a186b6b-bbe3-4da0-b33a-add6a92d4405","system_id":"levelo_inurba_marseille","lat":43.28923,"lon":5.38394,"is_reserved":false,"is_disabled":false,"rental_uris":{"android":"levelo://app?vid=7a186b6b-bbe3-4da0-b33a-add6a92d4405","ios":"levelo://app?vid=7a186b6b-bbe3-4da0-b33a-add6a92d4405"},"vehicle_type_id":"4","last_reported":1751372490,"current_range_meters":2800,"station_id":"ce4bh612rcd13ifvqe6g","pricing_plan_id":"cebpf4jnsgd1na2vs0mg"},{"bike_id":"7547e1e4-2d85-4907-971d-6c8e5c4cb529","system_id":"levelo_inurba_marseille","lat":43.253662,"lon":5.375312,"is_reserved":false,"is_disabled":false,"rental_uris":{"android":"levelo://app?vid=7547e1e4-2d85-4907-971d-6c8e5c4cb529","ios":"levelo://app?vid=7547e1e4-2d85-4907-971d-6c8e5c4cb529"},"vehicle_type_id":"4","last_reported":1751372490,"current_range_meters":3600,"station_id":"","pricing_plan_id":"cebpf4jnsgd1na2vs0mg"},{"bike_id":"e5a91c12-a9d1-463a-8abe-d0dd37cf3197","system_id":"levelo_inurba_marseille","lat":43.29804,"lon":5.37751,"is_reserved":false,"is_disabled":false,"rental_uris":{"android":"levelo://app?vid=e5a91c12-a9d1-463a-8abe-d0dd37cf3197","ios":"levelo://app?vid=e5a91c12-a9d1-463a-8abe-d0dd37cf3197"},"vehicle_type_id":"4","last_reported":1751372490,"current_range_meters":3600,"station_id":"","pricing_plan_id":"cebpf4jnsgd1na2vs0mg"},{"bike_id":"f9d7b080-0e2d-4d16-8524-f20f64f5d68f","system_id":"levelo_inurba_marseille","lat":43.26552,"lon":5.37297,"is_reserved":false,"is_disabled":false,"rental_uris":{"android":"levelo://app?vid=f9d7b080-0e2d-4d16-8524-f20f64f5d68f","ios":"levelo://app?vid=f9d7b080-0e2d-4d16-8524-f20f64f5d68f"},"vehicle_type_id":"4","last_reported":1751372490,"current_range_meters":3600,"station_id":"ce4bhg12rcd13ifvqf70","pricing_plan_id":"cebpf4jnsgd1na2vs0mg"},{"bike_id":"a414ce93-8f0e-4419-958b-aa025cec168b","system_id":"levelo_inurba_marseille","lat":43.269559,"lon":5.386313,"is_reserved":false,"is_disabled":false,"rental_uris":{"android":"levelo://app?vid=a414ce93-8f0e-4419-958b-aa025cec168b","ios":"levelo://app?vid=a414ce93-8f0e-4419-958b-aa025cec168b"},"vehicle_type_id":"4","last_reported":1751372490,"current_range_meters":3600,"station_id":"ce4bhh92rcd13ifvqfh0","pricing_plan_id":"cebpf4jnsgd1na2vs0mg"},{"bike_id":"9eae4642-36df-4e73-8e16-05e0e51ba04b","system_id":"levelo_inurba_marseille","lat":43.23966,"lon":5.36638,"is_reserved":false,"is_disabled":false,"rental_uris":{"android":"levelo://app?vid=9eae4642-36df-4e73-8e16-05e0e51ba04b","ios":"levelo://app?vid=9eae4642-36df-4e73-8e16-05e0e51ba04b"},"vehicle_type_id":"4","last_reported":1751372490,"current_range_meters":3600,"station_id":"ce4bhi12rcd13ifvqfp0","pricing_plan_id":"cebpf4jnsgd1na2vs0mg"},{"bike_id":"e6fa3b24-05f5-4e79-88fb-fea68bc1b26a","system_id":"levelo_inurba_marseille","lat":43.289762,"lon":5.378356,"is_reserved":false,"is_disabled":false,"rental_uris":{"android":"levelo://app?vid=e6fa3b24-05f5-4e79-88fb-fea68bc1b26a","ios":"levelo://app?vid=e6fa3b24-05f5-4e79-88fb-fea68bc1b26a"},"vehicle_type_id":"4","last_reported":1751372490,"current_range_meters":4000,"station_id":"ce4bh9p2rcd13ifvqed0","pricing_plan_id":"cebpf4jnsgd1na2vs0mg"},{"bike_id":"cbecfc24-5ce4-44d2-bcdb-8ced60de9d6d","system_id":"levelo_inurba_marseille","lat":43.24178,"lon":5.39752,"is_reserved":false,"is_disabled":false,"rental_uris":{"android":"levelo://app?vid=cbecfc24-5ce4-44d2-bcdb-8ced60de9d6d","ios":"levelo://app?vid=cbecfc24-5ce4-44d2-bcdb-8ced60de9d6d"},"vehicle_type_id":"4","last_reported":1751372490,"current_range_meters":4000,"station_id":"ce4bhn12rcd13ifvqgpg","pricing_plan_id":"cebpf4jnsgd1na2vs0mg"},{"bike_id":"b42a1b0a-6bbe-4d18-8cde-d51780e7125b","system_id":"levelo_inurba_marseille","lat":43.29304,"lon":5.3718,"is_reserved":false,"is_disabled":false,"rental_uris":{"android":"levelo://app?vid=b42a1b0a-6bbe-4d18-8cde-d51780e7125b","ios":"levelo://app?vid=b42a1b0a-6bbe-4d18-8cde-d51780e7125b"},"vehicle_type_id":"4","last_reported":1751372490,"current_range_meters":4400,"station_id":"ce4bgh92rcd13ifvqb40","pricing_plan_id":"cebpf4jnsgd1na2vs0mg"},{"bike_id":"522926c8-4e47-4277-927e-d559f4c5b7d5","system_id":"levelo_inurba_marseille","lat":43.28482,"lon":5.38577,"is_reserved":false,"is_disabled":false,"rental_uris":{"android":"levelo://app?vid=522926c8-4e47-4277-927e-d559f4c5b7d5","ios":"levelo://app?vid=522926c8-4e47-4277-927e-d559f4c5b7d5"},"vehicle_type_id":"4","last_reported":1751372490,"current_range_meters":4400,"station_id":"ce4bh8p2rcd13ifvqeb0","pricing_plan_id":"cebpf4jnsgd1na2vs0mg"},{"bike_id":"1b226ac8-817f-45f3-9a69-f54d706a4112","system_id":"levelo_inurba_marseille","lat":43.29525,"lon":5.3751,"is_reserved":false,"is_disabled":false,"rental_uris":{"android":"levelo://app?vid=1b226ac8-817f-45f3-9a69-f54d706a4112","ios":"levelo://app?vid=1b226ac8-817f-45f3-9a69-f54d706a4112"},"vehicle_type_id":"4","last_reported":1751372490,"current_range_meters":4800,"station_id":"ce4bgkp2rcd13ifvqbmg","pricing_plan_id":"cebpf4jnsgd1na2vs0mg"},{"bike_id":"8a6cfdae-08c1-415d-ae0f-262217df14ed","system_id":"levelo_inurba_marseille","lat":43.26791,"lon":5.39432,"is_reserved":false,"is_disabled":false,"rental_uris":{"android":"levelo://app?vid=8a6cfdae-08c1-415d-ae0f-262217df14ed","ios":"levelo://app?vid=8a6cfdae-08c1-415d-ae0f-262217df14ed"},"vehicle_type_id":"4","last_reported":1751372490,"current_range_meters":4800,"station_id":"ce4bhh12rcd13ifvqfg0","pricing_plan_id":"cebpf4jnsgd1na2vs0mg"},{"bike_id":"90da4221-315e-48e2-9395-2494421a87f4","system_id":"levelo_inurba_marseille","lat":43.267875,"lon":5.394109,"is_reserved":false,"is_disabled":false,"rental_uris":{"android":"levelo://app?vid=90da4221-315e-48e2-9395-2494421a87f4","ios":"levelo://app?vid=90da4221-315e-48e2-9395-2494421a87f4"},"vehicle_type_id":"4","last_reported":1751372490,"current_range_meters":4800,"station_id":"ce4bhh12rcd13ifvqfg0","pricing_plan_id":"cebpf4jnsgd1na2vs0mg"},{"bike_id":"2c89be04-6b4a-4ea4-8eca-2820de3c879b","system_id":"levelo_inurba_marseille","lat":43.29518,"lon":5.37518,"is_reserved":false,"is_disabled":false,"rental_uris":{"android":"levelo://app?vid=2c89be04-6b4a-4ea4-8eca-2820de3c879b","ios":"levelo://app?vid=2c89be04-6b4a-4ea4-8eca-2820de3c879b"},"vehicle_type_id":"4","last_reported":1751372490,"current_range_meters":6000,"station_id":"ce4bgkp2rcd13ifvqbmg","pricing_plan_id":"cebpf4jnsgd1na2vs0mg"},{"bike_id":"0229f2bd-7f12-4d1e-ba06-317ff465ba11","system_id":"levelo_inurba_marseille","lat":43.27372,"lon":5.36261,"is_reserved":false,"is_disabled":false,"rental_uris":{"android":"levelo://app?vid=0229f2bd-7f12-4d1e-ba06-317ff465ba11","ios":"levelo://app?vid=0229f2bd-7f12-4d1e-ba06-317ff465ba11"},"vehicle_type_id":"4","last_reported":1751372490,"current_range_meters":6000,"station_id":"ce4bhbh2rcd13ifvqeo0","pricing_plan_id":"cebpf4jnsgd1na2vs0mg"},{"bike_id":"8aa8d3ec-3a93-426a-a4eb-65bfb8875fbc","system_id":"levelo_inurba_marseille","lat":43.26781,"lon":5.39436,"is_reserved":false,"is_disabled":false,"rental_uris":{"android":"levelo://app?vid=8aa8d3ec-3a93-426a-a4eb-65bfb8875fbc","ios":"levelo://app?vid=8aa8d3ec-3a93-426a-a4eb-65bfb8875fbc"},"vehicle_type_id":"4","last_reported":1751372490,"current_range_meters":6000,"station_id":"ce4bhh12rcd13ifvqfg0","pricing_plan_id":"cebpf4jnsgd1na2vs0mg"},{"bike_id":"162af4e6-d224-4240-aeac-6cb0ae06de53","system_id":"levelo_inurba_marseille","lat":43.29933,"lon":5.3784,"is_reserved":false,"is_disabled":false,"rental_uris":{"android":"levelo://app?vid=162af4e6-d224-4240-aeac-6cb0ae06de53","ios":"levelo://app?vid=162af4e6-d224-4240-aeac-6cb0ae06de53"},"vehicle_type_id":"4","last_reported":1751372490,"current_range_meters":6400,"station_id":"","pricing_plan_id":"cebpf4jnsgd1na2vs0mg"},{"bike_id":"60c8ecec-9810-425c-aac9-eec106161132","system_id":"levelo_inurba_marseille","lat":43.301503,"lon":5.38074,"is_reserved":false,"is_disabled":false,"rental_uris":{"android":"levelo://app?vid=60c8ecec-9810-425c-aac9-eec106161132","ios":"levelo://app?vid=60c8ecec-9810-425c-aac9-eec106161132"},"vehicle_type_id":"4","last_reported":1751372490,"current_range_meters":6400,"station_id":"ce4bgjp2rcd13ifvqbh0","pricing_plan_id":"cebpf4jnsgd1na2vs0mg"},{"bike_id":"6d1721d8-b5a5-4717-bb3b-441f122ed14f","system_id":"levelo_inurba_marseille","lat":43.258252,"lon":5.394369,"is_reserved":false,"is_disabled":false,"rental_uris":{"android":"levelo://app?vid=6d1721d8-b5a5-4717-bb3b-441f122ed14f","ios":"levelo://app?vid=6d1721d8-b5a5-4717-bb3b-441f122ed14f"},"vehicle_type_id":"4","last_reported":1751372490,"current_range_meters":6400,"station_id":"ce4bhip2rcd13ifvqft0","pricing_plan_id":"cebpf4jnsgd1na2vs0mg"},{"bike_id":"7f626dcb-d15c-4062-90ea-e96e5a2d31ac","system_id":"levelo_inurba_marseille","lat":43.25916,"lon":5.40881,"is_reserved":false,"is_disabled":false,"rental_uris":{"android":"levelo://app?vid=7f626dcb-d15c-4062-90ea-e96e5a2d31ac","ios":"levelo://app?vid=7f626dcb-d15c-4062-90ea-e96e5a2d31ac"},"vehicle_type_id":"4","last_reported":1751372490,"current_range_meters":6400,"station_id":"ce4bhm92rcd13ifvqglg","pricing_plan_id":"cebpf4jnsgd1na2vs0mg"},{"bike_id":"1165b7cb-e86e-471a-b3a2-eff31e453346","system_id":"levelo_inurba_marseille","lat":43.30908,"lon":5.36847,"is_reserved":false,"is_disabled":false,"rental_uris":{"android":"levelo://app?vid=1165b7cb-e86e-471a-b3a2-eff31e453346","ios":"levelo://app?vid=1165b7cb-e86e-471a-b3a2-eff31e453346"},"vehicle_type_id":"4","last_reported":1751372490,"current_range_meters":6800,"station_id":"ce4bgn92rcd13ifvqbvg","pricing_plan_id":"cebpf4jnsgd1na2vs0mg"},{"bike_id":"7f00e97d-ef60-4d23-9383-9462308f59c2","system_id":"levelo_inurba_marseille","lat":43.28846,"lon":5.39321,"is_reserved":false,"is_disabled":false,"rental_uris":{"android":"levelo://app?vid=7f00e97d-ef60-4d23-9383-9462308f59c2","ios":"levelo://app?vid=7f00e97d-ef60-4d23-9383-9462308f59c2"},"vehicle_type_id":"4","last_reported":1751372490,"current_range_meters":6800,"station_id":"ce4bh2p2rcd13ifvqdi0","pricing_plan_id":"cebpf4jnsgd1na2vs0mg"},{"bike_id":"eb40e1fe-42a0-4a30-9821-5efb12313975","system_id":"levelo_inurba_marseille","lat":43.27602,"lon":5.36125,"is_reserved":false,"is_disabled":false,"rental_uris":{"android":"levelo://app?vid=eb40e1fe-42a0-4a30-9821-5efb12313975","ios":"levelo://app?vid=eb40e1fe-42a0-4a30-9821-5efb12313975"},"vehicle_type_id":"4","last_reported":1751372490,"current_range_meters":7200,"station_id":"ce4bgj92rcd13ifvqbe0","pricing_plan_id":"cebpf4jnsgd1na2vs0mg"},{"bike_id":"07e9ddb0-98c0-410d-92a1-cdb19b7c6778","system_id":"levelo_inurba_marseille","lat":43.26573,"lon":5.37323,"is_reserved":false,"is_disabled":false,"rental_uris":{"android":"levelo://app?vid=07e9ddb0-98c0-410d-92a1-cdb19b7c6778","ios":"levelo://app?vid=07e9ddb0-98c0-410d-92a1-cdb19b7c6778"},"vehicle_type_id":"4","last_reported":1751372490,"current_range_meters":7200,"station_id":"ce4bhg12rcd13ifvqf70","pricing_plan_id":"cebpf4jnsgd1na2vs0mg"},{"bike_id":"8b9d21e6-8a4e-419a-b688-8b00ef9b0c55","system_id":"levelo_inurba_marseille","lat":43.25582,"lon":5.38229,"is_reserved":false,"is_disabled":false,"rental_uris":{"android":"levelo://app?vid=8b9d21e6-8a4e-419a-b688-8b00ef9b0c55","ios":"levelo://app?vid=8b9d21e6-8a4e-419a-b688-8b00ef9b0c55"},"vehicle_type_id":"4","last_reported":1751372490,"current_range_meters":7200,"station_id":"ce4bhih2rcd13ifvqfs0","pricing_plan_id":"cebpf4jnsgd1na2vs0mg"},{"bike_id":"4a69db3c-752a-435b-9227-3e23b38614b2","system_id":"levelo_inurba_marseille","lat":43.252569,"lon":5.402423,"is_reserved":false,"is_disabled":false,"rental_uris":{"android":"levelo://app?vid=4a69db3c-752a-435b-9227-3e23b38614b2","ios":"levelo://app?vid=4a69db3c-752a-435b-9227-3e23b38614b2"},"vehicle_type_id":"4","last_reported":1751372490,"current_range_meters":7200,"station_id":"ce4bhlh2rcd13ifvqgig","pricing_plan_id":"cebpf4jnsgd1na2vs0mg"},{"bike_id":"b05ac08d-847b-4f20-ac36-038a0d69d167","system_id":"levelo_inurba_marseille","lat":43.28147,"lon":5.35888,"is_reserved":false,"is_disabled":false,"rental_uris":{"android":"levelo://app?vid=b05ac08d-847b-4f20-ac36-038a0d69d167","ios":"levelo://app?vid=b05ac08d-847b-4f20-ac36-038a0d69d167"},"vehicle_type_id":"4","last_reported":1751372490,"current_range_meters":8000,"station_id":"","pricing_plan_id":"cebpf4jnsgd1na2vs0mg"},{"bike_id":"f5c16f07-bc6f-4121-91a7-5ad90eec4f34","system_id":"levelo_inurba_marseille","lat":43.31184,"lon":5.37338,"is_reserved":false,"is_disabled":false,"rental_uris":{"android":"levelo://app?vid=f5c16f07-bc6f-4121-91a7-5ad90eec4f34","ios":"levelo://app?vid=f5c16f07-bc6f-4121-91a7-5ad90eec4f34"},"vehicle_type_id":"4","last_reported":1751372490,"current_range_meters":8000,"station_id":"","pricing_plan_id":"cebpf4jnsgd1na2vs0mg"},{"bike_id":"16d6e57d-2ba0-42eb-9c19-14304430761c","system_id":"levelo_inurba_marseille","lat":43.28947,"lon":5.36419,"is_reserved":false,"is_disabled":false,"rental_uris":{"android":"levelo://app?vid=16d6e57d-2ba0-42eb-9c19-14304430761c","ios":"levelo://app?vid=16d6e57d-2ba0-42eb-9c19-14304430761c"},"vehicle_type_id":"4","last_reported":1751372490,"current_range_meters":8000,"station_id":"ce4bhc92rcd13ifvqetg","pricing_plan_id":"cebpf4jnsgd1na2vs0mg"},{"bike_id":"c6543004-f669-4aef-845e-485b9cf2a2b1","system_id":"levelo_inurba_marseille","lat":43.24071,"lon":5.3777,"is_reserved":false,"is_disabled":false,"rental_uris":{"android":"levelo://app?vid=c6543004-f669-4aef-845e-485b9cf2a2b1","ios":"levelo://app?vid=c6543004-f669-4aef-845e-485b9cf2a2b1"},"vehicle_type_id":"4","last_reported":1751372490,"current_range_meters":8000,"station_id":"ce4bhnp2rcd13ifvqgvg","pricing_plan_id":"cebpf4jnsgd1na2vs0mg"},{"bike_id":"dd867314-2e9d-4b39-8ffb-081e063a8a30","system_id":"levelo_inurba_marseille","lat":43.31758,"lon":5.39023,"is_reserved":false,"is_disabled":false,"rental_uris":{"android":"levelo://app?vid=dd867314-2e9d-4b39-8ffb-081e063a8a30","ios":"levelo://app?vid=dd867314-2e9d-4b39-8ffb-081e063a8a30"},"vehicle_type_id":"4","last_reported":1751372490,"current_range_meters":8000,"station_id":"ce4bhqp2rcd13ifvqhng","pricing_plan_id":"cebpf4jnsgd1na2vs0mg"},{"bike_id":"43fcb430-53f7-4349-b49c-62f8e6ea8db4","system_id":"levelo_inurba_marseille","lat":43.284588,"lon":5.436981,"is_reserved":false,"is_disabled":false,"rental_uris":{"android":"levelo://app?vid=43fcb430-53f7-4349-b49c-62f8e6ea8db4","ios":"levelo://app?vid=43fcb430-53f7-4349-b49c-62f8e6ea8db4"},"vehicle_type_id":"4","last_reported":1751372490,"current_range_meters":8400,"station_id":"","pricing_plan_id":"cebpf4jnsgd1na2vs0mg"},{"bike_id":"898dd710-685d-4cd4-ad52-76aad5cd9000","system_id":"levelo_inurba_marseille","lat":43.243998,"lon":5.37079,"is_reserved":false,"is_disabled":false,"rental_uris":{"android":"levelo://app?vid=898dd710-685d-4cd4-ad52-76aad5cd9000","ios":"levelo://app?vid=898dd710-685d-4cd4-ad52-76aad5cd9000"},"vehicle_type_id":"4","last_reported":1751372490,"current_range_meters":8400,"station_id":"ce4bhhh2rcd13ifvqfk0","pricing_plan_id":"cebpf4jnsgd1na2vs0mg"},{"bike_id":"94201ba3-6986-4fe1-b639-17f3409890c2","system_id":"levelo_inurba_marseille","lat":43.31892,"lon":5.40744,"is_reserved":false,"is_disabled":false,"rental_uris":{"android":"levelo://app?vid=94201ba3-6986-4fe1-b639-17f3409890c2","ios":"levelo://app?vid=94201ba3-6986-4fe1-b639-17f3409890c2"},"vehicle_type_id":"4","last_reported":1751372490,"current_range_meters":8400,"station_id":"ce4bhq12rcd13ifvqhig","pricing_plan_id":"cebpf4jnsgd1na2vs0mg"},{"bike_id":"66ef9f2c-e7ab-42d5-94d2-a18ebfdba047","system_id":"levelo_inurba_marseille","lat":43.29367,"lon":5.37848,"is_reserved":false,"is_disabled":false,"rental_uris":{"android":"levelo://app?vid=66ef9f2c-e7ab-42d5-94d2-a18ebfdba047","ios":"levelo://app?vid=66ef9f2c-e7ab-42d5-94d2-a18ebfdba047"},"vehicle_type_id":"4","last_reported":1751372490,"current_range_meters":8800,"station_id":"ce4bgjh2rcd13ifvqbf0","pricing_plan_id":"cebpf4jnsgd1na2vs0mg"},{"bike_id":"bc699f02-590b-48d0-8785-6776448e0761","system_id":"levelo_inurba_marseille","lat":43.28264,"lon":5.35064,"is_reserved":false,"is_disabled":false,"rental_uris":{"android":"levelo://app?vid=bc699f02-590b-48d0-8785-6776448e0761","ios":"levelo://app?vid=bc699f02-590b-48d0-8785-6776448e0761"},"vehicle_type_id":"4","last_reported":1751372490,"current_range_meters":8800,"station_id":"ce4bhbp2rcd13ifvqerg","pricing_plan_id":"cebpf4jnsgd1na2vs0mg"},{"bike_id":"c13c93ac-6b62-443c-9e36-caf61b27325a","system_id":"levelo_inurba_marseille","lat":43.21227,"lon":5.35078,"is_reserved":false,"is_disabled":false,"rental_uris":{"android":"levelo://app?vid=c13c93ac-6b62-443c-9e36-caf61b27325a","ios":"levelo://app?vid=c13c93ac-6b62-443c-9e36-caf61b27325a"},"vehicle_type_id":"4","last_reported":1751372490,"current_range_meters":9200,"station_id":"","pricing_plan_id":"cebpf4jnsgd1na2vs0mg"},{"bike_id":"860ecc02-a6d5-4fbe-ada6-b9197deada15","system_id":"levelo_inurba_marseille","lat":43.32561,"lon":5.38948,"is_reserved":false,"is_disabled":false,"rental_uris":{"android":"levelo://app?vid=860ecc02-a6d5-4fbe-ada6-b9197deada15","ios":"levelo://app?vid=860ecc02-a6d5-4fbe-ada6-b9197deada15"},"vehicle_type_id":"4","last_reported":1751372490,"current_range_meters":9200,"station_id":"","pricing_plan_id":"cebpf4jnsgd1na2vs0mg"},{"bike_id":"618fe49f-9135-4d6d-a694-740d46fb900f","system_id":"levelo_inurba_marseille","lat":43.29032,"lon":5.38657,"is_reserved":false,"is_disabled":false,"rental_uris":{"android":"levelo://app?vid=618fe49f-9135-4d6d-a694-740d46fb900f","ios":"levelo://app?vid=618fe49f-9135-4d6d-a694-740d46fb900f"},"vehicle_type_id":"4","last_reported":1751372490,"current_range_meters":9200,"station_id":"ce4bh4p2rcd13ifvqe0g","pricing_plan_id":"cebpf4jnsgd1na2vs0mg"},{"bike_id":"ba7f7fd2-b9b4-434f-9c79-b3f930d2ff31","system_id":"levelo_inurba_marseille","lat":43.27564,"lon":5.3843,"is_reserved":false,"is_disabled":false,"rental_uris":{"android":"levelo://app?vid=ba7f7fd2-b9b4-434f-9c79-b3f930d2ff31","ios":"levelo://app?vid=ba7f7fd2-b9b4-434f-9c79-b3f930d2ff31"},"vehicle_type_id":"4","last_reported":1751372490,"current_range_meters":9200,"station_id":"ce4bhh92rcd13ifvqfi0","pricing_plan_id":"cebpf4jnsgd1na2vs0mg"},{"bike_id":"038a31ad-4a6b-4817-a422-9749b17af5ed","system_id":"levelo_inurba_marseille","lat":43.28,"lon":5.40018,"is_reserved":false,"is_disabled":false,"rental_uris":{"android":"levelo://app?vid=038a31ad-4a6b-4817-a422-9749b17af5ed","ios":"levelo://app?vid=038a31ad-4a6b-4817-a422-9749b17af5ed"},"vehicle_type_id":"4","last_reported":1751372490,"current_range_meters":9200,"station_id":"ce4bho92rcd13ifvqh4g","pricing_plan_id":"cebpf4jnsgd1na2vs0mg"},{"bike_id":"8252b44a-d048-4379-9209-2efa2e627825","system_id":"levelo_inurba_marseille","lat":43.29231,"lon":5.40596,"is_reserved":false,"is_disabled":false,"rental_uris":{"android":"levelo://app?vid=8252b44a-d048-4379-9209-2efa2e627825","ios":"levelo://app?vid=8252b44a-d048-4379-9209-2efa2e627825"},"vehicle_type_id":"4","last_reported":1751372490,"current_range_meters":9600,"station_id":"","pricing_plan_id":"cebpf4jnsgd1na2vs0mg"},{"bike_id":"aaa86ae1-c78c-464a-bdfd-dbc6011e50c4","system_id":"levelo_inurba_marseille","lat":43.31397,"lon":5.36722,"is_reserved":false,"is_disabled":false,"rental_uris":{"android":"levelo://app?vid=aaa86ae1-c78c-464a-bdfd-dbc6011e50c4","ios":"levelo://app?vid=aaa86ae1-c78c-464a-bdfd-dbc6011e50c4"},"vehicle_type_id":"4","last_reported":1751372490,"current_range_meters":9600,"station_id":"ce4bgr92rcd13ifvqc6g","pricing_plan_id":"cebpf4jnsgd1na2vs0mg"},{"bike_id":"56be89a4-f32b-4791-84c8-af5e60e1f92c","system_id":"levelo_inurba_marseille","lat":43.28275,"lon":5.35059,"is_reserved":false,"is_disabled":false,"rental_uris":{"android":"levelo://app?vid=56be89a4-f32b-4791-84c8-af5e60e1f92c","ios":"levelo://app?vid=56be89a4-f32b-4791-84c8-af5e60e1f92c"},"vehicle_type_id":"4","last_reported":1751372490,"current_range_meters":9600,"station_id":"ce4bhbp2rcd13ifvqerg","pricing_plan_id":"cebpf4jnsgd1na2vs0mg"},{"bike_id":"6fc7d9da-f033-4c3e-be74-042e325f72cd","system_id":"levelo_inurba_marseille","lat":43.26684,"lon":5.38274,"is_reserved":false,"is_disabled":false,"rental_uris":{"android":"levelo://app?vid=6fc7d9da-f033-4c3e-be74-042e325f72cd","ios":"levelo://app?vid=6fc7d9da-f033-4c3e-be74-042e325f72cd"},"vehicle_type_id":"4","last_reported":1751372490,"current_range_meters":9600,"station_id":"ce4bhg92rcd13ifvqf90","pricing_plan_id":"cebpf4jnsgd1na2vs0mg"},{"bike_id":"6b04a8db-f012-4ea9-88f5-d59ff3f24fd9","system_id":"levelo_inurba_marseille","lat":43.29894,"lon":5.43647,"is_reserved":false,"is_disabled":false,"rental_uris":{"android":"levelo://app?vid=6b04a8db-f012-4ea9-88f5-d59ff3f24fd9","ios":"levelo://app?vid=6b04a8db-f012-4ea9-88f5-d59ff3f24fd9"},"vehicle_type_id":"4","last_reported":1751372490,"current_range_meters":9600,"station_id":"ce4bhpp2rcd13ifvqhfg","pricing_plan_id":"cebpf4jnsgd1na2vs0mg"},{"bike_id":"ac4cf6bf-ae0d-49a1-afc8-485ee29ed51b","system_id":"levelo_inurba_marseille","lat":43.272627,"lon":5.411615,"is_reserved":false,"is_disabled":false,"rental_uris":{"android":"levelo://app?vid=ac4cf6bf-ae0d-49a1-afc8-485ee29ed51b","ios":"levelo://app?vid=ac4cf6bf-ae0d-49a1-afc8-485ee29ed51b"},"vehicle_type_id":"4","last_reported":1751372490,"current_range_meters":10000,"station_id":"","pricing_plan_id":"cebpf4jnsgd1na2vs0mg"},{"bike_id":"69414a00-6b92-45ef-9e22-ba9deca86057","system_id":"levelo_inurba_marseille","lat":43.27574,"lon":5.38425,"is_reserved":false,"is_disabled":false,"rental_uris":{"android":"levelo://app?vid=69414a00-6b92-45ef-9e22-ba9deca86057","ios":"levelo://app?vid=69414a00-6b92-45ef-9e22-ba9deca86057"},"vehicle_type_id":"4","last_reported":1751372490,"current_range_meters":10000,"station_id":"ce4bhh92rcd13ifvqfi0","pricing_plan_id":"cebpf4jnsgd1na2vs0mg"},{"bike_id":"56536789-5ce0-4e42-a12f-cd59fccbc66d","system_id":"levelo_inurba_marseille","lat":43.321115,"lon":5.367687,"is_reserved":false,"is_disabled":false,"rental_uris":{"android":"levelo://app?vid=56536789-5ce0-4e42-a12f-cd59fccbc66d","ios":"levelo://app?vid=56536789-5ce0-4e42-a12f-cd59fccbc66d"},"vehicle_type_id":"4","last_reported":1751372490,"current_range_meters":10000,"station_id":"ce4bhrh2rcd13ifvqhug","pricing_plan_id":"cebpf4jnsgd1na2vs0mg"},{"bike_id":"c75c483c-9e50-412f-92a7-54f0afb7a3f0","system_id":"levelo_inurba_marseille","lat":43.30319,"lon":5.40439,"is_reserved":false,"is_disabled":false,"rental_uris":{"android":"levelo://app?vid=c75c483c-9e50-412f-92a7-54f0afb7a3f0","ios":"levelo://app?vid=c75c483c-9e50-412f-92a7-54f0afb7a3f0"},"vehicle_type_id":"4","last_reported":1751372490,"current_range_meters":10800,"station_id":"ce4bh012rcd13ifvqd10","pricing_plan_id":"cebpf4jnsgd1na2vs0mg"},{"bike_id":"07d7a8f0-27e6-4873-8743-cc9e967095a6","system_id":"levelo_inurba_marseille","lat":43.21189,"lon":5.35082,"is_reserved":false,"is_disabled":false,"rental_uris":{"android":"levelo://app?vid=07d7a8f0-27e6-4873-8743-cc9e967095a6","ios":"levelo://app?vid=07d7a8f0-27e6-4873-8743-cc9e967095a6"},"vehicle_type_id":"4","last_reported":1751372490,"current_range_meters":10800,"station_id":"st_cvj6sg6p6f1abm77japg","pricing_plan_id":"cebpf4jnsgd1na2vs0mg"},{"bike_id":"b2ec7371-4e1a-4f7b-ae6c-60c5a54c237b","system_id":"levelo_inurba_marseille","lat":43.211961,"lon":5.350663,"is_reserved":false,"is_disabled":false,"rental_uris":{"android":"levelo://app?vid=b2ec7371-4e1a-4f7b-ae6c-60c5a54c237b","ios":"levelo://app?vid=b2ec7371-4e1a-4f7b-ae6c-60c5a54c237b"},"vehicle_type_id":"4","last_reported":1751372490,"current_range_meters":10800,"station_id":"st_cvj6sg6p6f1abm77japg","pricing_plan_id":"cebpf4jnsgd1na2vs0mg"},{"bike_id":"7d577141-8382-4bec-99bc-4ee9069b9311","system_id":"levelo_inurba_marseille","lat":43.29624,"lon":5.37175,"is_reserved":false,"is_disabled":false,"rental_uris":{"android":"levelo://app?vid=7d577141-8382-4bec-99bc-4ee9069b9311","ios":"levelo://app?vid=7d577141-8382-4bec-99bc-4ee9069b9311"},"vehicle_type_id":"4","last_reported":1751372490,"current_range_meters":11200,"station_id":"ce4bgnh2rcd13ifvqc0g","pricing_plan_id":"cebpf4jnsgd1na2vs0mg"},{"bike_id":"7cdaf104-8d6a-46bc-81d9-956dc327dd05","system_id":"levelo_inurba_marseille","lat":43.29587,"lon":5.36735,"is_reserved":false,"is_disabled":false,"rental_uris":{"android":"levelo://app?vid=7cdaf104-8d6a-46bc-81d9-956dc327dd05","ios":"levelo://app?vid=7cdaf104-8d6a-46bc-81d9-956dc327dd05"},"vehicle_type_id":"4","last_reported":1751372490,"current_range_meters":11200,"station_id":"ce4bgph2rcd13ifvqc2g","pricing_plan_id":"cebpf4jnsgd1na2vs0mg"},{"bike_id":"5f422771-0d98-4f6c-a332-e3ea5f32282c","system_id":"levelo_inurba_marseille","lat":43.2886,"lon":5.35861,"is_reserved":false,"is_disabled":false,"rental_uris":{"android":"levelo://app?vid=5f422771-0d98-4f6c-a332-e3ea5f32282c","ios":"levelo://app?vid=5f422771-0d98-4f6c-a332-e3ea5f32282c"},"vehicle_type_id":"4","last_reported":1751372490,"current_range_meters":11200,"station_id":"ce4bhb12rcd13ifvqem0","pricing_plan_id":"cebpf4jnsgd1na2vs0mg"},{"bike_id":"43eb0a95-a42b-4fb1-afa6-904af12c6e74","system_id":"levelo_inurba_marseille","lat":43.25726,"lon":5.41096,"is_reserved":false,"is_disabled":false,"rental_uris":{"android":"levelo://app?vid=43eb0a95-a42b-4fb1-afa6-904af12c6e74","ios":"levelo://app?vid=43eb0a95-a42b-4fb1-afa6-904af12c6e74"},"vehicle_type_id":"4","last_reported":1751372490,"current_range_meters":11200,"station_id":"ce4bhkp2rcd13ifvqgd0","pricing_plan_id":"cebpf4jnsgd1na2vs0mg"},{"bike_id":"5c24072f-9a8b-47bf-80e1-a90eb108d810","system_id":"levelo_inurba_marseille","lat":43.2953,"lon":5.37509,"is_reserved":false,"is_disabled":false,"rental_uris":{"android":"levelo://app?vid=5c24072f-9a8b-47bf-80e1-a90eb108d810","ios":"levelo://app?vid=5c24072f-9a8b-47bf-80e1-a90eb108d810"},"vehicle_type_id":"4","last_reported":1751372490,"current_range_meters":11600,"station_id":"ce4bgkp2rcd13ifvqbmg","pricing_plan_id":"cebpf4jnsgd1na2vs0mg"},{"bike_id":"a28c59f5-fce1-481a-bcff-87b69ba3d8a2","system_id":"levelo_inurba_marseille","lat":43.30279,"lon":5.36898,"is_reserved":false,"is_disabled":false,"rental_uris":{"android":"levelo://app?vid=a28c59f5-fce1-481a-bcff-87b69ba3d8a2","ios":"levelo://app?vid=a28c59f5-fce1-481a-bcff-87b69ba3d8a2"},"vehicle_type_id":"4","last_reported":1751372490,"current_range_meters":11600,"station_id":"ce4bgqh2rcd13ifvqc5g","pricing_plan_id":"cebpf4jnsgd1na2vs0mg"},{"bike_id":"094b67c2-9449-4dac-bb24-745b71c96455","system_id":"levelo_inurba_marseille","lat":43.2738,"lon":5.36264,"is_reserved":false,"is_disabled":false,"rental_uris":{"android":"levelo://app?vid=094b67c2-9449-4dac-bb24-745b71c96455","ios":"levelo://app?vid=094b67c2-9449-4dac-bb24-745b71c96455"},"vehicle_type_id":"4","last_reported":1751372490,"current_range_meters":11600,"station_id":"ce4bhbh2rcd13ifvqeo0","pricing_plan_id":"cebpf4jnsgd1na2vs0mg"},{"bike_id":"95a50a5b-1319-4220-a381-804b2a2a2d49","system_id":"levelo_inurba_marseille","lat":43.23063,"lon":5.35492,"is_reserved":false,"is_disabled":false,"rental_uris":{"android":"levelo://app?vid=95a50a5b-1319-4220-a381-804b2a2a2d49","ios":"levelo://app?vid=95a50a5b-1319-4220-a381-804b2a2a2d49"},"vehicle_type_id":"4","last_reported":1751372490,"current_range_meters":11600,"station_id":"cpo3342slgdg3j2ifvpg","pricing_plan_id":"cebpf4jnsgd1na2vs0mg"},{"bike_id":"81f992a9-cae1-4d6e-9c4c-cba00bcbe721","system_id":"levelo_inurba_marseille","lat":43.25686,"lon":5.41018,"is_reserved":false,"is_disabled":false,"rental_uris":{"android":"levelo://app?vid=81f992a9-cae1-4d6e-9c4c-cba00bcbe721","ios":"levelo://app?vid=81f992a9-cae1-4d6e-9c4c-cba00bcbe721"},"vehicle_type_id":"4","last_reported":1751372490,"current_range_meters":12000,"station_id":"","pricing_plan_id":"cebpf4jnsgd1na2vs0mg"},{"bike_id":"c27e395e-bf2e-4af8-af6f-ac9feb9ade56","system_id":"levelo_inurba_marseille","lat":43.24652,"lon":5.38894,"is_reserved":false,"is_disabled":false,"rental_uris":{"android":"levelo://app?vid=c27e395e-bf2e-4af8-af6f-ac9feb9ade56","ios":"levelo://app?vid=c27e395e-bf2e-4af8-af6f-ac9feb9ade56"},"vehicle_type_id":"4","last_reported":1751372490,"current_range_meters":12000,"station_id":"ce4bhg12rcd13ifvqf60","pricing_plan_id":"cebpf4jnsgd1na2vs0mg"},{"bike_id":"ae330994-fb10-47c2-8371-1c1e115b4434","system_id":"levelo_inurba_marseille","lat":43.34134,"lon":5.40906,"is_reserved":false,"is_disabled":false,"rental_uris":{"android":"levelo://app?vid=ae330994-fb10-47c2-8371-1c1e115b4434","ios":"levelo://app?vid=ae330994-fb10-47c2-8371-1c1e115b4434"},"vehicle_type_id":"4","last_reported":1751372490,"current_range_meters":12000,"station_id":"ce4bhqh2rcd13ifvqhlg","pricing_plan_id":"cebpf4jnsgd1na2vs0mg"},{"bike_id":"e7a06c63-8b0e-48d2-9310-ac61906a3cd3","system_id":"levelo_inurba_marseille","lat":43.3089,"lon":5.36856,"is_reserved":false,"is_disabled":false,"rental_uris":{"android":"levelo://app?vid=e7a06c63-8b0e-48d2-9310-ac61906a3cd3","ios":"levelo://app?vid=e7a06c63-8b0e-48d2-9310-ac61906a3cd3"},"vehicle_type_id":"4","last_reported":1751372490,"current_range_meters":12400,"station_id":"ce4bgn92rcd13ifvqbvg","pricing_plan_id":"cebpf4jnsgd1na2vs0mg"},{"bike_id":"5b94e27d-0e61-4a42-bf41-c82457e812dc","system_id":"levelo_inurba_marseille","lat":43.31269,"lon":5.40164,"is_reserved":false,"is_disabled":false,"rental_uris":{"android":"levelo://app?vid=5b94e27d-0e61-4a42-bf41-c82457e812dc","ios":"levelo://app?vid=5b94e27d-0e61-4a42-bf41-c82457e812dc"},"vehicle_type_id":"4","last_reported":1751372490,"current_range_meters":12400,"station_id":"ce4bh092rcd13ifvqd30","pricing_plan_id":"cebpf4jnsgd1na2vs0mg"},{"bike_id":"eacdff40-ffca-4f3c-a901-6126fddc1b4d","system_id":"levelo_inurba_marseille","lat":43.27386,"lon":5.36252,"is_reserved":false,"is_disabled":false,"rental_uris":{"android":"levelo://app?vid=eacdff40-ffca-4f3c-a901-6126fddc1b4d","ios":"levelo://app?vid=eacdff40-ffca-4f3c-a901-6126fddc1b4d"},"vehicle_type_id":"4","last_reported":1751372490,"current_range_meters":12400,"station_id":"ce4bhbh2rcd13ifvqeo0","pricing_plan_id":"cebpf4jnsgd1na2vs0mg"},{"bike_id":"73a1b367-0de8-4463-a628-07c448ce953c","system_id":"levelo_inurba_marseille","lat":43.28273,"lon":5.35062,"is_reserved":false,"is_disabled":false,"rental_uris":{"android":"levelo://app?vid=73a1b367-0de8-4463-a628-07c448ce953c","ios":"levelo://app?vid=73a1b367-0de8-4463-a628-07c448ce953c"},"vehicle_type_id":"4","last_reported":1751372490,"current_range_meters":12400,"station_id":"ce4bhbp2rcd13ifvqerg","pricing_plan_id":"cebpf4jnsgd1na2vs0mg"},{"bike_id":"72091e8d-9864-46f1-9a9a-580b9cfb0226","system_id":"levelo_inurba_marseille","lat":43.26013,"lon":5.37518,"is_reserved":false,"is_disabled":false,"rental_uris":{"android":"levelo://app?vid=72091e8d-9864-46f1-9a9a-580b9cfb0226","ios":"levelo://app?vid=72091e8d-9864-46f1-9a9a-580b9cfb0226"},"vehicle_type_id":"4","last_reported":1751372490,"current_range_meters":12400,"station_id":"ce4bhgh2rcd13ifvqfa0","pricing_plan_id":"cebpf4jnsgd1na2vs0mg"},{"bike_id":"e499cb2c-713a-4174-aa1d-daf10325f143","system_id":"levelo_inurba_marseille","lat":43.27812,"lon":5.40713,"is_reserved":false,"is_disabled":false,"rental_uris":{"android":"levelo://app?vid=e499cb2c-713a-4174-aa1d-daf10325f143","ios":"levelo://app?vid=e499cb2c-713a-4174-aa1d-daf10325f143"},"vehicle_type_id":"4","last_reported":1751372490,"current_range_meters":12400,"station_id":"ce4bhnh2rcd13ifvqgtg","pricing_plan_id":"cebpf4jnsgd1na2vs0mg"},{"bike_id":"b28aa0a0-791c-4a08-9a16-c7bf6ea0ed5a","system_id":"levelo_inurba_marseille","lat":43.22503,"lon":5.34786,"is_reserved":false,"is_disabled":false,"rental_uris":{"android":"levelo://app?vid=b28aa0a0-791c-4a08-9a16-c7bf6ea0ed5a","ios":"levelo://app?vid=b28aa0a0-791c-4a08-9a16-c7bf6ea0ed5a"},"vehicle_type_id":"4","last_reported":1751372490,"current_range_meters":12400,"station_id":"st_cvj5dfep6f1abm77gieg","pricing_plan_id":"cebpf4jnsgd1na2vs0mg"},{"bike_id":"ecc3e4bc-b7b8-4f94-bd08-f7327bd1753f","system_id":"levelo_inurba_marseille","lat":43.29485,"lon":5.3792,"is_reserved":false,"is_disabled":false,"rental_uris":{"android":"levelo://app?vid=ecc3e4bc-b7b8-4f94-bd08-f7327bd1753f","ios":"levelo://app?vid=ecc3e4bc-b7b8-4f94-bd08-f7327bd1753f"},"vehicle_type_id":"4","last_reported":1751372490,"current_range_meters":12800,"station_id":"","pricing_plan_id":"cebpf4jnsgd1na2vs0mg"},{"bike_id":"729ed812-0359-471a-af11-52b1bfb49aef","system_id":"levelo_inurba_marseille","lat":43.28416,"lon":5.34991,"is_reserved":false,"is_disabled":false,"rental_uris":{"android":"levelo://app?vid=729ed812-0359-471a-af11-52b1bfb49aef","ios":"levelo://app?vid=729ed812-0359-471a-af11-52b1bfb49aef"},"vehicle_type_id":"4","last_reported":1751372490,"current_range_meters":12800,"station_id":"ce4bhbh2rcd13ifvqepg","pricing_plan_id":"cebpf4jnsgd1na2vs0mg"},{"bike_id":"b86a5af6-f375-47e7-8673-5cb9d7440c97","system_id":"levelo_inurba_marseille","lat":43.29555,"lon":5.42277,"is_reserved":false,"is_disabled":false,"rental_uris":{"android":"levelo://app?vid=b86a5af6-f375-47e7-8673-5cb9d7440c97","ios":"levelo://app?vid=b86a5af6-f375-47e7-8673-5cb9d7440c97"},"vehicle_type_id":"4","last_reported":1751372490,"current_range_meters":12800,"station_id":"ce4bhph2rcd13ifvqhdg","pricing_plan_id":"cebpf4jnsgd1na2vs0mg"},{"bike_id":"2d23d3a7-6cbc-4df4-9886-018b3c43e0d9","system_id":"levelo_inurba_marseille","lat":43.22951,"lon":5.35374,"is_reserved":false,"is_disabled":false,"rental_uris":{"android":"levelo://app?vid=2d23d3a7-6cbc-4df4-9886-018b3c43e0d9","ios":"levelo://app?vid=2d23d3a7-6cbc-4df4-9886-018b3c43e0d9"},"vehicle_type_id":"4","last_reported":1751372490,"current_range_meters":12800,"station_id":"cpo3532slgdg3j2ikp40","pricing_plan_id":"cebpf4jnsgd1na2vs0mg"},{"bike_id":"5631c7ea-fb56-4ee9-8df0-6e0aa2f0ff30","system_id":"levelo_inurba_marseille","lat":43.24179,"lon":5.36419,"is_reserved":false,"is_disabled":false,"rental_uris":{"android":"levelo://app?vid=5631c7ea-fb56-4ee9-8df0-6e0aa2f0ff30","ios":"levelo://app?vid=5631c7ea-fb56-4ee9-8df0-6e0aa2f0ff30"},"vehicle_type_id":"4","last_reported":1751372490,"current_range_meters":12800,"station_id":"cpo36qri1sfpv3e86is0","pricing_plan_id":"cebpf4jnsgd1na2vs0mg"},{"bike_id":"e552832c-7ca2-4106-b0f9-92bbabda27d1","system_id":"levelo_inurba_marseille","lat":43.21195,"lon":5.35077,"is_reserved":false,"is_disabled":false,"rental_uris":{"android":"levelo://app?vid=e552832c-7ca2-4106-b0f9-92bbabda27d1","ios":"levelo://app?vid=e552832c-7ca2-4106-b0f9-92bbabda27d1"},"vehicle_type_id":"4","last_reported":1751372490,"current_range_meters":12800,"station_id":"st_cvj6sg6p6f1abm77japg","pricing_plan_id":"cebpf4jnsgd1na2vs0mg"},{"bike_id":"c2b72fe0-bae6-4c7b-ad48-9e771b203dc8","system_id":"levelo_inurba_marseille","lat":43.31342,"lon":5.38481,"is_reserved":false,"is_disabled":false,"rental_uris":{"android":"levelo://app?vid=c2b72fe0-bae6-4c7b-ad48-9e771b203dc8","ios":"levelo://app?vid=c2b72fe0-bae6-4c7b-ad48-9e771b203dc8"},"vehicle_type_id":"4","last_reported":1751372490,"current_range_meters":13600,"station_id":"ce4bgt92rcd13ifvqcf0","pricing_plan_id":"cebpf4jnsgd1na2vs0mg"},{"bike_id":"d2b2c9f7-7d24-4524-a821-27526206abd8","system_id":"levelo_inurba_marseille","lat":43.292723,"lon":5.368257,"is_reserved":false,"is_disabled":false,"rental_uris":{"android":"levelo://app?vid=d2b2c9f7-7d24-4524-a821-27526206abd8","ios":"levelo://app?vid=d2b2c9f7-7d24-4524-a821-27526206abd8"},"vehicle_type_id":"4","last_reported":1751372490,"current_range_meters":13600,"station_id":"ce4bhbp2rcd13ifvqesg","pricing_plan_id":"cebpf4jnsgd1na2vs0mg"},{"bike_id":"31ed0b39-9940-472f-a103-406ae4875a71","system_id":"levelo_inurba_marseille","lat":43.26784,"lon":5.39469,"is_reserved":false,"is_disabled":false,"rental_uris":{"android":"levelo://app?vid=31ed0b39-9940-472f-a103-406ae4875a71","ios":"levelo://app?vid=31ed0b39-9940-472f-a103-406ae4875a71"},"vehicle_type_id":"4","last_reported":1751372490,"current_range_meters":13600,"station_id":"ce4bhh12rcd13ifvqfg0","pricing_plan_id":"cebpf4jnsgd1na2vs0mg"},{"bike_id":"8757932e-1812-4d79-a709-a08cf6f79851","system_id":"levelo_inurba_marseille","lat":43.28083,"lon":5.39667,"is_reserved":false,"is_disabled":false,"rental_uris":{"android":"levelo://app?vid=8757932e-1812-4d79-a709-a08cf6f79851","ios":"levelo://app?vid=8757932e-1812-4d79-a709-a08cf6f79851"},"vehicle_type_id":"4","last_reported":1751372490,"current_range_meters":13600,"station_id":"ce4bho12rcd13ifvqh2g","pricing_plan_id":"cebpf4jnsgd1na2vs0mg"},{"bike_id":"6e566adb-baf1-4cfa-a7ba-dd4e8927a205","system_id":"levelo_inurba_marseille","lat":43.24158,"lon":5.36402,"is_reserved":false,"is_disabled":false,"rental_uris":{"android":"levelo://app?vid=6e566adb-baf1-4cfa-a7ba-dd4e8927a205","ios":"levelo://app?vid=6e566adb-baf1-4cfa-a7ba-dd4e8927a205"},"vehicle_type_id":"4","last_reported":1751372490,"current_range_meters":13600,"station_id":"cpo36qri1sfpv3e86is0","pricing_plan_id":"cebpf4jnsgd1na2vs0mg"},{"bike_id":"26f7ed1c-34db-4c44-930c-48bf047adf5f","system_id":"levelo_inurba_marseille","lat":43.2416,"lon":5.36401,"is_reserved":false,"is_disabled":false,"rental_uris":{"android":"levelo://app?vid=26f7ed1c-34db-4c44-930c-48bf047adf5f","ios":"levelo://app?vid=26f7ed1c-34db-4c44-930c-48bf047adf5f"},"vehicle_type_id":"4","last_reported":1751372490,"current_range_meters":13600,"station_id":"cpo36qri1sfpv3e86is0","pricing_plan_id":"cebpf4jnsgd1na2vs0mg"},{"bike_id":"116f75ab-1cbe-42a7-b976-3932b01ad5a5","system_id":"levelo_inurba_marseille","lat":43.30536,"lon":5.36718,"is_reserved":false,"is_disabled":false,"rental_uris":{"android":"levelo://app?vid=116f75ab-1cbe-42a7-b976-3932b01ad5a5","ios":"levelo://app?vid=116f75ab-1cbe-42a7-b976-3932b01ad5a5"},"vehicle_type_id":"4","last_reported":1751372490,"current_range_meters":14000,"station_id":"ce4bgrp2rcd13ifvqc9g","pricing_plan_id":"cebpf4jnsgd1na2vs0mg"},{"bike_id":"8b3fc219-ee90-44cc-a530-96f74a90eede","system_id":"levelo_inurba_marseille","lat":43.28616,"lon":5.35107,"is_reserved":false,"is_disabled":false,"rental_uris":{"android":"levelo://app?vid=8b3fc219-ee90-44cc-a530-96f74a90eede","ios":"levelo://app?vid=8b3fc219-ee90-44cc-a530-96f74a90eede"},"vehicle_type_id":"4","last_reported":1751372490,"current_range_meters":14000,"station_id":"ce4bhch2rcd13ifvqeug","pricing_plan_id":"cebpf4jnsgd1na2vs0mg"},{"bike_id":"53cf1b8c-d56f-41f7-98a6-e7b4a07c29bb","system_id":"levelo_inurba_marseille","lat":43.23156,"lon":5.43721,"is_reserved":false,"is_disabled":false,"rental_uris":{"android":"levelo://app?vid=53cf1b8c-d56f-41f7-98a6-e7b4a07c29bb","ios":"levelo://app?vid=53cf1b8c-d56f-41f7-98a6-e7b4a07c29bb"},"vehicle_type_id":"4","last_reported":1751372490,"current_range_meters":14000,"station_id":"ce4bhmp2rcd13ifvqgog","pricing_plan_id":"cebpf4jnsgd1na2vs0mg"},{"bike_id":"ec26225f-ca03-4e6c-9470-975bc71d262e","system_id":"levelo_inurba_marseille","lat":43.32477,"lon":5.36585,"is_reserved":false,"is_disabled":false,"rental_uris":{"android":"levelo://app?vid=ec26225f-ca03-4e6c-9470-975bc71d262e","ios":"levelo://app?vid=ec26225f-ca03-4e6c-9470-975bc71d262e"},"vehicle_type_id":"4","last_reported":1751372490,"current_range_meters":14000,"station_id":"ce4bhs12rcd13ifvqhvg","pricing_plan_id":"cebpf4jnsgd1na2vs0mg"},{"bike_id":"859b6cf6-411c-4a6e-b2f1-d5866da46ff7","system_id":"levelo_inurba_marseille","lat":43.24168,"lon":5.36426,"is_reserved":false,"is_disabled":false,"rental_uris":{"android":"levelo://app?vid=859b6cf6-411c-4a6e-b2f1-d5866da46ff7","ios":"levelo://app?vid=859b6cf6-411c-4a6e-b2f1-d5866da46ff7"},"vehicle_type_id":"4","last_reported":1751372490,"current_range_meters":14000,"station_id":"cpo36qri1sfpv3e86is0","pricing_plan_id":"cebpf4jnsgd1na2vs0mg"},{"bike_id":"27c77a81-e237-479a-84d3-496b6e8c0dc7","system_id":"levelo_inurba_marseille","lat":43.21195,"lon":5.35074,"is_reserved":false,"is_disabled":false,"rental_uris":{"android":"levelo://app?vid=27c77a81-e237-479a-84d3-496b6e8c0dc7","ios":"levelo://app?vid=27c77a81-e237-479a-84d3-496b6e8c0dc7"},"vehicle_type_id":"4","last_reported":1751372490,"current_range_meters":14000,"station_id":"st_cvj6sg6p6f1abm77japg","pricing_plan_id":"cebpf4jnsgd1na2vs0mg"},{"bike_id":"4666634a-05c4-4045-ba90-c73bf16c78b5","system_id":"levelo_inurba_marseille","lat":43.248109,"lon":5.374598,"is_reserved":false,"is_disabled":false,"rental_uris":{"android":"levelo://app?vid=4666634a-05c4-4045-ba90-c73bf16c78b5","ios":"levelo://app?vid=4666634a-05c4-4045-ba90-c73bf16c78b5"},"vehicle_type_id":"4","last_reported":1751372490,"current_range_meters":14400,"station_id":"ce4bhgh2rcd13ifvqfb0","pricing_plan_id":"cebpf4jnsgd1na2vs0mg"},{"bike_id":"93d64365-333b-4b38-a374-2453a33e5a1e","system_id":"levelo_inurba_marseille","lat":43.26794,"lon":5.39411,"is_reserved":false,"is_disabled":false,"rental_uris":{"android":"levelo://app?vid=93d64365-333b-4b38-a374-2453a33e5a1e","ios":"levelo://app?vid=93d64365-333b-4b38-a374-2453a33e5a1e"},"vehicle_type_id":"4","last_reported":1751372490,"current_range_meters":14400,"station_id":"ce4bhh12rcd13ifvqfg0","pricing_plan_id":"cebpf4jnsgd1na2vs0mg"},{"bike_id":"64c35025-af08-442f-b59a-e22a65c55d07","system_id":"levelo_inurba_marseille","lat":43.27568,"lon":5.38417,"is_reserved":false,"is_disabled":false,"rental_uris":{"android":"levelo://app?vid=64c35025-af08-442f-b59a-e22a65c55d07","ios":"levelo://app?vid=64c35025-af08-442f-b59a-e22a65c55d07"},"vehicle_type_id":"4","last_reported":1751372490,"current_range_meters":14400,"station_id":"ce4bhh92rcd13ifvqfi0","pricing_plan_id":"cebpf4jnsgd1na2vs0mg"},{"bike_id":"e1b3ade4-4952-4644-a7de-ea587df0ba4a","system_id":"levelo_inurba_marseille","lat":43.24166,"lon":5.36391,"is_reserved":false,"is_disabled":false,"rental_uris":{"android":"levelo://app?vid=e1b3ade4-4952-4644-a7de-ea587df0ba4a","ios":"levelo://app?vid=e1b3ade4-4952-4644-a7de-ea587df0ba4a"},"vehicle_type_id":"4","last_reported":1751372490,"current_range_meters":14400,"station_id":"cpo36qri1sfpv3e86is0","pricing_plan_id":"cebpf4jnsgd1na2vs0mg"},{"bike_id":"28225780-6c00-4435-8cde-b501bd568f8b","system_id":"levelo_inurba_marseille","lat":43.21763,"lon":5.34589,"is_reserved":false,"is_disabled":false,"rental_uris":{"android":"levelo://app?vid=28225780-6c00-4435-8cde-b501bd568f8b","ios":"levelo://app?vid=28225780-6c00-4435-8cde-b501bd568f8b"},"vehicle_type_id":"4","last_reported":1751372490,"current_range_meters":14400,"station_id":"st_cvj6r9ubvosntc0bgbag","pricing_plan_id":"cebpf4jnsgd1na2vs0mg"},{"bike_id":"0a5a6df3-791d-4e1e-9f7c-cb1cf013a1c7","system_id":"levelo_inurba_marseille","lat":43.25613,"lon":5.41024,"is_reserved":false,"is_disabled":false,"rental_uris":{"android":"levelo://app?vid=0a5a6df3-791d-4e1e-9f7c-cb1cf013a1c7","ios":"levelo://app?vid=0a5a6df3-791d-4e1e-9f7c-cb1cf013a1c7"},"vehicle_type_id":"4","last_reported":1751372490,"current_range_meters":14800,"station_id":"","pricing_plan_id":"cebpf4jnsgd1na2vs0mg"},{"bike_id":"5e889bba-6ad3-499e-a793-70ae2bd29594","system_id":"levelo_inurba_marseille","lat":43.29576,"lon":5.3752,"is_reserved":false,"is_disabled":false,"rental_uris":{"android":"levelo://app?vid=5e889bba-6ad3-499e-a793-70ae2bd29594","ios":"levelo://app?vid=5e889bba-6ad3-499e-a793-70ae2bd29594"},"vehicle_type_id":"4","last_reported":1751372490,"current_range_meters":14800,"station_id":"ce4bgh92rcd13ifvqb50","pricing_plan_id":"cebpf4jnsgd1na2vs0mg"},{"bike_id":"7d2ebbac-d26c-416a-b58e-5e3abed80858","system_id":"levelo_inurba_marseille","lat":43.21199,"lon":5.35072,"is_reserved":false,"is_disabled":false,"rental_uris":{"android":"levelo://app?vid=7d2ebbac-d26c-416a-b58e-5e3abed80858","ios":"levelo://app?vid=7d2ebbac-d26c-416a-b58e-5e3abed80858"},"vehicle_type_id":"4","last_reported":1751372490,"current_range_meters":14800,"station_id":"st_cvj6sg6p6f1abm77japg","pricing_plan_id":"cebpf4jnsgd1na2vs0mg"},{"bike_id":"c0228700-5312-4a39-89af-ec53a5d729c5","system_id":"levelo_inurba_marseille","lat":43.28306,"lon":5.4327,"is_reserved":false,"is_disabled":false,"rental_uris":{"android":"levelo://app?vid=c0228700-5312-4a39-89af-ec53a5d729c5","ios":"levelo://app?vid=c0228700-5312-4a39-89af-ec53a5d729c5"},"vehicle_type_id":"4","last_reported":1751372490,"current_range_meters":15200,"station_id":"","pricing_plan_id":"cebpf4jnsgd1na2vs0mg"},{"bike_id":"c61036a9-1a66-4480-8bd4-cd2fb585b287","system_id":"levelo_inurba_marseille","lat":43.26979,"lon":5.40571,"is_reserved":false,"is_disabled":false,"rental_uris":{"android":"levelo://app?vid=c61036a9-1a66-4480-8bd4-cd2fb585b287","ios":"levelo://app?vid=c61036a9-1a66-4480-8bd4-cd2fb585b287"},"vehicle_type_id":"4","last_reported":1751372490,"current_range_meters":15200,"station_id":"","pricing_plan_id":"cebpf4jnsgd1na2vs0mg"},{"bike_id":"240fdcae-0ebc-4636-a71a-7306894b59e3","system_id":"levelo_inurba_marseille","lat":43.28932,"lon":5.36665,"is_reserved":false,"is_disabled":false,"rental_uris":{"android":"levelo://app?vid=240fdcae-0ebc-4636-a71a-7306894b59e3","ios":"levelo://app?vid=240fdcae-0ebc-4636-a71a-7306894b59e3"},"vehicle_type_id":"4","last_reported":1751372490,"current_range_meters":16000,"station_id":"ce4bhap2rcd13ifvqek0","pricing_plan_id":"cebpf4jnsgd1na2vs0mg"},{"bike_id":"3d03fb95-8e3b-4596-876f-491b9dec2687","system_id":"levelo_inurba_marseille","lat":43.26217,"lon":5.37441,"is_reserved":false,"is_disabled":false,"rental_uris":{"android":"levelo://app?vid=3d03fb95-8e3b-4596-876f-491b9dec2687","ios":"levelo://app?vid=3d03fb95-8e3b-4596-876f-491b9dec2687"},"vehicle_type_id":"4","last_reported":1751372490,"current_range_meters":16000,"station_id":"ce4bhgp2rcd13ifvqfc0","pricing_plan_id":"cebpf4jnsgd1na2vs0mg"},{"bike_id":"795b2733-8c5b-402b-a65f-7f4c27073c48","system_id":"levelo_inurba_marseille","lat":43.2679,"lon":5.39421,"is_reserved":false,"is_disabled":false,"rental_uris":{"android":"levelo://app?vid=795b2733-8c5b-402b-a65f-7f4c27073c48","ios":"levelo://app?vid=795b2733-8c5b-402b-a65f-7f4c27073c48"},"vehicle_type_id":"4","last_reported":1751372490,"current_range_meters":16000,"station_id":"ce4bhh12rcd13ifvqfg0","pricing_plan_id":"cebpf4jnsgd1na2vs0mg"},{"bike_id":"3f50d751-6bdc-4e25-aea7-b356d8579196","system_id":"levelo_inurba_marseille","lat":43.28081,"lon":5.39658,"is_reserved":false,"is_disabled":false,"rental_uris":{"android":"levelo://app?vid=3f50d751-6bdc-4e25-aea7-b356d8579196","ios":"levelo://app?vid=3f50d751-6bdc-4e25-aea7-b356d8579196"},"vehicle_type_id":"4","last_reported":1751372490,"current_range_meters":16000,"station_id":"ce4bho12rcd13ifvqh2g","pricing_plan_id":"cebpf4jnsgd1na2vs0mg"},{"bike_id":"1caca1fc-4911-4e37-9aeb-383803780faf","system_id":"levelo_inurba_marseille","lat":43.32088,"lon":5.36789,"is_reserved":false,"is_disabled":false,"rental_uris":{"android":"levelo://app?vid=1caca1fc-4911-4e37-9aeb-383803780faf","ios":"levelo://app?vid=1caca1fc-4911-4e37-9aeb-383803780faf"},"vehicle_type_id":"4","last_reported":1751372490,"current_range_meters":16000,"station_id":"ce4bhrh2rcd13ifvqhug","pricing_plan_id":"cebpf4jnsgd1na2vs0mg"},{"bike_id":"d2b95d44-82a0-45b2-bb61-7e54fe87d47e","system_id":"levelo_inurba_marseille","lat":43.26808,"lon":5.40276,"is_reserved":false,"is_disabled":false,"rental_uris":{"android":"levelo://app?vid=d2b95d44-82a0-45b2-bb61-7e54fe87d47e","ios":"levelo://app?vid=d2b95d44-82a0-45b2-bb61-7e54fe87d47e"},"vehicle_type_id":"4","last_reported":1751372490,"current_range_meters":16000,"station_id":"ce501612rcd8frsf0b60","pricing_plan_id":"cebpf4jnsgd1na2vs0mg"},{"bike_id":"947c0abc-8a28-4463-9d63-6c7d61393962","system_id":"levelo_inurba_marseille","lat":43.24169,"lon":5.36422,"is_reserved":false,"is_disabled":false,"rental_uris":{"android":"levelo://app?vid=947c0abc-8a28-4463-9d63-6c7d61393962","ios":"levelo://app?vid=947c0abc-8a28-4463-9d63-6c7d61393962"},"vehicle_type_id":"4","last_reported":1751372490,"current_range_meters":16000,"station_id":"cpo36qri1sfpv3e86is0","pricing_plan_id":"cebpf4jnsgd1na2vs0mg"},{"bike_id":"86fa6ce7-8cbe-47ff-b5d3-c2b4938fd05c","system_id":"levelo_inurba_marseille","lat":43.21169,"lon":5.35099,"is_reserved":false,"is_disabled":false,"rental_uris":{"android":"levelo://app?vid=86fa6ce7-8cbe-47ff-b5d3-c2b4938fd05c","ios":"levelo://app?vid=86fa6ce7-8cbe-47ff-b5d3-c2b4938fd05c"},"vehicle_type_id":"4","last_reported":1751372490,"current_range_meters":16400,"station_id":"","pricing_plan_id":"cebpf4jnsgd1na2vs0mg"},{"bike_id":"0f88c1b6-f456-489c-962d-c7f6b023ab73","system_id":"levelo_inurba_marseille","lat":43.29937,"lon":5.36546,"is_reserved":false,"is_disabled":false,"rental_uris":{"android":"levelo://app?vid=0f88c1b6-f456-489c-962d-c7f6b023ab73","ios":"levelo://app?vid=0f88c1b6-f456-489c-962d-c7f6b023ab73"},"vehicle_type_id":"4","last_reported":1751372490,"current_range_meters":16400,"station_id":"ce4bgm92rcd13ifvqbr0","pricing_plan_id":"cebpf4jnsgd1na2vs0mg"},{"bike_id":"ee35b646-3d0e-4602-9cfc-286ed4241504","system_id":"levelo_inurba_marseille","lat":43.30896,"lon":5.36826,"is_reserved":false,"is_disabled":false,"rental_uris":{"android":"levelo://app?vid=ee35b646-3d0e-4602-9cfc-286ed4241504","ios":"levelo://app?vid=ee35b646-3d0e-4602-9cfc-286ed4241504"},"vehicle_type_id":"4","last_reported":1751372490,"current_range_meters":16400,"station_id":"ce4bgn92rcd13ifvqbvg","pricing_plan_id":"cebpf4jnsgd1na2vs0mg"},{"bike_id":"82522992-39cd-4cc1-bf11-bf1394360248","system_id":"levelo_inurba_marseille","lat":43.31483,"lon":5.37304,"is_reserved":false,"is_disabled":false,"rental_uris":{"android":"levelo://app?vid=82522992-39cd-4cc1-bf11-bf1394360248","ios":"levelo://app?vid=82522992-39cd-4cc1-bf11-bf1394360248"},"vehicle_type_id":"4","last_reported":1751372490,"current_range_meters":16400,"station_id":"ce4bgt12rcd13ifvqcd0","pricing_plan_id":"cebpf4jnsgd1na2vs0mg"},{"bike_id":"13c05c75-49a8-436b-b240-8d0801280a49","system_id":"levelo_inurba_marseille","lat":43.25577,"lon":5.38227,"is_reserved":false,"is_disabled":false,"rental_uris":{"android":"levelo://app?vid=13c05c75-49a8-436b-b240-8d0801280a49","ios":"levelo://app?vid=13c05c75-49a8-436b-b240-8d0801280a49"},"vehicle_type_id":"4","last_reported":1751372490,"current_range_meters":16400,"station_id":"ce4bhih2rcd13ifvqfs0","pricing_plan_id":"cebpf4jnsgd1na2vs0mg"},{"bike_id":"6b2ddcec-816f-42cf-b55b-a185c165d31c","system_id":"levelo_inurba_marseille","lat":43.24168,"lon":5.36447,"is_reserved":false,"is_disabled":false,"rental_uris":{"android":"levelo://app?vid=6b2ddcec-816f-42cf-b55b-a185c165d31c","ios":"levelo://app?vid=6b2ddcec-816f-42cf-b55b-a185c165d31c"},"vehicle_type_id":"4","last_reported":1751372490,"current_range_meters":16400,"station_id":"cpo36qri1sfpv3e86is0","pricing_plan_id":"cebpf4jnsgd1na2vs0mg"},{"bike_id":"3a33ebd2-49a2-4e39-92d7-f09d7dd08672","system_id":"levelo_inurba_marseille","lat":43.21738,"lon":5.34626,"is_reserved":false,"is_disabled":false,"rental_uris":{"android":"levelo://app?vid=3a33ebd2-49a2-4e39-92d7-f09d7dd08672","ios":"levelo://app?vid=3a33ebd2-49a2-4e39-92d7-f09d7dd08672"},"vehicle_type_id":"4","last_reported":1751372490,"current_range_meters":16400,"station_id":"st_cvj6r9ubvosntc0bgbag","pricing_plan_id":"cebpf4jnsgd1na2vs0mg"},{"bike_id":"2bc25ca4-c28c-4335-a0aa-b132b20800b4","system_id":"levelo_inurba_marseille","lat":43.29428,"lon":5.37411,"is_reserved":false,"is_disabled":false,"rental_uris":{"android":"levelo://app?vid=2bc25ca4-c28c-4335-a0aa-b132b20800b4","ios":"levelo://app?vid=2bc25ca4-c28c-4335-a0aa-b132b20800b4"},"vehicle_type_id":"4","last_reported":1751372490,"current_range_meters":16800,"station_id":"","pricing_plan_id":"cebpf4jnsgd1na2vs0mg"},{"bike_id":"60aed5b4-04a7-4930-a9c4-5540cdbcfb8b","system_id":"levelo_inurba_marseille","lat":43.33733,"lon":5.37442,"is_reserved":false,"is_disabled":false,"rental_uris":{"android":"levelo://app?vid=60aed5b4-04a7-4930-a9c4-5540cdbcfb8b","ios":"levelo://app?vid=60aed5b4-04a7-4930-a9c4-5540cdbcfb8b"},"vehicle_type_id":"4","last_reported":1751372490,"current_range_meters":16800,"station_id":"","pricing_plan_id":"cebpf4jnsgd1na2vs0mg"},{"bike_id":"87f0dc01-08b6-4443-8ad6-92ede38280c2","system_id":"levelo_inurba_marseille","lat":43.29933,"lon":5.36572,"is_reserved":false,"is_disabled":false,"rental_uris":{"android":"levelo://app?vid=87f0dc01-08b6-4443-8ad6-92ede38280c2","ios":"levelo://app?vid=87f0dc01-08b6-4443-8ad6-92ede38280c2"},"vehicle_type_id":"4","last_reported":1751372490,"current_range_meters":16800,"station_id":"ce4bgm92rcd13ifvqbr0","pricing_plan_id":"cebpf4jnsgd1na2vs0mg"},{"bike_id":"215085ef-3403-4821-b490-68ed914fbd7e","system_id":"levelo_inurba_marseille","lat":43.26504,"lon":5.39537,"is_reserved":false,"is_disabled":false,"rental_uris":{"android":"levelo://app?vid=215085ef-3403-4821-b490-68ed914fbd7e","ios":"levelo://app?vid=215085ef-3403-4821-b490-68ed914fbd7e"},"vehicle_type_id":"4","last_reported":1751372490,"current_range_meters":16800,"station_id":"ce4bhi12rcd13ifvqfq0","pricing_plan_id":"cebpf4jnsgd1na2vs0mg"},{"bike_id":"671f3c8b-a53c-4391-b233-9957073a34e3","system_id":"levelo_inurba_marseille","lat":43.27949,"lon":5.41056,"is_reserved":false,"is_disabled":false,"rental_uris":{"android":"levelo://app?vid=671f3c8b-a53c-4391-b233-9957073a34e3","ios":"levelo://app?vid=671f3c8b-a53c-4391-b233-9957073a34e3"},"vehicle_type_id":"4","last_reported":1751372490,"current_range_meters":16800,"station_id":"ce4bhnp2rcd13ifvqh0g","pricing_plan_id":"cebpf4jnsgd1na2vs0mg"},{"bike_id":"4efc58cc-cd0f-4930-84c3-a7accb9f7605","system_id":"levelo_inurba_marseille","lat":43.2307,"lon":5.35493,"is_reserved":false,"is_disabled":false,"rental_uris":{"android":"levelo://app?vid=4efc58cc-cd0f-4930-84c3-a7accb9f7605","ios":"levelo://app?vid=4efc58cc-cd0f-4930-84c3-a7accb9f7605"},"vehicle_type_id":"4","last_reported":1751372490,"current_range_meters":16800,"station_id":"cpo3342slgdg3j2ifvpg","pricing_plan_id":"cebpf4jnsgd1na2vs0mg"},{"bike_id":"98d271e3-efac-404f-9b87-78d1e4ee8c23","system_id":"levelo_inurba_marseille","lat":43.22935,"lon":5.35374,"is_reserved":false,"is_disabled":false,"rental_uris":{"android":"levelo://app?vid=98d271e3-efac-404f-9b87-78d1e4ee8c23","ios":"levelo://app?vid=98d271e3-efac-404f-9b87-78d1e4ee8c23"},"vehicle_type_id":"4","last_reported":1751372490,"current_range_meters":16800,"station_id":"cpo3532slgdg3j2ikp40","pricing_plan_id":"cebpf4jnsgd1na2vs0mg"},{"bike_id":"539ed013-9e80-448a-999f-a7819f54786a","system_id":"levelo_inurba_marseille","lat":43.290309,"lon":5.375668,"is_reserved":false,"is_disabled":false,"rental_uris":{"android":"levelo://app?vid=539ed013-9e80-448a-999f-a7819f54786a","ios":"levelo://app?vid=539ed013-9e80-448a-999f-a7819f54786a"},"vehicle_type_id":"4","last_reported":1751372490,"current_range_meters":17200,"station_id":"","pricing_plan_id":"cebpf4jnsgd1na2vs0mg"},{"bike_id":"a0cef316-ad95-4855-8f78-a31341a2b90e","system_id":"levelo_inurba_marseille","lat":43.312846,"lon":5.377613,"is_reserved":false,"is_disabled":false,"rental_uris":{"android":"levelo://app?vid=a0cef316-ad95-4855-8f78-a31341a2b90e","ios":"levelo://app?vid=a0cef316-ad95-4855-8f78-a31341a2b90e"},"vehicle_type_id":"4","last_reported":1751372490,"current_range_meters":17200,"station_id":"","pricing_plan_id":"cebpf4jnsgd1na2vs0mg"},{"bike_id":"d2fe2280-9dda-4f08-822f-aa45767453bf","system_id":"levelo_inurba_marseille","lat":43.31357,"lon":5.36709,"is_reserved":false,"is_disabled":false,"rental_uris":{"android":"levelo://app?vid=d2fe2280-9dda-4f08-822f-aa45767453bf","ios":"levelo://app?vid=d2fe2280-9dda-4f08-822f-aa45767453bf"},"vehicle_type_id":"4","last_reported":1751372490,"current_range_meters":17200,"station_id":"ce4bgr92rcd13ifvqc6g","pricing_plan_id":"cebpf4jnsgd1na2vs0mg"},{"bike_id":"6237f4e8-2651-457b-a795-5f0b58a1dcbb","system_id":"levelo_inurba_marseille","lat":43.32362,"lon":5.38899,"is_reserved":false,"is_disabled":false,"rental_uris":{"android":"levelo://app?vid=6237f4e8-2651-457b-a795-5f0b58a1dcbb","ios":"levelo://app?vid=6237f4e8-2651-457b-a795-5f0b58a1dcbb"},"vehicle_type_id":"4","last_reported":1751372490,"current_range_meters":17200,"station_id":"ce4bhqp2rcd13ifvqhog","pricing_plan_id":"cebpf4jnsgd1na2vs0mg"},{"bike_id":"8233db61-1d36-41a5-a985-c98b6a5f0fb4","system_id":"levelo_inurba_marseille","lat":43.21749,"lon":5.34616,"is_reserved":false,"is_disabled":false,"rental_uris":{"android":"levelo://app?vid=8233db61-1d36-41a5-a985-c98b6a5f0fb4","ios":"levelo://app?vid=8233db61-1d36-41a5-a985-c98b6a5f0fb4"},"vehicle_type_id":"4","last_reported":1751372490,"current_range_meters":17200,"station_id":"st_cvj6r9ubvosntc0bgbag","pricing_plan_id":"cebpf4jnsgd1na2vs0mg"},{"bike_id":"0c1b4f74-5294-4b59-932d-b742ce647d9e","system_id":"levelo_inurba_marseille","lat":43.211809,"lon":5.350707,"is_reserved":false,"is_disabled":false,"rental_uris":{"android":"levelo://app?vid=0c1b4f74-5294-4b59-932d-b742ce647d9e","ios":"levelo://app?vid=0c1b4f74-5294-4b59-932d-b742ce647d9e"},"vehicle_type_id":"4","last_reported":1751372490,"current_range_meters":17200,"station_id":"st_cvj6sg6p6f1abm77japg","pricing_plan_id":"cebpf4jnsgd1na2vs0mg"},{"bike_id":"2a30e734-9ae1-4f0a-ba0d-1b6d15f30102","system_id":"levelo_inurba_marseille","lat":43.30153,"lon":5.38793,"is_reserved":false,"is_disabled":false,"rental_uris":{"android":"levelo://app?vid=2a30e734-9ae1-4f0a-ba0d-1b6d15f30102","ios":"levelo://app?vid=2a30e734-9ae1-4f0a-ba0d-1b6d15f30102"},"vehicle_type_id":"4","last_reported":1751372490,"current_range_meters":17600,"station_id":"ce4bghh2rcd13ifvqb60","pricing_plan_id":"cebpf4jnsgd1na2vs0mg"},{"bike_id":"79e31ddd-3c69-4797-90ea-525405f34e2a","system_id":"levelo_inurba_marseille","lat":43.31484,"lon":5.3729,"is_reserved":false,"is_disabled":false,"rental_uris":{"android":"levelo://app?vid=79e31ddd-3c69-4797-90ea-525405f34e2a","ios":"levelo://app?vid=79e31ddd-3c69-4797-90ea-525405f34e2a"},"vehicle_type_id":"4","last_reported":1751372490,"current_range_meters":17600,"station_id":"ce4bgt12rcd13ifvqcd0","pricing_plan_id":"cebpf4jnsgd1na2vs0mg"},{"bike_id":"02fe63e2-0ad7-4211-9148-8bddc8ee7810","system_id":"levelo_inurba_marseille","lat":43.31478,"lon":5.37278,"is_reserved":false,"is_disabled":false,"rental_uris":{"android":"levelo://app?vid=02fe63e2-0ad7-4211-9148-8bddc8ee7810","ios":"levelo://app?vid=02fe63e2-0ad7-4211-9148-8bddc8ee7810"},"vehicle_type_id":"4","last_reported":1751372490,"current_range_meters":17600,"station_id":"ce4bgt12rcd13ifvqcd0","pricing_plan_id":"cebpf4jnsgd1na2vs0mg"},{"bike_id":"b6223f79-fb1d-4fe4-9555-c85b5191381a","system_id":"levelo_inurba_marseille","lat":43.28414,"lon":5.34982,"is_reserved":false,"is_disabled":false,"rental_uris":{"android":"levelo://app?vid=b6223f79-fb1d-4fe4-9555-c85b5191381a","ios":"levelo://app?vid=b6223f79-fb1d-4fe4-9555-c85b5191381a"},"vehicle_type_id":"4","last_reported":1751372490,"current_range_meters":17600,"station_id":"ce4bhbh2rcd13ifvqepg","pricing_plan_id":"cebpf4jnsgd1na2vs0mg"},{"bike_id":"839c9730-1223-4497-817b-b57fef86bd7f","system_id":"levelo_inurba_marseille","lat":43.28619,"lon":5.35081,"is_reserved":false,"is_disabled":false,"rental_uris":{"android":"levelo://app?vid=839c9730-1223-4497-817b-b57fef86bd7f","ios":"levelo://app?vid=839c9730-1223-4497-817b-b57fef86bd7f"},"vehicle_type_id":"4","last_reported":1751372490,"current_range_meters":17600,"station_id":"ce4bhch2rcd13ifvqeug","pricing_plan_id":"cebpf4jnsgd1na2vs0mg"},{"bike_id":"1b1d2a55-7937-4e4f-8e1d-0772a66cddb7","system_id":"levelo_inurba_marseille","lat":43.28636,"lon":5.35083,"is_reserved":false,"is_disabled":false,"rental_uris":{"android":"levelo://app?vid=1b1d2a55-7937-4e4f-8e1d-0772a66cddb7","ios":"levelo://app?vid=1b1d2a55-7937-4e4f-8e1d-0772a66cddb7"},"vehicle_type_id":"4","last_reported":1751372490,"current_range_meters":17600,"station_id":"ce4bhch2rcd13ifvqeug","pricing_plan_id":"cebpf4jnsgd1na2vs0mg"},{"bike_id":"c2cc3873-3136-4ba7-984d-6514f2a6bcc2","system_id":"levelo_inurba_marseille","lat":43.26692,"lon":5.3827,"is_reserved":false,"is_disabled":false,"rental_uris":{"android":"levelo://app?vid=c2cc3873-3136-4ba7-984d-6514f2a6bcc2","ios":"levelo://app?vid=c2cc3873-3136-4ba7-984d-6514f2a6bcc2"},"vehicle_type_id":"4","last_reported":1751372490,"current_range_meters":17600,"station_id":"ce4bhg92rcd13ifvqf90","pricing_plan_id":"cebpf4jnsgd1na2vs0mg"},{"bike_id":"d2674295-f1d5-49f1-83cd-a1ca00cff713","system_id":"levelo_inurba_marseille","lat":43.26214,"lon":5.37446,"is_reserved":false,"is_disabled":false,"rental_uris":{"android":"levelo://app?vid=d2674295-f1d5-49f1-83cd-a1ca00cff713","ios":"levelo://app?vid=d2674295-f1d5-49f1-83cd-a1ca00cff713"},"vehicle_type_id":"4","last_reported":1751372490,"current_range_meters":17600,"station_id":"ce4bhgp2rcd13ifvqfc0","pricing_plan_id":"cebpf4jnsgd1na2vs0mg"},{"bike_id":"4534c5e3-ea51-44c6-a08b-d3bf3e13c868","system_id":"levelo_inurba_marseille","lat":43.23958,"lon":5.36644,"is_reserved":false,"is_disabled":false,"rental_uris":{"android":"levelo://app?vid=4534c5e3-ea51-44c6-a08b-d3bf3e13c868","ios":"levelo://app?vid=4534c5e3-ea51-44c6-a08b-d3bf3e13c868"},"vehicle_type_id":"4","last_reported":1751372490,"current_range_meters":17600,"station_id":"ce4bhi12rcd13ifvqfp0","pricing_plan_id":"cebpf4jnsgd1na2vs0mg"},{"bike_id":"bbd16558-6f9d-4498-8482-947f31198bc5","system_id":"levelo_inurba_marseille","lat":43.2623,"lon":5.40503,"is_reserved":false,"is_disabled":false,"rental_uris":{"android":"levelo://app?vid=bbd16558-6f9d-4498-8482-947f31198bc5","ios":"levelo://app?vid=bbd16558-6f9d-4498-8482-947f31198bc5"},"vehicle_type_id":"4","last_reported":1751372490,"current_range_meters":17600,"station_id":"ce4bhmh2rcd13ifvqgmg","pricing_plan_id":"cebpf4jnsgd1na2vs0mg"},{"bike_id":"fc7e8355-f532-43ec-9e4c-45a0bcaf9efb","system_id":"levelo_inurba_marseille","lat":43.231491,"lon":5.437131,"is_reserved":false,"is_disabled":false,"rental_uris":{"android":"levelo://app?vid=fc7e8355-f532-43ec-9e4c-45a0bcaf9efb","ios":"levelo://app?vid=fc7e8355-f532-43ec-9e4c-45a0bcaf9efb"},"vehicle_type_id":"4","last_reported":1751372490,"current_range_meters":17600,"station_id":"ce4bhmp2rcd13ifvqgog","pricing_plan_id":"cebpf4jnsgd1na2vs0mg"},{"bike_id":"bf298058-65b6-4b91-8920-c460456682b3","system_id":"levelo_inurba_marseille","lat":43.28085,"lon":5.39659,"is_reserved":false,"is_disabled":false,"rental_uris":{"android":"levelo://app?vid=bf298058-65b6-4b91-8920-c460456682b3","ios":"levelo://app?vid=bf298058-65b6-4b91-8920-c460456682b3"},"vehicle_type_id":"4","last_reported":1751372490,"current_range_meters":17600,"station_id":"ce4bho12rcd13ifvqh2g","pricing_plan_id":"cebpf4jnsgd1na2vs0mg"},{"bike_id":"36d83600-3670-4035-a5e5-3c9d57af76a0","system_id":"levelo_inurba_marseille","lat":43.24168,"lon":5.36398,"is_reserved":false,"is_disabled":false,"rental_uris":{"android":"levelo://app?vid=36d83600-3670-4035-a5e5-3c9d57af76a0","ios":"levelo://app?vid=36d83600-3670-4035-a5e5-3c9d57af76a0"},"vehicle_type_id":"4","last_reported":1751372490,"current_range_meters":17600,"station_id":"cpo36qri1sfpv3e86is0","pricing_plan_id":"cebpf4jnsgd1na2vs0mg"},{"bike_id":"8a74f5cd-9efa-4362-bea7-a32db4dcc85c","system_id":"levelo_inurba_marseille","lat":43.21189,"lon":5.350683,"is_reserved":false,"is_disabled":false,"rental_uris":{"android":"levelo://app?vid=8a74f5cd-9efa-4362-bea7-a32db4dcc85c","ios":"levelo://app?vid=8a74f5cd-9efa-4362-bea7-a32db4dcc85c"},"vehicle_type_id":"4","last_reported":1751372490,"current_range_meters":17600,"station_id":"st_cvj6sg6p6f1abm77japg","pricing_plan_id":"cebpf4jnsgd1na2vs0mg"},{"bike_id":"49d6cdd2-de1a-4037-8e83-22ca7bcfc325","system_id":"levelo_inurba_marseille","lat":43.255,"lon":5.37545,"is_reserved":false,"is_disabled":false,"rental_uris":{"android":"levelo://app?vid=49d6cdd2-de1a-4037-8e83-22ca7bcfc325","ios":"levelo://app?vid=49d6cdd2-de1a-4037-8e83-22ca7bcfc325"},"vehicle_type_id":"4","last_reported":1751372490,"current_range_meters":18000,"station_id":"","pricing_plan_id":"cebpf4jnsgd1na2vs0mg"},{"bike_id":"40cec61a-cfb2-4d8a-b313-7dfd08c714c5","system_id":"levelo_inurba_marseille","lat":43.29258,"lon":5.37638,"is_reserved":false,"is_disabled":false,"rental_uris":{"android":"levelo://app?vid=40cec61a-cfb2-4d8a-b313-7dfd08c714c5","ios":"levelo://app?vid=40cec61a-cfb2-4d8a-b313-7dfd08c714c5"},"vehicle_type_id":"4","last_reported":1751372490,"current_range_meters":18000,"station_id":"ce4bgi12rcd13ifvqb80","pricing_plan_id":"cebpf4jnsgd1na2vs0mg"},{"bike_id":"e349fe79-f353-444e-8a6f-9569be341895","system_id":"levelo_inurba_marseille","lat":43.300932,"lon":5.390783,"is_reserved":false,"is_disabled":false,"rental_uris":{"android":"levelo://app?vid=e349fe79-f353-444e-8a6f-9569be341895","ios":"levelo://app?vid=e349fe79-f353-444e-8a6f-9569be341895"},"vehicle_type_id":"4","last_reported":1751372490,"current_range_meters":18000,"station_id":"ce4bh4p2rcd13ifvqe0g","pricing_plan_id":"cebpf4jnsgd1na2vs0mg"},{"bike_id":"31d9e872-9003-4cc9-866e-0c65be2363e3","system_id":"levelo_inurba_marseille","lat":43.28269,"lon":5.35068,"is_reserved":false,"is_disabled":false,"rental_uris":{"android":"levelo://app?vid=31d9e872-9003-4cc9-866e-0c65be2363e3","ios":"levelo://app?vid=31d9e872-9003-4cc9-866e-0c65be2363e3"},"vehicle_type_id":"4","last_reported":1751372490,"current_range_meters":18000,"station_id":"ce4bhbp2rcd13ifvqerg","pricing_plan_id":"cebpf4jnsgd1na2vs0mg"},{"bike_id":"416795a3-9c3d-4dce-b8b8-375d21ef3659","system_id":"levelo_inurba_marseille","lat":43.23765,"lon":5.36202,"is_reserved":false,"is_disabled":false,"rental_uris":{"android":"levelo://app?vid=416795a3-9c3d-4dce-b8b8-375d21ef3659","ios":"levelo://app?vid=416795a3-9c3d-4dce-b8b8-375d21ef3659"},"vehicle_type_id":"4","last_reported":1751372490,"current_range_meters":18800,"station_id":"","pricing_plan_id":"cebpf4jnsgd1na2vs0mg"},{"bike_id":"fdcc33b3-b27b-4fd9-90cb-c9421efe9db6","system_id":"levelo_inurba_marseille","lat":43.27809,"lon":5.41494,"is_reserved":false,"is_disabled":false,"rental_uris":{"android":"levelo://app?vid=fdcc33b3-b27b-4fd9-90cb-c9421efe9db6","ios":"levelo://app?vid=fdcc33b3-b27b-4fd9-90cb-c9421efe9db6"},"vehicle_type_id":"4","last_reported":1751372490,"current_range_meters":18800,"station_id":"","pricing_plan_id":"cebpf4jnsgd1na2vs0mg"},{"bike_id":"f00e3044-9bd1-48b5-b342-151af21b34fa","system_id":"levelo_inurba_marseille","lat":43.299895,"lon":5.374176,"is_reserved":false,"is_disabled":false,"rental_uris":{"android":"levelo://app?vid=f00e3044-9bd1-48b5-b342-151af21b34fa","ios":"levelo://app?vid=f00e3044-9bd1-48b5-b342-151af21b34fa"},"vehicle_type_id":"4","last_reported":1751372490,"current_range_meters":18800,"station_id":"","pricing_plan_id":"cebpf4jnsgd1na2vs0mg"},{"bike_id":"188bcce5-2177-4496-a178-3abb0cf3142a","system_id":"levelo_inurba_marseille","lat":43.293,"lon":5.3746,"is_reserved":false,"is_disabled":false,"rental_uris":{"android":"levelo://app?vid=188bcce5-2177-4496-a178-3abb0cf3142a","ios":"levelo://app?vid=188bcce5-2177-4496-a178-3abb0cf3142a"},"vehicle_type_id":"4","last_reported":1751372490,"current_range_meters":18800,"station_id":"ce4bgi12rcd13ifvqb70","pricing_plan_id":"cebpf4jnsgd1na2vs0mg"},{"bike_id":"d214ea47-dd4f-4d26-93ec-b1ed72c69b8a","system_id":"levelo_inurba_marseille","lat":43.31347,"lon":5.36714,"is_reserved":false,"is_disabled":false,"rental_uris":{"android":"levelo://app?vid=d214ea47-dd4f-4d26-93ec-b1ed72c69b8a","ios":"levelo://app?vid=d214ea47-dd4f-4d26-93ec-b1ed72c69b8a"},"vehicle_type_id":"4","last_reported":1751372490,"current_range_meters":18800,"station_id":"ce4bgr92rcd13ifvqc6g","pricing_plan_id":"cebpf4jnsgd1na2vs0mg"},{"bike_id":"1e6b9f52-da41-4d6b-90e7-4aee7cbf4f90","system_id":"levelo_inurba_marseille","lat":43.286213,"lon":5.351107,"is_reserved":false,"is_disabled":false,"rental_uris":{"android":"levelo://app?vid=1e6b9f52-da41-4d6b-90e7-4aee7cbf4f90","ios":"levelo://app?vid=1e6b9f52-da41-4d6b-90e7-4aee7cbf4f90"},"vehicle_type_id":"4","last_reported":1751372490,"current_range_meters":18800,"station_id":"ce4bhch2rcd13ifvqeug","pricing_plan_id":"cebpf4jnsgd1na2vs0mg"},{"bike_id":"afb78327-cc2c-423c-9e7b-9e6a58647879","system_id":"levelo_inurba_marseille","lat":43.33683,"lon":5.392238,"is_reserved":false,"is_disabled":false,"rental_uris":{"android":"levelo://app?vid=afb78327-cc2c-423c-9e7b-9e6a58647879","ios":"levelo://app?vid=afb78327-cc2c-423c-9e7b-9e6a58647879"},"vehicle_type_id":"4","last_reported":1751372490,"current_range_meters":18800,"station_id":"ce4bhr92rcd13ifvqhsg","pricing_plan_id":"cebpf4jnsgd1na2vs0mg"},{"bike_id":"d0f90c24-dd03-411b-9731-55305f76b7c8","system_id":"levelo_inurba_marseille","lat":43.21194,"lon":5.350763,"is_reserved":false,"is_disabled":false,"rental_uris":{"android":"levelo://app?vid=d0f90c24-dd03-411b-9731-55305f76b7c8","ios":"levelo://app?vid=d0f90c24-dd03-411b-9731-55305f76b7c8"},"vehicle_type_id":"4","last_reported":1751372490,"current_range_meters":18800,"station_id":"st_cvj6sg6p6f1abm77japg","pricing_plan_id":"cebpf4jnsgd1na2vs0mg"},{"bike_id":"6debd950-1053-446c-9024-f696ba3e3a74","system_id":"levelo_inurba_marseille","lat":43.30305,"lon":5.3689,"is_reserved":false,"is_disabled":false,"rental_uris":{"android":"levelo://app?vid=6debd950-1053-446c-9024-f696ba3e3a74","ios":"levelo://app?vid=6debd950-1053-446c-9024-f696ba3e3a74"},"vehicle_type_id":"4","last_reported":1751372490,"current_range_meters":19200,"station_id":"ce4bgqh2rcd13ifvqc5g","pricing_plan_id":"cebpf4jnsgd1na2vs0mg"},{"bike_id":"8b38b844-179c-4a7c-a851-791d85acaa56","system_id":"levelo_inurba_marseille","lat":43.31696,"lon":5.40491,"is_reserved":false,"is_disabled":false,"rental_uris":{"android":"levelo://app?vid=8b38b844-179c-4a7c-a851-791d85acaa56","ios":"levelo://app?vid=8b38b844-179c-4a7c-a851-791d85acaa56"},"vehicle_type_id":"4","last_reported":1751372490,"current_range_meters":19200,"station_id":"ce4bh012rcd13ifvqd00","pricing_plan_id":"cebpf4jnsgd1na2vs0mg"},{"bike_id":"20364fc9-6fd9-4548-80c8-42fb8ed9c262","system_id":"levelo_inurba_marseille","lat":43.28849,"lon":5.39328,"is_reserved":false,"is_disabled":false,"rental_uris":{"android":"levelo://app?vid=20364fc9-6fd9-4548-80c8-42fb8ed9c262","ios":"levelo://app?vid=20364fc9-6fd9-4548-80c8-42fb8ed9c262"},"vehicle_type_id":"4","last_reported":1751372490,"current_range_meters":19200,"station_id":"ce4bh2p2rcd13ifvqdi0","pricing_plan_id":"cebpf4jnsgd1na2vs0mg"},{"bike_id":"b217d3b3-907c-42b8-90b0-b0bb12a41695","system_id":"levelo_inurba_marseille","lat":43.24165,"lon":5.39712,"is_reserved":false,"is_disabled":false,"rental_uris":{"android":"levelo://app?vid=b217d3b3-907c-42b8-90b0-b0bb12a41695","ios":"levelo://app?vid=b217d3b3-907c-42b8-90b0-b0bb12a41695"},"vehicle_type_id":"4","last_reported":1751372490,"current_range_meters":19200,"station_id":"ce4bhn12rcd13ifvqgpg","pricing_plan_id":"cebpf4jnsgd1na2vs0mg"},{"bike_id":"6a117f79-3945-42c1-aaa9-f01191528115","system_id":"levelo_inurba_marseille","lat":43.3252,"lon":5.36599,"is_reserved":false,"is_disabled":false,"rental_uris":{"android":"levelo://app?vid=6a117f79-3945-42c1-aaa9-f01191528115","ios":"levelo://app?vid=6a117f79-3945-42c1-aaa9-f01191528115"},"vehicle_type_id":"4","last_reported":1751372490,"current_range_meters":19200,"station_id":"ce4bhs12rcd13ifvqhvg","pricing_plan_id":"cebpf4jnsgd1na2vs0mg"},{"bike_id":"dbe6a7d8-6edc-4015-8658-f68eeb46a661","system_id":"levelo_inurba_marseille","lat":43.33577,"lon":5.39881,"is_reserved":false,"is_disabled":false,"rental_uris":{"android":"levelo://app?vid=dbe6a7d8-6edc-4015-8658-f68eeb46a661","ios":"levelo://app?vid=dbe6a7d8-6edc-4015-8658-f68eeb46a661"},"vehicle_type_id":"4","last_reported":1751372490,"current_range_meters":19600,"station_id":"","pricing_plan_id":"cebpf4jnsgd1na2vs0mg"},{"bike_id":"5bbb9163-852f-4b72-a454-8eb0a96224e0","system_id":"levelo_inurba_marseille","lat":43.31492,"lon":5.37295,"is_reserved":false,"is_disabled":false,"rental_uris":{"android":"levelo://app?vid=5bbb9163-852f-4b72-a454-8eb0a96224e0","ios":"levelo://app?vid=5bbb9163-852f-4b72-a454-8eb0a96224e0"},"vehicle_type_id":"4","last_reported":1751372490,"current_range_meters":19600,"station_id":"ce4bgt12rcd13ifvqcd0","pricing_plan_id":"cebpf4jnsgd1na2vs0mg"},{"bike_id":"332be6f4-0ce2-44ec-b380-993ccae78378","system_id":"levelo_inurba_marseille","lat":43.2901,"lon":5.3561,"is_reserved":false,"is_disabled":false,"rental_uris":{"android":"levelo://app?vid=332be6f4-0ce2-44ec-b380-993ccae78378","ios":"levelo://app?vid=332be6f4-0ce2-44ec-b380-993ccae78378"},"vehicle_type_id":"4","last_reported":1751372490,"current_range_meters":19600,"station_id":"ce4bhb92rcd13ifvqen0","pricing_plan_id":"cebpf4jnsgd1na2vs0mg"},{"bike_id":"8026e2cf-f586-486f-af2f-d543b2daf1ed","system_id":"levelo_inurba_marseille","lat":43.28281,"lon":5.35084,"is_reserved":false,"is_disabled":false,"rental_uris":{"android":"levelo://app?vid=8026e2cf-f586-486f-af2f-d543b2daf1ed","ios":"levelo://app?vid=8026e2cf-f586-486f-af2f-d543b2daf1ed"},"vehicle_type_id":"4","last_reported":1751372490,"current_range_meters":19600,"station_id":"ce4bhbp2rcd13ifvqerg","pricing_plan_id":"cebpf4jnsgd1na2vs0mg"},{"bike_id":"5579b779-38a4-49c0-84d2-1c4bc5bef3e5","system_id":"levelo_inurba_marseille","lat":43.24994,"lon":5.38937,"is_reserved":false,"is_disabled":false,"rental_uris":{"android":"levelo://app?vid=5579b779-38a4-49c0-84d2-1c4bc5bef3e5","ios":"levelo://app?vid=5579b779-38a4-49c0-84d2-1c4bc5bef3e5"},"vehicle_type_id":"4","last_reported":1751372490,"current_range_meters":19600,"station_id":"ce4bhgp2rcd13ifvqfd0","pricing_plan_id":"cebpf4jnsgd1na2vs0mg"},{"bike_id":"01c51363-fa61-442e-92ab-5122011e32be","system_id":"levelo_inurba_marseille","lat":43.28083,"lon":5.39667,"is_reserved":false,"is_disabled":false,"rental_uris":{"android":"levelo://app?vid=01c51363-fa61-442e-92ab-5122011e32be","ios":"levelo://app?vid=01c51363-fa61-442e-92ab-5122011e32be"},"vehicle_type_id":"4","last_reported":1751372490,"current_range_meters":19600,"station_id":"ce4bho12rcd13ifvqh2g","pricing_plan_id":"cebpf4jnsgd1na2vs0mg"},{"bike_id":"1d858294-ef7d-4453-88c1-1339a9f3cf18","system_id":"levelo_inurba_marseille","lat":43.33596,"lon":5.40996,"is_reserved":false,"is_disabled":false,"rental_uris":{"android":"levelo://app?vid=1d858294-ef7d-4453-88c1-1339a9f3cf18","ios":"levelo://app?vid=1d858294-ef7d-4453-88c1-1339a9f3cf18"},"vehicle_type_id":"4","last_reported":1751372490,"current_range_meters":19600,"station_id":"ce4bhqh2rcd13ifvqhmg","pricing_plan_id":"cebpf4jnsgd1na2vs0mg"},{"bike_id":"dc568f06-ffb3-40c1-89da-44191bfe516b","system_id":"levelo_inurba_marseille","lat":43.32078,"lon":5.36789,"is_reserved":false,"is_disabled":false,"rental_uris":{"android":"levelo://app?vid=dc568f06-ffb3-40c1-89da-44191bfe516b","ios":"levelo://app?vid=dc568f06-ffb3-40c1-89da-44191bfe516b"},"vehicle_type_id":"4","last_reported":1751372490,"current_range_meters":19600,"station_id":"ce4bhrh2rcd13ifvqhug","pricing_plan_id":"cebpf4jnsgd1na2vs0mg"},{"bike_id":"81b9753f-aa28-4513-89a4-3ee72628d38d","system_id":"levelo_inurba_marseille","lat":43.321023,"lon":5.367826,"is_reserved":false,"is_disabled":false,"rental_uris":{"android":"levelo://app?vid=81b9753f-aa28-4513-89a4-3ee72628d38d","ios":"levelo://app?vid=81b9753f-aa28-4513-89a4-3ee72628d38d"},"vehicle_type_id":"4","last_reported":1751372490,"current_range_meters":19600,"station_id":"ce4bhrh2rcd13ifvqhug","pricing_plan_id":"cebpf4jnsgd1na2vs0mg"},{"bike_id":"7e62b058-a7ed-4634-80f1-04d3de596de7","system_id":"levelo_inurba_marseille","lat":43.29864,"lon":5.3683,"is_reserved":false,"is_disabled":false,"rental_uris":{"android":"levelo://app?vid=7e62b058-a7ed-4634-80f1-04d3de596de7","ios":"levelo://app?vid=7e62b058-a7ed-4634-80f1-04d3de596de7"},"vehicle_type_id":"4","last_reported":1751372490,"current_range_meters":20000,"station_id":"","pricing_plan_id":"cebpf4jnsgd1na2vs0mg"},{"bike_id":"5c9e272b-f8b2-40ab-a29f-213031811f09","system_id":"levelo_inurba_marseille","lat":43.33766,"lon":5.37454,"is_reserved":false,"is_disabled":false,"rental_uris":{"android":"levelo://app?vid=5c9e272b-f8b2-40ab-a29f-213031811f09","ios":"levelo://app?vid=5c9e272b-f8b2-40ab-a29f-213031811f09"},"vehicle_type_id":"4","last_reported":1751372490,"current_range_meters":20000,"station_id":"","pricing_plan_id":"cebpf4jnsgd1na2vs0mg"},{"bike_id":"7fe4a55e-3afe-4b8e-9266-bb482b04da26","system_id":"levelo_inurba_marseille","lat":43.29578,"lon":5.37515,"is_reserved":false,"is_disabled":false,"rental_uris":{"android":"levelo://app?vid=7fe4a55e-3afe-4b8e-9266-bb482b04da26","ios":"levelo://app?vid=7fe4a55e-3afe-4b8e-9266-bb482b04da26"},"vehicle_type_id":"4","last_reported":1751372490,"current_range_meters":20000,"station_id":"ce4bgh92rcd13ifvqb50","pricing_plan_id":"cebpf4jnsgd1na2vs0mg"},{"bike_id":"d9142055-b8cb-4051-a355-ba74fc39c86b","system_id":"levelo_inurba_marseille","lat":43.30307,"lon":5.36904,"is_reserved":false,"is_disabled":false,"rental_uris":{"android":"levelo://app?vid=d9142055-b8cb-4051-a355-ba74fc39c86b","ios":"levelo://app?vid=d9142055-b8cb-4051-a355-ba74fc39c86b"},"vehicle_type_id":"4","last_reported":1751372490,"current_range_meters":20000,"station_id":"ce4bgqh2rcd13ifvqc5g","pricing_plan_id":"cebpf4jnsgd1na2vs0mg"},{"bike_id":"5b29d780-43f5-4e1d-bf76-9b9f64ecb031","system_id":"levelo_inurba_marseille","lat":43.31481,"lon":5.37309,"is_reserved":false,"is_disabled":false,"rental_uris":{"android":"levelo://app?vid=5b29d780-43f5-4e1d-bf76-9b9f64ecb031","ios":"levelo://app?vid=5b29d780-43f5-4e1d-bf76-9b9f64ecb031"},"vehicle_type_id":"4","last_reported":1751372490,"current_range_meters":20000,"station_id":"ce4bgt12rcd13ifvqcd0","pricing_plan_id":"cebpf4jnsgd1na2vs0mg"},{"bike_id":"32e95b8a-2368-4221-8e36-d2eb0c4c23b7","system_id":"levelo_inurba_marseille","lat":43.27375,"lon":5.36259,"is_reserved":false,"is_disabled":false,"rental_uris":{"android":"levelo://app?vid=32e95b8a-2368-4221-8e36-d2eb0c4c23b7","ios":"levelo://app?vid=32e95b8a-2368-4221-8e36-d2eb0c4c23b7"},"vehicle_type_id":"4","last_reported":1751372490,"current_range_meters":20000,"station_id":"ce4bhbh2rcd13ifvqeo0","pricing_plan_id":"cebpf4jnsgd1na2vs0mg"},{"bike_id":"9e990c90-5667-4c26-9462-91f85fd7437c","system_id":"levelo_inurba_marseille","lat":43.292533,"lon":5.401833,"is_reserved":false,"is_disabled":false,"rental_uris":{"android":"levelo://app?vid=9e990c90-5667-4c26-9462-91f85fd7437c","ios":"levelo://app?vid=9e990c90-5667-4c26-9462-91f85fd7437c"},"vehicle_type_id":"4","last_reported":1751372490,"current_range_meters":20400,"station_id":"","pricing_plan_id":"cebpf4jnsgd1na2vs0mg"},{"bike_id":"fb61c568-d211-4853-b95b-44c8272c3a54","system_id":"levelo_inurba_marseille","lat":43.31504,"lon":5.37315,"is_reserved":false,"is_disabled":false,"rental_uris":{"android":"levelo://app?vid=fb61c568-d211-4853-b95b-44c8272c3a54","ios":"levelo://app?vid=fb61c568-d211-4853-b95b-44c8272c3a54"},"vehicle_type_id":"4","last_reported":1751372490,"current_range_meters":20400,"station_id":"ce4bgt12rcd13ifvqcd0","pricing_plan_id":"cebpf4jnsgd1na2vs0mg"},{"bike_id":"e744a49c-9fbe-4d3e-98b9-e39600fd669f","system_id":"levelo_inurba_marseille","lat":43.28429,"lon":5.35002,"is_reserved":false,"is_disabled":false,"rental_uris":{"android":"levelo://app?vid=e744a49c-9fbe-4d3e-98b9-e39600fd669f","ios":"levelo://app?vid=e744a49c-9fbe-4d3e-98b9-e39600fd669f"},"vehicle_type_id":"4","last_reported":1751372490,"current_range_meters":20400,"station_id":"ce4bhbh2rcd13ifvqepg","pricing_plan_id":"cebpf4jnsgd1na2vs0mg"},{"bike_id":"973cfab2-9a88-4c3a-a6b9-e354918940d7","system_id":"levelo_inurba_marseille","lat":43.25087,"lon":5.39527,"is_reserved":false,"is_disabled":false,"rental_uris":{"android":"levelo://app?vid=973cfab2-9a88-4c3a-a6b9-e354918940d7","ios":"levelo://app?vid=973cfab2-9a88-4c3a-a6b9-e354918940d7"},"vehicle_type_id":"4","last_reported":1751372490,"current_range_meters":20400,"station_id":"ce4bhm12rcd13ifvqgkg","pricing_plan_id":"cebpf4jnsgd1na2vs0mg"},{"bike_id":"47a7ca72-da93-4fb0-bad3-0f3a19720212","system_id":"levelo_inurba_marseille","lat":43.30728,"lon":5.42459,"is_reserved":false,"is_disabled":false,"rental_uris":{"android":"levelo://app?vid=47a7ca72-da93-4fb0-bad3-0f3a19720212","ios":"levelo://app?vid=47a7ca72-da93-4fb0-bad3-0f3a19720212"},"vehicle_type_id":"4","last_reported":1751372490,"current_range_meters":20400,"station_id":"st_cvj6ca6bvosntc0bfgr0","pricing_plan_id":"cebpf4jnsgd1na2vs0mg"},{"bike_id":"16a8afe6-e43e-4d1b-a7bd-ed83d113735a","system_id":"levelo_inurba_marseille","lat":43.32436,"lon":5.41185,"is_reserved":false,"is_disabled":false,"rental_uris":{"android":"levelo://app?vid=16a8afe6-e43e-4d1b-a7bd-ed83d113735a","ios":"levelo://app?vid=16a8afe6-e43e-4d1b-a7bd-ed83d113735a"},"vehicle_type_id":"4","last_reported":1751372490,"current_range_meters":20800,"station_id":"","pricing_plan_id":"cebpf4jnsgd1na2vs0mg"},{"bike_id":"b0ab27e7-edd6-4d07-b56c-77bae5a19a44","system_id":"levelo_inurba_marseille","lat":43.25924,"lon":5.40872,"is_reserved":false,"is_disabled":false,"rental_uris":{"android":"levelo://app?vid=b0ab27e7-edd6-4d07-b56c-77bae5a19a44","ios":"levelo://app?vid=b0ab27e7-edd6-4d07-b56c-77bae5a19a44"},