{"last_updated":1702303645,"ttl":30,"version":"2.2","data":{"bikes":[{"bike_id":"8dead90f-577d-4d9f-9331-28e8ecb446e2","system_id":"levelo_inurba_marseille","lat":43.31341,"lon":5.367098,"is_reserved":false,"is_disabled":false,"rental_uris":{"android":"levelo://app?vid=8dead90f-577d-4d9f-9331-28e8ecb446e2","ios":"levelo://app?vid=8dead90f-577d-4d9f-9331-28e8ecb446e2"},"vehicle_type_id":"4","last_reported":1702303645,"current_range_meters":25200,"station_id":"ce4bgr92rcd13ifvqc6g","pricing_plan_id":"free"},{"bike_id":"fb5396cd-9819-4c4c-9c29-31a2ef65c667","system_id":"levelo_inurba_marseille","lat":43.312239,"lon":5.368562,"is_reserved":false,"is_disabled":false,"rental_uris":{"android":"levelo://app?vid=fb5396cd-9819-4c4c-9c29-31a2ef65c667","ios":"levelo://app?vid=fb5396cd-9819-4c4c-9c29-31a2ef65c667"},"vehicle_type_id":"4","last_reported":1702303645,"current_range_meters":15200,"station_id":"ce4bgl92rcd13ifvqbq0","pricing_plan_id":"free"},{"bike_id":"8d17a1b8-5a08-4d93-a5da-63c565bae929","system_id":"levelo_inurba_marseille","lat":43.314811,"lon":5.373103,"is_reserved":false,"is_disabled":false,"rental_uris":{"android":"levelo://app?vid=8d17a1b8-5a08-4d93-a5da-63c565bae929","ios":"levelo://app?vid=8d17a1b8-5a08-4d93-a5da-63c565bae929"},"vehicle_type_id":"4","last_reported":1702303645,"current_range_meters":17200,"station_id":"ce4bgt12rcd13ifvqcd0","pricing_plan_id":"free"},{"bike_id":"367012af-64e1-49c2-918d-cf06573d6797","system_id":"levelo_inurba_marseille","lat":43.309039,"lon":5.371797,"is_reserved":false,"is_disabled":false,"rental_uris":{"android":"levelo://app?vid=367012af-64e1-49c2-918d-cf06573d6797","ios":"levelo://app?vid=367012af-64e1-49c2-918d-cf06573d6797"},"vehicle_type_id":"4","last_reported":1702303645,"current_range_meters":28800,"station_id":"ce4bguh2rcd13ifvqckg","pricing_plan_id":"free"},{"bike_id":"182d2c6e-f266-4a00-87d6-b9bd73864405","system_id":"levelo_inurba_marseille","lat":43.305706,"lon":5.365654,"is_reserved":false,"is_disabled":false,"rental_uris":{"android":"levelo://app?vid=182d2c6e-f266-4a00-87d6-b9bd73864405","ios":"levelo://app?vid=182d2c6e-f266-4a00-87d6-b9bd73864405"},"vehicle_type_id":"4","last_reported":1702303645,"current_range_meters":2400,"station_id":"ce4bgs12rcd13ifvqcag","pricing_plan_id":"free"},{"bike_id":"f8725490-b11c-4c57-82c1-089051d5993e","system_id":"levelo_inurba_marseille","lat":43.307945,"lon":5.376487,"is_reserved":false,"is_disabled":false,"rental_uris":{"android":"levelo://app?vid=f8725490-b11c-4c57-82c1-089051d5993e","ios":"levelo://app?vid=f8725490-b11c-4c57-82c1-089051d5993e"},"vehicle_type_id":"4","last_reported":1702303645,"current_range_meters":27600,"station_id":"ce4bgv92rcd13ifvqcq0","pricing_plan_id":"free"},{"bike_id":"e9627390-7690-4fa6-86d0-ff8597dd3cc8","system_id":"levelo_inurba_marseille","lat":43.3153,"lon":5.38039,"is_reserved":false,"is_disabled":false,"rental_uris":{"android":"levelo://app?vid=e9627390-7690-4fa6-86d0-ff8597dd3cc8","ios":"levelo://app?vid=e9627390-7690-4fa6-86d0-ff8597dd3cc8"},"vehicle_type_id":"4","last_reported":1702303645,"current_range_meters":22800,"station_id":"ce4bhsp2rcd13ifvqi50","pricing_plan_id":"free"},{"bike_id":"11c1dbbc-7503-4437-a31c-65c9ac9ce2d5","system_id":"levelo_inurba_marseille","lat":43.301939,"lon":5.366286,"is_reserved":false,"is_disabled":false,"rental_uris":{"android":"levelo://app?vid=11c1dbbc-7503-4437-a31c-65c9ac9ce2d5","ios":"levelo://app?vid=11c1dbbc-7503-4437-a31c-65c9ac9ce2d5"},"vehicle_type_id":"4","last_reported":1702303645,"current_range_meters":12000,"station_id":"ce4bgrh2rcd13ifvqc8g","pricing_plan_id":"free"},{"bike_id":"df7e6357-0d41-49ba-88aa-8ee47bdd4887","system_id":"levelo_inurba_marseille","lat":43.308012,"lon":5.381511,"is_reserved":false,"is_disabled":false,"rental_uris":{"android":"levelo://app?vid=df7e6357-0d41-49ba-88aa-8ee47bdd4887","ios":"levelo://app?vid=df7e6357-0d41-49ba-88aa-8ee47bdd4887"},"vehicle_type_id":"4","last_reported":1702303645,"current_range_meters":6400,"station_id":"ce4bgt12rcd13ifvqce0","pricing_plan_id":"free"},{"bike_id":"bf73083c-9990-4652-a3a8-d0c3e1b14c47","system_id":"levelo_inurba_marseille","lat":43.308,"lon":5.38144,"is_reserved":false,"is_disabled":false,"rental_uris":{"android":"levelo://app?vid=bf73083c-9990-4652-a3a8-d0c3e1b14c47","ios":"levelo://app?vid=bf73083c-9990-4652-a3a8-d0c3e1b14c47"},"vehicle_type_id":"4","last_reported":1702303645,"current_range_meters":25600,"station_id":"ce4bgt12rcd13ifvqce0","pricing_plan_id":"free"},{"bike_id":"b94a32ac-d5fe-4ac0-ad64-967736ed5b1e","system_id":"levelo_inurba_marseille","lat":43.308012,"lon":5.381511,"is_reserved":false,"is_disabled":false,"rental_uris":{"android":"levelo://app?vid=b94a32ac-d5fe-4ac0-ad64-967736ed5b1e","ios":"levelo://app?vid=b94a32ac-d5fe-4ac0-ad64-967736ed5b1e"},"vehicle_type_id":"4","last_reported":1702303645,"current_range_meters":0,"station_id":"ce4bgt12rcd13ifvqce0","pricing_plan_id":"free"},{"bike_id":"f1ce390f-5558-494e-82a3-ac30806a322e","system_id":"levelo_inurba_marseille","lat":43.308012,"lon":5.381511,"is_reserved":false,"is_disabled":false,"rental_uris":{"android":"levelo://app?vid=f1ce390f-5558-494e-82a3-ac30806a322e","ios":"levelo://app?vid=f1ce390f-5558-494e-82a3-ac30806a322e"},"vehicle_type_id":"4","last_reported":1702303645,"current_range_meters":29600,"station_id":"ce4bgt12rcd13ifvqce0","pricing_plan_id":"free"},{"bike_id":"0b2f9b8c-4691-451e-ad3b-69a3d178290f","system_id":"levelo_inurba_marseille","lat":43.308012,"lon":5.381511,"is_reserved":false,"is_disabled":false,"rental_uris":{"android":"levelo://app?vid=0b2f9b8c-4691-451e-ad3b-69a3d178290f","ios":"levelo://app?vid=0b2f9b8c-4691-451e-ad3b-69a3d178290f"},"vehicle_type_id":"4","last_reported":1702303645,"current_range_meters":16000,"station_id":"ce4bgt12rcd13ifvqce0","pricing_plan_id":"free"},{"bike_id":"b49195d1-5252-4b63-9ddd-c39017071e00","system_id":"levelo_inurba_marseille","lat":43.311078,"lon":5.383549,"is_reserved":false,"is_disabled":false,"rental_uris":{"android":"levelo://app?vid=b49195d1-5252-4b63-9ddd-c39017071e00","ios":"levelo://app?vid=b49195d1-5252-4b63-9ddd-c39017071e00"},"vehicle_type_id":"4","last_reported":1702303645,"current_range_meters":25200,"station_id":"","pricing_plan_id":"free"},{"bike_id":"d507dc20-f3f0-485a-b520-e5ecd0effbe5","system_id":"levelo_inurba_marseille","lat":43.31997,"lon":5.38151,"is_reserved":false,"is_disabled":false,"rental_uris":{"android":"levelo://app?vid=d507dc20-f3f0-485a-b520-e5ecd0effbe5","ios":"levelo://app?vid=d507dc20-f3f0-485a-b520-e5ecd0effbe5"},"vehicle_type_id":"4","last_reported":1702303645,"current_range_meters":18800,"station_id":"ce4bhr12rcd13ifvqhpg","pricing_plan_id":"free"},{"bike_id":"2b7f7a37-391a-4eb2-b1a1-ddc45a522eff","system_id":"levelo_inurba_marseille","lat":43.32001,"lon":5.38152,"is_reserved":false,"is_disabled":false,"rental_uris":{"android":"levelo://app?vid=2b7f7a37-391a-4eb2-b1a1-ddc45a522eff","ios":"levelo://app?vid=2b7f7a37-391a-4eb2-b1a1-ddc45a522eff"},"vehicle_type_id":"4","last_reported":1702303645,"current_range_meters":26800,"station_id":"ce4bhr12rcd13ifvqhpg","pricing_plan_id":"free"},{"bike_id":"f5dc87db-1627-40f9-8d4d-6dfa629a504a","system_id":"levelo_inurba_marseille","lat":43.31356,"lon":5.38493,"is_reserved":false,"is_disabled":false,"rental_uris":{"android":"levelo://app?vid=f5dc87db-1627-40f9-8d4d-6dfa629a504a","ios":"levelo://app?vid=f5dc87db-1627-40f9-8d4d-6dfa629a504a"},"vehicle_type_id":"4","last_reported":1702303645,"current_range_meters":16400,"station_id":"ce4bgt92rcd13ifvqcf0","pricing_plan_id":"free"},{"bike_id":"67ffc974-45c4-4674-9071-3aa5f8f0412a","system_id":"levelo_inurba_marseille","lat":43.299724,"lon":5.371829,"is_reserved":false,"is_disabled":false,"rental_uris":{"android":"levelo://app?vid=67ffc974-45c4-4674-9071-3aa5f8f0412a","ios":"levelo://app?vid=67ffc974-45c4-4674-9071-3aa5f8f0412a"},"vehicle_type_id":"4","last_reported":1702303645,"current_range_meters":8400,"station_id":"ce4bgr92rcd13ifvqc7g","pricing_plan_id":"free"},{"bike_id":"6a390d62-1b81-4621-9a60-3bf073b1d7e1","system_id":"levelo_inurba_marseille","lat":43.298433,"lon":5.362774,"is_reserved":false,"is_disabled":false,"rental_uris":{"android":"levelo://app?vid=6a390d62-1b81-4621-9a60-3bf073b1d7e1","ios":"levelo://app?vid=6a390d62-1b81-4621-9a60-3bf073b1d7e1"},"vehicle_type_id":"4","last_reported":1702303645,"current_range_meters":2000,"station_id":"ce4bgpp2rcd13ifvqc3g","pricing_plan_id":"free"},{"bike_id":"c9bd1dac-6fb2-429e-acb2-1459eb0e5b14","system_id":"levelo_inurba_marseille","lat":43.29915,"lon":5.37422,"is_reserved":false,"is_disabled":false,"rental_uris":{"android":"levelo://app?vid=c9bd1dac-6fb2-429e-acb2-1459eb0e5b14","ios":"levelo://app?vid=c9bd1dac-6fb2-429e-acb2-1459eb0e5b14"},"vehicle_type_id":"4","last_reported":1702303645,"current_range_meters":4000,"station_id":"ce4bgjh2rcd13ifvqbg0","pricing_plan_id":"free"},{"bike_id":"20a10729-1b17-4cf7-95a1-d2e8020d8d70","system_id":"levelo_inurba_marseille","lat":43.31159,"lon":5.38693,"is_reserved":false,"is_disabled":false,"rental_uris":{"android":"levelo://app?vid=20a10729-1b17-4cf7-95a1-d2e8020d8d70","ios":"levelo://app?vid=20a10729-1b17-4cf7-95a1-d2e8020d8d70"},"vehicle_type_id":"4","last_reported":1702303645,"current_range_meters":24800,"station_id":"ce4bgv12rcd13ifvqcp0","pricing_plan_id":"free"},{"bike_id":"8d1a07cb-160b-41e5-9ef6-aa20372c6a91","system_id":"levelo_inurba_marseille","lat":43.298433,"lon":5.362774,"is_reserved":false,"is_disabled":false,"rental_uris":{"android":"levelo://app?vid=8d1a07cb-160b-41e5-9ef6-aa20372c6a91","ios":"levelo://app?vid=8d1a07cb-160b-41e5-9ef6-aa20372c6a91"},"vehicle_type_id":"4","last_reported":1702303645,"current_range_meters":26800,"station_id":"ce4bgpp2rcd13ifvqc3g","pricing_plan_id":"free"},{"bike_id":"d5502848-d5c3-4084-b564-0c8bac8d92bd","system_id":"levelo_inurba_marseille","lat":43.298433,"lon":5.362774,"is_reserved":false,"is_disabled":false,"rental_uris":{"android":"levelo://app?vid=d5502848-d5c3-4084-b564-0c8bac8d92bd","ios":"levelo://app?vid=d5502848-d5c3-4084-b564-0c8bac8d92bd"},"vehicle_type_id":"4","last_reported":1702303645,"current_range_meters":7600,"station_id":"ce4bgpp2rcd13ifvqc3g","pricing_plan_id":"free"},{"bike_id":"95ba92ba-ab56-4152-8412-3f17c10c3944","system_id":"levelo_inurba_marseille","lat":43.298433,"lon":5.362774,"is_reserved":false,"is_disabled":false,"rental_uris":{"android":"levelo://app?vid=95ba92ba-ab56-4152-8412-3f17c10c3944","ios":"levelo://app?vid=95ba92ba-ab56-4152-8412-3f17c10c3944"},"vehicle_type_id":"4","last_reported":1702303645,"current_range_meters":17600,"station_id":"ce4bgpp2rcd13ifvqc3g","pricing_plan_id":"free"},{"bike_id":"cb398e35-bb76-473b-a0fe-3feaee950bf5","system_id":"levelo_inurba_marseille","lat":43.298433,"lon":5.362774,"is_reserved":false,"is_disabled":false,"rental_uris":{"android":"levelo://app?vid=cb398e35-bb76-473b-a0fe-3feaee950bf5","ios":"levelo://app?vid=cb398e35-bb76-473b-a0fe-3feaee950bf5"},"vehicle_type_id":"4","last_reported":1702303645,"current_range_meters":23200,"station_id":"ce4bgpp2rcd13ifvqc3g","pricing_plan_id":"free"},{"bike_id":"52d8b7ba-7505-413c-b898-efb75f14c13c","system_id":"levelo_inurba_marseille","lat":43.328371,"lon":5.366909,"is_reserved":false,"is_disabled":false,"rental_uris":{"android":"levelo://app?vid=52d8b7ba-7505-413c-b898-efb75f14c13c","ios":"levelo://app?vid=52d8b7ba-7505-413c-b898-efb75f14c13c"},"vehicle_type_id":"4","last_reported":1702303645,"current_range_meters":17600,"station_id":"ce4bhs92rcd13ifvqi0g","pricing_plan_id":"free"},{"bike_id":"9b0409c8-952e-43cd-8929-2c98668b8e00","system_id":"levelo_inurba_marseille","lat":43.32833,"lon":5.36676,"is_reserved":false,"is_disabled":false,"rental_uris":{"android":"levelo://app?vid=9b0409c8-952e-43cd-8929-2c98668b8e00","ios":"levelo://app?vid=9b0409c8-952e-43cd-8929-2c98668b8e00"},"vehicle_type_id":"4","last_reported":1702303645,"current_range_meters":14000,"station_id":"ce4bhs92rcd13ifvqi0g","pricing_plan_id":"free"},{"bike_id":"e445088b-ea85-4a39-915c-fe076c5e8f64","system_id":"levelo_inurba_marseille","lat":43.328371,"lon":5.366909,"is_reserved":false,"is_disabled":false,"rental_uris":{"android":"levelo://app?vid=e445088b-ea85-4a39-915c-fe076c5e8f64","ios":"levelo://app?vid=e445088b-ea85-4a39-915c-fe076c5e8f64"},"vehicle_type_id":"4","last_reported":1702303645,"current_range_meters":0,"station_id":"ce4bhs92rcd13ifvqi0g","pricing_plan_id":"free"},{"bike_id":"a5589e38-f15a-46fe-9b37-27cf16ba9de2","system_id":"levelo_inurba_marseille","lat":43.328348,"lon":5.366701,"is_reserved":false,"is_disabled":false,"rental_uris":{"android":"levelo://app?vid=a5589e38-f15a-46fe-9b37-27cf16ba9de2","ios":"levelo://app?vid=a5589e38-f15a-46fe-9b37-27cf16ba9de2"},"vehicle_type_id":"4","last_reported":1702303645,"current_range_meters":19200,"station_id":"ce4bhs92rcd13ifvqi0g","pricing_plan_id":"free"},{"bike_id":"f9373e75-61b9-43d8-b023-91c54cc48599","system_id":"levelo_inurba_marseille","lat":43.296129,"lon":5.370777,"is_reserved":false,"is_disabled":false,"rental_uris":{"android":"levelo://app?vid=f9373e75-61b9-43d8-b023-91c54cc48599","ios":"levelo://app?vid=f9373e75-61b9-43d8-b023-91c54cc48599"},"vehicle_type_id":"4","last_reported":1702303645,"current_range_meters":14400,"station_id":"ce4bgnh2rcd13ifvqc0g","pricing_plan_id":"free"},{"bike_id":"e268d61a-63e3-49de-87ab-e100f44991b2","system_id":"levelo_inurba_marseille","lat":43.299028,"lon":5.381509,"is_reserved":false,"is_disabled":false,"rental_uris":{"android":"levelo://app?vid=e268d61a-63e3-49de-87ab-e100f44991b2","ios":"levelo://app?vid=e268d61a-63e3-49de-87ab-e100f44991b2"},"vehicle_type_id":"4","last_reported":1702303645,"current_range_meters":24800,"station_id":"ce4bgj12rcd13ifvqbc0","pricing_plan_id":"free"},{"bike_id":"803d5c4f-aea0-4d0a-88ea-4d10303eae57","system_id":"levelo_inurba_marseille","lat":43.309589,"lon":5.390258,"is_reserved":false,"is_disabled":false,"rental_uris":{"android":"levelo://app?vid=803d5c4f-aea0-4d0a-88ea-4d10303eae57","ios":"levelo://app?vid=803d5c4f-aea0-4d0a-88ea-4d10303eae57"},"vehicle_type_id":"4","last_reported":1702303645,"current_range_meters":25600,"station_id":"ce4bgup2rcd13ifvqco0","pricing_plan_id":"free"},{"bike_id":"4e5a75b0-4ffa-4603-a4dc-8d14bad42665","system_id":"levelo_inurba_marseille","lat":43.299028,"lon":5.381509,"is_reserved":false,"is_disabled":false,"rental_uris":{"android":"levelo://app?vid=4e5a75b0-4ffa-4603-a4dc-8d14bad42665","ios":"levelo://app?vid=4e5a75b0-4ffa-4603-a4dc-8d14bad42665"},"vehicle_type_id":"4","last_reported":1702303645,"current_range_meters":14400,"station_id":"ce4bgj12rcd13ifvqbc0","pricing_plan_id":"free"},{"bike_id":"f0ecdaab-62f5-4ccb-bb65-88afaf317df8","system_id":"levelo_inurba_marseille","lat":43.317557,"lon":5.390173,"is_reserved":false,"is_disabled":false,"rental_uris":{"android":"levelo://app?vid=f0ecdaab-62f5-4ccb-bb65-88afaf317df8","ios":"levelo://app?vid=f0ecdaab-62f5-4ccb-bb65-88afaf317df8"},"vehicle_type_id":"4","last_reported":1702303645,"current_range_meters":26000,"station_id":"ce4bhqp2rcd13ifvqhng","pricing_plan_id":"free"},{"bike_id":"545a3c27-1bcd-49b2-8217-140bd126225a","system_id":"levelo_inurba_marseille","lat":43.317557,"lon":5.390173,"is_reserved":false,"is_disabled":false,"rental_uris":{"android":"levelo://app?vid=545a3c27-1bcd-49b2-8217-140bd126225a","ios":"levelo://app?vid=545a3c27-1bcd-49b2-8217-140bd126225a"},"vehicle_type_id":"4","last_reported":1702303645,"current_range_meters":29600,"station_id":"ce4bhqp2rcd13ifvqhng","pricing_plan_id":"free"},{"bike_id":"178120b4-599d-4321-923f-9dfe4521e47d","system_id":"levelo_inurba_marseille","lat":43.298037,"lon":5.381066,"is_reserved":false,"is_disabled":false,"rental_uris":{"android":"levelo://app?vid=178120b4-599d-4321-923f-9dfe4521e47d","ios":"levelo://app?vid=178120b4-599d-4321-923f-9dfe4521e47d"},"vehicle_type_id":"4","last_reported":1702303645,"current_range_meters":12000,"station_id":"ce4bgip2rcd13ifvqbb0","pricing_plan_id":"free"},{"bike_id":"8ba9b50b-edbd-445c-9609-1e61c06d253f","system_id":"levelo_inurba_marseille","lat":43.298037,"lon":5.381066,"is_reserved":false,"is_disabled":false,"rental_uris":{"android":"levelo://app?vid=8ba9b50b-edbd-445c-9609-1e61c06d253f","ios":"levelo://app?vid=8ba9b50b-edbd-445c-9609-1e61c06d253f"},"vehicle_type_id":"4","last_reported":1702303645,"current_range_meters":9600,"station_id":"ce4bgip2rcd13ifvqbb0","pricing_plan_id":"free"},{"bike_id":"9967f0c3-7e09-483a-8993-aa62dfeb71d2","system_id":"levelo_inurba_marseille","lat":43.295748,"lon":5.37522,"is_reserved":false,"is_disabled":false,"rental_uris":{"android":"levelo://app?vid=9967f0c3-7e09-483a-8993-aa62dfeb71d2","ios":"levelo://app?vid=9967f0c3-7e09-483a-8993-aa62dfeb71d2"},"vehicle_type_id":"4","last_reported":1702303645,"current_range_meters":11600,"station_id":"ce4bgh92rcd13ifvqb50","pricing_plan_id":"free"},{"bike_id":"77a6c46d-d898-4e4f-8846-efa91689c7f0","system_id":"levelo_inurba_marseille","lat":43.295508,"lon":5.379301,"is_reserved":false,"is_disabled":false,"rental_uris":{"android":"levelo://app?vid=77a6c46d-d898-4e4f-8846-efa91689c7f0","ios":"levelo://app?vid=77a6c46d-d898-4e4f-8846-efa91689c7f0"},"vehicle_type_id":"4","last_reported":1702303645,"current_range_meters":0,"station_id":"","pricing_plan_id":"free"},{"bike_id":"f809bcc8-d7e9-425f-8fd7-fa10e09e02b6","system_id":"levelo_inurba_marseille","lat":43.299028,"lon":5.381509,"is_reserved":false,"is_disabled":false,"rental_uris":{"android":"levelo://app?vid=f809bcc8-d7e9-425f-8fd7-fa10e09e02b6","ios":"levelo://app?vid=f809bcc8-d7e9-425f-8fd7-fa10e09e02b6"},"vehicle_type_id":"4","last_reported":1702303645,"current_range_meters":11200,"station_id":"ce4bgj12rcd13ifvqbc0","pricing_plan_id":"free"},{"bike_id":"631f4f81-4eaa-4c5c-8e7a-fae5c13b1843","system_id":"levelo_inurba_marseille","lat":43.29241,"lon":5.3656,"is_reserved":false,"is_disabled":false,"rental_uris":{"android":"levelo://app?vid=631f4f81-4eaa-4c5c-8e7a-fae5c13b1843","ios":"levelo://app?vid=631f4f81-4eaa-4c5c-8e7a-fae5c13b1843"},"vehicle_type_id":"4","last_reported":1702303645,"current_range_meters":0,"station_id":"","pricing_plan_id":"free"},{"bike_id":"a9afc57b-6843-41df-b53b-e856188cd953","system_id":"levelo_inurba_marseille","lat":43.305994,"lon":5.393687,"is_reserved":false,"is_disabled":false,"rental_uris":{"android":"levelo://app?vid=a9afc57b-6843-41df-b53b-e856188cd953","ios":"levelo://app?vid=a9afc57b-6843-41df-b53b-e856188cd953"},"vehicle_type_id":"4","last_reported":1702303645,"current_range_meters":11200,"station_id":"ce4bh0p2rcd13ifvqd80","pricing_plan_id":"free"},{"bike_id":"e369f226-0078-4ae8-abfd-2738d6ad9004","system_id":"levelo_inurba_marseille","lat":43.309047,"lon":5.396551,"is_reserved":false,"is_disabled":false,"rental_uris":{"android":"levelo://app?vid=e369f226-0078-4ae8-abfd-2738d6ad9004","ios":"levelo://app?vid=e369f226-0078-4ae8-abfd-2738d6ad9004"},"vehicle_type_id":"4","last_reported":1702303645,"current_range_meters":27600,"station_id":"ce4bh012rcd13ifvqcv0","pricing_plan_id":"free"},{"bike_id":"fefd5913-a6e9-4185-8f92-a919f18daf91","system_id":"levelo_inurba_marseille","lat":43.313291,"lon":5.396838,"is_reserved":false,"is_disabled":false,"rental_uris":{"android":"levelo://app?vid=fefd5913-a6e9-4185-8f92-a919f18daf91","ios":"levelo://app?vid=fefd5913-a6e9-4185-8f92-a919f18daf91"},"vehicle_type_id":"4","last_reported":1702303645,"current_range_meters":29200,"station_id":"ce4bgvp2rcd13ifvqcu0","pricing_plan_id":"free"},{"bike_id":"12768eff-59c1-4a77-8d28-d1349a3ba0d6","system_id":"levelo_inurba_marseille","lat":43.313291,"lon":5.396838,"is_reserved":false,"is_disabled":false,"rental_uris":{"android":"levelo://app?vid=12768eff-59c1-4a77-8d28-d1349a3ba0d6","ios":"levelo://app?vid=12768eff-59c1-4a77-8d28-d1349a3ba0d6"},"vehicle_type_id":"4","last_reported":1702303645,"current_range_meters":29600,"station_id":"ce4bgvp2rcd13ifvqcu0","pricing_plan_id":"free"},{"bike_id":"d6a8a4d8-a33b-4ddc-8745-0d71519ee859","system_id":"levelo_inurba_marseille","lat":43.313291,"lon":5.396838,"is_reserved":false,"is_disabled":false,"rental_uris":{"android":"levelo://app?vid=d6a8a4d8-a33b-4ddc-8745-0d71519ee859","ios":"levelo://app?vid=d6a8a4d8-a33b-4ddc-8745-0d71519ee859"},"vehicle_type_id":"4","last_reported":1702303645,"current_range_meters":31200,"station_id":"ce4bgvp2rcd13ifvqcu0","pricing_plan_id":"free"},{"bike_id":"8cc287d2-58c4-4786-b6f3-e61105d02612","system_id":"levelo_inurba_marseille","lat":43.309047,"lon":5.396551,"is_reserved":false,"is_disabled":false,"rental_uris":{"android":"levelo://app?vid=8cc287d2-58c4-4786-b6f3-e61105d02612","ios":"levelo://app?vid=8cc287d2-58c4-4786-b6f3-e61105d02612"},"vehicle_type_id":"4","last_reported":1702303645,"current_range_meters":21600,"station_id":"ce4bh012rcd13ifvqcv0","pricing_plan_id":"free"},{"bike_id":"4a57393b-8903-4a34-8c5f-5129fdabce0e","system_id":"levelo_inurba_marseille","lat":43.313291,"lon":5.396838,"is_reserved":false,"is_disabled":false,"rental_uris":{"android":"levelo://app?vid=4a57393b-8903-4a34-8c5f-5129fdabce0e","ios":"levelo://app?vid=4a57393b-8903-4a34-8c5f-5129fdabce0e"},"vehicle_type_id":"4","last_reported":1702303645,"current_range_meters":25200,"station_id":"ce4bgvp2rcd13ifvqcu0","pricing_plan_id":"free"},{"bike_id":"a0dc6a96-91d5-4d77-81c4-c67dfe6bc91d","system_id":"levelo_inurba_marseille","lat":43.29529,"lon":5.385581,"is_reserved":false,"is_disabled":false,"rental_uris":{"android":"levelo://app?vid=a0dc6a96-91d5-4d77-81c4-c67dfe6bc91d","ios":"levelo://app?vid=a0dc6a96-91d5-4d77-81c4-c67dfe6bc91d"},"vehicle_type_id":"4","last_reported":1702303645,"current_range_meters":26400,"station_id":"ce4bgih2rcd13ifvqba0","pricing_plan_id":"free"},{"bike_id":"73b3f684-2c19-4061-8c7f-c6639af242fa","system_id":"levelo_inurba_marseille","lat":43.29529,"lon":5.385581,"is_reserved":false,"is_disabled":false,"rental_uris":{"android":"levelo://app?vid=73b3f684-2c19-4061-8c7f-c6639af242fa","ios":"levelo://app?vid=73b3f684-2c19-4061-8c7f-c6639af242fa"},"vehicle_type_id":"4","last_reported":1702303645,"current_range_meters":17200,"station_id":"ce4bgih2rcd13ifvqba0","pricing_plan_id":"free"},{"bike_id":"960d0ce7-9b87-4362-8b66-716eccfa87ae","system_id":"levelo_inurba_marseille","lat":43.290631,"lon":5.359244,"is_reserved":false,"is_disabled":false,"rental_uris":{"android":"levelo://app?vid=960d0ce7-9b87-4362-8b66-716eccfa87ae","ios":"levelo://app?vid=960d0ce7-9b87-4362-8b66-716eccfa87ae"},"vehicle_type_id":"4","last_reported":1702303645,"current_range_meters":18800,"station_id":"ce4bha92rcd13ifvqeg0","pricing_plan_id":"free"},{"bike_id":"4e64682c-8649-4993-a32f-8a85be2ea7e4","system_id":"levelo_inurba_marseille","lat":43.294162,"lon":5.386292,"is_reserved":false,"is_disabled":false,"rental_uris":{"android":"levelo://app?vid=4e64682c-8649-4993-a32f-8a85be2ea7e4","ios":"levelo://app?vid=4e64682c-8649-4993-a32f-8a85be2ea7e4"},"vehicle_type_id":"4","last_reported":1702303645,"current_range_meters":28000,"station_id":"ce4bh2h2rcd13ifvqdh0","pricing_plan_id":"free"},{"bike_id":"8e474637-3e2e-4980-8dae-2f05af0e411e","system_id":"levelo_inurba_marseille","lat":43.289184,"lon":5.366408,"is_reserved":false,"is_disabled":false,"rental_uris":{"android":"levelo://app?vid=8e474637-3e2e-4980-8dae-2f05af0e411e","ios":"levelo://app?vid=8e474637-3e2e-4980-8dae-2f05af0e411e"},"vehicle_type_id":"4","last_reported":1702303645,"current_range_meters":7200,"station_id":"ce4bhap2rcd13ifvqek0","pricing_plan_id":"free"},{"bike_id":"1e118dd4-d899-4794-857d-8c012b801341","system_id":"levelo_inurba_marseille","lat":43.289184,"lon":5.366408,"is_reserved":false,"is_disabled":false,"rental_uris":{"android":"levelo://app?vid=1e118dd4-d899-4794-857d-8c012b801341","ios":"levelo://app?vid=1e118dd4-d899-4794-857d-8c012b801341"},"vehicle_type_id":"4","last_reported":1702303645,"current_range_meters":15200,"station_id":"ce4bhap2rcd13ifvqek0","pricing_plan_id":"free"},{"bike_id":"cf70d670-d9ca-4e00-ba6b-f8eae4712f62","system_id":"levelo_inurba_marseille","lat":43.292644,"lon":5.384257,"is_reserved":false,"is_disabled":false,"rental_uris":{"android":"levelo://app?vid=cf70d670-d9ca-4e00-ba6b-f8eae4712f62","ios":"levelo://app?vid=cf70d670-d9ca-4e00-ba6b-f8eae4712f62"},"vehicle_type_id":"4","last_reported":1702303645,"current_range_meters":18000,"station_id":"ce4bh692rcd13ifvqea0","pricing_plan_id":"free"},{"bike_id":"7df0cbd2-e7ae-4842-a5d1-a4ec8ecee998","system_id":"levelo_inurba_marseille","lat":43.292642,"lon":5.384254,"is_reserved":false,"is_disabled":false,"rental_uris":{"android":"levelo://app?vid=7df0cbd2-e7ae-4842-a5d1-a4ec8ecee998","ios":"levelo://app?vid=7df0cbd2-e7ae-4842-a5d1-a4ec8ecee998"},"vehicle_type_id":"4","last_reported":1702303645,"current_range_meters":2800,"station_id":"ce4bh692rcd13ifvqea0","pricing_plan_id":"free"},{"bike_id":"58e5ffdc-8818-417d-ab14-d6cf776c24ea","system_id":"levelo_inurba_marseille","lat":43.292644,"lon":5.384257,"is_reserved":false,"is_disabled":false,"rental_uris":{"android":"levelo://app?vid=58e5ffdc-8818-417d-ab14-d6cf776c24ea","ios":"levelo://app?vid=58e5ffdc-8818-417d-ab14-d6cf776c24ea"},"vehicle_type_id":"4","last_reported":1702303645,"current_range_meters":9600,"station_id":"ce4bh692rcd13ifvqea0","pricing_plan_id":"free"},{"bike_id":"2c93e719-bf78-49d7-a140-f6dc2a61e60b","system_id":"levelo_inurba_marseille","lat":43.290104,"lon":5.356111,"is_reserved":false,"is_disabled":false,"rental_uris":{"android":"levelo://app?vid=2c93e719-bf78-49d7-a140-f6dc2a61e60b","ios":"levelo://app?vid=2c93e719-bf78-49d7-a140-f6dc2a61e60b"},"vehicle_type_id":"4","last_reported":1702303645,"current_range_meters":20400,"station_id":"ce4bhb92rcd13ifvqen0","pricing_plan_id":"free"},{"bike_id":"5965afd2-9328-414c-9e5a-732ce2b1f47e","system_id":"levelo_inurba_marseille","lat":43.290103,"lon":5.356114,"is_reserved":false,"is_disabled":false,"rental_uris":{"android":"levelo://app?vid=5965afd2-9328-414c-9e5a-732ce2b1f47e","ios":"levelo://app?vid=5965afd2-9328-414c-9e5a-732ce2b1f47e"},"vehicle_type_id":"4","last_reported":1702303645,"current_range_meters":29200,"station_id":"ce4bhb92rcd13ifvqen0","pricing_plan_id":"free"},{"bike_id":"cf5dd453-987d-43ba-a87f-f6a33cfe2506","system_id":"levelo_inurba_marseille","lat":43.28856,"lon":5.358371,"is_reserved":false,"is_disabled":false,"rental_uris":{"android":"levelo://app?vid=cf5dd453-987d-43ba-a87f-f6a33cfe2506","ios":"levelo://app?vid=cf5dd453-987d-43ba-a87f-f6a33cfe2506"},"vehicle_type_id":"4","last_reported":1702303645,"current_range_meters":29200,"station_id":"ce4bhb12rcd13ifvqem0","pricing_plan_id":"free"},{"bike_id":"6568f984-7c2d-4bcc-8db7-69ff95afd0eb","system_id":"levelo_inurba_marseille","lat":43.2901,"lon":5.381269,"is_reserved":false,"is_disabled":false,"rental_uris":{"android":"levelo://app?vid=6568f984-7c2d-4bcc-8db7-69ff95afd0eb","ios":"levelo://app?vid=6568f984-7c2d-4bcc-8db7-69ff95afd0eb"},"vehicle_type_id":"4","last_reported":1702303645,"current_range_meters":3600,"station_id":"ce4bh4p2rcd13ifvqe1g","pricing_plan_id":"free"},{"bike_id":"0df358b2-a461-4a59-b299-6fd3eadddf20","system_id":"levelo_inurba_marseille","lat":43.33749,"lon":5.37379,"is_reserved":false,"is_disabled":false,"rental_uris":{"android":"levelo://app?vid=0df358b2-a461-4a59-b299-6fd3eadddf20","ios":"levelo://app?vid=0df358b2-a461-4a59-b299-6fd3eadddf20"},"vehicle_type_id":"4","last_reported":1702303645,"current_range_meters":26400,"station_id":"","pricing_plan_id":"free"},{"bike_id":"e475360e-2d4a-4ea5-82a5-b6cc1c31ec10","system_id":"levelo_inurba_marseille","lat":43.31268,"lon":5.40177,"is_reserved":false,"is_disabled":false,"rental_uris":{"android":"levelo://app?vid=e475360e-2d4a-4ea5-82a5-b6cc1c31ec10","ios":"levelo://app?vid=e475360e-2d4a-4ea5-82a5-b6cc1c31ec10"},"vehicle_type_id":"4","last_reported":1702303645,"current_range_meters":19200,"station_id":"ce4bh092rcd13ifvqd30","pricing_plan_id":"free"},{"bike_id":"3f9429ce-0e2f-4adf-9908-c8a7985761c7","system_id":"levelo_inurba_marseille","lat":43.28727,"lon":5.36078,"is_reserved":false,"is_disabled":false,"rental_uris":{"android":"levelo://app?vid=3f9429ce-0e2f-4adf-9908-c8a7985761c7","ios":"levelo://app?vid=3f9429ce-0e2f-4adf-9908-c8a7985761c7"},"vehicle_type_id":"4","last_reported":1702303645,"current_range_meters":800,"station_id":"cki0cbj6b192h4jlfktg","pricing_plan_id":"free"},{"bike_id":"384d3088-1628-4b8e-ab94-32a745e6ea6b","system_id":"levelo_inurba_marseille","lat":43.286591,"lon":5.363346,"is_reserved":false,"is_disabled":false,"rental_uris":{"android":"levelo://app?vid=384d3088-1628-4b8e-ab94-32a745e6ea6b","ios":"levelo://app?vid=384d3088-1628-4b8e-ab94-32a745e6ea6b"},"vehicle_type_id":"4","last_reported":1702303645,"current_range_meters":22400,"station_id":"ce4bhah2rcd13ifvqej0","pricing_plan_id":"free"},{"bike_id":"e40fdc9d-c4ec-46b4-acda-2e2c33416678","system_id":"levelo_inurba_marseille","lat":43.286591,"lon":5.363346,"is_reserved":false,"is_disabled":false,"rental_uris":{"android":"levelo://app?vid=e40fdc9d-c4ec-46b4-acda-2e2c33416678","ios":"levelo://app?vid=e40fdc9d-c4ec-46b4-acda-2e2c33416678"},"vehicle_type_id":"4","last_reported":1702303645,"current_range_meters":18400,"station_id":"ce4bhah2rcd13ifvqej0","pricing_plan_id":"free"},{"bike_id":"cf34a1e8-b11c-4e90-90fb-12ae54525705","system_id":"levelo_inurba_marseille","lat":43.295194,"lon":5.39397,"is_reserved":false,"is_disabled":false,"rental_uris":{"android":"levelo://app?vid=cf34a1e8-b11c-4e90-90fb-12ae54525705","ios":"levelo://app?vid=cf34a1e8-b11c-4e90-90fb-12ae54525705"},"vehicle_type_id":"4","last_reported":1702303645,"current_range_meters":0,"station_id":"ce4bh292rcd13ifvqdf0","pricing_plan_id":"free"},{"bike_id":"dbf301f1-0395-44d2-bbd7-e93b95f60b1f","system_id":"levelo_inurba_marseille","lat":43.302759,"lon":5.400793,"is_reserved":false,"is_disabled":false,"rental_uris":{"android":"levelo://app?vid=dbf301f1-0395-44d2-bbd7-e93b95f60b1f","ios":"levelo://app?vid=dbf301f1-0395-44d2-bbd7-e93b95f60b1f"},"vehicle_type_id":"4","last_reported":1702303645,"current_range_meters":28000,"station_id":"ce4bgvh2rcd13ifvqcs0","pricing_plan_id":"free"},{"bike_id":"3ed901ce-0880-4aaa-9aa5-799a103ab893","system_id":"levelo_inurba_marseille","lat":43.302759,"lon":5.400793,"is_reserved":false,"is_disabled":false,"rental_uris":{"android":"levelo://app?vid=3ed901ce-0880-4aaa-9aa5-799a103ab893","ios":"levelo://app?vid=3ed901ce-0880-4aaa-9aa5-799a103ab893"},"vehicle_type_id":"4","last_reported":1702303645,"current_range_meters":21600,"station_id":"ce4bgvh2rcd13ifvqcs0","pricing_plan_id":"free"},{"bike_id":"7dac9764-b382-4e08-9d0a-d23257763217","system_id":"levelo_inurba_marseille","lat":43.302759,"lon":5.400793,"is_reserved":false,"is_disabled":false,"rental_uris":{"android":"levelo://app?vid=7dac9764-b382-4e08-9d0a-d23257763217","ios":"levelo://app?vid=7dac9764-b382-4e08-9d0a-d23257763217"},"vehicle_type_id":"4","last_reported":1702303645,"current_range_meters":30000,"station_id":"ce4bgvh2rcd13ifvqcs0","pricing_plan_id":"free"},{"bike_id":"73627890-58e2-43d9-9540-7b1e6dff2ca2","system_id":"levelo_inurba_marseille","lat":43.290336,"lon":5.386425,"is_reserved":false,"is_disabled":false,"rental_uris":{"android":"levelo://app?vid=73627890-58e2-43d9-9540-7b1e6dff2ca2","ios":"levelo://app?vid=73627890-58e2-43d9-9540-7b1e6dff2ca2"},"vehicle_type_id":"4","last_reported":1702303645,"current_range_meters":18000,"station_id":"ce4bh4p2rcd13ifvqe0g","pricing_plan_id":"free"},{"bike_id":"ba4418c6-3417-41e7-9300-c427e92edba1","system_id":"levelo_inurba_marseille","lat":43.29022,"lon":5.3865,"is_reserved":false,"is_disabled":false,"rental_uris":{"android":"levelo://app?vid=ba4418c6-3417-41e7-9300-c427e92edba1","ios":"levelo://app?vid=ba4418c6-3417-41e7-9300-c427e92edba1"},"vehicle_type_id":"4","last_reported":1702303645,"current_range_meters":12400,"station_id":"ce4bh4p2rcd13ifvqe0g","pricing_plan_id":"free"},{"bike_id":"4a7bf8ad-1bce-4fbd-96e4-99d08df786f6","system_id":"levelo_inurba_marseille","lat":43.29021,"lon":5.38653,"is_reserved":false,"is_disabled":false,"rental_uris":{"android":"levelo://app?vid=4a7bf8ad-1bce-4fbd-96e4-99d08df786f6","ios":"levelo://app?vid=4a7bf8ad-1bce-4fbd-96e4-99d08df786f6"},"vehicle_type_id":"4","last_reported":1702303645,"current_range_meters":17200,"station_id":"ce4bh4p2rcd13ifvqe0g","pricing_plan_id":"free"},{"bike_id":"6cbcc99b-e865-400d-956b-03ad4a542d92","system_id":"levelo_inurba_marseille","lat":43.302759,"lon":5.400793,"is_reserved":false,"is_disabled":false,"rental_uris":{"android":"levelo://app?vid=6cbcc99b-e865-400d-956b-03ad4a542d92","ios":"levelo://app?vid=6cbcc99b-e865-400d-956b-03ad4a542d92"},"vehicle_type_id":"4","last_reported":1702303645,"current_range_meters":4800,"station_id":"ce4bgvh2rcd13ifvqcs0","pricing_plan_id":"free"},{"bike_id":"53dadfcf-be20-43aa-8b95-804d8cf63e34","system_id":"levelo_inurba_marseille","lat":43.302759,"lon":5.400793,"is_reserved":false,"is_disabled":false,"rental_uris":{"android":"levelo://app?vid=53dadfcf-be20-43aa-8b95-804d8cf63e34","ios":"levelo://app?vid=53dadfcf-be20-43aa-8b95-804d8cf63e34"},"vehicle_type_id":"4","last_reported":1702303645,"current_range_meters":23600,"station_id":"ce4bgvh2rcd13ifvqcs0","pricing_plan_id":"free"},{"bike_id":"491e0a09-9707-48b2-9e11-9a076fafa2b0","system_id":"levelo_inurba_marseille","lat":43.302759,"lon":5.400793,"is_reserved":false,"is_disabled":false,"rental_uris":{"android":"levelo://app?vid=491e0a09-9707-48b2-9e11-9a076fafa2b0","ios":"levelo://app?vid=491e0a09-9707-48b2-9e11-9a076fafa2b0"},"vehicle_type_id":"4","last_reported":1702303645,"current_range_meters":27200,"station_id":"ce4bgvh2rcd13ifvqcs0","pricing_plan_id":"free"},{"bike_id":"dbb6b25c-ef8f-4a93-bdd4-1f60f1415690","system_id":"levelo_inurba_marseille","lat":43.291994,"lon":5.392907,"is_reserved":false,"is_disabled":false,"rental_uris":{"android":"levelo://app?vid=dbb6b25c-ef8f-4a93-bdd4-1f60f1415690","ios":"levelo://app?vid=dbb6b25c-ef8f-4a93-bdd4-1f60f1415690"},"vehicle_type_id":"4","last_reported":1702303645,"current_range_meters":17600,"station_id":"ce4bh192rcd13ifvqdd0","pricing_plan_id":"free"},{"bike_id":"d95de300-c07e-4f84-a785-038dc7a832f9","system_id":"levelo_inurba_marseille","lat":43.284538,"lon":5.358657,"is_reserved":false,"is_disabled":false,"rental_uris":{"android":"levelo://app?vid=d95de300-c07e-4f84-a785-038dc7a832f9","ios":"levelo://app?vid=d95de300-c07e-4f84-a785-038dc7a832f9"},"vehicle_type_id":"4","last_reported":1702303645,"current_range_meters":18000,"station_id":"ce4bhah2rcd13ifvqei0","pricing_plan_id":"free"},{"bike_id":"83a514d1-846b-4e56-a3b0-c29c69c866da","system_id":"levelo_inurba_marseille","lat":43.286156,"lon":5.351087,"is_reserved":false,"is_disabled":false,"rental_uris":{"android":"levelo://app?vid=83a514d1-846b-4e56-a3b0-c29c69c866da","ios":"levelo://app?vid=83a514d1-846b-4e56-a3b0-c29c69c866da"},"vehicle_type_id":"4","last_reported":1702303645,"current_range_meters":26400,"station_id":"ce4bhch2rcd13ifvqeug","pricing_plan_id":"free"},{"bike_id":"c904dca1-552c-48fe-b116-095c499943b4","system_id":"levelo_inurba_marseille","lat":43.286155,"lon":5.35109,"is_reserved":false,"is_disabled":false,"rental_uris":{"android":"levelo://app?vid=c904dca1-552c-48fe-b116-095c499943b4","ios":"levelo://app?vid=c904dca1-552c-48fe-b116-095c499943b4"},"vehicle_type_id":"4","last_reported":1702303645,"current_range_meters":26400,"station_id":"ce4bhch2rcd13ifvqeug","pricing_plan_id":"free"},{"bike_id":"30d32410-23f2-4a27-8803-14a0d29695b5","system_id":"levelo_inurba_marseille","lat":43.286146,"lon":5.351085,"is_reserved":false,"is_disabled":false,"rental_uris":{"android":"levelo://app?vid=30d32410-23f2-4a27-8803-14a0d29695b5","ios":"levelo://app?vid=30d32410-23f2-4a27-8803-14a0d29695b5"},"vehicle_type_id":"4","last_reported":1702303645,"current_range_meters":26400,"station_id":"ce4bhch2rcd13ifvqeug","pricing_plan_id":"free"},{"bike_id":"4557d9a9-86f4-457f-8926-2b56edb9a6fc","system_id":"levelo_inurba_marseille","lat":43.286139,"lon":5.351089,"is_reserved":false,"is_disabled":false,"rental_uris":{"android":"levelo://app?vid=4557d9a9-86f4-457f-8926-2b56edb9a6fc","ios":"levelo://app?vid=4557d9a9-86f4-457f-8926-2b56edb9a6fc"},"vehicle_type_id":"4","last_reported":1702303645,"current_range_meters":30400,"station_id":"ce4bhch2rcd13ifvqeug","pricing_plan_id":"free"},{"bike_id":"fae7ad64-46ee-4b2a-8934-5b955d74400c","system_id":"levelo_inurba_marseille","lat":43.28613,"lon":5.351115,"is_reserved":false,"is_disabled":false,"rental_uris":{"android":"levelo://app?vid=fae7ad64-46ee-4b2a-8934-5b955d74400c","ios":"levelo://app?vid=fae7ad64-46ee-4b2a-8934-5b955d74400c"},"vehicle_type_id":"4","last_reported":1702303645,"current_range_meters":26400,"station_id":"ce4bhch2rcd13ifvqeug","pricing_plan_id":"free"},{"bike_id":"1b5a78af-52cb-4f20-9c8d-ad8dbecf4e2b","system_id":"levelo_inurba_marseille","lat":43.285848,"lon":5.350787,"is_reserved":false,"is_disabled":false,"rental_uris":{"android":"levelo://app?vid=1b5a78af-52cb-4f20-9c8d-ad8dbecf4e2b","ios":"levelo://app?vid=1b5a78af-52cb-4f20-9c8d-ad8dbecf4e2b"},"vehicle_type_id":"4","last_reported":1702303645,"current_range_meters":26400,"station_id":"ce4bhch2rcd13ifvqeug","pricing_plan_id":"free"},{"bike_id":"16b57306-2693-4055-a188-68b3db34c84e","system_id":"levelo_inurba_marseille","lat":43.28612,"lon":5.351108,"is_reserved":false,"is_disabled":false,"rental_uris":{"android":"levelo://app?vid=16b57306-2693-4055-a188-68b3db34c84e","ios":"levelo://app?vid=16b57306-2693-4055-a188-68b3db34c84e"},"vehicle_type_id":"4","last_reported":1702303645,"current_range_meters":26000,"station_id":"ce4bhch2rcd13ifvqeug","pricing_plan_id":"free"},{"bike_id":"77c9ffe2-d817-456c-a26e-811108b6145e","system_id":"levelo_inurba_marseille","lat":43.286111,"lon":5.351062,"is_reserved":false,"is_disabled":false,"rental_uris":{"android":"levelo://app?vid=77c9ffe2-d817-456c-a26e-811108b6145e","ios":"levelo://app?vid=77c9ffe2-d817-456c-a26e-811108b6145e"},"vehicle_type_id":"4","last_reported":1702303645,"current_range_meters":30800,"station_id":"ce4bhch2rcd13ifvqeug","pricing_plan_id":"free"},{"bike_id":"e288e8d6-084a-42c8-8e05-7baeefd938f8","system_id":"levelo_inurba_marseille","lat":43.286094,"lon":5.351084,"is_reserved":false,"is_disabled":false,"rental_uris":{"android":"levelo://app?vid=e288e8d6-084a-42c8-8e05-7baeefd938f8","ios":"levelo://app?vid=e288e8d6-084a-42c8-8e05-7baeefd938f8"},"vehicle_type_id":"4","last_reported":1702303645,"current_range_meters":27200,"station_id":"ce4bhch2rcd13ifvqeug","pricing_plan_id":"free"},{"bike_id":"31b3d0ef-07ea-44f1-8152-0e8af123b556","system_id":"levelo_inurba_marseille","lat":43.286089,"lon":5.351087,"is_reserved":false,"is_disabled":false,"rental_uris":{"android":"levelo://app?vid=31b3d0ef-07ea-44f1-8152-0e8af123b556","ios":"levelo://app?vid=31b3d0ef-07ea-44f1-8152-0e8af123b556"},"vehicle_type_id":"4","last_reported":1702303645,"current_range_meters":27200,"station_id":"ce4bhch2rcd13ifvqeug","pricing_plan_id":"free"},{"bike_id":"b1660c9e-55fb-49d8-9deb-25ce7bc2d924","system_id":"levelo_inurba_marseille","lat":43.28608,"lon":5.351098,"is_reserved":false,"is_disabled":false,"rental_uris":{"android":"levelo://app?vid=b1660c9e-55fb-49d8-9deb-25ce7bc2d924","ios":"levelo://app?vid=b1660c9e-55fb-49d8-9deb-25ce7bc2d924"},"vehicle_type_id":"4","last_reported":1702303645,"current_range_meters":29600,"station_id":"","pricing_plan_id":"free"},{"bike_id":"e629beb0-701b-491b-9d61-79a9f178b75d","system_id":"levelo_inurba_marseille","lat":43.285848,"lon":5.350787,"is_reserved":false,"is_disabled":false,"rental_uris":{"android":"levelo://app?vid=e629beb0-701b-491b-9d61-79a9f178b75d","ios":"levelo://app?vid=e629beb0-701b-491b-9d61-79a9f178b75d"},"vehicle_type_id":"4","last_reported":1702303645,"current_range_meters":26800,"station_id":"ce4bhch2rcd13ifvqeug","pricing_plan_id":"free"},{"bike_id":"89e15144-dec0-414f-ae84-ce2cb256d16a","system_id":"levelo_inurba_marseille","lat":43.319179,"lon":5.407725,"is_reserved":false,"is_disabled":false,"rental_uris":{"android":"levelo://app?vid=89e15144-dec0-414f-ae84-ce2cb256d16a","ios":"levelo://app?vid=89e15144-dec0-414f-ae84-ce2cb256d16a"},"vehicle_type_id":"4","last_reported":1702303645,"current_range_meters":22400,"station_id":"ce4bhq12rcd13ifvqhig","pricing_plan_id":"free"},{"bike_id":"21eb74f9-4cf2-4bfa-a58d-d6c51ae20d00","system_id":"levelo_inurba_marseille","lat":43.283502,"lon":5.386471,"is_reserved":false,"is_disabled":false,"rental_uris":{"android":"levelo://app?vid=21eb74f9-4cf2-4bfa-a58d-d6c51ae20d00","ios":"levelo://app?vid=21eb74f9-4cf2-4bfa-a58d-d6c51ae20d00"},"vehicle_type_id":"4","last_reported":1702303645,"current_range_meters":19600,"station_id":"ce4bh492rcd13ifvqdvg","pricing_plan_id":"free"},{"bike_id":"09bc9ecf-8053-44c1-8bf3-25088f4df90c","system_id":"levelo_inurba_marseille","lat":43.284462,"lon":5.392121,"is_reserved":false,"is_disabled":false,"rental_uris":{"android":"levelo://app?vid=09bc9ecf-8053-44c1-8bf3-25088f4df90c","ios":"levelo://app?vid=09bc9ecf-8053-44c1-8bf3-25088f4df90c"},"vehicle_type_id":"4","last_reported":1702303645,"current_range_meters":4800,"station_id":"ce4bhoh2rcd13ifvqh5g","pricing_plan_id":"free"},{"bike_id":"0d472c41-d4a0-4f01-8bf7-950584030281","system_id":"levelo_inurba_marseille","lat":43.28573,"lon":5.394992,"is_reserved":false,"is_disabled":false,"rental_uris":{"android":"levelo://app?vid=0d472c41-d4a0-4f01-8bf7-950584030281","ios":"levelo://app?vid=0d472c41-d4a0-4f01-8bf7-950584030281"},"vehicle_type_id":"4","last_reported":1702303645,"current_range_meters":20400,"station_id":"ce4bh292rcd13ifvqdg0","pricing_plan_id":"free"},{"bike_id":"8c543b2c-3777-4b00-9951-cd101c05a3da","system_id":"levelo_inurba_marseille","lat":43.28573,"lon":5.394992,"is_reserved":false,"is_disabled":false,"rental_uris":{"android":"levelo://app?vid=8c543b2c-3777-4b00-9951-cd101c05a3da","ios":"levelo://app?vid=8c543b2c-3777-4b00-9951-cd101c05a3da"},"vehicle_type_id":"4","last_reported":1702303645,"current_range_meters":3600,"station_id":"ce4bh292rcd13ifvqdg0","pricing_plan_id":"free"},{"bike_id":"938ddfe3-9467-4fad-b3bb-a99d5505a9f1","system_id":"levelo_inurba_marseille","lat":43.304188,"lon":5.412904,"is_reserved":false,"is_disabled":false,"rental_uris":{"android":"levelo://app?vid=938ddfe3-9467-4fad-b3bb-a99d5505a9f1","ios":"levelo://app?vid=938ddfe3-9467-4fad-b3bb-a99d5505a9f1"},"vehicle_type_id":"4","last_reported":1702303645,"current_range_meters":15600,"station_id":"ce4bhop2rcd13ifvqh8g","pricing_plan_id":"free"},{"bike_id":"84cdd75b-d115-4fad-90ec-e097d2d361e3","system_id":"levelo_inurba_marseille","lat":43.304188,"lon":5.412904,"is_reserved":false,"is_disabled":false,"rental_uris":{"android":"levelo://app?vid=84cdd75b-d115-4fad-90ec-e097d2d361e3","ios":"levelo://app?vid=84cdd75b-d115-4fad-90ec-e097d2d361e3"},"vehicle_type_id":"4","last_reported":1702303645,"current_range_meters":4400,"station_id":"ce4bhop2rcd13ifvqh8g","pricing_plan_id":"free"},{"bike_id":"3bbaec05-556f-48c0-bb83-02c515cebd68","system_id":"levelo_inurba_marseille","lat":43.279087,"lon":5.380114,"is_reserved":false,"is_disabled":false,"rental_uris":{"android":"levelo://app?vid=3bbaec05-556f-48c0-bb83-02c515cebd68","ios":"levelo://app?vid=3bbaec05-556f-48c0-bb83-02c515cebd68"},"vehicle_type_id":"4","last_reported":1702303645,"current_range_meters":8400,"station_id":"ce4bhf92rcd13ifvqf50","pricing_plan_id":"free"},{"bike_id":"f8172e7e-d4de-4379-97b0-7ce954a22484","system_id":"levelo_inurba_marseille","lat":43.27931,"lon":5.38726,"is_reserved":false,"is_disabled":false,"rental_uris":{"android":"levelo://app?vid=f8172e7e-d4de-4379-97b0-7ce954a22484","ios":"levelo://app?vid=f8172e7e-d4de-4379-97b0-7ce954a22484"},"vehicle_type_id":"4","last_reported":1702303645,"current_range_meters":30000,"station_id":"","pricing_plan_id":"free"},{"bike_id":"a4455adb-510f-4ac9-bbfa-5b5d87727cc5","system_id":"levelo_inurba_marseille","lat":43.292569,"lon":5.409107,"is_reserved":false,"is_disabled":false,"rental_uris":{"android":"levelo://app?vid=a4455adb-510f-4ac9-bbfa-5b5d87727cc5","ios":"levelo://app?vid=a4455adb-510f-4ac9-bbfa-5b5d87727cc5"},"vehicle_type_id":"4","last_reported":1702303645,"current_range_meters":27600,"station_id":"ce4bh192rcd13ifvqdc0","pricing_plan_id":"free"},{"bike_id":"72b8d5a3-c3a2-4e0d-8350-7e3f88a3ec2c","system_id":"levelo_inurba_marseille","lat":43.280784,"lon":5.396622,"is_reserved":false,"is_disabled":false,"rental_uris":{"android":"levelo://app?vid=72b8d5a3-c3a2-4e0d-8350-7e3f88a3ec2c","ios":"levelo://app?vid=72b8d5a3-c3a2-4e0d-8350-7e3f88a3ec2c"},"vehicle_type_id":"4","last_reported":1702303645,"current_range_meters":24400,"station_id":"ce4bho12rcd13ifvqh2g","pricing_plan_id":"free"},{"bike_id":"72192f0d-c2fa-4b4a-bc29-6517b5810c0a","system_id":"levelo_inurba_marseille","lat":43.280784,"lon":5.396622,"is_reserved":false,"is_disabled":false,"rental_uris":{"android":"levelo://app?vid=72192f0d-c2fa-4b4a-bc29-6517b5810c0a","ios":"levelo://app?vid=72192f0d-c2fa-4b4a-bc29-6517b5810c0a"},"vehicle_type_id":"4","last_reported":1702303645,"current_range_meters":27600,"station_id":"ce4bho12rcd13ifvqh2g","pricing_plan_id":"free"},{"bike_id":"2ff1f8ff-3a30-4b6b-89db-736010c07d56","system_id":"levelo_inurba_marseille","lat":43.303837,"lon":5.418724,"is_reserved":false,"is_disabled":false,"rental_uris":{"android":"levelo://app?vid=2ff1f8ff-3a30-4b6b-89db-736010c07d56","ios":"levelo://app?vid=2ff1f8ff-3a30-4b6b-89db-736010c07d56"},"vehicle_type_id":"4","last_reported":1702303645,"current_range_meters":31200,"station_id":"ce4bhop2rcd13ifvqh7g","pricing_plan_id":"free"},{"bike_id":"58e571b6-3c46-40b7-85b3-bd5d403e4c13","system_id":"levelo_inurba_marseille","lat":43.27557,"lon":5.38445,"is_reserved":false,"is_disabled":false,"rental_uris":{"android":"levelo://app?vid=58e571b6-3c46-40b7-85b3-bd5d403e4c13","ios":"levelo://app?vid=58e571b6-3c46-40b7-85b3-bd5d403e4c13"},"vehicle_type_id":"4","last_reported":1702303645,"current_range_meters":16000,"station_id":"ce4bhh92rcd13ifvqfi0","pricing_plan_id":"free"},{"bike_id":"48926699-6100-4106-b6df-5fabfeffc3c8","system_id":"levelo_inurba_marseille","lat":43.279952,"lon":5.400085,"is_reserved":false,"is_disabled":false,"rental_uris":{"android":"levelo://app?vid=48926699-6100-4106-b6df-5fabfeffc3c8","ios":"levelo://app?vid=48926699-6100-4106-b6df-5fabfeffc3c8"},"vehicle_type_id":"4","last_reported":1702303645,"current_range_meters":9200,"station_id":"ce4bho92rcd13ifvqh4g","pricing_plan_id":"free"},{"bike_id":"8865b7ea-93c1-4706-bbde-adc473318bdf","system_id":"levelo_inurba_marseille","lat":43.279952,"lon":5.400085,"is_reserved":false,"is_disabled":false,"rental_uris":{"android":"levelo://app?vid=8865b7ea-93c1-4706-bbde-adc473318bdf","ios":"levelo://app?vid=8865b7ea-93c1-4706-bbde-adc473318bdf"},"vehicle_type_id":"4","last_reported":1702303645,"current_range_meters":20000,"station_id":"ce4bho92rcd13ifvqh4g","pricing_plan_id":"free"},{"bike_id":"105072d3-81bc-41cb-b6c7-cd50bb20cc23","system_id":"levelo_inurba_marseille","lat":43.31723,"lon":5.42405,"is_reserved":false,"is_disabled":false,"rental_uris":{"android":"levelo://app?vid=105072d3-81bc-41cb-b6c7-cd50bb20cc23","ios":"levelo://app?vid=105072d3-81bc-41cb-b6c7-cd50bb20cc23"},"vehicle_type_id":"4","last_reported":1702303645,"current_range_meters":9200,"station_id":"ce4bhp92rcd13ifvqhbg","pricing_plan_id":"free"},{"bike_id":"b67dc672-aa13-4bf4-88e3-9fa9fe5c92fb","system_id":"levelo_inurba_marseille","lat":43.30412,"lon":5.42538,"is_reserved":false,"is_disabled":false,"rental_uris":{"android":"levelo://app?vid=b67dc672-aa13-4bf4-88e3-9fa9fe5c92fb","ios":"levelo://app?vid=b67dc672-aa13-4bf4-88e3-9fa9fe5c92fb"},"vehicle_type_id":"4","last_reported":1702303645,"current_range_meters":26800,"station_id":"ce4bhoh2rcd13ifvqh6g","pricing_plan_id":"free"},{"bike_id":"f3aea154-1934-4a2a-88f5-b4241eb6bcce","system_id":"levelo_inurba_marseille","lat":43.295511,"lon":5.422926,"is_reserved":false,"is_disabled":false,"rental_uris":{"android":"levelo://app?vid=f3aea154-1934-4a2a-88f5-b4241eb6bcce","ios":"levelo://app?vid=f3aea154-1934-4a2a-88f5-b4241eb6bcce"},"vehicle_type_id":"4","last_reported":1702303645,"current_range_meters":25200,"station_id":"ce4bhph2rcd13ifvqhdg","pricing_plan_id":"free"},{"bike_id":"114ed9a0-f405-4e5a-8abc-a36515ad57b3","system_id":"levelo_inurba_marseille","lat":43.27214,"lon":5.39234,"is_reserved":false,"is_disabled":false,"rental_uris":{"android":"levelo://app?vid=114ed9a0-f405-4e5a-8abc-a36515ad57b3","ios":"levelo://app?vid=114ed9a0-f405-4e5a-8abc-a36515ad57b3"},"vehicle_type_id":"4","last_reported":1702303645,"current_range_meters":24000,"station_id":"ce4bhhp2rcd13ifvqfm0","pricing_plan_id":"free"},{"bike_id":"23cd7f74-9a38-420c-8db3-16af8044e786","system_id":"levelo_inurba_marseille","lat":43.269467,"lon":5.386439,"is_reserved":false,"is_disabled":false,"rental_uris":{"android":"levelo://app?vid=23cd7f74-9a38-420c-8db3-16af8044e786","ios":"levelo://app?vid=23cd7f74-9a38-420c-8db3-16af8044e786"},"vehicle_type_id":"4","last_reported":1702303645,"current_range_meters":10800,"station_id":"ce4bhh92rcd13ifvqfh0","pricing_plan_id":"free"},{"bike_id":"16a551f1-5eac-4fe1-ac9e-f46cd64a02b2","system_id":"levelo_inurba_marseille","lat":43.279261,"lon":5.410849,"is_reserved":false,"is_disabled":false,"rental_uris":{"android":"levelo://app?vid=16a551f1-5eac-4fe1-ac9e-f46cd64a02b2","ios":"levelo://app?vid=16a551f1-5eac-4fe1-ac9e-f46cd64a02b2"},"vehicle_type_id":"4","last_reported":1702303645,"current_range_meters":22400,"station_id":"","pricing_plan_id":"free"},{"bike_id":"653b849c-8e9e-4dd7-a25d-0438250ceacc","system_id":"levelo_inurba_marseille","lat":43.265714,"lon":5.372891,"is_reserved":false,"is_disabled":false,"rental_uris":{"android":"levelo://app?vid=653b849c-8e9e-4dd7-a25d-0438250ceacc","ios":"levelo://app?vid=653b849c-8e9e-4dd7-a25d-0438250ceacc"},"vehicle_type_id":"4","last_reported":1702303645,"current_range_meters":8000,"station_id":"ce4bhg12rcd13ifvqf70","pricing_plan_id":"free"},{"bike_id":"080052aa-adae-4e68-9795-aab3bbf99ab2","system_id":"levelo_inurba_marseille","lat":43.2633,"lon":5.37675,"is_reserved":false,"is_disabled":false,"rental_uris":{"android":"levelo://app?vid=080052aa-adae-4e68-9795-aab3bbf99ab2","ios":"levelo://app?vid=080052aa-adae-4e68-9795-aab3bbf99ab2"},"vehicle_type_id":"4","last_reported":1702303645,"current_range_meters":14400,"station_id":"","pricing_plan_id":"free"},{"bike_id":"49804a09-17dd-4f44-b031-76de4b9fd608","system_id":"levelo_inurba_marseille","lat":43.26556,"lon":5.39021,"is_reserved":false,"is_disabled":false,"rental_uris":{"android":"levelo://app?vid=49804a09-17dd-4f44-b031-76de4b9fd608","ios":"levelo://app?vid=49804a09-17dd-4f44-b031-76de4b9fd608"},"vehicle_type_id":"4","last_reported":1702303645,"current_range_meters":17600,"station_id":"ce4bhe12rcd13ifvqf30","pricing_plan_id":"free"},{"bike_id":"0aac4262-5b21-46cd-b1d7-a47292f0be88","system_id":"levelo_inurba_marseille","lat":43.2694,"lon":5.40248,"is_reserved":false,"is_disabled":false,"rental_uris":{"android":"levelo://app?vid=0aac4262-5b21-46cd-b1d7-a47292f0be88","ios":"levelo://app?vid=0aac4262-5b21-46cd-b1d7-a47292f0be88"},"vehicle_type_id":"4","last_reported":1702303645,"current_range_meters":8000,"station_id":"cjm6bp8fraef2m0cb0m0","pricing_plan_id":"free"},{"bike_id":"7574056f-2d11-4fab-901d-a72ba7d9ee86","system_id":"levelo_inurba_marseille","lat":43.26202,"lon":5.379299,"is_reserved":false,"is_disabled":false,"rental_uris":{"android":"levelo://app?vid=7574056f-2d11-4fab-901d-a72ba7d9ee86","ios":"levelo://app?vid=7574056f-2d11-4fab-901d-a72ba7d9ee86"},"vehicle_type_id":"4","last_reported":1702303645,"current_range_meters":27200,"station_id":"ce4bhjp2rcd13ifvqg90","pricing_plan_id":"free"},{"bike_id":"4e6e4a4d-e00f-4453-991c-edd03f91627b","system_id":"levelo_inurba_marseille","lat":43.27707,"lon":5.41983,"is_reserved":false,"is_disabled":false,"rental_uris":{"android":"levelo://app?vid=4e6e4a4d-e00f-4453-991c-edd03f91627b","ios":"levelo://app?vid=4e6e4a4d-e00f-4453-991c-edd03f91627b"},"vehicle_type_id":"4","last_reported":1702303645,"current_range_meters":0,"station_id":"","pricing_plan_id":"free"},{"bike_id":"7ef0e874-4d14-4db6-97d3-23537a85b219","system_id":"levelo_inurba_marseille","lat":43.298768,"lon":5.43643,"is_reserved":false,"is_disabled":false,"rental_uris":{"android":"levelo://app?vid=7ef0e874-4d14-4db6-97d3-23537a85b219","ios":"levelo://app?vid=7ef0e874-4d14-4db6-97d3-23537a85b219"},"vehicle_type_id":"4","last_reported":1702303645,"current_range_meters":27600,"station_id":"ce4bhpp2rcd13ifvqhfg","pricing_plan_id":"free"},{"bike_id":"77910899-6cbb-4a70-97da-159a80f66392","system_id":"levelo_inurba_marseille","lat":43.281548,"lon":5.42643,"is_reserved":false,"is_disabled":false,"rental_uris":{"android":"levelo://app?vid=77910899-6cbb-4a70-97da-159a80f66392","ios":"levelo://app?vid=77910899-6cbb-4a70-97da-159a80f66392"},"vehicle_type_id":"4","last_reported":1702303645,"current_range_meters":24000,"station_id":"ce4bhnh2rcd13ifvqgug","pricing_plan_id":"free"},{"bike_id":"54f0941a-aa60-4b1e-83e6-b334a0099f9c","system_id":"levelo_inurba_marseille","lat":43.281548,"lon":5.42643,"is_reserved":false,"is_disabled":false,"rental_uris":{"android":"levelo://app?vid=54f0941a-aa60-4b1e-83e6-b334a0099f9c","ios":"levelo://app?vid=54f0941a-aa60-4b1e-83e6-b334a0099f9c"},"vehicle_type_id":"4","last_reported":1702303645,"current_range_meters":16800,"station_id":"ce4bhnh2rcd13ifvqgug","pricing_plan_id":"free"},{"bike_id":"2fa8e3b6-926b-4686-9f4e-e6187cfd85c5","system_id":"levelo_inurba_marseille","lat":43.26065,"lon":5.39396,"is_reserved":false,"is_disabled":false,"rental_uris":{"android":"levelo://app?vid=2fa8e3b6-926b-4686-9f4e-e6187cfd85c5","ios":"levelo://app?vid=2fa8e3b6-926b-4686-9f4e-e6187cfd85c5"},"vehicle_type_id":"4","last_reported":1702303645,"current_range_meters":31200,"station_id":"ce4bhh92rcd13ifvqfj0","pricing_plan_id":"free"},{"bike_id":"ef06c3a7-9972-45d6-89e9-06696ed5c77b","system_id":"levelo_inurba_marseille","lat":43.25579,"lon":5.38225,"is_reserved":false,"is_disabled":false,"rental_uris":{"android":"levelo://app?vid=ef06c3a7-9972-45d6-89e9-06696ed5c77b","ios":"levelo://app?vid=ef06c3a7-9972-45d6-89e9-06696ed5c77b"},"vehicle_type_id":"4","last_reported":1702303645,"current_range_meters":21200,"station_id":"ce4bhih2rcd13ifvqfs0","pricing_plan_id":"free"},{"bike_id":"2f2d4f9a-b0e3-4832-ad34-acba5721dcb8","system_id":"levelo_inurba_marseille","lat":43.25572,"lon":5.38234,"is_reserved":false,"is_disabled":false,"rental_uris":{"android":"levelo://app?vid=2f2d4f9a-b0e3-4832-ad34-acba5721dcb8","ios":"levelo://app?vid=2f2d4f9a-b0e3-4832-ad34-acba5721dcb8"},"vehicle_type_id":"4","last_reported":1702303645,"current_range_meters":15600,"station_id":"ce4bhih2rcd13ifvqfs0","pricing_plan_id":"free"},{"bike_id":"008691f6-234a-4534-ae3a-200143d2c64c","system_id":"levelo_inurba_marseille","lat":43.254947,"lon":5.376454,"is_reserved":false,"is_disabled":false,"rental_uris":{"android":"levelo://app?vid=008691f6-234a-4534-ae3a-200143d2c64c","ios":"levelo://app?vid=008691f6-234a-4534-ae3a-200143d2c64c"},"vehicle_type_id":"4","last_reported":1702303645,"current_range_meters":29200,"station_id":"ce4bhh12rcd13ifvqff0","pricing_plan_id":"free"},{"bike_id":"73ad69f4-f461-4c87-a0c5-9732666b81e8","system_id":"levelo_inurba_marseille","lat":43.258658,"lon":5.398935,"is_reserved":false,"is_disabled":false,"rental_uris":{"android":"levelo://app?vid=73ad69f4-f461-4c87-a0c5-9732666b81e8","ios":"levelo://app?vid=73ad69f4-f461-4c87-a0c5-9732666b81e8"},"vehicle_type_id":"4","last_reported":1702303645,"current_range_meters":21600,"station_id":"ce4bhl92rcd13ifvqghg","pricing_plan_id":"free"},{"bike_id":"540f145f-bf7b-410c-aacd-6ac24706c988","system_id":"levelo_inurba_marseille","lat":43.25857,"lon":5.39905,"is_reserved":false,"is_disabled":false,"rental_uris":{"android":"levelo://app?vid=540f145f-bf7b-410c-aacd-6ac24706c988","ios":"levelo://app?vid=540f145f-bf7b-410c-aacd-6ac24706c988"},"vehicle_type_id":"4","last_reported":1702303645,"current_range_meters":16000,"station_id":"ce4bhl92rcd13ifvqghg","pricing_plan_id":"free"},{"bike_id":"a88d8b97-d140-46db-ba7a-bd1ec8b99c40","system_id":"levelo_inurba_marseille","lat":43.25929,"lon":5.40919,"is_reserved":false,"is_disabled":false,"rental_uris":{"android":"levelo://app?vid=a88d8b97-d140-46db-ba7a-bd1ec8b99c40","ios":"levelo://app?vid=a88d8b97-d140-46db-ba7a-bd1ec8b99c40"},"vehicle_type_id":"4","last_reported":1702303645,"current_range_meters":3600,"station_id":"ce4bhm92rcd13ifvqglg","pricing_plan_id":"free"},{"bike_id":"1e16bb89-f091-4216-80e9-32454258b8d2","system_id":"levelo_inurba_marseille","lat":43.25001,"lon":5.38933,"is_reserved":false,"is_disabled":false,"rental_uris":{"android":"levelo://app?vid=1e16bb89-f091-4216-80e9-32454258b8d2","ios":"levelo://app?vid=1e16bb89-f091-4216-80e9-32454258b8d2"},"vehicle_type_id":"4","last_reported":1702303645,"current_range_meters":29600,"station_id":"","pricing_plan_id":"free"},{"bike_id":"e891f90d-084e-4e78-8015-102e100c6706","system_id":"levelo_inurba_marseille","lat":43.2479,"lon":5.374457,"is_reserved":false,"is_disabled":false,"rental_uris":{"android":"levelo://app?vid=e891f90d-084e-4e78-8015-102e100c6706","ios":"levelo://app?vid=e891f90d-084e-4e78-8015-102e100c6706"},"vehicle_type_id":"4","last_reported":1702303645,"current_range_meters":1200,"station_id":"ce4bhgh2rcd13ifvqfb0","pricing_plan_id":"free"},{"bike_id":"4216516d-61e5-4939-a4cf-be4ff1a55af5","system_id":"levelo_inurba_marseille","lat":43.250966,"lon":5.395186,"is_reserved":false,"is_disabled":false,"rental_uris":{"android":"levelo://app?vid=4216516d-61e5-4939-a4cf-be4ff1a55af5","ios":"levelo://app?vid=4216516d-61e5-4939-a4cf-be4ff1a55af5"},"vehicle_type_id":"4","last_reported":1702303645,"current_range_meters":14000,"station_id":"ce4bhm12rcd13ifvqgkg","pricing_plan_id":"free"},{"bike_id":"5da67f74-ddd1-42f6-a58e-4a232e501cbe","system_id":"levelo_inurba_marseille","lat":43.25102,"lon":5.403214,"is_reserved":false,"is_disabled":false,"rental_uris":{"android":"levelo://app?vid=5da67f74-ddd1-42f6-a58e-4a232e501cbe","ios":"levelo://app?vid=5da67f74-ddd1-42f6-a58e-4a232e501cbe"},"vehicle_type_id":"4","last_reported":1702303645,"current_range_meters":31200,"station_id":"ce4bhlh2rcd13ifvqgig","pricing_plan_id":"free"},{"bike_id":"067f6e82-ba06-42ee-8006-b9c18eb4918c","system_id":"levelo_inurba_marseille","lat":43.240623,"lon":5.377642,"is_reserved":false,"is_disabled":false,"rental_uris":{"android":"levelo://app?vid=067f6e82-ba06-42ee-8006-b9c18eb4918c","ios":"levelo://app?vid=067f6e82-ba06-42ee-8006-b9c18eb4918c"},"vehicle_type_id":"4","last_reported":1702303645,"current_range_meters":24000,"station_id":"ce4bhnp2rcd13ifvqgvg","pricing_plan_id":"free"},{"bike_id":"5c95425b-07d4-4ead-bb24-25a8966762b8","system_id":"levelo_inurba_marseille","lat":43.24074,"lon":5.3776,"is_reserved":false,"is_disabled":false,"rental_uris":{"android":"levelo://app?vid=5c95425b-07d4-4ead-bb24-25a8966762b8","ios":"levelo://app?vid=5c95425b-07d4-4ead-bb24-25a8966762b8"},"vehicle_type_id":"4","last_reported":1702303645,"current_range_meters":0,"station_id":"ce4bhnp2rcd13ifvqgvg","pricing_plan_id":"free"},{"bike_id":"aa52692c-5018-4782-8ecf-b67c5ef980bd","system_id":"levelo_inurba_marseille","lat":43.24074,"lon":5.37761,"is_reserved":false,"is_disabled":false,"rental_uris":{"android":"levelo://app?vid=aa52692c-5018-4782-8ecf-b67c5ef980bd","ios":"levelo://app?vid=aa52692c-5018-4782-8ecf-b67c5ef980bd"},"vehicle_type_id":"4","last_reported":1702303645,"current_range_meters":8400,"station_id":"ce4bhnp2rcd13ifvqgvg","pricing_plan_id":"free"},{"bike_id":"5a3733a4-a9d0-4a4d-b0f1-9f1b0004531b","system_id":"levelo_inurba_marseille","lat":43.24074,"lon":5.37764,"is_reserved":false,"is_disabled":false,"rental_uris":{"android":"levelo://app?vid=5a3733a4-a9d0-4a4d-b0f1-9f1b0004531b","ios":"levelo://app?vid=5a3733a4-a9d0-4a4d-b0f1-9f1b0004531b"},"vehicle_type_id":"4","last_reported":1702303645,"current_range_meters":19200,"station_id":"ce4bhnp2rcd13ifvqgvg","pricing_plan_id":"free"},{"bike_id":"5c64bda4-2f3c-4ce5-b772-b0b84a0e907a","system_id":"levelo_inurba_marseille","lat":43.240718,"lon":5.377618,"is_reserved":false,"is_disabled":false,"rental_uris":{"android":"levelo://app?vid=5c64bda4-2f3c-4ce5-b772-b0b84a0e907a","ios":"levelo://app?vid=5c64bda4-2f3c-4ce5-b772-b0b84a0e907a"},"vehicle_type_id":"4","last_reported":1702303645,"current_range_meters":2400,"station_id":"ce4bhnp2rcd13ifvqgvg","pricing_plan_id":"free"},{"bike_id":"99273208-c595-4fe4-a762-35d82c664411","system_id":"levelo_inurba_marseille","lat":43.24072,"lon":5.37765,"is_reserved":false,"is_disabled":false,"rental_uris":{"android":"levelo://app?vid=99273208-c595-4fe4-a762-35d82c664411","ios":"levelo://app?vid=99273208-c595-4fe4-a762-35d82c664411"},"vehicle_type_id":"4","last_reported":1702303645,"current_range_meters":4400,"station_id":"ce4bhnp2rcd13ifvqgvg","pricing_plan_id":"free"},{"bike_id":"a485507c-187d-45be-899e-45b6fd8419e5","system_id":"levelo_inurba_marseille","lat":43.240717,"lon":5.377613,"is_reserved":false,"is_disabled":false,"rental_uris":{"android":"levelo://app?vid=a485507c-187d-45be-899e-45b6fd8419e5","ios":"levelo://app?vid=a485507c-187d-45be-899e-45b6fd8419e5"},"vehicle_type_id":"4","last_reported":1702303645,"current_range_meters":2800,"station_id":"ce4bhnp2rcd13ifvqgvg","pricing_plan_id":"free"},{"bike_id":"019fd4e5-ec65-4613-9a18-b33e4431c62a","system_id":"levelo_inurba_marseille","lat":43.24071,"lon":5.37762,"is_reserved":false,"is_disabled":false,"rental_uris":{"android":"levelo://app?vid=019fd4e5-ec65-4613-9a18-b33e4431c62a","ios":"levelo://app?vid=019fd4e5-ec65-4613-9a18-b33e4431c62a"},"vehicle_type_id":"4","last_reported":1702303645,"current_range_meters":22800,"station_id":"ce4bhnp2rcd13ifvqgvg","pricing_plan_id":"free"},{"bike_id":"b18afd2b-3138-433e-aaad-3a04b6202ed3","system_id":"levelo_inurba_marseille","lat":43.240623,"lon":5.377642,"is_reserved":false,"is_disabled":false,"rental_uris":{"android":"levelo://app?vid=b18afd2b-3138-433e-aaad-3a04b6202ed3","ios":"levelo://app?vid=b18afd2b-3138-433e-aaad-3a04b6202ed3"},"vehicle_type_id":"4","last_reported":1702303645,"current_range_meters":13200,"station_id":"ce4bhnp2rcd13ifvqgvg","pricing_plan_id":"free"},{"bike_id":"648e2025-1a93-48bf-9a6e-d403f021559e","system_id":"levelo_inurba_marseille","lat":43.240623,"lon":5.377642,"is_reserved":false,"is_disabled":false,"rental_uris":{"android":"levelo://app?vid=648e2025-1a93-48bf-9a6e-d403f021559e","ios":"levelo://app?vid=648e2025-1a93-48bf-9a6e-d403f021559e"},"vehicle_type_id":"4","last_reported":1702303645,"current_range_meters":14800,"station_id":"ce4bhnp2rcd13ifvqgvg","pricing_plan_id":"free"},{"bike_id":"ce0785ad-f508-4755-9f5c-fc556839680c","system_id":"levelo_inurba_marseille","lat":43.240623,"lon":5.377642,"is_reserved":false,"is_disabled":false,"rental_uris":{"android":"levelo://app?vid=ce0785ad-f508-4755-9f5c-fc556839680c","ios":"levelo://app?vid=ce0785ad-f508-4755-9f5c-fc556839680c"},"vehicle_type_id":"4","last_reported":1702303645,"current_range_meters":5200,"station_id":"ce4bhnp2rcd13ifvqgvg","pricing_plan_id":"free"},{"bike_id":"60ac4097-cfda-447c-bb21-f6a393399885","system_id":"levelo_inurba_marseille","lat":43.240623,"lon":5.377642,"is_reserved":false,"is_disabled":false,"rental_uris":{"android":"levelo://app?vid=60ac4097-cfda-447c-bb21-f6a393399885","ios":"levelo://app?vid=60ac4097-cfda-447c-bb21-f6a393399885"},"vehicle_type_id":"4","last_reported":1702303645,"current_range_meters":18400,"station_id":"ce4bhnp2rcd13ifvqgvg","pricing_plan_id":"free"},{"bike_id":"edfcf3c5-f434-43cd-aae1-1f61c3cc0063","system_id":"levelo_inurba_marseille","lat":43.240623,"lon":5.377642,"is_reserved":false,"is_disabled":false,"rental_uris":{"android":"levelo://app?vid=edfcf3c5-f434-43cd-aae1-1f61c3cc0063","ios":"levelo://app?vid=edfcf3c5-f434-43cd-aae1-1f61c3cc0063"},"vehicle_type_id":"4","last_reported":1702303645,"current_range_meters":26800,"station_id":"ce4bhnp2rcd13ifvqgvg","pricing_plan_id":"free"},{"bike_id":"417d1640-4150-4b94-a5af-d0700959f9c6","system_id":"levelo_inurba_marseille","lat":43.240623,"lon":5.377642,"is_reserved":false,"is_disabled":false,"rental_uris":{"android":"levelo://app?vid=417d1640-4150-4b94-a5af-d0700959f9c6","ios":"levelo://app?vid=417d1640-4150-4b94-a5af-d0700959f9c6"},"vehicle_type_id":"4","last_reported":1702303645,"current_range_meters":4400,"station_id":"ce4bhnp2rcd13ifvqgvg","pricing_plan_id":"free"},{"bike_id":"e210c540-90af-44a9-8c70-0e80444adcf5","system_id":"levelo_inurba_marseille","lat":43.240623,"lon":5.377642,"is_reserved":false,"is_disabled":false,"rental_uris":{"android":"levelo://app?vid=e210c540-90af-44a9-8c70-0e80444adcf5","ios":"levelo://app?vid=e210c540-90af-44a9-8c70-0e80444adcf5"},"vehicle_type_id":"4","last_reported":1702303645,"current_range_meters":23200,"station_id":"ce4bhnp2rcd13ifvqgvg","pricing_plan_id":"free"},{"bike_id":"f5f42c51-96cb-4034-9320-8073444b403e","system_id":"levelo_inurba_marseille","lat":43.241782,"lon":5.397261,"is_reserved":false,"is_disabled":false,"rental_uris":{"android":"levelo://app?vid=f5f42c51-96cb-4034-9320-8073444b403e","ios":"levelo://app?vid=f5f42c51-96cb-4034-9320-8073444b403e"},"vehicle_type_id":"4","last_reported":1702303645,"current_range_meters":18400,"station_id":"ce4bhn12rcd13ifvqgpg","pricing_plan_id":"free"},{"bike_id":"553b6439-64c9-44a9-9c4e-f86dff9fc7b8","system_id":"levelo_inurba_marseille","lat":43.231562,"lon":5.436933,"is_reserved":false,"is_disabled":false,"rental_uris":{"android":"levelo://app?vid=553b6439-64c9-44a9-9c4e-f86dff9fc7b8","ios":"levelo://app?vid=553b6439-64c9-44a9-9c4e-f86dff9fc7b8"},"vehicle_type_id":"4","last_reported":1702303645,"current_range_meters":0,"station_id":"ce4bhmp2rcd13ifvqgog","pricing_plan_id":"free"},{"bike_id":"c74514c5-18b7-4c9f-b404-156452b67732","system_id":"levelo_inurba_marseille","lat":43.231562,"lon":5.436933,"is_reserved":false,"is_disabled":false,"rental_uris":{"android":"levelo://app?vid=c74514c5-18b7-4c9f-b404-156452b67732","ios":"levelo://app?vid=c74514c5-18b7-4c9f-b404-156452b67732"},"vehicle_type_id":"4","last_reported":1702303645,"current_range_meters":7600,"station_id":"ce4bhmp2rcd13ifvqgog","pricing_plan_id":"free"},{"bike_id":"46945b8b-94f4-4464-ada8-e9e79045d3db","system_id":"levelo_inurba_marseille","lat":43.231562,"lon":5.436933,"is_reserved":false,"is_disabled":false,"rental_uris":{"android":"levelo://app?vid=46945b8b-94f4-4464-ada8-e9e79045d3db","ios":"levelo://app?vid=46945b8b-94f4-4464-ada8-e9e79045d3db"},"vehicle_type_id":"4","last_reported":1702303645,"current_range_meters":7600,"station_id":"ce4bhmp2rcd13ifvqgog","pricing_plan_id":"free"}]}}