{"last_updated":1704294425,"ttl":30,"version":"2.2","data":{"bikes":[{"bike_id":"27af156a-f757-451e-a296-6236234e0b6e","system_id":"levelo_inurba_marseille","lat":43.313391,"lon":5.36706,"is_reserved":false,"is_disabled":false,"rental_uris":{"android":"levelo://app?vid=27af156a-f757-451e-a296-6236234e0b6e","ios":"levelo://app?vid=27af156a-f757-451e-a296-6236234e0b6e"},"vehicle_type_id":"4","last_reported":1704294425,"current_range_meters":19600,"station_id":"ce4bgr92rcd13ifvqc6g","pricing_plan_id":"free"},{"bike_id":"e09cfdb5-3e35-468a-bec5-6bde8cc69e8d","system_id":"levelo_inurba_marseille","lat":43.3135,"lon":5.36711,"is_reserved":false,"is_disabled":false,"rental_uris":{"android":"levelo://app?vid=e09cfdb5-3e35-468a-bec5-6bde8cc69e8d","ios":"levelo://app?vid=e09cfdb5-3e35-468a-bec5-6bde8cc69e8d"},"vehicle_type_id":"4","last_reported":1704294425,"current_range_meters":23600,"station_id":"ce4bgr92rcd13ifvqc6g","pricing_plan_id":"free"},{"bike_id":"eb344fe8-f2f5-4a86-a77b-928fa752eb93","system_id":"levelo_inurba_marseille","lat":43.313549,"lon":5.367026,"is_reserved":false,"is_disabled":false,"rental_uris":{"android":"levelo://app?vid=eb344fe8-f2f5-4a86-a77b-928fa752eb93","ios":"levelo://app?vid=eb344fe8-f2f5-4a86-a77b-928fa752eb93"},"vehicle_type_id":"4","last_reported":1704294425,"current_range_meters":20400,"station_id":"ce4bgr92rcd13ifvqc6g","pricing_plan_id":"free"},{"bike_id":"3a5a8258-3bb9-47e5-9a89-458e232ebb9d","system_id":"levelo_inurba_marseille","lat":43.313551,"lon":5.367055,"is_reserved":false,"is_disabled":false,"rental_uris":{"android":"levelo://app?vid=3a5a8258-3bb9-47e5-9a89-458e232ebb9d","ios":"levelo://app?vid=3a5a8258-3bb9-47e5-9a89-458e232ebb9d"},"vehicle_type_id":"4","last_reported":1704294425,"current_range_meters":28800,"station_id":"ce4bgr92rcd13ifvqc6g","pricing_plan_id":"free"},{"bike_id":"86f98240-67de-444a-af38-b1a40edfc803","system_id":"levelo_inurba_marseille","lat":43.313391,"lon":5.36706,"is_reserved":false,"is_disabled":false,"rental_uris":{"android":"levelo://app?vid=86f98240-67de-444a-af38-b1a40edfc803","ios":"levelo://app?vid=86f98240-67de-444a-af38-b1a40edfc803"},"vehicle_type_id":"4","last_reported":1704294425,"current_range_meters":30000,"station_id":"ce4bgr92rcd13ifvqc6g","pricing_plan_id":"free"},{"bike_id":"8337351c-d687-461c-9249-f0b210ad98b7","system_id":"levelo_inurba_marseille","lat":43.313555,"lon":5.367019,"is_reserved":false,"is_disabled":false,"rental_uris":{"android":"levelo://app?vid=8337351c-d687-461c-9249-f0b210ad98b7","ios":"levelo://app?vid=8337351c-d687-461c-9249-f0b210ad98b7"},"vehicle_type_id":"4","last_reported":1704294425,"current_range_meters":18000,"station_id":"ce4bgr92rcd13ifvqc6g","pricing_plan_id":"free"},{"bike_id":"3e1399ad-6ed8-4af3-b91a-d0dbe1fde2f5","system_id":"levelo_inurba_marseille","lat":43.31355,"lon":5.36711,"is_reserved":false,"is_disabled":false,"rental_uris":{"android":"levelo://app?vid=3e1399ad-6ed8-4af3-b91a-d0dbe1fde2f5","ios":"levelo://app?vid=3e1399ad-6ed8-4af3-b91a-d0dbe1fde2f5"},"vehicle_type_id":"4","last_reported":1704294425,"current_range_meters":21200,"station_id":"ce4bgr92rcd13ifvqc6g","pricing_plan_id":"free"},{"bike_id":"cf933c82-c75f-4e79-81d0-dad897cdbfff","system_id":"levelo_inurba_marseille","lat":43.31356,"lon":5.36707,"is_reserved":false,"is_disabled":false,"rental_uris":{"android":"levelo://app?vid=cf933c82-c75f-4e79-81d0-dad897cdbfff","ios":"levelo://app?vid=cf933c82-c75f-4e79-81d0-dad897cdbfff"},"vehicle_type_id":"4","last_reported":1704294425,"current_range_meters":9200,"station_id":"ce4bgr92rcd13ifvqc6g","pricing_plan_id":"free"},{"bike_id":"f18ec2d8-ec1b-4594-b34f-6542432ff6ef","system_id":"levelo_inurba_marseille","lat":43.31341,"lon":5.367098,"is_reserved":false,"is_disabled":false,"rental_uris":{"android":"levelo://app?vid=f18ec2d8-ec1b-4594-b34f-6542432ff6ef","ios":"levelo://app?vid=f18ec2d8-ec1b-4594-b34f-6542432ff6ef"},"vehicle_type_id":"4","last_reported":1704294425,"current_range_meters":15600,"station_id":"ce4bgr92rcd13ifvqc6g","pricing_plan_id":"free"},{"bike_id":"dcc3ac8a-ee50-41ac-946b-5fe1563f2f4a","system_id":"levelo_inurba_marseille","lat":43.313597,"lon":5.366963,"is_reserved":false,"is_disabled":false,"rental_uris":{"android":"levelo://app?vid=dcc3ac8a-ee50-41ac-946b-5fe1563f2f4a","ios":"levelo://app?vid=dcc3ac8a-ee50-41ac-946b-5fe1563f2f4a"},"vehicle_type_id":"4","last_reported":1704294425,"current_range_meters":21200,"station_id":"ce4bgr92rcd13ifvqc6g","pricing_plan_id":"free"},{"bike_id":"8943d2ea-4f69-42f6-8425-64e1da865862","system_id":"levelo_inurba_marseille","lat":43.309076,"lon":5.368465,"is_reserved":false,"is_disabled":false,"rental_uris":{"android":"levelo://app?vid=8943d2ea-4f69-42f6-8425-64e1da865862","ios":"levelo://app?vid=8943d2ea-4f69-42f6-8425-64e1da865862"},"vehicle_type_id":"4","last_reported":1704294425,"current_range_meters":16400,"station_id":"ce4bgn92rcd13ifvqbvg","pricing_plan_id":"free"},{"bike_id":"c82b6647-9022-4836-9c91-8c20b859fc4c","system_id":"levelo_inurba_marseille","lat":43.309076,"lon":5.368465,"is_reserved":false,"is_disabled":false,"rental_uris":{"android":"levelo://app?vid=c82b6647-9022-4836-9c91-8c20b859fc4c","ios":"levelo://app?vid=c82b6647-9022-4836-9c91-8c20b859fc4c"},"vehicle_type_id":"4","last_reported":1704294425,"current_range_meters":31200,"station_id":"ce4bgn92rcd13ifvqbvg","pricing_plan_id":"free"},{"bike_id":"7f3c9769-b17e-45a5-bef1-cff146855625","system_id":"levelo_inurba_marseille","lat":43.309076,"lon":5.368465,"is_reserved":false,"is_disabled":false,"rental_uris":{"android":"levelo://app?vid=7f3c9769-b17e-45a5-bef1-cff146855625","ios":"levelo://app?vid=7f3c9769-b17e-45a5-bef1-cff146855625"},"vehicle_type_id":"4","last_reported":1704294425,"current_range_meters":30800,"station_id":"ce4bgn92rcd13ifvqbvg","pricing_plan_id":"free"},{"bike_id":"cea81269-7f63-4da2-be1b-9e1bc69eb960","system_id":"levelo_inurba_marseille","lat":43.309076,"lon":5.368465,"is_reserved":false,"is_disabled":false,"rental_uris":{"android":"levelo://app?vid=cea81269-7f63-4da2-be1b-9e1bc69eb960","ios":"levelo://app?vid=cea81269-7f63-4da2-be1b-9e1bc69eb960"},"vehicle_type_id":"4","last_reported":1704294425,"current_range_meters":31200,"station_id":"ce4bgn92rcd13ifvqbvg","pricing_plan_id":"free"},{"bike_id":"4fbbe6ef-578c-43b8-ae05-6f1edf72f3f5","system_id":"levelo_inurba_marseille","lat":43.309076,"lon":5.368465,"is_reserved":false,"is_disabled":false,"rental_uris":{"android":"levelo://app?vid=4fbbe6ef-578c-43b8-ae05-6f1edf72f3f5","ios":"levelo://app?vid=4fbbe6ef-578c-43b8-ae05-6f1edf72f3f5"},"vehicle_type_id":"4","last_reported":1704294425,"current_range_meters":23200,"station_id":"ce4bgn92rcd13ifvqbvg","pricing_plan_id":"free"},{"bike_id":"b05d87c0-337b-4e42-893c-8839e3e6a7f2","system_id":"levelo_inurba_marseille","lat":43.309076,"lon":5.368465,"is_reserved":false,"is_disabled":false,"rental_uris":{"android":"levelo://app?vid=b05d87c0-337b-4e42-893c-8839e3e6a7f2","ios":"levelo://app?vid=b05d87c0-337b-4e42-893c-8839e3e6a7f2"},"vehicle_type_id":"4","last_reported":1704294425,"current_range_meters":22000,"station_id":"ce4bgn92rcd13ifvqbvg","pricing_plan_id":"free"},{"bike_id":"f6820b54-84c0-43f6-a2c1-592971d9b437","system_id":"levelo_inurba_marseille","lat":43.309076,"lon":5.368465,"is_reserved":false,"is_disabled":false,"rental_uris":{"android":"levelo://app?vid=f6820b54-84c0-43f6-a2c1-592971d9b437","ios":"levelo://app?vid=f6820b54-84c0-43f6-a2c1-592971d9b437"},"vehicle_type_id":"4","last_reported":1704294425,"current_range_meters":23600,"station_id":"ce4bgn92rcd13ifvqbvg","pricing_plan_id":"free"},{"bike_id":"4a9311c4-4db5-4367-b1f7-d435bd185033","system_id":"levelo_inurba_marseille","lat":43.314811,"lon":5.373103,"is_reserved":false,"is_disabled":false,"rental_uris":{"android":"levelo://app?vid=4a9311c4-4db5-4367-b1f7-d435bd185033","ios":"levelo://app?vid=4a9311c4-4db5-4367-b1f7-d435bd185033"},"vehicle_type_id":"4","last_reported":1704294425,"current_range_meters":10800,"station_id":"ce4bgt12rcd13ifvqcd0","pricing_plan_id":"free"},{"bike_id":"18d2a3ab-5b4a-4f0e-95fe-d5f02966369e","system_id":"levelo_inurba_marseille","lat":43.305368,"lon":5.367343,"is_reserved":false,"is_disabled":false,"rental_uris":{"android":"levelo://app?vid=18d2a3ab-5b4a-4f0e-95fe-d5f02966369e","ios":"levelo://app?vid=18d2a3ab-5b4a-4f0e-95fe-d5f02966369e"},"vehicle_type_id":"4","last_reported":1704294425,"current_range_meters":0,"station_id":"ce4bgrp2rcd13ifvqc9g","pricing_plan_id":"free"},{"bike_id":"d652f497-044d-4f2e-899b-306a1cc630ed","system_id":"levelo_inurba_marseille","lat":43.305714,"lon":5.365633,"is_reserved":false,"is_disabled":false,"rental_uris":{"android":"levelo://app?vid=d652f497-044d-4f2e-899b-306a1cc630ed","ios":"levelo://app?vid=d652f497-044d-4f2e-899b-306a1cc630ed"},"vehicle_type_id":"4","last_reported":1704294425,"current_range_meters":21600,"station_id":"ce4bgs12rcd13ifvqcag","pricing_plan_id":"free"},{"bike_id":"44ad77cf-eb1a-405e-915d-22f79b3fa755","system_id":"levelo_inurba_marseille","lat":43.305706,"lon":5.365654,"is_reserved":false,"is_disabled":false,"rental_uris":{"android":"levelo://app?vid=44ad77cf-eb1a-405e-915d-22f79b3fa755","ios":"levelo://app?vid=44ad77cf-eb1a-405e-915d-22f79b3fa755"},"vehicle_type_id":"4","last_reported":1704294425,"current_range_meters":0,"station_id":"ce4bgs12rcd13ifvqcag","pricing_plan_id":"free"},{"bike_id":"0bb7167b-1940-4ab6-ac05-ea12da1e9234","system_id":"levelo_inurba_marseille","lat":43.305714,"lon":5.365633,"is_reserved":false,"is_disabled":false,"rental_uris":{"android":"levelo://app?vid=0bb7167b-1940-4ab6-ac05-ea12da1e9234","ios":"levelo://app?vid=0bb7167b-1940-4ab6-ac05-ea12da1e9234"},"vehicle_type_id":"4","last_reported":1704294425,"current_range_meters":26800,"station_id":"ce4bgs12rcd13ifvqcag","pricing_plan_id":"free"},{"bike_id":"4cc2ff0a-a57c-4797-83ee-d1d13b0a9084","system_id":"levelo_inurba_marseille","lat":43.305714,"lon":5.365633,"is_reserved":false,"is_disabled":false,"rental_uris":{"android":"levelo://app?vid=4cc2ff0a-a57c-4797-83ee-d1d13b0a9084","ios":"levelo://app?vid=4cc2ff0a-a57c-4797-83ee-d1d13b0a9084"},"vehicle_type_id":"4","last_reported":1704294425,"current_range_meters":2000,"station_id":"ce4bgs12rcd13ifvqcag","pricing_plan_id":"free"},{"bike_id":"7f6e1ef8-3dc3-460f-ba2a-658d656da0f9","system_id":"levelo_inurba_marseille","lat":43.305706,"lon":5.365654,"is_reserved":false,"is_disabled":false,"rental_uris":{"android":"levelo://app?vid=7f6e1ef8-3dc3-460f-ba2a-658d656da0f9","ios":"levelo://app?vid=7f6e1ef8-3dc3-460f-ba2a-658d656da0f9"},"vehicle_type_id":"4","last_reported":1704294425,"current_range_meters":20400,"station_id":"ce4bgs12rcd13ifvqcag","pricing_plan_id":"free"},{"bike_id":"06c2e330-0d40-41fb-83c6-fe02f467447f","system_id":"levelo_inurba_marseille","lat":43.3053,"lon":5.36541,"is_reserved":false,"is_disabled":false,"rental_uris":{"android":"levelo://app?vid=06c2e330-0d40-41fb-83c6-fe02f467447f","ios":"levelo://app?vid=06c2e330-0d40-41fb-83c6-fe02f467447f"},"vehicle_type_id":"4","last_reported":1704294425,"current_range_meters":31200,"station_id":"ce4bgs12rcd13ifvqcag","pricing_plan_id":"free"},{"bike_id":"d0deac8b-30c3-41ae-889e-759a83155dda","system_id":"levelo_inurba_marseille","lat":43.305989,"lon":5.37225,"is_reserved":false,"is_disabled":false,"rental_uris":{"android":"levelo://app?vid=d0deac8b-30c3-41ae-889e-759a83155dda","ios":"levelo://app?vid=d0deac8b-30c3-41ae-889e-759a83155dda"},"vehicle_type_id":"4","last_reported":1704294425,"current_range_meters":20000,"station_id":"ce4bgqh2rcd13ifvqc4g","pricing_plan_id":"free"},{"bike_id":"bdb8f9a7-4fb1-4730-9fb6-efbdf133cd83","system_id":"levelo_inurba_marseille","lat":43.305989,"lon":5.37225,"is_reserved":false,"is_disabled":false,"rental_uris":{"android":"levelo://app?vid=bdb8f9a7-4fb1-4730-9fb6-efbdf133cd83","ios":"levelo://app?vid=bdb8f9a7-4fb1-4730-9fb6-efbdf133cd83"},"vehicle_type_id":"4","last_reported":1704294425,"current_range_meters":22400,"station_id":"ce4bgqh2rcd13ifvqc4g","pricing_plan_id":"free"},{"bike_id":"89e658f2-a8c1-4eb3-8bac-e17dc56ff5f6","system_id":"levelo_inurba_marseille","lat":43.305989,"lon":5.37225,"is_reserved":false,"is_disabled":false,"rental_uris":{"android":"levelo://app?vid=89e658f2-a8c1-4eb3-8bac-e17dc56ff5f6","ios":"levelo://app?vid=89e658f2-a8c1-4eb3-8bac-e17dc56ff5f6"},"vehicle_type_id":"4","last_reported":1704294425,"current_range_meters":25200,"station_id":"ce4bgqh2rcd13ifvqc4g","pricing_plan_id":"free"},{"bike_id":"67bec601-1c08-4c4c-bb31-23fcc0ee8181","system_id":"levelo_inurba_marseille","lat":43.305989,"lon":5.37225,"is_reserved":false,"is_disabled":false,"rental_uris":{"android":"levelo://app?vid=67bec601-1c08-4c4c-bb31-23fcc0ee8181","ios":"levelo://app?vid=67bec601-1c08-4c4c-bb31-23fcc0ee8181"},"vehicle_type_id":"4","last_reported":1704294425,"current_range_meters":15200,"station_id":"ce4bgqh2rcd13ifvqc4g","pricing_plan_id":"free"},{"bike_id":"e63f4152-2146-4f48-b812-a47a3e547b28","system_id":"levelo_inurba_marseille","lat":43.311125,"lon":5.377624,"is_reserved":false,"is_disabled":false,"rental_uris":{"android":"levelo://app?vid=e63f4152-2146-4f48-b812-a47a3e547b28","ios":"levelo://app?vid=e63f4152-2146-4f48-b812-a47a3e547b28"},"vehicle_type_id":"4","last_reported":1704294425,"current_range_meters":30800,"station_id":"ce4bgt92rcd13ifvqcg0","pricing_plan_id":"free"},{"bike_id":"83f4d6c8-bb2a-468f-badd-e898d2a18f60","system_id":"levelo_inurba_marseille","lat":43.311125,"lon":5.377624,"is_reserved":false,"is_disabled":false,"rental_uris":{"android":"levelo://app?vid=83f4d6c8-bb2a-468f-badd-e898d2a18f60","ios":"levelo://app?vid=83f4d6c8-bb2a-468f-badd-e898d2a18f60"},"vehicle_type_id":"4","last_reported":1704294425,"current_range_meters":20400,"station_id":"ce4bgt92rcd13ifvqcg0","pricing_plan_id":"free"},{"bike_id":"7f361869-f70b-403e-9078-894411d45e63","system_id":"levelo_inurba_marseille","lat":43.317075,"lon":5.377367,"is_reserved":false,"is_disabled":false,"rental_uris":{"android":"levelo://app?vid=7f361869-f70b-403e-9078-894411d45e63","ios":"levelo://app?vid=7f361869-f70b-403e-9078-894411d45e63"},"vehicle_type_id":"4","last_reported":1704294425,"current_range_meters":20000,"station_id":"ce4bgth2rcd13ifvqch0","pricing_plan_id":"free"},{"bike_id":"c2775606-fc04-48a8-8700-1cc14f96a7e9","system_id":"levelo_inurba_marseille","lat":43.3105,"lon":5.37883,"is_reserved":false,"is_disabled":false,"rental_uris":{"android":"levelo://app?vid=c2775606-fc04-48a8-8700-1cc14f96a7e9","ios":"levelo://app?vid=c2775606-fc04-48a8-8700-1cc14f96a7e9"},"vehicle_type_id":"4","last_reported":1704294425,"current_range_meters":16800,"station_id":"","pricing_plan_id":"free"},{"bike_id":"c4e90871-bb94-4085-82dc-ccbd997a22ca","system_id":"levelo_inurba_marseille","lat":43.315275,"lon":5.379022,"is_reserved":false,"is_disabled":false,"rental_uris":{"android":"levelo://app?vid=c4e90871-bb94-4085-82dc-ccbd997a22ca","ios":"levelo://app?vid=c4e90871-bb94-4085-82dc-ccbd997a22ca"},"vehicle_type_id":"4","last_reported":1704294425,"current_range_meters":22800,"station_id":"","pricing_plan_id":"free"},{"bike_id":"eed67d23-290a-44ac-98a1-96d934a8d76d","system_id":"levelo_inurba_marseille","lat":43.303046,"lon":5.368981,"is_reserved":false,"is_disabled":false,"rental_uris":{"android":"levelo://app?vid=eed67d23-290a-44ac-98a1-96d934a8d76d","ios":"levelo://app?vid=eed67d23-290a-44ac-98a1-96d934a8d76d"},"vehicle_type_id":"4","last_reported":1704294425,"current_range_meters":26000,"station_id":"ce4bgqh2rcd13ifvqc5g","pricing_plan_id":"free"},{"bike_id":"48894921-a3b3-4128-9719-684866124057","system_id":"levelo_inurba_marseille","lat":43.305989,"lon":5.37225,"is_reserved":false,"is_disabled":false,"rental_uris":{"android":"levelo://app?vid=48894921-a3b3-4128-9719-684866124057","ios":"levelo://app?vid=48894921-a3b3-4128-9719-684866124057"},"vehicle_type_id":"4","last_reported":1704294425,"current_range_meters":23600,"station_id":"ce4bgqh2rcd13ifvqc4g","pricing_plan_id":"free"},{"bike_id":"96aefea7-20c3-47c9-aee1-b26f2cdb5238","system_id":"levelo_inurba_marseille","lat":43.303046,"lon":5.368981,"is_reserved":false,"is_disabled":false,"rental_uris":{"android":"levelo://app?vid=96aefea7-20c3-47c9-aee1-b26f2cdb5238","ios":"levelo://app?vid=96aefea7-20c3-47c9-aee1-b26f2cdb5238"},"vehicle_type_id":"4","last_reported":1704294425,"current_range_meters":25200,"station_id":"ce4bgqh2rcd13ifvqc5g","pricing_plan_id":"free"},{"bike_id":"5a08a2ed-f59d-4079-b5e4-2586a890c227","system_id":"levelo_inurba_marseille","lat":43.308012,"lon":5.381511,"is_reserved":false,"is_disabled":false,"rental_uris":{"android":"levelo://app?vid=5a08a2ed-f59d-4079-b5e4-2586a890c227","ios":"levelo://app?vid=5a08a2ed-f59d-4079-b5e4-2586a890c227"},"vehicle_type_id":"4","last_reported":1704294425,"current_range_meters":18800,"station_id":"ce4bgt12rcd13ifvqce0","pricing_plan_id":"free"},{"bike_id":"8b0c95da-c695-4150-abe3-e95d5ae267b8","system_id":"levelo_inurba_marseille","lat":43.308012,"lon":5.381511,"is_reserved":false,"is_disabled":false,"rental_uris":{"android":"levelo://app?vid=8b0c95da-c695-4150-abe3-e95d5ae267b8","ios":"levelo://app?vid=8b0c95da-c695-4150-abe3-e95d5ae267b8"},"vehicle_type_id":"4","last_reported":1704294425,"current_range_meters":25200,"station_id":"ce4bgt12rcd13ifvqce0","pricing_plan_id":"free"},{"bike_id":"5377074b-30e2-4d67-825b-9deb3b1dbed3","system_id":"levelo_inurba_marseille","lat":43.304708,"lon":5.379039,"is_reserved":false,"is_disabled":false,"rental_uris":{"android":"levelo://app?vid=5377074b-30e2-4d67-825b-9deb3b1dbed3","ios":"levelo://app?vid=5377074b-30e2-4d67-825b-9deb3b1dbed3"},"vehicle_type_id":"4","last_reported":1704294425,"current_range_meters":6800,"station_id":"","pricing_plan_id":"free"},{"bike_id":"0e26b052-7c93-4167-9144-08278ad2e248","system_id":"levelo_inurba_marseille","lat":43.304606,"lon":5.379026,"is_reserved":false,"is_disabled":false,"rental_uris":{"android":"levelo://app?vid=0e26b052-7c93-4167-9144-08278ad2e248","ios":"levelo://app?vid=0e26b052-7c93-4167-9144-08278ad2e248"},"vehicle_type_id":"4","last_reported":1704294425,"current_range_meters":24800,"station_id":"ce4bgup2rcd13ifvqcn0","pricing_plan_id":"free"},{"bike_id":"b913a4f0-70c3-4d6d-ab51-d3873296556b","system_id":"levelo_inurba_marseille","lat":43.304606,"lon":5.379026,"is_reserved":false,"is_disabled":false,"rental_uris":{"android":"levelo://app?vid=b913a4f0-70c3-4d6d-ab51-d3873296556b","ios":"levelo://app?vid=b913a4f0-70c3-4d6d-ab51-d3873296556b"},"vehicle_type_id":"4","last_reported":1704294425,"current_range_meters":14800,"station_id":"ce4bgup2rcd13ifvqcn0","pricing_plan_id":"free"},{"bike_id":"b884f105-5d0a-4ca4-853f-b8ea8664e838","system_id":"levelo_inurba_marseille","lat":43.304606,"lon":5.379026,"is_reserved":false,"is_disabled":false,"rental_uris":{"android":"levelo://app?vid=b884f105-5d0a-4ca4-853f-b8ea8664e838","ios":"levelo://app?vid=b884f105-5d0a-4ca4-853f-b8ea8664e838"},"vehicle_type_id":"4","last_reported":1704294425,"current_range_meters":23600,"station_id":"ce4bgup2rcd13ifvqcn0","pricing_plan_id":"free"},{"bike_id":"88998c4d-7e30-4219-a90f-3f53bde7de64","system_id":"levelo_inurba_marseille","lat":43.30463,"lon":5.37904,"is_reserved":false,"is_disabled":false,"rental_uris":{"android":"levelo://app?vid=88998c4d-7e30-4219-a90f-3f53bde7de64","ios":"levelo://app?vid=88998c4d-7e30-4219-a90f-3f53bde7de64"},"vehicle_type_id":"4","last_reported":1704294425,"current_range_meters":23200,"station_id":"ce4bgup2rcd13ifvqcn0","pricing_plan_id":"free"},{"bike_id":"a6411788-6664-4e8f-a4d6-71993ad91f00","system_id":"levelo_inurba_marseille","lat":43.304606,"lon":5.379026,"is_reserved":false,"is_disabled":false,"rental_uris":{"android":"levelo://app?vid=a6411788-6664-4e8f-a4d6-71993ad91f00","ios":"levelo://app?vid=a6411788-6664-4e8f-a4d6-71993ad91f00"},"vehicle_type_id":"4","last_reported":1704294425,"current_range_meters":12400,"station_id":"ce4bgup2rcd13ifvqcn0","pricing_plan_id":"free"},{"bike_id":"8a3835b3-4361-434e-807e-6d31b7e7ab5f","system_id":"levelo_inurba_marseille","lat":43.304606,"lon":5.379026,"is_reserved":false,"is_disabled":false,"rental_uris":{"android":"levelo://app?vid=8a3835b3-4361-434e-807e-6d31b7e7ab5f","ios":"levelo://app?vid=8a3835b3-4361-434e-807e-6d31b7e7ab5f"},"vehicle_type_id":"4","last_reported":1704294425,"current_range_meters":20400,"station_id":"ce4bgup2rcd13ifvqcn0","pricing_plan_id":"free"},{"bike_id":"e32c7d57-5449-4187-85cb-46a448386ea6","system_id":"levelo_inurba_marseille","lat":43.304606,"lon":5.379026,"is_reserved":false,"is_disabled":false,"rental_uris":{"android":"levelo://app?vid=e32c7d57-5449-4187-85cb-46a448386ea6","ios":"levelo://app?vid=e32c7d57-5449-4187-85cb-46a448386ea6"},"vehicle_type_id":"4","last_reported":1704294425,"current_range_meters":23600,"station_id":"ce4bgup2rcd13ifvqcn0","pricing_plan_id":"free"},{"bike_id":"66d37b81-6b82-4a50-9a95-64b4cef5aa8b","system_id":"levelo_inurba_marseille","lat":43.304606,"lon":5.379026,"is_reserved":false,"is_disabled":false,"rental_uris":{"android":"levelo://app?vid=66d37b81-6b82-4a50-9a95-64b4cef5aa8b","ios":"levelo://app?vid=66d37b81-6b82-4a50-9a95-64b4cef5aa8b"},"vehicle_type_id":"4","last_reported":1704294425,"current_range_meters":13600,"station_id":"ce4bgup2rcd13ifvqcn0","pricing_plan_id":"free"},{"bike_id":"03cec6ba-2ddf-4056-ba6b-f6a36c219bd1","system_id":"levelo_inurba_marseille","lat":43.304606,"lon":5.379026,"is_reserved":false,"is_disabled":false,"rental_uris":{"android":"levelo://app?vid=03cec6ba-2ddf-4056-ba6b-f6a36c219bd1","ios":"levelo://app?vid=03cec6ba-2ddf-4056-ba6b-f6a36c219bd1"},"vehicle_type_id":"4","last_reported":1704294425,"current_range_meters":26000,"station_id":"ce4bgup2rcd13ifvqcn0","pricing_plan_id":"free"},{"bike_id":"aa82fa74-600b-467f-9a64-363a885a2b7a","system_id":"levelo_inurba_marseille","lat":43.304606,"lon":5.379026,"is_reserved":false,"is_disabled":false,"rental_uris":{"android":"levelo://app?vid=aa82fa74-600b-467f-9a64-363a885a2b7a","ios":"levelo://app?vid=aa82fa74-600b-467f-9a64-363a885a2b7a"},"vehicle_type_id":"4","last_reported":1704294425,"current_range_meters":25200,"station_id":"ce4bgup2rcd13ifvqcn0","pricing_plan_id":"free"},{"bike_id":"e6c86afa-e1a5-4439-9325-63e21e7d89d0","system_id":"levelo_inurba_marseille","lat":43.304606,"lon":5.379026,"is_reserved":false,"is_disabled":false,"rental_uris":{"android":"levelo://app?vid=e6c86afa-e1a5-4439-9325-63e21e7d89d0","ios":"levelo://app?vid=e6c86afa-e1a5-4439-9325-63e21e7d89d0"},"vehicle_type_id":"4","last_reported":1704294425,"current_range_meters":23200,"station_id":"ce4bgup2rcd13ifvqcn0","pricing_plan_id":"free"},{"bike_id":"1b99399f-f76a-46e5-a5d8-20bf4ee4eed7","system_id":"levelo_inurba_marseille","lat":43.324771,"lon":5.36557,"is_reserved":false,"is_disabled":false,"rental_uris":{"android":"levelo://app?vid=1b99399f-f76a-46e5-a5d8-20bf4ee4eed7","ios":"levelo://app?vid=1b99399f-f76a-46e5-a5d8-20bf4ee4eed7"},"vehicle_type_id":"4","last_reported":1704294425,"current_range_meters":23600,"station_id":"ce4bhs12rcd13ifvqhvg","pricing_plan_id":"free"},{"bike_id":"688569fa-81a1-4322-8300-c299ae5152f3","system_id":"levelo_inurba_marseille","lat":43.324771,"lon":5.36557,"is_reserved":false,"is_disabled":false,"rental_uris":{"android":"levelo://app?vid=688569fa-81a1-4322-8300-c299ae5152f3","ios":"levelo://app?vid=688569fa-81a1-4322-8300-c299ae5152f3"},"vehicle_type_id":"4","last_reported":1704294425,"current_range_meters":17600,"station_id":"ce4bhs12rcd13ifvqhvg","pricing_plan_id":"free"},{"bike_id":"63cbeba6-6cfe-40ba-8a9c-acc9281d0118","system_id":"levelo_inurba_marseille","lat":43.302792,"lon":5.377014,"is_reserved":false,"is_disabled":false,"rental_uris":{"android":"levelo://app?vid=63cbeba6-6cfe-40ba-8a9c-acc9281d0118","ios":"levelo://app?vid=63cbeba6-6cfe-40ba-8a9c-acc9281d0118"},"vehicle_type_id":"4","last_reported":1704294425,"current_range_meters":15200,"station_id":"","pricing_plan_id":"free"},{"bike_id":"dc19e61b-bb93-428d-89e0-e091eb802aa5","system_id":"levelo_inurba_marseille","lat":43.30143,"lon":5.37413,"is_reserved":false,"is_disabled":false,"rental_uris":{"android":"levelo://app?vid=dc19e61b-bb93-428d-89e0-e091eb802aa5","ios":"levelo://app?vid=dc19e61b-bb93-428d-89e0-e091eb802aa5"},"vehicle_type_id":"4","last_reported":1704294425,"current_range_meters":14400,"station_id":"ce4bgs92rcd13ifvqcc0","pricing_plan_id":"free"},{"bike_id":"dd1cea92-6247-4539-a69e-29f3e16d12a9","system_id":"levelo_inurba_marseille","lat":43.301429,"lon":5.37413,"is_reserved":false,"is_disabled":false,"rental_uris":{"android":"levelo://app?vid=dd1cea92-6247-4539-a69e-29f3e16d12a9","ios":"levelo://app?vid=dd1cea92-6247-4539-a69e-29f3e16d12a9"},"vehicle_type_id":"4","last_reported":1704294425,"current_range_meters":30800,"station_id":"ce4bgs92rcd13ifvqcc0","pricing_plan_id":"free"},{"bike_id":"442c1b48-0c9d-41d7-80ff-51493b8682d0","system_id":"levelo_inurba_marseille","lat":43.319935,"lon":5.381699,"is_reserved":false,"is_disabled":false,"rental_uris":{"android":"levelo://app?vid=442c1b48-0c9d-41d7-80ff-51493b8682d0","ios":"levelo://app?vid=442c1b48-0c9d-41d7-80ff-51493b8682d0"},"vehicle_type_id":"4","last_reported":1704294425,"current_range_meters":18400,"station_id":"ce4bhr12rcd13ifvqhpg","pricing_plan_id":"free"},{"bike_id":"e388d662-e42d-48f6-ac48-4c849b51325d","system_id":"levelo_inurba_marseille","lat":43.313571,"lon":5.384829,"is_reserved":false,"is_disabled":false,"rental_uris":{"android":"levelo://app?vid=e388d662-e42d-48f6-ac48-4c849b51325d","ios":"levelo://app?vid=e388d662-e42d-48f6-ac48-4c849b51325d"},"vehicle_type_id":"4","last_reported":1704294425,"current_range_meters":26000,"station_id":"ce4bgt92rcd13ifvqcf0","pricing_plan_id":"free"},{"bike_id":"453efdba-7928-4bb8-9ff2-bf4024b4d8b1","system_id":"levelo_inurba_marseille","lat":43.313571,"lon":5.384829,"is_reserved":false,"is_disabled":false,"rental_uris":{"android":"levelo://app?vid=453efdba-7928-4bb8-9ff2-bf4024b4d8b1","ios":"levelo://app?vid=453efdba-7928-4bb8-9ff2-bf4024b4d8b1"},"vehicle_type_id":"4","last_reported":1704294425,"current_range_meters":28800,"station_id":"ce4bgt92rcd13ifvqcf0","pricing_plan_id":"free"},{"bike_id":"15f0cbd9-eb1e-4eb3-bad5-243a0c7e693a","system_id":"levelo_inurba_marseille","lat":43.313571,"lon":5.384829,"is_reserved":false,"is_disabled":false,"rental_uris":{"android":"levelo://app?vid=15f0cbd9-eb1e-4eb3-bad5-243a0c7e693a","ios":"levelo://app?vid=15f0cbd9-eb1e-4eb3-bad5-243a0c7e693a"},"vehicle_type_id":"4","last_reported":1704294425,"current_range_meters":10800,"station_id":"ce4bgt92rcd13ifvqcf0","pricing_plan_id":"free"},{"bike_id":"17504bde-947a-4cd6-98b3-9a4c66aca99b","system_id":"levelo_inurba_marseille","lat":43.313827,"lon":5.385007,"is_reserved":false,"is_disabled":false,"rental_uris":{"android":"levelo://app?vid=17504bde-947a-4cd6-98b3-9a4c66aca99b","ios":"levelo://app?vid=17504bde-947a-4cd6-98b3-9a4c66aca99b"},"vehicle_type_id":"4","last_reported":1704294425,"current_range_meters":16800,"station_id":"ce4bgt92rcd13ifvqcf0","pricing_plan_id":"free"},{"bike_id":"4989be2b-88cd-4b25-8390-0760fb58714f","system_id":"levelo_inurba_marseille","lat":43.304606,"lon":5.379026,"is_reserved":false,"is_disabled":false,"rental_uris":{"android":"levelo://app?vid=4989be2b-88cd-4b25-8390-0760fb58714f","ios":"levelo://app?vid=4989be2b-88cd-4b25-8390-0760fb58714f"},"vehicle_type_id":"4","last_reported":1704294425,"current_range_meters":8000,"station_id":"ce4bgup2rcd13ifvqcn0","pricing_plan_id":"free"},{"bike_id":"8324d917-7a10-4585-a6e9-0817c93f6ada","system_id":"levelo_inurba_marseille","lat":43.299222,"lon":5.365554,"is_reserved":false,"is_disabled":false,"rental_uris":{"android":"levelo://app?vid=8324d917-7a10-4585-a6e9-0817c93f6ada","ios":"levelo://app?vid=8324d917-7a10-4585-a6e9-0817c93f6ada"},"vehicle_type_id":"4","last_reported":1704294425,"current_range_meters":20800,"station_id":"ce4bgm92rcd13ifvqbr0","pricing_plan_id":"free"},{"bike_id":"4737b37d-c8d7-4a85-b57f-3a7e638a3502","system_id":"levelo_inurba_marseille","lat":43.305364,"lon":5.384119,"is_reserved":false,"is_disabled":false,"rental_uris":{"android":"levelo://app?vid=4737b37d-c8d7-4a85-b57f-3a7e638a3502","ios":"levelo://app?vid=4737b37d-c8d7-4a85-b57f-3a7e638a3502"},"vehicle_type_id":"4","last_reported":1704294425,"current_range_meters":14400,"station_id":"ce4bgg92rcd13ifvqb30","pricing_plan_id":"free"},{"bike_id":"bd262407-8fae-4baf-a397-a5597523eb6a","system_id":"levelo_inurba_marseille","lat":43.305364,"lon":5.384119,"is_reserved":false,"is_disabled":false,"rental_uris":{"android":"levelo://app?vid=bd262407-8fae-4baf-a397-a5597523eb6a","ios":"levelo://app?vid=bd262407-8fae-4baf-a397-a5597523eb6a"},"vehicle_type_id":"4","last_reported":1704294425,"current_range_meters":18800,"station_id":"ce4bgg92rcd13ifvqb30","pricing_plan_id":"free"},{"bike_id":"338e4bea-0c3f-407e-859c-40469fdb6d94","system_id":"levelo_inurba_marseille","lat":43.298433,"lon":5.362774,"is_reserved":false,"is_disabled":false,"rental_uris":{"android":"levelo://app?vid=338e4bea-0c3f-407e-859c-40469fdb6d94","ios":"levelo://app?vid=338e4bea-0c3f-407e-859c-40469fdb6d94"},"vehicle_type_id":"4","last_reported":1704294425,"current_range_meters":20400,"station_id":"ce4bgpp2rcd13ifvqc3g","pricing_plan_id":"free"},{"bike_id":"6d344f4d-b26c-43e1-86ec-18eda85a9a55","system_id":"levelo_inurba_marseille","lat":43.299243,"lon":5.374807,"is_reserved":false,"is_disabled":false,"rental_uris":{"android":"levelo://app?vid=6d344f4d-b26c-43e1-86ec-18eda85a9a55","ios":"levelo://app?vid=6d344f4d-b26c-43e1-86ec-18eda85a9a55"},"vehicle_type_id":"4","last_reported":1704294425,"current_range_meters":31200,"station_id":"ce4bgjh2rcd13ifvqbg0","pricing_plan_id":"free"},{"bike_id":"87a5e163-11f8-4aea-86d1-a48f2a7c02ba","system_id":"levelo_inurba_marseille","lat":43.298433,"lon":5.362774,"is_reserved":false,"is_disabled":false,"rental_uris":{"android":"levelo://app?vid=87a5e163-11f8-4aea-86d1-a48f2a7c02ba","ios":"levelo://app?vid=87a5e163-11f8-4aea-86d1-a48f2a7c02ba"},"vehicle_type_id":"4","last_reported":1704294425,"current_range_meters":31200,"station_id":"ce4bgpp2rcd13ifvqc3g","pricing_plan_id":"free"},{"bike_id":"7e612d02-3fa0-42b4-8db5-43bd994c22b0","system_id":"levelo_inurba_marseille","lat":43.29916,"lon":5.37469,"is_reserved":false,"is_disabled":false,"rental_uris":{"android":"levelo://app?vid=7e612d02-3fa0-42b4-8db5-43bd994c22b0","ios":"levelo://app?vid=7e612d02-3fa0-42b4-8db5-43bd994c22b0"},"vehicle_type_id":"4","last_reported":1704294425,"current_range_meters":22000,"station_id":"ce4bgjh2rcd13ifvqbg0","pricing_plan_id":"free"},{"bike_id":"0d180ee1-33fe-4f46-b62e-a831374bf8b3","system_id":"levelo_inurba_marseille","lat":43.311722,"lon":5.387247,"is_reserved":false,"is_disabled":false,"rental_uris":{"android":"levelo://app?vid=0d180ee1-33fe-4f46-b62e-a831374bf8b3","ios":"levelo://app?vid=0d180ee1-33fe-4f46-b62e-a831374bf8b3"},"vehicle_type_id":"4","last_reported":1704294425,"current_range_meters":24000,"station_id":"ce4bgv12rcd13ifvqcp0","pricing_plan_id":"free"},{"bike_id":"9820b2e3-c049-4b63-a954-ee054538312b","system_id":"levelo_inurba_marseille","lat":43.322872,"lon":5.382756,"is_reserved":false,"is_disabled":false,"rental_uris":{"android":"levelo://app?vid=9820b2e3-c049-4b63-a954-ee054538312b","ios":"levelo://app?vid=9820b2e3-c049-4b63-a954-ee054538312b"},"vehicle_type_id":"4","last_reported":1704294425,"current_range_meters":27200,"station_id":"ce4bhr12rcd13ifvqhqg","pricing_plan_id":"free"},{"bike_id":"8c5bc0f6-06f7-4607-a0c5-5d3c53ae9dcb","system_id":"levelo_inurba_marseille","lat":43.328371,"lon":5.366909,"is_reserved":false,"is_disabled":false,"rental_uris":{"android":"levelo://app?vid=8c5bc0f6-06f7-4607-a0c5-5d3c53ae9dcb","ios":"levelo://app?vid=8c5bc0f6-06f7-4607-a0c5-5d3c53ae9dcb"},"vehicle_type_id":"4","last_reported":1704294425,"current_range_meters":18800,"station_id":"ce4bhs92rcd13ifvqi0g","pricing_plan_id":"free"},{"bike_id":"92a90b44-9119-48f6-9d55-26d6f6eb3acf","system_id":"levelo_inurba_marseille","lat":43.328371,"lon":5.366909,"is_reserved":false,"is_disabled":false,"rental_uris":{"android":"levelo://app?vid=92a90b44-9119-48f6-9d55-26d6f6eb3acf","ios":"levelo://app?vid=92a90b44-9119-48f6-9d55-26d6f6eb3acf"},"vehicle_type_id":"4","last_reported":1704294425,"current_range_meters":18400,"station_id":"ce4bhs92rcd13ifvqi0g","pricing_plan_id":"free"},{"bike_id":"c5a634af-b290-473a-8cd3-bc8d8ff92abc","system_id":"levelo_inurba_marseille","lat":43.297163,"lon":5.365866,"is_reserved":false,"is_disabled":false,"rental_uris":{"android":"levelo://app?vid=c5a634af-b290-473a-8cd3-bc8d8ff92abc","ios":"levelo://app?vid=c5a634af-b290-473a-8cd3-bc8d8ff92abc"},"vehicle_type_id":"4","last_reported":1704294425,"current_range_meters":20400,"station_id":"ce4bgn12rcd13ifvqbt0","pricing_plan_id":"free"},{"bike_id":"370cccf7-c9ba-46c2-819b-c8e8cacc4c21","system_id":"levelo_inurba_marseille","lat":43.3277,"lon":5.37458,"is_reserved":false,"is_disabled":false,"rental_uris":{"android":"levelo://app?vid=370cccf7-c9ba-46c2-819b-c8e8cacc4c21","ios":"levelo://app?vid=370cccf7-c9ba-46c2-819b-c8e8cacc4c21"},"vehicle_type_id":"4","last_reported":1704294425,"current_range_meters":4800,"station_id":"","pricing_plan_id":"free"},{"bike_id":"297c5617-fdb6-4b26-b10a-f52218f5f8e2","system_id":"levelo_inurba_marseille","lat":43.2968,"lon":5.37291,"is_reserved":false,"is_disabled":false,"rental_uris":{"android":"levelo://app?vid=297c5617-fdb6-4b26-b10a-f52218f5f8e2","ios":"levelo://app?vid=297c5617-fdb6-4b26-b10a-f52218f5f8e2"},"vehicle_type_id":"4","last_reported":1704294425,"current_range_meters":22000,"station_id":"ce4bgk12rcd13ifvqbj0","pricing_plan_id":"free"},{"bike_id":"07accc75-866d-4b91-8976-e5ab9ff0c604","system_id":"levelo_inurba_marseille","lat":43.29573,"lon":5.367355,"is_reserved":false,"is_disabled":false,"rental_uris":{"android":"levelo://app?vid=07accc75-866d-4b91-8976-e5ab9ff0c604","ios":"levelo://app?vid=07accc75-866d-4b91-8976-e5ab9ff0c604"},"vehicle_type_id":"4","last_reported":1704294425,"current_range_meters":22800,"station_id":"ce4bgph2rcd13ifvqc2g","pricing_plan_id":"free"},{"bike_id":"aa98446a-3f1d-45e4-9e32-b4d71a8b8b86","system_id":"levelo_inurba_marseille","lat":43.29573,"lon":5.367355,"is_reserved":false,"is_disabled":false,"rental_uris":{"android":"levelo://app?vid=aa98446a-3f1d-45e4-9e32-b4d71a8b8b86","ios":"levelo://app?vid=aa98446a-3f1d-45e4-9e32-b4d71a8b8b86"},"vehicle_type_id":"4","last_reported":1704294425,"current_range_meters":21600,"station_id":"ce4bgph2rcd13ifvqc2g","pricing_plan_id":"free"},{"bike_id":"d5aadf2d-1c96-4d52-a7c7-edfcb8cc05e8","system_id":"levelo_inurba_marseille","lat":43.29578,"lon":5.36746,"is_reserved":false,"is_disabled":false,"rental_uris":{"android":"levelo://app?vid=d5aadf2d-1c96-4d52-a7c7-edfcb8cc05e8","ios":"levelo://app?vid=d5aadf2d-1c96-4d52-a7c7-edfcb8cc05e8"},"vehicle_type_id":"4","last_reported":1704294425,"current_range_meters":0,"station_id":"ce4bgph2rcd13ifvqc2g","pricing_plan_id":"free"},{"bike_id":"e3a49fc6-d379-4164-a4e6-c2849d74f396","system_id":"levelo_inurba_marseille","lat":43.295169,"lon":5.390426,"is_reserved":false,"is_disabled":false,"rental_uris":{"android":"levelo://app?vid=e3a49fc6-d379-4164-a4e6-c2849d74f396","ios":"levelo://app?vid=e3a49fc6-d379-4164-a4e6-c2849d74f396"},"vehicle_type_id":"4","last_reported":1704294425,"current_range_meters":24000,"station_id":"ce4bh3p2rcd13ifvqdp0","pricing_plan_id":"free"},{"bike_id":"1426b9fc-e1e8-470b-bef6-52977c58e8f0","system_id":"levelo_inurba_marseille","lat":43.298905,"lon":5.380874,"is_reserved":false,"is_disabled":false,"rental_uris":{"android":"levelo://app?vid=1426b9fc-e1e8-470b-bef6-52977c58e8f0","ios":"levelo://app?vid=1426b9fc-e1e8-470b-bef6-52977c58e8f0"},"vehicle_type_id":"4","last_reported":1704294425,"current_range_meters":10400,"station_id":"","pricing_plan_id":"free"},{"bike_id":"5afda8dc-b937-4743-9a34-231c94f3eb78","system_id":"levelo_inurba_marseille","lat":43.296921,"lon":5.376579,"is_reserved":false,"is_disabled":false,"rental_uris":{"android":"levelo://app?vid=5afda8dc-b937-4743-9a34-231c94f3eb78","ios":"levelo://app?vid=5afda8dc-b937-4743-9a34-231c94f3eb78"},"vehicle_type_id":"4","last_reported":1704294425,"current_range_meters":8800,"station_id":"ce4bgkh2rcd13ifvqbl0","pricing_plan_id":"free"},{"bike_id":"1b7f2ddb-3b7f-477c-9c83-140e3430a2e1","system_id":"levelo_inurba_marseille","lat":43.296935,"lon":5.376544,"is_reserved":false,"is_disabled":false,"rental_uris":{"android":"levelo://app?vid=1b7f2ddb-3b7f-477c-9c83-140e3430a2e1","ios":"levelo://app?vid=1b7f2ddb-3b7f-477c-9c83-140e3430a2e1"},"vehicle_type_id":"4","last_reported":1704294425,"current_range_meters":12000,"station_id":"ce4bgkh2rcd13ifvqbl0","pricing_plan_id":"free"},{"bike_id":"4d3ab580-2f2a-47a9-9225-a1b7e8989d3b","system_id":"levelo_inurba_marseille","lat":43.298037,"lon":5.381066,"is_reserved":false,"is_disabled":false,"rental_uris":{"android":"levelo://app?vid=4d3ab580-2f2a-47a9-9225-a1b7e8989d3b","ios":"levelo://app?vid=4d3ab580-2f2a-47a9-9225-a1b7e8989d3b"},"vehicle_type_id":"4","last_reported":1704294425,"current_range_meters":24800,"station_id":"ce4bgip2rcd13ifvqbb0","pricing_plan_id":"free"},{"bike_id":"4028cf38-dc76-4016-8a80-a72184244aeb","system_id":"levelo_inurba_marseille","lat":43.298037,"lon":5.381066,"is_reserved":false,"is_disabled":false,"rental_uris":{"android":"levelo://app?vid=4028cf38-dc76-4016-8a80-a72184244aeb","ios":"levelo://app?vid=4028cf38-dc76-4016-8a80-a72184244aeb"},"vehicle_type_id":"4","last_reported":1704294425,"current_range_meters":24000,"station_id":"ce4bgip2rcd13ifvqbb0","pricing_plan_id":"free"},{"bike_id":"b87563cc-b767-4593-a35a-2d06a453d4ee","system_id":"levelo_inurba_marseille","lat":43.304274,"lon":5.388873,"is_reserved":false,"is_disabled":false,"rental_uris":{"android":"levelo://app?vid=b87563cc-b767-4593-a35a-2d06a453d4ee","ios":"levelo://app?vid=b87563cc-b767-4593-a35a-2d06a453d4ee"},"vehicle_type_id":"4","last_reported":1704294425,"current_range_meters":10400,"station_id":"ce4bgk12rcd13ifvqbi0","pricing_plan_id":"free"},{"bike_id":"69c55f93-616a-4154-ba03-768f45a247d2","system_id":"levelo_inurba_marseille","lat":43.29572,"lon":5.37522,"is_reserved":false,"is_disabled":false,"rental_uris":{"android":"levelo://app?vid=69c55f93-616a-4154-ba03-768f45a247d2","ios":"levelo://app?vid=69c55f93-616a-4154-ba03-768f45a247d2"},"vehicle_type_id":"4","last_reported":1704294425,"current_range_meters":17600,"station_id":"ce4bgh92rcd13ifvqb50","pricing_plan_id":"free"},{"bike_id":"56e2dd9f-76ee-461c-883e-2bfb6e5b6023","system_id":"levelo_inurba_marseille","lat":43.298037,"lon":5.381066,"is_reserved":false,"is_disabled":false,"rental_uris":{"android":"levelo://app?vid=56e2dd9f-76ee-461c-883e-2bfb6e5b6023","ios":"levelo://app?vid=56e2dd9f-76ee-461c-883e-2bfb6e5b6023"},"vehicle_type_id":"4","last_reported":1704294425,"current_range_meters":22400,"station_id":"ce4bgip2rcd13ifvqbb0","pricing_plan_id":"free"},{"bike_id":"debe6099-997c-4fec-8a45-1085adfd7324","system_id":"levelo_inurba_marseille","lat":43.304278,"lon":5.388868,"is_reserved":false,"is_disabled":false,"rental_uris":{"android":"levelo://app?vid=debe6099-997c-4fec-8a45-1085adfd7324","ios":"levelo://app?vid=debe6099-997c-4fec-8a45-1085adfd7324"},"vehicle_type_id":"4","last_reported":1704294425,"current_range_meters":800,"station_id":"ce4bgk12rcd13ifvqbi0","pricing_plan_id":"free"},{"bike_id":"d60802d6-4f47-444a-b234-883690eec05b","system_id":"levelo_inurba_marseille","lat":43.33062,"lon":5.3627,"is_reserved":false,"is_disabled":false,"rental_uris":{"android":"levelo://app?vid=d60802d6-4f47-444a-b234-883690eec05b","ios":"levelo://app?vid=d60802d6-4f47-444a-b234-883690eec05b"},"vehicle_type_id":"4","last_reported":1704294425,"current_range_meters":11600,"station_id":"","pricing_plan_id":"free"},{"bike_id":"457bfdb2-feee-4dce-a0f7-9019a2551e28","system_id":"levelo_inurba_marseille","lat":43.296277,"lon":5.377108,"is_reserved":false,"is_disabled":false,"rental_uris":{"android":"levelo://app?vid=457bfdb2-feee-4dce-a0f7-9019a2551e28","ios":"levelo://app?vid=457bfdb2-feee-4dce-a0f7-9019a2551e28"},"vehicle_type_id":"4","last_reported":1704294425,"current_range_meters":20800,"station_id":"ce4bgi92rcd13ifvqb90","pricing_plan_id":"free"},{"bike_id":"53e1da10-a4b6-41e0-b66d-20f007c45a11","system_id":"levelo_inurba_marseille","lat":43.295412,"lon":5.374988,"is_reserved":false,"is_disabled":false,"rental_uris":{"android":"levelo://app?vid=53e1da10-a4b6-41e0-b66d-20f007c45a11","ios":"levelo://app?vid=53e1da10-a4b6-41e0-b66d-20f007c45a11"},"vehicle_type_id":"4","last_reported":1704294425,"current_range_meters":3600,"station_id":"ce4bgkp2rcd13ifvqbmg","pricing_plan_id":"free"},{"bike_id":"7119845d-00aa-4d9f-be8c-fc97d41f1380","system_id":"levelo_inurba_marseille","lat":43.297594,"lon":5.381134,"is_reserved":false,"is_disabled":false,"rental_uris":{"android":"levelo://app?vid=7119845d-00aa-4d9f-be8c-fc97d41f1380","ios":"levelo://app?vid=7119845d-00aa-4d9f-be8c-fc97d41f1380"},"vehicle_type_id":"4","last_reported":1704294425,"current_range_meters":0,"station_id":"ce4bgip2rcd13ifvqbb0","pricing_plan_id":"free"},{"bike_id":"91e04f5e-8761-4867-a4a7-57f18c10984d","system_id":"levelo_inurba_marseille","lat":43.29975,"lon":5.3849,"is_reserved":false,"is_disabled":false,"rental_uris":{"android":"levelo://app?vid=91e04f5e-8761-4867-a4a7-57f18c10984d","ios":"levelo://app?vid=91e04f5e-8761-4867-a4a7-57f18c10984d"},"vehicle_type_id":"4","last_reported":1704294425,"current_range_meters":22400,"station_id":"ce4bgj92rcd13ifvqbd0","pricing_plan_id":"free"},{"bike_id":"ea69bd70-45fb-4dfb-9fd7-5a6cb4eefeee","system_id":"levelo_inurba_marseille","lat":43.30146,"lon":5.387953,"is_reserved":false,"is_disabled":false,"rental_uris":{"android":"levelo://app?vid=ea69bd70-45fb-4dfb-9fd7-5a6cb4eefeee","ios":"levelo://app?vid=ea69bd70-45fb-4dfb-9fd7-5a6cb4eefeee"},"vehicle_type_id":"4","last_reported":1704294425,"current_range_meters":29600,"station_id":"","pricing_plan_id":"free"},{"bike_id":"ed7b0a23-9e54-44fc-b391-fcf19e7c0498","system_id":"levelo_inurba_marseille","lat":43.29602,"lon":5.381084,"is_reserved":false,"is_disabled":false,"rental_uris":{"android":"levelo://app?vid=ed7b0a23-9e54-44fc-b391-fcf19e7c0498","ios":"levelo://app?vid=ed7b0a23-9e54-44fc-b391-fcf19e7c0498"},"vehicle_type_id":"4","last_reported":1704294425,"current_range_meters":22400,"station_id":"ce4bgl12rcd13ifvqbo0","pricing_plan_id":"free"},{"bike_id":"926b066b-560f-449d-b13e-e4ae35b0f7e9","system_id":"levelo_inurba_marseille","lat":43.292749,"lon":5.368402,"is_reserved":false,"is_disabled":false,"rental_uris":{"android":"levelo://app?vid=926b066b-560f-449d-b13e-e4ae35b0f7e9","ios":"levelo://app?vid=926b066b-560f-449d-b13e-e4ae35b0f7e9"},"vehicle_type_id":"4","last_reported":1704294425,"current_range_meters":0,"station_id":"ce4bhbp2rcd13ifvqesg","pricing_plan_id":"free"},{"bike_id":"194913e3-d88a-4344-b5af-eab8b4c6ccd1","system_id":"levelo_inurba_marseille","lat":43.293009,"lon":5.374584,"is_reserved":false,"is_disabled":false,"rental_uris":{"android":"levelo://app?vid=194913e3-d88a-4344-b5af-eab8b4c6ccd1","ios":"levelo://app?vid=194913e3-d88a-4344-b5af-eab8b4c6ccd1"},"vehicle_type_id":"4","last_reported":1704294425,"current_range_meters":26400,"station_id":"ce4bgi12rcd13ifvqb70","pricing_plan_id":"free"},{"bike_id":"47f87abd-c5f2-44e6-884a-cc4b1aa5c74d","system_id":"levelo_inurba_marseille","lat":43.305994,"lon":5.393687,"is_reserved":false,"is_disabled":false,"rental_uris":{"android":"levelo://app?vid=47f87abd-c5f2-44e6-884a-cc4b1aa5c74d","ios":"levelo://app?vid=47f87abd-c5f2-44e6-884a-cc4b1aa5c74d"},"vehicle_type_id":"4","last_reported":1704294425,"current_range_meters":0,"station_id":"ce4bh0p2rcd13ifvqd80","pricing_plan_id":"free"},{"bike_id":"7a2f61b4-4d05-44b5-ab60-316847bc0135","system_id":"levelo_inurba_marseille","lat":43.305994,"lon":5.393687,"is_reserved":false,"is_disabled":false,"rental_uris":{"android":"levelo://app?vid=7a2f61b4-4d05-44b5-ab60-316847bc0135","ios":"levelo://app?vid=7a2f61b4-4d05-44b5-ab60-316847bc0135"},"vehicle_type_id":"4","last_reported":1704294425,"current_range_meters":8800,"station_id":"ce4bh0p2rcd13ifvqd80","pricing_plan_id":"free"},{"bike_id":"5dd45908-f4fb-407b-95ec-f0caad9bbbe8","system_id":"levelo_inurba_marseille","lat":43.303002,"lon":5.392142,"is_reserved":false,"is_disabled":false,"rental_uris":{"android":"levelo://app?vid=5dd45908-f4fb-407b-95ec-f0caad9bbbe8","ios":"levelo://app?vid=5dd45908-f4fb-407b-95ec-f0caad9bbbe8"},"vehicle_type_id":"4","last_reported":1704294425,"current_range_meters":2800,"station_id":"ce4bgkh2rcd13ifvqbk0","pricing_plan_id":"free"},{"bike_id":"8b1c0cff-fdc6-4e85-a3d5-1c666435774f","system_id":"levelo_inurba_marseille","lat":43.2936,"lon":5.37835,"is_reserved":false,"is_disabled":false,"rental_uris":{"android":"levelo://app?vid=8b1c0cff-fdc6-4e85-a3d5-1c666435774f","ios":"levelo://app?vid=8b1c0cff-fdc6-4e85-a3d5-1c666435774f"},"vehicle_type_id":"4","last_reported":1704294425,"current_range_meters":26800,"station_id":"ce4bgjh2rcd13ifvqbf0","pricing_plan_id":"free"},{"bike_id":"4b7c4083-9602-4ffe-919f-34f0e2d46698","system_id":"levelo_inurba_marseille","lat":43.292181,"lon":5.360463,"is_reserved":false,"is_disabled":false,"rental_uris":{"android":"levelo://app?vid=4b7c4083-9602-4ffe-919f-34f0e2d46698","ios":"levelo://app?vid=4b7c4083-9602-4ffe-919f-34f0e2d46698"},"vehicle_type_id":"4","last_reported":1704294425,"current_range_meters":18000,"station_id":"","pricing_plan_id":"free"},{"bike_id":"59c46b20-bf51-44bc-8d13-9f0d2aecb223","system_id":"levelo_inurba_marseille","lat":43.291675,"lon":5.371583,"is_reserved":false,"is_disabled":false,"rental_uris":{"android":"levelo://app?vid=59c46b20-bf51-44bc-8d13-9f0d2aecb223","ios":"levelo://app?vid=59c46b20-bf51-44bc-8d13-9f0d2aecb223"},"vehicle_type_id":"4","last_reported":1704294425,"current_range_meters":19600,"station_id":"ce4bha92rcd13ifvqeh0","pricing_plan_id":"free"},{"bike_id":"0be72a79-67f5-4d62-97ea-1e17dabae9e2","system_id":"levelo_inurba_marseille","lat":43.298768,"lon":5.43643,"is_reserved":false,"is_disabled":false,"rental_uris":{"android":"levelo://app?vid=0be72a79-67f5-4d62-97ea-1e17dabae9e2","ios":"levelo://app?vid=0be72a79-67f5-4d62-97ea-1e17dabae9e2"},"vehicle_type_id":"4","last_reported":1704294425,"current_range_meters":23200,"station_id":"ce4bhpp2rcd13ifvqhfg","pricing_plan_id":"free"},{"bike_id":"fe7798b1-462f-4990-bda9-c9add3430ef3","system_id":"levelo_inurba_marseille","lat":43.291675,"lon":5.371583,"is_reserved":false,"is_disabled":false,"rental_uris":{"android":"levelo://app?vid=fe7798b1-462f-4990-bda9-c9add3430ef3","ios":"levelo://app?vid=fe7798b1-462f-4990-bda9-c9add3430ef3"},"vehicle_type_id":"4","last_reported":1704294425,"current_range_meters":12000,"station_id":"ce4bha92rcd13ifvqeh0","pricing_plan_id":"free"},{"bike_id":"bee0d25e-5928-4166-a427-6e32ca8691d8","system_id":"levelo_inurba_marseille","lat":43.29252,"lon":5.37623,"is_reserved":false,"is_disabled":false,"rental_uris":{"android":"levelo://app?vid=bee0d25e-5928-4166-a427-6e32ca8691d8","ios":"levelo://app?vid=bee0d25e-5928-4166-a427-6e32ca8691d8"},"vehicle_type_id":"4","last_reported":1704294425,"current_range_meters":15200,"station_id":"","pricing_plan_id":"free"},{"bike_id":"d19de365-5c1d-45fd-a30b-4b310ae94f68","system_id":"levelo_inurba_marseille","lat":43.298703,"lon":5.389043,"is_reserved":false,"is_disabled":false,"rental_uris":{"android":"levelo://app?vid=d19de365-5c1d-45fd-a30b-4b310ae94f68","ios":"levelo://app?vid=d19de365-5c1d-45fd-a30b-4b310ae94f68"},"vehicle_type_id":"4","last_reported":1704294425,"current_range_meters":13600,"station_id":"","pricing_plan_id":"free"},{"bike_id":"bfcf59b0-4489-4e68-94f1-4a31d1b628a7","system_id":"levelo_inurba_marseille","lat":43.291671,"lon":5.371575,"is_reserved":false,"is_disabled":false,"rental_uris":{"android":"levelo://app?vid=bfcf59b0-4489-4e68-94f1-4a31d1b628a7","ios":"levelo://app?vid=bfcf59b0-4489-4e68-94f1-4a31d1b628a7"},"vehicle_type_id":"4","last_reported":1704294425,"current_range_meters":17200,"station_id":"ce4bha92rcd13ifvqeh0","pricing_plan_id":"free"},{"bike_id":"247d3ddd-e96d-4297-aea2-7c0ff64d8c99","system_id":"levelo_inurba_marseille","lat":43.2987,"lon":5.38913,"is_reserved":false,"is_disabled":false,"rental_uris":{"android":"levelo://app?vid=247d3ddd-e96d-4297-aea2-7c0ff64d8c99","ios":"levelo://app?vid=247d3ddd-e96d-4297-aea2-7c0ff64d8c99"},"vehicle_type_id":"4","last_reported":1704294425,"current_range_meters":23200,"station_id":"","pricing_plan_id":"free"},{"bike_id":"efb93fe6-5d76-41c4-a8b2-4dcd457af2f5","system_id":"levelo_inurba_marseille","lat":43.313291,"lon":5.396838,"is_reserved":false,"is_disabled":false,"rental_uris":{"android":"levelo://app?vid=efb93fe6-5d76-41c4-a8b2-4dcd457af2f5","ios":"levelo://app?vid=efb93fe6-5d76-41c4-a8b2-4dcd457af2f5"},"vehicle_type_id":"4","last_reported":1704294425,"current_range_meters":3600,"station_id":"ce4bgvp2rcd13ifvqcu0","pricing_plan_id":"free"},{"bike_id":"d6da159b-dd71-4e1f-b5fa-b6844d0df452","system_id":"levelo_inurba_marseille","lat":43.309038,"lon":5.396546,"is_reserved":false,"is_disabled":false,"rental_uris":{"android":"levelo://app?vid=d6da159b-dd71-4e1f-b5fa-b6844d0df452","ios":"levelo://app?vid=d6da159b-dd71-4e1f-b5fa-b6844d0df452"},"vehicle_type_id":"4","last_reported":1704294425,"current_range_meters":21200,"station_id":"ce4bh012rcd13ifvqcv0","pricing_plan_id":"free"},{"bike_id":"fbce639c-a0f0-4b40-aec7-09486fa4b0a8","system_id":"levelo_inurba_marseille","lat":43.313291,"lon":5.396838,"is_reserved":false,"is_disabled":false,"rental_uris":{"android":"levelo://app?vid=fbce639c-a0f0-4b40-aec7-09486fa4b0a8","ios":"levelo://app?vid=fbce639c-a0f0-4b40-aec7-09486fa4b0a8"},"vehicle_type_id":"4","last_reported":1704294425,"current_range_meters":30400,"station_id":"ce4bgvp2rcd13ifvqcu0","pricing_plan_id":"free"},{"bike_id":"ee866b07-a8c3-4b1d-9214-5398f79159a0","system_id":"levelo_inurba_marseille","lat":43.313291,"lon":5.396838,"is_reserved":false,"is_disabled":false,"rental_uris":{"android":"levelo://app?vid=ee866b07-a8c3-4b1d-9214-5398f79159a0","ios":"levelo://app?vid=ee866b07-a8c3-4b1d-9214-5398f79159a0"},"vehicle_type_id":"4","last_reported":1704294425,"current_range_meters":12000,"station_id":"ce4bgvp2rcd13ifvqcu0","pricing_plan_id":"free"},{"bike_id":"19bc7b9a-fd08-4e45-b70d-a36f6170f369","system_id":"levelo_inurba_marseille","lat":43.309038,"lon":5.396546,"is_reserved":false,"is_disabled":false,"rental_uris":{"android":"levelo://app?vid=19bc7b9a-fd08-4e45-b70d-a36f6170f369","ios":"levelo://app?vid=19bc7b9a-fd08-4e45-b70d-a36f6170f369"},"vehicle_type_id":"4","last_reported":1704294425,"current_range_meters":12800,"station_id":"ce4bh012rcd13ifvqcv0","pricing_plan_id":"free"},{"bike_id":"84c38eaf-7806-40c7-94b8-5477c93af587","system_id":"levelo_inurba_marseille","lat":43.29529,"lon":5.385581,"is_reserved":false,"is_disabled":false,"rental_uris":{"android":"levelo://app?vid=84c38eaf-7806-40c7-94b8-5477c93af587","ios":"levelo://app?vid=84c38eaf-7806-40c7-94b8-5477c93af587"},"vehicle_type_id":"4","last_reported":1704294425,"current_range_meters":4000,"station_id":"ce4bgih2rcd13ifvqba0","pricing_plan_id":"free"},{"bike_id":"4d069cce-94ca-426b-b03d-2f234509d7eb","system_id":"levelo_inurba_marseille","lat":43.29529,"lon":5.385581,"is_reserved":false,"is_disabled":false,"rental_uris":{"android":"levelo://app?vid=4d069cce-94ca-426b-b03d-2f234509d7eb","ios":"levelo://app?vid=4d069cce-94ca-426b-b03d-2f234509d7eb"},"vehicle_type_id":"4","last_reported":1704294425,"current_range_meters":12800,"station_id":"ce4bgih2rcd13ifvqba0","pricing_plan_id":"free"},{"bike_id":"73bc58d5-d645-49c8-9e4c-aeeb8b4881cb","system_id":"levelo_inurba_marseille","lat":43.290779,"lon":5.371482,"is_reserved":false,"is_disabled":false,"rental_uris":{"android":"levelo://app?vid=73bc58d5-d645-49c8-9e4c-aeeb8b4881cb","ios":"levelo://app?vid=73bc58d5-d645-49c8-9e4c-aeeb8b4881cb"},"vehicle_type_id":"4","last_reported":1704294425,"current_range_meters":23200,"station_id":"ce4bh5p2rcd13ifvqe4g","pricing_plan_id":"free"},{"bike_id":"a8a19f1d-9652-407f-a5a1-4fb09147a5d1","system_id":"levelo_inurba_marseille","lat":43.302008,"lon":5.394694,"is_reserved":false,"is_disabled":false,"rental_uris":{"android":"levelo://app?vid=a8a19f1d-9652-407f-a5a1-4fb09147a5d1","ios":"levelo://app?vid=a8a19f1d-9652-407f-a5a1-4fb09147a5d1"},"vehicle_type_id":"4","last_reported":1704294425,"current_range_meters":9200,"station_id":"ce4bh0p2rcd13ifvqd70","pricing_plan_id":"free"},{"bike_id":"81b1d78b-08d7-4edf-85b8-9735df0e8928","system_id":"levelo_inurba_marseille","lat":43.290624,"lon":5.359245,"is_reserved":false,"is_disabled":false,"rental_uris":{"android":"levelo://app?vid=81b1d78b-08d7-4edf-85b8-9735df0e8928","ios":"levelo://app?vid=81b1d78b-08d7-4edf-85b8-9735df0e8928"},"vehicle_type_id":"4","last_reported":1704294425,"current_range_meters":30400,"station_id":"ce4bha92rcd13ifvqeg0","pricing_plan_id":"free"},{"bike_id":"28a3a281-0748-4c2b-bcf0-3ee2c96ad4de","system_id":"levelo_inurba_marseille","lat":43.289468,"lon":5.363719,"is_reserved":false,"is_disabled":false,"rental_uris":{"android":"levelo://app?vid=28a3a281-0748-4c2b-bcf0-3ee2c96ad4de","ios":"levelo://app?vid=28a3a281-0748-4c2b-bcf0-3ee2c96ad4de"},"vehicle_type_id":"4","last_reported":1704294425,"current_range_meters":28800,"station_id":"ce4bhc92rcd13ifvqetg","pricing_plan_id":"free"},{"bike_id":"0c437dcb-5577-4cd3-8d8c-ab3cd599e1f1","system_id":"levelo_inurba_marseille","lat":43.292587,"lon":5.38329,"is_reserved":false,"is_disabled":false,"rental_uris":{"android":"levelo://app?vid=0c437dcb-5577-4cd3-8d8c-ab3cd599e1f1","ios":"levelo://app?vid=0c437dcb-5577-4cd3-8d8c-ab3cd599e1f1"},"vehicle_type_id":"4","last_reported":1704294425,"current_range_meters":21600,"station_id":"","pricing_plan_id":"free"},{"bike_id":"f7b193aa-92aa-44e8-bcf7-533a849baaca","system_id":"levelo_inurba_marseille","lat":43.289468,"lon":5.363719,"is_reserved":false,"is_disabled":false,"rental_uris":{"android":"levelo://app?vid=f7b193aa-92aa-44e8-bcf7-533a849baaca","ios":"levelo://app?vid=f7b193aa-92aa-44e8-bcf7-533a849baaca"},"vehicle_type_id":"4","last_reported":1704294425,"current_range_meters":30400,"station_id":"ce4bhc92rcd13ifvqetg","pricing_plan_id":"free"},{"bike_id":"f9d4cad3-be6c-4d73-9258-dc7ab40ce2ba","system_id":"levelo_inurba_marseille","lat":43.290104,"lon":5.356111,"is_reserved":false,"is_disabled":false,"rental_uris":{"android":"levelo://app?vid=f9d4cad3-be6c-4d73-9258-dc7ab40ce2ba","ios":"levelo://app?vid=f9d4cad3-be6c-4d73-9258-dc7ab40ce2ba"},"vehicle_type_id":"4","last_reported":1704294425,"current_range_meters":26000,"station_id":"ce4bhb92rcd13ifvqen0","pricing_plan_id":"free"},{"bike_id":"70d97893-c315-4759-95f0-411b95463b9d","system_id":"levelo_inurba_marseille","lat":43.290104,"lon":5.356111,"is_reserved":false,"is_disabled":false,"rental_uris":{"android":"levelo://app?vid=70d97893-c315-4759-95f0-411b95463b9d","ios":"levelo://app?vid=70d97893-c315-4759-95f0-411b95463b9d"},"vehicle_type_id":"4","last_reported":1704294425,"current_range_meters":26000,"station_id":"ce4bhb92rcd13ifvqen0","pricing_plan_id":"free"},{"bike_id":"92df0c36-2d3e-4f06-b056-49fd73589bd4","system_id":"levelo_inurba_marseille","lat":43.290055,"lon":5.356203,"is_reserved":false,"is_disabled":false,"rental_uris":{"android":"levelo://app?vid=92df0c36-2d3e-4f06-b056-49fd73589bd4","ios":"levelo://app?vid=92df0c36-2d3e-4f06-b056-49fd73589bd4"},"vehicle_type_id":"4","last_reported":1704294425,"current_range_meters":18800,"station_id":"","pricing_plan_id":"free"},{"bike_id":"c08f9d75-98fe-4ae3-b50a-020c8505916a","system_id":"levelo_inurba_marseille","lat":43.290104,"lon":5.356111,"is_reserved":false,"is_disabled":false,"rental_uris":{"android":"levelo://app?vid=c08f9d75-98fe-4ae3-b50a-020c8505916a","ios":"levelo://app?vid=c08f9d75-98fe-4ae3-b50a-020c8505916a"},"vehicle_type_id":"4","last_reported":1704294425,"current_range_meters":20400,"station_id":"ce4bhb92rcd13ifvqen0","pricing_plan_id":"free"},{"bike_id":"2f1ef7c7-6042-41ad-8c69-16b674f69734","system_id":"levelo_inurba_marseille","lat":43.290995,"lon":5.381361,"is_reserved":false,"is_disabled":false,"rental_uris":{"android":"levelo://app?vid=2f1ef7c7-6042-41ad-8c69-16b674f69734","ios":"levelo://app?vid=2f1ef7c7-6042-41ad-8c69-16b674f69734"},"vehicle_type_id":"4","last_reported":1704294425,"current_range_meters":0,"station_id":"ce4bh512rcd13ifvqe2g","pricing_plan_id":"free"},{"bike_id":"bda902b0-aed4-4db1-a0d9-f1005ac9faa4","system_id":"levelo_inurba_marseille","lat":43.29094,"lon":5.381255,"is_reserved":false,"is_disabled":false,"rental_uris":{"android":"levelo://app?vid=bda902b0-aed4-4db1-a0d9-f1005ac9faa4","ios":"levelo://app?vid=bda902b0-aed4-4db1-a0d9-f1005ac9faa4"},"vehicle_type_id":"4","last_reported":1704294425,"current_range_meters":18400,"station_id":"ce4bh512rcd13ifvqe2g","pricing_plan_id":"free"},{"bike_id":"34d7a9d9-ff14-43af-baa1-271eb0bb50fc","system_id":"levelo_inurba_marseille","lat":43.297851,"lon":5.393273,"is_reserved":false,"is_disabled":false,"rental_uris":{"android":"levelo://app?vid=34d7a9d9-ff14-43af-baa1-271eb0bb50fc","ios":"levelo://app?vid=34d7a9d9-ff14-43af-baa1-271eb0bb50fc"},"vehicle_type_id":"4","last_reported":1704294425,"current_range_meters":12800,"station_id":"","pricing_plan_id":"free"},{"bike_id":"7479bc3b-cce4-4d11-a0c2-89a1e4cfa610","system_id":"levelo_inurba_marseille","lat":43.297815,"lon":5.393548,"is_reserved":false,"is_disabled":false,"rental_uris":{"android":"levelo://app?vid=7479bc3b-cce4-4d11-a0c2-89a1e4cfa610","ios":"levelo://app?vid=7479bc3b-cce4-4d11-a0c2-89a1e4cfa610"},"vehicle_type_id":"4","last_reported":1704294425,"current_range_meters":18000,"station_id":"chh1huq6cuj3fo74tm60","pricing_plan_id":"free"},{"bike_id":"b4dc5f58-d698-47e4-9d04-a65a1aac924a","system_id":"levelo_inurba_marseille","lat":43.33013,"lon":5.39043,"is_reserved":false,"is_disabled":false,"rental_uris":{"android":"levelo://app?vid=b4dc5f58-d698-47e4-9d04-a65a1aac924a","ios":"levelo://app?vid=b4dc5f58-d698-47e4-9d04-a65a1aac924a"},"vehicle_type_id":"4","last_reported":1704294425,"current_range_meters":13200,"station_id":"","pricing_plan_id":"free"},{"bike_id":"b9f1870d-91b7-4991-8da2-fb88515c5d8e","system_id":"levelo_inurba_marseille","lat":43.330442,"lon":5.389148,"is_reserved":false,"is_disabled":false,"rental_uris":{"android":"levelo://app?vid=b9f1870d-91b7-4991-8da2-fb88515c5d8e","ios":"levelo://app?vid=b9f1870d-91b7-4991-8da2-fb88515c5d8e"},"vehicle_type_id":"4","last_reported":1704294425,"current_range_meters":18800,"station_id":"ce4bhr92rcd13ifvqhrg","pricing_plan_id":"free"},{"bike_id":"a45508dc-3e20-4dc2-a3f2-c48092cac22d","system_id":"levelo_inurba_marseille","lat":43.3302,"lon":5.3904,"is_reserved":false,"is_disabled":false,"rental_uris":{"android":"levelo://app?vid=a45508dc-3e20-4dc2-a3f2-c48092cac22d","ios":"levelo://app?vid=a45508dc-3e20-4dc2-a3f2-c48092cac22d"},"vehicle_type_id":"4","last_reported":1704294425,"current_range_meters":7200,"station_id":"","pricing_plan_id":"free"},{"bike_id":"a4544299-4117-4ba4-98ad-2dcd1cebe1e8","system_id":"levelo_inurba_marseille","lat":43.33023,"lon":5.39044,"is_reserved":false,"is_disabled":false,"rental_uris":{"android":"levelo://app?vid=a4544299-4117-4ba4-98ad-2dcd1cebe1e8","ios":"levelo://app?vid=a4544299-4117-4ba4-98ad-2dcd1cebe1e8"},"vehicle_type_id":"4","last_reported":1704294425,"current_range_meters":24400,"station_id":"","pricing_plan_id":"free"},{"bike_id":"6afec812-9096-4245-94a5-b175c3cc72ef","system_id":"levelo_inurba_marseille","lat":43.28856,"lon":5.358371,"is_reserved":false,"is_disabled":false,"rental_uris":{"android":"levelo://app?vid=6afec812-9096-4245-94a5-b175c3cc72ef","ios":"levelo://app?vid=6afec812-9096-4245-94a5-b175c3cc72ef"},"vehicle_type_id":"4","last_reported":1704294425,"current_range_meters":27600,"station_id":"ce4bhb12rcd13ifvqem0","pricing_plan_id":"free"},{"bike_id":"2c0d1c7a-52d6-45c8-b950-66774576aada","system_id":"levelo_inurba_marseille","lat":43.33743,"lon":5.37443,"is_reserved":false,"is_disabled":false,"rental_uris":{"android":"levelo://app?vid=2c0d1c7a-52d6-45c8-b950-66774576aada","ios":"levelo://app?vid=2c0d1c7a-52d6-45c8-b950-66774576aada"},"vehicle_type_id":"4","last_reported":1704294425,"current_range_meters":30800,"station_id":"","pricing_plan_id":"free"},{"bike_id":"c473dc02-8994-4174-a9e4-3a30dad995ff","system_id":"levelo_inurba_marseille","lat":43.3375,"lon":5.37442,"is_reserved":false,"is_disabled":false,"rental_uris":{"android":"levelo://app?vid=c473dc02-8994-4174-a9e4-3a30dad995ff","ios":"levelo://app?vid=c473dc02-8994-4174-a9e4-3a30dad995ff"},"vehicle_type_id":"4","last_reported":1704294425,"current_range_meters":31200,"station_id":"","pricing_plan_id":"free"},{"bike_id":"817d297f-dabc-4175-b41d-04cbd4f6f3d2","system_id":"levelo_inurba_marseille","lat":43.33756,"lon":5.37454,"is_reserved":false,"is_disabled":false,"rental_uris":{"android":"levelo://app?vid=817d297f-dabc-4175-b41d-04cbd4f6f3d2","ios":"levelo://app?vid=817d297f-dabc-4175-b41d-04cbd4f6f3d2"},"vehicle_type_id":"4","last_reported":1704294425,"current_range_meters":30400,"station_id":"","pricing_plan_id":"free"},{"bike_id":"b8bde3e3-9e02-40df-8139-6717b2bf4add","system_id":"levelo_inurba_marseille","lat":43.301117,"lon":5.398795,"is_reserved":false,"is_disabled":false,"rental_uris":{"android":"levelo://app?vid=b8bde3e3-9e02-40df-8139-6717b2bf4add","ios":"levelo://app?vid=b8bde3e3-9e02-40df-8139-6717b2bf4add"},"vehicle_type_id":"4","last_reported":1704294425,"current_range_meters":29200,"station_id":"ce4bh0h2rcd13ifvqd40","pricing_plan_id":"free"},{"bike_id":"7c76d4d5-ac57-4d51-a062-3d765e0f22a5","system_id":"levelo_inurba_marseille","lat":43.286961,"lon":5.373785,"is_reserved":false,"is_disabled":false,"rental_uris":{"android":"levelo://app?vid=7c76d4d5-ac57-4d51-a062-3d765e0f22a5","ios":"levelo://app?vid=7c76d4d5-ac57-4d51-a062-3d765e0f22a5"},"vehicle_type_id":"4","last_reported":1704294425,"current_range_meters":17200,"station_id":"ce4bh3p2rcd13ifvqdq0","pricing_plan_id":"free"},{"bike_id":"e1e5e684-bdd2-4d87-bdfe-e08cc9634a1c","system_id":"levelo_inurba_marseille","lat":43.295194,"lon":5.39397,"is_reserved":false,"is_disabled":false,"rental_uris":{"android":"levelo://app?vid=e1e5e684-bdd2-4d87-bdfe-e08cc9634a1c","ios":"levelo://app?vid=e1e5e684-bdd2-4d87-bdfe-e08cc9634a1c"},"vehicle_type_id":"4","last_reported":1704294425,"current_range_meters":23200,"station_id":"ce4bh292rcd13ifvqdf0","pricing_plan_id":"free"},{"bike_id":"a16e0904-d896-45d1-8e87-453db30a89a2","system_id":"levelo_inurba_marseille","lat":43.298681,"lon":5.397225,"is_reserved":false,"is_disabled":false,"rental_uris":{"android":"levelo://app?vid=a16e0904-d896-45d1-8e87-453db30a89a2","ios":"levelo://app?vid=a16e0904-d896-45d1-8e87-453db30a89a2"},"vehicle_type_id":"4","last_reported":1704294425,"current_range_meters":20800,"station_id":"ce4bh0h2rcd13ifvqd50","pricing_plan_id":"free"},{"bike_id":"63f846f7-9bcd-4753-bbad-ca60aad8d784","system_id":"levelo_inurba_marseille","lat":43.298681,"lon":5.397225,"is_reserved":false,"is_disabled":false,"rental_uris":{"android":"levelo://app?vid=63f846f7-9bcd-4753-bbad-ca60aad8d784","ios":"levelo://app?vid=63f846f7-9bcd-4753-bbad-ca60aad8d784"},"vehicle_type_id":"4","last_reported":1704294425,"current_range_meters":24400,"station_id":"ce4bh0h2rcd13ifvqd50","pricing_plan_id":"free"},{"bike_id":"35eb067a-34ce-4053-93a5-894ea7d21efa","system_id":"levelo_inurba_marseille","lat":43.286961,"lon":5.373785,"is_reserved":false,"is_disabled":false,"rental_uris":{"android":"levelo://app?vid=35eb067a-34ce-4053-93a5-894ea7d21efa","ios":"levelo://app?vid=35eb067a-34ce-4053-93a5-894ea7d21efa"},"vehicle_type_id":"4","last_reported":1704294425,"current_range_meters":2000,"station_id":"ce4bh3p2rcd13ifvqdq0","pricing_plan_id":"free"},{"bike_id":"7f2365ad-4054-4aef-9d6a-277241efe940","system_id":"levelo_inurba_marseille","lat":43.289307,"lon":5.38406,"is_reserved":false,"is_disabled":false,"rental_uris":{"android":"levelo://app?vid=7f2365ad-4054-4aef-9d6a-277241efe940","ios":"levelo://app?vid=7f2365ad-4054-4aef-9d6a-277241efe940"},"vehicle_type_id":"4","last_reported":1704294425,"current_range_meters":7200,"station_id":"ce4bh612rcd13ifvqe6g","pricing_plan_id":"free"},{"bike_id":"201cb8ea-7e1b-451e-bbd6-0429c7175abc","system_id":"levelo_inurba_marseille","lat":43.302759,"lon":5.400793,"is_reserved":false,"is_disabled":false,"rental_uris":{"android":"levelo://app?vid=201cb8ea-7e1b-451e-bbd6-0429c7175abc","ios":"levelo://app?vid=201cb8ea-7e1b-451e-bbd6-0429c7175abc"},"vehicle_type_id":"4","last_reported":1704294425,"current_range_meters":26800,"station_id":"ce4bgvh2rcd13ifvqcs0","pricing_plan_id":"free"},{"bike_id":"7a661121-716e-49e6-91d2-a4ce63d639af","system_id":"levelo_inurba_marseille","lat":43.316828,"lon":5.404723,"is_reserved":false,"is_disabled":false,"rental_uris":{"android":"levelo://app?vid=7a661121-716e-49e6-91d2-a4ce63d639af","ios":"levelo://app?vid=7a661121-716e-49e6-91d2-a4ce63d639af"},"vehicle_type_id":"4","last_reported":1704294425,"current_range_meters":2800,"station_id":"ce4bh012rcd13ifvqd00","pricing_plan_id":"free"},{"bike_id":"38eaf69c-239d-404a-8346-5ac0fa6ee2d9","system_id":"levelo_inurba_marseille","lat":43.316828,"lon":5.404723,"is_reserved":false,"is_disabled":false,"rental_uris":{"android":"levelo://app?vid=38eaf69c-239d-404a-8346-5ac0fa6ee2d9","ios":"levelo://app?vid=38eaf69c-239d-404a-8346-5ac0fa6ee2d9"},"vehicle_type_id":"4","last_reported":1704294425,"current_range_meters":22800,"station_id":"ce4bh012rcd13ifvqd00","pricing_plan_id":"free"},{"bike_id":"7cf6f59e-0082-4500-a548-4e18386dcc2d","system_id":"levelo_inurba_marseille","lat":43.316828,"lon":5.404723,"is_reserved":false,"is_disabled":false,"rental_uris":{"android":"levelo://app?vid=7cf6f59e-0082-4500-a548-4e18386dcc2d","ios":"levelo://app?vid=7cf6f59e-0082-4500-a548-4e18386dcc2d"},"vehicle_type_id":"4","last_reported":1704294425,"current_range_meters":10800,"station_id":"ce4bh012rcd13ifvqd00","pricing_plan_id":"free"},{"bike_id":"7d203224-14f0-461f-ac87-fa1e1bc07b8d","system_id":"levelo_inurba_marseille","lat":43.284538,"lon":5.358657,"is_reserved":false,"is_disabled":false,"rental_uris":{"android":"levelo://app?vid=7d203224-14f0-461f-ac87-fa1e1bc07b8d","ios":"levelo://app?vid=7d203224-14f0-461f-ac87-fa1e1bc07b8d"},"vehicle_type_id":"4","last_reported":1704294425,"current_range_meters":31200,"station_id":"ce4bhah2rcd13ifvqei0","pricing_plan_id":"free"},{"bike_id":"d576d866-cf37-4242-ac61-4867cb565cf6","system_id":"levelo_inurba_marseille","lat":43.285848,"lon":5.350787,"is_reserved":false,"is_disabled":false,"rental_uris":{"android":"levelo://app?vid=d576d866-cf37-4242-ac61-4867cb565cf6","ios":"levelo://app?vid=d576d866-cf37-4242-ac61-4867cb565cf6"},"vehicle_type_id":"4","last_reported":1704294425,"current_range_meters":27600,"station_id":"ce4bhch2rcd13ifvqeug","pricing_plan_id":"free"},{"bike_id":"5f0bf8c8-cb8d-489f-88ea-5299108b7628","system_id":"levelo_inurba_marseille","lat":43.28419,"lon":5.37519,"is_reserved":false,"is_disabled":false,"rental_uris":{"android":"levelo://app?vid=5f0bf8c8-cb8d-489f-88ea-5299108b7628","ios":"levelo://app?vid=5f0bf8c8-cb8d-489f-88ea-5299108b7628"},"vehicle_type_id":"4","last_reported":1704294425,"current_range_meters":0,"station_id":"ce4bh412rcd13ifvqds0","pricing_plan_id":"free"},{"bike_id":"62606c3d-ec29-42b8-9696-7add9bc27a67","system_id":"levelo_inurba_marseille","lat":43.284135,"lon":5.37517,"is_reserved":false,"is_disabled":false,"rental_uris":{"android":"levelo://app?vid=62606c3d-ec29-42b8-9696-7add9bc27a67","ios":"levelo://app?vid=62606c3d-ec29-42b8-9696-7add9bc27a67"},"vehicle_type_id":"4","last_reported":1704294425,"current_range_meters":27200,"station_id":"ce4bh412rcd13ifvqds0","pricing_plan_id":"free"},{"bike_id":"df0caa3f-e24a-46ad-b902-8e54f3e15ea0","system_id":"levelo_inurba_marseille","lat":43.283998,"lon":5.375062,"is_reserved":false,"is_disabled":false,"rental_uris":{"android":"levelo://app?vid=df0caa3f-e24a-46ad-b902-8e54f3e15ea0","ios":"levelo://app?vid=df0caa3f-e24a-46ad-b902-8e54f3e15ea0"},"vehicle_type_id":"4","last_reported":1704294425,"current_range_meters":18000,"station_id":"ce4bh412rcd13ifvqds0","pricing_plan_id":"free"},{"bike_id":"4930b6a2-d61b-4dd8-8a5d-d2f675702470","system_id":"levelo_inurba_marseille","lat":43.295713,"lon":5.399639,"is_reserved":false,"is_disabled":false,"rental_uris":{"android":"levelo://app?vid=4930b6a2-d61b-4dd8-8a5d-d2f675702470","ios":"levelo://app?vid=4930b6a2-d61b-4dd8-8a5d-d2f675702470"},"vehicle_type_id":"4","last_reported":1704294425,"current_range_meters":14000,"station_id":"ce4bh312rcd13ifvqdj0","pricing_plan_id":"free"},{"bike_id":"9040053c-07d0-4171-b311-12ec387820f5","system_id":"levelo_inurba_marseille","lat":43.33717,"lon":5.391857,"is_reserved":false,"is_disabled":false,"rental_uris":{"android":"levelo://app?vid=9040053c-07d0-4171-b311-12ec387820f5","ios":"levelo://app?vid=9040053c-07d0-4171-b311-12ec387820f5"},"vehicle_type_id":"4","last_reported":1704294425,"current_range_meters":31200,"station_id":"ce4bhr92rcd13ifvqhsg","pricing_plan_id":"free"},{"bike_id":"c1d05fcc-95b3-4c08-8bdf-08e668814297","system_id":"levelo_inurba_marseille","lat":43.337168,"lon":5.391825,"is_reserved":false,"is_disabled":false,"rental_uris":{"android":"levelo://app?vid=c1d05fcc-95b3-4c08-8bdf-08e668814297","ios":"levelo://app?vid=c1d05fcc-95b3-4c08-8bdf-08e668814297"},"vehicle_type_id":"4","last_reported":1704294425,"current_range_meters":27600,"station_id":"ce4bhr92rcd13ifvqhsg","pricing_plan_id":"free"},{"bike_id":"541c20ee-763f-4697-b50a-7c17d2dbd70d","system_id":"levelo_inurba_marseille","lat":43.323464,"lon":5.406297,"is_reserved":false,"is_disabled":false,"rental_uris":{"android":"levelo://app?vid=541c20ee-763f-4697-b50a-7c17d2dbd70d","ios":"levelo://app?vid=541c20ee-763f-4697-b50a-7c17d2dbd70d"},"vehicle_type_id":"4","last_reported":1704294425,"current_range_meters":27600,"station_id":"ce4bhq92rcd13ifvqhjg","pricing_plan_id":"free"},{"bike_id":"2bfd2e67-83db-47ae-884c-bf87bbcd9ec7","system_id":"levelo_inurba_marseille","lat":43.28471,"lon":5.38429,"is_reserved":false,"is_disabled":false,"rental_uris":{"android":"levelo://app?vid=2bfd2e67-83db-47ae-884c-bf87bbcd9ec7","ios":"levelo://app?vid=2bfd2e67-83db-47ae-884c-bf87bbcd9ec7"},"vehicle_type_id":"4","last_reported":1704294425,"current_range_meters":20800,"station_id":"ce4bh512rcd13ifvqe3g","pricing_plan_id":"free"},{"bike_id":"a98304e0-e3a2-4748-90c0-981767c54353","system_id":"levelo_inurba_marseille","lat":43.283494,"lon":5.380945,"is_reserved":false,"is_disabled":false,"rental_uris":{"android":"levelo://app?vid=a98304e0-e3a2-4748-90c0-981767c54353","ios":"levelo://app?vid=a98304e0-e3a2-4748-90c0-981767c54353"},"vehicle_type_id":"4","last_reported":1704294425,"current_range_meters":24400,"station_id":"ce4bh412rcd13ifvqdr0","pricing_plan_id":"free"},{"bike_id":"3041396b-fd70-45ac-9591-40cab3fa1843","system_id":"levelo_inurba_marseille","lat":43.284214,"lon":5.349706,"is_reserved":false,"is_disabled":false,"rental_uris":{"android":"levelo://app?vid=3041396b-fd70-45ac-9591-40cab3fa1843","ios":"levelo://app?vid=3041396b-fd70-45ac-9591-40cab3fa1843"},"vehicle_type_id":"4","last_reported":1704294425,"current_range_meters":27600,"station_id":"ce4bhbh2rcd13ifvqepg","pricing_plan_id":"free"},{"bike_id":"cd753fa0-fd69-45d9-850c-95fb0cf2f42a","system_id":"levelo_inurba_marseille","lat":43.284217,"lon":5.349697,"is_reserved":false,"is_disabled":false,"rental_uris":{"android":"levelo://app?vid=cd753fa0-fd69-45d9-850c-95fb0cf2f42a","ios":"levelo://app?vid=cd753fa0-fd69-45d9-850c-95fb0cf2f42a"},"vehicle_type_id":"4","last_reported":1704294425,"current_range_meters":2400,"station_id":"ce4bhbh2rcd13ifvqepg","pricing_plan_id":"free"},{"bike_id":"871f1aa4-cfc8-481a-9f89-25bf1726789d","system_id":"levelo_inurba_marseille","lat":43.284219,"lon":5.3497,"is_reserved":false,"is_disabled":false,"rental_uris":{"android":"levelo://app?vid=871f1aa4-cfc8-481a-9f89-25bf1726789d","ios":"levelo://app?vid=871f1aa4-cfc8-481a-9f89-25bf1726789d"},"vehicle_type_id":"4","last_reported":1704294425,"current_range_meters":31200,"station_id":"ce4bhbh2rcd13ifvqepg","pricing_plan_id":"free"},{"bike_id":"4cc32faf-c266-4535-bdff-c42098dbefc9","system_id":"levelo_inurba_marseille","lat":43.3219,"lon":5.407847,"is_reserved":false,"is_disabled":false,"rental_uris":{"android":"levelo://app?vid=4cc32faf-c266-4535-bdff-c42098dbefc9","ios":"levelo://app?vid=4cc32faf-c266-4535-bdff-c42098dbefc9"},"vehicle_type_id":"4","last_reported":1704294425,"current_range_meters":19600,"station_id":"","pricing_plan_id":"free"},{"bike_id":"062d335d-9470-4169-ac15-ff93ff1a7d72","system_id":"levelo_inurba_marseille","lat":43.284219,"lon":5.3497,"is_reserved":false,"is_disabled":false,"rental_uris":{"android":"levelo://app?vid=062d335d-9470-4169-ac15-ff93ff1a7d72","ios":"levelo://app?vid=062d335d-9470-4169-ac15-ff93ff1a7d72"},"vehicle_type_id":"4","last_reported":1704294425,"current_range_meters":23200,"station_id":"ce4bhbh2rcd13ifvqepg","pricing_plan_id":"free"},{"bike_id":"4672b044-27cc-4203-8b3c-f493ee1950f1","system_id":"levelo_inurba_marseille","lat":43.284219,"lon":5.3497,"is_reserved":false,"is_disabled":false,"rental_uris":{"android":"levelo://app?vid=4672b044-27cc-4203-8b3c-f493ee1950f1","ios":"levelo://app?vid=4672b044-27cc-4203-8b3c-f493ee1950f1"},"vehicle_type_id":"4","last_reported":1704294425,"current_range_meters":30400,"station_id":"ce4bhbh2rcd13ifvqepg","pricing_plan_id":"free"},{"bike_id":"97e191f1-a5d4-4a98-b5dd-7a4035e31d31","system_id":"levelo_inurba_marseille","lat":43.284217,"lon":5.349697,"is_reserved":false,"is_disabled":false,"rental_uris":{"android":"levelo://app?vid=97e191f1-a5d4-4a98-b5dd-7a4035e31d31","ios":"levelo://app?vid=97e191f1-a5d4-4a98-b5dd-7a4035e31d31"},"vehicle_type_id":"4","last_reported":1704294425,"current_range_meters":26400,"station_id":"ce4bhbh2rcd13ifvqepg","pricing_plan_id":"free"},{"bike_id":"ab064ad2-6ac7-497e-9e45-47ee38ae5ad3","system_id":"levelo_inurba_marseille","lat":43.282754,"lon":5.350519,"is_reserved":false,"is_disabled":false,"rental_uris":{"android":"levelo://app?vid=ab064ad2-6ac7-497e-9e45-47ee38ae5ad3","ios":"levelo://app?vid=ab064ad2-6ac7-497e-9e45-47ee38ae5ad3"},"vehicle_type_id":"4","last_reported":1704294425,"current_range_meters":14400,"station_id":"ce4bhbp2rcd13ifvqerg","pricing_plan_id":"free"},{"bike_id":"d3fc6d06-044b-479a-baf7-58f55341b900","system_id":"levelo_inurba_marseille","lat":43.28269,"lon":5.35076,"is_reserved":false,"is_disabled":false,"rental_uris":{"android":"levelo://app?vid=d3fc6d06-044b-479a-baf7-58f55341b900","ios":"levelo://app?vid=d3fc6d06-044b-479a-baf7-58f55341b900"},"vehicle_type_id":"4","last_reported":1704294425,"current_range_meters":10400,"station_id":"ce4bhbp2rcd13ifvqerg","pricing_plan_id":"free"},{"bike_id":"fe6cb77b-8ab4-4271-8c19-533d2ba30560","system_id":"levelo_inurba_marseille","lat":43.2827,"lon":5.35065,"is_reserved":false,"is_disabled":false,"rental_uris":{"android":"levelo://app?vid=fe6cb77b-8ab4-4271-8c19-533d2ba30560","ios":"levelo://app?vid=fe6cb77b-8ab4-4271-8c19-533d2ba30560"},"vehicle_type_id":"4","last_reported":1704294425,"current_range_meters":5200,"station_id":"ce4bhbp2rcd13ifvqerg","pricing_plan_id":"free"},{"bike_id":"cae4f001-288d-4abf-bd61-93d2d2aae43a","system_id":"levelo_inurba_marseille","lat":43.282754,"lon":5.350519,"is_reserved":false,"is_disabled":false,"rental_uris":{"android":"levelo://app?vid=cae4f001-288d-4abf-bd61-93d2d2aae43a","ios":"levelo://app?vid=cae4f001-288d-4abf-bd61-93d2d2aae43a"},"vehicle_type_id":"4","last_reported":1704294425,"current_range_meters":26000,"station_id":"ce4bhbp2rcd13ifvqerg","pricing_plan_id":"free"},{"bike_id":"43031607-8e62-46b3-92f9-869f6055706d","system_id":"levelo_inurba_marseille","lat":43.2827,"lon":5.35062,"is_reserved":false,"is_disabled":false,"rental_uris":{"android":"levelo://app?vid=43031607-8e62-46b3-92f9-869f6055706d","ios":"levelo://app?vid=43031607-8e62-46b3-92f9-869f6055706d"},"vehicle_type_id":"4","last_reported":1704294425,"current_range_meters":16000,"station_id":"ce4bhbp2rcd13ifvqerg","pricing_plan_id":"free"},{"bike_id":"2deaec8f-c960-4299-9e51-5fcc37602fe8","system_id":"levelo_inurba_marseille","lat":43.283502,"lon":5.386471,"is_reserved":false,"is_disabled":false,"rental_uris":{"android":"levelo://app?vid=2deaec8f-c960-4299-9e51-5fcc37602fe8","ios":"levelo://app?vid=2deaec8f-c960-4299-9e51-5fcc37602fe8"},"vehicle_type_id":"4","last_reported":1704294425,"current_range_meters":23600,"station_id":"ce4bh492rcd13ifvqdvg","pricing_plan_id":"free"},{"bike_id":"f6ce9cd1-acc8-40c2-a575-0a58c24211be","system_id":"levelo_inurba_marseille","lat":43.282754,"lon":5.350519,"is_reserved":false,"is_disabled":false,"rental_uris":{"android":"levelo://app?vid=f6ce9cd1-acc8-40c2-a575-0a58c24211be","ios":"levelo://app?vid=f6ce9cd1-acc8-40c2-a575-0a58c24211be"},"vehicle_type_id":"4","last_reported":1704294425,"current_range_meters":20800,"station_id":"ce4bhbp2rcd13ifvqerg","pricing_plan_id":"free"},{"bike_id":"e8c1557c-516a-4cab-918c-e5d744fe3b13","system_id":"levelo_inurba_marseille","lat":43.282754,"lon":5.350519,"is_reserved":false,"is_disabled":false,"rental_uris":{"android":"levelo://app?vid=e8c1557c-516a-4cab-918c-e5d744fe3b13","ios":"levelo://app?vid=e8c1557c-516a-4cab-918c-e5d744fe3b13"},"vehicle_type_id":"4","last_reported":1704294425,"current_range_meters":23200,"station_id":"ce4bhbp2rcd13ifvqerg","pricing_plan_id":"free"},{"bike_id":"f3c3674e-fabd-4ba8-b6a7-e9819495e323","system_id":"levelo_inurba_marseille","lat":43.29041,"lon":5.399634,"is_reserved":false,"is_disabled":false,"rental_uris":{"android":"levelo://app?vid=f3c3674e-fabd-4ba8-b6a7-e9819495e323","ios":"levelo://app?vid=f3c3674e-fabd-4ba8-b6a7-e9819495e323"},"vehicle_type_id":"4","last_reported":1704294425,"current_range_meters":0,"station_id":"ce4bh392rcd13ifvqdm0","pricing_plan_id":"free"},{"bike_id":"a4eb3120-4634-4fc5-a331-bf81c67ce87c","system_id":"levelo_inurba_marseille","lat":43.284462,"lon":5.392121,"is_reserved":false,"is_disabled":false,"rental_uris":{"android":"levelo://app?vid=a4eb3120-4634-4fc5-a331-bf81c67ce87c","ios":"levelo://app?vid=a4eb3120-4634-4fc5-a331-bf81c67ce87c"},"vehicle_type_id":"4","last_reported":1704294425,"current_range_meters":16400,"station_id":"ce4bhoh2rcd13ifvqh5g","pricing_plan_id":"free"},{"bike_id":"1b388849-2476-4bc8-a56d-7ce92d9a55b7","system_id":"levelo_inurba_marseille","lat":43.326605,"lon":5.409903,"is_reserved":false,"is_disabled":false,"rental_uris":{"android":"levelo://app?vid=1b388849-2476-4bc8-a56d-7ce92d9a55b7","ios":"levelo://app?vid=1b388849-2476-4bc8-a56d-7ce92d9a55b7"},"vehicle_type_id":"4","last_reported":1704294425,"current_range_meters":31200,"station_id":"ce4bhpp2rcd13ifvqhgg","pricing_plan_id":"free"},{"bike_id":"84c882ac-5c3c-4594-8314-cac9d01e2e80","system_id":"levelo_inurba_marseille","lat":43.279087,"lon":5.380114,"is_reserved":false,"is_disabled":false,"rental_uris":{"android":"levelo://app?vid=84c882ac-5c3c-4594-8314-cac9d01e2e80","ios":"levelo://app?vid=84c882ac-5c3c-4594-8314-cac9d01e2e80"},"vehicle_type_id":"4","last_reported":1704294425,"current_range_meters":1600,"station_id":"ce4bhf92rcd13ifvqf50","pricing_plan_id":"free"},{"bike_id":"36176871-6889-4fc9-9b9e-3941cddddf51","system_id":"levelo_inurba_marseille","lat":43.287154,"lon":5.399979,"is_reserved":false,"is_disabled":false,"rental_uris":{"android":"levelo://app?vid=36176871-6889-4fc9-9b9e-3941cddddf51","ios":"levelo://app?vid=36176871-6889-4fc9-9b9e-3941cddddf51"},"vehicle_type_id":"4","last_reported":1704294425,"current_range_meters":0,"station_id":"ce4bho92rcd13ifvqh3g","pricing_plan_id":"free"},{"bike_id":"1d7d0b44-395f-4e21-af9d-8af1ed86a5aa","system_id":"levelo_inurba_marseille","lat":43.299579,"lon":5.413255,"is_reserved":false,"is_disabled":false,"rental_uris":{"android":"levelo://app?vid=1d7d0b44-395f-4e21-af9d-8af1ed86a5aa","ios":"levelo://app?vid=1d7d0b44-395f-4e21-af9d-8af1ed86a5aa"},"vehicle_type_id":"4","last_reported":1704294425,"current_range_meters":26400,"station_id":"ce4bhp12rcd13ifvqh9g","pricing_plan_id":"free"},{"bike_id":"821eb4e9-23a2-4e14-962a-e458c9c22bf1","system_id":"levelo_inurba_marseille","lat":43.279742,"lon":5.38744,"is_reserved":false,"is_disabled":false,"rental_uris":{"android":"levelo://app?vid=821eb4e9-23a2-4e14-962a-e458c9c22bf1","ios":"levelo://app?vid=821eb4e9-23a2-4e14-962a-e458c9c22bf1"},"vehicle_type_id":"4","last_reported":1704294425,"current_range_meters":31200,"station_id":"ce4bhg12rcd13ifvqf80","pricing_plan_id":"free"},{"bike_id":"a52b2344-4239-4844-ab08-331da1a0a928","system_id":"levelo_inurba_marseille","lat":43.279742,"lon":5.38744,"is_reserved":false,"is_disabled":false,"rental_uris":{"android":"levelo://app?vid=a52b2344-4239-4844-ab08-331da1a0a928","ios":"levelo://app?vid=a52b2344-4239-4844-ab08-331da1a0a928"},"vehicle_type_id":"4","last_reported":1704294425,"current_range_meters":3600,"station_id":"ce4bhg12rcd13ifvqf80","pricing_plan_id":"free"},{"bike_id":"8499d07b-1ca4-46da-bc71-ff48363086b9","system_id":"levelo_inurba_marseille","lat":43.292569,"lon":5.409107,"is_reserved":false,"is_disabled":false,"rental_uris":{"android":"levelo://app?vid=8499d07b-1ca4-46da-bc71-ff48363086b9","ios":"levelo://app?vid=8499d07b-1ca4-46da-bc71-ff48363086b9"},"vehicle_type_id":"4","last_reported":1704294425,"current_range_meters":30000,"station_id":"ce4bh192rcd13ifvqdc0","pricing_plan_id":"free"},{"bike_id":"d7a1801b-0212-47ed-9d0e-ebf4ed3edb6b","system_id":"levelo_inurba_marseille","lat":43.276179,"lon":5.361009,"is_reserved":false,"is_disabled":false,"rental_uris":{"android":"levelo://app?vid=d7a1801b-0212-47ed-9d0e-ebf4ed3edb6b","ios":"levelo://app?vid=d7a1801b-0212-47ed-9d0e-ebf4ed3edb6b"},"vehicle_type_id":"4","last_reported":1704294425,"current_range_meters":3200,"station_id":"ce4bgj92rcd13ifvqbe0","pricing_plan_id":"free"},{"bike_id":"240b3429-28de-476a-871f-0a863a22fb1f","system_id":"levelo_inurba_marseille","lat":43.278401,"lon":5.392152,"is_reserved":false,"is_disabled":false,"rental_uris":{"android":"levelo://app?vid=240b3429-28de-476a-871f-0a863a22fb1f","ios":"levelo://app?vid=240b3429-28de-476a-871f-0a863a22fb1f"},"vehicle_type_id":"4","last_reported":1704294425,"current_range_meters":11600,"station_id":"ce4bhjp2rcd13ifvqga0","pricing_plan_id":"free"},{"bike_id":"0dbcf3e4-4bb1-4a12-ae9b-69c10c293eb6","system_id":"levelo_inurba_marseille","lat":43.304096,"lon":5.425385,"is_reserved":false,"is_disabled":false,"rental_uris":{"android":"levelo://app?vid=0dbcf3e4-4bb1-4a12-ae9b-69c10c293eb6","ios":"levelo://app?vid=0dbcf3e4-4bb1-4a12-ae9b-69c10c293eb6"},"vehicle_type_id":"4","last_reported":1704294425,"current_range_meters":29200,"station_id":"ce4bhoh2rcd13ifvqh6g","pricing_plan_id":"free"},{"bike_id":"5e3452d0-bbc8-463b-8852-ec98e809d5a0","system_id":"levelo_inurba_marseille","lat":43.317121,"lon":5.423936,"is_reserved":false,"is_disabled":false,"rental_uris":{"android":"levelo://app?vid=5e3452d0-bbc8-463b-8852-ec98e809d5a0","ios":"levelo://app?vid=5e3452d0-bbc8-463b-8852-ec98e809d5a0"},"vehicle_type_id":"4","last_reported":1704294425,"current_range_meters":31600,"station_id":"ce4bhp92rcd13ifvqhbg","pricing_plan_id":"free"},{"bike_id":"d77951a7-3cab-4a7a-920c-f716d44755f3","system_id":"levelo_inurba_marseille","lat":43.317121,"lon":5.423936,"is_reserved":false,"is_disabled":false,"rental_uris":{"android":"levelo://app?vid=d77951a7-3cab-4a7a-920c-f716d44755f3","ios":"levelo://app?vid=d77951a7-3cab-4a7a-920c-f716d44755f3"},"vehicle_type_id":"4","last_reported":1704294425,"current_range_meters":20400,"station_id":"ce4bhp92rcd13ifvqhbg","pricing_plan_id":"free"},{"bike_id":"537de52f-fbf7-4ccb-979b-67cc22a43136","system_id":"levelo_inurba_marseille","lat":43.310785,"lon":5.424305,"is_reserved":false,"is_disabled":false,"rental_uris":{"android":"levelo://app?vid=537de52f-fbf7-4ccb-979b-67cc22a43136","ios":"levelo://app?vid=537de52f-fbf7-4ccb-979b-67cc22a43136"},"vehicle_type_id":"4","last_reported":1704294425,"current_range_meters":3600,"station_id":"ce4bhp92rcd13ifvqhag","pricing_plan_id":"free"},{"bike_id":"e920f369-09be-4ca3-951b-777826d116a5","system_id":"levelo_inurba_marseille","lat":43.340804,"lon":5.410219,"is_reserved":false,"is_disabled":false,"rental_uris":{"android":"levelo://app?vid=e920f369-09be-4ca3-951b-777826d116a5","ios":"levelo://app?vid=e920f369-09be-4ca3-951b-777826d116a5"},"vehicle_type_id":"4","last_reported":1704294425,"current_range_meters":30000,"station_id":"ce4bhqh2rcd13ifvqhlg","pricing_plan_id":"free"},{"bike_id":"49410838-a84b-4e09-b603-0b6048c2e405","system_id":"levelo_inurba_marseille","lat":43.340804,"lon":5.410219,"is_reserved":false,"is_disabled":false,"rental_uris":{"android":"levelo://app?vid=49410838-a84b-4e09-b603-0b6048c2e405","ios":"levelo://app?vid=49410838-a84b-4e09-b603-0b6048c2e405"},"vehicle_type_id":"4","last_reported":1704294425,"current_range_meters":27600,"station_id":"ce4bhqh2rcd13ifvqhlg","pricing_plan_id":"free"},{"bike_id":"fcb28757-50e0-4467-84c7-e86a8401c7db","system_id":"levelo_inurba_marseille","lat":43.273125,"lon":5.390731,"is_reserved":false,"is_disabled":false,"rental_uris":{"android":"levelo://app?vid=fcb28757-50e0-4467-84c7-e86a8401c7db","ios":"levelo://app?vid=fcb28757-50e0-4467-84c7-e86a8401c7db"},"vehicle_type_id":"4","last_reported":1704294425,"current_range_meters":24800,"station_id":"ce4bhgp2rcd13ifvqfe0","pricing_plan_id":"free"},{"bike_id":"7458e9e1-fd7b-4231-b5b7-2ebe53285444","system_id":"levelo_inurba_marseille","lat":43.304096,"lon":5.425385,"is_reserved":false,"is_disabled":false,"rental_uris":{"android":"levelo://app?vid=7458e9e1-fd7b-4231-b5b7-2ebe53285444","ios":"levelo://app?vid=7458e9e1-fd7b-4231-b5b7-2ebe53285444"},"vehicle_type_id":"4","last_reported":1704294425,"current_range_meters":4400,"station_id":"ce4bhoh2rcd13ifvqh6g","pricing_plan_id":"free"},{"bike_id":"3d565df6-c728-4293-ba6a-37551d8f8856","system_id":"levelo_inurba_marseille","lat":43.279465,"lon":5.410561,"is_reserved":false,"is_disabled":false,"rental_uris":{"android":"levelo://app?vid=3d565df6-c728-4293-ba6a-37551d8f8856","ios":"levelo://app?vid=3d565df6-c728-4293-ba6a-37551d8f8856"},"vehicle_type_id":"4","last_reported":1704294425,"current_range_meters":14400,"station_id":"ce4bhnp2rcd13ifvqh0g","pricing_plan_id":"free"},{"bike_id":"b2e6f26b-7d0a-4868-b766-85f8f2673c7a","system_id":"levelo_inurba_marseille","lat":43.269319,"lon":5.389397,"is_reserved":false,"is_disabled":false,"rental_uris":{"android":"levelo://app?vid=b2e6f26b-7d0a-4868-b766-85f8f2673c7a","ios":"levelo://app?vid=b2e6f26b-7d0a-4868-b766-85f8f2673c7a"},"vehicle_type_id":"4","last_reported":1704294425,"current_range_meters":28800,"station_id":"ce4bhhh2rcd13ifvqfl0","pricing_plan_id":"free"},{"bike_id":"8efa8d03-54c1-4959-9d8c-73a20fcfda69","system_id":"levelo_inurba_marseille","lat":43.269319,"lon":5.389397,"is_reserved":false,"is_disabled":false,"rental_uris":{"android":"levelo://app?vid=8efa8d03-54c1-4959-9d8c-73a20fcfda69","ios":"levelo://app?vid=8efa8d03-54c1-4959-9d8c-73a20fcfda69"},"vehicle_type_id":"4","last_reported":1704294425,"current_range_meters":16000,"station_id":"ce4bhhh2rcd13ifvqfl0","pricing_plan_id":"free"},{"bike_id":"d4fc07e4-ccf5-4ad4-a1a0-b40d93146876","system_id":"levelo_inurba_marseille","lat":43.26929,"lon":5.3893,"is_reserved":false,"is_disabled":false,"rental_uris":{"android":"levelo://app?vid=d4fc07e4-ccf5-4ad4-a1a0-b40d93146876","ios":"levelo://app?vid=d4fc07e4-ccf5-4ad4-a1a0-b40d93146876"},"vehicle_type_id":"4","last_reported":1704294425,"current_range_meters":31200,"station_id":"ce4bhhh2rcd13ifvqfl0","pricing_plan_id":"free"},{"bike_id":"08c7e801-a84b-43a4-815e-1ede6418783e","system_id":"levelo_inurba_marseille","lat":43.26949,"lon":5.40262,"is_reserved":false,"is_disabled":false,"rental_uris":{"android":"levelo://app?vid=08c7e801-a84b-43a4-815e-1ede6418783e","ios":"levelo://app?vid=08c7e801-a84b-43a4-815e-1ede6418783e"},"vehicle_type_id":"4","last_reported":1704294425,"current_range_meters":3600,"station_id":"cjm6bp8fraef2m0cb0m0","pricing_plan_id":"free"},{"bike_id":"9cf6a17d-dc0a-4a96-b140-4938856e7747","system_id":"levelo_inurba_marseille","lat":43.27996,"lon":5.416624,"is_reserved":false,"is_disabled":false,"rental_uris":{"android":"levelo://app?vid=9cf6a17d-dc0a-4a96-b140-4938856e7747","ios":"levelo://app?vid=9cf6a17d-dc0a-4a96-b140-4938856e7747"},"vehicle_type_id":"4","last_reported":1704294425,"current_range_meters":30800,"station_id":"ce4bho12rcd13ifvqh1g","pricing_plan_id":"free"},{"bike_id":"decd5786-0673-4eaa-891d-982bb9381d58","system_id":"levelo_inurba_marseille","lat":43.265714,"lon":5.372891,"is_reserved":false,"is_disabled":false,"rental_uris":{"android":"levelo://app?vid=decd5786-0673-4eaa-891d-982bb9381d58","ios":"levelo://app?vid=decd5786-0673-4eaa-891d-982bb9381d58"},"vehicle_type_id":"4","last_reported":1704294425,"current_range_meters":16400,"station_id":"ce4bhg12rcd13ifvqf70","pricing_plan_id":"free"},{"bike_id":"651f4842-df1e-4e7b-bb04-e7f324eb97ea","system_id":"levelo_inurba_marseille","lat":43.267966,"lon":5.393976,"is_reserved":false,"is_disabled":false,"rental_uris":{"android":"levelo://app?vid=651f4842-df1e-4e7b-bb04-e7f324eb97ea","ios":"levelo://app?vid=651f4842-df1e-4e7b-bb04-e7f324eb97ea"},"vehicle_type_id":"4","last_reported":1704294425,"current_range_meters":22400,"station_id":"ce4bhh12rcd13ifvqfg0","pricing_plan_id":"free"},{"bike_id":"5d455897-feba-40aa-bde8-c1f35a6c0123","system_id":"levelo_inurba_marseille","lat":43.267966,"lon":5.393976,"is_reserved":false,"is_disabled":false,"rental_uris":{"android":"levelo://app?vid=5d455897-feba-40aa-bde8-c1f35a6c0123","ios":"levelo://app?vid=5d455897-feba-40aa-bde8-c1f35a6c0123"},"vehicle_type_id":"4","last_reported":1704294425,"current_range_meters":19600,"station_id":"ce4bhh12rcd13ifvqfg0","pricing_plan_id":"free"},{"bike_id":"ceb9398a-6456-4da5-b6ad-be4e52602499","system_id":"levelo_inurba_marseille","lat":43.267966,"lon":5.393976,"is_reserved":false,"is_disabled":false,"rental_uris":{"android":"levelo://app?vid=ceb9398a-6456-4da5-b6ad-be4e52602499","ios":"levelo://app?vid=ceb9398a-6456-4da5-b6ad-be4e52602499"},"vehicle_type_id":"4","last_reported":1704294425,"current_range_meters":31200,"station_id":"ce4bhh12rcd13ifvqfg0","pricing_plan_id":"free"},{"bike_id":"09d04b56-b5d9-4240-a085-93a963b4e1dc","system_id":"levelo_inurba_marseille","lat":43.267966,"lon":5.393976,"is_reserved":false,"is_disabled":false,"rental_uris":{"android":"levelo://app?vid=09d04b56-b5d9-4240-a085-93a963b4e1dc","ios":"levelo://app?vid=09d04b56-b5d9-4240-a085-93a963b4e1dc"},"vehicle_type_id":"4","last_reported":1704294425,"current_range_meters":16000,"station_id":"ce4bhh12rcd13ifvqfg0","pricing_plan_id":"free"},{"bike_id":"1a5adce9-e792-481f-b178-6e49282a6fdf","system_id":"levelo_inurba_marseille","lat":43.267825,"lon":5.394152,"is_reserved":false,"is_disabled":false,"rental_uris":{"android":"levelo://app?vid=1a5adce9-e792-481f-b178-6e49282a6fdf","ios":"levelo://app?vid=1a5adce9-e792-481f-b178-6e49282a6fdf"},"vehicle_type_id":"4","last_reported":1704294425,"current_range_meters":9200,"station_id":"ce4bhh12rcd13ifvqfg0","pricing_plan_id":"free"},{"bike_id":"8295c594-cef8-43c9-bdcc-cd8adb3559c5","system_id":"levelo_inurba_marseille","lat":43.267966,"lon":5.393976,"is_reserved":false,"is_disabled":false,"rental_uris":{"android":"levelo://app?vid=8295c594-cef8-43c9-bdcc-cd8adb3559c5","ios":"levelo://app?vid=8295c594-cef8-43c9-bdcc-cd8adb3559c5"},"vehicle_type_id":"4","last_reported":1704294425,"current_range_meters":29600,"station_id":"ce4bhh12rcd13ifvqfg0","pricing_plan_id":"free"},{"bike_id":"a660ed44-fb21-4fba-8e45-1db19e95d9d0","system_id":"levelo_inurba_marseille","lat":43.267966,"lon":5.393976,"is_reserved":false,"is_disabled":false,"rental_uris":{"android":"levelo://app?vid=a660ed44-fb21-4fba-8e45-1db19e95d9d0","ios":"levelo://app?vid=a660ed44-fb21-4fba-8e45-1db19e95d9d0"},"vehicle_type_id":"4","last_reported":1704294425,"current_range_meters":9600,"station_id":"ce4bhh12rcd13ifvqfg0","pricing_plan_id":"free"},{"bike_id":"4e7b82a4-f271-4a72-bdbd-460d1cfbd58d","system_id":"levelo_inurba_marseille","lat":43.27181,"lon":5.404997,"is_reserved":false,"is_disabled":false,"rental_uris":{"android":"levelo://app?vid=4e7b82a4-f271-4a72-bdbd-460d1cfbd58d","ios":"levelo://app?vid=4e7b82a4-f271-4a72-bdbd-460d1cfbd58d"},"vehicle_type_id":"4","last_reported":1704294425,"current_range_meters":1200,"station_id":"ce4bhl12rcd13ifvqgf0","pricing_plan_id":"free"},{"bike_id":"c8a147d9-7221-45e7-ac71-c22f39bea382","system_id":"levelo_inurba_marseille","lat":43.308051,"lon":5.43527,"is_reserved":false,"is_disabled":false,"rental_uris":{"android":"levelo://app?vid=c8a147d9-7221-45e7-ac71-c22f39bea382","ios":"levelo://app?vid=c8a147d9-7221-45e7-ac71-c22f39bea382"},"vehicle_type_id":"4","last_reported":1704294425,"current_range_meters":1600,"station_id":"ce4bhph2rcd13ifvqheg","pricing_plan_id":"free"},{"bike_id":"e7c9ecba-33b1-453a-8003-a8e1ec8d62a3","system_id":"levelo_inurba_marseille","lat":43.308051,"lon":5.43527,"is_reserved":false,"is_disabled":false,"rental_uris":{"android":"levelo://app?vid=e7c9ecba-33b1-453a-8003-a8e1ec8d62a3","ios":"levelo://app?vid=e7c9ecba-33b1-453a-8003-a8e1ec8d62a3"},"vehicle_type_id":"4","last_reported":1704294425,"current_range_meters":30800,"station_id":"ce4bhph2rcd13ifvqheg","pricing_plan_id":"free"},{"bike_id":"709fcce2-f37d-4ef1-bb9c-b466c4473ca0","system_id":"levelo_inurba_marseille","lat":43.265571,"lon":5.390032,"is_reserved":false,"is_disabled":false,"rental_uris":{"android":"levelo://app?vid=709fcce2-f37d-4ef1-bb9c-b466c4473ca0","ios":"levelo://app?vid=709fcce2-f37d-4ef1-bb9c-b466c4473ca0"},"vehicle_type_id":"4","last_reported":1704294425,"current_range_meters":25200,"station_id":"ce4bhe12rcd13ifvqf30","pricing_plan_id":"free"},{"bike_id":"c7918ad4-e6f7-464e-bbe0-bb57459983c0","system_id":"levelo_inurba_marseille","lat":43.265569,"lon":5.390047,"is_reserved":false,"is_disabled":false,"rental_uris":{"android":"levelo://app?vid=c7918ad4-e6f7-464e-bbe0-bb57459983c0","ios":"levelo://app?vid=c7918ad4-e6f7-464e-bbe0-bb57459983c0"},"vehicle_type_id":"4","last_reported":1704294425,"current_range_meters":18400,"station_id":"ce4bhe12rcd13ifvqf30","pricing_plan_id":"free"},{"bike_id":"c62b2a0f-c08a-48b3-a4da-6797b655a53d","system_id":"levelo_inurba_marseille","lat":43.265569,"lon":5.390047,"is_reserved":false,"is_disabled":false,"rental_uris":{"android":"levelo://app?vid=c62b2a0f-c08a-48b3-a4da-6797b655a53d","ios":"levelo://app?vid=c62b2a0f-c08a-48b3-a4da-6797b655a53d"},"vehicle_type_id":"4","last_reported":1704294425,"current_range_meters":24800,"station_id":"ce4bhe12rcd13ifvqf30","pricing_plan_id":"free"},{"bike_id":"bf5b2751-07ed-4761-9bc3-fd98c7065b36","system_id":"levelo_inurba_marseille","lat":43.26949,"lon":5.40262,"is_reserved":false,"is_disabled":false,"rental_uris":{"android":"levelo://app?vid=bf5b2751-07ed-4761-9bc3-fd98c7065b36","ios":"levelo://app?vid=bf5b2751-07ed-4761-9bc3-fd98c7065b36"},"vehicle_type_id":"4","last_reported":1704294425,"current_range_meters":22000,"station_id":"cjm6bp8fraef2m0cb0m0","pricing_plan_id":"free"},{"bike_id":"cb8704d5-c543-4977-90bd-804710313931","system_id":"levelo_inurba_marseille","lat":43.265569,"lon":5.390047,"is_reserved":false,"is_disabled":false,"rental_uris":{"android":"levelo://app?vid=cb8704d5-c543-4977-90bd-804710313931","ios":"levelo://app?vid=cb8704d5-c543-4977-90bd-804710313931"},"vehicle_type_id":"4","last_reported":1704294425,"current_range_meters":19200,"station_id":"ce4bhe12rcd13ifvqf30","pricing_plan_id":"free"},{"bike_id":"dac5ea74-92f7-462e-b536-31f322bb01c0","system_id":"levelo_inurba_marseille","lat":43.331893,"lon":5.431791,"is_reserved":false,"is_disabled":false,"rental_uris":{"android":"levelo://app?vid=dac5ea74-92f7-462e-b536-31f322bb01c0","ios":"levelo://app?vid=dac5ea74-92f7-462e-b536-31f322bb01c0"},"vehicle_type_id":"4","last_reported":1704294425,"current_range_meters":0,"station_id":"","pricing_plan_id":"free"},{"bike_id":"351ac053-f745-4c3b-a0cc-d616db7a0b31","system_id":"levelo_inurba_marseille","lat":43.261782,"lon":5.374515,"is_reserved":false,"is_disabled":false,"rental_uris":{"android":"levelo://app?vid=351ac053-f745-4c3b-a0cc-d616db7a0b31","ios":"levelo://app?vid=351ac053-f745-4c3b-a0cc-d616db7a0b31"},"vehicle_type_id":"4","last_reported":1704294425,"current_range_meters":16000,"station_id":"ce4bhgp2rcd13ifvqfc0","pricing_plan_id":"free"},{"bike_id":"a3856c02-83b2-424a-8de2-25198868578b","system_id":"levelo_inurba_marseille","lat":43.31711,"lon":5.43707,"is_reserved":false,"is_disabled":false,"rental_uris":{"android":"levelo://app?vid=a3856c02-83b2-424a-8de2-25198868578b","ios":"levelo://app?vid=a3856c02-83b2-424a-8de2-25198868578b"},"vehicle_type_id":"4","last_reported":1704294425,"current_range_meters":31200,"station_id":"ce4bhp92rcd13ifvqhcg","pricing_plan_id":"free"},{"bike_id":"92428b0f-c87a-4962-8b77-d9a6678adb8c","system_id":"levelo_inurba_marseille","lat":43.31713,"lon":5.43712,"is_reserved":false,"is_disabled":false,"rental_uris":{"android":"levelo://app?vid=92428b0f-c87a-4962-8b77-d9a6678adb8c","ios":"levelo://app?vid=92428b0f-c87a-4962-8b77-d9a6678adb8c"},"vehicle_type_id":"4","last_reported":1704294425,"current_range_meters":27200,"station_id":"ce4bhp92rcd13ifvqhcg","pricing_plan_id":"free"},{"bike_id":"30523672-85b3-4770-aa03-78cc31e36d0d","system_id":"levelo_inurba_marseille","lat":43.262012,"lon":5.379307,"is_reserved":false,"is_disabled":false,"rental_uris":{"android":"levelo://app?vid=30523672-85b3-4770-aa03-78cc31e36d0d","ios":"levelo://app?vid=30523672-85b3-4770-aa03-78cc31e36d0d"},"vehicle_type_id":"4","last_reported":1704294425,"current_range_meters":7200,"station_id":"ce4bhjp2rcd13ifvqg90","pricing_plan_id":"free"},{"bike_id":"ec88e8a1-36c0-41b7-9184-571f654a39ff","system_id":"levelo_inurba_marseille","lat":43.271388,"lon":5.409269,"is_reserved":false,"is_disabled":false,"rental_uris":{"android":"levelo://app?vid=ec88e8a1-36c0-41b7-9184-571f654a39ff","ios":"levelo://app?vid=ec88e8a1-36c0-41b7-9184-571f654a39ff"},"vehicle_type_id":"4","last_reported":1704294425,"current_range_meters":23200,"station_id":"ce4bhl12rcd13ifvqgf0","pricing_plan_id":"free"},{"bike_id":"598ac2c5-f424-4042-9adf-e58ac82c6efd","system_id":"levelo_inurba_marseille","lat":43.267959,"lon":5.402687,"is_reserved":false,"is_disabled":false,"rental_uris":{"android":"levelo://app?vid=598ac2c5-f424-4042-9adf-e58ac82c6efd","ios":"levelo://app?vid=598ac2c5-f424-4042-9adf-e58ac82c6efd"},"vehicle_type_id":"4","last_reported":1704294425,"current_range_meters":11200,"station_id":"ce501612rcd8frsf0b60","pricing_plan_id":"free"},{"bike_id":"9e79ebbd-8b93-4b65-ab2b-5fb82f1c880a","system_id":"levelo_inurba_marseille","lat":43.298929,"lon":5.436615,"is_reserved":false,"is_disabled":false,"rental_uris":{"android":"levelo://app?vid=9e79ebbd-8b93-4b65-ab2b-5fb82f1c880a","ios":"levelo://app?vid=9e79ebbd-8b93-4b65-ab2b-5fb82f1c880a"},"vehicle_type_id":"4","last_reported":1704294425,"current_range_meters":27600,"station_id":"ce4bhpp2rcd13ifvqhfg","pricing_plan_id":"free"},{"bike_id":"304560f2-7b6b-499a-89e5-a9d83e13ac85","system_id":"levelo_inurba_marseille","lat":43.28156,"lon":5.42636,"is_reserved":false,"is_disabled":false,"rental_uris":{"android":"levelo://app?vid=304560f2-7b6b-499a-89e5-a9d83e13ac85","ios":"levelo://app?vid=304560f2-7b6b-499a-89e5-a9d83e13ac85"},"vehicle_type_id":"4","last_reported":1704294425,"current_range_meters":31200,"station_id":"ce4bhnh2rcd13ifvqgug","pricing_plan_id":"free"},{"bike_id":"20f457aa-21b0-4254-bd2f-8b6f31ce302e","system_id":"levelo_inurba_marseille","lat":43.281548,"lon":5.42643,"is_reserved":false,"is_disabled":false,"rental_uris":{"android":"levelo://app?vid=20f457aa-21b0-4254-bd2f-8b6f31ce302e","ios":"levelo://app?vid=20f457aa-21b0-4254-bd2f-8b6f31ce302e"},"vehicle_type_id":"4","last_reported":1704294425,"current_range_meters":31600,"station_id":"ce4bhnh2rcd13ifvqgug","pricing_plan_id":"free"},