{"last_updated":1729908522,"ttl":60,"version":"2.2","data":{"bikes":[{"bike_id":"d2ceb7b1-8be1-4a18-aa66-e1d46306bf80","system_id":"levelo_inurba_marseille","lat":43.26063,"lon":5.39395,"is_reserved":false,"is_disabled":false,"rental_uris":{"android":"levelo://app?vid=d2ceb7b1-8be1-4a18-aa66-e1d46306bf80","ios":"levelo://app?vid=d2ceb7b1-8be1-4a18-aa66-e1d46306bf80"},"vehicle_type_id":"4","last_reported":1729908522,"current_range_meters":37600,"station_id":"ce4bhh92rcd13ifvqfj0","pricing_plan_id":"cebpf4jnsgd1na2vs0mg"},{"bike_id":"f4a12ea7-75df-4c48-9db9-c584e2d01b59","system_id":"levelo_inurba_marseille","lat":43.29887,"lon":5.39741,"is_reserved":false,"is_disabled":false,"rental_uris":{"android":"levelo://app?vid=f4a12ea7-75df-4c48-9db9-c584e2d01b59","ios":"levelo://app?vid=f4a12ea7-75df-4c48-9db9-c584e2d01b59"},"vehicle_type_id":"4","last_reported":1729908522,"current_range_meters":39200,"station_id":"ce4bh0h2rcd13ifvqd50","pricing_plan_id":"cebpf4jnsgd1na2vs0mg"},{"bike_id":"163eddd4-107c-441d-b897-daa82cca5a31","system_id":"levelo_inurba_marseille","lat":43.28078,"lon":5.39661,"is_reserved":false,"is_disabled":false,"rental_uris":{"android":"levelo://app?vid=163eddd4-107c-441d-b897-daa82cca5a31","ios":"levelo://app?vid=163eddd4-107c-441d-b897-daa82cca5a31"},"vehicle_type_id":"4","last_reported":1729908522,"current_range_meters":38800,"station_id":"ce4bho12rcd13ifvqh2g","pricing_plan_id":"cebpf4jnsgd1na2vs0mg"},{"bike_id":"68359522-a6bc-4d67-a106-7c3acf76ac10","system_id":"levelo_inurba_marseille","lat":43.29263,"lon":5.409,"is_reserved":false,"is_disabled":false,"rental_uris":{"android":"levelo://app?vid=68359522-a6bc-4d67-a106-7c3acf76ac10","ios":"levelo://app?vid=68359522-a6bc-4d67-a106-7c3acf76ac10"},"vehicle_type_id":"4","last_reported":1729908522,"current_range_meters":9600,"station_id":"ce4bh192rcd13ifvqdc0","pricing_plan_id":"cebpf4jnsgd1na2vs0mg"},{"bike_id":"607fa9b8-1815-47a3-97ba-59ab08c0f8bf","system_id":"levelo_inurba_marseille","lat":43.25578,"lon":5.38247,"is_reserved":false,"is_disabled":false,"rental_uris":{"android":"levelo://app?vid=607fa9b8-1815-47a3-97ba-59ab08c0f8bf","ios":"levelo://app?vid=607fa9b8-1815-47a3-97ba-59ab08c0f8bf"},"vehicle_type_id":"4","last_reported":1729908522,"current_range_meters":28000,"station_id":"ce4bhih2rcd13ifvqfs0","pricing_plan_id":"cebpf4jnsgd1na2vs0mg"},{"bike_id":"7b6aaf83-8cdd-4ae0-abe8-d162e1381dc3","system_id":"levelo_inurba_marseille","lat":43.28659,"lon":5.36357,"is_reserved":false,"is_disabled":false,"rental_uris":{"android":"levelo://app?vid=7b6aaf83-8cdd-4ae0-abe8-d162e1381dc3","ios":"levelo://app?vid=7b6aaf83-8cdd-4ae0-abe8-d162e1381dc3"},"vehicle_type_id":"4","last_reported":1729908522,"current_range_meters":38400,"station_id":"ce4bhah2rcd13ifvqej0","pricing_plan_id":"cebpf4jnsgd1na2vs0mg"},{"bike_id":"92a05bb6-9848-44f6-a68e-d10c7e2e418e","system_id":"levelo_inurba_marseille","lat":43.31333,"lon":5.39711,"is_reserved":false,"is_disabled":false,"rental_uris":{"android":"levelo://app?vid=92a05bb6-9848-44f6-a68e-d10c7e2e418e","ios":"levelo://app?vid=92a05bb6-9848-44f6-a68e-d10c7e2e418e"},"vehicle_type_id":"4","last_reported":1729908522,"current_range_meters":35600,"station_id":"ce4bgvp2rcd13ifvqcu0","pricing_plan_id":"cebpf4jnsgd1na2vs0mg"},{"bike_id":"3381cd79-1316-4c50-ad86-ee5056cd0e14","system_id":"levelo_inurba_marseille","lat":43.25124,"lon":5.40331,"is_reserved":false,"is_disabled":false,"rental_uris":{"android":"levelo://app?vid=3381cd79-1316-4c50-ad86-ee5056cd0e14","ios":"levelo://app?vid=3381cd79-1316-4c50-ad86-ee5056cd0e14"},"vehicle_type_id":"4","last_reported":1729908522,"current_range_meters":38000,"station_id":"ce4bhlh2rcd13ifvqgig","pricing_plan_id":"cebpf4jnsgd1na2vs0mg"},{"bike_id":"ef9d1303-b3a7-4f64-b1ea-62f7e508d231","system_id":"levelo_inurba_marseille","lat":43.28076,"lon":5.39663,"is_reserved":false,"is_disabled":false,"rental_uris":{"android":"levelo://app?vid=ef9d1303-b3a7-4f64-b1ea-62f7e508d231","ios":"levelo://app?vid=ef9d1303-b3a7-4f64-b1ea-62f7e508d231"},"vehicle_type_id":"4","last_reported":1729908522,"current_range_meters":28000,"station_id":"ce4bho12rcd13ifvqh2g","pricing_plan_id":"cebpf4jnsgd1na2vs0mg"},{"bike_id":"1d38aed8-5ab9-4104-b2a5-fe53b77398b8","system_id":"levelo_inurba_marseille","lat":43.3031,"lon":5.39214,"is_reserved":false,"is_disabled":false,"rental_uris":{"android":"levelo://app?vid=1d38aed8-5ab9-4104-b2a5-fe53b77398b8","ios":"levelo://app?vid=1d38aed8-5ab9-4104-b2a5-fe53b77398b8"},"vehicle_type_id":"4","last_reported":1729908522,"current_range_meters":19600,"station_id":"ce4bgkh2rcd13ifvqbk0","pricing_plan_id":"cebpf4jnsgd1na2vs0mg"},{"bike_id":"d33b21ec-4310-4291-b133-a0ac75f58382","system_id":"levelo_inurba_marseille","lat":43.30664,"lon":5.40092,"is_reserved":false,"is_disabled":false,"rental_uris":{"android":"levelo://app?vid=d33b21ec-4310-4291-b133-a0ac75f58382","ios":"levelo://app?vid=d33b21ec-4310-4291-b133-a0ac75f58382"},"vehicle_type_id":"4","last_reported":1729908522,"current_range_meters":36400,"station_id":"ce4bh112rcd13ifvqda0","pricing_plan_id":"cebpf4jnsgd1na2vs0mg"},{"bike_id":"1e6e2bfc-7583-41d7-8b7b-c4a99bfe72bb","system_id":"levelo_inurba_marseille","lat":43.28422,"lon":5.34992,"is_reserved":false,"is_disabled":false,"rental_uris":{"android":"levelo://app?vid=1e6e2bfc-7583-41d7-8b7b-c4a99bfe72bb","ios":"levelo://app?vid=1e6e2bfc-7583-41d7-8b7b-c4a99bfe72bb"},"vehicle_type_id":"4","last_reported":1729908522,"current_range_meters":37600,"station_id":"ce4bhbh2rcd13ifvqepg","pricing_plan_id":"cebpf4jnsgd1na2vs0mg"},{"bike_id":"783a38b9-a972-475c-913e-3785a3b5ae70","system_id":"levelo_inurba_marseille","lat":43.28028,"lon":5.36948,"is_reserved":false,"is_disabled":false,"rental_uris":{"android":"levelo://app?vid=783a38b9-a972-475c-913e-3785a3b5ae70","ios":"levelo://app?vid=783a38b9-a972-475c-913e-3785a3b5ae70"},"vehicle_type_id":"4","last_reported":1729908522,"current_range_meters":38800,"station_id":"ce4bha12rcd13ifvqef0","pricing_plan_id":"cebpf4jnsgd1na2vs0mg"},{"bike_id":"6d97c9ce-6318-4bf4-bc58-f46fdd834007","system_id":"levelo_inurba_marseille","lat":43.32364,"lon":5.38893,"is_reserved":false,"is_disabled":false,"rental_uris":{"android":"levelo://app?vid=6d97c9ce-6318-4bf4-bc58-f46fdd834007","ios":"levelo://app?vid=6d97c9ce-6318-4bf4-bc58-f46fdd834007"},"vehicle_type_id":"4","last_reported":1729908522,"current_range_meters":27600,"station_id":"ce4bhqp2rcd13ifvqhog","pricing_plan_id":"cebpf4jnsgd1na2vs0mg"},{"bike_id":"ce1af6ce-1013-4cbc-9290-2657ed6e2401","system_id":"levelo_inurba_marseille","lat":43.26805,"lon":5.40268,"is_reserved":false,"is_disabled":false,"rental_uris":{"android":"levelo://app?vid=ce1af6ce-1013-4cbc-9290-2657ed6e2401","ios":"levelo://app?vid=ce1af6ce-1013-4cbc-9290-2657ed6e2401"},"vehicle_type_id":"4","last_reported":1729908522,"current_range_meters":27600,"station_id":"ce501612rcd8frsf0b60","pricing_plan_id":"cebpf4jnsgd1na2vs0mg"},{"bike_id":"790dc2e2-ffc7-4e35-9bec-95eb915e5548","system_id":"levelo_inurba_marseille","lat":43.31167,"lon":5.38716,"is_reserved":false,"is_disabled":false,"rental_uris":{"android":"levelo://app?vid=790dc2e2-ffc7-4e35-9bec-95eb915e5548","ios":"levelo://app?vid=790dc2e2-ffc7-4e35-9bec-95eb915e5548"},"vehicle_type_id":"4","last_reported":1729908522,"current_range_meters":6800,"station_id":"ce4bgv12rcd13ifvqcp0","pricing_plan_id":"cebpf4jnsgd1na2vs0mg"},{"bike_id":"c51ff988-e0ce-4051-81bd-b205835f4a62","system_id":"levelo_inurba_marseille","lat":43.287,"lon":5.39975,"is_reserved":false,"is_disabled":false,"rental_uris":{"android":"levelo://app?vid=c51ff988-e0ce-4051-81bd-b205835f4a62","ios":"levelo://app?vid=c51ff988-e0ce-4051-81bd-b205835f4a62"},"vehicle_type_id":"4","last_reported":1729908522,"current_range_meters":28800,"station_id":"ce4bho92rcd13ifvqh3g","pricing_plan_id":"cebpf4jnsgd1na2vs0mg"},{"bike_id":"804ad166-4bc5-4527-a6ba-f9af1f6d30fd","system_id":"levelo_inurba_marseille","lat":43.28707,"lon":5.39982,"is_reserved":false,"is_disabled":false,"rental_uris":{"android":"levelo://app?vid=804ad166-4bc5-4527-a6ba-f9af1f6d30fd","ios":"levelo://app?vid=804ad166-4bc5-4527-a6ba-f9af1f6d30fd"},"vehicle_type_id":"4","last_reported":1729908522,"current_range_meters":34000,"station_id":"ce4bho92rcd13ifvqh3g","pricing_plan_id":"cebpf4jnsgd1na2vs0mg"},{"bike_id":"9dba7589-b9fd-4fa4-a085-6c653f324b29","system_id":"levelo_inurba_marseille","lat":43.31332,"lon":5.39718,"is_reserved":false,"is_disabled":false,"rental_uris":{"android":"levelo://app?vid=9dba7589-b9fd-4fa4-a085-6c653f324b29","ios":"levelo://app?vid=9dba7589-b9fd-4fa4-a085-6c653f324b29"},"vehicle_type_id":"4","last_reported":1729908522,"current_range_meters":12000,"station_id":"ce4bgvp2rcd13ifvqcu0","pricing_plan_id":"cebpf4jnsgd1na2vs0mg"},{"bike_id":"a5add820-9e4b-49c7-bd27-b9ddeb22681d","system_id":"levelo_inurba_marseille","lat":43.2828,"lon":5.35053,"is_reserved":false,"is_disabled":false,"rental_uris":{"android":"levelo://app?vid=a5add820-9e4b-49c7-bd27-b9ddeb22681d","ios":"levelo://app?vid=a5add820-9e4b-49c7-bd27-b9ddeb22681d"},"vehicle_type_id":"4","last_reported":1729908522,"current_range_meters":16000,"station_id":"ce4bhbp2rcd13ifvqerg","pricing_plan_id":"cebpf4jnsgd1na2vs0mg"},{"bike_id":"cb1b19b3-a8cd-43b9-8d34-cfb2368a0e03","system_id":"levelo_inurba_marseille","lat":43.29044,"lon":5.39948,"is_reserved":false,"is_disabled":false,"rental_uris":{"android":"levelo://app?vid=cb1b19b3-a8cd-43b9-8d34-cfb2368a0e03","ios":"levelo://app?vid=cb1b19b3-a8cd-43b9-8d34-cfb2368a0e03"},"vehicle_type_id":"4","last_reported":1729908522,"current_range_meters":8400,"station_id":"ce4bh392rcd13ifvqdm0","pricing_plan_id":"cebpf4jnsgd1na2vs0mg"},{"bike_id":"e46cc6d2-800b-46ae-9361-0f88e7022a54","system_id":"levelo_inurba_marseille","lat":43.28665,"lon":5.36352,"is_reserved":false,"is_disabled":false,"rental_uris":{"android":"levelo://app?vid=e46cc6d2-800b-46ae-9361-0f88e7022a54","ios":"levelo://app?vid=e46cc6d2-800b-46ae-9361-0f88e7022a54"},"vehicle_type_id":"4","last_reported":1729908522,"current_range_meters":39200,"station_id":"ce4bhah2rcd13ifvqej0","pricing_plan_id":"cebpf4jnsgd1na2vs0mg"},{"bike_id":"3b2e3407-d523-40de-9f77-51385e2cb297","system_id":"levelo_inurba_marseille","lat":43.25016,"lon":5.38915,"is_reserved":false,"is_disabled":false,"rental_uris":{"android":"levelo://app?vid=3b2e3407-d523-40de-9f77-51385e2cb297","ios":"levelo://app?vid=3b2e3407-d523-40de-9f77-51385e2cb297"},"vehicle_type_id":"4","last_reported":1729908522,"current_range_meters":7200,"station_id":"ce4bhgp2rcd13ifvqfd0","pricing_plan_id":"cebpf4jnsgd1na2vs0mg"},{"bike_id":"ab585607-30c7-4fc1-af46-cb28449af514","system_id":"levelo_inurba_marseille","lat":43.28696,"lon":5.39983,"is_reserved":false,"is_disabled":false,"rental_uris":{"android":"levelo://app?vid=ab585607-30c7-4fc1-af46-cb28449af514","ios":"levelo://app?vid=ab585607-30c7-4fc1-af46-cb28449af514"},"vehicle_type_id":"4","last_reported":1729908522,"current_range_meters":30800,"station_id":"ce4bho92rcd13ifvqh3g","pricing_plan_id":"cebpf4jnsgd1na2vs0mg"},{"bike_id":"633bdd84-8a27-486c-8d5a-62bd9dd56f9f","system_id":"levelo_inurba_marseille","lat":43.26932,"lon":5.40247,"is_reserved":false,"is_disabled":false,"rental_uris":{"android":"levelo://app?vid=633bdd84-8a27-486c-8d5a-62bd9dd56f9f","ios":"levelo://app?vid=633bdd84-8a27-486c-8d5a-62bd9dd56f9f"},"vehicle_type_id":"4","last_reported":1729908522,"current_range_meters":38800,"station_id":"cjm6bp8fraef2m0cb0m0","pricing_plan_id":"cebpf4jnsgd1na2vs0mg"},{"bike_id":"034b0df2-1eed-443a-9b6a-1ec1fc138adc","system_id":"levelo_inurba_marseille","lat":43.28727,"lon":5.36086,"is_reserved":false,"is_disabled":false,"rental_uris":{"android":"levelo://app?vid=034b0df2-1eed-443a-9b6a-1ec1fc138adc","ios":"levelo://app?vid=034b0df2-1eed-443a-9b6a-1ec1fc138adc"},"vehicle_type_id":"4","last_reported":1729908522,"current_range_meters":36000,"station_id":"cki0cbj6b192h4jlfktg","pricing_plan_id":"cebpf4jnsgd1na2vs0mg"},{"bike_id":"b5023f02-4d75-4c00-9db0-8150b0d877da","system_id":"levelo_inurba_marseille","lat":43.336,"lon":5.4102,"is_reserved":false,"is_disabled":false,"rental_uris":{"android":"levelo://app?vid=b5023f02-4d75-4c00-9db0-8150b0d877da","ios":"levelo://app?vid=b5023f02-4d75-4c00-9db0-8150b0d877da"},"vehicle_type_id":"4","last_reported":1729908522,"current_range_meters":9600,"station_id":"ce4bhqh2rcd13ifvqhmg","pricing_plan_id":"cebpf4jnsgd1na2vs0mg"},{"bike_id":"451f8e35-dbd4-4645-8afb-a5f3f54384b4","system_id":"levelo_inurba_marseille","lat":43.29037,"lon":5.39954,"is_reserved":false,"is_disabled":false,"rental_uris":{"android":"levelo://app?vid=451f8e35-dbd4-4645-8afb-a5f3f54384b4","ios":"levelo://app?vid=451f8e35-dbd4-4645-8afb-a5f3f54384b4"},"vehicle_type_id":"4","last_reported":1729908522,"current_range_meters":32000,"station_id":"ce4bh392rcd13ifvqdm0","pricing_plan_id":"cebpf4jnsgd1na2vs0mg"},{"bike_id":"090d6208-0a1b-4739-846f-ee75a9ed97d4","system_id":"levelo_inurba_marseille","lat":43.27836,"lon":5.39206,"is_reserved":false,"is_disabled":false,"rental_uris":{"android":"levelo://app?vid=090d6208-0a1b-4739-846f-ee75a9ed97d4","ios":"levelo://app?vid=090d6208-0a1b-4739-846f-ee75a9ed97d4"},"vehicle_type_id":"4","last_reported":1729908522,"current_range_meters":38000,"station_id":"ce4bhjp2rcd13ifvqga0","pricing_plan_id":"cebpf4jnsgd1na2vs0mg"},{"bike_id":"dd6c780f-d10c-4c09-a3fe-5581d2735032","system_id":"levelo_inurba_marseille","lat":43.30139,"lon":5.37412,"is_reserved":false,"is_disabled":false,"rental_uris":{"android":"levelo://app?vid=dd6c780f-d10c-4c09-a3fe-5581d2735032","ios":"levelo://app?vid=dd6c780f-d10c-4c09-a3fe-5581d2735032"},"vehicle_type_id":"4","last_reported":1729908522,"current_range_meters":38800,"station_id":"ce4bgs92rcd13ifvqcc0","pricing_plan_id":"cebpf4jnsgd1na2vs0mg"},{"bike_id":"d44187ab-306f-4bed-b6aa-0d68527ab8c2","system_id":"levelo_inurba_marseille","lat":43.28389,"lon":5.34983,"is_reserved":false,"is_disabled":false,"rental_uris":{"android":"levelo://app?vid=d44187ab-306f-4bed-b6aa-0d68527ab8c2","ios":"levelo://app?vid=d44187ab-306f-4bed-b6aa-0d68527ab8c2"},"vehicle_type_id":"4","last_reported":1729908522,"current_range_meters":6800,"station_id":"ce4bhbh2rcd13ifvqepg","pricing_plan_id":"cebpf4jnsgd1na2vs0mg"},{"bike_id":"2acf30df-8280-459a-9517-b601c87d8e29","system_id":"levelo_inurba_marseille","lat":43.26478,"lon":5.39559,"is_reserved":false,"is_disabled":false,"rental_uris":{"android":"levelo://app?vid=2acf30df-8280-459a-9517-b601c87d8e29","ios":"levelo://app?vid=2acf30df-8280-459a-9517-b601c87d8e29"},"vehicle_type_id":"4","last_reported":1729908522,"current_range_meters":37600,"station_id":"ce4bhi12rcd13ifvqfq0","pricing_plan_id":"cebpf4jnsgd1na2vs0mg"},{"bike_id":"c8f33dbe-8d46-4679-b0bd-686b38e43e1d","system_id":"levelo_inurba_marseille","lat":43.24572,"lon":5.3952,"is_reserved":false,"is_disabled":false,"rental_uris":{"android":"levelo://app?vid=c8f33dbe-8d46-4679-b0bd-686b38e43e1d","ios":"levelo://app?vid=c8f33dbe-8d46-4679-b0bd-686b38e43e1d"},"vehicle_type_id":"4","last_reported":1729908522,"current_range_meters":36400,"station_id":"ce4bhlp2rcd13ifvqgjg","pricing_plan_id":"cebpf4jnsgd1na2vs0mg"},{"bike_id":"be85cbfc-55ff-46d3-bc5a-9eb864ef58d1","system_id":"levelo_inurba_marseille","lat":43.28567,"lon":5.39501,"is_reserved":false,"is_disabled":false,"rental_uris":{"android":"levelo://app?vid=be85cbfc-55ff-46d3-bc5a-9eb864ef58d1","ios":"levelo://app?vid=be85cbfc-55ff-46d3-bc5a-9eb864ef58d1"},"vehicle_type_id":"4","last_reported":1729908522,"current_range_meters":38800,"station_id":"ce4bh292rcd13ifvqdg0","pricing_plan_id":"cebpf4jnsgd1na2vs0mg"},{"bike_id":"0bab06ec-8c32-4868-9c09-532eb4277a15","system_id":"levelo_inurba_marseille","lat":43.28673,"lon":5.36353,"is_reserved":false,"is_disabled":false,"rental_uris":{"android":"levelo://app?vid=0bab06ec-8c32-4868-9c09-532eb4277a15","ios":"levelo://app?vid=0bab06ec-8c32-4868-9c09-532eb4277a15"},"vehicle_type_id":"4","last_reported":1729908522,"current_range_meters":23200,"station_id":"ce4bhah2rcd13ifvqej0","pricing_plan_id":"cebpf4jnsgd1na2vs0mg"},{"bike_id":"45824d76-330a-4917-813d-b7e673501ccc","system_id":"levelo_inurba_marseille","lat":43.30245,"lon":5.40088,"is_reserved":false,"is_disabled":false,"rental_uris":{"android":"levelo://app?vid=45824d76-330a-4917-813d-b7e673501ccc","ios":"levelo://app?vid=45824d76-330a-4917-813d-b7e673501ccc"},"vehicle_type_id":"4","last_reported":1729908522,"current_range_meters":32000,"station_id":"ce4bgvh2rcd13ifvqcs0","pricing_plan_id":"cebpf4jnsgd1na2vs0mg"},{"bike_id":"7403c571-2d2b-4cdd-81dd-d9c90450ceaa","system_id":"levelo_inurba_marseille","lat":43.2801,"lon":5.40044,"is_reserved":false,"is_disabled":false,"rental_uris":{"android":"levelo://app?vid=7403c571-2d2b-4cdd-81dd-d9c90450ceaa","ios":"levelo://app?vid=7403c571-2d2b-4cdd-81dd-d9c90450ceaa"},"vehicle_type_id":"4","last_reported":1729908522,"current_range_meters":38800,"station_id":"ce4bho92rcd13ifvqh4g","pricing_plan_id":"cebpf4jnsgd1na2vs0mg"},{"bike_id":"ab690427-c9be-4ad1-aa55-0e72f1abafdf","system_id":"levelo_inurba_marseille","lat":43.29233,"lon":5.4089,"is_reserved":false,"is_disabled":false,"rental_uris":{"android":"levelo://app?vid=ab690427-c9be-4ad1-aa55-0e72f1abafdf","ios":"levelo://app?vid=ab690427-c9be-4ad1-aa55-0e72f1abafdf"},"vehicle_type_id":"4","last_reported":1729908522,"current_range_meters":6800,"station_id":"ce4bh192rcd13ifvqdc0","pricing_plan_id":"cebpf4jnsgd1na2vs0mg"},{"bike_id":"f77be28a-db00-41ab-8595-caf295ef5a3d","system_id":"levelo_inurba_marseille","lat":43.29039,"lon":5.39972,"is_reserved":false,"is_disabled":false,"rental_uris":{"android":"levelo://app?vid=f77be28a-db00-41ab-8595-caf295ef5a3d","ios":"levelo://app?vid=f77be28a-db00-41ab-8595-caf295ef5a3d"},"vehicle_type_id":"4","last_reported":1729908522,"current_range_meters":30800,"station_id":"ce4bh392rcd13ifvqdm0","pricing_plan_id":"cebpf4jnsgd1na2vs0mg"},{"bike_id":"faa198e3-1685-444f-a744-5a783158aeff","system_id":"levelo_inurba_marseille","lat":43.32329,"lon":5.40611,"is_reserved":false,"is_disabled":false,"rental_uris":{"android":"levelo://app?vid=faa198e3-1685-444f-a744-5a783158aeff","ios":"levelo://app?vid=faa198e3-1685-444f-a744-5a783158aeff"},"vehicle_type_id":"4","last_reported":1729908522,"current_range_meters":38800,"station_id":"ce4bhq92rcd13ifvqhjg","pricing_plan_id":"cebpf4jnsgd1na2vs0mg"},{"bike_id":"fa83ecf3-a6ef-4106-9cdb-5ab89addbba4","system_id":"levelo_inurba_marseille","lat":43.26942,"lon":5.4026,"is_reserved":false,"is_disabled":false,"rental_uris":{"android":"levelo://app?vid=fa83ecf3-a6ef-4106-9cdb-5ab89addbba4","ios":"levelo://app?vid=fa83ecf3-a6ef-4106-9cdb-5ab89addbba4"},"vehicle_type_id":"4","last_reported":1729908522,"current_range_meters":32400,"station_id":"cjm6bp8fraef2m0cb0m0","pricing_plan_id":"cebpf4jnsgd1na2vs0mg"},{"bike_id":"5378be0b-d09d-4e45-9176-ecdfd95681a1","system_id":"levelo_inurba_marseille","lat":43.27806,"lon":5.40721,"is_reserved":false,"is_disabled":false,"rental_uris":{"android":"levelo://app?vid=5378be0b-d09d-4e45-9176-ecdfd95681a1","ios":"levelo://app?vid=5378be0b-d09d-4e45-9176-ecdfd95681a1"},"vehicle_type_id":"4","last_reported":1729908522,"current_range_meters":38000,"station_id":"ce4bhnh2rcd13ifvqgtg","pricing_plan_id":"cebpf4jnsgd1na2vs0mg"},{"bike_id":"b24e0fd3-2a5f-4760-8d2c-03b817af8d22","system_id":"levelo_inurba_marseille","lat":43.32327,"lon":5.4062,"is_reserved":false,"is_disabled":false,"rental_uris":{"android":"levelo://app?vid=b24e0fd3-2a5f-4760-8d2c-03b817af8d22","ios":"levelo://app?vid=b24e0fd3-2a5f-4760-8d2c-03b817af8d22"},"vehicle_type_id":"4","last_reported":1729908522,"current_range_meters":25200,"station_id":"ce4bhq92rcd13ifvqhjg","pricing_plan_id":"cebpf4jnsgd1na2vs0mg"},{"bike_id":"383d530c-da88-4c80-99fa-ac5e847f828f","system_id":"levelo_inurba_marseille","lat":43.28451,"lon":5.35895,"is_reserved":false,"is_disabled":false,"rental_uris":{"android":"levelo://app?vid=383d530c-da88-4c80-99fa-ac5e847f828f","ios":"levelo://app?vid=383d530c-da88-4c80-99fa-ac5e847f828f"},"vehicle_type_id":"4","last_reported":1729908522,"current_range_meters":38800,"station_id":"ce4bhah2rcd13ifvqei0","pricing_plan_id":"cebpf4jnsgd1na2vs0mg"},{"bike_id":"c3aa7bb4-1be5-4d6d-ab93-efb450cee9de","system_id":"levelo_inurba_marseille","lat":43.27586,"lon":5.3842,"is_reserved":false,"is_disabled":false,"rental_uris":{"android":"levelo://app?vid=c3aa7bb4-1be5-4d6d-ab93-efb450cee9de","ios":"levelo://app?vid=c3aa7bb4-1be5-4d6d-ab93-efb450cee9de"},"vehicle_type_id":"4","last_reported":1729908522,"current_range_meters":29600,"station_id":"ce4bhh92rcd13ifvqfi0","pricing_plan_id":"cebpf4jnsgd1na2vs0mg"},{"bike_id":"e7360508-6978-487a-a79b-5e2dad5d0ea3","system_id":"levelo_inurba_marseille","lat":43.22931,"lon":5.35377,"is_reserved":false,"is_disabled":false,"rental_uris":{"android":"levelo://app?vid=e7360508-6978-487a-a79b-5e2dad5d0ea3","ios":"levelo://app?vid=e7360508-6978-487a-a79b-5e2dad5d0ea3"},"vehicle_type_id":"4","last_reported":1729908522,"current_range_meters":33200,"station_id":"cpo3532slgdg3j2ikp40","pricing_plan_id":"cebpf4jnsgd1na2vs0mg"},{"bike_id":"b6661951-06d1-4a9c-9fa4-65dc155804df","system_id":"levelo_inurba_marseille","lat":43.29231,"lon":5.36073,"is_reserved":false,"is_disabled":false,"rental_uris":{"android":"levelo://app?vid=b6661951-06d1-4a9c-9fa4-65dc155804df","ios":"levelo://app?vid=b6661951-06d1-4a9c-9fa4-65dc155804df"},"vehicle_type_id":"4","last_reported":1729908522,"current_range_meters":37600,"station_id":"ce4bhbh2rcd13ifvqeqg","pricing_plan_id":"cebpf4jnsgd1na2vs0mg"},{"bike_id":"8fb2907f-5f53-42aa-9d27-c78d8f5086d5","system_id":"levelo_inurba_marseille","lat":43.29108,"lon":5.38154,"is_reserved":false,"is_disabled":false,"rental_uris":{"android":"levelo://app?vid=8fb2907f-5f53-42aa-9d27-c78d8f5086d5","ios":"levelo://app?vid=8fb2907f-5f53-42aa-9d27-c78d8f5086d5"},"vehicle_type_id":"4","last_reported":1729908522,"current_range_meters":38800,"station_id":"ce4bh512rcd13ifvqe2g","pricing_plan_id":"cebpf4jnsgd1na2vs0mg"},{"bike_id":"2b7899be-8274-40be-a0c2-36d031571a72","system_id":"levelo_inurba_marseille","lat":43.30358,"lon":5.41878,"is_reserved":false,"is_disabled":false,"rental_uris":{"android":"levelo://app?vid=2b7899be-8274-40be-a0c2-36d031571a72","ios":"levelo://app?vid=2b7899be-8274-40be-a0c2-36d031571a72"},"vehicle_type_id":"4","last_reported":1729908522,"current_range_meters":6000,"station_id":"ce4bhop2rcd13ifvqh7g","pricing_plan_id":"cebpf4jnsgd1na2vs0mg"},{"bike_id":"dfc22c95-97a7-4f16-b272-ec1032f6e482","system_id":"levelo_inurba_marseille","lat":43.28342,"lon":5.3811,"is_reserved":false,"is_disabled":false,"rental_uris":{"android":"levelo://app?vid=dfc22c95-97a7-4f16-b272-ec1032f6e482","ios":"levelo://app?vid=dfc22c95-97a7-4f16-b272-ec1032f6e482"},"vehicle_type_id":"4","last_reported":1729908522,"current_range_meters":39200,"station_id":"ce4bh412rcd13ifvqdr0","pricing_plan_id":"cebpf4jnsgd1na2vs0mg"},{"bike_id":"6925803b-ad34-4af7-be87-e1c380a12c9a","system_id":"levelo_inurba_marseille","lat":43.28751,"lon":5.36078,"is_reserved":false,"is_disabled":false,"rental_uris":{"android":"levelo://app?vid=6925803b-ad34-4af7-be87-e1c380a12c9a","ios":"levelo://app?vid=6925803b-ad34-4af7-be87-e1c380a12c9a"},"vehicle_type_id":"4","last_reported":1729908522,"current_range_meters":32400,"station_id":"cki0cbj6b192h4jlfktg","pricing_plan_id":"cebpf4jnsgd1na2vs0mg"},{"bike_id":"0aefc709-0a2c-440d-8ea8-2e91a5c985ed","system_id":"levelo_inurba_marseille","lat":43.2797,"lon":5.38741,"is_reserved":false,"is_disabled":false,"rental_uris":{"android":"levelo://app?vid=0aefc709-0a2c-440d-8ea8-2e91a5c985ed","ios":"levelo://app?vid=0aefc709-0a2c-440d-8ea8-2e91a5c985ed"},"vehicle_type_id":"4","last_reported":1729908522,"current_range_meters":24400,"station_id":"ce4bhg12rcd13ifvqf80","pricing_plan_id":"cebpf4jnsgd1na2vs0mg"},{"bike_id":"34c0b19e-e327-425b-bf09-25bec92dd9c4","system_id":"levelo_inurba_marseille","lat":43.29317,"lon":5.45465,"is_reserved":false,"is_disabled":false,"rental_uris":{"android":"levelo://app?vid=34c0b19e-e327-425b-bf09-25bec92dd9c4","ios":"levelo://app?vid=34c0b19e-e327-425b-bf09-25bec92dd9c4"},"vehicle_type_id":"4","last_reported":1729908522,"current_range_meters":22800,"station_id":"","pricing_plan_id":"cebpf4jnsgd1na2vs0mg"},{"bike_id":"998f1ca9-1c31-496a-8d14-e0526a7cff9d","system_id":"levelo_inurba_marseille","lat":43.31124,"lon":5.37765,"is_reserved":false,"is_disabled":false,"rental_uris":{"android":"levelo://app?vid=998f1ca9-1c31-496a-8d14-e0526a7cff9d","ios":"levelo://app?vid=998f1ca9-1c31-496a-8d14-e0526a7cff9d"},"vehicle_type_id":"4","last_reported":1729908522,"current_range_meters":32400,"station_id":"ce4bgt92rcd13ifvqcg0","pricing_plan_id":"cebpf4jnsgd1na2vs0mg"},{"bike_id":"e835d4c8-7653-415c-9c95-ebedbb4d78f7","system_id":"levelo_inurba_marseille","lat":43.22927,"lon":5.35391,"is_reserved":false,"is_disabled":false,"rental_uris":{"android":"levelo://app?vid=e835d4c8-7653-415c-9c95-ebedbb4d78f7","ios":"levelo://app?vid=e835d4c8-7653-415c-9c95-ebedbb4d78f7"},"vehicle_type_id":"4","last_reported":1729908522,"current_range_meters":16400,"station_id":"cpo3532slgdg3j2ikp40","pricing_plan_id":"cebpf4jnsgd1na2vs0mg"},{"bike_id":"1d1d656f-4780-4c04-b7aa-1044f7f3ec42","system_id":"levelo_inurba_marseille","lat":43.31542,"lon":5.38034,"is_reserved":false,"is_disabled":false,"rental_uris":{"android":"levelo://app?vid=1d1d656f-4780-4c04-b7aa-1044f7f3ec42","ios":"levelo://app?vid=1d1d656f-4780-4c04-b7aa-1044f7f3ec42"},"vehicle_type_id":"4","last_reported":1729908522,"current_range_meters":38800,"station_id":"ce4bhsp2rcd13ifvqi50","pricing_plan_id":"cebpf4jnsgd1na2vs0mg"},{"bike_id":"4a913422-3032-46a5-acaf-76f9216860d5","system_id":"levelo_inurba_marseille","lat":43.27557,"lon":5.38417,"is_reserved":false,"is_disabled":false,"rental_uris":{"android":"levelo://app?vid=4a913422-3032-46a5-acaf-76f9216860d5","ios":"levelo://app?vid=4a913422-3032-46a5-acaf-76f9216860d5"},"vehicle_type_id":"4","last_reported":1729908522,"current_range_meters":37600,"station_id":"ce4bhh92rcd13ifvqfi0","pricing_plan_id":"cebpf4jnsgd1na2vs0mg"},{"bike_id":"5063f4af-2df5-4a8d-971c-2e45b710db02","system_id":"levelo_inurba_marseille","lat":43.25579,"lon":5.38233,"is_reserved":false,"is_disabled":false,"rental_uris":{"android":"levelo://app?vid=5063f4af-2df5-4a8d-971c-2e45b710db02","ios":"levelo://app?vid=5063f4af-2df5-4a8d-971c-2e45b710db02"},"vehicle_type_id":"4","last_reported":1729908522,"current_range_meters":38400,"station_id":"ce4bhih2rcd13ifvqfs0","pricing_plan_id":"cebpf4jnsgd1na2vs0mg"},{"bike_id":"e16ba0fb-c8f9-4074-a1c8-ad626ad5602f","system_id":"levelo_inurba_marseille","lat":43.26928,"lon":5.40239,"is_reserved":false,"is_disabled":false,"rental_uris":{"android":"levelo://app?vid=e16ba0fb-c8f9-4074-a1c8-ad626ad5602f","ios":"levelo://app?vid=e16ba0fb-c8f9-4074-a1c8-ad626ad5602f"},"vehicle_type_id":"4","last_reported":1729908522,"current_range_meters":38800,"station_id":"cjm6bp8fraef2m0cb0m0","pricing_plan_id":"cebpf4jnsgd1na2vs0mg"},{"bike_id":"d442d14a-9d56-4dc0-bb62-0822a5b2b897","system_id":"levelo_inurba_marseille","lat":43.28583,"lon":5.39493,"is_reserved":false,"is_disabled":false,"rental_uris":{"android":"levelo://app?vid=d442d14a-9d56-4dc0-bb62-0822a5b2b897","ios":"levelo://app?vid=d442d14a-9d56-4dc0-bb62-0822a5b2b897"},"vehicle_type_id":"4","last_reported":1729908522,"current_range_meters":36400,"station_id":"ce4bh292rcd13ifvqdg0","pricing_plan_id":"cebpf4jnsgd1na2vs0mg"},{"bike_id":"f804ddd3-771e-4c8a-8949-01eac2d4fa1f","system_id":"levelo_inurba_marseille","lat":43.30137,"lon":5.39901,"is_reserved":false,"is_disabled":false,"rental_uris":{"android":"levelo://app?vid=f804ddd3-771e-4c8a-8949-01eac2d4fa1f","ios":"levelo://app?vid=f804ddd3-771e-4c8a-8949-01eac2d4fa1f"},"vehicle_type_id":"4","last_reported":1729908522,"current_range_meters":36400,"station_id":"ce4bh0h2rcd13ifvqd40","pricing_plan_id":"cebpf4jnsgd1na2vs0mg"},{"bike_id":"88f0b2cc-53b3-42b9-84d9-bfcb4174f6d9","system_id":"levelo_inurba_marseille","lat":43.28722,"lon":5.36097,"is_reserved":false,"is_disabled":false,"rental_uris":{"android":"levelo://app?vid=88f0b2cc-53b3-42b9-84d9-bfcb4174f6d9","ios":"levelo://app?vid=88f0b2cc-53b3-42b9-84d9-bfcb4174f6d9"},"vehicle_type_id":"4","last_reported":1729908522,"current_range_meters":38400,"station_id":"cki0cbj6b192h4jlfktg","pricing_plan_id":"cebpf4jnsgd1na2vs0mg"},{"bike_id":"4c233de2-1590-4ca5-a311-c7640ee41b1a","system_id":"levelo_inurba_marseille","lat":43.29029,"lon":5.39974,"is_reserved":false,"is_disabled":false,"rental_uris":{"android":"levelo://app?vid=4c233de2-1590-4ca5-a311-c7640ee41b1a","ios":"levelo://app?vid=4c233de2-1590-4ca5-a311-c7640ee41b1a"},"vehicle_type_id":"4","last_reported":1729908522,"current_range_meters":10800,"station_id":"ce4bh392rcd13ifvqdm0","pricing_plan_id":"cebpf4jnsgd1na2vs0mg"},{"bike_id":"ec460466-73dd-49ac-a641-a480e1847cfe","system_id":"levelo_inurba_marseille","lat":43.25824,"lon":5.39416,"is_reserved":false,"is_disabled":false,"rental_uris":{"android":"levelo://app?vid=ec460466-73dd-49ac-a641-a480e1847cfe","ios":"levelo://app?vid=ec460466-73dd-49ac-a641-a480e1847cfe"},"vehicle_type_id":"4","last_reported":1729908522,"current_range_meters":38800,"station_id":"ce4bhip2rcd13ifvqft0","pricing_plan_id":"cebpf4jnsgd1na2vs0mg"},{"bike_id":"f6ab2a9d-22dd-4f39-a862-023e0bda893c","system_id":"levelo_inurba_marseille","lat":43.29971,"lon":5.41329,"is_reserved":false,"is_disabled":false,"rental_uris":{"android":"levelo://app?vid=f6ab2a9d-22dd-4f39-a862-023e0bda893c","ios":"levelo://app?vid=f6ab2a9d-22dd-4f39-a862-023e0bda893c"},"vehicle_type_id":"4","last_reported":1729908522,"current_range_meters":34000,"station_id":"ce4bhp12rcd13ifvqh9g","pricing_plan_id":"cebpf4jnsgd1na2vs0mg"},{"bike_id":"81a79566-0322-46ac-900d-8d127f21c4ba","system_id":"levelo_inurba_marseille","lat":43.31742,"lon":5.39022,"is_reserved":false,"is_disabled":false,"rental_uris":{"android":"levelo://app?vid=81a79566-0322-46ac-900d-8d127f21c4ba","ios":"levelo://app?vid=81a79566-0322-46ac-900d-8d127f21c4ba"},"vehicle_type_id":"4","last_reported":1729908522,"current_range_meters":39200,"station_id":"ce4bhqp2rcd13ifvqhng","pricing_plan_id":"cebpf4jnsgd1na2vs0mg"},{"bike_id":"422509bb-657f-4af3-a452-01661c937b71","system_id":"levelo_inurba_marseille","lat":43.28429,"lon":5.39199,"is_reserved":false,"is_disabled":false,"rental_uris":{"android":"levelo://app?vid=422509bb-657f-4af3-a452-01661c937b71","ios":"levelo://app?vid=422509bb-657f-4af3-a452-01661c937b71"},"vehicle_type_id":"4","last_reported":1729908522,"current_range_meters":26000,"station_id":"ce4bhoh2rcd13ifvqh5g","pricing_plan_id":"cebpf4jnsgd1na2vs0mg"},{"bike_id":"3a9bfb16-0c1d-4441-a397-be908d793bb9","system_id":"levelo_inurba_marseille","lat":43.25487,"lon":5.3765,"is_reserved":false,"is_disabled":false,"rental_uris":{"android":"levelo://app?vid=3a9bfb16-0c1d-4441-a397-be908d793bb9","ios":"levelo://app?vid=3a9bfb16-0c1d-4441-a397-be908d793bb9"},"vehicle_type_id":"4","last_reported":1729908522,"current_range_meters":36800,"station_id":"ce4bhh12rcd13ifvqff0","pricing_plan_id":"cebpf4jnsgd1na2vs0mg"},{"bike_id":"6c990c37-116e-41cb-a5de-cb44083ded54","system_id":"levelo_inurba_marseille","lat":43.28076,"lon":5.39658,"is_reserved":false,"is_disabled":false,"rental_uris":{"android":"levelo://app?vid=6c990c37-116e-41cb-a5de-cb44083ded54","ios":"levelo://app?vid=6c990c37-116e-41cb-a5de-cb44083ded54"},"vehicle_type_id":"4","last_reported":1729908522,"current_range_meters":38800,"station_id":"ce4bho12rcd13ifvqh2g","pricing_plan_id":"cebpf4jnsgd1na2vs0mg"},{"bike_id":"7477d48d-ca51-4712-96a0-851a7d6a2338","system_id":"levelo_inurba_marseille","lat":43.28032,"lon":5.36934,"is_reserved":false,"is_disabled":false,"rental_uris":{"android":"levelo://app?vid=7477d48d-ca51-4712-96a0-851a7d6a2338","ios":"levelo://app?vid=7477d48d-ca51-4712-96a0-851a7d6a2338"},"vehicle_type_id":"4","last_reported":1729908522,"current_range_meters":38800,"station_id":"ce4bha12rcd13ifvqef0","pricing_plan_id":"cebpf4jnsgd1na2vs0mg"},{"bike_id":"5a2d60ec-7a22-4bee-9354-dac06b2e08b0","system_id":"levelo_inurba_marseille","lat":43.30538,"lon":5.38427,"is_reserved":false,"is_disabled":false,"rental_uris":{"android":"levelo://app?vid=5a2d60ec-7a22-4bee-9354-dac06b2e08b0","ios":"levelo://app?vid=5a2d60ec-7a22-4bee-9354-dac06b2e08b0"},"vehicle_type_id":"4","last_reported":1729908522,"current_range_meters":38800,"station_id":"ce4bgg92rcd13ifvqb30","pricing_plan_id":"cebpf4jnsgd1na2vs0mg"},{"bike_id":"afb6496d-524d-4e4c-a835-a9db0d103750","system_id":"levelo_inurba_marseille","lat":43.33598,"lon":5.41031,"is_reserved":false,"is_disabled":false,"rental_uris":{"android":"levelo://app?vid=afb6496d-524d-4e4c-a835-a9db0d103750","ios":"levelo://app?vid=afb6496d-524d-4e4c-a835-a9db0d103750"},"vehicle_type_id":"4","last_reported":1729908522,"current_range_meters":38800,"station_id":"ce4bhqh2rcd13ifvqhmg","pricing_plan_id":"cebpf4jnsgd1na2vs0mg"},{"bike_id":"aa396cde-d0da-410d-9cdf-1538d4b7e19d","system_id":"levelo_inurba_marseille","lat":43.31912,"lon":5.39317,"is_reserved":false,"is_disabled":false,"rental_uris":{"android":"levelo://app?vid=aa396cde-d0da-410d-9cdf-1538d4b7e19d","ios":"levelo://app?vid=aa396cde-d0da-410d-9cdf-1538d4b7e19d"},"vehicle_type_id":"4","last_reported":1729908522,"current_range_meters":12400,"station_id":"","pricing_plan_id":"cebpf4jnsgd1na2vs0mg"},{"bike_id":"aa81e96c-501c-4839-a90b-5bf5210c0769","system_id":"levelo_inurba_marseille","lat":43.28478,"lon":5.38543,"is_reserved":false,"is_disabled":false,"rental_uris":{"android":"levelo://app?vid=aa81e96c-501c-4839-a90b-5bf5210c0769","ios":"levelo://app?vid=aa81e96c-501c-4839-a90b-5bf5210c0769"},"vehicle_type_id":"4","last_reported":1729908522,"current_range_meters":32400,"station_id":"ce4bh8p2rcd13ifvqeb0","pricing_plan_id":"cebpf4jnsgd1na2vs0mg"},{"bike_id":"073949a6-760d-41ad-99cd-aeba5d3f39da","system_id":"levelo_inurba_marseille","lat":43.25932,"lon":5.40912,"is_reserved":false,"is_disabled":false,"rental_uris":{"android":"levelo://app?vid=073949a6-760d-41ad-99cd-aeba5d3f39da","ios":"levelo://app?vid=073949a6-760d-41ad-99cd-aeba5d3f39da"},"vehicle_type_id":"4","last_reported":1729908522,"current_range_meters":36800,"station_id":"ce4bhm92rcd13ifvqglg","pricing_plan_id":"cebpf4jnsgd1na2vs0mg"},{"bike_id":"6a30e750-ecd4-4b9c-8c69-8bc884cd3d4b","system_id":"levelo_inurba_marseille","lat":43.30144,"lon":5.37404,"is_reserved":false,"is_disabled":false,"rental_uris":{"android":"levelo://app?vid=6a30e750-ecd4-4b9c-8c69-8bc884cd3d4b","ios":"levelo://app?vid=6a30e750-ecd4-4b9c-8c69-8bc884cd3d4b"},"vehicle_type_id":"4","last_reported":1729908522,"current_range_meters":38400,"station_id":"ce4bgs92rcd13ifvqcc0","pricing_plan_id":"cebpf4jnsgd1na2vs0mg"},{"bike_id":"72d4fe02-7ad5-4cd4-aa12-822b9a78e2cb","system_id":"levelo_inurba_marseille","lat":43.30918,"lon":5.40136,"is_reserved":false,"is_disabled":false,"rental_uris":{"android":"levelo://app?vid=72d4fe02-7ad5-4cd4-aa12-822b9a78e2cb","ios":"levelo://app?vid=72d4fe02-7ad5-4cd4-aa12-822b9a78e2cb"},"vehicle_type_id":"4","last_reported":1729908522,"current_range_meters":38800,"station_id":"ce4bgvp2rcd13ifvqct0","pricing_plan_id":"cebpf4jnsgd1na2vs0mg"},{"bike_id":"c620abc8-2626-440f-878c-1efbd192a62e","system_id":"levelo_inurba_marseille","lat":43.25009,"lon":5.38938,"is_reserved":false,"is_disabled":false,"rental_uris":{"android":"levelo://app?vid=c620abc8-2626-440f-878c-1efbd192a62e","ios":"levelo://app?vid=c620abc8-2626-440f-878c-1efbd192a62e"},"vehicle_type_id":"4","last_reported":1729908522,"current_range_meters":24800,"station_id":"ce4bhgp2rcd13ifvqfd0","pricing_plan_id":"cebpf4jnsgd1na2vs0mg"},{"bike_id":"e95a196a-090f-4de9-abc7-7f9e3fe3d51c","system_id":"levelo_inurba_marseille","lat":43.30356,"lon":5.41879,"is_reserved":false,"is_disabled":false,"rental_uris":{"android":"levelo://app?vid=e95a196a-090f-4de9-abc7-7f9e3fe3d51c","ios":"levelo://app?vid=e95a196a-090f-4de9-abc7-7f9e3fe3d51c"},"vehicle_type_id":"4","last_reported":1729908522,"current_range_meters":33200,"station_id":"ce4bhop2rcd13ifvqh7g","pricing_plan_id":"cebpf4jnsgd1na2vs0mg"},{"bike_id":"b1ce2e3a-b7b8-4656-961d-9238fd1aa6b8","system_id":"levelo_inurba_marseille","lat":43.30674,"lon":5.40081,"is_reserved":false,"is_disabled":false,"rental_uris":{"android":"levelo://app?vid=b1ce2e3a-b7b8-4656-961d-9238fd1aa6b8","ios":"levelo://app?vid=b1ce2e3a-b7b8-4656-961d-9238fd1aa6b8"},"vehicle_type_id":"4","last_reported":1729908522,"current_range_meters":38800,"station_id":"ce4bh112rcd13ifvqda0","pricing_plan_id":"cebpf4jnsgd1na2vs0mg"},{"bike_id":"2b75fb34-9b9e-445c-b7a1-8df407992b64","system_id":"levelo_inurba_marseille","lat":43.28731,"lon":5.36084,"is_reserved":false,"is_disabled":false,"rental_uris":{"android":"levelo://app?vid=2b75fb34-9b9e-445c-b7a1-8df407992b64","ios":"levelo://app?vid=2b75fb34-9b9e-445c-b7a1-8df407992b64"},"vehicle_type_id":"4","last_reported":1729908522,"current_range_meters":38000,"station_id":"cki0cbj6b192h4jlfktg","pricing_plan_id":"cebpf4jnsgd1na2vs0mg"},{"bike_id":"f73eb936-9c2a-478f-b577-3db04ff09a3e","system_id":"levelo_inurba_marseille","lat":43.29242,"lon":5.40915,"is_reserved":false,"is_disabled":false,"rental_uris":{"android":"levelo://app?vid=f73eb936-9c2a-478f-b577-3db04ff09a3e","ios":"levelo://app?vid=f73eb936-9c2a-478f-b577-3db04ff09a3e"},"vehicle_type_id":"4","last_reported":1729908522,"current_range_meters":37600,"station_id":"ce4bh192rcd13ifvqdc0","pricing_plan_id":"cebpf4jnsgd1na2vs0mg"},{"bike_id":"e00cefd2-b35f-4c6b-a657-0ed9ac2806c3","system_id":"levelo_inurba_marseille","lat":43.25119,"lon":5.40345,"is_reserved":false,"is_disabled":false,"rental_uris":{"android":"levelo://app?vid=e00cefd2-b35f-4c6b-a657-0ed9ac2806c3","ios":"levelo://app?vid=e00cefd2-b35f-4c6b-a657-0ed9ac2806c3"},"vehicle_type_id":"4","last_reported":1729908522,"current_range_meters":8800,"station_id":"ce4bhlh2rcd13ifvqgig","pricing_plan_id":"cebpf4jnsgd1na2vs0mg"},{"bike_id":"7bcda441-e7e1-4dea-935c-4fff656fbf9f","system_id":"levelo_inurba_marseille","lat":43.28344,"lon":5.38112,"is_reserved":false,"is_disabled":false,"rental_uris":{"android":"levelo://app?vid=7bcda441-e7e1-4dea-935c-4fff656fbf9f","ios":"levelo://app?vid=7bcda441-e7e1-4dea-935c-4fff656fbf9f"},"vehicle_type_id":"4","last_reported":1729908522,"current_range_meters":35200,"station_id":"ce4bh412rcd13ifvqdr0","pricing_plan_id":"cebpf4jnsgd1na2vs0mg"},{"bike_id":"0746b5ef-d14c-48d4-b50d-3a9822f0004c","system_id":"levelo_inurba_marseille","lat":43.22944,"lon":5.35384,"is_reserved":false,"is_disabled":false,"rental_uris":{"android":"levelo://app?vid=0746b5ef-d14c-48d4-b50d-3a9822f0004c","ios":"levelo://app?vid=0746b5ef-d14c-48d4-b50d-3a9822f0004c"},"vehicle_type_id":"4","last_reported":1729908522,"current_range_meters":37600,"station_id":"cpo3532slgdg3j2ikp40","pricing_plan_id":"cebpf4jnsgd1na2vs0mg"},{"bike_id":"914d2947-3b26-4608-bb0d-9b1e8fb3aa40","system_id":"levelo_inurba_marseille","lat":43.28159,"lon":5.42652,"is_reserved":false,"is_disabled":false,"rental_uris":{"android":"levelo://app?vid=914d2947-3b26-4608-bb0d-9b1e8fb3aa40","ios":"levelo://app?vid=914d2947-3b26-4608-bb0d-9b1e8fb3aa40"},"vehicle_type_id":"4","last_reported":1729908522,"current_range_meters":26800,"station_id":"ce4bhnh2rcd13ifvqgug","pricing_plan_id":"cebpf4jnsgd1na2vs0mg"},{"bike_id":"fcc3a32b-6373-425b-be0a-b1a445ac3c61","system_id":"levelo_inurba_marseille","lat":43.3048,"lon":5.40156,"is_reserved":false,"is_disabled":false,"rental_uris":{"android":"levelo://app?vid=fcc3a32b-6373-425b-be0a-b1a445ac3c61","ios":"levelo://app?vid=fcc3a32b-6373-425b-be0a-b1a445ac3c61"},"vehicle_type_id":"4","last_reported":1729908522,"current_range_meters":5600,"station_id":"ce4bgh92rcd13ifvqb50","pricing_plan_id":"cebpf4jnsgd1na2vs0mg"},{"bike_id":"0b838cd7-9e61-4f91-aa05-1add30adb45f","system_id":"levelo_inurba_marseille","lat":43.29271,"lon":5.40134,"is_reserved":false,"is_disabled":false,"rental_uris":{"android":"levelo://app?vid=0b838cd7-9e61-4f91-aa05-1add30adb45f","ios":"levelo://app?vid=0b838cd7-9e61-4f91-aa05-1add30adb45f"},"vehicle_type_id":"4","last_reported":1729908522,"current_range_meters":38800,"station_id":"ce4bh312rcd13ifvqdk0","pricing_plan_id":"cebpf4jnsgd1na2vs0mg"},{"bike_id":"6a512a72-7ab1-4a6c-ad4f-96715c1d3ba0","system_id":"levelo_inurba_marseille","lat":43.23186,"lon":5.39978,"is_reserved":false,"is_disabled":false,"rental_uris":{"android":"levelo://app?vid=6a512a72-7ab1-4a6c-ad4f-96715c1d3ba0","ios":"levelo://app?vid=6a512a72-7ab1-4a6c-ad4f-96715c1d3ba0"},"vehicle_type_id":"4","last_reported":1729908522,"current_range_meters":38800,"station_id":"ce4bhn12rcd13ifvqgqg","pricing_plan_id":"cebpf4jnsgd1na2vs0mg"},{"bike_id":"390643ba-64c4-4db5-ac2a-2b26eb43c28f","system_id":"levelo_inurba_marseille","lat":43.28043,"lon":5.3694,"is_reserved":false,"is_disabled":false,"rental_uris":{"android":"levelo://app?vid=390643ba-64c4-4db5-ac2a-2b26eb43c28f","ios":"levelo://app?vid=390643ba-64c4-4db5-ac2a-2b26eb43c28f"},"vehicle_type_id":"4","last_reported":1729908522,"current_range_meters":14800,"station_id":"ce4bha12rcd13ifvqef0","pricing_plan_id":"cebpf4jnsgd1na2vs0mg"},{"bike_id":"45bcd799-ce14-441f-b310-8320c4a4e5be","system_id":"levelo_inurba_marseille","lat":43.32931,"lon":5.3604,"is_reserved":false,"is_disabled":false,"rental_uris":{"android":"levelo://app?vid=45bcd799-ce14-441f-b310-8320c4a4e5be","ios":"levelo://app?vid=45bcd799-ce14-441f-b310-8320c4a4e5be"},"vehicle_type_id":"4","last_reported":1729908522,"current_range_meters":6800,"station_id":"","pricing_plan_id":"cebpf4jnsgd1na2vs0mg"},{"bike_id":"ef136fa5-257b-4ee5-bd73-f0de7405e6ba","system_id":"levelo_inurba_marseille","lat":43.24541,"lon":5.39515,"is_reserved":false,"is_disabled":false,"rental_uris":{"android":"levelo://app?vid=ef136fa5-257b-4ee5-bd73-f0de7405e6ba","ios":"levelo://app?vid=ef136fa5-257b-4ee5-bd73-f0de7405e6ba"},"vehicle_type_id":"4","last_reported":1729908522,"current_range_meters":32000,"station_id":"ce4bhlp2rcd13ifvqgjg","pricing_plan_id":"cebpf4jnsgd1na2vs0mg"},{"bike_id":"e256b553-dcf1-4269-9617-dc810ebecef1","system_id":"levelo_inurba_marseille","lat":43.30449,"lon":5.38885,"is_reserved":false,"is_disabled":false,"rental_uris":{"android":"levelo://app?vid=e256b553-dcf1-4269-9617-dc810ebecef1","ios":"levelo://app?vid=e256b553-dcf1-4269-9617-dc810ebecef1"},"vehicle_type_id":"4","last_reported":1729908522,"current_range_meters":31200,"station_id":"ce4bgk12rcd13ifvqbi0","pricing_plan_id":"cebpf4jnsgd1na2vs0mg"},{"bike_id":"5004519a-eca4-4739-9620-0c1d565549c1","system_id":"levelo_inurba_marseille","lat":43.23053,"lon":5.35503,"is_reserved":false,"is_disabled":false,"rental_uris":{"android":"levelo://app?vid=5004519a-eca4-4739-9620-0c1d565549c1","ios":"levelo://app?vid=5004519a-eca4-4739-9620-0c1d565549c1"},"vehicle_type_id":"4","last_reported":1729908522,"current_range_meters":17200,"station_id":"cpo3342slgdg3j2ifvpg","pricing_plan_id":"cebpf4jnsgd1na2vs0mg"},{"bike_id":"9488ca84-aa5e-4311-bde9-38d634703444","system_id":"levelo_inurba_marseille","lat":43.32481,"lon":5.36565,"is_reserved":false,"is_disabled":false,"rental_uris":{"android":"levelo://app?vid=9488ca84-aa5e-4311-bde9-38d634703444","ios":"levelo://app?vid=9488ca84-aa5e-4311-bde9-38d634703444"},"vehicle_type_id":"4","last_reported":1729908522,"current_range_meters":35200,"station_id":"ce4bhs12rcd13ifvqhvg","pricing_plan_id":"cebpf4jnsgd1na2vs0mg"},{"bike_id":"61c33bf0-2968-469c-b649-0fd7c05de9d9","system_id":"levelo_inurba_marseille","lat":43.3021,"lon":5.39473,"is_reserved":false,"is_disabled":false,"rental_uris":{"android":"levelo://app?vid=61c33bf0-2968-469c-b649-0fd7c05de9d9","ios":"levelo://app?vid=61c33bf0-2968-469c-b649-0fd7c05de9d9"},"vehicle_type_id":"4","last_reported":1729908522,"current_range_meters":37600,"station_id":"ce4bh0p2rcd13ifvqd70","pricing_plan_id":"cebpf4jnsgd1na2vs0mg"},{"bike_id":"59505185-eab3-4cf7-8f8a-97c761a74191","system_id":"levelo_inurba_marseille","lat":43.24813,"lon":5.37462,"is_reserved":false,"is_disabled":false,"rental_uris":{"android":"levelo://app?vid=59505185-eab3-4cf7-8f8a-97c761a74191","ios":"levelo://app?vid=59505185-eab3-4cf7-8f8a-97c761a74191"},"vehicle_type_id":"4","last_reported":1729908522,"current_range_meters":38400,"station_id":"ce4bhgh2rcd13ifvqfb0","pricing_plan_id":"cebpf4jnsgd1na2vs0mg"},{"bike_id":"3c5ddb2f-20a7-4146-ac62-db8b76c8aa3c","system_id":"levelo_inurba_marseille","lat":43.26807,"lon":5.40268,"is_reserved":false,"is_disabled":false,"rental_uris":{"android":"levelo://app?vid=3c5ddb2f-20a7-4146-ac62-db8b76c8aa3c","ios":"levelo://app?vid=3c5ddb2f-20a7-4146-ac62-db8b76c8aa3c"},"vehicle_type_id":"4","last_reported":1729908522,"current_range_meters":29600,"station_id":"ce501612rcd8frsf0b60","pricing_plan_id":"cebpf4jnsgd1na2vs0mg"},{"bike_id":"19842355-7deb-4315-b718-98ced67fcc85","system_id":"levelo_inurba_marseille","lat":43.3041,"lon":5.39757,"is_reserved":false,"is_disabled":false,"rental_uris":{"android":"levelo://app?vid=19842355-7deb-4315-b718-98ced67fcc85","ios":"levelo://app?vid=19842355-7deb-4315-b718-98ced67fcc85"},"vehicle_type_id":"4","last_reported":1729908522,"current_range_meters":38800,"station_id":"ce4bh092rcd13ifvqd20","pricing_plan_id":"cebpf4jnsgd1na2vs0mg"},{"bike_id":"cfea328f-6487-4312-bb87-23b7c566f96d","system_id":"levelo_inurba_marseille","lat":43.279971,"lon":5.416626,"is_reserved":false,"is_disabled":false,"rental_uris":{"android":"levelo://app?vid=cfea328f-6487-4312-bb87-23b7c566f96d","ios":"levelo://app?vid=cfea328f-6487-4312-bb87-23b7c566f96d"},"vehicle_type_id":"4","last_reported":1729908522,"current_range_meters":21600,"station_id":"ce4bho12rcd13ifvqh1g","pricing_plan_id":"cebpf4jnsgd1na2vs0mg"},{"bike_id":"b4930aef-1e61-4824-8bc4-f63f1ec0274f","system_id":"levelo_inurba_marseille","lat":43.3061,"lon":5.37221,"is_reserved":false,"is_disabled":false,"rental_uris":{"android":"levelo://app?vid=b4930aef-1e61-4824-8bc4-f63f1ec0274f","ios":"levelo://app?vid=b4930aef-1e61-4824-8bc4-f63f1ec0274f"},"vehicle_type_id":"4","last_reported":1729908522,"current_range_meters":38400,"station_id":"ce4bgqh2rcd13ifvqc4g","pricing_plan_id":"cebpf4jnsgd1na2vs0mg"},{"bike_id":"a5c10523-9e0d-428e-859e-d6234f3b6b9f","system_id":"levelo_inurba_marseille","lat":43.29807,"lon":5.40407,"is_reserved":false,"is_disabled":false,"rental_uris":{"android":"levelo://app?vid=a5c10523-9e0d-428e-859e-d6234f3b6b9f","ios":"levelo://app?vid=a5c10523-9e0d-428e-859e-d6234f3b6b9f"},"vehicle_type_id":"4","last_reported":1729908522,"current_range_meters":33200,"station_id":"ce4bh112rcd13ifvqd90","pricing_plan_id":"cebpf4jnsgd1na2vs0mg"},{"bike_id":"601916c5-3274-4e01-863c-d96df39ce3b1","system_id":"levelo_inurba_marseille","lat":43.26598,"lon":5.39032,"is_reserved":false,"is_disabled":false,"rental_uris":{"android":"levelo://app?vid=601916c5-3274-4e01-863c-d96df39ce3b1","ios":"levelo://app?vid=601916c5-3274-4e01-863c-d96df39ce3b1"},"vehicle_type_id":"4","last_reported":1729908522,"current_range_meters":37600,"station_id":"ce4bhe12rcd13ifvqf30","pricing_plan_id":"cebpf4jnsgd1na2vs0mg"},{"bike_id":"984e63ce-1eef-4c39-9bbb-805e5d521fd4","system_id":"levelo_inurba_marseille","lat":43.27953,"lon":5.4104,"is_reserved":false,"is_disabled":false,"rental_uris":{"android":"levelo://app?vid=984e63ce-1eef-4c39-9bbb-805e5d521fd4","ios":"levelo://app?vid=984e63ce-1eef-4c39-9bbb-805e5d521fd4"},"vehicle_type_id":"4","last_reported":1729908522,"current_range_meters":28000,"station_id":"ce4bhnp2rcd13ifvqh0g","pricing_plan_id":"cebpf4jnsgd1na2vs0mg"},{"bike_id":"dc72e49c-b26a-401b-87fe-367cb03380d0","system_id":"levelo_inurba_marseille","lat":43.28085,"lon":5.39661,"is_reserved":false,"is_disabled":false,"rental_uris":{"android":"levelo://app?vid=dc72e49c-b26a-401b-87fe-367cb03380d0","ios":"levelo://app?vid=dc72e49c-b26a-401b-87fe-367cb03380d0"},"vehicle_type_id":"4","last_reported":1729908522,"current_range_meters":20000,"station_id":"ce4bho12rcd13ifvqh2g","pricing_plan_id":"cebpf4jnsgd1na2vs0mg"},{"bike_id":"1fafbe93-2ba4-4077-bfcf-7b3992b30a25","system_id":"levelo_inurba_marseille","lat":43.29548,"lon":5.4229,"is_reserved":false,"is_disabled":false,"rental_uris":{"android":"levelo://app?vid=1fafbe93-2ba4-4077-bfcf-7b3992b30a25","ios":"levelo://app?vid=1fafbe93-2ba4-4077-bfcf-7b3992b30a25"},"vehicle_type_id":"4","last_reported":1729908522,"current_range_meters":38800,"station_id":"ce4bhph2rcd13ifvqhdg","pricing_plan_id":"cebpf4jnsgd1na2vs0mg"},{"bike_id":"7b9bb9f6-2747-4f5c-a936-06f552492e45","system_id":"levelo_inurba_marseille","lat":43.31726,"lon":5.42405,"is_reserved":false,"is_disabled":false,"rental_uris":{"android":"levelo://app?vid=7b9bb9f6-2747-4f5c-a936-06f552492e45","ios":"levelo://app?vid=7b9bb9f6-2747-4f5c-a936-06f552492e45"},"vehicle_type_id":"4","last_reported":1729908522,"current_range_meters":37600,"station_id":"ce4bhp92rcd13ifvqhbg","pricing_plan_id":"cebpf4jnsgd1na2vs0mg"},{"bike_id":"7bd06b76-a288-4c9d-a4d6-fa61eae36916","system_id":"levelo_inurba_marseille","lat":43.30927,"lon":5.4015,"is_reserved":false,"is_disabled":false,"rental_uris":{"android":"levelo://app?vid=7bd06b76-a288-4c9d-a4d6-fa61eae36916","ios":"levelo://app?vid=7bd06b76-a288-4c9d-a4d6-fa61eae36916"},"vehicle_type_id":"4","last_reported":1729908522,"current_range_meters":27600,"station_id":"ce4bgvp2rcd13ifvqct0","pricing_plan_id":"cebpf4jnsgd1na2vs0mg"},{"bike_id":"a6a5412d-25cc-4ab7-8978-8b51410244f5","system_id":"levelo_inurba_marseille","lat":43.27911,"lon":5.39575,"is_reserved":false,"is_disabled":false,"rental_uris":{"android":"levelo://app?vid=a6a5412d-25cc-4ab7-8978-8b51410244f5","ios":"levelo://app?vid=a6a5412d-25cc-4ab7-8978-8b51410244f5"},"vehicle_type_id":"4","last_reported":1729908522,"current_range_meters":26000,"station_id":"ce4bhf92rcd13ifvqf40","pricing_plan_id":"cebpf4jnsgd1na2vs0mg"},{"bike_id":"8a55373d-8f54-4890-9729-5db301ba9fa0","system_id":"levelo_inurba_marseille","lat":43.25003,"lon":5.3892,"is_reserved":false,"is_disabled":false,"rental_uris":{"android":"levelo://app?vid=8a55373d-8f54-4890-9729-5db301ba9fa0","ios":"levelo://app?vid=8a55373d-8f54-4890-9729-5db301ba9fa0"},"vehicle_type_id":"4","last_reported":1729908522,"current_range_meters":38000,"station_id":"ce4bhgp2rcd13ifvqfd0","pricing_plan_id":"cebpf4jnsgd1na2vs0mg"},{"bike_id":"b1e65eb1-5ea7-4ef4-9535-714de92c2353","system_id":"levelo_inurba_marseille","lat":43.29257,"lon":5.40921,"is_reserved":false,"is_disabled":false,"rental_uris":{"android":"levelo://app?vid=b1e65eb1-5ea7-4ef4-9535-714de92c2353","ios":"levelo://app?vid=b1e65eb1-5ea7-4ef4-9535-714de92c2353"},"vehicle_type_id":"4","last_reported":1729908522,"current_range_meters":30800,"station_id":"ce4bh192rcd13ifvqdc0","pricing_plan_id":"cebpf4jnsgd1na2vs0mg"},{"bike_id":"89316ac8-d5cc-4a4a-8f21-31addc19f7a0","system_id":"levelo_inurba_marseille","lat":43.29034,"lon":5.39993,"is_reserved":false,"is_disabled":false,"rental_uris":{"android":"levelo://app?vid=89316ac8-d5cc-4a4a-8f21-31addc19f7a0","ios":"levelo://app?vid=89316ac8-d5cc-4a4a-8f21-31addc19f7a0"},"vehicle_type_id":"4","last_reported":1729908522,"current_range_meters":37600,"station_id":"ce4bh392rcd13ifvqdm0","pricing_plan_id":"cebpf4jnsgd1na2vs0mg"},{"bike_id":"c21b79ac-a9f4-416a-b2ba-13ff47b56b52","system_id":"levelo_inurba_marseille","lat":43.30658,"lon":5.40083,"is_reserved":false,"is_disabled":false,"rental_uris":{"android":"levelo://app?vid=c21b79ac-a9f4-416a-b2ba-13ff47b56b52","ios":"levelo://app?vid=c21b79ac-a9f4-416a-b2ba-13ff47b56b52"},"vehicle_type_id":"4","last_reported":1729908522,"current_range_meters":34000,"station_id":"ce4bh112rcd13ifvqda0","pricing_plan_id":"cebpf4jnsgd1na2vs0mg"},{"bike_id":"985aad5f-75da-4ee9-88e4-1438523ef577","system_id":"levelo_inurba_marseille","lat":43.31257,"lon":5.36884,"is_reserved":false,"is_disabled":false,"rental_uris":{"android":"levelo://app?vid=985aad5f-75da-4ee9-88e4-1438523ef577","ios":"levelo://app?vid=985aad5f-75da-4ee9-88e4-1438523ef577"},"vehicle_type_id":"4","last_reported":1729908522,"current_range_meters":17600,"station_id":"ce4bgl92rcd13ifvqbq0","pricing_plan_id":"cebpf4jnsgd1na2vs0mg"},{"bike_id":"f8c112c1-ce5c-4900-bc07-e4dd36cd6c03","system_id":"levelo_inurba_marseille","lat":43.31083,"lon":5.42439,"is_reserved":false,"is_disabled":false,"rental_uris":{"android":"levelo://app?vid=f8c112c1-ce5c-4900-bc07-e4dd36cd6c03","ios":"levelo://app?vid=f8c112c1-ce5c-4900-bc07-e4dd36cd6c03"},"vehicle_type_id":"4","last_reported":1729908522,"current_range_meters":38000,"station_id":"ce4bhp92rcd13ifvqhag","pricing_plan_id":"cebpf4jnsgd1na2vs0mg"},{"bike_id":"b1868a13-7208-439c-aa83-ff794adf1a87","system_id":"levelo_inurba_marseille","lat":43.26566,"lon":5.37307,"is_reserved":false,"is_disabled":false,"rental_uris":{"android":"levelo://app?vid=b1868a13-7208-439c-aa83-ff794adf1a87","ios":"levelo://app?vid=b1868a13-7208-439c-aa83-ff794adf1a87"},"vehicle_type_id":"4","last_reported":1729908522,"current_range_meters":32800,"station_id":"ce4bhg12rcd13ifvqf70","pricing_plan_id":"cebpf4jnsgd1na2vs0mg"},{"bike_id":"97b20c5c-a82c-46a7-8a78-be936bdadeab","system_id":"levelo_inurba_marseille","lat":43.29291,"lon":5.40109,"is_reserved":false,"is_disabled":false,"rental_uris":{"android":"levelo://app?vid=97b20c5c-a82c-46a7-8a78-be936bdadeab","ios":"levelo://app?vid=97b20c5c-a82c-46a7-8a78-be936bdadeab"},"vehicle_type_id":"4","last_reported":1729908522,"current_range_meters":39200,"station_id":"ce4bh312rcd13ifvqdk0","pricing_plan_id":"cebpf4jnsgd1na2vs0mg"},{"bike_id":"f52dc158-649d-4a31-90c8-1d3f191fd52c","system_id":"levelo_inurba_marseille","lat":43.27062,"lon":5.40274,"is_reserved":false,"is_disabled":false,"rental_uris":{"android":"levelo://app?vid=f52dc158-649d-4a31-90c8-1d3f191fd52c","ios":"levelo://app?vid=f52dc158-649d-4a31-90c8-1d3f191fd52c"},"vehicle_type_id":"4","last_reported":1729908522,"current_range_meters":8000,"station_id":"ce4bhk92rcd13ifvqgc0","pricing_plan_id":"cebpf4jnsgd1na2vs0mg"},{"bike_id":"5637d737-cee0-49b3-a5f5-cbb922172331","system_id":"levelo_inurba_marseille","lat":43.28027,"lon":5.36939,"is_reserved":false,"is_disabled":false,"rental_uris":{"android":"levelo://app?vid=5637d737-cee0-49b3-a5f5-cbb922172331","ios":"levelo://app?vid=5637d737-cee0-49b3-a5f5-cbb922172331"},"vehicle_type_id":"4","last_reported":1729908522,"current_range_meters":25600,"station_id":"ce4bha12rcd13ifvqef0","pricing_plan_id":"cebpf4jnsgd1na2vs0mg"},{"bike_id":"25f4d08b-c18e-43b3-a718-4e720f73e699","system_id":"levelo_inurba_marseille","lat":43.24683,"lon":5.38153,"is_reserved":false,"is_disabled":false,"rental_uris":{"android":"levelo://app?vid=25f4d08b-c18e-43b3-a718-4e720f73e699","ios":"levelo://app?vid=25f4d08b-c18e-43b3-a718-4e720f73e699"},"vehicle_type_id":"4","last_reported":1729908522,"current_range_meters":14800,"station_id":"ce4bhih2rcd13ifvqfr0","pricing_plan_id":"cebpf4jnsgd1na2vs0mg"},{"bike_id":"79e08287-a5bd-4f7d-8d11-293e54e91432","system_id":"levelo_inurba_marseille","lat":43.28663,"lon":5.36371,"is_reserved":false,"is_disabled":false,"rental_uris":{"android":"levelo://app?vid=79e08287-a5bd-4f7d-8d11-293e54e91432","ios":"levelo://app?vid=79e08287-a5bd-4f7d-8d11-293e54e91432"},"vehicle_type_id":"4","last_reported":1729908522,"current_range_meters":39200,"station_id":"ce4bhah2rcd13ifvqej0","pricing_plan_id":"cebpf4jnsgd1na2vs0mg"},{"bike_id":"35c61cd2-9197-48d2-8665-7c960a8052f0","system_id":"levelo_inurba_marseille","lat":43.25575,"lon":5.38238,"is_reserved":false,"is_disabled":false,"rental_uris":{"android":"levelo://app?vid=35c61cd2-9197-48d2-8665-7c960a8052f0","ios":"levelo://app?vid=35c61cd2-9197-48d2-8665-7c960a8052f0"},"vehicle_type_id":"4","last_reported":1729908522,"current_range_meters":32000,"station_id":"ce4bhih2rcd13ifvqfs0","pricing_plan_id":"cebpf4jnsgd1na2vs0mg"},{"bike_id":"704ff70b-3044-4cc0-a1b3-72bc6b15acdb","system_id":"levelo_inurba_marseille","lat":43.28465,"lon":5.38545,"is_reserved":false,"is_disabled":false,"rental_uris":{"android":"levelo://app?vid=704ff70b-3044-4cc0-a1b3-72bc6b15acdb","ios":"levelo://app?vid=704ff70b-3044-4cc0-a1b3-72bc6b15acdb"},"vehicle_type_id":"4","last_reported":1729908522,"current_range_meters":38800,"station_id":"ce4bh8p2rcd13ifvqeb0","pricing_plan_id":"cebpf4jnsgd1na2vs0mg"},{"bike_id":"79c7ebe1-7a54-4b93-b68a-abae41a12b29","system_id":"levelo_inurba_marseille","lat":43.24998,"lon":5.38918,"is_reserved":false,"is_disabled":false,"rental_uris":{"android":"levelo://app?vid=79c7ebe1-7a54-4b93-b68a-abae41a12b29","ios":"levelo://app?vid=79c7ebe1-7a54-4b93-b68a-abae41a12b29"},"vehicle_type_id":"4","last_reported":1729908522,"current_range_meters":38400,"station_id":"ce4bhgp2rcd13ifvqfd0","pricing_plan_id":"cebpf4jnsgd1na2vs0mg"},{"bike_id":"3656ea9d-b015-4664-842c-5c102effaa46","system_id":"levelo_inurba_marseille","lat":43.28479,"lon":5.35879,"is_reserved":false,"is_disabled":false,"rental_uris":{"android":"levelo://app?vid=3656ea9d-b015-4664-842c-5c102effaa46","ios":"levelo://app?vid=3656ea9d-b015-4664-842c-5c102effaa46"},"vehicle_type_id":"4","last_reported":1729908522,"current_range_meters":36800,"station_id":"ce4bhah2rcd13ifvqei0","pricing_plan_id":"cebpf4jnsgd1na2vs0mg"},{"bike_id":"40a9dcb0-e7ad-4faa-96e1-893f4dd22de2","system_id":"levelo_inurba_marseille","lat":43.26602,"lon":5.39044,"is_reserved":false,"is_disabled":false,"rental_uris":{"android":"levelo://app?vid=40a9dcb0-e7ad-4faa-96e1-893f4dd22de2","ios":"levelo://app?vid=40a9dcb0-e7ad-4faa-96e1-893f4dd22de2"},"vehicle_type_id":"4","last_reported":1729908522,"current_range_meters":17200,"station_id":"","pricing_plan_id":"cebpf4jnsgd1na2vs0mg"},{"bike_id":"c3ebbc5b-25fd-4dd3-998f-772b34c825c0","system_id":"levelo_inurba_marseille","lat":43.23155,"lon":5.43705,"is_reserved":false,"is_disabled":false,"rental_uris":{"android":"levelo://app?vid=c3ebbc5b-25fd-4dd3-998f-772b34c825c0","ios":"levelo://app?vid=c3ebbc5b-25fd-4dd3-998f-772b34c825c0"},"vehicle_type_id":"4","last_reported":1729908522,"current_range_meters":35200,"station_id":"ce4bhmp2rcd13ifvqgog","pricing_plan_id":"cebpf4jnsgd1na2vs0mg"},{"bike_id":"5e840611-e92f-421a-a7b9-a27075e76721","system_id":"levelo_inurba_marseille","lat":43.27928,"lon":5.39599,"is_reserved":false,"is_disabled":false,"rental_uris":{"android":"levelo://app?vid=5e840611-e92f-421a-a7b9-a27075e76721","ios":"levelo://app?vid=5e840611-e92f-421a-a7b9-a27075e76721"},"vehicle_type_id":"4","last_reported":1729908522,"current_range_meters":28400,"station_id":"ce4bhf92rcd13ifvqf40","pricing_plan_id":"cebpf4jnsgd1na2vs0mg"},{"bike_id":"763f5dbb-276a-40ae-aed0-f11835e3b041","system_id":"levelo_inurba_marseille","lat":43.2294,"lon":5.35386,"is_reserved":false,"is_disabled":false,"rental_uris":{"android":"levelo://app?vid=763f5dbb-276a-40ae-aed0-f11835e3b041","ios":"levelo://app?vid=763f5dbb-276a-40ae-aed0-f11835e3b041"},"vehicle_type_id":"4","last_reported":1729908522,"current_range_meters":24800,"station_id":"cpo3532slgdg3j2ikp40","pricing_plan_id":"cebpf4jnsgd1na2vs0mg"},{"bike_id":"0e9ef244-19d1-45ac-abf8-e0aac227ebeb","system_id":"levelo_inurba_marseille","lat":43.31104,"lon":5.3777,"is_reserved":false,"is_disabled":false,"rental_uris":{"android":"levelo://app?vid=0e9ef244-19d1-45ac-abf8-e0aac227ebeb","ios":"levelo://app?vid=0e9ef244-19d1-45ac-abf8-e0aac227ebeb"},"vehicle_type_id":"4","last_reported":1729908522,"current_range_meters":26000,"station_id":"ce4bgt92rcd13ifvqcg0","pricing_plan_id":"cebpf4jnsgd1na2vs0mg"},{"bike_id":"a4cdb9e2-dcee-478e-b833-1e72009d3ae3","system_id":"levelo_inurba_marseille","lat":43.30418,"lon":5.41292,"is_reserved":false,"is_disabled":false,"rental_uris":{"android":"levelo://app?vid=a4cdb9e2-dcee-478e-b833-1e72009d3ae3","ios":"levelo://app?vid=a4cdb9e2-dcee-478e-b833-1e72009d3ae3"},"vehicle_type_id":"4","last_reported":1729908522,"current_range_meters":7200,"station_id":"ce4bhop2rcd13ifvqh8g","pricing_plan_id":"cebpf4jnsgd1na2vs0mg"},{"bike_id":"e1ccd76e-2e57-40bf-9d19-91efe5b51e12","system_id":"levelo_inurba_marseille","lat":43.27935,"lon":5.38667,"is_reserved":false,"is_disabled":false,"rental_uris":{"android":"levelo://app?vid=e1ccd76e-2e57-40bf-9d19-91efe5b51e12","ios":"levelo://app?vid=e1ccd76e-2e57-40bf-9d19-91efe5b51e12"},"vehicle_type_id":"4","last_reported":1729908522,"current_range_meters":28000,"station_id":"ce4bhg12rcd13ifvqf80","pricing_plan_id":"cebpf4jnsgd1na2vs0mg"},{"bike_id":"91456ba6-7c3d-4705-b5d2-a4e2548c9e09","system_id":"levelo_inurba_marseille","lat":43.28854,"lon":5.39319,"is_reserved":false,"is_disabled":false,"rental_uris":{"android":"levelo://app?vid=91456ba6-7c3d-4705-b5d2-a4e2548c9e09","ios":"levelo://app?vid=91456ba6-7c3d-4705-b5d2-a4e2548c9e09"},"vehicle_type_id":"4","last_reported":1729908522,"current_range_meters":38000,"station_id":"ce4bh2p2rcd13ifvqdi0","pricing_plan_id":"cebpf4jnsgd1na2vs0mg"},{"bike_id":"ff525f11-b341-4978-9c79-b7653983bb50","system_id":"levelo_inurba_marseille","lat":43.29708,"lon":5.3662,"is_reserved":false,"is_disabled":false,"rental_uris":{"android":"levelo://app?vid=ff525f11-b341-4978-9c79-b7653983bb50","ios":"levelo://app?vid=ff525f11-b341-4978-9c79-b7653983bb50"},"vehicle_type_id":"4","last_reported":1729908522,"current_range_meters":15200,"station_id":"ce4bgn12rcd13ifvqbt0","pricing_plan_id":"cebpf4jnsgd1na2vs0mg"},{"bike_id":"d7ff7165-6d5c-4f76-865c-b2ea1a2a3c7a","system_id":"levelo_inurba_marseille","lat":43.27499,"lon":5.42453,"is_reserved":false,"is_disabled":false,"rental_uris":{"android":"levelo://app?vid=d7ff7165-6d5c-4f76-865c-b2ea1a2a3c7a","ios":"levelo://app?vid=d7ff7165-6d5c-4f76-865c-b2ea1a2a3c7a"},"vehicle_type_id":"4","last_reported":1729908522,"current_range_meters":13600,"station_id":"ce4bhn92rcd13ifvqgrg","pricing_plan_id":"cebpf4jnsgd1na2vs0mg"},{"bike_id":"34feaba3-ab33-468f-92b0-3a6e95672a78","system_id":"levelo_inurba_marseille","lat":43.27832,"lon":5.39205,"is_reserved":false,"is_disabled":false,"rental_uris":{"android":"levelo://app?vid=34feaba3-ab33-468f-92b0-3a6e95672a78","ios":"levelo://app?vid=34feaba3-ab33-468f-92b0-3a6e95672a78"},"vehicle_type_id":"4","last_reported":1729908522,"current_range_meters":27600,"station_id":"ce4bhjp2rcd13ifvqga0","pricing_plan_id":"cebpf4jnsgd1na2vs0mg"},{"bike_id":"dd5a3ad0-b572-488a-a296-aa191645cb55","system_id":"levelo_inurba_marseille","lat":43.28696,"lon":5.39994,"is_reserved":false,"is_disabled":false,"rental_uris":{"android":"levelo://app?vid=dd5a3ad0-b572-488a-a296-aa191645cb55","ios":"levelo://app?vid=dd5a3ad0-b572-488a-a296-aa191645cb55"},"vehicle_type_id":"4","last_reported":1729908522,"current_range_meters":24400,"station_id":"ce4bho92rcd13ifvqh3g","pricing_plan_id":"cebpf4jnsgd1na2vs0mg"},{"bike_id":"6e741f56-2372-478e-abd8-56fec2a720be","system_id":"levelo_inurba_marseille","lat":43.30944,"lon":5.40156,"is_reserved":false,"is_disabled":false,"rental_uris":{"android":"levelo://app?vid=6e741f56-2372-478e-abd8-56fec2a720be","ios":"levelo://app?vid=6e741f56-2372-478e-abd8-56fec2a720be"},"vehicle_type_id":"4","last_reported":1729908522,"current_range_meters":37600,"station_id":"ce4bgvp2rcd13ifvqct0","pricing_plan_id":"cebpf4jnsgd1na2vs0mg"},{"bike_id":"8001b44d-9ab0-46f5-80ea-c34d9f92effc","system_id":"levelo_inurba_marseille","lat":43.26943,"lon":5.4022,"is_reserved":false,"is_disabled":false,"rental_uris":{"android":"levelo://app?vid=8001b44d-9ab0-46f5-80ea-c34d9f92effc","ios":"levelo://app?vid=8001b44d-9ab0-46f5-80ea-c34d9f92effc"},"vehicle_type_id":"4","last_reported":1729908522,"current_range_meters":39200,"station_id":"cjm6bp8fraef2m0cb0m0","pricing_plan_id":"cebpf4jnsgd1na2vs0mg"},{"bike_id":"dbf22486-50b5-4519-9968-932eec589f87","system_id":"levelo_inurba_marseille","lat":43.28108,"lon":5.37853,"is_reserved":false,"is_disabled":false,"rental_uris":{"android":"levelo://app?vid=dbf22486-50b5-4519-9968-932eec589f87","ios":"levelo://app?vid=dbf22486-50b5-4519-9968-932eec589f87"},"vehicle_type_id":"4","last_reported":1729908522,"current_range_meters":38800,"station_id":"ce4bha12rcd13ifvqee0","pricing_plan_id":"cebpf4jnsgd1na2vs0mg"},{"bike_id":"df0e2338-b040-448c-b163-ee68aff3e832","system_id":"levelo_inurba_marseille","lat":43.25823,"lon":5.39435,"is_reserved":false,"is_disabled":false,"rental_uris":{"android":"levelo://app?vid=df0e2338-b040-448c-b163-ee68aff3e832","ios":"levelo://app?vid=df0e2338-b040-448c-b163-ee68aff3e832"},"vehicle_type_id":"4","last_reported":1729908522,"current_range_meters":38800,"station_id":"ce4bhip2rcd13ifvqft0","pricing_plan_id":"cebpf4jnsgd1na2vs0mg"},{"bike_id":"28c3e1e4-e1b5-4e9c-b493-956ac9bd0c5f","system_id":"levelo_inurba_marseille","lat":43.28278,"lon":5.35075,"is_reserved":false,"is_disabled":false,"rental_uris":{"android":"levelo://app?vid=28c3e1e4-e1b5-4e9c-b493-956ac9bd0c5f","ios":"levelo://app?vid=28c3e1e4-e1b5-4e9c-b493-956ac9bd0c5f"},"vehicle_type_id":"4","last_reported":1729908522,"current_range_meters":25600,"station_id":"ce4bhbp2rcd13ifvqerg","pricing_plan_id":"cebpf4jnsgd1na2vs0mg"},{"bike_id":"48c23bc6-39da-469f-abae-008bbb890b3e","system_id":"levelo_inurba_marseille","lat":43.31483,"lon":5.37284,"is_reserved":false,"is_disabled":false,"rental_uris":{"android":"levelo://app?vid=48c23bc6-39da-469f-abae-008bbb890b3e","ios":"levelo://app?vid=48c23bc6-39da-469f-abae-008bbb890b3e"},"vehicle_type_id":"4","last_reported":1729908522,"current_range_meters":37600,"station_id":"ce4bgt12rcd13ifvqcd0","pricing_plan_id":"cebpf4jnsgd1na2vs0mg"},{"bike_id":"d4aec44f-ddca-4104-91b2-0d4ceaa50166","system_id":"levelo_inurba_marseille","lat":43.28092,"lon":5.39654,"is_reserved":false,"is_disabled":false,"rental_uris":{"android":"levelo://app?vid=d4aec44f-ddca-4104-91b2-0d4ceaa50166","ios":"levelo://app?vid=d4aec44f-ddca-4104-91b2-0d4ceaa50166"},"vehicle_type_id":"4","last_reported":1729908522,"current_range_meters":38800,"station_id":"ce4bho12rcd13ifvqh2g","pricing_plan_id":"cebpf4jnsgd1na2vs0mg"},{"bike_id":"3d52c75e-21c8-425b-a6d2-0cf7c2a167ed","system_id":"levelo_inurba_marseille","lat":43.28634,"lon":5.40781,"is_reserved":false,"is_disabled":false,"rental_uris":{"android":"levelo://app?vid=3d52c75e-21c8-425b-a6d2-0cf7c2a167ed","ios":"levelo://app?vid=3d52c75e-21c8-425b-a6d2-0cf7c2a167ed"},"vehicle_type_id":"4","last_reported":1729908522,"current_range_meters":11200,"station_id":"","pricing_plan_id":"cebpf4jnsgd1na2vs0mg"},{"bike_id":"f9dd0103-b045-4d3e-97f0-feaf4a2d3923","system_id":"levelo_inurba_marseille","lat":43.25014,"lon":5.38913,"is_reserved":false,"is_disabled":false,"rental_uris":{"android":"levelo://app?vid=f9dd0103-b045-4d3e-97f0-feaf4a2d3923","ios":"levelo://app?vid=f9dd0103-b045-4d3e-97f0-feaf4a2d3923"},"vehicle_type_id":"4","last_reported":1729908522,"current_range_meters":11200,"station_id":"ce4bhgp2rcd13ifvqfd0","pricing_plan_id":"cebpf4jnsgd1na2vs0mg"},{"bike_id":"225be540-bd75-4636-8a6a-362c5613f52a","system_id":"levelo_inurba_marseille","lat":43.27927,"lon":5.39586,"is_reserved":false,"is_disabled":false,"rental_uris":{"android":"levelo://app?vid=225be540-bd75-4636-8a6a-362c5613f52a","ios":"levelo://app?vid=225be540-bd75-4636-8a6a-362c5613f52a"},"vehicle_type_id":"4","last_reported":1729908522,"current_range_meters":19600,"station_id":"ce4bhf92rcd13ifvqf40","pricing_plan_id":"cebpf4jnsgd1na2vs0mg"},{"bike_id":"45762a51-15f0-4a01-8913-533a2ec0e59b","system_id":"levelo_inurba_marseille","lat":43.31085,"lon":5.42431,"is_reserved":false,"is_disabled":false,"rental_uris":{"android":"levelo://app?vid=45762a51-15f0-4a01-8913-533a2ec0e59b","ios":"levelo://app?vid=45762a51-15f0-4a01-8913-533a2ec0e59b"},"vehicle_type_id":"4","last_reported":1729908522,"current_range_meters":34800,"station_id":"ce4bhp92rcd13ifvqhag","pricing_plan_id":"cebpf4jnsgd1na2vs0mg"},{"bike_id":"0e73c01f-f920-4de5-b91d-072800f63acd","system_id":"levelo_inurba_marseille","lat":43.29764,"lon":5.3709,"is_reserved":false,"is_disabled":false,"rental_uris":{"android":"levelo://app?vid=0e73c01f-f920-4de5-b91d-072800f63acd","ios":"levelo://app?vid=0e73c01f-f920-4de5-b91d-072800f63acd"},"vehicle_type_id":"4","last_reported":1729908522,"current_range_meters":38800,"station_id":"ce4bgop2rcd13ifvqc1g","pricing_plan_id":"cebpf4jnsgd1na2vs0mg"},{"bike_id":"1377f33d-5523-422c-85cc-8b031b8b9e38","system_id":"levelo_inurba_marseille","lat":43.3129,"lon":5.40149,"is_reserved":false,"is_disabled":false,"rental_uris":{"android":"levelo://app?vid=1377f33d-5523-422c-85cc-8b031b8b9e38","ios":"levelo://app?vid=1377f33d-5523-422c-85cc-8b031b8b9e38"},"vehicle_type_id":"4","last_reported":1729908522,"current_range_meters":24000,"station_id":"ce4bh092rcd13ifvqd30","pricing_plan_id":"cebpf4jnsgd1na2vs0mg"},{"bike_id":"82250e14-e2bb-45c2-968b-c92f4d251f74","system_id":"levelo_inurba_marseille","lat":43.30869,"lon":5.39622,"is_reserved":false,"is_disabled":false,"rental_uris":{"android":"levelo://app?vid=82250e14-e2bb-45c2-968b-c92f4d251f74","ios":"levelo://app?vid=82250e14-e2bb-45c2-968b-c92f4d251f74"},"vehicle_type_id":"4","last_reported":1729908522,"current_range_meters":35600,"station_id":"ce4bh012rcd13ifvqcv0","pricing_plan_id":"cebpf4jnsgd1na2vs0mg"},{"bike_id":"f421c4bf-57fd-4999-8b5f-022f8ccbc780","system_id":"levelo_inurba_marseille","lat":43.28103,"lon":5.37843,"is_reserved":false,"is_disabled":false,"rental_uris":{"android":"levelo://app?vid=f421c4bf-57fd-4999-8b5f-022f8ccbc780","ios":"levelo://app?vid=f421c4bf-57fd-4999-8b5f-022f8ccbc780"},"vehicle_type_id":"4","last_reported":1729908522,"current_range_meters":7200,"station_id":"ce4bha12rcd13ifvqee0","pricing_plan_id":"cebpf4jnsgd1na2vs0mg"},{"bike_id":"9710488d-6aae-4f66-a1e4-52e8e4c71cf2","system_id":"levelo_inurba_marseille","lat":43.32346,"lon":5.38881,"is_reserved":false,"is_disabled":false,"rental_uris":{"android":"levelo://app?vid=9710488d-6aae-4f66-a1e4-52e8e4c71cf2","ios":"levelo://app?vid=9710488d-6aae-4f66-a1e4-52e8e4c71cf2"},"vehicle_type_id":"4","last_reported":1729908522,"current_range_meters":11200,"station_id":"ce4bhqp2rcd13ifvqhog","pricing_plan_id":"cebpf4jnsgd1na2vs0mg"},{"bike_id":"f2c75ef3-8b59-406f-8b72-f6f25124fcba","system_id":"levelo_inurba_marseille","lat":43.28565,"lon":5.39498,"is_reserved":false,"is_disabled":false,"rental_uris":{"android":"levelo://app?vid=f2c75ef3-8b59-406f-8b72-f6f25124fcba","ios":"levelo://app?vid=f2c75ef3-8b59-406f-8b72-f6f25124fcba"},"vehicle_type_id":"4","last_reported":1729908522,"current_range_meters":38800,"station_id":"ce4bh292rcd13ifvqdg0","pricing_plan_id":"cebpf4jnsgd1na2vs0mg"},{"bike_id":"02f22de0-43a3-419b-ab86-64ec1edb08c8","system_id":"levelo_inurba_marseille","lat":43.31332,"lon":5.39706,"is_reserved":false,"is_disabled":false,"rental_uris":{"android":"levelo://app?vid=02f22de0-43a3-419b-ab86-64ec1edb08c8","ios":"levelo://app?vid=02f22de0-43a3-419b-ab86-64ec1edb08c8"},"vehicle_type_id":"4","last_reported":1729908522,"current_range_meters":37600,"station_id":"ce4bgvp2rcd13ifvqcu0","pricing_plan_id":"cebpf4jnsgd1na2vs0mg"},{"bike_id":"5037e2e2-f258-48c6-a031-6f1a1dd240dc","system_id":"levelo_inurba_marseille","lat":43.30408,"lon":5.41287,"is_reserved":false,"is_disabled":false,"rental_uris":{"android":"levelo://app?vid=5037e2e2-f258-48c6-a031-6f1a1dd240dc","ios":"levelo://app?vid=5037e2e2-f258-48c6-a031-6f1a1dd240dc"},"vehicle_type_id":"4","last_reported":1729908522,"current_range_meters":32400,"station_id":"ce4bhop2rcd13ifvqh8g","pricing_plan_id":"cebpf4jnsgd1na2vs0mg"},{"bike_id":"d99eb6c3-b7b9-4ad7-85c9-8cc6c27e3cdd","system_id":"levelo_inurba_marseille","lat":43.24547,"lon":5.39519,"is_reserved":false,"is_disabled":false,"rental_uris":{"android":"levelo://app?vid=d99eb6c3-b7b9-4ad7-85c9-8cc6c27e3cdd","ios":"levelo://app?vid=d99eb6c3-b7b9-4ad7-85c9-8cc6c27e3cdd"},"vehicle_type_id":"4","last_reported":1729908522,"current_range_meters":38800,"station_id":"ce4bhlp2rcd13ifvqgjg","pricing_plan_id":"cebpf4jnsgd1na2vs0mg"},{"bike_id":"5f2af7bc-264a-43e2-9197-e3220c4819fd","system_id":"levelo_inurba_marseille","lat":43.32421,"lon":5.369737,"is_reserved":false,"is_disabled":false,"rental_uris":{"android":"levelo://app?vid=5f2af7bc-264a-43e2-9197-e3220c4819fd","ios":"levelo://app?vid=5f2af7bc-264a-43e2-9197-e3220c4819fd"},"vehicle_type_id":"4","last_reported":1729908522,"current_range_meters":5600,"station_id":"","pricing_plan_id":"cebpf4jnsgd1na2vs0mg"},{"bike_id":"3601caff-2d90-416b-976e-17b7c0b24701","system_id":"levelo_inurba_marseille","lat":43.2848,"lon":5.35901,"is_reserved":false,"is_disabled":false,"rental_uris":{"android":"levelo://app?vid=3601caff-2d90-416b-976e-17b7c0b24701","ios":"levelo://app?vid=3601caff-2d90-416b-976e-17b7c0b24701"},"vehicle_type_id":"4","last_reported":1729908522,"current_range_meters":38800,"station_id":"ce4bhah2rcd13ifvqei0","pricing_plan_id":"cebpf4jnsgd1na2vs0mg"},{"bike_id":"7d588577-bc2a-4592-9242-f82e8e35c359","system_id":"levelo_inurba_marseille","lat":43.24813,"lon":5.37461,"is_reserved":false,"is_disabled":false,"rental_uris":{"android":"levelo://app?vid=7d588577-bc2a-4592-9242-f82e8e35c359","ios":"levelo://app?vid=7d588577-bc2a-4592-9242-f82e8e35c359"},"vehicle_type_id":"4","last_reported":1729908522,"current_range_meters":8400,"station_id":"ce4bhgh2rcd13ifvqfb0","pricing_plan_id":"cebpf4jnsgd1na2vs0mg"},{"bike_id":"e37957ed-f5f8-4cfe-a795-d93f2b341fe5","system_id":"levelo_inurba_marseille","lat":43.28443,"lon":5.39177,"is_reserved":false,"is_disabled":false,"rental_uris":{"android":"levelo://app?vid=e37957ed-f5f8-4cfe-a795-d93f2b341fe5","ios":"levelo://app?vid=e37957ed-f5f8-4cfe-a795-d93f2b341fe5"},"vehicle_type_id":"4","last_reported":1729908522,"current_range_meters":28400,"station_id":"ce4bhoh2rcd13ifvqh5g","pricing_plan_id":"cebpf4jnsgd1na2vs0mg"},{"bike_id":"f6a5ef30-cd45-4f33-acc1-40cc262286be","system_id":"levelo_inurba_marseille","lat":43.26948,"lon":5.4025,"is_reserved":false,"is_disabled":false,"rental_uris":{"android":"levelo://app?vid=f6a5ef30-cd45-4f33-acc1-40cc262286be","ios":"levelo://app?vid=f6a5ef30-cd45-4f33-acc1-40cc262286be"},"vehicle_type_id":"4","last_reported":1729908522,"current_range_meters":36000,"station_id":"cjm6bp8fraef2m0cb0m0","pricing_plan_id":"cebpf4jnsgd1na2vs0mg"},{"bike_id":"4746fe8f-a6ef-4e1b-aaef-5a4b9fc83054","system_id":"levelo_inurba_marseille","lat":43.29908,"lon":5.43654,"is_reserved":false,"is_disabled":false,"rental_uris":{"android":"levelo://app?vid=4746fe8f-a6ef-4e1b-aaef-5a4b9fc83054","ios":"levelo://app?vid=4746fe8f-a6ef-4e1b-aaef-5a4b9fc83054"},"vehicle_type_id":"4","last_reported":1729908522,"current_range_meters":39200,"station_id":"ce4bhpp2rcd13ifvqhfg","pricing_plan_id":"cebpf4jnsgd1na2vs0mg"},{"bike_id":"4e638b58-5cf0-405e-95fe-39dbe3c5f18c","system_id":"levelo_inurba_marseille","lat":43.24655,"lon":5.38901,"is_reserved":false,"is_disabled":false,"rental_uris":{"android":"levelo://app?vid=4e638b58-5cf0-405e-95fe-39dbe3c5f18c","ios":"levelo://app?vid=4e638b58-5cf0-405e-95fe-39dbe3c5f18c"},"vehicle_type_id":"4","last_reported":1729908522,"current_range_meters":18000,"station_id":"ce4bhg12rcd13ifvqf60","pricing_plan_id":"cebpf4jnsgd1na2vs0mg"},{"bike_id":"386c6a7e-cd6c-4112-aa78-c50040cf1776","system_id":"levelo_inurba_marseille","lat":43.25065,"lon":5.39497,"is_reserved":false,"is_disabled":false,"rental_uris":{"android":"levelo://app?vid=386c6a7e-cd6c-4112-aa78-c50040cf1776","ios":"levelo://app?vid=386c6a7e-cd6c-4112-aa78-c50040cf1776"},"vehicle_type_id":"4","last_reported":1729908522,"current_range_meters":38800,"station_id":"ce4bhm12rcd13ifvqgkg","pricing_plan_id":"cebpf4jnsgd1na2vs0mg"},{"bike_id":"6f6794c9-8922-4f2d-b362-0060a734acdd","system_id":"levelo_inurba_marseille","lat":43.29568,"lon":5.39979,"is_reserved":false,"is_disabled":false,"rental_uris":{"android":"levelo://app?vid=6f6794c9-8922-4f2d-b362-0060a734acdd","ios":"levelo://app?vid=6f6794c9-8922-4f2d-b362-0060a734acdd"},"vehicle_type_id":"4","last_reported":1729908522,"current_range_meters":24800,"station_id":"ce4bh312rcd13ifvqdj0","pricing_plan_id":"cebpf4jnsgd1na2vs0mg"},{"bike_id":"2d6ae458-641c-4b25-8403-1aa6e9113023","system_id":"levelo_inurba_marseille","lat":43.29805,"lon":5.37136,"is_reserved":false,"is_disabled":false,"rental_uris":{"android":"levelo://app?vid=2d6ae458-641c-4b25-8403-1aa6e9113023","ios":"levelo://app?vid=2d6ae458-641c-4b25-8403-1aa6e9113023"},"vehicle_type_id":"4","last_reported":1729908522,"current_range_meters":26000,"station_id":"ce4bgop2rcd13ifvqc1g","pricing_plan_id":"cebpf4jnsgd1na2vs0mg"},{"bike_id":"d0637418-25a0-4407-98d1-47ab6883e34c","system_id":"levelo_inurba_marseille","lat":43.30151,"lon":5.37425,"is_reserved":false,"is_disabled":false,"rental_uris":{"android":"levelo://app?vid=d0637418-25a0-4407-98d1-47ab6883e34c","ios":"levelo://app?vid=d0637418-25a0-4407-98d1-47ab6883e34c"},"vehicle_type_id":"4","last_reported":1729908522,"current_range_meters":39200,"station_id":"ce4bgs92rcd13ifvqcc0","pricing_plan_id":"cebpf4jnsgd1na2vs0mg"},{"bike_id":"df9c8671-6383-46e2-af96-c49cea052fec","system_id":"levelo_inurba_marseille","lat":43.28427,"lon":5.39174,"is_reserved":false,"is_disabled":false,"rental_uris":{"android":"levelo://app?vid=df9c8671-6383-46e2-af96-c49cea052fec","ios":"levelo://app?vid=df9c8671-6383-46e2-af96-c49cea052fec"},"vehicle_type_id":"4","last_reported":1729908522,"current_range_meters":7200,"station_id":"ce4bhoh2rcd13ifvqh5g","pricing_plan_id":"cebpf4jnsgd1na2vs0mg"},{"bike_id":"b5c3b916-9cba-42bd-ac7b-7ae08a96e7eb","system_id":"levelo_inurba_marseille","lat":43.27822,"lon":5.39213,"is_reserved":false,"is_disabled":false,"rental_uris":{"android":"levelo://app?vid=b5c3b916-9cba-42bd-ac7b-7ae08a96e7eb","ios":"levelo://app?vid=b5c3b916-9cba-42bd-ac7b-7ae08a96e7eb"},"vehicle_type_id":"4","last_reported":1729908522,"current_range_meters":35200,"station_id":"ce4bhjp2rcd13ifvqga0","pricing_plan_id":"cebpf4jnsgd1na2vs0mg"},{"bike_id":"ff9d7d05-0963-4bba-93d0-799f5318c47d","system_id":"levelo_inurba_marseille","lat":43.29451,"lon":5.39774,"is_reserved":false,"is_disabled":false,"rental_uris":{"android":"levelo://app?vid=ff9d7d05-0963-4bba-93d0-799f5318c47d","ios":"levelo://app?vid=ff9d7d05-0963-4bba-93d0-799f5318c47d"},"vehicle_type_id":"4","last_reported":1729908522,"current_range_meters":38800,"station_id":"ce4bh3h2rcd13ifvqdo0","pricing_plan_id":"cebpf4jnsgd1na2vs0mg"},{"bike_id":"233675c9-1452-4773-9b48-f42a8db67c1c","system_id":"levelo_inurba_marseille","lat":43.28419,"lon":5.34997,"is_reserved":false,"is_disabled":false,"rental_uris":{"android":"levelo://app?vid=233675c9-1452-4773-9b48-f42a8db67c1c","ios":"levelo://app?vid=233675c9-1452-4773-9b48-f42a8db67c1c"},"vehicle_type_id":"4","last_reported":1729908522,"current_range_meters":37600,"station_id":"ce4bhbh2rcd13ifvqepg","pricing_plan_id":"cebpf4jnsgd1na2vs0mg"},{"bike_id":"1178cda2-5c3a-4d86-b4d3-b676154bd669","system_id":"levelo_inurba_marseille","lat":43.27192,"lon":5.40977,"is_reserved":false,"is_disabled":false,"rental_uris":{"android":"levelo://app?vid=1178cda2-5c3a-4d86-b4d3-b676154bd669","ios":"levelo://app?vid=1178cda2-5c3a-4d86-b4d3-b676154bd669"},"vehicle_type_id":"4","last_reported":1729908522,"current_range_meters":38000,"station_id":"ce4bhl12rcd13ifvqgf0","pricing_plan_id":"cebpf4jnsgd1na2vs0mg"},{"bike_id":"9f741eb8-4308-4511-8be3-1cde4f07cf7e","system_id":"levelo_inurba_marseille","lat":43.25874,"lon":5.39913,"is_reserved":false,"is_disabled":false,"rental_uris":{"android":"levelo://app?vid=9f741eb8-4308-4511-8be3-1cde4f07cf7e","ios":"levelo://app?vid=9f741eb8-4308-4511-8be3-1cde4f07cf7e"},"vehicle_type_id":"4","last_reported":1729908522,"current_range_meters":35600,"station_id":"ce4bhl92rcd13ifvqghg","pricing_plan_id":"cebpf4jnsgd1na2vs0mg"},{"bike_id":"b685f2a2-55eb-4ef1-a2f4-62cf956c31aa","system_id":"levelo_inurba_marseille","lat":43.30791,"lon":5.37653,"is_reserved":false,"is_disabled":false,"rental_uris":{"android":"levelo://app?vid=b685f2a2-55eb-4ef1-a2f4-62cf956c31aa","ios":"levelo://app?vid=b685f2a2-55eb-4ef1-a2f4-62cf956c31aa"},"vehicle_type_id":"4","last_reported":1729908522,"current_range_meters":37600,"station_id":"ce4bgv92rcd13ifvqcq0","pricing_plan_id":"cebpf4jnsgd1na2vs0mg"},{"bike_id":"dba5c0e4-c4fb-4939-bd85-1709479c42ed","system_id":"levelo_inurba_marseille","lat":43.28698,"lon":5.39946,"is_reserved":false,"is_disabled":false,"rental_uris":{"android":"levelo://app?vid=dba5c0e4-c4fb-4939-bd85-1709479c42ed","ios":"levelo://app?vid=dba5c0e4-c4fb-4939-bd85-1709479c42ed"},"vehicle_type_id":"4","last_reported":1729908522,"current_range_meters":36800,"station_id":"ce4bho92rcd13ifvqh3g","pricing_plan_id":"cebpf4jnsgd1na2vs0mg"},{"bike_id":"fa0d9b42-8430-42f7-b028-e598c8f32fe4","system_id":"levelo_inurba_marseille","lat":43.27565,"lon":5.38432,"is_reserved":false,"is_disabled":false,"rental_uris":{"android":"levelo://app?vid=fa0d9b42-8430-42f7-b028-e598c8f32fe4","ios":"levelo://app?vid=fa0d9b42-8430-42f7-b028-e598c8f32fe4"},"vehicle_type_id":"4","last_reported":1729908522,"current_range_meters":17200,"station_id":"ce4bhh92rcd13ifvqfi0","pricing_plan_id":"cebpf4jnsgd1na2vs0mg"},{"bike_id":"29a6c093-88d6-4372-9735-e054adbf6a09","system_id":"levelo_inurba_marseille","lat":43.29251,"lon":5.40906,"is_reserved":false,"is_disabled":false,"rental_uris":{"android":"levelo://app?vid=29a6c093-88d6-4372-9735-e054adbf6a09","ios":"levelo://app?vid=29a6c093-88d6-4372-9735-e054adbf6a09"},"vehicle_type_id":"4","last_reported":1729908522,"current_range_meters":28000,"station_id":"ce4bh192rcd13ifvqdc0","pricing_plan_id":"cebpf4jnsgd1na2vs0mg"},{"bike_id":"0f3c8ac4-6ddb-4ab9-bf74-403d7db9e9b9","system_id":"levelo_inurba_marseille","lat":43.24645,"lon":5.38897,"is_reserved":false,"is_disabled":false,"rental_uris":{"android":"levelo://app?vid=0f3c8ac4-6ddb-4ab9-bf74-403d7db9e9b9","ios":"levelo://app?vid=0f3c8ac4-6ddb-4ab9-bf74-403d7db9e9b9"},"vehicle_type_id":"4","last_reported":1729908522,"current_range_meters":39200,"station_id":"ce4bhg12rcd13ifvqf60","pricing_plan_id":"cebpf4jnsgd1na2vs0mg"},{"bike_id":"83c44b3b-2d14-4901-8634-cf118b0742d2","system_id":"levelo_inurba_marseille","lat":43.29709,"lon":5.36618,"is_reserved":false,"is_disabled":false,"rental_uris":{"android":"levelo://app?vid=83c44b3b-2d14-4901-8634-cf118b0742d2","ios":"levelo://app?vid=83c44b3b-2d14-4901-8634-cf118b0742d2"},"vehicle_type_id":"4","last_reported":1729908522,"current_range_meters":28800,"station_id":"ce4bgn12rcd13ifvqbt0","pricing_plan_id":"cebpf4jnsgd1na2vs0mg"},{"bike_id":"f092f188-890e-415c-bcfe-54d392c6e1bb","system_id":"levelo_inurba_marseille","lat":43.3042,"lon":5.41275,"is_reserved":false,"is_disabled":false,"rental_uris":{"android":"levelo://app?vid=f092f188-890e-415c-bcfe-54d392c6e1bb","ios":"levelo://app?vid=f092f188-890e-415c-bcfe-54d392c6e1bb"},"vehicle_type_id":"4","last_reported":1729908522,"current_range_meters":38800,"station_id":"ce4bhop2rcd13ifvqh8g","pricing_plan_id":"cebpf4jnsgd1na2vs0mg"},{"bike_id":"b3445027-a8e2-4aea-a331-71ddc6fc9484","system_id":"levelo_inurba_marseille","lat":43.24653,"lon":5.38891,"is_reserved":false,"is_disabled":false,"rental_uris":{"android":"levelo://app?vid=b3445027-a8e2-4aea-a331-71ddc6fc9484","ios":"levelo://app?vid=b3445027-a8e2-4aea-a331-71ddc6fc9484"},"vehicle_type_id":"4","last_reported":1729908522,"current_range_meters":35600,"station_id":"ce4bhg12rcd13ifvqf60","pricing_plan_id":"cebpf4jnsgd1na2vs0mg"},{"bike_id":"3ae03342-7864-45cc-b526-255b882b8a68","system_id":"levelo_inurba_marseille","lat":43.28369,"lon":5.38631,"is_reserved":false,"is_disabled":false,"rental_uris":{"android":"levelo://app?vid=3ae03342-7864-45cc-b526-255b882b8a68","ios":"levelo://app?vid=3ae03342-7864-45cc-b526-255b882b8a68"},"vehicle_type_id":"4","last_reported":1729908522,"current_range_meters":14400,"station_id":"ce4bh492rcd13ifvqdvg","pricing_plan_id":"cebpf4jnsgd1na2vs0mg"},{"bike_id":"2f26cbff-3a6a-4e96-ba80-64f35bb4ddd5","system_id":"levelo_inurba_marseille","lat":43.2834,"lon":5.38112,"is_reserved":false,"is_disabled":false,"rental_uris":{"android":"levelo://app?vid=2f26cbff-3a6a-4e96-ba80-64f35bb4ddd5","ios":"levelo://app?vid=2f26cbff-3a6a-4e96-ba80-64f35bb4ddd5"},"vehicle_type_id":"4","last_reported":1729908522,"current_range_meters":20800,"station_id":"ce4bh412rcd13ifvqdr0","pricing_plan_id":"cebpf4jnsgd1na2vs0mg"},{"bike_id":"ebffced7-9b99-4e21-b2e3-8377d1f9fd70","system_id":"levelo_inurba_marseille","lat":43.31063,"lon":5.38343,"is_reserved":false,"is_disabled":false,"rental_uris":{"android":"levelo://app?vid=ebffced7-9b99-4e21-b2e3-8377d1f9fd70","ios":"levelo://app?vid=ebffced7-9b99-4e21-b2e3-8377d1f9fd70"},"vehicle_type_id":"4","last_reported":1729908522,"current_range_meters":38400,"station_id":"ce4bgv92rcd13ifvqcr0","pricing_plan_id":"cebpf4jnsgd1na2vs0mg"},{"bike_id":"d3cc5ab0-9e3a-41ba-9860-c06c0ddb4613","system_id":"levelo_inurba_marseille","lat":43.22934,"lon":5.35377,"is_reserved":false,"is_disabled":false,"rental_uris":{"android":"levelo://app?vid=d3cc5ab0-9e3a-41ba-9860-c06c0ddb4613","ios":"levelo://app?vid=d3cc5ab0-9e3a-41ba-9860-c06c0ddb4613"},"vehicle_type_id":"4","last_reported":1729908522,"current_range_meters":37600,"station_id":"cpo3532slgdg3j2ikp40","pricing_plan_id":"cebpf4jnsgd1na2vs0mg"},{"bike_id":"d65d931e-09c6-43bf-b88d-6bd16c19bf54","system_id":"levelo_inurba_marseille","lat":43.27991,"lon":5.41671,"is_reserved":false,"is_disabled":false,"rental_uris":{"android":"levelo://app?vid=d65d931e-09c6-43bf-b88d-6bd16c19bf54","ios":"levelo://app?vid=d65d931e-09c6-43bf-b88d-6bd16c19bf54"},"vehicle_type_id":"4","last_reported":1729908522,"current_range_meters":22800,"station_id":"ce4bho12rcd13ifvqh1g","pricing_plan_id":"cebpf4jnsgd1na2vs0mg"},{"bike_id":"efb5599a-a16c-409d-816a-e16bb979a087","system_id":"levelo_inurba_marseille","lat":43.295804,"lon":5.375299,"is_reserved":false,"is_disabled":false,"rental_uris":{"android":"levelo://app?vid=efb5599a-a16c-409d-816a-e16bb979a087","ios":"levelo://app?vid=efb5599a-a16c-409d-816a-e16bb979a087"},"vehicle_type_id":"4","last_reported":1729908522,"current_range_meters":23200,"station_id":"","pricing_plan_id":"cebpf4jnsgd1na2vs0mg"},{"bike_id":"97bd6ba0-ba29-4ea1-9877-c1f7cfba9e3a","system_id":"levelo_inurba_marseille","lat":43.31357,"lon":5.38493,"is_reserved":false,"is_disabled":false,"rental_uris":{"android":"levelo://app?vid=97bd6ba0-ba29-4ea1-9877-c1f7cfba9e3a","ios":"levelo://app?vid=97bd6ba0-ba29-4ea1-9877-c1f7cfba9e3a"},"vehicle_type_id":"4","last_reported":1729908522,"current_range_meters":8000,"station_id":"ce4bgt92rcd13ifvqcf0","pricing_plan_id":"cebpf4jnsgd1na2vs0mg"},{"bike_id":"fe843b57-dcca-4cb9-9d71-f358a66a0543","system_id":"levelo_inurba_marseille","lat":43.31363,"lon":5.38497,"is_reserved":false,"is_disabled":false,"rental_uris":{"android":"levelo://app?vid=fe843b57-dcca-4cb9-9d71-f358a66a0543","ios":"levelo://app?vid=fe843b57-dcca-4cb9-9d71-f358a66a0543"},"vehicle_type_id":"4","last_reported":1729908522,"current_range_meters":11200,"station_id":"ce4bgt92rcd13ifvqcf0","pricing_plan_id":"cebpf4jnsgd1na2vs0mg"},{"bike_id":"27d748bc-f052-4b22-bdad-8c6f4400f23b","system_id":"levelo_inurba_marseille","lat":43.32673,"lon":5.40994,"is_reserved":false,"is_disabled":false,"rental_uris":{"android":"levelo://app?vid=27d748bc-f052-4b22-bdad-8c6f4400f23b","ios":"levelo://app?vid=27d748bc-f052-4b22-bdad-8c6f4400f23b"},"vehicle_type_id":"4","last_reported":1729908522,"current_range_meters":20400,"station_id":"ce4bhpp2rcd13ifvqhgg","pricing_plan_id":"cebpf4jnsgd1na2vs0mg"},{"bike_id":"34d5956e-4ecb-4c56-a68a-84e4c1ad2440","system_id":"levelo_inurba_marseille","lat":43.28427,"lon":5.39196,"is_reserved":false,"is_disabled":false,"rental_uris":{"android":"levelo://app?vid=34d5956e-4ecb-4c56-a68a-84e4c1ad2440","ios":"levelo://app?vid=34d5956e-4ecb-4c56-a68a-84e4c1ad2440"},"vehicle_type_id":"4","last_reported":1729908522,"current_range_meters":5600,"station_id":"ce4bhoh2rcd13ifvqh5g","pricing_plan_id":"cebpf4jnsgd1na2vs0mg"},{"bike_id":"f3dc97dd-30d5-41ce-bece-3c05434a04bb","system_id":"levelo_inurba_marseille","lat":43.29262,"lon":5.409,"is_reserved":false,"is_disabled":false,"rental_uris":{"android":"levelo://app?vid=f3dc97dd-30d5-41ce-bece-3c05434a04bb","ios":"levelo://app?vid=f3dc97dd-30d5-41ce-bece-3c05434a04bb"},"vehicle_type_id":"4","last_reported":1729908522,"current_range_meters":25600,"station_id":"ce4bh192rcd13ifvqdc0","pricing_plan_id":"cebpf4jnsgd1na2vs0mg"},{"bike_id":"1feeeea7-6a24-4611-b050-cf179d411849","system_id":"levelo_inurba_marseille","lat":43.29912,"lon":5.3977,"is_reserved":false,"is_disabled":false,"rental_uris":{"android":"levelo://app?vid=1feeeea7-6a24-4611-b050-cf179d411849","ios":"levelo://app?vid=1feeeea7-6a24-4611-b050-cf179d411849"},"vehicle_type_id":"4","last_reported":1729908522,"current_range_meters":38800,"station_id":"ce4bh0h2rcd13ifvqd50","pricing_plan_id":"cebpf4jnsgd1na2vs0mg"},{"bike_id":"138e7038-a459-4d3e-834c-67a6fa6d396f","system_id":"levelo_inurba_marseille","lat":43.27953,"lon":5.41035,"is_reserved":false,"is_disabled":false,"rental_uris":{"android":"levelo://app?vid=138e7038-a459-4d3e-834c-67a6fa6d396f","ios":"levelo://app?vid=138e7038-a459-4d3e-834c-67a6fa6d396f"},"vehicle_type_id":"4","last_reported":1729908522,"current_range_meters":12000,"station_id":"ce4bhnp2rcd13ifvqh0g","pricing_plan_id":"cebpf4jnsgd1na2vs0mg"},{"bike_id":"39788a4e-7446-4607-bac2-8312c3a3925a","system_id":"levelo_inurba_marseille","lat":43.31191,"lon":5.38719,"is_reserved":false,"is_disabled":false,"rental_uris":{"android":"levelo://app?vid=39788a4e-7446-4607-bac2-8312c3a3925a","ios":"levelo://app?vid=39788a4e-7446-4607-bac2-8312c3a3925a"},"vehicle_type_id":"4","last_reported":1729908522,"current_range_meters":9200,"station_id":"ce4bgv12rcd13ifvqcp0","pricing_plan_id":"cebpf4jnsgd1na2vs0mg"},{"bike_id":"cefa9129-ec83-4e6e-a3c9-164492fc51b3","system_id":"levelo_inurba_marseille","lat":43.28476,"lon":5.38417,"is_reserved":false,"is_disabled":false,"rental_uris":{"android":"levelo://app?vid=cefa9129-ec83-4e6e-a3c9-164492fc51b3","ios":"levelo://app?vid=cefa9129-ec83-4e6e-a3c9-164492fc51b3"},"vehicle_type_id":"4","last_reported":1729908522,"current_range_meters":37600,"station_id":"ce4bh512rcd13ifvqe3g","pricing_plan_id":"cebpf4jnsgd1na2vs0mg"},{"bike_id":"5b344818-85af-4463-b4b9-76115e480045","system_id":"levelo_inurba_marseille","lat":43.29034,"lon":5.39974,"is_reserved":false,"is_disabled":false,"rental_uris":{"android":"levelo://app?vid=5b344818-85af-4463-b4b9-76115e480045","ios":"levelo://app?vid=5b344818-85af-4463-b4b9-76115e480045"},"vehicle_type_id":"4","last_reported":1729908522,"current_range_meters":36400,"station_id":"ce4bh392rcd13ifvqdm0","pricing_plan_id":"cebpf4jnsgd1na2vs0mg"},{"bike_id":"1f64965d-b6d0-4db2-9f67-5e1e698e47fb","system_id":"levelo_inurba_marseille","lat":43.27067,"lon":5.42276,"is_reserved":false,"is_disabled":false,"rental_uris":{"android":"levelo://app?vid=1f64965d-b6d0-4db2-9f67-5e1e698e47fb","ios":"levelo://app?vid=1f64965d-b6d0-4db2-9f67-5e1e698e47fb"},"vehicle_type_id":"4","last_reported":1729908522,"current_range_meters":33200,"station_id":"ce4bhk92rcd13ifvqgb0","pricing_plan_id":"cebpf4jnsgd1na2vs0mg"},{"bike_id":"f9a32079-4f0d-459f-8c31-77c100dff61e","system_id":"levelo_inurba_marseille","lat":43.30161,"lon":5.38081,"is_reserved":false,"is_disabled":false,"rental_uris":{"android":"levelo://app?vid=f9a32079-4f0d-459f-8c31-77c100dff61e","ios":"levelo://app?vid=f9a32079-4f0d-459f-8c31-77c100dff61e"},"vehicle_type_id":"4","last_reported":1729908522,"current_range_meters":32000,"station_id":"ce4bgjp2rcd13ifvqbh0","pricing_plan_id":"cebpf4jnsgd1na2vs0mg"},{"bike_id":"4ff0e20e-4bbb-4a55-bee2-9a19402933cb","system_id":"levelo_inurba_marseille","lat":43.30926,"lon":5.40155,"is_reserved":false,"is_disabled":false,"rental_uris":{"android":"levelo://app?vid=4ff0e20e-4bbb-4a55-bee2-9a19402933cb","ios":"levelo://app?vid=4ff0e20e-4bbb-4a55-bee2-9a19402933cb"},"vehicle_type_id":"4","last_reported":1729908522,"current_range_meters":37600,"station_id":"ce4bgvp2rcd13ifvqct0","pricing_plan_id":"cebpf4jnsgd1na2vs0mg"},{"bike_id":"8365043f-fc93-45bb-aa6e-8779cf363ca1","system_id":"levelo_inurba_marseille","lat":43.30885,"lon":5.37211,"is_reserved":false,"is_disabled":false,"rental_uris":{"android":"levelo://app?vid=8365043f-fc93-45bb-aa6e-8779cf363ca1","ios":"levelo://app?vid=8365043f-fc93-45bb-aa6e-8779cf363ca1"},"vehicle_type_id":"4","last_reported":1729908522,"current_range_meters":37600,"station_id":"ce4bguh2rcd13ifvqckg","pricing_plan_id":"cebpf4jnsgd1na2vs0mg"},{"bike_id":"db97a606-2f59-41c8-8cd6-75aba7fa29a7","system_id":"levelo_inurba_marseille","lat":43.24811,"lon":5.3746,"is_reserved":false,"is_disabled":false,"rental_uris":{"android":"levelo://app?vid=db97a606-2f59-41c8-8cd6-75aba7fa29a7","ios":"levelo://app?vid=db97a606-2f59-41c8-8cd6-75aba7fa29a7"},"vehicle_type_id":"4","last_reported":1729908522,"current_range_meters":38800,"station_id":"ce4bhgh2rcd13ifvqfb0","pricing_plan_id":"cebpf4jnsgd1na2vs0mg"},{"bike_id":"cd54751d-ae9c-4087-89b1-3251331520c5","system_id":"levelo_inurba_marseille","lat":43.31704,"lon":5.437,"is_reserved":false,"is_disabled":false,"rental_uris":{"android":"levelo://app?vid=cd54751d-ae9c-4087-89b1-3251331520c5","ios":"levelo://app?vid=cd54751d-ae9c-4087-89b1-3251331520c5"},"vehicle_type_id":"4","last_reported":1729908522,"current_range_meters":9600,"station_id":"ce4bhp92rcd13ifvqhcg","pricing_plan_id":"cebpf4jnsgd1na2vs0mg"},{"bike_id":"60528b55-e747-4a9e-8ca0-272ea3a19644","system_id":"levelo_inurba_marseille","lat":43.27836,"lon":5.39204,"is_reserved":false,"is_disabled":false,"rental_uris":{"android":"levelo://app?vid=60528b55-e747-4a9e-8ca0-272ea3a19644","ios":"levelo://app?vid=60528b55-e747-4a9e-8ca0-272ea3a19644"},"vehicle_type_id":"4","last_reported":1729908522,"current_range_meters":38000,"station_id":"ce4bhjp2rcd13ifvqga0","pricing_plan_id":"cebpf4jnsgd1na2vs0mg"},{"bike_id":"2f0a948c-14c5-4b12-9619-013938f5847f","system_id":"levelo_inurba_marseille","lat":43.28076,"lon":5.39659,"is_reserved":false,"is_disabled":false,"rental_uris":{"android":"levelo://app?vid=2f0a948c-14c5-4b12-9619-013938f5847f","ios":"levelo://app?vid=2f0a948c-14c5-4b12-9619-013938f5847f"},"vehicle_type_id":"4","last_reported":1729908522,"current_range_meters":7200,"station_id":"ce4bho12rcd13ifvqh2g","pricing_plan_id":"cebpf4jnsgd1na2vs0mg"},{"bike_id":"4475e448-ff5f-4d53-a231-0fc04263b1a5","system_id":"levelo_inurba_marseille","lat":43.23146,"lon":5.43713,"is_reserved":false,"is_disabled":false,"rental_uris":{"android":"levelo://app?vid=4475e448-ff5f-4d53-a231-0fc04263b1a5","ios":"levelo://app?vid=4475e448-ff5f-4d53-a231-0fc04263b1a5"},"vehicle_type_id":"4","last_reported":1729908522,"current_range_meters":8400,"station_id":"ce4bhmp2rcd13ifvqgog","pricing_plan_id":"cebpf4jnsgd1na2vs0mg"},{"bike_id":"aa6bb8d6-7238-409f-a553-1b48053943a9","system_id":"levelo_inurba_marseille","lat":43.336,"lon":5.41034,"is_reserved":false,"is_disabled":false,"rental_uris":{"android":"levelo://app?vid=aa6bb8d6-7238-409f-a553-1b48053943a9","ios":"levelo://app?vid=aa6bb8d6-7238-409f-a553-1b48053943a9"},"vehicle_type_id":"4","last_reported":1729908522,"current_range_meters":38800,"station_id":"ce4bhqh2rcd13ifvqhmg","pricing_plan_id":"cebpf4jnsgd1na2vs0mg"},{"bike_id":"5eb3e4b4-0cb4-44f9-bcb8-bab213399d21","system_id":"levelo_inurba_marseille","lat":43.24813,"lon":5.37462,"is_reserved":false,"is_disabled":false,"rental_uris":{"android":"levelo://app?vid=5eb3e4b4-0cb4-44f9-bcb8-bab213399d21","ios":"levelo://app?vid=5eb3e4b4-0cb4-44f9-bcb8-bab213399d21"},"vehicle_type_id":"4","last_reported":1729908522,"current_range_meters":31200,"station_id":"ce4bhgh2rcd13ifvqfb0","pricing_plan_id":"cebpf4jnsgd1na2vs0mg"},{"bike_id":"af1b7666-9b80-420b-9813-5e92940fca09","system_id":"levelo_inurba_marseille","lat":43.2885,"lon":5.35861,"is_reserved":false,"is_disabled":false,"rental_uris":{"android":"levelo://app?vid=af1b7666-9b80-420b-9813-5e92940fca09","ios":"levelo://app?vid=af1b7666-9b80-420b-9813-5e92940fca09"},"vehicle_type_id":"4","last_reported":1729908522,"current_range_meters":36800,"station_id":"ce4bhb12rcd13ifvqem0","pricing_plan_id":"cebpf4jnsgd1na2vs0mg"},{"bike_id":"960c25fd-a513-4486-9205-28e40f919a67","system_id":"levelo_inurba_marseille","lat":43.28453,"lon":5.39196,"is_reserved":false,"is_disabled":false,"rental_uris":{"android":"levelo://app?vid=960c25fd-a513-4486-9205-28e40f919a67","ios":"levelo://app?vid=960c25fd-a513-4486-9205-28e40f919a67"},"vehicle_type_id":"4","last_reported":1729908522,"current_range_meters":33600,"station_id":"ce4bhoh2rcd13ifvqh5g","pricing_plan_id":"cebpf4jnsgd1na2vs0mg"},{"bike_id":"03b5586b-7b54-455c-9c83-9b311584723c","system_id":"levelo_inurba_marseille","lat":43.28347,"lon":5.3811,"is_reserved":false,"is_disabled":false,"rental_uris":{"android":"levelo://app?vid=03b5586b-7b54-455c-9c83-9b311584723c","ios":"levelo://app?vid=03b5586b-7b54-455c-9c83-9b311584723c"},"vehicle_type_id":"4","last_reported":1729908522,"current_range_meters":37600,"station_id":"ce4bh412rcd13ifvqdr0","pricing_plan_id":"cebpf4jnsgd1na2vs0mg"},{"bike_id":"51e7fbf3-5f4c-4f84-b609-a54a49a60eac","system_id":"levelo_inurba_marseille","lat":43.28708,"lon":5.39989,"is_reserved":false,"is_disabled":false,"rental_uris":{"android":"levelo://app?vid=51e7fbf3-5f4c-4f84-b609-a54a49a60eac","ios":"levelo://app?vid=51e7fbf3-5f4c-4f84-b609-a54a49a60eac"},"vehicle_type_id":"4","last_reported":1729908522,"current_range_meters":28400,"station_id":"ce4bho92rcd13ifvqh3g","pricing_plan_id":"cebpf4jnsgd1na2vs0mg"},{"bike_id":"8ef05b32-7501-436b-a061-c7e268e3c522","system_id":"levelo_inurba_marseille","lat":43.29272,"lon":5.40131,"is_reserved":false,"is_disabled":false,"rental_uris":{"android":"levelo://app?vid=8ef05b32-7501-436b-a061-c7e268e3c522","ios":"levelo://app?vid=8ef05b32-7501-436b-a061-c7e268e3c522"},"vehicle_type_id":"4","last_reported":1729908522,"current_range_meters":0,"station_id":"ce4bh312rcd13ifvqdk0","pricing_plan_id":"cebpf4jnsgd1na2vs0mg"},{"bike_id":"f8741be9-23ab-4388-ae43-ded41f991a9e","system_id":"levelo_inurba_marseille","lat":43.2988,"lon":5.39749,"is_reserved":false,"is_disabled":false,"rental_uris":{"android":"levelo://app?vid=f8741be9-23ab-4388-ae43-ded41f991a9e","ios":"levelo://app?vid=f8741be9-23ab-4388-ae43-ded41f991a9e"},"vehicle_type_id":"4","last_reported":1729908522,"current_range_meters":28400,"station_id":"ce4bh0h2rcd13ifvqd50","pricing_plan_id":"cebpf4jnsgd1na2vs0mg"},{"bike_id":"4262a2c8-3fa7-413e-945c-02cfb9a1649d","system_id":"levelo_inurba_marseille","lat":43.28613,"lon":5.35105,"is_reserved":false,"is_disabled":false,"rental_uris":{"android":"levelo://app?vid=4262a2c8-3fa7-413e-945c-02cfb9a1649d","ios":"levelo://app?vid=4262a2c8-3fa7-413e-945c-02cfb9a1649d"},"vehicle_type_id":"4","last_reported":1729908522,"current_range_meters":36800,"station_id":"ce4bhch2rcd13ifvqeug","pricing_plan_id":"cebpf4jnsgd1na2vs0mg"},{"bike_id":"870bcb64-314e-474c-8861-bfebe67c7251","system_id":"levelo_inurba_marseille","lat":43.28454,"lon":5.39201,"is_reserved":false,"is_disabled":false,"rental_uris":{"android":"levelo://app?vid=870bcb64-314e-474c-8861-bfebe67c7251","ios":"levelo://app?vid=870bcb64-314e-474c-8861-bfebe67c7251"},"vehicle_type_id":"4","last_reported":1729908522,"current_range_meters":27600,"station_id":"ce4bhoh2rcd13ifvqh5g","pricing_plan_id":"cebpf4jnsgd1na2vs0mg"},{"bike_id":"e8ff6e07-6eef-4e18-aa8b-2237221f8600","system_id":"levelo_inurba_marseille","lat":43.30447,"lon":5.37908,"is_reserved":false,"is_disabled":false,"rental_uris":{"android":"levelo://app?vid=e8ff6e07-6eef-4e18-aa8b-2237221f8600","ios":"levelo://app?vid=e8ff6e07-6eef-4e18-aa8b-2237221f8600"},"vehicle_type_id":"4","last_reported":1729908522,"current_range_meters":37600,"station_id":"ce4bgup2rcd13ifvqcn0","pricing_plan_id":"cebpf4jnsgd1na2vs0mg"},{"bike_id":"956abcec-9a79-4c6b-87de-517e6228b14b","system_id":"levelo_inurba_marseille","lat":43.29662,"lon":5.36594,"is_reserved":false,"is_disabled":false,"rental_uris":{"android":"levelo://app?vid=956abcec-9a79-4c6b-87de-517e6228b14b","ios":"levelo://app?vid=956abcec-9a79-4c6b-87de-517e6228b14b"},"vehicle_type_id":"4","last_reported":1729908522,"current_range_meters":24000,"station_id":"ce4bgn12rcd13ifvqbt0","pricing_plan_id":"cebpf4jnsgd1na2vs0mg"},