{"last_updated":1748448743,"ttl":60,"version":"2.2","data":{"bikes":[{"bike_id":"e7a5bf3c-03bd-458a-9577-497736462efb","system_id":"levelo_inurba_marseille","lat":43.29186,"lon":5.39319,"is_reserved":false,"is_disabled":false,"rental_uris":{"android":"levelo://app?vid=e7a5bf3c-03bd-458a-9577-497736462efb","ios":"levelo://app?vid=e7a5bf3c-03bd-458a-9577-497736462efb"},"vehicle_type_id":"4","last_reported":1748448743,"current_range_meters":2800,"station_id":"ce4bh192rcd13ifvqdd0","pricing_plan_id":"cebpf4jnsgd1na2vs0mg"},{"bike_id":"d1b44c23-2bb2-44b0-a3d7-caca0e588132","system_id":"levelo_inurba_marseille","lat":43.273777,"lon":5.362613,"is_reserved":false,"is_disabled":true,"rental_uris":{"android":"levelo://app?vid=d1b44c23-2bb2-44b0-a3d7-caca0e588132","ios":"levelo://app?vid=d1b44c23-2bb2-44b0-a3d7-caca0e588132"},"vehicle_type_id":"4","last_reported":1748448743,"current_range_meters":2800,"station_id":"ce4bhbh2rcd13ifvqeo0","pricing_plan_id":"cebpf4jnsgd1na2vs0mg"},{"bike_id":"342c8dd0-40a0-407e-a103-8d6855e4f46f","system_id":"levelo_inurba_marseille","lat":43.29299,"lon":5.37459,"is_reserved":false,"is_disabled":false,"rental_uris":{"android":"levelo://app?vid=342c8dd0-40a0-407e-a103-8d6855e4f46f","ios":"levelo://app?vid=342c8dd0-40a0-407e-a103-8d6855e4f46f"},"vehicle_type_id":"4","last_reported":1748448743,"current_range_meters":2800,"station_id":"ce4bgi12rcd13ifvqb70","pricing_plan_id":"cebpf4jnsgd1na2vs0mg"},{"bike_id":"dd0729de-64cc-406f-8ab2-e2331a91487c","system_id":"levelo_inurba_marseille","lat":43.28105,"lon":5.37837,"is_reserved":false,"is_disabled":false,"rental_uris":{"android":"levelo://app?vid=dd0729de-64cc-406f-8ab2-e2331a91487c","ios":"levelo://app?vid=dd0729de-64cc-406f-8ab2-e2331a91487c"},"vehicle_type_id":"4","last_reported":1748448743,"current_range_meters":2800,"station_id":"ce4bha12rcd13ifvqee0","pricing_plan_id":"cebpf4jnsgd1na2vs0mg"},{"bike_id":"3299acc1-07b1-471e-bbe8-c39bc3b58899","system_id":"levelo_inurba_marseille","lat":43.28705,"lon":5.37408,"is_reserved":false,"is_disabled":false,"rental_uris":{"android":"levelo://app?vid=3299acc1-07b1-471e-bbe8-c39bc3b58899","ios":"levelo://app?vid=3299acc1-07b1-471e-bbe8-c39bc3b58899"},"vehicle_type_id":"4","last_reported":1748448743,"current_range_meters":3200,"station_id":"ce4bh3p2rcd13ifvqdq0","pricing_plan_id":"cebpf4jnsgd1na2vs0mg"},{"bike_id":"bdc64a61-35cf-42a7-a6a7-10809679bc28","system_id":"levelo_inurba_marseille","lat":43.28664,"lon":5.3635,"is_reserved":false,"is_disabled":false,"rental_uris":{"android":"levelo://app?vid=bdc64a61-35cf-42a7-a6a7-10809679bc28","ios":"levelo://app?vid=bdc64a61-35cf-42a7-a6a7-10809679bc28"},"vehicle_type_id":"4","last_reported":1748448743,"current_range_meters":3200,"station_id":"ce4bhah2rcd13ifvqej0","pricing_plan_id":"cebpf4jnsgd1na2vs0mg"},{"bike_id":"50109127-0173-4fb4-8a59-023356fff0db","system_id":"levelo_inurba_marseille","lat":43.29534,"lon":5.39399,"is_reserved":false,"is_disabled":false,"rental_uris":{"android":"levelo://app?vid=50109127-0173-4fb4-8a59-023356fff0db","ios":"levelo://app?vid=50109127-0173-4fb4-8a59-023356fff0db"},"vehicle_type_id":"4","last_reported":1748448743,"current_range_meters":2800,"station_id":"ce4bh292rcd13ifvqdf0","pricing_plan_id":"cebpf4jnsgd1na2vs0mg"},{"bike_id":"f66ead73-7eea-4382-a92f-4da9d52ee921","system_id":"levelo_inurba_marseille","lat":43.28619,"lon":5.37052,"is_reserved":false,"is_disabled":false,"rental_uris":{"android":"levelo://app?vid=f66ead73-7eea-4382-a92f-4da9d52ee921","ios":"levelo://app?vid=f66ead73-7eea-4382-a92f-4da9d52ee921"},"vehicle_type_id":"4","last_reported":1748448743,"current_range_meters":3200,"station_id":"ce4bht12rcd13ifvqi60","pricing_plan_id":"cebpf4jnsgd1na2vs0mg"},{"bike_id":"75c60b4e-04ea-4e5a-9a7a-f2c340d99ac8","system_id":"levelo_inurba_marseille","lat":43.30198,"lon":5.39491,"is_reserved":false,"is_disabled":false,"rental_uris":{"android":"levelo://app?vid=75c60b4e-04ea-4e5a-9a7a-f2c340d99ac8","ios":"levelo://app?vid=75c60b4e-04ea-4e5a-9a7a-f2c340d99ac8"},"vehicle_type_id":"4","last_reported":1748448743,"current_range_meters":3200,"station_id":"ce4bh0p2rcd13ifvqd70","pricing_plan_id":"cebpf4jnsgd1na2vs0mg"},{"bike_id":"7767a471-d916-49d8-831f-e6c25e3fd5f6","system_id":"levelo_inurba_marseille","lat":43.30317,"lon":5.36889,"is_reserved":false,"is_disabled":false,"rental_uris":{"android":"levelo://app?vid=7767a471-d916-49d8-831f-e6c25e3fd5f6","ios":"levelo://app?vid=7767a471-d916-49d8-831f-e6c25e3fd5f6"},"vehicle_type_id":"4","last_reported":1748448743,"current_range_meters":3200,"station_id":"ce4bgqh2rcd13ifvqc5g","pricing_plan_id":"cebpf4jnsgd1na2vs0mg"},{"bike_id":"9ef55399-c06b-40e0-bfb5-510edb09f48d","system_id":"levelo_inurba_marseille","lat":43.28939,"lon":5.36637,"is_reserved":false,"is_disabled":false,"rental_uris":{"android":"levelo://app?vid=9ef55399-c06b-40e0-bfb5-510edb09f48d","ios":"levelo://app?vid=9ef55399-c06b-40e0-bfb5-510edb09f48d"},"vehicle_type_id":"4","last_reported":1748448743,"current_range_meters":3200,"station_id":"ce4bhap2rcd13ifvqek0","pricing_plan_id":"cebpf4jnsgd1na2vs0mg"},{"bike_id":"ae64971c-473e-427b-9047-82f258daebbd","system_id":"levelo_inurba_marseille","lat":43.282514,"lon":5.381393,"is_reserved":false,"is_disabled":false,"rental_uris":{"android":"levelo://app?vid=ae64971c-473e-427b-9047-82f258daebbd","ios":"levelo://app?vid=ae64971c-473e-427b-9047-82f258daebbd"},"vehicle_type_id":"4","last_reported":1748448743,"current_range_meters":3200,"station_id":"","pricing_plan_id":"cebpf4jnsgd1na2vs0mg"},{"bike_id":"44bfe08a-6202-4016-9466-11d4e0b56eaf","system_id":"levelo_inurba_marseille","lat":43.27209,"lon":5.39184,"is_reserved":false,"is_disabled":false,"rental_uris":{"android":"levelo://app?vid=44bfe08a-6202-4016-9466-11d4e0b56eaf","ios":"levelo://app?vid=44bfe08a-6202-4016-9466-11d4e0b56eaf"},"vehicle_type_id":"4","last_reported":1748448743,"current_range_meters":3600,"station_id":"ce4bhhp2rcd13ifvqfm0","pricing_plan_id":"cebpf4jnsgd1na2vs0mg"},{"bike_id":"63840f64-8d03-442e-99eb-0332e8cc2066","system_id":"levelo_inurba_marseille","lat":43.2841,"lon":5.34985,"is_reserved":false,"is_disabled":false,"rental_uris":{"android":"levelo://app?vid=63840f64-8d03-442e-99eb-0332e8cc2066","ios":"levelo://app?vid=63840f64-8d03-442e-99eb-0332e8cc2066"},"vehicle_type_id":"4","last_reported":1748448743,"current_range_meters":3600,"station_id":"ce4bhbh2rcd13ifvqepg","pricing_plan_id":"cebpf4jnsgd1na2vs0mg"},{"bike_id":"f4c45e95-54cf-46e5-83c5-d89c27c9a69c","system_id":"levelo_inurba_marseille","lat":43.27293,"lon":5.41588,"is_reserved":false,"is_disabled":false,"rental_uris":{"android":"levelo://app?vid=f4c45e95-54cf-46e5-83c5-d89c27c9a69c","ios":"levelo://app?vid=f4c45e95-54cf-46e5-83c5-d89c27c9a69c"},"vehicle_type_id":"4","last_reported":1748448743,"current_range_meters":3600,"station_id":"","pricing_plan_id":"cebpf4jnsgd1na2vs0mg"},{"bike_id":"2b1829d0-5ba5-4223-8761-445a6fc43cb3","system_id":"levelo_inurba_marseille","lat":43.33025,"lon":5.39038,"is_reserved":false,"is_disabled":false,"rental_uris":{"android":"levelo://app?vid=2b1829d0-5ba5-4223-8761-445a6fc43cb3","ios":"levelo://app?vid=2b1829d0-5ba5-4223-8761-445a6fc43cb3"},"vehicle_type_id":"4","last_reported":1748448743,"current_range_meters":3600,"station_id":"ce4bhr92rcd13ifvqhrg","pricing_plan_id":"cebpf4jnsgd1na2vs0mg"},{"bike_id":"758d5ba0-2414-4ac4-93c9-78a4f16732e5","system_id":"levelo_inurba_marseille","lat":43.28228,"lon":5.39073,"is_reserved":false,"is_disabled":false,"rental_uris":{"android":"levelo://app?vid=758d5ba0-2414-4ac4-93c9-78a4f16732e5","ios":"levelo://app?vid=758d5ba0-2414-4ac4-93c9-78a4f16732e5"},"vehicle_type_id":"4","last_reported":1748448743,"current_range_meters":3600,"station_id":"","pricing_plan_id":"cebpf4jnsgd1na2vs0mg"},{"bike_id":"fb54969d-9442-47b9-913e-245fa3ea1816","system_id":"levelo_inurba_marseille","lat":43.26562,"lon":5.39012,"is_reserved":false,"is_disabled":false,"rental_uris":{"android":"levelo://app?vid=fb54969d-9442-47b9-913e-245fa3ea1816","ios":"levelo://app?vid=fb54969d-9442-47b9-913e-245fa3ea1816"},"vehicle_type_id":"4","last_reported":1748448743,"current_range_meters":3600,"station_id":"ce4bhe12rcd13ifvqf30","pricing_plan_id":"cebpf4jnsgd1na2vs0mg"},{"bike_id":"970c6e5f-b516-4442-980e-e2f04b46cced","system_id":"levelo_inurba_marseille","lat":43.29366,"lon":5.3784,"is_reserved":false,"is_disabled":false,"rental_uris":{"android":"levelo://app?vid=970c6e5f-b516-4442-980e-e2f04b46cced","ios":"levelo://app?vid=970c6e5f-b516-4442-980e-e2f04b46cced"},"vehicle_type_id":"4","last_reported":1748448743,"current_range_meters":3200,"station_id":"ce4bgjh2rcd13ifvqbf0","pricing_plan_id":"cebpf4jnsgd1na2vs0mg"},{"bike_id":"60e98770-229d-4ffd-80f3-1c5b4aaeb706","system_id":"levelo_inurba_marseille","lat":43.30884,"lon":5.372,"is_reserved":false,"is_disabled":false,"rental_uris":{"android":"levelo://app?vid=60e98770-229d-4ffd-80f3-1c5b4aaeb706","ios":"levelo://app?vid=60e98770-229d-4ffd-80f3-1c5b4aaeb706"},"vehicle_type_id":"4","last_reported":1748448743,"current_range_meters":4000,"station_id":"ce4bguh2rcd13ifvqckg","pricing_plan_id":"cebpf4jnsgd1na2vs0mg"},{"bike_id":"34bfda7b-d5ce-412e-8e81-052a4d080c27","system_id":"levelo_inurba_marseille","lat":43.2466,"lon":5.38163,"is_reserved":false,"is_disabled":false,"rental_uris":{"android":"levelo://app?vid=34bfda7b-d5ce-412e-8e81-052a4d080c27","ios":"levelo://app?vid=34bfda7b-d5ce-412e-8e81-052a4d080c27"},"vehicle_type_id":"4","last_reported":1748448743,"current_range_meters":4000,"station_id":"ce4bhih2rcd13ifvqfr0","pricing_plan_id":"cebpf4jnsgd1na2vs0mg"},{"bike_id":"3302a87c-dc08-40c9-ab30-49e379c8b506","system_id":"levelo_inurba_marseille","lat":43.26937,"lon":5.38914,"is_reserved":false,"is_disabled":false,"rental_uris":{"android":"levelo://app?vid=3302a87c-dc08-40c9-ab30-49e379c8b506","ios":"levelo://app?vid=3302a87c-dc08-40c9-ab30-49e379c8b506"},"vehicle_type_id":"4","last_reported":1748448743,"current_range_meters":4000,"station_id":"ce4bhhh2rcd13ifvqfl0","pricing_plan_id":"cebpf4jnsgd1na2vs0mg"},{"bike_id":"3840b2fa-1fc0-4cf8-bc3a-4649fa8722bc","system_id":"levelo_inurba_marseille","lat":43.29833,"lon":5.38086,"is_reserved":false,"is_disabled":false,"rental_uris":{"android":"levelo://app?vid=3840b2fa-1fc0-4cf8-bc3a-4649fa8722bc","ios":"levelo://app?vid=3840b2fa-1fc0-4cf8-bc3a-4649fa8722bc"},"vehicle_type_id":"4","last_reported":1748448743,"current_range_meters":4000,"station_id":"","pricing_plan_id":"cebpf4jnsgd1na2vs0mg"},{"bike_id":"d67a6b6b-20a7-48c6-b4ad-c1ae923cb188","system_id":"levelo_inurba_marseille","lat":43.31326,"lon":5.39699,"is_reserved":false,"is_disabled":false,"rental_uris":{"android":"levelo://app?vid=d67a6b6b-20a7-48c6-b4ad-c1ae923cb188","ios":"levelo://app?vid=d67a6b6b-20a7-48c6-b4ad-c1ae923cb188"},"vehicle_type_id":"4","last_reported":1748448743,"current_range_meters":3600,"station_id":"ce4bgvp2rcd13ifvqcu0","pricing_plan_id":"cebpf4jnsgd1na2vs0mg"},{"bike_id":"1326ca86-6637-42bd-813e-5ceee25453d9","system_id":"levelo_inurba_marseille","lat":43.26565,"lon":5.38595,"is_reserved":false,"is_disabled":false,"rental_uris":{"android":"levelo://app?vid=1326ca86-6637-42bd-813e-5ceee25453d9","ios":"levelo://app?vid=1326ca86-6637-42bd-813e-5ceee25453d9"},"vehicle_type_id":"4","last_reported":1748448743,"current_range_meters":4400,"station_id":"","pricing_plan_id":"cebpf4jnsgd1na2vs0mg"},{"bike_id":"176d7df4-8541-444c-87d9-e3aed8e7b5f7","system_id":"levelo_inurba_marseille","lat":43.24659,"lon":5.38163,"is_reserved":false,"is_disabled":false,"rental_uris":{"android":"levelo://app?vid=176d7df4-8541-444c-87d9-e3aed8e7b5f7","ios":"levelo://app?vid=176d7df4-8541-444c-87d9-e3aed8e7b5f7"},"vehicle_type_id":"4","last_reported":1748448743,"current_range_meters":4400,"station_id":"ce4bhih2rcd13ifvqfr0","pricing_plan_id":"cebpf4jnsgd1na2vs0mg"},{"bike_id":"946517ad-5b08-4b28-b1b0-93ea2f8c9cf4","system_id":"levelo_inurba_marseille","lat":43.29463,"lon":5.3792,"is_reserved":false,"is_disabled":false,"rental_uris":{"android":"levelo://app?vid=946517ad-5b08-4b28-b1b0-93ea2f8c9cf4","ios":"levelo://app?vid=946517ad-5b08-4b28-b1b0-93ea2f8c9cf4"},"vehicle_type_id":"4","last_reported":1748448743,"current_range_meters":4400,"station_id":"","pricing_plan_id":"cebpf4jnsgd1na2vs0mg"},{"bike_id":"3ec3fa82-684b-4edd-bc8c-64662c3e81bf","system_id":"levelo_inurba_marseille","lat":43.27994,"lon":5.41652,"is_reserved":false,"is_disabled":false,"rental_uris":{"android":"levelo://app?vid=3ec3fa82-684b-4edd-bc8c-64662c3e81bf","ios":"levelo://app?vid=3ec3fa82-684b-4edd-bc8c-64662c3e81bf"},"vehicle_type_id":"4","last_reported":1748448743,"current_range_meters":4400,"station_id":"ce4bho12rcd13ifvqh1g","pricing_plan_id":"cebpf4jnsgd1na2vs0mg"},{"bike_id":"76035e1f-94a2-4f82-a2ac-723a4e0f2f5b","system_id":"levelo_inurba_marseille","lat":43.2418,"lon":5.39723,"is_reserved":false,"is_disabled":false,"rental_uris":{"android":"levelo://app?vid=76035e1f-94a2-4f82-a2ac-723a4e0f2f5b","ios":"levelo://app?vid=76035e1f-94a2-4f82-a2ac-723a4e0f2f5b"},"vehicle_type_id":"4","last_reported":1748448743,"current_range_meters":4400,"station_id":"ce4bhn12rcd13ifvqgpg","pricing_plan_id":"cebpf4jnsgd1na2vs0mg"},{"bike_id":"f1f763c0-9e5c-47a4-8a62-241fe1bd22bb","system_id":"levelo_inurba_marseille","lat":43.29523,"lon":5.39031,"is_reserved":false,"is_disabled":false,"rental_uris":{"android":"levelo://app?vid=f1f763c0-9e5c-47a4-8a62-241fe1bd22bb","ios":"levelo://app?vid=f1f763c0-9e5c-47a4-8a62-241fe1bd22bb"},"vehicle_type_id":"4","last_reported":1748448743,"current_range_meters":4800,"station_id":"ce4bh3p2rcd13ifvqdp0","pricing_plan_id":"cebpf4jnsgd1na2vs0mg"},{"bike_id":"09846d58-8ea6-403f-8204-509f7d6fcdc0","system_id":"levelo_inurba_marseille","lat":43.286077,"lon":5.351049,"is_reserved":false,"is_disabled":false,"rental_uris":{"android":"levelo://app?vid=09846d58-8ea6-403f-8204-509f7d6fcdc0","ios":"levelo://app?vid=09846d58-8ea6-403f-8204-509f7d6fcdc0"},"vehicle_type_id":"4","last_reported":1748448743,"current_range_meters":4800,"station_id":"","pricing_plan_id":"cebpf4jnsgd1na2vs0mg"},{"bike_id":"9af9b802-b7ee-4e5d-8335-bdf228a8fccb","system_id":"levelo_inurba_marseille","lat":43.291664,"lon":5.371568,"is_reserved":false,"is_disabled":false,"rental_uris":{"android":"levelo://app?vid=9af9b802-b7ee-4e5d-8335-bdf228a8fccb","ios":"levelo://app?vid=9af9b802-b7ee-4e5d-8335-bdf228a8fccb"},"vehicle_type_id":"4","last_reported":1748448743,"current_range_meters":6400,"station_id":"ce4bha92rcd13ifvqeh0","pricing_plan_id":"cebpf4jnsgd1na2vs0mg"},{"bike_id":"eb24a1a4-c3f2-44ff-8aa8-71731bbfa837","system_id":"levelo_inurba_marseille","lat":43.30181,"lon":5.36619,"is_reserved":false,"is_disabled":false,"rental_uris":{"android":"levelo://app?vid=eb24a1a4-c3f2-44ff-8aa8-71731bbfa837","ios":"levelo://app?vid=eb24a1a4-c3f2-44ff-8aa8-71731bbfa837"},"vehicle_type_id":"4","last_reported":1748448743,"current_range_meters":4800,"station_id":"ce4bgrh2rcd13ifvqc8g","pricing_plan_id":"cebpf4jnsgd1na2vs0mg"},{"bike_id":"d8ab7e18-324f-49d6-948b-87eb3d981346","system_id":"levelo_inurba_marseille","lat":43.293,"lon":5.37461,"is_reserved":false,"is_disabled":false,"rental_uris":{"android":"levelo://app?vid=d8ab7e18-324f-49d6-948b-87eb3d981346","ios":"levelo://app?vid=d8ab7e18-324f-49d6-948b-87eb3d981346"},"vehicle_type_id":"4","last_reported":1748448743,"current_range_meters":4800,"station_id":"ce4bgi12rcd13ifvqb70","pricing_plan_id":"cebpf4jnsgd1na2vs0mg"},{"bike_id":"c8e4fdeb-90ee-4ac8-9a52-da34aa17acc1","system_id":"levelo_inurba_marseille","lat":43.24071,"lon":5.37767,"is_reserved":false,"is_disabled":false,"rental_uris":{"android":"levelo://app?vid=c8e4fdeb-90ee-4ac8-9a52-da34aa17acc1","ios":"levelo://app?vid=c8e4fdeb-90ee-4ac8-9a52-da34aa17acc1"},"vehicle_type_id":"4","last_reported":1748448743,"current_range_meters":8000,"station_id":"ce4bhnp2rcd13ifvqgvg","pricing_plan_id":"cebpf4jnsgd1na2vs0mg"},{"bike_id":"06491b1e-81f7-49df-bc73-2a2fd354a763","system_id":"levelo_inurba_marseille","lat":43.281517,"lon":5.426483,"is_reserved":false,"is_disabled":false,"rental_uris":{"android":"levelo://app?vid=06491b1e-81f7-49df-bc73-2a2fd354a763","ios":"levelo://app?vid=06491b1e-81f7-49df-bc73-2a2fd354a763"},"vehicle_type_id":"4","last_reported":1748448743,"current_range_meters":5600,"station_id":"ce4bhnh2rcd13ifvqgug","pricing_plan_id":"cebpf4jnsgd1na2vs0mg"},{"bike_id":"095a7e7f-4bd7-4ee1-8e84-6ca09788f5ab","system_id":"levelo_inurba_marseille","lat":43.30426,"lon":5.38879,"is_reserved":false,"is_disabled":false,"rental_uris":{"android":"levelo://app?vid=095a7e7f-4bd7-4ee1-8e84-6ca09788f5ab","ios":"levelo://app?vid=095a7e7f-4bd7-4ee1-8e84-6ca09788f5ab"},"vehicle_type_id":"4","last_reported":1748448743,"current_range_meters":5600,"station_id":"ce4bgk12rcd13ifvqbi0","pricing_plan_id":"cebpf4jnsgd1na2vs0mg"},{"bike_id":"6ff72a42-cbdf-4ea6-9c71-3143bfc325fe","system_id":"levelo_inurba_marseille","lat":43.26554,"lon":5.37292,"is_reserved":false,"is_disabled":false,"rental_uris":{"android":"levelo://app?vid=6ff72a42-cbdf-4ea6-9c71-3143bfc325fe","ios":"levelo://app?vid=6ff72a42-cbdf-4ea6-9c71-3143bfc325fe"},"vehicle_type_id":"4","last_reported":1748448743,"current_range_meters":4800,"station_id":"ce4bhg12rcd13ifvqf70","pricing_plan_id":"cebpf4jnsgd1na2vs0mg"},{"bike_id":"7d17d739-5ee1-4fd1-a371-d29bac77c79b","system_id":"levelo_inurba_marseille","lat":43.29027,"lon":5.38653,"is_reserved":false,"is_disabled":false,"rental_uris":{"android":"levelo://app?vid=7d17d739-5ee1-4fd1-a371-d29bac77c79b","ios":"levelo://app?vid=7d17d739-5ee1-4fd1-a371-d29bac77c79b"},"vehicle_type_id":"4","last_reported":1748448743,"current_range_meters":5600,"station_id":"ce4bh4p2rcd13ifvqe0g","pricing_plan_id":"cebpf4jnsgd1na2vs0mg"},{"bike_id":"17cf0187-bac6-47a8-ae43-a7236a0af0e9","system_id":"levelo_inurba_marseille","lat":43.302742,"lon":5.400533,"is_reserved":false,"is_disabled":true,"rental_uris":{"android":"levelo://app?vid=17cf0187-bac6-47a8-ae43-a7236a0af0e9","ios":"levelo://app?vid=17cf0187-bac6-47a8-ae43-a7236a0af0e9"},"vehicle_type_id":"4","last_reported":1748448743,"current_range_meters":6000,"station_id":"ce4bgvh2rcd13ifvqcs0","pricing_plan_id":"cebpf4jnsgd1na2vs0mg"},{"bike_id":"e128dbda-f1af-4e90-9081-029e59c83695","system_id":"levelo_inurba_marseille","lat":43.25117,"lon":5.40318,"is_reserved":false,"is_disabled":false,"rental_uris":{"android":"levelo://app?vid=e128dbda-f1af-4e90-9081-029e59c83695","ios":"levelo://app?vid=e128dbda-f1af-4e90-9081-029e59c83695"},"vehicle_type_id":"4","last_reported":1748448743,"current_range_meters":6000,"station_id":"ce4bhlh2rcd13ifvqgig","pricing_plan_id":"cebpf4jnsgd1na2vs0mg"},{"bike_id":"d3fbd818-11ba-45ae-b3d8-36716f17cd47","system_id":"levelo_inurba_marseille","lat":43.29033,"lon":5.38659,"is_reserved":false,"is_disabled":false,"rental_uris":{"android":"levelo://app?vid=d3fbd818-11ba-45ae-b3d8-36716f17cd47","ios":"levelo://app?vid=d3fbd818-11ba-45ae-b3d8-36716f17cd47"},"vehicle_type_id":"4","last_reported":1748448743,"current_range_meters":6000,"station_id":"ce4bh4p2rcd13ifvqe0g","pricing_plan_id":"cebpf4jnsgd1na2vs0mg"},{"bike_id":"c7ac17c9-6a3d-4413-a1d4-0e3d9fb0babe","system_id":"levelo_inurba_marseille","lat":43.27936,"lon":5.41046,"is_reserved":false,"is_disabled":false,"rental_uris":{"android":"levelo://app?vid=c7ac17c9-6a3d-4413-a1d4-0e3d9fb0babe","ios":"levelo://app?vid=c7ac17c9-6a3d-4413-a1d4-0e3d9fb0babe"},"vehicle_type_id":"4","last_reported":1748448743,"current_range_meters":6400,"station_id":"ce4bhnp2rcd13ifvqh0g","pricing_plan_id":"cebpf4jnsgd1na2vs0mg"},{"bike_id":"40018438-59ea-418f-9a0e-ef907db58c81","system_id":"levelo_inurba_marseille","lat":43.30423,"lon":5.38891,"is_reserved":false,"is_disabled":false,"rental_uris":{"android":"levelo://app?vid=40018438-59ea-418f-9a0e-ef907db58c81","ios":"levelo://app?vid=40018438-59ea-418f-9a0e-ef907db58c81"},"vehicle_type_id":"4","last_reported":1748448743,"current_range_meters":6400,"station_id":"ce4bgk12rcd13ifvqbi0","pricing_plan_id":"cebpf4jnsgd1na2vs0mg"},{"bike_id":"5f47b60f-5133-4f98-be20-e16f7120fdb8","system_id":"levelo_inurba_marseille","lat":43.27946,"lon":5.41049,"is_reserved":false,"is_disabled":false,"rental_uris":{"android":"levelo://app?vid=5f47b60f-5133-4f98-be20-e16f7120fdb8","ios":"levelo://app?vid=5f47b60f-5133-4f98-be20-e16f7120fdb8"},"vehicle_type_id":"4","last_reported":1748448743,"current_range_meters":6800,"station_id":"ce4bhnp2rcd13ifvqh0g","pricing_plan_id":"cebpf4jnsgd1na2vs0mg"},{"bike_id":"5cb19ab7-72ab-4ab6-9032-728f3ec287b0","system_id":"levelo_inurba_marseille","lat":43.25136,"lon":5.40333,"is_reserved":false,"is_disabled":false,"rental_uris":{"android":"levelo://app?vid=5cb19ab7-72ab-4ab6-9032-728f3ec287b0","ios":"levelo://app?vid=5cb19ab7-72ab-4ab6-9032-728f3ec287b0"},"vehicle_type_id":"4","last_reported":1748448743,"current_range_meters":6800,"station_id":"ce4bhlh2rcd13ifvqgig","pricing_plan_id":"cebpf4jnsgd1na2vs0mg"},{"bike_id":"5241608e-ec0b-4834-a657-79c6fe244f7d","system_id":"levelo_inurba_marseille","lat":43.231938,"lon":5.355495,"is_reserved":false,"is_disabled":false,"rental_uris":{"android":"levelo://app?vid=5241608e-ec0b-4834-a657-79c6fe244f7d","ios":"levelo://app?vid=5241608e-ec0b-4834-a657-79c6fe244f7d"},"vehicle_type_id":"4","last_reported":1748448743,"current_range_meters":6800,"station_id":"ce4bhu92rcd13ifvqi70","pricing_plan_id":"cebpf4jnsgd1na2vs0mg"},{"bike_id":"db4b9c6c-48a2-4d06-833e-750fe7b89164","system_id":"levelo_inurba_marseille","lat":43.27377,"lon":5.36246,"is_reserved":false,"is_disabled":false,"rental_uris":{"android":"levelo://app?vid=db4b9c6c-48a2-4d06-833e-750fe7b89164","ios":"levelo://app?vid=db4b9c6c-48a2-4d06-833e-750fe7b89164"},"vehicle_type_id":"4","last_reported":1748448743,"current_range_meters":6800,"station_id":"ce4bhbh2rcd13ifvqeo0","pricing_plan_id":"cebpf4jnsgd1na2vs0mg"},{"bike_id":"5a9d0a06-e03d-47bc-abfb-0847efedbe82","system_id":"levelo_inurba_marseille","lat":43.289379,"lon":5.384059,"is_reserved":false,"is_disabled":false,"rental_uris":{"android":"levelo://app?vid=5a9d0a06-e03d-47bc-abfb-0847efedbe82","ios":"levelo://app?vid=5a9d0a06-e03d-47bc-abfb-0847efedbe82"},"vehicle_type_id":"4","last_reported":1748448743,"current_range_meters":6400,"station_id":"ce4bh612rcd13ifvqe6g","pricing_plan_id":"cebpf4jnsgd1na2vs0mg"},{"bike_id":"03469100-2f13-45ad-b932-2d946eec1570","system_id":"levelo_inurba_marseille","lat":43.27207,"lon":5.39184,"is_reserved":false,"is_disabled":false,"rental_uris":{"android":"levelo://app?vid=03469100-2f13-45ad-b932-2d946eec1570","ios":"levelo://app?vid=03469100-2f13-45ad-b932-2d946eec1570"},"vehicle_type_id":"4","last_reported":1748448743,"current_range_meters":6800,"station_id":"ce4bhhp2rcd13ifvqfm0","pricing_plan_id":"cebpf4jnsgd1na2vs0mg"},{"bike_id":"1ccf4af9-2f80-4aa4-8914-aad032689db5","system_id":"levelo_inurba_marseille","lat":43.25123,"lon":5.40306,"is_reserved":false,"is_disabled":false,"rental_uris":{"android":"levelo://app?vid=1ccf4af9-2f80-4aa4-8914-aad032689db5","ios":"levelo://app?vid=1ccf4af9-2f80-4aa4-8914-aad032689db5"},"vehicle_type_id":"4","last_reported":1748448743,"current_range_meters":6800,"station_id":"ce4bhlh2rcd13ifvqgig","pricing_plan_id":"cebpf4jnsgd1na2vs0mg"},{"bike_id":"a5f90b1e-a09e-40ad-8d54-7442721c8689","system_id":"levelo_inurba_marseille","lat":43.24601,"lon":5.39299,"is_reserved":false,"is_disabled":false,"rental_uris":{"android":"levelo://app?vid=a5f90b1e-a09e-40ad-8d54-7442721c8689","ios":"levelo://app?vid=a5f90b1e-a09e-40ad-8d54-7442721c8689"},"vehicle_type_id":"4","last_reported":1748448743,"current_range_meters":6800,"station_id":"","pricing_plan_id":"cebpf4jnsgd1na2vs0mg"},{"bike_id":"f707fa75-847d-4324-afa4-27d9f6ad7bc1","system_id":"levelo_inurba_marseille","lat":43.29537,"lon":5.3902,"is_reserved":false,"is_disabled":false,"rental_uris":{"android":"levelo://app?vid=f707fa75-847d-4324-afa4-27d9f6ad7bc1","ios":"levelo://app?vid=f707fa75-847d-4324-afa4-27d9f6ad7bc1"},"vehicle_type_id":"4","last_reported":1748448743,"current_range_meters":6800,"station_id":"ce4bh3p2rcd13ifvqdp0","pricing_plan_id":"cebpf4jnsgd1na2vs0mg"},{"bike_id":"671e01df-c792-45ac-b30e-01d6f9b73b99","system_id":"levelo_inurba_marseille","lat":43.28949,"lon":5.36628,"is_reserved":false,"is_disabled":false,"rental_uris":{"android":"levelo://app?vid=671e01df-c792-45ac-b30e-01d6f9b73b99","ios":"levelo://app?vid=671e01df-c792-45ac-b30e-01d6f9b73b99"},"vehicle_type_id":"4","last_reported":1748448743,"current_range_meters":6800,"station_id":"ce4bhap2rcd13ifvqek0","pricing_plan_id":"cebpf4jnsgd1na2vs0mg"},{"bike_id":"328a81dc-f61a-4b4c-926d-0874dbef2caf","system_id":"levelo_inurba_marseille","lat":43.29529,"lon":5.37506,"is_reserved":false,"is_disabled":false,"rental_uris":{"android":"levelo://app?vid=328a81dc-f61a-4b4c-926d-0874dbef2caf","ios":"levelo://app?vid=328a81dc-f61a-4b4c-926d-0874dbef2caf"},"vehicle_type_id":"4","last_reported":1748448743,"current_range_meters":6800,"station_id":"ce4bgkp2rcd13ifvqbmg","pricing_plan_id":"cebpf4jnsgd1na2vs0mg"},{"bike_id":"4108c98b-de26-433d-b689-fc8d14aebcbc","system_id":"levelo_inurba_marseille","lat":43.292,"lon":5.35796,"is_reserved":false,"is_disabled":false,"rental_uris":{"android":"levelo://app?vid=4108c98b-de26-433d-b689-fc8d14aebcbc","ios":"levelo://app?vid=4108c98b-de26-433d-b689-fc8d14aebcbc"},"vehicle_type_id":"4","last_reported":1748448743,"current_range_meters":7200,"station_id":"ce4bhb12rcd13ifvqel0","pricing_plan_id":"cebpf4jnsgd1na2vs0mg"},{"bike_id":"efd87ad2-cb68-438c-b095-1867bdc6c495","system_id":"levelo_inurba_marseille","lat":43.30423,"lon":5.388953,"is_reserved":false,"is_disabled":false,"rental_uris":{"android":"levelo://app?vid=efd87ad2-cb68-438c-b095-1867bdc6c495","ios":"levelo://app?vid=efd87ad2-cb68-438c-b095-1867bdc6c495"},"vehicle_type_id":"4","last_reported":1748448743,"current_range_meters":7200,"station_id":"ce4bgk12rcd13ifvqbi0","pricing_plan_id":"cebpf4jnsgd1na2vs0mg"},{"bike_id":"374a1b3e-b5b8-4524-9a15-4a77f7625acd","system_id":"levelo_inurba_marseille","lat":43.27317,"lon":5.39081,"is_reserved":false,"is_disabled":false,"rental_uris":{"android":"levelo://app?vid=374a1b3e-b5b8-4524-9a15-4a77f7625acd","ios":"levelo://app?vid=374a1b3e-b5b8-4524-9a15-4a77f7625acd"},"vehicle_type_id":"4","last_reported":1748448743,"current_range_meters":7200,"station_id":"ce4bhgp2rcd13ifvqfe0","pricing_plan_id":"cebpf4jnsgd1na2vs0mg"},{"bike_id":"ab3a191d-783a-49a5-aac7-010ad5fbcc86","system_id":"levelo_inurba_marseille","lat":43.2953,"lon":5.37512,"is_reserved":false,"is_disabled":true,"rental_uris":{"android":"levelo://app?vid=ab3a191d-783a-49a5-aac7-010ad5fbcc86","ios":"levelo://app?vid=ab3a191d-783a-49a5-aac7-010ad5fbcc86"},"vehicle_type_id":"4","last_reported":1748448743,"current_range_meters":7200,"station_id":"ce4bgkp2rcd13ifvqbmg","pricing_plan_id":"cebpf4jnsgd1na2vs0mg"},{"bike_id":"219e2789-9049-4f7c-9b61-b2d1b3ba286c","system_id":"levelo_inurba_marseille","lat":43.26203,"lon":5.37928,"is_reserved":false,"is_disabled":false,"rental_uris":{"android":"levelo://app?vid=219e2789-9049-4f7c-9b61-b2d1b3ba286c","ios":"levelo://app?vid=219e2789-9049-4f7c-9b61-b2d1b3ba286c"},"vehicle_type_id":"4","last_reported":1748448743,"current_range_meters":7200,"station_id":"ce4bhjp2rcd13ifvqg90","pricing_plan_id":"cebpf4jnsgd1na2vs0mg"},{"bike_id":"e825b1a8-712e-4c98-92bb-1a8eec401e97","system_id":"levelo_inurba_marseille","lat":43.27381,"lon":5.36256,"is_reserved":false,"is_disabled":false,"rental_uris":{"android":"levelo://app?vid=e825b1a8-712e-4c98-92bb-1a8eec401e97","ios":"levelo://app?vid=e825b1a8-712e-4c98-92bb-1a8eec401e97"},"vehicle_type_id":"4","last_reported":1748448743,"current_range_meters":7200,"station_id":"ce4bhbh2rcd13ifvqeo0","pricing_plan_id":"cebpf4jnsgd1na2vs0mg"},{"bike_id":"d6f67e7d-008b-4459-8b0c-2b65a93dec5c","system_id":"levelo_inurba_marseille","lat":43.30462,"lon":5.3792,"is_reserved":false,"is_disabled":false,"rental_uris":{"android":"levelo://app?vid=d6f67e7d-008b-4459-8b0c-2b65a93dec5c","ios":"levelo://app?vid=d6f67e7d-008b-4459-8b0c-2b65a93dec5c"},"vehicle_type_id":"4","last_reported":1748448743,"current_range_meters":6800,"station_id":"ce4bgup2rcd13ifvqcn0","pricing_plan_id":"cebpf4jnsgd1na2vs0mg"},{"bike_id":"601836e2-a155-4017-b769-2a0cf298895e","system_id":"levelo_inurba_marseille","lat":43.24169,"lon":5.36407,"is_reserved":false,"is_disabled":false,"rental_uris":{"android":"levelo://app?vid=601836e2-a155-4017-b769-2a0cf298895e","ios":"levelo://app?vid=601836e2-a155-4017-b769-2a0cf298895e"},"vehicle_type_id":"4","last_reported":1748448743,"current_range_meters":7200,"station_id":"cpo36qri1sfpv3e86is0","pricing_plan_id":"cebpf4jnsgd1na2vs0mg"},{"bike_id":"3507b8f6-0749-4df2-8e40-cc88841bc127","system_id":"levelo_inurba_marseille","lat":43.25106,"lon":5.40345,"is_reserved":false,"is_disabled":false,"rental_uris":{"android":"levelo://app?vid=3507b8f6-0749-4df2-8e40-cc88841bc127","ios":"levelo://app?vid=3507b8f6-0749-4df2-8e40-cc88841bc127"},"vehicle_type_id":"4","last_reported":1748448743,"current_range_meters":7200,"station_id":"ce4bhlh2rcd13ifvqgig","pricing_plan_id":"cebpf4jnsgd1na2vs0mg"},{"bike_id":"b8f119d0-b5b7-4c2a-b384-b62fa7acd87f","system_id":"levelo_inurba_marseille","lat":43.27839,"lon":5.39209,"is_reserved":false,"is_disabled":false,"rental_uris":{"android":"levelo://app?vid=b8f119d0-b5b7-4c2a-b384-b62fa7acd87f","ios":"levelo://app?vid=b8f119d0-b5b7-4c2a-b384-b62fa7acd87f"},"vehicle_type_id":"4","last_reported":1748448743,"current_range_meters":8000,"station_id":"ce4bhjp2rcd13ifvqga0","pricing_plan_id":"cebpf4jnsgd1na2vs0mg"},{"bike_id":"41de3b25-7a48-415f-b3a6-000e0a0b4350","system_id":"levelo_inurba_marseille","lat":43.29574,"lon":5.37526,"is_reserved":false,"is_disabled":false,"rental_uris":{"android":"levelo://app?vid=41de3b25-7a48-415f-b3a6-000e0a0b4350","ios":"levelo://app?vid=41de3b25-7a48-415f-b3a6-000e0a0b4350"},"vehicle_type_id":"4","last_reported":1748448743,"current_range_meters":8000,"station_id":"ce4bgh92rcd13ifvqb50","pricing_plan_id":"cebpf4jnsgd1na2vs0mg"},{"bike_id":"87b395fb-0dfd-464d-b68d-3afc622e0d48","system_id":"levelo_inurba_marseille","lat":43.29552,"lon":5.39465,"is_reserved":false,"is_disabled":false,"rental_uris":{"android":"levelo://app?vid=87b395fb-0dfd-464d-b68d-3afc622e0d48","ios":"levelo://app?vid=87b395fb-0dfd-464d-b68d-3afc622e0d48"},"vehicle_type_id":"4","last_reported":1748448743,"current_range_meters":8000,"station_id":"","pricing_plan_id":"cebpf4jnsgd1na2vs0mg"},{"bike_id":"63db40de-24e6-4269-8c5a-ce35bbd215e6","system_id":"levelo_inurba_marseille","lat":43.27374,"lon":5.3626,"is_reserved":false,"is_disabled":false,"rental_uris":{"android":"levelo://app?vid=63db40de-24e6-4269-8c5a-ce35bbd215e6","ios":"levelo://app?vid=63db40de-24e6-4269-8c5a-ce35bbd215e6"},"vehicle_type_id":"4","last_reported":1748448743,"current_range_meters":8000,"station_id":"ce4bhbh2rcd13ifvqeo0","pricing_plan_id":"cebpf4jnsgd1na2vs0mg"},{"bike_id":"862aab7b-8cd6-4c01-b4df-78ecbf355528","system_id":"levelo_inurba_marseille","lat":43.27916,"lon":5.3958,"is_reserved":false,"is_disabled":false,"rental_uris":{"android":"levelo://app?vid=862aab7b-8cd6-4c01-b4df-78ecbf355528","ios":"levelo://app?vid=862aab7b-8cd6-4c01-b4df-78ecbf355528"},"vehicle_type_id":"4","last_reported":1748448743,"current_range_meters":8000,"station_id":"ce4bhf92rcd13ifvqf40","pricing_plan_id":"cebpf4jnsgd1na2vs0mg"},{"bike_id":"094d5e46-7ecd-498e-96f0-737c704f660b","system_id":"levelo_inurba_marseille","lat":43.27909,"lon":5.39579,"is_reserved":false,"is_disabled":false,"rental_uris":{"android":"levelo://app?vid=094d5e46-7ecd-498e-96f0-737c704f660b","ios":"levelo://app?vid=094d5e46-7ecd-498e-96f0-737c704f660b"},"vehicle_type_id":"4","last_reported":1748448743,"current_range_meters":8400,"station_id":"ce4bhf92rcd13ifvqf40","pricing_plan_id":"cebpf4jnsgd1na2vs0mg"},{"bike_id":"0179083d-088a-4a35-8dd7-e7427e737676","system_id":"levelo_inurba_marseille","lat":43.286102,"lon":5.351101,"is_reserved":false,"is_disabled":false,"rental_uris":{"android":"levelo://app?vid=0179083d-088a-4a35-8dd7-e7427e737676","ios":"levelo://app?vid=0179083d-088a-4a35-8dd7-e7427e737676"},"vehicle_type_id":"4","last_reported":1748448743,"current_range_meters":8000,"station_id":"ce4bhch2rcd13ifvqeug","pricing_plan_id":"cebpf4jnsgd1na2vs0mg"},{"bike_id":"1a9deaa6-5b0b-41ea-a3a0-9c49f0de8473","system_id":"levelo_inurba_marseille","lat":43.29326,"lon":5.411586,"is_reserved":false,"is_disabled":false,"rental_uris":{"android":"levelo://app?vid=1a9deaa6-5b0b-41ea-a3a0-9c49f0de8473","ios":"levelo://app?vid=1a9deaa6-5b0b-41ea-a3a0-9c49f0de8473"},"vehicle_type_id":"4","last_reported":1748448743,"current_range_meters":8000,"station_id":"","pricing_plan_id":"cebpf4jnsgd1na2vs0mg"},{"bike_id":"b4b1f3f8-b35c-47e2-a72b-796e0656b744","system_id":"levelo_inurba_marseille","lat":43.28104,"lon":5.37839,"is_reserved":false,"is_disabled":false,"rental_uris":{"android":"levelo://app?vid=b4b1f3f8-b35c-47e2-a72b-796e0656b744","ios":"levelo://app?vid=b4b1f3f8-b35c-47e2-a72b-796e0656b744"},"vehicle_type_id":"4","last_reported":1748448743,"current_range_meters":8400,"station_id":"ce4bha12rcd13ifvqee0","pricing_plan_id":"cebpf4jnsgd1na2vs0mg"},{"bike_id":"12674e1f-fa7f-4465-af10-b6a4dfdc7808","system_id":"levelo_inurba_marseille","lat":43.28152,"lon":5.42643,"is_reserved":false,"is_disabled":false,"rental_uris":{"android":"levelo://app?vid=12674e1f-fa7f-4465-af10-b6a4dfdc7808","ios":"levelo://app?vid=12674e1f-fa7f-4465-af10-b6a4dfdc7808"},"vehicle_type_id":"4","last_reported":1748448743,"current_range_meters":8400,"station_id":"ce4bhnh2rcd13ifvqgug","pricing_plan_id":"cebpf4jnsgd1na2vs0mg"},{"bike_id":"422040df-d299-4a66-bca8-4e8e90b9de24","system_id":"levelo_inurba_marseille","lat":43.27378,"lon":5.36258,"is_reserved":false,"is_disabled":false,"rental_uris":{"android":"levelo://app?vid=422040df-d299-4a66-bca8-4e8e90b9de24","ios":"levelo://app?vid=422040df-d299-4a66-bca8-4e8e90b9de24"},"vehicle_type_id":"4","last_reported":1748448743,"current_range_meters":8400,"station_id":"ce4bhbh2rcd13ifvqeo0","pricing_plan_id":"cebpf4jnsgd1na2vs0mg"},{"bike_id":"c677a459-b055-4062-9e75-147aa881498a","system_id":"levelo_inurba_marseille","lat":43.31113,"lon":5.37765,"is_reserved":false,"is_disabled":false,"rental_uris":{"android":"levelo://app?vid=c677a459-b055-4062-9e75-147aa881498a","ios":"levelo://app?vid=c677a459-b055-4062-9e75-147aa881498a"},"vehicle_type_id":"4","last_reported":1748448743,"current_range_meters":8400,"station_id":"ce4bgt92rcd13ifvqcg0","pricing_plan_id":"cebpf4jnsgd1na2vs0mg"},{"bike_id":"d65e1a40-4a80-4aae-b2f9-36c8cfb9222d","system_id":"levelo_inurba_marseille","lat":43.30089,"lon":5.39071,"is_reserved":false,"is_disabled":false,"rental_uris":{"android":"levelo://app?vid=d65e1a40-4a80-4aae-b2f9-36c8cfb9222d","ios":"levelo://app?vid=d65e1a40-4a80-4aae-b2f9-36c8cfb9222d"},"vehicle_type_id":"4","last_reported":1748448743,"current_range_meters":8000,"station_id":"ce4bh192rcd13ifvqdb0","pricing_plan_id":"cebpf4jnsgd1na2vs0mg"},{"bike_id":"568f8561-56f2-499c-85c2-283012ed70e6","system_id":"levelo_inurba_marseille","lat":43.27994,"lon":5.40012,"is_reserved":false,"is_disabled":false,"rental_uris":{"android":"levelo://app?vid=568f8561-56f2-499c-85c2-283012ed70e6","ios":"levelo://app?vid=568f8561-56f2-499c-85c2-283012ed70e6"},"vehicle_type_id":"4","last_reported":1748448743,"current_range_meters":8400,"station_id":"ce4bho92rcd13ifvqh4g","pricing_plan_id":"cebpf4jnsgd1na2vs0mg"},{"bike_id":"4aeacc7f-5285-47e9-853a-811d3cfffb5b","system_id":"levelo_inurba_marseille","lat":43.29534,"lon":5.39396,"is_reserved":false,"is_disabled":false,"rental_uris":{"android":"levelo://app?vid=4aeacc7f-5285-47e9-853a-811d3cfffb5b","ios":"levelo://app?vid=4aeacc7f-5285-47e9-853a-811d3cfffb5b"},"vehicle_type_id":"4","last_reported":1748448743,"current_range_meters":8400,"station_id":"ce4bh292rcd13ifvqdf0","pricing_plan_id":"cebpf4jnsgd1na2vs0mg"},{"bike_id":"06bbabec-c84b-40bd-b923-52854b8c6c4d","system_id":"levelo_inurba_marseille","lat":43.28481,"lon":5.38423,"is_reserved":false,"is_disabled":false,"rental_uris":{"android":"levelo://app?vid=06bbabec-c84b-40bd-b923-52854b8c6c4d","ios":"levelo://app?vid=06bbabec-c84b-40bd-b923-52854b8c6c4d"},"vehicle_type_id":"4","last_reported":1748448743,"current_range_meters":8400,"station_id":"ce4bh512rcd13ifvqe3g","pricing_plan_id":"cebpf4jnsgd1na2vs0mg"},{"bike_id":"cffec003-0d8d-4909-bc57-f3ed35359bcf","system_id":"levelo_inurba_marseille","lat":43.255801,"lon":5.382303,"is_reserved":false,"is_disabled":false,"rental_uris":{"android":"levelo://app?vid=cffec003-0d8d-4909-bc57-f3ed35359bcf","ios":"levelo://app?vid=cffec003-0d8d-4909-bc57-f3ed35359bcf"},"vehicle_type_id":"4","last_reported":1748448743,"current_range_meters":8400,"station_id":"ce4bhih2rcd13ifvqfs0","pricing_plan_id":"cebpf4jnsgd1na2vs0mg"},{"bike_id":"0caed2c5-12f8-4fe6-b530-589024ba8e3c","system_id":"levelo_inurba_marseille","lat":43.28719,"lon":5.36088,"is_reserved":false,"is_disabled":false,"rental_uris":{"android":"levelo://app?vid=0caed2c5-12f8-4fe6-b530-589024ba8e3c","ios":"levelo://app?vid=0caed2c5-12f8-4fe6-b530-589024ba8e3c"},"vehicle_type_id":"4","last_reported":1748448743,"current_range_meters":8400,"station_id":"cki0cbj6b192h4jlfktg","pricing_plan_id":"cebpf4jnsgd1na2vs0mg"},{"bike_id":"524b402d-83ef-4088-9a8d-5fe7be6e768c","system_id":"levelo_inurba_marseille","lat":43.27625,"lon":5.36102,"is_reserved":false,"is_disabled":false,"rental_uris":{"android":"levelo://app?vid=524b402d-83ef-4088-9a8d-5fe7be6e768c","ios":"levelo://app?vid=524b402d-83ef-4088-9a8d-5fe7be6e768c"},"vehicle_type_id":"4","last_reported":1748448743,"current_range_meters":8800,"station_id":"ce4bgj92rcd13ifvqbe0","pricing_plan_id":"cebpf4jnsgd1na2vs0mg"},{"bike_id":"b80ee325-09b2-4724-993d-4f8d3707c41c","system_id":"levelo_inurba_marseille","lat":43.25862,"lon":5.39902,"is_reserved":false,"is_disabled":false,"rental_uris":{"android":"levelo://app?vid=b80ee325-09b2-4724-993d-4f8d3707c41c","ios":"levelo://app?vid=b80ee325-09b2-4724-993d-4f8d3707c41c"},"vehicle_type_id":"4","last_reported":1748448743,"current_range_meters":8800,"station_id":"ce4bhl92rcd13ifvqghg","pricing_plan_id":"cebpf4jnsgd1na2vs0mg"},{"bike_id":"1490c9d6-e6f8-49e5-a25d-0d3c77d24807","system_id":"levelo_inurba_marseille","lat":43.29286,"lon":5.37446,"is_reserved":false,"is_disabled":true,"rental_uris":{"android":"levelo://app?vid=1490c9d6-e6f8-49e5-a25d-0d3c77d24807","ios":"levelo://app?vid=1490c9d6-e6f8-49e5-a25d-0d3c77d24807"},"vehicle_type_id":"4","last_reported":1748448743,"current_range_meters":8800,"station_id":"ce4bgi12rcd13ifvqb70","pricing_plan_id":"cebpf4jnsgd1na2vs0mg"},{"bike_id":"6d186095-9a4b-4766-a0af-c7b8d419039e","system_id":"levelo_inurba_marseille","lat":43.28441,"lon":5.35003,"is_reserved":false,"is_disabled":false,"rental_uris":{"android":"levelo://app?vid=6d186095-9a4b-4766-a0af-c7b8d419039e","ios":"levelo://app?vid=6d186095-9a4b-4766-a0af-c7b8d419039e"},"vehicle_type_id":"4","last_reported":1748448743,"current_range_meters":8800,"station_id":"ce4bhbh2rcd13ifvqepg","pricing_plan_id":"cebpf4jnsgd1na2vs0mg"},{"bike_id":"563d0124-9ba1-4196-a307-804e2fcbf9ee","system_id":"levelo_inurba_marseille","lat":43.29298,"lon":5.37464,"is_reserved":false,"is_disabled":false,"rental_uris":{"android":"levelo://app?vid=563d0124-9ba1-4196-a307-804e2fcbf9ee","ios":"levelo://app?vid=563d0124-9ba1-4196-a307-804e2fcbf9ee"},"vehicle_type_id":"4","last_reported":1748448743,"current_range_meters":8800,"station_id":"ce4bgi12rcd13ifvqb70","pricing_plan_id":"cebpf4jnsgd1na2vs0mg"},{"bike_id":"31ce438f-3d0e-4553-becc-afe3aa4f898d","system_id":"levelo_inurba_marseille","lat":43.24803,"lon":5.37457,"is_reserved":false,"is_disabled":false,"rental_uris":{"android":"levelo://app?vid=31ce438f-3d0e-4553-becc-afe3aa4f898d","ios":"levelo://app?vid=31ce438f-3d0e-4553-becc-afe3aa4f898d"},"vehicle_type_id":"4","last_reported":1748448743,"current_range_meters":8800,"station_id":"ce4bhgh2rcd13ifvqfb0","pricing_plan_id":"cebpf4jnsgd1na2vs0mg"},{"bike_id":"2a634979-246c-4a61-9218-f7b11520793d","system_id":"levelo_inurba_marseille","lat":43.278946,"lon":5.409562,"is_reserved":false,"is_disabled":false,"rental_uris":{"android":"levelo://app?vid=2a634979-246c-4a61-9218-f7b11520793d","ios":"levelo://app?vid=2a634979-246c-4a61-9218-f7b11520793d"},"vehicle_type_id":"4","last_reported":1748448743,"current_range_meters":8800,"station_id":"ce4bhnp2rcd13ifvqh0g","pricing_plan_id":"cebpf4jnsgd1na2vs0mg"},{"bike_id":"d938ed08-c515-463d-8b62-975bdd6fc371","system_id":"levelo_inurba_marseille","lat":43.27425,"lon":5.39423,"is_reserved":false,"is_disabled":false,"rental_uris":{"android":"levelo://app?vid=d938ed08-c515-463d-8b62-975bdd6fc371","ios":"levelo://app?vid=d938ed08-c515-463d-8b62-975bdd6fc371"},"vehicle_type_id":"4","last_reported":1748448743,"current_range_meters":8800,"station_id":"ce4bhdp2rcd13ifvqf20","pricing_plan_id":"cebpf4jnsgd1na2vs0mg"},{"bike_id":"0e60b4ca-3f24-40ae-a7f6-9cf0f33c29b2","system_id":"levelo_inurba_marseille","lat":43.25577,"lon":5.38244,"is_reserved":false,"is_disabled":false,"rental_uris":{"android":"levelo://app?vid=0e60b4ca-3f24-40ae-a7f6-9cf0f33c29b2","ios":"levelo://app?vid=0e60b4ca-3f24-40ae-a7f6-9cf0f33c29b2"},"vehicle_type_id":"4","last_reported":1748448743,"current_range_meters":8800,"station_id":"ce4bhih2rcd13ifvqfs0","pricing_plan_id":"cebpf4jnsgd1na2vs0mg"},{"bike_id":"3eea8d4f-2ed6-433a-a907-25c0ee78b618","system_id":"levelo_inurba_marseille","lat":43.27997,"lon":5.41656,"is_reserved":false,"is_disabled":false,"rental_uris":{"android":"levelo://app?vid=3eea8d4f-2ed6-433a-a907-25c0ee78b618","ios":"levelo://app?vid=3eea8d4f-2ed6-433a-a907-25c0ee78b618"},"vehicle_type_id":"4","last_reported":1748448743,"current_range_meters":8800,"station_id":"ce4bho12rcd13ifvqh1g","pricing_plan_id":"cebpf4jnsgd1na2vs0mg"},{"bike_id":"6d7cfdcd-f061-4eee-b4e5-78d9b6729328","system_id":"levelo_inurba_marseille","lat":43.32999,"lon":5.43855,"is_reserved":false,"is_disabled":false,"rental_uris":{"android":"levelo://app?vid=6d7cfdcd-f061-4eee-b4e5-78d9b6729328","ios":"levelo://app?vid=6d7cfdcd-f061-4eee-b4e5-78d9b6729328"},"vehicle_type_id":"4","last_reported":1748448743,"current_range_meters":9200,"station_id":"","pricing_plan_id":"cebpf4jnsgd1na2vs0mg"},{"bike_id":"4b04b1e6-7ad3-4768-81e4-2f1bdb89d1e3","system_id":"levelo_inurba_marseille","lat":43.25104,"lon":5.4032,"is_reserved":false,"is_disabled":false,"rental_uris":{"android":"levelo://app?vid=4b04b1e6-7ad3-4768-81e4-2f1bdb89d1e3","ios":"levelo://app?vid=4b04b1e6-7ad3-4768-81e4-2f1bdb89d1e3"},"vehicle_type_id":"4","last_reported":1748448743,"current_range_meters":9200,"station_id":"ce4bhlh2rcd13ifvqgig","pricing_plan_id":"cebpf4jnsgd1na2vs0mg"},{"bike_id":"3bf549ac-7e1b-48b6-b158-6bb34220759d","system_id":"levelo_inurba_marseille","lat":43.27618,"lon":5.36121,"is_reserved":false,"is_disabled":false,"rental_uris":{"android":"levelo://app?vid=3bf549ac-7e1b-48b6-b158-6bb34220759d","ios":"levelo://app?vid=3bf549ac-7e1b-48b6-b158-6bb34220759d"},"vehicle_type_id":"4","last_reported":1748448743,"current_range_meters":9200,"station_id":"ce4bgj92rcd13ifvqbe0","pricing_plan_id":"cebpf4jnsgd1na2vs0mg"},{"bike_id":"d750eca3-2310-41c0-bd4a-2e38c8ebfc0b","system_id":"levelo_inurba_marseille","lat":43.25723,"lon":5.41105,"is_reserved":false,"is_disabled":false,"rental_uris":{"android":"levelo://app?vid=d750eca3-2310-41c0-bd4a-2e38c8ebfc0b","ios":"levelo://app?vid=d750eca3-2310-41c0-bd4a-2e38c8ebfc0b"},"vehicle_type_id":"4","last_reported":1748448743,"current_range_meters":9200,"station_id":"ce4bhkp2rcd13ifvqgd0","pricing_plan_id":"cebpf4jnsgd1na2vs0mg"},{"bike_id":"16578a9c-c460-4d38-be25-a20250881a73","system_id":"levelo_inurba_marseille","lat":43.32229,"lon":5.3842,"is_reserved":false,"is_disabled":false,"rental_uris":{"android":"levelo://app?vid=16578a9c-c460-4d38-be25-a20250881a73","ios":"levelo://app?vid=16578a9c-c460-4d38-be25-a20250881a73"},"vehicle_type_id":"4","last_reported":1748448743,"current_range_meters":9200,"station_id":"","pricing_plan_id":"cebpf4jnsgd1na2vs0mg"},{"bike_id":"76a0d56a-fe05-4aed-b9ed-4a47e5f5527c","system_id":"levelo_inurba_marseille","lat":43.28268,"lon":5.35077,"is_reserved":false,"is_disabled":false,"rental_uris":{"android":"levelo://app?vid=76a0d56a-fe05-4aed-b9ed-4a47e5f5527c","ios":"levelo://app?vid=76a0d56a-fe05-4aed-b9ed-4a47e5f5527c"},"vehicle_type_id":"4","last_reported":1748448743,"current_range_meters":9200,"station_id":"ce4bhbp2rcd13ifvqerg","pricing_plan_id":"cebpf4jnsgd1na2vs0mg"},{"bike_id":"9ead7d5c-23c9-454c-9966-d2de989f8175","system_id":"levelo_inurba_marseille","lat":43.30135,"lon":5.39865,"is_reserved":false,"is_disabled":false,"rental_uris":{"android":"levelo://app?vid=9ead7d5c-23c9-454c-9966-d2de989f8175","ios":"levelo://app?vid=9ead7d5c-23c9-454c-9966-d2de989f8175"},"vehicle_type_id":"4","last_reported":1748448743,"current_range_meters":9200,"station_id":"ce4bh0h2rcd13ifvqd40","pricing_plan_id":"cebpf4jnsgd1na2vs0mg"},{"bike_id":"42240e2d-8220-4bd3-a126-80c04f9d31fe","system_id":"levelo_inurba_marseille","lat":43.24069,"lon":5.37765,"is_reserved":false,"is_disabled":false,"rental_uris":{"android":"levelo://app?vid=42240e2d-8220-4bd3-a126-80c04f9d31fe","ios":"levelo://app?vid=42240e2d-8220-4bd3-a126-80c04f9d31fe"},"vehicle_type_id":"4","last_reported":1748448743,"current_range_meters":9200,"station_id":"ce4bhnp2rcd13ifvqgvg","pricing_plan_id":"cebpf4jnsgd1na2vs0mg"},{"bike_id":"63b17186-8534-43df-8f53-4f09baa5eb84","system_id":"levelo_inurba_marseille","lat":43.24672,"lon":5.38163,"is_reserved":false,"is_disabled":false,"rental_uris":{"android":"levelo://app?vid=63b17186-8534-43df-8f53-4f09baa5eb84","ios":"levelo://app?vid=63b17186-8534-43df-8f53-4f09baa5eb84"},"vehicle_type_id":"4","last_reported":1748448743,"current_range_meters":9200,"station_id":"ce4bhih2rcd13ifvqfr0","pricing_plan_id":"cebpf4jnsgd1na2vs0mg"},{"bike_id":"68fa5324-d047-41d7-9867-38e998660ef7","system_id":"levelo_inurba_marseille","lat":43.29895,"lon":5.43673,"is_reserved":false,"is_disabled":false,"rental_uris":{"android":"levelo://app?vid=68fa5324-d047-41d7-9867-38e998660ef7","ios":"levelo://app?vid=68fa5324-d047-41d7-9867-38e998660ef7"},"vehicle_type_id":"4","last_reported":1748448743,"current_range_meters":9600,"station_id":"ce4bhpp2rcd13ifvqhfg","pricing_plan_id":"cebpf4jnsgd1na2vs0mg"},{"bike_id":"92db92aa-c663-4c9f-aef7-820d85f59acd","system_id":"levelo_inurba_marseille","lat":43.30423,"lon":5.388967,"is_reserved":false,"is_disabled":false,"rental_uris":{"android":"levelo://app?vid=92db92aa-c663-4c9f-aef7-820d85f59acd","ios":"levelo://app?vid=92db92aa-c663-4c9f-aef7-820d85f59acd"},"vehicle_type_id":"4","last_reported":1748448743,"current_range_meters":9600,"station_id":"ce4bgk12rcd13ifvqbi0","pricing_plan_id":"cebpf4jnsgd1na2vs0mg"},{"bike_id":"cbdfe564-1cb6-4312-b046-c48c47f0cf93","system_id":"levelo_inurba_marseille","lat":43.295294,"lon":5.39036,"is_reserved":false,"is_disabled":false,"rental_uris":{"android":"levelo://app?vid=cbdfe564-1cb6-4312-b046-c48c47f0cf93","ios":"levelo://app?vid=cbdfe564-1cb6-4312-b046-c48c47f0cf93"},"vehicle_type_id":"4","last_reported":1748448743,"current_range_meters":9600,"station_id":"ce4bh3p2rcd13ifvqdp0","pricing_plan_id":"cebpf4jnsgd1na2vs0mg"},{"bike_id":"c7f0c7ea-6b08-449a-9226-93150dfaf442","system_id":"levelo_inurba_marseille","lat":43.27374,"lon":5.36255,"is_reserved":false,"is_disabled":false,"rental_uris":{"android":"levelo://app?vid=c7f0c7ea-6b08-449a-9226-93150dfaf442","ios":"levelo://app?vid=c7f0c7ea-6b08-449a-9226-93150dfaf442"},"vehicle_type_id":"4","last_reported":1748448743,"current_range_meters":9600,"station_id":"ce4bhbh2rcd13ifvqeo0","pricing_plan_id":"cebpf4jnsgd1na2vs0mg"},{"bike_id":"be4b293e-8744-4637-8ca2-a3e9032e9cec","system_id":"levelo_inurba_marseille","lat":43.22921,"lon":5.35377,"is_reserved":false,"is_disabled":false,"rental_uris":{"android":"levelo://app?vid=be4b293e-8744-4637-8ca2-a3e9032e9cec","ios":"levelo://app?vid=be4b293e-8744-4637-8ca2-a3e9032e9cec"},"vehicle_type_id":"4","last_reported":1748448743,"current_range_meters":9600,"station_id":"cpo3532slgdg3j2ikp40","pricing_plan_id":"cebpf4jnsgd1na2vs0mg"},{"bike_id":"0688b530-7222-43b5-ad99-df2f941748b2","system_id":"levelo_inurba_marseille","lat":43.27813,"lon":5.40711,"is_reserved":false,"is_disabled":false,"rental_uris":{"android":"levelo://app?vid=0688b530-7222-43b5-ad99-df2f941748b2","ios":"levelo://app?vid=0688b530-7222-43b5-ad99-df2f941748b2"},"vehicle_type_id":"4","last_reported":1748448743,"current_range_meters":9600,"station_id":"ce4bhnh2rcd13ifvqgtg","pricing_plan_id":"cebpf4jnsgd1na2vs0mg"},{"bike_id":"80515fb9-3039-4255-84ab-f2b4eeb4519f","system_id":"levelo_inurba_marseille","lat":43.291,"lon":5.38142,"is_reserved":false,"is_disabled":false,"rental_uris":{"android":"levelo://app?vid=80515fb9-3039-4255-84ab-f2b4eeb4519f","ios":"levelo://app?vid=80515fb9-3039-4255-84ab-f2b4eeb4519f"},"vehicle_type_id":"4","last_reported":1748448743,"current_range_meters":9200,"station_id":"ce4bh512rcd13ifvqe2g","pricing_plan_id":"cebpf4jnsgd1na2vs0mg"},{"bike_id":"ebf232a6-9261-4c0c-996a-fdee0a9a02e7","system_id":"levelo_inurba_marseille","lat":43.25102,"lon":5.4031,"is_reserved":false,"is_disabled":false,"rental_uris":{"android":"levelo://app?vid=ebf232a6-9261-4c0c-996a-fdee0a9a02e7","ios":"levelo://app?vid=ebf232a6-9261-4c0c-996a-fdee0a9a02e7"},"vehicle_type_id":"4","last_reported":1748448743,"current_range_meters":9200,"station_id":"ce4bhlh2rcd13ifvqgig","pricing_plan_id":"cebpf4jnsgd1na2vs0mg"},{"bike_id":"29ebd1a2-84b5-497d-8f13-aa89e2b1ffde","system_id":"levelo_inurba_marseille","lat":43.29417,"lon":5.38611,"is_reserved":false,"is_disabled":true,"rental_uris":{"android":"levelo://app?vid=29ebd1a2-84b5-497d-8f13-aa89e2b1ffde","ios":"levelo://app?vid=29ebd1a2-84b5-497d-8f13-aa89e2b1ffde"},"vehicle_type_id":"4","last_reported":1748448743,"current_range_meters":9600,"station_id":"ce4bh2h2rcd13ifvqdh0","pricing_plan_id":"cebpf4jnsgd1na2vs0mg"},{"bike_id":"899e1268-d43c-4ee2-9675-87d26f2979db","system_id":"levelo_inurba_marseille","lat":43.286241,"lon":5.35109,"is_reserved":false,"is_disabled":false,"rental_uris":{"android":"levelo://app?vid=899e1268-d43c-4ee2-9675-87d26f2979db","ios":"levelo://app?vid=899e1268-d43c-4ee2-9675-87d26f2979db"},"vehicle_type_id":"4","last_reported":1748448743,"current_range_meters":9600,"station_id":"ce4bhch2rcd13ifvqeug","pricing_plan_id":"cebpf4jnsgd1na2vs0mg"},{"bike_id":"efe48752-e061-4233-9d4f-11a9fc0052ae","system_id":"levelo_inurba_marseille","lat":43.27063,"lon":5.40264,"is_reserved":false,"is_disabled":false,"rental_uris":{"android":"levelo://app?vid=efe48752-e061-4233-9d4f-11a9fc0052ae","ios":"levelo://app?vid=efe48752-e061-4233-9d4f-11a9fc0052ae"},"vehicle_type_id":"4","last_reported":1748448743,"current_range_meters":10000,"station_id":"ce4bhk92rcd13ifvqgc0","pricing_plan_id":"cebpf4jnsgd1na2vs0mg"},{"bike_id":"d7bdd729-a12f-4fa0-a1fe-ccd875319208","system_id":"levelo_inurba_marseille","lat":43.26211,"lon":5.37884,"is_reserved":false,"is_disabled":false,"rental_uris":{"android":"levelo://app?vid=d7bdd729-a12f-4fa0-a1fe-ccd875319208","ios":"levelo://app?vid=d7bdd729-a12f-4fa0-a1fe-ccd875319208"},"vehicle_type_id":"4","last_reported":1748448743,"current_range_meters":10000,"station_id":"ce4bhjp2rcd13ifvqg90","pricing_plan_id":"cebpf4jnsgd1na2vs0mg"},{"bike_id":"b15321ef-eb83-4ccb-91de-5cafb217ca43","system_id":"levelo_inurba_marseille","lat":43.29375,"lon":5.3785,"is_reserved":false,"is_disabled":false,"rental_uris":{"android":"levelo://app?vid=b15321ef-eb83-4ccb-91de-5cafb217ca43","ios":"levelo://app?vid=b15321ef-eb83-4ccb-91de-5cafb217ca43"},"vehicle_type_id":"4","last_reported":1748448743,"current_range_meters":10000,"station_id":"ce4bgjh2rcd13ifvqbf0","pricing_plan_id":"cebpf4jnsgd1na2vs0mg"},{"bike_id":"0a7307bc-bba2-4d6d-a016-5273c9da9203","system_id":"levelo_inurba_marseille","lat":43.32474,"lon":5.36567,"is_reserved":false,"is_disabled":false,"rental_uris":{"android":"levelo://app?vid=0a7307bc-bba2-4d6d-a016-5273c9da9203","ios":"levelo://app?vid=0a7307bc-bba2-4d6d-a016-5273c9da9203"},"vehicle_type_id":"4","last_reported":1748448743,"current_range_meters":9600,"station_id":"ce4bhs12rcd13ifvqhvg","pricing_plan_id":"cebpf4jnsgd1na2vs0mg"},{"bike_id":"7ee06ba7-5824-4d35-8bd6-1140f8177869","system_id":"levelo_inurba_marseille","lat":43.302756,"lon":5.377141,"is_reserved":false,"is_disabled":false,"rental_uris":{"android":"levelo://app?vid=7ee06ba7-5824-4d35-8bd6-1140f8177869","ios":"levelo://app?vid=7ee06ba7-5824-4d35-8bd6-1140f8177869"},"vehicle_type_id":"4","last_reported":1748448743,"current_range_meters":10000,"station_id":"ce4bguh2rcd13ifvqcj0","pricing_plan_id":"cebpf4jnsgd1na2vs0mg"},{"bike_id":"ff9773ea-66e9-454a-aa86-16a278d1e7d7","system_id":"levelo_inurba_marseille","lat":43.28721,"lon":5.36096,"is_reserved":false,"is_disabled":false,"rental_uris":{"android":"levelo://app?vid=ff9773ea-66e9-454a-aa86-16a278d1e7d7","ios":"levelo://app?vid=ff9773ea-66e9-454a-aa86-16a278d1e7d7"},"vehicle_type_id":"4","last_reported":1748448743,"current_range_meters":10000,"station_id":"cki0cbj6b192h4jlfktg","pricing_plan_id":"cebpf4jnsgd1na2vs0mg"},{"bike_id":"7db5c6d5-8467-4190-b994-32e292c040be","system_id":"levelo_inurba_marseille","lat":43.30465,"lon":5.37894,"is_reserved":false,"is_disabled":true,"rental_uris":{"android":"levelo://app?vid=7db5c6d5-8467-4190-b994-32e292c040be","ios":"levelo://app?vid=7db5c6d5-8467-4190-b994-32e292c040be"},"vehicle_type_id":"4","last_reported":1748448743,"current_range_meters":10000,"station_id":"ce4bgup2rcd13ifvqcn0","pricing_plan_id":"cebpf4jnsgd1na2vs0mg"},{"bike_id":"c8952249-4c7a-4af6-b76a-8e2ad340ad96","system_id":"levelo_inurba_marseille","lat":43.29101,"lon":5.38126,"is_reserved":false,"is_disabled":false,"rental_uris":{"android":"levelo://app?vid=c8952249-4c7a-4af6-b76a-8e2ad340ad96","ios":"levelo://app?vid=c8952249-4c7a-4af6-b76a-8e2ad340ad96"},"vehicle_type_id":"4","last_reported":1748448743,"current_range_meters":9600,"station_id":"ce4bh512rcd13ifvqe2g","pricing_plan_id":"cebpf4jnsgd1na2vs0mg"},{"bike_id":"3b6883fc-b1b8-4919-a71b-9e592f7bed7d","system_id":"levelo_inurba_marseille","lat":43.286102,"lon":5.350888,"is_reserved":false,"is_disabled":false,"rental_uris":{"android":"levelo://app?vid=3b6883fc-b1b8-4919-a71b-9e592f7bed7d","ios":"levelo://app?vid=3b6883fc-b1b8-4919-a71b-9e592f7bed7d"},"vehicle_type_id":"4","last_reported":1748448743,"current_range_meters":10000,"station_id":"ce4bhch2rcd13ifvqeug","pricing_plan_id":"cebpf4jnsgd1na2vs0mg"},{"bike_id":"9de5d4c2-816a-46f7-bcab-83d5f2fef2a5","system_id":"levelo_inurba_marseille","lat":43.27381,"lon":5.36269,"is_reserved":false,"is_disabled":false,"rental_uris":{"android":"levelo://app?vid=9de5d4c2-816a-46f7-bcab-83d5f2fef2a5","ios":"levelo://app?vid=9de5d4c2-816a-46f7-bcab-83d5f2fef2a5"},"vehicle_type_id":"4","last_reported":1748448743,"current_range_meters":10000,"station_id":"ce4bhbh2rcd13ifvqeo0","pricing_plan_id":"cebpf4jnsgd1na2vs0mg"},{"bike_id":"303a1d58-796b-45c5-b946-1eb2b3d2cd9f","system_id":"levelo_inurba_marseille","lat":43.279914,"lon":5.416638,"is_reserved":false,"is_disabled":false,"rental_uris":{"android":"levelo://app?vid=303a1d58-796b-45c5-b946-1eb2b3d2cd9f","ios":"levelo://app?vid=303a1d58-796b-45c5-b946-1eb2b3d2cd9f"},"vehicle_type_id":"4","last_reported":1748448743,"current_range_meters":9600,"station_id":"ce4bho12rcd13ifvqh1g","pricing_plan_id":"cebpf4jnsgd1na2vs0mg"},{"bike_id":"847031ec-c235-4f90-8158-8e4eae043a67","system_id":"levelo_inurba_marseille","lat":43.28936,"lon":5.36631,"is_reserved":false,"is_disabled":false,"rental_uris":{"android":"levelo://app?vid=847031ec-c235-4f90-8158-8e4eae043a67","ios":"levelo://app?vid=847031ec-c235-4f90-8158-8e4eae043a67"},"vehicle_type_id":"4","last_reported":1748448743,"current_range_meters":10800,"station_id":"ce4bhap2rcd13ifvqek0","pricing_plan_id":"cebpf4jnsgd1na2vs0mg"},{"bike_id":"e565a00a-5e03-4c71-b94c-4296de788316","system_id":"levelo_inurba_marseille","lat":43.29519,"lon":5.37514,"is_reserved":false,"is_disabled":true,"rental_uris":{"android":"levelo://app?vid=e565a00a-5e03-4c71-b94c-4296de788316","ios":"levelo://app?vid=e565a00a-5e03-4c71-b94c-4296de788316"},"vehicle_type_id":"4","last_reported":1748448743,"current_range_meters":10800,"station_id":"ce4bgkp2rcd13ifvqbmg","pricing_plan_id":"cebpf4jnsgd1na2vs0mg"},{"bike_id":"2869f79a-1c28-40b3-ab0b-cfc92a02940f","system_id":"levelo_inurba_marseille","lat":43.25084,"lon":5.39531,"is_reserved":false,"is_disabled":false,"rental_uris":{"android":"levelo://app?vid=2869f79a-1c28-40b3-ab0b-cfc92a02940f","ios":"levelo://app?vid=2869f79a-1c28-40b3-ab0b-cfc92a02940f"},"vehicle_type_id":"4","last_reported":1748448743,"current_range_meters":10000,"station_id":"ce4bhm12rcd13ifvqgkg","pricing_plan_id":"cebpf4jnsgd1na2vs0mg"},{"bike_id":"eff0802f-e4e7-4913-99f5-b23bbcdecc4a","system_id":"levelo_inurba_marseille","lat":43.28707,"lon":5.37391,"is_reserved":false,"is_disabled":false,"rental_uris":{"android":"levelo://app?vid=eff0802f-e4e7-4913-99f5-b23bbcdecc4a","ios":"levelo://app?vid=eff0802f-e4e7-4913-99f5-b23bbcdecc4a"},"vehicle_type_id":"4","last_reported":1748448743,"current_range_meters":10800,"station_id":"ce4bh3p2rcd13ifvqdq0","pricing_plan_id":"cebpf4jnsgd1na2vs0mg"},{"bike_id":"1e6e288c-e4d4-426d-9934-6c16dd4ed208","system_id":"levelo_inurba_marseille","lat":43.321185,"lon":5.367898,"is_reserved":false,"is_disabled":false,"rental_uris":{"android":"levelo://app?vid=1e6e288c-e4d4-426d-9934-6c16dd4ed208","ios":"levelo://app?vid=1e6e288c-e4d4-426d-9934-6c16dd4ed208"},"vehicle_type_id":"4","last_reported":1748448743,"current_range_meters":10800,"station_id":"ce4bhrh2rcd13ifvqhug","pricing_plan_id":"cebpf4jnsgd1na2vs0mg"},{"bike_id":"abb0a9c1-8e29-40f4-91c1-27168702ad5c","system_id":"levelo_inurba_marseille","lat":43.30125,"lon":5.38795,"is_reserved":false,"is_disabled":true,"rental_uris":{"android":"levelo://app?vid=abb0a9c1-8e29-40f4-91c1-27168702ad5c","ios":"levelo://app?vid=abb0a9c1-8e29-40f4-91c1-27168702ad5c"},"vehicle_type_id":"4","last_reported":1748448743,"current_range_meters":10800,"station_id":"ce4bghh2rcd13ifvqb60","pricing_plan_id":"cebpf4jnsgd1na2vs0mg"},{"bike_id":"0268255e-4b7a-4fc8-8caa-c71e9b711915","system_id":"levelo_inurba_marseille","lat":43.27374,"lon":5.3625,"is_reserved":false,"is_disabled":false,"rental_uris":{"android":"levelo://app?vid=0268255e-4b7a-4fc8-8caa-c71e9b711915","ios":"levelo://app?vid=0268255e-4b7a-4fc8-8caa-c71e9b711915"},"vehicle_type_id":"4","last_reported":1748448743,"current_range_meters":10800,"station_id":"ce4bhbh2rcd13ifvqeo0","pricing_plan_id":"cebpf4jnsgd1na2vs0mg"},{"bike_id":"5e703e03-e240-4b49-9f2f-4a5035fe04a6","system_id":"levelo_inurba_marseille","lat":43.273764,"lon":5.36254,"is_reserved":false,"is_disabled":false,"rental_uris":{"android":"levelo://app?vid=5e703e03-e240-4b49-9f2f-4a5035fe04a6","ios":"levelo://app?vid=5e703e03-e240-4b49-9f2f-4a5035fe04a6"},"vehicle_type_id":"4","last_reported":1748448743,"current_range_meters":10800,"station_id":"ce4bhbh2rcd13ifvqeo0","pricing_plan_id":"cebpf4jnsgd1na2vs0mg"},{"bike_id":"87b8bdc6-bbab-4832-aa80-66d23271b806","system_id":"levelo_inurba_marseille","lat":43.31524,"lon":5.38041,"is_reserved":false,"is_disabled":false,"rental_uris":{"android":"levelo://app?vid=87b8bdc6-bbab-4832-aa80-66d23271b806","ios":"levelo://app?vid=87b8bdc6-bbab-4832-aa80-66d23271b806"},"vehicle_type_id":"4","last_reported":1748448743,"current_range_meters":10800,"station_id":"ce4bhsp2rcd13ifvqi50","pricing_plan_id":"cebpf4jnsgd1na2vs0mg"},{"bike_id":"9c724d30-4ddc-42b8-abe2-bd3f324f9946","system_id":"levelo_inurba_marseille","lat":43.24171,"lon":5.36398,"is_reserved":false,"is_disabled":false,"rental_uris":{"android":"levelo://app?vid=9c724d30-4ddc-42b8-abe2-bd3f324f9946","ios":"levelo://app?vid=9c724d30-4ddc-42b8-abe2-bd3f324f9946"},"vehicle_type_id":"4","last_reported":1748448743,"current_range_meters":10800,"station_id":"cpo36qri1sfpv3e86is0","pricing_plan_id":"cebpf4jnsgd1na2vs0mg"},{"bike_id":"3407f298-95c4-422a-b9d2-c6b8ea600f12","system_id":"levelo_inurba_marseille","lat":43.28156,"lon":5.42644,"is_reserved":false,"is_disabled":false,"rental_uris":{"android":"levelo://app?vid=3407f298-95c4-422a-b9d2-c6b8ea600f12","ios":"levelo://app?vid=3407f298-95c4-422a-b9d2-c6b8ea600f12"},"vehicle_type_id":"4","last_reported":1748448743,"current_range_meters":10800,"station_id":"ce4bhnh2rcd13ifvqgug","pricing_plan_id":"cebpf4jnsgd1na2vs0mg"},{"bike_id":"ce3744af-a9e5-4c8f-b994-fcd52b800a26","system_id":"levelo_inurba_marseille","lat":43.295929,"lon":5.380937,"is_reserved":false,"is_disabled":false,"rental_uris":{"android":"levelo://app?vid=ce3744af-a9e5-4c8f-b994-fcd52b800a26","ios":"levelo://app?vid=ce3744af-a9e5-4c8f-b994-fcd52b800a26"},"vehicle_type_id":"4","last_reported":1748448743,"current_range_meters":10000,"station_id":"ce4bgl12rcd13ifvqbo0","pricing_plan_id":"cebpf4jnsgd1na2vs0mg"},{"bike_id":"7626e5e9-c8ff-4838-8acb-a441aa89d52c","system_id":"levelo_inurba_marseille","lat":43.33041,"lon":5.38903,"is_reserved":false,"is_disabled":false,"rental_uris":{"android":"levelo://app?vid=7626e5e9-c8ff-4838-8acb-a441aa89d52c","ios":"levelo://app?vid=7626e5e9-c8ff-4838-8acb-a441aa89d52c"},"vehicle_type_id":"4","last_reported":1748448743,"current_range_meters":11200,"station_id":"","pricing_plan_id":"cebpf4jnsgd1na2vs0mg"},{"bike_id":"fb719ac9-c245-4f81-a48d-289841762d2d","system_id":"levelo_inurba_marseille","lat":43.21751,"lon":5.34582,"is_reserved":false,"is_disabled":false,"rental_uris":{"android":"levelo://app?vid=fb719ac9-c245-4f81-a48d-289841762d2d","ios":"levelo://app?vid=fb719ac9-c245-4f81-a48d-289841762d2d"},"vehicle_type_id":"4","last_reported":1748448743,"current_range_meters":11200,"station_id":"st_cvj6r9ubvosntc0bgbag","pricing_plan_id":"cebpf4jnsgd1na2vs0mg"},{"bike_id":"c84f8025-f392-4efb-8662-faa8b7ebbd21","system_id":"levelo_inurba_marseille","lat":43.295066,"lon":5.374448,"is_reserved":false,"is_disabled":false,"rental_uris":{"android":"levelo://app?vid=c84f8025-f392-4efb-8662-faa8b7ebbd21","ios":"levelo://app?vid=c84f8025-f392-4efb-8662-faa8b7ebbd21"},"vehicle_type_id":"4","last_reported":1748448743,"current_range_meters":11200,"station_id":"ce4bgh92rcd13ifvqb50","pricing_plan_id":"cebpf4jnsgd1na2vs0mg"},{"bike_id":"8b7a31fd-7936-4ec1-af49-44b1f28ffd20","system_id":"levelo_inurba_marseille","lat":43.25717,"lon":5.41111,"is_reserved":false,"is_disabled":false,"rental_uris":{"android":"levelo://app?vid=8b7a31fd-7936-4ec1-af49-44b1f28ffd20","ios":"levelo://app?vid=8b7a31fd-7936-4ec1-af49-44b1f28ffd20"},"vehicle_type_id":"4","last_reported":1748448743,"current_range_meters":10800,"station_id":"ce4bhkp2rcd13ifvqgd0","pricing_plan_id":"cebpf4jnsgd1na2vs0mg"},{"bike_id":"bd0a34a6-6bbe-49d0-93d5-1ff5c6a0e5fb","system_id":"levelo_inurba_marseille","lat":43.23188,"lon":5.39966,"is_reserved":false,"is_disabled":false,"rental_uris":{"android":"levelo://app?vid=bd0a34a6-6bbe-49d0-93d5-1ff5c6a0e5fb","ios":"levelo://app?vid=bd0a34a6-6bbe-49d0-93d5-1ff5c6a0e5fb"},"vehicle_type_id":"4","last_reported":1748448743,"current_range_meters":11200,"station_id":"ce4bhn12rcd13ifvqgqg","pricing_plan_id":"cebpf4jnsgd1na2vs0mg"},{"bike_id":"39fff222-849d-4502-bd15-fdb15fa72a7d","system_id":"levelo_inurba_marseille","lat":43.28655,"lon":5.35069,"is_reserved":false,"is_disabled":false,"rental_uris":{"android":"levelo://app?vid=39fff222-849d-4502-bd15-fdb15fa72a7d","ios":"levelo://app?vid=39fff222-849d-4502-bd15-fdb15fa72a7d"},"vehicle_type_id":"4","last_reported":1748448743,"current_range_meters":11200,"station_id":"ce4bhch2rcd13ifvqeug","pricing_plan_id":"cebpf4jnsgd1na2vs0mg"},{"bike_id":"2f650bb1-6027-4191-83d2-16315820a0a7","system_id":"levelo_inurba_marseille","lat":43.300005,"lon":5.37343,"is_reserved":false,"is_disabled":false,"rental_uris":{"android":"levelo://app?vid=2f650bb1-6027-4191-83d2-16315820a0a7","ios":"levelo://app?vid=2f650bb1-6027-4191-83d2-16315820a0a7"},"vehicle_type_id":"4","last_reported":1748448743,"current_range_meters":11200,"station_id":"","pricing_plan_id":"cebpf4jnsgd1na2vs0mg"},{"bike_id":"7e195a62-25bd-4a1b-802d-60a93f1ec90e","system_id":"levelo_inurba_marseille","lat":43.24168,"lon":5.36399,"is_reserved":false,"is_disabled":false,"rental_uris":{"android":"levelo://app?vid=7e195a62-25bd-4a1b-802d-60a93f1ec90e","ios":"levelo://app?vid=7e195a62-25bd-4a1b-802d-60a93f1ec90e"},"vehicle_type_id":"4","last_reported":1748448743,"current_range_meters":11200,"station_id":"cpo36qri1sfpv3e86is0","pricing_plan_id":"cebpf4jnsgd1na2vs0mg"},{"bike_id":"08fbb7f0-10de-4946-a42f-890babd1b26f","system_id":"levelo_inurba_marseille","lat":43.27389,"lon":5.36262,"is_reserved":false,"is_disabled":false,"rental_uris":{"android":"levelo://app?vid=08fbb7f0-10de-4946-a42f-890babd1b26f","ios":"levelo://app?vid=08fbb7f0-10de-4946-a42f-890babd1b26f"},"vehicle_type_id":"4","last_reported":1748448743,"current_range_meters":11600,"station_id":"ce4bhbh2rcd13ifvqeo0","pricing_plan_id":"cebpf4jnsgd1na2vs0mg"},{"bike_id":"29027b27-2326-4ffa-97df-27a5e999eef7","system_id":"levelo_inurba_marseille","lat":43.29004,"lon":5.3562,"is_reserved":false,"is_disabled":false,"rental_uris":{"android":"levelo://app?vid=29027b27-2326-4ffa-97df-27a5e999eef7","ios":"levelo://app?vid=29027b27-2326-4ffa-97df-27a5e999eef7"},"vehicle_type_id":"4","last_reported":1748448743,"current_range_meters":11600,"station_id":"ce4bhb92rcd13ifvqen0","pricing_plan_id":"cebpf4jnsgd1na2vs0mg"},{"bike_id":"c4c0f97e-0c7d-4925-8db9-d7df5cc615d2","system_id":"levelo_inurba_marseille","lat":43.31722,"lon":5.42398,"is_reserved":false,"is_disabled":false,"rental_uris":{"android":"levelo://app?vid=c4c0f97e-0c7d-4925-8db9-d7df5cc615d2","ios":"levelo://app?vid=c4c0f97e-0c7d-4925-8db9-d7df5cc615d2"},"vehicle_type_id":"4","last_reported":1748448743,"current_range_meters":11200,"station_id":"ce4bhp92rcd13ifvqhbg","pricing_plan_id":"cebpf4jnsgd1na2vs0mg"},{"bike_id":"68dbd214-83f4-4607-9f20-24194b22508a","system_id":"levelo_inurba_marseille","lat":43.27998,"lon":5.41663,"is_reserved":false,"is_disabled":false,"rental_uris":{"android":"levelo://app?vid=68dbd214-83f4-4607-9f20-24194b22508a","ios":"levelo://app?vid=68dbd214-83f4-4607-9f20-24194b22508a"},"vehicle_type_id":"4","last_reported":1748448743,"current_range_meters":11600,"station_id":"ce4bho12rcd13ifvqh1g","pricing_plan_id":"cebpf4jnsgd1na2vs0mg"},{"bike_id":"91be5569-a808-47fa-ace4-7becf3a65910","system_id":"levelo_inurba_marseille","lat":43.3042,"lon":5.41294,"is_reserved":false,"is_disabled":false,"rental_uris":{"android":"levelo://app?vid=91be5569-a808-47fa-ace4-7becf3a65910","ios":"levelo://app?vid=91be5569-a808-47fa-ace4-7becf3a65910"},"vehicle_type_id":"4","last_reported":1748448743,"current_range_meters":11200,"station_id":"ce4bhop2rcd13ifvqh8g","pricing_plan_id":"cebpf4jnsgd1na2vs0mg"},{"bike_id":"02621bdd-080c-40a2-a335-f196c80705db","system_id":"levelo_inurba_marseille","lat":43.28735,"lon":5.36083,"is_reserved":false,"is_disabled":false,"rental_uris":{"android":"levelo://app?vid=02621bdd-080c-40a2-a335-f196c80705db","ios":"levelo://app?vid=02621bdd-080c-40a2-a335-f196c80705db"},"vehicle_type_id":"4","last_reported":1748448743,"current_range_meters":11600,"station_id":"cki0cbj6b192h4jlfktg","pricing_plan_id":"cebpf4jnsgd1na2vs0mg"},{"bike_id":"cdadb494-d111-4b83-b7c3-fb0823eab3f8","system_id":"levelo_inurba_marseille","lat":43.30792,"lon":5.38165,"is_reserved":false,"is_disabled":false,"rental_uris":{"android":"levelo://app?vid=cdadb494-d111-4b83-b7c3-fb0823eab3f8","ios":"levelo://app?vid=cdadb494-d111-4b83-b7c3-fb0823eab3f8"},"vehicle_type_id":"4","last_reported":1748448743,"current_range_meters":11600,"station_id":"ce4bgt12rcd13ifvqce0","pricing_plan_id":"cebpf4jnsgd1na2vs0mg"},{"bike_id":"6999eccf-f62f-4d09-8e6b-b71c58a8c2a0","system_id":"levelo_inurba_marseille","lat":43.29211,"lon":5.35793,"is_reserved":false,"is_disabled":false,"rental_uris":{"android":"levelo://app?vid=6999eccf-f62f-4d09-8e6b-b71c58a8c2a0","ios":"levelo://app?vid=6999eccf-f62f-4d09-8e6b-b71c58a8c2a0"},"vehicle_type_id":"4","last_reported":1748448743,"current_range_meters":11600,"station_id":"ce4bhb12rcd13ifvqel0","pricing_plan_id":"cebpf4jnsgd1na2vs0mg"},{"bike_id":"3c7a57f1-bebc-4ad0-a77f-473ae6625232","system_id":"levelo_inurba_marseille","lat":43.2894,"lon":5.36637,"is_reserved":false,"is_disabled":false,"rental_uris":{"android":"levelo://app?vid=3c7a57f1-bebc-4ad0-a77f-473ae6625232","ios":"levelo://app?vid=3c7a57f1-bebc-4ad0-a77f-473ae6625232"},"vehicle_type_id":"4","last_reported":1748448743,"current_range_meters":11600,"station_id":"ce4bhap2rcd13ifvqek0","pricing_plan_id":"cebpf4jnsgd1na2vs0mg"},{"bike_id":"6a872200-9528-4d81-9c60-e245d2d18c19","system_id":"levelo_inurba_marseille","lat":43.29195,"lon":5.35799,"is_reserved":false,"is_disabled":false,"rental_uris":{"android":"levelo://app?vid=6a872200-9528-4d81-9c60-e245d2d18c19","ios":"levelo://app?vid=6a872200-9528-4d81-9c60-e245d2d18c19"},"vehicle_type_id":"4","last_reported":1748448743,"current_range_meters":11600,"station_id":"ce4bhb12rcd13ifvqel0","pricing_plan_id":"cebpf4jnsgd1na2vs0mg"},{"bike_id":"02459306-a305-472d-be65-9070fcaf5682","system_id":"levelo_inurba_marseille","lat":43.2927,"lon":5.40113,"is_reserved":false,"is_disabled":true,"rental_uris":{"android":"levelo://app?vid=02459306-a305-472d-be65-9070fcaf5682","ios":"levelo://app?vid=02459306-a305-472d-be65-9070fcaf5682"},"vehicle_type_id":"4","last_reported":1748448743,"current_range_meters":12000,"station_id":"ce4bh312rcd13ifvqdk0","pricing_plan_id":"cebpf4jnsgd1na2vs0mg"},{"bike_id":"6e3d19e6-2faf-4cae-8d12-dd17fb9adce4","system_id":"levelo_inurba_marseille","lat":43.29629,"lon":5.40592,"is_reserved":false,"is_disabled":false,"rental_uris":{"android":"levelo://app?vid=6e3d19e6-2faf-4cae-8d12-dd17fb9adce4","ios":"levelo://app?vid=6e3d19e6-2faf-4cae-8d12-dd17fb9adce4"},"vehicle_type_id":"4","last_reported":1748448743,"current_range_meters":12000,"station_id":"ce4bh0h2rcd13ifvqd60","pricing_plan_id":"cebpf4jnsgd1na2vs0mg"},{"bike_id":"3b3f20fb-be76-498a-a9f5-ae1aa0fc1802","system_id":"levelo_inurba_marseille","lat":43.27993,"lon":5.41673,"is_reserved":false,"is_disabled":false,"rental_uris":{"android":"levelo://app?vid=3b3f20fb-be76-498a-a9f5-ae1aa0fc1802","ios":"levelo://app?vid=3b3f20fb-be76-498a-a9f5-ae1aa0fc1802"},"vehicle_type_id":"4","last_reported":1748448743,"current_range_meters":12000,"station_id":"ce4bho12rcd13ifvqh1g","pricing_plan_id":"cebpf4jnsgd1na2vs0mg"},{"bike_id":"9b0a719a-fbc0-4a5e-9037-c71f34fab866","system_id":"levelo_inurba_marseille","lat":43.28419,"lon":5.35001,"is_reserved":false,"is_disabled":false,"rental_uris":{"android":"levelo://app?vid=9b0a719a-fbc0-4a5e-9037-c71f34fab866","ios":"levelo://app?vid=9b0a719a-fbc0-4a5e-9037-c71f34fab866"},"vehicle_type_id":"4","last_reported":1748448743,"current_range_meters":12000,"station_id":"ce4bhbh2rcd13ifvqepg","pricing_plan_id":"cebpf4jnsgd1na2vs0mg"},{"bike_id":"ba9970c6-fbe4-43c7-b593-e6ac23d8106b","system_id":"levelo_inurba_marseille","lat":43.28266,"lon":5.350613,"is_reserved":false,"is_disabled":false,"rental_uris":{"android":"levelo://app?vid=ba9970c6-fbe4-43c7-b593-e6ac23d8106b","ios":"levelo://app?vid=ba9970c6-fbe4-43c7-b593-e6ac23d8106b"},"vehicle_type_id":"4","last_reported":1748448743,"current_range_meters":12000,"station_id":"","pricing_plan_id":"cebpf4jnsgd1na2vs0mg"},{"bike_id":"38a49feb-a58b-49c2-908c-1b1e571018bb","system_id":"levelo_inurba_marseille","lat":43.299241,"lon":5.374726,"is_reserved":false,"is_disabled":false,"rental_uris":{"android":"levelo://app?vid=38a49feb-a58b-49c2-908c-1b1e571018bb","ios":"levelo://app?vid=38a49feb-a58b-49c2-908c-1b1e571018bb"},"vehicle_type_id":"4","last_reported":1748448743,"current_range_meters":12400,"station_id":"ce4bgjh2rcd13ifvqbg0","pricing_plan_id":"cebpf4jnsgd1na2vs0mg"},{"bike_id":"86f11208-7f90-4009-a976-cc81e2c7825f","system_id":"levelo_inurba_marseille","lat":43.241903,"lon":5.364345,"is_reserved":false,"is_disabled":false,"rental_uris":{"android":"levelo://app?vid=86f11208-7f90-4009-a976-cc81e2c7825f","ios":"levelo://app?vid=86f11208-7f90-4009-a976-cc81e2c7825f"},"vehicle_type_id":"4","last_reported":1748448743,"current_range_meters":12400,"station_id":"cpo36qri1sfpv3e86is0","pricing_plan_id":"cebpf4jnsgd1na2vs0mg"},{"bike_id":"8f7a5ebf-f648-4d3e-987a-e21086cf123f","system_id":"levelo_inurba_marseille","lat":43.24681,"lon":5.38152,"is_reserved":false,"is_disabled":false,"rental_uris":{"android":"levelo://app?vid=8f7a5ebf-f648-4d3e-987a-e21086cf123f","ios":"levelo://app?vid=8f7a5ebf-f648-4d3e-987a-e21086cf123f"},"vehicle_type_id":"4","last_reported":1748448743,"current_range_meters":12400,"station_id":"ce4bhih2rcd13ifvqfr0","pricing_plan_id":"cebpf4jnsgd1na2vs0mg"},{"bike_id":"b93fe896-caf4-4f80-b8d1-e78a6f25bc0a","system_id":"levelo_inurba_marseille","lat":43.28941,"lon":5.36637,"is_reserved":false,"is_disabled":false,"rental_uris":{"android":"levelo://app?vid=b93fe896-caf4-4f80-b8d1-e78a6f25bc0a","ios":"levelo://app?vid=b93fe896-caf4-4f80-b8d1-e78a6f25bc0a"},"vehicle_type_id":"4","last_reported":1748448743,"current_range_meters":12400,"station_id":"ce4bhap2rcd13ifvqek0","pricing_plan_id":"cebpf4jnsgd1na2vs0mg"},{"bike_id":"0c102ebe-6553-47f6-9dce-5785e58b8a55","system_id":"levelo_inurba_marseille","lat":43.30536,"lon":5.36564,"is_reserved":false,"is_disabled":false,"rental_uris":{"android":"levelo://app?vid=0c102ebe-6553-47f6-9dce-5785e58b8a55","ios":"levelo://app?vid=0c102ebe-6553-47f6-9dce-5785e58b8a55"},"vehicle_type_id":"4","last_reported":1748448743,"current_range_meters":12400,"station_id":"ce4bgs12rcd13ifvqcag","pricing_plan_id":"cebpf4jnsgd1na2vs0mg"},{"bike_id":"8e0e06ef-c148-4bad-b361-10a2798317d9","system_id":"levelo_inurba_marseille","lat":43.23967,"lon":5.36634,"is_reserved":false,"is_disabled":false,"rental_uris":{"android":"levelo://app?vid=8e0e06ef-c148-4bad-b361-10a2798317d9","ios":"levelo://app?vid=8e0e06ef-c148-4bad-b361-10a2798317d9"},"vehicle_type_id":"4","last_reported":1748448743,"current_range_meters":12000,"station_id":"ce4bhi12rcd13ifvqfp0","pricing_plan_id":"cebpf4jnsgd1na2vs0mg"},{"bike_id":"6a694417-653b-4864-bf10-7591d68482f2","system_id":"levelo_inurba_marseille","lat":43.24805,"lon":5.3745,"is_reserved":false,"is_disabled":false,"rental_uris":{"android":"levelo://app?vid=6a694417-653b-4864-bf10-7591d68482f2","ios":"levelo://app?vid=6a694417-653b-4864-bf10-7591d68482f2"},"vehicle_type_id":"4","last_reported":1748448743,"current_range_meters":12400,"station_id":"ce4bhgh2rcd13ifvqfb0","pricing_plan_id":"cebpf4jnsgd1na2vs0mg"},{"bike_id":"1b5d978f-8c3d-4e50-85e8-e35dce55c917","system_id":"levelo_inurba_marseille","lat":43.29027,"lon":5.38647,"is_reserved":false,"is_disabled":false,"rental_uris":{"android":"levelo://app?vid=1b5d978f-8c3d-4e50-85e8-e35dce55c917","ios":"levelo://app?vid=1b5d978f-8c3d-4e50-85e8-e35dce55c917"},"vehicle_type_id":"4","last_reported":1748448743,"current_range_meters":12400,"station_id":"ce4bh4p2rcd13ifvqe0g","pricing_plan_id":"cebpf4jnsgd1na2vs0mg"},{"bike_id":"7e21b4c5-84e6-49b9-999a-4fa6883be7c5","system_id":"levelo_inurba_marseille","lat":43.284137,"lon":5.349911,"is_reserved":false,"is_disabled":false,"rental_uris":{"android":"levelo://app?vid=7e21b4c5-84e6-49b9-999a-4fa6883be7c5","ios":"levelo://app?vid=7e21b4c5-84e6-49b9-999a-4fa6883be7c5"},"vehicle_type_id":"4","last_reported":1748448743,"current_range_meters":12800,"station_id":"ce4bhbh2rcd13ifvqepg","pricing_plan_id":"cebpf4jnsgd1na2vs0mg"},{"bike_id":"47f440b7-01f1-4560-a196-e0b288c396d4","system_id":"levelo_inurba_marseille","lat":43.29005,"lon":5.35615,"is_reserved":false,"is_disabled":false,"rental_uris":{"android":"levelo://app?vid=47f440b7-01f1-4560-a196-e0b288c396d4","ios":"levelo://app?vid=47f440b7-01f1-4560-a196-e0b288c396d4"},"vehicle_type_id":"4","last_reported":1748448743,"current_range_meters":12400,"station_id":"ce4bhb92rcd13ifvqen0","pricing_plan_id":"cebpf4jnsgd1na2vs0mg"},{"bike_id":"130a1f88-96dd-4ec5-a74f-4d77671ad511","system_id":"levelo_inurba_marseille","lat":43.27997,"lon":5.40012,"is_reserved":false,"is_disabled":false,"rental_uris":{"android":"levelo://app?vid=130a1f88-96dd-4ec5-a74f-4d77671ad511","ios":"levelo://app?vid=130a1f88-96dd-4ec5-a74f-4d77671ad511"},"vehicle_type_id":"4","last_reported":1748448743,"current_range_meters":12800,"station_id":"ce4bho92rcd13ifvqh4g","pricing_plan_id":"cebpf4jnsgd1na2vs0mg"},{"bike_id":"1035b7e5-bb07-4f58-8b10-f5ab55265ff1","system_id":"levelo_inurba_marseille","lat":43.292659,"lon":5.376351,"is_reserved":false,"is_disabled":false,"rental_uris":{"android":"levelo://app?vid=1035b7e5-bb07-4f58-8b10-f5ab55265ff1","ios":"levelo://app?vid=1035b7e5-bb07-4f58-8b10-f5ab55265ff1"},"vehicle_type_id":"4","last_reported":1748448743,"current_range_meters":12800,"station_id":"ce4bgi12rcd13ifvqb80","pricing_plan_id":"cebpf4jnsgd1na2vs0mg"},{"bike_id":"d2184027-2a2b-4703-a29c-e5de7f490c7c","system_id":"levelo_inurba_marseille","lat":43.31766,"lon":5.39008,"is_reserved":false,"is_disabled":false,"rental_uris":{"android":"levelo://app?vid=d2184027-2a2b-4703-a29c-e5de7f490c7c","ios":"levelo://app?vid=d2184027-2a2b-4703-a29c-e5de7f490c7c"},"vehicle_type_id":"4","last_reported":1748448743,"current_range_meters":13600,"station_id":"ce4bhqp2rcd13ifvqhng","pricing_plan_id":"cebpf4jnsgd1na2vs0mg"},{"bike_id":"f9b68414-65c9-43fd-bc00-2a11b3d5cf6e","system_id":"levelo_inurba_marseille","lat":43.25826,"lon":5.39418,"is_reserved":false,"is_disabled":false,"rental_uris":{"android":"levelo://app?vid=f9b68414-65c9-43fd-bc00-2a11b3d5cf6e","ios":"levelo://app?vid=f9b68414-65c9-43fd-bc00-2a11b3d5cf6e"},"vehicle_type_id":"4","last_reported":1748448743,"current_range_meters":12400,"station_id":"ce4bhip2rcd13ifvqft0","pricing_plan_id":"cebpf4jnsgd1na2vs0mg"},{"bike_id":"22771043-09b1-43eb-91e0-5c845144e1e3","system_id":"levelo_inurba_marseille","lat":43.27706,"lon":5.40915,"is_reserved":false,"is_disabled":false,"rental_uris":{"android":"levelo://app?vid=22771043-09b1-43eb-91e0-5c845144e1e3","ios":"levelo://app?vid=22771043-09b1-43eb-91e0-5c845144e1e3"},"vehicle_type_id":"4","last_reported":1748448743,"current_range_meters":13600,"station_id":"","pricing_plan_id":"cebpf4jnsgd1na2vs0mg"},{"bike_id":"9ccacf44-cd96-41df-bae6-5881d4b8bd9f","system_id":"levelo_inurba_marseille","lat":43.23152,"lon":5.4371,"is_reserved":false,"is_disabled":false,"rental_uris":{"android":"levelo://app?vid=9ccacf44-cd96-41df-bae6-5881d4b8bd9f","ios":"levelo://app?vid=9ccacf44-cd96-41df-bae6-5881d4b8bd9f"},"vehicle_type_id":"4","last_reported":1748448743,"current_range_meters":13600,"station_id":"ce4bhmp2rcd13ifvqgog","pricing_plan_id":"cebpf4jnsgd1na2vs0mg"},{"bike_id":"c46d20f0-3e29-46d5-9d2f-181b498c6ab4","system_id":"levelo_inurba_marseille","lat":43.29017,"lon":5.35597,"is_reserved":false,"is_disabled":false,"rental_uris":{"android":"levelo://app?vid=c46d20f0-3e29-46d5-9d2f-181b498c6ab4","ios":"levelo://app?vid=c46d20f0-3e29-46d5-9d2f-181b498c6ab4"},"vehicle_type_id":"4","last_reported":1748448743,"current_range_meters":13600,"station_id":"ce4bhb92rcd13ifvqen0","pricing_plan_id":"cebpf4jnsgd1na2vs0mg"},{"bike_id":"33680782-cc30-46e6-885a-a345e7c497dd","system_id":"levelo_inurba_marseille","lat":43.28619,"lon":5.35109,"is_reserved":false,"is_disabled":false,"rental_uris":{"android":"levelo://app?vid=33680782-cc30-46e6-885a-a345e7c497dd","ios":"levelo://app?vid=33680782-cc30-46e6-885a-a345e7c497dd"},"vehicle_type_id":"4","last_reported":1748448743,"current_range_meters":13600,"station_id":"ce4bhch2rcd13ifvqeug","pricing_plan_id":"cebpf4jnsgd1na2vs0mg"},{"bike_id":"a7b28dad-b0e3-4373-84c9-ca1db05de1f6","system_id":"levelo_inurba_marseille","lat":43.30015,"lon":5.38188,"is_reserved":false,"is_disabled":false,"rental_uris":{"android":"levelo://app?vid=a7b28dad-b0e3-4373-84c9-ca1db05de1f6","ios":"levelo://app?vid=a7b28dad-b0e3-4373-84c9-ca1db05de1f6"},"vehicle_type_id":"4","last_reported":1748448743,"current_range_meters":13600,"station_id":"","pricing_plan_id":"cebpf4jnsgd1na2vs0mg"},{"bike_id":"c0cb7583-382b-469b-aaa4-841eae926e93","system_id":"levelo_inurba_marseille","lat":43.29522,"lon":5.39399,"is_reserved":false,"is_disabled":false,"rental_uris":{"android":"levelo://app?vid=c0cb7583-382b-469b-aaa4-841eae926e93","ios":"levelo://app?vid=c0cb7583-382b-469b-aaa4-841eae926e93"},"vehicle_type_id":"4","last_reported":1748448743,"current_range_meters":12800,"station_id":"ce4bh292rcd13ifvqdf0","pricing_plan_id":"cebpf4jnsgd1na2vs0mg"},{"bike_id":"d57a7f0a-c7ea-44a5-8bb6-f541ed0213ac","system_id":"levelo_inurba_marseille","lat":43.32362,"lon":5.3889,"is_reserved":false,"is_disabled":false,"rental_uris":{"android":"levelo://app?vid=d57a7f0a-c7ea-44a5-8bb6-f541ed0213ac","ios":"levelo://app?vid=d57a7f0a-c7ea-44a5-8bb6-f541ed0213ac"},"vehicle_type_id":"4","last_reported":1748448743,"current_range_meters":13600,"station_id":"ce4bhqp2rcd13ifvqhog","pricing_plan_id":"cebpf4jnsgd1na2vs0mg"},{"bike_id":"63616c72-9029-44e6-98de-a040d6b5ecfb","system_id":"levelo_inurba_marseille","lat":43.32131,"lon":5.36766,"is_reserved":false,"is_disabled":false,"rental_uris":{"android":"levelo://app?vid=63616c72-9029-44e6-98de-a040d6b5ecfb","ios":"levelo://app?vid=63616c72-9029-44e6-98de-a040d6b5ecfb"},"vehicle_type_id":"4","last_reported":1748448743,"current_range_meters":13600,"station_id":"ce4bhrh2rcd13ifvqhug","pricing_plan_id":"cebpf4jnsgd1na2vs0mg"},{"bike_id":"6688b471-4ac6-41c3-b917-f95f2e629ffd","system_id":"levelo_inurba_marseille","lat":43.28612,"lon":5.35102,"is_reserved":false,"is_disabled":false,"rental_uris":{"android":"levelo://app?vid=6688b471-4ac6-41c3-b917-f95f2e629ffd","ios":"levelo://app?vid=6688b471-4ac6-41c3-b917-f95f2e629ffd"},"vehicle_type_id":"4","last_reported":1748448743,"current_range_meters":14000,"station_id":"ce4bhch2rcd13ifvqeug","pricing_plan_id":"cebpf4jnsgd1na2vs0mg"},{"bike_id":"57273f77-1325-4799-85be-b061b79829a5","system_id":"levelo_inurba_marseille","lat":43.32362,"lon":5.367598,"is_reserved":false,"is_disabled":false,"rental_uris":{"android":"levelo://app?vid=57273f77-1325-4799-85be-b061b79829a5","ios":"levelo://app?vid=57273f77-1325-4799-85be-b061b79829a5"},"vehicle_type_id":"4","last_reported":1748448743,"current_range_meters":14000,"station_id":"ce4bhsh2rcd13ifvqi2g","pricing_plan_id":"cebpf4jnsgd1na2vs0mg"},{"bike_id":"a7a281d1-f248-498b-8404-73f9b9b8ae74","system_id":"levelo_inurba_marseille","lat":43.27617,"lon":5.36108,"is_reserved":false,"is_disabled":false,"rental_uris":{"android":"levelo://app?vid=a7a281d1-f248-498b-8404-73f9b9b8ae74","ios":"levelo://app?vid=a7a281d1-f248-498b-8404-73f9b9b8ae74"},"vehicle_type_id":"4","last_reported":1748448743,"current_range_meters":14000,"station_id":"ce4bgj92rcd13ifvqbe0","pricing_plan_id":"cebpf4jnsgd1na2vs0mg"},{"bike_id":"886e129a-7417-4eaf-b25e-829518311fc8","system_id":"levelo_inurba_marseille","lat":43.28624,"lon":5.35081,"is_reserved":false,"is_disabled":false,"rental_uris":{"android":"levelo://app?vid=886e129a-7417-4eaf-b25e-829518311fc8","ios":"levelo://app?vid=886e129a-7417-4eaf-b25e-829518311fc8"},"vehicle_type_id":"4","last_reported":1748448743,"current_range_meters":14400,"station_id":"ce4bhch2rcd13ifvqeug","pricing_plan_id":"cebpf4jnsgd1na2vs0mg"},{"bike_id":"60815888-7c98-4769-b7d4-8cf1272505d8","system_id":"levelo_inurba_marseille","lat":43.23192,"lon":5.40005,"is_reserved":false,"is_disabled":false,"rental_uris":{"android":"levelo://app?vid=60815888-7c98-4769-b7d4-8cf1272505d8","ios":"levelo://app?vid=60815888-7c98-4769-b7d4-8cf1272505d8"},"vehicle_type_id":"4","last_reported":1748448743,"current_range_meters":14400,"station_id":"ce4bhn12rcd13ifvqgqg","pricing_plan_id":"cebpf4jnsgd1na2vs0mg"},{"bike_id":"80176b81-08d2-4528-858b-923bbfa12ccf","system_id":"levelo_inurba_marseille","lat":43.29013,"lon":5.35609,"is_reserved":false,"is_disabled":false,"rental_uris":{"android":"levelo://app?vid=80176b81-08d2-4528-858b-923bbfa12ccf","ios":"levelo://app?vid=80176b81-08d2-4528-858b-923bbfa12ccf"},"vehicle_type_id":"4","last_reported":1748448743,"current_range_meters":14000,"station_id":"ce4bhb92rcd13ifvqen0","pricing_plan_id":"cebpf4jnsgd1na2vs0mg"},{"bike_id":"b5b3dccc-7137-4ce0-8683-80e5c8017790","system_id":"levelo_inurba_marseille","lat":43.28411,"lon":5.37507,"is_reserved":false,"is_disabled":false,"rental_uris":{"android":"levelo://app?vid=b5b3dccc-7137-4ce0-8683-80e5c8017790","ios":"levelo://app?vid=b5b3dccc-7137-4ce0-8683-80e5c8017790"},"vehicle_type_id":"4","last_reported":1748448743,"current_range_meters":14400,"station_id":"ce4bh412rcd13ifvqds0","pricing_plan_id":"cebpf4jnsgd1na2vs0mg"},{"bike_id":"a166347e-9f63-4a73-be46-34a26b8a5cca","system_id":"levelo_inurba_marseille","lat":43.24802,"lon":5.374537,"is_reserved":false,"is_disabled":false,"rental_uris":{"android":"levelo://app?vid=a166347e-9f63-4a73-be46-34a26b8a5cca","ios":"levelo://app?vid=a166347e-9f63-4a73-be46-34a26b8a5cca"},"vehicle_type_id":"4","last_reported":1748448743,"current_range_meters":14000,"station_id":"ce4bhgh2rcd13ifvqfb0","pricing_plan_id":"cebpf4jnsgd1na2vs0mg"},{"bike_id":"9aab1d3e-0249-4900-8c94-c7d6e71918bc","system_id":"levelo_inurba_marseille","lat":43.24168,"lon":5.36392,"is_reserved":false,"is_disabled":false,"rental_uris":{"android":"levelo://app?vid=9aab1d3e-0249-4900-8c94-c7d6e71918bc","ios":"levelo://app?vid=9aab1d3e-0249-4900-8c94-c7d6e71918bc"},"vehicle_type_id":"4","last_reported":1748448743,"current_range_meters":14400,"station_id":"cpo36qri1sfpv3e86is0","pricing_plan_id":"cebpf4jnsgd1na2vs0mg"},{"bike_id":"f568df72-f409-42f8-b11f-02ea1c7aacbf","system_id":"levelo_inurba_marseille","lat":43.29007,"lon":5.35614,"is_reserved":false,"is_disabled":false,"rental_uris":{"android":"levelo://app?vid=f568df72-f409-42f8-b11f-02ea1c7aacbf","ios":"levelo://app?vid=f568df72-f409-42f8-b11f-02ea1c7aacbf"},"vehicle_type_id":"4","last_reported":1748448743,"current_range_meters":14400,"station_id":"ce4bhb92rcd13ifvqen0","pricing_plan_id":"cebpf4jnsgd1na2vs0mg"},{"bike_id":"44028684-541b-416e-9566-6393b51d3fb8","system_id":"levelo_inurba_marseille","lat":43.29662,"lon":5.40502,"is_reserved":false,"is_disabled":false,"rental_uris":{"android":"levelo://app?vid=44028684-541b-416e-9566-6393b51d3fb8","ios":"levelo://app?vid=44028684-541b-416e-9566-6393b51d3fb8"},"vehicle_type_id":"4","last_reported":1748448743,"current_range_meters":14800,"station_id":"","pricing_plan_id":"cebpf4jnsgd1na2vs0mg"},{"bike_id":"6d977e5e-1926-46cc-8039-ae880fea5796","system_id":"levelo_inurba_marseille","lat":43.273799,"lon":5.362541,"is_reserved":false,"is_disabled":false,"rental_uris":{"android":"levelo://app?vid=6d977e5e-1926-46cc-8039-ae880fea5796","ios":"levelo://app?vid=6d977e5e-1926-46cc-8039-ae880fea5796"},"vehicle_type_id":"4","last_reported":1748448743,"current_range_meters":14800,"station_id":"","pricing_plan_id":"cebpf4jnsgd1na2vs0mg"},{"bike_id":"b461e6f5-b06c-4095-aa71-7c143aacaad3","system_id":"levelo_inurba_marseille","lat":43.28612,"lon":5.35102,"is_reserved":false,"is_disabled":false,"rental_uris":{"android":"levelo://app?vid=b461e6f5-b06c-4095-aa71-7c143aacaad3","ios":"levelo://app?vid=b461e6f5-b06c-4095-aa71-7c143aacaad3"},"vehicle_type_id":"4","last_reported":1748448743,"current_range_meters":14800,"station_id":"ce4bhch2rcd13ifvqeug","pricing_plan_id":"cebpf4jnsgd1na2vs0mg"},{"bike_id":"cb13ba87-cac2-4b8f-8764-9b659836c17f","system_id":"levelo_inurba_marseille","lat":43.310855,"lon":5.424302,"is_reserved":false,"is_disabled":false,"rental_uris":{"android":"levelo://app?vid=cb13ba87-cac2-4b8f-8764-9b659836c17f","ios":"levelo://app?vid=cb13ba87-cac2-4b8f-8764-9b659836c17f"},"vehicle_type_id":"4","last_reported":1748448743,"current_range_meters":14800,"station_id":"ce4bhp92rcd13ifvqhag","pricing_plan_id":"cebpf4jnsgd1na2vs0mg"},{"bike_id":"28ecab5a-e510-4959-a012-a4f26eb4d823","system_id":"levelo_inurba_marseille","lat":43.295351,"lon":5.385535,"is_reserved":false,"is_disabled":false,"rental_uris":{"android":"levelo://app?vid=28ecab5a-e510-4959-a012-a4f26eb4d823","ios":"levelo://app?vid=28ecab5a-e510-4959-a012-a4f26eb4d823"},"vehicle_type_id":"4","last_reported":1748448743,"current_range_meters":14800,"station_id":"ce4bgih2rcd13ifvqba0","pricing_plan_id":"cebpf4jnsgd1na2vs0mg"},{"bike_id":"37073f64-d0c0-445c-9d83-7777c42ff677","system_id":"levelo_inurba_marseille","lat":43.25502,"lon":5.37655,"is_reserved":false,"is_disabled":false,"rental_uris":{"android":"levelo://app?vid=37073f64-d0c0-445c-9d83-7777c42ff677","ios":"levelo://app?vid=37073f64-d0c0-445c-9d83-7777c42ff677"},"vehicle_type_id":"4","last_reported":1748448743,"current_range_meters":14800,"station_id":"ce4bhh12rcd13ifvqff0","pricing_plan_id":"cebpf4jnsgd1na2vs0mg"},{"bike_id":"e9c24c4c-026e-4a50-9e9e-e1cc2d6c8d93","system_id":"levelo_inurba_marseille","lat":43.295193,"lon":5.390447,"is_reserved":false,"is_disabled":false,"rental_uris":{"android":"levelo://app?vid=e9c24c4c-026e-4a50-9e9e-e1cc2d6c8d93","ios":"levelo://app?vid=e9c24c4c-026e-4a50-9e9e-e1cc2d6c8d93"},"vehicle_type_id":"4","last_reported":1748448743,"current_range_meters":14800,"station_id":"ce4bh3p2rcd13ifvqdp0","pricing_plan_id":"cebpf4jnsgd1na2vs0mg"},{"bike_id":"79679e93-e37a-4ea4-9ac2-812443742dde","system_id":"levelo_inurba_marseille","lat":43.23182,"lon":5.3999,"is_reserved":false,"is_disabled":false,"rental_uris":{"android":"levelo://app?vid=79679e93-e37a-4ea4-9ac2-812443742dde","ios":"levelo://app?vid=79679e93-e37a-4ea4-9ac2-812443742dde"},"vehicle_type_id":"4","last_reported":1748448743,"current_range_meters":14800,"station_id":"ce4bhn12rcd13ifvqgqg","pricing_plan_id":"cebpf4jnsgd1na2vs0mg"},{"bike_id":"2b8cf201-3f6a-4001-9ca8-0b486ebce4e1","system_id":"levelo_inurba_marseille","lat":43.28156,"lon":5.42647,"is_reserved":false,"is_disabled":false,"rental_uris":{"android":"levelo://app?vid=2b8cf201-3f6a-4001-9ca8-0b486ebce4e1","ios":"levelo://app?vid=2b8cf201-3f6a-4001-9ca8-0b486ebce4e1"},"vehicle_type_id":"4","last_reported":1748448743,"current_range_meters":14800,"station_id":"ce4bhnh2rcd13ifvqgug","pricing_plan_id":"cebpf4jnsgd1na2vs0mg"},{"bike_id":"87cc5316-55e7-45cf-826f-af66dbb28a74","system_id":"levelo_inurba_marseille","lat":43.28682,"lon":5.38538,"is_reserved":false,"is_disabled":false,"rental_uris":{"android":"levelo://app?vid=87cc5316-55e7-45cf-826f-af66dbb28a74","ios":"levelo://app?vid=87cc5316-55e7-45cf-826f-af66dbb28a74"},"vehicle_type_id":"4","last_reported":1748448743,"current_range_meters":14400,"station_id":"ce4bgl12rcd13ifvqbo0","pricing_plan_id":"cebpf4jnsgd1na2vs0mg"},{"bike_id":"478a7806-78ab-4726-ba11-7feadbc71aaf","system_id":"levelo_inurba_marseille","lat":43.25581,"lon":5.38229,"is_reserved":false,"is_disabled":false,"rental_uris":{"android":"levelo://app?vid=478a7806-78ab-4726-ba11-7feadbc71aaf","ios":"levelo://app?vid=478a7806-78ab-4726-ba11-7feadbc71aaf"},"vehicle_type_id":"4","last_reported":1748448743,"current_range_meters":14800,"station_id":"ce4bhih2rcd13ifvqfs0","pricing_plan_id":"cebpf4jnsgd1na2vs0mg"},{"bike_id":"d30488de-31a5-4b4d-b053-7445e5c6640e","system_id":"levelo_inurba_marseille","lat":43.29018,"lon":5.38138,"is_reserved":false,"is_disabled":false,"rental_uris":{"android":"levelo://app?vid=d30488de-31a5-4b4d-b053-7445e5c6640e","ios":"levelo://app?vid=d30488de-31a5-4b4d-b053-7445e5c6640e"},"vehicle_type_id":"4","last_reported":1748448743,"current_range_meters":15200,"station_id":"ce4bh4p2rcd13ifvqe1g","pricing_plan_id":"cebpf4jnsgd1na2vs0mg"},{"bike_id":"b048a3b0-4891-40e6-a57e-636449ac56ee","system_id":"levelo_inurba_marseille","lat":43.33091,"lon":5.39007,"is_reserved":false,"is_disabled":false,"rental_uris":{"android":"levelo://app?vid=b048a3b0-4891-40e6-a57e-636449ac56ee","ios":"levelo://app?vid=b048a3b0-4891-40e6-a57e-636449ac56ee"},"vehicle_type_id":"4","last_reported":1748448743,"current_range_meters":16000,"station_id":"","pricing_plan_id":"cebpf4jnsgd1na2vs0mg"},{"bike_id":"a7bed046-c145-4e23-8381-ee22b9934fb2","system_id":"levelo_inurba_marseille","lat":43.30784,"lon":5.37646,"is_reserved":false,"is_disabled":false,"rental_uris":{"android":"levelo://app?vid=a7bed046-c145-4e23-8381-ee22b9934fb2","ios":"levelo://app?vid=a7bed046-c145-4e23-8381-ee22b9934fb2"},"vehicle_type_id":"4","last_reported":1748448743,"current_range_meters":16000,"station_id":"ce4bgv92rcd13ifvqcq0","pricing_plan_id":"cebpf4jnsgd1na2vs0mg"},{"bike_id":"bb8d1311-beed-4f95-8993-1a56afead71e","system_id":"levelo_inurba_marseille","lat":43.28669,"lon":5.38654,"is_reserved":false,"is_disabled":false,"rental_uris":{"android":"levelo://app?vid=bb8d1311-beed-4f95-8993-1a56afead71e","ios":"levelo://app?vid=bb8d1311-beed-4f95-8993-1a56afead71e"},"vehicle_type_id":"4","last_reported":1748448743,"current_range_meters":16400,"station_id":"ce4bh492rcd13ifvqdug","pricing_plan_id":"cebpf4jnsgd1na2vs0mg"},{"bike_id":"8edee488-ab77-4631-83a3-35a8783744c9","system_id":"levelo_inurba_marseille","lat":43.26943,"lon":5.40252,"is_reserved":false,"is_disabled":false,"rental_uris":{"android":"levelo://app?vid=8edee488-ab77-4631-83a3-35a8783744c9","ios":"levelo://app?vid=8edee488-ab77-4631-83a3-35a8783744c9"},"vehicle_type_id":"4","last_reported":1748448743,"current_range_meters":16000,"station_id":"cjm6bp8fraef2m0cb0m0","pricing_plan_id":"cebpf4jnsgd1na2vs0mg"},{"bike_id":"d4a77fa4-9c95-4e7b-8843-10ad5f602b83","system_id":"levelo_inurba_marseille","lat":43.290024,"lon":5.356197,"is_reserved":false,"is_disabled":false,"rental_uris":{"android":"levelo://app?vid=d4a77fa4-9c95-4e7b-8843-10ad5f602b83","ios":"levelo://app?vid=d4a77fa4-9c95-4e7b-8843-10ad5f602b83"},"vehicle_type_id":"4","last_reported":1748448743,"current_range_meters":15200,"station_id":"ce4bhb92rcd13ifvqen0","pricing_plan_id":"cebpf4jnsgd1na2vs0mg"},{"bike_id":"53dd6781-0749-4a4a-8d2e-cec53a55a409","system_id":"levelo_inurba_marseille","lat":43.2886,"lon":5.35845,"is_reserved":false,"is_disabled":false,"rental_uris":{"android":"levelo://app?vid=53dd6781-0749-4a4a-8d2e-cec53a55a409","ios":"levelo://app?vid=53dd6781-0749-4a4a-8d2e-cec53a55a409"},"vehicle_type_id":"4","last_reported":1748448743,"current_range_meters":16000,"station_id":"ce4bhb12rcd13ifvqem0","pricing_plan_id":"cebpf4jnsgd1na2vs0mg"},{"bike_id":"a7cbe74e-a584-4815-ab5c-b518aaf706ba","system_id":"levelo_inurba_marseille","lat":43.26555,"lon":5.39058,"is_reserved":false,"is_disabled":false,"rental_uris":{"android":"levelo://app?vid=a7cbe74e-a584-4815-ab5c-b518aaf706ba","ios":"levelo://app?vid=a7cbe74e-a584-4815-ab5c-b518aaf706ba"},"vehicle_type_id":"4","last_reported":1748448743,"current_range_meters":16000,"station_id":"ce4bhe12rcd13ifvqf30","pricing_plan_id":"cebpf4jnsgd1na2vs0mg"},{"bike_id":"f6028a4d-4cb0-46c7-8a16-64a2c1523584","system_id":"levelo_inurba_marseille","lat":43.30886,"lon":5.37199,"is_reserved":false,"is_disabled":false,"rental_uris":{"android":"levelo://app?vid=f6028a4d-4cb0-46c7-8a16-64a2c1523584","ios":"levelo://app?vid=f6028a4d-4cb0-46c7-8a16-64a2c1523584"},"vehicle_type_id":"4","last_reported":1748448743,"current_range_meters":16000,"station_id":"ce4bguh2rcd13ifvqckg","pricing_plan_id":"cebpf4jnsgd1na2vs0mg"},{"bike_id":"8ba7f654-af23-45cd-a93b-3690967e650c","system_id":"levelo_inurba_marseille","lat":43.29058,"lon":5.37153,"is_reserved":false,"is_disabled":false,"rental_uris":{"android":"levelo://app?vid=8ba7f654-af23-45cd-a93b-3690967e650c","ios":"levelo://app?vid=8ba7f654-af23-45cd-a93b-3690967e650c"},"vehicle_type_id":"4","last_reported":1748448743,"current_range_meters":16000,"station_id":"ce4bh5p2rcd13ifvqe4g","pricing_plan_id":"cebpf4jnsgd1na2vs0mg"},{"bike_id":"49207224-19cc-40ba-ad40-915f4813317e","system_id":"levelo_inurba_marseille","lat":43.28634,"lon":5.3509,"is_reserved":false,"is_disabled":false,"rental_uris":{"android":"levelo://app?vid=49207224-19cc-40ba-ad40-915f4813317e","ios":"levelo://app?vid=49207224-19cc-40ba-ad40-915f4813317e"},"vehicle_type_id":"4","last_reported":1748448743,"current_range_meters":16400,"station_id":"ce4bhch2rcd13ifvqeug","pricing_plan_id":"cebpf4jnsgd1na2vs0mg"},{"bike_id":"9a8b6307-1262-412f-851b-3f5714ea2a60","system_id":"levelo_inurba_marseille","lat":43.30923,"lon":5.40151,"is_reserved":false,"is_disabled":true,"rental_uris":{"android":"levelo://app?vid=9a8b6307-1262-412f-851b-3f5714ea2a60","ios":"levelo://app?vid=9a8b6307-1262-412f-851b-3f5714ea2a60"},"vehicle_type_id":"4","last_reported":1748448743,"current_range_meters":16400,"station_id":"ce4bgvp2rcd13ifvqct0","pricing_plan_id":"cebpf4jnsgd1na2vs0mg"},{"bike_id":"74596cad-01b8-4827-9b35-ca1f4056673c","system_id":"levelo_inurba_marseille","lat":43.3239,"lon":5.38386,"is_reserved":false,"is_disabled":false,"rental_uris":{"android":"levelo://app?vid=74596cad-01b8-4827-9b35-ca1f4056673c","ios":"levelo://app?vid=74596cad-01b8-4827-9b35-ca1f4056673c"},"vehicle_type_id":"4","last_reported":1748448743,"current_range_meters":16400,"station_id":"","pricing_plan_id":"cebpf4jnsgd1na2vs0mg"},{"bike_id":"e04cc4fb-2258-436a-9c85-62328e8ca222","system_id":"levelo_inurba_marseille","lat":43.28406,"lon":5.34995,"is_reserved":false,"is_disabled":false,"rental_uris":{"android":"levelo://app?vid=e04cc4fb-2258-436a-9c85-62328e8ca222","ios":"levelo://app?vid=e04cc4fb-2258-436a-9c85-62328e8ca222"},"vehicle_type_id":"4","last_reported":1748448743,"current_range_meters":16400,"station_id":"ce4bhbh2rcd13ifvqepg","pricing_plan_id":"cebpf4jnsgd1na2vs0mg"},{"bike_id":"2a8b5bcf-309f-4cd8-8cb2-8660a9c2f6c9","system_id":"levelo_inurba_marseille","lat":43.31757,"lon":5.39014,"is_reserved":false,"is_disabled":false,"rental_uris":{"android":"levelo://app?vid=2a8b5bcf-309f-4cd8-8cb2-8660a9c2f6c9","ios":"levelo://app?vid=2a8b5bcf-309f-4cd8-8cb2-8660a9c2f6c9"},"vehicle_type_id":"4","last_reported":1748448743,"current_range_meters":16400,"station_id":"ce4bhqp2rcd13ifvqhng","pricing_plan_id":"cebpf4jnsgd1na2vs0mg"},{"bike_id":"c2cd74f2-9fb0-4003-a172-ee049bf4ed25","system_id":"levelo_inurba_marseille","lat":43.27182,"lon":5.40993,"is_reserved":false,"is_disabled":false,"rental_uris":{"android":"levelo://app?vid=c2cd74f2-9fb0-4003-a172-ee049bf4ed25","ios":"levelo://app?vid=c2cd74f2-9fb0-4003-a172-ee049bf4ed25"},"vehicle_type_id":"4","last_reported":1748448743,"current_range_meters":16800,"station_id":"ce4bhl12rcd13ifvqgf0","pricing_plan_id":"cebpf4jnsgd1na2vs0mg"},{"bike_id":"b8b0b45c-2d5c-4277-8943-598db24e97eb","system_id":"levelo_inurba_marseille","lat":43.29039,"lon":5.35912,"is_reserved":false,"is_disabled":false,"rental_uris":{"android":"levelo://app?vid=b8b0b45c-2d5c-4277-8943-598db24e97eb","ios":"levelo://app?vid=b8b0b45c-2d5c-4277-8943-598db24e97eb"},"vehicle_type_id":"4","last_reported":1748448743,"current_range_meters":16800,"station_id":"ce4bha92rcd13ifvqeg0","pricing_plan_id":"cebpf4jnsgd1na2vs0mg"},{"bike_id":"6fdb68de-8ff8-4e33-89d3-503ee8472080","system_id":"levelo_inurba_marseille","lat":43.217584,"lon":5.346009,"is_reserved":false,"is_disabled":false,"rental_uris":{"android":"levelo://app?vid=6fdb68de-8ff8-4e33-89d3-503ee8472080","ios":"levelo://app?vid=6fdb68de-8ff8-4e33-89d3-503ee8472080"},"vehicle_type_id":"4","last_reported":1748448743,"current_range_meters":16800,"station_id":"","pricing_plan_id":"cebpf4jnsgd1na2vs0mg"},{"bike_id":"e0665c66-6ca9-4566-a282-b0a71994db04","system_id":"levelo_inurba_marseille","lat":43.26565,"lon":5.39003,"is_reserved":false,"is_disabled":false,"rental_uris":{"android":"levelo://app?vid=e0665c66-6ca9-4566-a282-b0a71994db04","ios":"levelo://app?vid=e0665c66-6ca9-4566-a282-b0a71994db04"},"vehicle_type_id":"4","last_reported":1748448743,"current_range_meters":17200,"station_id":"ce4bhe12rcd13ifvqf30","pricing_plan_id":"cebpf4jnsgd1na2vs0mg"},{"bike_id":"5a0e5dbb-cb6c-47ff-b9d3-3a0dd595a1bf","system_id":"levelo_inurba_marseille","lat":43.2815,"lon":5.4265,"is_reserved":false,"is_disabled":false,"rental_uris":{"android":"levelo://app?vid=5a0e5dbb-cb6c-47ff-b9d3-3a0dd595a1bf","ios":"levelo://app?vid=5a0e5dbb-cb6c-47ff-b9d3-3a0dd595a1bf"},