{"last_updated":1702386595,"ttl":30,"version":"2.2","data":{"bikes":[{"bike_id":"b31ae012-a139-4090-8033-defb86ffbd8e","system_id":"levelo_inurba_marseille","lat":43.31341,"lon":5.367098,"is_reserved":false,"is_disabled":false,"rental_uris":{"android":"levelo://app?vid=b31ae012-a139-4090-8033-defb86ffbd8e","ios":"levelo://app?vid=b31ae012-a139-4090-8033-defb86ffbd8e"},"vehicle_type_id":"4","last_reported":1702386595,"current_range_meters":20400,"station_id":"ce4bgr92rcd13ifvqc6g","pricing_plan_id":"free"},{"bike_id":"4f10260e-c33b-454a-a34b-993e7f7ab8cb","system_id":"levelo_inurba_marseille","lat":43.31341,"lon":5.367098,"is_reserved":false,"is_disabled":false,"rental_uris":{"android":"levelo://app?vid=4f10260e-c33b-454a-a34b-993e7f7ab8cb","ios":"levelo://app?vid=4f10260e-c33b-454a-a34b-993e7f7ab8cb"},"vehicle_type_id":"4","last_reported":1702386595,"current_range_meters":27200,"station_id":"ce4bgr92rcd13ifvqc6g","pricing_plan_id":"free"},{"bike_id":"a1162ce0-6348-4c1f-b2b6-32cac412ff79","system_id":"levelo_inurba_marseille","lat":43.31341,"lon":5.367098,"is_reserved":false,"is_disabled":false,"rental_uris":{"android":"levelo://app?vid=a1162ce0-6348-4c1f-b2b6-32cac412ff79","ios":"levelo://app?vid=a1162ce0-6348-4c1f-b2b6-32cac412ff79"},"vehicle_type_id":"4","last_reported":1702386595,"current_range_meters":14000,"station_id":"ce4bgr92rcd13ifvqc6g","pricing_plan_id":"free"},{"bike_id":"7d308b4c-22a8-4c72-9d35-827481eef95e","system_id":"levelo_inurba_marseille","lat":43.31341,"lon":5.367098,"is_reserved":false,"is_disabled":false,"rental_uris":{"android":"levelo://app?vid=7d308b4c-22a8-4c72-9d35-827481eef95e","ios":"levelo://app?vid=7d308b4c-22a8-4c72-9d35-827481eef95e"},"vehicle_type_id":"4","last_reported":1702386595,"current_range_meters":14800,"station_id":"ce4bgr92rcd13ifvqc6g","pricing_plan_id":"free"},{"bike_id":"7bce3b70-18b6-47e7-a8b6-a3701968b1e0","system_id":"levelo_inurba_marseille","lat":43.312239,"lon":5.368562,"is_reserved":false,"is_disabled":false,"rental_uris":{"android":"levelo://app?vid=7bce3b70-18b6-47e7-a8b6-a3701968b1e0","ios":"levelo://app?vid=7bce3b70-18b6-47e7-a8b6-a3701968b1e0"},"vehicle_type_id":"4","last_reported":1702386595,"current_range_meters":20800,"station_id":"ce4bgl92rcd13ifvqbq0","pricing_plan_id":"free"},{"bike_id":"ace33a71-f267-4c63-8b38-64cf1bbbe2f8","system_id":"levelo_inurba_marseille","lat":43.309076,"lon":5.368465,"is_reserved":false,"is_disabled":false,"rental_uris":{"android":"levelo://app?vid=ace33a71-f267-4c63-8b38-64cf1bbbe2f8","ios":"levelo://app?vid=ace33a71-f267-4c63-8b38-64cf1bbbe2f8"},"vehicle_type_id":"4","last_reported":1702386595,"current_range_meters":8400,"station_id":"ce4bgn92rcd13ifvqbvg","pricing_plan_id":"free"},{"bike_id":"8f1ed05c-6304-49a4-8481-5d534e977c60","system_id":"levelo_inurba_marseille","lat":43.309039,"lon":5.371797,"is_reserved":false,"is_disabled":false,"rental_uris":{"android":"levelo://app?vid=8f1ed05c-6304-49a4-8481-5d534e977c60","ios":"levelo://app?vid=8f1ed05c-6304-49a4-8481-5d534e977c60"},"vehicle_type_id":"4","last_reported":1702386595,"current_range_meters":25200,"station_id":"ce4bguh2rcd13ifvqckg","pricing_plan_id":"free"},{"bike_id":"21bbec5a-ba8c-40b8-b3c9-e721a4fafdae","system_id":"levelo_inurba_marseille","lat":43.30552,"lon":5.36698,"is_reserved":false,"is_disabled":false,"rental_uris":{"android":"levelo://app?vid=21bbec5a-ba8c-40b8-b3c9-e721a4fafdae","ios":"levelo://app?vid=21bbec5a-ba8c-40b8-b3c9-e721a4fafdae"},"vehicle_type_id":"4","last_reported":1702386595,"current_range_meters":0,"station_id":"ce4bgrp2rcd13ifvqc9g","pricing_plan_id":"free"},{"bike_id":"77083033-7940-4fab-b65f-ad0e84abde7f","system_id":"levelo_inurba_marseille","lat":43.305714,"lon":5.365633,"is_reserved":false,"is_disabled":false,"rental_uris":{"android":"levelo://app?vid=77083033-7940-4fab-b65f-ad0e84abde7f","ios":"levelo://app?vid=77083033-7940-4fab-b65f-ad0e84abde7f"},"vehicle_type_id":"4","last_reported":1702386595,"current_range_meters":12000,"station_id":"ce4bgs12rcd13ifvqcag","pricing_plan_id":"free"},{"bike_id":"9c43b7ac-e8dc-473e-a453-9caa634c3677","system_id":"levelo_inurba_marseille","lat":43.305714,"lon":5.365633,"is_reserved":false,"is_disabled":false,"rental_uris":{"android":"levelo://app?vid=9c43b7ac-e8dc-473e-a453-9caa634c3677","ios":"levelo://app?vid=9c43b7ac-e8dc-473e-a453-9caa634c3677"},"vehicle_type_id":"4","last_reported":1702386595,"current_range_meters":12400,"station_id":"ce4bgs12rcd13ifvqcag","pricing_plan_id":"free"},{"bike_id":"0b38b2e8-6474-44c6-bb01-1942c3368760","system_id":"levelo_inurba_marseille","lat":43.305989,"lon":5.37225,"is_reserved":false,"is_disabled":false,"rental_uris":{"android":"levelo://app?vid=0b38b2e8-6474-44c6-bb01-1942c3368760","ios":"levelo://app?vid=0b38b2e8-6474-44c6-bb01-1942c3368760"},"vehicle_type_id":"4","last_reported":1702386595,"current_range_meters":6400,"station_id":"ce4bgqh2rcd13ifvqc4g","pricing_plan_id":"free"},{"bike_id":"52172dcd-f88c-46d2-b732-64f79b9d8d5a","system_id":"levelo_inurba_marseille","lat":43.305989,"lon":5.37225,"is_reserved":false,"is_disabled":false,"rental_uris":{"android":"levelo://app?vid=52172dcd-f88c-46d2-b732-64f79b9d8d5a","ios":"levelo://app?vid=52172dcd-f88c-46d2-b732-64f79b9d8d5a"},"vehicle_type_id":"4","last_reported":1702386595,"current_range_meters":20000,"station_id":"ce4bgqh2rcd13ifvqc4g","pricing_plan_id":"free"},{"bike_id":"7bc8626b-e07d-455d-8de1-122d3228bac5","system_id":"levelo_inurba_marseille","lat":43.305989,"lon":5.37225,"is_reserved":false,"is_disabled":false,"rental_uris":{"android":"levelo://app?vid=7bc8626b-e07d-455d-8de1-122d3228bac5","ios":"levelo://app?vid=7bc8626b-e07d-455d-8de1-122d3228bac5"},"vehicle_type_id":"4","last_reported":1702386595,"current_range_meters":17200,"station_id":"ce4bgqh2rcd13ifvqc4g","pricing_plan_id":"free"},{"bike_id":"92ad067f-f029-46f9-bf56-de782c48eb36","system_id":"levelo_inurba_marseille","lat":43.311145,"lon":5.377668,"is_reserved":false,"is_disabled":false,"rental_uris":{"android":"levelo://app?vid=92ad067f-f029-46f9-bf56-de782c48eb36","ios":"levelo://app?vid=92ad067f-f029-46f9-bf56-de782c48eb36"},"vehicle_type_id":"4","last_reported":1702386595,"current_range_meters":12400,"station_id":"ce4bgt92rcd13ifvqcg0","pricing_plan_id":"free"},{"bike_id":"aaecaef6-1da4-4493-b15a-15460e397dbd","system_id":"levelo_inurba_marseille","lat":43.311125,"lon":5.377624,"is_reserved":false,"is_disabled":false,"rental_uris":{"android":"levelo://app?vid=aaecaef6-1da4-4493-b15a-15460e397dbd","ios":"levelo://app?vid=aaecaef6-1da4-4493-b15a-15460e397dbd"},"vehicle_type_id":"4","last_reported":1702386595,"current_range_meters":1200,"station_id":"ce4bgt92rcd13ifvqcg0","pricing_plan_id":"free"},{"bike_id":"85ae22b5-23fa-4e11-8d63-9dde2acd9663","system_id":"levelo_inurba_marseille","lat":43.311125,"lon":5.377624,"is_reserved":false,"is_disabled":false,"rental_uris":{"android":"levelo://app?vid=85ae22b5-23fa-4e11-8d63-9dde2acd9663","ios":"levelo://app?vid=85ae22b5-23fa-4e11-8d63-9dde2acd9663"},"vehicle_type_id":"4","last_reported":1702386595,"current_range_meters":28400,"station_id":"ce4bgt92rcd13ifvqcg0","pricing_plan_id":"free"},{"bike_id":"dc68debd-6203-4696-b9a5-55eea857c5a0","system_id":"levelo_inurba_marseille","lat":43.317075,"lon":5.377367,"is_reserved":false,"is_disabled":false,"rental_uris":{"android":"levelo://app?vid=dc68debd-6203-4696-b9a5-55eea857c5a0","ios":"levelo://app?vid=dc68debd-6203-4696-b9a5-55eea857c5a0"},"vehicle_type_id":"4","last_reported":1702386595,"current_range_meters":10000,"station_id":"ce4bgth2rcd13ifvqch0","pricing_plan_id":"free"},{"bike_id":"71b511ab-1dad-4b8a-a6c0-12e474572928","system_id":"levelo_inurba_marseille","lat":43.303046,"lon":5.368981,"is_reserved":false,"is_disabled":false,"rental_uris":{"android":"levelo://app?vid=71b511ab-1dad-4b8a-a6c0-12e474572928","ios":"levelo://app?vid=71b511ab-1dad-4b8a-a6c0-12e474572928"},"vehicle_type_id":"4","last_reported":1702386595,"current_range_meters":4800,"station_id":"ce4bgqh2rcd13ifvqc5g","pricing_plan_id":"free"},{"bike_id":"cad1171d-c29a-47ca-b207-76b44b62f775","system_id":"levelo_inurba_marseille","lat":43.301939,"lon":5.366286,"is_reserved":false,"is_disabled":false,"rental_uris":{"android":"levelo://app?vid=cad1171d-c29a-47ca-b207-76b44b62f775","ios":"levelo://app?vid=cad1171d-c29a-47ca-b207-76b44b62f775"},"vehicle_type_id":"4","last_reported":1702386595,"current_range_meters":11200,"station_id":"ce4bgrh2rcd13ifvqc8g","pricing_plan_id":"free"},{"bike_id":"bde0e696-3b49-4902-9f86-370e683d2b0f","system_id":"levelo_inurba_marseille","lat":43.301939,"lon":5.366286,"is_reserved":false,"is_disabled":false,"rental_uris":{"android":"levelo://app?vid=bde0e696-3b49-4902-9f86-370e683d2b0f","ios":"levelo://app?vid=bde0e696-3b49-4902-9f86-370e683d2b0f"},"vehicle_type_id":"4","last_reported":1702386595,"current_range_meters":14000,"station_id":"ce4bgrh2rcd13ifvqc8g","pricing_plan_id":"free"},{"bike_id":"8c322cc6-9ce4-4010-9c25-45414b149fb7","system_id":"levelo_inurba_marseille","lat":43.30279,"lon":5.37701,"is_reserved":false,"is_disabled":false,"rental_uris":{"android":"levelo://app?vid=8c322cc6-9ce4-4010-9c25-45414b149fb7","ios":"levelo://app?vid=8c322cc6-9ce4-4010-9c25-45414b149fb7"},"vehicle_type_id":"4","last_reported":1702386595,"current_range_meters":0,"station_id":"ce4bguh2rcd13ifvqcj0","pricing_plan_id":"free"},{"bike_id":"faa0d6cf-1462-4ecf-a7f4-54cdafedfe27","system_id":"levelo_inurba_marseille","lat":43.301429,"lon":5.37413,"is_reserved":false,"is_disabled":false,"rental_uris":{"android":"levelo://app?vid=faa0d6cf-1462-4ecf-a7f4-54cdafedfe27","ios":"levelo://app?vid=faa0d6cf-1462-4ecf-a7f4-54cdafedfe27"},"vehicle_type_id":"4","last_reported":1702386595,"current_range_meters":17200,"station_id":"ce4bgs92rcd13ifvqcc0","pricing_plan_id":"free"},{"bike_id":"7a737edd-35fc-4cea-9fca-51095daee26c","system_id":"levelo_inurba_marseille","lat":43.313571,"lon":5.384829,"is_reserved":false,"is_disabled":false,"rental_uris":{"android":"levelo://app?vid=7a737edd-35fc-4cea-9fca-51095daee26c","ios":"levelo://app?vid=7a737edd-35fc-4cea-9fca-51095daee26c"},"vehicle_type_id":"4","last_reported":1702386595,"current_range_meters":25600,"station_id":"ce4bgt92rcd13ifvqcf0","pricing_plan_id":"free"},{"bike_id":"ffea9f58-1790-4134-910b-ce7e65a647c7","system_id":"levelo_inurba_marseille","lat":43.313571,"lon":5.384829,"is_reserved":false,"is_disabled":false,"rental_uris":{"android":"levelo://app?vid=ffea9f58-1790-4134-910b-ce7e65a647c7","ios":"levelo://app?vid=ffea9f58-1790-4134-910b-ce7e65a647c7"},"vehicle_type_id":"4","last_reported":1702386595,"current_range_meters":12000,"station_id":"ce4bgt92rcd13ifvqcf0","pricing_plan_id":"free"},{"bike_id":"fdb1a9a7-b9e2-4f82-b72d-71d0e4b3b54a","system_id":"levelo_inurba_marseille","lat":43.313571,"lon":5.384829,"is_reserved":false,"is_disabled":false,"rental_uris":{"android":"levelo://app?vid=fdb1a9a7-b9e2-4f82-b72d-71d0e4b3b54a","ios":"levelo://app?vid=fdb1a9a7-b9e2-4f82-b72d-71d0e4b3b54a"},"vehicle_type_id":"4","last_reported":1702386595,"current_range_meters":30400,"station_id":"ce4bgt92rcd13ifvqcf0","pricing_plan_id":"free"},{"bike_id":"e6f9fdee-00f5-403d-9f30-5ef284a86183","system_id":"levelo_inurba_marseille","lat":43.2993,"lon":5.36543,"is_reserved":false,"is_disabled":false,"rental_uris":{"android":"levelo://app?vid=e6f9fdee-00f5-403d-9f30-5ef284a86183","ios":"levelo://app?vid=e6f9fdee-00f5-403d-9f30-5ef284a86183"},"vehicle_type_id":"4","last_reported":1702386595,"current_range_meters":22800,"station_id":"ce4bgm92rcd13ifvqbr0","pricing_plan_id":"free"},{"bike_id":"52fbe208-5be5-4594-a20a-d6381f3e2161","system_id":"levelo_inurba_marseille","lat":43.299724,"lon":5.371829,"is_reserved":false,"is_disabled":false,"rental_uris":{"android":"levelo://app?vid=52fbe208-5be5-4594-a20a-d6381f3e2161","ios":"levelo://app?vid=52fbe208-5be5-4594-a20a-d6381f3e2161"},"vehicle_type_id":"4","last_reported":1702386595,"current_range_meters":24000,"station_id":"ce4bgr92rcd13ifvqc7g","pricing_plan_id":"free"},{"bike_id":"33f01e04-7b71-4215-b1c2-d7906a229fd1","system_id":"levelo_inurba_marseille","lat":43.298433,"lon":5.362774,"is_reserved":false,"is_disabled":false,"rental_uris":{"android":"levelo://app?vid=33f01e04-7b71-4215-b1c2-d7906a229fd1","ios":"levelo://app?vid=33f01e04-7b71-4215-b1c2-d7906a229fd1"},"vehicle_type_id":"4","last_reported":1702386595,"current_range_meters":24800,"station_id":"ce4bgpp2rcd13ifvqc3g","pricing_plan_id":"free"},{"bike_id":"7a2cecbb-ae9a-47d1-adc2-38715c1fe581","system_id":"levelo_inurba_marseille","lat":43.298433,"lon":5.362774,"is_reserved":false,"is_disabled":false,"rental_uris":{"android":"levelo://app?vid=7a2cecbb-ae9a-47d1-adc2-38715c1fe581","ios":"levelo://app?vid=7a2cecbb-ae9a-47d1-adc2-38715c1fe581"},"vehicle_type_id":"4","last_reported":1702386595,"current_range_meters":20400,"station_id":"ce4bgpp2rcd13ifvqc3g","pricing_plan_id":"free"},{"bike_id":"77a6c46d-d898-4e4f-8846-efa91689c7f0","system_id":"levelo_inurba_marseille","lat":43.302006,"lon":5.38065,"is_reserved":false,"is_disabled":false,"rental_uris":{"android":"levelo://app?vid=77a6c46d-d898-4e4f-8846-efa91689c7f0","ios":"levelo://app?vid=77a6c46d-d898-4e4f-8846-efa91689c7f0"},"vehicle_type_id":"4","last_reported":1702386595,"current_range_meters":0,"station_id":"","pricing_plan_id":"free"},{"bike_id":"b43a94c1-75d4-486a-a761-ad357ef07a1f","system_id":"levelo_inurba_marseille","lat":43.297163,"lon":5.365866,"is_reserved":false,"is_disabled":false,"rental_uris":{"android":"levelo://app?vid=b43a94c1-75d4-486a-a761-ad357ef07a1f","ios":"levelo://app?vid=b43a94c1-75d4-486a-a761-ad357ef07a1f"},"vehicle_type_id":"4","last_reported":1702386595,"current_range_meters":26800,"station_id":"ce4bgn12rcd13ifvqbt0","pricing_plan_id":"free"},{"bike_id":"20a1b595-9c79-40e3-a2b2-f15531c0cdac","system_id":"levelo_inurba_marseille","lat":43.2968,"lon":5.37291,"is_reserved":false,"is_disabled":false,"rental_uris":{"android":"levelo://app?vid=20a1b595-9c79-40e3-a2b2-f15531c0cdac","ios":"levelo://app?vid=20a1b595-9c79-40e3-a2b2-f15531c0cdac"},"vehicle_type_id":"4","last_reported":1702386595,"current_range_meters":28400,"station_id":"ce4bgk12rcd13ifvqbj0","pricing_plan_id":"free"},{"bike_id":"edef91a9-0c97-4e22-b7d4-c088d10fc340","system_id":"levelo_inurba_marseille","lat":43.296131,"lon":5.370791,"is_reserved":false,"is_disabled":false,"rental_uris":{"android":"levelo://app?vid=edef91a9-0c97-4e22-b7d4-c088d10fc340","ios":"levelo://app?vid=edef91a9-0c97-4e22-b7d4-c088d10fc340"},"vehicle_type_id":"4","last_reported":1702386595,"current_range_meters":26400,"station_id":"ce4bgnh2rcd13ifvqc0g","pricing_plan_id":"free"},{"bike_id":"713b0745-bd59-4b15-953a-d1949e3e2c89","system_id":"levelo_inurba_marseille","lat":43.296129,"lon":5.370777,"is_reserved":false,"is_disabled":false,"rental_uris":{"android":"levelo://app?vid=713b0745-bd59-4b15-953a-d1949e3e2c89","ios":"levelo://app?vid=713b0745-bd59-4b15-953a-d1949e3e2c89"},"vehicle_type_id":"4","last_reported":1702386595,"current_range_meters":14800,"station_id":"ce4bgnh2rcd13ifvqc0g","pricing_plan_id":"free"},{"bike_id":"ccd4e711-6b44-49f8-90b0-2352effd29e8","system_id":"levelo_inurba_marseille","lat":43.29573,"lon":5.367355,"is_reserved":false,"is_disabled":false,"rental_uris":{"android":"levelo://app?vid=ccd4e711-6b44-49f8-90b0-2352effd29e8","ios":"levelo://app?vid=ccd4e711-6b44-49f8-90b0-2352effd29e8"},"vehicle_type_id":"4","last_reported":1702386595,"current_range_meters":15200,"station_id":"ce4bgph2rcd13ifvqc2g","pricing_plan_id":"free"},{"bike_id":"86e3e57e-a8e4-49c3-b917-d84fa21da843","system_id":"levelo_inurba_marseille","lat":43.299724,"lon":5.371829,"is_reserved":false,"is_disabled":false,"rental_uris":{"android":"levelo://app?vid=86e3e57e-a8e4-49c3-b917-d84fa21da843","ios":"levelo://app?vid=86e3e57e-a8e4-49c3-b917-d84fa21da843"},"vehicle_type_id":"4","last_reported":1702386595,"current_range_meters":0,"station_id":"ce4bgr92rcd13ifvqc7g","pricing_plan_id":"free"},{"bike_id":"165d1465-bacb-4449-b87a-97bdbbab1fc1","system_id":"levelo_inurba_marseille","lat":43.31752,"lon":5.39022,"is_reserved":false,"is_disabled":false,"rental_uris":{"android":"levelo://app?vid=165d1465-bacb-4449-b87a-97bdbbab1fc1","ios":"levelo://app?vid=165d1465-bacb-4449-b87a-97bdbbab1fc1"},"vehicle_type_id":"4","last_reported":1702386595,"current_range_meters":27200,"station_id":"ce4bhqp2rcd13ifvqhng","pricing_plan_id":"free"},{"bike_id":"dd98db7d-13ac-431a-9d62-450a34114bcb","system_id":"levelo_inurba_marseille","lat":43.317517,"lon":5.390223,"is_reserved":false,"is_disabled":false,"rental_uris":{"android":"levelo://app?vid=dd98db7d-13ac-431a-9d62-450a34114bcb","ios":"levelo://app?vid=dd98db7d-13ac-431a-9d62-450a34114bcb"},"vehicle_type_id":"4","last_reported":1702386595,"current_range_meters":10400,"station_id":"ce4bhqp2rcd13ifvqhng","pricing_plan_id":"free"},{"bike_id":"d3a9cc85-609a-4d0c-9e18-b298876b2517","system_id":"levelo_inurba_marseille","lat":43.298037,"lon":5.381066,"is_reserved":false,"is_disabled":false,"rental_uris":{"android":"levelo://app?vid=d3a9cc85-609a-4d0c-9e18-b298876b2517","ios":"levelo://app?vid=d3a9cc85-609a-4d0c-9e18-b298876b2517"},"vehicle_type_id":"4","last_reported":1702386595,"current_range_meters":25200,"station_id":"ce4bgip2rcd13ifvqbb0","pricing_plan_id":"free"},{"bike_id":"8e0d8905-d7cd-4351-bbce-1ef1a7e96dc6","system_id":"levelo_inurba_marseille","lat":43.304274,"lon":5.388873,"is_reserved":false,"is_disabled":false,"rental_uris":{"android":"levelo://app?vid=8e0d8905-d7cd-4351-bbce-1ef1a7e96dc6","ios":"levelo://app?vid=8e0d8905-d7cd-4351-bbce-1ef1a7e96dc6"},"vehicle_type_id":"4","last_reported":1702386595,"current_range_meters":10400,"station_id":"ce4bgk12rcd13ifvqbi0","pricing_plan_id":"free"},{"bike_id":"0f473322-53f4-45ab-b775-5832782c92b6","system_id":"levelo_inurba_marseille","lat":43.32357,"lon":5.38877,"is_reserved":false,"is_disabled":false,"rental_uris":{"android":"levelo://app?vid=0f473322-53f4-45ab-b775-5832782c92b6","ios":"levelo://app?vid=0f473322-53f4-45ab-b775-5832782c92b6"},"vehicle_type_id":"4","last_reported":1702386595,"current_range_meters":0,"station_id":"ce4bhqp2rcd13ifvqhog","pricing_plan_id":"free"},{"bike_id":"a6ca6254-2010-40e6-a967-bda318c06f07","system_id":"levelo_inurba_marseille","lat":43.293249,"lon":5.371578,"is_reserved":false,"is_disabled":false,"rental_uris":{"android":"levelo://app?vid=a6ca6254-2010-40e6-a967-bda318c06f07","ios":"levelo://app?vid=a6ca6254-2010-40e6-a967-bda318c06f07"},"vehicle_type_id":"4","last_reported":1702386595,"current_range_meters":18000,"station_id":"ce4bgh92rcd13ifvqb40","pricing_plan_id":"free"},{"bike_id":"847c2a45-7938-467d-bb11-c4d549438372","system_id":"levelo_inurba_marseille","lat":43.305994,"lon":5.393687,"is_reserved":false,"is_disabled":false,"rental_uris":{"android":"levelo://app?vid=847c2a45-7938-467d-bb11-c4d549438372","ios":"levelo://app?vid=847c2a45-7938-467d-bb11-c4d549438372"},"vehicle_type_id":"4","last_reported":1702386595,"current_range_meters":17600,"station_id":"ce4bh0p2rcd13ifvqd80","pricing_plan_id":"free"},{"bike_id":"e3c088a8-2252-4a95-b938-99109ff86227","system_id":"levelo_inurba_marseille","lat":43.2936,"lon":5.37835,"is_reserved":false,"is_disabled":false,"rental_uris":{"android":"levelo://app?vid=e3c088a8-2252-4a95-b938-99109ff86227","ios":"levelo://app?vid=e3c088a8-2252-4a95-b938-99109ff86227"},"vehicle_type_id":"4","last_reported":1702386595,"current_range_meters":22400,"station_id":"ce4bgjh2rcd13ifvqbf0","pricing_plan_id":"free"},{"bike_id":"0a7f000e-ac50-4253-b061-ebfd1d927f47","system_id":"levelo_inurba_marseille","lat":43.2936,"lon":5.37835,"is_reserved":false,"is_disabled":false,"rental_uris":{"android":"levelo://app?vid=0a7f000e-ac50-4253-b061-ebfd1d927f47","ios":"levelo://app?vid=0a7f000e-ac50-4253-b061-ebfd1d927f47"},"vehicle_type_id":"4","last_reported":1702386595,"current_range_meters":18000,"station_id":"ce4bgjh2rcd13ifvqbf0","pricing_plan_id":"free"},{"bike_id":"f40d7cee-312b-4b0f-a94b-495ddc17f9fa","system_id":"levelo_inurba_marseille","lat":43.292311,"lon":5.360731,"is_reserved":false,"is_disabled":false,"rental_uris":{"android":"levelo://app?vid=f40d7cee-312b-4b0f-a94b-495ddc17f9fa","ios":"levelo://app?vid=f40d7cee-312b-4b0f-a94b-495ddc17f9fa"},"vehicle_type_id":"4","last_reported":1702386595,"current_range_meters":8800,"station_id":"ce4bhbh2rcd13ifvqeqg","pricing_plan_id":"free"},{"bike_id":"e7db5b54-896c-4dd6-9948-599c8867fbcb","system_id":"levelo_inurba_marseille","lat":43.292311,"lon":5.360731,"is_reserved":false,"is_disabled":false,"rental_uris":{"android":"levelo://app?vid=e7db5b54-896c-4dd6-9948-599c8867fbcb","ios":"levelo://app?vid=e7db5b54-896c-4dd6-9948-599c8867fbcb"},"vehicle_type_id":"4","last_reported":1702386595,"current_range_meters":20000,"station_id":"ce4bhbh2rcd13ifvqeqg","pricing_plan_id":"free"},{"bike_id":"bd07c6d0-8013-48ef-a28b-4a8a8cdf7137","system_id":"levelo_inurba_marseille","lat":43.292663,"lon":5.376394,"is_reserved":false,"is_disabled":false,"rental_uris":{"android":"levelo://app?vid=bd07c6d0-8013-48ef-a28b-4a8a8cdf7137","ios":"levelo://app?vid=bd07c6d0-8013-48ef-a28b-4a8a8cdf7137"},"vehicle_type_id":"4","last_reported":1702386595,"current_range_meters":26000,"station_id":"ce4bgi12rcd13ifvqb80","pricing_plan_id":"free"},{"bike_id":"99ee34aa-49ec-496f-83f0-650ddbb62b27","system_id":"levelo_inurba_marseille","lat":43.292663,"lon":5.376389,"is_reserved":false,"is_disabled":false,"rental_uris":{"android":"levelo://app?vid=99ee34aa-49ec-496f-83f0-650ddbb62b27","ios":"levelo://app?vid=99ee34aa-49ec-496f-83f0-650ddbb62b27"},"vehicle_type_id":"4","last_reported":1702386595,"current_range_meters":9600,"station_id":"ce4bgi12rcd13ifvqb80","pricing_plan_id":"free"},{"bike_id":"27be574c-a526-4b31-b344-f549dd7a07a4","system_id":"levelo_inurba_marseille","lat":43.291675,"lon":5.371583,"is_reserved":false,"is_disabled":false,"rental_uris":{"android":"levelo://app?vid=27be574c-a526-4b31-b344-f549dd7a07a4","ios":"levelo://app?vid=27be574c-a526-4b31-b344-f549dd7a07a4"},"vehicle_type_id":"4","last_reported":1702386595,"current_range_meters":19200,"station_id":"ce4bha92rcd13ifvqeh0","pricing_plan_id":"free"},{"bike_id":"7cddd4cc-2c7d-4381-9bfa-f684cdc32fa0","system_id":"levelo_inurba_marseille","lat":43.33353,"lon":5.3746,"is_reserved":false,"is_disabled":false,"rental_uris":{"android":"levelo://app?vid=7cddd4cc-2c7d-4381-9bfa-f684cdc32fa0","ios":"levelo://app?vid=7cddd4cc-2c7d-4381-9bfa-f684cdc32fa0"},"vehicle_type_id":"4","last_reported":1702386595,"current_range_meters":3600,"station_id":"","pricing_plan_id":"free"},{"bike_id":"5444ca79-6efa-48a0-9ddd-09a335f5c83a","system_id":"levelo_inurba_marseille","lat":43.29196,"lon":5.35806,"is_reserved":false,"is_disabled":false,"rental_uris":{"android":"levelo://app?vid=5444ca79-6efa-48a0-9ddd-09a335f5c83a","ios":"levelo://app?vid=5444ca79-6efa-48a0-9ddd-09a335f5c83a"},"vehicle_type_id":"4","last_reported":1702386595,"current_range_meters":23600,"station_id":"ce4bhb12rcd13ifvqel0","pricing_plan_id":"free"},{"bike_id":"b461443a-203a-4d4a-bc13-d444775a70d9","system_id":"levelo_inurba_marseille","lat":43.309038,"lon":5.396546,"is_reserved":false,"is_disabled":false,"rental_uris":{"android":"levelo://app?vid=b461443a-203a-4d4a-bc13-d444775a70d9","ios":"levelo://app?vid=b461443a-203a-4d4a-bc13-d444775a70d9"},"vehicle_type_id":"4","last_reported":1702386595,"current_range_meters":6000,"station_id":"ce4bh012rcd13ifvqcv0","pricing_plan_id":"free"},{"bike_id":"73ad1f65-3d0a-406e-9931-6ce755a74a19","system_id":"levelo_inurba_marseille","lat":43.29529,"lon":5.385581,"is_reserved":false,"is_disabled":false,"rental_uris":{"android":"levelo://app?vid=73ad1f65-3d0a-406e-9931-6ce755a74a19","ios":"levelo://app?vid=73ad1f65-3d0a-406e-9931-6ce755a74a19"},"vehicle_type_id":"4","last_reported":1702386595,"current_range_meters":24800,"station_id":"ce4bgih2rcd13ifvqba0","pricing_plan_id":"free"},{"bike_id":"76c9ac78-74a3-4651-82aa-a1a20566e17c","system_id":"levelo_inurba_marseille","lat":43.302008,"lon":5.394694,"is_reserved":false,"is_disabled":false,"rental_uris":{"android":"levelo://app?vid=76c9ac78-74a3-4651-82aa-a1a20566e17c","ios":"levelo://app?vid=76c9ac78-74a3-4651-82aa-a1a20566e17c"},"vehicle_type_id":"4","last_reported":1702386595,"current_range_meters":2800,"station_id":"ce4bh0p2rcd13ifvqd70","pricing_plan_id":"free"},{"bike_id":"3332049b-081d-4e12-81cb-f7775c489245","system_id":"levelo_inurba_marseille","lat":43.289184,"lon":5.366408,"is_reserved":false,"is_disabled":false,"rental_uris":{"android":"levelo://app?vid=3332049b-081d-4e12-81cb-f7775c489245","ios":"levelo://app?vid=3332049b-081d-4e12-81cb-f7775c489245"},"vehicle_type_id":"4","last_reported":1702386595,"current_range_meters":7600,"station_id":"ce4bhap2rcd13ifvqek0","pricing_plan_id":"free"},{"bike_id":"9503d0ba-74ec-4fcb-ad02-46804a0fb068","system_id":"levelo_inurba_marseille","lat":43.289184,"lon":5.366408,"is_reserved":false,"is_disabled":false,"rental_uris":{"android":"levelo://app?vid=9503d0ba-74ec-4fcb-ad02-46804a0fb068","ios":"levelo://app?vid=9503d0ba-74ec-4fcb-ad02-46804a0fb068"},"vehicle_type_id":"4","last_reported":1702386595,"current_range_meters":24000,"station_id":"ce4bhap2rcd13ifvqek0","pricing_plan_id":"free"},{"bike_id":"bcf801e0-486f-4d1b-97b3-b9fe79ae5fc9","system_id":"levelo_inurba_marseille","lat":43.290327,"lon":5.375711,"is_reserved":false,"is_disabled":false,"rental_uris":{"android":"levelo://app?vid=bcf801e0-486f-4d1b-97b3-b9fe79ae5fc9","ios":"levelo://app?vid=bcf801e0-486f-4d1b-97b3-b9fe79ae5fc9"},"vehicle_type_id":"4","last_reported":1702386595,"current_range_meters":17200,"station_id":"ce4bh692rcd13ifvqe90","pricing_plan_id":"free"},{"bike_id":"320adadb-643f-42da-a476-02c02b739798","system_id":"levelo_inurba_marseille","lat":43.289184,"lon":5.366408,"is_reserved":false,"is_disabled":false,"rental_uris":{"android":"levelo://app?vid=320adadb-643f-42da-a476-02c02b739798","ios":"levelo://app?vid=320adadb-643f-42da-a476-02c02b739798"},"vehicle_type_id":"4","last_reported":1702386595,"current_range_meters":12400,"station_id":"ce4bhap2rcd13ifvqek0","pricing_plan_id":"free"},{"bike_id":"8d35c88f-3d85-45ce-9453-91c76f4ef5d9","system_id":"levelo_inurba_marseille","lat":43.289184,"lon":5.366408,"is_reserved":false,"is_disabled":false,"rental_uris":{"android":"levelo://app?vid=8d35c88f-3d85-45ce-9453-91c76f4ef5d9","ios":"levelo://app?vid=8d35c88f-3d85-45ce-9453-91c76f4ef5d9"},"vehicle_type_id":"4","last_reported":1702386595,"current_range_meters":19600,"station_id":"ce4bhap2rcd13ifvqek0","pricing_plan_id":"free"},{"bike_id":"a0bac7ef-74db-46f3-bc24-7344212865a2","system_id":"levelo_inurba_marseille","lat":43.289184,"lon":5.366408,"is_reserved":false,"is_disabled":false,"rental_uris":{"android":"levelo://app?vid=a0bac7ef-74db-46f3-bc24-7344212865a2","ios":"levelo://app?vid=a0bac7ef-74db-46f3-bc24-7344212865a2"},"vehicle_type_id":"4","last_reported":1702386595,"current_range_meters":15600,"station_id":"ce4bhap2rcd13ifvqek0","pricing_plan_id":"free"},{"bike_id":"89a7ff57-d9a9-4752-9b08-8c1d4029202f","system_id":"levelo_inurba_marseille","lat":43.2894,"lon":5.3639,"is_reserved":false,"is_disabled":false,"rental_uris":{"android":"levelo://app?vid=89a7ff57-d9a9-4752-9b08-8c1d4029202f","ios":"levelo://app?vid=89a7ff57-d9a9-4752-9b08-8c1d4029202f"},"vehicle_type_id":"4","last_reported":1702386595,"current_range_meters":28000,"station_id":"ce4bhc92rcd13ifvqetg","pricing_plan_id":"free"},{"bike_id":"55a8dc63-8f1a-4ba9-9bc1-7daba59f47af","system_id":"levelo_inurba_marseille","lat":43.2894,"lon":5.36385,"is_reserved":false,"is_disabled":false,"rental_uris":{"android":"levelo://app?vid=55a8dc63-8f1a-4ba9-9bc1-7daba59f47af","ios":"levelo://app?vid=55a8dc63-8f1a-4ba9-9bc1-7daba59f47af"},"vehicle_type_id":"4","last_reported":1702386595,"current_range_meters":28400,"station_id":"ce4bhc92rcd13ifvqetg","pricing_plan_id":"free"},{"bike_id":"defd8d63-5ad5-4eff-853e-3a03bab8fc7f","system_id":"levelo_inurba_marseille","lat":43.292644,"lon":5.384257,"is_reserved":false,"is_disabled":false,"rental_uris":{"android":"levelo://app?vid=defd8d63-5ad5-4eff-853e-3a03bab8fc7f","ios":"levelo://app?vid=defd8d63-5ad5-4eff-853e-3a03bab8fc7f"},"vehicle_type_id":"4","last_reported":1702386595,"current_range_meters":16400,"station_id":"ce4bh692rcd13ifvqea0","pricing_plan_id":"free"},{"bike_id":"a5db7620-a2e4-4e14-b7c5-e5d751f01907","system_id":"levelo_inurba_marseille","lat":43.292642,"lon":5.384254,"is_reserved":false,"is_disabled":false,"rental_uris":{"android":"levelo://app?vid=a5db7620-a2e4-4e14-b7c5-e5d751f01907","ios":"levelo://app?vid=a5db7620-a2e4-4e14-b7c5-e5d751f01907"},"vehicle_type_id":"4","last_reported":1702386595,"current_range_meters":18800,"station_id":"ce4bh692rcd13ifvqea0","pricing_plan_id":"free"},{"bike_id":"ab21bd84-ca1d-48df-a453-3d218349987d","system_id":"levelo_inurba_marseille","lat":43.290104,"lon":5.356111,"is_reserved":false,"is_disabled":false,"rental_uris":{"android":"levelo://app?vid=ab21bd84-ca1d-48df-a453-3d218349987d","ios":"levelo://app?vid=ab21bd84-ca1d-48df-a453-3d218349987d"},"vehicle_type_id":"4","last_reported":1702386595,"current_range_meters":27200,"station_id":"ce4bhb92rcd13ifvqen0","pricing_plan_id":"free"},{"bike_id":"a4fa1983-7cdb-4906-91a9-2daf65b1f8a3","system_id":"levelo_inurba_marseille","lat":43.290103,"lon":5.356114,"is_reserved":false,"is_disabled":false,"rental_uris":{"android":"levelo://app?vid=a4fa1983-7cdb-4906-91a9-2daf65b1f8a3","ios":"levelo://app?vid=a4fa1983-7cdb-4906-91a9-2daf65b1f8a3"},"vehicle_type_id":"4","last_reported":1702386595,"current_range_meters":25600,"station_id":"ce4bhb92rcd13ifvqen0","pricing_plan_id":"free"},{"bike_id":"d10ff714-9bc1-40a2-a117-02185b2a7bc5","system_id":"levelo_inurba_marseille","lat":43.290995,"lon":5.381361,"is_reserved":false,"is_disabled":false,"rental_uris":{"android":"levelo://app?vid=d10ff714-9bc1-40a2-a117-02185b2a7bc5","ios":"levelo://app?vid=d10ff714-9bc1-40a2-a117-02185b2a7bc5"},"vehicle_type_id":"4","last_reported":1702386595,"current_range_meters":1200,"station_id":"ce4bh512rcd13ifvqe2g","pricing_plan_id":"free"},{"bike_id":"2882e7f8-214a-461c-813d-f51bc72ac8e9","system_id":"levelo_inurba_marseille","lat":43.290995,"lon":5.381361,"is_reserved":false,"is_disabled":false,"rental_uris":{"android":"levelo://app?vid=2882e7f8-214a-461c-813d-f51bc72ac8e9","ios":"levelo://app?vid=2882e7f8-214a-461c-813d-f51bc72ac8e9"},"vehicle_type_id":"4","last_reported":1702386595,"current_range_meters":22800,"station_id":"ce4bh512rcd13ifvqe2g","pricing_plan_id":"free"},{"bike_id":"c938f371-dc90-4c6c-9eb5-79b16abf0e0e","system_id":"levelo_inurba_marseille","lat":43.289743,"lon":5.378304,"is_reserved":false,"is_disabled":false,"rental_uris":{"android":"levelo://app?vid=c938f371-dc90-4c6c-9eb5-79b16abf0e0e","ios":"levelo://app?vid=c938f371-dc90-4c6c-9eb5-79b16abf0e0e"},"vehicle_type_id":"4","last_reported":1702386595,"current_range_meters":25200,"station_id":"ce4bh9p2rcd13ifvqed0","pricing_plan_id":"free"},{"bike_id":"0976663a-163e-4e6b-ad6a-3439ea25a3ca","system_id":"levelo_inurba_marseille","lat":43.29773,"lon":5.3934,"is_reserved":false,"is_disabled":false,"rental_uris":{"android":"levelo://app?vid=0976663a-163e-4e6b-ad6a-3439ea25a3ca","ios":"levelo://app?vid=0976663a-163e-4e6b-ad6a-3439ea25a3ca"},"vehicle_type_id":"4","last_reported":1702386595,"current_range_meters":4000,"station_id":"chh1huq6cuj3fo74tm60","pricing_plan_id":"free"},{"bike_id":"3a01eb11-ce53-49cf-ac08-1e5161c64a91","system_id":"levelo_inurba_marseille","lat":43.289708,"lon":5.378405,"is_reserved":false,"is_disabled":false,"rental_uris":{"android":"levelo://app?vid=3a01eb11-ce53-49cf-ac08-1e5161c64a91","ios":"levelo://app?vid=3a01eb11-ce53-49cf-ac08-1e5161c64a91"},"vehicle_type_id":"4","last_reported":1702386595,"current_range_meters":0,"station_id":"ce4bh9p2rcd13ifvqed0","pricing_plan_id":"free"},{"bike_id":"82d6c40a-4c76-4497-be56-1bf138294067","system_id":"levelo_inurba_marseille","lat":43.28856,"lon":5.358371,"is_reserved":false,"is_disabled":false,"rental_uris":{"android":"levelo://app?vid=82d6c40a-4c76-4497-be56-1bf138294067","ios":"levelo://app?vid=82d6c40a-4c76-4497-be56-1bf138294067"},"vehicle_type_id":"4","last_reported":1702386595,"current_range_meters":1200,"station_id":"ce4bhb12rcd13ifvqem0","pricing_plan_id":"free"},{"bike_id":"1ffa6cab-2192-4490-9617-61044011c6b1","system_id":"levelo_inurba_marseille","lat":43.33742,"lon":5.3747,"is_reserved":false,"is_disabled":false,"rental_uris":{"android":"levelo://app?vid=1ffa6cab-2192-4490-9617-61044011c6b1","ios":"levelo://app?vid=1ffa6cab-2192-4490-9617-61044011c6b1"},"vehicle_type_id":"4","last_reported":1702386595,"current_range_meters":16000,"station_id":"","pricing_plan_id":"free"},{"bike_id":"e1115d16-a177-4b09-99f4-d84a7f0a9df4","system_id":"levelo_inurba_marseille","lat":43.337433,"lon":5.374673,"is_reserved":false,"is_disabled":false,"rental_uris":{"android":"levelo://app?vid=e1115d16-a177-4b09-99f4-d84a7f0a9df4","ios":"levelo://app?vid=e1115d16-a177-4b09-99f4-d84a7f0a9df4"},"vehicle_type_id":"4","last_reported":1702386595,"current_range_meters":23600,"station_id":"","pricing_plan_id":"free"},{"bike_id":"67dcbfa0-43d1-4b19-8796-1b88e2ecd2c5","system_id":"levelo_inurba_marseille","lat":43.33752,"lon":5.37447,"is_reserved":false,"is_disabled":false,"rental_uris":{"android":"levelo://app?vid=67dcbfa0-43d1-4b19-8796-1b88e2ecd2c5","ios":"levelo://app?vid=67dcbfa0-43d1-4b19-8796-1b88e2ecd2c5"},"vehicle_type_id":"4","last_reported":1702386595,"current_range_meters":20000,"station_id":"","pricing_plan_id":"free"},{"bike_id":"1a9123ca-1ac0-4cbb-b622-534f88bcae20","system_id":"levelo_inurba_marseille","lat":43.337563,"lon":5.374598,"is_reserved":false,"is_disabled":false,"rental_uris":{"android":"levelo://app?vid=1a9123ca-1ac0-4cbb-b622-534f88bcae20","ios":"levelo://app?vid=1a9123ca-1ac0-4cbb-b622-534f88bcae20"},"vehicle_type_id":"4","last_reported":1702386595,"current_range_meters":28800,"station_id":"","pricing_plan_id":"free"},{"bike_id":"a69ca607-a11e-4577-bc5a-1d931c46c050","system_id":"levelo_inurba_marseille","lat":43.30642,"lon":5.401031,"is_reserved":false,"is_disabled":false,"rental_uris":{"android":"levelo://app?vid=a69ca607-a11e-4577-bc5a-1d931c46c050","ios":"levelo://app?vid=a69ca607-a11e-4577-bc5a-1d931c46c050"},"vehicle_type_id":"4","last_reported":1702386595,"current_range_meters":4000,"station_id":"ce4bh112rcd13ifvqda0","pricing_plan_id":"free"},{"bike_id":"042a4e45-5055-465d-952f-4e749d87377f","system_id":"levelo_inurba_marseille","lat":43.301117,"lon":5.398795,"is_reserved":false,"is_disabled":false,"rental_uris":{"android":"levelo://app?vid=042a4e45-5055-465d-952f-4e749d87377f","ios":"levelo://app?vid=042a4e45-5055-465d-952f-4e749d87377f"},"vehicle_type_id":"4","last_reported":1702386595,"current_range_meters":21200,"station_id":"ce4bh0h2rcd13ifvqd40","pricing_plan_id":"free"},{"bike_id":"6a15d18e-af37-408d-b876-87d529b2f5fd","system_id":"levelo_inurba_marseille","lat":43.28727,"lon":5.36078,"is_reserved":false,"is_disabled":false,"rental_uris":{"android":"levelo://app?vid=6a15d18e-af37-408d-b876-87d529b2f5fd","ios":"levelo://app?vid=6a15d18e-af37-408d-b876-87d529b2f5fd"},"vehicle_type_id":"4","last_reported":1702386595,"current_range_meters":10400,"station_id":"cki0cbj6b192h4jlfktg","pricing_plan_id":"free"},{"bike_id":"df8d44d0-f3b9-416d-bab4-d0d907abbd34","system_id":"levelo_inurba_marseille","lat":43.286593,"lon":5.363346,"is_reserved":false,"is_disabled":false,"rental_uris":{"android":"levelo://app?vid=df8d44d0-f3b9-416d-bab4-d0d907abbd34","ios":"levelo://app?vid=df8d44d0-f3b9-416d-bab4-d0d907abbd34"},"vehicle_type_id":"4","last_reported":1702386595,"current_range_meters":31600,"station_id":"ce4bhah2rcd13ifvqej0","pricing_plan_id":"free"},{"bike_id":"36eed416-7f4c-4704-bce7-1588076081ce","system_id":"levelo_inurba_marseille","lat":43.286591,"lon":5.363346,"is_reserved":false,"is_disabled":false,"rental_uris":{"android":"levelo://app?vid=36eed416-7f4c-4704-bce7-1588076081ce","ios":"levelo://app?vid=36eed416-7f4c-4704-bce7-1588076081ce"},"vehicle_type_id":"4","last_reported":1702386595,"current_range_meters":4000,"station_id":"ce4bhah2rcd13ifvqej0","pricing_plan_id":"free"},{"bike_id":"2034bc06-1cd1-4fc1-ab47-f7aa13cf39cd","system_id":"levelo_inurba_marseille","lat":43.286591,"lon":5.363346,"is_reserved":false,"is_disabled":false,"rental_uris":{"android":"levelo://app?vid=2034bc06-1cd1-4fc1-ab47-f7aa13cf39cd","ios":"levelo://app?vid=2034bc06-1cd1-4fc1-ab47-f7aa13cf39cd"},"vehicle_type_id":"4","last_reported":1702386595,"current_range_meters":29200,"station_id":"ce4bhah2rcd13ifvqej0","pricing_plan_id":"free"},{"bike_id":"94491c68-5aec-439c-bea0-1bb50fbfbf81","system_id":"levelo_inurba_marseille","lat":43.295196,"lon":5.39397,"is_reserved":false,"is_disabled":false,"rental_uris":{"android":"levelo://app?vid=94491c68-5aec-439c-bea0-1bb50fbfbf81","ios":"levelo://app?vid=94491c68-5aec-439c-bea0-1bb50fbfbf81"},"vehicle_type_id":"4","last_reported":1702386595,"current_range_meters":0,"station_id":"ce4bh292rcd13ifvqdf0","pricing_plan_id":"free"},{"bike_id":"da5daca5-312a-4832-ac52-638472ef4075","system_id":"levelo_inurba_marseille","lat":43.289307,"lon":5.38406,"is_reserved":false,"is_disabled":false,"rental_uris":{"android":"levelo://app?vid=da5daca5-312a-4832-ac52-638472ef4075","ios":"levelo://app?vid=da5daca5-312a-4832-ac52-638472ef4075"},"vehicle_type_id":"4","last_reported":1702386595,"current_range_meters":28400,"station_id":"ce4bh612rcd13ifvqe6g","pricing_plan_id":"free"},{"bike_id":"59cb7841-d738-4be0-9b3b-94eded9202c0","system_id":"levelo_inurba_marseille","lat":43.290336,"lon":5.386425,"is_reserved":false,"is_disabled":false,"rental_uris":{"android":"levelo://app?vid=59cb7841-d738-4be0-9b3b-94eded9202c0","ios":"levelo://app?vid=59cb7841-d738-4be0-9b3b-94eded9202c0"},"vehicle_type_id":"4","last_reported":1702386595,"current_range_meters":19200,"station_id":"ce4bh4p2rcd13ifvqe0g","pricing_plan_id":"free"},{"bike_id":"4b4a3126-0a67-401c-970c-edbb6b580f28","system_id":"levelo_inurba_marseille","lat":43.302759,"lon":5.400793,"is_reserved":false,"is_disabled":false,"rental_uris":{"android":"levelo://app?vid=4b4a3126-0a67-401c-970c-edbb6b580f28","ios":"levelo://app?vid=4b4a3126-0a67-401c-970c-edbb6b580f28"},"vehicle_type_id":"4","last_reported":1702386595,"current_range_meters":14000,"station_id":"ce4bgvh2rcd13ifvqcs0","pricing_plan_id":"free"},{"bike_id":"9115154f-8856-4157-935f-d3326a511e75","system_id":"levelo_inurba_marseille","lat":43.286039,"lon":5.370679,"is_reserved":false,"is_disabled":false,"rental_uris":{"android":"levelo://app?vid=9115154f-8856-4157-935f-d3326a511e75","ios":"levelo://app?vid=9115154f-8856-4157-935f-d3326a511e75"},"vehicle_type_id":"4","last_reported":1702386595,"current_range_meters":20000,"station_id":"ce4bht12rcd13ifvqi60","pricing_plan_id":"free"},{"bike_id":"dd55c571-beb8-4144-9eee-a018fae0dfc2","system_id":"levelo_inurba_marseille","lat":43.286039,"lon":5.370681,"is_reserved":false,"is_disabled":false,"rental_uris":{"android":"levelo://app?vid=dd55c571-beb8-4144-9eee-a018fae0dfc2","ios":"levelo://app?vid=dd55c571-beb8-4144-9eee-a018fae0dfc2"},"vehicle_type_id":"4","last_reported":1702386595,"current_range_meters":23600,"station_id":"ce4bht12rcd13ifvqi60","pricing_plan_id":"free"},{"bike_id":"7741dcbf-eb7d-47e0-9c0b-2e348b29d5ed","system_id":"levelo_inurba_marseille","lat":43.287184,"lon":5.37937,"is_reserved":false,"is_disabled":false,"rental_uris":{"android":"levelo://app?vid=7741dcbf-eb7d-47e0-9c0b-2e348b29d5ed","ios":"levelo://app?vid=7741dcbf-eb7d-47e0-9c0b-2e348b29d5ed"},"vehicle_type_id":"4","last_reported":1702386595,"current_range_meters":14800,"station_id":"ce4bh9p2rcd13ifvqec0","pricing_plan_id":"free"},{"bike_id":"dbf7af8d-0a7f-40ff-84be-6e6fa8fd5a8a","system_id":"levelo_inurba_marseille","lat":43.31679,"lon":5.40474,"is_reserved":false,"is_disabled":false,"rental_uris":{"android":"levelo://app?vid=dbf7af8d-0a7f-40ff-84be-6e6fa8fd5a8a","ios":"levelo://app?vid=dbf7af8d-0a7f-40ff-84be-6e6fa8fd5a8a"},"vehicle_type_id":"4","last_reported":1702386595,"current_range_meters":6400,"station_id":"ce4bh012rcd13ifvqd00","pricing_plan_id":"free"},{"bike_id":"d0cf0bab-c376-4298-889d-9b5a69ca17ca","system_id":"levelo_inurba_marseille","lat":43.295713,"lon":5.399639,"is_reserved":false,"is_disabled":false,"rental_uris":{"android":"levelo://app?vid=d0cf0bab-c376-4298-889d-9b5a69ca17ca","ios":"levelo://app?vid=d0cf0bab-c376-4298-889d-9b5a69ca17ca"},"vehicle_type_id":"4","last_reported":1702386595,"current_range_meters":13200,"station_id":"ce4bh312rcd13ifvqdj0","pricing_plan_id":"free"},{"bike_id":"3b407ae7-e8af-45fe-a711-900547285171","system_id":"levelo_inurba_marseille","lat":43.337168,"lon":5.391825,"is_reserved":false,"is_disabled":false,"rental_uris":{"android":"levelo://app?vid=3b407ae7-e8af-45fe-a711-900547285171","ios":"levelo://app?vid=3b407ae7-e8af-45fe-a711-900547285171"},"vehicle_type_id":"4","last_reported":1702386595,"current_range_meters":28400,"station_id":"ce4bhr92rcd13ifvqhsg","pricing_plan_id":"free"},{"bike_id":"b141cb4e-b803-4cec-9726-41aed3cf0cb4","system_id":"levelo_inurba_marseille","lat":43.33717,"lon":5.391857,"is_reserved":false,"is_disabled":false,"rental_uris":{"android":"levelo://app?vid=b141cb4e-b803-4cec-9726-41aed3cf0cb4","ios":"levelo://app?vid=b141cb4e-b803-4cec-9726-41aed3cf0cb4"},"vehicle_type_id":"4","last_reported":1702386595,"current_range_meters":24800,"station_id":"ce4bhr92rcd13ifvqhsg","pricing_plan_id":"free"},{"bike_id":"0a923d5d-bb5a-4246-a320-ef78d55728d0","system_id":"levelo_inurba_marseille","lat":43.284793,"lon":5.384113,"is_reserved":false,"is_disabled":false,"rental_uris":{"android":"levelo://app?vid=0a923d5d-bb5a-4246-a320-ef78d55728d0","ios":"levelo://app?vid=0a923d5d-bb5a-4246-a320-ef78d55728d0"},"vehicle_type_id":"4","last_reported":1702386595,"current_range_meters":26400,"station_id":"ce4bh512rcd13ifvqe3g","pricing_plan_id":"free"},{"bike_id":"c28ba3b0-9b22-4f3b-b9b9-8a5a67660325","system_id":"levelo_inurba_marseille","lat":43.284787,"lon":5.384116,"is_reserved":false,"is_disabled":false,"rental_uris":{"android":"levelo://app?vid=c28ba3b0-9b22-4f3b-b9b9-8a5a67660325","ios":"levelo://app?vid=c28ba3b0-9b22-4f3b-b9b9-8a5a67660325"},"vehicle_type_id":"4","last_reported":1702386595,"current_range_meters":18400,"station_id":"ce4bh512rcd13ifvqe3g","pricing_plan_id":"free"},{"bike_id":"daea891e-0fe3-4574-8842-730ee2b85e5a","system_id":"levelo_inurba_marseille","lat":43.288501,"lon":5.393087,"is_reserved":false,"is_disabled":false,"rental_uris":{"android":"levelo://app?vid=daea891e-0fe3-4574-8842-730ee2b85e5a","ios":"levelo://app?vid=daea891e-0fe3-4574-8842-730ee2b85e5a"},"vehicle_type_id":"4","last_reported":1702386595,"current_range_meters":10400,"station_id":"ce4bh2p2rcd13ifvqdi0","pricing_plan_id":"free"},{"bike_id":"2cc9c7f5-c793-4c18-b074-e19def781004","system_id":"levelo_inurba_marseille","lat":43.283498,"lon":5.380948,"is_reserved":false,"is_disabled":false,"rental_uris":{"android":"levelo://app?vid=2cc9c7f5-c793-4c18-b074-e19def781004","ios":"levelo://app?vid=2cc9c7f5-c793-4c18-b074-e19def781004"},"vehicle_type_id":"4","last_reported":1702386595,"current_range_meters":4000,"station_id":"ce4bh412rcd13ifvqdr0","pricing_plan_id":"free"},{"bike_id":"6eff5a2b-f3b9-42d1-be7f-6920a9833d59","system_id":"levelo_inurba_marseille","lat":43.289363,"lon":5.396322,"is_reserved":false,"is_disabled":false,"rental_uris":{"android":"levelo://app?vid=6eff5a2b-f3b9-42d1-be7f-6920a9833d59","ios":"levelo://app?vid=6eff5a2b-f3b9-42d1-be7f-6920a9833d59"},"vehicle_type_id":"4","last_reported":1702386595,"current_range_meters":10400,"station_id":"ce4bh3h2rcd13ifvqdn0","pricing_plan_id":"free"},{"bike_id":"0c61c5e5-c190-4282-b7c9-4e964b726e21","system_id":"levelo_inurba_marseille","lat":43.289363,"lon":5.396322,"is_reserved":false,"is_disabled":false,"rental_uris":{"android":"levelo://app?vid=0c61c5e5-c190-4282-b7c9-4e964b726e21","ios":"levelo://app?vid=0c61c5e5-c190-4282-b7c9-4e964b726e21"},"vehicle_type_id":"4","last_reported":1702386595,"current_range_meters":20800,"station_id":"ce4bh3h2rcd13ifvqdn0","pricing_plan_id":"free"},{"bike_id":"c3559213-f42c-455a-b4d5-08934dadfeab","system_id":"levelo_inurba_marseille","lat":43.292724,"lon":5.401131,"is_reserved":false,"is_disabled":false,"rental_uris":{"android":"levelo://app?vid=c3559213-f42c-455a-b4d5-08934dadfeab","ios":"levelo://app?vid=c3559213-f42c-455a-b4d5-08934dadfeab"},"vehicle_type_id":"4","last_reported":1702386595,"current_range_meters":31600,"station_id":"ce4bh312rcd13ifvqdk0","pricing_plan_id":"free"},{"bike_id":"7cda89b5-4f55-4a37-ab72-86d27cd60adc","system_id":"levelo_inurba_marseille","lat":43.292724,"lon":5.401131,"is_reserved":false,"is_disabled":false,"rental_uris":{"android":"levelo://app?vid=7cda89b5-4f55-4a37-ab72-86d27cd60adc","ios":"levelo://app?vid=7cda89b5-4f55-4a37-ab72-86d27cd60adc"},"vehicle_type_id":"4","last_reported":1702386595,"current_range_meters":30800,"station_id":"ce4bh312rcd13ifvqdk0","pricing_plan_id":"free"},{"bike_id":"31a03538-2857-4781-933d-0e9c47fc288c","system_id":"levelo_inurba_marseille","lat":43.292724,"lon":5.401131,"is_reserved":false,"is_disabled":false,"rental_uris":{"android":"levelo://app?vid=31a03538-2857-4781-933d-0e9c47fc288c","ios":"levelo://app?vid=31a03538-2857-4781-933d-0e9c47fc288c"},"vehicle_type_id":"4","last_reported":1702386595,"current_range_meters":11600,"station_id":"ce4bh312rcd13ifvqdk0","pricing_plan_id":"free"},{"bike_id":"53bca2bc-1aa0-43c1-8d59-9a8822c562b3","system_id":"levelo_inurba_marseille","lat":43.282744,"lon":5.350533,"is_reserved":false,"is_disabled":false,"rental_uris":{"android":"levelo://app?vid=53bca2bc-1aa0-43c1-8d59-9a8822c562b3","ios":"levelo://app?vid=53bca2bc-1aa0-43c1-8d59-9a8822c562b3"},"vehicle_type_id":"4","last_reported":1702386595,"current_range_meters":24800,"station_id":"ce4bhbp2rcd13ifvqerg","pricing_plan_id":"free"},{"bike_id":"bbe5f30a-4738-4826-bd7a-95ec16c0ccd2","system_id":"levelo_inurba_marseille","lat":43.280382,"lon":5.369291,"is_reserved":false,"is_disabled":false,"rental_uris":{"android":"levelo://app?vid=bbe5f30a-4738-4826-bd7a-95ec16c0ccd2","ios":"levelo://app?vid=bbe5f30a-4738-4826-bd7a-95ec16c0ccd2"},"vehicle_type_id":"4","last_reported":1702386595,"current_range_meters":30800,"station_id":"ce4bha12rcd13ifvqef0","pricing_plan_id":"free"},{"bike_id":"5828030f-9e48-4b18-8ec2-2e3f78e9ee87","system_id":"levelo_inurba_marseille","lat":43.29041,"lon":5.399634,"is_reserved":false,"is_disabled":false,"rental_uris":{"android":"levelo://app?vid=5828030f-9e48-4b18-8ec2-2e3f78e9ee87","ios":"levelo://app?vid=5828030f-9e48-4b18-8ec2-2e3f78e9ee87"},"vehicle_type_id":"4","last_reported":1702386595,"current_range_meters":29600,"station_id":"ce4bh392rcd13ifvqdm0","pricing_plan_id":"free"},{"bike_id":"60228b9e-b05d-4c6d-b16a-f2ba63fe93f9","system_id":"levelo_inurba_marseille","lat":43.29038,"lon":5.39966,"is_reserved":false,"is_disabled":false,"rental_uris":{"android":"levelo://app?vid=60228b9e-b05d-4c6d-b16a-f2ba63fe93f9","ios":"levelo://app?vid=60228b9e-b05d-4c6d-b16a-f2ba63fe93f9"},"vehicle_type_id":"4","last_reported":1702386595,"current_range_meters":28000,"station_id":"ce4bh392rcd13ifvqdm0","pricing_plan_id":"free"},{"bike_id":"983aecb4-2352-4508-b58f-3d3024ea84ab","system_id":"levelo_inurba_marseille","lat":43.290412,"lon":5.399633,"is_reserved":false,"is_disabled":false,"rental_uris":{"android":"levelo://app?vid=983aecb4-2352-4508-b58f-3d3024ea84ab","ios":"levelo://app?vid=983aecb4-2352-4508-b58f-3d3024ea84ab"},"vehicle_type_id":"4","last_reported":1702386595,"current_range_meters":20400,"station_id":"ce4bh392rcd13ifvqdm0","pricing_plan_id":"free"},{"bike_id":"59074438-de76-456a-98c1-86029db31ce1","system_id":"levelo_inurba_marseille","lat":43.281044,"lon":5.378308,"is_reserved":false,"is_disabled":false,"rental_uris":{"android":"levelo://app?vid=59074438-de76-456a-98c1-86029db31ce1","ios":"levelo://app?vid=59074438-de76-456a-98c1-86029db31ce1"},"vehicle_type_id":"4","last_reported":1702386595,"current_range_meters":18000,"station_id":"ce4bha12rcd13ifvqee0","pricing_plan_id":"free"},{"bike_id":"4c8ef8c1-c073-417d-85b5-e3be7a70d82a","system_id":"levelo_inurba_marseille","lat":43.296263,"lon":5.40601,"is_reserved":false,"is_disabled":false,"rental_uris":{"android":"levelo://app?vid=4c8ef8c1-c073-417d-85b5-e3be7a70d82a","ios":"levelo://app?vid=4c8ef8c1-c073-417d-85b5-e3be7a70d82a"},"vehicle_type_id":"4","last_reported":1702386595,"current_range_meters":0,"station_id":"ce4bh0h2rcd13ifvqd60","pricing_plan_id":"free"},{"bike_id":"d05c6c97-c3ea-47cc-bc4b-d8dbf193e90d","system_id":"levelo_inurba_marseille","lat":43.284462,"lon":5.392121,"is_reserved":false,"is_disabled":false,"rental_uris":{"android":"levelo://app?vid=d05c6c97-c3ea-47cc-bc4b-d8dbf193e90d","ios":"levelo://app?vid=d05c6c97-c3ea-47cc-bc4b-d8dbf193e90d"},"vehicle_type_id":"4","last_reported":1702386595,"current_range_meters":9200,"station_id":"ce4bhoh2rcd13ifvqh5g","pricing_plan_id":"free"},{"bike_id":"d9b3f594-d52a-4e1e-bac8-bb8f10ddb9c2","system_id":"levelo_inurba_marseille","lat":43.320045,"lon":5.415046,"is_reserved":false,"is_disabled":false,"rental_uris":{"android":"levelo://app?vid=d9b3f594-d52a-4e1e-bac8-bb8f10ddb9c2","ios":"levelo://app?vid=d9b3f594-d52a-4e1e-bac8-bb8f10ddb9c2"},"vehicle_type_id":"4","last_reported":1702386595,"current_range_meters":30800,"station_id":"ce4bhq92rcd13ifvqhkg","pricing_plan_id":"free"},{"bike_id":"bac8b3e5-e12a-48e7-bacf-0b7eb86958bd","system_id":"levelo_inurba_marseille","lat":43.320045,"lon":5.415046,"is_reserved":false,"is_disabled":false,"rental_uris":{"android":"levelo://app?vid=bac8b3e5-e12a-48e7-bacf-0b7eb86958bd","ios":"levelo://app?vid=bac8b3e5-e12a-48e7-bacf-0b7eb86958bd"},"vehicle_type_id":"4","last_reported":1702386595,"current_range_meters":14800,"station_id":"ce4bhq92rcd13ifvqhkg","pricing_plan_id":"free"},{"bike_id":"dafd856d-afd2-420b-b004-e33e4e16b76c","system_id":"levelo_inurba_marseille","lat":43.325243,"lon":5.414326,"is_reserved":false,"is_disabled":false,"rental_uris":{"android":"levelo://app?vid=dafd856d-afd2-420b-b004-e33e4e16b76c","ios":"levelo://app?vid=dafd856d-afd2-420b-b004-e33e4e16b76c"},"vehicle_type_id":"4","last_reported":1702386595,"current_range_meters":25600,"station_id":"ce4bhq12rcd13ifvqhhg","pricing_plan_id":"free"},{"bike_id":"17cd3a9c-0fad-402d-8cbd-62aa49798b4e","system_id":"levelo_inurba_marseille","lat":43.325233,"lon":5.414318,"is_reserved":false,"is_disabled":false,"rental_uris":{"android":"levelo://app?vid=17cd3a9c-0fad-402d-8cbd-62aa49798b4e","ios":"levelo://app?vid=17cd3a9c-0fad-402d-8cbd-62aa49798b4e"},"vehicle_type_id":"4","last_reported":1702386595,"current_range_meters":24800,"station_id":"ce4bhq12rcd13ifvqhhg","pricing_plan_id":"free"},{"bike_id":"73df2aea-f02a-4422-9a82-3c03666153a7","system_id":"levelo_inurba_marseille","lat":43.325243,"lon":5.414326,"is_reserved":false,"is_disabled":false,"rental_uris":{"android":"levelo://app?vid=73df2aea-f02a-4422-9a82-3c03666153a7","ios":"levelo://app?vid=73df2aea-f02a-4422-9a82-3c03666153a7"},"vehicle_type_id":"4","last_reported":1702386595,"current_range_meters":24400,"station_id":"ce4bhq12rcd13ifvqhhg","pricing_plan_id":"free"},{"bike_id":"00ea128a-6f10-440e-b673-95d9a838807d","system_id":"levelo_inurba_marseille","lat":43.280784,"lon":5.396622,"is_reserved":false,"is_disabled":false,"rental_uris":{"android":"levelo://app?vid=00ea128a-6f10-440e-b673-95d9a838807d","ios":"levelo://app?vid=00ea128a-6f10-440e-b673-95d9a838807d"},"vehicle_type_id":"4","last_reported":1702386595,"current_range_meters":26400,"station_id":"ce4bho12rcd13ifvqh2g","pricing_plan_id":"free"},{"bike_id":"7e76737d-e08c-4aef-b9f7-453f056604c5","system_id":"levelo_inurba_marseille","lat":43.303837,"lon":5.418724,"is_reserved":false,"is_disabled":false,"rental_uris":{"android":"levelo://app?vid=7e76737d-e08c-4aef-b9f7-453f056604c5","ios":"levelo://app?vid=7e76737d-e08c-4aef-b9f7-453f056604c5"},"vehicle_type_id":"4","last_reported":1702386595,"current_range_meters":26000,"station_id":"ce4bhop2rcd13ifvqh7g","pricing_plan_id":"free"},{"bike_id":"becf2670-de66-4949-b3b9-7bc854683a65","system_id":"levelo_inurba_marseille","lat":43.303837,"lon":5.418724,"is_reserved":false,"is_disabled":false,"rental_uris":{"android":"levelo://app?vid=becf2670-de66-4949-b3b9-7bc854683a65","ios":"levelo://app?vid=becf2670-de66-4949-b3b9-7bc854683a65"},"vehicle_type_id":"4","last_reported":1702386595,"current_range_meters":24400,"station_id":"ce4bhop2rcd13ifvqh7g","pricing_plan_id":"free"},{"bike_id":"09aa646c-0333-41f9-b615-ac3057dac076","system_id":"levelo_inurba_marseille","lat":43.276769,"lon":5.388787,"is_reserved":false,"is_disabled":false,"rental_uris":{"android":"levelo://app?vid=09aa646c-0333-41f9-b615-ac3057dac076","ios":"levelo://app?vid=09aa646c-0333-41f9-b615-ac3057dac076"},"vehicle_type_id":"4","last_reported":1702386595,"current_range_meters":25600,"station_id":"ce4bhi12rcd13ifvqfo0","pricing_plan_id":"free"},{"bike_id":"5be3d89a-3796-4eda-a28f-531ae0ec7b40","system_id":"levelo_inurba_marseille","lat":43.336148,"lon":5.410349,"is_reserved":false,"is_disabled":false,"rental_uris":{"android":"levelo://app?vid=5be3d89a-3796-4eda-a28f-531ae0ec7b40","ios":"levelo://app?vid=5be3d89a-3796-4eda-a28f-531ae0ec7b40"},"vehicle_type_id":"4","last_reported":1702386595,"current_range_meters":24400,"station_id":"ce4bhqh2rcd13ifvqhmg","pricing_plan_id":"free"},{"bike_id":"8a6bbdb0-3b54-4907-9d1f-91ce3424fe28","system_id":"levelo_inurba_marseille","lat":43.336148,"lon":5.410349,"is_reserved":false,"is_disabled":false,"rental_uris":{"android":"levelo://app?vid=8a6bbdb0-3b54-4907-9d1f-91ce3424fe28","ios":"levelo://app?vid=8a6bbdb0-3b54-4907-9d1f-91ce3424fe28"},"vehicle_type_id":"4","last_reported":1702386595,"current_range_meters":12000,"station_id":"ce4bhqh2rcd13ifvqhmg","pricing_plan_id":"free"},{"bike_id":"cee03f7b-2487-4a47-b8c3-bd6d76487679","system_id":"levelo_inurba_marseille","lat":43.276771,"lon":5.388799,"is_reserved":false,"is_disabled":false,"rental_uris":{"android":"levelo://app?vid=cee03f7b-2487-4a47-b8c3-bd6d76487679","ios":"levelo://app?vid=cee03f7b-2487-4a47-b8c3-bd6d76487679"},"vehicle_type_id":"4","last_reported":1702386595,"current_range_meters":25600,"station_id":"ce4bhi12rcd13ifvqfo0","pricing_plan_id":"free"},{"bike_id":"b1dafd3a-a440-496f-9523-b1636836b00a","system_id":"levelo_inurba_marseille","lat":43.279975,"lon":5.40009,"is_reserved":false,"is_disabled":false,"rental_uris":{"android":"levelo://app?vid=b1dafd3a-a440-496f-9523-b1636836b00a","ios":"levelo://app?vid=b1dafd3a-a440-496f-9523-b1636836b00a"},"vehicle_type_id":"4","last_reported":1702386595,"current_range_meters":26800,"station_id":"ce4bho92rcd13ifvqh4g","pricing_plan_id":"free"},{"bike_id":"b1c028eb-0fe1-4afa-b35c-b9783a0e9537","system_id":"levelo_inurba_marseille","lat":43.31723,"lon":5.42405,"is_reserved":false,"is_disabled":false,"rental_uris":{"android":"levelo://app?vid=b1c028eb-0fe1-4afa-b35c-b9783a0e9537","ios":"levelo://app?vid=b1c028eb-0fe1-4afa-b35c-b9783a0e9537"},"vehicle_type_id":"4","last_reported":1702386595,"current_range_meters":5600,"station_id":"ce4bhp92rcd13ifvqhbg","pricing_plan_id":"free"},{"bike_id":"f24f390c-64e5-4566-a3af-eba244eb14ad","system_id":"levelo_inurba_marseille","lat":43.27314,"lon":5.39073,"is_reserved":false,"is_disabled":false,"rental_uris":{"android":"levelo://app?vid=f24f390c-64e5-4566-a3af-eba244eb14ad","ios":"levelo://app?vid=f24f390c-64e5-4566-a3af-eba244eb14ad"},"vehicle_type_id":"4","last_reported":1702386595,"current_range_meters":0,"station_id":"ce4bhgp2rcd13ifvqfe0","pricing_plan_id":"free"},{"bike_id":"91fd246f-3b3d-4efb-aa0c-9db2d3adce66","system_id":"levelo_inurba_marseille","lat":43.274099,"lon":5.394019,"is_reserved":false,"is_disabled":false,"rental_uris":{"android":"levelo://app?vid=91fd246f-3b3d-4efb-aa0c-9db2d3adce66","ios":"levelo://app?vid=91fd246f-3b3d-4efb-aa0c-9db2d3adce66"},"vehicle_type_id":"4","last_reported":1702386595,"current_range_meters":15200,"station_id":"ce4bhdp2rcd13ifvqf20","pricing_plan_id":"free"},{"bike_id":"a6a97ee4-60a2-498e-a9bd-f8f94d05102d","system_id":"levelo_inurba_marseille","lat":43.274103,"lon":5.394016,"is_reserved":false,"is_disabled":false,"rental_uris":{"android":"levelo://app?vid=a6a97ee4-60a2-498e-a9bd-f8f94d05102d","ios":"levelo://app?vid=a6a97ee4-60a2-498e-a9bd-f8f94d05102d"},"vehicle_type_id":"4","last_reported":1702386595,"current_range_meters":19200,"station_id":"ce4bhdp2rcd13ifvqf20","pricing_plan_id":"free"},{"bike_id":"0c6323e6-7384-4568-aae4-4a35046115db","system_id":"levelo_inurba_marseille","lat":43.274099,"lon":5.394019,"is_reserved":false,"is_disabled":false,"rental_uris":{"android":"levelo://app?vid=0c6323e6-7384-4568-aae4-4a35046115db","ios":"levelo://app?vid=0c6323e6-7384-4568-aae4-4a35046115db"},"vehicle_type_id":"4","last_reported":1702386595,"current_range_meters":27200,"station_id":"ce4bhdp2rcd13ifvqf20","pricing_plan_id":"free"},{"bike_id":"840946d8-d9c9-440b-a8ee-14162bbd15ab","system_id":"levelo_inurba_marseille","lat":43.29553,"lon":5.42276,"is_reserved":false,"is_disabled":false,"rental_uris":{"android":"levelo://app?vid=840946d8-d9c9-440b-a8ee-14162bbd15ab","ios":"levelo://app?vid=840946d8-d9c9-440b-a8ee-14162bbd15ab"},"vehicle_type_id":"4","last_reported":1702386595,"current_range_meters":12800,"station_id":"ce4bhph2rcd13ifvqhdg","pricing_plan_id":"free"},{"bike_id":"dab6bfc2-c9fd-4daa-a622-37368ecfa3b2","system_id":"levelo_inurba_marseille","lat":43.29553,"lon":5.42285,"is_reserved":false,"is_disabled":false,"rental_uris":{"android":"levelo://app?vid=dab6bfc2-c9fd-4daa-a622-37368ecfa3b2","ios":"levelo://app?vid=dab6bfc2-c9fd-4daa-a622-37368ecfa3b2"},"vehicle_type_id":"4","last_reported":1702386595,"current_range_meters":31200,"station_id":"ce4bhph2rcd13ifvqhdg","pricing_plan_id":"free"},{"bike_id":"ad5abd1a-d3e9-4f76-b734-fa6a8b425619","system_id":"levelo_inurba_marseille","lat":43.278128,"lon":5.407195,"is_reserved":false,"is_disabled":false,"rental_uris":{"android":"levelo://app?vid=ad5abd1a-d3e9-4f76-b734-fa6a8b425619","ios":"levelo://app?vid=ad5abd1a-d3e9-4f76-b734-fa6a8b425619"},"vehicle_type_id":"4","last_reported":1702386595,"current_range_meters":17200,"station_id":"ce4bhnh2rcd13ifvqgtg","pricing_plan_id":"free"},{"bike_id":"145fe051-c5b4-4f42-98f8-7d55818101ab","system_id":"levelo_inurba_marseille","lat":43.26681,"lon":5.382694,"is_reserved":false,"is_disabled":false,"rental_uris":{"android":"levelo://app?vid=145fe051-c5b4-4f42-98f8-7d55818101ab","ios":"levelo://app?vid=145fe051-c5b4-4f42-98f8-7d55818101ab"},"vehicle_type_id":"4","last_reported":1702386595,"current_range_meters":3200,"station_id":"ce4bhg92rcd13ifvqf90","pricing_plan_id":"free"},{"bike_id":"14bc19f9-c5ac-4814-b202-5604c65f25d1","system_id":"levelo_inurba_marseille","lat":43.30801,"lon":5.43528,"is_reserved":false,"is_disabled":false,"rental_uris":{"android":"levelo://app?vid=14bc19f9-c5ac-4814-b202-5604c65f25d1","ios":"levelo://app?vid=14bc19f9-c5ac-4814-b202-5604c65f25d1"},"vehicle_type_id":"4","last_reported":1702386595,"current_range_meters":17600,"station_id":"ce4bhph2rcd13ifvqheg","pricing_plan_id":"free"},{"bike_id":"c5dcb1f5-374e-4782-ab55-b8ad7f9e18ae","system_id":"levelo_inurba_marseille","lat":43.26949,"lon":5.40262,"is_reserved":false,"is_disabled":false,"rental_uris":{"android":"levelo://app?vid=c5dcb1f5-374e-4782-ab55-b8ad7f9e18ae","ios":"levelo://app?vid=c5dcb1f5-374e-4782-ab55-b8ad7f9e18ae"},"vehicle_type_id":"4","last_reported":1702386595,"current_range_meters":4400,"station_id":"cjm6bp8fraef2m0cb0m0","pricing_plan_id":"free"},{"bike_id":"7cdbbb2d-0ce3-4adb-a535-fa51749d6018","system_id":"levelo_inurba_marseille","lat":43.278128,"lon":5.407195,"is_reserved":false,"is_disabled":false,"rental_uris":{"android":"levelo://app?vid=7cdbbb2d-0ce3-4adb-a535-fa51749d6018","ios":"levelo://app?vid=7cdbbb2d-0ce3-4adb-a535-fa51749d6018"},"vehicle_type_id":"4","last_reported":1702386595,"current_range_meters":25200,"station_id":"ce4bhnh2rcd13ifvqgtg","pricing_plan_id":"free"},{"bike_id":"4189dd84-2536-4a94-b79a-e6191243c68b","system_id":"levelo_inurba_marseille","lat":43.26184,"lon":5.37441,"is_reserved":false,"is_disabled":false,"rental_uris":{"android":"levelo://app?vid=4189dd84-2536-4a94-b79a-e6191243c68b","ios":"levelo://app?vid=4189dd84-2536-4a94-b79a-e6191243c68b"},"vehicle_type_id":"4","last_reported":1702386595,"current_range_meters":28800,"station_id":"ce4bhgp2rcd13ifvqfc0","pricing_plan_id":"free"},{"bike_id":"66cd7013-3cb1-462e-9146-0b78fa7ec6f3","system_id":"levelo_inurba_marseille","lat":43.271388,"lon":5.409269,"is_reserved":false,"is_disabled":false,"rental_uris":{"android":"levelo://app?vid=66cd7013-3cb1-462e-9146-0b78fa7ec6f3","ios":"levelo://app?vid=66cd7013-3cb1-462e-9146-0b78fa7ec6f3"},"vehicle_type_id":"4","last_reported":1702386595,"current_range_meters":30400,"station_id":"ce4bhl12rcd13ifvqgf0","pricing_plan_id":"free"},{"bike_id":"ed2a037b-9a83-4b16-b573-d588d78bf987","system_id":"levelo_inurba_marseille","lat":43.267959,"lon":5.402687,"is_reserved":false,"is_disabled":false,"rental_uris":{"android":"levelo://app?vid=ed2a037b-9a83-4b16-b573-d588d78bf987","ios":"levelo://app?vid=ed2a037b-9a83-4b16-b573-d588d78bf987"},"vehicle_type_id":"4","last_reported":1702386595,"current_range_meters":26000,"station_id":"ce501612rcd8frsf0b60","pricing_plan_id":"free"},{"bike_id":"8efbbccd-1ee6-4c16-ab5f-cba50a63afbe","system_id":"levelo_inurba_marseille","lat":43.267959,"lon":5.402685,"is_reserved":false,"is_disabled":false,"rental_uris":{"android":"levelo://app?vid=8efbbccd-1ee6-4c16-ab5f-cba50a63afbe","ios":"levelo://app?vid=8efbbccd-1ee6-4c16-ab5f-cba50a63afbe"},"vehicle_type_id":"4","last_reported":1702386595,"current_range_meters":9200,"station_id":"ce501612rcd8frsf0b60","pricing_plan_id":"free"},{"bike_id":"7aff87a6-0602-470f-b435-fe3bba8d34b7","system_id":"levelo_inurba_marseille","lat":43.281548,"lon":5.42643,"is_reserved":false,"is_disabled":false,"rental_uris":{"android":"levelo://app?vid=7aff87a6-0602-470f-b435-fe3bba8d34b7","ios":"levelo://app?vid=7aff87a6-0602-470f-b435-fe3bba8d34b7"},"vehicle_type_id":"4","last_reported":1702386595,"current_range_meters":9200,"station_id":"ce4bhnh2rcd13ifvqgug","pricing_plan_id":"free"},{"bike_id":"3764faf7-beec-4b88-97d8-9ac6b46998c6","system_id":"levelo_inurba_marseille","lat":43.281548,"lon":5.42643,"is_reserved":false,"is_disabled":false,"rental_uris":{"android":"levelo://app?vid=3764faf7-beec-4b88-97d8-9ac6b46998c6","ios":"levelo://app?vid=3764faf7-beec-4b88-97d8-9ac6b46998c6"},"vehicle_type_id":"4","last_reported":1702386595,"current_range_meters":23200,"station_id":"ce4bhnh2rcd13ifvqgug","pricing_plan_id":"free"},{"bike_id":"25ea0f55-673f-4481-b4dd-a166980eb02c","system_id":"levelo_inurba_marseille","lat":43.2607,"lon":5.393983,"is_reserved":false,"is_disabled":false,"rental_uris":{"android":"levelo://app?vid=25ea0f55-673f-4481-b4dd-a166980eb02c","ios":"levelo://app?vid=25ea0f55-673f-4481-b4dd-a166980eb02c"},"vehicle_type_id":"4","last_reported":1702386595,"current_range_meters":17600,"station_id":"ce4bhh92rcd13ifvqfj0","pricing_plan_id":"free"},{"bike_id":"b777530f-7f96-4030-ba5c-5b5b9897b651","system_id":"levelo_inurba_marseille","lat":43.2607,"lon":5.393983,"is_reserved":false,"is_disabled":false,"rental_uris":{"android":"levelo://app?vid=b777530f-7f96-4030-ba5c-5b5b9897b651","ios":"levelo://app?vid=b777530f-7f96-4030-ba5c-5b5b9897b651"},"vehicle_type_id":"4","last_reported":1702386595,"current_range_meters":30800,"station_id":"ce4bhh92rcd13ifvqfj0","pricing_plan_id":"free"},{"bike_id":"84dbfef0-42a1-4277-be16-1ec1de6b268d","system_id":"levelo_inurba_marseille","lat":43.275028,"lon":5.424534,"is_reserved":false,"is_disabled":false,"rental_uris":{"android":"levelo://app?vid=84dbfef0-42a1-4277-be16-1ec1de6b268d","ios":"levelo://app?vid=84dbfef0-42a1-4277-be16-1ec1de6b268d"},"vehicle_type_id":"4","last_reported":1702386595,"current_range_meters":26800,"station_id":"ce4bhn92rcd13ifvqgrg","pricing_plan_id":"free"},{"bike_id":"db27c65a-0704-437a-9123-16bc6886bfa1","system_id":"levelo_inurba_marseille","lat":43.26085,"lon":5.39765,"is_reserved":false,"is_disabled":false,"rental_uris":{"android":"levelo://app?vid=db27c65a-0704-437a-9123-16bc6886bfa1","ios":"levelo://app?vid=db27c65a-0704-437a-9123-16bc6886bfa1"},"vehicle_type_id":"4","last_reported":1702386595,"current_range_meters":11600,"station_id":"","pricing_plan_id":"free"},{"bike_id":"b7b0bf8f-ff51-4506-b3f8-81f654b61a2e","system_id":"levelo_inurba_marseille","lat":43.258658,"lon":5.398935,"is_reserved":false,"is_disabled":false,"rental_uris":{"android":"levelo://app?vid=b7b0bf8f-ff51-4506-b3f8-81f654b61a2e","ios":"levelo://app?vid=b7b0bf8f-ff51-4506-b3f8-81f654b61a2e"},"vehicle_type_id":"4","last_reported":1702386595,"current_range_meters":17600,"station_id":"ce4bhl92rcd13ifvqghg","pricing_plan_id":"free"},{"bike_id":"a44df085-f6e4-4989-a66f-288e8a9298e0","system_id":"levelo_inurba_marseille","lat":43.259009,"lon":5.40929,"is_reserved":false,"is_disabled":false,"rental_uris":{"android":"levelo://app?vid=a44df085-f6e4-4989-a66f-288e8a9298e0","ios":"levelo://app?vid=a44df085-f6e4-4989-a66f-288e8a9298e0"},"vehicle_type_id":"4","last_reported":1702386595,"current_range_meters":14000,"station_id":"ce4bhm92rcd13ifvqglg","pricing_plan_id":"free"},{"bike_id":"b6400bfa-ebb2-4e35-870b-f55b90b8f69f","system_id":"levelo_inurba_marseille","lat":43.257079,"lon":5.411051,"is_reserved":false,"is_disabled":false,"rental_uris":{"android":"levelo://app?vid=b6400bfa-ebb2-4e35-870b-f55b90b8f69f","ios":"levelo://app?vid=b6400bfa-ebb2-4e35-870b-f55b90b8f69f"},"vehicle_type_id":"4","last_reported":1702386595,"current_range_meters":27600,"station_id":"ce4bhkp2rcd13ifvqgd0","pricing_plan_id":"free"},{"bike_id":"ee77dba8-feab-4cb7-a4a5-3a576334ee86","system_id":"levelo_inurba_marseille","lat":43.257079,"lon":5.411051,"is_reserved":false,"is_disabled":false,"rental_uris":{"android":"levelo://app?vid=ee77dba8-feab-4cb7-a4a5-3a576334ee86","ios":"levelo://app?vid=ee77dba8-feab-4cb7-a4a5-3a576334ee86"},"vehicle_type_id":"4","last_reported":1702386595,"current_range_meters":28800,"station_id":"ce4bhkp2rcd13ifvqgd0","pricing_plan_id":"free"},{"bike_id":"48a6c0a2-6f84-4616-89bd-6d9ccd42bf32","system_id":"levelo_inurba_marseille","lat":43.25102,"lon":5.403214,"is_reserved":false,"is_disabled":false,"rental_uris":{"android":"levelo://app?vid=48a6c0a2-6f84-4616-89bd-6d9ccd42bf32","ios":"levelo://app?vid=48a6c0a2-6f84-4616-89bd-6d9ccd42bf32"},"vehicle_type_id":"4","last_reported":1702386595,"current_range_meters":32000,"station_id":"ce4bhlh2rcd13ifvqgig","pricing_plan_id":"free"},{"bike_id":"187ad4da-0721-4c38-b17f-37453e8c9d77","system_id":"levelo_inurba_marseille","lat":43.25102,"lon":5.403214,"is_reserved":false,"is_disabled":false,"rental_uris":{"android":"levelo://app?vid=187ad4da-0721-4c38-b17f-37453e8c9d77","ios":"levelo://app?vid=187ad4da-0721-4c38-b17f-37453e8c9d77"},"vehicle_type_id":"4","last_reported":1702386595,"current_range_meters":23200,"station_id":"ce4bhlh2rcd13ifvqgig","pricing_plan_id":"free"},{"bike_id":"fc6c0962-0a01-4a74-ab67-dcec0c657499","system_id":"levelo_inurba_marseille","lat":43.25102,"lon":5.403214,"is_reserved":false,"is_disabled":false,"rental_uris":{"android":"levelo://app?vid=fc6c0962-0a01-4a74-ab67-dcec0c657499","ios":"levelo://app?vid=fc6c0962-0a01-4a74-ab67-dcec0c657499"},"vehicle_type_id":"4","last_reported":1702386595,"current_range_meters":23200,"station_id":"ce4bhlh2rcd13ifvqgig","pricing_plan_id":"free"},{"bike_id":"771c11bf-114d-4933-a546-0573f5bfab24","system_id":"levelo_inurba_marseille","lat":43.251078,"lon":5.403265,"is_reserved":false,"is_disabled":false,"rental_uris":{"android":"levelo://app?vid=771c11bf-114d-4933-a546-0573f5bfab24","ios":"levelo://app?vid=771c11bf-114d-4933-a546-0573f5bfab24"},"vehicle_type_id":"4","last_reported":1702386595,"current_range_meters":0,"station_id":"ce4bhlh2rcd13ifvqgig","pricing_plan_id":"free"},{"bike_id":"9b1e1ff4-3ddf-47b7-9015-6a2a9f0b0fcb","system_id":"levelo_inurba_marseille","lat":43.25102,"lon":5.403214,"is_reserved":false,"is_disabled":false,"rental_uris":{"android":"levelo://app?vid=9b1e1ff4-3ddf-47b7-9015-6a2a9f0b0fcb","ios":"levelo://app?vid=9b1e1ff4-3ddf-47b7-9015-6a2a9f0b0fcb"},"vehicle_type_id":"4","last_reported":1702386595,"current_range_meters":18000,"station_id":"ce4bhlh2rcd13ifvqgig","pricing_plan_id":"free"},{"bike_id":"31d9638c-3ea5-49d9-ae1f-e4883bd389a1","system_id":"levelo_inurba_marseille","lat":43.245429,"lon":5.373233,"is_reserved":false,"is_disabled":false,"rental_uris":{"android":"levelo://app?vid=31d9638c-3ea5-49d9-ae1f-e4883bd389a1","ios":"levelo://app?vid=31d9638c-3ea5-49d9-ae1f-e4883bd389a1"},"vehicle_type_id":"4","last_reported":1702386595,"current_range_meters":0,"station_id":"","pricing_plan_id":"free"},{"bike_id":"d77bf314-6576-4cf3-8dc4-1c3d12d9a643","system_id":"levelo_inurba_marseille","lat":43.245581,"lon":5.395069,"is_reserved":false,"is_disabled":false,"rental_uris":{"android":"levelo://app?vid=d77bf314-6576-4cf3-8dc4-1c3d12d9a643","ios":"levelo://app?vid=d77bf314-6576-4cf3-8dc4-1c3d12d9a643"},"vehicle_type_id":"4","last_reported":1702386595,"current_range_meters":27200,"station_id":"ce4bhlp2rcd13ifvqgjg","pricing_plan_id":"free"},{"bike_id":"4648c347-5b67-4e99-9246-2e1676e24927","system_id":"levelo_inurba_marseille","lat":43.24074,"lon":5.3776,"is_reserved":false,"is_disabled":false,"rental_uris":{"android":"levelo://app?vid=4648c347-5b67-4e99-9246-2e1676e24927","ios":"levelo://app?vid=4648c347-5b67-4e99-9246-2e1676e24927"},"vehicle_type_id":"4","last_reported":1702386595,"current_range_meters":21200,"station_id":"ce4bhnp2rcd13ifvqgvg","pricing_plan_id":"free"},{"bike_id":"8e2a71fe-379b-43e6-8266-21b5c781f9e9","system_id":"levelo_inurba_marseille","lat":43.24071,"lon":5.37762,"is_reserved":false,"is_disabled":false,"rental_uris":{"android":"levelo://app?vid=8e2a71fe-379b-43e6-8266-21b5c781f9e9","ios":"levelo://app?vid=8e2a71fe-379b-43e6-8266-21b5c781f9e9"},"vehicle_type_id":"4","last_reported":1702386595,"current_range_meters":4800,"station_id":"ce4bhnp2rcd13ifvqgvg","pricing_plan_id":"free"},{"bike_id":"9003ff76-1587-4071-9aaa-276569c658ee","system_id":"levelo_inurba_marseille","lat":43.240623,"lon":5.377642,"is_reserved":false,"is_disabled":false,"rental_uris":{"android":"levelo://app?vid=9003ff76-1587-4071-9aaa-276569c658ee","ios":"levelo://app?vid=9003ff76-1587-4071-9aaa-276569c658ee"},"vehicle_type_id":"4","last_reported":1702386595,"current_range_meters":0,"station_id":"ce4bhnp2rcd13ifvqgvg","pricing_plan_id":"free"},{"bike_id":"e1cd8b35-ef9f-45af-84c2-6e9f6e8fdaa9","system_id":"levelo_inurba_marseille","lat":43.240623,"lon":5.377642,"is_reserved":false,"is_disabled":false,"rental_uris":{"android":"levelo://app?vid=e1cd8b35-ef9f-45af-84c2-6e9f6e8fdaa9","ios":"levelo://app?vid=e1cd8b35-ef9f-45af-84c2-6e9f6e8fdaa9"},"vehicle_type_id":"4","last_reported":1702386595,"current_range_meters":16800,"station_id":"ce4bhnp2rcd13ifvqgvg","pricing_plan_id":"free"},{"bike_id":"730f4865-7bd1-452e-bc6a-8fa100560da6","system_id":"levelo_inurba_marseille","lat":43.240623,"lon":5.377642,"is_reserved":false,"is_disabled":false,"rental_uris":{"android":"levelo://app?vid=730f4865-7bd1-452e-bc6a-8fa100560da6","ios":"levelo://app?vid=730f4865-7bd1-452e-bc6a-8fa100560da6"},"vehicle_type_id":"4","last_reported":1702386595,"current_range_meters":21200,"station_id":"ce4bhnp2rcd13ifvqgvg","pricing_plan_id":"free"},{"bike_id":"90c11212-ba4b-40d6-b1f3-914422388c7d","system_id":"levelo_inurba_marseille","lat":43.24179,"lon":5.39719,"is_reserved":false,"is_disabled":false,"rental_uris":{"android":"levelo://app?vid=90c11212-ba4b-40d6-b1f3-914422388c7d","ios":"levelo://app?vid=90c11212-ba4b-40d6-b1f3-914422388c7d"},"vehicle_type_id":"4","last_reported":1702386595,"current_range_meters":20400,"station_id":"ce4bhn12rcd13ifvqgpg","pricing_plan_id":"free"},{"bike_id":"c2a21afc-580a-420b-89a4-18bcb5b8cc30","system_id":"levelo_inurba_marseille","lat":43.241783,"lon":5.397287,"is_reserved":false,"is_disabled":false,"rental_uris":{"android":"levelo://app?vid=c2a21afc-580a-420b-89a4-18bcb5b8cc30","ios":"levelo://app?vid=c2a21afc-580a-420b-89a4-18bcb5b8cc30"},"vehicle_type_id":"4","last_reported":1702386595,"current_range_meters":18800,"station_id":"ce4bhn12rcd13ifvqgpg","pricing_plan_id":"free"},{"bike_id":"e5f8a3f9-ad33-4c96-8f80-c9bb436ceb1b","system_id":"levelo_inurba_marseille","lat":43.235775,"lon":5.410408,"is_reserved":false,"is_disabled":false,"rental_uris":{"android":"levelo://app?vid=e5f8a3f9-ad33-4c96-8f80-c9bb436ceb1b","ios":"levelo://app?vid=e5f8a3f9-ad33-4c96-8f80-c9bb436ceb1b"},"vehicle_type_id":"4","last_reported":1702386595,"current_range_meters":15600,"station_id":"","pricing_plan_id":"free"},{"bike_id":"883c4713-06e7-4c4b-8a57-36bc2b8e2618","system_id":"levelo_inurba_marseille","lat":43.231794,"lon":5.400052,"is_reserved":false,"is_disabled":false,"rental_uris":{"android":"levelo://app?vid=883c4713-06e7-4c4b-8a57-36bc2b8e2618","ios":"levelo://app?vid=883c4713-06e7-4c4b-8a57-36bc2b8e2618"},"vehicle_type_id":"4","last_reported":1702386595,"current_range_meters":13200,"station_id":"ce4bhn12rcd13ifvqgqg","pricing_plan_id":"free"},{"bike_id":"25c6b94d-cc60-4af1-862f-1923b70fae6a","system_id":"levelo_inurba_marseille","lat":43.231794,"lon":5.400052,"is_reserved":false,"is_disabled":false,"rental_uris":{"android":"levelo://app?vid=25c6b94d-cc60-4af1-862f-1923b70fae6a","ios":"levelo://app?vid=25c6b94d-cc60-4af1-862f-1923b70fae6a"},"vehicle_type_id":"4","last_reported":1702386595,"current_range_meters":24800,"station_id":"ce4bhn12rcd13ifvqgqg","pricing_plan_id":"free"},{"bike_id":"5c5d811b-920e-4dc2-8b5a-a33a7df9bc05","system_id":"levelo_inurba_marseille","lat":43.231562,"lon":5.436933,"is_reserved":false,"is_disabled":false,"rental_uris":{"android":"levelo://app?vid=5c5d811b-920e-4dc2-8b5a-a33a7df9bc05","ios":"levelo://app?vid=5c5d811b-920e-4dc2-8b5a-a33a7df9bc05"},"vehicle_type_id":"4","last_reported":1702386595,"current_range_meters":31600,"station_id":"ce4bhmp2rcd13ifvqgog","pricing_plan_id":"free"},{"bike_id":"5b1e43e1-157b-41db-80f1-c39aaeb1c62f","system_id":"levelo_inurba_marseille","lat":43.231562,"lon":5.436933,"is_reserved":false,"is_disabled":false,"rental_uris":{"android":"levelo://app?vid=5b1e43e1-157b-41db-80f1-c39aaeb1c62f","ios":"levelo://app?vid=5b1e43e1-157b-41db-80f1-c39aaeb1c62f"},"vehicle_type_id":"4","last_reported":1702386595,"current_range_meters":10000,"station_id":"ce4bhmp2rcd13ifvqgog","pricing_plan_id":"free"},{"bike_id":"b98a457e-cf5f-41f0-830e-89a07a2fd902","system_id":"levelo_inurba_marseille","lat":43.231562,"lon":5.436933,"is_reserved":false,"is_disabled":false,"rental_uris":{"android":"levelo://app?vid=b98a457e-cf5f-41f0-830e-89a07a2fd902","ios":"levelo://app?vid=b98a457e-cf5f-41f0-830e-89a07a2fd902"},"vehicle_type_id":"4","last_reported":1702386595,"current_range_meters":31600,"station_id":"ce4bhmp2rcd13ifvqgog","pricing_plan_id":"free"},{"bike_id":"b1e3cd70-38f8-4d10-854a-5c0a5d45a7ae","system_id":"levelo_inurba_marseille","lat":43.231511,"lon":5.437176,"is_reserved":false,"is_disabled":false,"rental_uris":{"android":"levelo://app?vid=b1e3cd70-38f8-4d10-854a-5c0a5d45a7ae","ios":"levelo://app?vid=b1e3cd70-38f8-4d10-854a-5c0a5d45a7ae"},"vehicle_type_id":"4","last_reported":1702386595,"current_range_meters":4800,"station_id":"ce4bhmp2rcd13ifvqgog","pricing_plan_id":"free"},{"bike_id":"050ca741-a095-4207-9c5a-c630bb160957","system_id":"levelo_inurba_marseille","lat":43.231467,"lon":5.43718,"is_reserved":false,"is_disabled":false,"rental_uris":{"android":"levelo://app?vid=050ca741-a095-4207-9c5a-c630bb160957","ios":"levelo://app?vid=050ca741-a095-4207-9c5a-c630bb160957"},"vehicle_type_id":"4","last_reported":1702386595,"current_range_meters":14800,"station_id":"ce4bhmp2rcd13ifvqgog","pricing_plan_id":"free"}]}}