{"last_updated":1758010491,"ttl":60,"version":"2.2","data":{"bikes":[{"bike_id":"8c6edc61-4369-4474-81fd-5bf289c1c5b8","system_id":"levelo_inurba_marseille","lat":43.26213,"lon":5.37447,"is_reserved":false,"is_disabled":false,"rental_uris":{"android":"levelo://app?vid=8c6edc61-4369-4474-81fd-5bf289c1c5b8","ios":"levelo://app?vid=8c6edc61-4369-4474-81fd-5bf289c1c5b8"},"vehicle_type_id":"4","last_reported":1758010491,"current_range_meters":2800,"station_id":"ce4bhgp2rcd13ifvqfc0","pricing_plan_id":"cebpf4jnsgd1na2vs0mg"},{"bike_id":"237698c3-f7a7-4aa0-a898-7a0e8095f7be","system_id":"levelo_inurba_marseille","lat":43.30683,"lon":5.37457,"is_reserved":false,"is_disabled":false,"rental_uris":{"android":"levelo://app?vid=237698c3-f7a7-4aa0-a898-7a0e8095f7be","ios":"levelo://app?vid=237698c3-f7a7-4aa0-a898-7a0e8095f7be"},"vehicle_type_id":"4","last_reported":1758010491,"current_range_meters":2800,"station_id":"","pricing_plan_id":"cebpf4jnsgd1na2vs0mg"},{"bike_id":"c5cba6d7-e282-4417-a818-5fc0802dcb08","system_id":"levelo_inurba_marseille","lat":43.33761,"lon":5.3745,"is_reserved":false,"is_disabled":false,"rental_uris":{"android":"levelo://app?vid=c5cba6d7-e282-4417-a818-5fc0802dcb08","ios":"levelo://app?vid=c5cba6d7-e282-4417-a818-5fc0802dcb08"},"vehicle_type_id":"4","last_reported":1758010491,"current_range_meters":2800,"station_id":"","pricing_plan_id":"cebpf4jnsgd1na2vs0mg"},{"bike_id":"eca8c0c2-7ee8-42a7-b46d-7b18acbea21a","system_id":"levelo_inurba_marseille","lat":43.293028,"lon":5.374639,"is_reserved":false,"is_disabled":false,"rental_uris":{"android":"levelo://app?vid=eca8c0c2-7ee8-42a7-b46d-7b18acbea21a","ios":"levelo://app?vid=eca8c0c2-7ee8-42a7-b46d-7b18acbea21a"},"vehicle_type_id":"4","last_reported":1758010491,"current_range_meters":2800,"station_id":"ce4bgi12rcd13ifvqb70","pricing_plan_id":"cebpf4jnsgd1na2vs0mg"},{"bike_id":"c3873f9b-875f-42c6-b611-64b57b2edef5","system_id":"levelo_inurba_marseille","lat":43.2398,"lon":5.36614,"is_reserved":false,"is_disabled":false,"rental_uris":{"android":"levelo://app?vid=c3873f9b-875f-42c6-b611-64b57b2edef5","ios":"levelo://app?vid=c3873f9b-875f-42c6-b611-64b57b2edef5"},"vehicle_type_id":"4","last_reported":1758010491,"current_range_meters":2800,"station_id":"ce4bhi12rcd13ifvqfp0","pricing_plan_id":"cebpf4jnsgd1na2vs0mg"},{"bike_id":"d765e876-dc94-417e-ad8c-0ac49bf5261a","system_id":"levelo_inurba_marseille","lat":43.33472,"lon":5.36116,"is_reserved":false,"is_disabled":false,"rental_uris":{"android":"levelo://app?vid=d765e876-dc94-417e-ad8c-0ac49bf5261a","ios":"levelo://app?vid=d765e876-dc94-417e-ad8c-0ac49bf5261a"},"vehicle_type_id":"4","last_reported":1758010491,"current_range_meters":3200,"station_id":"","pricing_plan_id":"cebpf4jnsgd1na2vs0mg"},{"bike_id":"d9c11a94-d122-4240-b95b-24fdee8810ac","system_id":"levelo_inurba_marseille","lat":43.28272,"lon":5.3992,"is_reserved":false,"is_disabled":false,"rental_uris":{"android":"levelo://app?vid=d9c11a94-d122-4240-b95b-24fdee8810ac","ios":"levelo://app?vid=d9c11a94-d122-4240-b95b-24fdee8810ac"},"vehicle_type_id":"4","last_reported":1758010491,"current_range_meters":3200,"station_id":"","pricing_plan_id":"cebpf4jnsgd1na2vs0mg"},{"bike_id":"d5cb70be-4baf-4968-a529-32aebcb0942c","system_id":"levelo_inurba_marseille","lat":43.30333,"lon":5.3787,"is_reserved":false,"is_disabled":false,"rental_uris":{"android":"levelo://app?vid=d5cb70be-4baf-4968-a529-32aebcb0942c","ios":"levelo://app?vid=d5cb70be-4baf-4968-a529-32aebcb0942c"},"vehicle_type_id":"4","last_reported":1758010491,"current_range_meters":3200,"station_id":"","pricing_plan_id":"cebpf4jnsgd1na2vs0mg"},{"bike_id":"8034a4e3-5124-4f26-ad77-aeee342e4627","system_id":"levelo_inurba_marseille","lat":43.27917,"lon":5.38003,"is_reserved":false,"is_disabled":false,"rental_uris":{"android":"levelo://app?vid=8034a4e3-5124-4f26-ad77-aeee342e4627","ios":"levelo://app?vid=8034a4e3-5124-4f26-ad77-aeee342e4627"},"vehicle_type_id":"4","last_reported":1758010491,"current_range_meters":3200,"station_id":"ce4bhf92rcd13ifvqf50","pricing_plan_id":"cebpf4jnsgd1na2vs0mg"},{"bike_id":"dd4ef14c-9237-4d14-ba49-08d576168196","system_id":"levelo_inurba_marseille","lat":43.309312,"lon":5.40138,"is_reserved":false,"is_disabled":false,"rental_uris":{"android":"levelo://app?vid=dd4ef14c-9237-4d14-ba49-08d576168196","ios":"levelo://app?vid=dd4ef14c-9237-4d14-ba49-08d576168196"},"vehicle_type_id":"4","last_reported":1758010491,"current_range_meters":3600,"station_id":"ce4bgvp2rcd13ifvqct0","pricing_plan_id":"cebpf4jnsgd1na2vs0mg"},{"bike_id":"06f4b521-23d2-4f8f-b92c-b064dfb424ee","system_id":"levelo_inurba_marseille","lat":43.24547,"lon":5.39522,"is_reserved":false,"is_disabled":false,"rental_uris":{"android":"levelo://app?vid=06f4b521-23d2-4f8f-b92c-b064dfb424ee","ios":"levelo://app?vid=06f4b521-23d2-4f8f-b92c-b064dfb424ee"},"vehicle_type_id":"4","last_reported":1758010491,"current_range_meters":3600,"station_id":"ce4bhlp2rcd13ifvqgjg","pricing_plan_id":"cebpf4jnsgd1na2vs0mg"},{"bike_id":"4f9bd625-ea72-423e-9234-f59f397dfa3c","system_id":"levelo_inurba_marseille","lat":43.21185,"lon":5.35078,"is_reserved":false,"is_disabled":false,"rental_uris":{"android":"levelo://app?vid=4f9bd625-ea72-423e-9234-f59f397dfa3c","ios":"levelo://app?vid=4f9bd625-ea72-423e-9234-f59f397dfa3c"},"vehicle_type_id":"4","last_reported":1758010491,"current_range_meters":3600,"station_id":"st_cvj6sg6p6f1abm77japg","pricing_plan_id":"cebpf4jnsgd1na2vs0mg"},{"bike_id":"3762d017-c654-4eeb-9e20-32b806dd3fdd","system_id":"levelo_inurba_marseille","lat":43.30782,"lon":5.37634,"is_reserved":false,"is_disabled":false,"rental_uris":{"android":"levelo://app?vid=3762d017-c654-4eeb-9e20-32b806dd3fdd","ios":"levelo://app?vid=3762d017-c654-4eeb-9e20-32b806dd3fdd"},"vehicle_type_id":"4","last_reported":1758010491,"current_range_meters":3600,"station_id":"ce4bgv92rcd13ifvqcq0","pricing_plan_id":"cebpf4jnsgd1na2vs0mg"},{"bike_id":"92328f20-9c61-4621-aefd-c280af7d31a0","system_id":"levelo_inurba_marseille","lat":43.28879,"lon":5.42528,"is_reserved":false,"is_disabled":false,"rental_uris":{"android":"levelo://app?vid=92328f20-9c61-4621-aefd-c280af7d31a0","ios":"levelo://app?vid=92328f20-9c61-4621-aefd-c280af7d31a0"},"vehicle_type_id":"4","last_reported":1758010491,"current_range_meters":3600,"station_id":"","pricing_plan_id":"cebpf4jnsgd1na2vs0mg"},{"bike_id":"f6397c54-f940-43a2-9e4f-4d75b77ea2a2","system_id":"levelo_inurba_marseille","lat":43.24185,"lon":5.39737,"is_reserved":false,"is_disabled":false,"rental_uris":{"android":"levelo://app?vid=f6397c54-f940-43a2-9e4f-4d75b77ea2a2","ios":"levelo://app?vid=f6397c54-f940-43a2-9e4f-4d75b77ea2a2"},"vehicle_type_id":"4","last_reported":1758010491,"current_range_meters":3600,"station_id":"ce4bhn12rcd13ifvqgpg","pricing_plan_id":"cebpf4jnsgd1na2vs0mg"},{"bike_id":"d7fb70ba-29a6-4f9a-a6e2-f0bfddbea202","system_id":"levelo_inurba_marseille","lat":43.313077,"lon":5.397045,"is_reserved":false,"is_disabled":false,"rental_uris":{"android":"levelo://app?vid=d7fb70ba-29a6-4f9a-a6e2-f0bfddbea202","ios":"levelo://app?vid=d7fb70ba-29a6-4f9a-a6e2-f0bfddbea202"},"vehicle_type_id":"4","last_reported":1758010491,"current_range_meters":4000,"station_id":"ce4bgvp2rcd13ifvqcu0","pricing_plan_id":"cebpf4jnsgd1na2vs0mg"},{"bike_id":"c37a9de9-57a5-4304-8d94-c8d41625362f","system_id":"levelo_inurba_marseille","lat":43.28261,"lon":5.35064,"is_reserved":false,"is_disabled":false,"rental_uris":{"android":"levelo://app?vid=c37a9de9-57a5-4304-8d94-c8d41625362f","ios":"levelo://app?vid=c37a9de9-57a5-4304-8d94-c8d41625362f"},"vehicle_type_id":"4","last_reported":1758010491,"current_range_meters":5600,"station_id":"ce4bhbp2rcd13ifvqerg","pricing_plan_id":"cebpf4jnsgd1na2vs0mg"},{"bike_id":"b4f16b75-e015-47f8-907a-09fef4bf042c","system_id":"levelo_inurba_marseille","lat":43.2891,"lon":5.38396,"is_reserved":false,"is_disabled":false,"rental_uris":{"android":"levelo://app?vid=b4f16b75-e015-47f8-907a-09fef4bf042c","ios":"levelo://app?vid=b4f16b75-e015-47f8-907a-09fef4bf042c"},"vehicle_type_id":"4","last_reported":1758010491,"current_range_meters":4400,"station_id":"ce4bh612rcd13ifvqe6g","pricing_plan_id":"cebpf4jnsgd1na2vs0mg"},{"bike_id":"d232092e-5745-4845-8280-314410ccb41f","system_id":"levelo_inurba_marseille","lat":43.32027,"lon":5.41608,"is_reserved":false,"is_disabled":false,"rental_uris":{"android":"levelo://app?vid=d232092e-5745-4845-8280-314410ccb41f","ios":"levelo://app?vid=d232092e-5745-4845-8280-314410ccb41f"},"vehicle_type_id":"4","last_reported":1758010491,"current_range_meters":4400,"station_id":"ce4bhq92rcd13ifvqhkg","pricing_plan_id":"cebpf4jnsgd1na2vs0mg"},{"bike_id":"c37933c6-f301-4e72-ae28-b86236887c46","system_id":"levelo_inurba_marseille","lat":43.225329,"lon":5.348362,"is_reserved":false,"is_disabled":false,"rental_uris":{"android":"levelo://app?vid=c37933c6-f301-4e72-ae28-b86236887c46","ios":"levelo://app?vid=c37933c6-f301-4e72-ae28-b86236887c46"},"vehicle_type_id":"4","last_reported":1758010491,"current_range_meters":4400,"station_id":"","pricing_plan_id":"cebpf4jnsgd1na2vs0mg"},{"bike_id":"a514e236-92bd-43f3-b049-c58184d08ef3","system_id":"levelo_inurba_marseille","lat":43.26676,"lon":5.38267,"is_reserved":false,"is_disabled":false,"rental_uris":{"android":"levelo://app?vid=a514e236-92bd-43f3-b049-c58184d08ef3","ios":"levelo://app?vid=a514e236-92bd-43f3-b049-c58184d08ef3"},"vehicle_type_id":"4","last_reported":1758010491,"current_range_meters":4800,"station_id":"ce4bhg92rcd13ifvqf90","pricing_plan_id":"cebpf4jnsgd1na2vs0mg"},{"bike_id":"4ec115f7-70e2-44a0-950b-cc56db458600","system_id":"levelo_inurba_marseille","lat":43.21741,"lon":5.34619,"is_reserved":false,"is_disabled":true,"rental_uris":{"android":"levelo://app?vid=4ec115f7-70e2-44a0-950b-cc56db458600","ios":"levelo://app?vid=4ec115f7-70e2-44a0-950b-cc56db458600"},"vehicle_type_id":"4","last_reported":1758010491,"current_range_meters":4800,"station_id":"st_cvj6r9ubvosntc0bgbag","pricing_plan_id":"cebpf4jnsgd1na2vs0mg"},{"bike_id":"6b5b3c8e-1efc-443e-8d65-f1b5bb18a3da","system_id":"levelo_inurba_marseille","lat":43.26845,"lon":5.39609,"is_reserved":false,"is_disabled":false,"rental_uris":{"android":"levelo://app?vid=6b5b3c8e-1efc-443e-8d65-f1b5bb18a3da","ios":"levelo://app?vid=6b5b3c8e-1efc-443e-8d65-f1b5bb18a3da"},"vehicle_type_id":"4","last_reported":1758010491,"current_range_meters":4800,"station_id":"","pricing_plan_id":"cebpf4jnsgd1na2vs0mg"},{"bike_id":"b982f00c-34a9-4ed3-b17f-5c48d0cb70b9","system_id":"levelo_inurba_marseille","lat":43.23674,"lon":5.36062,"is_reserved":false,"is_disabled":false,"rental_uris":{"android":"levelo://app?vid=b982f00c-34a9-4ed3-b17f-5c48d0cb70b9","ios":"levelo://app?vid=b982f00c-34a9-4ed3-b17f-5c48d0cb70b9"},"vehicle_type_id":"4","last_reported":1758010491,"current_range_meters":4800,"station_id":"","pricing_plan_id":"cebpf4jnsgd1na2vs0mg"},{"bike_id":"3e16e80b-f8e1-4229-9776-3defd3dec530","system_id":"levelo_inurba_marseille","lat":43.23153,"lon":5.43708,"is_reserved":false,"is_disabled":false,"rental_uris":{"android":"levelo://app?vid=3e16e80b-f8e1-4229-9776-3defd3dec530","ios":"levelo://app?vid=3e16e80b-f8e1-4229-9776-3defd3dec530"},"vehicle_type_id":"4","last_reported":1758010491,"current_range_meters":5600,"station_id":"ce4bhmp2rcd13ifvqgog","pricing_plan_id":"cebpf4jnsgd1na2vs0mg"},{"bike_id":"3bd79661-6def-43c8-b210-869fd67a5981","system_id":"levelo_inurba_marseille","lat":43.30906,"lon":5.36853,"is_reserved":false,"is_disabled":false,"rental_uris":{"android":"levelo://app?vid=3bd79661-6def-43c8-b210-869fd67a5981","ios":"levelo://app?vid=3bd79661-6def-43c8-b210-869fd67a5981"},"vehicle_type_id":"4","last_reported":1758010491,"current_range_meters":5600,"station_id":"ce4bgn92rcd13ifvqbvg","pricing_plan_id":"cebpf4jnsgd1na2vs0mg"},{"bike_id":"233724f0-3529-4cc4-b935-d7b653520717","system_id":"levelo_inurba_marseille","lat":43.31168,"lon":5.36843,"is_reserved":false,"is_disabled":false,"rental_uris":{"android":"levelo://app?vid=233724f0-3529-4cc4-b935-d7b653520717","ios":"levelo://app?vid=233724f0-3529-4cc4-b935-d7b653520717"},"vehicle_type_id":"4","last_reported":1758010491,"current_range_meters":5600,"station_id":"","pricing_plan_id":"cebpf4jnsgd1na2vs0mg"},{"bike_id":"aa91dd1f-0396-4a43-aa36-e3a577181865","system_id":"levelo_inurba_marseille","lat":43.286735,"lon":5.386801,"is_reserved":false,"is_disabled":false,"rental_uris":{"android":"levelo://app?vid=aa91dd1f-0396-4a43-aa36-e3a577181865","ios":"levelo://app?vid=aa91dd1f-0396-4a43-aa36-e3a577181865"},"vehicle_type_id":"4","last_reported":1758010491,"current_range_meters":5600,"station_id":"","pricing_plan_id":"cebpf4jnsgd1na2vs0mg"},{"bike_id":"72c7f329-f626-4008-99ad-77a87a4a73c6","system_id":"levelo_inurba_marseille","lat":43.2844,"lon":5.39204,"is_reserved":false,"is_disabled":false,"rental_uris":{"android":"levelo://app?vid=72c7f329-f626-4008-99ad-77a87a4a73c6","ios":"levelo://app?vid=72c7f329-f626-4008-99ad-77a87a4a73c6"},"vehicle_type_id":"4","last_reported":1758010491,"current_range_meters":6000,"station_id":"ce4bhoh2rcd13ifvqh5g","pricing_plan_id":"cebpf4jnsgd1na2vs0mg"},{"bike_id":"b31ef4f7-cc51-4221-bfe2-5f970524622c","system_id":"levelo_inurba_marseille","lat":43.29285,"lon":5.3744,"is_reserved":false,"is_disabled":false,"rental_uris":{"android":"levelo://app?vid=b31ef4f7-cc51-4221-bfe2-5f970524622c","ios":"levelo://app?vid=b31ef4f7-cc51-4221-bfe2-5f970524622c"},"vehicle_type_id":"4","last_reported":1758010491,"current_range_meters":6000,"station_id":"ce4bgi12rcd13ifvqb70","pricing_plan_id":"cebpf4jnsgd1na2vs0mg"},{"bike_id":"1f552e3b-76be-49c0-b9da-cc0057aba0f2","system_id":"levelo_inurba_marseille","lat":43.29895,"lon":5.400663,"is_reserved":false,"is_disabled":false,"rental_uris":{"android":"levelo://app?vid=1f552e3b-76be-49c0-b9da-cc0057aba0f2","ios":"levelo://app?vid=1f552e3b-76be-49c0-b9da-cc0057aba0f2"},"vehicle_type_id":"4","last_reported":1758010491,"current_range_meters":6400,"station_id":"","pricing_plan_id":"cebpf4jnsgd1na2vs0mg"},{"bike_id":"dd32f779-e928-424d-999f-b730cf475fa7","system_id":"levelo_inurba_marseille","lat":43.22399,"lon":5.34657,"is_reserved":false,"is_disabled":false,"rental_uris":{"android":"levelo://app?vid=dd32f779-e928-424d-999f-b730cf475fa7","ios":"levelo://app?vid=dd32f779-e928-424d-999f-b730cf475fa7"},"vehicle_type_id":"4","last_reported":1758010491,"current_range_meters":6400,"station_id":"","pricing_plan_id":"cebpf4jnsgd1na2vs0mg"},{"bike_id":"163b7f00-73bf-42b8-b89b-a65f635bebbf","system_id":"levelo_inurba_marseille","lat":43.31338,"lon":5.36731,"is_reserved":false,"is_disabled":false,"rental_uris":{"android":"levelo://app?vid=163b7f00-73bf-42b8-b89b-a65f635bebbf","ios":"levelo://app?vid=163b7f00-73bf-42b8-b89b-a65f635bebbf"},"vehicle_type_id":"4","last_reported":1758010491,"current_range_meters":6400,"station_id":"ce4bgr92rcd13ifvqc6g","pricing_plan_id":"cebpf4jnsgd1na2vs0mg"},{"bike_id":"1199e93e-b6b6-4f8f-9f6b-25ccc51e0740","system_id":"levelo_inurba_marseille","lat":43.29166,"lon":5.37149,"is_reserved":false,"is_disabled":false,"rental_uris":{"android":"levelo://app?vid=1199e93e-b6b6-4f8f-9f6b-25ccc51e0740","ios":"levelo://app?vid=1199e93e-b6b6-4f8f-9f6b-25ccc51e0740"},"vehicle_type_id":"4","last_reported":1758010491,"current_range_meters":6400,"station_id":"ce4bha92rcd13ifvqeh0","pricing_plan_id":"cebpf4jnsgd1na2vs0mg"},{"bike_id":"337984be-6b49-4c11-94ae-6aa515cdd390","system_id":"levelo_inurba_marseille","lat":43.31209,"lon":5.36892,"is_reserved":false,"is_disabled":false,"rental_uris":{"android":"levelo://app?vid=337984be-6b49-4c11-94ae-6aa515cdd390","ios":"levelo://app?vid=337984be-6b49-4c11-94ae-6aa515cdd390"},"vehicle_type_id":"4","last_reported":1758010491,"current_range_meters":6400,"station_id":"ce4bgl92rcd13ifvqbq0","pricing_plan_id":"cebpf4jnsgd1na2vs0mg"},{"bike_id":"6dc23433-ce91-44a5-95f0-61abbafba06e","system_id":"levelo_inurba_marseille","lat":43.26946,"lon":5.38627,"is_reserved":false,"is_disabled":false,"rental_uris":{"android":"levelo://app?vid=6dc23433-ce91-44a5-95f0-61abbafba06e","ios":"levelo://app?vid=6dc23433-ce91-44a5-95f0-61abbafba06e"},"vehicle_type_id":"4","last_reported":1758010491,"current_range_meters":6400,"station_id":"ce4bhh92rcd13ifvqfh0","pricing_plan_id":"cebpf4jnsgd1na2vs0mg"},{"bike_id":"0c0f9cf9-f38d-4888-927b-2906777e1c42","system_id":"levelo_inurba_marseille","lat":43.304657,"lon":5.379103,"is_reserved":false,"is_disabled":false,"rental_uris":{"android":"levelo://app?vid=0c0f9cf9-f38d-4888-927b-2906777e1c42","ios":"levelo://app?vid=0c0f9cf9-f38d-4888-927b-2906777e1c42"},"vehicle_type_id":"4","last_reported":1758010491,"current_range_meters":3600,"station_id":"ce4bgup2rcd13ifvqcn0","pricing_plan_id":"cebpf4jnsgd1na2vs0mg"},{"bike_id":"f7aa9a31-787b-49c8-ba12-3795acca0801","system_id":"levelo_inurba_marseille","lat":43.30559,"lon":5.36549,"is_reserved":false,"is_disabled":false,"rental_uris":{"android":"levelo://app?vid=f7aa9a31-787b-49c8-ba12-3795acca0801","ios":"levelo://app?vid=f7aa9a31-787b-49c8-ba12-3795acca0801"},"vehicle_type_id":"4","last_reported":1758010491,"current_range_meters":6400,"station_id":"ce4bgs12rcd13ifvqcag","pricing_plan_id":"cebpf4jnsgd1na2vs0mg"},{"bike_id":"0589168a-e350-4bb0-ab6e-56c1c7021f1c","system_id":"levelo_inurba_marseille","lat":43.24158,"lon":5.36405,"is_reserved":false,"is_disabled":false,"rental_uris":{"android":"levelo://app?vid=0589168a-e350-4bb0-ab6e-56c1c7021f1c","ios":"levelo://app?vid=0589168a-e350-4bb0-ab6e-56c1c7021f1c"},"vehicle_type_id":"4","last_reported":1758010491,"current_range_meters":6400,"station_id":"cpo36qri1sfpv3e86is0","pricing_plan_id":"cebpf4jnsgd1na2vs0mg"},{"bike_id":"c67839b2-8a12-4853-93a5-1d339c4de9ce","system_id":"levelo_inurba_marseille","lat":43.2929,"lon":5.37461,"is_reserved":false,"is_disabled":false,"rental_uris":{"android":"levelo://app?vid=c67839b2-8a12-4853-93a5-1d339c4de9ce","ios":"levelo://app?vid=c67839b2-8a12-4853-93a5-1d339c4de9ce"},"vehicle_type_id":"4","last_reported":1758010491,"current_range_meters":6800,"station_id":"ce4bgi12rcd13ifvqb70","pricing_plan_id":"cebpf4jnsgd1na2vs0mg"},{"bike_id":"5821873a-b673-4119-b429-af9f66fdb533","system_id":"levelo_inurba_marseille","lat":43.27497,"lon":5.42458,"is_reserved":false,"is_disabled":false,"rental_uris":{"android":"levelo://app?vid=5821873a-b673-4119-b429-af9f66fdb533","ios":"levelo://app?vid=5821873a-b673-4119-b429-af9f66fdb533"},"vehicle_type_id":"4","last_reported":1758010491,"current_range_meters":6800,"station_id":"ce4bhn92rcd13ifvqgrg","pricing_plan_id":"cebpf4jnsgd1na2vs0mg"},{"bike_id":"8b039246-2e65-4a7a-99a8-14120e879062","system_id":"levelo_inurba_marseille","lat":43.255022,"lon":5.376501,"is_reserved":false,"is_disabled":false,"rental_uris":{"android":"levelo://app?vid=8b039246-2e65-4a7a-99a8-14120e879062","ios":"levelo://app?vid=8b039246-2e65-4a7a-99a8-14120e879062"},"vehicle_type_id":"4","last_reported":1758010491,"current_range_meters":6800,"station_id":"ce4bhh12rcd13ifvqff0","pricing_plan_id":"cebpf4jnsgd1na2vs0mg"},{"bike_id":"cbe7e003-0b84-462d-9869-5f1ffd170daf","system_id":"levelo_inurba_marseille","lat":43.2917,"lon":5.37153,"is_reserved":false,"is_disabled":false,"rental_uris":{"android":"levelo://app?vid=cbe7e003-0b84-462d-9869-5f1ffd170daf","ios":"levelo://app?vid=cbe7e003-0b84-462d-9869-5f1ffd170daf"},"vehicle_type_id":"4","last_reported":1758010491,"current_range_meters":6800,"station_id":"ce4bha92rcd13ifvqeh0","pricing_plan_id":"cebpf4jnsgd1na2vs0mg"},{"bike_id":"12d09ce9-4ba9-4afa-b904-3e7dbc5885cd","system_id":"levelo_inurba_marseille","lat":43.26976,"lon":5.38686,"is_reserved":false,"is_disabled":false,"rental_uris":{"android":"levelo://app?vid=12d09ce9-4ba9-4afa-b904-3e7dbc5885cd","ios":"levelo://app?vid=12d09ce9-4ba9-4afa-b904-3e7dbc5885cd"},"vehicle_type_id":"4","last_reported":1758010491,"current_range_meters":6800,"station_id":"ce4bhh92rcd13ifvqfh0","pricing_plan_id":"cebpf4jnsgd1na2vs0mg"},{"bike_id":"cecb3a3c-3405-4cf9-b723-ded0124d082a","system_id":"levelo_inurba_marseille","lat":43.294723,"lon":5.401025,"is_reserved":false,"is_disabled":false,"rental_uris":{"android":"levelo://app?vid=cecb3a3c-3405-4cf9-b723-ded0124d082a","ios":"levelo://app?vid=cecb3a3c-3405-4cf9-b723-ded0124d082a"},"vehicle_type_id":"4","last_reported":1758010491,"current_range_meters":6800,"station_id":"ce4bgup2rcd13ifvqco0","pricing_plan_id":"cebpf4jnsgd1na2vs0mg"},{"bike_id":"63b6198c-0c56-45c4-9aa8-083c3b20df3f","system_id":"levelo_inurba_marseille","lat":43.33607,"lon":5.41027,"is_reserved":false,"is_disabled":false,"rental_uris":{"android":"levelo://app?vid=63b6198c-0c56-45c4-9aa8-083c3b20df3f","ios":"levelo://app?vid=63b6198c-0c56-45c4-9aa8-083c3b20df3f"},"vehicle_type_id":"4","last_reported":1758010491,"current_range_meters":6800,"station_id":"ce4bhqh2rcd13ifvqhmg","pricing_plan_id":"cebpf4jnsgd1na2vs0mg"},{"bike_id":"c8ebc05b-3866-4d13-bef2-bb091998e1a6","system_id":"levelo_inurba_marseille","lat":43.28266,"lon":5.35061,"is_reserved":false,"is_disabled":false,"rental_uris":{"android":"levelo://app?vid=c8ebc05b-3866-4d13-bef2-bb091998e1a6","ios":"levelo://app?vid=c8ebc05b-3866-4d13-bef2-bb091998e1a6"},"vehicle_type_id":"4","last_reported":1758010491,"current_range_meters":7200,"station_id":"ce4bhbp2rcd13ifvqerg","pricing_plan_id":"cebpf4jnsgd1na2vs0mg"},{"bike_id":"4482840c-49cc-416d-9bb6-7b4918a7f00d","system_id":"levelo_inurba_marseille","lat":43.29262,"lon":5.3844,"is_reserved":false,"is_disabled":false,"rental_uris":{"android":"levelo://app?vid=4482840c-49cc-416d-9bb6-7b4918a7f00d","ios":"levelo://app?vid=4482840c-49cc-416d-9bb6-7b4918a7f00d"},"vehicle_type_id":"4","last_reported":1758010491,"current_range_meters":7200,"station_id":"ce4bh692rcd13ifvqea0","pricing_plan_id":"cebpf4jnsgd1na2vs0mg"},{"bike_id":"e55ae905-9410-44da-8e6c-dadab4fedc17","system_id":"levelo_inurba_marseille","lat":43.225334,"lon":5.348372,"is_reserved":false,"is_disabled":false,"rental_uris":{"android":"levelo://app?vid=e55ae905-9410-44da-8e6c-dadab4fedc17","ios":"levelo://app?vid=e55ae905-9410-44da-8e6c-dadab4fedc17"},"vehicle_type_id":"4","last_reported":1758010491,"current_range_meters":7200,"station_id":"","pricing_plan_id":"cebpf4jnsgd1na2vs0mg"},{"bike_id":"6a5b25e4-e40c-4a9c-8221-f110cf7f8c33","system_id":"levelo_inurba_marseille","lat":43.28413,"lon":5.37516,"is_reserved":false,"is_disabled":false,"rental_uris":{"android":"levelo://app?vid=6a5b25e4-e40c-4a9c-8221-f110cf7f8c33","ios":"levelo://app?vid=6a5b25e4-e40c-4a9c-8221-f110cf7f8c33"},"vehicle_type_id":"4","last_reported":1758010491,"current_range_meters":7200,"station_id":"ce4bh412rcd13ifvqds0","pricing_plan_id":"cebpf4jnsgd1na2vs0mg"},{"bike_id":"6d252497-b2a2-4f88-bf59-944edaa0b6e9","system_id":"levelo_inurba_marseille","lat":43.26567,"lon":5.39004,"is_reserved":false,"is_disabled":false,"rental_uris":{"android":"levelo://app?vid=6d252497-b2a2-4f88-bf59-944edaa0b6e9","ios":"levelo://app?vid=6d252497-b2a2-4f88-bf59-944edaa0b6e9"},"vehicle_type_id":"4","last_reported":1758010491,"current_range_meters":8000,"station_id":"ce4bhe12rcd13ifvqf30","pricing_plan_id":"cebpf4jnsgd1na2vs0mg"},{"bike_id":"d86661af-ef9e-4ffe-8e85-024176f6aa44","system_id":"levelo_inurba_marseille","lat":43.32483,"lon":5.36552,"is_reserved":false,"is_disabled":false,"rental_uris":{"android":"levelo://app?vid=d86661af-ef9e-4ffe-8e85-024176f6aa44","ios":"levelo://app?vid=d86661af-ef9e-4ffe-8e85-024176f6aa44"},"vehicle_type_id":"4","last_reported":1758010491,"current_range_meters":8000,"station_id":"ce4bhs12rcd13ifvqhvg","pricing_plan_id":"cebpf4jnsgd1na2vs0mg"},{"bike_id":"915ac83b-ba2f-40bb-aedf-9dc3b2ad93b1","system_id":"levelo_inurba_marseille","lat":43.23139,"lon":5.43714,"is_reserved":false,"is_disabled":false,"rental_uris":{"android":"levelo://app?vid=915ac83b-ba2f-40bb-aedf-9dc3b2ad93b1","ios":"levelo://app?vid=915ac83b-ba2f-40bb-aedf-9dc3b2ad93b1"},"vehicle_type_id":"4","last_reported":1758010491,"current_range_meters":8000,"station_id":"ce4bhmp2rcd13ifvqgog","pricing_plan_id":"cebpf4jnsgd1na2vs0mg"},{"bike_id":"45c61ecc-4e2d-42e1-82e1-9eeaf7233cd5","system_id":"levelo_inurba_marseille","lat":43.32362,"lon":5.36751,"is_reserved":false,"is_disabled":false,"rental_uris":{"android":"levelo://app?vid=45c61ecc-4e2d-42e1-82e1-9eeaf7233cd5","ios":"levelo://app?vid=45c61ecc-4e2d-42e1-82e1-9eeaf7233cd5"},"vehicle_type_id":"4","last_reported":1758010491,"current_range_meters":8000,"station_id":"ce4bhsh2rcd13ifvqi2g","pricing_plan_id":"cebpf4jnsgd1na2vs0mg"},{"bike_id":"68352e2e-e7bc-4abd-9448-63b61994e13c","system_id":"levelo_inurba_marseille","lat":43.33605,"lon":5.41031,"is_reserved":false,"is_disabled":false,"rental_uris":{"android":"levelo://app?vid=68352e2e-e7bc-4abd-9448-63b61994e13c","ios":"levelo://app?vid=68352e2e-e7bc-4abd-9448-63b61994e13c"},"vehicle_type_id":"4","last_reported":1758010491,"current_range_meters":8000,"station_id":"ce4bhqh2rcd13ifvqhmg","pricing_plan_id":"cebpf4jnsgd1na2vs0mg"},{"bike_id":"32df7e8f-395c-4163-a3fe-ab37bd69eba4","system_id":"levelo_inurba_marseille","lat":43.28263,"lon":5.35056,"is_reserved":false,"is_disabled":false,"rental_uris":{"android":"levelo://app?vid=32df7e8f-395c-4163-a3fe-ab37bd69eba4","ios":"levelo://app?vid=32df7e8f-395c-4163-a3fe-ab37bd69eba4"},"vehicle_type_id":"4","last_reported":1758010491,"current_range_meters":8000,"station_id":"ce4bhbp2rcd13ifvqerg","pricing_plan_id":"cebpf4jnsgd1na2vs0mg"},{"bike_id":"bbc08a83-94ef-4e21-ad2a-269b9c7f66d4","system_id":"levelo_inurba_marseille","lat":43.26952,"lon":5.38643,"is_reserved":false,"is_disabled":false,"rental_uris":{"android":"levelo://app?vid=bbc08a83-94ef-4e21-ad2a-269b9c7f66d4","ios":"levelo://app?vid=bbc08a83-94ef-4e21-ad2a-269b9c7f66d4"},"vehicle_type_id":"4","last_reported":1758010491,"current_range_meters":8000,"station_id":"ce4bhh92rcd13ifvqfh0","pricing_plan_id":"cebpf4jnsgd1na2vs0mg"},{"bike_id":"ab0a7d39-226b-4c70-83e3-16af0f373d82","system_id":"levelo_inurba_marseille","lat":43.24172,"lon":5.39729,"is_reserved":false,"is_disabled":false,"rental_uris":{"android":"levelo://app?vid=ab0a7d39-226b-4c70-83e3-16af0f373d82","ios":"levelo://app?vid=ab0a7d39-226b-4c70-83e3-16af0f373d82"},"vehicle_type_id":"4","last_reported":1758010491,"current_range_meters":8000,"station_id":"ce4bhn12rcd13ifvqgpg","pricing_plan_id":"cebpf4jnsgd1na2vs0mg"},{"bike_id":"2949ef08-dc3d-4ef3-a4ee-c64c313ac41f","system_id":"levelo_inurba_marseille","lat":43.29009,"lon":5.35621,"is_reserved":false,"is_disabled":false,"rental_uris":{"android":"levelo://app?vid=2949ef08-dc3d-4ef3-a4ee-c64c313ac41f","ios":"levelo://app?vid=2949ef08-dc3d-4ef3-a4ee-c64c313ac41f"},"vehicle_type_id":"4","last_reported":1758010491,"current_range_meters":8000,"station_id":"ce4bhb92rcd13ifvqen0","pricing_plan_id":"cebpf4jnsgd1na2vs0mg"},{"bike_id":"94bed273-39db-456c-8361-c2445aab3472","system_id":"levelo_inurba_marseille","lat":43.26946,"lon":5.38646,"is_reserved":false,"is_disabled":false,"rental_uris":{"android":"levelo://app?vid=94bed273-39db-456c-8361-c2445aab3472","ios":"levelo://app?vid=94bed273-39db-456c-8361-c2445aab3472"},"vehicle_type_id":"4","last_reported":1758010491,"current_range_meters":8000,"station_id":"ce4bhh92rcd13ifvqfh0","pricing_plan_id":"cebpf4jnsgd1na2vs0mg"},{"bike_id":"57127154-7e15-4346-89ed-ab9d76ef9c2c","system_id":"levelo_inurba_marseille","lat":43.28838,"lon":5.36326,"is_reserved":false,"is_disabled":false,"rental_uris":{"android":"levelo://app?vid=57127154-7e15-4346-89ed-ab9d76ef9c2c","ios":"levelo://app?vid=57127154-7e15-4346-89ed-ab9d76ef9c2c"},"vehicle_type_id":"4","last_reported":1758010491,"current_range_meters":8000,"station_id":"","pricing_plan_id":"cebpf4jnsgd1na2vs0mg"},{"bike_id":"0cc43392-0623-46b4-b28b-f93569f72d61","system_id":"levelo_inurba_marseille","lat":43.260593,"lon":5.420135,"is_reserved":false,"is_disabled":false,"rental_uris":{"android":"levelo://app?vid=0cc43392-0623-46b4-b28b-f93569f72d61","ios":"levelo://app?vid=0cc43392-0623-46b4-b28b-f93569f72d61"},"vehicle_type_id":"4","last_reported":1758010491,"current_range_meters":8400,"station_id":"","pricing_plan_id":"cebpf4jnsgd1na2vs0mg"},{"bike_id":"a4899312-2b15-4864-9490-57373e46a89e","system_id":"levelo_inurba_marseille","lat":43.29916,"lon":5.37478,"is_reserved":false,"is_disabled":false,"rental_uris":{"android":"levelo://app?vid=a4899312-2b15-4864-9490-57373e46a89e","ios":"levelo://app?vid=a4899312-2b15-4864-9490-57373e46a89e"},"vehicle_type_id":"4","last_reported":1758010491,"current_range_meters":8400,"station_id":"ce4bgjh2rcd13ifvqbg0","pricing_plan_id":"cebpf4jnsgd1na2vs0mg"},{"bike_id":"e7a329bd-ed66-4ac7-aaba-63f2810ddd86","system_id":"levelo_inurba_marseille","lat":43.31859,"lon":5.37206,"is_reserved":false,"is_disabled":true,"rental_uris":{"android":"levelo://app?vid=e7a329bd-ed66-4ac7-aaba-63f2810ddd86","ios":"levelo://app?vid=e7a329bd-ed66-4ac7-aaba-63f2810ddd86"},"vehicle_type_id":"4","last_reported":1758010491,"current_range_meters":8400,"station_id":"","pricing_plan_id":"cebpf4jnsgd1na2vs0mg"},{"bike_id":"b1ee0a13-6de5-448d-8ba2-d5aa601420dc","system_id":"levelo_inurba_marseille","lat":43.287182,"lon":5.379368,"is_reserved":false,"is_disabled":false,"rental_uris":{"android":"levelo://app?vid=b1ee0a13-6de5-448d-8ba2-d5aa601420dc","ios":"levelo://app?vid=b1ee0a13-6de5-448d-8ba2-d5aa601420dc"},"vehicle_type_id":"4","last_reported":1758010491,"current_range_meters":8400,"station_id":"ce4bh9p2rcd13ifvqec0","pricing_plan_id":"cebpf4jnsgd1na2vs0mg"},{"bike_id":"3497e7a2-d1ac-45c8-b73f-5afe1dfc9c24","system_id":"levelo_inurba_marseille","lat":43.28614,"lon":5.37087,"is_reserved":false,"is_disabled":false,"rental_uris":{"android":"levelo://app?vid=3497e7a2-d1ac-45c8-b73f-5afe1dfc9c24","ios":"levelo://app?vid=3497e7a2-d1ac-45c8-b73f-5afe1dfc9c24"},"vehicle_type_id":"4","last_reported":1758010491,"current_range_meters":8400,"station_id":"ce4bht12rcd13ifvqi60","pricing_plan_id":"cebpf4jnsgd1na2vs0mg"},{"bike_id":"9e1411c2-6fd9-4af3-ab5d-d382f614fdb9","system_id":"levelo_inurba_marseille","lat":43.28617,"lon":5.35107,"is_reserved":false,"is_disabled":false,"rental_uris":{"android":"levelo://app?vid=9e1411c2-6fd9-4af3-ab5d-d382f614fdb9","ios":"levelo://app?vid=9e1411c2-6fd9-4af3-ab5d-d382f614fdb9"},"vehicle_type_id":"4","last_reported":1758010491,"current_range_meters":8400,"station_id":"ce4bhch2rcd13ifvqeug","pricing_plan_id":"cebpf4jnsgd1na2vs0mg"},{"bike_id":"c6687fa4-366c-4273-a731-aeb0854ebf90","system_id":"levelo_inurba_marseille","lat":43.2826,"lon":5.35092,"is_reserved":false,"is_disabled":true,"rental_uris":{"android":"levelo://app?vid=c6687fa4-366c-4273-a731-aeb0854ebf90","ios":"levelo://app?vid=c6687fa4-366c-4273-a731-aeb0854ebf90"},"vehicle_type_id":"4","last_reported":1758010491,"current_range_meters":8400,"station_id":"ce4bhbp2rcd13ifvqerg","pricing_plan_id":"cebpf4jnsgd1na2vs0mg"},{"bike_id":"cfd495cd-c878-4405-a948-4a840a4a7a39","system_id":"levelo_inurba_marseille","lat":43.31365,"lon":5.36678,"is_reserved":false,"is_disabled":false,"rental_uris":{"android":"levelo://app?vid=cfd495cd-c878-4405-a948-4a840a4a7a39","ios":"levelo://app?vid=cfd495cd-c878-4405-a948-4a840a4a7a39"},"vehicle_type_id":"4","last_reported":1758010491,"current_range_meters":8400,"station_id":"ce4bgr92rcd13ifvqc6g","pricing_plan_id":"cebpf4jnsgd1na2vs0mg"},{"bike_id":"f7825ce6-de89-45bf-831f-3599d0d91c3c","system_id":"levelo_inurba_marseille","lat":43.30691,"lon":5.368076,"is_reserved":false,"is_disabled":false,"rental_uris":{"android":"levelo://app?vid=f7825ce6-de89-45bf-831f-3599d0d91c3c","ios":"levelo://app?vid=f7825ce6-de89-45bf-831f-3599d0d91c3c"},"vehicle_type_id":"4","last_reported":1758010491,"current_range_meters":8800,"station_id":"","pricing_plan_id":"cebpf4jnsgd1na2vs0mg"},{"bike_id":"95987ecd-45a4-4284-8780-83f1f342994a","system_id":"levelo_inurba_marseille","lat":43.23157,"lon":5.43744,"is_reserved":false,"is_disabled":false,"rental_uris":{"android":"levelo://app?vid=95987ecd-45a4-4284-8780-83f1f342994a","ios":"levelo://app?vid=95987ecd-45a4-4284-8780-83f1f342994a"},"vehicle_type_id":"4","last_reported":1758010491,"current_range_meters":8800,"station_id":"ce4bhmp2rcd13ifvqgog","pricing_plan_id":"cebpf4jnsgd1na2vs0mg"},{"bike_id":"54a14b68-d06b-47cc-a586-30aadf617dc9","system_id":"levelo_inurba_marseille","lat":43.2718,"lon":5.40986,"is_reserved":false,"is_disabled":false,"rental_uris":{"android":"levelo://app?vid=54a14b68-d06b-47cc-a586-30aadf617dc9","ios":"levelo://app?vid=54a14b68-d06b-47cc-a586-30aadf617dc9"},"vehicle_type_id":"4","last_reported":1758010491,"current_range_meters":8800,"station_id":"ce4bhl12rcd13ifvqgf0","pricing_plan_id":"cebpf4jnsgd1na2vs0mg"},{"bike_id":"e169d61c-cff0-4bf1-a7f2-bcee039065a7","system_id":"levelo_inurba_marseille","lat":43.243835,"lon":5.370549,"is_reserved":false,"is_disabled":false,"rental_uris":{"android":"levelo://app?vid=e169d61c-cff0-4bf1-a7f2-bcee039065a7","ios":"levelo://app?vid=e169d61c-cff0-4bf1-a7f2-bcee039065a7"},"vehicle_type_id":"4","last_reported":1758010491,"current_range_meters":8800,"station_id":"ce4bhhh2rcd13ifvqfk0","pricing_plan_id":"cebpf4jnsgd1na2vs0mg"},{"bike_id":"a0c57f96-daec-4f1d-8ef9-eb6ca0790900","system_id":"levelo_inurba_marseille","lat":43.28565,"lon":5.39503,"is_reserved":false,"is_disabled":false,"rental_uris":{"android":"levelo://app?vid=a0c57f96-daec-4f1d-8ef9-eb6ca0790900","ios":"levelo://app?vid=a0c57f96-daec-4f1d-8ef9-eb6ca0790900"},"vehicle_type_id":"4","last_reported":1758010491,"current_range_meters":9200,"station_id":"ce4bh292rcd13ifvqdg0","pricing_plan_id":"cebpf4jnsgd1na2vs0mg"},{"bike_id":"585c1d3a-2fe0-4cfd-9055-6057e9ef07c1","system_id":"levelo_inurba_marseille","lat":43.29569,"lon":5.37525,"is_reserved":false,"is_disabled":false,"rental_uris":{"android":"levelo://app?vid=585c1d3a-2fe0-4cfd-9055-6057e9ef07c1","ios":"levelo://app?vid=585c1d3a-2fe0-4cfd-9055-6057e9ef07c1"},"vehicle_type_id":"4","last_reported":1758010491,"current_range_meters":9200,"station_id":"ce4bgh92rcd13ifvqb50","pricing_plan_id":"cebpf4jnsgd1na2vs0mg"},{"bike_id":"6019f712-e505-4ba8-9ef2-7c4515dc477e","system_id":"levelo_inurba_marseille","lat":43.31224,"lon":5.36859,"is_reserved":false,"is_disabled":false,"rental_uris":{"android":"levelo://app?vid=6019f712-e505-4ba8-9ef2-7c4515dc477e","ios":"levelo://app?vid=6019f712-e505-4ba8-9ef2-7c4515dc477e"},"vehicle_type_id":"4","last_reported":1758010491,"current_range_meters":9600,"station_id":"ce4bgl92rcd13ifvqbq0","pricing_plan_id":"cebpf4jnsgd1na2vs0mg"},{"bike_id":"be3a0353-860c-4cb9-b798-d6e80ada80b9","system_id":"levelo_inurba_marseille","lat":43.30077,"lon":5.39077,"is_reserved":false,"is_disabled":false,"rental_uris":{"android":"levelo://app?vid=be3a0353-860c-4cb9-b798-d6e80ada80b9","ios":"levelo://app?vid=be3a0353-860c-4cb9-b798-d6e80ada80b9"},"vehicle_type_id":"4","last_reported":1758010491,"current_range_meters":9600,"station_id":"ce4bh192rcd13ifvqdb0","pricing_plan_id":"cebpf4jnsgd1na2vs0mg"},{"bike_id":"789336eb-f4ca-4104-ac29-493cd435f996","system_id":"levelo_inurba_marseille","lat":43.24186,"lon":5.39727,"is_reserved":false,"is_disabled":false,"rental_uris":{"android":"levelo://app?vid=789336eb-f4ca-4104-ac29-493cd435f996","ios":"levelo://app?vid=789336eb-f4ca-4104-ac29-493cd435f996"},"vehicle_type_id":"4","last_reported":1758010491,"current_range_meters":9600,"station_id":"ce4bhn12rcd13ifvqgpg","pricing_plan_id":"cebpf4jnsgd1na2vs0mg"},{"bike_id":"322c1f5a-85db-4ef6-bcd4-1b5c417c8ee0","system_id":"levelo_inurba_marseille","lat":43.3377,"lon":5.37488,"is_reserved":false,"is_disabled":false,"rental_uris":{"android":"levelo://app?vid=322c1f5a-85db-4ef6-bcd4-1b5c417c8ee0","ios":"levelo://app?vid=322c1f5a-85db-4ef6-bcd4-1b5c417c8ee0"},"vehicle_type_id":"4","last_reported":1758010491,"current_range_meters":9600,"station_id":"","pricing_plan_id":"cebpf4jnsgd1na2vs0mg"},{"bike_id":"34539d66-9bce-4d1c-8b94-78e2e11c6e1a","system_id":"levelo_inurba_marseille","lat":43.28854,"lon":5.42518,"is_reserved":false,"is_disabled":false,"rental_uris":{"android":"levelo://app?vid=34539d66-9bce-4d1c-8b94-78e2e11c6e1a","ios":"levelo://app?vid=34539d66-9bce-4d1c-8b94-78e2e11c6e1a"},"vehicle_type_id":"4","last_reported":1758010491,"current_range_meters":9600,"station_id":"","pricing_plan_id":"cebpf4jnsgd1na2vs0mg"},{"bike_id":"4b3d29e4-4d48-4f95-a652-be16bfec385d","system_id":"levelo_inurba_marseille","lat":43.29901,"lon":5.37634,"is_reserved":false,"is_disabled":false,"rental_uris":{"android":"levelo://app?vid=4b3d29e4-4d48-4f95-a652-be16bfec385d","ios":"levelo://app?vid=4b3d29e4-4d48-4f95-a652-be16bfec385d"},"vehicle_type_id":"4","last_reported":1758010491,"current_range_meters":9600,"station_id":"","pricing_plan_id":"cebpf4jnsgd1na2vs0mg"},{"bike_id":"83f1d6fb-3358-4a8b-9dfa-18f275f4e5ab","system_id":"levelo_inurba_marseille","lat":43.21742,"lon":5.34606,"is_reserved":false,"is_disabled":false,"rental_uris":{"android":"levelo://app?vid=83f1d6fb-3358-4a8b-9dfa-18f275f4e5ab","ios":"levelo://app?vid=83f1d6fb-3358-4a8b-9dfa-18f275f4e5ab"},"vehicle_type_id":"4","last_reported":1758010491,"current_range_meters":9600,"station_id":"st_cvj6r9ubvosntc0bgbag","pricing_plan_id":"cebpf4jnsgd1na2vs0mg"},{"bike_id":"ef138f30-dc7a-4879-9aa7-48d4ab0f561b","system_id":"levelo_inurba_marseille","lat":43.25007,"lon":5.38921,"is_reserved":false,"is_disabled":false,"rental_uris":{"android":"levelo://app?vid=ef138f30-dc7a-4879-9aa7-48d4ab0f561b","ios":"levelo://app?vid=ef138f30-dc7a-4879-9aa7-48d4ab0f561b"},"vehicle_type_id":"4","last_reported":1758010491,"current_range_meters":9600,"station_id":"ce4bhgp2rcd13ifvqfd0","pricing_plan_id":"cebpf4jnsgd1na2vs0mg"},{"bike_id":"32083640-b5b0-4f6f-9490-ad2e46bb50b0","system_id":"levelo_inurba_marseille","lat":43.34146,"lon":5.40908,"is_reserved":false,"is_disabled":false,"rental_uris":{"android":"levelo://app?vid=32083640-b5b0-4f6f-9490-ad2e46bb50b0","ios":"levelo://app?vid=32083640-b5b0-4f6f-9490-ad2e46bb50b0"},"vehicle_type_id":"4","last_reported":1758010491,"current_range_meters":10000,"station_id":"ce4bhqh2rcd13ifvqhlg","pricing_plan_id":"cebpf4jnsgd1na2vs0mg"},{"bike_id":"d73ebff0-d957-41dc-a638-29b88edc4926","system_id":"levelo_inurba_marseille","lat":43.2255,"lon":5.41611,"is_reserved":false,"is_disabled":false,"rental_uris":{"android":"levelo://app?vid=d73ebff0-d957-41dc-a638-29b88edc4926","ios":"levelo://app?vid=d73ebff0-d957-41dc-a638-29b88edc4926"},"vehicle_type_id":"4","last_reported":1758010491,"current_range_meters":10000,"station_id":"st_d2o4gvlbi1j2169b742g","pricing_plan_id":"cebpf4jnsgd1na2vs0mg"},{"bike_id":"a155e67d-bec0-4326-ae57-c035ef5e1c81","system_id":"levelo_inurba_marseille","lat":43.29882,"lon":5.43668,"is_reserved":false,"is_disabled":false,"rental_uris":{"android":"levelo://app?vid=a155e67d-bec0-4326-ae57-c035ef5e1c81","ios":"levelo://app?vid=a155e67d-bec0-4326-ae57-c035ef5e1c81"},"vehicle_type_id":"4","last_reported":1758010491,"current_range_meters":10000,"station_id":"ce4bhpp2rcd13ifvqhfg","pricing_plan_id":"cebpf4jnsgd1na2vs0mg"},{"bike_id":"e4c370f1-6731-4896-a2c4-f49a448edf19","system_id":"levelo_inurba_marseille","lat":43.24388,"lon":5.37057,"is_reserved":false,"is_disabled":false,"rental_uris":{"android":"levelo://app?vid=e4c370f1-6731-4896-a2c4-f49a448edf19","ios":"levelo://app?vid=e4c370f1-6731-4896-a2c4-f49a448edf19"},"vehicle_type_id":"4","last_reported":1758010491,"current_range_meters":10000,"station_id":"ce4bhhh2rcd13ifvqfk0","pricing_plan_id":"cebpf4jnsgd1na2vs0mg"},{"bike_id":"336c74d9-d9c9-46d7-a94b-134b36ad023a","system_id":"levelo_inurba_marseille","lat":43.29849,"lon":5.37881,"is_reserved":false,"is_disabled":false,"rental_uris":{"android":"levelo://app?vid=336c74d9-d9c9-46d7-a94b-134b36ad023a","ios":"levelo://app?vid=336c74d9-d9c9-46d7-a94b-134b36ad023a"},"vehicle_type_id":"4","last_reported":1758010491,"current_range_meters":10000,"station_id":"","pricing_plan_id":"cebpf4jnsgd1na2vs0mg"},{"bike_id":"87819291-2b9d-4509-b586-74d84b0cfda0","system_id":"levelo_inurba_marseille","lat":43.26684,"lon":5.38274,"is_reserved":false,"is_disabled":false,"rental_uris":{"android":"levelo://app?vid=87819291-2b9d-4509-b586-74d84b0cfda0","ios":"levelo://app?vid=87819291-2b9d-4509-b586-74d84b0cfda0"},"vehicle_type_id":"4","last_reported":1758010491,"current_range_meters":10000,"station_id":"ce4bhg92rcd13ifvqf90","pricing_plan_id":"cebpf4jnsgd1na2vs0mg"},{"bike_id":"17426599-c344-4f42-a0a6-f811c5a00423","system_id":"levelo_inurba_marseille","lat":43.30544,"lon":5.36546,"is_reserved":false,"is_disabled":false,"rental_uris":{"android":"levelo://app?vid=17426599-c344-4f42-a0a6-f811c5a00423","ios":"levelo://app?vid=17426599-c344-4f42-a0a6-f811c5a00423"},"vehicle_type_id":"4","last_reported":1758010491,"current_range_meters":10000,"station_id":"ce4bgs12rcd13ifvqcag","pricing_plan_id":"cebpf4jnsgd1na2vs0mg"},{"bike_id":"693e5f26-ff02-47d2-8043-d0c88dc7dc9f","system_id":"levelo_inurba_marseille","lat":43.30943,"lon":5.39041,"is_reserved":false,"is_disabled":false,"rental_uris":{"android":"levelo://app?vid=693e5f26-ff02-47d2-8043-d0c88dc7dc9f","ios":"levelo://app?vid=693e5f26-ff02-47d2-8043-d0c88dc7dc9f"},"vehicle_type_id":"4","last_reported":1758010491,"current_range_meters":10800,"station_id":"ce4bgup2rcd13ifvqco0","pricing_plan_id":"cebpf4jnsgd1na2vs0mg"},{"bike_id":"a1174a70-7fb8-48e7-a31e-d139ccf5740a","system_id":"levelo_inurba_marseille","lat":43.307985,"lon":5.381659,"is_reserved":false,"is_disabled":false,"rental_uris":{"android":"levelo://app?vid=a1174a70-7fb8-48e7-a31e-d139ccf5740a","ios":"levelo://app?vid=a1174a70-7fb8-48e7-a31e-d139ccf5740a"},"vehicle_type_id":"4","last_reported":1758010491,"current_range_meters":10800,"station_id":"ce4bgt12rcd13ifvqce0","pricing_plan_id":"cebpf4jnsgd1na2vs0mg"},{"bike_id":"08d1de6f-f402-4677-bdf9-ce856ab6e6de","system_id":"levelo_inurba_marseille","lat":43.26928,"lon":5.38915,"is_reserved":false,"is_disabled":false,"rental_uris":{"android":"levelo://app?vid=08d1de6f-f402-4677-bdf9-ce856ab6e6de","ios":"levelo://app?vid=08d1de6f-f402-4677-bdf9-ce856ab6e6de"},"vehicle_type_id":"4","last_reported":1758010491,"current_range_meters":10800,"station_id":"ce4bhhh2rcd13ifvqfl0","pricing_plan_id":"cebpf4jnsgd1na2vs0mg"},{"bike_id":"cd02c080-8936-4e2b-af4d-301cbe8eb8f1","system_id":"levelo_inurba_marseille","lat":43.30048,"lon":5.40324,"is_reserved":false,"is_disabled":false,"rental_uris":{"android":"levelo://app?vid=cd02c080-8936-4e2b-af4d-301cbe8eb8f1","ios":"levelo://app?vid=cd02c080-8936-4e2b-af4d-301cbe8eb8f1"},"vehicle_type_id":"4","last_reported":1758010491,"current_range_meters":10800,"station_id":"","pricing_plan_id":"cebpf4jnsgd1na2vs0mg"},{"bike_id":"511f6c29-3390-4042-b48e-75a4d61a54e0","system_id":"levelo_inurba_marseille","lat":43.320222,"lon":5.367534,"is_reserved":false,"is_disabled":false,"rental_uris":{"android":"levelo://app?vid=511f6c29-3390-4042-b48e-75a4d61a54e0","ios":"levelo://app?vid=511f6c29-3390-4042-b48e-75a4d61a54e0"},"vehicle_type_id":"4","last_reported":1758010491,"current_range_meters":10800,"station_id":"","pricing_plan_id":"cebpf4jnsgd1na2vs0mg"},{"bike_id":"06e7a5f7-2e75-486d-ba2a-11f48ef44577","system_id":"levelo_inurba_marseille","lat":43.24067,"lon":5.37767,"is_reserved":false,"is_disabled":false,"rental_uris":{"android":"levelo://app?vid=06e7a5f7-2e75-486d-ba2a-11f48ef44577","ios":"levelo://app?vid=06e7a5f7-2e75-486d-ba2a-11f48ef44577"},"vehicle_type_id":"4","last_reported":1758010491,"current_range_meters":10800,"station_id":"ce4bhnp2rcd13ifvqgvg","pricing_plan_id":"cebpf4jnsgd1na2vs0mg"},{"bike_id":"c07e7a2d-d8a6-4efd-8723-e965be4d1a74","system_id":"levelo_inurba_marseille","lat":43.22533,"lon":5.348367,"is_reserved":false,"is_disabled":false,"rental_uris":{"android":"levelo://app?vid=c07e7a2d-d8a6-4efd-8723-e965be4d1a74","ios":"levelo://app?vid=c07e7a2d-d8a6-4efd-8723-e965be4d1a74"},"vehicle_type_id":"4","last_reported":1758010491,"current_range_meters":10800,"station_id":"","pricing_plan_id":"cebpf4jnsgd1na2vs0mg"},{"bike_id":"67789e55-8899-4423-b7d3-1979a0ccc4d5","system_id":"levelo_inurba_marseille","lat":43.31353,"lon":5.36735,"is_reserved":false,"is_disabled":false,"rental_uris":{"android":"levelo://app?vid=67789e55-8899-4423-b7d3-1979a0ccc4d5","ios":"levelo://app?vid=67789e55-8899-4423-b7d3-1979a0ccc4d5"},"vehicle_type_id":"4","last_reported":1758010491,"current_range_meters":10800,"station_id":"ce4bgr92rcd13ifvqc6g","pricing_plan_id":"cebpf4jnsgd1na2vs0mg"},{"bike_id":"e9bcdd16-c369-4f06-bb55-64ecf3a308d9","system_id":"levelo_inurba_marseille","lat":43.26208,"lon":5.37443,"is_reserved":false,"is_disabled":false,"rental_uris":{"android":"levelo://app?vid=e9bcdd16-c369-4f06-bb55-64ecf3a308d9","ios":"levelo://app?vid=e9bcdd16-c369-4f06-bb55-64ecf3a308d9"},"vehicle_type_id":"4","last_reported":1758010491,"current_range_meters":11200,"station_id":"ce4bhgp2rcd13ifvqfc0","pricing_plan_id":"cebpf4jnsgd1na2vs0mg"},{"bike_id":"b0998595-943d-44f5-8a3c-649506273ef9","system_id":"levelo_inurba_marseille","lat":43.28406,"lon":5.37504,"is_reserved":false,"is_disabled":false,"rental_uris":{"android":"levelo://app?vid=b0998595-943d-44f5-8a3c-649506273ef9","ios":"levelo://app?vid=b0998595-943d-44f5-8a3c-649506273ef9"},"vehicle_type_id":"4","last_reported":1758010491,"current_range_meters":11200,"station_id":"ce4bh412rcd13ifvqds0","pricing_plan_id":"cebpf4jnsgd1na2vs0mg"},{"bike_id":"a696dd6a-d6f9-47b7-a79d-789f9c273771","system_id":"levelo_inurba_marseille","lat":43.32361,"lon":5.36779,"is_reserved":false,"is_disabled":false,"rental_uris":{"android":"levelo://app?vid=a696dd6a-d6f9-47b7-a79d-789f9c273771","ios":"levelo://app?vid=a696dd6a-d6f9-47b7-a79d-789f9c273771"},"vehicle_type_id":"4","last_reported":1758010491,"current_range_meters":11200,"station_id":"ce4bhsh2rcd13ifvqi2g","pricing_plan_id":"cebpf4jnsgd1na2vs0mg"},{"bike_id":"31613724-d52e-4f70-858a-09eef27a3d00","system_id":"levelo_inurba_marseille","lat":43.29101,"lon":5.38141,"is_reserved":false,"is_disabled":false,"rental_uris":{"android":"levelo://app?vid=31613724-d52e-4f70-858a-09eef27a3d00","ios":"levelo://app?vid=31613724-d52e-4f70-858a-09eef27a3d00"},"vehicle_type_id":"4","last_reported":1758010491,"current_range_meters":11200,"station_id":"ce4bh512rcd13ifvqe2g","pricing_plan_id":"cebpf4jnsgd1na2vs0mg"},{"bike_id":"f2a28c85-30e9-420d-a74e-64f52b61c295","system_id":"levelo_inurba_marseille","lat":43.28415,"lon":5.34983,"is_reserved":false,"is_disabled":false,"rental_uris":{"android":"levelo://app?vid=f2a28c85-30e9-420d-a74e-64f52b61c295","ios":"levelo://app?vid=f2a28c85-30e9-420d-a74e-64f52b61c295"},"vehicle_type_id":"4","last_reported":1758010491,"current_range_meters":9200,"station_id":"ce4bhbh2rcd13ifvqepg","pricing_plan_id":"cebpf4jnsgd1na2vs0mg"},{"bike_id":"28e0000c-aefd-4823-a247-d95f437bf510","system_id":"levelo_inurba_marseille","lat":43.3248,"lon":5.3657,"is_reserved":false,"is_disabled":false,"rental_uris":{"android":"levelo://app?vid=28e0000c-aefd-4823-a247-d95f437bf510","ios":"levelo://app?vid=28e0000c-aefd-4823-a247-d95f437bf510"},"vehicle_type_id":"4","last_reported":1758010491,"current_range_meters":11200,"station_id":"ce4bhs12rcd13ifvqhvg","pricing_plan_id":"cebpf4jnsgd1na2vs0mg"},{"bike_id":"e5c0f9fa-aa79-401b-ac6b-a846850c5345","system_id":"levelo_inurba_marseille","lat":43.2784,"lon":5.3849,"is_reserved":false,"is_disabled":false,"rental_uris":{"android":"levelo://app?vid=e5c0f9fa-aa79-401b-ac6b-a846850c5345","ios":"levelo://app?vid=e5c0f9fa-aa79-401b-ac6b-a846850c5345"},"vehicle_type_id":"4","last_reported":1758010491,"current_range_meters":11200,"station_id":"","pricing_plan_id":"cebpf4jnsgd1na2vs0mg"},{"bike_id":"a0edec6e-caa1-425a-a2f9-d82e2d76b368","system_id":"levelo_inurba_marseille","lat":43.32526,"lon":5.41439,"is_reserved":false,"is_disabled":false,"rental_uris":{"android":"levelo://app?vid=a0edec6e-caa1-425a-a2f9-d82e2d76b368","ios":"levelo://app?vid=a0edec6e-caa1-425a-a2f9-d82e2d76b368"},"vehicle_type_id":"4","last_reported":1758010491,"current_range_meters":11600,"station_id":"ce4bhq12rcd13ifvqhhg","pricing_plan_id":"cebpf4jnsgd1na2vs0mg"},{"bike_id":"8ef8bf7d-8a91-4724-8c2e-ddeef723e28a","system_id":"levelo_inurba_marseille","lat":43.27011,"lon":5.37927,"is_reserved":false,"is_disabled":false,"rental_uris":{"android":"levelo://app?vid=8ef8bf7d-8a91-4724-8c2e-ddeef723e28a","ios":"levelo://app?vid=8ef8bf7d-8a91-4724-8c2e-ddeef723e28a"},"vehicle_type_id":"4","last_reported":1758010491,"current_range_meters":11600,"station_id":"","pricing_plan_id":"cebpf4jnsgd1na2vs0mg"},{"bike_id":"fe474cdb-7768-439f-b544-8a820e0194cc","system_id":"levelo_inurba_marseille","lat":43.2903,"lon":5.39967,"is_reserved":false,"is_disabled":false,"rental_uris":{"android":"levelo://app?vid=fe474cdb-7768-439f-b544-8a820e0194cc","ios":"levelo://app?vid=fe474cdb-7768-439f-b544-8a820e0194cc"},"vehicle_type_id":"4","last_reported":1758010491,"current_range_meters":9600,"station_id":"ce4bh392rcd13ifvqdm0","pricing_plan_id":"cebpf4jnsgd1na2vs0mg"},{"bike_id":"02d56be7-a682-4563-9ee2-79054ee7d3d9","system_id":"levelo_inurba_marseille","lat":43.3446,"lon":5.43116,"is_reserved":false,"is_disabled":false,"rental_uris":{"android":"levelo://app?vid=02d56be7-a682-4563-9ee2-79054ee7d3d9","ios":"levelo://app?vid=02d56be7-a682-4563-9ee2-79054ee7d3d9"},"vehicle_type_id":"4","last_reported":1758010491,"current_range_meters":11600,"station_id":"","pricing_plan_id":"cebpf4jnsgd1na2vs0mg"},{"bike_id":"77246e06-46b3-406d-9b69-b9b3e2cbdee1","system_id":"levelo_inurba_marseille","lat":43.28086,"lon":5.38666,"is_reserved":false,"is_disabled":false,"rental_uris":{"android":"levelo://app?vid=77246e06-46b3-406d-9b69-b9b3e2cbdee1","ios":"levelo://app?vid=77246e06-46b3-406d-9b69-b9b3e2cbdee1"},"vehicle_type_id":"4","last_reported":1758010491,"current_range_meters":11600,"station_id":"","pricing_plan_id":"cebpf4jnsgd1na2vs0mg"},{"bike_id":"d112a62a-53bf-4538-9ba9-262940b0c298","system_id":"levelo_inurba_marseille","lat":43.30902,"lon":5.36852,"is_reserved":false,"is_disabled":false,"rental_uris":{"android":"levelo://app?vid=d112a62a-53bf-4538-9ba9-262940b0c298","ios":"levelo://app?vid=d112a62a-53bf-4538-9ba9-262940b0c298"},"vehicle_type_id":"4","last_reported":1758010491,"current_range_meters":11600,"station_id":"ce4bgn92rcd13ifvqbvg","pricing_plan_id":"cebpf4jnsgd1na2vs0mg"},{"bike_id":"e7eb708a-73c8-48ef-9115-8ad691975972","system_id":"levelo_inurba_marseille","lat":43.31084,"lon":5.42444,"is_reserved":false,"is_disabled":false,"rental_uris":{"android":"levelo://app?vid=e7eb708a-73c8-48ef-9115-8ad691975972","ios":"levelo://app?vid=e7eb708a-73c8-48ef-9115-8ad691975972"},"vehicle_type_id":"4","last_reported":1758010491,"current_range_meters":11600,"station_id":"ce4bhp92rcd13ifvqhag","pricing_plan_id":"cebpf4jnsgd1na2vs0mg"},{"bike_id":"bd1add26-46de-45c3-8c04-68bb93955ceb","system_id":"levelo_inurba_marseille","lat":43.240731,"lon":5.377671,"is_reserved":false,"is_disabled":false,"rental_uris":{"android":"levelo://app?vid=bd1add26-46de-45c3-8c04-68bb93955ceb","ios":"levelo://app?vid=bd1add26-46de-45c3-8c04-68bb93955ceb"},"vehicle_type_id":"4","last_reported":1758010491,"current_range_meters":12000,"station_id":"ce4bhnp2rcd13ifvqgvg","pricing_plan_id":"cebpf4jnsgd1na2vs0mg"},{"bike_id":"d500502c-ca7d-4d82-907e-13560cfa06b0","system_id":"levelo_inurba_marseille","lat":43.2315,"lon":5.43734,"is_reserved":false,"is_disabled":false,"rental_uris":{"android":"levelo://app?vid=d500502c-ca7d-4d82-907e-13560cfa06b0","ios":"levelo://app?vid=d500502c-ca7d-4d82-907e-13560cfa06b0"},"vehicle_type_id":"4","last_reported":1758010491,"current_range_meters":12000,"station_id":"ce4bhmp2rcd13ifvqgog","pricing_plan_id":"cebpf4jnsgd1na2vs0mg"},{"bike_id":"0d6826bb-2477-46be-b5d0-1f9a21a72cdf","system_id":"levelo_inurba_marseille","lat":43.26577,"lon":5.39048,"is_reserved":false,"is_disabled":false,"rental_uris":{"android":"levelo://app?vid=0d6826bb-2477-46be-b5d0-1f9a21a72cdf","ios":"levelo://app?vid=0d6826bb-2477-46be-b5d0-1f9a21a72cdf"},"vehicle_type_id":"4","last_reported":1758010491,"current_range_meters":12000,"station_id":"ce4bhe12rcd13ifvqf30","pricing_plan_id":"cebpf4jnsgd1na2vs0mg"},{"bike_id":"e824d254-16a6-4ae4-983a-05af083f4c81","system_id":"levelo_inurba_marseille","lat":43.21753,"lon":5.34607,"is_reserved":false,"is_disabled":false,"rental_uris":{"android":"levelo://app?vid=e824d254-16a6-4ae4-983a-05af083f4c81","ios":"levelo://app?vid=e824d254-16a6-4ae4-983a-05af083f4c81"},"vehicle_type_id":"4","last_reported":1758010491,"current_range_meters":12000,"station_id":"","pricing_plan_id":"cebpf4jnsgd1na2vs0mg"},{"bike_id":"d61cbc5f-3273-4b49-a360-11987dad9dba","system_id":"levelo_inurba_marseille","lat":43.29071,"lon":5.3718,"is_reserved":false,"is_disabled":false,"rental_uris":{"android":"levelo://app?vid=d61cbc5f-3273-4b49-a360-11987dad9dba","ios":"levelo://app?vid=d61cbc5f-3273-4b49-a360-11987dad9dba"},"vehicle_type_id":"4","last_reported":1758010491,"current_range_meters":12400,"station_id":"ce4bh5p2rcd13ifvqe4g","pricing_plan_id":"cebpf4jnsgd1na2vs0mg"},{"bike_id":"ee047f65-cf7b-4c84-a6ae-a453102114f1","system_id":"levelo_inurba_marseille","lat":43.27675,"lon":5.38944,"is_reserved":false,"is_disabled":false,"rental_uris":{"android":"levelo://app?vid=ee047f65-cf7b-4c84-a6ae-a453102114f1","ios":"levelo://app?vid=ee047f65-cf7b-4c84-a6ae-a453102114f1"},"vehicle_type_id":"4","last_reported":1758010491,"current_range_meters":12000,"station_id":"ce4bhi12rcd13ifvqfo0","pricing_plan_id":"cebpf4jnsgd1na2vs0mg"},{"bike_id":"2fd38e33-3a20-43f8-9cdc-a8d889f3847c","system_id":"levelo_inurba_marseille","lat":43.284956,"lon":5.385495,"is_reserved":false,"is_disabled":false,"rental_uris":{"android":"levelo://app?vid=2fd38e33-3a20-43f8-9cdc-a8d889f3847c","ios":"levelo://app?vid=2fd38e33-3a20-43f8-9cdc-a8d889f3847c"},"vehicle_type_id":"4","last_reported":1758010491,"current_range_meters":12000,"station_id":"ce4bh8p2rcd13ifvqeb0","pricing_plan_id":"cebpf4jnsgd1na2vs0mg"},{"bike_id":"65382159-cabd-4a2a-952d-27cc2defdaa0","system_id":"levelo_inurba_marseille","lat":43.32532,"lon":5.41434,"is_reserved":false,"is_disabled":false,"rental_uris":{"android":"levelo://app?vid=65382159-cabd-4a2a-952d-27cc2defdaa0","ios":"levelo://app?vid=65382159-cabd-4a2a-952d-27cc2defdaa0"},"vehicle_type_id":"4","last_reported":1758010491,"current_range_meters":12400,"station_id":"ce4bhq12rcd13ifvqhhg","pricing_plan_id":"cebpf4jnsgd1na2vs0mg"},{"bike_id":"8da5ba39-35c6-4bf3-8f01-bbf73a1be15a","system_id":"levelo_inurba_marseille","lat":43.30909,"lon":5.36841,"is_reserved":false,"is_disabled":false,"rental_uris":{"android":"levelo://app?vid=8da5ba39-35c6-4bf3-8f01-bbf73a1be15a","ios":"levelo://app?vid=8da5ba39-35c6-4bf3-8f01-bbf73a1be15a"},"vehicle_type_id":"4","last_reported":1758010491,"current_range_meters":12400,"station_id":"ce4bgn92rcd13ifvqbvg","pricing_plan_id":"cebpf4jnsgd1na2vs0mg"},{"bike_id":"20cee4ca-4776-4ea1-8b8c-1f8b768e950e","system_id":"levelo_inurba_marseille","lat":43.2454,"lon":5.39517,"is_reserved":false,"is_disabled":false,"rental_uris":{"android":"levelo://app?vid=20cee4ca-4776-4ea1-8b8c-1f8b768e950e","ios":"levelo://app?vid=20cee4ca-4776-4ea1-8b8c-1f8b768e950e"},"vehicle_type_id":"4","last_reported":1758010491,"current_range_meters":12400,"station_id":"ce4bhlp2rcd13ifvqgjg","pricing_plan_id":"cebpf4jnsgd1na2vs0mg"},{"bike_id":"32256955-e37f-4f80-8569-2e17c103c9d0","system_id":"levelo_inurba_marseille","lat":43.23153,"lon":5.43712,"is_reserved":false,"is_disabled":false,"rental_uris":{"android":"levelo://app?vid=32256955-e37f-4f80-8569-2e17c103c9d0","ios":"levelo://app?vid=32256955-e37f-4f80-8569-2e17c103c9d0"},"vehicle_type_id":"4","last_reported":1758010491,"current_range_meters":12400,"station_id":"ce4bhmp2rcd13ifvqgog","pricing_plan_id":"cebpf4jnsgd1na2vs0mg"},{"bike_id":"5c0b2341-c41a-4f62-9e5f-92e6a593fad9","system_id":"levelo_inurba_marseille","lat":43.33781,"lon":5.37433,"is_reserved":false,"is_disabled":false,"rental_uris":{"android":"levelo://app?vid=5c0b2341-c41a-4f62-9e5f-92e6a593fad9","ios":"levelo://app?vid=5c0b2341-c41a-4f62-9e5f-92e6a593fad9"},"vehicle_type_id":"4","last_reported":1758010491,"current_range_meters":12800,"station_id":"","pricing_plan_id":"cebpf4jnsgd1na2vs0mg"},{"bike_id":"9c188cbd-20d4-4922-94f4-4136424204d3","system_id":"levelo_inurba_marseille","lat":43.24384,"lon":5.37055,"is_reserved":false,"is_disabled":false,"rental_uris":{"android":"levelo://app?vid=9c188cbd-20d4-4922-94f4-4136424204d3","ios":"levelo://app?vid=9c188cbd-20d4-4922-94f4-4136424204d3"},"vehicle_type_id":"4","last_reported":1758010491,"current_range_meters":12800,"station_id":"ce4bhhh2rcd13ifvqfk0","pricing_plan_id":"cebpf4jnsgd1na2vs0mg"},{"bike_id":"fe9f38a3-79c8-40c2-b17b-c2687463ee3a","system_id":"levelo_inurba_marseille","lat":43.25933,"lon":5.40871,"is_reserved":false,"is_disabled":false,"rental_uris":{"android":"levelo://app?vid=fe9f38a3-79c8-40c2-b17b-c2687463ee3a","ios":"levelo://app?vid=fe9f38a3-79c8-40c2-b17b-c2687463ee3a"},"vehicle_type_id":"4","last_reported":1758010491,"current_range_meters":12800,"station_id":"ce4bhm92rcd13ifvqglg","pricing_plan_id":"cebpf4jnsgd1na2vs0mg"},{"bike_id":"d28c30f7-d993-418e-b279-e6e75970549b","system_id":"levelo_inurba_marseille","lat":43.29598,"lon":5.37698,"is_reserved":false,"is_disabled":true,"rental_uris":{"android":"levelo://app?vid=d28c30f7-d993-418e-b279-e6e75970549b","ios":"levelo://app?vid=d28c30f7-d993-418e-b279-e6e75970549b"},"vehicle_type_id":"4","last_reported":1758010491,"current_range_meters":12800,"station_id":"ce4bgi92rcd13ifvqb90","pricing_plan_id":"cebpf4jnsgd1na2vs0mg"},{"bike_id":"08dee011-f074-4d1a-80a8-19e7796d6f1e","system_id":"levelo_inurba_marseille","lat":43.336019,"lon":5.410198,"is_reserved":false,"is_disabled":false,"rental_uris":{"android":"levelo://app?vid=08dee011-f074-4d1a-80a8-19e7796d6f1e","ios":"levelo://app?vid=08dee011-f074-4d1a-80a8-19e7796d6f1e"},"vehicle_type_id":"4","last_reported":1758010491,"current_range_meters":12800,"station_id":"ce4bhqh2rcd13ifvqhmg","pricing_plan_id":"cebpf4jnsgd1na2vs0mg"},{"bike_id":"50e02510-f280-401d-afe7-3717ea328db6","system_id":"levelo_inurba_marseille","lat":43.27496,"lon":5.42459,"is_reserved":false,"is_disabled":false,"rental_uris":{"android":"levelo://app?vid=50e02510-f280-401d-afe7-3717ea328db6","ios":"levelo://app?vid=50e02510-f280-401d-afe7-3717ea328db6"},"vehicle_type_id":"4","last_reported":1758010491,"current_range_meters":12800,"station_id":"ce4bhn92rcd13ifvqgrg","pricing_plan_id":"cebpf4jnsgd1na2vs0mg"},{"bike_id":"1a6a6049-58e6-4183-af3a-710abb7ccdc6","system_id":"levelo_inurba_marseille","lat":43.26677,"lon":5.38288,"is_reserved":false,"is_disabled":false,"rental_uris":{"android":"levelo://app?vid=1a6a6049-58e6-4183-af3a-710abb7ccdc6","ios":"levelo://app?vid=1a6a6049-58e6-4183-af3a-710abb7ccdc6"},"vehicle_type_id":"4","last_reported":1758010491,"current_range_meters":13600,"station_id":"ce4bhg92rcd13ifvqf90","pricing_plan_id":"cebpf4jnsgd1na2vs0mg"},{"bike_id":"7f335521-3393-4961-befc-05875f89d94f","system_id":"levelo_inurba_marseille","lat":43.281662,"lon":5.426445,"is_reserved":false,"is_disabled":false,"rental_uris":{"android":"levelo://app?vid=7f335521-3393-4961-befc-05875f89d94f","ios":"levelo://app?vid=7f335521-3393-4961-befc-05875f89d94f"},"vehicle_type_id":"4","last_reported":1758010491,"current_range_meters":13600,"station_id":"ce4bhnh2rcd13ifvqgug","pricing_plan_id":"cebpf4jnsgd1na2vs0mg"},{"bike_id":"ac432599-4ed2-49ea-90e3-e09e4f087455","system_id":"levelo_inurba_marseille","lat":43.33597,"lon":5.41042,"is_reserved":false,"is_disabled":false,"rental_uris":{"android":"levelo://app?vid=ac432599-4ed2-49ea-90e3-e09e4f087455","ios":"levelo://app?vid=ac432599-4ed2-49ea-90e3-e09e4f087455"},"vehicle_type_id":"4","last_reported":1758010491,"current_range_meters":13600,"station_id":"ce4bhqh2rcd13ifvqhmg","pricing_plan_id":"cebpf4jnsgd1na2vs0mg"},{"bike_id":"fbf67bf5-d1db-4706-93f3-0ef9ffc9189a","system_id":"levelo_inurba_marseille","lat":43.25886,"lon":5.39922,"is_reserved":false,"is_disabled":false,"rental_uris":{"android":"levelo://app?vid=fbf67bf5-d1db-4706-93f3-0ef9ffc9189a","ios":"levelo://app?vid=fbf67bf5-d1db-4706-93f3-0ef9ffc9189a"},"vehicle_type_id":"4","last_reported":1758010491,"current_range_meters":13600,"station_id":"ce4bhhp2rcd13ifvqfm0","pricing_plan_id":"cebpf4jnsgd1na2vs0mg"},{"bike_id":"fbf68d05-5125-49dc-91fb-265fd58ee496","system_id":"levelo_inurba_marseille","lat":43.24072,"lon":5.37762,"is_reserved":false,"is_disabled":false,"rental_uris":{"android":"levelo://app?vid=fbf68d05-5125-49dc-91fb-265fd58ee496","ios":"levelo://app?vid=fbf68d05-5125-49dc-91fb-265fd58ee496"},"vehicle_type_id":"4","last_reported":1758010491,"current_range_meters":14000,"station_id":"ce4bhnp2rcd13ifvqgvg","pricing_plan_id":"cebpf4jnsgd1na2vs0mg"},{"bike_id":"12d9933b-d970-4f84-9923-273cbb23a523","system_id":"levelo_inurba_marseille","lat":43.28609,"lon":5.37062,"is_reserved":false,"is_disabled":false,"rental_uris":{"android":"levelo://app?vid=12d9933b-d970-4f84-9923-273cbb23a523","ios":"levelo://app?vid=12d9933b-d970-4f84-9923-273cbb23a523"},"vehicle_type_id":"4","last_reported":1758010491,"current_range_meters":14000,"station_id":"ce4bht12rcd13ifvqi60","pricing_plan_id":"cebpf4jnsgd1na2vs0mg"},{"bike_id":"dfa1d1bf-ec3b-42e4-9914-651a2afdbfe4","system_id":"levelo_inurba_marseille","lat":43.29767,"lon":5.38022,"is_reserved":false,"is_disabled":false,"rental_uris":{"android":"levelo://app?vid=dfa1d1bf-ec3b-42e4-9914-651a2afdbfe4","ios":"levelo://app?vid=dfa1d1bf-ec3b-42e4-9914-651a2afdbfe4"},"vehicle_type_id":"4","last_reported":1758010491,"current_range_meters":14000,"station_id":"","pricing_plan_id":"cebpf4jnsgd1na2vs0mg"},{"bike_id":"f1cfd9f7-83ed-4cc6-85b6-79f7348a893b","system_id":"levelo_inurba_marseille","lat":43.28935,"lon":5.36391,"is_reserved":false,"is_disabled":false,"rental_uris":{"android":"levelo://app?vid=f1cfd9f7-83ed-4cc6-85b6-79f7348a893b","ios":"levelo://app?vid=f1cfd9f7-83ed-4cc6-85b6-79f7348a893b"},"vehicle_type_id":"4","last_reported":1758010491,"current_range_meters":14000,"station_id":"ce4bhc92rcd13ifvqetg","pricing_plan_id":"cebpf4jnsgd1na2vs0mg"},{"bike_id":"5efa838c-da34-4ab0-a61b-66d07b34aae7","system_id":"levelo_inurba_marseille","lat":43.32354,"lon":5.3675,"is_reserved":false,"is_disabled":false,"rental_uris":{"android":"levelo://app?vid=5efa838c-da34-4ab0-a61b-66d07b34aae7","ios":"levelo://app?vid=5efa838c-da34-4ab0-a61b-66d07b34aae7"},"vehicle_type_id":"4","last_reported":1758010491,"current_range_meters":14000,"station_id":"ce4bhsh2rcd13ifvqi2g","pricing_plan_id":"cebpf4jnsgd1na2vs0mg"},{"bike_id":"20b73f19-94a9-4422-8287-288687278c23","system_id":"levelo_inurba_marseille","lat":43.24084,"lon":5.37751,"is_reserved":false,"is_disabled":false,"rental_uris":{"android":"levelo://app?vid=20b73f19-94a9-4422-8287-288687278c23","ios":"levelo://app?vid=20b73f19-94a9-4422-8287-288687278c23"},"vehicle_type_id":"4","last_reported":1758010491,"current_range_meters":14400,"station_id":"ce4bhnp2rcd13ifvqgvg","pricing_plan_id":"cebpf4jnsgd1na2vs0mg"},{"bike_id":"0a6fc67a-e8cc-4b6f-aff0-4223cdf0c809","system_id":"levelo_inurba_marseille","lat":43.30946,"lon":5.39031,"is_reserved":false,"is_disabled":false,"rental_uris":{"android":"levelo://app?vid=0a6fc67a-e8cc-4b6f-aff0-4223cdf0c809","ios":"levelo://app?vid=0a6fc67a-e8cc-4b6f-aff0-4223cdf0c809"},"vehicle_type_id":"4","last_reported":1758010491,"current_range_meters":14400,"station_id":"ce4bgup2rcd13ifvqco0","pricing_plan_id":"cebpf4jnsgd1na2vs0mg"},{"bike_id":"47f18bb1-9f7b-4929-9898-218013cf8b56","system_id":"levelo_inurba_marseille","lat":43.30187,"lon":5.36621,"is_reserved":false,"is_disabled":false,"rental_uris":{"android":"levelo://app?vid=47f18bb1-9f7b-4929-9898-218013cf8b56","ios":"levelo://app?vid=47f18bb1-9f7b-4929-9898-218013cf8b56"},"vehicle_type_id":"4","last_reported":1758010491,"current_range_meters":14400,"station_id":"ce4bgrh2rcd13ifvqc8g","pricing_plan_id":"cebpf4jnsgd1na2vs0mg"},{"bike_id":"8db6cdbc-49d8-4d9e-9a02-005d16d4aa1d","system_id":"levelo_inurba_marseille","lat":43.2749,"lon":5.42457,"is_reserved":false,"is_disabled":false,"rental_uris":{"android":"levelo://app?vid=8db6cdbc-49d8-4d9e-9a02-005d16d4aa1d","ios":"levelo://app?vid=8db6cdbc-49d8-4d9e-9a02-005d16d4aa1d"},"vehicle_type_id":"4","last_reported":1758010491,"current_range_meters":14400,"station_id":"ce4bhn92rcd13ifvqgrg","pricing_plan_id":"cebpf4jnsgd1na2vs0mg"},{"bike_id":"3d41f796-94f6-466c-a31c-85781edaabf0","system_id":"levelo_inurba_marseille","lat":43.30945,"lon":5.39038,"is_reserved":false,"is_disabled":false,"rental_uris":{"android":"levelo://app?vid=3d41f796-94f6-466c-a31c-85781edaabf0","ios":"levelo://app?vid=3d41f796-94f6-466c-a31c-85781edaabf0"},"vehicle_type_id":"4","last_reported":1758010491,"current_range_meters":14400,"station_id":"ce4bgup2rcd13ifvqco0","pricing_plan_id":"cebpf4jnsgd1na2vs0mg"},{"bike_id":"797f9109-ef35-4202-8515-39c0487393af","system_id":"levelo_inurba_marseille","lat":43.33715,"lon":5.39187,"is_reserved":false,"is_disabled":false,"rental_uris":{"android":"levelo://app?vid=797f9109-ef35-4202-8515-39c0487393af","ios":"levelo://app?vid=797f9109-ef35-4202-8515-39c0487393af"},"vehicle_type_id":"4","last_reported":1758010491,"current_range_meters":14400,"station_id":"ce4bhr92rcd13ifvqhsg","pricing_plan_id":"cebpf4jnsgd1na2vs0mg"},{"bike_id":"ee4e52f1-ea63-42a2-85c2-5e7b35a47b15","system_id":"levelo_inurba_marseille","lat":43.259364,"lon":5.409085,"is_reserved":false,"is_disabled":false,"rental_uris":{"android":"levelo://app?vid=ee4e52f1-ea63-42a2-85c2-5e7b35a47b15","ios":"levelo://app?vid=ee4e52f1-ea63-42a2-85c2-5e7b35a47b15"},"vehicle_type_id":"4","last_reported":1758010491,"current_range_meters":14400,"station_id":"ce4bhm92rcd13ifvqglg","pricing_plan_id":"cebpf4jnsgd1na2vs0mg"},{"bike_id":"2ba6d751-735d-4f3f-b471-7e3f5bc5e1b1","system_id":"levelo_inurba_marseille","lat":43.32095,"lon":5.36776,"is_reserved":false,"is_disabled":false,"rental_uris":{"android":"levelo://app?vid=2ba6d751-735d-4f3f-b471-7e3f5bc5e1b1","ios":"levelo://app?vid=2ba6d751-735d-4f3f-b471-7e3f5bc5e1b1"},"vehicle_type_id":"4","last_reported":1758010491,"current_range_meters":14400,"station_id":"ce4bhrh2rcd13ifvqhug","pricing_plan_id":"cebpf4jnsgd1na2vs0mg"},{"bike_id":"fb351b77-39b9-4407-912a-c1008fce46ae","system_id":"levelo_inurba_marseille","lat":43.31361,"lon":5.36759,"is_reserved":false,"is_disabled":false,"rental_uris":{"android":"levelo://app?vid=fb351b77-39b9-4407-912a-c1008fce46ae","ios":"levelo://app?vid=fb351b77-39b9-4407-912a-c1008fce46ae"},"vehicle_type_id":"4","last_reported":1758010491,"current_range_meters":14400,"station_id":"ce4bgr92rcd13ifvqc6g","pricing_plan_id":"cebpf4jnsgd1na2vs0mg"},{"bike_id":"8b81ef7d-9b8a-491c-a40b-2c92e2fdaec0","system_id":"levelo_inurba_marseille","lat":43.30905,"lon":5.36849,"is_reserved":false,"is_disabled":false,"rental_uris":{"android":"levelo://app?vid=8b81ef7d-9b8a-491c-a40b-2c92e2fdaec0","ios":"levelo://app?vid=8b81ef7d-9b8a-491c-a40b-2c92e2fdaec0"},"vehicle_type_id":"4","last_reported":1758010491,"current_range_meters":14400,"station_id":"ce4bgn92rcd13ifvqbvg","pricing_plan_id":"cebpf4jnsgd1na2vs0mg"},{"bike_id":"66e4218a-9958-44a2-8fcb-335bf5fade68","system_id":"levelo_inurba_marseille","lat":43.23159,"lon":5.43712,"is_reserved":false,"is_disabled":false,"rental_uris":{"android":"levelo://app?vid=66e4218a-9958-44a2-8fcb-335bf5fade68","ios":"levelo://app?vid=66e4218a-9958-44a2-8fcb-335bf5fade68"},"vehicle_type_id":"4","last_reported":1758010491,"current_range_meters":14800,"station_id":"ce4bhmp2rcd13ifvqgog","pricing_plan_id":"cebpf4jnsgd1na2vs0mg"},{"bike_id":"2945913f-65f4-4da0-b719-bd57b811afd4","system_id":"levelo_inurba_marseille","lat":43.24071,"lon":5.3776,"is_reserved":false,"is_disabled":false,"rental_uris":{"android":"levelo://app?vid=2945913f-65f4-4da0-b719-bd57b811afd4","ios":"levelo://app?vid=2945913f-65f4-4da0-b719-bd57b811afd4"},"vehicle_type_id":"4","last_reported":1758010491,"current_range_meters":14800,"station_id":"ce4bhnp2rcd13ifvqgvg","pricing_plan_id":"cebpf4jnsgd1na2vs0mg"},{"bike_id":"3d6df77a-5c36-40bd-8b3f-676f0e22d938","system_id":"levelo_inurba_marseille","lat":43.29578,"lon":5.3812,"is_reserved":false,"is_disabled":false,"rental_uris":{"android":"levelo://app?vid=3d6df77a-5c36-40bd-8b3f-676f0e22d938","ios":"levelo://app?vid=3d6df77a-5c36-40bd-8b3f-676f0e22d938"},"vehicle_type_id":"4","last_reported":1758010491,"current_range_meters":14800,"station_id":"ce4bgl12rcd13ifvqbo0","pricing_plan_id":"cebpf4jnsgd1na2vs0mg"},{"bike_id":"e2d3fe62-754d-4498-849b-8023c7b62843","system_id":"levelo_inurba_marseille","lat":43.29614,"lon":5.37725,"is_reserved":false,"is_disabled":false,"rental_uris":{"android":"levelo://app?vid=e2d3fe62-754d-4498-849b-8023c7b62843","ios":"levelo://app?vid=e2d3fe62-754d-4498-849b-8023c7b62843"},"vehicle_type_id":"4","last_reported":1758010491,"current_range_meters":14400,"station_id":"ce4bgi92rcd13ifvqb90","pricing_plan_id":"cebpf4jnsgd1na2vs0mg"},{"bike_id":"7401f904-c7a5-4420-9a38-b32c76084c39","system_id":"levelo_inurba_marseille","lat":43.28269,"lon":5.35077,"is_reserved":false,"is_disabled":true,"rental_uris":{"android":"levelo://app?vid=7401f904-c7a5-4420-9a38-b32c76084c39","ios":"levelo://app?vid=7401f904-c7a5-4420-9a38-b32c76084c39"},"vehicle_type_id":"4","last_reported":1758010491,"current_range_meters":14800,"station_id":"ce4bhbp2rcd13ifvqerg","pricing_plan_id":"cebpf4jnsgd1na2vs0mg"},{"bike_id":"3b26aa0d-3679-4b4c-9b55-1096f6d08a9d","system_id":"levelo_inurba_marseille","lat":43.31293,"lon":5.3939,"is_reserved":false,"is_disabled":false,"rental_uris":{"android":"levelo://app?vid=3b26aa0d-3679-4b4c-9b55-1096f6d08a9d","ios":"levelo://app?vid=3b26aa0d-3679-4b4c-9b55-1096f6d08a9d"},"vehicle_type_id":"4","last_reported":1758010491,"current_range_meters":14800,"station_id":"","pricing_plan_id":"cebpf4jnsgd1na2vs0mg"},{"bike_id":"3b1a430b-81a2-48c0-89b0-0b9735b5d487","system_id":"levelo_inurba_marseille","lat":43.30298,"lon":5.37735,"is_reserved":false,"is_disabled":false,"rental_uris":{"android":"levelo://app?vid=3b1a430b-81a2-48c0-89b0-0b9735b5d487","ios":"levelo://app?vid=3b1a430b-81a2-48c0-89b0-0b9735b5d487"},"vehicle_type_id":"4","last_reported":1758010491,"current_range_meters":14800,"station_id":"ce4bguh2rcd13ifvqcj0","pricing_plan_id":"cebpf4jnsgd1na2vs0mg"},{"bike_id":"accb08f3-93e3-462e-8aa3-1eaae6d4a412","system_id":"levelo_inurba_marseille","lat":43.23264,"lon":5.43596,"is_reserved":false,"is_disabled":false,"rental_uris":{"android":"levelo://app?vid=accb08f3-93e3-462e-8aa3-1eaae6d4a412","ios":"levelo://app?vid=accb08f3-93e3-462e-8aa3-1eaae6d4a412"},"vehicle_type_id":"4","last_reported":1758010491,"current_range_meters":14800,"station_id":"ce4bhmp2rcd13ifvqgog","pricing_plan_id":"cebpf4jnsgd1na2vs0mg"},{"bike_id":"ed19f92c-99d8-4ecc-9c2d-d0a1cbc83876","system_id":"levelo_inurba_marseille","lat":43.2909,"lon":5.38143,"is_reserved":false,"is_disabled":false,"rental_uris":{"android":"levelo://app?vid=ed19f92c-99d8-4ecc-9c2d-d0a1cbc83876","ios":"levelo://app?vid=ed19f92c-99d8-4ecc-9c2d-d0a1cbc83876"},"vehicle_type_id":"4","last_reported":1758010491,"current_range_meters":14800,"station_id":"ce4bh512rcd13ifvqe2g","pricing_plan_id":"cebpf4jnsgd1na2vs0mg"},{"bike_id":"34a6ec99-5959-4569-afd9-ef33249ae80c","system_id":"levelo_inurba_marseille","lat":43.24081,"lon":5.37755,"is_reserved":false,"is_disabled":false,"rental_uris":{"android":"levelo://app?vid=34a6ec99-5959-4569-afd9-ef33249ae80c","ios":"levelo://app?vid=34a6ec99-5959-4569-afd9-ef33249ae80c"},"vehicle_type_id":"4","last_reported":1758010491,"current_range_meters":15200,"station_id":"ce4bhnp2rcd13ifvqgvg","pricing_plan_id":"cebpf4jnsgd1na2vs0mg"},{"bike_id":"0d42a32d-3f59-4107-ac4d-4e0df2bfda36","system_id":"levelo_inurba_marseille","lat":43.29621,"lon":5.37723,"is_reserved":false,"is_disabled":false,"rental_uris":{"android":"levelo://app?vid=0d42a32d-3f59-4107-ac4d-4e0df2bfda36","ios":"levelo://app?vid=0d42a32d-3f59-4107-ac4d-4e0df2bfda36"},"vehicle_type_id":"4","last_reported":1758010491,"current_range_meters":15200,"station_id":"ce4bgi92rcd13ifvqb90","pricing_plan_id":"cebpf4jnsgd1na2vs0mg"},{"bike_id":"cac80359-5819-4447-bec5-6f9eb0c5de65","system_id":"levelo_inurba_marseille","lat":43.25739,"lon":5.41126,"is_reserved":false,"is_disabled":false,"rental_uris":{"android":"levelo://app?vid=cac80359-5819-4447-bec5-6f9eb0c5de65","ios":"levelo://app?vid=cac80359-5819-4447-bec5-6f9eb0c5de65"},"vehicle_type_id":"4","last_reported":1758010491,"current_range_meters":15200,"station_id":"ce4bhkp2rcd13ifvqgd0","pricing_plan_id":"cebpf4jnsgd1na2vs0mg"},{"bike_id":"0f4d2891-6929-4e20-aef8-6d5e9c64bbc4","system_id":"levelo_inurba_marseille","lat":43.30141,"lon":5.374117,"is_reserved":false,"is_disabled":false,"rental_uris":{"android":"levelo://app?vid=0f4d2891-6929-4e20-aef8-6d5e9c64bbc4","ios":"levelo://app?vid=0f4d2891-6929-4e20-aef8-6d5e9c64bbc4"},"vehicle_type_id":"4","last_reported":1758010491,"current_range_meters":15200,"station_id":"ce4bgs92rcd13ifvqcc0","pricing_plan_id":"cebpf4jnsgd1na2vs0mg"},{"bike_id":"0049acfe-97a7-4c73-afbf-6c0e3d2fdff3","system_id":"levelo_inurba_marseille","lat":43.284876,"lon":5.385559,"is_reserved":false,"is_disabled":true,"rental_uris":{"android":"levelo://app?vid=0049acfe-97a7-4c73-afbf-6c0e3d2fdff3","ios":"levelo://app?vid=0049acfe-97a7-4c73-afbf-6c0e3d2fdff3"},"vehicle_type_id":"4","last_reported":1758010491,"current_range_meters":15200,"station_id":"ce4bh8p2rcd13ifvqeb0","pricing_plan_id":"cebpf4jnsgd1na2vs0mg"},{"bike_id":"cfb1c119-6e15-4f56-8103-7f8b82d970db","system_id":"levelo_inurba_marseille","lat":43.30465,"lon":5.37917,"is_reserved":false,"is_disabled":true,"rental_uris":{"android":"levelo://app?vid=cfb1c119-6e15-4f56-8103-7f8b82d970db","ios":"levelo://app?vid=cfb1c119-6e15-4f56-8103-7f8b82d970db"},"vehicle_type_id":"4","last_reported":1758010491,"current_range_meters":15200,"station_id":"ce4bgup2rcd13ifvqcn0","pricing_plan_id":"cebpf4jnsgd1na2vs0mg"},{"bike_id":"953e092d-4f45-4ddc-87ad-676d7df26a53","system_id":"levelo_inurba_marseille","lat":43.27492,"lon":5.42454,"is_reserved":false,"is_disabled":false,"rental_uris":{"android":"levelo://app?vid=953e092d-4f45-4ddc-87ad-676d7df26a53","ios":"levelo://app?vid=953e092d-4f45-4ddc-87ad-676d7df26a53"},"vehicle_type_id":"4","last_reported":1758010491,"current_range_meters":16000,"station_id":"ce4bhn92rcd13ifvqgrg","pricing_plan_id":"cebpf4jnsgd1na2vs0mg"},{"bike_id":"62473aca-5d60-4f9b-8d0a-e6ce0ea7fc2f","system_id":"levelo_inurba_marseille","lat":43.30343,"lon":5.36612,"is_reserved":false,"is_disabled":false,"rental_uris":{"android":"levelo://app?vid=62473aca-5d60-4f9b-8d0a-e6ce0ea7fc2f","ios":"levelo://app?vid=62473aca-5d60-4f9b-8d0a-e6ce0ea7fc2f"},"vehicle_type_id":"4","last_reported":1758010491,"current_range_meters":16000,"station_id":"","pricing_plan_id":"cebpf4jnsgd1na2vs0mg"},{"bike_id":"8f7bbb28-f3e1-4f22-be70-f64adb064283","system_id":"levelo_inurba_marseille","lat":43.29161,"lon":5.37162,"is_reserved":false,"is_disabled":false,"rental_uris":{"android":"levelo://app?vid=8f7bbb28-f3e1-4f22-be70-f64adb064283","ios":"levelo://app?vid=8f7bbb28-f3e1-4f22-be70-f64adb064283"},"vehicle_type_id":"4","last_reported":1758010491,"current_range_meters":16000,"station_id":"ce4bha92rcd13ifvqeh0","pricing_plan_id":"cebpf4jnsgd1na2vs0mg"},{"bike_id":"4e1b42c4-f46c-4c38-84a0-314288adaf06","system_id":"levelo_inurba_marseille","lat":43.27937,"lon":5.41046,"is_reserved":false,"is_disabled":true,"rental_uris":{"android":"levelo://app?vid=4e1b42c4-f46c-4c38-84a0-314288adaf06","ios":"levelo://app?vid=4e1b42c4-f46c-4c38-84a0-314288adaf06"},"vehicle_type_id":"4","last_reported":1758010491,"current_range_meters":16000,"station_id":"ce4bhnp2rcd13ifvqh0g","pricing_plan_id":"cebpf4jnsgd1na2vs0mg"},{"bike_id":"04b4f009-cf9e-4926-b714-2cbafec1451b","system_id":"levelo_inurba_marseille","lat":43.28483,"lon":5.3842,"is_reserved":false,"is_disabled":false,"rental_uris":{"android":"levelo://app?vid=04b4f009-cf9e-4926-b714-2cbafec1451b","ios":"levelo://app?vid=04b4f009-cf9e-4926-b714-2cbafec1451b"},"vehicle_type_id":"4","last_reported":1758010491,"current_range_meters":16000,"station_id":"ce4bh512rcd13ifvqe3g","pricing_plan_id":"cebpf4jnsgd1na2vs0mg"},{"bike_id":"819acd2d-1fa5-4830-afb3-48b5185776e3","system_id":"levelo_inurba_marseille","lat":43.29894,"lon":5.43678,"is_reserved":false,"is_disabled":false,"rental_uris":{"android":"levelo://app?vid=819acd2d-1fa5-4830-afb3-48b5185776e3","ios":"levelo://app?vid=819acd2d-1fa5-4830-afb3-48b5185776e3"},"vehicle_type_id":"4","last_reported":1758010491,"current_range_meters":16000,"station_id":"ce4bhpp2rcd13ifvqhfg","pricing_plan_id":"cebpf4jnsgd1na2vs0mg"},{"bike_id":"877200db-b926-4a87-9b4b-2878a3439e3c","system_id":"levelo_inurba_marseille","lat":43.2549,"lon":5.3765,"is_reserved":false,"is_disabled":false,"rental_uris":{"android":"levelo://app?vid=877200db-b926-4a87-9b4b-2878a3439e3c","ios":"levelo://app?vid=877200db-b926-4a87-9b4b-2878a3439e3c"},"vehicle_type_id":"4","last_reported":1758010491,"current_range_meters":16000,"station_id":"ce4bhh12rcd13ifvqff0","pricing_plan_id":"cebpf4jnsgd1na2vs0mg"},{"bike_id":"c5db8956-5cb9-45c3-98ae-2d5ca5a164f9","system_id":"levelo_inurba_marseille","lat":43.30544,"lon":5.367258,"is_reserved":false,"is_disabled":false,"rental_uris":{"android":"levelo://app?vid=c5db8956-5cb9-45c3-98ae-2d5ca5a164f9","ios":"levelo://app?vid=c5db8956-5cb9-45c3-98ae-2d5ca5a164f9"},"vehicle_type_id":"4","last_reported":1758010491,"current_range_meters":16000,"station_id":"ce4bgrp2rcd13ifvqc9g","pricing_plan_id":"cebpf4jnsgd1na2vs0mg"},{"bike_id":"ca4870c2-98e3-4ba0-969e-2d60537ab089","system_id":"levelo_inurba_marseille","lat":43.24995,"lon":5.38931,"is_reserved":false,"is_disabled":false,"rental_uris":{"android":"levelo://app?vid=ca4870c2-98e3-4ba0-969e-2d60537ab089","ios":"levelo://app?vid=ca4870c2-98e3-4ba0-969e-2d60537ab089"},"vehicle_type_id":"4","last_reported":1758010491,"current_range_meters":16000,"station_id":"ce4bhgp2rcd13ifvqfd0","pricing_plan_id":"cebpf4jnsgd1na2vs0mg"},{"bike_id":"9b717e40-b361-45f0-a703-618b4dac9174","system_id":"levelo_inurba_marseille","lat":43.3015,"lon":5.37413,"is_reserved":false,"is_disabled":true,"rental_uris":{"android":"levelo://app?vid=9b717e40-b361-45f0-a703-618b4dac9174","ios":"levelo://app?vid=9b717e40-b361-45f0-a703-618b4dac9174"},"vehicle_type_id":"4","last_reported":1758010491,"current_range_meters":16000,"station_id":"ce4bgs92rcd13ifvqcc0","pricing_plan_id":"cebpf4jnsgd1na2vs0mg"},{"bike_id":"acef2ffc-7eea-422b-9741-f34a74e6e6d0","system_id":"levelo_inurba_marseille","lat":43.231424,"lon":5.437173,"is_reserved":false,"is_disabled":false,"rental_uris":{"android":"levelo://app?vid=acef2ffc-7eea-422b-9741-f34a74e6e6d0","ios":"levelo://app?vid=acef2ffc-7eea-422b-9741-f34a74e6e6d0"},"vehicle_type_id":"4","last_reported":1758010491,"current_range_meters":16400,"station_id":"ce4bhmp2rcd13ifvqgog","pricing_plan_id":"cebpf4jnsgd1na2vs0mg"},{"bike_id":"ece07351-e21d-4c48-bd8e-d6076d0d6379","system_id":"levelo_inurba_marseille","lat":43.28484,"lon":5.37491,"is_reserved":false,"is_disabled":false,"rental_uris":{"android":"levelo://app?vid=ece07351-e21d-4c48-bd8e-d6076d0d6379","ios":"levelo://app?vid=ece07351-e21d-4c48-bd8e-d6076d0d6379"},"vehicle_type_id":"4","last_reported":1758010491,"current_range_meters":16400,"station_id":"","pricing_plan_id":"cebpf4jnsgd1na2vs0mg"},{"bike_id":"b790cddf-9efc-4e43-b7b9-8f0186b4e0ba","system_id":"levelo_inurba_marseille","lat":43.25327,"lon":5.42168,"is_reserved":false,"is_disabled":true,"rental_uris":{"android":"levelo://app?vid=b790cddf-9efc-4e43-b7b9-8f0186b4e0ba","ios":"levelo://app?vid=b790cddf-9efc-4e43-b7b9-8f0186b4e0ba"},"vehicle_type_id":"4","last_reported":1758010491,"current_range_meters":16400,"station_id":"st_d2m65c5bi1j21697t3ng","pricing_plan_id":"cebpf4jnsgd1na2vs0mg"},{"bike_id":"11555ead-152a-4e2f-ac3e-7aaa852c50e5","system_id":"levelo_inurba_marseille","lat":43.225326,"lon":5.348358,"is_reserved":false,"is_disabled":false,"rental_uris":{"android":"levelo://app?vid=11555ead-152a-4e2f-ac3e-7aaa852c50e5","ios":"levelo://app?vid=11555ead-152a-4e2f-ac3e-7aaa852c50e5"},"vehicle_type_id":"4","last_reported":1758010491,"current_range_meters":16400,"station_id":"","pricing_plan_id":"cebpf4jnsgd1na2vs0mg"},{"bike_id":"af855c88-100f-429f-ba0c-3dad51b30928","system_id":"levelo_inurba_marseille","lat":43.211953,"lon":5.350639,"is_reserved":false,"is_disabled":false,"rental_uris":{"android":"levelo://app?vid=af855c88-100f-429f-ba0c-3dad51b30928","ios":"levelo://app?vid=af855c88-100f-429f-ba0c-3dad51b30928"},"vehicle_type_id":"4","last_reported":1758010491,"current_range_meters":16400,"station_id":"st_cvj6sg6p6f1abm77japg","pricing_plan_id":"cebpf4jnsgd1na2vs0mg"},{"bike_id":"6e4db572-0aa6-4923-88a7-349397830237","system_id":"levelo_inurba_marseille","lat":43.30478,"lon":5.37907,"is_reserved":false,"is_disabled":false,"rental_uris":{"android":"levelo://app?vid=6e4db572-0aa6-4923-88a7-349397830237","ios":"levelo://app?vid=6e4db572-0aa6-4923-88a7-349397830237"},"vehicle_type_id":"4","last_reported":1758010491,"current_range_meters":16400,"station_id":"ce4bgup2rcd13ifvqcn0","pricing_plan_id":"cebpf4jnsgd1na2vs0mg"},{"bike_id":"10289603-3b39-4523-b2ef-f70358ccecee","system_id":"levelo_inurba_marseille","lat":43.2572,"lon":5.41109,"is_reserved":false,"is_disabled":false,"rental_uris":{"android":"levelo://app?vid=10289603-3b39-4523-b2ef-f70358ccecee","ios":"levelo://app?vid=10289603-3b39-4523-b2ef-f70358ccecee"},"vehicle_type_id":"4","last_reported":1758010491,"current_range_meters":16400,"station_id":"ce4bhkp2rcd13ifvqgd0","pricing_plan_id":"cebpf4jnsgd1na2vs0mg"},{"bike_id":"8c7692b9-1451-4501-a890-6cc020078d7d","system_id":"levelo_inurba_marseille","lat":43.24075,"lon":5.37757,"is_reserved":false,"is_disabled":false,"rental_uris":{"android":"levelo://app?vid=8c7692b9-1451-4501-a890-6cc020078d7d","ios":"levelo://app?vid=8c7692b9-1451-4501-a890-6cc020078d7d"},"vehicle_type_id":"4","last_reported":1758010491,"current_range_meters":16400,"station_id":"ce4bhnp2rcd13ifvqgvg","pricing_plan_id":"cebpf4jnsgd1na2vs0mg"},{"bike_id":"e7a84df9-d247-4184-8399-fc192bced154","system_id":"levelo_inurba_marseille","lat":43.30899,"lon":5.36847,"is_reserved":false,"is_disabled":false,"rental_uris":{"android":"levelo://app?vid=e7a84df9-d247-4184-8399-fc192bced154","ios":"levelo://app?vid=e7a84df9-d247-4184-8399-fc192bced154"},"vehicle_type_id":"4","last_reported":1758010491,"current_range_meters":16400,"station_id":"ce4bgn92rcd13ifvqbvg","pricing_plan_id":"cebpf4jnsgd1na2vs0mg"},{"bike_id":"019366c8-574b-4633-b3de-4179fd61aace","system_id":"levelo_inurba_marseille","lat":43.275093,"lon":5.384321,"is_reserved":false,"is_disabled":false,"rental_uris":{"android":"levelo://app?vid=019366c8-574b-4633-b3de-4179fd61aace","ios":"levelo://app?vid=019366c8-574b-4633-b3de-4179fd61aace"},"vehicle_type_id":"4","last_reported":1758010491,"current_range_meters":16400,"station_id":"ce4bhh92rcd13ifvqfi0","pricing_plan_id":"cebpf4jnsgd1na2vs0mg"},{"bike_id":"88a8a850-d513-47ec-8870-e7210ef51b52","system_id":"levelo_inurba_marseille","lat":43.29929,"lon":5.38523,"is_reserved":false,"is_disabled":false,"rental_uris":{"android":"levelo://app?vid=88a8a850-d513-47ec-8870-e7210ef51b52","ios":"levelo://app?vid=88a8a850-d513-47ec-8870-e7210ef51b52"},"vehicle_type_id":"4","last_reported":1758010491,"current_range_meters":16800,"station_id":"","pricing_plan_id":"cebpf4jnsgd1na2vs0mg"},{"bike_id":"95b79ffc-918e-4aed-bd76-bc18213c0376","system_id":"levelo_inurba_marseille","lat":43.30134,"lon":5.37401,"is_reserved":false,"is_disabled":false,"rental_uris":{"android":"levelo://app?vid=95b79ffc-918e-4aed-bd76-bc18213c0376","ios":"levelo://app?vid=95b79ffc-918e-4aed-bd76-bc18213c0376"},"vehicle_type_id":"4","last_reported":1758010491,"current_range_meters":16800,"station_id":"ce4bgs92rcd13ifvqcc0","pricing_plan_id":"cebpf4jnsgd1na2vs0mg"},{"bike_id":"82e0bfcc-bba2-4c2c-9484-d3ca3b13a18b","system_id":"levelo_inurba_marseille","lat":43.29464,"lon":5.37556,"is_reserved":false,"is_disabled":false,"rental_uris":{"android":"levelo://app?vid=82e0bfcc-bba2-4c2c-9484-d3ca3b13a18b","ios":"levelo://app?vid=82e0bfcc-bba2-4c2c-9484-d3ca3b13a18b"},"vehicle_type_id":"4","last_reported":1758010491,"current_range_meters":16800,"station_id":"","pricing_plan_id":"cebpf4jnsgd1na2vs0mg"},{"bike_id":"f4f7a8aa-3adb-49d0-a70c-78c33291b726","system_id":"levelo_inurba_marseille","lat":43.23153,"lon":5.43708,"is_reserved":false,"is_disabled":false,"rental_uris":{"android":"levelo://app?vid=f4f7a8aa-3adb-49d0-a70c-78c33291b726","ios":"levelo://app?vid=f4f7a8aa-3adb-49d0-a70c-78c33291b726"},"vehicle_type_id":"4","last_reported":1758010491,"current_range_meters":16800,"station_id":"ce4bhmp2rcd13ifvqgog","pricing_plan_id":"cebpf4jnsgd1na2vs0mg"},{"bike_id":"f5538dd9-94c3-433e-ada5-fc5d10ad63b0","system_id":"levelo_inurba_marseille","lat":43.30909,"lon":5.3685,"is_reserved":false,"is_disabled":false,"rental_uris":{"android":"levelo://app?vid=f5538dd9-94c3-433e-ada5-fc5d10ad63b0","ios":"levelo://app?vid=f5538dd9-94c3-433e-ada5-fc5d10ad63b0"},"vehicle_type_id":"4","last_reported":1758010491,"current_range_meters":16800,"station_id":"ce4bgn92rcd13ifvqbvg","pricing_plan_id":"cebpf4jnsgd1na2vs0mg"},{"bike_id":"40495e59-b743-486e-987c-cb0c3ab2f191","system_id":"levelo_inurba_marseille","lat":43.33284,"lon":5.41286,"is_reserved":false,"is_disabled":false,"rental_uris":{"android":"levelo://app?vid=40495e59-b743-486e-987c-cb0c3ab2f191","ios":"levelo://app?vid=40495e59-b743-486e-987c-cb0c3ab2f191"},"vehicle_type_id":"4","last_reported":1758010491,"current_range_meters":16800,"station_id":"","pricing_plan_id":"cebpf4jnsgd1na2vs0mg"},{"bike_id":"20b55fc7-55c9-4b33-98a2-109605dfc668","system_id":"levelo_inurba_marseille","lat":43.31224,"lon":5.36855,"is_reserved":false,"is_disabled":false,"rental_uris":{"android":"levelo://app?vid=20b55fc7-55c9-4b33-98a2-109605dfc668","ios":"levelo://app?vid=20b55fc7-55c9-4b33-98a2-109605dfc668"},"vehicle_type_id":"4","last_reported":1758010491,"current_range_meters":16800,"station_id":"ce4bgl92rcd13ifvqbq0","pricing_plan_id":"cebpf4jnsgd1na2vs0mg"},{"bike_id":"62931d3a-5989-4010-95bc-726355a92058","system_id":"levelo_inurba_marseille","lat":43.30134,"lon":5.37419,"is_reserved":false,"is_disabled":false,"rental_uris":{"android":"levelo://app?vid=62931d3a-5989-4010-95bc-726355a92058","ios":"levelo://app?vid=62931d3a-5989-4010-95bc-726355a92058"},"vehicle_type_id":"4","last_reported":1758010491,"current_range_meters":16800,"station_id":"ce4bgs92rcd13ifvqcc0","pricing_plan_id":"cebpf4jnsgd1na2vs0mg"},{"bike_id":"8ad3dab9-1d2d-4ac0-a622-2705413043f8","system_id":"levelo_inurba_marseille","lat":43.24633,"lon":5.43163,"is_reserved":false,"is_disabled":false,"rental_uris":{"android":"levelo://app?vid=8ad3dab9-1d2d-4ac0-a622-2705413043f8","ios":"levelo://app?vid=8ad3dab9-1d2d-4ac0-a622-2705413043f8"},"vehicle_type_id":"4","last_reported":1758010491,"current_range_meters":16800,"station_id":"st_d2m6c4gdas8pm72e190g","pricing_plan_id":"cebpf4jnsgd1na2vs0mg"},{"bike_id":"5468743a-d065-4569-944f-260b4bcb1af3","system_id":"levelo_inurba_marseille","lat":43.25917,"lon":5.40884,"is_reserved":false,"is_disabled":false,"rental_uris":{"android":"levelo://app?vid=5468743a-d065-4569-944f-260b4bcb1af3","ios":"levelo://app?vid=5468743a-d065-4569-944f-260b4bcb1af3"},"vehicle_type_id":"4","last_reported":1758010491,"current_range_meters":17200,"station_id":"ce4bhm92rcd13ifvqglg","pricing_plan_id":"cebpf4jnsgd1na2vs0mg"},{"bike_id":"003515e8-8117-44bb-979d-5f47e8d50fda","system_id":"levelo_inurba_marseille","lat":43.30628,"lon":5.37582,"is_reserved":false,"is_disabled":false,"rental_uris":{"android":"levelo://app?vid=003515e8-8117-44bb-979d-5f47e8d50fda","ios":"levelo://app?vid=003515e8-8117-44bb-979d-5f47e8d50fda"},"vehicle_type_id":"4","last_reported":1758010491,"current_range_meters":17200,"station_id":"","pricing_plan_id":"cebpf4jnsgd1na2vs0mg"},{"bike_id":"5961a840-33db-4edd-b578-d1d5e9e82e5f","system_id":"levelo_inurba_marseille","lat":43.301517,"lon":5.380891,"is_reserved":false,"is_disabled":false,"rental_uris":{"android":"levelo://app?vid=5961a840-33db-4edd-b578-d1d5e9e82e5f","ios":"levelo://app?vid=5961a840-33db-4edd-b578-d1d5e9e82e5f"},"vehicle_type_id":"4","last_reported":1758010491,"current_range_meters":17200,"station_id":"ce4bgjp2rcd13ifvqbh0","pricing_plan_id":"cebpf4jnsgd1na2vs0mg"},{"bike_id":"96a6d923-2e2c-454f-ad1d-0f793fc2fd52","system_id":"levelo_inurba_marseille","lat":43.24077,"lon":5.37759,"is_reserved":false,"is_disabled":false,"rental_uris":{"android":"levelo://app?vid=96a6d923-2e2c-454f-ad1d-0f793fc2fd52","ios":"levelo://app?vid=96a6d923-2e2c-454f-ad1d-0f793fc2fd52"},"vehicle_type_id":"4","last_reported":1758010491,"current_range_meters":17200,"station_id":"ce4bhnp2rcd13ifvqgvg","pricing_plan_id":"cebpf4jnsgd1na2vs0mg"},{"bike_id":"f6f0bfd1-59d6-45a0-85d1-eed5a0804632","system_id":"levelo_inurba_marseille","lat":43.31273,"lon":5.4017,"is_reserved":false,"is_disabled":false,"rental_uris":{"android":"levelo://app?vid=f6f0bfd1-59d6-45a0-85d1-eed5a0804632","ios":"levelo://app?vid=f6f0bfd1-59d6-45a0-85d1-eed5a0804632"},"vehicle_type_id":"4","last_reported":1758010491,"current_range_meters":17200,"station_id":"ce4bh092rcd13ifvqd30","pricing_plan_id":"cebpf4jnsgd1na2vs0mg"},{"bike_id":"96644ae3-2807-4f95-a981-fef4ac2b0e69","system_id":"levelo_inurba_marseille","lat":43.225329,"lon":5.34835,"is_reserved":false,"is_disabled":false,"rental_uris":{"android":"levelo://app?vid=96644ae3-2807-4f95-a981-fef4ac2b0e69","ios":"levelo://app?vid=96644ae3-2807-4f95-a981-fef4ac2b0e69"},"vehicle_type_id":"4","last_reported":1758010491,"current_range_meters":17200,"station_id":"","pricing_plan_id":"cebpf4jnsgd1na2vs0mg"},{"bike_id":"5dbca62f-7019-41e0-bb60-cbaa2e477dc8","system_id":"levelo_inurba_marseille","lat":43.30909,"lon":5.3685,"is_reserved":false,"is_disabled":false,"rental_uris":{"android":"levelo://app?vid=5dbca62f-7019-41e0-bb60-cbaa2e477dc8","ios":"levelo://app?vid=5dbca62f-7019-41e0-bb60-cbaa2e477dc8"},"vehicle_type_id":"4","last_reported":1758010491,"current_range_meters":17200,"station_id":"ce4bgn92rcd13ifvqbvg","pricing_plan_id":"cebpf4jnsgd1na2vs0mg"},{"bike_id":"cf9074e4-6883-4530-8c06-ad84ab65c19a","system_id":"levelo_inurba_marseille","lat":43.28712,"lon":5.37942,"is_reserved":false,"is_disabled":false,"rental_uris":{"android":"levelo://app?vid=cf9074e4-6883-4530-8c06-ad84ab65c19a","ios":"levelo://app?vid=cf9074e4-6883-4530-8c06-ad84ab65c19a"},"vehicle_type_id":"4","last_reported":1758010491,"current_range_meters":17200,"station_id":"ce4bh9p2rcd13ifvqec0","pricing_plan_id":"cebpf4jnsgd1na2vs0mg"},{"bike_id":"c50f611b-169a-4aac-8890-0138fc7259ff","system_id":"levelo_inurba_marseille","lat":43.31361,"lon":5.36734,"is_reserved":false,"is_disabled":false,"rental_uris":{"android":"levelo://app?vid=c50f611b-169a-4aac-8890-0138fc7259ff","ios":"levelo://app?vid=c50f611b-169a-4aac-8890-0138fc7259ff"},"vehicle_type_id":"4","last_reported":1758010491,"current_range_meters":17200,"station_id":"ce4bgr92rcd13ifvqc6g","pricing_plan_id":"cebpf4jnsgd1na2vs0mg"},{"bike_id":"e475e9f0-91d5-4f8c-a272-09b31ed2056d","system_id":"levelo_inurba_marseille","lat":43.23156,"lon":5.43711,"is_reserved":false,"is_disabled":false,"rental_uris":{"android":"levelo://app?vid=e475e9f0-91d5-4f8c-a272-09b31ed2056d","ios":"levelo://app?vid=e475e9f0-91d5-4f8c-a272-09b31ed2056d"},"vehicle_type_id":"4","last_reported":1758010491,"current_range_meters":17200,"station_id":"ce4bhmp2rcd13ifvqgog","pricing_plan_id":"cebpf4jnsgd1na2vs0mg"},{"bike_id":"f6642530-1f22-45aa-8723-61211fddcdfe","system_id":"levelo_inurba_marseille","lat":43.24386,"lon":5.37055,"is_reserved":false,"is_disabled":false,"rental_uris":{"android":"levelo://app?vid=f6642530-1f22-45aa-8723-61211fddcdfe","ios":"levelo://app?vid=f6642530-1f22-45aa-8723-61211fddcdfe"},"vehicle_type_id":"4","last_reported":1758010491,"current_range_meters":17600,"station_id":"ce4bhhh2rcd13ifvqfk0","pricing_plan_id":"cebpf4jnsgd1na2vs0mg"},{"bike_id":"237ff8c3-18a9-4403-94a8-15862296b062","system_id":"levelo_inurba_marseille","lat":43.23159,"lon":5.43708,"is_reserved":false,"is_disabled":false,"rental_uris":{"android":"levelo://app?vid=237ff8c3-18a9-4403-94a8-15862296b062","ios":"levelo://app?vid=237ff8c3-18a9-4403-94a8-15862296b062"},"vehicle_type_id":"4","last_reported":1758010491,"current_range_meters":17600,"station_id":"ce4bhmp2rcd13ifvqgog","pricing_plan_id":"cebpf4jnsgd1na2vs0mg"},{"bike_id":"ca5a1340-d41e-49f3-95f8-599734e0a36c","system_id":"levelo_inurba_marseille","lat":43.225336,"lon":5.348339,"is_reserved":false,"is_disabled":false,"rental_uris":{"android":"levelo://app?vid=ca5a1340-d41e-49f3-95f8-599734e0a36c","ios":"levelo://app?vid=ca5a1340-d41e-49f3-95f8-599734e0a36c"},"vehicle_type_id":"4","last_reported":1758010491,"current_range_meters":17600,"station_id":"","pricing_plan_id":"cebpf4jnsgd1na2vs0mg"},{"bike_id":"ed3829aa-3872-45ae-8d72-446d24328d60","system_id":"levelo_inurba_marseille","lat":43.24176,"lon":5.39725,"is_reserved":false,"is_disabled":false,"rental_uris":{"android":"levelo://app?vid=ed3829aa-3872-45ae-8d72-446d24328d60","ios":"levelo://app?vid=ed3829aa-3872-45ae-8d72-446d24328d60"},"vehicle_type_id":"4","last_reported":1758010491,"current_range_meters":17600,"station_id":"ce4bhn12rcd13ifvqgpg","pricing_plan_id":"cebpf4jnsgd1na2vs0mg"},{"bike_id":"c20d728a-9781-4249-9495-cdaad4800425","system_id":"levelo_inurba_marseille","lat":43.30942,"lon":5.39028,"is_reserved":false,"is_disabled":false,"rental_uris":{"android":"levelo://app?vid=c20d728a-9781-4249-9495-cdaad4800425","ios":"levelo://app?vid=c20d728a-9781-4249-9495-cdaad4800425"},"vehicle_type_id":"4","last_reported":1758010491,"current_range_meters":17600,"station_id":"ce4bgup2rcd13ifvqco0","pricing_plan_id":"cebpf4jnsgd1na2vs0mg"},{"bike_id":"22f0687d-25d3-4094-9c4a-293a61e189a6","system_id":"levelo_inurba_marseille","lat":43.24055,"lon":5.40687,"is_reserved":false,"is_disabled":false,"rental_uris":{"android":"levelo://app?vid=22f0687d-25d3-4094-9c4a-293a61e189a6","ios":"levelo://app?vid=22f0687d-25d3-4094-9c4a-293a61e189a6"},"vehicle_type_id":"4","last_reported":1758010491,"current_range_meters":17600,"station_id":"","pricing_plan_id":"cebpf4jnsgd1na2vs0mg"},{"bike_id":"30dbcd00-b9a9-48cf-9c9a-22422cc17227","system_id":"levelo_inurba_marseille","lat":43.26224,"lon":5.40452,"is_reserved":false,"is_disabled":false,"rental_uris":{"android":"levelo://app?vid=30dbcd00-b9a9-48cf-9c9a-22422cc17227","ios":"levelo://app?vid=30dbcd00-b9a9-48cf-9c9a-22422cc17227"},"vehicle_type_id":"4","last_reported":1758010491,"current_range_meters":17600,"station_id":"ce4bhmh2rcd13ifvqgmg","pricing_plan_id":"cebpf4jnsgd1na2vs0mg"},{"bike_id":"daaceac3-35b1-45be-bcc5-cea7bf4aaef4","system_id":"levelo_inurba_marseille","lat":43.27488,"lon":5.4251,"is_reserved":false,"is_disabled":false,"rental_uris":{"android":"levelo://app?vid=daaceac3-35b1-45be-bcc5-cea7bf4aaef4","ios":"levelo://app?vid=daaceac3-35b1-45be-bcc5-cea7bf4aaef4"},"vehicle_type_id":"4","last_reported":1758010491,"current_range_meters":17600,"station_id":"ce4bhn92rcd13ifvqgrg","pricing_plan_id":"cebpf4jnsgd1na2vs0mg"},{"bike_id":"14f88e73-f446-4a21-816e-a8f294af2f1c","system_id":"levelo_inurba_marseille","lat":43.2406,"lon":5.37759,"is_reserved":false,"is_disabled":false,"rental_uris":{"android":"levelo://app?vid=14f88e73-f446-4a21-816e-a8f294af2f1c","ios":"levelo://app?vid=14f88e73-f446-4a21-816e-a8f294af2f1c"},"vehicle_type_id":"4","last_reported":1758010491,"current_range_meters":17600,"station_id":"ce4bhnp2rcd13ifvqgvg","pricing_plan_id":"cebpf4jnsgd1na2vs0mg"},{"bike_id":"3f1f73e6-bfac-49a9-8d7e-94c0152665ee","system_id":"levelo_inurba_marseille","lat":43.29573,"lon":5.37529,"is_reserved":false,"is_disabled":false,"rental_uris":{"android":"levelo://app?vid=3f1f73e6-bfac-49a9-8d7e-94c0152665ee","ios":"levelo://app?vid=3f1f73e6-bfac-49a9-8d7e-94c0152665ee"},"vehicle_type_id":"4","last_reported":1758010491,"current_range_meters":18000,"station_id":"ce4bgh92rcd13ifvqb50","pricing_plan_id":"cebpf4jnsgd1na2vs0mg"},{"bike_id":"1640a101-a331-49f0-aafd-f32c0bbd8bb8","system_id":"levelo_inurba_marseille","lat":43.31704,"lon":5.37742,"is_reserved":false,"is_disabled":false,"rental_uris":{"android":"levelo://app?vid=1640a101-a331-49f0-aafd-f32c0bbd8bb8","ios":"levelo://app?vid=1640a101-a331-49f0-aafd-f32c0bbd8bb8"},"vehicle_type_id":"4","last_reported":1758010491,"current_range_meters":18000,"station_id":"ce4bgth2rcd13ifvqch0","pricing_plan_id":"cebpf4jnsgd1na2vs0mg"},{"bike_id":"591cfb6c-28da-415e-8617-7887b07a7d9f","system_id":"levelo_inurba_marseille","lat":43.32479,"lon":5.3657,"is_reserved":false,"is_disabled":false,"rental_uris":{"android":"levelo://app?vid=591cfb6c-28da-415e-8617-7887b07a7d9f","ios":"levelo://app?vid=591cfb6c-28da-415e-8617-7887b07a7d9f"},"vehicle_type_id":"4","last_reported":1758010491,"current_range_meters":18000,"station_id":"ce4bhs12rcd13ifvqhvg","pricing_plan_id":"cebpf4jnsgd1na2vs0mg"},{"bike_id":"7cb510c7-6b00-4f66-9733-e704ef8c2a8d","system_id":"levelo_inurba_marseille","lat":43.28715,"lon":5.37933,"is_reserved":false,"is_disabled":false,"rental_uris":{"android":"levelo://app?vid=7cb510c7-6b00-4f66-9733-e704ef8c2a8d","ios":"levelo://app?vid=7cb510c7-6b00-4f66-9733-e704ef8c2a8d"},"vehicle_type_id":"4","last_reported":1758010491,"current_range_meters":18000,"station_id":"ce4bh9p2rcd13ifvqec0","pricing_plan_id":"cebpf4jnsgd1na2vs0mg"},{"bike_id":"a05fdb49-e038-4a84-8ea1-52f3eaaf07b1","system_id":"levelo_inurba_marseille","lat":43.22559,"lon":5.41651,"is_reserved":false,"is_disabled":false,"rental_uris":{"android":"levelo://app?vid=a05fdb49-e038-4a84-8ea1-52f3eaaf07b1","ios":"levelo://app?vid=a05fdb49-e038-4a84-8ea1-52f3eaaf07b1"},"vehicle_type_id":"4","last_reported":1758010491,"current_range_meters":18000,"station_id":"st_d2o4gvlbi1j2169b742g","pricing_plan_id":"cebpf4jnsgd1na2vs0mg"},{"bike_id":"3e38d538-dd34-4981-9d3c-7e224878c3d2","system_id":"levelo_inurba_marseille","lat":43.325422,"lon":5.414343,"is_reserved":false,"is_disabled":false,"rental_uris":{"android":"levelo://app?vid=3e38d538-dd34-4981-9d3c-7e224878c3d2","ios":"levelo://app?vid=3e38d538-dd34-4981-9d3c-7e224878c3d2"},"vehicle_type_id":"4","last_reported":1758010491,"current_range_meters":18000,"station_id":"ce4bhq12rcd13ifvqhhg","pricing_plan_id":"cebpf4jnsgd1na2vs0mg"},{"bike_id":"47e5ef79-96be-4aaf-a29f-b36e439986f3","system_id":"levelo_inurba_marseille","lat":43.274965,"lon":5.424546,"is_reserved":false,"is_disabled":true,"rental_uris":{"android":"levelo://app?vid=47e5ef79-96be-4aaf-a29f-b36e439986f3","ios":"levelo://app?vid=47e5ef79-96be-4aaf-a29f-b36e439986f3"},"vehicle_type_id":"4","last_reported":1758010491,"current_range_meters":18000,"station_id":"ce4bhn92rcd13ifvqgrg","pricing_plan_id":"cebpf4jnsgd1na2vs0mg"},{"bike_id":"fcd56ccc-f0ab-49ef-a538-8c498b5ecd49","system_id":"levelo_inurba_marseille","lat":43.2256,"lon":5.41623,"is_reserved":false,"is_disabled":false,"rental_uris":{"android":"levelo://app?vid=fcd56ccc-f0ab-49ef-a538-8c498b5ecd49","ios":"levelo://app?vid=fcd56ccc-f0ab-49ef-a538-8c498b5ecd49"},"vehicle_type_id":"4","last_reported":1758010491,"current_range_meters":18000,"station_id":"st_d2o4gvlbi1j2169b742g","pricing_plan_id":"cebpf4jnsgd1na2vs0mg"},{"bike_id":"eb6cbeef-bc92-4528-a915-7b01f98754fe","system_id":"levelo_inurba_marseille","lat":43.30276,"lon":5.3743,"is_reserved":false,"is_disabled":false,"rental_uris":{"android":"levelo://app?vid=eb6cbeef-bc92-4528-a915-7b01f98754fe","ios":"levelo://app?vid=eb6cbeef-bc92-4528-a915-7b01f98754fe"},"vehicle_type_id":"4","last_reported":1758010491,"current_range_meters":18000,"station_id":"","pricing_plan_id":"cebpf4jnsgd1na2vs0mg"},{"bike_id":"d1788760-0706-4b90-8999-db00a9e42210","system_id":"levelo_inurba_marseille","lat":43.32659,"lon":5.41005,"is_reserved":false,"is_disabled":true,"rental_uris":{"android":"levelo://app?vid=d1788760-0706-4b90-8999-db00a9e42210","ios":"levelo://app?vid=d1788760-0706-4b90-8999-db00a9e42210"},