{"last_updated":1762006118,"ttl":60,"version":"2.2","data":{"bikes":[{"bike_id":"d57a844b-264f-4723-85c5-c5335e858662","system_id":"levelo_inurba_marseille","lat":43.23186,"lon":5.40006,"is_reserved":false,"is_disabled":true,"rental_uris":{"android":"levelo://app?vid=d57a844b-264f-4723-85c5-c5335e858662","ios":"levelo://app?vid=d57a844b-264f-4723-85c5-c5335e858662"},"vehicle_type_id":"4","last_reported":1762006119,"current_range_meters":2800,"station_id":"ce4bhn12rcd13ifvqgqg","pricing_plan_id":"cebpf4jnsgd1na2vs0mg"},{"bike_id":"8ac02bd3-facd-4ea8-9895-babda0a203e0","system_id":"levelo_inurba_marseille","lat":43.284888,"lon":5.385596,"is_reserved":false,"is_disabled":false,"rental_uris":{"android":"levelo://app?vid=8ac02bd3-facd-4ea8-9895-babda0a203e0","ios":"levelo://app?vid=8ac02bd3-facd-4ea8-9895-babda0a203e0"},"vehicle_type_id":"4","last_reported":1762006119,"current_range_meters":3200,"station_id":"ce4bh8p2rcd13ifvqeb0","pricing_plan_id":"cebpf4jnsgd1na2vs0mg"},{"bike_id":"bad2b625-1c98-4703-9a3d-89fd064b7dd9","system_id":"levelo_inurba_marseille","lat":43.29197,"lon":5.35799,"is_reserved":false,"is_disabled":false,"rental_uris":{"android":"levelo://app?vid=bad2b625-1c98-4703-9a3d-89fd064b7dd9","ios":"levelo://app?vid=bad2b625-1c98-4703-9a3d-89fd064b7dd9"},"vehicle_type_id":"4","last_reported":1762006119,"current_range_meters":3200,"station_id":"ce4bhb12rcd13ifvqel0","pricing_plan_id":"cebpf4jnsgd1na2vs0mg"},{"bike_id":"17e21494-c608-4f7c-a3d7-5528d3ed4abf","system_id":"levelo_inurba_marseille","lat":43.30184,"lon":5.36623,"is_reserved":false,"is_disabled":false,"rental_uris":{"android":"levelo://app?vid=17e21494-c608-4f7c-a3d7-5528d3ed4abf","ios":"levelo://app?vid=17e21494-c608-4f7c-a3d7-5528d3ed4abf"},"vehicle_type_id":"4","last_reported":1762006119,"current_range_meters":3600,"station_id":"ce4bgrh2rcd13ifvqc8g","pricing_plan_id":"cebpf4jnsgd1na2vs0mg"},{"bike_id":"dbe5a017-5f48-48a9-a30c-d753021d6208","system_id":"levelo_inurba_marseille","lat":43.29684,"lon":5.39666,"is_reserved":false,"is_disabled":false,"rental_uris":{"android":"levelo://app?vid=dbe5a017-5f48-48a9-a30c-d753021d6208","ios":"levelo://app?vid=dbe5a017-5f48-48a9-a30c-d753021d6208"},"vehicle_type_id":"4","last_reported":1762006119,"current_range_meters":4000,"station_id":"","pricing_plan_id":"cebpf4jnsgd1na2vs0mg"},{"bike_id":"99601cc1-89cd-44a6-ac9e-cade860c4d0f","system_id":"levelo_inurba_marseille","lat":43.22925,"lon":5.35377,"is_reserved":false,"is_disabled":false,"rental_uris":{"android":"levelo://app?vid=99601cc1-89cd-44a6-ac9e-cade860c4d0f","ios":"levelo://app?vid=99601cc1-89cd-44a6-ac9e-cade860c4d0f"},"vehicle_type_id":"4","last_reported":1762006119,"current_range_meters":4000,"station_id":"cpo3532slgdg3j2ikp40","pricing_plan_id":"cebpf4jnsgd1na2vs0mg"},{"bike_id":"98c69ce9-b776-4a35-8190-c3322227776a","system_id":"levelo_inurba_marseille","lat":43.29356,"lon":5.39258,"is_reserved":false,"is_disabled":false,"rental_uris":{"android":"levelo://app?vid=98c69ce9-b776-4a35-8190-c3322227776a","ios":"levelo://app?vid=98c69ce9-b776-4a35-8190-c3322227776a"},"vehicle_type_id":"4","last_reported":1762006119,"current_range_meters":4000,"station_id":"","pricing_plan_id":"cebpf4jnsgd1na2vs0mg"},{"bike_id":"688e0991-23bb-4f67-a97d-b9bb7704a66a","system_id":"levelo_inurba_marseille","lat":43.29255,"lon":5.39101,"is_reserved":false,"is_disabled":false,"rental_uris":{"android":"levelo://app?vid=688e0991-23bb-4f67-a97d-b9bb7704a66a","ios":"levelo://app?vid=688e0991-23bb-4f67-a97d-b9bb7704a66a"},"vehicle_type_id":"4","last_reported":1762006119,"current_range_meters":4400,"station_id":"","pricing_plan_id":"cebpf4jnsgd1na2vs0mg"},{"bike_id":"b79a3487-701a-40e3-8bc6-4f2fb1c3466c","system_id":"levelo_inurba_marseille","lat":43.25492,"lon":5.37654,"is_reserved":false,"is_disabled":false,"rental_uris":{"android":"levelo://app?vid=b79a3487-701a-40e3-8bc6-4f2fb1c3466c","ios":"levelo://app?vid=b79a3487-701a-40e3-8bc6-4f2fb1c3466c"},"vehicle_type_id":"4","last_reported":1762006119,"current_range_meters":4400,"station_id":"ce4bhh12rcd13ifvqff0","pricing_plan_id":"cebpf4jnsgd1na2vs0mg"},{"bike_id":"45aca055-e806-4a8f-b226-ca07bd1906ad","system_id":"levelo_inurba_marseille","lat":43.27823,"lon":5.40776,"is_reserved":false,"is_disabled":false,"rental_uris":{"android":"levelo://app?vid=45aca055-e806-4a8f-b226-ca07bd1906ad","ios":"levelo://app?vid=45aca055-e806-4a8f-b226-ca07bd1906ad"},"vehicle_type_id":"4","last_reported":1762006119,"current_range_meters":4800,"station_id":"ce4bhnh2rcd13ifvqgtg","pricing_plan_id":"cebpf4jnsgd1na2vs0mg"},{"bike_id":"37c4cb1a-3fe4-4576-8e80-e43bbfcb7ee0","system_id":"levelo_inurba_marseille","lat":43.30949,"lon":5.39037,"is_reserved":false,"is_disabled":false,"rental_uris":{"android":"levelo://app?vid=37c4cb1a-3fe4-4576-8e80-e43bbfcb7ee0","ios":"levelo://app?vid=37c4cb1a-3fe4-4576-8e80-e43bbfcb7ee0"},"vehicle_type_id":"4","last_reported":1762006119,"current_range_meters":4800,"station_id":"ce4bgup2rcd13ifvqco0","pricing_plan_id":"cebpf4jnsgd1na2vs0mg"},{"bike_id":"ead4ee4d-0652-44f6-a52f-af568932d19d","system_id":"levelo_inurba_marseille","lat":43.2911,"lon":5.38143,"is_reserved":false,"is_disabled":false,"rental_uris":{"android":"levelo://app?vid=ead4ee4d-0652-44f6-a52f-af568932d19d","ios":"levelo://app?vid=ead4ee4d-0652-44f6-a52f-af568932d19d"},"vehicle_type_id":"4","last_reported":1762006119,"current_range_meters":4800,"station_id":"ce4bh512rcd13ifvqe2g","pricing_plan_id":"cebpf4jnsgd1na2vs0mg"},{"bike_id":"f2287fbd-65b0-4975-b44b-578b0e69e1ef","system_id":"levelo_inurba_marseille","lat":43.30689,"lon":5.36708,"is_reserved":false,"is_disabled":false,"rental_uris":{"android":"levelo://app?vid=f2287fbd-65b0-4975-b44b-578b0e69e1ef","ios":"levelo://app?vid=f2287fbd-65b0-4975-b44b-578b0e69e1ef"},"vehicle_type_id":"4","last_reported":1762006119,"current_range_meters":5600,"station_id":"","pricing_plan_id":"cebpf4jnsgd1na2vs0mg"},{"bike_id":"6650acee-d020-450d-a0c9-27342204e019","system_id":"levelo_inurba_marseille","lat":43.28859,"lon":5.42514,"is_reserved":false,"is_disabled":false,"rental_uris":{"android":"levelo://app?vid=6650acee-d020-450d-a0c9-27342204e019","ios":"levelo://app?vid=6650acee-d020-450d-a0c9-27342204e019"},"vehicle_type_id":"4","last_reported":1762006119,"current_range_meters":5600,"station_id":"st_d3b462108ojc7389ooeg","pricing_plan_id":"cebpf4jnsgd1na2vs0mg"},{"bike_id":"ae0fc63e-c4a9-4c6c-bfad-bc00bbda9cc0","system_id":"levelo_inurba_marseille","lat":43.23178,"lon":5.43637,"is_reserved":false,"is_disabled":false,"rental_uris":{"android":"levelo://app?vid=ae0fc63e-c4a9-4c6c-bfad-bc00bbda9cc0","ios":"levelo://app?vid=ae0fc63e-c4a9-4c6c-bfad-bc00bbda9cc0"},"vehicle_type_id":"4","last_reported":1762006119,"current_range_meters":5600,"station_id":"","pricing_plan_id":"cebpf4jnsgd1na2vs0mg"},{"bike_id":"a18dbf48-2c4d-4fa4-a4c5-c9871d73c9a0","system_id":"levelo_inurba_marseille","lat":43.301994,"lon":5.383462,"is_reserved":false,"is_disabled":false,"rental_uris":{"android":"levelo://app?vid=a18dbf48-2c4d-4fa4-a4c5-c9871d73c9a0","ios":"levelo://app?vid=a18dbf48-2c4d-4fa4-a4c5-c9871d73c9a0"},"vehicle_type_id":"4","last_reported":1762006119,"current_range_meters":5600,"station_id":"ce4bgup2rcd13ifvqcn0","pricing_plan_id":"cebpf4jnsgd1na2vs0mg"},{"bike_id":"822cc28f-7e0a-4e8d-9abc-f780320c7949","system_id":"levelo_inurba_marseille","lat":43.29522,"lon":5.37501,"is_reserved":false,"is_disabled":false,"rental_uris":{"android":"levelo://app?vid=822cc28f-7e0a-4e8d-9abc-f780320c7949","ios":"levelo://app?vid=822cc28f-7e0a-4e8d-9abc-f780320c7949"},"vehicle_type_id":"4","last_reported":1762006119,"current_range_meters":5600,"station_id":"ce4bgkp2rcd13ifvqbmg","pricing_plan_id":"cebpf4jnsgd1na2vs0mg"},{"bike_id":"82a1362f-b61a-46be-a663-3fcb37750770","system_id":"levelo_inurba_marseille","lat":43.2848,"lon":5.48405,"is_reserved":false,"is_disabled":false,"rental_uris":{"android":"levelo://app?vid=82a1362f-b61a-46be-a663-3fcb37750770","ios":"levelo://app?vid=82a1362f-b61a-46be-a663-3fcb37750770"},"vehicle_type_id":"4","last_reported":1762006119,"current_range_meters":5600,"station_id":"st_d3svhcjqgbts73a3dn0g","pricing_plan_id":"cebpf4jnsgd1na2vs0mg"},{"bike_id":"2cb7ef3f-095f-4f0a-9b0d-b52b52432c45","system_id":"levelo_inurba_marseille","lat":43.25331,"lon":5.42159,"is_reserved":false,"is_disabled":false,"rental_uris":{"android":"levelo://app?vid=2cb7ef3f-095f-4f0a-9b0d-b52b52432c45","ios":"levelo://app?vid=2cb7ef3f-095f-4f0a-9b0d-b52b52432c45"},"vehicle_type_id":"4","last_reported":1762006119,"current_range_meters":6000,"station_id":"st_d2m65c5bi1j21697t3ng","pricing_plan_id":"cebpf4jnsgd1na2vs0mg"},{"bike_id":"604f638f-d551-449e-844a-c86e430cf579","system_id":"levelo_inurba_marseille","lat":43.284901,"lon":5.385661,"is_reserved":false,"is_disabled":false,"rental_uris":{"android":"levelo://app?vid=604f638f-d551-449e-844a-c86e430cf579","ios":"levelo://app?vid=604f638f-d551-449e-844a-c86e430cf579"},"vehicle_type_id":"4","last_reported":1762006119,"current_range_meters":6000,"station_id":"","pricing_plan_id":"cebpf4jnsgd1na2vs0mg"},{"bike_id":"c6b7bab6-763e-4514-b84f-32bbba35c872","system_id":"levelo_inurba_marseille","lat":43.284875,"lon":5.385579,"is_reserved":false,"is_disabled":false,"rental_uris":{"android":"levelo://app?vid=c6b7bab6-763e-4514-b84f-32bbba35c872","ios":"levelo://app?vid=c6b7bab6-763e-4514-b84f-32bbba35c872"},"vehicle_type_id":"4","last_reported":1762006119,"current_range_meters":6000,"station_id":"ce4bh8p2rcd13ifvqeb0","pricing_plan_id":"cebpf4jnsgd1na2vs0mg"},{"bike_id":"a80b32d3-56c1-4b50-a30c-17371fa4f227","system_id":"levelo_inurba_marseille","lat":43.282612,"lon":5.350717,"is_reserved":false,"is_disabled":false,"rental_uris":{"android":"levelo://app?vid=a80b32d3-56c1-4b50-a30c-17371fa4f227","ios":"levelo://app?vid=a80b32d3-56c1-4b50-a30c-17371fa4f227"},"vehicle_type_id":"4","last_reported":1762006119,"current_range_meters":6000,"station_id":"ce4bhbp2rcd13ifvqerg","pricing_plan_id":"cebpf4jnsgd1na2vs0mg"},{"bike_id":"feeb6af0-308e-4d86-8bc7-27dc46a3ba29","system_id":"levelo_inurba_marseille","lat":43.2794,"lon":5.41047,"is_reserved":false,"is_disabled":false,"rental_uris":{"android":"levelo://app?vid=feeb6af0-308e-4d86-8bc7-27dc46a3ba29","ios":"levelo://app?vid=feeb6af0-308e-4d86-8bc7-27dc46a3ba29"},"vehicle_type_id":"4","last_reported":1762006119,"current_range_meters":6000,"station_id":"ce4bhnp2rcd13ifvqh0g","pricing_plan_id":"cebpf4jnsgd1na2vs0mg"},{"bike_id":"d62a4e30-2a8a-47de-9d7a-fd92f829db09","system_id":"levelo_inurba_marseille","lat":43.307,"lon":5.36696,"is_reserved":false,"is_disabled":false,"rental_uris":{"android":"levelo://app?vid=d62a4e30-2a8a-47de-9d7a-fd92f829db09","ios":"levelo://app?vid=d62a4e30-2a8a-47de-9d7a-fd92f829db09"},"vehicle_type_id":"4","last_reported":1762006119,"current_range_meters":6000,"station_id":"","pricing_plan_id":"cebpf4jnsgd1na2vs0mg"},{"bike_id":"229272c9-c04e-47f4-851b-cc48abfe68c1","system_id":"levelo_inurba_marseille","lat":43.260263,"lon":5.375457,"is_reserved":false,"is_disabled":false,"rental_uris":{"android":"levelo://app?vid=229272c9-c04e-47f4-851b-cc48abfe68c1","ios":"levelo://app?vid=229272c9-c04e-47f4-851b-cc48abfe68c1"},"vehicle_type_id":"4","last_reported":1762006119,"current_range_meters":6400,"station_id":"ce4bhgh2rcd13ifvqfa0","pricing_plan_id":"cebpf4jnsgd1na2vs0mg"},{"bike_id":"9b93b5e1-c939-4745-bf85-2d21945442dc","system_id":"levelo_inurba_marseille","lat":43.299881,"lon":5.36403,"is_reserved":false,"is_disabled":false,"rental_uris":{"android":"levelo://app?vid=9b93b5e1-c939-4745-bf85-2d21945442dc","ios":"levelo://app?vid=9b93b5e1-c939-4745-bf85-2d21945442dc"},"vehicle_type_id":"4","last_reported":1762006119,"current_range_meters":6400,"station_id":"","pricing_plan_id":"cebpf4jnsgd1na2vs0mg"},{"bike_id":"7914c679-d037-4198-9963-527fb1d8e4ea","system_id":"levelo_inurba_marseille","lat":43.21736,"lon":5.34593,"is_reserved":false,"is_disabled":false,"rental_uris":{"android":"levelo://app?vid=7914c679-d037-4198-9963-527fb1d8e4ea","ios":"levelo://app?vid=7914c679-d037-4198-9963-527fb1d8e4ea"},"vehicle_type_id":"4","last_reported":1762006119,"current_range_meters":6400,"station_id":"st_cvj6r9ubvosntc0bgbag","pricing_plan_id":"cebpf4jnsgd1na2vs0mg"},{"bike_id":"d1311481-3a07-4834-996f-5229084d4b23","system_id":"levelo_inurba_marseille","lat":43.30737,"lon":5.42449,"is_reserved":false,"is_disabled":false,"rental_uris":{"android":"levelo://app?vid=d1311481-3a07-4834-996f-5229084d4b23","ios":"levelo://app?vid=d1311481-3a07-4834-996f-5229084d4b23"},"vehicle_type_id":"4","last_reported":1762006119,"current_range_meters":6400,"station_id":"st_cvj6ca6bvosntc0bfgr0","pricing_plan_id":"cebpf4jnsgd1na2vs0mg"},{"bike_id":"2929ce7f-9ad8-422f-9038-9ed6b18a9884","system_id":"levelo_inurba_marseille","lat":43.25577,"lon":5.38236,"is_reserved":false,"is_disabled":false,"rental_uris":{"android":"levelo://app?vid=2929ce7f-9ad8-422f-9038-9ed6b18a9884","ios":"levelo://app?vid=2929ce7f-9ad8-422f-9038-9ed6b18a9884"},"vehicle_type_id":"4","last_reported":1762006119,"current_range_meters":6400,"station_id":"ce4bhih2rcd13ifvqfs0","pricing_plan_id":"cebpf4jnsgd1na2vs0mg"},{"bike_id":"9404e236-9c37-497e-824a-67a80f9d7a45","system_id":"levelo_inurba_marseille","lat":43.31979,"lon":5.38171,"is_reserved":false,"is_disabled":false,"rental_uris":{"android":"levelo://app?vid=9404e236-9c37-497e-824a-67a80f9d7a45","ios":"levelo://app?vid=9404e236-9c37-497e-824a-67a80f9d7a45"},"vehicle_type_id":"4","last_reported":1762006119,"current_range_meters":6400,"station_id":"ce4bhr12rcd13ifvqhpg","pricing_plan_id":"cebpf4jnsgd1na2vs0mg"},{"bike_id":"3d101700-d25f-4eb8-b740-50ab75b38fc6","system_id":"levelo_inurba_marseille","lat":43.25337,"lon":5.4217,"is_reserved":false,"is_disabled":false,"rental_uris":{"android":"levelo://app?vid=3d101700-d25f-4eb8-b740-50ab75b38fc6","ios":"levelo://app?vid=3d101700-d25f-4eb8-b740-50ab75b38fc6"},"vehicle_type_id":"4","last_reported":1762006119,"current_range_meters":6400,"station_id":"st_d2m65c5bi1j21697t3ng","pricing_plan_id":"cebpf4jnsgd1na2vs0mg"},{"bike_id":"0df7d852-23c0-4e97-9233-fa5232e14133","system_id":"levelo_inurba_marseille","lat":43.23153,"lon":5.43703,"is_reserved":false,"is_disabled":false,"rental_uris":{"android":"levelo://app?vid=0df7d852-23c0-4e97-9233-fa5232e14133","ios":"levelo://app?vid=0df7d852-23c0-4e97-9233-fa5232e14133"},"vehicle_type_id":"4","last_reported":1762006119,"current_range_meters":6800,"station_id":"ce4bhmp2rcd13ifvqgog","pricing_plan_id":"cebpf4jnsgd1na2vs0mg"},{"bike_id":"421898f5-6c6d-4850-a304-3c0cc5951bee","system_id":"levelo_inurba_marseille","lat":43.28488,"lon":5.42221,"is_reserved":false,"is_disabled":false,"rental_uris":{"android":"levelo://app?vid=421898f5-6c6d-4850-a304-3c0cc5951bee","ios":"levelo://app?vid=421898f5-6c6d-4850-a304-3c0cc5951bee"},"vehicle_type_id":"4","last_reported":1762006119,"current_range_meters":7200,"station_id":"","pricing_plan_id":"cebpf4jnsgd1na2vs0mg"},{"bike_id":"f643c35b-c5a7-43c4-92a7-c4e52bde8db9","system_id":"levelo_inurba_marseille","lat":43.28149,"lon":5.42653,"is_reserved":false,"is_disabled":false,"rental_uris":{"android":"levelo://app?vid=f643c35b-c5a7-43c4-92a7-c4e52bde8db9","ios":"levelo://app?vid=f643c35b-c5a7-43c4-92a7-c4e52bde8db9"},"vehicle_type_id":"4","last_reported":1762006119,"current_range_meters":7200,"station_id":"ce4bhnh2rcd13ifvqgug","pricing_plan_id":"cebpf4jnsgd1na2vs0mg"},{"bike_id":"ef777f47-3ec2-4a6f-92fd-6d371f9cfd72","system_id":"levelo_inurba_marseille","lat":43.305409,"lon":5.365402,"is_reserved":false,"is_disabled":false,"rental_uris":{"android":"levelo://app?vid=ef777f47-3ec2-4a6f-92fd-6d371f9cfd72","ios":"levelo://app?vid=ef777f47-3ec2-4a6f-92fd-6d371f9cfd72"},"vehicle_type_id":"4","last_reported":1762006119,"current_range_meters":7200,"station_id":"ce4bgs12rcd13ifvqcag","pricing_plan_id":"cebpf4jnsgd1na2vs0mg"},{"bike_id":"7c59eee5-d40b-49b6-bc75-00f939056d46","system_id":"levelo_inurba_marseille","lat":43.30047,"lon":5.37737,"is_reserved":false,"is_disabled":false,"rental_uris":{"android":"levelo://app?vid=7c59eee5-d40b-49b6-bc75-00f939056d46","ios":"levelo://app?vid=7c59eee5-d40b-49b6-bc75-00f939056d46"},"vehicle_type_id":"4","last_reported":1762006119,"current_range_meters":7200,"station_id":"","pricing_plan_id":"cebpf4jnsgd1na2vs0mg"},{"bike_id":"5fb987d7-0fd0-4ae4-b81e-29cf312b29a5","system_id":"levelo_inurba_marseille","lat":43.28955,"lon":5.39038,"is_reserved":false,"is_disabled":false,"rental_uris":{"android":"levelo://app?vid=5fb987d7-0fd0-4ae4-b81e-29cf312b29a5","ios":"levelo://app?vid=5fb987d7-0fd0-4ae4-b81e-29cf312b29a5"},"vehicle_type_id":"4","last_reported":1762006119,"current_range_meters":8000,"station_id":"","pricing_plan_id":"cebpf4jnsgd1na2vs0mg"},{"bike_id":"b724281e-d0a3-4b57-927a-45de9ce9618b","system_id":"levelo_inurba_marseille","lat":43.337444,"lon":5.374475,"is_reserved":false,"is_disabled":false,"rental_uris":{"android":"levelo://app?vid=b724281e-d0a3-4b57-927a-45de9ce9618b","ios":"levelo://app?vid=b724281e-d0a3-4b57-927a-45de9ce9618b"},"vehicle_type_id":"4","last_reported":1762006119,"current_range_meters":8000,"station_id":"ce4bh8p2rcd13ifvqeb0","pricing_plan_id":"cebpf4jnsgd1na2vs0mg"},{"bike_id":"70b7527d-67eb-4818-84c6-51aae343ca97","system_id":"levelo_inurba_marseille","lat":43.28478,"lon":5.48409,"is_reserved":false,"is_disabled":false,"rental_uris":{"android":"levelo://app?vid=70b7527d-67eb-4818-84c6-51aae343ca97","ios":"levelo://app?vid=70b7527d-67eb-4818-84c6-51aae343ca97"},"vehicle_type_id":"4","last_reported":1762006119,"current_range_meters":8000,"station_id":"st_d3svhcjqgbts73a3dn0g","pricing_plan_id":"cebpf4jnsgd1na2vs0mg"},{"bike_id":"79f646d8-9a56-47a6-8009-228c48f75898","system_id":"levelo_inurba_marseille","lat":43.286178,"lon":5.351027,"is_reserved":false,"is_disabled":false,"rental_uris":{"android":"levelo://app?vid=79f646d8-9a56-47a6-8009-228c48f75898","ios":"levelo://app?vid=79f646d8-9a56-47a6-8009-228c48f75898"},"vehicle_type_id":"4","last_reported":1762006119,"current_range_meters":8000,"station_id":"ce4bhch2rcd13ifvqeug","pricing_plan_id":"cebpf4jnsgd1na2vs0mg"},{"bike_id":"8f8b7314-8126-4742-b995-24814d929d90","system_id":"levelo_inurba_marseille","lat":43.30125,"lon":5.39873,"is_reserved":false,"is_disabled":false,"rental_uris":{"android":"levelo://app?vid=8f8b7314-8126-4742-b995-24814d929d90","ios":"levelo://app?vid=8f8b7314-8126-4742-b995-24814d929d90"},"vehicle_type_id":"4","last_reported":1762006119,"current_range_meters":8400,"station_id":"ce4bh0h2rcd13ifvqd40","pricing_plan_id":"cebpf4jnsgd1na2vs0mg"},{"bike_id":"3a8851b0-bea2-4b80-afc7-0c6751111e32","system_id":"levelo_inurba_marseille","lat":43.28853,"lon":5.4253,"is_reserved":false,"is_disabled":false,"rental_uris":{"android":"levelo://app?vid=3a8851b0-bea2-4b80-afc7-0c6751111e32","ios":"levelo://app?vid=3a8851b0-bea2-4b80-afc7-0c6751111e32"},"vehicle_type_id":"4","last_reported":1762006119,"current_range_meters":8400,"station_id":"st_d3b462108ojc7389ooeg","pricing_plan_id":"cebpf4jnsgd1na2vs0mg"},{"bike_id":"8e6eb2cd-91dd-4e06-9d63-74f415776e51","system_id":"levelo_inurba_marseille","lat":43.21744,"lon":5.34608,"is_reserved":false,"is_disabled":false,"rental_uris":{"android":"levelo://app?vid=8e6eb2cd-91dd-4e06-9d63-74f415776e51","ios":"levelo://app?vid=8e6eb2cd-91dd-4e06-9d63-74f415776e51"},"vehicle_type_id":"4","last_reported":1762006119,"current_range_meters":8400,"station_id":"st_cvj6r9ubvosntc0bgbag","pricing_plan_id":"cebpf4jnsgd1na2vs0mg"},{"bike_id":"96ad2f8e-1ff0-415a-a84a-9186f2a5baf6","system_id":"levelo_inurba_marseille","lat":43.29606,"lon":5.37672,"is_reserved":false,"is_disabled":false,"rental_uris":{"android":"levelo://app?vid=96ad2f8e-1ff0-415a-a84a-9186f2a5baf6","ios":"levelo://app?vid=96ad2f8e-1ff0-415a-a84a-9186f2a5baf6"},"vehicle_type_id":"4","last_reported":1762006119,"current_range_meters":8400,"station_id":"ce4bgi12rcd13ifvqb80","pricing_plan_id":"cebpf4jnsgd1na2vs0mg"},{"bike_id":"8eeb0c8f-9f40-4733-bc78-a599f875a914","system_id":"levelo_inurba_marseille","lat":43.27936,"lon":5.410455,"is_reserved":false,"is_disabled":false,"rental_uris":{"android":"levelo://app?vid=8eeb0c8f-9f40-4733-bc78-a599f875a914","ios":"levelo://app?vid=8eeb0c8f-9f40-4733-bc78-a599f875a914"},"vehicle_type_id":"4","last_reported":1762006119,"current_range_meters":8400,"station_id":"ce4bhnp2rcd13ifvqh0g","pricing_plan_id":"cebpf4jnsgd1na2vs0mg"},{"bike_id":"dcb5f4d6-a57a-45ea-b185-de3fe952058c","system_id":"levelo_inurba_marseille","lat":43.28101,"lon":5.378309,"is_reserved":false,"is_disabled":true,"rental_uris":{"android":"levelo://app?vid=dcb5f4d6-a57a-45ea-b185-de3fe952058c","ios":"levelo://app?vid=dcb5f4d6-a57a-45ea-b185-de3fe952058c"},"vehicle_type_id":"4","last_reported":1762006119,"current_range_meters":8400,"station_id":"","pricing_plan_id":"cebpf4jnsgd1na2vs0mg"},{"bike_id":"73439ae4-6788-433f-aa3a-7244ea35af55","system_id":"levelo_inurba_marseille","lat":43.21742,"lon":5.34615,"is_reserved":false,"is_disabled":false,"rental_uris":{"android":"levelo://app?vid=73439ae4-6788-433f-aa3a-7244ea35af55","ios":"levelo://app?vid=73439ae4-6788-433f-aa3a-7244ea35af55"},"vehicle_type_id":"4","last_reported":1762006119,"current_range_meters":8400,"station_id":"st_cvj6r9ubvosntc0bgbag","pricing_plan_id":"cebpf4jnsgd1na2vs0mg"},{"bike_id":"bee5d8bc-4dad-455e-b2c7-6b8b2f7b634f","system_id":"levelo_inurba_marseille","lat":43.28481,"lon":5.38557,"is_reserved":false,"is_disabled":false,"rental_uris":{"android":"levelo://app?vid=bee5d8bc-4dad-455e-b2c7-6b8b2f7b634f","ios":"levelo://app?vid=bee5d8bc-4dad-455e-b2c7-6b8b2f7b634f"},"vehicle_type_id":"4","last_reported":1762006119,"current_range_meters":8800,"station_id":"ce4bh8p2rcd13ifvqeb0","pricing_plan_id":"cebpf4jnsgd1na2vs0mg"},{"bike_id":"6e9f1ead-1640-4ccc-bca0-d965c6a1108f","system_id":"levelo_inurba_marseille","lat":43.30048,"lon":5.38654,"is_reserved":false,"is_disabled":false,"rental_uris":{"android":"levelo://app?vid=6e9f1ead-1640-4ccc-bca0-d965c6a1108f","ios":"levelo://app?vid=6e9f1ead-1640-4ccc-bca0-d965c6a1108f"},"vehicle_type_id":"4","last_reported":1762006119,"current_range_meters":8800,"station_id":"","pricing_plan_id":"cebpf4jnsgd1na2vs0mg"},{"bike_id":"98c1a6ba-8fa1-4beb-b4a3-56f3b50f0302","system_id":"levelo_inurba_marseille","lat":43.28474,"lon":5.38428,"is_reserved":false,"is_disabled":true,"rental_uris":{"android":"levelo://app?vid=98c1a6ba-8fa1-4beb-b4a3-56f3b50f0302","ios":"levelo://app?vid=98c1a6ba-8fa1-4beb-b4a3-56f3b50f0302"},"vehicle_type_id":"4","last_reported":1762006119,"current_range_meters":9200,"station_id":"ce4bh512rcd13ifvqe3g","pricing_plan_id":"cebpf4jnsgd1na2vs0mg"},{"bike_id":"a4dac4fa-66e6-48be-a654-6e17cdc7ca0b","system_id":"levelo_inurba_marseille","lat":43.337571,"lon":5.374323,"is_reserved":false,"is_disabled":false,"rental_uris":{"android":"levelo://app?vid=a4dac4fa-66e6-48be-a654-6e17cdc7ca0b","ios":"levelo://app?vid=a4dac4fa-66e6-48be-a654-6e17cdc7ca0b"},"vehicle_type_id":"4","last_reported":1762006119,"current_range_meters":9200,"station_id":"","pricing_plan_id":"cebpf4jnsgd1na2vs0mg"},{"bike_id":"d13f006e-40b9-4a08-a719-d26f559ca18c","system_id":"levelo_inurba_marseille","lat":43.29571,"lon":5.37524,"is_reserved":false,"is_disabled":false,"rental_uris":{"android":"levelo://app?vid=d13f006e-40b9-4a08-a719-d26f559ca18c","ios":"levelo://app?vid=d13f006e-40b9-4a08-a719-d26f559ca18c"},"vehicle_type_id":"4","last_reported":1762006119,"current_range_meters":9200,"station_id":"ce4bgh92rcd13ifvqb50","pricing_plan_id":"cebpf4jnsgd1na2vs0mg"},{"bike_id":"1a218f8d-87c5-4305-949e-75460b75cc51","system_id":"levelo_inurba_marseille","lat":43.231934,"lon":5.355506,"is_reserved":false,"is_disabled":false,"rental_uris":{"android":"levelo://app?vid=1a218f8d-87c5-4305-949e-75460b75cc51","ios":"levelo://app?vid=1a218f8d-87c5-4305-949e-75460b75cc51"},"vehicle_type_id":"4","last_reported":1762006119,"current_range_meters":9200,"station_id":"ce4bhu92rcd13ifvqi70","pricing_plan_id":"cebpf4jnsgd1na2vs0mg"},{"bike_id":"27abc7d1-dd85-495f-9415-aa00cef4846e","system_id":"levelo_inurba_marseille","lat":43.27768,"lon":5.39565,"is_reserved":false,"is_disabled":false,"rental_uris":{"android":"levelo://app?vid=27abc7d1-dd85-495f-9415-aa00cef4846e","ios":"levelo://app?vid=27abc7d1-dd85-495f-9415-aa00cef4846e"},"vehicle_type_id":"4","last_reported":1762006119,"current_range_meters":9200,"station_id":"","pricing_plan_id":"cebpf4jnsgd1na2vs0mg"},{"bike_id":"94a41410-6de6-4261-a11b-0b68ef5a4d62","system_id":"levelo_inurba_marseille","lat":43.31483,"lon":5.37291,"is_reserved":false,"is_disabled":false,"rental_uris":{"android":"levelo://app?vid=94a41410-6de6-4261-a11b-0b68ef5a4d62","ios":"levelo://app?vid=94a41410-6de6-4261-a11b-0b68ef5a4d62"},"vehicle_type_id":"4","last_reported":1762006119,"current_range_meters":9600,"station_id":"ce4bgt12rcd13ifvqcd0","pricing_plan_id":"cebpf4jnsgd1na2vs0mg"},{"bike_id":"6f1788a4-000e-4a90-aac5-82300ed76cac","system_id":"levelo_inurba_marseille","lat":43.29197,"lon":5.39328,"is_reserved":false,"is_disabled":false,"rental_uris":{"android":"levelo://app?vid=6f1788a4-000e-4a90-aac5-82300ed76cac","ios":"levelo://app?vid=6f1788a4-000e-4a90-aac5-82300ed76cac"},"vehicle_type_id":"4","last_reported":1762006119,"current_range_meters":9600,"station_id":"ce4bh192rcd13ifvqdd0","pricing_plan_id":"cebpf4jnsgd1na2vs0mg"},{"bike_id":"d3c84343-d6bd-4f2a-a19a-9d41f1c30c22","system_id":"levelo_inurba_marseille","lat":43.304422,"lon":5.393087,"is_reserved":false,"is_disabled":false,"rental_uris":{"android":"levelo://app?vid=d3c84343-d6bd-4f2a-a19a-9d41f1c30c22","ios":"levelo://app?vid=d3c84343-d6bd-4f2a-a19a-9d41f1c30c22"},"vehicle_type_id":"4","last_reported":1762006119,"current_range_meters":9600,"station_id":"ce4bh012rcd13ifvqcv0","pricing_plan_id":"cebpf4jnsgd1na2vs0mg"},{"bike_id":"dacea13e-ff7f-4447-9d68-7558315e0463","system_id":"levelo_inurba_marseille","lat":43.30427,"lon":5.36756,"is_reserved":false,"is_disabled":false,"rental_uris":{"android":"levelo://app?vid=dacea13e-ff7f-4447-9d68-7558315e0463","ios":"levelo://app?vid=dacea13e-ff7f-4447-9d68-7558315e0463"},"vehicle_type_id":"4","last_reported":1762006119,"current_range_meters":9600,"station_id":"","pricing_plan_id":"cebpf4jnsgd1na2vs0mg"},{"bike_id":"1abf5de7-9cc9-45cc-83ea-2a3f96220419","system_id":"levelo_inurba_marseille","lat":43.28445,"lon":5.38554,"is_reserved":false,"is_disabled":false,"rental_uris":{"android":"levelo://app?vid=1abf5de7-9cc9-45cc-83ea-2a3f96220419","ios":"levelo://app?vid=1abf5de7-9cc9-45cc-83ea-2a3f96220419"},"vehicle_type_id":"4","last_reported":1762006119,"current_range_meters":10000,"station_id":"ce4bh8p2rcd13ifvqeb0","pricing_plan_id":"cebpf4jnsgd1na2vs0mg"},{"bike_id":"6cd59db7-cb12-4301-8385-22b87d7a5cfd","system_id":"levelo_inurba_marseille","lat":43.28533,"lon":5.44107,"is_reserved":false,"is_disabled":false,"rental_uris":{"android":"levelo://app?vid=6cd59db7-cb12-4301-8385-22b87d7a5cfd","ios":"levelo://app?vid=6cd59db7-cb12-4301-8385-22b87d7a5cfd"},"vehicle_type_id":"4","last_reported":1762006119,"current_range_meters":10000,"station_id":"st_d3j3df2ikq2c7380ej80","pricing_plan_id":"cebpf4jnsgd1na2vs0mg"},{"bike_id":"52b117f2-4c01-4f66-887d-006722496528","system_id":"levelo_inurba_marseille","lat":43.308632,"lon":5.371506,"is_reserved":false,"is_disabled":false,"rental_uris":{"android":"levelo://app?vid=52b117f2-4c01-4f66-887d-006722496528","ios":"levelo://app?vid=52b117f2-4c01-4f66-887d-006722496528"},"vehicle_type_id":"4","last_reported":1762006119,"current_range_meters":10000,"station_id":"","pricing_plan_id":"cebpf4jnsgd1na2vs0mg"},{"bike_id":"f34db612-7437-4eb6-b622-d7f6824be59a","system_id":"levelo_inurba_marseille","lat":43.28535,"lon":5.44102,"is_reserved":false,"is_disabled":false,"rental_uris":{"android":"levelo://app?vid=f34db612-7437-4eb6-b622-d7f6824be59a","ios":"levelo://app?vid=f34db612-7437-4eb6-b622-d7f6824be59a"},"vehicle_type_id":"4","last_reported":1762006119,"current_range_meters":10000,"station_id":"st_d3j3df2ikq2c7380ej80","pricing_plan_id":"cebpf4jnsgd1na2vs0mg"},{"bike_id":"71b67358-b12f-46f2-bfcf-543cd6444988","system_id":"levelo_inurba_marseille","lat":43.24168,"lon":5.36369,"is_reserved":false,"is_disabled":false,"rental_uris":{"android":"levelo://app?vid=71b67358-b12f-46f2-bfcf-543cd6444988","ios":"levelo://app?vid=71b67358-b12f-46f2-bfcf-543cd6444988"},"vehicle_type_id":"4","last_reported":1762006119,"current_range_meters":10800,"station_id":"cpo36qri1sfpv3e86is0","pricing_plan_id":"cebpf4jnsgd1na2vs0mg"},{"bike_id":"ef3c599f-c4ca-4eb8-aa71-b3f4816507b8","system_id":"levelo_inurba_marseille","lat":43.29487,"lon":5.4332,"is_reserved":false,"is_disabled":false,"rental_uris":{"android":"levelo://app?vid=ef3c599f-c4ca-4eb8-aa71-b3f4816507b8","ios":"levelo://app?vid=ef3c599f-c4ca-4eb8-aa71-b3f4816507b8"},"vehicle_type_id":"4","last_reported":1762006119,"current_range_meters":10800,"station_id":"st_d3j5ugp08ojc73fj9d10","pricing_plan_id":"cebpf4jnsgd1na2vs0mg"},{"bike_id":"07d9cad5-27e5-45b1-8100-dec66cdbf239","system_id":"levelo_inurba_marseille","lat":43.32119,"lon":5.36738,"is_reserved":false,"is_disabled":false,"rental_uris":{"android":"levelo://app?vid=07d9cad5-27e5-45b1-8100-dec66cdbf239","ios":"levelo://app?vid=07d9cad5-27e5-45b1-8100-dec66cdbf239"},"vehicle_type_id":"4","last_reported":1762006119,"current_range_meters":10800,"station_id":"ce4bhrh2rcd13ifvqhug","pricing_plan_id":"cebpf4jnsgd1na2vs0mg"},{"bike_id":"68e76c45-03bf-49d7-a1e9-ea6f1c01b1a1","system_id":"levelo_inurba_marseille","lat":43.311476,"lon":5.388229,"is_reserved":false,"is_disabled":false,"rental_uris":{"android":"levelo://app?vid=68e76c45-03bf-49d7-a1e9-ea6f1c01b1a1","ios":"levelo://app?vid=68e76c45-03bf-49d7-a1e9-ea6f1c01b1a1"},"vehicle_type_id":"4","last_reported":1762006119,"current_range_meters":10800,"station_id":"ce4bgup2rcd13ifvqco0","pricing_plan_id":"cebpf4jnsgd1na2vs0mg"},{"bike_id":"3e0ee96b-8fbf-40c7-b23e-bbfbbf69c224","system_id":"levelo_inurba_marseille","lat":43.28528,"lon":5.44114,"is_reserved":false,"is_disabled":false,"rental_uris":{"android":"levelo://app?vid=3e0ee96b-8fbf-40c7-b23e-bbfbbf69c224","ios":"levelo://app?vid=3e0ee96b-8fbf-40c7-b23e-bbfbbf69c224"},"vehicle_type_id":"4","last_reported":1762006119,"current_range_meters":10800,"station_id":"st_d3j3df2ikq2c7380ej80","pricing_plan_id":"cebpf4jnsgd1na2vs0mg"},{"bike_id":"aeb250f6-9d26-491b-956a-8a106fbeece8","system_id":"levelo_inurba_marseille","lat":43.2256,"lon":5.41626,"is_reserved":false,"is_disabled":false,"rental_uris":{"android":"levelo://app?vid=aeb250f6-9d26-491b-956a-8a106fbeece8","ios":"levelo://app?vid=aeb250f6-9d26-491b-956a-8a106fbeece8"},"vehicle_type_id":"4","last_reported":1762006119,"current_range_meters":11200,"station_id":"st_d2o4gvlbi1j2169b742g","pricing_plan_id":"cebpf4jnsgd1na2vs0mg"},{"bike_id":"74b15735-564b-4f09-952a-ba8cccb96884","system_id":"levelo_inurba_marseille","lat":43.29811,"lon":5.44068,"is_reserved":false,"is_disabled":false,"rental_uris":{"android":"levelo://app?vid=74b15735-564b-4f09-952a-ba8cccb96884","ios":"levelo://app?vid=74b15735-564b-4f09-952a-ba8cccb96884"},"vehicle_type_id":"4","last_reported":1762006119,"current_range_meters":11200,"station_id":"st_d3jp68qikq2c7381ktn0","pricing_plan_id":"cebpf4jnsgd1na2vs0mg"},{"bike_id":"512ee872-974a-45c5-a23c-025eff1cfb2b","system_id":"levelo_inurba_marseille","lat":43.23961,"lon":5.3663,"is_reserved":false,"is_disabled":false,"rental_uris":{"android":"levelo://app?vid=512ee872-974a-45c5-a23c-025eff1cfb2b","ios":"levelo://app?vid=512ee872-974a-45c5-a23c-025eff1cfb2b"},"vehicle_type_id":"4","last_reported":1762006119,"current_range_meters":11600,"station_id":"ce4bhi12rcd13ifvqfp0","pricing_plan_id":"cebpf4jnsgd1na2vs0mg"},{"bike_id":"8546e8e7-510b-44ce-8f7d-04b556c52f1e","system_id":"levelo_inurba_marseille","lat":43.24072,"lon":5.37752,"is_reserved":false,"is_disabled":false,"rental_uris":{"android":"levelo://app?vid=8546e8e7-510b-44ce-8f7d-04b556c52f1e","ios":"levelo://app?vid=8546e8e7-510b-44ce-8f7d-04b556c52f1e"},"vehicle_type_id":"4","last_reported":1762006119,"current_range_meters":11600,"station_id":"ce4bhnp2rcd13ifvqgvg","pricing_plan_id":"cebpf4jnsgd1na2vs0mg"},{"bike_id":"148066c8-f856-4c45-b7bd-c34822c953fe","system_id":"levelo_inurba_marseille","lat":43.21747,"lon":5.34611,"is_reserved":false,"is_disabled":false,"rental_uris":{"android":"levelo://app?vid=148066c8-f856-4c45-b7bd-c34822c953fe","ios":"levelo://app?vid=148066c8-f856-4c45-b7bd-c34822c953fe"},"vehicle_type_id":"4","last_reported":1762006119,"current_range_meters":11600,"station_id":"st_cvj6r9ubvosntc0bgbag","pricing_plan_id":"cebpf4jnsgd1na2vs0mg"},{"bike_id":"b1e81361-2b17-4ef1-8a58-6def5753471b","system_id":"levelo_inurba_marseille","lat":43.33753,"lon":5.37484,"is_reserved":false,"is_disabled":false,"rental_uris":{"android":"levelo://app?vid=b1e81361-2b17-4ef1-8a58-6def5753471b","ios":"levelo://app?vid=b1e81361-2b17-4ef1-8a58-6def5753471b"},"vehicle_type_id":"4","last_reported":1762006119,"current_range_meters":12000,"station_id":"","pricing_plan_id":"cebpf4jnsgd1na2vs0mg"},{"bike_id":"e04f332d-b41c-47fd-b12f-6fdc7d63f429","system_id":"levelo_inurba_marseille","lat":43.30845,"lon":5.38293,"is_reserved":false,"is_disabled":false,"rental_uris":{"android":"levelo://app?vid=e04f332d-b41c-47fd-b12f-6fdc7d63f429","ios":"levelo://app?vid=e04f332d-b41c-47fd-b12f-6fdc7d63f429"},"vehicle_type_id":"4","last_reported":1762006119,"current_range_meters":12000,"station_id":"","pricing_plan_id":"cebpf4jnsgd1na2vs0mg"},{"bike_id":"c2807477-fd8d-44ed-9bdc-b3f90f0cbde0","system_id":"levelo_inurba_marseille","lat":43.318762,"lon":5.399883,"is_reserved":false,"is_disabled":false,"rental_uris":{"android":"levelo://app?vid=c2807477-fd8d-44ed-9bdc-b3f90f0cbde0","ios":"levelo://app?vid=c2807477-fd8d-44ed-9bdc-b3f90f0cbde0"},"vehicle_type_id":"4","last_reported":1762006119,"current_range_meters":12000,"station_id":"","pricing_plan_id":"cebpf4jnsgd1na2vs0mg"},{"bike_id":"4ad7b6ca-cf8d-4c1a-a814-ecf84242e9cc","system_id":"levelo_inurba_marseille","lat":43.299281,"lon":5.385015,"is_reserved":false,"is_disabled":false,"rental_uris":{"android":"levelo://app?vid=4ad7b6ca-cf8d-4c1a-a814-ecf84242e9cc","ios":"levelo://app?vid=4ad7b6ca-cf8d-4c1a-a814-ecf84242e9cc"},"vehicle_type_id":"4","last_reported":1762006119,"current_range_meters":12000,"station_id":"ce4bgj92rcd13ifvqbd0","pricing_plan_id":"cebpf4jnsgd1na2vs0mg"},{"bike_id":"caf72e95-e316-4c7b-affd-3ef1e3b60743","system_id":"levelo_inurba_marseille","lat":43.28608,"lon":5.35104,"is_reserved":false,"is_disabled":false,"rental_uris":{"android":"levelo://app?vid=caf72e95-e316-4c7b-affd-3ef1e3b60743","ios":"levelo://app?vid=caf72e95-e316-4c7b-affd-3ef1e3b60743"},"vehicle_type_id":"4","last_reported":1762006119,"current_range_meters":12000,"station_id":"ce4bhch2rcd13ifvqeug","pricing_plan_id":"cebpf4jnsgd1na2vs0mg"},{"bike_id":"f13402d6-bcfe-43c6-9455-f54d46eee62e","system_id":"levelo_inurba_marseille","lat":43.30467,"lon":5.36748,"is_reserved":false,"is_disabled":false,"rental_uris":{"android":"levelo://app?vid=f13402d6-bcfe-43c6-9455-f54d46eee62e","ios":"levelo://app?vid=f13402d6-bcfe-43c6-9455-f54d46eee62e"},"vehicle_type_id":"4","last_reported":1762006119,"current_range_meters":12000,"station_id":"","pricing_plan_id":"cebpf4jnsgd1na2vs0mg"},{"bike_id":"53dc9ac6-5d68-43e2-a4dc-0f0020b4a51e","system_id":"levelo_inurba_marseille","lat":43.288147,"lon":5.391652,"is_reserved":false,"is_disabled":false,"rental_uris":{"android":"levelo://app?vid=53dc9ac6-5d68-43e2-a4dc-0f0020b4a51e","ios":"levelo://app?vid=53dc9ac6-5d68-43e2-a4dc-0f0020b4a51e"},"vehicle_type_id":"4","last_reported":1762006119,"current_range_meters":12400,"station_id":"","pricing_plan_id":"cebpf4jnsgd1na2vs0mg"},{"bike_id":"cdbeac8e-c8f0-4e6c-ad45-af3c7d06d386","system_id":"levelo_inurba_marseille","lat":43.296124,"lon":5.371702,"is_reserved":false,"is_disabled":false,"rental_uris":{"android":"levelo://app?vid=cdbeac8e-c8f0-4e6c-ad45-af3c7d06d386","ios":"levelo://app?vid=cdbeac8e-c8f0-4e6c-ad45-af3c7d06d386"},"vehicle_type_id":"4","last_reported":1762006119,"current_range_meters":12400,"station_id":"ce4bgnh2rcd13ifvqc0g","pricing_plan_id":"cebpf4jnsgd1na2vs0mg"},{"bike_id":"1a2efa1a-bf57-4041-a313-428fa4179c7e","system_id":"levelo_inurba_marseille","lat":43.2292,"lon":5.3537,"is_reserved":false,"is_disabled":false,"rental_uris":{"android":"levelo://app?vid=1a2efa1a-bf57-4041-a313-428fa4179c7e","ios":"levelo://app?vid=1a2efa1a-bf57-4041-a313-428fa4179c7e"},"vehicle_type_id":"4","last_reported":1762006119,"current_range_meters":12400,"station_id":"cpo3532slgdg3j2ikp40","pricing_plan_id":"cebpf4jnsgd1na2vs0mg"},{"bike_id":"10f8c808-f667-4647-8db0-a70a55a1b1a1","system_id":"levelo_inurba_marseille","lat":43.25491,"lon":5.3765,"is_reserved":false,"is_disabled":false,"rental_uris":{"android":"levelo://app?vid=10f8c808-f667-4647-8db0-a70a55a1b1a1","ios":"levelo://app?vid=10f8c808-f667-4647-8db0-a70a55a1b1a1"},"vehicle_type_id":"4","last_reported":1762006119,"current_range_meters":12800,"station_id":"ce4bhh12rcd13ifvqff0","pricing_plan_id":"cebpf4jnsgd1na2vs0mg"},{"bike_id":"ae3598c3-d5d8-4133-922b-9187802cb4d8","system_id":"levelo_inurba_marseille","lat":43.32098,"lon":5.36803,"is_reserved":false,"is_disabled":false,"rental_uris":{"android":"levelo://app?vid=ae3598c3-d5d8-4133-922b-9187802cb4d8","ios":"levelo://app?vid=ae3598c3-d5d8-4133-922b-9187802cb4d8"},"vehicle_type_id":"4","last_reported":1762006119,"current_range_meters":12800,"station_id":"ce4bhrh2rcd13ifvqhug","pricing_plan_id":"cebpf4jnsgd1na2vs0mg"},{"bike_id":"c04ea6ec-c85d-4b9a-aa74-f0de2415a6d2","system_id":"levelo_inurba_marseille","lat":43.31576,"lon":5.38364,"is_reserved":false,"is_disabled":false,"rental_uris":{"android":"levelo://app?vid=c04ea6ec-c85d-4b9a-aa74-f0de2415a6d2","ios":"levelo://app?vid=c04ea6ec-c85d-4b9a-aa74-f0de2415a6d2"},"vehicle_type_id":"4","last_reported":1762006119,"current_range_meters":12800,"station_id":"","pricing_plan_id":"cebpf4jnsgd1na2vs0mg"},{"bike_id":"fbcc5886-69e3-488f-96fd-e45314a075e6","system_id":"levelo_inurba_marseille","lat":43.28851,"lon":5.42516,"is_reserved":false,"is_disabled":false,"rental_uris":{"android":"levelo://app?vid=fbcc5886-69e3-488f-96fd-e45314a075e6","ios":"levelo://app?vid=fbcc5886-69e3-488f-96fd-e45314a075e6"},"vehicle_type_id":"4","last_reported":1762006119,"current_range_meters":12800,"station_id":"st_d3b462108ojc7389ooeg","pricing_plan_id":"cebpf4jnsgd1na2vs0mg"},{"bike_id":"8196b960-10f9-4201-a081-fa87c011ac11","system_id":"levelo_inurba_marseille","lat":43.26194,"lon":5.37445,"is_reserved":false,"is_disabled":false,"rental_uris":{"android":"levelo://app?vid=8196b960-10f9-4201-a081-fa87c011ac11","ios":"levelo://app?vid=8196b960-10f9-4201-a081-fa87c011ac11"},"vehicle_type_id":"4","last_reported":1762006119,"current_range_meters":12800,"station_id":"ce4bhgp2rcd13ifvqfc0","pricing_plan_id":"cebpf4jnsgd1na2vs0mg"},{"bike_id":"68dfe5bf-96d8-40ed-a701-d1cafa21ceb7","system_id":"levelo_inurba_marseille","lat":43.3057,"lon":5.38964,"is_reserved":false,"is_disabled":false,"rental_uris":{"android":"levelo://app?vid=68dfe5bf-96d8-40ed-a701-d1cafa21ceb7","ios":"levelo://app?vid=68dfe5bf-96d8-40ed-a701-d1cafa21ceb7"},"vehicle_type_id":"4","last_reported":1762006119,"current_range_meters":13600,"station_id":"ce4bgk12rcd13ifvqbi0","pricing_plan_id":"cebpf4jnsgd1na2vs0mg"},{"bike_id":"0d33b67b-5d6f-4ac9-89f9-6a65e050f198","system_id":"levelo_inurba_marseille","lat":43.30127,"lon":5.38091,"is_reserved":false,"is_disabled":false,"rental_uris":{"android":"levelo://app?vid=0d33b67b-5d6f-4ac9-89f9-6a65e050f198","ios":"levelo://app?vid=0d33b67b-5d6f-4ac9-89f9-6a65e050f198"},"vehicle_type_id":"4","last_reported":1762006119,"current_range_meters":13600,"station_id":"ce4bgjp2rcd13ifvqbh0","pricing_plan_id":"cebpf4jnsgd1na2vs0mg"},{"bike_id":"5d4f19f8-6165-4dbc-9124-652e11ae0af6","system_id":"levelo_inurba_marseille","lat":43.29965,"lon":5.38501,"is_reserved":false,"is_disabled":false,"rental_uris":{"android":"levelo://app?vid=5d4f19f8-6165-4dbc-9124-652e11ae0af6","ios":"levelo://app?vid=5d4f19f8-6165-4dbc-9124-652e11ae0af6"},"vehicle_type_id":"4","last_reported":1762006119,"current_range_meters":13600,"station_id":"ce4bgj92rcd13ifvqbd0","pricing_plan_id":"cebpf4jnsgd1na2vs0mg"},{"bike_id":"712b7649-f440-4e95-bc0a-6525a9259dc8","system_id":"levelo_inurba_marseille","lat":43.29136,"lon":5.40233,"is_reserved":false,"is_disabled":false,"rental_uris":{"android":"levelo://app?vid=712b7649-f440-4e95-bc0a-6525a9259dc8","ios":"levelo://app?vid=712b7649-f440-4e95-bc0a-6525a9259dc8"},"vehicle_type_id":"4","last_reported":1762006119,"current_range_meters":13600,"station_id":"","pricing_plan_id":"cebpf4jnsgd1na2vs0mg"},{"bike_id":"d80d575e-c244-439c-8a1b-93df28720e74","system_id":"levelo_inurba_marseille","lat":43.2749,"lon":5.4245,"is_reserved":false,"is_disabled":false,"rental_uris":{"android":"levelo://app?vid=d80d575e-c244-439c-8a1b-93df28720e74","ios":"levelo://app?vid=d80d575e-c244-439c-8a1b-93df28720e74"},"vehicle_type_id":"4","last_reported":1762006119,"current_range_meters":13600,"station_id":"ce4bhn92rcd13ifvqgrg","pricing_plan_id":"cebpf4jnsgd1na2vs0mg"},{"bike_id":"79d4fc95-7225-48cf-8089-61bdfa413ddc","system_id":"levelo_inurba_marseille","lat":43.28347,"lon":5.38101,"is_reserved":false,"is_disabled":false,"rental_uris":{"android":"levelo://app?vid=79d4fc95-7225-48cf-8089-61bdfa413ddc","ios":"levelo://app?vid=79d4fc95-7225-48cf-8089-61bdfa413ddc"},"vehicle_type_id":"4","last_reported":1762006119,"current_range_meters":13600,"station_id":"ce4bh412rcd13ifvqdr0","pricing_plan_id":"cebpf4jnsgd1na2vs0mg"},{"bike_id":"e915227e-18a8-4c23-859f-4e558bb95d88","system_id":"levelo_inurba_marseille","lat":43.2903,"lon":5.37556,"is_reserved":false,"is_disabled":false,"rental_uris":{"android":"levelo://app?vid=e915227e-18a8-4c23-859f-4e558bb95d88","ios":"levelo://app?vid=e915227e-18a8-4c23-859f-4e558bb95d88"},"vehicle_type_id":"4","last_reported":1762006119,"current_range_meters":13600,"station_id":"ce4bh692rcd13ifvqe90","pricing_plan_id":"cebpf4jnsgd1na2vs0mg"},{"bike_id":"90ea3df4-b5b6-4178-9a51-b6f256a79e15","system_id":"levelo_inurba_marseille","lat":43.21728,"lon":5.34622,"is_reserved":false,"is_disabled":false,"rental_uris":{"android":"levelo://app?vid=90ea3df4-b5b6-4178-9a51-b6f256a79e15","ios":"levelo://app?vid=90ea3df4-b5b6-4178-9a51-b6f256a79e15"},"vehicle_type_id":"4","last_reported":1762006119,"current_range_meters":14000,"station_id":"st_cvj6r9ubvosntc0bgbag","pricing_plan_id":"cebpf4jnsgd1na2vs0mg"},{"bike_id":"7a9e1e86-52dc-42e4-a53b-236a591ba00d","system_id":"levelo_inurba_marseille","lat":43.28801,"lon":5.36383,"is_reserved":false,"is_disabled":false,"rental_uris":{"android":"levelo://app?vid=7a9e1e86-52dc-42e4-a53b-236a591ba00d","ios":"levelo://app?vid=7a9e1e86-52dc-42e4-a53b-236a591ba00d"},"vehicle_type_id":"4","last_reported":1762006119,"current_range_meters":14000,"station_id":"","pricing_plan_id":"cebpf4jnsgd1na2vs0mg"},{"bike_id":"1c2de41b-474e-40da-99a4-719f00c24016","system_id":"levelo_inurba_marseille","lat":43.22569,"lon":5.41627,"is_reserved":false,"is_disabled":false,"rental_uris":{"android":"levelo://app?vid=1c2de41b-474e-40da-99a4-719f00c24016","ios":"levelo://app?vid=1c2de41b-474e-40da-99a4-719f00c24016"},"vehicle_type_id":"4","last_reported":1762006119,"current_range_meters":14000,"station_id":"st_d2o4gvlbi1j2169b742g","pricing_plan_id":"cebpf4jnsgd1na2vs0mg"},{"bike_id":"8fd7a6b4-1674-4109-bb41-78a4199a53db","system_id":"levelo_inurba_marseille","lat":43.29924,"lon":5.37482,"is_reserved":false,"is_disabled":false,"rental_uris":{"android":"levelo://app?vid=8fd7a6b4-1674-4109-bb41-78a4199a53db","ios":"levelo://app?vid=8fd7a6b4-1674-4109-bb41-78a4199a53db"},"vehicle_type_id":"4","last_reported":1762006119,"current_range_meters":14000,"station_id":"ce4bgjh2rcd13ifvqbg0","pricing_plan_id":"cebpf4jnsgd1na2vs0mg"},{"bike_id":"0e4cb869-ead9-48e8-885d-b0b90ea8cd1b","system_id":"levelo_inurba_marseille","lat":43.29192,"lon":5.35807,"is_reserved":false,"is_disabled":false,"rental_uris":{"android":"levelo://app?vid=0e4cb869-ead9-48e8-885d-b0b90ea8cd1b","ios":"levelo://app?vid=0e4cb869-ead9-48e8-885d-b0b90ea8cd1b"},"vehicle_type_id":"4","last_reported":1762006119,"current_range_meters":14000,"station_id":"ce4bhb12rcd13ifvqel0","pricing_plan_id":"cebpf4jnsgd1na2vs0mg"},{"bike_id":"9b528f9a-4ac4-4796-aeb5-0bae3ddc60ae","system_id":"levelo_inurba_marseille","lat":43.260307,"lon":5.375476,"is_reserved":false,"is_disabled":false,"rental_uris":{"android":"levelo://app?vid=9b528f9a-4ac4-4796-aeb5-0bae3ddc60ae","ios":"levelo://app?vid=9b528f9a-4ac4-4796-aeb5-0bae3ddc60ae"},"vehicle_type_id":"4","last_reported":1762006119,"current_range_meters":14400,"station_id":"ce4bhgh2rcd13ifvqfa0","pricing_plan_id":"cebpf4jnsgd1na2vs0mg"},{"bike_id":"fdb21f75-e7f5-4ccb-8143-a01366b7b640","system_id":"levelo_inurba_marseille","lat":43.30794,"lon":5.38155,"is_reserved":false,"is_disabled":false,"rental_uris":{"android":"levelo://app?vid=fdb21f75-e7f5-4ccb-8143-a01366b7b640","ios":"levelo://app?vid=fdb21f75-e7f5-4ccb-8143-a01366b7b640"},"vehicle_type_id":"4","last_reported":1762006119,"current_range_meters":14400,"station_id":"ce4bgt12rcd13ifvqce0","pricing_plan_id":"cebpf4jnsgd1na2vs0mg"},{"bike_id":"f4c38a56-4a35-49a9-bdea-5d14ae1ba768","system_id":"levelo_inurba_marseille","lat":43.29763,"lon":5.42793,"is_reserved":false,"is_disabled":false,"rental_uris":{"android":"levelo://app?vid=f4c38a56-4a35-49a9-bdea-5d14ae1ba768","ios":"levelo://app?vid=f4c38a56-4a35-49a9-bdea-5d14ae1ba768"},"vehicle_type_id":"4","last_reported":1762006119,"current_range_meters":14400,"station_id":"st_d3md5207bmas73dh9klg","pricing_plan_id":"cebpf4jnsgd1na2vs0mg"},{"bike_id":"e6cb7c33-4e1d-444a-93dc-f44007b0546c","system_id":"levelo_inurba_marseille","lat":43.28623,"lon":5.35105,"is_reserved":false,"is_disabled":false,"rental_uris":{"android":"levelo://app?vid=e6cb7c33-4e1d-444a-93dc-f44007b0546c","ios":"levelo://app?vid=e6cb7c33-4e1d-444a-93dc-f44007b0546c"},"vehicle_type_id":"4","last_reported":1762006119,"current_range_meters":14400,"station_id":"ce4bhch2rcd13ifvqeug","pricing_plan_id":"cebpf4jnsgd1na2vs0mg"},{"bike_id":"cd34d17f-3532-46cd-94d6-9f325351c996","system_id":"levelo_inurba_marseille","lat":43.26555,"lon":5.40339,"is_reserved":false,"is_disabled":false,"rental_uris":{"android":"levelo://app?vid=cd34d17f-3532-46cd-94d6-9f325351c996","ios":"levelo://app?vid=cd34d17f-3532-46cd-94d6-9f325351c996"},"vehicle_type_id":"4","last_reported":1762006119,"current_range_meters":14400,"station_id":"ce4bhmp2rcd13ifvqgng","pricing_plan_id":"cebpf4jnsgd1na2vs0mg"},{"bike_id":"96cbfedc-d9e0-46b4-9278-ed5bad333296","system_id":"levelo_inurba_marseille","lat":43.29265,"lon":5.36847,"is_reserved":false,"is_disabled":false,"rental_uris":{"android":"levelo://app?vid=96cbfedc-d9e0-46b4-9278-ed5bad333296","ios":"levelo://app?vid=96cbfedc-d9e0-46b4-9278-ed5bad333296"},"vehicle_type_id":"4","last_reported":1762006119,"current_range_meters":14400,"station_id":"ce4bhbp2rcd13ifvqesg","pricing_plan_id":"cebpf4jnsgd1na2vs0mg"},{"bike_id":"0089665c-d050-4f0d-8d27-e9a6af9208fc","system_id":"levelo_inurba_marseille","lat":43.30193,"lon":5.38047,"is_reserved":false,"is_disabled":false,"rental_uris":{"android":"levelo://app?vid=0089665c-d050-4f0d-8d27-e9a6af9208fc","ios":"levelo://app?vid=0089665c-d050-4f0d-8d27-e9a6af9208fc"},"vehicle_type_id":"4","last_reported":1762006119,"current_range_meters":14400,"station_id":"","pricing_plan_id":"cebpf4jnsgd1na2vs0mg"},{"bike_id":"0c3bfe72-1bfa-4fe4-8ec1-abc531b0b6c5","system_id":"levelo_inurba_marseille","lat":43.26548,"lon":5.372843,"is_reserved":false,"is_disabled":true,"rental_uris":{"android":"levelo://app?vid=0c3bfe72-1bfa-4fe4-8ec1-abc531b0b6c5","ios":"levelo://app?vid=0c3bfe72-1bfa-4fe4-8ec1-abc531b0b6c5"},"vehicle_type_id":"4","last_reported":1762006119,"current_range_meters":14400,"station_id":"ce4bhg12rcd13ifvqf70","pricing_plan_id":"cebpf4jnsgd1na2vs0mg"},{"bike_id":"01101f52-783d-4a69-b659-15bcb3f48805","system_id":"levelo_inurba_marseille","lat":43.31205,"lon":5.37876,"is_reserved":false,"is_disabled":false,"rental_uris":{"android":"levelo://app?vid=01101f52-783d-4a69-b659-15bcb3f48805","ios":"levelo://app?vid=01101f52-783d-4a69-b659-15bcb3f48805"},"vehicle_type_id":"4","last_reported":1762006119,"current_range_meters":14400,"station_id":"","pricing_plan_id":"cebpf4jnsgd1na2vs0mg"},{"bike_id":"1da464de-a87c-49fb-939a-9732a97a4ebd","system_id":"levelo_inurba_marseille","lat":43.32107,"lon":5.36778,"is_reserved":false,"is_disabled":false,"rental_uris":{"android":"levelo://app?vid=1da464de-a87c-49fb-939a-9732a97a4ebd","ios":"levelo://app?vid=1da464de-a87c-49fb-939a-9732a97a4ebd"},"vehicle_type_id":"4","last_reported":1762006119,"current_range_meters":14800,"station_id":"ce4bhrh2rcd13ifvqhug","pricing_plan_id":"cebpf4jnsgd1na2vs0mg"},{"bike_id":"bd81e728-96f5-42d5-a60b-8dcd5e10c0f5","system_id":"levelo_inurba_marseille","lat":43.229313,"lon":5.353769,"is_reserved":false,"is_disabled":false,"rental_uris":{"android":"levelo://app?vid=bd81e728-96f5-42d5-a60b-8dcd5e10c0f5","ios":"levelo://app?vid=bd81e728-96f5-42d5-a60b-8dcd5e10c0f5"},"vehicle_type_id":"4","last_reported":1762006119,"current_range_meters":14800,"station_id":"cpo3532slgdg3j2ikp40","pricing_plan_id":"cebpf4jnsgd1na2vs0mg"},{"bike_id":"25b8b9c6-92a5-43d3-8767-0700e7c7de1c","system_id":"levelo_inurba_marseille","lat":43.33781,"lon":5.37405,"is_reserved":false,"is_disabled":false,"rental_uris":{"android":"levelo://app?vid=25b8b9c6-92a5-43d3-8767-0700e7c7de1c","ios":"levelo://app?vid=25b8b9c6-92a5-43d3-8767-0700e7c7de1c"},"vehicle_type_id":"4","last_reported":1762006119,"current_range_meters":14800,"station_id":"","pricing_plan_id":"cebpf4jnsgd1na2vs0mg"},{"bike_id":"35c5eff1-6c48-49f5-b44e-1b2d21fe3798","system_id":"levelo_inurba_marseille","lat":43.32122,"lon":5.36805,"is_reserved":false,"is_disabled":false,"rental_uris":{"android":"levelo://app?vid=35c5eff1-6c48-49f5-b44e-1b2d21fe3798","ios":"levelo://app?vid=35c5eff1-6c48-49f5-b44e-1b2d21fe3798"},"vehicle_type_id":"4","last_reported":1762006119,"current_range_meters":14800,"station_id":"ce4bhrh2rcd13ifvqhug","pricing_plan_id":"cebpf4jnsgd1na2vs0mg"},{"bike_id":"7d9f08bf-2447-4c7e-bafc-f66e2e0e3944","system_id":"levelo_inurba_marseille","lat":43.26029,"lon":5.37549,"is_reserved":false,"is_disabled":false,"rental_uris":{"android":"levelo://app?vid=7d9f08bf-2447-4c7e-bafc-f66e2e0e3944","ios":"levelo://app?vid=7d9f08bf-2447-4c7e-bafc-f66e2e0e3944"},"vehicle_type_id":"4","last_reported":1762006119,"current_range_meters":14800,"station_id":"ce4bhgh2rcd13ifvqfa0","pricing_plan_id":"cebpf4jnsgd1na2vs0mg"},{"bike_id":"bfd47976-4b12-4a3a-abee-96cc29a7d071","system_id":"levelo_inurba_marseille","lat":43.29472,"lon":5.43311,"is_reserved":false,"is_disabled":false,"rental_uris":{"android":"levelo://app?vid=bfd47976-4b12-4a3a-abee-96cc29a7d071","ios":"levelo://app?vid=bfd47976-4b12-4a3a-abee-96cc29a7d071"},"vehicle_type_id":"4","last_reported":1762006119,"current_range_meters":15200,"station_id":"st_d3j5ugp08ojc73fj9d10","pricing_plan_id":"cebpf4jnsgd1na2vs0mg"},{"bike_id":"5224dfc5-e8f6-493a-a7c3-4cc676f55caf","system_id":"levelo_inurba_marseille","lat":43.23963,"lon":5.36639,"is_reserved":false,"is_disabled":false,"rental_uris":{"android":"levelo://app?vid=5224dfc5-e8f6-493a-a7c3-4cc676f55caf","ios":"levelo://app?vid=5224dfc5-e8f6-493a-a7c3-4cc676f55caf"},"vehicle_type_id":"4","last_reported":1762006119,"current_range_meters":15200,"station_id":"ce4bhi12rcd13ifvqfp0","pricing_plan_id":"cebpf4jnsgd1na2vs0mg"},{"bike_id":"92c4ecea-a870-4734-96b0-1c8b639bde58","system_id":"levelo_inurba_marseille","lat":43.25324,"lon":5.42169,"is_reserved":false,"is_disabled":false,"rental_uris":{"android":"levelo://app?vid=92c4ecea-a870-4734-96b0-1c8b639bde58","ios":"levelo://app?vid=92c4ecea-a870-4734-96b0-1c8b639bde58"},"vehicle_type_id":"4","last_reported":1762006119,"current_range_meters":15200,"station_id":"st_d2m65c5bi1j21697t3ng","pricing_plan_id":"cebpf4jnsgd1na2vs0mg"},{"bike_id":"6f6ee23b-78ea-4f02-869e-d6b6a0cca9df","system_id":"levelo_inurba_marseille","lat":43.30328,"lon":5.40441,"is_reserved":false,"is_disabled":false,"rental_uris":{"android":"levelo://app?vid=6f6ee23b-78ea-4f02-869e-d6b6a0cca9df","ios":"levelo://app?vid=6f6ee23b-78ea-4f02-869e-d6b6a0cca9df"},"vehicle_type_id":"4","last_reported":1762006119,"current_range_meters":15200,"station_id":"ce4bh012rcd13ifvqd10","pricing_plan_id":"cebpf4jnsgd1na2vs0mg"},{"bike_id":"05a43803-6330-4f9d-8f80-87bc3917bace","system_id":"levelo_inurba_marseille","lat":43.2439,"lon":5.37081,"is_reserved":false,"is_disabled":false,"rental_uris":{"android":"levelo://app?vid=05a43803-6330-4f9d-8f80-87bc3917bace","ios":"levelo://app?vid=05a43803-6330-4f9d-8f80-87bc3917bace"},"vehicle_type_id":"4","last_reported":1762006119,"current_range_meters":15200,"station_id":"ce4bhhh2rcd13ifvqfk0","pricing_plan_id":"cebpf4jnsgd1na2vs0mg"},{"bike_id":"8a361515-3bd9-4a41-bca8-1d73fb7bcc7c","system_id":"levelo_inurba_marseille","lat":43.284844,"lon":5.385597,"is_reserved":false,"is_disabled":false,"rental_uris":{"android":"levelo://app?vid=8a361515-3bd9-4a41-bca8-1d73fb7bcc7c","ios":"levelo://app?vid=8a361515-3bd9-4a41-bca8-1d73fb7bcc7c"},"vehicle_type_id":"4","last_reported":1762006119,"current_range_meters":15200,"station_id":"ce4bh8p2rcd13ifvqeb0","pricing_plan_id":"cebpf4jnsgd1na2vs0mg"},{"bike_id":"fafa4589-30aa-410f-bafe-e1b351d8b989","system_id":"levelo_inurba_marseille","lat":43.22567,"lon":5.4162,"is_reserved":false,"is_disabled":false,"rental_uris":{"android":"levelo://app?vid=fafa4589-30aa-410f-bafe-e1b351d8b989","ios":"levelo://app?vid=fafa4589-30aa-410f-bafe-e1b351d8b989"},"vehicle_type_id":"4","last_reported":1762006119,"current_range_meters":15200,"station_id":"st_d2o4gvlbi1j2169b742g","pricing_plan_id":"cebpf4jnsgd1na2vs0mg"},{"bike_id":"c799a7df-964d-4c6a-afa8-1ca8cdbbae6e","system_id":"levelo_inurba_marseille","lat":43.251087,"lon":5.403173,"is_reserved":false,"is_disabled":false,"rental_uris":{"android":"levelo://app?vid=c799a7df-964d-4c6a-afa8-1ca8cdbbae6e","ios":"levelo://app?vid=c799a7df-964d-4c6a-afa8-1ca8cdbbae6e"},"vehicle_type_id":"4","last_reported":1762006119,"current_range_meters":15200,"station_id":"ce4bhlh2rcd13ifvqgig","pricing_plan_id":"cebpf4jnsgd1na2vs0mg"},{"bike_id":"33ae0dab-3749-43ff-9793-2b7dc4ecf75d","system_id":"levelo_inurba_marseille","lat":43.25323,"lon":5.42166,"is_reserved":false,"is_disabled":false,"rental_uris":{"android":"levelo://app?vid=33ae0dab-3749-43ff-9793-2b7dc4ecf75d","ios":"levelo://app?vid=33ae0dab-3749-43ff-9793-2b7dc4ecf75d"},"vehicle_type_id":"4","last_reported":1762006119,"current_range_meters":16000,"station_id":"st_d2m65c5bi1j21697t3ng","pricing_plan_id":"cebpf4jnsgd1na2vs0mg"},{"bike_id":"41598790-345d-414f-9e87-720cb432f278","system_id":"levelo_inurba_marseille","lat":43.29477,"lon":5.36227,"is_reserved":false,"is_disabled":false,"rental_uris":{"android":"levelo://app?vid=41598790-345d-414f-9e87-720cb432f278","ios":"levelo://app?vid=41598790-345d-414f-9e87-720cb432f278"},"vehicle_type_id":"4","last_reported":1762006119,"current_range_meters":16000,"station_id":"","pricing_plan_id":"cebpf4jnsgd1na2vs0mg"},{"bike_id":"269b302d-3c48-4bb6-a063-2ab24423c89a","system_id":"levelo_inurba_marseille","lat":43.22566,"lon":5.41635,"is_reserved":false,"is_disabled":false,"rental_uris":{"android":"levelo://app?vid=269b302d-3c48-4bb6-a063-2ab24423c89a","ios":"levelo://app?vid=269b302d-3c48-4bb6-a063-2ab24423c89a"},"vehicle_type_id":"4","last_reported":1762006119,"current_range_meters":16000,"station_id":"st_d2o4gvlbi1j2169b742g","pricing_plan_id":"cebpf4jnsgd1na2vs0mg"},{"bike_id":"87f35eb6-fdd4-48cb-aac4-3bc58afdac22","system_id":"levelo_inurba_marseille","lat":43.24804,"lon":5.3746,"is_reserved":false,"is_disabled":false,"rental_uris":{"android":"levelo://app?vid=87f35eb6-fdd4-48cb-aac4-3bc58afdac22","ios":"levelo://app?vid=87f35eb6-fdd4-48cb-aac4-3bc58afdac22"},"vehicle_type_id":"4","last_reported":1762006119,"current_range_meters":16000,"station_id":"ce4bhgh2rcd13ifvqfb0","pricing_plan_id":"cebpf4jnsgd1na2vs0mg"},{"bike_id":"6f55c2df-5461-4f13-8308-6d7dd6f86eb4","system_id":"levelo_inurba_marseille","lat":43.229323,"lon":5.353685,"is_reserved":false,"is_disabled":false,"rental_uris":{"android":"levelo://app?vid=6f55c2df-5461-4f13-8308-6d7dd6f86eb4","ios":"levelo://app?vid=6f55c2df-5461-4f13-8308-6d7dd6f86eb4"},"vehicle_type_id":"4","last_reported":1762006119,"current_range_meters":16400,"station_id":"","pricing_plan_id":"cebpf4jnsgd1na2vs0mg"},{"bike_id":"50ef6371-29a7-4128-a8d2-c593d0901bbf","system_id":"levelo_inurba_marseille","lat":43.28994,"lon":5.35603,"is_reserved":false,"is_disabled":false,"rental_uris":{"android":"levelo://app?vid=50ef6371-29a7-4128-a8d2-c593d0901bbf","ios":"levelo://app?vid=50ef6371-29a7-4128-a8d2-c593d0901bbf"},"vehicle_type_id":"4","last_reported":1762006119,"current_range_meters":16400,"station_id":"ce4bhb92rcd13ifvqen0","pricing_plan_id":"cebpf4jnsgd1na2vs0mg"},{"bike_id":"aad6a064-c048-4ba9-a156-1745b89548aa","system_id":"levelo_inurba_marseille","lat":43.283099,"lon":5.411007,"is_reserved":false,"is_disabled":false,"rental_uris":{"android":"levelo://app?vid=aad6a064-c048-4ba9-a156-1745b89548aa","ios":"levelo://app?vid=aad6a064-c048-4ba9-a156-1745b89548aa"},"vehicle_type_id":"4","last_reported":1762006119,"current_range_meters":16400,"station_id":"","pricing_plan_id":"cebpf4jnsgd1na2vs0mg"},{"bike_id":"50c2c89c-4a9b-41f6-af05-b4e430e07029","system_id":"levelo_inurba_marseille","lat":43.24628,"lon":5.43148,"is_reserved":false,"is_disabled":false,"rental_uris":{"android":"levelo://app?vid=50c2c89c-4a9b-41f6-af05-b4e430e07029","ios":"levelo://app?vid=50c2c89c-4a9b-41f6-af05-b4e430e07029"},"vehicle_type_id":"4","last_reported":1762006119,"current_range_meters":16400,"station_id":"st_d2m6c4gdas8pm72e190g","pricing_plan_id":"cebpf4jnsgd1na2vs0mg"},{"bike_id":"aedb9dfa-d104-43da-b741-9c7faa3ab965","system_id":"levelo_inurba_marseille","lat":43.30046,"lon":5.37725,"is_reserved":false,"is_disabled":false,"rental_uris":{"android":"levelo://app?vid=aedb9dfa-d104-43da-b741-9c7faa3ab965","ios":"levelo://app?vid=aedb9dfa-d104-43da-b741-9c7faa3ab965"},"vehicle_type_id":"4","last_reported":1762006119,"current_range_meters":16400,"station_id":"","pricing_plan_id":"cebpf4jnsgd1na2vs0mg"},{"bike_id":"1d29646a-da1f-4f66-b008-0838ffb2fa84","system_id":"levelo_inurba_marseille","lat":43.29992,"lon":5.37236,"is_reserved":false,"is_disabled":false,"rental_uris":{"android":"levelo://app?vid=1d29646a-da1f-4f66-b008-0838ffb2fa84","ios":"levelo://app?vid=1d29646a-da1f-4f66-b008-0838ffb2fa84"},"vehicle_type_id":"4","last_reported":1762006119,"current_range_meters":16400,"station_id":"ce4bgr92rcd13ifvqc7g","pricing_plan_id":"cebpf4jnsgd1na2vs0mg"},{"bike_id":"ad2de353-dac1-4d39-ad93-51ae0804cbcf","system_id":"levelo_inurba_marseille","lat":43.21755,"lon":5.34598,"is_reserved":false,"is_disabled":false,"rental_uris":{"android":"levelo://app?vid=ad2de353-dac1-4d39-ad93-51ae0804cbcf","ios":"levelo://app?vid=ad2de353-dac1-4d39-ad93-51ae0804cbcf"},"vehicle_type_id":"4","last_reported":1762006119,"current_range_meters":16400,"station_id":"st_cvj6r9ubvosntc0bgbag","pricing_plan_id":"cebpf4jnsgd1na2vs0mg"},{"bike_id":"7d671860-f5cd-499c-97fe-44c1c217bbc8","system_id":"levelo_inurba_marseille","lat":43.23055,"lon":5.35489,"is_reserved":false,"is_disabled":false,"rental_uris":{"android":"levelo://app?vid=7d671860-f5cd-499c-97fe-44c1c217bbc8","ios":"levelo://app?vid=7d671860-f5cd-499c-97fe-44c1c217bbc8"},"vehicle_type_id":"4","last_reported":1762006119,"current_range_meters":16400,"station_id":"cpo3342slgdg3j2ifvpg","pricing_plan_id":"cebpf4jnsgd1na2vs0mg"},{"bike_id":"52b04612-cd38-411f-a68e-6bb9cb24a90a","system_id":"levelo_inurba_marseille","lat":43.24169,"lon":5.36403,"is_reserved":false,"is_disabled":false,"rental_uris":{"android":"levelo://app?vid=52b04612-cd38-411f-a68e-6bb9cb24a90a","ios":"levelo://app?vid=52b04612-cd38-411f-a68e-6bb9cb24a90a"},"vehicle_type_id":"4","last_reported":1762006119,"current_range_meters":16800,"station_id":"cpo36qri1sfpv3e86is0","pricing_plan_id":"cebpf4jnsgd1na2vs0mg"},{"bike_id":"7c46eca4-922c-4fc2-9cd3-60f7157880a3","system_id":"levelo_inurba_marseille","lat":43.21752,"lon":5.34598,"is_reserved":false,"is_disabled":false,"rental_uris":{"android":"levelo://app?vid=7c46eca4-922c-4fc2-9cd3-60f7157880a3","ios":"levelo://app?vid=7c46eca4-922c-4fc2-9cd3-60f7157880a3"},"vehicle_type_id":"4","last_reported":1762006119,"current_range_meters":16800,"station_id":"st_cvj6r9ubvosntc0bgbag","pricing_plan_id":"cebpf4jnsgd1na2vs0mg"},{"bike_id":"559dd85a-7aa9-44d9-a59a-779baf8c5c22","system_id":"levelo_inurba_marseille","lat":43.29477,"lon":5.43307,"is_reserved":false,"is_disabled":false,"rental_uris":{"android":"levelo://app?vid=559dd85a-7aa9-44d9-a59a-779baf8c5c22","ios":"levelo://app?vid=559dd85a-7aa9-44d9-a59a-779baf8c5c22"},"vehicle_type_id":"4","last_reported":1762006119,"current_range_meters":16800,"station_id":"st_d3j5ugp08ojc73fj9d10","pricing_plan_id":"cebpf4jnsgd1na2vs0mg"},{"bike_id":"528e3c88-b623-43f9-a15b-cba9eb4d6f1a","system_id":"levelo_inurba_marseille","lat":43.28481,"lon":5.48406,"is_reserved":false,"is_disabled":false,"rental_uris":{"android":"levelo://app?vid=528e3c88-b623-43f9-a15b-cba9eb4d6f1a","ios":"levelo://app?vid=528e3c88-b623-43f9-a15b-cba9eb4d6f1a"},"vehicle_type_id":"4","last_reported":1762006119,"current_range_meters":16800,"station_id":"st_d3svhcjqgbts73a3dn0g","pricing_plan_id":"cebpf4jnsgd1na2vs0mg"},{"bike_id":"a24cdc0c-65c4-47e3-a842-e36a0a4b531f","system_id":"levelo_inurba_marseille","lat":43.29617,"lon":5.37169,"is_reserved":false,"is_disabled":false,"rental_uris":{"android":"levelo://app?vid=a24cdc0c-65c4-47e3-a842-e36a0a4b531f","ios":"levelo://app?vid=a24cdc0c-65c4-47e3-a842-e36a0a4b531f"},"vehicle_type_id":"4","last_reported":1762006119,"current_range_meters":16800,"station_id":"ce4bgnh2rcd13ifvqc0g","pricing_plan_id":"cebpf4jnsgd1na2vs0mg"},{"bike_id":"565cc599-e2e4-4d0e-aef3-effc6ee3ffe7","system_id":"levelo_inurba_marseille","lat":43.27935,"lon":5.41055,"is_reserved":false,"is_disabled":false,"rental_uris":{"android":"levelo://app?vid=565cc599-e2e4-4d0e-aef3-effc6ee3ffe7","ios":"levelo://app?vid=565cc599-e2e4-4d0e-aef3-effc6ee3ffe7"},"vehicle_type_id":"4","last_reported":1762006119,"current_range_meters":16800,"station_id":"ce4bhnp2rcd13ifvqh0g","pricing_plan_id":"cebpf4jnsgd1na2vs0mg"},{"bike_id":"7ba36b53-b62f-4ccd-8684-bd0e8851d118","system_id":"levelo_inurba_marseille","lat":43.24805,"lon":5.37458,"is_reserved":false,"is_disabled":false,"rental_uris":{"android":"levelo://app?vid=7ba36b53-b62f-4ccd-8684-bd0e8851d118","ios":"levelo://app?vid=7ba36b53-b62f-4ccd-8684-bd0e8851d118"},"vehicle_type_id":"4","last_reported":1762006119,"current_range_meters":16800,"station_id":"ce4bhgh2rcd13ifvqfb0","pricing_plan_id":"cebpf4jnsgd1na2vs0mg"},{"bike_id":"4e417d63-ba20-4166-88f7-f4e4a0e69974","system_id":"levelo_inurba_marseille","lat":43.26206,"lon":5.37442,"is_reserved":false,"is_disabled":false,"rental_uris":{"android":"levelo://app?vid=4e417d63-ba20-4166-88f7-f4e4a0e69974","ios":"levelo://app?vid=4e417d63-ba20-4166-88f7-f4e4a0e69974"},"vehicle_type_id":"4","last_reported":1762006119,"current_range_meters":16800,"station_id":"ce4bhgp2rcd13ifvqfc0","pricing_plan_id":"cebpf4jnsgd1na2vs0mg"},{"bike_id":"a599ea86-16bb-4d79-89fe-01c4b3b42dc5","system_id":"levelo_inurba_marseille","lat":43.321165,"lon":5.367763,"is_reserved":false,"is_disabled":false,"rental_uris":{"android":"levelo://app?vid=a599ea86-16bb-4d79-89fe-01c4b3b42dc5","ios":"levelo://app?vid=a599ea86-16bb-4d79-89fe-01c4b3b42dc5"},"vehicle_type_id":"4","last_reported":1762006119,"current_range_meters":16800,"station_id":"ce4bhrh2rcd13ifvqhug","pricing_plan_id":"cebpf4jnsgd1na2vs0mg"},{"bike_id":"21172c8b-9103-4eb8-b318-ed9b6ce7abe5","system_id":"levelo_inurba_marseille","lat":43.28463,"lon":5.35892,"is_reserved":false,"is_disabled":false,"rental_uris":{"android":"levelo://app?vid=21172c8b-9103-4eb8-b318-ed9b6ce7abe5","ios":"levelo://app?vid=21172c8b-9103-4eb8-b318-ed9b6ce7abe5"},"vehicle_type_id":"4","last_reported":1762006119,"current_range_meters":16800,"station_id":"ce4bhah2rcd13ifvqei0","pricing_plan_id":"cebpf4jnsgd1na2vs0mg"},{"bike_id":"45c68fae-1306-455a-b733-efed84a766d6","system_id":"levelo_inurba_marseille","lat":43.284751,"lon":5.385665,"is_reserved":false,"is_disabled":false,"rental_uris":{"android":"levelo://app?vid=45c68fae-1306-455a-b733-efed84a766d6","ios":"levelo://app?vid=45c68fae-1306-455a-b733-efed84a766d6"},"vehicle_type_id":"4","last_reported":1762006119,"current_range_meters":16800,"station_id":"","pricing_plan_id":"cebpf4jnsgd1na2vs0mg"},{"bike_id":"137b611e-0d30-42e5-bd0e-4ca1b1f19b3a","system_id":"levelo_inurba_marseille","lat":43.28006,"lon":5.40004,"is_reserved":false,"is_disabled":false,"rental_uris":{"android":"levelo://app?vid=137b611e-0d30-42e5-bd0e-4ca1b1f19b3a","ios":"levelo://app?vid=137b611e-0d30-42e5-bd0e-4ca1b1f19b3a"},"vehicle_type_id":"4","last_reported":1762006119,"current_range_meters":17200,"station_id":"ce4bho92rcd13ifvqh4g","pricing_plan_id":"cebpf4jnsgd1na2vs0mg"},{"bike_id":"45833a00-bb86-4c87-99c2-814a719ac317","system_id":"levelo_inurba_marseille","lat":43.22923,"lon":5.35375,"is_reserved":false,"is_disabled":false,"rental_uris":{"android":"levelo://app?vid=45833a00-bb86-4c87-99c2-814a719ac317","ios":"levelo://app?vid=45833a00-bb86-4c87-99c2-814a719ac317"},"vehicle_type_id":"4","last_reported":1762006119,"current_range_meters":17200,"station_id":"cpo3532slgdg3j2ikp40","pricing_plan_id":"cebpf4jnsgd1na2vs0mg"},{"bike_id":"7b0eaa70-7657-4098-8e47-f6fae1ad1d21","system_id":"levelo_inurba_marseille","lat":43.25852,"lon":5.39882,"is_reserved":false,"is_disabled":false,"rental_uris":{"android":"levelo://app?vid=7b0eaa70-7657-4098-8e47-f6fae1ad1d21","ios":"levelo://app?vid=7b0eaa70-7657-4098-8e47-f6fae1ad1d21"},"vehicle_type_id":"4","last_reported":1762006119,"current_range_meters":17200,"station_id":"ce4bhl92rcd13ifvqghg","pricing_plan_id":"cebpf4jnsgd1na2vs0mg"},{"bike_id":"af835d6d-4934-4132-a56c-4c66dcd8f835","system_id":"levelo_inurba_marseille","lat":43.27937,"lon":5.41052,"is_reserved":false,"is_disabled":false,"rental_uris":{"android":"levelo://app?vid=af835d6d-4934-4132-a56c-4c66dcd8f835","ios":"levelo://app?vid=af835d6d-4934-4132-a56c-4c66dcd8f835"},"vehicle_type_id":"4","last_reported":1762006119,"current_range_meters":17200,"station_id":"ce4bhnp2rcd13ifvqh0g","pricing_plan_id":"cebpf4jnsgd1na2vs0mg"},{"bike_id":"cc8b5e6f-79c8-40a4-92ff-e98a232edd24","system_id":"levelo_inurba_marseille","lat":43.29186,"lon":5.35794,"is_reserved":false,"is_disabled":false,"rental_uris":{"android":"levelo://app?vid=cc8b5e6f-79c8-40a4-92ff-e98a232edd24","ios":"levelo://app?vid=cc8b5e6f-79c8-40a4-92ff-e98a232edd24"},"vehicle_type_id":"4","last_reported":1762006119,"current_range_meters":17200,"station_id":"ce4bhb12rcd13ifvqel0","pricing_plan_id":"cebpf4jnsgd1na2vs0mg"},{"bike_id":"ba541a52-7e4e-4241-9791-ae6f1fb03dcd","system_id":"levelo_inurba_marseille","lat":43.31997,"lon":5.41599,"is_reserved":false,"is_disabled":false,"rental_uris":{"android":"levelo://app?vid=ba541a52-7e4e-4241-9791-ae6f1fb03dcd","ios":"levelo://app?vid=ba541a52-7e4e-4241-9791-ae6f1fb03dcd"},"vehicle_type_id":"4","last_reported":1762006119,"current_range_meters":17200,"station_id":"","pricing_plan_id":"cebpf4jnsgd1na2vs0mg"},{"bike_id":"dbffc57d-50e2-4beb-b4ec-2564991e0118","system_id":"levelo_inurba_marseille","lat":43.30085,"lon":5.39084,"is_reserved":false,"is_disabled":false,"rental_uris":{"android":"levelo://app?vid=dbffc57d-50e2-4beb-b4ec-2564991e0118","ios":"levelo://app?vid=dbffc57d-50e2-4beb-b4ec-2564991e0118"},"vehicle_type_id":"4","last_reported":1762006119,"current_range_meters":17200,"station_id":"ce4bh192rcd13ifvqdb0","pricing_plan_id":"cebpf4jnsgd1na2vs0mg"},{"bike_id":"c7d57f9b-8ba9-4435-ac3b-54d333c0b4c7","system_id":"levelo_inurba_marseille","lat":43.32356,"lon":5.36727,"is_reserved":false,"is_disabled":false,"rental_uris":{"android":"levelo://app?vid=c7d57f9b-8ba9-4435-ac3b-54d333c0b4c7","ios":"levelo://app?vid=c7d57f9b-8ba9-4435-ac3b-54d333c0b4c7"},"vehicle_type_id":"4","last_reported":1762006119,"current_range_meters":17600,"station_id":"ce4bhsh2rcd13ifvqi2g","pricing_plan_id":"cebpf4jnsgd1na2vs0mg"},{"bike_id":"2ea8b295-6a13-47c7-8965-8106cf796d7e","system_id":"levelo_inurba_marseille","lat":43.313282,"lon":5.37678,"is_reserved":false,"is_disabled":false,"rental_uris":{"android":"levelo://app?vid=2ea8b295-6a13-47c7-8965-8106cf796d7e","ios":"levelo://app?vid=2ea8b295-6a13-47c7-8965-8106cf796d7e"},"vehicle_type_id":"4","last_reported":1762006119,"current_range_meters":17600,"station_id":"","pricing_plan_id":"cebpf4jnsgd1na2vs0mg"},{"bike_id":"e24f2027-65e3-4d25-862d-8589d132b0a9","system_id":"levelo_inurba_marseille","lat":43.27937,"lon":5.41058,"is_reserved":false,"is_disabled":false,"rental_uris":{"android":"levelo://app?vid=e24f2027-65e3-4d25-862d-8589d132b0a9","ios":"levelo://app?vid=e24f2027-65e3-4d25-862d-8589d132b0a9"},"vehicle_type_id":"4","last_reported":1762006119,"current_range_meters":17600,"station_id":"ce4bhnp2rcd13ifvqh0g","pricing_plan_id":"cebpf4jnsgd1na2vs0mg"},{"bike_id":"df679281-c179-4884-8c44-8a3b73147f48","system_id":"levelo_inurba_marseille","lat":43.251137,"lon":5.394959,"is_reserved":false,"is_disabled":false,"rental_uris":{"android":"levelo://app?vid=df679281-c179-4884-8c44-8a3b73147f48","ios":"levelo://app?vid=df679281-c179-4884-8c44-8a3b73147f48"},"vehicle_type_id":"4","last_reported":1762006119,"current_range_meters":17600,"station_id":"ce4bhm12rcd13ifvqgkg","pricing_plan_id":"cebpf4jnsgd1na2vs0mg"},{"bike_id":"2a32e756-8076-4328-a472-196c9c9d4e25","system_id":"levelo_inurba_marseille","lat":43.28602,"lon":5.37073,"is_reserved":false,"is_disabled":false,"rental_uris":{"android":"levelo://app?vid=2a32e756-8076-4328-a472-196c9c9d4e25","ios":"levelo://app?vid=2a32e756-8076-4328-a472-196c9c9d4e25"},"vehicle_type_id":"4","last_reported":1762006119,"current_range_meters":17600,"station_id":"ce4bht12rcd13ifvqi60","pricing_plan_id":"cebpf4jnsgd1na2vs0mg"},{"bike_id":"cdcfa7af-5c53-4a1e-bd12-22de38b14978","system_id":"levelo_inurba_marseille","lat":43.24627,"lon":5.43141,"is_reserved":false,"is_disabled":false,"rental_uris":{"android":"levelo://app?vid=cdcfa7af-5c53-4a1e-bd12-22de38b14978","ios":"levelo://app?vid=cdcfa7af-5c53-4a1e-bd12-22de38b14978"},"vehicle_type_id":"4","last_reported":1762006119,"current_range_meters":18000,"station_id":"st_d2m6c4gdas8pm72e190g","pricing_plan_id":"cebpf4jnsgd1na2vs0mg"},{"bike_id":"12a18d4a-7b67-4876-88d1-1820554fc400","system_id":"levelo_inurba_marseille","lat":43.29731,"lon":5.38097,"is_reserved":false,"is_disabled":false,"rental_uris":{"android":"levelo://app?vid=12a18d4a-7b67-4876-88d1-1820554fc400","ios":"levelo://app?vid=12a18d4a-7b67-4876-88d1-1820554fc400"},"vehicle_type_id":"4","last_reported":1762006119,"current_range_meters":18000,"station_id":"","pricing_plan_id":"cebpf4jnsgd1na2vs0mg"},{"bike_id":"d8a5c4a4-bcf5-4826-9061-8cfbe1a5fd7b","system_id":"levelo_inurba_marseille","lat":43.2174,"lon":5.34614,"is_reserved":false,"is_disabled":false,"rental_uris":{"android":"levelo://app?vid=d8a5c4a4-bcf5-4826-9061-8cfbe1a5fd7b","ios":"levelo://app?vid=d8a5c4a4-bcf5-4826-9061-8cfbe1a5fd7b"},"vehicle_type_id":"4","last_reported":1762006119,"current_range_meters":18000,"station_id":"st_cvj6r9ubvosntc0bgbag","pricing_plan_id":"cebpf4jnsgd1na2vs0mg"},{"bike_id":"5eee67bb-3614-4f3b-ab22-554d031d3012","system_id":"levelo_inurba_marseille","lat":43.25717,"lon":5.41114,"is_reserved":false,"is_disabled":false,"rental_uris":{"android":"levelo://app?vid=5eee67bb-3614-4f3b-ab22-554d031d3012","ios":"levelo://app?vid=5eee67bb-3614-4f3b-ab22-554d031d3012"},"vehicle_type_id":"4","last_reported":1762006119,"current_range_meters":18000,"station_id":"ce4bhkp2rcd13ifvqgd0","pricing_plan_id":"cebpf4jnsgd1na2vs0mg"},{"bike_id":"63dc9c50-0ab3-4ca9-802b-79ca2ca0061b","system_id":"levelo_inurba_marseille","lat":43.232008,"lon":5.355592,"is_reserved":false,"is_disabled":false,"rental_uris":{"android":"levelo://app?vid=63dc9c50-0ab3-4ca9-802b-79ca2ca0061b","ios":"levelo://app?vid=63dc9c50-0ab3-4ca9-802b-79ca2ca0061b"},"vehicle_type_id":"4","last_reported":1762006119,"current_range_meters":18000,"station_id":"ce4bhu92rcd13ifvqi70","pricing_plan_id":"cebpf4jnsgd1na2vs0mg"},{"bike_id":"84f1bfac-8d21-499b-b8e1-fdc8049e10ac","system_id":"levelo_inurba_marseille","lat":43.31282,"lon":5.377397,"is_reserved":false,"is_disabled":false,"rental_uris":{"android":"levelo://app?vid=84f1bfac-8d21-499b-b8e1-fdc8049e10ac","ios":"levelo://app?vid=84f1bfac-8d21-499b-b8e1-fdc8049e10ac"},"vehicle_type_id":"4","last_reported":1762006119,"current_range_meters":18000,"station_id":"","pricing_plan_id":"cebpf4jnsgd1na2vs0mg"},{"bike_id":"90e32a66-7f51-4280-8ee9-d2d60faa5cea","system_id":"levelo_inurba_marseille","lat":43.246675,"lon":5.381638,"is_reserved":false,"is_disabled":false,"rental_uris":{"android":"levelo://app?vid=90e32a66-7f51-4280-8ee9-d2d60faa5cea","ios":"levelo://app?vid=90e32a66-7f51-4280-8ee9-d2d60faa5cea"},"vehicle_type_id":"4","last_reported":1762006119,"current_range_meters":18000,"station_id":"ce4bhih2rcd13ifvqfr0","pricing_plan_id":"cebpf4jnsgd1na2vs0mg"},{"bike_id":"52ea53b1-4245-4dcd-9469-fb7ea4b0e6a0","system_id":"levelo_inurba_marseille","lat":43.33602,"lon":5.41035,"is_reserved":false,"is_disabled":false,"rental_uris":{"android":"levelo://app?vid=52ea53b1-4245-4dcd-9469-fb7ea4b0e6a0","ios":"levelo://app?vid=52ea53b1-4245-4dcd-9469-fb7ea4b0e6a0"},"vehicle_type_id":"4","last_reported":1762006119,"current_range_meters":18800,"station_id":"ce4bhqh2rcd13ifvqhmg","pricing_plan_id":"cebpf4jnsgd1na2vs0mg"},{"bike_id":"fbc899d2-8c60-432e-a054-080f9183e9de","system_id":"levelo_inurba_marseille","lat":43.253318,"lon":5.421677,"is_reserved":false,"is_disabled":false,"rental_uris":{"android":"levelo://app?vid=fbc899d2-8c60-432e-a054-080f9183e9de","ios":"levelo://app?vid=fbc899d2-8c60-432e-a054-080f9183e9de"},"vehicle_type_id":"4","last_reported":1762006119,"current_range_meters":18800,"station_id":"st_d2m65c5bi1j21697t3ng","pricing_plan_id":"cebpf4jnsgd1na2vs0mg"},{"bike_id":"afe97da2-f9d7-4848-8f93-c409acdb075e","system_id":"levelo_inurba_marseille","lat":43.22556,"lon":5.41644,"is_reserved":false,"is_disabled":false,"rental_uris":{"android":"levelo://app?vid=afe97da2-f9d7-4848-8f93-c409acdb075e","ios":"levelo://app?vid=afe97da2-f9d7-4848-8f93-c409acdb075e"},"vehicle_type_id":"4","last_reported":1762006119,"current_range_meters":18800,"station_id":"st_d2o4gvlbi1j2169b742g","pricing_plan_id":"cebpf4jnsgd1na2vs0mg"},{"bike_id":"1dff0eba-7b24-4e9e-b26e-371189c08022","system_id":"levelo_inurba_marseille","lat":43.2481,"lon":5.37453,"is_reserved":false,"is_disabled":false,"rental_uris":{"android":"levelo://app?vid=1dff0eba-7b24-4e9e-b26e-371189c08022","ios":"levelo://app?vid=1dff0eba-7b24-4e9e-b26e-371189c08022"},"vehicle_type_id":"4","last_reported":1762006119,"current_range_meters":18800,"station_id":"ce4bhgh2rcd13ifvqfb0","pricing_plan_id":"cebpf4jnsgd1na2vs0mg"},{"bike_id":"fd2a3e15-d6ed-4064-b7e2-d83799925ad0","system_id":"levelo_inurba_marseille","lat":43.29761,"lon":5.42781,"is_reserved":false,"is_disabled":false,"rental_uris":{"android":"levelo://app?vid=fd2a3e15-d6ed-4064-b7e2-d83799925ad0","ios":"levelo://app?vid=fd2a3e15-d6ed-4064-b7e2-d83799925ad0"},"vehicle_type_id":"4","last_reported":1762006119,"current_range_meters":18800,"station_id":"st_d3md5207bmas73dh9klg","pricing_plan_id":"cebpf4jnsgd1na2vs0mg"},{"bike_id":"9b0d9e28-79a3-4616-8e57-580f61942c1e","system_id":"levelo_inurba_marseille","lat":43.28806,"lon":5.38561,"is_reserved":false,"is_disabled":false,"rental_uris":{"android":"levelo://app?vid=9b0d9e28-79a3-4616-8e57-580f61942c1e","ios":"levelo://app?vid=9b0d9e28-79a3-4616-8e57-580f61942c1e"},"vehicle_type_id":"4","last_reported":1762006119,"current_range_meters":18800,"station_id":"","pricing_plan_id":"cebpf4jnsgd1na2vs0mg"},{"bike_id":"ae42fca6-11b8-4857-8a80-4dc993462f35","system_id":"levelo_inurba_marseille","lat":43.26925,"lon":5.38914,"is_reserved":false,"is_disabled":false,"rental_uris":{"android":"levelo://app?vid=ae42fca6-11b8-4857-8a80-4dc993462f35","ios":"levelo://app?vid=ae42fca6-11b8-4857-8a80-4dc993462f35"},"vehicle_type_id":"4","last_reported":1762006119,"current_range_meters":18800,"station_id":"ce4bhhh2rcd13ifvqfl0","pricing_plan_id":"cebpf4jnsgd1na2vs0mg"},{"bike_id":"3a94f032-382f-4e78-a618-f9c45b332dd8","system_id":"levelo_inurba_marseille","lat":43.25569,"lon":5.38244,"is_reserved":false,"is_disabled":false,"rental_uris":{"android":"levelo://app?vid=3a94f032-382f-4e78-a618-f9c45b332dd8","ios":"levelo://app?vid=3a94f032-382f-4e78-a618-f9c45b332dd8"},"vehicle_type_id":"4","last_reported":1762006119,"current_range_meters":18800,"station_id":"ce4bhih2rcd13ifvqfs0","pricing_plan_id":"cebpf4jnsgd1na2vs0mg"},{"bike_id":"4f1d1e94-dbb9-4115-b748-6e0d6b3a141b","system_id":"levelo_inurba_marseille","lat":43.275694,"lon":5.384355,"is_reserved":false,"is_disabled":false,"rental_uris":{"android":"levelo://app?vid=4f1d1e94-dbb9-4115-b748-6e0d6b3a141b","ios":"levelo://app?vid=4f1d1e94-dbb9-4115-b748-6e0d6b3a141b"},"vehicle_type_id":"4","last_reported":1762006119,"current_range_meters":18800,"station_id":"ce4bhh92rcd13ifvqfi0","pricing_plan_id":"cebpf4jnsgd1na2vs0mg"},{"bike_id":"423802bb-722e-4533-9018-c0f75cce34a6","system_id":"levelo_inurba_marseille","lat":43.30661,"lon":5.38168,"is_reserved":false,"is_disabled":false,"rental_uris":{"android":"levelo://app?vid=423802bb-722e-4533-9018-c0f75cce34a6","ios":"levelo://app?vid=423802bb-722e-4533-9018-c0f75cce34a6"},"vehicle_type_id":"4","last_reported":1762006119,"current_range_meters":19200,"station_id":"","pricing_plan_id":"cebpf4jnsgd1na2vs0mg"},{"bike_id":"9ca5a267-7f08-4088-baf9-443a2423a671","system_id":"levelo_inurba_marseille","lat":43.23963,"lon":5.36638,"is_reserved":false,"is_disabled":false,"rental_uris":{"android":"levelo://app?vid=9ca5a267-7f08-4088-baf9-443a2423a671","ios":"levelo://app?vid=9ca5a267-7f08-4088-baf9-443a2423a671"},"vehicle_type_id":"4","last_reported":1762006119,"current_range_meters":19200,"station_id":"ce4bhi12rcd13ifvqfp0","pricing_plan_id":"cebpf4jnsgd1na2vs0mg"},{"bike_id":"de0ca7a8-116a-46c8-8c50-6b445a473423","system_id":"levelo_inurba_marseille","lat":43.28866,"lon":5.42549,"is_reserved":false,"is_disabled":false,"rental_uris":{"android":"levelo://app?vid=de0ca7a8-116a-46c8-8c50-6b445a473423","ios":"levelo://app?vid=de0ca7a8-116a-46c8-8c50-6b445a473423"},"vehicle_type_id":"4","last_reported":1762006119,"current_range_meters":19200,"station_id":"st_d3b462108ojc7389ooeg","pricing_plan_id":"cebpf4jnsgd1na2vs0mg"},{"bike_id":"7d445eee-4de3-4d4f-8b96-6fffd90422b0","system_id":"levelo_inurba_marseille","lat":43.2174,"lon":5.34602,"is_reserved":false,"is_disabled":false,"rental_uris":{"android":"levelo://app?vid=7d445eee-4de3-4d4f-8b96-6fffd90422b0","ios":"levelo://app?vid=7d445eee-4de3-4d4f-8b96-6fffd90422b0"},"vehicle_type_id":"4","last_reported":1762006119,"current_range_meters":19200,"station_id":"st_cvj6r9ubvosntc0bgbag","pricing_plan_id":"cebpf4jnsgd1na2vs0mg"},{"bike_id":"8adef542-af60-4b61-8a5b-4b604c3bcfe4","system_id":"levelo_inurba_marseille","lat":43.24638,"lon":5.43157,"is_reserved":false,"is_disabled":false,"rental_uris":{"android":"levelo://app?vid=8adef542-af60-4b61-8a5b-4b604c3bcfe4","ios":"levelo://app?vid=8adef542-af60-4b61-8a5b-4b604c3bcfe4"},"vehicle_type_id":"4","last_reported":1762006119,"current_range_meters":19200,"station_id":"st_d2m6c4gdas8pm72e190g","pricing_plan_id":"cebpf4jnsgd1na2vs0mg"},{"bike_id":"72667045-b816-48de-95ee-6e55de9900ca","system_id":"levelo_inurba_marseille","lat":43.25112,"lon":5.40334,"is_reserved":false,"is_disabled":false,"rental_uris":{"android":"levelo://app?vid=72667045-b816-48de-95ee-6e55de9900ca","ios":"levelo://app?vid=72667045-b816-48de-95ee-6e55de9900ca"},"vehicle_type_id":"4","last_reported":1762006119,"current_range_meters":19200,"station_id":"ce4bhlh2rcd13ifvqgig","pricing_plan_id":"cebpf4jnsgd1na2vs0mg"},{"bike_id":"5fb9cf77-a4c1-4534-8e01-85304473a59b","system_id":"levelo_inurba_marseille","lat":43.23959,"lon":5.36635,"is_reserved":false,"is_disabled":false,"rental_uris":{"android":"levelo://app?vid=5fb9cf77-a4c1-4534-8e01-85304473a59b","ios":"levelo://app?vid=5fb9cf77-a4c1-4534-8e01-85304473a59b"},"vehicle_type_id":"4","last_reported":1762006119,"current_range_meters":19200,"station_id":"ce4bhi12rcd13ifvqfp0","pricing_plan_id":"cebpf4jnsgd1na2vs0mg"},{"bike_id":"b5e49cce-4c50-4c05-8029-916464358c9e","system_id":"levelo_inurba_marseille","lat":43.22927,"lon":5.35389,"is_reserved":false,"is_disabled":false,"rental_uris":{"android":"levelo://app?vid=b5e49cce-4c50-4c05-8029-916464358c9e","ios":"levelo://app?vid=b5e49cce-4c50-4c05-8029-916464358c9e"},"vehicle_type_id":"4","last_reported":1762006119,"current_range_meters":19200,"station_id":"cpo3532slgdg3j2ikp40","pricing_plan_id":"cebpf4jnsgd1na2vs0mg"},{"bike_id":"00b420a5-75f7-449f-8e85-9e796e56edb0","system_id":"levelo_inurba_marseille","lat":43.23184,"lon":5.35544,"is_reserved":false,"is_disabled":false,"rental_uris":{"android":"levelo://app?vid=00b420a5-75f7-449f-8e85-9e796e56edb0","ios":"levelo://app?vid=00b420a5-75f7-449f-8e85-9e796e56edb0"},"vehicle_type_id":"4","last_reported":1762006119,"current_range_meters":19200,"station_id":"ce4bhu92rcd13ifvqi70","pricing_plan_id":"cebpf4jnsgd1na2vs0mg"},{"bike_id":"dd70bcc2-2e6b-447f-adc2-e0826cf93554","system_id":"levelo_inurba_marseille","lat":43.319077,"lon":5.401539,"is_reserved":false,"is_disabled":false,"rental_uris":{"android":"levelo://app?vid=dd70bcc2-2e6b-447f-adc2-e0826cf93554","ios":"levelo://app?vid=dd70bcc2-2e6b-447f-adc2-e0826cf93554"},"vehicle_type_id":"4","last_reported":1762006119,"current_range_meters":19200,"station_id":"","pricing_plan_id":"cebpf4jnsgd1na2vs0mg"},{"bike_id":"57004889-0fcf-477b-81b6-e3b7010547a2","system_id":"levelo_inurba_marseille","lat":43.28472,"lon":5.3842,"is_reserved":false,"is_disabled":false,"rental_uris":{"android":"levelo://app?vid=57004889-0fcf-477b-81b6-e3b7010547a2","ios":"levelo://app?vid=57004889-0fcf-477b-81b6-e3b7010547a2"},"vehicle_type_id":"4","last_reported":1762006119,"current_range_meters":19600,"station_id":"ce4bh512rcd13ifvqe3g","pricing_plan_id":"cebpf4jnsgd1na2vs0mg"},{"bike_id":"294d1ff9-24a0-4d63-b3df-e8ffc797a747","system_id":"levelo_inurba_marseille","lat":43.2619,"lon":5.37442,"is_reserved":false,"is_disabled":false,"rental_uris":{"android":"levelo://app?vid=294d1ff9-24a0-4d63-b3df-e8ffc797a747","ios":"levelo://app?vid=294d1ff9-24a0-4d63-b3df-e8ffc797a747"},"vehicle_type_id":"4","last_reported":1762006119,"current_range_meters":19600,"station_id":"ce4bhgp2rcd13ifvqfc0","pricing_plan_id":"cebpf4jnsgd1na2vs0mg"},{"bike_id":"641244de-664d-454b-8dd1-5d15c61abe65","system_id":"levelo_inurba_marseille","lat":43.29269,"lon":5.36842,"is_reserved":false,"is_disabled":false,"rental_uris":{"android":"levelo://app?vid=641244de-664d-454b-8dd1-5d15c61abe65","ios":"levelo://app?vid=641244de-664d-454b-8dd1-5d15c61abe65"},"vehicle_type_id":"4","last_reported":1762006119,"current_range_meters":20000,"station_id":"ce4bhbp2rcd13ifvqesg","pricing_plan_id":"cebpf4jnsgd1na2vs0mg"},{"bike_id":"51184c45-c9b7-436c-a961-a34c6eaec629","system_id":"levelo_inurba_marseille","lat":43.284892,"lon":5.385601,"is_reserved":false,"is_disabled":false,"rental_uris":{"android":"levelo://app?vid=51184c45-c9b7-436c-a961-a34c6eaec629","ios":"levelo://app?vid=51184c45-c9b7-436c-a961-a34c6eaec629"},"vehicle_type_id":"4","last_reported":1762006119,"current_range_meters":20000,"station_id":"","pricing_plan_id":"cebpf4jnsgd1na2vs0mg"},{"bike_id":"14b92a7a-0805-475a-abfd-8c979184b42b","system_id":"levelo_inurba_marseille","lat":43.30977,"lon":5.36996,"is_reserved":false,"is_disabled":false,"rental_uris":{"android":"levelo://app?vid=14b92a7a-0805-475a-abfd-8c979184b42b","ios":"levelo://app?vid=14b92a7a-0805-475a-abfd-8c979184b42b"},"vehicle_type_id":"4","last_reported":1762006119,"current_range_meters":20000,"station_id":"","pricing_plan_id":"cebpf4jnsgd1na2vs0mg"},{"bike_id":"6febcd89-7207-461b-bc57-10dbbb9e6dcf","system_id":"levelo_inurba_marseille","lat":43.30929,"lon":5.40112,"is_reserved":false,"is_disabled":false,"rental_uris":{"android":"levelo://app?vid=6febcd89-7207-461b-bc57-10dbbb9e6dcf","ios":"levelo://app?vid=6febcd89-7207-461b-bc57-10dbbb9e6dcf"},"vehicle_type_id":"4","last_reported":1762006119,"current_range_meters":20000,"station_id":"ce4bgvp2rcd13ifvqct0","pricing_plan_id":"cebpf4jnsgd1na2vs0mg"},{"bike_id":"41ecc14c-6b68-4eca-90ce-56e652a5716d","system_id":"levelo_inurba_marseille","lat":43.30553,"lon":5.36557,"is_reserved":false,"is_disabled":false,"rental_uris":{"android":"levelo://app?vid=41ecc14c-6b68-4eca-90ce-56e652a5716d","ios":"levelo://app?vid=41ecc14c-6b68-4eca-90ce-56e652a5716d"},"vehicle_type_id":"4","last_reported":1762006119,"current_range_meters":20000,"station_id":"ce4bgs12rcd13ifvqcag","pricing_plan_id":"cebpf4jnsgd1na2vs0mg"},{"bike_id":"d0fed751-922f-49cc-8c48-e0fe4a18bcc8","system_id":"levelo_inurba_marseille","lat":43.30112,"lon":5.38061,"is_reserved":false,"is_disabled":false,"rental_uris":{"android":"levelo://app?vid=d0fed751-922f-49cc-8c48-e0fe4a18bcc8","ios":"levelo://app?vid=d0fed751-922f-49cc-8c48-e0fe4a18bcc8"},"vehicle_type_id":"4","last_reported":1762006119,"current_range_meters":20000,"station_id":"ce4bgjp2rcd13ifvqbh0","pricing_plan_id":"cebpf4jnsgd1na2vs0mg"},{"bike_id":"6eb523a4-350d-4959-ac5e-1335d8f70954","system_id":"levelo_inurba_marseille","lat":43.315717,"lon":5.406423,"is_reserved":false,"is_disabled":false,"rental_uris":{"android":"levelo://app?vid=6eb523a4-350d-4959-ac5e-1335d8f70954","ios":"levelo://app?vid=6eb523a4-350d-4959-ac5e-1335d8f70954"},"vehicle_type_id":"4","last_reported":1762006119,"current_range_meters":20000,"station_id":"","pricing_plan_id":"cebpf4jnsgd1na2vs0mg"},{"bike_id":"721ab431-2f82-4c09-9790-7574aed85a53","system_id":"levelo_inurba_marseille","lat":43.307916,"lon":5.372469,"is_reserved":false,"is_disabled":false,"rental_uris":{"android":"levelo://app?vid=721ab431-2f82-4c09-9790-7574aed85a53","ios":"levelo://app?vid=721ab431-2f82-4c09-9790-7574aed85a53"},"vehicle_type_id":"4","last_reported":1762006119,"current_range_meters":20000,"station_id":"ce4bguh2rcd13ifvqckg","pricing_plan_id":"cebpf4jnsgd1na2vs0mg"},{"bike_id":"ea981441-de44-4e91-a60f-0f3605343256","system_id":"levelo_inurba_marseille","lat":43.323627,"lon":5.367568,"is_reserved":false,"is_disabled":false,"rental_uris":{"android":"levelo://app?vid=ea981441-de44-4e91-a60f-0f3605343256","ios":"levelo://app?vid=ea981441-de44-4e91-a60f-0f3605343256"},"vehicle_type_id":"4","last_reported":1762006119,"current_range_meters":20000,"station_id":"ce4bhsh2rcd13ifvqi2g","pricing_plan_id":"cebpf4jnsgd1na2vs0mg"},{"bike_id":"9629df22-97de-46a3-bed3-7dab82155844","system_id":"levelo_inurba_marseille","lat":43.301029,"lon":5.391219,"is_reserved":false,"is_disabled":false,"rental_uris":{"android":"levelo://app?vid=9629df22-97de-46a3-bed3-7dab82155844","ios":"levelo://app?vid=9629df22-97de-46a3-bed3-7dab82155844"},"vehicle_type_id":"4","last_reported":1762006119,"current_range_meters":20400,"station_id":"ce4bh192rcd13ifvqdb0","pricing_plan_id":"cebpf4jnsgd1na2vs0mg"},{"bike_id":"066ede02-47a2-4c83-bcb1-7eb633a370fb","system_id":"levelo_inurba_marseille","lat":43.31274,"lon":5.37755,"is_reserved":false,"is_disabled":false,"rental_uris":{"android":"levelo://app?vid=066ede02-47a2-4c83-bcb1-7eb633a370fb","ios":"levelo://app?vid=066ede02-47a2-4c83-bcb1-7eb633a370fb"},"vehicle_type_id":"4","last_reported":1762006119,"current_range_meters":20400,"station_id":"","pricing_plan_id":"cebpf4jnsgd1na2vs0mg"},{"bike_id":"b957b54f-19c2-4dcc-b1e1-03bf94366400","system_id":"levelo_inurba_marseille","lat":43.26571,"lon":5.39034,"is_reserved":false,"is_disabled":false,"rental_uris":{"android":"levelo://app?vid=b957b54f-19c2-4dcc-b1e1-03bf94366400","ios":"levelo://app?vid=b957b54f-19c2-4dcc-b1e1-03bf94366400"},"vehicle_type_id":"4","last_reported":1762006119,"current_range_meters":20400,"station_id":"ce4bhe12rcd13ifvqf30","pricing_plan_id":"cebpf4jnsgd1na2vs0mg"},{"bike_id":"e1126e11-e7b1-4e84-802a-21cb202a6dab","system_id":"levelo_inurba_marseille","lat":43.29846,"lon":5.36275,"is_reserved":false,"is_disabled":false,"rental_uris":{"android":"levelo://app?vid=e1126e11-e7b1-4e84-802a-21cb202a6dab","ios":"levelo://app?vid=e1126e11-e7b1-4e84-802a-21cb202a6dab"},"vehicle_type_id":"4","last_reported":1762006119,"current_range_meters":20400,"station_id":"ce4bgpp2rcd13ifvqc3g","pricing_plan_id":"cebpf4jnsgd1na2vs0mg"},{"bike_id":"44bd16d1-a04f-4bc6-b86e-e70554a3e0af","system_id":"levelo_inurba_marseille","lat":43.26557,"lon":5.3904,"is_reserved":false,"is_disabled":false,"rental_uris":{"android":"levelo://app?vid=44bd16d1-a04f-4bc6-b86e-e70554a3e0af","ios":"levelo://app?vid=44bd16d1-a04f-4bc6-b86e-e70554a3e0af"},"vehicle_type_id":"4","last_reported":1762006119,"current_range_meters":20400,"station_id":"ce4bhe12rcd13ifvqf30","pricing_plan_id":"cebpf4jnsgd1na2vs0mg"},{"bike_id":"fe2272ea-7316-4280-b90c-d8c4db7bc73e","system_id":"levelo_inurba_marseille","lat":43.27944,"lon":5.39299,"is_reserved":false,"is_disabled":false,"rental_uris":{"android":"levelo://app?vid=fe2272ea-7316-4280-b90c-d8c4db7bc73e","ios":"levelo://app?vid=fe2272ea-7316-4280-b90c-d8c4db7bc73e"},"vehicle_type_id":"4","last_reported":1762006119,"current_range_meters":20400,"station_id":"","pricing_plan_id":"cebpf4jnsgd1na2vs0mg"},{"bike_id":"b2514755-0f11-4833-b225-7d1f8289efa4","system_id":"levelo_inurba_marseille","lat":43.229312,"lon":5.353754,"is_reserved":false,"is_disabled":false,"rental_uris":{"android":"levelo://app?vid=b2514755-0f11-4833-b225-7d1f8289efa4","ios":"levelo://app?vid=b2514755-0f11-4833-b225-7d1f8289efa4"},"vehicle_type_id":"4","last_reported":1762006119,"current_range_meters":20400,"station_id":"cpo3532slgdg3j2ikp40","pricing_plan_id":"cebpf4jnsgd1na2vs0mg"},{"bike_id":"f12cda4c-f18d-49c7-808c-3a750cd25b47","system_id":"levelo_inurba_marseille","lat":43.25505,"lon":5.37646,"is_reserved":false,"is_disabled":false,"rental_uris":{"android":"levelo://app?vid=f12cda4c-f18d-49c7-808c-3a750cd25b47","ios":"levelo://app?vid=f12cda4c-f18d-49c7-808c-3a750cd25b47"},"vehicle_type_id":"4","last_reported":1762006119,"current_range_meters":20400,"station_id":"ce4bhh12rcd13ifvqff0","pricing_plan_id":"cebpf4jnsgd1na2vs0mg"},{"bike_id":"645d9fce-bd3a-4944-ba5e-ef66a3870abd","system_id":"levelo_inurba_marseille","lat":43.262216,"lon":5.40457,"is_reserved":false,"is_disabled":false,"rental_uris":{"android":"levelo://app?vid=645d9fce-bd3a-4944-ba5e-ef66a3870abd","ios":"levelo://app?vid=645d9fce-bd3a-4944-ba5e-ef66a3870abd"},"vehicle_type_id":"4","last_reported":1762006119,"current_range_meters":20400,"station_id":"ce4bhmh2rcd13ifvqgmg","pricing_plan_id":"cebpf4jnsgd1na2vs0mg"},{"bike_id":"a6646278-d3b7-47f9-84aa-4ed3e7dff01d","system_id":"levelo_inurba_marseille","lat":43.30424,"lon":5.39751,"is_reserved":false,"is_disabled":false,"rental_uris":{"android":"levelo://app?vid=a6646278-d3b7-47f9-84aa-4ed3e7dff01d","ios":"levelo://app?vid=a6646278-d3b7-47f9-84aa-4ed3e7dff01d"},"vehicle_type_id":"4","last_reported":1762006119,"current_range_meters":20800,"station_id":"ce4bh092rcd13ifvqd20","pricing_plan_id":"cebpf4jnsgd1na2vs0mg"},{"bike_id":"1d9b1204-e560-4257-a616-f7c80f216779","system_id":"levelo_inurba_marseille","lat":43.27185,"lon":5.40993,"is_reserved":false,"is_disabled":false,"rental_uris":{"android":"levelo://app?vid=1d9b1204-e560-4257-a616-f7c80f216779","ios":"levelo://app?vid=1d9b1204-e560-4257-a616-f7c80f216779"},"vehicle_type_id":"4","last_reported":1762006119,"current_range_meters":20800,"station_id":"ce4bhl12rcd13ifvqgf0","pricing_plan_id":"cebpf4jnsgd1na2vs0mg"},{"bike_id":"e53e30cd-2a1c-47b2-a58f-47c395ea8d44","system_id":"levelo_inurba_marseille","lat":43.24643,"lon":5.38907,"is_reserved":false,"is_disabled":false,"rental_uris":{"android":"levelo://app?vid=e53e30cd-2a1c-47b2-a58f-47c395ea8d44","ios":"levelo://app?vid=e53e30cd-2a1c-47b2-a58f-47c395ea8d44"},"vehicle_type_id":"4","last_reported":1762006119,"current_range_meters":20800,"station_id":"ce4bhg12rcd13ifvqf60","pricing_plan_id":"cebpf4jnsgd1na2vs0mg"},{"bike_id":"cc475582-0cc3-4b14-a66c-6041b0d2e976","system_id":"levelo_inurba_marseille","lat":43.2933,"lon":5.41166,"is_reserved":false,"is_disabled":false,"rental_uris":{"android":"levelo://app?vid=cc475582-0cc3-4b14-a66c-6041b0d2e976","ios":"levelo://app?vid=cc475582-0cc3-4b14-a66c-6041b0d2e976"},"vehicle_type_id":"4","last_reported":1762006119,"current_range_meters":20800,"station_id":"","pricing_plan_id":"cebpf4jnsgd1na2vs0mg"},{"bike_id":"aa56963e-5f6a-4043-b1c7-23e4d9f05d8c","system_id":"levelo_inurba_marseille","lat":43.313499,"lon":5.379119,"is_reserved":false,"is_disabled":false,"rental_uris":{"android":"levelo://app?vid=aa56963e-5f6a-4043-b1c7-23e4d9f05d8c","ios":"levelo://app?vid=aa56963e-5f6a-4043-b1c7-23e4d9f05d8c"},"vehicle_type_id":"4","last_reported":1762006119,"current_range_meters":20800,"station_id":"","pricing_plan_id":"cebpf4jnsgd1na2vs0mg"},{"bike_id":"c695b713-3bc3-411d-b98f-7753f873ef56","system_id":"levelo_inurba_marseille","lat":43.286,"lon":5.3706,"is_reserved":false,"is_disabled":false,"rental_uris":{"android":"levelo://app?vid=c695b713-3bc3-411d-b98f-7753f873ef56","ios":"levelo://app?vid=c695b713-3bc3-411d-b98f-7753f873ef56"},"vehicle_type_id":"4","last_reported":1762006119,"current_range_meters":20800,"station_id":"ce4bht12rcd13ifvqi60","pricing_plan_id":"cebpf4jnsgd1na2vs0mg"},{"bike_id":"a4dfb8fa-d83f-41c7-a7a7-656816dc95ff","system_id":"levelo_inurba_marseille","lat":43.24665,"lon":5.38161,"is_reserved":false,"is_disabled":false,"rental_uris":{"android":"levelo://app?vid=a4dfb8fa-d83f-41c7-a7a7-656816dc95ff","ios":"levelo://app?vid=a4dfb8fa-d83f-41c7-a7a7-656816dc95ff"},"vehicle_type_id":"4","last_reported":1762006119,"current_range_meters":20800,"station_id":"ce4bhih2rcd13ifvqfr0","pricing_plan_id":"cebpf4jnsgd1na2vs0mg"},{"bike_id":"76510150-8940-4df5-a5d5-a088012e503e","system_id":"levelo_inurba_marseille","lat":43.29264,"lon":5.3685,"is_reserved":false,"is_disabled":false,"rental_uris":{"android":"levelo://app?vid=76510150-8940-4df5-a5d5-a088012e503e","ios":"levelo://app?vid=76510150-8940-4df5-a5d5-a088012e503e"},"vehicle_type_id":"4","last_reported":1762006119,"current_range_meters":20800,"station_id":"ce4bhbp2rcd13ifvqesg","pricing_plan_id":"cebpf4jnsgd1na2vs0mg"},{"bike_id":"f556ad88-b0ef-4d15-8048-f36fbe8e026c","system_id":"levelo_inurba_marseille","lat":43.28534,"lon":5.44102,"is_reserved":false,"is_disabled":false,"rental_uris":{"android":"levelo://app?vid=f556ad88-b0ef-4d15-8048-f36fbe8e026c","ios":"levelo://app?vid=f556ad88-b0ef-4d15-8048-f36fbe8e026c"},"vehicle_type_id":"4","last_reported":1762006119,"current_range_meters":21600,"station_id":"st_d3j3df2ikq2c7380ej80","pricing_plan_id":"cebpf4jnsgd1na2vs0mg"},{"bike_id":"6dd18053-e3ac-4ec6-8544-7b6c95a61457","system_id":"levelo_inurba_marseille","lat":43.24164,"lon":5.36396,"is_reserved":false,"is_disabled":false,"rental_uris":{"android":"levelo://app?vid=6dd18053-e3ac-4ec6-8544-7b6c95a61457","ios":"levelo://app?vid=6dd18053-e3ac-4ec6-8544-7b6c95a61457"},"vehicle_type_id":"4","last_reported":1762006119,"current_range_meters":21600,"station_id":"cpo36qri1sfpv3e86is0","pricing_plan_id":"cebpf4jnsgd1na2vs0mg"},{"bike_id":"fcc7a5b9-eb88-45bf-aebf-cf96cca8c3ef","system_id":"levelo_inurba_marseille","lat":43.24663,"lon":5.38169,"is_reserved":false,"is_disabled":false,"rental_uris":{"android":"levelo://app?vid=fcc7a5b9-eb88-45bf-aebf-cf96cca8c3ef","ios":"levelo://app?vid=fcc7a5b9-eb88-45bf-aebf-cf96cca8c3ef"},"vehicle_type_id":"4","last_reported":1762006119,"current_range_meters":21600,"station_id":"ce4bhih2rcd13ifvqfr0","pricing_plan_id":"cebpf4jnsgd1na2vs0mg"},{"bike_id":"a42b107f-b407-42dc-a9dc-9c91dcb695ad","system_id":"levelo_inurba_marseille","lat":43.25335,"lon":5.42175,"is_reserved":false,"is_disabled":false,"rental_uris":{"android":"levelo://app?vid=a42b107f-b407-42dc-a9dc-9c91dcb695ad","ios":"levelo://app?vid=a42b107f-b407-42dc-a9dc-9c91dcb695ad"},"vehicle_type_id":"4","last_reported":1762006119,"current_range_meters":21600,"station_id":"st_d2m65c5bi1j21697t3ng","pricing_plan_id":"cebpf4jnsgd1na2vs0mg"},{"bike_id":"7cb38f55-5064-443e-9c90-a7ed0200eca3","system_id":"levelo_inurba_marseille","lat":43.295763,"lon":5.375225,"is_reserved":false,"is_disabled":false,"rental_uris":{"android":"levelo://app?vid=7cb38f55-5064-443e-9c90-a7ed0200eca3","ios":"levelo://app?vid=7cb38f55-5064-443e-9c90-a7ed0200eca3"},"vehicle_type_id":"4","last_reported":1762006119,"current_range_meters":21600,"station_id":"","pricing_plan_id":"cebpf4jnsgd1na2vs0mg"},{"bike_id":"65959e76-2dec-43d3-b15c-b4e7433182fd","system_id":"levelo_inurba_marseille","lat":43.293631,"lon":5.371955,"is_reserved":false,"is_disabled":false,"rental_uris":{"android":"levelo://app?vid=65959e76-2dec-43d3-b15c-b4e7433182fd","ios":"levelo://app?vid=65959e76-2dec-43d3-b15c-b4e7433182fd"},"vehicle_type_id":"4","last_reported":1762006119,"current_range_meters":21600,"station_id":"","pricing_plan_id":"cebpf4jnsgd1na2vs0mg"},{"bike_id":"6dbae8fb-b558-4de5-931e-260b80081062","system_id":"levelo_inurba_marseille","lat":43.29897,"lon":5.43654,"is_reserved":false,"is_disabled":false,"rental_uris":{"android":"levelo://app?vid=6dbae8fb-b558-4de5-931e-260b80081062","ios":"levelo://app?vid=6dbae8fb-b558-4de5-931e-260b80081062"},"vehicle_type_id":"4","last_reported":1762006119,"current_range_meters":21600,"station_id":"ce4bhpp2rcd13ifvqhfg","pricing_plan_id":"cebpf4jnsgd1na2vs0mg"},{"bike_id":"74fc4b64-e475-4c4c-8a06-aad72906afb9","system_id":"levelo_inurba_marseille","lat":43.29525,"lon":5.3854,"is_reserved":false,"is_disabled":false,"rental_uris":{"android":"levelo://app?vid=74fc4b64-e475-4c4c-8a06-aad72906afb9","ios":"levelo://app?vid=74fc4b64-e475-4c4c-8a06-aad72906afb9"},"vehicle_type_id":"4","last_reported":1762006119,"current_range_meters":21600,"station_id":"ce4bgih2rcd13ifvqba0","pricing_plan_id":"cebpf4jnsgd1na2vs0mg"},{"bike_id":"123ec047-d6a2-4308-aee4-8ec0b2bea538","system_id":"levelo_inurba_marseille","lat":43.23205,"lon":5.35577,"is_reserved":false,"is_disabled":false,"rental_uris":{"android":"levelo://app?vid=123ec047-d6a2-4308-aee4-8ec0b2bea538","ios":"levelo://app?vid=123ec047-d6a2-4308-aee4-8ec0b2bea538"},"vehicle_type_id":"4","last_reported":1762006119,"current_range_meters":21600,"station_id":"ce4bhu92rcd13ifvqi70","pricing_plan_id":"cebpf4jnsgd1na2vs0mg"},{"bike_id":"57280a73-a4a9-45e3-99a5-f3b478f5a8de","system_id":"levelo_inurba_marseille","lat":43.28468,"lon":5.38428,"is_reserved":false,"is_disabled":false,"rental_uris":{"android":"levelo://app?vid=57280a73-a4a9-45e3-99a5-f3b478f5a8de","ios":"levelo://app?vid=57280a73-a4a9-45e3-99a5-f3b478f5a8de"},"vehicle_type_id":"4","last_reported":1762006119,"current_range_meters":21600,"station_id":"ce4bh512rcd13ifvqe3g","pricing_plan_id":"cebpf4jnsgd1na2vs0mg"},{"bike_id":"f010a61e-1526-4e6b-91d6-dfa47624f251","system_id":"levelo_inurba_marseille","lat":43.2293,"lon":5.35379,"is_reserved":false,"is_disabled":false,"rental_uris":{"android":"levelo://app?vid=f010a61e-1526-4e6b-91d6-dfa47624f251","ios":"levelo://app?vid=f010a61e-1526-4e6b-91d6-dfa47624f251"},"vehicle_type_id":"4","last_reported":1762006119,"current_range_meters":21600,"station_id":"cpo3532slgdg3j2ikp40","pricing_plan_id":"cebpf4jnsgd1na2vs0mg"},