{"last_updated":1740726611,"ttl":60,"version":"2.2","data":{"bikes":[{"bike_id":"23aedf73-ef62-4d29-8662-d09c061e3b39","system_id":"levelo_inurba_marseille","lat":43.31058,"lon":5.38193,"is_reserved":false,"is_disabled":true,"rental_uris":{"android":"levelo://app?vid=23aedf73-ef62-4d29-8662-d09c061e3b39","ios":"levelo://app?vid=23aedf73-ef62-4d29-8662-d09c061e3b39"},"vehicle_type_id":"4","last_reported":1740726611,"current_range_meters":0,"station_id":"","pricing_plan_id":"cebpf4jnsgd1na2vs0mg"},{"bike_id":"32d39ccd-0c40-4cda-a0e5-98cc976b3566","system_id":"levelo_inurba_marseille","lat":43.237009,"lon":5.435877,"is_reserved":false,"is_disabled":true,"rental_uris":{"android":"levelo://app?vid=32d39ccd-0c40-4cda-a0e5-98cc976b3566","ios":"levelo://app?vid=32d39ccd-0c40-4cda-a0e5-98cc976b3566"},"vehicle_type_id":"4","last_reported":1740726611,"current_range_meters":0,"station_id":"","pricing_plan_id":"cebpf4jnsgd1na2vs0mg"},{"bike_id":"3acd54d7-7328-406a-a41a-79b49c778114","system_id":"levelo_inurba_marseille","lat":43.32757,"lon":5.3963,"is_reserved":false,"is_disabled":true,"rental_uris":{"android":"levelo://app?vid=3acd54d7-7328-406a-a41a-79b49c778114","ios":"levelo://app?vid=3acd54d7-7328-406a-a41a-79b49c778114"},"vehicle_type_id":"4","last_reported":1740726611,"current_range_meters":0,"station_id":"","pricing_plan_id":"cebpf4jnsgd1na2vs0mg"},{"bike_id":"603921e0-6044-49e8-9b03-4e16114fa47a","system_id":"levelo_inurba_marseille","lat":43.27754,"lon":5.38878,"is_reserved":false,"is_disabled":true,"rental_uris":{"android":"levelo://app?vid=603921e0-6044-49e8-9b03-4e16114fa47a","ios":"levelo://app?vid=603921e0-6044-49e8-9b03-4e16114fa47a"},"vehicle_type_id":"4","last_reported":1740726611,"current_range_meters":0,"station_id":"","pricing_plan_id":"cebpf4jnsgd1na2vs0mg"},{"bike_id":"b82fe2fa-9f23-4f27-ad25-9ad37cf7aa53","system_id":"levelo_inurba_marseille","lat":43.28341,"lon":5.41353,"is_reserved":false,"is_disabled":true,"rental_uris":{"android":"levelo://app?vid=b82fe2fa-9f23-4f27-ad25-9ad37cf7aa53","ios":"levelo://app?vid=b82fe2fa-9f23-4f27-ad25-9ad37cf7aa53"},"vehicle_type_id":"4","last_reported":1740726611,"current_range_meters":0,"station_id":"","pricing_plan_id":"cebpf4jnsgd1na2vs0mg"},{"bike_id":"b5368874-e19e-4e33-8e44-b3ac25e43af6","system_id":"levelo_inurba_marseille","lat":43.31314,"lon":5.37082,"is_reserved":false,"is_disabled":true,"rental_uris":{"android":"levelo://app?vid=b5368874-e19e-4e33-8e44-b3ac25e43af6","ios":"levelo://app?vid=b5368874-e19e-4e33-8e44-b3ac25e43af6"},"vehicle_type_id":"4","last_reported":1740726611,"current_range_meters":0,"station_id":"","pricing_plan_id":"cebpf4jnsgd1na2vs0mg"},{"bike_id":"63aaeff2-04ac-41c6-b91a-ac051892a521","system_id":"levelo_inurba_marseille","lat":43.27828,"lon":5.37927,"is_reserved":false,"is_disabled":true,"rental_uris":{"android":"levelo://app?vid=63aaeff2-04ac-41c6-b91a-ac051892a521","ios":"levelo://app?vid=63aaeff2-04ac-41c6-b91a-ac051892a521"},"vehicle_type_id":"4","last_reported":1740726611,"current_range_meters":0,"station_id":"","pricing_plan_id":"cebpf4jnsgd1na2vs0mg"},{"bike_id":"13a2d3e9-8b93-4966-9b3e-92a29a5a031b","system_id":"levelo_inurba_marseille","lat":43.322727,"lon":5.37475,"is_reserved":false,"is_disabled":true,"rental_uris":{"android":"levelo://app?vid=13a2d3e9-8b93-4966-9b3e-92a29a5a031b","ios":"levelo://app?vid=13a2d3e9-8b93-4966-9b3e-92a29a5a031b"},"vehicle_type_id":"4","last_reported":1740726611,"current_range_meters":0,"station_id":"","pricing_plan_id":"cebpf4jnsgd1na2vs0mg"},{"bike_id":"86393bfd-63e9-4ce8-80c5-e3e3d2c14c56","system_id":"levelo_inurba_marseille","lat":43.29608,"lon":5.38123,"is_reserved":false,"is_disabled":true,"rental_uris":{"android":"levelo://app?vid=86393bfd-63e9-4ce8-80c5-e3e3d2c14c56","ios":"levelo://app?vid=86393bfd-63e9-4ce8-80c5-e3e3d2c14c56"},"vehicle_type_id":"4","last_reported":1740726611,"current_range_meters":0,"station_id":"ce4bgl12rcd13ifvqbo0","pricing_plan_id":"cebpf4jnsgd1na2vs0mg"},{"bike_id":"09afcaae-99a4-4d9d-937e-295eef654cd5","system_id":"levelo_inurba_marseille","lat":43.29637,"lon":5.37174,"is_reserved":false,"is_disabled":true,"rental_uris":{"android":"levelo://app?vid=09afcaae-99a4-4d9d-937e-295eef654cd5","ios":"levelo://app?vid=09afcaae-99a4-4d9d-937e-295eef654cd5"},"vehicle_type_id":"4","last_reported":1740726611,"current_range_meters":0,"station_id":"ce4bgnh2rcd13ifvqc0g","pricing_plan_id":"cebpf4jnsgd1na2vs0mg"},{"bike_id":"b4f693de-6570-4518-9a87-afe735f693bb","system_id":"levelo_inurba_marseille","lat":43.31683,"lon":5.40469,"is_reserved":false,"is_disabled":true,"rental_uris":{"android":"levelo://app?vid=b4f693de-6570-4518-9a87-afe735f693bb","ios":"levelo://app?vid=b4f693de-6570-4518-9a87-afe735f693bb"},"vehicle_type_id":"4","last_reported":1740726611,"current_range_meters":0,"station_id":"ce4bh012rcd13ifvqd00","pricing_plan_id":"cebpf4jnsgd1na2vs0mg"},{"bike_id":"0b5b1a7b-12c2-4a03-95c9-60548f3be8ce","system_id":"levelo_inurba_marseille","lat":43.3059,"lon":5.39362,"is_reserved":false,"is_disabled":true,"rental_uris":{"android":"levelo://app?vid=0b5b1a7b-12c2-4a03-95c9-60548f3be8ce","ios":"levelo://app?vid=0b5b1a7b-12c2-4a03-95c9-60548f3be8ce"},"vehicle_type_id":"4","last_reported":1740726611,"current_range_meters":0,"station_id":"ce4bh0p2rcd13ifvqd80","pricing_plan_id":"cebpf4jnsgd1na2vs0mg"},{"bike_id":"7a942d66-8230-4c3e-9853-0ea3fd12b0b2","system_id":"levelo_inurba_marseille","lat":43.26554,"lon":5.37316,"is_reserved":false,"is_disabled":true,"rental_uris":{"android":"levelo://app?vid=7a942d66-8230-4c3e-9853-0ea3fd12b0b2","ios":"levelo://app?vid=7a942d66-8230-4c3e-9853-0ea3fd12b0b2"},"vehicle_type_id":"4","last_reported":1740726611,"current_range_meters":0,"station_id":"ce4bhg12rcd13ifvqf70","pricing_plan_id":"cebpf4jnsgd1na2vs0mg"},{"bike_id":"02eb9008-abd0-404c-bc19-3633963a8bd8","system_id":"levelo_inurba_marseille","lat":43.26013,"lon":5.37574,"is_reserved":false,"is_disabled":true,"rental_uris":{"android":"levelo://app?vid=02eb9008-abd0-404c-bc19-3633963a8bd8","ios":"levelo://app?vid=02eb9008-abd0-404c-bc19-3633963a8bd8"},"vehicle_type_id":"4","last_reported":1740726611,"current_range_meters":0,"station_id":"ce4bhgh2rcd13ifvqfa0","pricing_plan_id":"cebpf4jnsgd1na2vs0mg"},{"bike_id":"a36f438d-41ea-4c6f-a7cf-dd49e3c39f61","system_id":"levelo_inurba_marseille","lat":43.24542,"lon":5.39536,"is_reserved":false,"is_disabled":true,"rental_uris":{"android":"levelo://app?vid=a36f438d-41ea-4c6f-a7cf-dd49e3c39f61","ios":"levelo://app?vid=a36f438d-41ea-4c6f-a7cf-dd49e3c39f61"},"vehicle_type_id":"4","last_reported":1740726611,"current_range_meters":0,"station_id":"ce4bhlp2rcd13ifvqgjg","pricing_plan_id":"cebpf4jnsgd1na2vs0mg"},{"bike_id":"7a9a1b32-b520-4faa-a550-ba16413583f9","system_id":"levelo_inurba_marseille","lat":43.32343,"lon":5.40614,"is_reserved":false,"is_disabled":false,"rental_uris":{"android":"levelo://app?vid=7a9a1b32-b520-4faa-a550-ba16413583f9","ios":"levelo://app?vid=7a9a1b32-b520-4faa-a550-ba16413583f9"},"vehicle_type_id":"4","last_reported":1740726611,"current_range_meters":0,"station_id":"ce4bhq92rcd13ifvqhjg","pricing_plan_id":"cebpf4jnsgd1na2vs0mg"},{"bike_id":"00efb403-bc89-40ef-9eb8-a5083651b47c","system_id":"levelo_inurba_marseille","lat":43.29358,"lon":5.37423,"is_reserved":false,"is_disabled":true,"rental_uris":{"android":"levelo://app?vid=00efb403-bc89-40ef-9eb8-a5083651b47c","ios":"levelo://app?vid=00efb403-bc89-40ef-9eb8-a5083651b47c"},"vehicle_type_id":"4","last_reported":1740726611,"current_range_meters":400,"station_id":"","pricing_plan_id":"cebpf4jnsgd1na2vs0mg"},{"bike_id":"278ba13b-de3b-47f9-b6ab-33a44a85291b","system_id":"levelo_inurba_marseille","lat":43.29039,"lon":5.38671,"is_reserved":false,"is_disabled":true,"rental_uris":{"android":"levelo://app?vid=278ba13b-de3b-47f9-b6ab-33a44a85291b","ios":"levelo://app?vid=278ba13b-de3b-47f9-b6ab-33a44a85291b"},"vehicle_type_id":"4","last_reported":1740726611,"current_range_meters":400,"station_id":"ce4bh4p2rcd13ifvqe0g","pricing_plan_id":"cebpf4jnsgd1na2vs0mg"},{"bike_id":"2e7c09dc-d88d-4891-a953-b4dde120f571","system_id":"levelo_inurba_marseille","lat":43.30294,"lon":5.39214,"is_reserved":false,"is_disabled":false,"rental_uris":{"android":"levelo://app?vid=2e7c09dc-d88d-4891-a953-b4dde120f571","ios":"levelo://app?vid=2e7c09dc-d88d-4891-a953-b4dde120f571"},"vehicle_type_id":"4","last_reported":1740726611,"current_range_meters":800,"station_id":"ce4bgkh2rcd13ifvqbk0","pricing_plan_id":"cebpf4jnsgd1na2vs0mg"},{"bike_id":"d99cc76d-ee9a-4af8-8b1f-a4b0e5ddc7d4","system_id":"levelo_inurba_marseille","lat":43.31367,"lon":5.38502,"is_reserved":false,"is_disabled":true,"rental_uris":{"android":"levelo://app?vid=d99cc76d-ee9a-4af8-8b1f-a4b0e5ddc7d4","ios":"levelo://app?vid=d99cc76d-ee9a-4af8-8b1f-a4b0e5ddc7d4"},"vehicle_type_id":"4","last_reported":1740726611,"current_range_meters":800,"station_id":"ce4bgt92rcd13ifvqcf0","pricing_plan_id":"cebpf4jnsgd1na2vs0mg"},{"bike_id":"4e54e29d-6c93-4c36-bd44-db087d0457f2","system_id":"levelo_inurba_marseille","lat":43.29894,"lon":5.39742,"is_reserved":false,"is_disabled":true,"rental_uris":{"android":"levelo://app?vid=4e54e29d-6c93-4c36-bd44-db087d0457f2","ios":"levelo://app?vid=4e54e29d-6c93-4c36-bd44-db087d0457f2"},"vehicle_type_id":"4","last_reported":1740726611,"current_range_meters":800,"station_id":"ce4bh0h2rcd13ifvqd50","pricing_plan_id":"cebpf4jnsgd1na2vs0mg"},{"bike_id":"f98a804c-537c-41bb-9782-3da5bcf6e43a","system_id":"levelo_inurba_marseille","lat":43.27946,"lon":5.41049,"is_reserved":false,"is_disabled":true,"rental_uris":{"android":"levelo://app?vid=f98a804c-537c-41bb-9782-3da5bcf6e43a","ios":"levelo://app?vid=f98a804c-537c-41bb-9782-3da5bcf6e43a"},"vehicle_type_id":"4","last_reported":1740726611,"current_range_meters":1200,"station_id":"ce4bhnp2rcd13ifvqh0g","pricing_plan_id":"cebpf4jnsgd1na2vs0mg"},{"bike_id":"f27b673d-6c3c-4015-8d8b-79f2caa47f0c","system_id":"levelo_inurba_marseille","lat":43.29529,"lon":5.38545,"is_reserved":false,"is_disabled":true,"rental_uris":{"android":"levelo://app?vid=f27b673d-6c3c-4015-8d8b-79f2caa47f0c","ios":"levelo://app?vid=f27b673d-6c3c-4015-8d8b-79f2caa47f0c"},"vehicle_type_id":"4","last_reported":1740726611,"current_range_meters":1600,"station_id":"ce4bgih2rcd13ifvqba0","pricing_plan_id":"cebpf4jnsgd1na2vs0mg"},{"bike_id":"3935a0d8-1725-43c7-bde9-6acc246d70bc","system_id":"levelo_inurba_marseille","lat":43.28493,"lon":5.38418,"is_reserved":false,"is_disabled":true,"rental_uris":{"android":"levelo://app?vid=3935a0d8-1725-43c7-bde9-6acc246d70bc","ios":"levelo://app?vid=3935a0d8-1725-43c7-bde9-6acc246d70bc"},"vehicle_type_id":"4","last_reported":1740726611,"current_range_meters":1600,"station_id":"ce4bh512rcd13ifvqe3g","pricing_plan_id":"cebpf4jnsgd1na2vs0mg"},{"bike_id":"2b48f4d4-f336-4ca7-a21c-b62b1ac5d67e","system_id":"levelo_inurba_marseille","lat":43.29091,"lon":5.38122,"is_reserved":false,"is_disabled":true,"rental_uris":{"android":"levelo://app?vid=2b48f4d4-f336-4ca7-a21c-b62b1ac5d67e","ios":"levelo://app?vid=2b48f4d4-f336-4ca7-a21c-b62b1ac5d67e"},"vehicle_type_id":"4","last_reported":1740726611,"current_range_meters":2000,"station_id":"ce4bh512rcd13ifvqe2g","pricing_plan_id":"cebpf4jnsgd1na2vs0mg"},{"bike_id":"df3becdc-efe5-428b-ad3b-9a5b04af2ecf","system_id":"levelo_inurba_marseille","lat":43.28048,"lon":5.36928,"is_reserved":false,"is_disabled":true,"rental_uris":{"android":"levelo://app?vid=df3becdc-efe5-428b-ad3b-9a5b04af2ecf","ios":"levelo://app?vid=df3becdc-efe5-428b-ad3b-9a5b04af2ecf"},"vehicle_type_id":"4","last_reported":1740726611,"current_range_meters":2000,"station_id":"ce4bha12rcd13ifvqef0","pricing_plan_id":"cebpf4jnsgd1na2vs0mg"},{"bike_id":"ae23d63f-1813-4ce3-9f00-de91edb6a690","system_id":"levelo_inurba_marseille","lat":43.2924,"lon":5.36065,"is_reserved":false,"is_disabled":true,"rental_uris":{"android":"levelo://app?vid=ae23d63f-1813-4ce3-9f00-de91edb6a690","ios":"levelo://app?vid=ae23d63f-1813-4ce3-9f00-de91edb6a690"},"vehicle_type_id":"4","last_reported":1740726611,"current_range_meters":2000,"station_id":"ce4bhbh2rcd13ifvqeqg","pricing_plan_id":"cebpf4jnsgd1na2vs0mg"},{"bike_id":"6dc1176f-52cc-4459-b930-6395db0a51d4","system_id":"levelo_inurba_marseille","lat":43.25643,"lon":5.3816,"is_reserved":false,"is_disabled":true,"rental_uris":{"android":"levelo://app?vid=6dc1176f-52cc-4459-b930-6395db0a51d4","ios":"levelo://app?vid=6dc1176f-52cc-4459-b930-6395db0a51d4"},"vehicle_type_id":"4","last_reported":1740726611,"current_range_meters":2000,"station_id":"ce4bhih2rcd13ifvqfs0","pricing_plan_id":"cebpf4jnsgd1na2vs0mg"},{"bike_id":"6a7bf064-70cd-4e9b-9e69-2963372b0746","system_id":"levelo_inurba_marseille","lat":43.29783,"lon":5.3811,"is_reserved":false,"is_disabled":false,"rental_uris":{"android":"levelo://app?vid=6a7bf064-70cd-4e9b-9e69-2963372b0746","ios":"levelo://app?vid=6a7bf064-70cd-4e9b-9e69-2963372b0746"},"vehicle_type_id":"4","last_reported":1740726611,"current_range_meters":2800,"station_id":"ce4bgip2rcd13ifvqbb0","pricing_plan_id":"cebpf4jnsgd1na2vs0mg"},{"bike_id":"1e374115-1206-480f-9958-70a96b27d792","system_id":"levelo_inurba_marseille","lat":43.28428,"lon":5.37516,"is_reserved":false,"is_disabled":false,"rental_uris":{"android":"levelo://app?vid=1e374115-1206-480f-9958-70a96b27d792","ios":"levelo://app?vid=1e374115-1206-480f-9958-70a96b27d792"},"vehicle_type_id":"4","last_reported":1740726611,"current_range_meters":3200,"station_id":"ce4bh412rcd13ifvqds0","pricing_plan_id":"cebpf4jnsgd1na2vs0mg"},{"bike_id":"d4a017a5-9484-4c7c-920e-6935de880928","system_id":"levelo_inurba_marseille","lat":43.29007,"lon":5.35612,"is_reserved":false,"is_disabled":false,"rental_uris":{"android":"levelo://app?vid=d4a017a5-9484-4c7c-920e-6935de880928","ios":"levelo://app?vid=d4a017a5-9484-4c7c-920e-6935de880928"},"vehicle_type_id":"4","last_reported":1740726611,"current_range_meters":3200,"station_id":"ce4bhb92rcd13ifvqen0","pricing_plan_id":"cebpf4jnsgd1na2vs0mg"},{"bike_id":"fa372d00-1d6f-4e7f-bbb5-1d48cd00493b","system_id":"levelo_inurba_marseille","lat":43.283583,"lon":5.386456,"is_reserved":false,"is_disabled":false,"rental_uris":{"android":"levelo://app?vid=fa372d00-1d6f-4e7f-bbb5-1d48cd00493b","ios":"levelo://app?vid=fa372d00-1d6f-4e7f-bbb5-1d48cd00493b"},"vehicle_type_id":"4","last_reported":1740726611,"current_range_meters":3600,"station_id":"ce4bh192rcd13ifvqdd0","pricing_plan_id":"cebpf4jnsgd1na2vs0mg"},{"bike_id":"d136a3eb-dd5f-44e4-bc28-80031606b4ea","system_id":"levelo_inurba_marseille","lat":43.28347,"lon":5.38112,"is_reserved":false,"is_disabled":false,"rental_uris":{"android":"levelo://app?vid=d136a3eb-dd5f-44e4-bc28-80031606b4ea","ios":"levelo://app?vid=d136a3eb-dd5f-44e4-bc28-80031606b4ea"},"vehicle_type_id":"4","last_reported":1740726611,"current_range_meters":3600,"station_id":"ce4bh412rcd13ifvqdr0","pricing_plan_id":"cebpf4jnsgd1na2vs0mg"},{"bike_id":"ab6049a1-4196-40d7-a3ed-ec5d95c167a8","system_id":"levelo_inurba_marseille","lat":43.2862,"lon":5.35108,"is_reserved":false,"is_disabled":false,"rental_uris":{"android":"levelo://app?vid=ab6049a1-4196-40d7-a3ed-ec5d95c167a8","ios":"levelo://app?vid=ab6049a1-4196-40d7-a3ed-ec5d95c167a8"},"vehicle_type_id":"4","last_reported":1740726611,"current_range_meters":3600,"station_id":"ce4bhch2rcd13ifvqeug","pricing_plan_id":"cebpf4jnsgd1na2vs0mg"},{"bike_id":"88ea99a6-57ad-437f-80a1-a7f10087ab0a","system_id":"levelo_inurba_marseille","lat":43.26557,"lon":5.37283,"is_reserved":false,"is_disabled":false,"rental_uris":{"android":"levelo://app?vid=88ea99a6-57ad-437f-80a1-a7f10087ab0a","ios":"levelo://app?vid=88ea99a6-57ad-437f-80a1-a7f10087ab0a"},"vehicle_type_id":"4","last_reported":1740726611,"current_range_meters":3600,"station_id":"ce4bhg12rcd13ifvqf70","pricing_plan_id":"cebpf4jnsgd1na2vs0mg"},{"bike_id":"349c5580-a9fe-4317-a068-111838c4f071","system_id":"levelo_inurba_marseille","lat":43.2586,"lon":5.39914,"is_reserved":false,"is_disabled":false,"rental_uris":{"android":"levelo://app?vid=349c5580-a9fe-4317-a068-111838c4f071","ios":"levelo://app?vid=349c5580-a9fe-4317-a068-111838c4f071"},"vehicle_type_id":"4","last_reported":1740726611,"current_range_meters":3600,"station_id":"ce4bhl92rcd13ifvqghg","pricing_plan_id":"cebpf4jnsgd1na2vs0mg"},{"bike_id":"df71cfda-d49e-420c-b571-ce558641544d","system_id":"levelo_inurba_marseille","lat":43.32287,"lon":5.3828,"is_reserved":false,"is_disabled":false,"rental_uris":{"android":"levelo://app?vid=df71cfda-d49e-420c-b571-ce558641544d","ios":"levelo://app?vid=df71cfda-d49e-420c-b571-ce558641544d"},"vehicle_type_id":"4","last_reported":1740726611,"current_range_meters":3600,"station_id":"ce4bhr12rcd13ifvqhqg","pricing_plan_id":"cebpf4jnsgd1na2vs0mg"},{"bike_id":"faec3792-edb9-40af-838b-130c32f52a28","system_id":"levelo_inurba_marseille","lat":43.28146,"lon":5.38658,"is_reserved":false,"is_disabled":false,"rental_uris":{"android":"levelo://app?vid=faec3792-edb9-40af-838b-130c32f52a28","ios":"levelo://app?vid=faec3792-edb9-40af-838b-130c32f52a28"},"vehicle_type_id":"4","last_reported":1740726611,"current_range_meters":4000,"station_id":"","pricing_plan_id":"cebpf4jnsgd1na2vs0mg"},{"bike_id":"29b9c545-0bf2-42ea-b7bc-37698fb30edc","system_id":"levelo_inurba_marseille","lat":43.33772,"lon":5.37447,"is_reserved":false,"is_disabled":false,"rental_uris":{"android":"levelo://app?vid=29b9c545-0bf2-42ea-b7bc-37698fb30edc","ios":"levelo://app?vid=29b9c545-0bf2-42ea-b7bc-37698fb30edc"},"vehicle_type_id":"4","last_reported":1740726611,"current_range_meters":4000,"station_id":"","pricing_plan_id":"cebpf4jnsgd1na2vs0mg"},{"bike_id":"3aed6401-30fa-417b-b1f4-fed91c185d13","system_id":"levelo_inurba_marseille","lat":43.27934,"lon":5.41039,"is_reserved":false,"is_disabled":false,"rental_uris":{"android":"levelo://app?vid=3aed6401-30fa-417b-b1f4-fed91c185d13","ios":"levelo://app?vid=3aed6401-30fa-417b-b1f4-fed91c185d13"},"vehicle_type_id":"4","last_reported":1740726611,"current_range_meters":4000,"station_id":"ce4bhnp2rcd13ifvqh0g","pricing_plan_id":"cebpf4jnsgd1na2vs0mg"},{"bike_id":"36fc0ac6-ee57-4711-92af-dc4dc17477a6","system_id":"levelo_inurba_marseille","lat":43.27498,"lon":5.42457,"is_reserved":false,"is_disabled":false,"rental_uris":{"android":"levelo://app?vid=36fc0ac6-ee57-4711-92af-dc4dc17477a6","ios":"levelo://app?vid=36fc0ac6-ee57-4711-92af-dc4dc17477a6"},"vehicle_type_id":"4","last_reported":1740726611,"current_range_meters":4400,"station_id":"ce4bhn92rcd13ifvqgrg","pricing_plan_id":"cebpf4jnsgd1na2vs0mg"},{"bike_id":"55d98fc5-066e-4e9e-aaf7-5977c81a7397","system_id":"levelo_inurba_marseille","lat":43.2794,"lon":5.4105,"is_reserved":false,"is_disabled":false,"rental_uris":{"android":"levelo://app?vid=55d98fc5-066e-4e9e-aaf7-5977c81a7397","ios":"levelo://app?vid=55d98fc5-066e-4e9e-aaf7-5977c81a7397"},"vehicle_type_id":"4","last_reported":1740726611,"current_range_meters":4400,"station_id":"ce4bhnp2rcd13ifvqh0g","pricing_plan_id":"cebpf4jnsgd1na2vs0mg"},{"bike_id":"729658c6-2b0b-4f35-91eb-f687c501c457","system_id":"levelo_inurba_marseille","lat":43.30464,"lon":5.37912,"is_reserved":false,"is_disabled":false,"rental_uris":{"android":"levelo://app?vid=729658c6-2b0b-4f35-91eb-f687c501c457","ios":"levelo://app?vid=729658c6-2b0b-4f35-91eb-f687c501c457"},"vehicle_type_id":"4","last_reported":1740726611,"current_range_meters":4800,"station_id":"ce4bgup2rcd13ifvqcn0","pricing_plan_id":"cebpf4jnsgd1na2vs0mg"},{"bike_id":"b0879a0b-6bc1-42e7-8661-6928dd2b28df","system_id":"levelo_inurba_marseille","lat":43.30201,"lon":5.394853,"is_reserved":false,"is_disabled":false,"rental_uris":{"android":"levelo://app?vid=b0879a0b-6bc1-42e7-8661-6928dd2b28df","ios":"levelo://app?vid=b0879a0b-6bc1-42e7-8661-6928dd2b28df"},"vehicle_type_id":"4","last_reported":1740726611,"current_range_meters":4800,"station_id":"ce4bh0p2rcd13ifvqd70","pricing_plan_id":"cebpf4jnsgd1na2vs0mg"},{"bike_id":"b21c6571-5871-43a6-81ac-8f3db2a88655","system_id":"levelo_inurba_marseille","lat":43.297826,"lon":5.393531,"is_reserved":false,"is_disabled":false,"rental_uris":{"android":"levelo://app?vid=b21c6571-5871-43a6-81ac-8f3db2a88655","ios":"levelo://app?vid=b21c6571-5871-43a6-81ac-8f3db2a88655"},"vehicle_type_id":"4","last_reported":1740726611,"current_range_meters":4800,"station_id":"ce4bh2h2rcd13ifvqdh0","pricing_plan_id":"cebpf4jnsgd1na2vs0mg"},{"bike_id":"b8b8c936-b364-4a81-8889-fed2465b500a","system_id":"levelo_inurba_marseille","lat":43.34141,"lon":5.40908,"is_reserved":false,"is_disabled":false,"rental_uris":{"android":"levelo://app?vid=b8b8c936-b364-4a81-8889-fed2465b500a","ios":"levelo://app?vid=b8b8c936-b364-4a81-8889-fed2465b500a"},"vehicle_type_id":"4","last_reported":1740726611,"current_range_meters":4800,"station_id":"ce4bhqh2rcd13ifvqhlg","pricing_plan_id":"cebpf4jnsgd1na2vs0mg"},{"bike_id":"35f54448-cfcd-415c-b857-096572fa4966","system_id":"levelo_inurba_marseille","lat":43.27497,"lon":5.42451,"is_reserved":false,"is_disabled":false,"rental_uris":{"android":"levelo://app?vid=35f54448-cfcd-415c-b857-096572fa4966","ios":"levelo://app?vid=35f54448-cfcd-415c-b857-096572fa4966"},"vehicle_type_id":"4","last_reported":1740726611,"current_range_meters":5600,"station_id":"ce4bhn92rcd13ifvqgrg","pricing_plan_id":"cebpf4jnsgd1na2vs0mg"},{"bike_id":"e01c4764-850a-4950-98a6-f7763ee410cb","system_id":"levelo_inurba_marseille","lat":43.33608,"lon":5.41034,"is_reserved":false,"is_disabled":false,"rental_uris":{"android":"levelo://app?vid=e01c4764-850a-4950-98a6-f7763ee410cb","ios":"levelo://app?vid=e01c4764-850a-4950-98a6-f7763ee410cb"},"vehicle_type_id":"4","last_reported":1740726611,"current_range_meters":5600,"station_id":"ce4bhqh2rcd13ifvqhmg","pricing_plan_id":"cebpf4jnsgd1na2vs0mg"},{"bike_id":"0c7e77c4-775f-4634-bb7d-e6dc5881f29b","system_id":"levelo_inurba_marseille","lat":43.24392,"lon":5.38525,"is_reserved":false,"is_disabled":false,"rental_uris":{"android":"levelo://app?vid=0c7e77c4-775f-4634-bb7d-e6dc5881f29b","ios":"levelo://app?vid=0c7e77c4-775f-4634-bb7d-e6dc5881f29b"},"vehicle_type_id":"4","last_reported":1740726611,"current_range_meters":6000,"station_id":"","pricing_plan_id":"cebpf4jnsgd1na2vs0mg"},{"bike_id":"a7e020c1-a2ce-4d42-a7e1-99583ee9460d","system_id":"levelo_inurba_marseille","lat":43.31483,"lon":5.37307,"is_reserved":false,"is_disabled":false,"rental_uris":{"android":"levelo://app?vid=a7e020c1-a2ce-4d42-a7e1-99583ee9460d","ios":"levelo://app?vid=a7e020c1-a2ce-4d42-a7e1-99583ee9460d"},"vehicle_type_id":"4","last_reported":1740726611,"current_range_meters":6000,"station_id":"ce4bgt12rcd13ifvqcd0","pricing_plan_id":"cebpf4jnsgd1na2vs0mg"},{"bike_id":"fe31e850-5798-4a62-8a79-3bdf68169bfa","system_id":"levelo_inurba_marseille","lat":43.28483,"lon":5.38557,"is_reserved":false,"is_disabled":false,"rental_uris":{"android":"levelo://app?vid=fe31e850-5798-4a62-8a79-3bdf68169bfa","ios":"levelo://app?vid=fe31e850-5798-4a62-8a79-3bdf68169bfa"},"vehicle_type_id":"4","last_reported":1740726611,"current_range_meters":6000,"station_id":"ce4bh8p2rcd13ifvqeb0","pricing_plan_id":"cebpf4jnsgd1na2vs0mg"},{"bike_id":"3a4c6c0b-a3ea-4e0d-8e18-11a05a543de9","system_id":"levelo_inurba_marseille","lat":43.27901,"lon":5.38021,"is_reserved":false,"is_disabled":false,"rental_uris":{"android":"levelo://app?vid=3a4c6c0b-a3ea-4e0d-8e18-11a05a543de9","ios":"levelo://app?vid=3a4c6c0b-a3ea-4e0d-8e18-11a05a543de9"},"vehicle_type_id":"4","last_reported":1740726611,"current_range_meters":6000,"station_id":"ce4bhf92rcd13ifvqf50","pricing_plan_id":"cebpf4jnsgd1na2vs0mg"},{"bike_id":"d79dd98a-c114-42ea-a8f6-898b6431d133","system_id":"levelo_inurba_marseille","lat":43.28158,"lon":5.4264,"is_reserved":false,"is_disabled":false,"rental_uris":{"android":"levelo://app?vid=d79dd98a-c114-42ea-a8f6-898b6431d133","ios":"levelo://app?vid=d79dd98a-c114-42ea-a8f6-898b6431d133"},"vehicle_type_id":"4","last_reported":1740726611,"current_range_meters":6000,"station_id":"ce4bhnh2rcd13ifvqgug","pricing_plan_id":"cebpf4jnsgd1na2vs0mg"},{"bike_id":"e4db8983-a1b0-4df1-a2f6-d0cfa1a60268","system_id":"levelo_inurba_marseille","lat":43.32274,"lon":5.38283,"is_reserved":false,"is_disabled":false,"rental_uris":{"android":"levelo://app?vid=e4db8983-a1b0-4df1-a2f6-d0cfa1a60268","ios":"levelo://app?vid=e4db8983-a1b0-4df1-a2f6-d0cfa1a60268"},"vehicle_type_id":"4","last_reported":1740726611,"current_range_meters":6000,"station_id":"ce4bhr12rcd13ifvqhqg","pricing_plan_id":"cebpf4jnsgd1na2vs0mg"},{"bike_id":"156d43f7-93cf-4af6-9cfe-5571ff46365a","system_id":"levelo_inurba_marseille","lat":43.30785,"lon":5.4282,"is_reserved":false,"is_disabled":false,"rental_uris":{"android":"levelo://app?vid=156d43f7-93cf-4af6-9cfe-5571ff46365a","ios":"levelo://app?vid=156d43f7-93cf-4af6-9cfe-5571ff46365a"},"vehicle_type_id":"4","last_reported":1740726611,"current_range_meters":6400,"station_id":"","pricing_plan_id":"cebpf4jnsgd1na2vs0mg"},{"bike_id":"8b12f042-66ff-4f72-8110-b87f1cf65c0b","system_id":"levelo_inurba_marseille","lat":43.33407,"lon":5.40079,"is_reserved":false,"is_disabled":false,"rental_uris":{"android":"levelo://app?vid=8b12f042-66ff-4f72-8110-b87f1cf65c0b","ios":"levelo://app?vid=8b12f042-66ff-4f72-8110-b87f1cf65c0b"},"vehicle_type_id":"4","last_reported":1740726611,"current_range_meters":6400,"station_id":"","pricing_plan_id":"cebpf4jnsgd1na2vs0mg"},{"bike_id":"ea8cb564-d405-42e3-911c-0afdd772ee76","system_id":"levelo_inurba_marseille","lat":43.327706,"lon":5.392032,"is_reserved":false,"is_disabled":false,"rental_uris":{"android":"levelo://app?vid=ea8cb564-d405-42e3-911c-0afdd772ee76","ios":"levelo://app?vid=ea8cb564-d405-42e3-911c-0afdd772ee76"},"vehicle_type_id":"4","last_reported":1740726611,"current_range_meters":6400,"station_id":"","pricing_plan_id":"cebpf4jnsgd1na2vs0mg"},{"bike_id":"91f909e9-358e-43ed-a45f-822af931a978","system_id":"levelo_inurba_marseille","lat":43.23215,"lon":5.40362,"is_reserved":false,"is_disabled":false,"rental_uris":{"android":"levelo://app?vid=91f909e9-358e-43ed-a45f-822af931a978","ios":"levelo://app?vid=91f909e9-358e-43ed-a45f-822af931a978"},"vehicle_type_id":"4","last_reported":1740726611,"current_range_meters":6400,"station_id":"","pricing_plan_id":"cebpf4jnsgd1na2vs0mg"},{"bike_id":"a8b0e7d0-7a65-4b99-ad9a-1cb63a777064","system_id":"levelo_inurba_marseille","lat":43.284155,"lon":5.375277,"is_reserved":false,"is_disabled":false,"rental_uris":{"android":"levelo://app?vid=a8b0e7d0-7a65-4b99-ad9a-1cb63a777064","ios":"levelo://app?vid=a8b0e7d0-7a65-4b99-ad9a-1cb63a777064"},"vehicle_type_id":"4","last_reported":1740726611,"current_range_meters":6400,"station_id":"ce4bh412rcd13ifvqds0","pricing_plan_id":"cebpf4jnsgd1na2vs0mg"},{"bike_id":"9a4a0ba6-579f-4b7c-8595-7e92a71bb573","system_id":"levelo_inurba_marseille","lat":43.29096,"lon":5.38133,"is_reserved":false,"is_disabled":false,"rental_uris":{"android":"levelo://app?vid=9a4a0ba6-579f-4b7c-8595-7e92a71bb573","ios":"levelo://app?vid=9a4a0ba6-579f-4b7c-8595-7e92a71bb573"},"vehicle_type_id":"4","last_reported":1740726611,"current_range_meters":6400,"station_id":"ce4bh512rcd13ifvqe2g","pricing_plan_id":"cebpf4jnsgd1na2vs0mg"},{"bike_id":"68be498b-6731-4815-b0c9-43c6afa6890e","system_id":"levelo_inurba_marseille","lat":43.322863,"lon":5.382805,"is_reserved":false,"is_disabled":false,"rental_uris":{"android":"levelo://app?vid=68be498b-6731-4815-b0c9-43c6afa6890e","ios":"levelo://app?vid=68be498b-6731-4815-b0c9-43c6afa6890e"},"vehicle_type_id":"4","last_reported":1740726611,"current_range_meters":6400,"station_id":"ce4bhr12rcd13ifvqhqg","pricing_plan_id":"cebpf4jnsgd1na2vs0mg"},{"bike_id":"272efc7d-3f8b-435c-a06e-c8bd069b8f82","system_id":"levelo_inurba_marseille","lat":43.27617,"lon":5.3611,"is_reserved":false,"is_disabled":false,"rental_uris":{"android":"levelo://app?vid=272efc7d-3f8b-435c-a06e-c8bd069b8f82","ios":"levelo://app?vid=272efc7d-3f8b-435c-a06e-c8bd069b8f82"},"vehicle_type_id":"4","last_reported":1740726611,"current_range_meters":6800,"station_id":"ce4bgj92rcd13ifvqbe0","pricing_plan_id":"cebpf4jnsgd1na2vs0mg"},{"bike_id":"43db3b08-54cb-44bb-bf99-bdd271ec2426","system_id":"levelo_inurba_marseille","lat":43.29778,"lon":5.37101,"is_reserved":false,"is_disabled":false,"rental_uris":{"android":"levelo://app?vid=43db3b08-54cb-44bb-bf99-bdd271ec2426","ios":"levelo://app?vid=43db3b08-54cb-44bb-bf99-bdd271ec2426"},"vehicle_type_id":"4","last_reported":1740726611,"current_range_meters":6800,"station_id":"ce4bgop2rcd13ifvqc1g","pricing_plan_id":"cebpf4jnsgd1na2vs0mg"},{"bike_id":"9679a3d6-a9cc-4cf2-88df-c54d1c1b4959","system_id":"levelo_inurba_marseille","lat":43.30476,"lon":5.37908,"is_reserved":false,"is_disabled":false,"rental_uris":{"android":"levelo://app?vid=9679a3d6-a9cc-4cf2-88df-c54d1c1b4959","ios":"levelo://app?vid=9679a3d6-a9cc-4cf2-88df-c54d1c1b4959"},"vehicle_type_id":"4","last_reported":1740726611,"current_range_meters":6800,"station_id":"ce4bgup2rcd13ifvqcn0","pricing_plan_id":"cebpf4jnsgd1na2vs0mg"},{"bike_id":"745c5d38-332d-426b-8e7b-acb525d1c540","system_id":"levelo_inurba_marseille","lat":43.25097,"lon":5.39538,"is_reserved":false,"is_disabled":false,"rental_uris":{"android":"levelo://app?vid=745c5d38-332d-426b-8e7b-acb525d1c540","ios":"levelo://app?vid=745c5d38-332d-426b-8e7b-acb525d1c540"},"vehicle_type_id":"4","last_reported":1740726611,"current_range_meters":6800,"station_id":"ce4bhm12rcd13ifvqgkg","pricing_plan_id":"cebpf4jnsgd1na2vs0mg"},{"bike_id":"b5c04338-71b5-40e7-914f-5f1200a51a92","system_id":"levelo_inurba_marseille","lat":43.25906,"lon":5.40902,"is_reserved":false,"is_disabled":false,"rental_uris":{"android":"levelo://app?vid=b5c04338-71b5-40e7-914f-5f1200a51a92","ios":"levelo://app?vid=b5c04338-71b5-40e7-914f-5f1200a51a92"},"vehicle_type_id":"4","last_reported":1740726611,"current_range_meters":6800,"station_id":"ce4bhm92rcd13ifvqglg","pricing_plan_id":"cebpf4jnsgd1na2vs0mg"},{"bike_id":"9647918c-d815-4482-8c45-927333bd2450","system_id":"levelo_inurba_marseille","lat":43.278154,"lon":5.407031,"is_reserved":false,"is_disabled":false,"rental_uris":{"android":"levelo://app?vid=9647918c-d815-4482-8c45-927333bd2450","ios":"levelo://app?vid=9647918c-d815-4482-8c45-927333bd2450"},"vehicle_type_id":"4","last_reported":1740726611,"current_range_meters":6800,"station_id":"ce4bhnh2rcd13ifvqgtg","pricing_plan_id":"cebpf4jnsgd1na2vs0mg"},{"bike_id":"b5643d8b-5e2a-4e39-96a1-c7afa569a6f2","system_id":"levelo_inurba_marseille","lat":43.3203,"lon":5.41558,"is_reserved":false,"is_disabled":false,"rental_uris":{"android":"levelo://app?vid=b5643d8b-5e2a-4e39-96a1-c7afa569a6f2","ios":"levelo://app?vid=b5643d8b-5e2a-4e39-96a1-c7afa569a6f2"},"vehicle_type_id":"4","last_reported":1740726611,"current_range_meters":6800,"station_id":"ce4bhq92rcd13ifvqhkg","pricing_plan_id":"cebpf4jnsgd1na2vs0mg"},{"bike_id":"a402dcb0-63b6-4569-b9e8-ad825500c3f8","system_id":"levelo_inurba_marseille","lat":43.290004,"lon":5.359104,"is_reserved":false,"is_disabled":false,"rental_uris":{"android":"levelo://app?vid=a402dcb0-63b6-4569-b9e8-ad825500c3f8","ios":"levelo://app?vid=a402dcb0-63b6-4569-b9e8-ad825500c3f8"},"vehicle_type_id":"4","last_reported":1740726611,"current_range_meters":7200,"station_id":"","pricing_plan_id":"cebpf4jnsgd1na2vs0mg"},{"bike_id":"c997b30a-bd84-4943-809c-ccf6d5b32c4f","system_id":"levelo_inurba_marseille","lat":43.27518,"lon":5.36169,"is_reserved":false,"is_disabled":false,"rental_uris":{"android":"levelo://app?vid=c997b30a-bd84-4943-809c-ccf6d5b32c4f","ios":"levelo://app?vid=c997b30a-bd84-4943-809c-ccf6d5b32c4f"},"vehicle_type_id":"4","last_reported":1740726611,"current_range_meters":7200,"station_id":"","pricing_plan_id":"cebpf4jnsgd1na2vs0mg"},{"bike_id":"a3ae737a-3e9c-4216-b43f-7c2e83826030","system_id":"levelo_inurba_marseille","lat":43.30813,"lon":5.3817,"is_reserved":false,"is_disabled":false,"rental_uris":{"android":"levelo://app?vid=a3ae737a-3e9c-4216-b43f-7c2e83826030","ios":"levelo://app?vid=a3ae737a-3e9c-4216-b43f-7c2e83826030"},"vehicle_type_id":"4","last_reported":1740726611,"current_range_meters":7200,"station_id":"ce4bgt12rcd13ifvqce0","pricing_plan_id":"cebpf4jnsgd1na2vs0mg"},{"bike_id":"8c9a3ee7-664d-49c8-a3ea-02dab608b060","system_id":"levelo_inurba_marseille","lat":43.31712,"lon":5.3775,"is_reserved":false,"is_disabled":false,"rental_uris":{"android":"levelo://app?vid=8c9a3ee7-664d-49c8-a3ea-02dab608b060","ios":"levelo://app?vid=8c9a3ee7-664d-49c8-a3ea-02dab608b060"},"vehicle_type_id":"4","last_reported":1740726611,"current_range_meters":7200,"station_id":"ce4bgth2rcd13ifvqch0","pricing_plan_id":"cebpf4jnsgd1na2vs0mg"},{"bike_id":"a3b29af5-744b-4b0c-b372-cbb9b7316f91","system_id":"levelo_inurba_marseille","lat":43.285797,"lon":5.395053,"is_reserved":false,"is_disabled":false,"rental_uris":{"android":"levelo://app?vid=a3b29af5-744b-4b0c-b372-cbb9b7316f91","ios":"levelo://app?vid=a3b29af5-744b-4b0c-b372-cbb9b7316f91"},"vehicle_type_id":"4","last_reported":1740726611,"current_range_meters":7200,"station_id":"ce4bh292rcd13ifvqdg0","pricing_plan_id":"cebpf4jnsgd1na2vs0mg"},{"bike_id":"8c666fd4-f386-4ea5-9d00-f90a3a7f8d51","system_id":"levelo_inurba_marseille","lat":43.284526,"lon":5.358887,"is_reserved":false,"is_disabled":false,"rental_uris":{"android":"levelo://app?vid=8c666fd4-f386-4ea5-9d00-f90a3a7f8d51","ios":"levelo://app?vid=8c666fd4-f386-4ea5-9d00-f90a3a7f8d51"},"vehicle_type_id":"4","last_reported":1740726611,"current_range_meters":7200,"station_id":"ce4bhah2rcd13ifvqei0","pricing_plan_id":"cebpf4jnsgd1na2vs0mg"},{"bike_id":"4f27def9-9f4b-46d5-98cd-ff33f940bcfa","system_id":"levelo_inurba_marseille","lat":43.26955,"lon":5.3863,"is_reserved":false,"is_disabled":false,"rental_uris":{"android":"levelo://app?vid=4f27def9-9f4b-46d5-98cd-ff33f940bcfa","ios":"levelo://app?vid=4f27def9-9f4b-46d5-98cd-ff33f940bcfa"},"vehicle_type_id":"4","last_reported":1740726611,"current_range_meters":7200,"station_id":"ce4bhh92rcd13ifvqfh0","pricing_plan_id":"cebpf4jnsgd1na2vs0mg"},{"bike_id":"ab41809d-0839-4146-9c11-f9e1d5038ec6","system_id":"levelo_inurba_marseille","lat":43.255854,"lon":5.382305,"is_reserved":false,"is_disabled":false,"rental_uris":{"android":"levelo://app?vid=ab41809d-0839-4146-9c11-f9e1d5038ec6","ios":"levelo://app?vid=ab41809d-0839-4146-9c11-f9e1d5038ec6"},"vehicle_type_id":"4","last_reported":1740726611,"current_range_meters":7200,"station_id":"ce4bhih2rcd13ifvqfs0","pricing_plan_id":"cebpf4jnsgd1na2vs0mg"},{"bike_id":"3f0907b3-da2b-41a5-8662-a0489e1a0f25","system_id":"levelo_inurba_marseille","lat":43.32109,"lon":5.36786,"is_reserved":false,"is_disabled":false,"rental_uris":{"android":"levelo://app?vid=3f0907b3-da2b-41a5-8662-a0489e1a0f25","ios":"levelo://app?vid=3f0907b3-da2b-41a5-8662-a0489e1a0f25"},"vehicle_type_id":"4","last_reported":1740726611,"current_range_meters":7200,"station_id":"ce4bhrh2rcd13ifvqhug","pricing_plan_id":"cebpf4jnsgd1na2vs0mg"},{"bike_id":"e4127e72-139a-478c-bc8d-43f39e537533","system_id":"levelo_inurba_marseille","lat":43.29712,"lon":5.36608,"is_reserved":false,"is_disabled":false,"rental_uris":{"android":"levelo://app?vid=e4127e72-139a-478c-bc8d-43f39e537533","ios":"levelo://app?vid=e4127e72-139a-478c-bc8d-43f39e537533"},"vehicle_type_id":"4","last_reported":1740726611,"current_range_meters":8000,"station_id":"ce4bgn12rcd13ifvqbt0","pricing_plan_id":"cebpf4jnsgd1na2vs0mg"},{"bike_id":"e0968603-a7dc-4557-816c-6ebec40f9a40","system_id":"levelo_inurba_marseille","lat":43.30586,"lon":5.39358,"is_reserved":false,"is_disabled":false,"rental_uris":{"android":"levelo://app?vid=e0968603-a7dc-4557-816c-6ebec40f9a40","ios":"levelo://app?vid=e0968603-a7dc-4557-816c-6ebec40f9a40"},"vehicle_type_id":"4","last_reported":1740726611,"current_range_meters":8000,"station_id":"ce4bh0p2rcd13ifvqd80","pricing_plan_id":"cebpf4jnsgd1na2vs0mg"},{"bike_id":"ea3487ed-d7b8-4023-bb22-d2dd44155fb1","system_id":"levelo_inurba_marseille","lat":43.283403,"lon":5.38123,"is_reserved":false,"is_disabled":false,"rental_uris":{"android":"levelo://app?vid=ea3487ed-d7b8-4023-bb22-d2dd44155fb1","ios":"levelo://app?vid=ea3487ed-d7b8-4023-bb22-d2dd44155fb1"},"vehicle_type_id":"4","last_reported":1740726611,"current_range_meters":8000,"station_id":"ce4bh412rcd13ifvqdr0","pricing_plan_id":"cebpf4jnsgd1na2vs0mg"},{"bike_id":"e85fe488-6cc4-4348-a547-94ea557ff6b2","system_id":"levelo_inurba_marseille","lat":43.29085,"lon":5.38135,"is_reserved":false,"is_disabled":false,"rental_uris":{"android":"levelo://app?vid=e85fe488-6cc4-4348-a547-94ea557ff6b2","ios":"levelo://app?vid=e85fe488-6cc4-4348-a547-94ea557ff6b2"},"vehicle_type_id":"4","last_reported":1740726611,"current_range_meters":8000,"station_id":"ce4bh512rcd13ifvqe2g","pricing_plan_id":"cebpf4jnsgd1na2vs0mg"},{"bike_id":"5e0e22b0-e973-48d0-8bed-a771273f721a","system_id":"levelo_inurba_marseille","lat":43.27366,"lon":5.36212,"is_reserved":false,"is_disabled":false,"rental_uris":{"android":"levelo://app?vid=5e0e22b0-e973-48d0-8bed-a771273f721a","ios":"levelo://app?vid=5e0e22b0-e973-48d0-8bed-a771273f721a"},"vehicle_type_id":"4","last_reported":1740726611,"current_range_meters":8000,"station_id":"ce4bhbh2rcd13ifvqeo0","pricing_plan_id":"cebpf4jnsgd1na2vs0mg"},{"bike_id":"c6b23046-3dbb-4c24-b439-362e9ad2c23a","system_id":"levelo_inurba_marseille","lat":43.24995,"lon":5.3893,"is_reserved":false,"is_disabled":false,"rental_uris":{"android":"levelo://app?vid=c6b23046-3dbb-4c24-b439-362e9ad2c23a","ios":"levelo://app?vid=c6b23046-3dbb-4c24-b439-362e9ad2c23a"},"vehicle_type_id":"4","last_reported":1740726611,"current_range_meters":8000,"station_id":"ce4bhgp2rcd13ifvqfd0","pricing_plan_id":"cebpf4jnsgd1na2vs0mg"},{"bike_id":"6d965f28-9c57-45ec-85ba-e157948f121b","system_id":"levelo_inurba_marseille","lat":43.32363,"lon":5.38876,"is_reserved":false,"is_disabled":false,"rental_uris":{"android":"levelo://app?vid=6d965f28-9c57-45ec-85ba-e157948f121b","ios":"levelo://app?vid=6d965f28-9c57-45ec-85ba-e157948f121b"},"vehicle_type_id":"4","last_reported":1740726611,"current_range_meters":8000,"station_id":"ce4bhqp2rcd13ifvqhog","pricing_plan_id":"cebpf4jnsgd1na2vs0mg"},{"bike_id":"738790dd-10dd-4ca0-b799-c7e96fb84b4b","system_id":"levelo_inurba_marseille","lat":43.32106,"lon":5.36768,"is_reserved":false,"is_disabled":false,"rental_uris":{"android":"levelo://app?vid=738790dd-10dd-4ca0-b799-c7e96fb84b4b","ios":"levelo://app?vid=738790dd-10dd-4ca0-b799-c7e96fb84b4b"},"vehicle_type_id":"4","last_reported":1740726611,"current_range_meters":8000,"station_id":"ce4bhrh2rcd13ifvqhug","pricing_plan_id":"cebpf4jnsgd1na2vs0mg"},{"bike_id":"3f86c3d0-e163-428e-a9fe-f6b1bce5a044","system_id":"levelo_inurba_marseille","lat":43.30986,"lon":5.38472,"is_reserved":false,"is_disabled":false,"rental_uris":{"android":"levelo://app?vid=3f86c3d0-e163-428e-a9fe-f6b1bce5a044","ios":"levelo://app?vid=3f86c3d0-e163-428e-a9fe-f6b1bce5a044"},"vehicle_type_id":"4","last_reported":1740726611,"current_range_meters":8400,"station_id":"","pricing_plan_id":"cebpf4jnsgd1na2vs0mg"},{"bike_id":"18c4ef66-f03b-49c5-b620-cb564a8d5f51","system_id":"levelo_inurba_marseille","lat":43.30548,"lon":5.36668,"is_reserved":false,"is_disabled":false,"rental_uris":{"android":"levelo://app?vid=18c4ef66-f03b-49c5-b620-cb564a8d5f51","ios":"levelo://app?vid=18c4ef66-f03b-49c5-b620-cb564a8d5f51"},"vehicle_type_id":"4","last_reported":1740726611,"current_range_meters":8400,"station_id":"ce4bgrp2rcd13ifvqc9g","pricing_plan_id":"cebpf4jnsgd1na2vs0mg"},{"bike_id":"711e5b56-c99c-45e6-a43f-64bea398151e","system_id":"levelo_inurba_marseille","lat":43.28357,"lon":5.38108,"is_reserved":false,"is_disabled":false,"rental_uris":{"android":"levelo://app?vid=711e5b56-c99c-45e6-a43f-64bea398151e","ios":"levelo://app?vid=711e5b56-c99c-45e6-a43f-64bea398151e"},"vehicle_type_id":"4","last_reported":1740726611,"current_range_meters":8400,"station_id":"ce4bh412rcd13ifvqdr0","pricing_plan_id":"cebpf4jnsgd1na2vs0mg"},{"bike_id":"4ce26a99-af03-483d-b48c-23c47fea208e","system_id":"levelo_inurba_marseille","lat":43.28838,"lon":5.35859,"is_reserved":false,"is_disabled":false,"rental_uris":{"android":"levelo://app?vid=4ce26a99-af03-483d-b48c-23c47fea208e","ios":"levelo://app?vid=4ce26a99-af03-483d-b48c-23c47fea208e"},"vehicle_type_id":"4","last_reported":1740726611,"current_range_meters":8400,"station_id":"ce4bhb12rcd13ifvqem0","pricing_plan_id":"cebpf4jnsgd1na2vs0mg"},{"bike_id":"e2aa7ffc-f5df-45bd-b312-53ec107ca160","system_id":"levelo_inurba_marseille","lat":43.2695,"lon":5.38633,"is_reserved":false,"is_disabled":false,"rental_uris":{"android":"levelo://app?vid=e2aa7ffc-f5df-45bd-b312-53ec107ca160","ios":"levelo://app?vid=e2aa7ffc-f5df-45bd-b312-53ec107ca160"},"vehicle_type_id":"4","last_reported":1740726611,"current_range_meters":8400,"station_id":"ce4bhh92rcd13ifvqfh0","pricing_plan_id":"cebpf4jnsgd1na2vs0mg"},{"bike_id":"54d46a8b-8314-471a-98f9-6d86686fc605","system_id":"levelo_inurba_marseille","lat":43.25818,"lon":5.3947,"is_reserved":false,"is_disabled":false,"rental_uris":{"android":"levelo://app?vid=54d46a8b-8314-471a-98f9-6d86686fc605","ios":"levelo://app?vid=54d46a8b-8314-471a-98f9-6d86686fc605"},"vehicle_type_id":"4","last_reported":1740726611,"current_range_meters":8400,"station_id":"ce4bhip2rcd13ifvqft0","pricing_plan_id":"cebpf4jnsgd1na2vs0mg"},{"bike_id":"0684c9b8-68d1-4121-82b2-00c0eebe64db","system_id":"levelo_inurba_marseille","lat":43.27951,"lon":5.41048,"is_reserved":false,"is_disabled":false,"rental_uris":{"android":"levelo://app?vid=0684c9b8-68d1-4121-82b2-00c0eebe64db","ios":"levelo://app?vid=0684c9b8-68d1-4121-82b2-00c0eebe64db"},"vehicle_type_id":"4","last_reported":1740726611,"current_range_meters":8400,"station_id":"ce4bhnp2rcd13ifvqh0g","pricing_plan_id":"cebpf4jnsgd1na2vs0mg"},{"bike_id":"74d4a88d-ad3a-4128-a926-23a749e3d79b","system_id":"levelo_inurba_marseille","lat":43.23189,"lon":5.35556,"is_reserved":false,"is_disabled":false,"rental_uris":{"android":"levelo://app?vid=74d4a88d-ad3a-4128-a926-23a749e3d79b","ios":"levelo://app?vid=74d4a88d-ad3a-4128-a926-23a749e3d79b"},"vehicle_type_id":"4","last_reported":1740726611,"current_range_meters":8400,"station_id":"ce4bhu92rcd13ifvqi70","pricing_plan_id":"cebpf4jnsgd1na2vs0mg"},{"bike_id":"b37616c5-5475-4cb1-902f-6b591104165f","system_id":"levelo_inurba_marseille","lat":43.29369,"lon":5.37833,"is_reserved":false,"is_disabled":false,"rental_uris":{"android":"levelo://app?vid=b37616c5-5475-4cb1-902f-6b591104165f","ios":"levelo://app?vid=b37616c5-5475-4cb1-902f-6b591104165f"},"vehicle_type_id":"4","last_reported":1740726611,"current_range_meters":8800,"station_id":"ce4bgjh2rcd13ifvqbf0","pricing_plan_id":"cebpf4jnsgd1na2vs0mg"},{"bike_id":"860dcf28-1c59-4468-93f1-fc14a25f569d","system_id":"levelo_inurba_marseille","lat":43.30444,"lon":5.38878,"is_reserved":false,"is_disabled":false,"rental_uris":{"android":"levelo://app?vid=860dcf28-1c59-4468-93f1-fc14a25f569d","ios":"levelo://app?vid=860dcf28-1c59-4468-93f1-fc14a25f569d"},"vehicle_type_id":"4","last_reported":1740726611,"current_range_meters":8800,"station_id":"ce4bgk12rcd13ifvqbi0","pricing_plan_id":"cebpf4jnsgd1na2vs0mg"},{"bike_id":"3d26f3b9-b2e9-456e-b37f-32fdc8e8e944","system_id":"levelo_inurba_marseille","lat":43.29797,"lon":5.40405,"is_reserved":false,"is_disabled":false,"rental_uris":{"android":"levelo://app?vid=3d26f3b9-b2e9-456e-b37f-32fdc8e8e944","ios":"levelo://app?vid=3d26f3b9-b2e9-456e-b37f-32fdc8e8e944"},"vehicle_type_id":"4","last_reported":1740726611,"current_range_meters":8800,"station_id":"ce4bh112rcd13ifvqd90","pricing_plan_id":"cebpf4jnsgd1na2vs0mg"},{"bike_id":"e0036d1f-51ac-4c4a-ba4e-96d412b945c0","system_id":"levelo_inurba_marseille","lat":43.28062,"lon":5.36907,"is_reserved":false,"is_disabled":false,"rental_uris":{"android":"levelo://app?vid=e0036d1f-51ac-4c4a-ba4e-96d412b945c0","ios":"levelo://app?vid=e0036d1f-51ac-4c4a-ba4e-96d412b945c0"},"vehicle_type_id":"4","last_reported":1740726611,"current_range_meters":8800,"station_id":"ce4bha12rcd13ifvqef0","pricing_plan_id":"cebpf4jnsgd1na2vs0mg"},{"bike_id":"2f218cd9-6dc2-4509-acc5-b6e8dd4cef8b","system_id":"levelo_inurba_marseille","lat":43.28461,"lon":5.358846,"is_reserved":false,"is_disabled":false,"rental_uris":{"android":"levelo://app?vid=2f218cd9-6dc2-4509-acc5-b6e8dd4cef8b","ios":"levelo://app?vid=2f218cd9-6dc2-4509-acc5-b6e8dd4cef8b"},"vehicle_type_id":"4","last_reported":1740726611,"current_range_meters":8800,"station_id":"ce4bhah2rcd13ifvqei0","pricing_plan_id":"cebpf4jnsgd1na2vs0mg"},{"bike_id":"d8994050-39f7-4aaa-af77-5e87c12121df","system_id":"levelo_inurba_marseille","lat":43.28994,"lon":5.35618,"is_reserved":false,"is_disabled":false,"rental_uris":{"android":"levelo://app?vid=d8994050-39f7-4aaa-af77-5e87c12121df","ios":"levelo://app?vid=d8994050-39f7-4aaa-af77-5e87c12121df"},"vehicle_type_id":"4","last_reported":1740726611,"current_range_meters":8800,"station_id":"ce4bhb92rcd13ifvqen0","pricing_plan_id":"cebpf4jnsgd1na2vs0mg"},{"bike_id":"5cdf1157-258e-4dbe-9eac-97f9742be378","system_id":"levelo_inurba_marseille","lat":43.27369,"lon":5.3625,"is_reserved":false,"is_disabled":false,"rental_uris":{"android":"levelo://app?vid=5cdf1157-258e-4dbe-9eac-97f9742be378","ios":"levelo://app?vid=5cdf1157-258e-4dbe-9eac-97f9742be378"},"vehicle_type_id":"4","last_reported":1740726611,"current_range_meters":8800,"station_id":"ce4bhbh2rcd13ifvqeo0","pricing_plan_id":"cebpf4jnsgd1na2vs0mg"},{"bike_id":"ab3ae644-bc74-4779-9d00-afaab1721981","system_id":"levelo_inurba_marseille","lat":43.26197,"lon":5.37939,"is_reserved":false,"is_disabled":false,"rental_uris":{"android":"levelo://app?vid=ab3ae644-bc74-4779-9d00-afaab1721981","ios":"levelo://app?vid=ab3ae644-bc74-4779-9d00-afaab1721981"},"vehicle_type_id":"4","last_reported":1740726611,"current_range_meters":8800,"station_id":"ce4bhjp2rcd13ifvqg90","pricing_plan_id":"cebpf4jnsgd1na2vs0mg"},{"bike_id":"99b31418-d7ea-4165-b2d5-84a16e4de7a4","system_id":"levelo_inurba_marseille","lat":43.27495,"lon":5.42463,"is_reserved":false,"is_disabled":false,"rental_uris":{"android":"levelo://app?vid=99b31418-d7ea-4165-b2d5-84a16e4de7a4","ios":"levelo://app?vid=99b31418-d7ea-4165-b2d5-84a16e4de7a4"},"vehicle_type_id":"4","last_reported":1740726611,"current_range_meters":8800,"station_id":"ce4bhn92rcd13ifvqgrg","pricing_plan_id":"cebpf4jnsgd1na2vs0mg"},{"bike_id":"9c16f73b-d883-4318-9d54-d8eb1fe44c91","system_id":"levelo_inurba_marseille","lat":43.27812,"lon":5.4072,"is_reserved":false,"is_disabled":false,"rental_uris":{"android":"levelo://app?vid=9c16f73b-d883-4318-9d54-d8eb1fe44c91","ios":"levelo://app?vid=9c16f73b-d883-4318-9d54-d8eb1fe44c91"},"vehicle_type_id":"4","last_reported":1740726611,"current_range_meters":8800,"station_id":"ce4bhnh2rcd13ifvqgtg","pricing_plan_id":"cebpf4jnsgd1na2vs0mg"},{"bike_id":"06b91644-fcc8-46ff-8717-fd99f2ee51d4","system_id":"levelo_inurba_marseille","lat":43.30905,"lon":5.3685,"is_reserved":false,"is_disabled":false,"rental_uris":{"android":"levelo://app?vid=06b91644-fcc8-46ff-8717-fd99f2ee51d4","ios":"levelo://app?vid=06b91644-fcc8-46ff-8717-fd99f2ee51d4"},"vehicle_type_id":"4","last_reported":1740726611,"current_range_meters":9200,"station_id":"ce4bgn92rcd13ifvqbvg","pricing_plan_id":"cebpf4jnsgd1na2vs0mg"},{"bike_id":"3d40c7de-ae33-4f47-a9ec-ad6761202c40","system_id":"levelo_inurba_marseille","lat":43.28402,"lon":5.37538,"is_reserved":false,"is_disabled":false,"rental_uris":{"android":"levelo://app?vid=3d40c7de-ae33-4f47-a9ec-ad6761202c40","ios":"levelo://app?vid=3d40c7de-ae33-4f47-a9ec-ad6761202c40"},"vehicle_type_id":"4","last_reported":1740726611,"current_range_meters":9200,"station_id":"ce4bh412rcd13ifvqds0","pricing_plan_id":"cebpf4jnsgd1na2vs0mg"},{"bike_id":"e1839438-5cc9-49f1-938d-6270b07fb94a","system_id":"levelo_inurba_marseille","lat":43.2845,"lon":5.35898,"is_reserved":false,"is_disabled":false,"rental_uris":{"android":"levelo://app?vid=e1839438-5cc9-49f1-938d-6270b07fb94a","ios":"levelo://app?vid=e1839438-5cc9-49f1-938d-6270b07fb94a"},"vehicle_type_id":"4","last_reported":1740726611,"current_range_meters":9200,"station_id":"ce4bhah2rcd13ifvqei0","pricing_plan_id":"cebpf4jnsgd1na2vs0mg"},{"bike_id":"907b990b-0a8a-4924-acec-37622f347ce1","system_id":"levelo_inurba_marseille","lat":43.28616,"lon":5.3511,"is_reserved":false,"is_disabled":false,"rental_uris":{"android":"levelo://app?vid=907b990b-0a8a-4924-acec-37622f347ce1","ios":"levelo://app?vid=907b990b-0a8a-4924-acec-37622f347ce1"},"vehicle_type_id":"4","last_reported":1740726611,"current_range_meters":9200,"station_id":"ce4bhch2rcd13ifvqeug","pricing_plan_id":"cebpf4jnsgd1na2vs0mg"},{"bike_id":"281f7d00-07e1-4d60-b717-02bdabff7745","system_id":"levelo_inurba_marseille","lat":43.26064,"lon":5.39396,"is_reserved":false,"is_disabled":false,"rental_uris":{"android":"levelo://app?vid=281f7d00-07e1-4d60-b717-02bdabff7745","ios":"levelo://app?vid=281f7d00-07e1-4d60-b717-02bdabff7745"},"vehicle_type_id":"4","last_reported":1740726611,"current_range_meters":9200,"station_id":"ce4bhh92rcd13ifvqfj0","pricing_plan_id":"cebpf4jnsgd1na2vs0mg"},{"bike_id":"09a1e742-3b90-459c-b1c5-6b5cd8006c89","system_id":"levelo_inurba_marseille","lat":43.25582,"lon":5.38256,"is_reserved":false,"is_disabled":false,"rental_uris":{"android":"levelo://app?vid=09a1e742-3b90-459c-b1c5-6b5cd8006c89","ios":"levelo://app?vid=09a1e742-3b90-459c-b1c5-6b5cd8006c89"},"vehicle_type_id":"4","last_reported":1740726611,"current_range_meters":9200,"station_id":"ce4bhih2rcd13ifvqfs0","pricing_plan_id":"cebpf4jnsgd1na2vs0mg"},{"bike_id":"439cfb5b-9d57-4c1f-8652-4d751602929c","system_id":"levelo_inurba_marseille","lat":43.2408,"lon":5.37752,"is_reserved":false,"is_disabled":false,"rental_uris":{"android":"levelo://app?vid=439cfb5b-9d57-4c1f-8652-4d751602929c","ios":"levelo://app?vid=439cfb5b-9d57-4c1f-8652-4d751602929c"},"vehicle_type_id":"4","last_reported":1740726611,"current_range_meters":9200,"station_id":"ce4bhnp2rcd13ifvqgvg","pricing_plan_id":"cebpf4jnsgd1na2vs0mg"},{"bike_id":"026e178e-412a-49e0-9772-e5f6d0abaab4","system_id":"levelo_inurba_marseille","lat":43.30854,"lon":5.37107,"is_reserved":false,"is_disabled":false,"rental_uris":{"android":"levelo://app?vid=026e178e-412a-49e0-9772-e5f6d0abaab4","ios":"levelo://app?vid=026e178e-412a-49e0-9772-e5f6d0abaab4"},"vehicle_type_id":"4","last_reported":1740726611,"current_range_meters":9600,"station_id":"","pricing_plan_id":"cebpf4jnsgd1na2vs0mg"},{"bike_id":"a7a49217-b3d4-4933-8273-9dda3c403bf1","system_id":"levelo_inurba_marseille","lat":43.31679,"lon":5.39604,"is_reserved":false,"is_disabled":false,"rental_uris":{"android":"levelo://app?vid=a7a49217-b3d4-4933-8273-9dda3c403bf1","ios":"levelo://app?vid=a7a49217-b3d4-4933-8273-9dda3c403bf1"},"vehicle_type_id":"4","last_reported":1740726611,"current_range_meters":9600,"station_id":"","pricing_plan_id":"cebpf4jnsgd1na2vs0mg"},{"bike_id":"824bd4ef-800e-4f8f-bf06-d14a7f13d8cd","system_id":"levelo_inurba_marseille","lat":43.29621,"lon":5.37728,"is_reserved":false,"is_disabled":false,"rental_uris":{"android":"levelo://app?vid=824bd4ef-800e-4f8f-bf06-d14a7f13d8cd","ios":"levelo://app?vid=824bd4ef-800e-4f8f-bf06-d14a7f13d8cd"},"vehicle_type_id":"4","last_reported":1740726611,"current_range_meters":9600,"station_id":"ce4bgi92rcd13ifvqb90","pricing_plan_id":"cebpf4jnsgd1na2vs0mg"},{"bike_id":"cb583085-206e-4fef-9b07-1eeeefad272a","system_id":"levelo_inurba_marseille","lat":43.305035,"lon":5.367215,"is_reserved":false,"is_disabled":false,"rental_uris":{"android":"levelo://app?vid=cb583085-206e-4fef-9b07-1eeeefad272a","ios":"levelo://app?vid=cb583085-206e-4fef-9b07-1eeeefad272a"},"vehicle_type_id":"4","last_reported":1740726611,"current_range_meters":9600,"station_id":"ce4bgrp2rcd13ifvqc9g","pricing_plan_id":"cebpf4jnsgd1na2vs0mg"},{"bike_id":"f84d7596-4c47-4c18-a4f9-ba218eafea6d","system_id":"levelo_inurba_marseille","lat":43.28401,"lon":5.37527,"is_reserved":false,"is_disabled":false,"rental_uris":{"android":"levelo://app?vid=f84d7596-4c47-4c18-a4f9-ba218eafea6d","ios":"levelo://app?vid=f84d7596-4c47-4c18-a4f9-ba218eafea6d"},"vehicle_type_id":"4","last_reported":1740726611,"current_range_meters":9600,"station_id":"ce4bh412rcd13ifvqds0","pricing_plan_id":"cebpf4jnsgd1na2vs0mg"},{"bike_id":"a266183b-9c5f-4267-998b-d1669f48b8cf","system_id":"levelo_inurba_marseille","lat":43.29098,"lon":5.3815,"is_reserved":false,"is_disabled":false,"rental_uris":{"android":"levelo://app?vid=a266183b-9c5f-4267-998b-d1669f48b8cf","ios":"levelo://app?vid=a266183b-9c5f-4267-998b-d1669f48b8cf"},"vehicle_type_id":"4","last_reported":1740726611,"current_range_meters":9600,"station_id":"ce4bh512rcd13ifvqe2g","pricing_plan_id":"cebpf4jnsgd1na2vs0mg"},{"bike_id":"7de8066b-1c87-4190-8fd2-555f7014d460","system_id":"levelo_inurba_marseille","lat":43.28836,"lon":5.3585,"is_reserved":false,"is_disabled":false,"rental_uris":{"android":"levelo://app?vid=7de8066b-1c87-4190-8fd2-555f7014d460","ios":"levelo://app?vid=7de8066b-1c87-4190-8fd2-555f7014d460"},"vehicle_type_id":"4","last_reported":1740726611,"current_range_meters":9600,"station_id":"ce4bhb12rcd13ifvqem0","pricing_plan_id":"cebpf4jnsgd1na2vs0mg"},{"bike_id":"e89404bc-b67d-4aa0-b5b9-0d5adc52fc30","system_id":"levelo_inurba_marseille","lat":43.28607,"lon":5.35114,"is_reserved":false,"is_disabled":false,"rental_uris":{"android":"levelo://app?vid=e89404bc-b67d-4aa0-b5b9-0d5adc52fc30","ios":"levelo://app?vid=e89404bc-b67d-4aa0-b5b9-0d5adc52fc30"},"vehicle_type_id":"4","last_reported":1740726611,"current_range_meters":9600,"station_id":"ce4bhch2rcd13ifvqeug","pricing_plan_id":"cebpf4jnsgd1na2vs0mg"},{"bike_id":"443370dd-f8b8-457a-b6f8-389b804ff6fc","system_id":"levelo_inurba_marseille","lat":43.32367,"lon":5.38875,"is_reserved":false,"is_disabled":false,"rental_uris":{"android":"levelo://app?vid=443370dd-f8b8-457a-b6f8-389b804ff6fc","ios":"levelo://app?vid=443370dd-f8b8-457a-b6f8-389b804ff6fc"},"vehicle_type_id":"4","last_reported":1740726611,"current_range_meters":9600,"station_id":"ce4bhqp2rcd13ifvqhog","pricing_plan_id":"cebpf4jnsgd1na2vs0mg"},{"bike_id":"45bcdd61-a600-4686-95d9-f2003a49bdbc","system_id":"levelo_inurba_marseille","lat":43.299331,"lon":5.365493,"is_reserved":false,"is_disabled":false,"rental_uris":{"android":"levelo://app?vid=45bcdd61-a600-4686-95d9-f2003a49bdbc","ios":"levelo://app?vid=45bcdd61-a600-4686-95d9-f2003a49bdbc"},"vehicle_type_id":"4","last_reported":1740726611,"current_range_meters":10000,"station_id":"ce4bgm92rcd13ifvqbr0","pricing_plan_id":"cebpf4jnsgd1na2vs0mg"},{"bike_id":"4e2e11f8-e9a3-4f3a-9372-23488c564b9c","system_id":"levelo_inurba_marseille","lat":43.28461,"lon":5.35886,"is_reserved":false,"is_disabled":false,"rental_uris":{"android":"levelo://app?vid=4e2e11f8-e9a3-4f3a-9372-23488c564b9c","ios":"levelo://app?vid=4e2e11f8-e9a3-4f3a-9372-23488c564b9c"},"vehicle_type_id":"4","last_reported":1740726611,"current_range_meters":10000,"station_id":"ce4bhah2rcd13ifvqei0","pricing_plan_id":"cebpf4jnsgd1na2vs0mg"},{"bike_id":"06f46088-86dd-4f85-a76e-b4e1ebe0acc7","system_id":"levelo_inurba_marseille","lat":43.286149,"lon":5.351023,"is_reserved":false,"is_disabled":false,"rental_uris":{"android":"levelo://app?vid=06f46088-86dd-4f85-a76e-b4e1ebe0acc7","ios":"levelo://app?vid=06f46088-86dd-4f85-a76e-b4e1ebe0acc7"},"vehicle_type_id":"4","last_reported":1740726611,"current_range_meters":10000,"station_id":"ce4bhch2rcd13ifvqeug","pricing_plan_id":"cebpf4jnsgd1na2vs0mg"},{"bike_id":"1393e48a-5096-48c2-8ef4-ef737b7b43ae","system_id":"levelo_inurba_marseille","lat":43.25079,"lon":5.3954,"is_reserved":false,"is_disabled":false,"rental_uris":{"android":"levelo://app?vid=1393e48a-5096-48c2-8ef4-ef737b7b43ae","ios":"levelo://app?vid=1393e48a-5096-48c2-8ef4-ef737b7b43ae"},"vehicle_type_id":"4","last_reported":1740726611,"current_range_meters":10000,"station_id":"ce4bhm12rcd13ifvqgkg","pricing_plan_id":"cebpf4jnsgd1na2vs0mg"},{"bike_id":"9670f666-656d-443d-bf4b-8643c21df7f0","system_id":"levelo_inurba_marseille","lat":43.27496,"lon":5.42458,"is_reserved":false,"is_disabled":false,"rental_uris":{"android":"levelo://app?vid=9670f666-656d-443d-bf4b-8643c21df7f0","ios":"levelo://app?vid=9670f666-656d-443d-bf4b-8643c21df7f0"},"vehicle_type_id":"4","last_reported":1740726611,"current_range_meters":10000,"station_id":"ce4bhn92rcd13ifvqgrg","pricing_plan_id":"cebpf4jnsgd1na2vs0mg"},{"bike_id":"3de9aeda-1f9a-4bbc-8b90-e02a49e56ca9","system_id":"levelo_inurba_marseille","lat":43.23184,"lon":5.35547,"is_reserved":false,"is_disabled":false,"rental_uris":{"android":"levelo://app?vid=3de9aeda-1f9a-4bbc-8b90-e02a49e56ca9","ios":"levelo://app?vid=3de9aeda-1f9a-4bbc-8b90-e02a49e56ca9"},"vehicle_type_id":"4","last_reported":1740726611,"current_range_meters":10000,"station_id":"ce4bhu92rcd13ifvqi70","pricing_plan_id":"cebpf4jnsgd1na2vs0mg"},{"bike_id":"ef77bf7f-5b88-41c9-8d3b-c8c9c0447dd9","system_id":"levelo_inurba_marseille","lat":43.2808,"lon":5.35035,"is_reserved":false,"is_disabled":false,"rental_uris":{"android":"levelo://app?vid=ef77bf7f-5b88-41c9-8d3b-c8c9c0447dd9","ios":"levelo://app?vid=ef77bf7f-5b88-41c9-8d3b-c8c9c0447dd9"},"vehicle_type_id":"4","last_reported":1740726611,"current_range_meters":10800,"station_id":"","pricing_plan_id":"cebpf4jnsgd1na2vs0mg"},{"bike_id":"fb6b33a2-0a32-4663-8d83-0a25b65accd9","system_id":"levelo_inurba_marseille","lat":43.30141,"lon":5.38061,"is_reserved":false,"is_disabled":false,"rental_uris":{"android":"levelo://app?vid=fb6b33a2-0a32-4663-8d83-0a25b65accd9","ios":"levelo://app?vid=fb6b33a2-0a32-4663-8d83-0a25b65accd9"},"vehicle_type_id":"4","last_reported":1740726611,"current_range_meters":10800,"station_id":"ce4bgjp2rcd13ifvqbh0","pricing_plan_id":"cebpf4jnsgd1na2vs0mg"},{"bike_id":"3d06ad03-608d-41a3-9db1-86aaa1692ce2","system_id":"levelo_inurba_marseille","lat":43.29704,"lon":5.36636,"is_reserved":false,"is_disabled":false,"rental_uris":{"android":"levelo://app?vid=3d06ad03-608d-41a3-9db1-86aaa1692ce2","ios":"levelo://app?vid=3d06ad03-608d-41a3-9db1-86aaa1692ce2"},"vehicle_type_id":"4","last_reported":1740726611,"current_range_meters":10800,"station_id":"ce4bgn12rcd13ifvqbt0","pricing_plan_id":"cebpf4jnsgd1na2vs0mg"},{"bike_id":"6f28d17e-fa28-4cd3-91a2-81abc0f7ea2a","system_id":"levelo_inurba_marseille","lat":43.284521,"lon":5.358888,"is_reserved":false,"is_disabled":false,"rental_uris":{"android":"levelo://app?vid=6f28d17e-fa28-4cd3-91a2-81abc0f7ea2a","ios":"levelo://app?vid=6f28d17e-fa28-4cd3-91a2-81abc0f7ea2a"},"vehicle_type_id":"4","last_reported":1740726611,"current_range_meters":10800,"station_id":"ce4bhah2rcd13ifvqei0","pricing_plan_id":"cebpf4jnsgd1na2vs0mg"},{"bike_id":"11c3bb28-0881-4ad9-8c9c-f86e73594432","system_id":"levelo_inurba_marseille","lat":43.28465,"lon":5.35888,"is_reserved":false,"is_disabled":false,"rental_uris":{"android":"levelo://app?vid=11c3bb28-0881-4ad9-8c9c-f86e73594432","ios":"levelo://app?vid=11c3bb28-0881-4ad9-8c9c-f86e73594432"},"vehicle_type_id":"4","last_reported":1740726611,"current_range_meters":10800,"station_id":"ce4bhah2rcd13ifvqei0","pricing_plan_id":"cebpf4jnsgd1na2vs0mg"},{"bike_id":"10b6c0d0-a3ef-460e-ad30-22fe050ad6b8","system_id":"levelo_inurba_marseille","lat":43.28835,"lon":5.35861,"is_reserved":false,"is_disabled":false,"rental_uris":{"android":"levelo://app?vid=10b6c0d0-a3ef-460e-ad30-22fe050ad6b8","ios":"levelo://app?vid=10b6c0d0-a3ef-460e-ad30-22fe050ad6b8"},"vehicle_type_id":"4","last_reported":1740726611,"current_range_meters":10800,"station_id":"ce4bhb12rcd13ifvqem0","pricing_plan_id":"cebpf4jnsgd1na2vs0mg"},{"bike_id":"6f08793c-0e13-4755-8250-eb14e46e9c0b","system_id":"levelo_inurba_marseille","lat":43.23183,"lon":5.39989,"is_reserved":false,"is_disabled":false,"rental_uris":{"android":"levelo://app?vid=6f08793c-0e13-4755-8250-eb14e46e9c0b","ios":"levelo://app?vid=6f08793c-0e13-4755-8250-eb14e46e9c0b"},"vehicle_type_id":"4","last_reported":1740726611,"current_range_meters":10800,"station_id":"ce4bhn12rcd13ifvqgqg","pricing_plan_id":"cebpf4jnsgd1na2vs0mg"},{"bike_id":"7470ebdf-96fe-4da7-b039-5ca23f630bc0","system_id":"levelo_inurba_marseille","lat":43.31751,"lon":5.3904,"is_reserved":false,"is_disabled":false,"rental_uris":{"android":"levelo://app?vid=7470ebdf-96fe-4da7-b039-5ca23f630bc0","ios":"levelo://app?vid=7470ebdf-96fe-4da7-b039-5ca23f630bc0"},"vehicle_type_id":"4","last_reported":1740726611,"current_range_meters":10800,"station_id":"ce4bhqp2rcd13ifvqhng","pricing_plan_id":"cebpf4jnsgd1na2vs0mg"},{"bike_id":"6e768501-78da-4b6f-a679-f45cb9a7eb9a","system_id":"levelo_inurba_marseille","lat":43.28352,"lon":5.38112,"is_reserved":false,"is_disabled":false,"rental_uris":{"android":"levelo://app?vid=6e768501-78da-4b6f-a679-f45cb9a7eb9a","ios":"levelo://app?vid=6e768501-78da-4b6f-a679-f45cb9a7eb9a"},"vehicle_type_id":"4","last_reported":1740726611,"current_range_meters":11200,"station_id":"ce4bh412rcd13ifvqdr0","pricing_plan_id":"cebpf4jnsgd1na2vs0mg"},{"bike_id":"21d163b0-76d6-433d-af00-7c1303f28c95","system_id":"levelo_inurba_marseille","lat":43.28396,"lon":5.37544,"is_reserved":false,"is_disabled":false,"rental_uris":{"android":"levelo://app?vid=21d163b0-76d6-433d-af00-7c1303f28c95","ios":"levelo://app?vid=21d163b0-76d6-433d-af00-7c1303f28c95"},"vehicle_type_id":"4","last_reported":1740726611,"current_range_meters":11200,"station_id":"ce4bh412rcd13ifvqds0","pricing_plan_id":"cebpf4jnsgd1na2vs0mg"},{"bike_id":"0771be02-e3e2-47da-b3c9-86df7888c832","system_id":"levelo_inurba_marseille","lat":43.29228,"lon":5.36056,"is_reserved":false,"is_disabled":false,"rental_uris":{"android":"levelo://app?vid=0771be02-e3e2-47da-b3c9-86df7888c832","ios":"levelo://app?vid=0771be02-e3e2-47da-b3c9-86df7888c832"},"vehicle_type_id":"4","last_reported":1740726611,"current_range_meters":11200,"station_id":"ce4bhbh2rcd13ifvqeqg","pricing_plan_id":"cebpf4jnsgd1na2vs0mg"},{"bike_id":"07a70f40-d064-434b-83aa-228acdf7dd53","system_id":"levelo_inurba_marseille","lat":43.23186,"lon":5.3998,"is_reserved":false,"is_disabled":false,"rental_uris":{"android":"levelo://app?vid=07a70f40-d064-434b-83aa-228acdf7dd53","ios":"levelo://app?vid=07a70f40-d064-434b-83aa-228acdf7dd53"},"vehicle_type_id":"4","last_reported":1740726611,"current_range_meters":11200,"station_id":"ce4bhn12rcd13ifvqgqg","pricing_plan_id":"cebpf4jnsgd1na2vs0mg"},{"bike_id":"20d08730-d04f-482a-9ed2-1d3e29b92784","system_id":"levelo_inurba_marseille","lat":43.32367,"lon":5.38872,"is_reserved":false,"is_disabled":false,"rental_uris":{"android":"levelo://app?vid=20d08730-d04f-482a-9ed2-1d3e29b92784","ios":"levelo://app?vid=20d08730-d04f-482a-9ed2-1d3e29b92784"},"vehicle_type_id":"4","last_reported":1740726611,"current_range_meters":11200,"station_id":"ce4bhqp2rcd13ifvqhog","pricing_plan_id":"cebpf4jnsgd1na2vs0mg"},{"bike_id":"d4918d6a-5525-4be8-b0c4-7af64b54343d","system_id":"levelo_inurba_marseille","lat":43.2417,"lon":5.364006,"is_reserved":false,"is_disabled":false,"rental_uris":{"android":"levelo://app?vid=d4918d6a-5525-4be8-b0c4-7af64b54343d","ios":"levelo://app?vid=d4918d6a-5525-4be8-b0c4-7af64b54343d"},"vehicle_type_id":"4","last_reported":1740726611,"current_range_meters":11200,"station_id":"cpo36qri1sfpv3e86is0","pricing_plan_id":"cebpf4jnsgd1na2vs0mg"},{"bike_id":"87f4694a-7002-40c0-9a0e-2123fd36309b","system_id":"levelo_inurba_marseille","lat":43.29004,"lon":5.35605,"is_reserved":false,"is_disabled":false,"rental_uris":{"android":"levelo://app?vid=87f4694a-7002-40c0-9a0e-2123fd36309b","ios":"levelo://app?vid=87f4694a-7002-40c0-9a0e-2123fd36309b"},"vehicle_type_id":"4","last_reported":1740726611,"current_range_meters":11600,"station_id":"ce4bhb92rcd13ifvqen0","pricing_plan_id":"cebpf4jnsgd1na2vs0mg"},{"bike_id":"9e23ddad-8c46-4031-b791-1c31eec6db41","system_id":"levelo_inurba_marseille","lat":43.27207,"lon":5.3918,"is_reserved":false,"is_disabled":false,"rental_uris":{"android":"levelo://app?vid=9e23ddad-8c46-4031-b791-1c31eec6db41","ios":"levelo://app?vid=9e23ddad-8c46-4031-b791-1c31eec6db41"},"vehicle_type_id":"4","last_reported":1740726611,"current_range_meters":11600,"station_id":"ce4bhhp2rcd13ifvqfm0","pricing_plan_id":"cebpf4jnsgd1na2vs0mg"},{"bike_id":"127246c7-7815-4149-b9c2-3f398c6bb43b","system_id":"levelo_inurba_marseille","lat":43.29619,"lon":5.37155,"is_reserved":false,"is_disabled":false,"rental_uris":{"android":"levelo://app?vid=127246c7-7815-4149-b9c2-3f398c6bb43b","ios":"levelo://app?vid=127246c7-7815-4149-b9c2-3f398c6bb43b"},"vehicle_type_id":"4","last_reported":1740726611,"current_range_meters":12000,"station_id":"ce4bgnh2rcd13ifvqc0g","pricing_plan_id":"cebpf4jnsgd1na2vs0mg"},{"bike_id":"2f9f99a2-13fd-4e67-b6f6-cde754ec372e","system_id":"levelo_inurba_marseille","lat":43.29005,"lon":5.35592,"is_reserved":false,"is_disabled":false,"rental_uris":{"android":"levelo://app?vid=2f9f99a2-13fd-4e67-b6f6-cde754ec372e","ios":"levelo://app?vid=2f9f99a2-13fd-4e67-b6f6-cde754ec372e"},"vehicle_type_id":"4","last_reported":1740726611,"current_range_meters":12000,"station_id":"ce4bhb92rcd13ifvqen0","pricing_plan_id":"cebpf4jnsgd1na2vs0mg"},{"bike_id":"2a15582d-8ec7-4491-b977-3b2a0c07f0d5","system_id":"levelo_inurba_marseille","lat":43.26946,"lon":5.38669,"is_reserved":false,"is_disabled":false,"rental_uris":{"android":"levelo://app?vid=2a15582d-8ec7-4491-b977-3b2a0c07f0d5","ios":"levelo://app?vid=2a15582d-8ec7-4491-b977-3b2a0c07f0d5"},"vehicle_type_id":"4","last_reported":1740726611,"current_range_meters":12000,"station_id":"ce4bhh92rcd13ifvqfh0","pricing_plan_id":"cebpf4jnsgd1na2vs0mg"},{"bike_id":"199d096e-ca37-47f9-963f-1f0656cac9e4","system_id":"levelo_inurba_marseille","lat":43.258271,"lon":5.394353,"is_reserved":false,"is_disabled":false,"rental_uris":{"android":"levelo://app?vid=199d096e-ca37-47f9-963f-1f0656cac9e4","ios":"levelo://app?vid=199d096e-ca37-47f9-963f-1f0656cac9e4"},"vehicle_type_id":"4","last_reported":1740726611,"current_range_meters":12000,"station_id":"ce4bhip2rcd13ifvqft0","pricing_plan_id":"cebpf4jnsgd1na2vs0mg"},{"bike_id":"d4500ca9-edb2-4005-a29b-6ab0c9dc22bf","system_id":"levelo_inurba_marseille","lat":43.24082,"lon":5.37751,"is_reserved":false,"is_disabled":false,"rental_uris":{"android":"levelo://app?vid=d4500ca9-edb2-4005-a29b-6ab0c9dc22bf","ios":"levelo://app?vid=d4500ca9-edb2-4005-a29b-6ab0c9dc22bf"},"vehicle_type_id":"4","last_reported":1740726611,"current_range_meters":12000,"station_id":"ce4bhnp2rcd13ifvqgvg","pricing_plan_id":"cebpf4jnsgd1na2vs0mg"},{"bike_id":"61281301-5196-4e98-838e-5323ff1006de","system_id":"levelo_inurba_marseille","lat":43.29573,"lon":5.42253,"is_reserved":false,"is_disabled":false,"rental_uris":{"android":"levelo://app?vid=61281301-5196-4e98-838e-5323ff1006de","ios":"levelo://app?vid=61281301-5196-4e98-838e-5323ff1006de"},"vehicle_type_id":"4","last_reported":1740726611,"current_range_meters":12000,"station_id":"ce4bhph2rcd13ifvqhdg","pricing_plan_id":"cebpf4jnsgd1na2vs0mg"},{"bike_id":"b03f6e9b-d28f-4926-a7e2-81352e081bc4","system_id":"levelo_inurba_marseille","lat":43.3045,"lon":5.37916,"is_reserved":false,"is_disabled":false,"rental_uris":{"android":"levelo://app?vid=b03f6e9b-d28f-4926-a7e2-81352e081bc4","ios":"levelo://app?vid=b03f6e9b-d28f-4926-a7e2-81352e081bc4"},"vehicle_type_id":"4","last_reported":1740726611,"current_range_meters":12400,"station_id":"ce4bgup2rcd13ifvqcn0","pricing_plan_id":"cebpf4jnsgd1na2vs0mg"},{"bike_id":"2693addf-6b0f-4d5b-aba4-c55b84237091","system_id":"levelo_inurba_marseille","lat":43.3046,"lon":5.37906,"is_reserved":false,"is_disabled":false,"rental_uris":{"android":"levelo://app?vid=2693addf-6b0f-4d5b-aba4-c55b84237091","ios":"levelo://app?vid=2693addf-6b0f-4d5b-aba4-c55b84237091"},"vehicle_type_id":"4","last_reported":1740726611,"current_range_meters":12400,"station_id":"ce4bgup2rcd13ifvqcn0","pricing_plan_id":"cebpf4jnsgd1na2vs0mg"},{"bike_id":"7b2168bf-cc79-4f74-99d5-2d042a76e474","system_id":"levelo_inurba_marseille","lat":43.30592,"lon":5.39367,"is_reserved":false,"is_disabled":false,"rental_uris":{"android":"levelo://app?vid=7b2168bf-cc79-4f74-99d5-2d042a76e474","ios":"levelo://app?vid=7b2168bf-cc79-4f74-99d5-2d042a76e474"},"vehicle_type_id":"4","last_reported":1740726611,"current_range_meters":12400,"station_id":"ce4bh0p2rcd13ifvqd80","pricing_plan_id":"cebpf4jnsgd1na2vs0mg"},{"bike_id":"f7fe6e63-0b18-4c93-be1b-f5ad9a7c4609","system_id":"levelo_inurba_marseille","lat":43.28839,"lon":5.35847,"is_reserved":false,"is_disabled":false,"rental_uris":{"android":"levelo://app?vid=f7fe6e63-0b18-4c93-be1b-f5ad9a7c4609","ios":"levelo://app?vid=f7fe6e63-0b18-4c93-be1b-f5ad9a7c4609"},"vehicle_type_id":"4","last_reported":1740726611,"current_range_meters":12400,"station_id":"ce4bhb12rcd13ifvqem0","pricing_plan_id":"cebpf4jnsgd1na2vs0mg"},{"bike_id":"3f5e4c77-943b-4a46-b257-614bf13afec4","system_id":"levelo_inurba_marseille","lat":43.24162,"lon":5.364,"is_reserved":false,"is_disabled":false,"rental_uris":{"android":"levelo://app?vid=3f5e4c77-943b-4a46-b257-614bf13afec4","ios":"levelo://app?vid=3f5e4c77-943b-4a46-b257-614bf13afec4"},"vehicle_type_id":"4","last_reported":1740726611,"current_range_meters":12400,"station_id":"cpo36qri1sfpv3e86is0","pricing_plan_id":"cebpf4jnsgd1na2vs0mg"},{"bike_id":"8e4442b9-144b-480a-b3e4-47b1cd1fdab0","system_id":"levelo_inurba_marseille","lat":43.298673,"lon":5.397305,"is_reserved":false,"is_disabled":false,"rental_uris":{"android":"levelo://app?vid=8e4442b9-144b-480a-b3e4-47b1cd1fdab0","ios":"levelo://app?vid=8e4442b9-144b-480a-b3e4-47b1cd1fdab0"},"vehicle_type_id":"4","last_reported":1740726611,"current_range_meters":12800,"station_id":"ce4bgt12rcd13ifvqce0","pricing_plan_id":"cebpf4jnsgd1na2vs0mg"},{"bike_id":"43d6aa6f-20c7-4a1b-bcb8-31b660876567","system_id":"levelo_inurba_marseille","lat":43.26556,"lon":5.37291,"is_reserved":false,"is_disabled":false,"rental_uris":{"android":"levelo://app?vid=43d6aa6f-20c7-4a1b-bcb8-31b660876567","ios":"levelo://app?vid=43d6aa6f-20c7-4a1b-bcb8-31b660876567"},"vehicle_type_id":"4","last_reported":1740726611,"current_range_meters":12800,"station_id":"ce4bhg12rcd13ifvqf70","pricing_plan_id":"cebpf4jnsgd1na2vs0mg"},{"bike_id":"c7d98dea-c247-433c-8641-74ae8bf96c7c","system_id":"levelo_inurba_marseille","lat":43.23157,"lon":5.43705,"is_reserved":false,"is_disabled":false,"rental_uris":{"android":"levelo://app?vid=c7d98dea-c247-433c-8641-74ae8bf96c7c","ios":"levelo://app?vid=c7d98dea-c247-433c-8641-74ae8bf96c7c"},"vehicle_type_id":"4","last_reported":1740726611,"current_range_meters":12800,"station_id":"ce4bhmp2rcd13ifvqgog","pricing_plan_id":"cebpf4jnsgd1na2vs0mg"},{"bike_id":"9d243c69-16e2-4c3b-a7dc-6c83c9c0968d","system_id":"levelo_inurba_marseille","lat":43.24074,"lon":5.37765,"is_reserved":false,"is_disabled":false,"rental_uris":{"android":"levelo://app?vid=9d243c69-16e2-4c3b-a7dc-6c83c9c0968d","ios":"levelo://app?vid=9d243c69-16e2-4c3b-a7dc-6c83c9c0968d"},"vehicle_type_id":"4","last_reported":1740726611,"current_range_meters":12800,"station_id":"ce4bhnp2rcd13ifvqgvg","pricing_plan_id":"cebpf4jnsgd1na2vs0mg"},{"bike_id":"c8f00796-facd-4abb-b849-08c579806442","system_id":"levelo_inurba_marseille","lat":43.27998,"lon":5.40013,"is_reserved":false,"is_disabled":false,"rental_uris":{"android":"levelo://app?vid=c8f00796-facd-4abb-b849-08c579806442","ios":"levelo://app?vid=c8f00796-facd-4abb-b849-08c579806442"},"vehicle_type_id":"4","last_reported":1740726611,"current_range_meters":12800,"station_id":"ce4bho92rcd13ifvqh4g","pricing_plan_id":"cebpf4jnsgd1na2vs0mg"},{"bike_id":"e3896293-7352-4a2b-a56c-d521fa1074b5","system_id":"levelo_inurba_marseille","lat":43.286218,"lon":5.383363,"is_reserved":false,"is_disabled":false,"rental_uris":{"android":"levelo://app?vid=e3896293-7352-4a2b-a56c-d521fa1074b5","ios":"levelo://app?vid=e3896293-7352-4a2b-a56c-d521fa1074b5"},"vehicle_type_id":"4","last_reported":1740726611,"current_range_meters":13600,"station_id":"ce4bgnh2rcd13ifvqc0g","pricing_plan_id":"cebpf4jnsgd1na2vs0mg"},{"bike_id":"f278eb25-d6d8-48a3-bc50-d67d564e81fb","system_id":"levelo_inurba_marseille","lat":43.306,"lon":5.39366,"is_reserved":false,"is_disabled":false,"rental_uris":{"android":"levelo://app?vid=f278eb25-d6d8-48a3-bc50-d67d564e81fb","ios":"levelo://app?vid=f278eb25-d6d8-48a3-bc50-d67d564e81fb"},"vehicle_type_id":"4","last_reported":1740726611,"current_range_meters":13600,"station_id":"ce4bh0p2rcd13ifvqd80","pricing_plan_id":"cebpf4jnsgd1na2vs0mg"},{"bike_id":"0ebffcee-3697-4987-8cfd-ce56c427abfe","system_id":"levelo_inurba_marseille","lat":43.28455,"lon":5.3589,"is_reserved":false,"is_disabled":false,"rental_uris":{"android":"levelo://app?vid=0ebffcee-3697-4987-8cfd-ce56c427abfe","ios":"levelo://app?vid=0ebffcee-3697-4987-8cfd-ce56c427abfe"},"vehicle_type_id":"4","last_reported":1740726611,"current_range_meters":13600,"station_id":"ce4bhah2rcd13ifvqei0","pricing_plan_id":"cebpf4jnsgd1na2vs0mg"},{"bike_id":"15204670-483e-4adc-adc6-2fb8bc37754c","system_id":"levelo_inurba_marseille","lat":43.25819,"lon":5.39454,"is_reserved":false,"is_disabled":false,"rental_uris":{"android":"levelo://app?vid=15204670-483e-4adc-adc6-2fb8bc37754c","ios":"levelo://app?vid=15204670-483e-4adc-adc6-2fb8bc37754c"},"vehicle_type_id":"4","last_reported":1740726611,"current_range_meters":13600,"station_id":"ce4bhip2rcd13ifvqft0","pricing_plan_id":"cebpf4jnsgd1na2vs0mg"},{"bike_id":"a9757b2e-0188-4e2f-9062-079c74f7d4d4","system_id":"levelo_inurba_marseille","lat":43.25583,"lon":5.38254,"is_reserved":false,"is_disabled":false,"rental_uris":{"android":"levelo://app?vid=a9757b2e-0188-4e2f-9062-079c74f7d4d4","ios":"levelo://app?vid=a9757b2e-0188-4e2f-9062-079c74f7d4d4"},"vehicle_type_id":"4","last_reported":1740726611,"current_range_meters":14000,"station_id":"ce4bhih2rcd13ifvqfs0","pricing_plan_id":"cebpf4jnsgd1na2vs0mg"},{"bike_id":"41ae3cba-df90-47eb-9185-828aeb3d2ccd","system_id":"levelo_inurba_marseille","lat":43.25581,"lon":5.38256,"is_reserved":false,"is_disabled":false,"rental_uris":{"android":"levelo://app?vid=41ae3cba-df90-47eb-9185-828aeb3d2ccd","ios":"levelo://app?vid=41ae3cba-df90-47eb-9185-828aeb3d2ccd"},"vehicle_type_id":"4","last_reported":1740726611,"current_range_meters":14000,"station_id":"ce4bhih2rcd13ifvqfs0","pricing_plan_id":"cebpf4jnsgd1na2vs0mg"},{"bike_id":"1ec95ae8-47b1-46be-ab6f-633627e7d180","system_id":"levelo_inurba_marseille","lat":43.25089,"lon":5.39532,"is_reserved":false,"is_disabled":false,"rental_uris":{"android":"levelo://app?vid=1ec95ae8-47b1-46be-ab6f-633627e7d180","ios":"levelo://app?vid=1ec95ae8-47b1-46be-ab6f-633627e7d180"},"vehicle_type_id":"4","last_reported":1740726611,"current_range_meters":14000,"station_id":"ce4bhm12rcd13ifvqgkg","pricing_plan_id":"cebpf4jnsgd1na2vs0mg"},{"bike_id":"7d3f3ea2-20aa-4365-aa61-9edabb5d854b","system_id":"levelo_inurba_marseille","lat":43.33024,"lon":5.39041,"is_reserved":false,"is_disabled":false,"rental_uris":{"android":"levelo://app?vid=7d3f3ea2-20aa-4365-aa61-9edabb5d854b","ios":"levelo://app?vid=7d3f3ea2-20aa-4365-aa61-9edabb5d854b"},"vehicle_type_id":"4","last_reported":1740726611,"current_range_meters":14400,"station_id":"","pricing_plan_id":"cebpf4jnsgd1na2vs0mg"},{"bike_id":"e3581521-e696-4457-97cb-85ea199970a9","system_id":"levelo_inurba_marseille","lat":43.27492,"lon":5.42459,"is_reserved":false,"is_disabled":false,"rental_uris":{"android":"levelo://app?vid=e3581521-e696-4457-97cb-85ea199970a9","ios":"levelo://app?vid=e3581521-e696-4457-97cb-85ea199970a9"},"vehicle_type_id":"4","last_reported":1740726611,"current_range_meters":14400,"station_id":"ce4bhn92rcd13ifvqgrg","pricing_plan_id":"cebpf4jnsgd1na2vs0mg"},{"bike_id":"dd929140-4490-4963-8300-379c62aa51ff","system_id":"levelo_inurba_marseille","lat":43.30297,"lon":5.36876,"is_reserved":false,"is_disabled":false,"rental_uris":{"android":"levelo://app?vid=dd929140-4490-4963-8300-379c62aa51ff","ios":"levelo://app?vid=dd929140-4490-4963-8300-379c62aa51ff"},"vehicle_type_id":"4","last_reported":1740726611,"current_range_meters":14800,"station_id":"ce4bgqh2rcd13ifvqc5g","pricing_plan_id":"cebpf4jnsgd1na2vs0mg"},{"bike_id":"24476cb6-9c12-4997-ab8d-8cfe9d8b4bb4","system_id":"levelo_inurba_marseille","lat":43.28618,"lon":5.3511,"is_reserved":false,"is_disabled":false,"rental_uris":{"android":"levelo://app?vid=24476cb6-9c12-4997-ab8d-8cfe9d8b4bb4","ios":"levelo://app?vid=24476cb6-9c12-4997-ab8d-8cfe9d8b4bb4"},"vehicle_type_id":"4","last_reported":1740726611,"current_range_meters":14800,"station_id":"ce4bhch2rcd13ifvqeug","pricing_plan_id":"cebpf4jnsgd1na2vs0mg"},{"bike_id":"0f485d89-f28f-4ae5-b6fa-44f8a8ad7289","system_id":"levelo_inurba_marseille","lat":43.27495,"lon":5.42454,"is_reserved":false,"is_disabled":false,"rental_uris":{"android":"levelo://app?vid=0f485d89-f28f-4ae5-b6fa-44f8a8ad7289","ios":"levelo://app?vid=0f485d89-f28f-4ae5-b6fa-44f8a8ad7289"},"vehicle_type_id":"4","last_reported":1740726611,"current_range_meters":14800,"station_id":"ce4bhn92rcd13ifvqgrg","pricing_plan_id":"cebpf4jnsgd1na2vs0mg"},{"bike_id":"382d557d-8024-4f45-8140-482a40d06b19","system_id":"levelo_inurba_marseille","lat":43.27811,"lon":5.40731,"is_reserved":false,"is_disabled":false,"rental_uris":{"android":"levelo://app?vid=382d557d-8024-4f45-8140-482a40d06b19","ios":"levelo://app?vid=382d557d-8024-4f45-8140-482a40d06b19"},"vehicle_type_id":"4","last_reported":1740726611,"current_range_meters":14800,"station_id":"ce4bhnh2rcd13ifvqgtg","pricing_plan_id":"cebpf4jnsgd1na2vs0mg"},{"bike_id":"1aea0dde-a7bb-4730-8e2c-695419b49399","system_id":"levelo_inurba_marseille","lat":43.323613,"lon":5.388831,"is_reserved":false,"is_disabled":false,"rental_uris":{"android":"levelo://app?vid=1aea0dde-a7bb-4730-8e2c-695419b49399","ios":"levelo://app?vid=1aea0dde-a7bb-4730-8e2c-695419b49399"},"vehicle_type_id":"4","last_reported":1740726611,"current_range_meters":14800,"station_id":"ce4bhqp2rcd13ifvqhog","pricing_plan_id":"cebpf4jnsgd1na2vs0mg"},{"bike_id":"ee641f6b-b968-4ac7-8422-c096dd19cc13","system_id":"levelo_inurba_marseille","lat":43.317,"lon":5.3777,"is_reserved":false,"is_disabled":false,"rental_uris":{"android":"levelo://app?vid=ee641f6b-b968-4ac7-8422-c096dd19cc13","ios":"levelo://app?vid=ee641f6b-b968-4ac7-8422-c096dd19cc13"},"vehicle_type_id":"4","last_reported":1740726611,"current_range_meters":15200,"station_id":"ce4bgth2rcd13ifvqch0","pricing_plan_id":"cebpf4jnsgd1na2vs0mg"},{"bike_id":"38432b1e-0950-4178-ad6a-a20221d68d1c","system_id":"levelo_inurba_marseille","lat":43.30212,"lon":5.3947,"is_reserved":false,"is_disabled":false,"rental_uris":{"android":"levelo://app?vid=38432b1e-0950-4178-ad6a-a20221d68d1c","ios":"levelo://app?vid=38432b1e-0950-4178-ad6a-a20221d68d1c"},"vehicle_type_id":"4","last_reported":1740726611,"current_range_meters":15200,"station_id":"ce4bh0p2rcd13ifvqd70","pricing_plan_id":"cebpf4jnsgd1na2vs0mg"},{"bike_id":"3e4abcf6-ec74-4d4d-8722-1baf5799169b","system_id":"levelo_inurba_marseille","lat":43.28408,"lon":5.37561,"is_reserved":false,"is_disabled":false,"rental_uris":{"android":"levelo://app?vid=3e4abcf6-ec74-4d4d-8722-1baf5799169b","ios":"levelo://app?vid=3e4abcf6-ec74-4d4d-8722-1baf5799169b"},"vehicle_type_id":"4","last_reported":1740726611,"current_range_meters":15200,"station_id":"ce4bh412rcd13ifvqds0","pricing_plan_id":"cebpf4jnsgd1na2vs0mg"},{"bike_id":"b4f1c498-5c3f-4907-bdfa-6b4e5dbdb3b3","system_id":"levelo_inurba_marseille","lat":43.28468,"lon":5.35891,"is_reserved":false,"is_disabled":false,"rental_uris":{"android":"levelo://app?vid=b4f1c498-5c3f-4907-bdfa-6b4e5dbdb3b3","ios":"levelo://app?vid=b4f1c498-5c3f-4907-bdfa-6b4e5dbdb3b3"},"vehicle_type_id":"4","last_reported":1740726611,"current_range_meters":15200,"station_id":"ce4bhah2rcd13ifvqei0","pricing_plan_id":"cebpf4jnsgd1na2vs0mg"},{"bike_id":"b17d2017-bcd6-4e8a-aeab-0388faac15b9","system_id":"levelo_inurba_marseille","lat":43.2845,"lon":5.35884,"is_reserved":false,"is_disabled":false,"rental_uris":{"android":"levelo://app?vid=b17d2017-bcd6-4e8a-aeab-0388faac15b9","ios":"levelo://app?vid=b17d2017-bcd6-4e8a-aeab-0388faac15b9"},"vehicle_type_id":"4","last_reported":1740726611,"current_range_meters":15200,"station_id":"ce4bhah2rcd13ifvqei0","pricing_plan_id":"cebpf4jnsgd1na2vs0mg"},{"bike_id":"7c373590-3fd6-44dc-a774-01671497b545","system_id":"levelo_inurba_marseille","lat":43.28625,"lon":5.35123,"is_reserved":false,"is_disabled":false,"rental_uris":{"android":"levelo://app?vid=7c373590-3fd6-44dc-a774-01671497b545","ios":"levelo://app?vid=7c373590-3fd6-44dc-a774-01671497b545"},"vehicle_type_id":"4","last_reported":1740726611,"current_range_meters":15200,"station_id":"ce4bhch2rcd13ifvqeug","pricing_plan_id":"cebpf4jnsgd1na2vs0mg"},{"bike_id":"48a40f92-a1fb-446f-bfee-d97ee9a820e8","system_id":"levelo_inurba_marseille","lat":43.2678,"lon":5.39417,"is_reserved":false,"is_disabled":false,"rental_uris":{"android":"levelo://app?vid=48a40f92-a1fb-446f-bfee-d97ee9a820e8","ios":"levelo://app?vid=48a40f92-a1fb-446f-bfee-d97ee9a820e8"},"vehicle_type_id":"4","last_reported":1740726611,"current_range_meters":15200,"station_id":"ce4bhh12rcd13ifvqfg0","pricing_plan_id":"cebpf4jnsgd1na2vs0mg"},{"bike_id":"ed0a7ddd-a0d0-4e14-93e4-4a5540c1f9fd","system_id":"levelo_inurba_marseille","lat":43.30788,"lon":5.43523,"is_reserved":false,"is_disabled":false,"rental_uris":{"android":"levelo://app?vid=ed0a7ddd-a0d0-4e14-93e4-4a5540c1f9fd","ios":"levelo://app?vid=ed0a7ddd-a0d0-4e14-93e4-4a5540c1f9fd"},"vehicle_type_id":"4","last_reported":1740726611,"current_range_meters":15200,"station_id":"ce4bhph2rcd13ifvqheg","pricing_plan_id":"cebpf4jnsgd1na2vs0mg"},{"bike_id":"f5fe4361-1d3d-4314-a7e8-95ca49fcf6f9","system_id":"levelo_inurba_marseille","lat":43.31958,"lon":5.36847,"is_reserved":false,"is_disabled":false,"rental_uris":{"android":"levelo://app?vid=f5fe4361-1d3d-4314-a7e8-95ca49fcf6f9","ios":"levelo://app?vid=f5fe4361-1d3d-4314-a7e8-95ca49fcf6f9"},"vehicle_type_id":"4","last_reported":1740726611,"current_range_meters":16000,"station_id":"","pricing_plan_id":"cebpf4jnsgd1na2vs0mg"},{"bike_id":"9ac5024d-868d-481f-82c7-2ada14559d7d","system_id":"levelo_inurba_marseille","lat":43.30445,"lon":5.38897,"is_reserved":false,"is_disabled":false,"rental_uris":{"android":"levelo://app?vid=9ac5024d-868d-481f-82c7-2ada14559d7d","ios":"levelo://app?vid=9ac5024d-868d-481f-82c7-2ada14559d7d"},"vehicle_type_id":"4","last_reported":1740726611,"current_range_meters":16000,"station_id":"ce4bgk12rcd13ifvqbi0","pricing_plan_id":"cebpf4jnsgd1na2vs0mg"},{"bike_id":"1351e195-5c40-43bb-91c7-cd96cdf47dce","system_id":"levelo_inurba_marseille","lat":43.28938,"lon":5.39632,"is_reserved":false,"is_disabled":false,"rental_uris":{"android":"levelo://app?vid=1351e195-5c40-43bb-91c7-cd96cdf47dce","ios":"levelo://app?vid=1351e195-5c40-43bb-91c7-cd96cdf47dce"},"vehicle_type_id":"4","last_reported":1740726611,"current_range_meters":16000,"station_id":"ce4bh3h2rcd13ifvqdn0","pricing_plan_id":"cebpf4jnsgd1na2vs0mg"},{"bike_id":"f919809d-dd9d-4e14-85ef-be2db1b8dd2e","system_id":"levelo_inurba_marseille","lat":43.284488,"lon":5.358182,"is_reserved":false,"is_disabled":false,"rental_uris":{"android":"levelo://app?vid=f919809d-dd9d-4e14-85ef-be2db1b8dd2e","ios":"levelo://app?vid=f919809d-dd9d-4e14-85ef-be2db1b8dd2e"},"vehicle_type_id":"4","last_reported":1740726611,"current_range_meters":16000,"station_id":"ce4bhah2rcd13ifvqei0","pricing_plan_id":"cebpf4jnsgd1na2vs0mg"},{"bike_id":"7f460228-eaa7-4070-8c4f-3c84b0229773","system_id":"levelo_inurba_marseille","lat":43.25573,"lon":5.38215,"is_reserved":false,"is_disabled":false,"rental_uris":{"android":"levelo://app?vid=7f460228-eaa7-4070-8c4f-3c84b0229773","ios":"levelo://app?vid=7f460228-eaa7-4070-8c4f-3c84b0229773"},"vehicle_type_id":"4","last_reported":1740726611,"current_range_meters":16000,"station_id":"ce4bhih2rcd13ifvqfs0","pricing_plan_id":"cebpf4jnsgd1na2vs0mg"},{"bike_id":"364b209e-752e-45ea-b26c-06b2552c1833","system_id":"levelo_inurba_marseille","lat":43.23187,"lon":5.35583,"is_reserved":false,"is_disabled":false,"rental_uris":{"android":"levelo://app?vid=364b209e-752e-45ea-b26c-06b2552c1833","ios":"levelo://app?vid=364b209e-752e-45ea-b26c-06b2552c1833"},"vehicle_type_id":"4","last_reported":1740726611,"current_range_meters":16000,"station_id":"ce4bhu92rcd13ifvqi70","pricing_plan_id":"cebpf4jnsgd1na2vs0mg"},{"bike_id":"49e9cdc7-76a5-4b66-ae2d-61c73beb73a8","system_id":"levelo_inurba_marseille","lat":43.24171,"lon":5.36399,"is_reserved":false,"is_disabled":false,"rental_uris":{"android":"levelo://app?vid=49e9cdc7-76a5-4b66-ae2d-61c73beb73a8","ios":"levelo://app?vid=49e9cdc7-76a5-4b66-ae2d-61c73beb73a8"},"vehicle_type_id":"4","last_reported":1740726611,"current_range_meters":16000,"station_id":"cpo36qri1sfpv3e86is0","pricing_plan_id":"cebpf4jnsgd1na2vs0mg"},{"bike_id":"51ed1bd1-2ce5-469f-92e0-70acc6da1c1a","system_id":"levelo_inurba_marseille","lat":43.29045,"lon":5.39964,"is_reserved":false,"is_disabled":false,"rental_uris":{"android":"levelo://app?vid=51ed1bd1-2ce5-469f-92e0-70acc6da1c1a","ios":"levelo://app?vid=51ed1bd1-2ce5-469f-92e0-70acc6da1c1a"},"vehicle_type_id":"4","last_reported":1740726611,"current_range_meters":16400,"station_id":"ce4bh392rcd13ifvqdm0","pricing_plan_id":"cebpf4jnsgd1na2vs0mg"},{"bike_id":"6e57ee58-02cb-4a08-b54e-eaf0a4a6d2fb","system_id":"levelo_inurba_marseille","lat":43.29224,"lon":5.36067,"is_reserved":false,"is_disabled":false,"rental_uris":{"android":"levelo://app?vid=6e57ee58-02cb-4a08-b54e-eaf0a4a6d2fb","ios":"levelo://app?vid=6e57ee58-02cb-4a08-b54e-eaf0a4a6d2fb"},"vehicle_type_id":"4","last_reported":1740726611,"current_range_meters":16400,"station_id":"ce4bhbh2rcd13ifvqeqg","pricing_plan_id":"cebpf4jnsgd1na2vs0mg"},{"bike_id":"d79774a6-7426-41ac-b7c6-85789974d608","system_id":"levelo_inurba_marseille","lat":43.25582,"lon":5.38253,"is_reserved":false,"is_disabled":false,"rental_uris":{"android":"levelo://app?vid=d79774a6-7426-41ac-b7c6-85789974d608","ios":"levelo://app?vid=d79774a6-7426-41ac-b7c6-85789974d608"},"vehicle_type_id":"4","last_reported":1740726611,"current_range_meters":16400,"station_id":"ce4bhih2rcd13ifvqfs0","pricing_plan_id":"cebpf4jnsgd1na2vs0mg"},{"bike_id":"1b0d2b2f-2ef7-4ef8-89cb-2092f6907af0","system_id":"levelo_inurba_marseille","lat":43.23153,"lon":5.43729,"is_reserved":false,"is_disabled":false,"rental_uris":{"android":"levelo://app?vid=1b0d2b2f-2ef7-4ef8-89cb-2092f6907af0","ios":"levelo://app?vid=1b0d2b2f-2ef7-4ef8-89cb-2092f6907af0"},"vehicle_type_id":"4","last_reported":1740726611,"current_range_meters":16400,"station_id":"ce4bhmp2rcd13ifvqgog","pricing_plan_id":"cebpf4jnsgd1na2vs0mg"},{"bike_id":"597c78d8-1097-48db-b3be-fafc8754eab9","system_id":"levelo_inurba_marseille","lat":43.24167,"lon":5.364,"is_reserved":false,"is_disabled":false,"rental_uris":{"android":"levelo://app?vid=597c78d8-1097-48db-b3be-fafc8754eab9","ios":"levelo://app?vid=597c78d8-1097-48db-b3be-fafc8754eab9"},"vehicle_type_id":"4","last_reported":1740726611,"current_range_meters":16400,"station_id":"cpo36qri1sfpv3e86is0","pricing_plan_id":"cebpf4jnsgd1na2vs0mg"},{"bike_id":"336795e5-4d33-4af4-a483-bd1e949d5bb3","system_id":"levelo_inurba_marseille","lat":43.29751,"lon":5.38144,"is_reserved":false,"is_disabled":false,"rental_uris":{"android":"levelo://app?vid=336795e5-4d33-4af4-a483-bd1e949d5bb3","ios":"levelo://app?vid=336795e5-4d33-4af4-a483-bd1e949d5bb3"},"vehicle_type_id":"4","last_reported":1740726611,"current_range_meters":16800,"station_id":"ce4bgip2rcd13ifvqbb0","pricing_plan_id":"cebpf4jnsgd1na2vs0mg"},{"bike_id":"87138afc-c34d-4c26-8f45-e264a48d8f11","system_id":"levelo_inurba_marseille","lat":43.28932,"lon":5.39632,"is_reserved":false,"is_disabled":false,"rental_uris":{"android":"levelo://app?vid=87138afc-c34d-4c26-8f45-e264a48d8f11","ios":"levelo://app?vid=87138afc-c34d-4c26-8f45-e264a48d8f11"},"vehicle_type_id":"4","last_reported":1740726611,"current_range_meters":16800,"station_id":"ce4bh3h2rcd13ifvqdn0","pricing_plan_id":"cebpf4jnsgd1na2vs0mg"},{"bike_id":"518d867e-9027-4d60-84f4-5c6dc2dbfe85","system_id":"levelo_inurba_marseille","lat":43.2842,"lon":5.37507,"is_reserved":false,"is_disabled":false,"rental_uris":{"android":"levelo://app?vid=518d867e-9027-4d60-84f4-5c6dc2dbfe85","ios":"levelo://app?vid=518d867e-9027-4d60-84f4-5c6dc2dbfe85"},"vehicle_type_id":"4","last_reported":1740726611,"current_range_meters":16800,"station_id":"ce4bh412rcd13ifvqds0","pricing_plan_id":"cebpf4jnsgd1na2vs0mg"},{"bike_id":"1c211cde-b2dd-4a63-89e8-31516e1dc02c","system_id":"levelo_inurba_marseille","lat":43.28725,"lon":5.37956,"is_reserved":false,"is_disabled":false,"rental_uris":{"android":"levelo://app?vid=1c211cde-b2dd-4a63-89e8-31516e1dc02c","ios":"levelo://app?vid=1c211cde-b2dd-4a63-89e8-31516e1dc02c"},"vehicle_type_id":"4","last_reported":1740726611,"current_range_meters":16800,"station_id":"ce4bh9p2rcd13ifvqec0","pricing_plan_id":"cebpf4jnsgd1na2vs0mg"},{"bike_id":"ab2cbdfd-18e8-4816-aeda-22028e876c64","system_id":"levelo_inurba_marseille","lat":43.286,"lon":5.35116,"is_reserved":false,"is_disabled":false,"rental_uris":{"android":"levelo://app?vid=ab2cbdfd-18e8-4816-aeda-22028e876c64","ios":"levelo://app?vid=ab2cbdfd-18e8-4816-aeda-22028e876c64"},"vehicle_type_id":"4","last_reported":1740726611,"current_range_meters":16800,"station_id":"ce4bhch2rcd13ifvqeug","pricing_plan_id":"cebpf4jnsgd1na2vs0mg"},{"bike_id":"d214a7ae-99bd-40a2-8fd2-fa56b8bfa0c4","system_id":"levelo_inurba_marseille","lat":43.26954,"lon":5.38634,"is_reserved":false,"is_disabled":false,"rental_uris":{"android":"levelo://app?vid=d214a7ae-99bd-40a2-8fd2-fa56b8bfa0c4","ios":"levelo://app?vid=d214a7ae-99bd-40a2-8fd2-fa56b8bfa0c4"},"vehicle_type_id":"4","last_reported":1740726611,"current_range_meters":16800,"station_id":"ce4bhh92rcd13ifvqfh0","pricing_plan_id":"cebpf4jnsgd1na2vs0mg"},{"bike_id":"761aff3b-b870-400e-9a3f-ce98d38fcd71","system_id":"levelo_inurba_marseille","lat":43.27492,"lon":5.42455,"is_reserved":false,"is_disabled":false,"rental_uris":{"android":"levelo://app?vid=761aff3b-b870-400e-9a3f-ce98d38fcd71","ios":"levelo://app?vid=761aff3b-b870-400e-9a3f-ce98d38fcd71"},"vehicle_type_id":"4","last_reported":1740726611,"current_range_meters":16800,"station_id":"ce4bhn92rcd13ifvqgrg","pricing_plan_id":"cebpf4jnsgd1na2vs0mg"},{"bike_id":"eda8ff5f-a8a6-41cf-9ea7-c9935932544b","system_id":"levelo_inurba_marseille","lat":43.24332,"lon":5.37514,"is_reserved":false,"is_disabled":false,"rental_uris":{"android":"levelo://app?vid=eda8ff5f-a8a6-41cf-9ea7-c9935932544b","ios":"levelo://app?vid=eda8ff5f-a8a6-41cf-9ea7-c9935932544b"},"vehicle_type_id":"4","last_reported":1740726611,"current_range_meters":16800,"station_id":"ce4bhnp2rcd13ifvqgvg","pricing_plan_id":"cebpf4jnsgd1na2vs0mg"},{"bike_id":"c84f47e5-27b1-47a9-a2d2-ba104cc1f39a","system_id":"levelo_inurba_marseille","lat":43.32356,"lon":5.36757,"is_reserved":false,"is_disabled":false,"rental_uris":{"android":"levelo://app?vid=c84f47e5-27b1-47a9-a2d2-ba104cc1f39a","ios":"levelo://app?vid=c84f47e5-27b1-47a9-a2d2-ba104cc1f39a"},"vehicle_type_id":"4","last_reported":1740726611,"current_range_meters":16800,"station_id":"ce4bhsh2rcd13ifvqi2g","pricing_plan_id":"cebpf4jnsgd1na2vs0mg"},{"bike_id":"89033631-7e9a-4bc2-bacc-e66dc7e93e4a","system_id":"levelo_inurba_marseille","lat":43.301455,"lon":5.380886,"is_reserved":false,"is_disabled":false,"rental_uris":{"android":"levelo://app?vid=89033631-7e9a-4bc2-bacc-e66dc7e93e4a","ios":"levelo://app?vid=89033631-7e9a-4bc2-bacc-e66dc7e93e4a"},"vehicle_type_id":"4","last_reported":1740726611,"current_range_meters":17200,"station_id":"ce4bgl92rcd13ifvqbq0","pricing_plan_id":"cebpf4jnsgd1na2vs0mg"},{"bike_id":"695e9a27-d903-4bbc-b050-bcc463be80aa","system_id":"levelo_inurba_marseille","lat":43.24172,"lon":5.36403,"is_reserved":false,"is_disabled":false,"rental_uris":{"android":"levelo://app?vid=695e9a27-d903-4bbc-b050-bcc463be80aa","ios":"levelo://app?vid=695e9a27-d903-4bbc-b050-bcc463be80aa"},"vehicle_type_id":"4","last_reported":1740726611,"current_range_meters":17200,"station_id":"cpo36qri1sfpv3e86is0","pricing_plan_id":"cebpf4jnsgd1na2vs0mg"},{"bike_id":"0ac48b88-9575-480a-b741-fa50c320253c","system_id":"levelo_inurba_marseille","lat":43.30463,"lon":5.37903,"is_reserved":false,"is_disabled":false,"rental_uris":{"android":"levelo://app?vid=0ac48b88-9575-480a-b741-fa50c320253c","ios":"levelo://app?vid=0ac48b88-9575-480a-b741-fa50c320253c"},"vehicle_type_id":"4","last_reported":1740726611,"current_range_meters":17600,"station_id":"ce4bgup2rcd13ifvqcn0","pricing_plan_id":"cebpf4jnsgd1na2vs0mg"},{"bike_id":"251e8133-9fad-4e15-8c43-054b20a1a32c","system_id":"levelo_inurba_marseille","lat":43.30461,"lon":5.37905,"is_reserved":false,"is_disabled":false,"rental_uris":{"android":"levelo://app?vid=251e8133-9fad-4e15-8c43-054b20a1a32c","ios":"levelo://app?vid=251e8133-9fad-4e15-8c43-054b20a1a32c"},"vehicle_type_id":"4","last_reported":1740726611,"current_range_meters":17600,"station_id":"ce4bgup2rcd13ifvqcn0","pricing_plan_id":"cebpf4jnsgd1na2vs0mg"},{"bike_id":"b98a6a19-39b5-435f-a444-5d4e7b1a58d5","system_id":"levelo_inurba_marseille","lat":43.30587,"lon":5.39334,"is_reserved":false,"is_disabled":false,"rental_uris":{"android":"levelo://app?vid=b98a6a19-39b5-435f-a444-5d4e7b1a58d5","ios":"levelo://app?vid=b98a6a19-39b5-435f-a444-5d4e7b1a58d5"},"vehicle_type_id":"4","last_reported":1740726611,"current_range_meters":17600,"station_id":"ce4bh0p2rcd13ifvqd80","pricing_plan_id":"cebpf4jnsgd1na2vs0mg"},{"bike_id":"f5083189-9b8f-4bde-b344-dcf2540c65c5","system_id":"levelo_inurba_marseille","lat":43.290043,"lon":5.356082,"is_reserved":false,"is_disabled":false,"rental_uris":{"android":"levelo://app?vid=f5083189-9b8f-4bde-b344-dcf2540c65c5","ios":"levelo://app?vid=f5083189-9b8f-4bde-b344-dcf2540c65c5"},"vehicle_type_id":"4","last_reported":1740726611,"current_range_meters":17600,"station_id":"ce4bhb92rcd13ifvqen0","pricing_plan_id":"cebpf4jnsgd1na2vs0mg"},{"bike_id":"766f9252-76ba-4151-9194-6d162e66f1d3","system_id":"levelo_inurba_marseille","lat":43.248145,"lon":5.374584,"is_reserved":false,"is_disabled":false,"rental_uris":{"android":"levelo://app?vid=766f9252-76ba-4151-9194-6d162e66f1d3","ios":"levelo://app?vid=766f9252-76ba-4151-9194-6d162e66f1d3"},"vehicle_type_id":"4","last_reported":1740726611,"current_range_meters":17600,"station_id":"ce4bhgh2rcd13ifvqfb0","pricing_plan_id":"cebpf4jnsgd1na2vs0mg"},{"bike_id":"19ca140b-95f2-4482-b6df-89621b6692a2","system_id":"levelo_inurba_marseille","lat":43.23151,"lon":5.43715,"is_reserved":false,"is_disabled":false,"rental_uris":{"android":"levelo://app?vid=19ca140b-95f2-4482-b6df-89621b6692a2","ios":"levelo://app?vid=19ca140b-95f2-4482-b6df-89621b6692a2"},"vehicle_type_id":"4","last_reported":1740726611,"current_range_meters":17600,"station_id":"ce4bhmp2rcd13ifvqgog","pricing_plan_id":"cebpf4jnsgd1na2vs0mg"},{"bike_id":"044ccd66-ed45-4de0-8c64-f54e0d898441","system_id":"levelo_inurba_marseille","lat":43.27494,"lon":5.4246,"is_reserved":false,"is_disabled":false,"rental_uris":{"android":"levelo://app?vid=044ccd66-ed45-4de0-8c64-f54e0d898441","ios":"levelo://app?vid=044ccd66-ed45-4de0-8c64-f54e0d898441"},"vehicle_type_id":"4","last_reported":1740726611,"current_range_meters":17600,"station_id":"ce4bhn92rcd13ifvqgrg","pricing_plan_id":"cebpf4jnsgd1na2vs0mg"},{"bike_id":"a43d23d2-0d6e-4cf7-8691-8ab079a8ff69","system_id":"levelo_inurba_marseille","lat":43.29896,"lon":5.43657,"is_reserved":false,"is_disabled":false,"rental_uris":{"android":"levelo://app?vid=a43d23d2-0d6e-4cf7-8691-8ab079a8ff69","ios":"levelo://app?vid=a43d23d2-0d6e-4cf7-8691-8ab079a8ff69"},"vehicle_type_id":"4","last_reported":1740726611,"current_range_meters":17600,"station_id":"ce4bhpp2rcd13ifvqhfg","pricing_plan_id":"cebpf4jnsgd1na2vs0mg"},{"bike_id":"0693b9d6-4a9d-4e38-bfa2-80f934bcc2e3","system_id":"levelo_inurba_marseille","lat":43.24166,"lon":5.36385,"is_reserved":false,"is_disabled":false,"rental_uris":{"android":"levelo://app?vid=0693b9d6-4a9d-4e38-bfa2-80f934bcc2e3","ios":"levelo://app?vid=0693b9d6-4a9d-4e38-bfa2-80f934bcc2e3"},"vehicle_type_id":"4","last_reported":1740726611,"current_range_meters":17600,"station_id":"cpo36qri1sfpv3e86is0","pricing_plan_id":"cebpf4jnsgd1na2vs0mg"},{"bike_id":"8c86cb21-5e53-44c8-a766-70640a93721c","system_id":"levelo_inurba_marseille","lat":43.29194,"lon":5.37529,"is_reserved":false,"is_disabled":false,"rental_uris":{"android":"levelo://app?vid=8c86cb21-5e53-44c8-a766-70640a93721c","ios":"levelo://app?vid=8c86cb21-5e53-44c8-a766-70640a93721c"},"vehicle_type_id":"4","last_reported":1740726611,"current_range_meters":18000,"station_id":"","pricing_plan_id":"cebpf4jnsgd1na2vs0mg"},{"bike_id":"80f5e2ca-b4ad-4229-91a1-6e421c7593d9","system_id":"levelo_inurba_marseille","lat":43.28403,"lon":5.37524,"is_reserved":false,"is_disabled":false,"rental_uris":{"android":"levelo://app?vid=80f5e2ca-b4ad-4229-91a1-6e421c7593d9","ios":"levelo://app?vid=80f5e2ca-b4ad-4229-91a1-6e421c7593d9"},"vehicle_type_id":"4","last_reported":1740726611,"current_range_meters":18000,"station_id":"ce4bh412rcd13ifvqds0","pricing_plan_id":"cebpf4jnsgd1na2vs0mg"},{"bike_id":"b2f0255b-79e9-4f4d-8e37-42fd4276441f","system_id":"levelo_inurba_marseille","lat":43.28464,"lon":5.35892,"is_reserved":false,"is_disabled":false,"rental_uris":{"android":"levelo://app?vid=b2f0255b-79e9-4f4d-8e37-42fd4276441f","ios":"levelo://app?vid=b2f0255b-79e9-4f4d-8e37-42fd4276441f"},"vehicle_type_id":"4","last_reported":1740726611,"current_range_meters":18000,"station_id":"ce4bhah2rcd13ifvqei0","pricing_plan_id":"cebpf4jnsgd1na2vs0mg"},{"bike_id":"8d91c655-19ff-47c9-a3e3-8857cd75c678","system_id":"levelo_inurba_marseille","lat":43.24789,"lon":5.37467,"is_reserved":false,"is_disabled":false,"rental_uris":{"android":"levelo://app?vid=8d91c655-19ff-47c9-a3e3-8857cd75c678","ios":"levelo://app?vid=8d91c655-19ff-47c9-a3e3-8857cd75c678"},"vehicle_type_id":"4","last_reported":1740726611,"current_range_meters":18000,"station_id":"ce4bhgh2rcd13ifvqfb0","pricing_plan_id":"cebpf4jnsgd1na2vs0mg"},{"bike_id":"ae10a7e8-db3f-4733-a33b-81ecfefce384","system_id":"levelo_inurba_marseille","lat":43.24985,"lon":5.38928,"is_reserved":false,"is_disabled":false,"rental_uris":{"android":"levelo://app?vid=ae10a7e8-db3f-4733-a33b-81ecfefce384","ios":"levelo://app?vid=ae10a7e8-db3f-4733-a33b-81ecfefce384"},"vehicle_type_id":"4","last_reported":1740726611,"current_range_meters":18000,"station_id":"ce4bhgp2rcd13ifvqfd0","pricing_plan_id":"cebpf4jnsgd1na2vs0mg"},{"bike_id":"4015c440-7267-44b4-8be2-f4b87cb51aa9","system_id":"levelo_inurba_marseille","lat":43.255757,"lon":5.382357,"is_reserved":false,"is_disabled":false,"rental_uris":{"android":"levelo://app?vid=4015c440-7267-44b4-8be2-f4b87cb51aa9","ios":"levelo://app?vid=4015c440-7267-44b4-8be2-f4b87cb51aa9"},"vehicle_type_id":"4","last_reported":1740726611,"current_range_meters":18000,"station_id":"ce4bhih2rcd13ifvqfs0","pricing_plan_id":"cebpf4jnsgd1na2vs0mg"},{"bike_id":"aaa172cd-45f7-4933-a517-13aba58f3efa","system_id":"levelo_inurba_marseille","lat":43.27495,"lon":5.42453,"is_reserved":false,"is_disabled":false,"rental_uris":{"android":"levelo://app?vid=aaa172cd-45f7-4933-a517-13aba58f3efa","ios":"levelo://app?vid=aaa172cd-45f7-4933-a517-13aba58f3efa"},"vehicle_type_id":"4","last_reported":1740726611,"current_range_meters":18000,"station_id":"ce4bhn92rcd13ifvqgrg","pricing_plan_id":"cebpf4jnsgd1na2vs0mg"},{"bike_id":"5073d6b1-cc03-48db-bff0-46d070e14e93","system_id":"levelo_inurba_marseille","lat":43.31083,"lon":5.42441,"is_reserved":false,"is_disabled":false,"rental_uris":{"android":"levelo://app?vid=5073d6b1-cc03-48db-bff0-46d070e14e93","ios":"levelo://app?vid=5073d6b1-cc03-48db-bff0-46d070e14e93"},"vehicle_type_id":"4","last_reported":1740726611,"current_range_meters":18000,"station_id":"ce4bhp92rcd13ifvqhag","pricing_plan_id":"cebpf4jnsgd1na2vs0mg"},{"bike_id":"085d28c3-d678-460a-a2b0-03561e14272e","system_id":"levelo_inurba_marseille","lat":43.321089,"lon":5.367735,"is_reserved":false,"is_disabled":false,"rental_uris":{"android":"levelo://app?vid=085d28c3-d678-460a-a2b0-03561e14272e","ios":"levelo://app?vid=085d28c3-d678-460a-a2b0-03561e14272e"},"vehicle_type_id":"4","last_reported":1740726611,"current_range_meters":18000,"station_id":"ce4bhrh2rcd13ifvqhug","pricing_plan_id":"cebpf4jnsgd1na2vs0mg"},