{"last_updated":1758889193,"ttl":60,"version":"2.2","data":{"bikes":[{"bike_id":"a974638e-2204-4011-beb5-f85416fc2c79","system_id":"levelo_inurba_marseille","lat":43.286964,"lon":5.387728,"is_reserved":false,"is_disabled":false,"rental_uris":{"android":"levelo://app?vid=a974638e-2204-4011-beb5-f85416fc2c79","ios":"levelo://app?vid=a974638e-2204-4011-beb5-f85416fc2c79"},"vehicle_type_id":"4","last_reported":1758889193,"current_range_meters":2800,"station_id":"ce4bhap2rcd13ifvqek0","pricing_plan_id":"cebpf4jnsgd1na2vs0mg"},{"bike_id":"e30fb832-f3d4-4a59-abaa-35decf7a1a97","system_id":"levelo_inurba_marseille","lat":43.28693,"lon":5.39977,"is_reserved":false,"is_disabled":false,"rental_uris":{"android":"levelo://app?vid=e30fb832-f3d4-4a59-abaa-35decf7a1a97","ios":"levelo://app?vid=e30fb832-f3d4-4a59-abaa-35decf7a1a97"},"vehicle_type_id":"4","last_reported":1758889193,"current_range_meters":2800,"station_id":"ce4bho92rcd13ifvqh3g","pricing_plan_id":"cebpf4jnsgd1na2vs0mg"},{"bike_id":"1479cfa0-b224-46ce-9011-8899197982ed","system_id":"levelo_inurba_marseille","lat":43.3019,"lon":5.37531,"is_reserved":false,"is_disabled":false,"rental_uris":{"android":"levelo://app?vid=1479cfa0-b224-46ce-9011-8899197982ed","ios":"levelo://app?vid=1479cfa0-b224-46ce-9011-8899197982ed"},"vehicle_type_id":"4","last_reported":1758889193,"current_range_meters":2800,"station_id":"","pricing_plan_id":"cebpf4jnsgd1na2vs0mg"},{"bike_id":"0c8e7c8f-af0d-46a4-ab1d-f4d437f03358","system_id":"levelo_inurba_marseille","lat":43.24949,"lon":5.40489,"is_reserved":false,"is_disabled":false,"rental_uris":{"android":"levelo://app?vid=0c8e7c8f-af0d-46a4-ab1d-f4d437f03358","ios":"levelo://app?vid=0c8e7c8f-af0d-46a4-ab1d-f4d437f03358"},"vehicle_type_id":"4","last_reported":1758889193,"current_range_meters":2800,"station_id":"st_d2ngiaodas8pm72gd1h0","pricing_plan_id":"cebpf4jnsgd1na2vs0mg"},{"bike_id":"9c4a7bdb-c552-4dfd-8efb-40b9e0b0b147","system_id":"levelo_inurba_marseille","lat":43.30924,"lon":5.36727,"is_reserved":false,"is_disabled":false,"rental_uris":{"android":"levelo://app?vid=9c4a7bdb-c552-4dfd-8efb-40b9e0b0b147","ios":"levelo://app?vid=9c4a7bdb-c552-4dfd-8efb-40b9e0b0b147"},"vehicle_type_id":"4","last_reported":1758889193,"current_range_meters":2800,"station_id":"","pricing_plan_id":"cebpf4jnsgd1na2vs0mg"},{"bike_id":"a691c84a-35b6-4cd9-9917-6b752e012ca7","system_id":"levelo_inurba_marseille","lat":43.30156,"lon":5.3809,"is_reserved":false,"is_disabled":true,"rental_uris":{"android":"levelo://app?vid=a691c84a-35b6-4cd9-9917-6b752e012ca7","ios":"levelo://app?vid=a691c84a-35b6-4cd9-9917-6b752e012ca7"},"vehicle_type_id":"4","last_reported":1758889193,"current_range_meters":2800,"station_id":"ce4bgjp2rcd13ifvqbh0","pricing_plan_id":"cebpf4jnsgd1na2vs0mg"},{"bike_id":"8197319d-9838-45bc-b365-3a43c563dcfc","system_id":"levelo_inurba_marseille","lat":43.30546,"lon":5.36549,"is_reserved":false,"is_disabled":false,"rental_uris":{"android":"levelo://app?vid=8197319d-9838-45bc-b365-3a43c563dcfc","ios":"levelo://app?vid=8197319d-9838-45bc-b365-3a43c563dcfc"},"vehicle_type_id":"4","last_reported":1758889193,"current_range_meters":2800,"station_id":"ce4bgs12rcd13ifvqcag","pricing_plan_id":"cebpf4jnsgd1na2vs0mg"},{"bike_id":"f6a953ad-3276-41d5-a6c3-a096b57c59a6","system_id":"levelo_inurba_marseille","lat":43.28494,"lon":5.38568,"is_reserved":false,"is_disabled":false,"rental_uris":{"android":"levelo://app?vid=f6a953ad-3276-41d5-a6c3-a096b57c59a6","ios":"levelo://app?vid=f6a953ad-3276-41d5-a6c3-a096b57c59a6"},"vehicle_type_id":"4","last_reported":1758889193,"current_range_meters":2800,"station_id":"ce4bh8p2rcd13ifvqeb0","pricing_plan_id":"cebpf4jnsgd1na2vs0mg"},{"bike_id":"5ed383bd-9fff-48d2-910e-a12760085b5a","system_id":"levelo_inurba_marseille","lat":43.22939,"lon":5.35378,"is_reserved":false,"is_disabled":false,"rental_uris":{"android":"levelo://app?vid=5ed383bd-9fff-48d2-910e-a12760085b5a","ios":"levelo://app?vid=5ed383bd-9fff-48d2-910e-a12760085b5a"},"vehicle_type_id":"4","last_reported":1758889193,"current_range_meters":3200,"station_id":"cpo3532slgdg3j2ikp40","pricing_plan_id":"cebpf4jnsgd1na2vs0mg"},{"bike_id":"33e8d6cb-4512-4ba4-a272-dcad378b7ca6","system_id":"levelo_inurba_marseille","lat":43.30604,"lon":5.37226,"is_reserved":false,"is_disabled":false,"rental_uris":{"android":"levelo://app?vid=33e8d6cb-4512-4ba4-a272-dcad378b7ca6","ios":"levelo://app?vid=33e8d6cb-4512-4ba4-a272-dcad378b7ca6"},"vehicle_type_id":"4","last_reported":1758889193,"current_range_meters":4000,"station_id":"ce4bgqh2rcd13ifvqc4g","pricing_plan_id":"cebpf4jnsgd1na2vs0mg"},{"bike_id":"ef732569-efe7-4bf3-8093-1917fd9bd759","system_id":"levelo_inurba_marseille","lat":43.30956,"lon":5.39022,"is_reserved":false,"is_disabled":false,"rental_uris":{"android":"levelo://app?vid=ef732569-efe7-4bf3-8093-1917fd9bd759","ios":"levelo://app?vid=ef732569-efe7-4bf3-8093-1917fd9bd759"},"vehicle_type_id":"4","last_reported":1758889193,"current_range_meters":3200,"station_id":"ce4bgup2rcd13ifvqco0","pricing_plan_id":"cebpf4jnsgd1na2vs0mg"},{"bike_id":"be37b563-7e2d-475f-a570-ffcb044a1e9a","system_id":"levelo_inurba_marseille","lat":43.29543,"lon":5.38549,"is_reserved":false,"is_disabled":false,"rental_uris":{"android":"levelo://app?vid=be37b563-7e2d-475f-a570-ffcb044a1e9a","ios":"levelo://app?vid=be37b563-7e2d-475f-a570-ffcb044a1e9a"},"vehicle_type_id":"4","last_reported":1758889193,"current_range_meters":3200,"station_id":"ce4bgih2rcd13ifvqba0","pricing_plan_id":"cebpf4jnsgd1na2vs0mg"},{"bike_id":"9c24a318-ca60-48a1-9ce1-7b6ead33ffe4","system_id":"levelo_inurba_marseille","lat":43.305573,"lon":5.365539,"is_reserved":false,"is_disabled":false,"rental_uris":{"android":"levelo://app?vid=9c24a318-ca60-48a1-9ce1-7b6ead33ffe4","ios":"levelo://app?vid=9c24a318-ca60-48a1-9ce1-7b6ead33ffe4"},"vehicle_type_id":"4","last_reported":1758889193,"current_range_meters":3600,"station_id":"ce4bgs12rcd13ifvqcag","pricing_plan_id":"cebpf4jnsgd1na2vs0mg"},{"bike_id":"565a0112-5b88-4a6f-8df7-08b703407b4f","system_id":"levelo_inurba_marseille","lat":43.21193,"lon":5.35074,"is_reserved":false,"is_disabled":false,"rental_uris":{"android":"levelo://app?vid=565a0112-5b88-4a6f-8df7-08b703407b4f","ios":"levelo://app?vid=565a0112-5b88-4a6f-8df7-08b703407b4f"},"vehicle_type_id":"4","last_reported":1758889193,"current_range_meters":3600,"station_id":"","pricing_plan_id":"cebpf4jnsgd1na2vs0mg"},{"bike_id":"0bea590d-d1b7-41ee-8901-bc213007752b","system_id":"levelo_inurba_marseille","lat":43.30436,"lon":5.38886,"is_reserved":false,"is_disabled":false,"rental_uris":{"android":"levelo://app?vid=0bea590d-d1b7-41ee-8901-bc213007752b","ios":"levelo://app?vid=0bea590d-d1b7-41ee-8901-bc213007752b"},"vehicle_type_id":"4","last_reported":1758889193,"current_range_meters":4800,"station_id":"ce4bgk12rcd13ifvqbi0","pricing_plan_id":"cebpf4jnsgd1na2vs0mg"},{"bike_id":"58bcb43d-c000-4e3e-b004-30450f57645b","system_id":"levelo_inurba_marseille","lat":43.29527,"lon":5.37448,"is_reserved":false,"is_disabled":true,"rental_uris":{"android":"levelo://app?vid=58bcb43d-c000-4e3e-b004-30450f57645b","ios":"levelo://app?vid=58bcb43d-c000-4e3e-b004-30450f57645b"},"vehicle_type_id":"4","last_reported":1758889193,"current_range_meters":3600,"station_id":"","pricing_plan_id":"cebpf4jnsgd1na2vs0mg"},{"bike_id":"522a2fec-54e5-43ac-9525-c4416196b8f3","system_id":"levelo_inurba_marseille","lat":43.286102,"lon":5.370699,"is_reserved":false,"is_disabled":false,"rental_uris":{"android":"levelo://app?vid=522a2fec-54e5-43ac-9525-c4416196b8f3","ios":"levelo://app?vid=522a2fec-54e5-43ac-9525-c4416196b8f3"},"vehicle_type_id":"4","last_reported":1758889193,"current_range_meters":3600,"station_id":"ce4bht12rcd13ifvqi60","pricing_plan_id":"cebpf4jnsgd1na2vs0mg"},{"bike_id":"438ead59-de14-4fa0-a61d-03a70a4122ae","system_id":"levelo_inurba_marseille","lat":43.97269,"lon":4.89111,"is_reserved":false,"is_disabled":true,"rental_uris":{"android":"levelo://app?vid=438ead59-de14-4fa0-a61d-03a70a4122ae","ios":"levelo://app?vid=438ead59-de14-4fa0-a61d-03a70a4122ae"},"vehicle_type_id":"4","last_reported":1758889193,"current_range_meters":3600,"station_id":"","pricing_plan_id":"cebpf4jnsgd1na2vs0mg"},{"bike_id":"5196de95-2c54-46e0-a356-4a3fa6a437b0","system_id":"levelo_inurba_marseille","lat":43.26565,"lon":5.39004,"is_reserved":false,"is_disabled":false,"rental_uris":{"android":"levelo://app?vid=5196de95-2c54-46e0-a356-4a3fa6a437b0","ios":"levelo://app?vid=5196de95-2c54-46e0-a356-4a3fa6a437b0"},"vehicle_type_id":"4","last_reported":1758889193,"current_range_meters":3600,"station_id":"ce4bhe12rcd13ifvqf30","pricing_plan_id":"cebpf4jnsgd1na2vs0mg"},{"bike_id":"17257e3c-82ea-40eb-9a4c-826dcfc5952a","system_id":"levelo_inurba_marseille","lat":43.28935,"lon":5.36637,"is_reserved":false,"is_disabled":false,"rental_uris":{"android":"levelo://app?vid=17257e3c-82ea-40eb-9a4c-826dcfc5952a","ios":"levelo://app?vid=17257e3c-82ea-40eb-9a4c-826dcfc5952a"},"vehicle_type_id":"4","last_reported":1758889193,"current_range_meters":4000,"station_id":"ce4bhap2rcd13ifvqek0","pricing_plan_id":"cebpf4jnsgd1na2vs0mg"},{"bike_id":"0c81b40b-1c40-4984-9001-de11236803c2","system_id":"levelo_inurba_marseille","lat":43.25082,"lon":5.39507,"is_reserved":false,"is_disabled":false,"rental_uris":{"android":"levelo://app?vid=0c81b40b-1c40-4984-9001-de11236803c2","ios":"levelo://app?vid=0c81b40b-1c40-4984-9001-de11236803c2"},"vehicle_type_id":"4","last_reported":1758889193,"current_range_meters":4400,"station_id":"ce4bhm12rcd13ifvqgkg","pricing_plan_id":"cebpf4jnsgd1na2vs0mg"},{"bike_id":"d926bbac-6e16-4aa7-95e1-2b37b1a47e67","system_id":"levelo_inurba_marseille","lat":43.2796,"lon":5.38706,"is_reserved":false,"is_disabled":false,"rental_uris":{"android":"levelo://app?vid=d926bbac-6e16-4aa7-95e1-2b37b1a47e67","ios":"levelo://app?vid=d926bbac-6e16-4aa7-95e1-2b37b1a47e67"},"vehicle_type_id":"4","last_reported":1758889193,"current_range_meters":4400,"station_id":"ce4bhg12rcd13ifvqf80","pricing_plan_id":"cebpf4jnsgd1na2vs0mg"},{"bike_id":"7368a520-1958-4d28-99a0-89e3f6f0674a","system_id":"levelo_inurba_marseille","lat":43.30142,"lon":5.39852,"is_reserved":false,"is_disabled":false,"rental_uris":{"android":"levelo://app?vid=7368a520-1958-4d28-99a0-89e3f6f0674a","ios":"levelo://app?vid=7368a520-1958-4d28-99a0-89e3f6f0674a"},"vehicle_type_id":"4","last_reported":1758889193,"current_range_meters":4800,"station_id":"ce4bh0h2rcd13ifvqd40","pricing_plan_id":"cebpf4jnsgd1na2vs0mg"},{"bike_id":"b14479ee-2900-4e1e-9f76-5b07fb31bca1","system_id":"levelo_inurba_marseille","lat":43.30436,"lon":5.38884,"is_reserved":false,"is_disabled":false,"rental_uris":{"android":"levelo://app?vid=b14479ee-2900-4e1e-9f76-5b07fb31bca1","ios":"levelo://app?vid=b14479ee-2900-4e1e-9f76-5b07fb31bca1"},"vehicle_type_id":"4","last_reported":1758889193,"current_range_meters":4800,"station_id":"ce4bgk12rcd13ifvqbi0","pricing_plan_id":"cebpf4jnsgd1na2vs0mg"},{"bike_id":"76d93da8-398c-4d0b-84a3-c9bad6d6bd7b","system_id":"levelo_inurba_marseille","lat":43.24806,"lon":5.37445,"is_reserved":false,"is_disabled":false,"rental_uris":{"android":"levelo://app?vid=76d93da8-398c-4d0b-84a3-c9bad6d6bd7b","ios":"levelo://app?vid=76d93da8-398c-4d0b-84a3-c9bad6d6bd7b"},"vehicle_type_id":"4","last_reported":1758889193,"current_range_meters":4800,"station_id":"ce4bhgh2rcd13ifvqfb0","pricing_plan_id":"cebpf4jnsgd1na2vs0mg"},{"bike_id":"1b2ddce9-f0ec-4cd6-bb66-f351e8a462cb","system_id":"levelo_inurba_marseille","lat":43.2749,"lon":5.42439,"is_reserved":false,"is_disabled":false,"rental_uris":{"android":"levelo://app?vid=1b2ddce9-f0ec-4cd6-bb66-f351e8a462cb","ios":"levelo://app?vid=1b2ddce9-f0ec-4cd6-bb66-f351e8a462cb"},"vehicle_type_id":"4","last_reported":1758889193,"current_range_meters":4800,"station_id":"ce4bhn92rcd13ifvqgrg","pricing_plan_id":"cebpf4jnsgd1na2vs0mg"},{"bike_id":"55fd6417-0582-47b4-82b6-539750d3cb48","system_id":"levelo_inurba_marseille","lat":43.29026,"lon":5.38641,"is_reserved":false,"is_disabled":false,"rental_uris":{"android":"levelo://app?vid=55fd6417-0582-47b4-82b6-539750d3cb48","ios":"levelo://app?vid=55fd6417-0582-47b4-82b6-539750d3cb48"},"vehicle_type_id":"4","last_reported":1758889193,"current_range_meters":4800,"station_id":"ce4bh4p2rcd13ifvqe0g","pricing_plan_id":"cebpf4jnsgd1na2vs0mg"},{"bike_id":"97232e82-3397-419e-b5da-2e226f19be32","system_id":"levelo_inurba_marseille","lat":43.27949,"lon":5.41045,"is_reserved":false,"is_disabled":false,"rental_uris":{"android":"levelo://app?vid=97232e82-3397-419e-b5da-2e226f19be32","ios":"levelo://app?vid=97232e82-3397-419e-b5da-2e226f19be32"},"vehicle_type_id":"4","last_reported":1758889193,"current_range_meters":5600,"station_id":"ce4bhnp2rcd13ifvqh0g","pricing_plan_id":"cebpf4jnsgd1na2vs0mg"},{"bike_id":"f75934d5-916e-4345-8c34-7d8e7552e2d8","system_id":"levelo_inurba_marseille","lat":43.30611,"lon":5.37215,"is_reserved":false,"is_disabled":false,"rental_uris":{"android":"levelo://app?vid=f75934d5-916e-4345-8c34-7d8e7552e2d8","ios":"levelo://app?vid=f75934d5-916e-4345-8c34-7d8e7552e2d8"},"vehicle_type_id":"4","last_reported":1758889193,"current_range_meters":5600,"station_id":"ce4bgqh2rcd13ifvqc4g","pricing_plan_id":"cebpf4jnsgd1na2vs0mg"},{"bike_id":"6cfb835d-47c2-4280-9fcf-8e08c436a41d","system_id":"levelo_inurba_marseille","lat":43.3372,"lon":5.39186,"is_reserved":false,"is_disabled":false,"rental_uris":{"android":"levelo://app?vid=6cfb835d-47c2-4280-9fcf-8e08c436a41d","ios":"levelo://app?vid=6cfb835d-47c2-4280-9fcf-8e08c436a41d"},"vehicle_type_id":"4","last_reported":1758889193,"current_range_meters":5600,"station_id":"ce4bhr92rcd13ifvqhsg","pricing_plan_id":"cebpf4jnsgd1na2vs0mg"},{"bike_id":"b0e65e99-3bb0-47ea-ac88-d8ae408a9133","system_id":"levelo_inurba_marseille","lat":43.27936,"lon":5.41023,"is_reserved":false,"is_disabled":false,"rental_uris":{"android":"levelo://app?vid=b0e65e99-3bb0-47ea-ac88-d8ae408a9133","ios":"levelo://app?vid=b0e65e99-3bb0-47ea-ac88-d8ae408a9133"},"vehicle_type_id":"4","last_reported":1758889193,"current_range_meters":5600,"station_id":"ce4bhnp2rcd13ifvqh0g","pricing_plan_id":"cebpf4jnsgd1na2vs0mg"},{"bike_id":"3bd489e5-2659-4c74-b36b-70a17cc86db1","system_id":"levelo_inurba_marseille","lat":43.23387,"lon":5.3599,"is_reserved":false,"is_disabled":false,"rental_uris":{"android":"levelo://app?vid=3bd489e5-2659-4c74-b36b-70a17cc86db1","ios":"levelo://app?vid=3bd489e5-2659-4c74-b36b-70a17cc86db1"},"vehicle_type_id":"4","last_reported":1758889193,"current_range_meters":6000,"station_id":"","pricing_plan_id":"cebpf4jnsgd1na2vs0mg"},{"bike_id":"56de87df-aa86-4dd7-a3a9-00d07311a032","system_id":"levelo_inurba_marseille","lat":43.23155,"lon":5.43707,"is_reserved":false,"is_disabled":false,"rental_uris":{"android":"levelo://app?vid=56de87df-aa86-4dd7-a3a9-00d07311a032","ios":"levelo://app?vid=56de87df-aa86-4dd7-a3a9-00d07311a032"},"vehicle_type_id":"4","last_reported":1758889193,"current_range_meters":6000,"station_id":"ce4bhmp2rcd13ifvqgog","pricing_plan_id":"cebpf4jnsgd1na2vs0mg"},{"bike_id":"afb5f42c-bc92-4753-b8b5-463a6aed8244","system_id":"levelo_inurba_marseille","lat":43.30089,"lon":5.39081,"is_reserved":false,"is_disabled":false,"rental_uris":{"android":"levelo://app?vid=afb5f42c-bc92-4753-b8b5-463a6aed8244","ios":"levelo://app?vid=afb5f42c-bc92-4753-b8b5-463a6aed8244"},"vehicle_type_id":"4","last_reported":1758889193,"current_range_meters":6000,"station_id":"","pricing_plan_id":"cebpf4jnsgd1na2vs0mg"},{"bike_id":"19af61c2-2bba-460c-9c39-821db796a128","system_id":"levelo_inurba_marseille","lat":43.304626,"lon":5.378999,"is_reserved":false,"is_disabled":false,"rental_uris":{"android":"levelo://app?vid=19af61c2-2bba-460c-9c39-821db796a128","ios":"levelo://app?vid=19af61c2-2bba-460c-9c39-821db796a128"},"vehicle_type_id":"4","last_reported":1758889193,"current_range_meters":6400,"station_id":"ce4bgup2rcd13ifvqcn0","pricing_plan_id":"cebpf4jnsgd1na2vs0mg"},{"bike_id":"339a87dd-b63b-4fcc-9095-5d0b56e46162","system_id":"levelo_inurba_marseille","lat":43.284313,"lon":5.349656,"is_reserved":false,"is_disabled":false,"rental_uris":{"android":"levelo://app?vid=339a87dd-b63b-4fcc-9095-5d0b56e46162","ios":"levelo://app?vid=339a87dd-b63b-4fcc-9095-5d0b56e46162"},"vehicle_type_id":"4","last_reported":1758889193,"current_range_meters":6400,"station_id":"ce4bhbh2rcd13ifvqepg","pricing_plan_id":"cebpf4jnsgd1na2vs0mg"},{"bike_id":"6b223fb2-599c-489c-8c94-92b17a6c1ac7","system_id":"levelo_inurba_marseille","lat":43.28677,"lon":5.38675,"is_reserved":false,"is_disabled":false,"rental_uris":{"android":"levelo://app?vid=6b223fb2-599c-489c-8c94-92b17a6c1ac7","ios":"levelo://app?vid=6b223fb2-599c-489c-8c94-92b17a6c1ac7"},"vehicle_type_id":"4","last_reported":1758889193,"current_range_meters":6400,"station_id":"ce4bh492rcd13ifvqdug","pricing_plan_id":"cebpf4jnsgd1na2vs0mg"},{"bike_id":"2fb63b2d-5765-4226-8557-15a885b92fad","system_id":"levelo_inurba_marseille","lat":43.25816,"lon":5.3943,"is_reserved":false,"is_disabled":false,"rental_uris":{"android":"levelo://app?vid=2fb63b2d-5765-4226-8557-15a885b92fad","ios":"levelo://app?vid=2fb63b2d-5765-4226-8557-15a885b92fad"},"vehicle_type_id":"4","last_reported":1758889193,"current_range_meters":6000,"station_id":"ce4bhip2rcd13ifvqft0","pricing_plan_id":"cebpf4jnsgd1na2vs0mg"},{"bike_id":"2e182951-8b10-4026-b924-3b67584f196b","system_id":"levelo_inurba_marseille","lat":43.30378,"lon":5.42484,"is_reserved":false,"is_disabled":false,"rental_uris":{"android":"levelo://app?vid=2e182951-8b10-4026-b924-3b67584f196b","ios":"levelo://app?vid=2e182951-8b10-4026-b924-3b67584f196b"},"vehicle_type_id":"4","last_reported":1758889193,"current_range_meters":6800,"station_id":"ce4bhoh2rcd13ifvqh6g","pricing_plan_id":"cebpf4jnsgd1na2vs0mg"},{"bike_id":"64b6bbe3-afe7-422a-b093-72c58591ac3b","system_id":"levelo_inurba_marseille","lat":43.30311,"lon":5.36889,"is_reserved":false,"is_disabled":false,"rental_uris":{"android":"levelo://app?vid=64b6bbe3-afe7-422a-b093-72c58591ac3b","ios":"levelo://app?vid=64b6bbe3-afe7-422a-b093-72c58591ac3b"},"vehicle_type_id":"4","last_reported":1758889193,"current_range_meters":6800,"station_id":"ce4bgqh2rcd13ifvqc5g","pricing_plan_id":"cebpf4jnsgd1na2vs0mg"},{"bike_id":"5b785971-eda6-402c-8c25-cddbda415c9d","system_id":"levelo_inurba_marseille","lat":43.33613,"lon":5.41023,"is_reserved":false,"is_disabled":false,"rental_uris":{"android":"levelo://app?vid=5b785971-eda6-402c-8c25-cddbda415c9d","ios":"levelo://app?vid=5b785971-eda6-402c-8c25-cddbda415c9d"},"vehicle_type_id":"4","last_reported":1758889193,"current_range_meters":6800,"station_id":"ce4bhqh2rcd13ifvqhmg","pricing_plan_id":"cebpf4jnsgd1na2vs0mg"},{"bike_id":"ae376ddc-a216-4f09-afdf-49664ba8a197","system_id":"levelo_inurba_marseille","lat":43.29094,"lon":5.38149,"is_reserved":false,"is_disabled":false,"rental_uris":{"android":"levelo://app?vid=ae376ddc-a216-4f09-afdf-49664ba8a197","ios":"levelo://app?vid=ae376ddc-a216-4f09-afdf-49664ba8a197"},"vehicle_type_id":"4","last_reported":1758889193,"current_range_meters":11600,"station_id":"ce4bh512rcd13ifvqe2g","pricing_plan_id":"cebpf4jnsgd1na2vs0mg"},{"bike_id":"cba8aa6c-7f74-4030-af1a-03009ce82c0e","system_id":"levelo_inurba_marseille","lat":43.28153,"lon":5.42644,"is_reserved":false,"is_disabled":false,"rental_uris":{"android":"levelo://app?vid=cba8aa6c-7f74-4030-af1a-03009ce82c0e","ios":"levelo://app?vid=cba8aa6c-7f74-4030-af1a-03009ce82c0e"},"vehicle_type_id":"4","last_reported":1758889193,"current_range_meters":7200,"station_id":"ce4bhnh2rcd13ifvqgug","pricing_plan_id":"cebpf4jnsgd1na2vs0mg"},{"bike_id":"287359f9-bda0-4a1f-9d66-09cab25d4b7e","system_id":"levelo_inurba_marseille","lat":43.29979,"lon":5.37177,"is_reserved":false,"is_disabled":false,"rental_uris":{"android":"levelo://app?vid=287359f9-bda0-4a1f-9d66-09cab25d4b7e","ios":"levelo://app?vid=287359f9-bda0-4a1f-9d66-09cab25d4b7e"},"vehicle_type_id":"4","last_reported":1758889193,"current_range_meters":6800,"station_id":"ce4bgr92rcd13ifvqc7g","pricing_plan_id":"cebpf4jnsgd1na2vs0mg"},{"bike_id":"609b66dc-73b6-4ac9-8d39-ece135c0c59b","system_id":"levelo_inurba_marseille","lat":43.29071,"lon":5.37166,"is_reserved":false,"is_disabled":false,"rental_uris":{"android":"levelo://app?vid=609b66dc-73b6-4ac9-8d39-ece135c0c59b","ios":"levelo://app?vid=609b66dc-73b6-4ac9-8d39-ece135c0c59b"},"vehicle_type_id":"4","last_reported":1758889193,"current_range_meters":7200,"station_id":"ce4bh5p2rcd13ifvqe4g","pricing_plan_id":"cebpf4jnsgd1na2vs0mg"},{"bike_id":"379911e0-a8b9-4b05-96ac-c75be54d3c45","system_id":"levelo_inurba_marseille","lat":43.28864,"lon":5.42529,"is_reserved":false,"is_disabled":false,"rental_uris":{"android":"levelo://app?vid=379911e0-a8b9-4b05-96ac-c75be54d3c45","ios":"levelo://app?vid=379911e0-a8b9-4b05-96ac-c75be54d3c45"},"vehicle_type_id":"4","last_reported":1758889193,"current_range_meters":7200,"station_id":"","pricing_plan_id":"cebpf4jnsgd1na2vs0mg"},{"bike_id":"00e8a9fd-c2aa-4bd0-a1e2-b5cc529034eb","system_id":"levelo_inurba_marseille","lat":43.30148,"lon":5.37396,"is_reserved":false,"is_disabled":false,"rental_uris":{"android":"levelo://app?vid=00e8a9fd-c2aa-4bd0-a1e2-b5cc529034eb","ios":"levelo://app?vid=00e8a9fd-c2aa-4bd0-a1e2-b5cc529034eb"},"vehicle_type_id":"4","last_reported":1758889193,"current_range_meters":7200,"station_id":"ce4bgs92rcd13ifvqcc0","pricing_plan_id":"cebpf4jnsgd1na2vs0mg"},{"bike_id":"96d9d290-3482-406b-a187-2a8b12ccabb2","system_id":"levelo_inurba_marseille","lat":43.28995,"lon":5.37129,"is_reserved":false,"is_disabled":false,"rental_uris":{"android":"levelo://app?vid=96d9d290-3482-406b-a187-2a8b12ccabb2","ios":"levelo://app?vid=96d9d290-3482-406b-a187-2a8b12ccabb2"},"vehicle_type_id":"4","last_reported":1758889193,"current_range_meters":8000,"station_id":"","pricing_plan_id":"cebpf4jnsgd1na2vs0mg"},{"bike_id":"1fc23009-a2de-4973-a24d-c18b8fecd905","system_id":"levelo_inurba_marseille","lat":43.2495,"lon":5.40486,"is_reserved":false,"is_disabled":false,"rental_uris":{"android":"levelo://app?vid=1fc23009-a2de-4973-a24d-c18b8fecd905","ios":"levelo://app?vid=1fc23009-a2de-4973-a24d-c18b8fecd905"},"vehicle_type_id":"4","last_reported":1758889193,"current_range_meters":8000,"station_id":"st_d2ngiaodas8pm72gd1h0","pricing_plan_id":"cebpf4jnsgd1na2vs0mg"},{"bike_id":"899de398-88d5-47c0-aa8c-bda9a8bd5e50","system_id":"levelo_inurba_marseille","lat":43.3176,"lon":5.3901,"is_reserved":false,"is_disabled":false,"rental_uris":{"android":"levelo://app?vid=899de398-88d5-47c0-aa8c-bda9a8bd5e50","ios":"levelo://app?vid=899de398-88d5-47c0-aa8c-bda9a8bd5e50"},"vehicle_type_id":"4","last_reported":1758889193,"current_range_meters":8000,"station_id":"ce4bhqp2rcd13ifvqhng","pricing_plan_id":"cebpf4jnsgd1na2vs0mg"},{"bike_id":"68f4dbb3-2b10-4cd4-93bd-b3872cf9f8a5","system_id":"levelo_inurba_marseille","lat":43.2408,"lon":5.37759,"is_reserved":false,"is_disabled":false,"rental_uris":{"android":"levelo://app?vid=68f4dbb3-2b10-4cd4-93bd-b3872cf9f8a5","ios":"levelo://app?vid=68f4dbb3-2b10-4cd4-93bd-b3872cf9f8a5"},"vehicle_type_id":"4","last_reported":1758889193,"current_range_meters":8000,"station_id":"ce4bhnp2rcd13ifvqgvg","pricing_plan_id":"cebpf4jnsgd1na2vs0mg"},{"bike_id":"07521ae0-47f7-4bb5-a49e-a13c40b0c5e9","system_id":"levelo_inurba_marseille","lat":43.28933,"lon":5.38404,"is_reserved":false,"is_disabled":false,"rental_uris":{"android":"levelo://app?vid=07521ae0-47f7-4bb5-a49e-a13c40b0c5e9","ios":"levelo://app?vid=07521ae0-47f7-4bb5-a49e-a13c40b0c5e9"},"vehicle_type_id":"4","last_reported":1758889193,"current_range_meters":8000,"station_id":"ce4bh612rcd13ifvqe6g","pricing_plan_id":"cebpf4jnsgd1na2vs0mg"},{"bike_id":"90648e0d-c042-4487-8d49-e3c04af27ba4","system_id":"levelo_inurba_marseille","lat":43.29633,"lon":5.40634,"is_reserved":false,"is_disabled":false,"rental_uris":{"android":"levelo://app?vid=90648e0d-c042-4487-8d49-e3c04af27ba4","ios":"levelo://app?vid=90648e0d-c042-4487-8d49-e3c04af27ba4"},"vehicle_type_id":"4","last_reported":1758889193,"current_range_meters":8400,"station_id":"ce4bh0h2rcd13ifvqd60","pricing_plan_id":"cebpf4jnsgd1na2vs0mg"},{"bike_id":"09f62ba6-af65-412e-aa52-83df4d376991","system_id":"levelo_inurba_marseille","lat":43.31104,"lon":5.36758,"is_reserved":false,"is_disabled":false,"rental_uris":{"android":"levelo://app?vid=09f62ba6-af65-412e-aa52-83df4d376991","ios":"levelo://app?vid=09f62ba6-af65-412e-aa52-83df4d376991"},"vehicle_type_id":"4","last_reported":1758889193,"current_range_meters":8400,"station_id":"","pricing_plan_id":"cebpf4jnsgd1na2vs0mg"},{"bike_id":"8eae954c-dab6-4303-94f5-569e1c483f62","system_id":"levelo_inurba_marseille","lat":43.2947,"lon":5.4074,"is_reserved":false,"is_disabled":false,"rental_uris":{"android":"levelo://app?vid=8eae954c-dab6-4303-94f5-569e1c483f62","ios":"levelo://app?vid=8eae954c-dab6-4303-94f5-569e1c483f62"},"vehicle_type_id":"4","last_reported":1758889193,"current_range_meters":8400,"station_id":"","pricing_plan_id":"cebpf4jnsgd1na2vs0mg"},{"bike_id":"795204bb-99a2-4e80-ba94-c718ee0bccc2","system_id":"levelo_inurba_marseille","lat":43.30954,"lon":5.39034,"is_reserved":false,"is_disabled":false,"rental_uris":{"android":"levelo://app?vid=795204bb-99a2-4e80-ba94-c718ee0bccc2","ios":"levelo://app?vid=795204bb-99a2-4e80-ba94-c718ee0bccc2"},"vehicle_type_id":"4","last_reported":1758889193,"current_range_meters":8400,"station_id":"ce4bgup2rcd13ifvqco0","pricing_plan_id":"cebpf4jnsgd1na2vs0mg"},{"bike_id":"234f9897-ca2f-4a17-807c-faef05729c1e","system_id":"levelo_inurba_marseille","lat":43.30537,"lon":5.36721,"is_reserved":false,"is_disabled":false,"rental_uris":{"android":"levelo://app?vid=234f9897-ca2f-4a17-807c-faef05729c1e","ios":"levelo://app?vid=234f9897-ca2f-4a17-807c-faef05729c1e"},"vehicle_type_id":"4","last_reported":1758889193,"current_range_meters":8400,"station_id":"ce4bgrp2rcd13ifvqc9g","pricing_plan_id":"cebpf4jnsgd1na2vs0mg"},{"bike_id":"bdec3261-de13-477f-818b-7af8ae1d1f6a","system_id":"levelo_inurba_marseille","lat":43.23964,"lon":5.37688,"is_reserved":false,"is_disabled":false,"rental_uris":{"android":"levelo://app?vid=bdec3261-de13-477f-818b-7af8ae1d1f6a","ios":"levelo://app?vid=bdec3261-de13-477f-818b-7af8ae1d1f6a"},"vehicle_type_id":"4","last_reported":1758889193,"current_range_meters":8400,"station_id":"","pricing_plan_id":"cebpf4jnsgd1na2vs0mg"},{"bike_id":"6e3d5cbf-4490-4517-89d9-faa1b26c6428","system_id":"levelo_inurba_marseille","lat":43.24074,"lon":5.37762,"is_reserved":false,"is_disabled":false,"rental_uris":{"android":"levelo://app?vid=6e3d5cbf-4490-4517-89d9-faa1b26c6428","ios":"levelo://app?vid=6e3d5cbf-4490-4517-89d9-faa1b26c6428"},"vehicle_type_id":"4","last_reported":1758889193,"current_range_meters":8400,"station_id":"ce4bhnp2rcd13ifvqgvg","pricing_plan_id":"cebpf4jnsgd1na2vs0mg"},{"bike_id":"5f9328d1-0542-4cdd-83ba-8a3f8de9d82b","system_id":"levelo_inurba_marseille","lat":43.255854,"lon":5.382373,"is_reserved":false,"is_disabled":false,"rental_uris":{"android":"levelo://app?vid=5f9328d1-0542-4cdd-83ba-8a3f8de9d82b","ios":"levelo://app?vid=5f9328d1-0542-4cdd-83ba-8a3f8de9d82b"},"vehicle_type_id":"4","last_reported":1758889193,"current_range_meters":8400,"station_id":"ce4bhih2rcd13ifvqfs0","pricing_plan_id":"cebpf4jnsgd1na2vs0mg"},{"bike_id":"9e5baae9-5270-43b9-b453-0d112f58b9e6","system_id":"levelo_inurba_marseille","lat":43.23155,"lon":5.43716,"is_reserved":false,"is_disabled":false,"rental_uris":{"android":"levelo://app?vid=9e5baae9-5270-43b9-b453-0d112f58b9e6","ios":"levelo://app?vid=9e5baae9-5270-43b9-b453-0d112f58b9e6"},"vehicle_type_id":"4","last_reported":1758889193,"current_range_meters":8400,"station_id":"ce4bhmp2rcd13ifvqgog","pricing_plan_id":"cebpf4jnsgd1na2vs0mg"},{"bike_id":"fff60709-bfb6-469f-85a8-dcc317a5c66b","system_id":"levelo_inurba_marseille","lat":43.27836,"lon":5.39205,"is_reserved":false,"is_disabled":false,"rental_uris":{"android":"levelo://app?vid=fff60709-bfb6-469f-85a8-dcc317a5c66b","ios":"levelo://app?vid=fff60709-bfb6-469f-85a8-dcc317a5c66b"},"vehicle_type_id":"4","last_reported":1758889193,"current_range_meters":8800,"station_id":"ce4bhjp2rcd13ifvqga0","pricing_plan_id":"cebpf4jnsgd1na2vs0mg"},{"bike_id":"003515e8-8117-44bb-979d-5f47e8d50fda","system_id":"levelo_inurba_marseille","lat":43.30606,"lon":5.37562,"is_reserved":false,"is_disabled":false,"rental_uris":{"android":"levelo://app?vid=003515e8-8117-44bb-979d-5f47e8d50fda","ios":"levelo://app?vid=003515e8-8117-44bb-979d-5f47e8d50fda"},"vehicle_type_id":"4","last_reported":1758889193,"current_range_meters":8800,"station_id":"","pricing_plan_id":"cebpf4jnsgd1na2vs0mg"},{"bike_id":"d7f9e1df-8b0f-4a8d-ad58-d349030d8c25","system_id":"levelo_inurba_marseille","lat":43.29615,"lon":5.37809,"is_reserved":false,"is_disabled":false,"rental_uris":{"android":"levelo://app?vid=d7f9e1df-8b0f-4a8d-ad58-d349030d8c25","ios":"levelo://app?vid=d7f9e1df-8b0f-4a8d-ad58-d349030d8c25"},"vehicle_type_id":"4","last_reported":1758889193,"current_range_meters":8800,"station_id":"","pricing_plan_id":"cebpf4jnsgd1na2vs0mg"},{"bike_id":"29d587e5-825a-4b4d-8ad8-3d95812b02ab","system_id":"levelo_inurba_marseille","lat":43.31227,"lon":5.36862,"is_reserved":false,"is_disabled":false,"rental_uris":{"android":"levelo://app?vid=29d587e5-825a-4b4d-8ad8-3d95812b02ab","ios":"levelo://app?vid=29d587e5-825a-4b4d-8ad8-3d95812b02ab"},"vehicle_type_id":"4","last_reported":1758889193,"current_range_meters":8800,"station_id":"ce4bgl92rcd13ifvqbq0","pricing_plan_id":"cebpf4jnsgd1na2vs0mg"},{"bike_id":"212de2eb-8bbc-413c-b204-9fe1facd76e8","system_id":"levelo_inurba_marseille","lat":43.31279,"lon":5.37819,"is_reserved":false,"is_disabled":false,"rental_uris":{"android":"levelo://app?vid=212de2eb-8bbc-413c-b204-9fe1facd76e8","ios":"levelo://app?vid=212de2eb-8bbc-413c-b204-9fe1facd76e8"},"vehicle_type_id":"4","last_reported":1758889193,"current_range_meters":8800,"station_id":"","pricing_plan_id":"cebpf4jnsgd1na2vs0mg"},{"bike_id":"4aa45a87-12ea-4226-b557-d611fef74c29","system_id":"levelo_inurba_marseille","lat":43.27183,"lon":5.40986,"is_reserved":false,"is_disabled":false,"rental_uris":{"android":"levelo://app?vid=4aa45a87-12ea-4226-b557-d611fef74c29","ios":"levelo://app?vid=4aa45a87-12ea-4226-b557-d611fef74c29"},"vehicle_type_id":"4","last_reported":1758889193,"current_range_meters":8800,"station_id":"ce4bhl12rcd13ifvqgf0","pricing_plan_id":"cebpf4jnsgd1na2vs0mg"},{"bike_id":"339534b4-d6ce-428f-97c9-087d1b58c7b3","system_id":"levelo_inurba_marseille","lat":43.327,"lon":5.4028,"is_reserved":false,"is_disabled":false,"rental_uris":{"android":"levelo://app?vid=339534b4-d6ce-428f-97c9-087d1b58c7b3","ios":"levelo://app?vid=339534b4-d6ce-428f-97c9-087d1b58c7b3"},"vehicle_type_id":"4","last_reported":1758889193,"current_range_meters":22400,"station_id":"","pricing_plan_id":"cebpf4jnsgd1na2vs0mg"},{"bike_id":"9313dad9-3753-468d-9a82-9af95e811036","system_id":"levelo_inurba_marseille","lat":43.29782,"lon":5.39334,"is_reserved":false,"is_disabled":false,"rental_uris":{"android":"levelo://app?vid=9313dad9-3753-468d-9a82-9af95e811036","ios":"levelo://app?vid=9313dad9-3753-468d-9a82-9af95e811036"},"vehicle_type_id":"4","last_reported":1758889193,"current_range_meters":8800,"station_id":"chh1huq6cuj3fo74tm60","pricing_plan_id":"cebpf4jnsgd1na2vs0mg"},{"bike_id":"f897d300-643c-4c7a-951b-f56d70ef23ca","system_id":"levelo_inurba_marseille","lat":43.30317,"lon":5.39087,"is_reserved":false,"is_disabled":false,"rental_uris":{"android":"levelo://app?vid=f897d300-643c-4c7a-951b-f56d70ef23ca","ios":"levelo://app?vid=f897d300-643c-4c7a-951b-f56d70ef23ca"},"vehicle_type_id":"4","last_reported":1758889193,"current_range_meters":9200,"station_id":"","pricing_plan_id":"cebpf4jnsgd1na2vs0mg"},{"bike_id":"6931749b-168a-4b8b-8aa0-552e7f78dcf9","system_id":"levelo_inurba_marseille","lat":43.24073,"lon":5.37767,"is_reserved":false,"is_disabled":false,"rental_uris":{"android":"levelo://app?vid=6931749b-168a-4b8b-8aa0-552e7f78dcf9","ios":"levelo://app?vid=6931749b-168a-4b8b-8aa0-552e7f78dcf9"},"vehicle_type_id":"4","last_reported":1758889193,"current_range_meters":9200,"station_id":"ce4bhnp2rcd13ifvqgvg","pricing_plan_id":"cebpf4jnsgd1na2vs0mg"},{"bike_id":"7ee50924-32ed-4b9d-85c7-8a88294832f4","system_id":"levelo_inurba_marseille","lat":43.27964,"lon":5.41621,"is_reserved":false,"is_disabled":false,"rental_uris":{"android":"levelo://app?vid=7ee50924-32ed-4b9d-85c7-8a88294832f4","ios":"levelo://app?vid=7ee50924-32ed-4b9d-85c7-8a88294832f4"},"vehicle_type_id":"4","last_reported":1758889193,"current_range_meters":9600,"station_id":"ce4bho12rcd13ifvqh1g","pricing_plan_id":"cebpf4jnsgd1na2vs0mg"},{"bike_id":"0c519797-31bc-446d-aba4-5b8bd7fd35a8","system_id":"levelo_inurba_marseille","lat":43.32484,"lon":5.36562,"is_reserved":false,"is_disabled":false,"rental_uris":{"android":"levelo://app?vid=0c519797-31bc-446d-aba4-5b8bd7fd35a8","ios":"levelo://app?vid=0c519797-31bc-446d-aba4-5b8bd7fd35a8"},"vehicle_type_id":"4","last_reported":1758889193,"current_range_meters":9200,"station_id":"ce4bhs12rcd13ifvqhvg","pricing_plan_id":"cebpf4jnsgd1na2vs0mg"},{"bike_id":"c42662fd-8b1b-4b95-b8c8-451d30d16f9c","system_id":"levelo_inurba_marseille","lat":43.23155,"lon":5.43716,"is_reserved":false,"is_disabled":false,"rental_uris":{"android":"levelo://app?vid=c42662fd-8b1b-4b95-b8c8-451d30d16f9c","ios":"levelo://app?vid=c42662fd-8b1b-4b95-b8c8-451d30d16f9c"},"vehicle_type_id":"4","last_reported":1758889193,"current_range_meters":9200,"station_id":"ce4bhmp2rcd13ifvqgog","pricing_plan_id":"cebpf4jnsgd1na2vs0mg"},{"bike_id":"64ee13db-2355-4146-a2f2-432856fdb7e9","system_id":"levelo_inurba_marseille","lat":43.2307,"lon":5.354924,"is_reserved":false,"is_disabled":false,"rental_uris":{"android":"levelo://app?vid=64ee13db-2355-4146-a2f2-432856fdb7e9","ios":"levelo://app?vid=64ee13db-2355-4146-a2f2-432856fdb7e9"},"vehicle_type_id":"4","last_reported":1758889193,"current_range_meters":9200,"station_id":"cpo3342slgdg3j2ifvpg","pricing_plan_id":"cebpf4jnsgd1na2vs0mg"},{"bike_id":"f22495e3-8942-481b-ab2f-9b8b51c632d8","system_id":"levelo_inurba_marseille","lat":43.21197,"lon":5.35067,"is_reserved":false,"is_disabled":false,"rental_uris":{"android":"levelo://app?vid=f22495e3-8942-481b-ab2f-9b8b51c632d8","ios":"levelo://app?vid=f22495e3-8942-481b-ab2f-9b8b51c632d8"},"vehicle_type_id":"4","last_reported":1758889193,"current_range_meters":9200,"station_id":"st_cvj6sg6p6f1abm77japg","pricing_plan_id":"cebpf4jnsgd1na2vs0mg"},{"bike_id":"b86bd8d1-2bab-4b4f-bd5a-edbe68dc3202","system_id":"levelo_inurba_marseille","lat":43.31234,"lon":5.36849,"is_reserved":false,"is_disabled":false,"rental_uris":{"android":"levelo://app?vid=b86bd8d1-2bab-4b4f-bd5a-edbe68dc3202","ios":"levelo://app?vid=b86bd8d1-2bab-4b4f-bd5a-edbe68dc3202"},"vehicle_type_id":"4","last_reported":1758889193,"current_range_meters":9600,"station_id":"ce4bgl92rcd13ifvqbq0","pricing_plan_id":"cebpf4jnsgd1na2vs0mg"},{"bike_id":"8972e357-6ed1-4ad4-afba-4cf7d4da6ec8","system_id":"levelo_inurba_marseille","lat":43.26586,"lon":5.39045,"is_reserved":false,"is_disabled":false,"rental_uris":{"android":"levelo://app?vid=8972e357-6ed1-4ad4-afba-4cf7d4da6ec8","ios":"levelo://app?vid=8972e357-6ed1-4ad4-afba-4cf7d4da6ec8"},"vehicle_type_id":"4","last_reported":1758889193,"current_range_meters":9600,"station_id":"ce4bhe12rcd13ifvqf30","pricing_plan_id":"cebpf4jnsgd1na2vs0mg"},{"bike_id":"d837eb49-558d-4586-87d2-de3d2a10b07e","system_id":"levelo_inurba_marseille","lat":43.28419,"lon":5.37518,"is_reserved":false,"is_disabled":false,"rental_uris":{"android":"levelo://app?vid=d837eb49-558d-4586-87d2-de3d2a10b07e","ios":"levelo://app?vid=d837eb49-558d-4586-87d2-de3d2a10b07e"},"vehicle_type_id":"4","last_reported":1758889193,"current_range_meters":8000,"station_id":"ce4bh412rcd13ifvqds0","pricing_plan_id":"cebpf4jnsgd1na2vs0mg"},{"bike_id":"119ba8b1-67bb-409a-b326-17067ff8ecf7","system_id":"levelo_inurba_marseille","lat":43.30959,"lon":5.39041,"is_reserved":false,"is_disabled":false,"rental_uris":{"android":"levelo://app?vid=119ba8b1-67bb-409a-b326-17067ff8ecf7","ios":"levelo://app?vid=119ba8b1-67bb-409a-b326-17067ff8ecf7"},"vehicle_type_id":"4","last_reported":1758889193,"current_range_meters":9600,"station_id":"ce4bgup2rcd13ifvqco0","pricing_plan_id":"cebpf4jnsgd1na2vs0mg"},{"bike_id":"363567b0-9fd9-4a53-9504-8fddd517c3e8","system_id":"levelo_inurba_marseille","lat":43.31352,"lon":5.36714,"is_reserved":false,"is_disabled":false,"rental_uris":{"android":"levelo://app?vid=363567b0-9fd9-4a53-9504-8fddd517c3e8","ios":"levelo://app?vid=363567b0-9fd9-4a53-9504-8fddd517c3e8"},"vehicle_type_id":"4","last_reported":1758889193,"current_range_meters":9600,"station_id":"ce4bgr92rcd13ifvqc6g","pricing_plan_id":"cebpf4jnsgd1na2vs0mg"},{"bike_id":"d4e9aea9-37ef-4671-866a-41198a6c7125","system_id":"levelo_inurba_marseille","lat":43.30557,"lon":5.36685,"is_reserved":false,"is_disabled":false,"rental_uris":{"android":"levelo://app?vid=d4e9aea9-37ef-4671-866a-41198a6c7125","ios":"levelo://app?vid=d4e9aea9-37ef-4671-866a-41198a6c7125"},"vehicle_type_id":"4","last_reported":1758889193,"current_range_meters":10000,"station_id":"ce4bgrp2rcd13ifvqc9g","pricing_plan_id":"cebpf4jnsgd1na2vs0mg"},{"bike_id":"8cd91a3b-ef58-48a1-8580-384527a8658f","system_id":"levelo_inurba_marseille","lat":43.27176,"lon":5.40994,"is_reserved":false,"is_disabled":false,"rental_uris":{"android":"levelo://app?vid=8cd91a3b-ef58-48a1-8580-384527a8658f","ios":"levelo://app?vid=8cd91a3b-ef58-48a1-8580-384527a8658f"},"vehicle_type_id":"4","last_reported":1758889193,"current_range_meters":10000,"station_id":"ce4bhl12rcd13ifvqgf0","pricing_plan_id":"cebpf4jnsgd1na2vs0mg"},{"bike_id":"5b814ea6-fac6-4e93-af52-dcc7accd2952","system_id":"levelo_inurba_marseille","lat":43.29516,"lon":5.375,"is_reserved":false,"is_disabled":false,"rental_uris":{"android":"levelo://app?vid=5b814ea6-fac6-4e93-af52-dcc7accd2952","ios":"levelo://app?vid=5b814ea6-fac6-4e93-af52-dcc7accd2952"},"vehicle_type_id":"4","last_reported":1758889193,"current_range_meters":10000,"station_id":"ce4bgkp2rcd13ifvqbmg","pricing_plan_id":"cebpf4jnsgd1na2vs0mg"},{"bike_id":"c7f6a08b-c655-4213-b2ba-7d02e7f382fe","system_id":"levelo_inurba_marseille","lat":43.27988,"lon":5.39483,"is_reserved":false,"is_disabled":false,"rental_uris":{"android":"levelo://app?vid=c7f6a08b-c655-4213-b2ba-7d02e7f382fe","ios":"levelo://app?vid=c7f6a08b-c655-4213-b2ba-7d02e7f382fe"},"vehicle_type_id":"4","last_reported":1758889193,"current_range_meters":10000,"station_id":"","pricing_plan_id":"cebpf4jnsgd1na2vs0mg"},{"bike_id":"a937c125-65d3-4283-afe8-69cd4b1e984a","system_id":"levelo_inurba_marseille","lat":43.29575,"lon":5.375,"is_reserved":false,"is_disabled":false,"rental_uris":{"android":"levelo://app?vid=a937c125-65d3-4283-afe8-69cd4b1e984a","ios":"levelo://app?vid=a937c125-65d3-4283-afe8-69cd4b1e984a"},"vehicle_type_id":"4","last_reported":1758889193,"current_range_meters":10000,"station_id":"ce4bgh92rcd13ifvqb50","pricing_plan_id":"cebpf4jnsgd1na2vs0mg"},{"bike_id":"e5303607-da03-4ac7-b81e-b332ede84cf7","system_id":"levelo_inurba_marseille","lat":43.31312,"lon":5.37812,"is_reserved":false,"is_disabled":false,"rental_uris":{"android":"levelo://app?vid=e5303607-da03-4ac7-b81e-b332ede84cf7","ios":"levelo://app?vid=e5303607-da03-4ac7-b81e-b332ede84cf7"},"vehicle_type_id":"4","last_reported":1758889193,"current_range_meters":10000,"station_id":"","pricing_plan_id":"cebpf4jnsgd1na2vs0mg"},{"bike_id":"22e1526a-5d94-480e-9eef-c281aa35345c","system_id":"levelo_inurba_marseille","lat":43.21203,"lon":5.3506,"is_reserved":false,"is_disabled":false,"rental_uris":{"android":"levelo://app?vid=22e1526a-5d94-480e-9eef-c281aa35345c","ios":"levelo://app?vid=22e1526a-5d94-480e-9eef-c281aa35345c"},"vehicle_type_id":"4","last_reported":1758889193,"current_range_meters":10800,"station_id":"","pricing_plan_id":"cebpf4jnsgd1na2vs0mg"},{"bike_id":"0fabed7c-710e-4d08-8125-8c9e3adb4604","system_id":"levelo_inurba_marseille","lat":43.2866,"lon":5.38658,"is_reserved":false,"is_disabled":false,"rental_uris":{"android":"levelo://app?vid=0fabed7c-710e-4d08-8125-8c9e3adb4604","ios":"levelo://app?vid=0fabed7c-710e-4d08-8125-8c9e3adb4604"},"vehicle_type_id":"4","last_reported":1758889193,"current_range_meters":10800,"station_id":"ce4bh492rcd13ifvqdug","pricing_plan_id":"cebpf4jnsgd1na2vs0mg"},{"bike_id":"332d6867-ff96-478f-bd3e-880160196b1f","system_id":"levelo_inurba_marseille","lat":43.27828,"lon":5.40707,"is_reserved":false,"is_disabled":false,"rental_uris":{"android":"levelo://app?vid=332d6867-ff96-478f-bd3e-880160196b1f","ios":"levelo://app?vid=332d6867-ff96-478f-bd3e-880160196b1f"},"vehicle_type_id":"4","last_reported":1758889193,"current_range_meters":10800,"station_id":"ce4bhnh2rcd13ifvqgtg","pricing_plan_id":"cebpf4jnsgd1na2vs0mg"},{"bike_id":"d040c7f6-44f8-4e69-8cac-c567ce2b5bb2","system_id":"levelo_inurba_marseille","lat":43.31344,"lon":5.36731,"is_reserved":false,"is_disabled":false,"rental_uris":{"android":"levelo://app?vid=d040c7f6-44f8-4e69-8cac-c567ce2b5bb2","ios":"levelo://app?vid=d040c7f6-44f8-4e69-8cac-c567ce2b5bb2"},"vehicle_type_id":"4","last_reported":1758889193,"current_range_meters":10800,"station_id":"ce4bgr92rcd13ifvqc6g","pricing_plan_id":"cebpf4jnsgd1na2vs0mg"},{"bike_id":"1707e7ed-2cee-42c2-be7e-35d7ff5e567c","system_id":"levelo_inurba_marseille","lat":43.294342,"lon":5.397493,"is_reserved":false,"is_disabled":false,"rental_uris":{"android":"levelo://app?vid=1707e7ed-2cee-42c2-be7e-35d7ff5e567c","ios":"levelo://app?vid=1707e7ed-2cee-42c2-be7e-35d7ff5e567c"},"vehicle_type_id":"4","last_reported":1758889193,"current_range_meters":10800,"station_id":"ce4bh3h2rcd13ifvqdo0","pricing_plan_id":"cebpf4jnsgd1na2vs0mg"},{"bike_id":"c74b3420-f243-4b8f-951a-7c4e880b22bf","system_id":"levelo_inurba_marseille","lat":43.27624,"lon":5.36104,"is_reserved":false,"is_disabled":false,"rental_uris":{"android":"levelo://app?vid=c74b3420-f243-4b8f-951a-7c4e880b22bf","ios":"levelo://app?vid=c74b3420-f243-4b8f-951a-7c4e880b22bf"},"vehicle_type_id":"4","last_reported":1758889193,"current_range_meters":10800,"station_id":"ce4bgj92rcd13ifvqbe0","pricing_plan_id":"cebpf4jnsgd1na2vs0mg"},{"bike_id":"01f9d133-47db-4c6d-8733-a66b93ffc15d","system_id":"levelo_inurba_marseille","lat":43.31534,"lon":5.38034,"is_reserved":false,"is_disabled":false,"rental_uris":{"android":"levelo://app?vid=01f9d133-47db-4c6d-8733-a66b93ffc15d","ios":"levelo://app?vid=01f9d133-47db-4c6d-8733-a66b93ffc15d"},"vehicle_type_id":"4","last_reported":1758889193,"current_range_meters":10800,"station_id":"ce4bhsp2rcd13ifvqi50","pricing_plan_id":"cebpf4jnsgd1na2vs0mg"},{"bike_id":"9c36bd61-71ed-432c-8585-ef6c0b368457","system_id":"levelo_inurba_marseille","lat":43.306066,"lon":5.372318,"is_reserved":false,"is_disabled":false,"rental_uris":{"android":"levelo://app?vid=9c36bd61-71ed-432c-8585-ef6c0b368457","ios":"levelo://app?vid=9c36bd61-71ed-432c-8585-ef6c0b368457"},"vehicle_type_id":"4","last_reported":1758889193,"current_range_meters":11200,"station_id":"ce4bgqh2rcd13ifvqc4g","pricing_plan_id":"cebpf4jnsgd1na2vs0mg"},{"bike_id":"d2f84023-fc5c-40a1-a705-3b9662b4bb8d","system_id":"levelo_inurba_marseille","lat":43.29908,"lon":5.38146,"is_reserved":false,"is_disabled":false,"rental_uris":{"android":"levelo://app?vid=d2f84023-fc5c-40a1-a705-3b9662b4bb8d","ios":"levelo://app?vid=d2f84023-fc5c-40a1-a705-3b9662b4bb8d"},"vehicle_type_id":"4","last_reported":1758889193,"current_range_meters":11200,"station_id":"ce4bgj12rcd13ifvqbc0","pricing_plan_id":"cebpf4jnsgd1na2vs0mg"},{"bike_id":"041cd397-24ab-4e04-af23-07b961e161f4","system_id":"levelo_inurba_marseille","lat":43.337444,"lon":5.374475,"is_reserved":false,"is_disabled":false,"rental_uris":{"android":"levelo://app?vid=041cd397-24ab-4e04-af23-07b961e161f4","ios":"levelo://app?vid=041cd397-24ab-4e04-af23-07b961e161f4"},"vehicle_type_id":"4","last_reported":1758889193,"current_range_meters":11200,"station_id":"","pricing_plan_id":"cebpf4jnsgd1na2vs0mg"},{"bike_id":"e750bdf8-9d97-4649-a5d6-1ed6cbd770b2","system_id":"levelo_inurba_marseille","lat":43.21193,"lon":5.35071,"is_reserved":false,"is_disabled":false,"rental_uris":{"android":"levelo://app?vid=e750bdf8-9d97-4649-a5d6-1ed6cbd770b2","ios":"levelo://app?vid=e750bdf8-9d97-4649-a5d6-1ed6cbd770b2"},"vehicle_type_id":"4","last_reported":1758889193,"current_range_meters":11200,"station_id":"st_cvj6sg6p6f1abm77japg","pricing_plan_id":"cebpf4jnsgd1na2vs0mg"},{"bike_id":"39e6b2d7-e7bc-4366-8a01-87bc46855564","system_id":"levelo_inurba_marseille","lat":43.32188,"lon":5.36732,"is_reserved":false,"is_disabled":false,"rental_uris":{"android":"levelo://app?vid=39e6b2d7-e7bc-4366-8a01-87bc46855564","ios":"levelo://app?vid=39e6b2d7-e7bc-4366-8a01-87bc46855564"},"vehicle_type_id":"4","last_reported":1758889193,"current_range_meters":11200,"station_id":"ce4bhrh2rcd13ifvqhug","pricing_plan_id":"cebpf4jnsgd1na2vs0mg"},{"bike_id":"b4283599-3178-413e-9c1c-29b78b80d253","system_id":"levelo_inurba_marseille","lat":43.279814,"lon":5.387366,"is_reserved":false,"is_disabled":false,"rental_uris":{"android":"levelo://app?vid=b4283599-3178-413e-9c1c-29b78b80d253","ios":"levelo://app?vid=b4283599-3178-413e-9c1c-29b78b80d253"},"vehicle_type_id":"4","last_reported":1758889193,"current_range_meters":11200,"station_id":"ce4bhg12rcd13ifvqf80","pricing_plan_id":"cebpf4jnsgd1na2vs0mg"},{"bike_id":"11657651-825e-4137-9a51-3e2b1ce46a0f","system_id":"levelo_inurba_marseille","lat":43.31166,"lon":5.38728,"is_reserved":false,"is_disabled":false,"rental_uris":{"android":"levelo://app?vid=11657651-825e-4137-9a51-3e2b1ce46a0f","ios":"levelo://app?vid=11657651-825e-4137-9a51-3e2b1ce46a0f"},"vehicle_type_id":"4","last_reported":1758889193,"current_range_meters":11600,"station_id":"ce4bgv12rcd13ifvqcp0","pricing_plan_id":"cebpf4jnsgd1na2vs0mg"},{"bike_id":"b416b94a-1ba2-42a1-89dc-e239611b4ff2","system_id":"levelo_inurba_marseille","lat":43.29093,"lon":5.38134,"is_reserved":false,"is_disabled":false,"rental_uris":{"android":"levelo://app?vid=b416b94a-1ba2-42a1-89dc-e239611b4ff2","ios":"levelo://app?vid=b416b94a-1ba2-42a1-89dc-e239611b4ff2"},"vehicle_type_id":"4","last_reported":1758889193,"current_range_meters":11600,"station_id":"ce4bh512rcd13ifvqe2g","pricing_plan_id":"cebpf4jnsgd1na2vs0mg"},{"bike_id":"99aec3fd-38e8-433a-8b41-16e4e4589de6","system_id":"levelo_inurba_marseille","lat":43.337444,"lon":5.374475,"is_reserved":false,"is_disabled":false,"rental_uris":{"android":"levelo://app?vid=99aec3fd-38e8-433a-8b41-16e4e4589de6","ios":"levelo://app?vid=99aec3fd-38e8-433a-8b41-16e4e4589de6"},"vehicle_type_id":"4","last_reported":1758889193,"current_range_meters":11600,"station_id":"ce4bhih2rcd13ifvqfs0","pricing_plan_id":"cebpf4jnsgd1na2vs0mg"},{"bike_id":"677695f2-aaa9-4799-ab7a-4eb6bf7ad256","system_id":"levelo_inurba_marseille","lat":43.292495,"lon":5.409172,"is_reserved":false,"is_disabled":false,"rental_uris":{"android":"levelo://app?vid=677695f2-aaa9-4799-ab7a-4eb6bf7ad256","ios":"levelo://app?vid=677695f2-aaa9-4799-ab7a-4eb6bf7ad256"},"vehicle_type_id":"4","last_reported":1758889193,"current_range_meters":11600,"station_id":"ce4bh192rcd13ifvqdc0","pricing_plan_id":"cebpf4jnsgd1na2vs0mg"},{"bike_id":"d797771b-18c2-46d0-8f08-8f540e16b982","system_id":"levelo_inurba_marseille","lat":43.24392,"lon":5.37047,"is_reserved":false,"is_disabled":false,"rental_uris":{"android":"levelo://app?vid=d797771b-18c2-46d0-8f08-8f540e16b982","ios":"levelo://app?vid=d797771b-18c2-46d0-8f08-8f540e16b982"},"vehicle_type_id":"4","last_reported":1758889193,"current_range_meters":11600,"station_id":"ce4bhhh2rcd13ifvqfk0","pricing_plan_id":"cebpf4jnsgd1na2vs0mg"},{"bike_id":"3c50a4b3-83d8-465b-9f90-e5a7edda191d","system_id":"levelo_inurba_marseille","lat":43.28716,"lon":5.39961,"is_reserved":false,"is_disabled":false,"rental_uris":{"android":"levelo://app?vid=3c50a4b3-83d8-465b-9f90-e5a7edda191d","ios":"levelo://app?vid=3c50a4b3-83d8-465b-9f90-e5a7edda191d"},"vehicle_type_id":"4","last_reported":1758889193,"current_range_meters":12000,"station_id":"ce4bho92rcd13ifvqh3g","pricing_plan_id":"cebpf4jnsgd1na2vs0mg"},{"bike_id":"a1e82ce2-3451-4e31-a1bf-c0be05f73183","system_id":"levelo_inurba_marseille","lat":43.30469,"lon":5.37908,"is_reserved":false,"is_disabled":false,"rental_uris":{"android":"levelo://app?vid=a1e82ce2-3451-4e31-a1bf-c0be05f73183","ios":"levelo://app?vid=a1e82ce2-3451-4e31-a1bf-c0be05f73183"},"vehicle_type_id":"4","last_reported":1758889193,"current_range_meters":12000,"station_id":"ce4bgup2rcd13ifvqcn0","pricing_plan_id":"cebpf4jnsgd1na2vs0mg"},{"bike_id":"b0934032-3d3c-44e1-985e-e72b8cee3491","system_id":"levelo_inurba_marseille","lat":43.24653,"lon":5.43137,"is_reserved":false,"is_disabled":false,"rental_uris":{"android":"levelo://app?vid=b0934032-3d3c-44e1-985e-e72b8cee3491","ios":"levelo://app?vid=b0934032-3d3c-44e1-985e-e72b8cee3491"},"vehicle_type_id":"4","last_reported":1758889193,"current_range_meters":12000,"station_id":"st_d2m6c4gdas8pm72e190g","pricing_plan_id":"cebpf4jnsgd1na2vs0mg"},{"bike_id":"2a9670d2-2d9f-4972-b026-f217a8c40d35","system_id":"levelo_inurba_marseille","lat":43.29874,"lon":5.38896,"is_reserved":false,"is_disabled":false,"rental_uris":{"android":"levelo://app?vid=2a9670d2-2d9f-4972-b026-f217a8c40d35","ios":"levelo://app?vid=2a9670d2-2d9f-4972-b026-f217a8c40d35"},"vehicle_type_id":"4","last_reported":1758889193,"current_range_meters":11600,"station_id":"ce4bh392rcd13ifvqdl0","pricing_plan_id":"cebpf4jnsgd1na2vs0mg"},{"bike_id":"518f41fb-3520-47df-bf1e-82eb1bc61ee2","system_id":"levelo_inurba_marseille","lat":43.29813,"lon":5.38082,"is_reserved":false,"is_disabled":false,"rental_uris":{"android":"levelo://app?vid=518f41fb-3520-47df-bf1e-82eb1bc61ee2","ios":"levelo://app?vid=518f41fb-3520-47df-bf1e-82eb1bc61ee2"},"vehicle_type_id":"4","last_reported":1758889193,"current_range_meters":12000,"station_id":"ce4bgip2rcd13ifvqbb0","pricing_plan_id":"cebpf4jnsgd1na2vs0mg"},{"bike_id":"8c515093-ba09-43f1-96dc-ee030ba96b36","system_id":"levelo_inurba_marseille","lat":43.30939,"lon":5.39043,"is_reserved":false,"is_disabled":false,"rental_uris":{"android":"levelo://app?vid=8c515093-ba09-43f1-96dc-ee030ba96b36","ios":"levelo://app?vid=8c515093-ba09-43f1-96dc-ee030ba96b36"},"vehicle_type_id":"4","last_reported":1758889193,"current_range_meters":12400,"station_id":"ce4bgup2rcd13ifvqco0","pricing_plan_id":"cebpf4jnsgd1na2vs0mg"},{"bike_id":"b01b5bc6-6834-41fb-be97-f5b6fb7e9ec8","system_id":"levelo_inurba_marseille","lat":43.26318,"lon":5.39773,"is_reserved":false,"is_disabled":false,"rental_uris":{"android":"levelo://app?vid=b01b5bc6-6834-41fb-be97-f5b6fb7e9ec8","ios":"levelo://app?vid=b01b5bc6-6834-41fb-be97-f5b6fb7e9ec8"},"vehicle_type_id":"4","last_reported":1758889193,"current_range_meters":12400,"station_id":"","pricing_plan_id":"cebpf4jnsgd1na2vs0mg"},{"bike_id":"0ef81889-2d7f-4e70-b480-0b08f55cbfba","system_id":"levelo_inurba_marseille","lat":43.30878,"lon":5.36825,"is_reserved":false,"is_disabled":false,"rental_uris":{"android":"levelo://app?vid=0ef81889-2d7f-4e70-b480-0b08f55cbfba","ios":"levelo://app?vid=0ef81889-2d7f-4e70-b480-0b08f55cbfba"},"vehicle_type_id":"4","last_reported":1758889193,"current_range_meters":12400,"station_id":"ce4bgn92rcd13ifvqbvg","pricing_plan_id":"cebpf4jnsgd1na2vs0mg"},{"bike_id":"a57b3feb-2354-42fe-87fd-e8fcee3a0260","system_id":"levelo_inurba_marseille","lat":43.26953,"lon":5.40241,"is_reserved":false,"is_disabled":false,"rental_uris":{"android":"levelo://app?vid=a57b3feb-2354-42fe-87fd-e8fcee3a0260","ios":"levelo://app?vid=a57b3feb-2354-42fe-87fd-e8fcee3a0260"},"vehicle_type_id":"4","last_reported":1758889193,"current_range_meters":12400,"station_id":"","pricing_plan_id":"cebpf4jnsgd1na2vs0mg"},{"bike_id":"75611fb7-df45-4d9f-9db0-a181136cc424","system_id":"levelo_inurba_marseille","lat":43.217563,"lon":5.346003,"is_reserved":false,"is_disabled":true,"rental_uris":{"android":"levelo://app?vid=75611fb7-df45-4d9f-9db0-a181136cc424","ios":"levelo://app?vid=75611fb7-df45-4d9f-9db0-a181136cc424"},"vehicle_type_id":"4","last_reported":1758889193,"current_range_meters":12800,"station_id":"st_cvj6r9ubvosntc0bgbag","pricing_plan_id":"cebpf4jnsgd1na2vs0mg"},{"bike_id":"ed9c1b6f-0cc7-47fb-a193-bb02351072ff","system_id":"levelo_inurba_marseille","lat":43.254958,"lon":5.376427,"is_reserved":false,"is_disabled":false,"rental_uris":{"android":"levelo://app?vid=ed9c1b6f-0cc7-47fb-a193-bb02351072ff","ios":"levelo://app?vid=ed9c1b6f-0cc7-47fb-a193-bb02351072ff"},"vehicle_type_id":"4","last_reported":1758889193,"current_range_meters":12800,"station_id":"","pricing_plan_id":"cebpf4jnsgd1na2vs0mg"},{"bike_id":"53033d25-3c76-47fb-9887-2423da1ad157","system_id":"levelo_inurba_marseille","lat":43.31227,"lon":5.36862,"is_reserved":false,"is_disabled":false,"rental_uris":{"android":"levelo://app?vid=53033d25-3c76-47fb-9887-2423da1ad157","ios":"levelo://app?vid=53033d25-3c76-47fb-9887-2423da1ad157"},"vehicle_type_id":"4","last_reported":1758889193,"current_range_meters":12800,"station_id":"ce4bgl92rcd13ifvqbq0","pricing_plan_id":"cebpf4jnsgd1na2vs0mg"},{"bike_id":"abdbfaa3-1a60-4a95-8300-e51ba04e2370","system_id":"levelo_inurba_marseille","lat":43.288569,"lon":5.358476,"is_reserved":false,"is_disabled":false,"rental_uris":{"android":"levelo://app?vid=abdbfaa3-1a60-4a95-8300-e51ba04e2370","ios":"levelo://app?vid=abdbfaa3-1a60-4a95-8300-e51ba04e2370"},"vehicle_type_id":"4","last_reported":1758889193,"current_range_meters":12800,"station_id":"ce4bhb12rcd13ifvqem0","pricing_plan_id":"cebpf4jnsgd1na2vs0mg"},{"bike_id":"377142cb-267c-494b-99d9-6fe238c4e676","system_id":"levelo_inurba_marseille","lat":43.3098,"lon":5.40776,"is_reserved":false,"is_disabled":false,"rental_uris":{"android":"levelo://app?vid=377142cb-267c-494b-99d9-6fe238c4e676","ios":"levelo://app?vid=377142cb-267c-494b-99d9-6fe238c4e676"},"vehicle_type_id":"4","last_reported":1758889193,"current_range_meters":12800,"station_id":"","pricing_plan_id":"cebpf4jnsgd1na2vs0mg"},{"bike_id":"c975862c-3721-4ac1-a6a4-5b86cf0364aa","system_id":"levelo_inurba_marseille","lat":43.21202,"lon":5.35066,"is_reserved":false,"is_disabled":false,"rental_uris":{"android":"levelo://app?vid=c975862c-3721-4ac1-a6a4-5b86cf0364aa","ios":"levelo://app?vid=c975862c-3721-4ac1-a6a4-5b86cf0364aa"},"vehicle_type_id":"4","last_reported":1758889193,"current_range_meters":12800,"station_id":"st_cvj6sg6p6f1abm77japg","pricing_plan_id":"cebpf4jnsgd1na2vs0mg"},{"bike_id":"c8fb4f1c-09dc-4ba3-b9e8-17ffe43b4972","system_id":"levelo_inurba_marseille","lat":43.32362,"lon":5.36748,"is_reserved":false,"is_disabled":false,"rental_uris":{"android":"levelo://app?vid=c8fb4f1c-09dc-4ba3-b9e8-17ffe43b4972","ios":"levelo://app?vid=c8fb4f1c-09dc-4ba3-b9e8-17ffe43b4972"},"vehicle_type_id":"4","last_reported":1758889193,"current_range_meters":12800,"station_id":"ce4bhsh2rcd13ifvqi2g","pricing_plan_id":"cebpf4jnsgd1na2vs0mg"},{"bike_id":"8baeac13-7e80-456d-83aa-12e0372d0df5","system_id":"levelo_inurba_marseille","lat":43.324595,"lon":5.37548,"is_reserved":false,"is_disabled":false,"rental_uris":{"android":"levelo://app?vid=8baeac13-7e80-456d-83aa-12e0372d0df5","ios":"levelo://app?vid=8baeac13-7e80-456d-83aa-12e0372d0df5"},"vehicle_type_id":"4","last_reported":1758889193,"current_range_meters":12800,"station_id":"","pricing_plan_id":"cebpf4jnsgd1na2vs0mg"},{"bike_id":"df649d25-1f44-4471-8cdd-9566da8ef9b9","system_id":"levelo_inurba_marseille","lat":43.3218,"lon":5.38772,"is_reserved":false,"is_disabled":false,"rental_uris":{"android":"levelo://app?vid=df649d25-1f44-4471-8cdd-9566da8ef9b9","ios":"levelo://app?vid=df649d25-1f44-4471-8cdd-9566da8ef9b9"},"vehicle_type_id":"4","last_reported":1758889193,"current_range_meters":13600,"station_id":"","pricing_plan_id":"cebpf4jnsgd1na2vs0mg"},{"bike_id":"280349c2-7d75-4732-844a-272770d12d07","system_id":"levelo_inurba_marseille","lat":43.24956,"lon":5.40503,"is_reserved":false,"is_disabled":false,"rental_uris":{"android":"levelo://app?vid=280349c2-7d75-4732-844a-272770d12d07","ios":"levelo://app?vid=280349c2-7d75-4732-844a-272770d12d07"},"vehicle_type_id":"4","last_reported":1758889193,"current_range_meters":13600,"station_id":"st_d2ngiaodas8pm72gd1h0","pricing_plan_id":"cebpf4jnsgd1na2vs0mg"},{"bike_id":"22b2ceaa-b482-498f-adaf-5cf9950948d9","system_id":"levelo_inurba_marseille","lat":43.24049,"lon":5.37741,"is_reserved":false,"is_disabled":false,"rental_uris":{"android":"levelo://app?vid=22b2ceaa-b482-498f-adaf-5cf9950948d9","ios":"levelo://app?vid=22b2ceaa-b482-498f-adaf-5cf9950948d9"},"vehicle_type_id":"4","last_reported":1758889193,"current_range_meters":13600,"station_id":"ce4bhnp2rcd13ifvqgvg","pricing_plan_id":"cebpf4jnsgd1na2vs0mg"},{"bike_id":"73316318-0bd4-4605-892a-f4402a9de0f1","system_id":"levelo_inurba_marseille","lat":43.24083,"lon":5.37758,"is_reserved":false,"is_disabled":false,"rental_uris":{"android":"levelo://app?vid=73316318-0bd4-4605-892a-f4402a9de0f1","ios":"levelo://app?vid=73316318-0bd4-4605-892a-f4402a9de0f1"},"vehicle_type_id":"4","last_reported":1758889193,"current_range_meters":13600,"station_id":"ce4bhnp2rcd13ifvqgvg","pricing_plan_id":"cebpf4jnsgd1na2vs0mg"},{"bike_id":"e6fa86c8-d4f1-4bf3-83fd-702c5b9a31df","system_id":"levelo_inurba_marseille","lat":43.31323,"lon":5.39707,"is_reserved":false,"is_disabled":false,"rental_uris":{"android":"levelo://app?vid=e6fa86c8-d4f1-4bf3-83fd-702c5b9a31df","ios":"levelo://app?vid=e6fa86c8-d4f1-4bf3-83fd-702c5b9a31df"},"vehicle_type_id":"4","last_reported":1758889193,"current_range_meters":12800,"station_id":"ce4bgvp2rcd13ifvqcu0","pricing_plan_id":"cebpf4jnsgd1na2vs0mg"},{"bike_id":"9377bc9e-eb9c-46ab-926f-760b2b343037","system_id":"levelo_inurba_marseille","lat":43.25825,"lon":5.39434,"is_reserved":false,"is_disabled":false,"rental_uris":{"android":"levelo://app?vid=9377bc9e-eb9c-46ab-926f-760b2b343037","ios":"levelo://app?vid=9377bc9e-eb9c-46ab-926f-760b2b343037"},"vehicle_type_id":"4","last_reported":1758889193,"current_range_meters":13600,"station_id":"ce4bhip2rcd13ifvqft0","pricing_plan_id":"cebpf4jnsgd1na2vs0mg"},{"bike_id":"10bd2f45-69d8-49c8-8b0c-60f11d49ca52","system_id":"levelo_inurba_marseille","lat":43.25868,"lon":5.39892,"is_reserved":false,"is_disabled":false,"rental_uris":{"android":"levelo://app?vid=10bd2f45-69d8-49c8-8b0c-60f11d49ca52","ios":"levelo://app?vid=10bd2f45-69d8-49c8-8b0c-60f11d49ca52"},"vehicle_type_id":"4","last_reported":1758889193,"current_range_meters":14000,"station_id":"ce4bhl92rcd13ifvqghg","pricing_plan_id":"cebpf4jnsgd1na2vs0mg"},{"bike_id":"6f361db7-6108-4d30-94fd-0c422e05468a","system_id":"levelo_inurba_marseille","lat":43.30778,"lon":5.37655,"is_reserved":false,"is_disabled":false,"rental_uris":{"android":"levelo://app?vid=6f361db7-6108-4d30-94fd-0c422e05468a","ios":"levelo://app?vid=6f361db7-6108-4d30-94fd-0c422e05468a"},"vehicle_type_id":"4","last_reported":1758889193,"current_range_meters":14000,"station_id":"ce4bgv92rcd13ifvqcq0","pricing_plan_id":"cebpf4jnsgd1na2vs0mg"},{"bike_id":"383a3b15-5694-40eb-8b74-28954dc45cea","system_id":"levelo_inurba_marseille","lat":43.29617,"lon":5.37719,"is_reserved":false,"is_disabled":false,"rental_uris":{"android":"levelo://app?vid=383a3b15-5694-40eb-8b74-28954dc45cea","ios":"levelo://app?vid=383a3b15-5694-40eb-8b74-28954dc45cea"},"vehicle_type_id":"4","last_reported":1758889193,"current_range_meters":14000,"station_id":"ce4bgi92rcd13ifvqb90","pricing_plan_id":"cebpf4jnsgd1na2vs0mg"},{"bike_id":"46f9b484-6f08-4ebe-8cac-3f01deda53fc","system_id":"levelo_inurba_marseille","lat":43.32668,"lon":5.40971,"is_reserved":false,"is_disabled":false,"rental_uris":{"android":"levelo://app?vid=46f9b484-6f08-4ebe-8cac-3f01deda53fc","ios":"levelo://app?vid=46f9b484-6f08-4ebe-8cac-3f01deda53fc"},"vehicle_type_id":"4","last_reported":1758889193,"current_range_meters":14000,"station_id":"ce4bhpp2rcd13ifvqhgg","pricing_plan_id":"cebpf4jnsgd1na2vs0mg"},{"bike_id":"08fe2b08-b3fa-43f8-ae73-04061f76318d","system_id":"levelo_inurba_marseille","lat":43.305552,"lon":5.365395,"is_reserved":false,"is_disabled":false,"rental_uris":{"android":"levelo://app?vid=08fe2b08-b3fa-43f8-ae73-04061f76318d","ios":"levelo://app?vid=08fe2b08-b3fa-43f8-ae73-04061f76318d"},"vehicle_type_id":"4","last_reported":1758889193,"current_range_meters":14000,"station_id":"","pricing_plan_id":"cebpf4jnsgd1na2vs0mg"},{"bike_id":"1d5d14cf-15e7-4470-bff9-613bb9abe120","system_id":"levelo_inurba_marseille","lat":43.33476,"lon":5.42068,"is_reserved":false,"is_disabled":false,"rental_uris":{"android":"levelo://app?vid=1d5d14cf-15e7-4470-bff9-613bb9abe120","ios":"levelo://app?vid=1d5d14cf-15e7-4470-bff9-613bb9abe120"},"vehicle_type_id":"4","last_reported":1758889193,"current_range_meters":14000,"station_id":"","pricing_plan_id":"cebpf4jnsgd1na2vs0mg"},{"bike_id":"10b8d871-07e9-4114-9eb9-6bcce40e7beb","system_id":"levelo_inurba_marseille","lat":43.27045,"lon":5.392226,"is_reserved":false,"is_disabled":false,"rental_uris":{"android":"levelo://app?vid=10b8d871-07e9-4114-9eb9-6bcce40e7beb","ios":"levelo://app?vid=10b8d871-07e9-4114-9eb9-6bcce40e7beb"},"vehicle_type_id":"4","last_reported":1758889193,"current_range_meters":14000,"station_id":"ce4bhe12rcd13ifvqf30","pricing_plan_id":"cebpf4jnsgd1na2vs0mg"},{"bike_id":"4b28eb42-6566-45c0-bb06-eede757dfaad","system_id":"levelo_inurba_marseille","lat":43.25579,"lon":5.38229,"is_reserved":false,"is_disabled":false,"rental_uris":{"android":"levelo://app?vid=4b28eb42-6566-45c0-bb06-eede757dfaad","ios":"levelo://app?vid=4b28eb42-6566-45c0-bb06-eede757dfaad"},"vehicle_type_id":"4","last_reported":1758889193,"current_range_meters":14000,"station_id":"ce4bhih2rcd13ifvqfs0","pricing_plan_id":"cebpf4jnsgd1na2vs0mg"},{"bike_id":"5d944089-7d4d-485d-8e5e-fe9c9b3dd7de","system_id":"levelo_inurba_marseille","lat":43.2256,"lon":5.41625,"is_reserved":false,"is_disabled":false,"rental_uris":{"android":"levelo://app?vid=5d944089-7d4d-485d-8e5e-fe9c9b3dd7de","ios":"levelo://app?vid=5d944089-7d4d-485d-8e5e-fe9c9b3dd7de"},"vehicle_type_id":"4","last_reported":1758889193,"current_range_meters":14000,"station_id":"st_d2o4gvlbi1j2169b742g","pricing_plan_id":"cebpf4jnsgd1na2vs0mg"},{"bike_id":"53cf20f0-4028-440a-8c85-5e8de34cd8dd","system_id":"levelo_inurba_marseille","lat":43.28216,"lon":5.39052,"is_reserved":false,"is_disabled":false,"rental_uris":{"android":"levelo://app?vid=53cf20f0-4028-440a-8c85-5e8de34cd8dd","ios":"levelo://app?vid=53cf20f0-4028-440a-8c85-5e8de34cd8dd"},"vehicle_type_id":"4","last_reported":1758889193,"current_range_meters":14400,"station_id":"ce4bhn92rcd13ifvqgsg","pricing_plan_id":"cebpf4jnsgd1na2vs0mg"},{"bike_id":"b4b01d11-7e72-4b75-b292-34d178e34b16","system_id":"levelo_inurba_marseille","lat":43.24661,"lon":5.38163,"is_reserved":false,"is_disabled":false,"rental_uris":{"android":"levelo://app?vid=b4b01d11-7e72-4b75-b292-34d178e34b16","ios":"levelo://app?vid=b4b01d11-7e72-4b75-b292-34d178e34b16"},"vehicle_type_id":"4","last_reported":1758889193,"current_range_meters":10000,"station_id":"ce4bhih2rcd13ifvqfr0","pricing_plan_id":"cebpf4jnsgd1na2vs0mg"},{"bike_id":"f9e21fc1-be7d-42a8-9eff-6458e73f3db9","system_id":"levelo_inurba_marseille","lat":43.32336,"lon":5.36701,"is_reserved":false,"is_disabled":false,"rental_uris":{"android":"levelo://app?vid=f9e21fc1-be7d-42a8-9eff-6458e73f3db9","ios":"levelo://app?vid=f9e21fc1-be7d-42a8-9eff-6458e73f3db9"},"vehicle_type_id":"4","last_reported":1758889193,"current_range_meters":14400,"station_id":"ce4bhsh2rcd13ifvqi2g","pricing_plan_id":"cebpf4jnsgd1na2vs0mg"},{"bike_id":"08292ac0-f4a0-4778-9703-5ac015ee1e3a","system_id":"levelo_inurba_marseille","lat":43.2463,"lon":5.43139,"is_reserved":false,"is_disabled":false,"rental_uris":{"android":"levelo://app?vid=08292ac0-f4a0-4778-9703-5ac015ee1e3a","ios":"levelo://app?vid=08292ac0-f4a0-4778-9703-5ac015ee1e3a"},"vehicle_type_id":"4","last_reported":1758889193,"current_range_meters":14800,"station_id":"st_d2m6c4gdas8pm72e190g","pricing_plan_id":"cebpf4jnsgd1na2vs0mg"},{"bike_id":"9a4f92ed-e086-4038-a651-bbe0613f80bd","system_id":"levelo_inurba_marseille","lat":43.22569,"lon":5.41618,"is_reserved":false,"is_disabled":false,"rental_uris":{"android":"levelo://app?vid=9a4f92ed-e086-4038-a651-bbe0613f80bd","ios":"levelo://app?vid=9a4f92ed-e086-4038-a651-bbe0613f80bd"},"vehicle_type_id":"4","last_reported":1758889193,"current_range_meters":14800,"station_id":"st_d2o4gvlbi1j2169b742g","pricing_plan_id":"cebpf4jnsgd1na2vs0mg"},{"bike_id":"20ed2d93-6dd2-4b49-9a48-45517b440a49","system_id":"levelo_inurba_marseille","lat":43.24079,"lon":5.37755,"is_reserved":false,"is_disabled":false,"rental_uris":{"android":"levelo://app?vid=20ed2d93-6dd2-4b49-9a48-45517b440a49","ios":"levelo://app?vid=20ed2d93-6dd2-4b49-9a48-45517b440a49"},"vehicle_type_id":"4","last_reported":1758889193,"current_range_meters":14800,"station_id":"ce4bhnp2rcd13ifvqgvg","pricing_plan_id":"cebpf4jnsgd1na2vs0mg"},{"bike_id":"b5380c7f-c12e-41a6-bd9e-56457edb967c","system_id":"levelo_inurba_marseille","lat":43.32112,"lon":5.36764,"is_reserved":false,"is_disabled":false,"rental_uris":{"android":"levelo://app?vid=b5380c7f-c12e-41a6-bd9e-56457edb967c","ios":"levelo://app?vid=b5380c7f-c12e-41a6-bd9e-56457edb967c"},"vehicle_type_id":"4","last_reported":1758889193,"current_range_meters":14800,"station_id":"ce4bhrh2rcd13ifvqhug","pricing_plan_id":"cebpf4jnsgd1na2vs0mg"},{"bike_id":"467b4306-5fd8-484e-9a4b-cf8eb50151ba","system_id":"levelo_inurba_marseille","lat":43.32309,"lon":5.38275,"is_reserved":false,"is_disabled":false,"rental_uris":{"android":"levelo://app?vid=467b4306-5fd8-484e-9a4b-cf8eb50151ba","ios":"levelo://app?vid=467b4306-5fd8-484e-9a4b-cf8eb50151ba"},"vehicle_type_id":"4","last_reported":1758889193,"current_range_meters":15200,"station_id":"ce4bhr12rcd13ifvqhqg","pricing_plan_id":"cebpf4jnsgd1na2vs0mg"},{"bike_id":"fd18a301-a9dd-4600-afce-c6b935fa8b40","system_id":"levelo_inurba_marseille","lat":43.26198,"lon":5.37449,"is_reserved":false,"is_disabled":false,"rental_uris":{"android":"levelo://app?vid=fd18a301-a9dd-4600-afce-c6b935fa8b40","ios":"levelo://app?vid=fd18a301-a9dd-4600-afce-c6b935fa8b40"},"vehicle_type_id":"4","last_reported":1758889193,"current_range_meters":15200,"station_id":"ce4bhgp2rcd13ifvqfc0","pricing_plan_id":"cebpf4jnsgd1na2vs0mg"},{"bike_id":"4407f0c7-f8f2-44c4-b16c-74d5984e3278","system_id":"levelo_inurba_marseille","lat":43.25584,"lon":5.38225,"is_reserved":false,"is_disabled":true,"rental_uris":{"android":"levelo://app?vid=4407f0c7-f8f2-44c4-b16c-74d5984e3278","ios":"levelo://app?vid=4407f0c7-f8f2-44c4-b16c-74d5984e3278"},"vehicle_type_id":"4","last_reported":1758889193,"current_range_meters":15200,"station_id":"ce4bhih2rcd13ifvqfs0","pricing_plan_id":"cebpf4jnsgd1na2vs0mg"},{"bike_id":"b93e0ae9-d288-4329-80f0-c2dc7bc3b538","system_id":"levelo_inurba_marseille","lat":43.21747,"lon":5.34618,"is_reserved":false,"is_disabled":true,"rental_uris":{"android":"levelo://app?vid=b93e0ae9-d288-4329-80f0-c2dc7bc3b538","ios":"levelo://app?vid=b93e0ae9-d288-4329-80f0-c2dc7bc3b538"},"vehicle_type_id":"4","last_reported":1758889193,"current_range_meters":15200,"station_id":"st_cvj6r9ubvosntc0bgbag","pricing_plan_id":"cebpf4jnsgd1na2vs0mg"},{"bike_id":"53149b9a-b2e9-40e5-92f6-198650587385","system_id":"levelo_inurba_marseille","lat":43.3078,"lon":5.37654,"is_reserved":false,"is_disabled":false,"rental_uris":{"android":"levelo://app?vid=53149b9a-b2e9-40e5-92f6-198650587385","ios":"levelo://app?vid=53149b9a-b2e9-40e5-92f6-198650587385"},"vehicle_type_id":"4","last_reported":1758889193,"current_range_meters":15200,"station_id":"ce4bgv92rcd13ifvqcq0","pricing_plan_id":"cebpf4jnsgd1na2vs0mg"},{"bike_id":"0d141c37-e392-454f-8234-05f8795fe938","system_id":"levelo_inurba_marseille","lat":43.31909,"lon":5.40708,"is_reserved":false,"is_disabled":false,"rental_uris":{"android":"levelo://app?vid=0d141c37-e392-454f-8234-05f8795fe938","ios":"levelo://app?vid=0d141c37-e392-454f-8234-05f8795fe938"},"vehicle_type_id":"4","last_reported":1758889193,"current_range_meters":15200,"station_id":"ce4bhq12rcd13ifvqhig","pricing_plan_id":"cebpf4jnsgd1na2vs0mg"},{"bike_id":"9cf6cb47-14a5-471a-a55b-24f790567143","system_id":"levelo_inurba_marseille","lat":43.30332,"lon":5.40436,"is_reserved":false,"is_disabled":false,"rental_uris":{"android":"levelo://app?vid=9cf6cb47-14a5-471a-a55b-24f790567143","ios":"levelo://app?vid=9cf6cb47-14a5-471a-a55b-24f790567143"},"vehicle_type_id":"4","last_reported":1758889193,"current_range_meters":15200,"station_id":"ce4bh012rcd13ifvqd10","pricing_plan_id":"cebpf4jnsgd1na2vs0mg"},{"bike_id":"51efd704-f5b0-4bac-b33b-addf7fc7e507","system_id":"levelo_inurba_marseille","lat":43.30286,"lon":5.3688,"is_reserved":false,"is_disabled":false,"rental_uris":{"android":"levelo://app?vid=51efd704-f5b0-4bac-b33b-addf7fc7e507","ios":"levelo://app?vid=51efd704-f5b0-4bac-b33b-addf7fc7e507"},"vehicle_type_id":"4","last_reported":1758889193,"current_range_meters":12400,"station_id":"ce4bgqh2rcd13ifvqc5g","pricing_plan_id":"cebpf4jnsgd1na2vs0mg"},{"bike_id":"69e4afe8-96ae-486b-ac9a-70833bdf56d3","system_id":"levelo_inurba_marseille","lat":43.22935,"lon":5.35374,"is_reserved":false,"is_disabled":false,"rental_uris":{"android":"levelo://app?vid=69e4afe8-96ae-486b-ac9a-70833bdf56d3","ios":"levelo://app?vid=69e4afe8-96ae-486b-ac9a-70833bdf56d3"},"vehicle_type_id":"4","last_reported":1758889193,"current_range_meters":16000,"station_id":"cpo3532slgdg3j2ikp40","pricing_plan_id":"cebpf4jnsgd1na2vs0mg"},{"bike_id":"3404d99c-501a-4b9d-98fa-bbf7f830ea8e","system_id":"levelo_inurba_marseille","lat":43.308863,"lon":5.371828,"is_reserved":false,"is_disabled":false,"rental_uris":{"android":"levelo://app?vid=3404d99c-501a-4b9d-98fa-bbf7f830ea8e","ios":"levelo://app?vid=3404d99c-501a-4b9d-98fa-bbf7f830ea8e"},"vehicle_type_id":"4","last_reported":1758889193,"current_range_meters":16000,"station_id":"ce4bguh2rcd13ifvqckg","pricing_plan_id":"cebpf4jnsgd1na2vs0mg"},{"bike_id":"6dac0028-53fe-4753-b1a1-56900bf42087","system_id":"levelo_inurba_marseille","lat":43.30223,"lon":5.40075,"is_reserved":false,"is_disabled":true,"rental_uris":{"android":"levelo://app?vid=6dac0028-53fe-4753-b1a1-56900bf42087","ios":"levelo://app?vid=6dac0028-53fe-4753-b1a1-56900bf42087"},"vehicle_type_id":"4","last_reported":1758889193,"current_range_meters":16000,"station_id":"ce4bgvh2rcd13ifvqcs0","pricing_plan_id":"cebpf4jnsgd1na2vs0mg"},{"bike_id":"63d52c35-c9c9-44eb-9780-1b2f9145123b","system_id":"levelo_inurba_marseille","lat":43.29627,"lon":5.377037,"is_reserved":false,"is_disabled":false,"rental_uris":{"android":"levelo://app?vid=63d52c35-c9c9-44eb-9780-1b2f9145123b","ios":"levelo://app?vid=63d52c35-c9c9-44eb-9780-1b2f9145123b"},"vehicle_type_id":"4","last_reported":1758889193,"current_range_meters":16000,"station_id":"","pricing_plan_id":"cebpf4jnsgd1na2vs0mg"},{"bike_id":"21147e85-29a3-4c9f-8feb-bbd6cc7b16ae","system_id":"levelo_inurba_marseille","lat":43.3198,"lon":5.38173,"is_reserved":false,"is_disabled":false,"rental_uris":{"android":"levelo://app?vid=21147e85-29a3-4c9f-8feb-bbd6cc7b16ae","ios":"levelo://app?vid=21147e85-29a3-4c9f-8feb-bbd6cc7b16ae"},"vehicle_type_id":"4","last_reported":1758889193,"current_range_meters":16000,"station_id":"ce4bhr12rcd13ifvqhpg","pricing_plan_id":"cebpf4jnsgd1na2vs0mg"},{"bike_id":"b5b3cf7c-3cd2-468e-81f0-a3cad12404e6","system_id":"levelo_inurba_marseille","lat":43.25961,"lon":5.40899,"is_reserved":false,"is_disabled":false,"rental_uris":{"android":"levelo://app?vid=b5b3cf7c-3cd2-468e-81f0-a3cad12404e6","ios":"levelo://app?vid=b5b3cf7c-3cd2-468e-81f0-a3cad12404e6"},"vehicle_type_id":"4","last_reported":1758889193,"current_range_meters":16000,"station_id":"ce4bhm92rcd13ifvqglg","pricing_plan_id":"cebpf4jnsgd1na2vs0mg"},{"bike_id":"0064974e-02bb-40bc-8149-ba249ea4de7d","system_id":"levelo_inurba_marseille","lat":43.30539,"lon":5.36523,"is_reserved":false,"is_disabled":false,"rental_uris":{"android":"levelo://app?vid=0064974e-02bb-40bc-8149-ba249ea4de7d","ios":"levelo://app?vid=0064974e-02bb-40bc-8149-ba249ea4de7d"},"vehicle_type_id":"4","last_reported":1758889193,"current_range_meters":16000,"station_id":"ce4bgs12rcd13ifvqcag","pricing_plan_id":"cebpf4jnsgd1na2vs0mg"},{"bike_id":"9bb4db31-0bf9-4171-bca1-76cb045f53a3","system_id":"levelo_inurba_marseille","lat":43.26924,"lon":5.389081,"is_reserved":false,"is_disabled":true,"rental_uris":{"android":"levelo://app?vid=9bb4db31-0bf9-4171-bca1-76cb045f53a3","ios":"levelo://app?vid=9bb4db31-0bf9-4171-bca1-76cb045f53a3"},"vehicle_type_id":"4","last_reported":1758889193,"current_range_meters":16000,"station_id":"ce4bhhh2rcd13ifvqfl0","pricing_plan_id":"cebpf4jnsgd1na2vs0mg"},{"bike_id":"469ff443-60ff-4ef7-9f7a-9bb8fe6b6d1c","system_id":"levelo_inurba_marseille","lat":43.28081,"lon":5.39657,"is_reserved":false,"is_disabled":false,"rental_uris":{"android":"levelo://app?vid=469ff443-60ff-4ef7-9f7a-9bb8fe6b6d1c","ios":"levelo://app?vid=469ff443-60ff-4ef7-9f7a-9bb8fe6b6d1c"},"vehicle_type_id":"4","last_reported":1758889193,"current_range_meters":18000,"station_id":"ce4bho12rcd13ifvqh2g","pricing_plan_id":"cebpf4jnsgd1na2vs0mg"},{"bike_id":"fee74e98-eb52-4f66-a612-109c75f34aa6","system_id":"levelo_inurba_marseille","lat":43.29599,"lon":5.37948,"is_reserved":false,"is_disabled":false,"rental_uris":{"android":"levelo://app?vid=fee74e98-eb52-4f66-a612-109c75f34aa6","ios":"levelo://app?vid=fee74e98-eb52-4f66-a612-109c75f34aa6"},"vehicle_type_id":"4","last_reported":1758889193,"current_range_meters":16000,"station_id":"","pricing_plan_id":"cebpf4jnsgd1na2vs0mg"},{"bike_id":"c2a3bcd7-8f67-4b48-ad3d-c0a994d61790","system_id":"levelo_inurba_marseille","lat":43.28099,"lon":5.37831,"is_reserved":false,"is_disabled":false,"rental_uris":{"android":"levelo://app?vid=c2a3bcd7-8f67-4b48-ad3d-c0a994d61790","ios":"levelo://app?vid=c2a3bcd7-8f67-4b48-ad3d-c0a994d61790"},"vehicle_type_id":"4","last_reported":1758889193,"current_range_meters":11600,"station_id":"ce4bha12rcd13ifvqee0","pricing_plan_id":"cebpf4jnsgd1na2vs0mg"},{"bike_id":"0fc4d2f3-1d85-4ec4-8a3e-69538ee38430","system_id":"levelo_inurba_marseille","lat":43.29687,"lon":5.37296,"is_reserved":false,"is_disabled":false,"rental_uris":{"android":"levelo://app?vid=0fc4d2f3-1d85-4ec4-8a3e-69538ee38430","ios":"levelo://app?vid=0fc4d2f3-1d85-4ec4-8a3e-69538ee38430"},"vehicle_type_id":"4","last_reported":1758889193,"current_range_meters":16000,"station_id":"ce4bgk12rcd13ifvqbj0","pricing_plan_id":"cebpf4jnsgd1na2vs0mg"},{"bike_id":"c91aa95c-ae83-4f8a-bef3-89f188e39bfa","system_id":"levelo_inurba_marseille","lat":43.22573,"lon":5.41626,"is_reserved":false,"is_disabled":false,"rental_uris":{"android":"levelo://app?vid=c91aa95c-ae83-4f8a-bef3-89f188e39bfa","ios":"levelo://app?vid=c91aa95c-ae83-4f8a-bef3-89f188e39bfa"},"vehicle_type_id":"4","last_reported":1758889193,"current_range_meters":16000,"station_id":"st_d2o4gvlbi1j2169b742g","pricing_plan_id":"cebpf4jnsgd1na2vs0mg"},{"bike_id":"2a416e7a-1803-402e-9523-74bfe690bd54","system_id":"levelo_inurba_marseille","lat":43.32365,"lon":5.36767,"is_reserved":false,"is_disabled":false,"rental_uris":{"android":"levelo://app?vid=2a416e7a-1803-402e-9523-74bfe690bd54","ios":"levelo://app?vid=2a416e7a-1803-402e-9523-74bfe690bd54"},"vehicle_type_id":"4","last_reported":1758889193,"current_range_meters":16000,"station_id":"ce4bhsh2rcd13ifvqi2g","pricing_plan_id":"cebpf4jnsgd1na2vs0mg"},{"bike_id":"8e66fe85-7e10-4fcf-89e6-c3f47abe9572","system_id":"levelo_inurba_marseille","lat":43.24814,"lon":5.37457,"is_reserved":false,"is_disabled":false,"rental_uris":{"android":"levelo://app?vid=8e66fe85-7e10-4fcf-89e6-c3f47abe9572","ios":"levelo://app?vid=8e66fe85-7e10-4fcf-89e6-c3f47abe9572"},"vehicle_type_id":"4","last_reported":1758889193,"current_range_meters":16400,"station_id":"ce4bhgh2rcd13ifvqfb0","pricing_plan_id":"cebpf4jnsgd1na2vs0mg"},{"bike_id":"3652de56-c611-41c6-aa03-7fef6136da9d","system_id":"levelo_inurba_marseille","lat":43.25007,"lon":5.38924,"is_reserved":false,"is_disabled":false,"rental_uris":{"android":"levelo://app?vid=3652de56-c611-41c6-aa03-7fef6136da9d","ios":"levelo://app?vid=3652de56-c611-41c6-aa03-7fef6136da9d"},"vehicle_type_id":"4","last_reported":1758889193,"current_range_meters":16400,"station_id":"ce4bhgp2rcd13ifvqfd0","pricing_plan_id":"cebpf4jnsgd1na2vs0mg"},{"bike_id":"c47381a3-5a4b-4844-b987-0207088305bf","system_id":"levelo_inurba_marseille","lat":43.30774,"lon":5.37649,"is_reserved":false,"is_disabled":false,"rental_uris":{"android":"levelo://app?vid=c47381a3-5a4b-4844-b987-0207088305bf","ios":"levelo://app?vid=c47381a3-5a4b-4844-b987-0207088305bf"},"vehicle_type_id":"4","last_reported":1758889193,"current_range_meters":16400,"station_id":"ce4bgv92rcd13ifvqcq0","pricing_plan_id":"cebpf4jnsgd1na2vs0mg"},{"bike_id":"15b8abb9-1b82-439d-bef4-2444276aa7c3","system_id":"levelo_inurba_marseille","lat":43.31082,"lon":5.38349,"is_reserved":false,"is_disabled":true,"rental_uris":{"android":"levelo://app?vid=15b8abb9-1b82-439d-bef4-2444276aa7c3","ios":"levelo://app?vid=15b8abb9-1b82-439d-bef4-2444276aa7c3"},"vehicle_type_id":"4","last_reported":1758889193,"current_range_meters":16400,"station_id":"ce4bgv92rcd13ifvqcr0","pricing_plan_id":"cebpf4jnsgd1na2vs0mg"},{"bike_id":"2f224294-4f5c-4165-92b2-1dc896853269","system_id":"levelo_inurba_marseille","lat":43.29291,"lon":5.40121,"is_reserved":false,"is_disabled":false,"rental_uris":{"android":"levelo://app?vid=2f224294-4f5c-4165-92b2-1dc896853269","ios":"levelo://app?vid=2f224294-4f5c-4165-92b2-1dc896853269"},"vehicle_type_id":"4","last_reported":1758889193,"current_range_meters":16400,"station_id":"ce4bh312rcd13ifvqdk0","pricing_plan_id":"cebpf4jnsgd1na2vs0mg"},{"bike_id":"85782661-163d-4a8b-b5a4-1f0a766faaa2","system_id":"levelo_inurba_marseille","lat":43.24628,"lon":5.43145,"is_reserved":false,"is_disabled":false,"rental_uris":{"android":"levelo://app?vid=85782661-163d-4a8b-b5a4-1f0a766faaa2","ios":"levelo://app?vid=85782661-163d-4a8b-b5a4-1f0a766faaa2"},"vehicle_type_id":"4","last_reported":1758889193,"current_range_meters":16400,"station_id":"st_d2m6c4gdas8pm72e190g","pricing_plan_id":"cebpf4jnsgd1na2vs0mg"},{"bike_id":"e438f743-9525-44aa-8cda-c8be3486e464","system_id":"levelo_inurba_marseille","lat":43.33602,"lon":5.41021,"is_reserved":false,"is_disabled":false,"rental_uris":{"android":"levelo://app?vid=e438f743-9525-44aa-8cda-c8be3486e464","ios":"levelo://app?vid=e438f743-9525-44aa-8cda-c8be3486e464"},"vehicle_type_id":"4","last_reported":1758889193,"current_range_meters":16400,"station_id":"ce4bhqh2rcd13ifvqhmg","pricing_plan_id":"cebpf4jnsgd1na2vs0mg"},{"bike_id":"01bf55f2-4ac6-46f6-8504-3267bf31e1a6","system_id":"levelo_inurba_marseille","lat":43.2973,"lon":5.381787,"is_reserved":false,"is_disabled":false,"rental_uris":{"android":"levelo://app?vid=01bf55f2-4ac6-46f6-8504-3267bf31e1a6","ios":"levelo://app?vid=01bf55f2-4ac6-46f6-8504-3267bf31e1a6"},"vehicle_type_id":"4","last_reported":1758889193,"current_range_meters":16400,"station_id":"","pricing_plan_id":"cebpf4jnsgd1na2vs0mg"},{"bike_id":"8bd3c034-980f-4553-998a-0c8d81a4875e","system_id":"levelo_inurba_marseille","lat":43.23175,"lon":5.43696,"is_reserved":false,"is_disabled":false,"rental_uris":{"android":"levelo://app?vid=8bd3c034-980f-4553-998a-0c8d81a4875e","ios":"levelo://app?vid=8bd3c034-980f-4553-998a-0c8d81a4875e"},"vehicle_type_id":"4","last_reported":1758889193,"current_range_meters":16400,"station_id":"ce4bhmp2rcd13ifvqgog","pricing_plan_id":"cebpf4jnsgd1na2vs0mg"},{"bike_id":"175ed984-4779-4b98-920a-039ca300eaa4","system_id":"levelo_inurba_marseille","lat":43.27287,"lon":5.40802,"is_reserved":false,"is_disabled":false,"rental_uris":{"android":"levelo://app?vid=175ed984-4779-4b98-920a-039ca300eaa4","ios":"levelo://app?vid=175ed984-4779-4b98-920a-039ca300eaa4"},"vehicle_type_id":"4","last_reported":1758889193,"current_range_meters":16800,"station_id":"","pricing_plan_id":"cebpf4jnsgd1na2vs0mg"},{"bike_id":"c973dbb4-81a7-4731-a850-2666ddbc48bd","system_id":"levelo_inurba_marseille","lat":43.28159,"lon":5.42643,"is_reserved":false,"is_disabled":false,"rental_uris":{"android":"levelo://app?vid=c973dbb4-81a7-4731-a850-2666ddbc48bd","ios":"levelo://app?vid=c973dbb4-81a7-4731-a850-2666ddbc48bd"},"vehicle_type_id":"4","last_reported":1758889193,"current_range_meters":16800,"station_id":"ce4bhnh2rcd13ifvqgug","pricing_plan_id":"cebpf4jnsgd1na2vs0mg"},{"bike_id":"f7d02cdd-1af8-489d-84e6-2169828dbac6","system_id":"levelo_inurba_marseille","lat":43.30517,"lon":5.36717,"is_reserved":false,"is_disabled":false,"rental_uris":{"android":"levelo://app?vid=f7d02cdd-1af8-489d-84e6-2169828dbac6","ios":"levelo://app?vid=f7d02cdd-1af8-489d-84e6-2169828dbac6"},"vehicle_type_id":"4","last_reported":1758889193,"current_range_meters":16800,"station_id":"ce4bgrp2rcd13ifvqc9g","pricing_plan_id":"cebpf4jnsgd1na2vs0mg"},{"bike_id":"66d7338f-5df2-47d3-9ca4-acf9a7aae8f8","system_id":"levelo_inurba_marseille","lat":43.336018,"lon":5.410133,"is_reserved":false,"is_disabled":false,"rental_uris":{"android":"levelo://app?vid=66d7338f-5df2-47d3-9ca4-acf9a7aae8f8","ios":"levelo://app?vid=66d7338f-5df2-47d3-9ca4-acf9a7aae8f8"},"vehicle_type_id":"4","last_reported":1758889193,"current_range_meters":16800,"station_id":"ce4bhqh2rcd13ifvqhmg","pricing_plan_id":"cebpf4jnsgd1na2vs0mg"},{"bike_id":"3cca746f-fac4-450b-bb9c-94a2c2908362","system_id":"levelo_inurba_marseille","lat":43.28997,"lon":5.37817,"is_reserved":false,"is_disabled":false,"rental_uris":{"android":"levelo://app?vid=3cca746f-fac4-450b-bb9c-94a2c2908362","ios":"levelo://app?vid=3cca746f-fac4-450b-bb9c-94a2c2908362"},"vehicle_type_id":"4","last_reported":1758889193,"current_range_meters":16800,"station_id":"ce4bh9p2rcd13ifvqed0","pricing_plan_id":"cebpf4jnsgd1na2vs0mg"},{"bike_id":"ecde7416-5159-40e4-a639-87c55fad7fd9","system_id":"levelo_inurba_marseille","lat":43.23159,"lon":5.43715,"is_reserved":false,"is_disabled":false,"rental_uris":{"android":"levelo://app?vid=ecde7416-5159-40e4-a639-87c55fad7fd9","ios":"levelo://app?vid=ecde7416-5159-40e4-a639-87c55fad7fd9"},"vehicle_type_id":"4","last_reported":1758889193,"current_range_meters":16800,"station_id":"ce4bhmp2rcd13ifvqgog","pricing_plan_id":"cebpf4jnsgd1na2vs0mg"},{"bike_id":"41fbe864-b9c2-4b8a-a22b-e40ee788b52e","system_id":"levelo_inurba_marseille","lat":43.25084,"lon":5.39515,"is_reserved":false,"is_disabled":false,"rental_uris":{"android":"levelo://app?vid=41fbe864-b9c2-4b8a-a22b-e40ee788b52e","ios":"levelo://app?vid=41fbe864-b9c2-4b8a-a22b-e40ee788b52e"},"vehicle_type_id":"4","last_reported":1758889193,"current_range_meters":16800,"station_id":"ce4bhm12rcd13ifvqgkg","pricing_plan_id":"cebpf4jnsgd1na2vs0mg"},{"bike_id":"2d74398d-da84-4546-89ee-1587024ff4bc","system_id":"levelo_inurba_marseille","lat":43.274967,"lon":5.424467,"is_reserved":false,"is_disabled":false,"rental_uris":{"android":"levelo://app?vid=2d74398d-da84-4546-89ee-1587024ff4bc","ios":"levelo://app?vid=2d74398d-da84-4546-89ee-1587024ff4bc"},"vehicle_type_id":"4","last_reported":1758889193,"current_range_meters":16800,"station_id":"ce4bhn92rcd13ifvqgrg","pricing_plan_id":"cebpf4jnsgd1na2vs0mg"},{"bike_id":"00494059-65d2-4aa0-9e57-8baa3f33d16c","system_id":"levelo_inurba_marseille","lat":43.33155,"lon":5.38183,"is_reserved":false,"is_disabled":false,"rental_uris":{"android":"levelo://app?vid=00494059-65d2-4aa0-9e57-8baa3f33d16c","ios":"levelo://app?vid=00494059-65d2-4aa0-9e57-8baa3f33d16c"},"vehicle_type_id":"4","last_reported":1758889193,"current_range_meters":16800,"station_id":"","pricing_plan_id":"cebpf4jnsgd1na2vs0mg"},{"bike_id":"8cf842e4-76c1-4a82-ad31-66529da65dba","system_id":"levelo_inurba_marseille","lat":43.26735,"lon":5.40214,"is_reserved":false,"is_disabled":false,"rental_uris":{"android":"levelo://app?vid=8cf842e4-76c1-4a82-ad31-66529da65dba","ios":"levelo://app?vid=8cf842e4-76c1-4a82-ad31-66529da65dba"},"vehicle_type_id":"4","last_reported":1758889193,"current_range_meters":17200,"station_id":"","pricing_plan_id":"cebpf4jnsgd1na2vs0mg"},{"bike_id":"70da1447-d68f-4901-811c-dd6ac9314233","system_id":"levelo_inurba_marseille","lat":43.29566,"lon":5.39983,"is_reserved":false,"is_disabled":false,"rental_uris":{"android":"levelo://app?vid=70da1447-d68f-4901-811c-dd6ac9314233","ios":"levelo://app?vid=70da1447-d68f-4901-811c-dd6ac9314233"},"vehicle_type_id":"4","last_reported":1758889193,"current_range_meters":17200,"station_id":"ce4bh312rcd13ifvqdj0","pricing_plan_id":"cebpf4jnsgd1na2vs0mg"},{"bike_id":"ff80ace9-5bb1-4400-92db-811f67417271","system_id":"levelo_inurba_marseille","lat":43.24956,"lon":5.40485,"is_reserved":false,"is_disabled":false,"rental_uris":{"android":"levelo://app?vid=ff80ace9-5bb1-4400-92db-811f67417271","ios":"levelo://app?vid=ff80ace9-5bb1-4400-92db-811f67417271"},"vehicle_type_id":"4","last_reported":1758889193,"current_range_meters":17200,"station_id":"st_d2ngiaodas8pm72gd1h0","pricing_plan_id":"cebpf4jnsgd1na2vs0mg"},{"bike_id":"525c2086-0353-4510-a7f7-6a17d3925c9c","system_id":"levelo_inurba_marseille","lat":43.28727,"lon":5.37932,"is_reserved":false,"is_disabled":false,"rental_uris":{"android":"levelo://app?vid=525c2086-0353-4510-a7f7-6a17d3925c9c","ios":"levelo://app?vid=525c2086-0353-4510-a7f7-6a17d3925c9c"},"vehicle_type_id":"4","last_reported":1758889193,"current_range_meters":17200,"station_id":"ce4bh9p2rcd13ifvqec0","pricing_plan_id":"cebpf4jnsgd1na2vs0mg"},{"bike_id":"934ea1ec-b7f6-49a1-9efa-287317d4eb22","system_id":"levelo_inurba_marseille","lat":43.29048,"lon":5.35914,"is_reserved":false,"is_disabled":false,"rental_uris":{"android":"levelo://app?vid=934ea1ec-b7f6-49a1-9efa-287317d4eb22","ios":"levelo://app?vid=934ea1ec-b7f6-49a1-9efa-287317d4eb22"},"vehicle_type_id":"4","last_reported":1758889193,"current_range_meters":17200,"station_id":"","pricing_plan_id":"cebpf4jnsgd1na2vs0mg"},{"bike_id":"7f249506-fe7f-4ad9-be64-67212f4f10f8","system_id":"levelo_inurba_marseille","lat":43.32462,"lon":5.36592,"is_reserved":false,"is_disabled":false,"rental_uris":{"android":"levelo://app?vid=7f249506-fe7f-4ad9-be64-67212f4f10f8","ios":"levelo://app?vid=7f249506-fe7f-4ad9-be64-67212f4f10f8"},"vehicle_type_id":"4","last_reported":1758889193,"current_range_meters":17200,"station_id":"ce4bhs12rcd13ifvqhvg","pricing_plan_id":"cebpf4jnsgd1na2vs0mg"},{"bike_id":"9ba3cbab-50c8-4083-9f5b-019ebe5958f9","system_id":"levelo_inurba_marseille","lat":43.2781,"lon":5.407,"is_reserved":false,"is_disabled":false,"rental_uris":{"android":"levelo://app?vid=9ba3cbab-50c8-4083-9f5b-019ebe5958f9","ios":"levelo://app?vid=9ba3cbab-50c8-4083-9f5b-019ebe5958f9"},"vehicle_type_id":"4","last_reported":1758889193,"current_range_meters":17200,"station_id":"ce4bhnh2rcd13ifvqgtg","pricing_plan_id":"cebpf4jnsgd1na2vs0mg"},{"bike_id":"80bdba63-46f3-4274-b0d9-d9711409b6a8","system_id":"levelo_inurba_marseille","lat":43.270752,"lon":5.402497,"is_reserved":false,"is_disabled":false,"rental_uris":{"android":"levelo://app?vid=80bdba63-46f3-4274-b0d9-d9711409b6a8","ios":"levelo://app?vid=80bdba63-46f3-4274-b0d9-d9711409b6a8"},"vehicle_type_id":"4","last_reported":1758889193,"current_range_meters":17200,"station_id":"","pricing_plan_id":"cebpf4jnsgd1na2vs0mg"},{"bike_id":"3a1b0aec-41fe-4fe4-a265-d1a9001d0607","system_id":"levelo_inurba_marseille","lat":43.28001,"lon":5.41638,"is_reserved":false,"is_disabled":false,"rental_uris":{"android":"levelo://app?vid=3a1b0aec-41fe-4fe4-a265-d1a9001d0607","ios":"levelo://app?vid=3a1b0aec-41fe-4fe4-a265-d1a9001d0607"},"vehicle_type_id":"4","last_reported":1758889193,"current_range_meters":17200,"station_id":"ce4bho12rcd13ifvqh1g","pricing_plan_id":"cebpf4jnsgd1na2vs0mg"},{"bike_id":"ee925a9c-c600-454e-8837-0da5956fd25f","system_id":"levelo_inurba_marseille","lat":43.22934,"lon":5.35381,"is_reserved":false,"is_disabled":false,"rental_uris":{"android":"levelo://app?vid=ee925a9c-c600-454e-8837-0da5956fd25f","ios":"levelo://app?vid=ee925a9c-c600-454e-8837-0da5956fd25f"},"vehicle_type_id":"4","last_reported":1758889193,"current_range_meters":17200,"station_id":"cpo3532slgdg3j2ikp40","pricing_plan_id":"cebpf4jnsgd1na2vs0mg"},{"bike_id":"a30e7c7e-712a-493d-a355-25a532f135f0","system_id":"levelo_inurba_marseille","lat":43.30774,"lon":5.37656,"is_reserved":false,"is_disabled":false,"rental_uris":{"android":"levelo://app?vid=a30e7c7e-712a-493d-a355-25a532f135f0","ios":"levelo://app?vid=a30e7c7e-712a-493d-a355-25a532f135f0"},"vehicle_type_id":"4","last_reported":1758889193,"current_range_meters":17600,"station_id":"ce4bgv92rcd13ifvqcq0","pricing_plan_id":"cebpf4jnsgd1na2vs0mg"},{"bike_id":"63c0879c-e69b-4e84-9806-c068fbaee754","system_id":"levelo_inurba_marseille","lat":43.2294,"lon":5.35393,"is_reserved":false,"is_disabled":false,"rental_uris":{"android":"levelo://app?vid=63c0879c-e69b-4e84-9806-c068fbaee754","ios":"levelo://app?vid=63c0879c-e69b-4e84-9806-c068fbaee754"},"vehicle_type_id":"4","last_reported":1758889193,"current_range_meters":17600,"station_id":"cpo3532slgdg3j2ikp40","pricing_plan_id":"cebpf4jnsgd1na2vs0mg"},{"bike_id":"7f09bc43-02a6-468a-9182-731c83281b4a","system_id":"levelo_inurba_marseille","lat":43.26373,"lon":5.3752,"is_reserved":false,"is_disabled":false,"rental_uris":{"android":"levelo://app?vid=7f09bc43-02a6-468a-9182-731c83281b4a","ios":"levelo://app?vid=7f09bc43-02a6-468a-9182-731c83281b4a"},"vehicle_type_id":"4","last_reported":1758889193,"current_range_meters":17600,"station_id":"","pricing_plan_id":"cebpf4jnsgd1na2vs0mg"},{"bike_id":"dcfb7a2d-5648-4110-8afa-2c3677598567","system_id":"levelo_inurba_marseille","lat":43.24076,"lon":5.37763,"is_reserved":false,"is_disabled":false,"rental_uris":{"android":"levelo://app?vid=dcfb7a2d-5648-4110-8afa-2c3677598567","ios":"levelo://app?vid=dcfb7a2d-5648-4110-8afa-2c3677598567"},"vehicle_type_id":"4","last_reported":1758889193,"current_range_meters":17600,"station_id":"ce4bhnp2rcd13ifvqgvg","pricing_plan_id":"cebpf4jnsgd1na2vs0mg"},{"bike_id":"a4637820-773d-43fb-9981-a3eff918a7af","system_id":"levelo_inurba_marseille","lat":43.3109,"lon":5.42449,"is_reserved":false,"is_disabled":false,"rental_uris":{"android":"levelo://app?vid=a4637820-773d-43fb-9981-a3eff918a7af","ios":"levelo://app?vid=a4637820-773d-43fb-9981-a3eff918a7af"},"vehicle_type_id":"4","last_reported":1758889193,"current_range_meters":12800,"station_id":"ce4bhp92rcd13ifvqhag","pricing_plan_id":"cebpf4jnsgd1na2vs0mg"},{"bike_id":"371fd6e1-ff4a-4143-98fe-3368993b3f11","system_id":"levelo_inurba_marseille","lat":43.21201,"lon":5.35057,"is_reserved":false,"is_disabled":false,"rental_uris":{"android":"levelo://app?vid=371fd6e1-ff4a-4143-98fe-3368993b3f11","ios":"levelo://app?vid=371fd6e1-ff4a-4143-98fe-3368993b3f11"},"vehicle_type_id":"4","last_reported":1758889193,"current_range_meters":17600,"station_id":"st_cvj6sg6p6f1abm77japg","pricing_plan_id":"cebpf4jnsgd1na2vs0mg"},{"bike_id":"b27a4804-7e33-4d03-8454-3d3963c5b868","system_id":"levelo_inurba_marseille","lat":43.29588,"lon":5.37504,"is_reserved":false,"is_disabled":false,"rental_uris":{"android":"levelo://app?vid=b27a4804-7e33-4d03-8454-3d3963c5b868","ios":"levelo://app?vid=b27a4804-7e33-4d03-8454-3d3963c5b868"},"vehicle_type_id":"4","last_reported":1758889193,"current_range_meters":17600,"station_id":"ce4bgh92rcd13ifvqb50","pricing_plan_id":"cebpf4jnsgd1na2vs0mg"},{"bike_id":"607af568-33af-404a-87ce-012ff5be676e","system_id":"levelo_inurba_marseille","lat":43.30963,"lon":5.39038,"is_reserved":false,"is_disabled":false,"rental_uris":{"android":"levelo://app?vid=607af568-33af-404a-87ce-012ff5be676e","ios":"levelo://app?vid=607af568-33af-404a-87ce-012ff5be676e"},"vehicle_type_id":"4","last_reported":1758889193,"current_range_meters":17600,"station_id":"ce4bgup2rcd13ifvqco0","pricing_plan_id":"cebpf4jnsgd1na2vs0mg"},{"bike_id":"ac9d3204-6075-4372-a1c7-c680ded3bf74","system_id":"levelo_inurba_marseille","lat":43.23148,"lon":5.43711,"is_reserved":false,"is_disabled":false,"rental_uris":{"android":"levelo://app?vid=ac9d3204-6075-4372-a1c7-c680ded3bf74","ios":"levelo://app?vid=ac9d3204-6075-4372-a1c7-c680ded3bf74"},"vehicle_type_id":"4","last_reported":1758889193,"current_range_meters":17600,"station_id":"ce4bhmp2rcd13ifvqgog","pricing_plan_id":"cebpf4jnsgd1na2vs0mg"},{"bike_id":"73c20c43-bc61-43cb-87a1-f9ee0799dd60","system_id":"levelo_inurba_marseille","lat":43.28621,"lon":5.38442,"is_reserved":false,"is_disabled":false,"rental_uris":{"android":"levelo://app?vid=73c20c43-bc61-43cb-87a1-f9ee0799dd60","ios":"levelo://app?vid=73c20c43-bc61-43cb-87a1-f9ee0799dd60"},"vehicle_type_id":"4","last_reported":1758889193,"current_range_meters":17600,"station_id":"","pricing_plan_id":"cebpf4jnsgd1na2vs0mg"},{"bike_id":"c3aaf357-dacd-44ee-849c-77627935c404","system_id":"levelo_inurba_marseille","lat":43.31279,"lon":5.36883,"is_reserved":false,"is_disabled":false,"rental_uris":{"android":"levelo://app?vid=c3aaf357-dacd-44ee-849c-77627935c404","ios":"levelo://app?vid=c3aaf357-dacd-44ee-849c-77627935c404"},"vehicle_type_id":"4","last_reported":1758889193,"current_range_meters":18000,"station_id":"ce4bgl92rcd13ifvqbq0","pricing_plan_id":"cebpf4jnsgd1na2vs0mg"},{"bike_id":"82cf85ff-c9bc-4d34-9fba-817448bb3b6c","system_id":"levelo_inurba_marseille","lat":43.279971,"lon":5.416581,"is_reserved":false,"is_disabled":false,"rental_uris":{"android":"levelo://app?vid=82cf85ff-c9bc-4d34-9fba-817448bb3b6c","ios":"levelo://app?vid=82cf85ff-c9bc-4d34-9fba-817448bb3b6c"},"vehicle_type_id":"4","last_reported":1758889193,"current_range_meters":18000,"station_id":"ce4bho12rcd13ifvqh1g","pricing_plan_id":"cebpf4jnsgd1na2vs0mg"},{"bike_id":"c3e4eb6c-d62e-4131-be68-cf6a90ff81da","system_id":"levelo_inurba_marseille","lat":43.23184,"lon":5.39978,"is_reserved":false,"is_disabled":false,"rental_uris":{"android":"levelo://app?vid=c3e4eb6c-d62e-4131-be68-cf6a90ff81da","ios":"levelo://app?vid=c3e4eb6c-d62e-4131-be68-cf6a90ff81da"},"vehicle_type_id":"4","last_reported":1758889193,"current_range_meters":18000,"station_id":"ce4bhn12rcd13ifvqgqg","pricing_plan_id":"cebpf4jnsgd1na2vs0mg"},{"bike_id":"70395860-088e-400a-bbaf-375c3c025013","system_id":"levelo_inurba_marseille","lat":43.306467,"lon":5.400988,"is_reserved":false,"is_disabled":false,"rental_uris":{"android":"levelo://app?vid=70395860-088e-400a-bbaf-375c3c025013","ios":"levelo://app?vid=70395860-088e-400a-bbaf-375c3c025013"},"vehicle_type_id":"4","last_reported":1758889193,"current_range_meters":20000,"station_id":"ce4bh112rcd13ifvqda0","pricing_plan_id":"cebpf4jnsgd1na2vs0mg"},{"bike_id":"06dc6a26-922d-4c5a-964b-8b132552b247","system_id":"levelo_inurba_marseille","lat":43.25112,"lon":5.40313,"is_reserved":false,"is_disabled":false,"rental_uris":{"android":"levelo://app?vid=06dc6a26-922d-4c5a-964b-8b132552b247","ios":"levelo://app?vid=06dc6a26-922d-4c5a-964b-8b132552b247"},"vehicle_type_id":"4","last_reported":1758889193,"current_range_meters":18000,"station_id":"ce4bhlh2rcd13ifvqgig","pricing_plan_id":"cebpf4jnsgd1na2vs0mg"},{"bike_id":"67a45ce5-623a-4e4c-977b-4e9d6015f6ea","system_id":"levelo_inurba_marseille","lat":43.30284,"lon":5.37703,"is_reserved":false,"is_disabled":false,"rental_uris":{"android":"levelo://app?vid=67a45ce5-623a-4e4c-977b-4e9d6015f6ea","ios":"levelo://app?vid=67a45ce5-623a-4e4c-977b-4e9d6015f6ea"},"vehicle_type_id":"4","last_reported":1758889193,"current_range_meters":18000,"station_id":"ce4bguh2rcd13ifvqcj0","pricing_plan_id":"cebpf4jnsgd1na2vs0mg"},{"bike_id":"ae58ae82-385d-4e14-8a72-751e530f467a","system_id":"levelo_inurba_marseille","lat":43.2315,"lon":5.43715,"is_reserved":false,"is_disabled":false,"rental_uris":{"android":"levelo://app?vid=ae58ae82-385d-4e14-8a72-751e530f467a","ios":"levelo://app?vid=ae58ae82-385d-4e14-8a72-751e530f467a"},"vehicle_type_id":"4","last_reported":1758889193,"current_range_meters":18000,"station_id":"ce4bhmp2rcd13ifvqgog","pricing_plan_id":"cebpf4jnsgd1na2vs0mg"},{"bike_id":"f349e0f0-8e2a-4e63-8b00-ae64605d31ea","system_id":"levelo_inurba_marseille","lat":43.31328,"lon":5.39692,"is_reserved":false,"is_disabled":false,"rental_uris":{"android":"levelo://app?vid=f349e0f0-8e2a-4e63-8b00-ae64605d31ea","ios":"levelo://app?vid=f349e0f0-8e2a-4e63-8b00-ae64605d31ea"},"vehicle_type_id":"4","last_reported":1758889193,"current_range_meters":18000,"station_id":"ce4bgvp2rcd13ifvqcu0","pricing_plan_id":"cebpf4jnsgd1na2vs0mg"},{"bike_id":"03350417-1098-4d6c-b8fe-9e64358744bf","system_id":"levelo_inurba_marseille","lat":43.31034,"lon":5.37564,"is_reserved":false,"is_disabled":false,"rental_uris":{"android":"levelo://app?vid=03350417-1098-4d6c-b8fe-9e64358744bf","ios":"levelo://app?vid=03350417-1098-4d6c-b8fe-9e64358744bf"},"vehicle_type_id":"4","last_reported":1758889193,"current_range_meters":18000,"station_id":"","pricing_plan_id":"cebpf4jnsgd1na2vs0mg"},{"bike_id":"0445961a-8d71-4a5e-9617-3ea41ebff69a","system_id":"levelo_inurba_marseille","lat":43.24175,"lon":5.36395,"is_reserved":false,"is_disabled":false,"rental_uris":{"android":"levelo://app?vid=0445961a-8d71-4a5e-9617-3ea41ebff69a","ios":"levelo://app?vid=0445961a-8d71-4a5e-9617-3ea41ebff69a"},"vehicle_type_id":"4","last_reported":1758889193,"current_range_meters":18800,"station_id":"cpo36qri1sfpv3e86is0","pricing_plan_id":"cebpf4jnsgd1na2vs0mg"},{"bike_id":"e52c77b6-7c49-49c7-b2ca-75362bde5abe","system_id":"levelo_inurba_marseille","lat":43.26943,"lon":5.40253,"is_reserved":false,"is_disabled":false,"rental_uris":{"android":"levelo://app?vid=e52c77b6-7c49-49c7-b2ca-75362bde5abe","ios":"levelo://app?vid=e52c77b6-7c49-49c7-b2ca-75362bde5abe"},"vehicle_type_id":"4","last_reported":1758889193,"current_range_meters":18800,"station_id":"cjm6bp8fraef2m0cb0m0","pricing_plan_id":"cebpf4jnsgd1na2vs0mg"},{"bike_id":"cecc14b1-e35c-4bda-a1ff-f8b4863a20a2","system_id":"levelo_inurba_marseille","lat":43.25595,"lon":5.38219,"is_reserved":false,"is_disabled":false,"rental_uris":{"android":"levelo://app?vid=cecc14b1-e35c-4bda-a1ff-f8b4863a20a2","ios":"levelo://app?vid=cecc14b1-e35c-4bda-a1ff-f8b4863a20a2"},"vehicle_type_id":"4","last_reported":1758889193,"current_range_meters":18800,"station_id":"ce4bhih2rcd13ifvqfs0","pricing_plan_id":"cebpf4jnsgd1na2vs0mg"},{"bike_id":"5bb42022-0e19-48bc-a5b4-218bb1d7482e","system_id":"levelo_inurba_marseille","lat":43.3128,"lon":5.37746,"is_reserved":false,"is_disabled":false,"rental_uris":{"android":"levelo://app?vid=5bb42022-0e19-48bc-a5b4-218bb1d7482e","ios":"levelo://app?vid=5bb42022-0e19-48bc-a5b4-218bb1d7482e"},"vehicle_type_id":"4","last_reported":1758889193,"current_range_meters":18800,"station_id":"","pricing_plan_id":"cebpf4jnsgd1na2vs0mg"},{"bike_id":"434f48e7-00ad-4d61-9d7a-3eb85bc21f29","system_id":"levelo_inurba_marseille","lat":43.28683,"lon":5.38656,"is_reserved":false,"is_disabled":false,"rental_uris":{"android":"levelo://app?vid=434f48e7-00ad-4d61-9d7a-3eb85bc21f29","ios":"levelo://app?vid=434f48e7-00ad-4d61-9d7a-3eb85bc21f29"},"vehicle_type_id":"4","last_reported":1758889193,"current_range_meters":18800,"station_id":"ce4bh492rcd13ifvqdug","pricing_plan_id":"cebpf4jnsgd1na2vs0mg"},{"bike_id":"46ac5fb6-ac2e-43e8-84c9-c4e46889ea29","system_id":"levelo_inurba_marseille","lat":43.21197,"lon":5.35075,"is_reserved":false,"is_disabled":false,"rental_uris":{"android":"levelo://app?vid=46ac5fb6-ac2e-43e8-84c9-c4e46889ea29","ios":"levelo://app?vid=46ac5fb6-ac2e-43e8-84c9-c4e46889ea29"},"vehicle_type_id":"4","last_reported":1758889193,"current_range_meters":18800,"station_id":"st_cvj6sg6p6f1abm77japg","pricing_plan_id":"cebpf4jnsgd1na2vs0mg"},{"bike_id":"94fcb744-07d8-49fc-a9ba-7e39b5cfcaca","system_id":"levelo_inurba_marseille","lat":43.31768,"lon":5.3901,"is_reserved":false,"is_disabled":false,"rental_uris":{"android":"levelo://app?vid=94fcb744-07d8-49fc-a9ba-7e39b5cfcaca","ios":"levelo://app?vid=94fcb744-07d8-49fc-a9ba-7e39b5cfcaca"},"vehicle_type_id":"4","last_reported":1758889193,"current_range_meters":18800,"station_id":"ce4bhqp2rcd13ifvqhng","pricing_plan_id":"cebpf4jnsgd1na2vs0mg"},