{"last_updated":1743959249,"ttl":60,"version":"2.2","data":{"bikes":[{"bike_id":"d4141af9-144a-4d26-b1de-0ca1580e0d8b","system_id":"levelo_inurba_marseille","lat":43.29381,"lon":5.37843,"is_reserved":false,"is_disabled":false,"rental_uris":{"android":"levelo://app?vid=d4141af9-144a-4d26-b1de-0ca1580e0d8b","ios":"levelo://app?vid=d4141af9-144a-4d26-b1de-0ca1580e0d8b"},"vehicle_type_id":"4","last_reported":1743959249,"current_range_meters":2800,"station_id":"ce4bgjh2rcd13ifvqbf0","pricing_plan_id":"cebpf4jnsgd1na2vs0mg"},{"bike_id":"fd9b2368-7dbb-4d0b-b0b0-a7d542ae2300","system_id":"levelo_inurba_marseille","lat":43.27833,"lon":5.3921,"is_reserved":false,"is_disabled":false,"rental_uris":{"android":"levelo://app?vid=fd9b2368-7dbb-4d0b-b0b0-a7d542ae2300","ios":"levelo://app?vid=fd9b2368-7dbb-4d0b-b0b0-a7d542ae2300"},"vehicle_type_id":"4","last_reported":1743959249,"current_range_meters":4000,"station_id":"ce4bhjp2rcd13ifvqga0","pricing_plan_id":"cebpf4jnsgd1na2vs0mg"},{"bike_id":"c3b4862e-edae-4d81-8d2c-92304d3973a1","system_id":"levelo_inurba_marseille","lat":43.29533,"lon":5.38541,"is_reserved":false,"is_disabled":false,"rental_uris":{"android":"levelo://app?vid=c3b4862e-edae-4d81-8d2c-92304d3973a1","ios":"levelo://app?vid=c3b4862e-edae-4d81-8d2c-92304d3973a1"},"vehicle_type_id":"4","last_reported":1743959249,"current_range_meters":2800,"station_id":"ce4bgih2rcd13ifvqba0","pricing_plan_id":"cebpf4jnsgd1na2vs0mg"},{"bike_id":"6783a5d0-3fdf-4f44-ad12-3e199bc0a0ba","system_id":"levelo_inurba_marseille","lat":43.2353,"lon":5.36096,"is_reserved":false,"is_disabled":false,"rental_uris":{"android":"levelo://app?vid=6783a5d0-3fdf-4f44-ad12-3e199bc0a0ba","ios":"levelo://app?vid=6783a5d0-3fdf-4f44-ad12-3e199bc0a0ba"},"vehicle_type_id":"4","last_reported":1743959249,"current_range_meters":2800,"station_id":"","pricing_plan_id":"cebpf4jnsgd1na2vs0mg"},{"bike_id":"557dddb3-e057-4dac-b81b-407f1b639c9f","system_id":"levelo_inurba_marseille","lat":43.299178,"lon":5.374462,"is_reserved":false,"is_disabled":false,"rental_uris":{"android":"levelo://app?vid=557dddb3-e057-4dac-b81b-407f1b639c9f","ios":"levelo://app?vid=557dddb3-e057-4dac-b81b-407f1b639c9f"},"vehicle_type_id":"4","last_reported":1743959249,"current_range_meters":2800,"station_id":"ce4bgjh2rcd13ifvqbg0","pricing_plan_id":"cebpf4jnsgd1na2vs0mg"},{"bike_id":"7906be55-9e4f-421e-b27a-6f2e8b9912df","system_id":"levelo_inurba_marseille","lat":43.29185,"lon":5.37139,"is_reserved":false,"is_disabled":false,"rental_uris":{"android":"levelo://app?vid=7906be55-9e4f-421e-b27a-6f2e8b9912df","ios":"levelo://app?vid=7906be55-9e4f-421e-b27a-6f2e8b9912df"},"vehicle_type_id":"4","last_reported":1743959249,"current_range_meters":2800,"station_id":"ce4bha92rcd13ifvqeh0","pricing_plan_id":"cebpf4jnsgd1na2vs0mg"},{"bike_id":"063048d6-d998-477a-bdd1-8a9a3df51da6","system_id":"levelo_inurba_marseille","lat":43.28948,"lon":5.36645,"is_reserved":false,"is_disabled":false,"rental_uris":{"android":"levelo://app?vid=063048d6-d998-477a-bdd1-8a9a3df51da6","ios":"levelo://app?vid=063048d6-d998-477a-bdd1-8a9a3df51da6"},"vehicle_type_id":"4","last_reported":1743959249,"current_range_meters":2800,"station_id":"ce4bhap2rcd13ifvqek0","pricing_plan_id":"cebpf4jnsgd1na2vs0mg"},{"bike_id":"ae5d001b-66e7-45ef-918f-0566f2ce4eff","system_id":"levelo_inurba_marseille","lat":43.23961,"lon":5.36624,"is_reserved":false,"is_disabled":false,"rental_uris":{"android":"levelo://app?vid=ae5d001b-66e7-45ef-918f-0566f2ce4eff","ios":"levelo://app?vid=ae5d001b-66e7-45ef-918f-0566f2ce4eff"},"vehicle_type_id":"4","last_reported":1743959249,"current_range_meters":2800,"station_id":"ce4bhi12rcd13ifvqfp0","pricing_plan_id":"cebpf4jnsgd1na2vs0mg"},{"bike_id":"28b3faf6-6f27-4fc9-ad09-de370e0daa9e","system_id":"levelo_inurba_marseille","lat":43.255814,"lon":5.382303,"is_reserved":false,"is_disabled":false,"rental_uris":{"android":"levelo://app?vid=28b3faf6-6f27-4fc9-ad09-de370e0daa9e","ios":"levelo://app?vid=28b3faf6-6f27-4fc9-ad09-de370e0daa9e"},"vehicle_type_id":"4","last_reported":1743959249,"current_range_meters":2800,"station_id":"ce4bhih2rcd13ifvqfs0","pricing_plan_id":"cebpf4jnsgd1na2vs0mg"},{"bike_id":"61d3bd42-2950-4aa7-b72e-a1c0e9b55b91","system_id":"levelo_inurba_marseille","lat":43.28161,"lon":5.42629,"is_reserved":false,"is_disabled":false,"rental_uris":{"android":"levelo://app?vid=61d3bd42-2950-4aa7-b72e-a1c0e9b55b91","ios":"levelo://app?vid=61d3bd42-2950-4aa7-b72e-a1c0e9b55b91"},"vehicle_type_id":"4","last_reported":1743959249,"current_range_meters":2800,"station_id":"ce4bhnh2rcd13ifvqgug","pricing_plan_id":"cebpf4jnsgd1na2vs0mg"},{"bike_id":"79194622-779e-4408-b25a-e2ed2718fbc0","system_id":"levelo_inurba_marseille","lat":43.3055,"lon":5.36552,"is_reserved":false,"is_disabled":false,"rental_uris":{"android":"levelo://app?vid=79194622-779e-4408-b25a-e2ed2718fbc0","ios":"levelo://app?vid=79194622-779e-4408-b25a-e2ed2718fbc0"},"vehicle_type_id":"4","last_reported":1743959249,"current_range_meters":2000,"station_id":"ce4bgs12rcd13ifvqcag","pricing_plan_id":"cebpf4jnsgd1na2vs0mg"},{"bike_id":"afb54878-4656-4943-a857-4ca07d2f8f29","system_id":"levelo_inurba_marseille","lat":43.2401,"lon":5.36621,"is_reserved":false,"is_disabled":false,"rental_uris":{"android":"levelo://app?vid=afb54878-4656-4943-a857-4ca07d2f8f29","ios":"levelo://app?vid=afb54878-4656-4943-a857-4ca07d2f8f29"},"vehicle_type_id":"4","last_reported":1743959249,"current_range_meters":2800,"station_id":"ce4bhi12rcd13ifvqfp0","pricing_plan_id":"cebpf4jnsgd1na2vs0mg"},{"bike_id":"feb6e46c-3fb2-45a9-a2fb-22ac62feb505","system_id":"levelo_inurba_marseille","lat":43.23054,"lon":5.35489,"is_reserved":false,"is_disabled":true,"rental_uris":{"android":"levelo://app?vid=feb6e46c-3fb2-45a9-a2fb-22ac62feb505","ios":"levelo://app?vid=feb6e46c-3fb2-45a9-a2fb-22ac62feb505"},"vehicle_type_id":"4","last_reported":1743959249,"current_range_meters":2800,"station_id":"cpo3342slgdg3j2ifvpg","pricing_plan_id":"cebpf4jnsgd1na2vs0mg"},{"bike_id":"0b57d7d8-334c-4752-85b6-365e3cc5a7b2","system_id":"levelo_inurba_marseille","lat":43.25725,"lon":5.41106,"is_reserved":false,"is_disabled":false,"rental_uris":{"android":"levelo://app?vid=0b57d7d8-334c-4752-85b6-365e3cc5a7b2","ios":"levelo://app?vid=0b57d7d8-334c-4752-85b6-365e3cc5a7b2"},"vehicle_type_id":"4","last_reported":1743959249,"current_range_meters":3200,"station_id":"ce4bhkp2rcd13ifvqgd0","pricing_plan_id":"cebpf4jnsgd1na2vs0mg"},{"bike_id":"8dbf1ff7-490a-4666-83aa-d34b70f1efb5","system_id":"levelo_inurba_marseille","lat":43.28154,"lon":5.42646,"is_reserved":false,"is_disabled":false,"rental_uris":{"android":"levelo://app?vid=8dbf1ff7-490a-4666-83aa-d34b70f1efb5","ios":"levelo://app?vid=8dbf1ff7-490a-4666-83aa-d34b70f1efb5"},"vehicle_type_id":"4","last_reported":1743959249,"current_range_meters":3200,"station_id":"ce4bhnh2rcd13ifvqgug","pricing_plan_id":"cebpf4jnsgd1na2vs0mg"},{"bike_id":"2db53832-8ddb-4f78-af90-d03eed8cf603","system_id":"levelo_inurba_marseille","lat":43.26488,"lon":5.39562,"is_reserved":false,"is_disabled":false,"rental_uris":{"android":"levelo://app?vid=2db53832-8ddb-4f78-af90-d03eed8cf603","ios":"levelo://app?vid=2db53832-8ddb-4f78-af90-d03eed8cf603"},"vehicle_type_id":"4","last_reported":1743959249,"current_range_meters":3200,"station_id":"ce4bhi12rcd13ifvqfq0","pricing_plan_id":"cebpf4jnsgd1na2vs0mg"},{"bike_id":"29adc4d4-dad4-47ef-92c2-8ad58eb5a3df","system_id":"levelo_inurba_marseille","lat":43.31495,"lon":5.37298,"is_reserved":false,"is_disabled":false,"rental_uris":{"android":"levelo://app?vid=29adc4d4-dad4-47ef-92c2-8ad58eb5a3df","ios":"levelo://app?vid=29adc4d4-dad4-47ef-92c2-8ad58eb5a3df"},"vehicle_type_id":"4","last_reported":1743959249,"current_range_meters":3600,"station_id":"ce4bgt12rcd13ifvqcd0","pricing_plan_id":"cebpf4jnsgd1na2vs0mg"},{"bike_id":"9b2f43c3-f3e5-4c4f-9da7-e8e8c61f57bf","system_id":"levelo_inurba_marseille","lat":43.29527,"lon":5.39402,"is_reserved":false,"is_disabled":false,"rental_uris":{"android":"levelo://app?vid=9b2f43c3-f3e5-4c4f-9da7-e8e8c61f57bf","ios":"levelo://app?vid=9b2f43c3-f3e5-4c4f-9da7-e8e8c61f57bf"},"vehicle_type_id":"4","last_reported":1743959249,"current_range_meters":3600,"station_id":"ce4bh292rcd13ifvqdf0","pricing_plan_id":"cebpf4jnsgd1na2vs0mg"},{"bike_id":"c81cc95a-596b-4183-b089-61e73e1897cd","system_id":"levelo_inurba_marseille","lat":43.24664,"lon":5.38166,"is_reserved":false,"is_disabled":false,"rental_uris":{"android":"levelo://app?vid=c81cc95a-596b-4183-b089-61e73e1897cd","ios":"levelo://app?vid=c81cc95a-596b-4183-b089-61e73e1897cd"},"vehicle_type_id":"4","last_reported":1743959249,"current_range_meters":3600,"station_id":"ce4bhih2rcd13ifvqfr0","pricing_plan_id":"cebpf4jnsgd1na2vs0mg"},{"bike_id":"fb0d4993-67fa-4314-9525-ef2ba9197c72","system_id":"levelo_inurba_marseille","lat":43.30263,"lon":5.4063,"is_reserved":false,"is_disabled":false,"rental_uris":{"android":"levelo://app?vid=fb0d4993-67fa-4314-9525-ef2ba9197c72","ios":"levelo://app?vid=fb0d4993-67fa-4314-9525-ef2ba9197c72"},"vehicle_type_id":"4","last_reported":1743959249,"current_range_meters":4000,"station_id":"","pricing_plan_id":"cebpf4jnsgd1na2vs0mg"},{"bike_id":"435df996-23d0-4266-9397-8cf5564310cc","system_id":"levelo_inurba_marseille","lat":43.24173,"lon":5.36405,"is_reserved":false,"is_disabled":false,"rental_uris":{"android":"levelo://app?vid=435df996-23d0-4266-9397-8cf5564310cc","ios":"levelo://app?vid=435df996-23d0-4266-9397-8cf5564310cc"},"vehicle_type_id":"4","last_reported":1743959249,"current_range_meters":3600,"station_id":"cpo36qri1sfpv3e86is0","pricing_plan_id":"cebpf4jnsgd1na2vs0mg"},{"bike_id":"6546763b-8ca1-48cd-bca0-2e9554875b1a","system_id":"levelo_inurba_marseille","lat":43.2756,"lon":5.38423,"is_reserved":false,"is_disabled":false,"rental_uris":{"android":"levelo://app?vid=6546763b-8ca1-48cd-bca0-2e9554875b1a","ios":"levelo://app?vid=6546763b-8ca1-48cd-bca0-2e9554875b1a"},"vehicle_type_id":"4","last_reported":1743959249,"current_range_meters":3600,"station_id":"ce4bhh92rcd13ifvqfi0","pricing_plan_id":"cebpf4jnsgd1na2vs0mg"},{"bike_id":"a3a3f188-dc26-403e-921c-c60dca29e86e","system_id":"levelo_inurba_marseille","lat":43.25724,"lon":5.41111,"is_reserved":false,"is_disabled":false,"rental_uris":{"android":"levelo://app?vid=a3a3f188-dc26-403e-921c-c60dca29e86e","ios":"levelo://app?vid=a3a3f188-dc26-403e-921c-c60dca29e86e"},"vehicle_type_id":"4","last_reported":1743959249,"current_range_meters":3600,"station_id":"ce4bhkp2rcd13ifvqgd0","pricing_plan_id":"cebpf4jnsgd1na2vs0mg"},{"bike_id":"4546b6f3-86fd-4994-8b52-87a021e90be8","system_id":"levelo_inurba_marseille","lat":43.2845,"lon":5.392,"is_reserved":false,"is_disabled":false,"rental_uris":{"android":"levelo://app?vid=4546b6f3-86fd-4994-8b52-87a021e90be8","ios":"levelo://app?vid=4546b6f3-86fd-4994-8b52-87a021e90be8"},"vehicle_type_id":"4","last_reported":1743959249,"current_range_meters":3600,"station_id":"ce4bhoh2rcd13ifvqh5g","pricing_plan_id":"cebpf4jnsgd1na2vs0mg"},{"bike_id":"78a6c39c-1164-42e4-9e01-9540e04e73af","system_id":"levelo_inurba_marseille","lat":43.27678,"lon":5.38895,"is_reserved":false,"is_disabled":false,"rental_uris":{"android":"levelo://app?vid=78a6c39c-1164-42e4-9e01-9540e04e73af","ios":"levelo://app?vid=78a6c39c-1164-42e4-9e01-9540e04e73af"},"vehicle_type_id":"4","last_reported":1743959249,"current_range_meters":3600,"station_id":"ce4bhi12rcd13ifvqfo0","pricing_plan_id":"cebpf4jnsgd1na2vs0mg"},{"bike_id":"88709f13-a614-4b6a-a2a6-c62eb6dd63a8","system_id":"levelo_inurba_marseille","lat":43.24156,"lon":5.36408,"is_reserved":false,"is_disabled":false,"rental_uris":{"android":"levelo://app?vid=88709f13-a614-4b6a-a2a6-c62eb6dd63a8","ios":"levelo://app?vid=88709f13-a614-4b6a-a2a6-c62eb6dd63a8"},"vehicle_type_id":"4","last_reported":1743959249,"current_range_meters":3600,"station_id":"cpo36qri1sfpv3e86is0","pricing_plan_id":"cebpf4jnsgd1na2vs0mg"},{"bike_id":"38e6b950-ac1d-4607-87f8-5068ad0ee317","system_id":"levelo_inurba_marseille","lat":43.30877,"lon":5.39654,"is_reserved":false,"is_disabled":false,"rental_uris":{"android":"levelo://app?vid=38e6b950-ac1d-4607-87f8-5068ad0ee317","ios":"levelo://app?vid=38e6b950-ac1d-4607-87f8-5068ad0ee317"},"vehicle_type_id":"4","last_reported":1743959249,"current_range_meters":3600,"station_id":"ce4bh012rcd13ifvqcv0","pricing_plan_id":"cebpf4jnsgd1na2vs0mg"},{"bike_id":"3a69c7bf-ffb3-4dce-af64-5df0ba24282c","system_id":"levelo_inurba_marseille","lat":43.27656,"lon":5.3893,"is_reserved":false,"is_disabled":false,"rental_uris":{"android":"levelo://app?vid=3a69c7bf-ffb3-4dce-af64-5df0ba24282c","ios":"levelo://app?vid=3a69c7bf-ffb3-4dce-af64-5df0ba24282c"},"vehicle_type_id":"4","last_reported":1743959249,"current_range_meters":3600,"station_id":"ce4bhi12rcd13ifvqfo0","pricing_plan_id":"cebpf4jnsgd1na2vs0mg"},{"bike_id":"774dd6b3-bb45-4dcc-b6b1-98af1c5cd412","system_id":"levelo_inurba_marseille","lat":43.27999,"lon":5.40026,"is_reserved":false,"is_disabled":false,"rental_uris":{"android":"levelo://app?vid=774dd6b3-bb45-4dcc-b6b1-98af1c5cd412","ios":"levelo://app?vid=774dd6b3-bb45-4dcc-b6b1-98af1c5cd412"},"vehicle_type_id":"4","last_reported":1743959249,"current_range_meters":3600,"station_id":"ce4bho92rcd13ifvqh4g","pricing_plan_id":"cebpf4jnsgd1na2vs0mg"},{"bike_id":"2590115c-07b8-4ab2-8110-efc96edbdc52","system_id":"levelo_inurba_marseille","lat":43.299731,"lon":5.371747,"is_reserved":false,"is_disabled":false,"rental_uris":{"android":"levelo://app?vid=2590115c-07b8-4ab2-8110-efc96edbdc52","ios":"levelo://app?vid=2590115c-07b8-4ab2-8110-efc96edbdc52"},"vehicle_type_id":"4","last_reported":1743959249,"current_range_meters":3600,"station_id":"ce4bgvh2rcd13ifvqcs0","pricing_plan_id":"cebpf4jnsgd1na2vs0mg"},{"bike_id":"845dc4a6-c0ce-4957-8747-adf4c67c0bd1","system_id":"levelo_inurba_marseille","lat":43.28356,"lon":5.38659,"is_reserved":false,"is_disabled":false,"rental_uris":{"android":"levelo://app?vid=845dc4a6-c0ce-4957-8747-adf4c67c0bd1","ios":"levelo://app?vid=845dc4a6-c0ce-4957-8747-adf4c67c0bd1"},"vehicle_type_id":"4","last_reported":1743959249,"current_range_meters":3600,"station_id":"ce4bh492rcd13ifvqdvg","pricing_plan_id":"cebpf4jnsgd1na2vs0mg"},{"bike_id":"f8efb5bc-d7e2-4bf2-9ee5-562112a81db8","system_id":"levelo_inurba_marseille","lat":43.29024,"lon":5.38132,"is_reserved":false,"is_disabled":false,"rental_uris":{"android":"levelo://app?vid=f8efb5bc-d7e2-4bf2-9ee5-562112a81db8","ios":"levelo://app?vid=f8efb5bc-d7e2-4bf2-9ee5-562112a81db8"},"vehicle_type_id":"4","last_reported":1743959249,"current_range_meters":4800,"station_id":"ce4bh4p2rcd13ifvqe1g","pricing_plan_id":"cebpf4jnsgd1na2vs0mg"},{"bike_id":"7a4caa0d-bd6d-4b58-9c4b-8e630d3bd475","system_id":"levelo_inurba_marseille","lat":43.29453,"lon":5.39742,"is_reserved":false,"is_disabled":false,"rental_uris":{"android":"levelo://app?vid=7a4caa0d-bd6d-4b58-9c4b-8e630d3bd475","ios":"levelo://app?vid=7a4caa0d-bd6d-4b58-9c4b-8e630d3bd475"},"vehicle_type_id":"4","last_reported":1743959249,"current_range_meters":4000,"station_id":"ce4bh3h2rcd13ifvqdo0","pricing_plan_id":"cebpf4jnsgd1na2vs0mg"},{"bike_id":"a8c5543f-0892-43cb-b96f-3c97bb120ec9","system_id":"levelo_inurba_marseille","lat":43.31721,"lon":5.43715,"is_reserved":false,"is_disabled":false,"rental_uris":{"android":"levelo://app?vid=a8c5543f-0892-43cb-b96f-3c97bb120ec9","ios":"levelo://app?vid=a8c5543f-0892-43cb-b96f-3c97bb120ec9"},"vehicle_type_id":"4","last_reported":1743959249,"current_range_meters":4000,"station_id":"ce4bhp92rcd13ifvqhcg","pricing_plan_id":"cebpf4jnsgd1na2vs0mg"},{"bike_id":"19c21be0-0877-4548-935f-a1ee611aad09","system_id":"levelo_inurba_marseille","lat":43.26804,"lon":5.40263,"is_reserved":false,"is_disabled":false,"rental_uris":{"android":"levelo://app?vid=19c21be0-0877-4548-935f-a1ee611aad09","ios":"levelo://app?vid=19c21be0-0877-4548-935f-a1ee611aad09"},"vehicle_type_id":"4","last_reported":1743959249,"current_range_meters":4000,"station_id":"ce501612rcd8frsf0b60","pricing_plan_id":"cebpf4jnsgd1na2vs0mg"},{"bike_id":"63d484f6-abd9-4730-a906-9f307b286efb","system_id":"levelo_inurba_marseille","lat":43.30194,"lon":5.36623,"is_reserved":false,"is_disabled":true,"rental_uris":{"android":"levelo://app?vid=63d484f6-abd9-4730-a906-9f307b286efb","ios":"levelo://app?vid=63d484f6-abd9-4730-a906-9f307b286efb"},"vehicle_type_id":"4","last_reported":1743959249,"current_range_meters":4000,"station_id":"ce4bgrh2rcd13ifvqc8g","pricing_plan_id":"cebpf4jnsgd1na2vs0mg"},{"bike_id":"9b08b373-5157-4c31-8ba4-2e3293d2895a","system_id":"levelo_inurba_marseille","lat":43.28081,"lon":5.39657,"is_reserved":false,"is_disabled":false,"rental_uris":{"android":"levelo://app?vid=9b08b373-5157-4c31-8ba4-2e3293d2895a","ios":"levelo://app?vid=9b08b373-5157-4c31-8ba4-2e3293d2895a"},"vehicle_type_id":"4","last_reported":1743959249,"current_range_meters":4000,"station_id":"ce4bho12rcd13ifvqh2g","pricing_plan_id":"cebpf4jnsgd1na2vs0mg"},{"bike_id":"c0aa168a-293f-47c1-82b6-48b6f89bd0d7","system_id":"levelo_inurba_marseille","lat":43.29193,"lon":5.39313,"is_reserved":false,"is_disabled":false,"rental_uris":{"android":"levelo://app?vid=c0aa168a-293f-47c1-82b6-48b6f89bd0d7","ios":"levelo://app?vid=c0aa168a-293f-47c1-82b6-48b6f89bd0d7"},"vehicle_type_id":"4","last_reported":1743959249,"current_range_meters":4000,"station_id":"ce4bh192rcd13ifvqdd0","pricing_plan_id":"cebpf4jnsgd1na2vs0mg"},{"bike_id":"a8de53c0-a395-414a-9d9e-1d14124ed6e7","system_id":"levelo_inurba_marseille","lat":43.29265,"lon":5.3845,"is_reserved":false,"is_disabled":false,"rental_uris":{"android":"levelo://app?vid=a8de53c0-a395-414a-9d9e-1d14124ed6e7","ios":"levelo://app?vid=a8de53c0-a395-414a-9d9e-1d14124ed6e7"},"vehicle_type_id":"4","last_reported":1743959249,"current_range_meters":4400,"station_id":"ce4bh692rcd13ifvqea0","pricing_plan_id":"cebpf4jnsgd1na2vs0mg"},{"bike_id":"2ea2d28d-50bb-4429-9d56-3ff658dca38e","system_id":"levelo_inurba_marseille","lat":43.28484,"lon":5.38536,"is_reserved":false,"is_disabled":false,"rental_uris":{"android":"levelo://app?vid=2ea2d28d-50bb-4429-9d56-3ff658dca38e","ios":"levelo://app?vid=2ea2d28d-50bb-4429-9d56-3ff658dca38e"},"vehicle_type_id":"4","last_reported":1743959249,"current_range_meters":4400,"station_id":"","pricing_plan_id":"cebpf4jnsgd1na2vs0mg"},{"bike_id":"3a68339c-ea10-4232-aa84-b862c1ab50f1","system_id":"levelo_inurba_marseille","lat":43.283661,"lon":5.375435,"is_reserved":false,"is_disabled":false,"rental_uris":{"android":"levelo://app?vid=3a68339c-ea10-4232-aa84-b862c1ab50f1","ios":"levelo://app?vid=3a68339c-ea10-4232-aa84-b862c1ab50f1"},"vehicle_type_id":"4","last_reported":1743959249,"current_range_meters":4400,"station_id":"ce4bh412rcd13ifvqds0","pricing_plan_id":"cebpf4jnsgd1na2vs0mg"},{"bike_id":"357d2813-3ca3-41b1-9bd8-cb4c3d9989d7","system_id":"levelo_inurba_marseille","lat":43.297,"lon":5.36595,"is_reserved":false,"is_disabled":false,"rental_uris":{"android":"levelo://app?vid=357d2813-3ca3-41b1-9bd8-cb4c3d9989d7","ios":"levelo://app?vid=357d2813-3ca3-41b1-9bd8-cb4c3d9989d7"},"vehicle_type_id":"4","last_reported":1743959249,"current_range_meters":4400,"station_id":"ce4bgn12rcd13ifvqbt0","pricing_plan_id":"cebpf4jnsgd1na2vs0mg"},{"bike_id":"81e4dfdb-9987-477e-a9a5-d888b8697f65","system_id":"levelo_inurba_marseille","lat":43.29416,"lon":5.38608,"is_reserved":false,"is_disabled":true,"rental_uris":{"android":"levelo://app?vid=81e4dfdb-9987-477e-a9a5-d888b8697f65","ios":"levelo://app?vid=81e4dfdb-9987-477e-a9a5-d888b8697f65"},"vehicle_type_id":"4","last_reported":1743959249,"current_range_meters":4400,"station_id":"ce4bh2h2rcd13ifvqdh0","pricing_plan_id":"cebpf4jnsgd1na2vs0mg"},{"bike_id":"69f8a740-a0ff-4635-87ad-9b7d7d0db53e","system_id":"levelo_inurba_marseille","lat":43.2463,"lon":5.3893,"is_reserved":false,"is_disabled":true,"rental_uris":{"android":"levelo://app?vid=69f8a740-a0ff-4635-87ad-9b7d7d0db53e","ios":"levelo://app?vid=69f8a740-a0ff-4635-87ad-9b7d7d0db53e"},"vehicle_type_id":"4","last_reported":1743959249,"current_range_meters":4400,"station_id":"ce4bhg12rcd13ifvqf60","pricing_plan_id":"cebpf4jnsgd1na2vs0mg"},{"bike_id":"e3cffd3c-da49-472e-b736-7f7090efe8e5","system_id":"levelo_inurba_marseille","lat":43.29311,"lon":5.37171,"is_reserved":false,"is_disabled":false,"rental_uris":{"android":"levelo://app?vid=e3cffd3c-da49-472e-b736-7f7090efe8e5","ios":"levelo://app?vid=e3cffd3c-da49-472e-b736-7f7090efe8e5"},"vehicle_type_id":"4","last_reported":1743959249,"current_range_meters":4000,"station_id":"ce4bgh92rcd13ifvqb40","pricing_plan_id":"cebpf4jnsgd1na2vs0mg"},{"bike_id":"8739ea41-f2be-441b-82fb-ac6608ea96ab","system_id":"levelo_inurba_marseille","lat":43.2711,"lon":5.38882,"is_reserved":false,"is_disabled":false,"rental_uris":{"android":"levelo://app?vid=8739ea41-f2be-441b-82fb-ac6608ea96ab","ios":"levelo://app?vid=8739ea41-f2be-441b-82fb-ac6608ea96ab"},"vehicle_type_id":"4","last_reported":1743959249,"current_range_meters":4400,"station_id":"ce4bh612rcd13ifvqe6g","pricing_plan_id":"cebpf4jnsgd1na2vs0mg"},{"bike_id":"018e8e99-63f3-4ddd-8c43-119a8d01c677","system_id":"levelo_inurba_marseille","lat":43.23178,"lon":5.39989,"is_reserved":false,"is_disabled":false,"rental_uris":{"android":"levelo://app?vid=018e8e99-63f3-4ddd-8c43-119a8d01c677","ios":"levelo://app?vid=018e8e99-63f3-4ddd-8c43-119a8d01c677"},"vehicle_type_id":"4","last_reported":1743959249,"current_range_meters":4400,"station_id":"ce4bhn12rcd13ifvqgqg","pricing_plan_id":"cebpf4jnsgd1na2vs0mg"},{"bike_id":"ce1efbd2-6dec-4240-ac61-9ba18eb93a19","system_id":"levelo_inurba_marseille","lat":43.30927,"lon":5.4015,"is_reserved":false,"is_disabled":false,"rental_uris":{"android":"levelo://app?vid=ce1efbd2-6dec-4240-ac61-9ba18eb93a19","ios":"levelo://app?vid=ce1efbd2-6dec-4240-ac61-9ba18eb93a19"},"vehicle_type_id":"4","last_reported":1743959249,"current_range_meters":4400,"station_id":"ce4bgvp2rcd13ifvqct0","pricing_plan_id":"cebpf4jnsgd1na2vs0mg"},{"bike_id":"f6cb0dfe-78b2-4e47-8df2-92a99c30bc91","system_id":"levelo_inurba_marseille","lat":43.31482,"lon":5.37249,"is_reserved":false,"is_disabled":false,"rental_uris":{"android":"levelo://app?vid=f6cb0dfe-78b2-4e47-8df2-92a99c30bc91","ios":"levelo://app?vid=f6cb0dfe-78b2-4e47-8df2-92a99c30bc91"},"vehicle_type_id":"4","last_reported":1743959249,"current_range_meters":4800,"station_id":"ce4bgt12rcd13ifvqcd0","pricing_plan_id":"cebpf4jnsgd1na2vs0mg"},{"bike_id":"89ec001b-9192-42c2-8089-17f21739869b","system_id":"levelo_inurba_marseille","lat":43.28981,"lon":5.37827,"is_reserved":false,"is_disabled":false,"rental_uris":{"android":"levelo://app?vid=89ec001b-9192-42c2-8089-17f21739869b","ios":"levelo://app?vid=89ec001b-9192-42c2-8089-17f21739869b"},"vehicle_type_id":"4","last_reported":1743959249,"current_range_meters":4800,"station_id":"ce4bh9p2rcd13ifvqed0","pricing_plan_id":"cebpf4jnsgd1na2vs0mg"},{"bike_id":"d6a134b2-cf6d-46ba-8a56-4677c796b571","system_id":"levelo_inurba_marseille","lat":43.27961,"lon":5.38728,"is_reserved":false,"is_disabled":false,"rental_uris":{"android":"levelo://app?vid=d6a134b2-cf6d-46ba-8a56-4677c796b571","ios":"levelo://app?vid=d6a134b2-cf6d-46ba-8a56-4677c796b571"},"vehicle_type_id":"4","last_reported":1743959249,"current_range_meters":4800,"station_id":"ce4bhg12rcd13ifvqf80","pricing_plan_id":"cebpf4jnsgd1na2vs0mg"},{"bike_id":"0cab8e2d-cfbb-41b8-90a0-07a4ba1522e4","system_id":"levelo_inurba_marseille","lat":43.27174,"lon":5.410047,"is_reserved":false,"is_disabled":false,"rental_uris":{"android":"levelo://app?vid=0cab8e2d-cfbb-41b8-90a0-07a4ba1522e4","ios":"levelo://app?vid=0cab8e2d-cfbb-41b8-90a0-07a4ba1522e4"},"vehicle_type_id":"4","last_reported":1743959249,"current_range_meters":3600,"station_id":"ce4bhl12rcd13ifvqgf0","pricing_plan_id":"cebpf4jnsgd1na2vs0mg"},{"bike_id":"a7042d1b-8265-4602-bfbe-b76016eb24a8","system_id":"levelo_inurba_marseille","lat":43.28928,"lon":5.384,"is_reserved":false,"is_disabled":false,"rental_uris":{"android":"levelo://app?vid=a7042d1b-8265-4602-bfbe-b76016eb24a8","ios":"levelo://app?vid=a7042d1b-8265-4602-bfbe-b76016eb24a8"},"vehicle_type_id":"4","last_reported":1743959249,"current_range_meters":4800,"station_id":"ce4bh612rcd13ifvqe6g","pricing_plan_id":"cebpf4jnsgd1na2vs0mg"},{"bike_id":"e14e7827-4054-40f8-8969-c66103f02f24","system_id":"levelo_inurba_marseille","lat":43.26493,"lon":5.39554,"is_reserved":false,"is_disabled":false,"rental_uris":{"android":"levelo://app?vid=e14e7827-4054-40f8-8969-c66103f02f24","ios":"levelo://app?vid=e14e7827-4054-40f8-8969-c66103f02f24"},"vehicle_type_id":"4","last_reported":1743959249,"current_range_meters":4800,"station_id":"ce4bhi12rcd13ifvqfq0","pricing_plan_id":"cebpf4jnsgd1na2vs0mg"},{"bike_id":"8e8105ce-63e2-4441-9ebe-d6a09a08a22e","system_id":"levelo_inurba_marseille","lat":43.29668,"lon":5.36204,"is_reserved":false,"is_disabled":false,"rental_uris":{"android":"levelo://app?vid=8e8105ce-63e2-4441-9ebe-d6a09a08a22e","ios":"levelo://app?vid=8e8105ce-63e2-4441-9ebe-d6a09a08a22e"},"vehicle_type_id":"4","last_reported":1743959249,"current_range_meters":4800,"station_id":"","pricing_plan_id":"cebpf4jnsgd1na2vs0mg"},{"bike_id":"a7a4d96d-d183-424b-b457-cca239a3e09a","system_id":"levelo_inurba_marseille","lat":43.27362,"lon":5.39082,"is_reserved":false,"is_disabled":false,"rental_uris":{"android":"levelo://app?vid=a7a4d96d-d183-424b-b457-cca239a3e09a","ios":"levelo://app?vid=a7a4d96d-d183-424b-b457-cca239a3e09a"},"vehicle_type_id":"4","last_reported":1743959249,"current_range_meters":4800,"station_id":"ce4bh4p2rcd13ifvqe0g","pricing_plan_id":"cebpf4jnsgd1na2vs0mg"},{"bike_id":"eb79d1f9-7c91-4ea2-b5f8-796189743e1a","system_id":"levelo_inurba_marseille","lat":43.3427,"lon":5.38111,"is_reserved":false,"is_disabled":false,"rental_uris":{"android":"levelo://app?vid=eb79d1f9-7c91-4ea2-b5f8-796189743e1a","ios":"levelo://app?vid=eb79d1f9-7c91-4ea2-b5f8-796189743e1a"},"vehicle_type_id":"4","last_reported":1743959249,"current_range_meters":5600,"station_id":"","pricing_plan_id":"cebpf4jnsgd1na2vs0mg"},{"bike_id":"35988cb1-0f21-4499-b83c-b5570806f4f8","system_id":"levelo_inurba_marseille","lat":43.27169,"lon":5.40986,"is_reserved":false,"is_disabled":false,"rental_uris":{"android":"levelo://app?vid=35988cb1-0f21-4499-b83c-b5570806f4f8","ios":"levelo://app?vid=35988cb1-0f21-4499-b83c-b5570806f4f8"},"vehicle_type_id":"4","last_reported":1743959249,"current_range_meters":5600,"station_id":"ce4bhl12rcd13ifvqgf0","pricing_plan_id":"cebpf4jnsgd1na2vs0mg"},{"bike_id":"bdc6a412-faff-4651-89e2-1eca630b472a","system_id":"levelo_inurba_marseille","lat":43.32046,"lon":5.41541,"is_reserved":false,"is_disabled":false,"rental_uris":{"android":"levelo://app?vid=bdc6a412-faff-4651-89e2-1eca630b472a","ios":"levelo://app?vid=bdc6a412-faff-4651-89e2-1eca630b472a"},"vehicle_type_id":"4","last_reported":1743959249,"current_range_meters":5600,"station_id":"ce4bhq92rcd13ifvqhkg","pricing_plan_id":"cebpf4jnsgd1na2vs0mg"},{"bike_id":"8474f455-4eab-448c-9e4b-3d0704475d2e","system_id":"levelo_inurba_marseille","lat":43.27171,"lon":5.40993,"is_reserved":false,"is_disabled":false,"rental_uris":{"android":"levelo://app?vid=8474f455-4eab-448c-9e4b-3d0704475d2e","ios":"levelo://app?vid=8474f455-4eab-448c-9e4b-3d0704475d2e"},"vehicle_type_id":"4","last_reported":1743959249,"current_range_meters":5600,"station_id":"ce4bhl12rcd13ifvqgf0","pricing_plan_id":"cebpf4jnsgd1na2vs0mg"},{"bike_id":"3cbd0d95-8855-4f40-9bcd-710336a93709","system_id":"levelo_inurba_marseille","lat":43.28703,"lon":5.39995,"is_reserved":false,"is_disabled":false,"rental_uris":{"android":"levelo://app?vid=3cbd0d95-8855-4f40-9bcd-710336a93709","ios":"levelo://app?vid=3cbd0d95-8855-4f40-9bcd-710336a93709"},"vehicle_type_id":"4","last_reported":1743959249,"current_range_meters":5600,"station_id":"ce4bho92rcd13ifvqh3g","pricing_plan_id":"cebpf4jnsgd1na2vs0mg"},{"bike_id":"eb2fb416-b691-46bc-b205-85365658307d","system_id":"levelo_inurba_marseille","lat":43.30161,"lon":5.3958,"is_reserved":false,"is_disabled":false,"rental_uris":{"android":"levelo://app?vid=eb2fb416-b691-46bc-b205-85365658307d","ios":"levelo://app?vid=eb2fb416-b691-46bc-b205-85365658307d"},"vehicle_type_id":"4","last_reported":1743959249,"current_range_meters":6000,"station_id":"ce4bh0h2rcd13ifvqd50","pricing_plan_id":"cebpf4jnsgd1na2vs0mg"},{"bike_id":"649b801c-3dd3-4513-9851-8c9d7b933644","system_id":"levelo_inurba_marseille","lat":43.2962,"lon":5.37726,"is_reserved":false,"is_disabled":false,"rental_uris":{"android":"levelo://app?vid=649b801c-3dd3-4513-9851-8c9d7b933644","ios":"levelo://app?vid=649b801c-3dd3-4513-9851-8c9d7b933644"},"vehicle_type_id":"4","last_reported":1743959249,"current_range_meters":6000,"station_id":"ce4bgi92rcd13ifvqb90","pricing_plan_id":"cebpf4jnsgd1na2vs0mg"},{"bike_id":"ca3db27d-af3b-4719-adf1-dad8d2e63619","system_id":"levelo_inurba_marseille","lat":43.27186,"lon":5.4099,"is_reserved":false,"is_disabled":false,"rental_uris":{"android":"levelo://app?vid=ca3db27d-af3b-4719-adf1-dad8d2e63619","ios":"levelo://app?vid=ca3db27d-af3b-4719-adf1-dad8d2e63619"},"vehicle_type_id":"4","last_reported":1743959249,"current_range_meters":6000,"station_id":"ce4bhl12rcd13ifvqgf0","pricing_plan_id":"cebpf4jnsgd1na2vs0mg"},{"bike_id":"7a8396f9-f6bf-4e4e-b521-8a312c502260","system_id":"levelo_inurba_marseille","lat":43.29277,"lon":5.36843,"is_reserved":false,"is_disabled":false,"rental_uris":{"android":"levelo://app?vid=7a8396f9-f6bf-4e4e-b521-8a312c502260","ios":"levelo://app?vid=7a8396f9-f6bf-4e4e-b521-8a312c502260"},"vehicle_type_id":"4","last_reported":1743959249,"current_range_meters":6000,"station_id":"ce4bhbp2rcd13ifvqesg","pricing_plan_id":"cebpf4jnsgd1na2vs0mg"},{"bike_id":"abf828e0-bebc-4654-bc93-1d92f449deee","system_id":"levelo_inurba_marseille","lat":43.32364,"lon":5.36727,"is_reserved":false,"is_disabled":true,"rental_uris":{"android":"levelo://app?vid=abf828e0-bebc-4654-bc93-1d92f449deee","ios":"levelo://app?vid=abf828e0-bebc-4654-bc93-1d92f449deee"},"vehicle_type_id":"4","last_reported":1743959249,"current_range_meters":6000,"station_id":"ce4bhsh2rcd13ifvqi2g","pricing_plan_id":"cebpf4jnsgd1na2vs0mg"},{"bike_id":"a2a92beb-86b7-4152-a67c-3c3d542f2c75","system_id":"levelo_inurba_marseille","lat":43.29034,"lon":5.39967,"is_reserved":false,"is_disabled":false,"rental_uris":{"android":"levelo://app?vid=a2a92beb-86b7-4152-a67c-3c3d542f2c75","ios":"levelo://app?vid=a2a92beb-86b7-4152-a67c-3c3d542f2c75"},"vehicle_type_id":"4","last_reported":1743959249,"current_range_meters":10000,"station_id":"ce4bh392rcd13ifvqdm0","pricing_plan_id":"cebpf4jnsgd1na2vs0mg"},{"bike_id":"5873db84-7da8-4211-a8f9-627b37cce43d","system_id":"levelo_inurba_marseille","lat":43.31274,"lon":5.40176,"is_reserved":false,"is_disabled":false,"rental_uris":{"android":"levelo://app?vid=5873db84-7da8-4211-a8f9-627b37cce43d","ios":"levelo://app?vid=5873db84-7da8-4211-a8f9-627b37cce43d"},"vehicle_type_id":"4","last_reported":1743959249,"current_range_meters":6400,"station_id":"ce4bh092rcd13ifvqd30","pricing_plan_id":"cebpf4jnsgd1na2vs0mg"},{"bike_id":"25a917a6-f09b-4528-a370-dbfd5002d623","system_id":"levelo_inurba_marseille","lat":43.295258,"lon":5.3855,"is_reserved":false,"is_disabled":false,"rental_uris":{"android":"levelo://app?vid=25a917a6-f09b-4528-a370-dbfd5002d623","ios":"levelo://app?vid=25a917a6-f09b-4528-a370-dbfd5002d623"},"vehicle_type_id":"4","last_reported":1743959249,"current_range_meters":6400,"station_id":"ce4bgih2rcd13ifvqba0","pricing_plan_id":"cebpf4jnsgd1na2vs0mg"},{"bike_id":"d798ce2d-e0b6-4a2e-955e-ddf46ef646a4","system_id":"levelo_inurba_marseille","lat":43.28377,"lon":5.38625,"is_reserved":false,"is_disabled":false,"rental_uris":{"android":"levelo://app?vid=d798ce2d-e0b6-4a2e-955e-ddf46ef646a4","ios":"levelo://app?vid=d798ce2d-e0b6-4a2e-955e-ddf46ef646a4"},"vehicle_type_id":"4","last_reported":1743959249,"current_range_meters":6400,"station_id":"ce4bh492rcd13ifvqdvg","pricing_plan_id":"cebpf4jnsgd1na2vs0mg"},{"bike_id":"dc945757-a363-40df-a45e-cb2c57dff9d6","system_id":"levelo_inurba_marseille","lat":43.27436,"lon":5.39411,"is_reserved":false,"is_disabled":false,"rental_uris":{"android":"levelo://app?vid=dc945757-a363-40df-a45e-cb2c57dff9d6","ios":"levelo://app?vid=dc945757-a363-40df-a45e-cb2c57dff9d6"},"vehicle_type_id":"4","last_reported":1743959249,"current_range_meters":7200,"station_id":"ce4bhdp2rcd13ifvqf20","pricing_plan_id":"cebpf4jnsgd1na2vs0mg"},{"bike_id":"4678e2e3-468e-42ab-9017-ab7f21cec561","system_id":"levelo_inurba_marseille","lat":43.23058,"lon":5.355,"is_reserved":false,"is_disabled":false,"rental_uris":{"android":"levelo://app?vid=4678e2e3-468e-42ab-9017-ab7f21cec561","ios":"levelo://app?vid=4678e2e3-468e-42ab-9017-ab7f21cec561"},"vehicle_type_id":"4","last_reported":1743959249,"current_range_meters":6400,"station_id":"cpo3342slgdg3j2ifvpg","pricing_plan_id":"cebpf4jnsgd1na2vs0mg"},{"bike_id":"e9214f3b-79a8-41c4-8340-a87cf0943eb1","system_id":"levelo_inurba_marseille","lat":43.31374,"lon":5.38494,"is_reserved":false,"is_disabled":false,"rental_uris":{"android":"levelo://app?vid=e9214f3b-79a8-41c4-8340-a87cf0943eb1","ios":"levelo://app?vid=e9214f3b-79a8-41c4-8340-a87cf0943eb1"},"vehicle_type_id":"4","last_reported":1743959249,"current_range_meters":6400,"station_id":"ce4bgt92rcd13ifvqcf0","pricing_plan_id":"cebpf4jnsgd1na2vs0mg"},{"bike_id":"803fd4d7-3e2e-4244-8ae4-f0d613be83d8","system_id":"levelo_inurba_marseille","lat":43.30293,"lon":5.39199,"is_reserved":false,"is_disabled":false,"rental_uris":{"android":"levelo://app?vid=803fd4d7-3e2e-4244-8ae4-f0d613be83d8","ios":"levelo://app?vid=803fd4d7-3e2e-4244-8ae4-f0d613be83d8"},"vehicle_type_id":"4","last_reported":1743959249,"current_range_meters":6400,"station_id":"ce4bgkh2rcd13ifvqbk0","pricing_plan_id":"cebpf4jnsgd1na2vs0mg"},{"bike_id":"19918c5e-2cad-4b6f-99e5-c17b31f78239","system_id":"levelo_inurba_marseille","lat":43.24164,"lon":5.36395,"is_reserved":false,"is_disabled":false,"rental_uris":{"android":"levelo://app?vid=19918c5e-2cad-4b6f-99e5-c17b31f78239","ios":"levelo://app?vid=19918c5e-2cad-4b6f-99e5-c17b31f78239"},"vehicle_type_id":"4","last_reported":1743959249,"current_range_meters":6400,"station_id":"cpo36qri1sfpv3e86is0","pricing_plan_id":"cebpf4jnsgd1na2vs0mg"},{"bike_id":"acc3b170-a9a6-4a5e-afbd-65a60c4c7e67","system_id":"levelo_inurba_marseille","lat":43.28673,"lon":5.38666,"is_reserved":false,"is_disabled":false,"rental_uris":{"android":"levelo://app?vid=acc3b170-a9a6-4a5e-afbd-65a60c4c7e67","ios":"levelo://app?vid=acc3b170-a9a6-4a5e-afbd-65a60c4c7e67"},"vehicle_type_id":"4","last_reported":1743959249,"current_range_meters":6400,"station_id":"ce4bh492rcd13ifvqdug","pricing_plan_id":"cebpf4jnsgd1na2vs0mg"},{"bike_id":"effa1dec-bfad-4552-8ae1-fa04cbfdfe3e","system_id":"levelo_inurba_marseille","lat":43.24379,"lon":5.37034,"is_reserved":false,"is_disabled":false,"rental_uris":{"android":"levelo://app?vid=effa1dec-bfad-4552-8ae1-fa04cbfdfe3e","ios":"levelo://app?vid=effa1dec-bfad-4552-8ae1-fa04cbfdfe3e"},"vehicle_type_id":"4","last_reported":1743959249,"current_range_meters":6400,"station_id":"ce4bhhh2rcd13ifvqfk0","pricing_plan_id":"cebpf4jnsgd1na2vs0mg"},{"bike_id":"8b213532-e448-4a27-8d64-e206dac72956","system_id":"levelo_inurba_marseille","lat":43.31765,"lon":5.38792,"is_reserved":false,"is_disabled":false,"rental_uris":{"android":"levelo://app?vid=8b213532-e448-4a27-8d64-e206dac72956","ios":"levelo://app?vid=8b213532-e448-4a27-8d64-e206dac72956"},"vehicle_type_id":"4","last_reported":1743959249,"current_range_meters":6400,"station_id":"","pricing_plan_id":"cebpf4jnsgd1na2vs0mg"},{"bike_id":"ceccf856-bf02-4ba4-b458-7b39207e9ab0","system_id":"levelo_inurba_marseille","lat":43.246729,"lon":5.37961,"is_reserved":false,"is_disabled":false,"rental_uris":{"android":"levelo://app?vid=ceccf856-bf02-4ba4-b458-7b39207e9ab0","ios":"levelo://app?vid=ceccf856-bf02-4ba4-b458-7b39207e9ab0"},"vehicle_type_id":"4","last_reported":1743959249,"current_range_meters":6400,"station_id":"ce4bhgp2rcd13ifvqfd0","pricing_plan_id":"cebpf4jnsgd1na2vs0mg"},{"bike_id":"6bb8e348-6b4e-47fe-84d3-39777a126739","system_id":"levelo_inurba_marseille","lat":43.31241,"lon":5.37323,"is_reserved":false,"is_disabled":false,"rental_uris":{"android":"levelo://app?vid=6bb8e348-6b4e-47fe-84d3-39777a126739","ios":"levelo://app?vid=6bb8e348-6b4e-47fe-84d3-39777a126739"},"vehicle_type_id":"4","last_reported":1743959249,"current_range_meters":6400,"station_id":"","pricing_plan_id":"cebpf4jnsgd1na2vs0mg"},{"bike_id":"db29433a-c7f6-40d6-b0e1-3a1f0abf15ab","system_id":"levelo_inurba_marseille","lat":43.241712,"lon":5.364041,"is_reserved":false,"is_disabled":true,"rental_uris":{"android":"levelo://app?vid=db29433a-c7f6-40d6-b0e1-3a1f0abf15ab","ios":"levelo://app?vid=db29433a-c7f6-40d6-b0e1-3a1f0abf15ab"},"vehicle_type_id":"4","last_reported":1743959249,"current_range_meters":6800,"station_id":"ce4bh412rcd13ifvqdr0","pricing_plan_id":"cebpf4jnsgd1na2vs0mg"},{"bike_id":"f6b6d66c-9461-4664-9fbd-f95719380fe4","system_id":"levelo_inurba_marseille","lat":43.27307,"lon":5.39066,"is_reserved":false,"is_disabled":false,"rental_uris":{"android":"levelo://app?vid=f6b6d66c-9461-4664-9fbd-f95719380fe4","ios":"levelo://app?vid=f6b6d66c-9461-4664-9fbd-f95719380fe4"},"vehicle_type_id":"4","last_reported":1743959249,"current_range_meters":6800,"station_id":"ce4bhgp2rcd13ifvqfe0","pricing_plan_id":"cebpf4jnsgd1na2vs0mg"},{"bike_id":"3253d87c-1e76-4f32-b465-767e100c6e49","system_id":"levelo_inurba_marseille","lat":43.29891,"lon":5.43662,"is_reserved":false,"is_disabled":false,"rental_uris":{"android":"levelo://app?vid=3253d87c-1e76-4f32-b465-767e100c6e49","ios":"levelo://app?vid=3253d87c-1e76-4f32-b465-767e100c6e49"},"vehicle_type_id":"4","last_reported":1743959249,"current_range_meters":6800,"station_id":"ce4bhpp2rcd13ifvqhfg","pricing_plan_id":"cebpf4jnsgd1na2vs0mg"},{"bike_id":"57415182-0d11-4e14-837d-374d5eeb82a3","system_id":"levelo_inurba_marseille","lat":43.21201,"lon":5.35071,"is_reserved":false,"is_disabled":false,"rental_uris":{"android":"levelo://app?vid=57415182-0d11-4e14-837d-374d5eeb82a3","ios":"levelo://app?vid=57415182-0d11-4e14-837d-374d5eeb82a3"},"vehicle_type_id":"4","last_reported":1743959249,"current_range_meters":6800,"station_id":"st_cvj6sg6p6f1abm77japg","pricing_plan_id":"cebpf4jnsgd1na2vs0mg"},{"bike_id":"9378cab7-1ef7-47d6-af28-c6473192be1a","system_id":"levelo_inurba_marseille","lat":43.311855,"lon":5.407621,"is_reserved":false,"is_disabled":false,"rental_uris":{"android":"levelo://app?vid=9378cab7-1ef7-47d6-af28-c6473192be1a","ios":"levelo://app?vid=9378cab7-1ef7-47d6-af28-c6473192be1a"},"vehicle_type_id":"4","last_reported":1743959249,"current_range_meters":6800,"station_id":"","pricing_plan_id":"cebpf4jnsgd1na2vs0mg"},{"bike_id":"6eaca609-15d4-492d-9fb7-82c71eb136d2","system_id":"levelo_inurba_marseille","lat":43.24167,"lon":5.36423,"is_reserved":false,"is_disabled":false,"rental_uris":{"android":"levelo://app?vid=6eaca609-15d4-492d-9fb7-82c71eb136d2","ios":"levelo://app?vid=6eaca609-15d4-492d-9fb7-82c71eb136d2"},"vehicle_type_id":"4","last_reported":1743959249,"current_range_meters":6800,"station_id":"cpo36qri1sfpv3e86is0","pricing_plan_id":"cebpf4jnsgd1na2vs0mg"},{"bike_id":"50850cd6-23a8-4afd-8f29-2082a148b9f6","system_id":"levelo_inurba_marseille","lat":43.30182,"lon":5.36624,"is_reserved":false,"is_disabled":false,"rental_uris":{"android":"levelo://app?vid=50850cd6-23a8-4afd-8f29-2082a148b9f6","ios":"levelo://app?vid=50850cd6-23a8-4afd-8f29-2082a148b9f6"},"vehicle_type_id":"4","last_reported":1743959249,"current_range_meters":6800,"station_id":"ce4bgrh2rcd13ifvqc8g","pricing_plan_id":"cebpf4jnsgd1na2vs0mg"},{"bike_id":"67b478c0-25f6-437c-bf24-bd7601fa3e0b","system_id":"levelo_inurba_marseille","lat":43.25122,"lon":5.40334,"is_reserved":false,"is_disabled":false,"rental_uris":{"android":"levelo://app?vid=67b478c0-25f6-437c-bf24-bd7601fa3e0b","ios":"levelo://app?vid=67b478c0-25f6-437c-bf24-bd7601fa3e0b"},"vehicle_type_id":"4","last_reported":1743959249,"current_range_meters":6800,"station_id":"ce4bhlh2rcd13ifvqgig","pricing_plan_id":"cebpf4jnsgd1na2vs0mg"},{"bike_id":"2662528e-0fb5-4dc2-9125-b3a3289416b5","system_id":"levelo_inurba_marseille","lat":43.29797,"lon":5.38115,"is_reserved":false,"is_disabled":false,"rental_uris":{"android":"levelo://app?vid=2662528e-0fb5-4dc2-9125-b3a3289416b5","ios":"levelo://app?vid=2662528e-0fb5-4dc2-9125-b3a3289416b5"},"vehicle_type_id":"4","last_reported":1743959249,"current_range_meters":7200,"station_id":"ce4bgip2rcd13ifvqbb0","pricing_plan_id":"cebpf4jnsgd1na2vs0mg"},{"bike_id":"c4c418ee-bbd3-43e1-829a-cbe8bb95d940","system_id":"levelo_inurba_marseille","lat":43.29302,"lon":5.37455,"is_reserved":false,"is_disabled":false,"rental_uris":{"android":"levelo://app?vid=c4c418ee-bbd3-43e1-829a-cbe8bb95d940","ios":"levelo://app?vid=c4c418ee-bbd3-43e1-829a-cbe8bb95d940"},"vehicle_type_id":"4","last_reported":1743959249,"current_range_meters":8000,"station_id":"ce4bgi12rcd13ifvqb70","pricing_plan_id":"cebpf4jnsgd1na2vs0mg"},{"bike_id":"e62d8178-b8e6-41c0-a71c-8a2629180d3c","system_id":"levelo_inurba_marseille","lat":43.2694,"lon":5.4026,"is_reserved":false,"is_disabled":false,"rental_uris":{"android":"levelo://app?vid=e62d8178-b8e6-41c0-a71c-8a2629180d3c","ios":"levelo://app?vid=e62d8178-b8e6-41c0-a71c-8a2629180d3c"},"vehicle_type_id":"4","last_reported":1743959249,"current_range_meters":7200,"station_id":"cjm6bp8fraef2m0cb0m0","pricing_plan_id":"cebpf4jnsgd1na2vs0mg"},{"bike_id":"45b4008f-54c1-4d17-8bbf-96f80d4fa84f","system_id":"levelo_inurba_marseille","lat":43.32092,"lon":5.36825,"is_reserved":false,"is_disabled":false,"rental_uris":{"android":"levelo://app?vid=45b4008f-54c1-4d17-8bbf-96f80d4fa84f","ios":"levelo://app?vid=45b4008f-54c1-4d17-8bbf-96f80d4fa84f"},"vehicle_type_id":"4","last_reported":1743959249,"current_range_meters":7200,"station_id":"ce4bhrh2rcd13ifvqhug","pricing_plan_id":"cebpf4jnsgd1na2vs0mg"},{"bike_id":"bf6d3303-dc1b-4717-b127-59f07be804b0","system_id":"levelo_inurba_marseille","lat":43.30879,"lon":5.39661,"is_reserved":false,"is_disabled":false,"rental_uris":{"android":"levelo://app?vid=bf6d3303-dc1b-4717-b127-59f07be804b0","ios":"levelo://app?vid=bf6d3303-dc1b-4717-b127-59f07be804b0"},"vehicle_type_id":"4","last_reported":1743959249,"current_range_meters":7200,"station_id":"ce4bh012rcd13ifvqcv0","pricing_plan_id":"cebpf4jnsgd1na2vs0mg"},{"bike_id":"d2cef823-54f7-4868-a1d1-fc995bd8a042","system_id":"levelo_inurba_marseille","lat":43.28158,"lon":5.42645,"is_reserved":false,"is_disabled":false,"rental_uris":{"android":"levelo://app?vid=d2cef823-54f7-4868-a1d1-fc995bd8a042","ios":"levelo://app?vid=d2cef823-54f7-4868-a1d1-fc995bd8a042"},"vehicle_type_id":"4","last_reported":1743959249,"current_range_meters":7200,"station_id":"ce4bhnh2rcd13ifvqgug","pricing_plan_id":"cebpf4jnsgd1na2vs0mg"},{"bike_id":"4a7ffbf6-4203-4f3e-9b77-b7b9c1249ab1","system_id":"levelo_inurba_marseille","lat":43.29529,"lon":5.39398,"is_reserved":false,"is_disabled":false,"rental_uris":{"android":"levelo://app?vid=4a7ffbf6-4203-4f3e-9b77-b7b9c1249ab1","ios":"levelo://app?vid=4a7ffbf6-4203-4f3e-9b77-b7b9c1249ab1"},"vehicle_type_id":"4","last_reported":1743959249,"current_range_meters":7200,"station_id":"ce4bh292rcd13ifvqdf0","pricing_plan_id":"cebpf4jnsgd1na2vs0mg"},{"bike_id":"eae1b669-0515-4d3c-9917-8a4121e59c40","system_id":"levelo_inurba_marseille","lat":43.31083,"lon":5.42427,"is_reserved":false,"is_disabled":false,"rental_uris":{"android":"levelo://app?vid=eae1b669-0515-4d3c-9917-8a4121e59c40","ios":"levelo://app?vid=eae1b669-0515-4d3c-9917-8a4121e59c40"},"vehicle_type_id":"4","last_reported":1743959249,"current_range_meters":8000,"station_id":"ce4bhp92rcd13ifvqhag","pricing_plan_id":"cebpf4jnsgd1na2vs0mg"},{"bike_id":"1e8367ba-1029-480f-a482-6d9ea7668589","system_id":"levelo_inurba_marseille","lat":43.2904,"lon":5.3757,"is_reserved":false,"is_disabled":false,"rental_uris":{"android":"levelo://app?vid=1e8367ba-1029-480f-a482-6d9ea7668589","ios":"levelo://app?vid=1e8367ba-1029-480f-a482-6d9ea7668589"},"vehicle_type_id":"4","last_reported":1743959249,"current_range_meters":8000,"station_id":"ce4bh692rcd13ifvqe90","pricing_plan_id":"cebpf4jnsgd1na2vs0mg"},{"bike_id":"e3c5f122-d61d-4b7a-b30e-709a3dbe5e46","system_id":"levelo_inurba_marseille","lat":43.324,"lon":5.39014,"is_reserved":false,"is_disabled":false,"rental_uris":{"android":"levelo://app?vid=e3c5f122-d61d-4b7a-b30e-709a3dbe5e46","ios":"levelo://app?vid=e3c5f122-d61d-4b7a-b30e-709a3dbe5e46"},"vehicle_type_id":"4","last_reported":1743959249,"current_range_meters":8000,"station_id":"","pricing_plan_id":"cebpf4jnsgd1na2vs0mg"},{"bike_id":"02b07445-ab3e-4d26-9e59-522fcf775d06","system_id":"levelo_inurba_marseille","lat":43.29582,"lon":5.36732,"is_reserved":false,"is_disabled":false,"rental_uris":{"android":"levelo://app?vid=02b07445-ab3e-4d26-9e59-522fcf775d06","ios":"levelo://app?vid=02b07445-ab3e-4d26-9e59-522fcf775d06"},"vehicle_type_id":"4","last_reported":1743959249,"current_range_meters":8000,"station_id":"ce4bgph2rcd13ifvqc2g","pricing_plan_id":"cebpf4jnsgd1na2vs0mg"},{"bike_id":"301b6729-c45c-4915-8ef6-dadde3959d3d","system_id":"levelo_inurba_marseille","lat":43.265573,"lon":5.39009,"is_reserved":false,"is_disabled":true,"rental_uris":{"android":"levelo://app?vid=301b6729-c45c-4915-8ef6-dadde3959d3d","ios":"levelo://app?vid=301b6729-c45c-4915-8ef6-dadde3959d3d"},"vehicle_type_id":"4","last_reported":1743959249,"current_range_meters":8000,"station_id":"ce4bhe12rcd13ifvqf30","pricing_plan_id":"cebpf4jnsgd1na2vs0mg"},{"bike_id":"33e3d54d-21a5-47ff-9ee3-76450b0321fa","system_id":"levelo_inurba_marseille","lat":43.2991,"lon":5.43665,"is_reserved":false,"is_disabled":false,"rental_uris":{"android":"levelo://app?vid=33e3d54d-21a5-47ff-9ee3-76450b0321fa","ios":"levelo://app?vid=33e3d54d-21a5-47ff-9ee3-76450b0321fa"},"vehicle_type_id":"4","last_reported":1743959249,"current_range_meters":8000,"station_id":"ce4bhpp2rcd13ifvqhfg","pricing_plan_id":"cebpf4jnsgd1na2vs0mg"},{"bike_id":"461cbda9-cd14-4037-94d8-86328851e267","system_id":"levelo_inurba_marseille","lat":43.27175,"lon":5.40987,"is_reserved":false,"is_disabled":false,"rental_uris":{"android":"levelo://app?vid=461cbda9-cd14-4037-94d8-86328851e267","ios":"levelo://app?vid=461cbda9-cd14-4037-94d8-86328851e267"},"vehicle_type_id":"4","last_reported":1743959249,"current_range_meters":8000,"station_id":"ce4bhl12rcd13ifvqgf0","pricing_plan_id":"cebpf4jnsgd1na2vs0mg"},{"bike_id":"00934ce1-152b-4bfb-802e-4725788a73a4","system_id":"levelo_inurba_marseille","lat":43.29528,"lon":5.38531,"is_reserved":false,"is_disabled":false,"rental_uris":{"android":"levelo://app?vid=00934ce1-152b-4bfb-802e-4725788a73a4","ios":"levelo://app?vid=00934ce1-152b-4bfb-802e-4725788a73a4"},"vehicle_type_id":"4","last_reported":1743959249,"current_range_meters":8000,"station_id":"ce4bgih2rcd13ifvqba0","pricing_plan_id":"cebpf4jnsgd1na2vs0mg"},{"bike_id":"a1884675-785a-4a2a-8aaf-3fd17e192944","system_id":"levelo_inurba_marseille","lat":43.26941,"lon":5.40256,"is_reserved":false,"is_disabled":false,"rental_uris":{"android":"levelo://app?vid=a1884675-785a-4a2a-8aaf-3fd17e192944","ios":"levelo://app?vid=a1884675-785a-4a2a-8aaf-3fd17e192944"},"vehicle_type_id":"4","last_reported":1743959249,"current_range_meters":9600,"station_id":"cjm6bp8fraef2m0cb0m0","pricing_plan_id":"cebpf4jnsgd1na2vs0mg"},{"bike_id":"6023584e-870f-454d-88b0-bf3dc0e21fbe","system_id":"levelo_inurba_marseille","lat":43.24408,"lon":5.37116,"is_reserved":false,"is_disabled":true,"rental_uris":{"android":"levelo://app?vid=6023584e-870f-454d-88b0-bf3dc0e21fbe","ios":"levelo://app?vid=6023584e-870f-454d-88b0-bf3dc0e21fbe"},"vehicle_type_id":"4","last_reported":1743959249,"current_range_meters":8000,"station_id":"ce4bhhh2rcd13ifvqfk0","pricing_plan_id":"cebpf4jnsgd1na2vs0mg"},{"bike_id":"579f786d-d4ff-430a-b5d3-b6d38e9d840f","system_id":"levelo_inurba_marseille","lat":43.2926,"lon":5.3844,"is_reserved":false,"is_disabled":false,"rental_uris":{"android":"levelo://app?vid=579f786d-d4ff-430a-b5d3-b6d38e9d840f","ios":"levelo://app?vid=579f786d-d4ff-430a-b5d3-b6d38e9d840f"},"vehicle_type_id":"4","last_reported":1743959249,"current_range_meters":8400,"station_id":"ce4bh692rcd13ifvqea0","pricing_plan_id":"cebpf4jnsgd1na2vs0mg"},{"bike_id":"e80c8a90-d6e3-4c31-bfe2-b36ce2e8431a","system_id":"levelo_inurba_marseille","lat":43.32338,"lon":5.40613,"is_reserved":false,"is_disabled":false,"rental_uris":{"android":"levelo://app?vid=e80c8a90-d6e3-4c31-bfe2-b36ce2e8431a","ios":"levelo://app?vid=e80c8a90-d6e3-4c31-bfe2-b36ce2e8431a"},"vehicle_type_id":"4","last_reported":1743959249,"current_range_meters":8400,"station_id":"ce4bhq92rcd13ifvqhjg","pricing_plan_id":"cebpf4jnsgd1na2vs0mg"},{"bike_id":"46bf4685-8737-4898-a18a-ecf4ea828ce7","system_id":"levelo_inurba_marseille","lat":43.2903,"lon":5.38134,"is_reserved":false,"is_disabled":false,"rental_uris":{"android":"levelo://app?vid=46bf4685-8737-4898-a18a-ecf4ea828ce7","ios":"levelo://app?vid=46bf4685-8737-4898-a18a-ecf4ea828ce7"},"vehicle_type_id":"4","last_reported":1743959249,"current_range_meters":8400,"station_id":"ce4bh4p2rcd13ifvqe1g","pricing_plan_id":"cebpf4jnsgd1na2vs0mg"},{"bike_id":"ebebf6eb-791d-407f-bb14-58033a4b04d6","system_id":"levelo_inurba_marseille","lat":43.292824,"lon":5.40117,"is_reserved":false,"is_disabled":false,"rental_uris":{"android":"levelo://app?vid=ebebf6eb-791d-407f-bb14-58033a4b04d6","ios":"levelo://app?vid=ebebf6eb-791d-407f-bb14-58033a4b04d6"},"vehicle_type_id":"4","last_reported":1743959249,"current_range_meters":6000,"station_id":"ce4bh312rcd13ifvqdk0","pricing_plan_id":"cebpf4jnsgd1na2vs0mg"},{"bike_id":"1abbd067-5b66-4986-bcbf-cff2a7e29ed5","system_id":"levelo_inurba_marseille","lat":43.25722,"lon":5.4111,"is_reserved":false,"is_disabled":false,"rental_uris":{"android":"levelo://app?vid=1abbd067-5b66-4986-bcbf-cff2a7e29ed5","ios":"levelo://app?vid=1abbd067-5b66-4986-bcbf-cff2a7e29ed5"},"vehicle_type_id":"4","last_reported":1743959249,"current_range_meters":8400,"station_id":"ce4bhkp2rcd13ifvqgd0","pricing_plan_id":"cebpf4jnsgd1na2vs0mg"},{"bike_id":"dfe033e5-eb50-4610-85ee-430cd4939587","system_id":"levelo_inurba_marseille","lat":43.27618,"lon":5.36128,"is_reserved":false,"is_disabled":true,"rental_uris":{"android":"levelo://app?vid=dfe033e5-eb50-4610-85ee-430cd4939587","ios":"levelo://app?vid=dfe033e5-eb50-4610-85ee-430cd4939587"},"vehicle_type_id":"4","last_reported":1743959249,"current_range_meters":8400,"station_id":"ce4bgj92rcd13ifvqbe0","pricing_plan_id":"cebpf4jnsgd1na2vs0mg"},{"bike_id":"b60b64b1-a99f-441c-909c-35b47add718a","system_id":"levelo_inurba_marseille","lat":43.276163,"lon":5.399424,"is_reserved":false,"is_disabled":false,"rental_uris":{"android":"levelo://app?vid=b60b64b1-a99f-441c-909c-35b47add718a","ios":"levelo://app?vid=b60b64b1-a99f-441c-909c-35b47add718a"},"vehicle_type_id":"4","last_reported":1743959249,"current_range_meters":8400,"station_id":"cjm6bp8fraef2m0cb0m0","pricing_plan_id":"cebpf4jnsgd1na2vs0mg"},{"bike_id":"adc6d1e0-ff2c-4219-bb8b-382160725cb7","system_id":"levelo_inurba_marseille","lat":43.29302,"lon":5.37467,"is_reserved":false,"is_disabled":false,"rental_uris":{"android":"levelo://app?vid=adc6d1e0-ff2c-4219-bb8b-382160725cb7","ios":"levelo://app?vid=adc6d1e0-ff2c-4219-bb8b-382160725cb7"},"vehicle_type_id":"4","last_reported":1743959249,"current_range_meters":8800,"station_id":"ce4bgi12rcd13ifvqb70","pricing_plan_id":"cebpf4jnsgd1na2vs0mg"},{"bike_id":"1622461e-25a5-4ec6-9188-643400d8cf0e","system_id":"levelo_inurba_marseille","lat":43.30805,"lon":5.43586,"is_reserved":false,"is_disabled":false,"rental_uris":{"android":"levelo://app?vid=1622461e-25a5-4ec6-9188-643400d8cf0e","ios":"levelo://app?vid=1622461e-25a5-4ec6-9188-643400d8cf0e"},"vehicle_type_id":"4","last_reported":1743959249,"current_range_meters":8800,"station_id":"ce4bhph2rcd13ifvqheg","pricing_plan_id":"cebpf4jnsgd1na2vs0mg"},{"bike_id":"70774e13-dd61-4dd4-bf40-530e1485e81c","system_id":"levelo_inurba_marseille","lat":43.32366,"lon":5.3887,"is_reserved":false,"is_disabled":false,"rental_uris":{"android":"levelo://app?vid=70774e13-dd61-4dd4-bf40-530e1485e81c","ios":"levelo://app?vid=70774e13-dd61-4dd4-bf40-530e1485e81c"},"vehicle_type_id":"4","last_reported":1743959249,"current_range_meters":8800,"station_id":"ce4bhqp2rcd13ifvqhog","pricing_plan_id":"cebpf4jnsgd1na2vs0mg"},{"bike_id":"51259ae1-c54c-44cb-b69a-53fa6c493bc1","system_id":"levelo_inurba_marseille","lat":43.3117,"lon":5.38726,"is_reserved":false,"is_disabled":false,"rental_uris":{"android":"levelo://app?vid=51259ae1-c54c-44cb-b69a-53fa6c493bc1","ios":"levelo://app?vid=51259ae1-c54c-44cb-b69a-53fa6c493bc1"},"vehicle_type_id":"4","last_reported":1743959249,"current_range_meters":8800,"station_id":"ce4bgv12rcd13ifvqcp0","pricing_plan_id":"cebpf4jnsgd1na2vs0mg"},{"bike_id":"e553ce4f-5da3-408b-9618-f38fb178d4ff","system_id":"levelo_inurba_marseille","lat":43.30325,"lon":5.40428,"is_reserved":false,"is_disabled":false,"rental_uris":{"android":"levelo://app?vid=e553ce4f-5da3-408b-9618-f38fb178d4ff","ios":"levelo://app?vid=e553ce4f-5da3-408b-9618-f38fb178d4ff"},"vehicle_type_id":"4","last_reported":1743959249,"current_range_meters":8800,"station_id":"ce4bh012rcd13ifvqd10","pricing_plan_id":"cebpf4jnsgd1na2vs0mg"},{"bike_id":"607308b3-6cb0-49ad-9852-b5ced867feea","system_id":"levelo_inurba_marseille","lat":43.27306,"lon":5.39116,"is_reserved":false,"is_disabled":false,"rental_uris":{"android":"levelo://app?vid=607308b3-6cb0-49ad-9852-b5ced867feea","ios":"levelo://app?vid=607308b3-6cb0-49ad-9852-b5ced867feea"},"vehicle_type_id":"4","last_reported":1743959249,"current_range_meters":8800,"station_id":"ce4bhgp2rcd13ifvqfe0","pricing_plan_id":"cebpf4jnsgd1na2vs0mg"},{"bike_id":"73c31629-d4c6-4112-85f3-81a995f1389f","system_id":"levelo_inurba_marseille","lat":43.26936,"lon":5.40241,"is_reserved":false,"is_disabled":false,"rental_uris":{"android":"levelo://app?vid=73c31629-d4c6-4112-85f3-81a995f1389f","ios":"levelo://app?vid=73c31629-d4c6-4112-85f3-81a995f1389f"},"vehicle_type_id":"4","last_reported":1743959249,"current_range_meters":8800,"station_id":"cjm6bp8fraef2m0cb0m0","pricing_plan_id":"cebpf4jnsgd1na2vs0mg"},{"bike_id":"dfe62cfe-2c9e-4615-9ba4-e4adec5f8ed3","system_id":"levelo_inurba_marseille","lat":43.301521,"lon":5.380858,"is_reserved":false,"is_disabled":false,"rental_uris":{"android":"levelo://app?vid=dfe62cfe-2c9e-4615-9ba4-e4adec5f8ed3","ios":"levelo://app?vid=dfe62cfe-2c9e-4615-9ba4-e4adec5f8ed3"},"vehicle_type_id":"4","last_reported":1743959249,"current_range_meters":8800,"station_id":"ce4bh4p2rcd13ifvqe1g","pricing_plan_id":"cebpf4jnsgd1na2vs0mg"},{"bike_id":"b3a9d2a3-dfab-485b-85a5-9a0c42edbc2e","system_id":"levelo_inurba_marseille","lat":43.307438,"lon":5.371403,"is_reserved":false,"is_disabled":false,"rental_uris":{"android":"levelo://app?vid=b3a9d2a3-dfab-485b-85a5-9a0c42edbc2e","ios":"levelo://app?vid=b3a9d2a3-dfab-485b-85a5-9a0c42edbc2e"},"vehicle_type_id":"4","last_reported":1743959249,"current_range_meters":9200,"station_id":"ce4bgqh2rcd13ifvqc4g","pricing_plan_id":"cebpf4jnsgd1na2vs0mg"},{"bike_id":"607bc019-83aa-4c5f-9a00-7697e5e1f6b5","system_id":"levelo_inurba_marseille","lat":43.3126,"lon":5.40179,"is_reserved":false,"is_disabled":false,"rental_uris":{"android":"levelo://app?vid=607bc019-83aa-4c5f-9a00-7697e5e1f6b5","ios":"levelo://app?vid=607bc019-83aa-4c5f-9a00-7697e5e1f6b5"},"vehicle_type_id":"4","last_reported":1743959249,"current_range_meters":9200,"station_id":"ce4bh092rcd13ifvqd30","pricing_plan_id":"cebpf4jnsgd1na2vs0mg"},{"bike_id":"65b6c49a-8db1-4fd2-87e4-34de13d6b5a6","system_id":"levelo_inurba_marseille","lat":43.30924,"lon":5.40152,"is_reserved":false,"is_disabled":false,"rental_uris":{"android":"levelo://app?vid=65b6c49a-8db1-4fd2-87e4-34de13d6b5a6","ios":"levelo://app?vid=65b6c49a-8db1-4fd2-87e4-34de13d6b5a6"},"vehicle_type_id":"4","last_reported":1743959249,"current_range_meters":8800,"station_id":"ce4bgvp2rcd13ifvqct0","pricing_plan_id":"cebpf4jnsgd1na2vs0mg"},{"bike_id":"ce6e10be-0f1f-4e9a-9f07-68508f423069","system_id":"levelo_inurba_marseille","lat":43.29259,"lon":5.40902,"is_reserved":false,"is_disabled":false,"rental_uris":{"android":"levelo://app?vid=ce6e10be-0f1f-4e9a-9f07-68508f423069","ios":"levelo://app?vid=ce6e10be-0f1f-4e9a-9f07-68508f423069"},"vehicle_type_id":"4","last_reported":1743959249,"current_range_meters":9600,"station_id":"ce4bh192rcd13ifvqdc0","pricing_plan_id":"cebpf4jnsgd1na2vs0mg"},{"bike_id":"bf41bc3e-ffad-4c67-b391-a0988f64672a","system_id":"levelo_inurba_marseille","lat":43.25573,"lon":5.38234,"is_reserved":false,"is_disabled":false,"rental_uris":{"android":"levelo://app?vid=bf41bc3e-ffad-4c67-b391-a0988f64672a","ios":"levelo://app?vid=bf41bc3e-ffad-4c67-b391-a0988f64672a"},"vehicle_type_id":"4","last_reported":1743959249,"current_range_meters":9600,"station_id":"ce4bhih2rcd13ifvqfs0","pricing_plan_id":"cebpf4jnsgd1na2vs0mg"},{"bike_id":"01069903-e8a2-47a6-a4c2-87fa222f58c4","system_id":"levelo_inurba_marseille","lat":43.310493,"lon":5.377106,"is_reserved":false,"is_disabled":false,"rental_uris":{"android":"levelo://app?vid=01069903-e8a2-47a6-a4c2-87fa222f58c4","ios":"levelo://app?vid=01069903-e8a2-47a6-a4c2-87fa222f58c4"},"vehicle_type_id":"4","last_reported":1743959249,"current_range_meters":9600,"station_id":"ce4bgt92rcd13ifvqcg0","pricing_plan_id":"cebpf4jnsgd1na2vs0mg"},{"bike_id":"abde5d83-9b30-4b2f-8a88-f914ca452329","system_id":"levelo_inurba_marseille","lat":43.3126,"lon":5.38621,"is_reserved":false,"is_disabled":false,"rental_uris":{"android":"levelo://app?vid=abde5d83-9b30-4b2f-8a88-f914ca452329","ios":"levelo://app?vid=abde5d83-9b30-4b2f-8a88-f914ca452329"},"vehicle_type_id":"4","last_reported":1743959249,"current_range_meters":9600,"station_id":"","pricing_plan_id":"cebpf4jnsgd1na2vs0mg"},{"bike_id":"47a63639-92a6-4836-ad30-6f5b915c89d3","system_id":"levelo_inurba_marseille","lat":43.28983,"lon":5.37838,"is_reserved":false,"is_disabled":false,"rental_uris":{"android":"levelo://app?vid=47a63639-92a6-4836-ad30-6f5b915c89d3","ios":"levelo://app?vid=47a63639-92a6-4836-ad30-6f5b915c89d3"},"vehicle_type_id":"4","last_reported":1743959249,"current_range_meters":9600,"station_id":"ce4bh9p2rcd13ifvqed0","pricing_plan_id":"cebpf4jnsgd1na2vs0mg"},{"bike_id":"00be7afb-6bc0-4165-9f5e-0a951d97fbe6","system_id":"levelo_inurba_marseille","lat":43.27565,"lon":5.38419,"is_reserved":false,"is_disabled":false,"rental_uris":{"android":"levelo://app?vid=00be7afb-6bc0-4165-9f5e-0a951d97fbe6","ios":"levelo://app?vid=00be7afb-6bc0-4165-9f5e-0a951d97fbe6"},"vehicle_type_id":"4","last_reported":1743959249,"current_range_meters":9600,"station_id":"ce4bhh92rcd13ifvqfi0","pricing_plan_id":"cebpf4jnsgd1na2vs0mg"},{"bike_id":"00393ee2-317d-4e98-a30d-fd25773ef49f","system_id":"levelo_inurba_marseille","lat":43.35227,"lon":5.35806,"is_reserved":false,"is_disabled":false,"rental_uris":{"android":"levelo://app?vid=00393ee2-317d-4e98-a30d-fd25773ef49f","ios":"levelo://app?vid=00393ee2-317d-4e98-a30d-fd25773ef49f"},"vehicle_type_id":"4","last_reported":1743959249,"current_range_meters":9600,"station_id":"","pricing_plan_id":"cebpf4jnsgd1na2vs0mg"},{"bike_id":"7e998a0c-eed3-46de-aa53-8ecfbd4eddbb","system_id":"levelo_inurba_marseille","lat":43.2319,"lon":5.35555,"is_reserved":false,"is_disabled":true,"rental_uris":{"android":"levelo://app?vid=7e998a0c-eed3-46de-aa53-8ecfbd4eddbb","ios":"levelo://app?vid=7e998a0c-eed3-46de-aa53-8ecfbd4eddbb"},"vehicle_type_id":"4","last_reported":1743959249,"current_range_meters":9600,"station_id":"ce4bhu92rcd13ifvqi70","pricing_plan_id":"cebpf4jnsgd1na2vs0mg"},{"bike_id":"ceba594e-ff69-4140-828e-f8a961103e51","system_id":"levelo_inurba_marseille","lat":43.241671,"lon":5.363975,"is_reserved":false,"is_disabled":false,"rental_uris":{"android":"levelo://app?vid=ceba594e-ff69-4140-828e-f8a961103e51","ios":"levelo://app?vid=ceba594e-ff69-4140-828e-f8a961103e51"},"vehicle_type_id":"4","last_reported":1743959249,"current_range_meters":10000,"station_id":"cpo36qri1sfpv3e86is0","pricing_plan_id":"cebpf4jnsgd1na2vs0mg"},{"bike_id":"77b585b6-99e4-455b-8bdb-c2a7c028222a","system_id":"levelo_inurba_marseille","lat":43.24173,"lon":5.36397,"is_reserved":false,"is_disabled":false,"rental_uris":{"android":"levelo://app?vid=77b585b6-99e4-455b-8bdb-c2a7c028222a","ios":"levelo://app?vid=77b585b6-99e4-455b-8bdb-c2a7c028222a"},"vehicle_type_id":"4","last_reported":1743959249,"current_range_meters":10000,"station_id":"cpo36qri1sfpv3e86is0","pricing_plan_id":"cebpf4jnsgd1na2vs0mg"},{"bike_id":"aa9b59b6-65cb-49e0-b211-3fb1aecd03a8","system_id":"levelo_inurba_marseille","lat":43.2919,"lon":5.35971,"is_reserved":false,"is_disabled":true,"rental_uris":{"android":"levelo://app?vid=aa9b59b6-65cb-49e0-b211-3fb1aecd03a8","ios":"levelo://app?vid=aa9b59b6-65cb-49e0-b211-3fb1aecd03a8"},"vehicle_type_id":"4","last_reported":1743959249,"current_range_meters":10000,"station_id":"","pricing_plan_id":"cebpf4jnsgd1na2vs0mg"},{"bike_id":"7fd0635d-68ad-4ce6-a52b-daef56987b4b","system_id":"levelo_inurba_marseille","lat":43.30867,"lon":5.385,"is_reserved":false,"is_disabled":false,"rental_uris":{"android":"levelo://app?vid=7fd0635d-68ad-4ce6-a52b-daef56987b4b","ios":"levelo://app?vid=7fd0635d-68ad-4ce6-a52b-daef56987b4b"},"vehicle_type_id":"4","last_reported":1743959249,"current_range_meters":10000,"station_id":"","pricing_plan_id":"cebpf4jnsgd1na2vs0mg"},{"bike_id":"17c9fe4f-d6de-4147-a57b-1b813555d700","system_id":"levelo_inurba_marseille","lat":43.26808,"lon":5.40263,"is_reserved":false,"is_disabled":false,"rental_uris":{"android":"levelo://app?vid=17c9fe4f-d6de-4147-a57b-1b813555d700","ios":"levelo://app?vid=17c9fe4f-d6de-4147-a57b-1b813555d700"},"vehicle_type_id":"4","last_reported":1743959249,"current_range_meters":10000,"station_id":"ce501612rcd8frsf0b60","pricing_plan_id":"cebpf4jnsgd1na2vs0mg"},{"bike_id":"136b6e45-ee21-453e-aa22-e07947db9071","system_id":"levelo_inurba_marseille","lat":43.231488,"lon":5.437096,"is_reserved":false,"is_disabled":true,"rental_uris":{"android":"levelo://app?vid=136b6e45-ee21-453e-aa22-e07947db9071","ios":"levelo://app?vid=136b6e45-ee21-453e-aa22-e07947db9071"},"vehicle_type_id":"4","last_reported":1743959249,"current_range_meters":10000,"station_id":"ce4bhmp2rcd13ifvqgog","pricing_plan_id":"cebpf4jnsgd1na2vs0mg"},{"bike_id":"8da24954-604d-497d-9e2d-2eabcb13fc23","system_id":"levelo_inurba_marseille","lat":43.25723,"lon":5.41111,"is_reserved":false,"is_disabled":false,"rental_uris":{"android":"levelo://app?vid=8da24954-604d-497d-9e2d-2eabcb13fc23","ios":"levelo://app?vid=8da24954-604d-497d-9e2d-2eabcb13fc23"},"vehicle_type_id":"4","last_reported":1743959249,"current_range_meters":10800,"station_id":"ce4bhkp2rcd13ifvqgd0","pricing_plan_id":"cebpf4jnsgd1na2vs0mg"},{"bike_id":"f8321878-9e9a-4e56-8919-d9cad8905f3c","system_id":"levelo_inurba_marseille","lat":43.30544,"lon":5.36537,"is_reserved":false,"is_disabled":true,"rental_uris":{"android":"levelo://app?vid=f8321878-9e9a-4e56-8919-d9cad8905f3c","ios":"levelo://app?vid=f8321878-9e9a-4e56-8919-d9cad8905f3c"},"vehicle_type_id":"4","last_reported":1743959249,"current_range_meters":10800,"station_id":"ce4bgs12rcd13ifvqcag","pricing_plan_id":"cebpf4jnsgd1na2vs0mg"},{"bike_id":"adfa3034-3e95-4eef-9bd2-d2479aa4cad6","system_id":"levelo_inurba_marseille","lat":43.280043,"lon":5.416682,"is_reserved":false,"is_disabled":false,"rental_uris":{"android":"levelo://app?vid=adfa3034-3e95-4eef-9bd2-d2479aa4cad6","ios":"levelo://app?vid=adfa3034-3e95-4eef-9bd2-d2479aa4cad6"},"vehicle_type_id":"4","last_reported":1743959249,"current_range_meters":10800,"station_id":"ce4bhdp2rcd13ifvqf20","pricing_plan_id":"cebpf4jnsgd1na2vs0mg"},{"bike_id":"fe9b162d-8965-4006-977b-b604750fd82a","system_id":"levelo_inurba_marseille","lat":43.28399,"lon":5.37532,"is_reserved":false,"is_disabled":false,"rental_uris":{"android":"levelo://app?vid=fe9b162d-8965-4006-977b-b604750fd82a","ios":"levelo://app?vid=fe9b162d-8965-4006-977b-b604750fd82a"},"vehicle_type_id":"4","last_reported":1743959249,"current_range_meters":10800,"station_id":"ce4bh412rcd13ifvqds0","pricing_plan_id":"cebpf4jnsgd1na2vs0mg"},{"bike_id":"b8bae21a-7c89-4395-9d8f-f14c1628cba8","system_id":"levelo_inurba_marseille","lat":43.24171,"lon":5.36393,"is_reserved":false,"is_disabled":false,"rental_uris":{"android":"levelo://app?vid=b8bae21a-7c89-4395-9d8f-f14c1628cba8","ios":"levelo://app?vid=b8bae21a-7c89-4395-9d8f-f14c1628cba8"},"vehicle_type_id":"4","last_reported":1743959249,"current_range_meters":11200,"station_id":"cpo36qri1sfpv3e86is0","pricing_plan_id":"cebpf4jnsgd1na2vs0mg"},{"bike_id":"f85f1dc6-d1c9-4009-8f25-8643233d1605","system_id":"levelo_inurba_marseille","lat":43.25825,"lon":5.39439,"is_reserved":false,"is_disabled":false,"rental_uris":{"android":"levelo://app?vid=f85f1dc6-d1c9-4009-8f25-8643233d1605","ios":"levelo://app?vid=f85f1dc6-d1c9-4009-8f25-8643233d1605"},"vehicle_type_id":"4","last_reported":1743959249,"current_range_meters":11200,"station_id":"ce4bhip2rcd13ifvqft0","pricing_plan_id":"cebpf4jnsgd1na2vs0mg"},{"bike_id":"e41bd095-8d4f-4e45-bcd6-26277f901ef3","system_id":"levelo_inurba_marseille","lat":43.26809,"lon":5.40256,"is_reserved":false,"is_disabled":false,"rental_uris":{"android":"levelo://app?vid=e41bd095-8d4f-4e45-bcd6-26277f901ef3","ios":"levelo://app?vid=e41bd095-8d4f-4e45-bcd6-26277f901ef3"},"vehicle_type_id":"4","last_reported":1743959249,"current_range_meters":11200,"station_id":"ce501612rcd8frsf0b60","pricing_plan_id":"cebpf4jnsgd1na2vs0mg"},{"bike_id":"7d2dde4f-5a6a-4005-a47e-231c9dacefe3","system_id":"levelo_inurba_marseille","lat":43.30809,"lon":5.435,"is_reserved":false,"is_disabled":false,"rental_uris":{"android":"levelo://app?vid=7d2dde4f-5a6a-4005-a47e-231c9dacefe3","ios":"levelo://app?vid=7d2dde4f-5a6a-4005-a47e-231c9dacefe3"},"vehicle_type_id":"4","last_reported":1743959249,"current_range_meters":11200,"station_id":"ce4bhph2rcd13ifvqheg","pricing_plan_id":"cebpf4jnsgd1na2vs0mg"},{"bike_id":"72543552-8188-4373-8db0-bd2f24c14e7b","system_id":"levelo_inurba_marseille","lat":43.32285,"lon":5.37639,"is_reserved":false,"is_disabled":false,"rental_uris":{"android":"levelo://app?vid=72543552-8188-4373-8db0-bd2f24c14e7b","ios":"levelo://app?vid=72543552-8188-4373-8db0-bd2f24c14e7b"},"vehicle_type_id":"4","last_reported":1743959249,"current_range_meters":11200,"station_id":"","pricing_plan_id":"cebpf4jnsgd1na2vs0mg"},{"bike_id":"7956d4b7-f9df-4616-bd52-832d0af74ae0","system_id":"levelo_inurba_marseille","lat":43.2573,"lon":5.41099,"is_reserved":false,"is_disabled":false,"rental_uris":{"android":"levelo://app?vid=7956d4b7-f9df-4616-bd52-832d0af74ae0","ios":"levelo://app?vid=7956d4b7-f9df-4616-bd52-832d0af74ae0"},"vehicle_type_id":"4","last_reported":1743959249,"current_range_meters":11200,"station_id":"ce4bhkp2rcd13ifvqgd0","pricing_plan_id":"cebpf4jnsgd1na2vs0mg"},{"bike_id":"4b970e70-82b8-43e1-9571-b67119351f33","system_id":"levelo_inurba_marseille","lat":43.28354,"lon":5.38107,"is_reserved":false,"is_disabled":false,"rental_uris":{"android":"levelo://app?vid=4b970e70-82b8-43e1-9571-b67119351f33","ios":"levelo://app?vid=4b970e70-82b8-43e1-9571-b67119351f33"},"vehicle_type_id":"4","last_reported":1743959249,"current_range_meters":11200,"station_id":"ce4bh412rcd13ifvqdr0","pricing_plan_id":"cebpf4jnsgd1na2vs0mg"},{"bike_id":"c3e6d442-6282-4c88-9f90-93d85aff9e76","system_id":"levelo_inurba_marseille","lat":43.28162,"lon":5.42662,"is_reserved":false,"is_disabled":false,"rental_uris":{"android":"levelo://app?vid=c3e6d442-6282-4c88-9f90-93d85aff9e76","ios":"levelo://app?vid=c3e6d442-6282-4c88-9f90-93d85aff9e76"},"vehicle_type_id":"4","last_reported":1743959249,"current_range_meters":11200,"station_id":"ce4bhnh2rcd13ifvqgug","pricing_plan_id":"cebpf4jnsgd1na2vs0mg"},{"bike_id":"82583482-0259-432c-b81b-e2806f193735","system_id":"levelo_inurba_marseille","lat":43.24167,"lon":5.36421,"is_reserved":false,"is_disabled":false,"rental_uris":{"android":"levelo://app?vid=82583482-0259-432c-b81b-e2806f193735","ios":"levelo://app?vid=82583482-0259-432c-b81b-e2806f193735"},"vehicle_type_id":"4","last_reported":1743959249,"current_range_meters":11200,"station_id":"cpo36qri1sfpv3e86is0","pricing_plan_id":"cebpf4jnsgd1na2vs0mg"},{"bike_id":"42e0265b-602d-4b9c-ba4b-8fc3b7eea81d","system_id":"levelo_inurba_marseille","lat":43.2927,"lon":5.40165,"is_reserved":false,"is_disabled":false,"rental_uris":{"android":"levelo://app?vid=42e0265b-602d-4b9c-ba4b-8fc3b7eea81d","ios":"levelo://app?vid=42e0265b-602d-4b9c-ba4b-8fc3b7eea81d"},"vehicle_type_id":"4","last_reported":1743959249,"current_range_meters":11200,"station_id":"ce4bh312rcd13ifvqdk0","pricing_plan_id":"cebpf4jnsgd1na2vs0mg"},{"bike_id":"9abb6ec2-5acd-4327-9898-dd9dbedec59a","system_id":"levelo_inurba_marseille","lat":43.31718,"lon":5.43708,"is_reserved":false,"is_disabled":false,"rental_uris":{"android":"levelo://app?vid=9abb6ec2-5acd-4327-9898-dd9dbedec59a","ios":"levelo://app?vid=9abb6ec2-5acd-4327-9898-dd9dbedec59a"},"vehicle_type_id":"4","last_reported":1743959249,"current_range_meters":11200,"station_id":"ce4bhp92rcd13ifvqhcg","pricing_plan_id":"cebpf4jnsgd1na2vs0mg"},{"bike_id":"f7e3b8fa-9062-4469-bcee-58c5aa5cfb6e","system_id":"levelo_inurba_marseille","lat":43.29535,"lon":5.3855,"is_reserved":false,"is_disabled":true,"rental_uris":{"android":"levelo://app?vid=f7e3b8fa-9062-4469-bcee-58c5aa5cfb6e","ios":"levelo://app?vid=f7e3b8fa-9062-4469-bcee-58c5aa5cfb6e"},"vehicle_type_id":"4","last_reported":1743959249,"current_range_meters":11200,"station_id":"ce4bgih2rcd13ifvqba0","pricing_plan_id":"cebpf4jnsgd1na2vs0mg"},{"bike_id":"19379d7b-b3b4-46ff-9af1-6370bf06ecc3","system_id":"levelo_inurba_marseille","lat":43.28994,"lon":5.35589,"is_reserved":false,"is_disabled":true,"rental_uris":{"android":"levelo://app?vid=19379d7b-b3b4-46ff-9af1-6370bf06ecc3","ios":"levelo://app?vid=19379d7b-b3b4-46ff-9af1-6370bf06ecc3"},"vehicle_type_id":"4","last_reported":1743959249,"current_range_meters":11200,"station_id":"ce4bhb92rcd13ifvqen0","pricing_plan_id":"cebpf4jnsgd1na2vs0mg"},{"bike_id":"af74ae43-7ae6-4686-be25-ac020555e743","system_id":"levelo_inurba_marseille","lat":43.30138,"lon":5.37432,"is_reserved":false,"is_disabled":false,"rental_uris":{"android":"levelo://app?vid=af74ae43-7ae6-4686-be25-ac020555e743","ios":"levelo://app?vid=af74ae43-7ae6-4686-be25-ac020555e743"},"vehicle_type_id":"4","last_reported":1743959249,"current_range_meters":11600,"station_id":"ce4bgs92rcd13ifvqcc0","pricing_plan_id":"cebpf4jnsgd1na2vs0mg"},{"bike_id":"8539495d-a8db-48e8-999c-a0eec7f95200","system_id":"levelo_inurba_marseille","lat":43.25371,"lon":5.37692,"is_reserved":false,"is_disabled":true,"rental_uris":{"android":"levelo://app?vid=8539495d-a8db-48e8-999c-a0eec7f95200","ios":"levelo://app?vid=8539495d-a8db-48e8-999c-a0eec7f95200"},"vehicle_type_id":"4","last_reported":1743959249,"current_range_meters":11600,"station_id":"","pricing_plan_id":"cebpf4jnsgd1na2vs0mg"},{"bike_id":"b5a77f4f-1f85-4b45-9802-54fe92ac3516","system_id":"levelo_inurba_marseille","lat":43.29277,"lon":5.36851,"is_reserved":false,"is_disabled":false,"rental_uris":{"android":"levelo://app?vid=b5a77f4f-1f85-4b45-9802-54fe92ac3516","ios":"levelo://app?vid=b5a77f4f-1f85-4b45-9802-54fe92ac3516"},"vehicle_type_id":"4","last_reported":1743959249,"current_range_meters":12000,"station_id":"ce4bhbp2rcd13ifvqesg","pricing_plan_id":"cebpf4jnsgd1na2vs0mg"},{"bike_id":"c5f9a321-4f17-4467-9b62-d8217cab41c8","system_id":"levelo_inurba_marseille","lat":43.229313,"lon":5.35375,"is_reserved":false,"is_disabled":false,"rental_uris":{"android":"levelo://app?vid=c5f9a321-4f17-4467-9b62-d8217cab41c8","ios":"levelo://app?vid=c5f9a321-4f17-4467-9b62-d8217cab41c8"},"vehicle_type_id":"4","last_reported":1743959249,"current_range_meters":14000,"station_id":"ce4bh492rcd13ifvqdvg","pricing_plan_id":"cebpf4jnsgd1na2vs0mg"},{"bike_id":"8a38320c-a733-4cf5-8c8e-152497fe8f8f","system_id":"levelo_inurba_marseille","lat":43.28152,"lon":5.42656,"is_reserved":false,"is_disabled":false,"rental_uris":{"android":"levelo://app?vid=8a38320c-a733-4cf5-8c8e-152497fe8f8f","ios":"levelo://app?vid=8a38320c-a733-4cf5-8c8e-152497fe8f8f"},"vehicle_type_id":"4","last_reported":1743959249,"current_range_meters":12000,"station_id":"ce4bhnh2rcd13ifvqgug","pricing_plan_id":"cebpf4jnsgd1na2vs0mg"},{"bike_id":"6ee85d75-9576-48a6-9ea1-92da0dac2d73","system_id":"levelo_inurba_marseille","lat":43.30827,"lon":5.43559,"is_reserved":false,"is_disabled":false,"rental_uris":{"android":"levelo://app?vid=6ee85d75-9576-48a6-9ea1-92da0dac2d73","ios":"levelo://app?vid=6ee85d75-9576-48a6-9ea1-92da0dac2d73"},"vehicle_type_id":"4","last_reported":1743959249,"current_range_meters":12000,"station_id":"ce4bhph2rcd13ifvqheg","pricing_plan_id":"cebpf4jnsgd1na2vs0mg"},{"bike_id":"a409c3f0-8991-4228-afb5-57b19bb06658","system_id":"levelo_inurba_marseille","lat":43.32401,"lon":5.38997,"is_reserved":false,"is_disabled":false,"rental_uris":{"android":"levelo://app?vid=a409c3f0-8991-4228-afb5-57b19bb06658","ios":"levelo://app?vid=a409c3f0-8991-4228-afb5-57b19bb06658"},"vehicle_type_id":"4","last_reported":1743959249,"current_range_meters":12400,"station_id":"","pricing_plan_id":"cebpf4jnsgd1na2vs0mg"},{"bike_id":"63e1d95c-79be-4b82-a868-e312bf827ceb","system_id":"levelo_inurba_marseille","lat":43.290186,"lon":5.386374,"is_reserved":false,"is_disabled":true,"rental_uris":{"android":"levelo://app?vid=63e1d95c-79be-4b82-a868-e312bf827ceb","ios":"levelo://app?vid=63e1d95c-79be-4b82-a868-e312bf827ceb"},"vehicle_type_id":"4","last_reported":1743959249,"current_range_meters":12000,"station_id":"ce4bh4p2rcd13ifvqe0g","pricing_plan_id":"cebpf4jnsgd1na2vs0mg"},{"bike_id":"ecebefca-0bad-448c-b828-9f6c92328cdb","system_id":"levelo_inurba_marseille","lat":43.34141,"lon":5.408993,"is_reserved":false,"is_disabled":false,"rental_uris":{"android":"levelo://app?vid=ecebefca-0bad-448c-b828-9f6c92328cdb","ios":"levelo://app?vid=ecebefca-0bad-448c-b828-9f6c92328cdb"},"vehicle_type_id":"4","last_reported":1743959249,"current_range_meters":12000,"station_id":"ce4bhqh2rcd13ifvqhlg","pricing_plan_id":"cebpf4jnsgd1na2vs0mg"},{"bike_id":"a56d9e93-ff14-4dc3-9550-a56fbad1008e","system_id":"levelo_inurba_marseille","lat":43.29606,"lon":5.38087,"is_reserved":false,"is_disabled":false,"rental_uris":{"android":"levelo://app?vid=a56d9e93-ff14-4dc3-9550-a56fbad1008e","ios":"levelo://app?vid=a56d9e93-ff14-4dc3-9550-a56fbad1008e"},"vehicle_type_id":"4","last_reported":1743959249,"current_range_meters":12000,"station_id":"ce4bgl12rcd13ifvqbo0","pricing_plan_id":"cebpf4jnsgd1na2vs0mg"},{"bike_id":"cab55782-a0c0-4647-b0e9-1d9f1d78bcd1","system_id":"levelo_inurba_marseille","lat":43.29271,"lon":5.38445,"is_reserved":false,"is_disabled":false,"rental_uris":{"android":"levelo://app?vid=cab55782-a0c0-4647-b0e9-1d9f1d78bcd1","ios":"levelo://app?vid=cab55782-a0c0-4647-b0e9-1d9f1d78bcd1"},"vehicle_type_id":"4","last_reported":1743959249,"current_range_meters":12400,"station_id":"ce4bh692rcd13ifvqea0","pricing_plan_id":"cebpf4jnsgd1na2vs0mg"},{"bike_id":"1caa313b-bb8f-48c3-ad86-14dfa98d6a62","system_id":"levelo_inurba_marseille","lat":43.25581,"lon":5.38247,"is_reserved":false,"is_disabled":true,"rental_uris":{"android":"levelo://app?vid=1caa313b-bb8f-48c3-ad86-14dfa98d6a62","ios":"levelo://app?vid=1caa313b-bb8f-48c3-ad86-14dfa98d6a62"},"vehicle_type_id":"4","last_reported":1743959249,"current_range_meters":12400,"station_id":"","pricing_plan_id":"cebpf4jnsgd1na2vs0mg"},{"bike_id":"108b066e-1021-4809-8cab-39b1fda6211d","system_id":"levelo_inurba_marseille","lat":43.30789,"lon":5.37653,"is_reserved":false,"is_disabled":false,"rental_uris":{"android":"levelo://app?vid=108b066e-1021-4809-8cab-39b1fda6211d","ios":"levelo://app?vid=108b066e-1021-4809-8cab-39b1fda6211d"},"vehicle_type_id":"4","last_reported":1743959249,"current_range_meters":12400,"station_id":"ce4bgv92rcd13ifvqcq0","pricing_plan_id":"cebpf4jnsgd1na2vs0mg"},{"bike_id":"8f039e9b-908d-4671-8c31-c10c45ffd6ab","system_id":"levelo_inurba_marseille","lat":43.24165,"lon":5.36399,"is_reserved":false,"is_disabled":false,"rental_uris":{"android":"levelo://app?vid=8f039e9b-908d-4671-8c31-c10c45ffd6ab","ios":"levelo://app?vid=8f039e9b-908d-4671-8c31-c10c45ffd6ab"},"vehicle_type_id":"4","last_reported":1743959249,"current_range_meters":12400,"station_id":"cpo36qri1sfpv3e86is0","pricing_plan_id":"cebpf4jnsgd1na2vs0mg"},{"bike_id":"b91b5928-2147-42d6-b211-36f4364c4018","system_id":"levelo_inurba_marseille","lat":43.28405,"lon":5.37506,"is_reserved":false,"is_disabled":false,"rental_uris":{"android":"levelo://app?vid=b91b5928-2147-42d6-b211-36f4364c4018","ios":"levelo://app?vid=b91b5928-2147-42d6-b211-36f4364c4018"},"vehicle_type_id":"4","last_reported":1743959249,"current_range_meters":12400,"station_id":"ce4bh412rcd13ifvqds0","pricing_plan_id":"cebpf4jnsgd1na2vs0mg"},{"bike_id":"e4d4dc7a-abcd-4c1d-8017-887f937d011f","system_id":"levelo_inurba_marseille","lat":43.29571,"lon":5.39961,"is_reserved":false,"is_disabled":true,"rental_uris":{"android":"levelo://app?vid=e4d4dc7a-abcd-4c1d-8017-887f937d011f","ios":"levelo://app?vid=e4d4dc7a-abcd-4c1d-8017-887f937d011f"},"vehicle_type_id":"4","last_reported":1743959249,"current_range_meters":12400,"station_id":"ce4bh312rcd13ifvqdj0","pricing_plan_id":"cebpf4jnsgd1na2vs0mg"},{"bike_id":"73272853-088e-4b39-8e6e-94fe10fc353c","system_id":"levelo_inurba_marseille","lat":43.33761,"lon":5.37496,"is_reserved":false,"is_disabled":false,"rental_uris":{"android":"levelo://app?vid=73272853-088e-4b39-8e6e-94fe10fc353c","ios":"levelo://app?vid=73272853-088e-4b39-8e6e-94fe10fc353c"},"vehicle_type_id":"4","last_reported":1743959249,"current_range_meters":12400,"station_id":"","pricing_plan_id":"cebpf4jnsgd1na2vs0mg"},{"bike_id":"2dd4b0ac-6477-4752-ace1-103437edc600","system_id":"levelo_inurba_marseille","lat":43.32488,"lon":5.3656,"is_reserved":false,"is_disabled":false,"rental_uris":{"android":"levelo://app?vid=2dd4b0ac-6477-4752-ace1-103437edc600","ios":"levelo://app?vid=2dd4b0ac-6477-4752-ace1-103437edc600"},"vehicle_type_id":"4","last_reported":1743959249,"current_range_meters":12400,"station_id":"ce4bhs12rcd13ifvqhvg","pricing_plan_id":"cebpf4jnsgd1na2vs0mg"},{"bike_id":"b527a6b1-86fa-4ad4-b9e7-fc863f2bdabe","system_id":"levelo_inurba_marseille","lat":43.305269,"lon":5.393614,"is_reserved":false,"is_disabled":false,"rental_uris":{"android":"levelo://app?vid=b527a6b1-86fa-4ad4-b9e7-fc863f2bdabe","ios":"levelo://app?vid=b527a6b1-86fa-4ad4-b9e7-fc863f2bdabe"},"vehicle_type_id":"4","last_reported":1743959249,"current_range_meters":12400,"station_id":"ce4bgup2rcd13ifvqco0","pricing_plan_id":"cebpf4jnsgd1na2vs0mg"},{"bike_id":"d09cfb96-92e7-4b55-9260-d47d1f9298a0","system_id":"levelo_inurba_marseille","lat":43.29277,"lon":5.38437,"is_reserved":false,"is_disabled":false,"rental_uris":{"android":"levelo://app?vid=d09cfb96-92e7-4b55-9260-d47d1f9298a0","ios":"levelo://app?vid=d09cfb96-92e7-4b55-9260-d47d1f9298a0"},"vehicle_type_id":"4","last_reported":1743959249,"current_range_meters":12400,"station_id":"ce4bh692rcd13ifvqea0","pricing_plan_id":"cebpf4jnsgd1na2vs0mg"},{"bike_id":"d6c3d7f4-760c-422c-8667-25e15a7934b3","system_id":"levelo_inurba_marseille","lat":43.30785,"lon":5.37429,"is_reserved":false,"is_disabled":false,"rental_uris":{"android":"levelo://app?vid=d6c3d7f4-760c-422c-8667-25e15a7934b3","ios":"levelo://app?vid=d6c3d7f4-760c-422c-8667-25e15a7934b3"},"vehicle_type_id":"4","last_reported":1743959249,"current_range_meters":12800,"station_id":"","pricing_plan_id":"cebpf4jnsgd1na2vs0mg"},{"bike_id":"a5bd5abf-e64b-49fb-9823-db9745ea97e7","system_id":"levelo_inurba_marseille","lat":43.28916,"lon":5.36667,"is_reserved":false,"is_disabled":true,"rental_uris":{"android":"levelo://app?vid=a5bd5abf-e64b-49fb-9823-db9745ea97e7","ios":"levelo://app?vid=a5bd5abf-e64b-49fb-9823-db9745ea97e7"},"vehicle_type_id":"4","last_reported":1743959249,"current_range_meters":12800,"station_id":"ce4bhap2rcd13ifvqek0","pricing_plan_id":"cebpf4jnsgd1na2vs0mg"},{"bike_id":"07486871-a0ff-4090-ad80-c7d852308ed3","system_id":"levelo_inurba_marseille","lat":43.232023,"lon":5.35555,"is_reserved":false,"is_disabled":false,"rental_uris":{"android":"levelo://app?vid=07486871-a0ff-4090-ad80-c7d852308ed3","ios":"levelo://app?vid=07486871-a0ff-4090-ad80-c7d852308ed3"},"vehicle_type_id":"4","last_reported":1743959249,"current_range_meters":12800,"station_id":"ce4bhu92rcd13ifvqi70","pricing_plan_id":"cebpf4jnsgd1na2vs0mg"},{"bike_id":"35b1223b-647f-4f9f-9d4e-ffe538fbd0b8","system_id":"levelo_inurba_marseille","lat":43.26947,"lon":5.40246,"is_reserved":false,"is_disabled":false,"rental_uris":{"android":"levelo://app?vid=35b1223b-647f-4f9f-9d4e-ffe538fbd0b8","ios":"levelo://app?vid=35b1223b-647f-4f9f-9d4e-ffe538fbd0b8"},"vehicle_type_id":"4","last_reported":1743959249,"current_range_meters":12800,"station_id":"cjm6bp8fraef2m0cb0m0","pricing_plan_id":"cebpf4jnsgd1na2vs0mg"},{"bike_id":"ee9c18e0-6c32-4bcd-a16c-ae73215ad130","system_id":"levelo_inurba_marseille","lat":43.29798,"lon":5.38106,"is_reserved":false,"is_disabled":false,"rental_uris":{"android":"levelo://app?vid=ee9c18e0-6c32-4bcd-a16c-ae73215ad130","ios":"levelo://app?vid=ee9c18e0-6c32-4bcd-a16c-ae73215ad130"},"vehicle_type_id":"4","last_reported":1743959249,"current_range_meters":13600,"station_id":"ce4bgip2rcd13ifvqbb0","pricing_plan_id":"cebpf4jnsgd1na2vs0mg"},{"bike_id":"83daaad8-ff1f-4a7b-91ec-f615ddb621a4","system_id":"levelo_inurba_marseille","lat":43.24168,"lon":5.36404,"is_reserved":false,"is_disabled":false,"rental_uris":{"android":"levelo://app?vid=83daaad8-ff1f-4a7b-91ec-f615ddb621a4","ios":"levelo://app?vid=83daaad8-ff1f-4a7b-91ec-f615ddb621a4"},"vehicle_type_id":"4","last_reported":1743959249,"current_range_meters":13600,"station_id":"cpo36qri1sfpv3e86is0","pricing_plan_id":"cebpf4jnsgd1na2vs0mg"},{"bike_id":"bebeb4f3-aae2-41b0-82ec-96e0ee8a57fa","system_id":"levelo_inurba_marseille","lat":43.3219,"lon":5.36684,"is_reserved":false,"is_disabled":false,"rental_uris":{"android":"levelo://app?vid=bebeb4f3-aae2-41b0-82ec-96e0ee8a57fa","ios":"levelo://app?vid=bebeb4f3-aae2-41b0-82ec-96e0ee8a57fa"},"vehicle_type_id":"4","last_reported":1743959249,"current_range_meters":13600,"station_id":"ce4bhrh2rcd13ifvqhug","pricing_plan_id":"cebpf4jnsgd1na2vs0mg"},{"bike_id":"cacb43af-1611-4b71-b7b9-73b145cb52b8","system_id":"levelo_inurba_marseille","lat":43.298769,"lon":5.363238,"is_reserved":false,"is_disabled":false,"rental_uris":{"android":"levelo://app?vid=cacb43af-1611-4b71-b7b9-73b145cb52b8","ios":"levelo://app?vid=cacb43af-1611-4b71-b7b9-73b145cb52b8"},"vehicle_type_id":"4","last_reported":1743959249,"current_range_meters":13600,"station_id":"ce4bgl92rcd13ifvqbq0","pricing_plan_id":"cebpf4jnsgd1na2vs0mg"},{"bike_id":"14013b0f-1d3c-4caa-b475-0539d5ed5d51","system_id":"levelo_inurba_marseille","lat":43.28609,"lon":5.37067,"is_reserved":false,"is_disabled":false,"rental_uris":{"android":"levelo://app?vid=14013b0f-1d3c-4caa-b475-0539d5ed5d51","ios":"levelo://app?vid=14013b0f-1d3c-4caa-b475-0539d5ed5d51"},"vehicle_type_id":"4","last_reported":1743959249,"current_range_meters":14000,"station_id":"ce4bht12rcd13ifvqi60","pricing_plan_id":"cebpf4jnsgd1na2vs0mg"},{"bike_id":"a959694d-18ce-4d80-917f-23c91ed81065","system_id":"levelo_inurba_marseille","lat":43.29899,"lon":5.43679,"is_reserved":false,"is_disabled":false,"rental_uris":{"android":"levelo://app?vid=a959694d-18ce-4d80-917f-23c91ed81065","ios":"levelo://app?vid=a959694d-18ce-4d80-917f-23c91ed81065"},"vehicle_type_id":"4","last_reported":1743959249,"current_range_meters":14000,"station_id":"ce4bhpp2rcd13ifvqhfg","pricing_plan_id":"cebpf4jnsgd1na2vs0mg"},{"bike_id":"0b019f27-b1b6-402a-b4d6-f9d063bf7adf","system_id":"levelo_inurba_marseille","lat":43.24168,"lon":5.36424,"is_reserved":false,"is_disabled":false,"rental_uris":{"android":"levelo://app?vid=0b019f27-b1b6-402a-b4d6-f9d063bf7adf","ios":"levelo://app?vid=0b019f27-b1b6-402a-b4d6-f9d063bf7adf"},"vehicle_type_id":"4","last_reported":1743959249,"current_range_meters":14000,"station_id":"cpo36qri1sfpv3e86is0","pricing_plan_id":"cebpf4jnsgd1na2vs0mg"},{"bike_id":"0f7b322b-54f2-48d6-9b69-841d8565a072","system_id":"levelo_inurba_marseille","lat":43.28468,"lon":5.38405,"is_reserved":false,"is_disabled":false,"rental_uris":{"android":"levelo://app?vid=0f7b322b-54f2-48d6-9b69-841d8565a072","ios":"levelo://app?vid=0f7b322b-54f2-48d6-9b69-841d8565a072"},"vehicle_type_id":"4","last_reported":1743959249,"current_range_meters":14000,"station_id":"ce4bh512rcd13ifvqe3g","pricing_plan_id":"cebpf4jnsgd1na2vs0mg"},{"bike_id":"a1a74f1b-fb44-455f-8438-c57f314bba18","system_id":"levelo_inurba_marseille","lat":43.22498,"lon":5.34784,"is_reserved":false,"is_disabled":false,"rental_uris":{"android":"levelo://app?vid=a1a74f1b-fb44-455f-8438-c57f314bba18","ios":"levelo://app?vid=a1a74f1b-fb44-455f-8438-c57f314bba18"},"vehicle_type_id":"4","last_reported":1743959249,"current_range_meters":14000,"station_id":"st_cvj5dfep6f1abm77gieg","pricing_plan_id":"cebpf4jnsgd1na2vs0mg"},{"bike_id":"2b359879-54f4-41b0-942b-2be23c4f9b20","system_id":"levelo_inurba_marseille","lat":43.29419,"lon":5.38622,"is_reserved":false,"is_disabled":false,"rental_uris":{"android":"levelo://app?vid=2b359879-54f4-41b0-942b-2be23c4f9b20","ios":"levelo://app?vid=2b359879-54f4-41b0-942b-2be23c4f9b20"},"vehicle_type_id":"4","last_reported":1743959249,"current_range_meters":14400,"station_id":"ce4bh2h2rcd13ifvqdh0","pricing_plan_id":"cebpf4jnsgd1na2vs0mg"},{"bike_id":"a9bc96c7-a9d8-4683-b4b4-4e51740e42e7","system_id":"levelo_inurba_marseille","lat":43.31495,"lon":5.37305,"is_reserved":false,"is_disabled":false,"rental_uris":{"android":"levelo://app?vid=a9bc96c7-a9d8-4683-b4b4-4e51740e42e7","ios":"levelo://app?vid=a9bc96c7-a9d8-4683-b4b4-4e51740e42e7"},"vehicle_type_id":"4","last_reported":1743959249,"current_range_meters":14400,"station_id":"ce4bgt12rcd13ifvqcd0","pricing_plan_id":"cebpf4jnsgd1na2vs0mg"},{"bike_id":"222e1e00-578b-4512-8bd3-f56c6fa61730","system_id":"levelo_inurba_marseille","lat":43.23965,"lon":5.36622,"is_reserved":false,"is_disabled":true,"rental_uris":{"android":"levelo://app?vid=222e1e00-578b-4512-8bd3-f56c6fa61730","ios":"levelo://app?vid=222e1e00-578b-4512-8bd3-f56c6fa61730"},"vehicle_type_id":"4","last_reported":1743959249,"current_range_meters":14400,"station_id":"ce4bhi12rcd13ifvqfp0","pricing_plan_id":"cebpf4jnsgd1na2vs0mg"},{"bike_id":"de5ca927-89c2-49e5-9fe5-94b4e3d85650","system_id":"levelo_inurba_marseille","lat":43.29418,"lon":5.3862,"is_reserved":false,"is_disabled":false,"rental_uris":{"android":"levelo://app?vid=de5ca927-89c2-49e5-9fe5-94b4e3d85650","ios":"levelo://app?vid=de5ca927-89c2-49e5-9fe5-94b4e3d85650"},"vehicle_type_id":"4","last_reported":1743959249,"current_range_meters":14400,"station_id":"ce4bh2h2rcd13ifvqdh0","pricing_plan_id":"cebpf4jnsgd1na2vs0mg"},{"bike_id":"5c297cff-9a0a-47ca-b921-4bab00f0ecd1","system_id":"levelo_inurba_marseille","lat":43.25496,"lon":5.37647,"is_reserved":false,"is_disabled":false,"rental_uris":{"android":"levelo://app?vid=5c297cff-9a0a-47ca-b921-4bab00f0ecd1","ios":"levelo://app?vid=5c297cff-9a0a-47ca-b921-4bab00f0ecd1"},"vehicle_type_id":"4","last_reported":1743959249,"current_range_meters":14800,"station_id":"ce4bhh12rcd13ifvqff0","pricing_plan_id":"cebpf4jnsgd1na2vs0mg"},{"bike_id":"f93350b2-eeb2-4fab-a05b-471030eaeba9","system_id":"levelo_inurba_marseille","lat":43.29265,"lon":5.40162,"is_reserved":false,"is_disabled":false,"rental_uris":{"android":"levelo://app?vid=f93350b2-eeb2-4fab-a05b-471030eaeba9","ios":"levelo://app?vid=f93350b2-eeb2-4fab-a05b-471030eaeba9"},"vehicle_type_id":"4","last_reported":1743959249,"current_range_meters":14800,"station_id":"ce4bh312rcd13ifvqdk0","pricing_plan_id":"cebpf4jnsgd1na2vs0mg"},{"bike_id":"c21dcdea-508b-4f01-8f39-cd798dfa0575","system_id":"levelo_inurba_marseille","lat":43.3211,"lon":5.36771,"is_reserved":false,"is_disabled":false,"rental_uris":{"android":"levelo://app?vid=c21dcdea-508b-4f01-8f39-cd798dfa0575","ios":"levelo://app?vid=c21dcdea-508b-4f01-8f39-cd798dfa0575"},"vehicle_type_id":"4","last_reported":1743959249,"current_range_meters":14800,"station_id":"ce4bhrh2rcd13ifvqhug","pricing_plan_id":"cebpf4jnsgd1na2vs0mg"},{"bike_id":"7b0887d2-8e83-45a2-b7df-07bb0472b494","system_id":"levelo_inurba_marseille","lat":43.2141,"lon":5.3411,"is_reserved":false,"is_disabled":false,"rental_uris":{"android":"levelo://app?vid=7b0887d2-8e83-45a2-b7df-07bb0472b494","ios":"levelo://app?vid=7b0887d2-8e83-45a2-b7df-07bb0472b494"},"vehicle_type_id":"4","last_reported":1743959249,"current_range_meters":14800,"station_id":"","pricing_plan_id":"cebpf4jnsgd1na2vs0mg"},{"bike_id":"d68482a7-9dea-495a-b301-0cb2e06173b6","system_id":"levelo_inurba_marseille","lat":43.29786,"lon":5.39335,"is_reserved":false,"is_disabled":false,"rental_uris":{"android":"levelo://app?vid=d68482a7-9dea-495a-b301-0cb2e06173b6","ios":"levelo://app?vid=d68482a7-9dea-495a-b301-0cb2e06173b6"},"vehicle_type_id":"4","last_reported":1743959249,"current_range_meters":15200,"station_id":"chh1huq6cuj3fo74tm60","pricing_plan_id":"cebpf4jnsgd1na2vs0mg"},{"bike_id":"1c1c21d9-0d98-42bf-8b57-ec1443e0d8a1","system_id":"levelo_inurba_marseille","lat":43.27211,"lon":5.39175,"is_reserved":false,"is_disabled":false,"rental_uris":{"android":"levelo://app?vid=1c1c21d9-0d98-42bf-8b57-ec1443e0d8a1","ios":"levelo://app?vid=1c1c21d9-0d98-42bf-8b57-ec1443e0d8a1"},"vehicle_type_id":"4","last_reported":1743959249,"current_range_meters":15200,"station_id":"ce4bhhp2rcd13ifvqfm0","pricing_plan_id":"cebpf4jnsgd1na2vs0mg"},{"bike_id":"d3940f6d-6c26-4ccb-aa36-1b12f0ca6ef4","system_id":"levelo_inurba_marseille","lat":43.32116,"lon":5.38573,"is_reserved":false,"is_disabled":false,"rental_uris":{"android":"levelo://app?vid=d3940f6d-6c26-4ccb-aa36-1b12f0ca6ef4","ios":"levelo://app?vid=d3940f6d-6c26-4ccb-aa36-1b12f0ca6ef4"},"vehicle_type_id":"4","last_reported":1743959249,"current_range_meters":15200,"station_id":"","pricing_plan_id":"cebpf4jnsgd1na2vs0mg"},{"bike_id":"fdeb043e-4b19-4ed8-9cfb-566cf2a879ac","system_id":"levelo_inurba_marseille","lat":43.2849,"lon":5.3843,"is_reserved":false,"is_disabled":false,"rental_uris":{"android":"levelo://app?vid=fdeb043e-4b19-4ed8-9cfb-566cf2a879ac","ios":"levelo://app?vid=fdeb043e-4b19-4ed8-9cfb-566cf2a879ac"},"vehicle_type_id":"4","last_reported":1743959249,"current_range_meters":16000,"station_id":"ce4bh512rcd13ifvqe3g","pricing_plan_id":"cebpf4jnsgd1na2vs0mg"},{"bike_id":"750bc9c2-8244-4f27-a571-77c62d7d6b92","system_id":"levelo_inurba_marseille","lat":43.31311,"lon":5.37737,"is_reserved":false,"is_disabled":false,"rental_uris":{"android":"levelo://app?vid=750bc9c2-8244-4f27-a571-77c62d7d6b92","ios":"levelo://app?vid=750bc9c2-8244-4f27-a571-77c62d7d6b92"},"vehicle_type_id":"4","last_reported":1743959249,"current_range_meters":16000,"station_id":"","pricing_plan_id":"cebpf4jnsgd1na2vs0mg"},{"bike_id":"409646d0-025b-4082-84fb-2edc0b9f85a8","system_id":"levelo_inurba_marseille","lat":43.29542,"lon":5.38561,"is_reserved":false,"is_disabled":false,"rental_uris":{"android":"levelo://app?vid=409646d0-025b-4082-84fb-2edc0b9f85a8","ios":"levelo://app?vid=409646d0-025b-4082-84fb-2edc0b9f85a8"},"vehicle_type_id":"4","last_reported":1743959249,"current_range_meters":16000,"station_id":"ce4bgih2rcd13ifvqba0","pricing_plan_id":"cebpf4jnsgd1na2vs0mg"},{"bike_id":"4e86a482-5f33-4fdb-ae17-d646110c818c","system_id":"levelo_inurba_marseille","lat":43.25832,"lon":5.39428,"is_reserved":false,"is_disabled":false,"rental_uris":{"android":"levelo://app?vid=4e86a482-5f33-4fdb-ae17-d646110c818c","ios":"levelo://app?vid=4e86a482-5f33-4fdb-ae17-d646110c818c"},"vehicle_type_id":"4","last_reported":1743959249,"current_range_meters":16000,"station_id":"ce4bhip2rcd13ifvqft0","pricing_plan_id":"cebpf4jnsgd1na2vs0mg"},{"bike_id":"3a6cf4dd-4a04-48a6-bbfb-6b1ea18759b5","system_id":"levelo_inurba_marseille","lat":43.32363,"lon":5.36749,"is_reserved":false,"is_disabled":false,"rental_uris":{"android":"levelo://app?vid=3a6cf4dd-4a04-48a6-bbfb-6b1ea18759b5","ios":"levelo://app?vid=3a6cf4dd-4a04-48a6-bbfb-6b1ea18759b5"},"vehicle_type_id":"4","last_reported":1743959249,"current_range_meters":16000,"station_id":"ce4bhsh2rcd13ifvqi2g","pricing_plan_id":"cebpf4jnsgd1na2vs0mg"},{"bike_id":"39ed7e6f-c1cf-4ef1-af21-b3162de94dae","system_id":"levelo_inurba_marseille","lat":43.29443,"lon":5.38619,"is_reserved":false,"is_disabled":false,"rental_uris":{"android":"levelo://app?vid=39ed7e6f-c1cf-4ef1-af21-b3162de94dae","ios":"levelo://app?vid=39ed7e6f-c1cf-4ef1-af21-b3162de94dae"},"vehicle_type_id":"4","last_reported":1743959249,"current_range_meters":16000,"station_id":"ce4bh2h2rcd13ifvqdh0","pricing_plan_id":"cebpf4jnsgd1na2vs0mg"},{"bike_id":"8b346244-f987-4ad0-ade0-e5f1bf0e1c51","system_id":"levelo_inurba_marseille","lat":43.29021,"lon":5.38142,"is_reserved":false,"is_disabled":false,"rental_uris":{"android":"levelo://app?vid=8b346244-f987-4ad0-ade0-e5f1bf0e1c51","ios":"levelo://app?vid=8b346244-f987-4ad0-ade0-e5f1bf0e1c51"},"vehicle_type_id":"4","last_reported":1743959249,"current_range_meters":16000,"station_id":"ce4bh4p2rcd13ifvqe1g","pricing_plan_id":"cebpf4jnsgd1na2vs0mg"},{"bike_id":"0fd453bc-2d6e-4482-8ae4-2c4cd0a51bc1","system_id":"levelo_inurba_marseille","lat":43.30757,"lon":5.37974,"is_reserved":false,"is_disabled":false,"rental_uris":{"android":"levelo://app?vid=0fd453bc-2d6e-4482-8ae4-2c4cd0a51bc1","ios":"levelo://app?vid=0fd453bc-2d6e-4482-8ae4-2c4cd0a51bc1"},"vehicle_type_id":"4","last_reported":1743959249,"current_range_meters":16400,"station_id":"","pricing_plan_id":"cebpf4jnsgd1na2vs0mg"},{"bike_id":"d8073ca0-7ae8-47c8-960c-880ea4cf7374","system_id":"levelo_inurba_marseille","lat":43.28416,"lon":5.34972,"is_reserved":false,"is_disabled":false,"rental_uris":{"android":"levelo://app?vid=d8073ca0-7ae8-47c8-960c-880ea4cf7374","ios":"levelo://app?vid=d8073ca0-7ae8-47c8-960c-880ea4cf7374"},"vehicle_type_id":"4","last_reported":1743959249,"current_range_meters":16400,"station_id":"ce4bhbh2rcd13ifvqepg","pricing_plan_id":"cebpf4jnsgd1na2vs0mg"},{"bike_id":"a564b641-b683-4d7d-8f86-631a19b122d7","system_id":"levelo_inurba_marseille","lat":43.28929,"lon":5.38398,"is_reserved":false,"is_disabled":false,"rental_uris":{"android":"levelo://app?vid=a564b641-b683-4d7d-8f86-631a19b122d7","ios":"levelo://app?vid=a564b641-b683-4d7d-8f86-631a19b122d7"},"vehicle_type_id":"4","last_reported":1743959249,"current_range_meters":16400,"station_id":"ce4bh612rcd13ifvqe6g","pricing_plan_id":"cebpf4jnsgd1na2vs0mg"},{"bike_id":"8127a379-abcb-448e-b192-b2b588a12b57","system_id":"levelo_inurba_marseille","lat":43.25735,"lon":5.41097,"is_reserved":false,"is_disabled":false,"rental_uris":{"android":"levelo://app?vid=8127a379-abcb-448e-b192-b2b588a12b57","ios":"levelo://app?vid=8127a379-abcb-448e-b192-b2b588a12b57"},"vehicle_type_id":"4","last_reported":1743959249,"current_range_meters":16400,"station_id":"ce4bhkp2rcd13ifvqgd0","pricing_plan_id":"cebpf4jnsgd1na2vs0mg"},{"bike_id":"b9b7d5a4-c96c-417f-b4d0-9b44348a0f14","system_id":"levelo_inurba_marseille","lat":43.29536,"lon":5.38536,"is_reserved":false,"is_disabled":false,"rental_uris":{"android":"levelo://app?vid=b9b7d5a4-c96c-417f-b4d0-9b44348a0f14","ios":"levelo://app?vid=b9b7d5a4-c96c-417f-b4d0-9b44348a0f14"},"vehicle_type_id":"4","last_reported":1743959249,"current_range_meters":16400,"station_id":"ce4bgih2rcd13ifvqba0","pricing_plan_id":"cebpf4jnsgd1na2vs0mg"},{"bike_id":"b5f969de-f00c-4527-8db7-b0bfd727b190","system_id":"levelo_inurba_marseille","lat":43.28127,"lon":5.37808,"is_reserved":false,"is_disabled":false,"rental_uris":{"android":"levelo://app?vid=b5f969de-f00c-4527-8db7-b0bfd727b190","ios":"levelo://app?vid=b5f969de-f00c-4527-8db7-b0bfd727b190"},"vehicle_type_id":"4","last_reported":1743959249,"current_range_meters":16400,"station_id":"ce4bha12rcd13ifvqee0","pricing_plan_id":"cebpf4jnsgd1na2vs0mg"},{"bike_id":"0a45622a-d861-47cf-b8cf-7c873a4e8434","system_id":"levelo_inurba_marseille","lat":43.23187,"lon":5.39982,"is_reserved":false,"is_disabled":false,"rental_uris":{"android":"levelo://app?vid=0a45622a-d861-47cf-b8cf-7c873a4e8434","ios":"levelo://app?vid=0a45622a-d861-47cf-b8cf-7c873a4e8434"},"vehicle_type_id":"4","last_reported":1743959249,"current_range_meters":16800,"station_id":"ce4bhn12rcd13ifvqgqg","pricing_plan_id":"cebpf4jnsgd1na2vs0mg"},{"bike_id":"b0aad79c-f374-409d-a098-4e2036f9509f","system_id":"levelo_inurba_marseille","lat":43.29278,"lon":5.36837,"is_reserved":false,"is_disabled":false,"rental_uris":{"android":"levelo://app?vid=b0aad79c-f374-409d-a098-4e2036f9509f","ios":"levelo://app?vid=b0aad79c-f374-409d-a098-4e2036f9509f"},"vehicle_type_id":"4","last_reported":1743959249,"current_range_meters":16800,"station_id":"ce4bhbp2rcd13ifvqesg","pricing_plan_id":"cebpf4jnsgd1na2vs0mg"},{"bike_id":"3ad82b75-91de-4a74-a7e6-6bdb4a250987","system_id":"levelo_inurba_marseille","lat":43.214257,"lon":5.342177,"is_reserved":false,"is_disabled":false,"rental_uris":{"android":"levelo://app?vid=3ad82b75-91de-4a74-a7e6-6bdb4a250987","ios":"levelo://app?vid=3ad82b75-91de-4a74-a7e6-6bdb4a250987"},"vehicle_type_id":"4","last_reported":1743959249,"current_range_meters":16800,"station_id":"","pricing_plan_id":"cebpf4jnsgd1na2vs0mg"},{"bike_id":"4c89ac9e-0462-4a72-9289-acae63e6b69a","system_id":"levelo_inurba_marseille","lat":43.26953,"lon":5.38635,"is_reserved":false,"is_disabled":false,"rental_uris":{"android":"levelo://app?vid=4c89ac9e-0462-4a72-9289-acae63e6b69a","ios":"levelo://app?vid=4c89ac9e-0462-4a72-9289-acae63e6b69a"},"vehicle_type_id":"4","last_reported":1743959249,"current_range_meters":16800,"station_id":"ce4bhh92rcd13ifvqfh0","pricing_plan_id":"cebpf4jnsgd1na2vs0mg"},{"bike_id":"69f25506-685e-4847-9621-f4fa78a4dc47","system_id":"levelo_inurba_marseille","lat":43.22814,"lon":5.3492,"is_reserved":false,"is_disabled":false,"rental_uris":{"android":"levelo://app?vid=69f25506-685e-4847-9621-f4fa78a4dc47","ios":"levelo://app?vid=69f25506-685e-4847-9621-f4fa78a4dc47"},"vehicle_type_id":"4","last_reported":1743959249,"current_range_meters":16800,"station_id":"","pricing_plan_id":"cebpf4jnsgd1na2vs0mg"},{"bike_id":"0156cb88-26b7-4ae0-99d9-73279d2d6c2c","system_id":"levelo_inurba_marseille","lat":43.29583,"lon":5.3674,"is_reserved":false,"is_disabled":false,"rental_uris":{"android":"levelo://app?vid=0156cb88-26b7-4ae0-99d9-73279d2d6c2c","ios":"levelo://app?vid=0156cb88-26b7-4ae0-99d9-73279d2d6c2c"},"vehicle_type_id":"4","last_reported":1743959249,"current_range_meters":16800,"station_id":"ce4bgph2rcd13ifvqc2g","pricing_plan_id":"cebpf4jnsgd1na2vs0mg"},{"bike_id":"af69ddaf-3c35-451f-90e1-22db18d9f81c","system_id":"levelo_inurba_marseille","lat":43.30798,"lon":5.43523,"is_reserved":false,"is_disabled":false,"rental_uris":{"android":"levelo://app?vid=af69ddaf-3c35-451f-90e1-22db18d9f81c","ios":"levelo://app?vid=af69ddaf-3c35-451f-90e1-22db18d9f81c"},"vehicle_type_id":"4","last_reported":1743959249,"current_range_meters":16800,"station_id":"ce4bhph2rcd13ifvqheg","pricing_plan_id":"cebpf4jnsgd1na2vs0mg"},{"bike_id":"017190fd-7833-46ce-9494-0e0bdee8423b","system_id":"levelo_inurba_marseille","lat":43.2681,"lon":5.40257,"is_reserved":false,"is_disabled":false,"rental_uris":{"android":"levelo://app?vid=017190fd-7833-46ce-9494-0e0bdee8423b","ios":"levelo://app?vid=017190fd-7833-46ce-9494-0e0bdee8423b"},"vehicle_type_id":"4","last_reported":1743959249,"current_range_meters":16800,"station_id":"ce501612rcd8frsf0b60","pricing_plan_id":"cebpf4jnsgd1na2vs0mg"},{"bike_id":"b1ca3225-ab95-40f4-9c8a-71ddf2b411f5","system_id":"levelo_inurba_marseille","lat":43.23184,"lon":5.39988,"is_reserved":false,"is_disabled":false,"rental_uris":{"android":"levelo://app?vid=b1ca3225-ab95-40f4-9c8a-71ddf2b411f5","ios":"levelo://app?vid=b1ca3225-ab95-40f4-9c8a-71ddf2b411f5"},"vehicle_type_id":"4","last_reported":1743959249,"current_range_meters":17200,"station_id":"ce4bhn12rcd13ifvqgqg","pricing_plan_id":"cebpf4jnsgd1na2vs0mg"},