{"last_updated":1736824180,"ttl":60,"version":"2.2","data":{"bikes":[{"bike_id":"f25e1845-30c9-49ee-8cf4-09353d397859","system_id":"levelo_inurba_marseille","lat":43.3247,"lon":5.36592,"is_reserved":false,"is_disabled":false,"rental_uris":{"android":"levelo://app?vid=f25e1845-30c9-49ee-8cf4-09353d397859","ios":"levelo://app?vid=f25e1845-30c9-49ee-8cf4-09353d397859"},"vehicle_type_id":"4","last_reported":1736824180,"current_range_meters":36800,"station_id":"ce4bhs12rcd13ifvqhvg","pricing_plan_id":"cebpf4jnsgd1na2vs0mg"},{"bike_id":"8b877a16-2c6f-4913-a8ea-b53aacb81218","system_id":"levelo_inurba_marseille","lat":43.28065,"lon":5.39669,"is_reserved":false,"is_disabled":false,"rental_uris":{"android":"levelo://app?vid=8b877a16-2c6f-4913-a8ea-b53aacb81218","ios":"levelo://app?vid=8b877a16-2c6f-4913-a8ea-b53aacb81218"},"vehicle_type_id":"4","last_reported":1736824180,"current_range_meters":38800,"station_id":"ce4bho12rcd13ifvqh2g","pricing_plan_id":"cebpf4jnsgd1na2vs0mg"},{"bike_id":"58749a2e-936f-483c-8729-901ef3c374d7","system_id":"levelo_inurba_marseille","lat":43.30799,"lon":5.38155,"is_reserved":false,"is_disabled":false,"rental_uris":{"android":"levelo://app?vid=58749a2e-936f-483c-8729-901ef3c374d7","ios":"levelo://app?vid=58749a2e-936f-483c-8729-901ef3c374d7"},"vehicle_type_id":"4","last_reported":1736824180,"current_range_meters":38400,"station_id":"ce4bgt12rcd13ifvqce0","pricing_plan_id":"cebpf4jnsgd1na2vs0mg"},{"bike_id":"ad246e4b-ae11-4800-84d7-528efb370d33","system_id":"levelo_inurba_marseille","lat":43.2925,"lon":5.40155,"is_reserved":false,"is_disabled":false,"rental_uris":{"android":"levelo://app?vid=ad246e4b-ae11-4800-84d7-528efb370d33","ios":"levelo://app?vid=ad246e4b-ae11-4800-84d7-528efb370d33"},"vehicle_type_id":"4","last_reported":1736824180,"current_range_meters":38000,"station_id":"ce4bh312rcd13ifvqdk0","pricing_plan_id":"cebpf4jnsgd1na2vs0mg"},{"bike_id":"c37eb154-eff9-4ed3-b5f8-4bec02466a3b","system_id":"levelo_inurba_marseille","lat":43.31365,"lon":5.38497,"is_reserved":false,"is_disabled":false,"rental_uris":{"android":"levelo://app?vid=c37eb154-eff9-4ed3-b5f8-4bec02466a3b","ios":"levelo://app?vid=c37eb154-eff9-4ed3-b5f8-4bec02466a3b"},"vehicle_type_id":"4","last_reported":1736824180,"current_range_meters":16400,"station_id":"ce4bgt92rcd13ifvqcf0","pricing_plan_id":"cebpf4jnsgd1na2vs0mg"},{"bike_id":"68254f1d-5cce-47b3-8eeb-489bd62106b0","system_id":"levelo_inurba_marseille","lat":43.28729,"lon":5.36082,"is_reserved":false,"is_disabled":false,"rental_uris":{"android":"levelo://app?vid=68254f1d-5cce-47b3-8eeb-489bd62106b0","ios":"levelo://app?vid=68254f1d-5cce-47b3-8eeb-489bd62106b0"},"vehicle_type_id":"4","last_reported":1736824180,"current_range_meters":39200,"station_id":"cki0cbj6b192h4jlfktg","pricing_plan_id":"cebpf4jnsgd1na2vs0mg"},{"bike_id":"3953439b-f509-49e5-bb8d-9b9887e5086e","system_id":"levelo_inurba_marseille","lat":43.31035,"lon":5.38398,"is_reserved":false,"is_disabled":false,"rental_uris":{"android":"levelo://app?vid=3953439b-f509-49e5-bb8d-9b9887e5086e","ios":"levelo://app?vid=3953439b-f509-49e5-bb8d-9b9887e5086e"},"vehicle_type_id":"4","last_reported":1736824180,"current_range_meters":29600,"station_id":"ce4bgv92rcd13ifvqcr0","pricing_plan_id":"cebpf4jnsgd1na2vs0mg"},{"bike_id":"a9caf45c-9b62-4fad-bb25-cf9cfd1dff86","system_id":"levelo_inurba_marseille","lat":43.33726,"lon":5.3918,"is_reserved":false,"is_disabled":false,"rental_uris":{"android":"levelo://app?vid=a9caf45c-9b62-4fad-bb25-cf9cfd1dff86","ios":"levelo://app?vid=a9caf45c-9b62-4fad-bb25-cf9cfd1dff86"},"vehicle_type_id":"4","last_reported":1736824180,"current_range_meters":38000,"station_id":"ce4bhr92rcd13ifvqhsg","pricing_plan_id":"cebpf4jnsgd1na2vs0mg"},{"bike_id":"8df66f74-b7b1-4730-a851-ab6b59f101e6","system_id":"levelo_inurba_marseille","lat":43.28615,"lon":5.35096,"is_reserved":false,"is_disabled":false,"rental_uris":{"android":"levelo://app?vid=8df66f74-b7b1-4730-a851-ab6b59f101e6","ios":"levelo://app?vid=8df66f74-b7b1-4730-a851-ab6b59f101e6"},"vehicle_type_id":"4","last_reported":1736824180,"current_range_meters":30400,"station_id":"ce4bhch2rcd13ifvqeug","pricing_plan_id":"cebpf4jnsgd1na2vs0mg"},{"bike_id":"5e0b46d4-53a6-4a9b-81ed-42b3629948b7","system_id":"levelo_inurba_marseille","lat":43.320986,"lon":5.36789,"is_reserved":false,"is_disabled":false,"rental_uris":{"android":"levelo://app?vid=5e0b46d4-53a6-4a9b-81ed-42b3629948b7","ios":"levelo://app?vid=5e0b46d4-53a6-4a9b-81ed-42b3629948b7"},"vehicle_type_id":"4","last_reported":1736824180,"current_range_meters":38800,"station_id":"ce4bhrh2rcd13ifvqhug","pricing_plan_id":"cebpf4jnsgd1na2vs0mg"},{"bike_id":"a6943742-818e-4008-acc6-cc0735fe9917","system_id":"levelo_inurba_marseille","lat":43.31484,"lon":5.38874,"is_reserved":false,"is_disabled":false,"rental_uris":{"android":"levelo://app?vid=a6943742-818e-4008-acc6-cc0735fe9917","ios":"levelo://app?vid=a6943742-818e-4008-acc6-cc0735fe9917"},"vehicle_type_id":"4","last_reported":1736824180,"current_range_meters":22800,"station_id":"","pricing_plan_id":"cebpf4jnsgd1na2vs0mg"},{"bike_id":"6f593e78-7c62-4312-9e37-109ef54a7a6f","system_id":"levelo_inurba_marseille","lat":43.28857,"lon":5.35909,"is_reserved":false,"is_disabled":false,"rental_uris":{"android":"levelo://app?vid=6f593e78-7c62-4312-9e37-109ef54a7a6f","ios":"levelo://app?vid=6f593e78-7c62-4312-9e37-109ef54a7a6f"},"vehicle_type_id":"4","last_reported":1736824180,"current_range_meters":18800,"station_id":"","pricing_plan_id":"cebpf4jnsgd1na2vs0mg"},{"bike_id":"5772835d-a152-4036-9945-3ef2be70f9fa","system_id":"levelo_inurba_marseille","lat":43.29047,"lon":5.35892,"is_reserved":false,"is_disabled":false,"rental_uris":{"android":"levelo://app?vid=5772835d-a152-4036-9945-3ef2be70f9fa","ios":"levelo://app?vid=5772835d-a152-4036-9945-3ef2be70f9fa"},"vehicle_type_id":"4","last_reported":1736824180,"current_range_meters":39200,"station_id":"ce4bha92rcd13ifvqeg0","pricing_plan_id":"cebpf4jnsgd1na2vs0mg"},{"bike_id":"5bb5758f-37be-496e-ac0a-3712e6b43125","system_id":"levelo_inurba_marseille","lat":43.26213,"lon":5.37931,"is_reserved":false,"is_disabled":false,"rental_uris":{"android":"levelo://app?vid=5bb5758f-37be-496e-ac0a-3712e6b43125","ios":"levelo://app?vid=5bb5758f-37be-496e-ac0a-3712e6b43125"},"vehicle_type_id":"4","last_reported":1736824180,"current_range_meters":38800,"station_id":"ce4bhjp2rcd13ifvqg90","pricing_plan_id":"cebpf4jnsgd1na2vs0mg"},{"bike_id":"fbdc1be9-0896-4827-9983-8a84e7013511","system_id":"levelo_inurba_marseille","lat":43.25205,"lon":5.39093,"is_reserved":false,"is_disabled":false,"rental_uris":{"android":"levelo://app?vid=fbdc1be9-0896-4827-9983-8a84e7013511","ios":"levelo://app?vid=fbdc1be9-0896-4827-9983-8a84e7013511"},"vehicle_type_id":"4","last_reported":1736824180,"current_range_meters":33600,"station_id":"","pricing_plan_id":"cebpf4jnsgd1na2vs0mg"},{"bike_id":"47895ff9-2feb-423e-9fb3-4b3b221f759f","system_id":"levelo_inurba_marseille","lat":43.26052,"lon":5.39383,"is_reserved":false,"is_disabled":false,"rental_uris":{"android":"levelo://app?vid=47895ff9-2feb-423e-9fb3-4b3b221f759f","ios":"levelo://app?vid=47895ff9-2feb-423e-9fb3-4b3b221f759f"},"vehicle_type_id":"4","last_reported":1736824180,"current_range_meters":22400,"station_id":"ce4bhh92rcd13ifvqfj0","pricing_plan_id":"cebpf4jnsgd1na2vs0mg"},{"bike_id":"e4482837-c516-4621-9a17-e2aeae1b4942","system_id":"levelo_inurba_marseille","lat":43.29261,"lon":5.40139,"is_reserved":false,"is_disabled":false,"rental_uris":{"android":"levelo://app?vid=e4482837-c516-4621-9a17-e2aeae1b4942","ios":"levelo://app?vid=e4482837-c516-4621-9a17-e2aeae1b4942"},"vehicle_type_id":"4","last_reported":1736824180,"current_range_meters":38000,"station_id":"ce4bh312rcd13ifvqdk0","pricing_plan_id":"cebpf4jnsgd1na2vs0mg"},{"bike_id":"5404f601-338b-42b6-b222-0f8e6658aff2","system_id":"levelo_inurba_marseille","lat":43.28688,"lon":5.37406,"is_reserved":false,"is_disabled":false,"rental_uris":{"android":"levelo://app?vid=5404f601-338b-42b6-b222-0f8e6658aff2","ios":"levelo://app?vid=5404f601-338b-42b6-b222-0f8e6658aff2"},"vehicle_type_id":"4","last_reported":1736824180,"current_range_meters":20800,"station_id":"ce4bh3p2rcd13ifvqdq0","pricing_plan_id":"cebpf4jnsgd1na2vs0mg"},{"bike_id":"962cc5cc-fec7-46f8-84df-102fbfaf51f6","system_id":"levelo_inurba_marseille","lat":43.25914,"lon":5.40898,"is_reserved":false,"is_disabled":false,"rental_uris":{"android":"levelo://app?vid=962cc5cc-fec7-46f8-84df-102fbfaf51f6","ios":"levelo://app?vid=962cc5cc-fec7-46f8-84df-102fbfaf51f6"},"vehicle_type_id":"4","last_reported":1736824180,"current_range_meters":38800,"station_id":"ce4bhm92rcd13ifvqglg","pricing_plan_id":"cebpf4jnsgd1na2vs0mg"},{"bike_id":"82a6ba22-4fb6-4762-a475-80b36233bd6a","system_id":"levelo_inurba_marseille","lat":43.29771,"lon":5.39351,"is_reserved":false,"is_disabled":false,"rental_uris":{"android":"levelo://app?vid=82a6ba22-4fb6-4762-a475-80b36233bd6a","ios":"levelo://app?vid=82a6ba22-4fb6-4762-a475-80b36233bd6a"},"vehicle_type_id":"4","last_reported":1736824180,"current_range_meters":38800,"station_id":"chh1huq6cuj3fo74tm60","pricing_plan_id":"cebpf4jnsgd1na2vs0mg"},{"bike_id":"62ca94ae-f8fc-4f09-ac04-d26eba5804cc","system_id":"levelo_inurba_marseille","lat":43.336104,"lon":5.410285,"is_reserved":false,"is_disabled":false,"rental_uris":{"android":"levelo://app?vid=62ca94ae-f8fc-4f09-ac04-d26eba5804cc","ios":"levelo://app?vid=62ca94ae-f8fc-4f09-ac04-d26eba5804cc"},"vehicle_type_id":"4","last_reported":1736824180,"current_range_meters":38800,"station_id":"ce4bhqh2rcd13ifvqhmg","pricing_plan_id":"cebpf4jnsgd1na2vs0mg"},{"bike_id":"34ab4a2c-1cfd-44bc-8a6f-9e19f16ad438","system_id":"levelo_inurba_marseille","lat":43.27996,"lon":5.40029,"is_reserved":false,"is_disabled":false,"rental_uris":{"android":"levelo://app?vid=34ab4a2c-1cfd-44bc-8a6f-9e19f16ad438","ios":"levelo://app?vid=34ab4a2c-1cfd-44bc-8a6f-9e19f16ad438"},"vehicle_type_id":"4","last_reported":1736824180,"current_range_meters":24800,"station_id":"ce4bho92rcd13ifvqh4g","pricing_plan_id":"cebpf4jnsgd1na2vs0mg"},{"bike_id":"65e85a03-cf3e-4519-b8a8-200c5bb1b0c9","system_id":"levelo_inurba_marseille","lat":43.262006,"lon":5.379255,"is_reserved":false,"is_disabled":false,"rental_uris":{"android":"levelo://app?vid=65e85a03-cf3e-4519-b8a8-200c5bb1b0c9","ios":"levelo://app?vid=65e85a03-cf3e-4519-b8a8-200c5bb1b0c9"},"vehicle_type_id":"4","last_reported":1736824180,"current_range_meters":38400,"station_id":"ce4bhjp2rcd13ifvqg90","pricing_plan_id":"cebpf4jnsgd1na2vs0mg"},{"bike_id":"25201559-3be6-490e-b049-639df5366fcd","system_id":"levelo_inurba_marseille","lat":43.299735,"lon":5.384885,"is_reserved":false,"is_disabled":true,"rental_uris":{"android":"levelo://app?vid=25201559-3be6-490e-b049-639df5366fcd","ios":"levelo://app?vid=25201559-3be6-490e-b049-639df5366fcd"},"vehicle_type_id":"4","last_reported":1736824180,"current_range_meters":38000,"station_id":"ce4bgj92rcd13ifvqbd0","pricing_plan_id":"cebpf4jnsgd1na2vs0mg"},{"bike_id":"94440fca-9d66-4315-a057-b48311229f6d","system_id":"levelo_inurba_marseille","lat":43.33608,"lon":5.41028,"is_reserved":false,"is_disabled":true,"rental_uris":{"android":"levelo://app?vid=94440fca-9d66-4315-a057-b48311229f6d","ios":"levelo://app?vid=94440fca-9d66-4315-a057-b48311229f6d"},"vehicle_type_id":"4","last_reported":1736824180,"current_range_meters":36000,"station_id":"ce4bhqh2rcd13ifvqhmg","pricing_plan_id":"cebpf4jnsgd1na2vs0mg"},{"bike_id":"8c87b04e-7400-4d3c-8890-ca4ed5386a3c","system_id":"levelo_inurba_marseille","lat":43.31066,"lon":5.42419,"is_reserved":false,"is_disabled":false,"rental_uris":{"android":"levelo://app?vid=8c87b04e-7400-4d3c-8890-ca4ed5386a3c","ios":"levelo://app?vid=8c87b04e-7400-4d3c-8890-ca4ed5386a3c"},"vehicle_type_id":"4","last_reported":1736824180,"current_range_meters":33600,"station_id":"ce4bhp92rcd13ifvqhag","pricing_plan_id":"cebpf4jnsgd1na2vs0mg"},{"bike_id":"a2faf94a-ac42-466f-a186-76014e1ad540","system_id":"levelo_inurba_marseille","lat":43.30599,"lon":5.39352,"is_reserved":false,"is_disabled":false,"rental_uris":{"android":"levelo://app?vid=a2faf94a-ac42-466f-a186-76014e1ad540","ios":"levelo://app?vid=a2faf94a-ac42-466f-a186-76014e1ad540"},"vehicle_type_id":"4","last_reported":1736824180,"current_range_meters":37600,"station_id":"ce4bh0p2rcd13ifvqd80","pricing_plan_id":"cebpf4jnsgd1na2vs0mg"},{"bike_id":"43a19695-e4f2-46f6-b6c0-b6dbf1231a1a","system_id":"levelo_inurba_marseille","lat":43.287,"lon":5.37392,"is_reserved":false,"is_disabled":false,"rental_uris":{"android":"levelo://app?vid=43a19695-e4f2-46f6-b6c0-b6dbf1231a1a","ios":"levelo://app?vid=43a19695-e4f2-46f6-b6c0-b6dbf1231a1a"},"vehicle_type_id":"4","last_reported":1736824180,"current_range_meters":12000,"station_id":"ce4bh3p2rcd13ifvqdq0","pricing_plan_id":"cebpf4jnsgd1na2vs0mg"},{"bike_id":"6a8dc65c-8c47-4239-8815-8efa2acdc338","system_id":"levelo_inurba_marseille","lat":43.27984,"lon":5.41658,"is_reserved":false,"is_disabled":true,"rental_uris":{"android":"levelo://app?vid=6a8dc65c-8c47-4239-8815-8efa2acdc338","ios":"levelo://app?vid=6a8dc65c-8c47-4239-8815-8efa2acdc338"},"vehicle_type_id":"4","last_reported":1736824180,"current_range_meters":400,"station_id":"ce4bho12rcd13ifvqh1g","pricing_plan_id":"cebpf4jnsgd1na2vs0mg"},{"bike_id":"668b5521-8401-4825-bb92-e5dc1608eace","system_id":"levelo_inurba_marseille","lat":43.31334,"lon":5.39709,"is_reserved":false,"is_disabled":false,"rental_uris":{"android":"levelo://app?vid=668b5521-8401-4825-bb92-e5dc1608eace","ios":"levelo://app?vid=668b5521-8401-4825-bb92-e5dc1608eace"},"vehicle_type_id":"4","last_reported":1736824180,"current_range_meters":23200,"station_id":"ce4bgvp2rcd13ifvqcu0","pricing_plan_id":"cebpf4jnsgd1na2vs0mg"},{"bike_id":"94d00723-79f7-443c-bc62-0c89ddbb1d1c","system_id":"levelo_inurba_marseille","lat":43.2818,"lon":5.4264,"is_reserved":false,"is_disabled":true,"rental_uris":{"android":"levelo://app?vid=94d00723-79f7-443c-bc62-0c89ddbb1d1c","ios":"levelo://app?vid=94d00723-79f7-443c-bc62-0c89ddbb1d1c"},"vehicle_type_id":"4","last_reported":1736824180,"current_range_meters":17600,"station_id":"ce4bhnh2rcd13ifvqgug","pricing_plan_id":"cebpf4jnsgd1na2vs0mg"},{"bike_id":"7717b9e7-1bce-41f0-ad71-a5ec933f6467","system_id":"levelo_inurba_marseille","lat":43.28754,"lon":5.36071,"is_reserved":false,"is_disabled":false,"rental_uris":{"android":"levelo://app?vid=7717b9e7-1bce-41f0-ad71-a5ec933f6467","ios":"levelo://app?vid=7717b9e7-1bce-41f0-ad71-a5ec933f6467"},"vehicle_type_id":"4","last_reported":1736824180,"current_range_meters":39200,"station_id":"cki0cbj6b192h4jlfktg","pricing_plan_id":"cebpf4jnsgd1na2vs0mg"},{"bike_id":"c0e03a6d-7718-4e89-a31d-4257cb0ed095","system_id":"levelo_inurba_marseille","lat":43.29016,"lon":5.35931,"is_reserved":false,"is_disabled":false,"rental_uris":{"android":"levelo://app?vid=c0e03a6d-7718-4e89-a31d-4257cb0ed095","ios":"levelo://app?vid=c0e03a6d-7718-4e89-a31d-4257cb0ed095"},"vehicle_type_id":"4","last_reported":1736824180,"current_range_meters":31200,"station_id":"ce4bha92rcd13ifvqeg0","pricing_plan_id":"cebpf4jnsgd1na2vs0mg"},{"bike_id":"3374baad-5ee7-4678-94b6-62846926e29c","system_id":"levelo_inurba_marseille","lat":43.28088,"lon":5.37862,"is_reserved":false,"is_disabled":false,"rental_uris":{"android":"levelo://app?vid=3374baad-5ee7-4678-94b6-62846926e29c","ios":"levelo://app?vid=3374baad-5ee7-4678-94b6-62846926e29c"},"vehicle_type_id":"4","last_reported":1736824180,"current_range_meters":30000,"station_id":"ce4bha12rcd13ifvqee0","pricing_plan_id":"cebpf4jnsgd1na2vs0mg"},{"bike_id":"e35d110b-0ca6-4c99-b711-04ba364d3860","system_id":"levelo_inurba_marseille","lat":43.23208,"lon":5.35547,"is_reserved":false,"is_disabled":false,"rental_uris":{"android":"levelo://app?vid=e35d110b-0ca6-4c99-b711-04ba364d3860","ios":"levelo://app?vid=e35d110b-0ca6-4c99-b711-04ba364d3860"},"vehicle_type_id":"4","last_reported":1736824180,"current_range_meters":36400,"station_id":"ce4bhu92rcd13ifvqi70","pricing_plan_id":"cebpf4jnsgd1na2vs0mg"},{"bike_id":"198809db-87ad-4a08-9023-b04325efc6d5","system_id":"levelo_inurba_marseille","lat":43.2837,"lon":5.38639,"is_reserved":false,"is_disabled":false,"rental_uris":{"android":"levelo://app?vid=198809db-87ad-4a08-9023-b04325efc6d5","ios":"levelo://app?vid=198809db-87ad-4a08-9023-b04325efc6d5"},"vehicle_type_id":"4","last_reported":1736824180,"current_range_meters":38000,"station_id":"ce4bh492rcd13ifvqdvg","pricing_plan_id":"cebpf4jnsgd1na2vs0mg"},{"bike_id":"73af179d-99fe-4317-b395-0826bb58db33","system_id":"levelo_inurba_marseille","lat":43.30119,"lon":5.39874,"is_reserved":false,"is_disabled":false,"rental_uris":{"android":"levelo://app?vid=73af179d-99fe-4317-b395-0826bb58db33","ios":"levelo://app?vid=73af179d-99fe-4317-b395-0826bb58db33"},"vehicle_type_id":"4","last_reported":1736824180,"current_range_meters":38800,"station_id":"ce4bh0h2rcd13ifvqd40","pricing_plan_id":"cebpf4jnsgd1na2vs0mg"},{"bike_id":"b4879bff-ffcc-4782-a97c-2d680ee280a9","system_id":"levelo_inurba_marseille","lat":43.30871,"lon":5.39671,"is_reserved":false,"is_disabled":false,"rental_uris":{"android":"levelo://app?vid=b4879bff-ffcc-4782-a97c-2d680ee280a9","ios":"levelo://app?vid=b4879bff-ffcc-4782-a97c-2d680ee280a9"},"vehicle_type_id":"4","last_reported":1736824180,"current_range_meters":6000,"station_id":"ce4bh012rcd13ifvqcv0","pricing_plan_id":"cebpf4jnsgd1na2vs0mg"},{"bike_id":"232f1013-ba46-436a-a6bb-20f0d99a0328","system_id":"levelo_inurba_marseille","lat":43.28666,"lon":5.36366,"is_reserved":false,"is_disabled":false,"rental_uris":{"android":"levelo://app?vid=232f1013-ba46-436a-a6bb-20f0d99a0328","ios":"levelo://app?vid=232f1013-ba46-436a-a6bb-20f0d99a0328"},"vehicle_type_id":"4","last_reported":1736824180,"current_range_meters":20400,"station_id":"ce4bhah2rcd13ifvqej0","pricing_plan_id":"cebpf4jnsgd1na2vs0mg"},{"bike_id":"04242d7d-6524-4840-9376-c0bce1fa64bb","system_id":"levelo_inurba_marseille","lat":43.25503,"lon":5.37654,"is_reserved":false,"is_disabled":false,"rental_uris":{"android":"levelo://app?vid=04242d7d-6524-4840-9376-c0bce1fa64bb","ios":"levelo://app?vid=04242d7d-6524-4840-9376-c0bce1fa64bb"},"vehicle_type_id":"4","last_reported":1736824180,"current_range_meters":14000,"station_id":"ce4bhh12rcd13ifvqff0","pricing_plan_id":"cebpf4jnsgd1na2vs0mg"},{"bike_id":"f628351a-247d-43b0-a86e-03619e157778","system_id":"levelo_inurba_marseille","lat":43.28263,"lon":5.35078,"is_reserved":false,"is_disabled":false,"rental_uris":{"android":"levelo://app?vid=f628351a-247d-43b0-a86e-03619e157778","ios":"levelo://app?vid=f628351a-247d-43b0-a86e-03619e157778"},"vehicle_type_id":"4","last_reported":1736824180,"current_range_meters":27200,"station_id":"ce4bhbp2rcd13ifvqerg","pricing_plan_id":"cebpf4jnsgd1na2vs0mg"},{"bike_id":"4ff57719-03f4-47bd-8538-0e0467c2c848","system_id":"levelo_inurba_marseille","lat":43.25888,"lon":5.3992,"is_reserved":false,"is_disabled":false,"rental_uris":{"android":"levelo://app?vid=4ff57719-03f4-47bd-8538-0e0467c2c848","ios":"levelo://app?vid=4ff57719-03f4-47bd-8538-0e0467c2c848"},"vehicle_type_id":"4","last_reported":1736824180,"current_range_meters":22400,"station_id":"ce4bhl92rcd13ifvqghg","pricing_plan_id":"cebpf4jnsgd1na2vs0mg"},{"bike_id":"7855b5cd-fbd6-4d6d-8731-19c257408fa0","system_id":"levelo_inurba_marseille","lat":43.24178,"lon":5.39719,"is_reserved":false,"is_disabled":false,"rental_uris":{"android":"levelo://app?vid=7855b5cd-fbd6-4d6d-8731-19c257408fa0","ios":"levelo://app?vid=7855b5cd-fbd6-4d6d-8731-19c257408fa0"},"vehicle_type_id":"4","last_reported":1736824180,"current_range_meters":28000,"station_id":"ce4bhn12rcd13ifvqgpg","pricing_plan_id":"cebpf4jnsgd1na2vs0mg"},{"bike_id":"b6bffee2-c6ed-4aa9-9fd9-c15567787e8b","system_id":"levelo_inurba_marseille","lat":43.30416,"lon":5.41282,"is_reserved":false,"is_disabled":false,"rental_uris":{"android":"levelo://app?vid=b6bffee2-c6ed-4aa9-9fd9-c15567787e8b","ios":"levelo://app?vid=b6bffee2-c6ed-4aa9-9fd9-c15567787e8b"},"vehicle_type_id":"4","last_reported":1736824180,"current_range_meters":38800,"station_id":"ce4bhop2rcd13ifvqh8g","pricing_plan_id":"cebpf4jnsgd1na2vs0mg"},{"bike_id":"c8e997c0-8580-4d0f-8d9f-0766596381e1","system_id":"levelo_inurba_marseille","lat":43.33988,"lon":5.3755,"is_reserved":false,"is_disabled":true,"rental_uris":{"android":"levelo://app?vid=c8e997c0-8580-4d0f-8d9f-0766596381e1","ios":"levelo://app?vid=c8e997c0-8580-4d0f-8d9f-0766596381e1"},"vehicle_type_id":"4","last_reported":1736824180,"current_range_meters":0,"station_id":"","pricing_plan_id":"cebpf4jnsgd1na2vs0mg"},{"bike_id":"c60791e5-c5b6-4b5f-a2b3-68e6dd491ea9","system_id":"levelo_inurba_marseille","lat":43.30455,"lon":5.37278,"is_reserved":false,"is_disabled":false,"rental_uris":{"android":"levelo://app?vid=c60791e5-c5b6-4b5f-a2b3-68e6dd491ea9","ios":"levelo://app?vid=c60791e5-c5b6-4b5f-a2b3-68e6dd491ea9"},"vehicle_type_id":"4","last_reported":1736824180,"current_range_meters":19600,"station_id":"","pricing_plan_id":"cebpf4jnsgd1na2vs0mg"},{"bike_id":"50ab075f-1d4d-4f4b-8c1d-f1c50b1ad071","system_id":"levelo_inurba_marseille","lat":43.27912,"lon":5.3958,"is_reserved":false,"is_disabled":false,"rental_uris":{"android":"levelo://app?vid=50ab075f-1d4d-4f4b-8c1d-f1c50b1ad071","ios":"levelo://app?vid=50ab075f-1d4d-4f4b-8c1d-f1c50b1ad071"},"vehicle_type_id":"4","last_reported":1736824180,"current_range_meters":28000,"station_id":"ce4bhf92rcd13ifvqf40","pricing_plan_id":"cebpf4jnsgd1na2vs0mg"},{"bike_id":"ba5df164-d25c-4a1c-8679-1bd1a1db0642","system_id":"levelo_inurba_marseille","lat":43.33716,"lon":5.39194,"is_reserved":false,"is_disabled":false,"rental_uris":{"android":"levelo://app?vid=ba5df164-d25c-4a1c-8679-1bd1a1db0642","ios":"levelo://app?vid=ba5df164-d25c-4a1c-8679-1bd1a1db0642"},"vehicle_type_id":"4","last_reported":1736824180,"current_range_meters":37600,"station_id":"ce4bhr92rcd13ifvqhsg","pricing_plan_id":"cebpf4jnsgd1na2vs0mg"},{"bike_id":"5d5bff6b-11b5-4077-b881-00d82a0c2472","system_id":"levelo_inurba_marseille","lat":43.31267,"lon":5.40172,"is_reserved":false,"is_disabled":false,"rental_uris":{"android":"levelo://app?vid=5d5bff6b-11b5-4077-b881-00d82a0c2472","ios":"levelo://app?vid=5d5bff6b-11b5-4077-b881-00d82a0c2472"},"vehicle_type_id":"4","last_reported":1736824180,"current_range_meters":29600,"station_id":"ce4bh092rcd13ifvqd30","pricing_plan_id":"cebpf4jnsgd1na2vs0mg"},{"bike_id":"f2d10143-3d8a-44b4-986d-b5c5dab280b3","system_id":"levelo_inurba_marseille","lat":43.2869,"lon":5.37378,"is_reserved":false,"is_disabled":false,"rental_uris":{"android":"levelo://app?vid=f2d10143-3d8a-44b4-986d-b5c5dab280b3","ios":"levelo://app?vid=f2d10143-3d8a-44b4-986d-b5c5dab280b3"},"vehicle_type_id":"4","last_reported":1736824180,"current_range_meters":17200,"station_id":"ce4bh3p2rcd13ifvqdq0","pricing_plan_id":"cebpf4jnsgd1na2vs0mg"},{"bike_id":"c26d777e-e7eb-40b9-be17-44a11a02d9db","system_id":"levelo_inurba_marseille","lat":43.28069,"lon":5.3965,"is_reserved":false,"is_disabled":false,"rental_uris":{"android":"levelo://app?vid=c26d777e-e7eb-40b9-be17-44a11a02d9db","ios":"levelo://app?vid=c26d777e-e7eb-40b9-be17-44a11a02d9db"},"vehicle_type_id":"4","last_reported":1736824180,"current_range_meters":22000,"station_id":"ce4bho12rcd13ifvqh2g","pricing_plan_id":"cebpf4jnsgd1na2vs0mg"},{"bike_id":"a3162289-c869-4e8a-944d-f0baa128cc74","system_id":"levelo_inurba_marseille","lat":43.23961,"lon":5.36636,"is_reserved":false,"is_disabled":false,"rental_uris":{"android":"levelo://app?vid=a3162289-c869-4e8a-944d-f0baa128cc74","ios":"levelo://app?vid=a3162289-c869-4e8a-944d-f0baa128cc74"},"vehicle_type_id":"4","last_reported":1736824180,"current_range_meters":36800,"station_id":"ce4bhi12rcd13ifvqfp0","pricing_plan_id":"cebpf4jnsgd1na2vs0mg"},{"bike_id":"7dd5dd5e-1d75-4c5b-b5b8-248a34302cca","system_id":"levelo_inurba_marseille","lat":43.304709,"lon":5.378919,"is_reserved":false,"is_disabled":true,"rental_uris":{"android":"levelo://app?vid=7dd5dd5e-1d75-4c5b-b5b8-248a34302cca","ios":"levelo://app?vid=7dd5dd5e-1d75-4c5b-b5b8-248a34302cca"},"vehicle_type_id":"4","last_reported":1736824180,"current_range_meters":24400,"station_id":"ce4bgup2rcd13ifvqcn0","pricing_plan_id":"cebpf4jnsgd1na2vs0mg"},{"bike_id":"9ff45d91-29d6-4e2b-a952-c5923c490e28","system_id":"levelo_inurba_marseille","lat":43.26034,"lon":5.37572,"is_reserved":false,"is_disabled":false,"rental_uris":{"android":"levelo://app?vid=9ff45d91-29d6-4e2b-a952-c5923c490e28","ios":"levelo://app?vid=9ff45d91-29d6-4e2b-a952-c5923c490e28"},"vehicle_type_id":"4","last_reported":1736824180,"current_range_meters":38400,"station_id":"ce4bhgh2rcd13ifvqfa0","pricing_plan_id":"cebpf4jnsgd1na2vs0mg"},{"bike_id":"d85a1d9b-f035-4b2a-858c-2526acab5ed6","system_id":"levelo_inurba_marseille","lat":43.30142,"lon":5.37393,"is_reserved":false,"is_disabled":true,"rental_uris":{"android":"levelo://app?vid=d85a1d9b-f035-4b2a-858c-2526acab5ed6","ios":"levelo://app?vid=d85a1d9b-f035-4b2a-858c-2526acab5ed6"},"vehicle_type_id":"4","last_reported":1736824180,"current_range_meters":36400,"station_id":"ce4bgs92rcd13ifvqcc0","pricing_plan_id":"cebpf4jnsgd1na2vs0mg"},{"bike_id":"66498db2-3621-434a-a3f0-595aef50f01c","system_id":"levelo_inurba_marseille","lat":43.25737,"lon":5.41117,"is_reserved":false,"is_disabled":false,"rental_uris":{"android":"levelo://app?vid=66498db2-3621-434a-a3f0-595aef50f01c","ios":"levelo://app?vid=66498db2-3621-434a-a3f0-595aef50f01c"},"vehicle_type_id":"4","last_reported":1736824180,"current_range_meters":36400,"station_id":"ce4bhkp2rcd13ifvqgd0","pricing_plan_id":"cebpf4jnsgd1na2vs0mg"},{"bike_id":"5901f4de-f320-42a7-a3ee-cdd54016ad77","system_id":"levelo_inurba_marseille","lat":43.27967,"lon":5.38719,"is_reserved":false,"is_disabled":false,"rental_uris":{"android":"levelo://app?vid=5901f4de-f320-42a7-a3ee-cdd54016ad77","ios":"levelo://app?vid=5901f4de-f320-42a7-a3ee-cdd54016ad77"},"vehicle_type_id":"4","last_reported":1736824180,"current_range_meters":37600,"station_id":"ce4bhg12rcd13ifvqf80","pricing_plan_id":"cebpf4jnsgd1na2vs0mg"},{"bike_id":"d68daa05-36ab-42c0-826d-99eeffb6e627","system_id":"levelo_inurba_marseille","lat":43.2904,"lon":5.35915,"is_reserved":false,"is_disabled":false,"rental_uris":{"android":"levelo://app?vid=d68daa05-36ab-42c0-826d-99eeffb6e627","ios":"levelo://app?vid=d68daa05-36ab-42c0-826d-99eeffb6e627"},"vehicle_type_id":"4","last_reported":1736824180,"current_range_meters":39200,"station_id":"ce4bha92rcd13ifvqeg0","pricing_plan_id":"cebpf4jnsgd1na2vs0mg"},{"bike_id":"42cfeef1-ded8-43ac-8888-284da4376b57","system_id":"levelo_inurba_marseille","lat":43.3246,"lon":5.36526,"is_reserved":false,"is_disabled":false,"rental_uris":{"android":"levelo://app?vid=42cfeef1-ded8-43ac-8888-284da4376b57","ios":"levelo://app?vid=42cfeef1-ded8-43ac-8888-284da4376b57"},"vehicle_type_id":"4","last_reported":1736824180,"current_range_meters":29600,"station_id":"ce4bhs12rcd13ifvqhvg","pricing_plan_id":"cebpf4jnsgd1na2vs0mg"},{"bike_id":"7cbb0683-5d35-461b-95a9-d0cf39d33c79","system_id":"levelo_inurba_marseille","lat":43.30635,"lon":5.40088,"is_reserved":false,"is_disabled":false,"rental_uris":{"android":"levelo://app?vid=7cbb0683-5d35-461b-95a9-d0cf39d33c79","ios":"levelo://app?vid=7cbb0683-5d35-461b-95a9-d0cf39d33c79"},"vehicle_type_id":"4","last_reported":1736824180,"current_range_meters":11600,"station_id":"ce4bh112rcd13ifvqda0","pricing_plan_id":"cebpf4jnsgd1na2vs0mg"},{"bike_id":"6ba8d844-4be9-4966-b91c-0b5bcfe6a94b","system_id":"levelo_inurba_marseille","lat":43.29176,"lon":5.37138,"is_reserved":false,"is_disabled":true,"rental_uris":{"android":"levelo://app?vid=6ba8d844-4be9-4966-b91c-0b5bcfe6a94b","ios":"levelo://app?vid=6ba8d844-4be9-4966-b91c-0b5bcfe6a94b"},"vehicle_type_id":"4","last_reported":1736824180,"current_range_meters":38400,"station_id":"ce4bha92rcd13ifvqeh0","pricing_plan_id":"cebpf4jnsgd1na2vs0mg"},{"bike_id":"98b75812-f086-4c7a-a049-6bb73ad3133f","system_id":"levelo_inurba_marseille","lat":43.28087,"lon":5.37875,"is_reserved":false,"is_disabled":false,"rental_uris":{"android":"levelo://app?vid=98b75812-f086-4c7a-a049-6bb73ad3133f","ios":"levelo://app?vid=98b75812-f086-4c7a-a049-6bb73ad3133f"},"vehicle_type_id":"4","last_reported":1736824180,"current_range_meters":38800,"station_id":"ce4bha12rcd13ifvqee0","pricing_plan_id":"cebpf4jnsgd1na2vs0mg"},{"bike_id":"59d914a9-7941-4d0c-ad3f-66ae0befc663","system_id":"levelo_inurba_marseille","lat":43.28041,"lon":5.36955,"is_reserved":false,"is_disabled":false,"rental_uris":{"android":"levelo://app?vid=59d914a9-7941-4d0c-ad3f-66ae0befc663","ios":"levelo://app?vid=59d914a9-7941-4d0c-ad3f-66ae0befc663"},"vehicle_type_id":"4","last_reported":1736824180,"current_range_meters":8800,"station_id":"ce4bha12rcd13ifvqef0","pricing_plan_id":"cebpf4jnsgd1na2vs0mg"},{"bike_id":"19206ddd-e8ec-4e4d-9d14-47c31db3a13b","system_id":"levelo_inurba_marseille","lat":43.2793,"lon":5.41044,"is_reserved":false,"is_disabled":false,"rental_uris":{"android":"levelo://app?vid=19206ddd-e8ec-4e4d-9d14-47c31db3a13b","ios":"levelo://app?vid=19206ddd-e8ec-4e4d-9d14-47c31db3a13b"},"vehicle_type_id":"4","last_reported":1736824180,"current_range_meters":7200,"station_id":"ce4bhnp2rcd13ifvqh0g","pricing_plan_id":"cebpf4jnsgd1na2vs0mg"},{"bike_id":"426ee80e-06b0-4d0f-86a5-ea8ad64aaa11","system_id":"levelo_inurba_marseille","lat":43.289115,"lon":5.43765,"is_reserved":false,"is_disabled":false,"rental_uris":{"android":"levelo://app?vid=426ee80e-06b0-4d0f-86a5-ea8ad64aaa11","ios":"levelo://app?vid=426ee80e-06b0-4d0f-86a5-ea8ad64aaa11"},"vehicle_type_id":"4","last_reported":1736824180,"current_range_meters":7200,"station_id":"","pricing_plan_id":"cebpf4jnsgd1na2vs0mg"},{"bike_id":"66ff2e3c-731b-4061-ad9b-60c35dd655cc","system_id":"levelo_inurba_marseille","lat":43.30539,"lon":5.38429,"is_reserved":false,"is_disabled":false,"rental_uris":{"android":"levelo://app?vid=66ff2e3c-731b-4061-ad9b-60c35dd655cc","ios":"levelo://app?vid=66ff2e3c-731b-4061-ad9b-60c35dd655cc"},"vehicle_type_id":"4","last_reported":1736824180,"current_range_meters":37600,"station_id":"ce4bgg92rcd13ifvqb30","pricing_plan_id":"cebpf4jnsgd1na2vs0mg"},{"bike_id":"02179588-d84e-46f2-95a6-fe0eee6fff76","system_id":"levelo_inurba_marseille","lat":43.32362,"lon":5.389,"is_reserved":false,"is_disabled":false,"rental_uris":{"android":"levelo://app?vid=02179588-d84e-46f2-95a6-fe0eee6fff76","ios":"levelo://app?vid=02179588-d84e-46f2-95a6-fe0eee6fff76"},"vehicle_type_id":"4","last_reported":1736824180,"current_range_meters":14400,"station_id":"ce4bhqp2rcd13ifvqhog","pricing_plan_id":"cebpf4jnsgd1na2vs0mg"},{"bike_id":"264d1e22-4c63-472a-86e2-dff10b73ffa3","system_id":"levelo_inurba_marseille","lat":43.28462,"lon":5.35881,"is_reserved":false,"is_disabled":false,"rental_uris":{"android":"levelo://app?vid=264d1e22-4c63-472a-86e2-dff10b73ffa3","ios":"levelo://app?vid=264d1e22-4c63-472a-86e2-dff10b73ffa3"},"vehicle_type_id":"4","last_reported":1736824180,"current_range_meters":36800,"station_id":"ce4bhah2rcd13ifvqei0","pricing_plan_id":"cebpf4jnsgd1na2vs0mg"},{"bike_id":"969e27ab-5a9e-459e-9526-3b57e6f57682","system_id":"levelo_inurba_marseille","lat":43.2292,"lon":5.35387,"is_reserved":false,"is_disabled":false,"rental_uris":{"android":"levelo://app?vid=969e27ab-5a9e-459e-9526-3b57e6f57682","ios":"levelo://app?vid=969e27ab-5a9e-459e-9526-3b57e6f57682"},"vehicle_type_id":"4","last_reported":1736824180,"current_range_meters":38800,"station_id":"cpo3532slgdg3j2ikp40","pricing_plan_id":"cebpf4jnsgd1na2vs0mg"},{"bike_id":"f9cc6bec-0d06-4562-945f-4da705a96d45","system_id":"levelo_inurba_marseille","lat":43.308045,"lon":5.381553,"is_reserved":false,"is_disabled":false,"rental_uris":{"android":"levelo://app?vid=f9cc6bec-0d06-4562-945f-4da705a96d45","ios":"levelo://app?vid=f9cc6bec-0d06-4562-945f-4da705a96d45"},"vehicle_type_id":"4","last_reported":1736824180,"current_range_meters":38800,"station_id":"ce4bgt12rcd13ifvqce0","pricing_plan_id":"cebpf4jnsgd1na2vs0mg"},{"bike_id":"83a8916a-26bc-4cfa-87bf-d5536a083f7e","system_id":"levelo_inurba_marseille","lat":43.30822,"lon":5.38168,"is_reserved":false,"is_disabled":false,"rental_uris":{"android":"levelo://app?vid=83a8916a-26bc-4cfa-87bf-d5536a083f7e","ios":"levelo://app?vid=83a8916a-26bc-4cfa-87bf-d5536a083f7e"},"vehicle_type_id":"4","last_reported":1736824180,"current_range_meters":35600,"station_id":"ce4bgt12rcd13ifvqce0","pricing_plan_id":"cebpf4jnsgd1na2vs0mg"},{"bike_id":"6232efdf-fe3b-44c0-831e-fcf2e6ef3405","system_id":"levelo_inurba_marseille","lat":43.31371,"lon":5.38501,"is_reserved":false,"is_disabled":false,"rental_uris":{"android":"levelo://app?vid=6232efdf-fe3b-44c0-831e-fcf2e6ef3405","ios":"levelo://app?vid=6232efdf-fe3b-44c0-831e-fcf2e6ef3405"},"vehicle_type_id":"4","last_reported":1736824180,"current_range_meters":38400,"station_id":"ce4bgt92rcd13ifvqcf0","pricing_plan_id":"cebpf4jnsgd1na2vs0mg"},{"bike_id":"cfcde360-1747-4611-b1bf-f98ab837f08a","system_id":"levelo_inurba_marseille","lat":43.3041,"lon":5.41286,"is_reserved":false,"is_disabled":false,"rental_uris":{"android":"levelo://app?vid=cfcde360-1747-4611-b1bf-f98ab837f08a","ios":"levelo://app?vid=cfcde360-1747-4611-b1bf-f98ab837f08a"},"vehicle_type_id":"4","last_reported":1736824180,"current_range_meters":12400,"station_id":"ce4bhop2rcd13ifvqh8g","pricing_plan_id":"cebpf4jnsgd1na2vs0mg"},{"bike_id":"ab10846d-13f2-4f21-8075-25b6583e29b0","system_id":"levelo_inurba_marseille","lat":43.259393,"lon":5.408999,"is_reserved":false,"is_disabled":false,"rental_uris":{"android":"levelo://app?vid=ab10846d-13f2-4f21-8075-25b6583e29b0","ios":"levelo://app?vid=ab10846d-13f2-4f21-8075-25b6583e29b0"},"vehicle_type_id":"4","last_reported":1736824180,"current_range_meters":20400,"station_id":"ce4bhm92rcd13ifvqglg","pricing_plan_id":"cebpf4jnsgd1na2vs0mg"},{"bike_id":"d31ee1ee-c230-4e1e-91e4-50de4be7609e","system_id":"levelo_inurba_marseille","lat":43.323575,"lon":5.388765,"is_reserved":false,"is_disabled":true,"rental_uris":{"android":"levelo://app?vid=d31ee1ee-c230-4e1e-91e4-50de4be7609e","ios":"levelo://app?vid=d31ee1ee-c230-4e1e-91e4-50de4be7609e"},"vehicle_type_id":"4","last_reported":1736824180,"current_range_meters":9200,"station_id":"ce4bhqp2rcd13ifvqhog","pricing_plan_id":"cebpf4jnsgd1na2vs0mg"},{"bike_id":"f4dbc556-58b0-4dfd-be99-18a51c032520","system_id":"levelo_inurba_marseille","lat":43.24175,"lon":5.3971,"is_reserved":false,"is_disabled":false,"rental_uris":{"android":"levelo://app?vid=f4dbc556-58b0-4dfd-be99-18a51c032520","ios":"levelo://app?vid=f4dbc556-58b0-4dfd-be99-18a51c032520"},"vehicle_type_id":"4","last_reported":1736824180,"current_range_meters":28400,"station_id":"ce4bhn12rcd13ifvqgpg","pricing_plan_id":"cebpf4jnsgd1na2vs0mg"},{"bike_id":"380d646b-61fc-4e1c-afce-e8fdac1ac7b4","system_id":"levelo_inurba_marseille","lat":43.30946,"lon":5.39033,"is_reserved":false,"is_disabled":false,"rental_uris":{"android":"levelo://app?vid=380d646b-61fc-4e1c-afce-e8fdac1ac7b4","ios":"levelo://app?vid=380d646b-61fc-4e1c-afce-e8fdac1ac7b4"},"vehicle_type_id":"4","last_reported":1736824180,"current_range_meters":38800,"station_id":"ce4bgup2rcd13ifvqco0","pricing_plan_id":"cebpf4jnsgd1na2vs0mg"},{"bike_id":"ca9de711-b18e-4674-b96c-8c43d272c4d1","system_id":"levelo_inurba_marseille","lat":43.28449,"lon":5.35886,"is_reserved":false,"is_disabled":false,"rental_uris":{"android":"levelo://app?vid=ca9de711-b18e-4674-b96c-8c43d272c4d1","ios":"levelo://app?vid=ca9de711-b18e-4674-b96c-8c43d272c4d1"},"vehicle_type_id":"4","last_reported":1736824180,"current_range_meters":26000,"station_id":"ce4bhah2rcd13ifvqei0","pricing_plan_id":"cebpf4jnsgd1na2vs0mg"},{"bike_id":"226b2d12-1a3f-4031-a0bf-aaf312b0cf20","system_id":"levelo_inurba_marseille","lat":43.28704,"lon":5.3739,"is_reserved":false,"is_disabled":false,"rental_uris":{"android":"levelo://app?vid=226b2d12-1a3f-4031-a0bf-aaf312b0cf20","ios":"levelo://app?vid=226b2d12-1a3f-4031-a0bf-aaf312b0cf20"},"vehicle_type_id":"4","last_reported":1736824180,"current_range_meters":30800,"station_id":"ce4bh3p2rcd13ifvqdq0","pricing_plan_id":"cebpf4jnsgd1na2vs0mg"},{"bike_id":"2c74bf95-1e8d-4c79-8e82-be6944e2e47a","system_id":"levelo_inurba_marseille","lat":43.27942,"lon":5.41046,"is_reserved":false,"is_disabled":false,"rental_uris":{"android":"levelo://app?vid=2c74bf95-1e8d-4c79-8e82-be6944e2e47a","ios":"levelo://app?vid=2c74bf95-1e8d-4c79-8e82-be6944e2e47a"},"vehicle_type_id":"4","last_reported":1736824180,"current_range_meters":32000,"station_id":"ce4bhnp2rcd13ifvqh0g","pricing_plan_id":"cebpf4jnsgd1na2vs0mg"},{"bike_id":"d51cc1ef-912e-4b91-b68a-8ef4a90a7b13","system_id":"levelo_inurba_marseille","lat":43.29187,"lon":5.39332,"is_reserved":false,"is_disabled":false,"rental_uris":{"android":"levelo://app?vid=d51cc1ef-912e-4b91-b68a-8ef4a90a7b13","ios":"levelo://app?vid=d51cc1ef-912e-4b91-b68a-8ef4a90a7b13"},"vehicle_type_id":"4","last_reported":1736824180,"current_range_meters":38800,"station_id":"ce4bh192rcd13ifvqdd0","pricing_plan_id":"cebpf4jnsgd1na2vs0mg"},{"bike_id":"3ab3bbf7-8c70-4649-ad84-8954557a86b5","system_id":"levelo_inurba_marseille","lat":43.2798,"lon":5.40015,"is_reserved":false,"is_disabled":false,"rental_uris":{"android":"levelo://app?vid=3ab3bbf7-8c70-4649-ad84-8954557a86b5","ios":"levelo://app?vid=3ab3bbf7-8c70-4649-ad84-8954557a86b5"},"vehicle_type_id":"4","last_reported":1736824180,"current_range_meters":30000,"station_id":"ce4bho92rcd13ifvqh4g","pricing_plan_id":"cebpf4jnsgd1na2vs0mg"},{"bike_id":"f51f3616-6c33-4a5f-8b28-980818697bb0","system_id":"levelo_inurba_marseille","lat":43.23188,"lon":5.3999,"is_reserved":false,"is_disabled":false,"rental_uris":{"android":"levelo://app?vid=f51f3616-6c33-4a5f-8b28-980818697bb0","ios":"levelo://app?vid=f51f3616-6c33-4a5f-8b28-980818697bb0"},"vehicle_type_id":"4","last_reported":1736824180,"current_range_meters":36000,"station_id":"ce4bhn12rcd13ifvqgqg","pricing_plan_id":"cebpf4jnsgd1na2vs0mg"},{"bike_id":"fc7b8363-82bb-4f33-830d-6f9c003541ea","system_id":"levelo_inurba_marseille","lat":43.31173,"lon":5.38705,"is_reserved":false,"is_disabled":false,"rental_uris":{"android":"levelo://app?vid=fc7b8363-82bb-4f33-830d-6f9c003541ea","ios":"levelo://app?vid=fc7b8363-82bb-4f33-830d-6f9c003541ea"},"vehicle_type_id":"4","last_reported":1736824180,"current_range_meters":38800,"station_id":"ce4bgv12rcd13ifvqcp0","pricing_plan_id":"cebpf4jnsgd1na2vs0mg"},{"bike_id":"71a1e379-e406-4378-96b4-5b6d7f506848","system_id":"levelo_inurba_marseille","lat":43.30546,"lon":5.38454,"is_reserved":false,"is_disabled":false,"rental_uris":{"android":"levelo://app?vid=71a1e379-e406-4378-96b4-5b6d7f506848","ios":"levelo://app?vid=71a1e379-e406-4378-96b4-5b6d7f506848"},"vehicle_type_id":"4","last_reported":1736824180,"current_range_meters":38800,"station_id":"ce4bgg92rcd13ifvqb30","pricing_plan_id":"cebpf4jnsgd1na2vs0mg"},{"bike_id":"ade1ffd7-379f-44ee-93e1-8c261178e187","system_id":"levelo_inurba_marseille","lat":43.2481,"lon":5.37451,"is_reserved":false,"is_disabled":false,"rental_uris":{"android":"levelo://app?vid=ade1ffd7-379f-44ee-93e1-8c261178e187","ios":"levelo://app?vid=ade1ffd7-379f-44ee-93e1-8c261178e187"},"vehicle_type_id":"4","last_reported":1736824180,"current_range_meters":22400,"station_id":"ce4bhgh2rcd13ifvqfb0","pricing_plan_id":"cebpf4jnsgd1na2vs0mg"},{"bike_id":"b73ceb5c-a971-44bb-8cf9-fefbcf76caac","system_id":"levelo_inurba_marseille","lat":43.28553,"lon":5.39496,"is_reserved":false,"is_disabled":false,"rental_uris":{"android":"levelo://app?vid=b73ceb5c-a971-44bb-8cf9-fefbcf76caac","ios":"levelo://app?vid=b73ceb5c-a971-44bb-8cf9-fefbcf76caac"},"vehicle_type_id":"4","last_reported":1736824180,"current_range_meters":38000,"station_id":"ce4bh292rcd13ifvqdg0","pricing_plan_id":"cebpf4jnsgd1na2vs0mg"},{"bike_id":"9f90ab46-c373-4698-9418-c8ef5e2133b0","system_id":"levelo_inurba_marseille","lat":43.23202,"lon":5.35548,"is_reserved":false,"is_disabled":false,"rental_uris":{"android":"levelo://app?vid=9f90ab46-c373-4698-9418-c8ef5e2133b0","ios":"levelo://app?vid=9f90ab46-c373-4698-9418-c8ef5e2133b0"},"vehicle_type_id":"4","last_reported":1736824180,"current_range_meters":19200,"station_id":"ce4bhu92rcd13ifvqi70","pricing_plan_id":"cebpf4jnsgd1na2vs0mg"},{"bike_id":"7a869afa-fc4c-4b30-aea6-e0d8b156eb83","system_id":"levelo_inurba_marseille","lat":43.2467,"lon":5.38162,"is_reserved":false,"is_disabled":true,"rental_uris":{"android":"levelo://app?vid=7a869afa-fc4c-4b30-aea6-e0d8b156eb83","ios":"levelo://app?vid=7a869afa-fc4c-4b30-aea6-e0d8b156eb83"},"vehicle_type_id":"4","last_reported":1736824180,"current_range_meters":28800,"station_id":"ce4bhih2rcd13ifvqfr0","pricing_plan_id":"cebpf4jnsgd1na2vs0mg"},{"bike_id":"755e5c0a-8de7-4ee5-9d4e-5ec609711170","system_id":"levelo_inurba_marseille","lat":43.29606,"lon":5.38095,"is_reserved":false,"is_disabled":true,"rental_uris":{"android":"levelo://app?vid=755e5c0a-8de7-4ee5-9d4e-5ec609711170","ios":"levelo://app?vid=755e5c0a-8de7-4ee5-9d4e-5ec609711170"},"vehicle_type_id":"4","last_reported":1736824180,"current_range_meters":32400,"station_id":"ce4bgl12rcd13ifvqbo0","pricing_plan_id":"cebpf4jnsgd1na2vs0mg"},{"bike_id":"88a38876-6e4c-460b-8e1d-ad00991b7093","system_id":"levelo_inurba_marseille","lat":43.28692,"lon":5.3739,"is_reserved":false,"is_disabled":false,"rental_uris":{"android":"levelo://app?vid=88a38876-6e4c-460b-8e1d-ad00991b7093","ios":"levelo://app?vid=88a38876-6e4c-460b-8e1d-ad00991b7093"},"vehicle_type_id":"4","last_reported":1736824180,"current_range_meters":28000,"station_id":"ce4bh3p2rcd13ifvqdq0","pricing_plan_id":"cebpf4jnsgd1na2vs0mg"},{"bike_id":"11ba34ad-8618-419b-b510-3c527e1cf8c3","system_id":"levelo_inurba_marseille","lat":43.284152,"lon":5.375238,"is_reserved":false,"is_disabled":true,"rental_uris":{"android":"levelo://app?vid=11ba34ad-8618-419b-b510-3c527e1cf8c3","ios":"levelo://app?vid=11ba34ad-8618-419b-b510-3c527e1cf8c3"},"vehicle_type_id":"4","last_reported":1736824180,"current_range_meters":4000,"station_id":"ce4bh412rcd13ifvqds0","pricing_plan_id":"cebpf4jnsgd1na2vs0mg"},{"bike_id":"941fe04b-1a6d-4c0e-ae47-f67263c42d46","system_id":"levelo_inurba_marseille","lat":43.25085,"lon":5.39506,"is_reserved":false,"is_disabled":false,"rental_uris":{"android":"levelo://app?vid=941fe04b-1a6d-4c0e-ae47-f67263c42d46","ios":"levelo://app?vid=941fe04b-1a6d-4c0e-ae47-f67263c42d46"},"vehicle_type_id":"4","last_reported":1736824180,"current_range_meters":8400,"station_id":"ce4bhm12rcd13ifvqgkg","pricing_plan_id":"cebpf4jnsgd1na2vs0mg"},{"bike_id":"d7aa8c0b-fcb1-482d-bd11-40a38eb2b0c9","system_id":"levelo_inurba_marseille","lat":43.2868,"lon":5.37378,"is_reserved":false,"is_disabled":false,"rental_uris":{"android":"levelo://app?vid=d7aa8c0b-fcb1-482d-bd11-40a38eb2b0c9","ios":"levelo://app?vid=d7aa8c0b-fcb1-482d-bd11-40a38eb2b0c9"},"vehicle_type_id":"4","last_reported":1736824180,"current_range_meters":26000,"station_id":"ce4bh3p2rcd13ifvqdq0","pricing_plan_id":"cebpf4jnsgd1na2vs0mg"},{"bike_id":"a15980ac-c225-4e68-8982-6cc8c4cbfd79","system_id":"levelo_inurba_marseille","lat":43.23188,"lon":5.35546,"is_reserved":false,"is_disabled":false,"rental_uris":{"android":"levelo://app?vid=a15980ac-c225-4e68-8982-6cc8c4cbfd79","ios":"levelo://app?vid=a15980ac-c225-4e68-8982-6cc8c4cbfd79"},"vehicle_type_id":"4","last_reported":1736824180,"current_range_meters":7200,"station_id":"ce4bhu92rcd13ifvqi70","pricing_plan_id":"cebpf4jnsgd1na2vs0mg"},{"bike_id":"ddb6fc04-2855-4930-8852-76b4803d8a8c","system_id":"levelo_inurba_marseille","lat":43.287271,"lon":5.360833,"is_reserved":false,"is_disabled":false,"rental_uris":{"android":"levelo://app?vid=ddb6fc04-2855-4930-8852-76b4803d8a8c","ios":"levelo://app?vid=ddb6fc04-2855-4930-8852-76b4803d8a8c"},"vehicle_type_id":"4","last_reported":1736824180,"current_range_meters":28000,"station_id":"cki0cbj6b192h4jlfktg","pricing_plan_id":"cebpf4jnsgd1na2vs0mg"},{"bike_id":"45910403-43fe-46b0-8271-3ee82162b96d","system_id":"levelo_inurba_marseille","lat":43.28455,"lon":5.35906,"is_reserved":false,"is_disabled":false,"rental_uris":{"android":"levelo://app?vid=45910403-43fe-46b0-8271-3ee82162b96d","ios":"levelo://app?vid=45910403-43fe-46b0-8271-3ee82162b96d"},"vehicle_type_id":"4","last_reported":1736824180,"current_range_meters":38800,"station_id":"ce4bhah2rcd13ifvqei0","pricing_plan_id":"cebpf4jnsgd1na2vs0mg"},{"bike_id":"da613b24-26d6-4c6d-b896-9737fe7dfa48","system_id":"levelo_inurba_marseille","lat":43.31262,"lon":5.40168,"is_reserved":false,"is_disabled":false,"rental_uris":{"android":"levelo://app?vid=da613b24-26d6-4c6d-b896-9737fe7dfa48","ios":"levelo://app?vid=da613b24-26d6-4c6d-b896-9737fe7dfa48"},"vehicle_type_id":"4","last_reported":1736824180,"current_range_meters":30000,"station_id":"ce4bh092rcd13ifvqd30","pricing_plan_id":"cebpf4jnsgd1na2vs0mg"},{"bike_id":"23ad71b9-eb48-4887-b019-8b6b4835ce0a","system_id":"levelo_inurba_marseille","lat":43.27929,"lon":5.41041,"is_reserved":false,"is_disabled":false,"rental_uris":{"android":"levelo://app?vid=23ad71b9-eb48-4887-b019-8b6b4835ce0a","ios":"levelo://app?vid=23ad71b9-eb48-4887-b019-8b6b4835ce0a"},"vehicle_type_id":"4","last_reported":1736824180,"current_range_meters":29600,"station_id":"ce4bhnp2rcd13ifvqh0g","pricing_plan_id":"cebpf4jnsgd1na2vs0mg"},{"bike_id":"3b74a056-c0cf-4f44-8772-22ed33115fcd","system_id":"levelo_inurba_marseille","lat":43.23172,"lon":5.39989,"is_reserved":false,"is_disabled":false,"rental_uris":{"android":"levelo://app?vid=3b74a056-c0cf-4f44-8772-22ed33115fcd","ios":"levelo://app?vid=3b74a056-c0cf-4f44-8772-22ed33115fcd"},"vehicle_type_id":"4","last_reported":1736824180,"current_range_meters":9600,"station_id":"ce4bhn12rcd13ifvqgqg","pricing_plan_id":"cebpf4jnsgd1na2vs0mg"},{"bike_id":"9eeade96-03d9-45d1-ac83-d886ce5a3469","system_id":"levelo_inurba_marseille","lat":43.30636,"lon":5.40088,"is_reserved":false,"is_disabled":false,"rental_uris":{"android":"levelo://app?vid=9eeade96-03d9-45d1-ac83-d886ce5a3469","ios":"levelo://app?vid=9eeade96-03d9-45d1-ac83-d886ce5a3469"},"vehicle_type_id":"4","last_reported":1736824180,"current_range_meters":32800,"station_id":"ce4bh112rcd13ifvqda0","pricing_plan_id":"cebpf4jnsgd1na2vs0mg"},{"bike_id":"fafce30c-dd33-4dac-8ce5-bcb60154099f","system_id":"levelo_inurba_marseille","lat":43.28455,"lon":5.35897,"is_reserved":false,"is_disabled":false,"rental_uris":{"android":"levelo://app?vid=fafce30c-dd33-4dac-8ce5-bcb60154099f","ios":"levelo://app?vid=fafce30c-dd33-4dac-8ce5-bcb60154099f"},"vehicle_type_id":"4","last_reported":1736824180,"current_range_meters":28800,"station_id":"ce4bhah2rcd13ifvqei0","pricing_plan_id":"cebpf4jnsgd1na2vs0mg"},{"bike_id":"3d617204-1d4c-440a-9621-81535c3b4d54","system_id":"levelo_inurba_marseille","lat":43.23962,"lon":5.36647,"is_reserved":false,"is_disabled":false,"rental_uris":{"android":"levelo://app?vid=3d617204-1d4c-440a-9621-81535c3b4d54","ios":"levelo://app?vid=3d617204-1d4c-440a-9621-81535c3b4d54"},"vehicle_type_id":"4","last_reported":1736824180,"current_range_meters":15200,"station_id":"ce4bhi12rcd13ifvqfp0","pricing_plan_id":"cebpf4jnsgd1na2vs0mg"},{"bike_id":"5d82b5f7-e9e4-4b0c-9f65-91fa3cf2a2ad","system_id":"levelo_inurba_marseille","lat":43.3025,"lon":5.40071,"is_reserved":false,"is_disabled":false,"rental_uris":{"android":"levelo://app?vid=5d82b5f7-e9e4-4b0c-9f65-91fa3cf2a2ad","ios":"levelo://app?vid=5d82b5f7-e9e4-4b0c-9f65-91fa3cf2a2ad"},"vehicle_type_id":"4","last_reported":1736824180,"current_range_meters":38000,"station_id":"ce4bgvh2rcd13ifvqcs0","pricing_plan_id":"cebpf4jnsgd1na2vs0mg"},{"bike_id":"02445b67-7dac-4f5d-a18f-8e9507d3756a","system_id":"levelo_inurba_marseille","lat":43.3095,"lon":5.39047,"is_reserved":false,"is_disabled":false,"rental_uris":{"android":"levelo://app?vid=02445b67-7dac-4f5d-a18f-8e9507d3756a","ios":"levelo://app?vid=02445b67-7dac-4f5d-a18f-8e9507d3756a"},"vehicle_type_id":"4","last_reported":1736824180,"current_range_meters":38400,"station_id":"ce4bgup2rcd13ifvqco0","pricing_plan_id":"cebpf4jnsgd1na2vs0mg"},{"bike_id":"51bb6953-dea8-4e82-96bf-52696267905f","system_id":"levelo_inurba_marseille","lat":43.23065,"lon":5.35504,"is_reserved":false,"is_disabled":false,"rental_uris":{"android":"levelo://app?vid=51bb6953-dea8-4e82-96bf-52696267905f","ios":"levelo://app?vid=51bb6953-dea8-4e82-96bf-52696267905f"},"vehicle_type_id":"4","last_reported":1736824180,"current_range_meters":9600,"station_id":"cpo3342slgdg3j2ifvpg","pricing_plan_id":"cebpf4jnsgd1na2vs0mg"},{"bike_id":"6cd0b5fe-9b46-4a10-9a64-981c49847c94","system_id":"levelo_inurba_marseille","lat":43.26558,"lon":5.37303,"is_reserved":false,"is_disabled":false,"rental_uris":{"android":"levelo://app?vid=6cd0b5fe-9b46-4a10-9a64-981c49847c94","ios":"levelo://app?vid=6cd0b5fe-9b46-4a10-9a64-981c49847c94"},"vehicle_type_id":"4","last_reported":1736824180,"current_range_meters":35200,"station_id":"ce4bhg12rcd13ifvqf70","pricing_plan_id":"cebpf4jnsgd1na2vs0mg"},{"bike_id":"ba1fe761-33cd-4480-91c0-d6193a980470","system_id":"levelo_inurba_marseille","lat":43.2854,"lon":5.39505,"is_reserved":false,"is_disabled":false,"rental_uris":{"android":"levelo://app?vid=ba1fe761-33cd-4480-91c0-d6193a980470","ios":"levelo://app?vid=ba1fe761-33cd-4480-91c0-d6193a980470"},"vehicle_type_id":"4","last_reported":1736824180,"current_range_meters":36800,"station_id":"ce4bh292rcd13ifvqdg0","pricing_plan_id":"cebpf4jnsgd1na2vs0mg"},{"bike_id":"dc388f0e-5ba4-4401-b2b7-3e59da087469","system_id":"levelo_inurba_marseille","lat":43.28627,"lon":5.35098,"is_reserved":false,"is_disabled":false,"rental_uris":{"android":"levelo://app?vid=dc388f0e-5ba4-4401-b2b7-3e59da087469","ios":"levelo://app?vid=dc388f0e-5ba4-4401-b2b7-3e59da087469"},"vehicle_type_id":"4","last_reported":1736824180,"current_range_meters":9200,"station_id":"ce4bhch2rcd13ifvqeug","pricing_plan_id":"cebpf4jnsgd1na2vs0mg"},{"bike_id":"beb71ab3-5b83-4050-9822-a860f158163e","system_id":"levelo_inurba_marseille","lat":43.31379,"lon":5.38501,"is_reserved":false,"is_disabled":false,"rental_uris":{"android":"levelo://app?vid=beb71ab3-5b83-4050-9822-a860f158163e","ios":"levelo://app?vid=beb71ab3-5b83-4050-9822-a860f158163e"},"vehicle_type_id":"4","last_reported":1736824180,"current_range_meters":27200,"station_id":"ce4bgt92rcd13ifvqcf0","pricing_plan_id":"cebpf4jnsgd1na2vs0mg"},{"bike_id":"a0feaf5a-0679-4497-bbc6-ed1a8362442b","system_id":"levelo_inurba_marseille","lat":43.32356,"lon":5.38879,"is_reserved":false,"is_disabled":false,"rental_uris":{"android":"levelo://app?vid=a0feaf5a-0679-4497-bbc6-ed1a8362442b","ios":"levelo://app?vid=a0feaf5a-0679-4497-bbc6-ed1a8362442b"},"vehicle_type_id":"4","last_reported":1736824180,"current_range_meters":16000,"station_id":"ce4bhqp2rcd13ifvqhog","pricing_plan_id":"cebpf4jnsgd1na2vs0mg"},{"bike_id":"c84c60ce-c7f6-42eb-bb3c-f11a697bd396","system_id":"levelo_inurba_marseille","lat":43.29952,"lon":5.38508,"is_reserved":false,"is_disabled":true,"rental_uris":{"android":"levelo://app?vid=c84c60ce-c7f6-42eb-bb3c-f11a697bd396","ios":"levelo://app?vid=c84c60ce-c7f6-42eb-bb3c-f11a697bd396"},"vehicle_type_id":"4","last_reported":1736824180,"current_range_meters":36800,"station_id":"ce4bgj92rcd13ifvqbd0","pricing_plan_id":"cebpf4jnsgd1na2vs0mg"},{"bike_id":"5b6f32ca-27c0-4ddf-ba56-69f237bfef76","system_id":"levelo_inurba_marseille","lat":43.28602,"lon":5.3511,"is_reserved":false,"is_disabled":false,"rental_uris":{"android":"levelo://app?vid=5b6f32ca-27c0-4ddf-ba56-69f237bfef76","ios":"levelo://app?vid=5b6f32ca-27c0-4ddf-ba56-69f237bfef76"},"vehicle_type_id":"4","last_reported":1736824180,"current_range_meters":35200,"station_id":"ce4bhch2rcd13ifvqeug","pricing_plan_id":"cebpf4jnsgd1na2vs0mg"},{"bike_id":"8753109d-a5d3-4946-baad-f045fd58ae79","system_id":"levelo_inurba_marseille","lat":43.27179,"lon":5.40989,"is_reserved":false,"is_disabled":false,"rental_uris":{"android":"levelo://app?vid=8753109d-a5d3-4946-baad-f045fd58ae79","ios":"levelo://app?vid=8753109d-a5d3-4946-baad-f045fd58ae79"},"vehicle_type_id":"4","last_reported":1736824180,"current_range_meters":38000,"station_id":"ce4bhl12rcd13ifvqgf0","pricing_plan_id":"cebpf4jnsgd1na2vs0mg"},{"bike_id":"12889104-630a-49c1-a0e5-403922ca1c49","system_id":"levelo_inurba_marseille","lat":43.30777,"lon":5.37658,"is_reserved":false,"is_disabled":false,"rental_uris":{"android":"levelo://app?vid=12889104-630a-49c1-a0e5-403922ca1c49","ios":"levelo://app?vid=12889104-630a-49c1-a0e5-403922ca1c49"},"vehicle_type_id":"4","last_reported":1736824180,"current_range_meters":38000,"station_id":"ce4bgv92rcd13ifvqcq0","pricing_plan_id":"cebpf4jnsgd1na2vs0mg"},{"bike_id":"60eb95fc-b90e-49ce-a432-7bfaaff8cec5","system_id":"levelo_inurba_marseille","lat":43.284665,"lon":5.358739,"is_reserved":false,"is_disabled":false,"rental_uris":{"android":"levelo://app?vid=60eb95fc-b90e-49ce-a432-7bfaaff8cec5","ios":"levelo://app?vid=60eb95fc-b90e-49ce-a432-7bfaaff8cec5"},"vehicle_type_id":"4","last_reported":1736824180,"current_range_meters":8800,"station_id":"ce4bhah2rcd13ifvqei0","pricing_plan_id":"cebpf4jnsgd1na2vs0mg"},{"bike_id":"56a37990-c381-414a-8c27-59f20eae88ce","system_id":"levelo_inurba_marseille","lat":43.25014,"lon":5.38915,"is_reserved":false,"is_disabled":false,"rental_uris":{"android":"levelo://app?vid=56a37990-c381-414a-8c27-59f20eae88ce","ios":"levelo://app?vid=56a37990-c381-414a-8c27-59f20eae88ce"},"vehicle_type_id":"4","last_reported":1736824180,"current_range_meters":7200,"station_id":"ce4bhgp2rcd13ifvqfd0","pricing_plan_id":"cebpf4jnsgd1na2vs0mg"},{"bike_id":"c1c51f67-6348-4482-a3d4-31704cefaf37","system_id":"levelo_inurba_marseille","lat":43.28615,"lon":5.35098,"is_reserved":false,"is_disabled":false,"rental_uris":{"android":"levelo://app?vid=c1c51f67-6348-4482-a3d4-31704cefaf37","ios":"levelo://app?vid=c1c51f67-6348-4482-a3d4-31704cefaf37"},"vehicle_type_id":"4","last_reported":1736824180,"current_range_meters":30400,"station_id":"ce4bhch2rcd13ifvqeug","pricing_plan_id":"cebpf4jnsgd1na2vs0mg"},{"bike_id":"e114c682-1978-4a27-880c-63e24c43365d","system_id":"levelo_inurba_marseille","lat":43.30881,"lon":5.37178,"is_reserved":false,"is_disabled":false,"rental_uris":{"android":"levelo://app?vid=e114c682-1978-4a27-880c-63e24c43365d","ios":"levelo://app?vid=e114c682-1978-4a27-880c-63e24c43365d"},"vehicle_type_id":"4","last_reported":1736824180,"current_range_meters":15200,"station_id":"ce4bguh2rcd13ifvqckg","pricing_plan_id":"cebpf4jnsgd1na2vs0mg"},{"bike_id":"a56bdef2-14b8-4e02-b3bc-538917283971","system_id":"levelo_inurba_marseille","lat":43.25126,"lon":5.39476,"is_reserved":false,"is_disabled":false,"rental_uris":{"android":"levelo://app?vid=a56bdef2-14b8-4e02-b3bc-538917283971","ios":"levelo://app?vid=a56bdef2-14b8-4e02-b3bc-538917283971"},"vehicle_type_id":"4","last_reported":1736824180,"current_range_meters":9600,"station_id":"ce4bhm12rcd13ifvqgkg","pricing_plan_id":"cebpf4jnsgd1na2vs0mg"},{"bike_id":"9b4ce21a-db4e-479d-8e5f-f078c3c92edb","system_id":"levelo_inurba_marseille","lat":43.311818,"lon":5.387132,"is_reserved":false,"is_disabled":false,"rental_uris":{"android":"levelo://app?vid=9b4ce21a-db4e-479d-8e5f-f078c3c92edb","ios":"levelo://app?vid=9b4ce21a-db4e-479d-8e5f-f078c3c92edb"},"vehicle_type_id":"4","last_reported":1736824180,"current_range_meters":14000,"station_id":"ce4bgv12rcd13ifvqcp0","pricing_plan_id":"cebpf4jnsgd1na2vs0mg"},{"bike_id":"315b51a2-7ea0-4300-9b20-5b0527089b0f","system_id":"levelo_inurba_marseille","lat":43.255711,"lon":5.3824,"is_reserved":false,"is_disabled":false,"rental_uris":{"android":"levelo://app?vid=315b51a2-7ea0-4300-9b20-5b0527089b0f","ios":"levelo://app?vid=315b51a2-7ea0-4300-9b20-5b0527089b0f"},"vehicle_type_id":"4","last_reported":1736824180,"current_range_meters":35200,"station_id":"ce4bhih2rcd13ifvqfs0","pricing_plan_id":"cebpf4jnsgd1na2vs0mg"},{"bike_id":"e9430f1b-8860-41e9-9b9f-1f3b253b57f9","system_id":"levelo_inurba_marseille","lat":43.26063,"lon":5.39394,"is_reserved":false,"is_disabled":false,"rental_uris":{"android":"levelo://app?vid=e9430f1b-8860-41e9-9b9f-1f3b253b57f9","ios":"levelo://app?vid=e9430f1b-8860-41e9-9b9f-1f3b253b57f9"},"vehicle_type_id":"4","last_reported":1736824180,"current_range_meters":38800,"station_id":"ce4bhh92rcd13ifvqfj0","pricing_plan_id":"cebpf4jnsgd1na2vs0mg"},{"bike_id":"11b5ef43-7a8b-43a6-8dc9-02e75f07b9e3","system_id":"levelo_inurba_marseille","lat":43.286954,"lon":5.37398,"is_reserved":false,"is_disabled":false,"rental_uris":{"android":"levelo://app?vid=11b5ef43-7a8b-43a6-8dc9-02e75f07b9e3","ios":"levelo://app?vid=11b5ef43-7a8b-43a6-8dc9-02e75f07b9e3"},"vehicle_type_id":"4","last_reported":1736824180,"current_range_meters":38800,"station_id":"ce4bh3p2rcd13ifvqdq0","pricing_plan_id":"cebpf4jnsgd1na2vs0mg"},{"bike_id":"8947eb80-ac07-4510-acbd-0bf64a06d6a8","system_id":"levelo_inurba_marseille","lat":43.29192,"lon":5.3933,"is_reserved":false,"is_disabled":false,"rental_uris":{"android":"levelo://app?vid=8947eb80-ac07-4510-acbd-0bf64a06d6a8","ios":"levelo://app?vid=8947eb80-ac07-4510-acbd-0bf64a06d6a8"},"vehicle_type_id":"4","last_reported":1736824180,"current_range_meters":32000,"station_id":"ce4bh192rcd13ifvqdd0","pricing_plan_id":"cebpf4jnsgd1na2vs0mg"},{"bike_id":"a754abf4-87cb-4915-a97f-0b4d0e8971f5","system_id":"levelo_inurba_marseille","lat":43.28609,"lon":5.35086,"is_reserved":false,"is_disabled":false,"rental_uris":{"android":"levelo://app?vid=a754abf4-87cb-4915-a97f-0b4d0e8971f5","ios":"levelo://app?vid=a754abf4-87cb-4915-a97f-0b4d0e8971f5"},"vehicle_type_id":"4","last_reported":1736824180,"current_range_meters":30400,"station_id":"ce4bhch2rcd13ifvqeug","pricing_plan_id":"cebpf4jnsgd1na2vs0mg"},{"bike_id":"b51b8509-c21e-40ac-802b-edd56e55cdd0","system_id":"levelo_inurba_marseille","lat":43.30356,"lon":5.41882,"is_reserved":false,"is_disabled":true,"rental_uris":{"android":"levelo://app?vid=b51b8509-c21e-40ac-802b-edd56e55cdd0","ios":"levelo://app?vid=b51b8509-c21e-40ac-802b-edd56e55cdd0"},"vehicle_type_id":"4","last_reported":1736824180,"current_range_meters":22400,"station_id":"ce4bhop2rcd13ifvqh7g","pricing_plan_id":"cebpf4jnsgd1na2vs0mg"},{"bike_id":"512c7bd5-5643-4f7d-a8c3-5cceff4f5ebd","system_id":"levelo_inurba_marseille","lat":43.27376,"lon":5.36259,"is_reserved":false,"is_disabled":false,"rental_uris":{"android":"levelo://app?vid=512c7bd5-5643-4f7d-a8c3-5cceff4f5ebd","ios":"levelo://app?vid=512c7bd5-5643-4f7d-a8c3-5cceff4f5ebd"},"vehicle_type_id":"4","last_reported":1736824180,"current_range_meters":10800,"station_id":"ce4bhbh2rcd13ifvqeo0","pricing_plan_id":"cebpf4jnsgd1na2vs0mg"},{"bike_id":"5578a007-81a4-46d9-83dc-5f1c3a9f018c","system_id":"levelo_inurba_marseille","lat":43.29438,"lon":5.39735,"is_reserved":false,"is_disabled":false,"rental_uris":{"android":"levelo://app?vid=5578a007-81a4-46d9-83dc-5f1c3a9f018c","ios":"levelo://app?vid=5578a007-81a4-46d9-83dc-5f1c3a9f018c"},"vehicle_type_id":"4","last_reported":1736824180,"current_range_meters":38800,"station_id":"ce4bh3h2rcd13ifvqdo0","pricing_plan_id":"cebpf4jnsgd1na2vs0mg"},{"bike_id":"78fc2529-851e-44ea-9e17-e5a76c9197b1","system_id":"levelo_inurba_marseille","lat":43.29727,"lon":5.376876,"is_reserved":false,"is_disabled":true,"rental_uris":{"android":"levelo://app?vid=78fc2529-851e-44ea-9e17-e5a76c9197b1","ios":"levelo://app?vid=78fc2529-851e-44ea-9e17-e5a76c9197b1"},"vehicle_type_id":"4","last_reported":1736824180,"current_range_meters":36400,"station_id":"ce4bgkh2rcd13ifvqbl0","pricing_plan_id":"cebpf4jnsgd1na2vs0mg"},{"bike_id":"190501cf-4906-474c-bef9-6ea2b092fabd","system_id":"levelo_inurba_marseille","lat":43.28619,"lon":5.35124,"is_reserved":false,"is_disabled":false,"rental_uris":{"android":"levelo://app?vid=190501cf-4906-474c-bef9-6ea2b092fabd","ios":"levelo://app?vid=190501cf-4906-474c-bef9-6ea2b092fabd"},"vehicle_type_id":"4","last_reported":1736824180,"current_range_meters":22800,"station_id":"ce4bhch2rcd13ifvqeug","pricing_plan_id":"cebpf4jnsgd1na2vs0mg"},{"bike_id":"465c6edf-a32f-4db5-8f92-4f98788c4e4d","system_id":"levelo_inurba_marseille","lat":43.29008,"lon":5.35608,"is_reserved":false,"is_disabled":false,"rental_uris":{"android":"levelo://app?vid=465c6edf-a32f-4db5-8f92-4f98788c4e4d","ios":"levelo://app?vid=465c6edf-a32f-4db5-8f92-4f98788c4e4d"},"vehicle_type_id":"4","last_reported":1736824180,"current_range_meters":38800,"station_id":"ce4bhb92rcd13ifvqen0","pricing_plan_id":"cebpf4jnsgd1na2vs0mg"},{"bike_id":"c82a1ac8-84bb-45b3-8d82-2e93e458f523","system_id":"levelo_inurba_marseille","lat":43.25112,"lon":5.40326,"is_reserved":false,"is_disabled":false,"rental_uris":{"android":"levelo://app?vid=c82a1ac8-84bb-45b3-8d82-2e93e458f523","ios":"levelo://app?vid=c82a1ac8-84bb-45b3-8d82-2e93e458f523"},"vehicle_type_id":"4","last_reported":1736824180,"current_range_meters":10000,"station_id":"ce4bhlh2rcd13ifvqgig","pricing_plan_id":"cebpf4jnsgd1na2vs0mg"},{"bike_id":"835e04ef-b77c-470b-bd8b-2ccb52ced68e","system_id":"levelo_inurba_marseille","lat":43.29713,"lon":5.36592,"is_reserved":false,"is_disabled":false,"rental_uris":{"android":"levelo://app?vid=835e04ef-b77c-470b-bd8b-2ccb52ced68e","ios":"levelo://app?vid=835e04ef-b77c-470b-bd8b-2ccb52ced68e"},"vehicle_type_id":"4","last_reported":1736824180,"current_range_meters":38000,"station_id":"ce4bgn12rcd13ifvqbt0","pricing_plan_id":"cebpf4jnsgd1na2vs0mg"},{"bike_id":"461bd958-bd98-4026-a052-ef310a6653da","system_id":"levelo_inurba_marseille","lat":43.24801,"lon":5.37444,"is_reserved":false,"is_disabled":false,"rental_uris":{"android":"levelo://app?vid=461bd958-bd98-4026-a052-ef310a6653da","ios":"levelo://app?vid=461bd958-bd98-4026-a052-ef310a6653da"},"vehicle_type_id":"4","last_reported":1736824180,"current_range_meters":6000,"station_id":"ce4bhgh2rcd13ifvqfb0","pricing_plan_id":"cebpf4jnsgd1na2vs0mg"},{"bike_id":"bab91d98-571b-4af7-8b79-c1830922d13d","system_id":"levelo_inurba_marseille","lat":43.28773,"lon":5.38237,"is_reserved":false,"is_disabled":true,"rental_uris":{"android":"levelo://app?vid=bab91d98-571b-4af7-8b79-c1830922d13d","ios":"levelo://app?vid=bab91d98-571b-4af7-8b79-c1830922d13d"},"vehicle_type_id":"4","last_reported":1736824180,"current_range_meters":1600,"station_id":"","pricing_plan_id":"cebpf4jnsgd1na2vs0mg"},{"bike_id":"81894d57-6961-4ca9-8a73-3302ecbe940c","system_id":"levelo_inurba_marseille","lat":43.24805,"lon":5.37457,"is_reserved":false,"is_disabled":false,"rental_uris":{"android":"levelo://app?vid=81894d57-6961-4ca9-8a73-3302ecbe940c","ios":"levelo://app?vid=81894d57-6961-4ca9-8a73-3302ecbe940c"},"vehicle_type_id":"4","last_reported":1736824180,"current_range_meters":37600,"station_id":"ce4bhgh2rcd13ifvqfb0","pricing_plan_id":"cebpf4jnsgd1na2vs0mg"},{"bike_id":"894d14f4-d7f5-4f61-98eb-5bf4ed80a592","system_id":"levelo_inurba_marseille","lat":43.31755,"lon":5.39015,"is_reserved":false,"is_disabled":false,"rental_uris":{"android":"levelo://app?vid=894d14f4-d7f5-4f61-98eb-5bf4ed80a592","ios":"levelo://app?vid=894d14f4-d7f5-4f61-98eb-5bf4ed80a592"},"vehicle_type_id":"4","last_reported":1736824180,"current_range_meters":37600,"station_id":"ce4bhqp2rcd13ifvqhng","pricing_plan_id":"cebpf4jnsgd1na2vs0mg"},{"bike_id":"2e97710c-38d7-4cf4-aadf-33f66f41c611","system_id":"levelo_inurba_marseille","lat":43.28933,"lon":5.36401,"is_reserved":false,"is_disabled":false,"rental_uris":{"android":"levelo://app?vid=2e97710c-38d7-4cf4-aadf-33f66f41c611","ios":"levelo://app?vid=2e97710c-38d7-4cf4-aadf-33f66f41c611"},"vehicle_type_id":"4","last_reported":1736824180,"current_range_meters":31200,"station_id":"ce4bhc92rcd13ifvqetg","pricing_plan_id":"cebpf4jnsgd1na2vs0mg"},{"bike_id":"45324790-abcf-4a91-8b9e-6b7c17eae013","system_id":"levelo_inurba_marseille","lat":43.273738,"lon":5.362585,"is_reserved":false,"is_disabled":false,"rental_uris":{"android":"levelo://app?vid=45324790-abcf-4a91-8b9e-6b7c17eae013","ios":"levelo://app?vid=45324790-abcf-4a91-8b9e-6b7c17eae013"},"vehicle_type_id":"4","last_reported":1736824180,"current_range_meters":7200,"station_id":"ce4bhbh2rcd13ifvqeo0","pricing_plan_id":"cebpf4jnsgd1na2vs0mg"},{"bike_id":"458e751a-905c-4f8b-b3d3-ab8ec822e070","system_id":"levelo_inurba_marseille","lat":43.3193,"lon":5.39267,"is_reserved":false,"is_disabled":false,"rental_uris":{"android":"levelo://app?vid=458e751a-905c-4f8b-b3d3-ab8ec822e070","ios":"levelo://app?vid=458e751a-905c-4f8b-b3d3-ab8ec822e070"},"vehicle_type_id":"4","last_reported":1736824180,"current_range_meters":19600,"station_id":"","pricing_plan_id":"cebpf4jnsgd1na2vs0mg"},{"bike_id":"52b9c89b-59e1-4ffb-8f5b-c4403b64930a","system_id":"levelo_inurba_marseille","lat":43.24393,"lon":5.37058,"is_reserved":false,"is_disabled":false,"rental_uris":{"android":"levelo://app?vid=52b9c89b-59e1-4ffb-8f5b-c4403b64930a","ios":"levelo://app?vid=52b9c89b-59e1-4ffb-8f5b-c4403b64930a"},"vehicle_type_id":"4","last_reported":1736824180,"current_range_meters":9200,"station_id":"ce4bhhh2rcd13ifvqfk0","pricing_plan_id":"cebpf4jnsgd1na2vs0mg"},{"bike_id":"47f63191-6673-4167-8a58-1a164b7d4b7e","system_id":"levelo_inurba_marseille","lat":43.240681,"lon":5.377628,"is_reserved":false,"is_disabled":false,"rental_uris":{"android":"levelo://app?vid=47f63191-6673-4167-8a58-1a164b7d4b7e","ios":"levelo://app?vid=47f63191-6673-4167-8a58-1a164b7d4b7e"},"vehicle_type_id":"4","last_reported":1736824180,"current_range_meters":36800,"station_id":"ce4bhnp2rcd13ifvqgvg","pricing_plan_id":"cebpf4jnsgd1na2vs0mg"},{"bike_id":"eed6b634-12d1-4e79-b3d7-f213d0cd31b0","system_id":"levelo_inurba_marseille","lat":43.304137,"lon":5.412756,"is_reserved":false,"is_disabled":false,"rental_uris":{"android":"levelo://app?vid=eed6b634-12d1-4e79-b3d7-f213d0cd31b0","ios":"levelo://app?vid=eed6b634-12d1-4e79-b3d7-f213d0cd31b0"},"vehicle_type_id":"4","last_reported":1736824180,"current_range_meters":38800,"station_id":"ce4bhop2rcd13ifvqh8g","pricing_plan_id":"cebpf4jnsgd1na2vs0mg"},{"bike_id":"a86fe1f4-7545-4b33-8097-0e91725c0bb3","system_id":"levelo_inurba_marseille","lat":43.31414,"lon":5.37228,"is_reserved":false,"is_disabled":true,"rental_uris":{"android":"levelo://app?vid=a86fe1f4-7545-4b33-8097-0e91725c0bb3","ios":"levelo://app?vid=a86fe1f4-7545-4b33-8097-0e91725c0bb3"},"vehicle_type_id":"4","last_reported":1736824180,"current_range_meters":1200,"station_id":"","pricing_plan_id":"cebpf4jnsgd1na2vs0mg"},{"bike_id":"5643d483-090c-4b39-8681-868f094c496c","system_id":"levelo_inurba_marseille","lat":43.31068,"lon":5.38349,"is_reserved":false,"is_disabled":false,"rental_uris":{"android":"levelo://app?vid=5643d483-090c-4b39-8681-868f094c496c","ios":"levelo://app?vid=5643d483-090c-4b39-8681-868f094c496c"},"vehicle_type_id":"4","last_reported":1736824180,"current_range_meters":6400,"station_id":"ce4bgv92rcd13ifvqcr0","pricing_plan_id":"cebpf4jnsgd1na2vs0mg"},{"bike_id":"d3212cff-9568-4752-b2a6-3db9ecfbcc71","system_id":"levelo_inurba_marseille","lat":43.31266,"lon":5.40173,"is_reserved":false,"is_disabled":false,"rental_uris":{"android":"levelo://app?vid=d3212cff-9568-4752-b2a6-3db9ecfbcc71","ios":"levelo://app?vid=d3212cff-9568-4752-b2a6-3db9ecfbcc71"},"vehicle_type_id":"4","last_reported":1736824180,"current_range_meters":26000,"station_id":"ce4bh092rcd13ifvqd30","pricing_plan_id":"cebpf4jnsgd1na2vs0mg"},{"bike_id":"53e28f20-90a3-4c3e-b79c-fed921f1980d","system_id":"levelo_inurba_marseille","lat":43.26931,"lon":5.4023,"is_reserved":false,"is_disabled":false,"rental_uris":{"android":"levelo://app?vid=53e28f20-90a3-4c3e-b79c-fed921f1980d","ios":"levelo://app?vid=53e28f20-90a3-4c3e-b79c-fed921f1980d"},"vehicle_type_id":"4","last_reported":1736824180,"current_range_meters":34800,"station_id":"cjm6bp8fraef2m0cb0m0","pricing_plan_id":"cebpf4jnsgd1na2vs0mg"},{"bike_id":"ec3d992b-1b91-4efe-a3aa-ebcde3041682","system_id":"levelo_inurba_marseille","lat":43.28544,"lon":5.39514,"is_reserved":false,"is_disabled":false,"rental_uris":{"android":"levelo://app?vid=ec3d992b-1b91-4efe-a3aa-ebcde3041682","ios":"levelo://app?vid=ec3d992b-1b91-4efe-a3aa-ebcde3041682"},"vehicle_type_id":"4","last_reported":1736824180,"current_range_meters":8000,"station_id":"ce4bh292rcd13ifvqdg0","pricing_plan_id":"cebpf4jnsgd1na2vs0mg"},{"bike_id":"1ff4d6af-d168-4206-80a1-8f85ab0c0a00","system_id":"levelo_inurba_marseille","lat":43.25866,"lon":5.39903,"is_reserved":false,"is_disabled":false,"rental_uris":{"android":"levelo://app?vid=1ff4d6af-d168-4206-80a1-8f85ab0c0a00","ios":"levelo://app?vid=1ff4d6af-d168-4206-80a1-8f85ab0c0a00"},"vehicle_type_id":"4","last_reported":1736824180,"current_range_meters":38800,"station_id":"ce4bhl92rcd13ifvqghg","pricing_plan_id":"cebpf4jnsgd1na2vs0mg"},{"bike_id":"02f9c855-9b7c-4c4d-a998-251e38d370bb","system_id":"levelo_inurba_marseille","lat":43.31006,"lon":5.37933,"is_reserved":false,"is_disabled":false,"rental_uris":{"android":"levelo://app?vid=02f9c855-9b7c-4c4d-a998-251e38d370bb","ios":"levelo://app?vid=02f9c855-9b7c-4c4d-a998-251e38d370bb"},"vehicle_type_id":"4","last_reported":1736824180,"current_range_meters":28400,"station_id":"","pricing_plan_id":"cebpf4jnsgd1na2vs0mg"},{"bike_id":"0e0f7688-96cc-4a74-92d2-1a9da442c8bc","system_id":"levelo_inurba_marseille","lat":43.2846,"lon":5.38417,"is_reserved":false,"is_disabled":false,"rental_uris":{"android":"levelo://app?vid=0e0f7688-96cc-4a74-92d2-1a9da442c8bc","ios":"levelo://app?vid=0e0f7688-96cc-4a74-92d2-1a9da442c8bc"},"vehicle_type_id":"4","last_reported":1736824180,"current_range_meters":38800,"station_id":"ce4bh512rcd13ifvqe3g","pricing_plan_id":"cebpf4jnsgd1na2vs0mg"},{"bike_id":"bd9b4450-e014-4ba9-a16d-fbb5f305013e","system_id":"levelo_inurba_marseille","lat":43.30797,"lon":5.4353,"is_reserved":false,"is_disabled":false,"rental_uris":{"android":"levelo://app?vid=bd9b4450-e014-4ba9-a16d-fbb5f305013e","ios":"levelo://app?vid=bd9b4450-e014-4ba9-a16d-fbb5f305013e"},"vehicle_type_id":"4","last_reported":1736824180,"current_range_meters":16800,"station_id":"ce4bhph2rcd13ifvqheg","pricing_plan_id":"cebpf4jnsgd1na2vs0mg"},{"bike_id":"4f33525b-ad77-45f3-a5ca-48f52317317a","system_id":"levelo_inurba_marseille","lat":43.292,"lon":5.36042,"is_reserved":false,"is_disabled":true,"rental_uris":{"android":"levelo://app?vid=4f33525b-ad77-45f3-a5ca-48f52317317a","ios":"levelo://app?vid=4f33525b-ad77-45f3-a5ca-48f52317317a"},"vehicle_type_id":"4","last_reported":1736824180,"current_range_meters":0,"station_id":"ce4bhbh2rcd13ifvqeqg","pricing_plan_id":"cebpf4jnsgd1na2vs0mg"},{"bike_id":"f9a1bad4-08b5-4087-8bd3-54df8bd6dae4","system_id":"levelo_inurba_marseille","lat":43.25856,"lon":5.39898,"is_reserved":false,"is_disabled":false,"rental_uris":{"android":"levelo://app?vid=f9a1bad4-08b5-4087-8bd3-54df8bd6dae4","ios":"levelo://app?vid=f9a1bad4-08b5-4087-8bd3-54df8bd6dae4"},"vehicle_type_id":"4","last_reported":1736824180,"current_range_meters":11600,"station_id":"ce4bhl92rcd13ifvqghg","pricing_plan_id":"cebpf4jnsgd1na2vs0mg"},{"bike_id":"77c125dd-0570-435e-ae36-92a459b4cd7d","system_id":"levelo_inurba_marseille","lat":43.25813,"lon":5.3944,"is_reserved":false,"is_disabled":false,"rental_uris":{"android":"levelo://app?vid=77c125dd-0570-435e-ae36-92a459b4cd7d","ios":"levelo://app?vid=77c125dd-0570-435e-ae36-92a459b4cd7d"},"vehicle_type_id":"4","last_reported":1736824180,"current_range_meters":8000,"station_id":"ce4bhip2rcd13ifvqft0","pricing_plan_id":"cebpf4jnsgd1na2vs0mg"},{"bike_id":"cc47c5d9-8610-457c-8654-04aab266c3fd","system_id":"levelo_inurba_marseille","lat":43.30809,"lon":5.38146,"is_reserved":false,"is_disabled":false,"rental_uris":{"android":"levelo://app?vid=cc47c5d9-8610-457c-8654-04aab266c3fd","ios":"levelo://app?vid=cc47c5d9-8610-457c-8654-04aab266c3fd"},"vehicle_type_id":"4","last_reported":1736824180,"current_range_meters":38800,"station_id":"ce4bgt12rcd13ifvqce0","pricing_plan_id":"cebpf4jnsgd1na2vs0mg"},{"bike_id":"624fd665-76a1-4073-91c0-a4db8dfd6228","system_id":"levelo_inurba_marseille","lat":43.31311,"lon":5.36826,"is_reserved":false,"is_disabled":false,"rental_uris":{"android":"levelo://app?vid=624fd665-76a1-4073-91c0-a4db8dfd6228","ios":"levelo://app?vid=624fd665-76a1-4073-91c0-a4db8dfd6228"},"vehicle_type_id":"4","last_reported":1736824180,"current_range_meters":30800,"station_id":"","pricing_plan_id":"cebpf4jnsgd1na2vs0mg"},{"bike_id":"c7ad535d-a881-4876-b3ac-e988db081463","system_id":"levelo_inurba_marseille","lat":43.279411,"lon":5.410427,"is_reserved":false,"is_disabled":false,"rental_uris":{"android":"levelo://app?vid=c7ad535d-a881-4876-b3ac-e988db081463","ios":"levelo://app?vid=c7ad535d-a881-4876-b3ac-e988db081463"},"vehicle_type_id":"4","last_reported":1736824180,"current_range_meters":24800,"station_id":"ce4bhnp2rcd13ifvqh0g","pricing_plan_id":"cebpf4jnsgd1na2vs0mg"},{"bike_id":"acb789d3-c42d-465c-982b-20d6256e9026","system_id":"levelo_inurba_marseille","lat":43.24391,"lon":5.37069,"is_reserved":false,"is_disabled":false,"rental_uris":{"android":"levelo://app?vid=acb789d3-c42d-465c-982b-20d6256e9026","ios":"levelo://app?vid=acb789d3-c42d-465c-982b-20d6256e9026"},"vehicle_type_id":"4","last_reported":1736824180,"current_range_meters":37600,"station_id":"ce4bhhh2rcd13ifvqfk0","pricing_plan_id":"cebpf4jnsgd1na2vs0mg"},{"bike_id":"1bf14b3f-4ccb-4f9d-9f35-39b091193b88","system_id":"levelo_inurba_marseille","lat":43.30282,"lon":5.38823,"is_reserved":false,"is_disabled":false,"rental_uris":{"android":"levelo://app?vid=1bf14b3f-4ccb-4f9d-9f35-39b091193b88","ios":"levelo://app?vid=1bf14b3f-4ccb-4f9d-9f35-39b091193b88"},"vehicle_type_id":"4","last_reported":1736824180,"current_range_meters":10000,"station_id":"","pricing_plan_id":"cebpf4jnsgd1na2vs0mg"},{"bike_id":"d14c39c0-1954-45f6-ac5b-6b385370d083","system_id":"levelo_inurba_marseille","lat":43.28595,"lon":5.39509,"is_reserved":false,"is_disabled":false,"rental_uris":{"android":"levelo://app?vid=d14c39c0-1954-45f6-ac5b-6b385370d083","ios":"levelo://app?vid=d14c39c0-1954-45f6-ac5b-6b385370d083"},"vehicle_type_id":"4","last_reported":1736824180,"current_range_meters":26000,"station_id":"ce4bh292rcd13ifvqdg0","pricing_plan_id":"cebpf4jnsgd1na2vs0mg"},{"bike_id":"c2d5fd29-d5c7-4c17-84cd-2259421931b6","system_id":"levelo_inurba_marseille","lat":43.27502,"lon":5.4246,"is_reserved":false,"is_disabled":false,"rental_uris":{"android":"levelo://app?vid=c2d5fd29-d5c7-4c17-84cd-2259421931b6","ios":"levelo://app?vid=c2d5fd29-d5c7-4c17-84cd-2259421931b6"},"vehicle_type_id":"4","last_reported":1736824180,"current_range_meters":2800,"station_id":"ce4bhn92rcd13ifvqgrg","pricing_plan_id":"cebpf4jnsgd1na2vs0mg"},{"bike_id":"295bd26f-64bb-4f9a-b1ce-9227768f18ec","system_id":"levelo_inurba_marseille","lat":43.291633,"lon":5.371523,"is_reserved":false,"is_disabled":true,"rental_uris":{"android":"levelo://app?vid=295bd26f-64bb-4f9a-b1ce-9227768f18ec","ios":"levelo://app?vid=295bd26f-64bb-4f9a-b1ce-9227768f18ec"},"vehicle_type_id":"4","last_reported":1736824180,"current_range_meters":27200,"station_id":"ce4bha92rcd13ifvqeh0","pricing_plan_id":"cebpf4jnsgd1na2vs0mg"},{"bike_id":"6cb2c9de-e879-4ac4-8a2d-85a79808682d","system_id":"levelo_inurba_marseille","lat":43.29846,"lon":5.36264,"is_reserved":false,"is_disabled":false,"rental_uris":{"android":"levelo://app?vid=6cb2c9de-e879-4ac4-8a2d-85a79808682d","ios":"levelo://app?vid=6cb2c9de-e879-4ac4-8a2d-85a79808682d"},"vehicle_type_id":"4","last_reported":1736824180,"current_range_meters":28800,"station_id":"ce4bgpp2rcd13ifvqc3g","pricing_plan_id":"cebpf4jnsgd1na2vs0mg"},{"bike_id":"66c80b47-40b8-4dc5-8113-5a565d617bfe","system_id":"levelo_inurba_marseille","lat":43.31171,"lon":5.38709,"is_reserved":false,"is_disabled":false,"rental_uris":{"android":"levelo://app?vid=66c80b47-40b8-4dc5-8113-5a565d617bfe","ios":"levelo://app?vid=66c80b47-40b8-4dc5-8113-5a565d617bfe"},"vehicle_type_id":"4","last_reported":1736824180,"current_range_meters":12800,"station_id":"ce4bgv12rcd13ifvqcp0","pricing_plan_id":"cebpf4jnsgd1na2vs0mg"},{"bike_id":"ae29e0de-7b5a-45d6-ace3-313c5e88010a","system_id":"levelo_inurba_marseille","lat":43.27995,"lon":5.41658,"is_reserved":false,"is_disabled":false,"rental_uris":{"android":"levelo://app?vid=ae29e0de-7b5a-45d6-ace3-313c5e88010a","ios":"levelo://app?vid=ae29e0de-7b5a-45d6-ace3-313c5e88010a"},"vehicle_type_id":"4","last_reported":1736824180,"current_range_meters":38400,"station_id":"ce4bho12rcd13ifvqh1g","pricing_plan_id":"cebpf4jnsgd1na2vs0mg"},{"bike_id":"6c8f1a4a-6d49-4354-8fa4-7312da1e1397","system_id":"levelo_inurba_marseille","lat":43.2861,"lon":5.35107,"is_reserved":false,"is_disabled":false,"rental_uris":{"android":"levelo://app?vid=6c8f1a4a-6d49-4354-8fa4-7312da1e1397","ios":"levelo://app?vid=6c8f1a4a-6d49-4354-8fa4-7312da1e1397"},"vehicle_type_id":"4","last_reported":1736824180,"current_range_meters":36400,"station_id":"ce4bhch2rcd13ifvqeug","pricing_plan_id":"cebpf4jnsgd1na2vs0mg"},{"bike_id":"572f0254-11cf-4ef2-b3f9-66737ed8298a","system_id":"levelo_inurba_marseille","lat":43.28421,"lon":5.34987,"is_reserved":false,"is_disabled":true,"rental_uris":{"android":"levelo://app?vid=572f0254-11cf-4ef2-b3f9-66737ed8298a","ios":"levelo://app?vid=572f0254-11cf-4ef2-b3f9-66737ed8298a"},"vehicle_type_id":"4","last_reported":1736824180,"current_range_meters":0,"station_id":"ce4bhbh2rcd13ifvqepg","pricing_plan_id":"cebpf4jnsgd1na2vs0mg"},{"bike_id":"394c7962-e332-44b2-b196-c6959273f825","system_id":"levelo_inurba_marseille","lat":43.28458,"lon":5.358887,"is_reserved":false,"is_disabled":false,"rental_uris":{"android":"levelo://app?vid=394c7962-e332-44b2-b196-c6959273f825","ios":"levelo://app?vid=394c7962-e332-44b2-b196-c6959273f825"},"vehicle_type_id":"4","last_reported":1736824180,"current_range_meters":38800,"station_id":"ce4bhah2rcd13ifvqei0","pricing_plan_id":"cebpf4jnsgd1na2vs0mg"},{"bike_id":"60c48e84-151f-4edd-83cd-789ff87c7f63","system_id":"levelo_inurba_marseille","lat":43.28697,"lon":5.37403,"is_reserved":false,"is_disabled":true,"rental_uris":{"android":"levelo://app?vid=60c48e84-151f-4edd-83cd-789ff87c7f63","ios":"levelo://app?vid=60c48e84-151f-4edd-83cd-789ff87c7f63"},"vehicle_type_id":"4","last_reported":1736824180,"current_range_meters":36000,"station_id":"ce4bh3p2rcd13ifvqdq0","pricing_plan_id":"cebpf4jnsgd1na2vs0mg"},{"bike_id":"b8014fe9-3b0e-4643-96c5-b77e26dd3881","system_id":"levelo_inurba_marseille","lat":43.27816,"lon":5.40723,"is_reserved":false,"is_disabled":false,"rental_uris":{"android":"levelo://app?vid=b8014fe9-3b0e-4643-96c5-b77e26dd3881","ios":"levelo://app?vid=b8014fe9-3b0e-4643-96c5-b77e26dd3881"},"vehicle_type_id":"4","last_reported":1736824180,"current_range_meters":8400,"station_id":"ce4bhnh2rcd13ifvqgtg","pricing_plan_id":"cebpf4jnsgd1na2vs0mg"},{"bike_id":"65e4bbbc-3a81-48a5-8ddf-1dbbd6fe93d5","system_id":"levelo_inurba_marseille","lat":43.29566,"lon":5.37499,"is_reserved":false,"is_disabled":true,"rental_uris":{"android":"levelo://app?vid=65e4bbbc-3a81-48a5-8ddf-1dbbd6fe93d5","ios":"levelo://app?vid=65e4bbbc-3a81-48a5-8ddf-1dbbd6fe93d5"},"vehicle_type_id":"4","last_reported":1736824180,"current_range_meters":4400,"station_id":"ce4bgh92rcd13ifvqb50","pricing_plan_id":"cebpf4jnsgd1na2vs0mg"},{"bike_id":"d1dc4ad9-186b-444e-9d19-7e7fc8f9a273","system_id":"levelo_inurba_marseille","lat":43.25577,"lon":5.38252,"is_reserved":false,"is_disabled":false,"rental_uris":{"android":"levelo://app?vid=d1dc4ad9-186b-444e-9d19-7e7fc8f9a273","ios":"levelo://app?vid=d1dc4ad9-186b-444e-9d19-7e7fc8f9a273"},"vehicle_type_id":"4","last_reported":1736824180,"current_range_meters":38800,"station_id":"ce4bhih2rcd13ifvqfs0","pricing_plan_id":"cebpf4jnsgd1na2vs0mg"},{"bike_id":"6fcb3384-c9bc-4ab3-9c0b-f62a500684d1","system_id":"levelo_inurba_marseille","lat":43.2952,"lon":5.39033,"is_reserved":false,"is_disabled":true,"rental_uris":{"android":"levelo://app?vid=6fcb3384-c9bc-4ab3-9c0b-f62a500684d1","ios":"levelo://app?vid=6fcb3384-c9bc-4ab3-9c0b-f62a500684d1"},"vehicle_type_id":"4","last_reported":1736824180,"current_range_meters":27600,"station_id":"ce4bh3p2rcd13ifvqdp0","pricing_plan_id":"cebpf4jnsgd1na2vs0mg"},{"bike_id":"de05f028-7450-4792-8d5b-e268410faa9d","system_id":"levelo_inurba_marseille","lat":43.32093,"lon":5.36807,"is_reserved":false,"is_disabled":false,"rental_uris":{"android":"levelo://app?vid=de05f028-7450-4792-8d5b-e268410faa9d","ios":"levelo://app?vid=de05f028-7450-4792-8d5b-e268410faa9d"},"vehicle_type_id":"4","last_reported":1736824180,"current_range_meters":30000,"station_id":"ce4bhrh2rcd13ifvqhug","pricing_plan_id":"cebpf4jnsgd1na2vs0mg"},{"bike_id":"40ca92e2-89d4-42e2-bbb6-f9f0c7df0ac9","system_id":"levelo_inurba_marseille","lat":43.23176,"lon":5.39986,"is_reserved":false,"is_disabled":false,"rental_uris":{"android":"levelo://app?vid=40ca92e2-89d4-42e2-bbb6-f9f0c7df0ac9","ios":"levelo://app?vid=40ca92e2-89d4-42e2-bbb6-f9f0c7df0ac9"},"vehicle_type_id":"4","last_reported":1736824180,"current_range_meters":9200,"station_id":"ce4bhn12rcd13ifvqgqg","pricing_plan_id":"cebpf4jnsgd1na2vs0mg"},{"bike_id":"4218abb1-97a1-4e69-a779-b2859c95cf9a","system_id":"levelo_inurba_marseille","lat":43.239565,"lon":5.366255,"is_reserved":false,"is_disabled":false,"rental_uris":{"android":"levelo://app?vid=4218abb1-97a1-4e69-a779-b2859c95cf9a","ios":"levelo://app?vid=4218abb1-97a1-4e69-a779-b2859c95cf9a"},"vehicle_type_id":"4","last_reported":1736824180,"current_range_meters":16400,"station_id":"ce4bhi12rcd13ifvqfp0","pricing_plan_id":"cebpf4jnsgd1na2vs0mg"},{"bike_id":"7da73b08-06e3-43ca-8e0f-9447fe50ccbf","system_id":"levelo_inurba_marseille","lat":43.2749,"lon":5.42468,"is_reserved":false,"is_disabled":true,"rental_uris":{"android":"levelo://app?vid=7da73b08-06e3-43ca-8e0f-9447fe50ccbf","ios":"levelo://app?vid=7da73b08-06e3-43ca-8e0f-9447fe50ccbf"},"vehicle_type_id":"4","last_reported":1736824180,"current_range_meters":0,"station_id":"ce4bhn92rcd13ifvqgrg","pricing_plan_id":"cebpf4jnsgd1na2vs0mg"},{"bike_id":"f2af2ca6-447c-496c-ad3d-731c1377ca61","system_id":"levelo_inurba_marseille","lat":43.300896,"lon":5.372921,"is_reserved":false,"is_disabled":false,"rental_uris":{"android":"levelo://app?vid=f2af2ca6-447c-496c-ad3d-731c1377ca61","ios":"levelo://app?vid=f2af2ca6-447c-496c-ad3d-731c1377ca61"},"vehicle_type_id":"4","last_reported":1736824180,"current_range_meters":12400,"station_id":"","pricing_plan_id":"cebpf4jnsgd1na2vs0mg"},{"bike_id":"85cfe1c0-40e0-4f59-b74d-562bdcdf0cee","system_id":"levelo_inurba_marseille","lat":43.28552,"lon":5.395,"is_reserved":false,"is_disabled":false,"rental_uris":{"android":"levelo://app?vid=85cfe1c0-40e0-4f59-b74d-562bdcdf0cee","ios":"levelo://app?vid=85cfe1c0-40e0-4f59-b74d-562bdcdf0cee"},"vehicle_type_id":"4","last_reported":1736824180,"current_range_meters":38800,"station_id":"ce4bh292rcd13ifvqdg0","pricing_plan_id":"cebpf4jnsgd1na2vs0mg"},{"bike_id":"923cb395-45d4-4d53-bdd9-a34c0143ee2c","system_id":"levelo_inurba_marseille","lat":43.32269,"lon":5.38304,"is_reserved":false,"is_disabled":false,"rental_uris":{"android":"levelo://app?vid=923cb395-45d4-4d53-bdd9-a34c0143ee2c","ios":"levelo://app?vid=923cb395-45d4-4d53-bdd9-a34c0143ee2c"},"vehicle_type_id":"4","last_reported":1736824180,"current_range_meters":38800,"station_id":"ce4bhr12rcd13ifvqhqg","pricing_plan_id":"cebpf4jnsgd1na2vs0mg"},{"bike_id":"4702389e-6abe-4c8d-a8dd-2f727bc003cc","system_id":"levelo_inurba_marseille","lat":43.29027,"lon":5.35924,"is_reserved":false,"is_disabled":false,"rental_uris":{"android":"levelo://app?vid=4702389e-6abe-4c8d-a8dd-2f727bc003cc","ios":"levelo://app?vid=4702389e-6abe-4c8d-a8dd-2f727bc003cc"},"vehicle_type_id":"4","last_reported":1736824180,"current_range_meters":39200,"station_id":"ce4bha92rcd13ifvqeg0","pricing_plan_id":"cebpf4jnsgd1na2vs0mg"},{"bike_id":"34d1187a-0d2f-42da-8bcd-6376169d385a","system_id":"levelo_inurba_marseille","lat":43.25935,"lon":5.40888,"is_reserved":false,"is_disabled":false,"rental_uris":{"android":"levelo://app?vid=34d1187a-0d2f-42da-8bcd-6376169d385a","ios":"levelo://app?vid=34d1187a-0d2f-42da-8bcd-6376169d385a"},"vehicle_type_id":"4","last_reported":1736824180,"current_range_meters":38000,"station_id":"ce4bhm92rcd13ifvqglg","pricing_plan_id":"cebpf4jnsgd1na2vs0mg"},{"bike_id":"94e0cb27-f1b4-43a1-868c-02d30dad9f0e","system_id":"levelo_inurba_marseille","lat":43.28026,"lon":5.36938,"is_reserved":false,"is_disabled":true,"rental_uris":{"android":"levelo://app?vid=94e0cb27-f1b4-43a1-868c-02d30dad9f0e","ios":"levelo://app?vid=94e0cb27-f1b4-43a1-868c-02d30dad9f0e"},"vehicle_type_id":"4","last_reported":1736824180,"current_range_meters":2000,"station_id":"ce4bha12rcd13ifvqef0","pricing_plan_id":"cebpf4jnsgd1na2vs0mg"},{"bike_id":"b704bf42-2bc7-4506-b669-8ca7a3330fef","system_id":"levelo_inurba_marseille","lat":43.28146,"lon":5.42641,"is_reserved":false,"is_disabled":true,"rental_uris":{"android":"levelo://app?vid=b704bf42-2bc7-4506-b669-8ca7a3330fef","ios":"levelo://app?vid=b704bf42-2bc7-4506-b669-8ca7a3330fef"},"vehicle_type_id":"4","last_reported":1736824180,"current_range_meters":22800,"station_id":"ce4bhnh2rcd13ifvqgug","pricing_plan_id":"cebpf4jnsgd1na2vs0mg"},{"bike_id":"99831b3a-0ebc-409e-9166-d7b510de1ec6","system_id":"levelo_inurba_marseille","lat":43.28256,"lon":5.38812,"is_reserved":false,"is_disabled":false,"rental_uris":{"android":"levelo://app?vid=99831b3a-0ebc-409e-9166-d7b510de1ec6","ios":"levelo://app?vid=99831b3a-0ebc-409e-9166-d7b510de1ec6"},"vehicle_type_id":"4","last_reported":1736824180,"current_range_meters":37600,"station_id":"","pricing_plan_id":"cebpf4jnsgd1na2vs0mg"},{"bike_id":"04173cf6-3f87-4de7-aec7-cb0b655b8a5f","system_id":"levelo_inurba_marseille","lat":43.28457,"lon":5.35877,"is_reserved":false,"is_disabled":false,"rental_uris":{"android":"levelo://app?vid=04173cf6-3f87-4de7-aec7-cb0b655b8a5f","ios":"levelo://app?vid=04173cf6-3f87-4de7-aec7-cb0b655b8a5f"},"vehicle_type_id":"4","last_reported":1736824180,"current_range_meters":38800,"station_id":"ce4bhah2rcd13ifvqei0","pricing_plan_id":"cebpf4jnsgd1na2vs0mg"},{"bike_id":"efdf6e72-46a9-4201-b253-5e7a8c8a3bbf","system_id":"levelo_inurba_marseille","lat":43.2722,"lon":5.40936,"is_reserved":false,"is_disabled":false,"rental_uris":{"android":"levelo://app?vid=efdf6e72-46a9-4201-b253-5e7a8c8a3bbf","ios":"levelo://app?vid=efdf6e72-46a9-4201-b253-5e7a8c8a3bbf"},"vehicle_type_id":"4","last_reported":1736824180,"current_range_meters":32800,"station_id":"","pricing_plan_id":"cebpf4jnsgd1na2vs0mg"},{"bike_id":"af387531-ee60-443d-a45e-a1c347f006cc","system_id":"levelo_inurba_marseille","lat":43.283801,"lon":5.409362,"is_reserved":false,"is_disabled":true,"rental_uris":{"android":"levelo://app?vid=af387531-ee60-443d-a45e-a1c347f006cc","ios":"levelo://app?vid=af387531-ee60-443d-a45e-a1c347f006cc"},"vehicle_type_id":"4","last_reported":1736824180,"current_range_meters":0,"station_id":"","pricing_plan_id":"cebpf4jnsgd1na2vs0mg"},{"bike_id":"71458971-9319-4e7a-88fb-9f8008410aeb","system_id":"levelo_inurba_marseille","lat":43.304108,"lon":5.412902,"is_reserved":false,"is_disabled":false,"rental_uris":{"android":"levelo://app?vid=71458971-9319-4e7a-88fb-9f8008410aeb","ios":"levelo://app?vid=71458971-9319-4e7a-88fb-9f8008410aeb"},"vehicle_type_id":"4","last_reported":1736824180,"current_range_meters":27600,"station_id":"ce4bhop2rcd13ifvqh8g","pricing_plan_id":"cebpf4jnsgd1na2vs0mg"},{"bike_id":"f62a7ed4-7c80-4ed8-9568-a4dea62069d1","system_id":"levelo_inurba_marseille","lat":43.280909,"lon":5.396559,"is_reserved":false,"is_disabled":false,"rental_uris":{"android":"levelo://app?vid=f62a7ed4-7c80-4ed8-9568-a4dea62069d1","ios":"levelo://app?vid=f62a7ed4-7c80-4ed8-9568-a4dea62069d1"},"vehicle_type_id":"4","last_reported":1736824180,"current_range_meters":26800,"station_id":"ce4bho12rcd13ifvqh2g","pricing_plan_id":"cebpf4jnsgd1na2vs0mg"},{"bike_id":"01a115ba-0c2d-4dc9-a8a5-403816873798","system_id":"levelo_inurba_marseille","lat":43.27921,"lon":5.3958,"is_reserved":false,"is_disabled":false,"rental_uris":{"android":"levelo://app?vid=01a115ba-0c2d-4dc9-a8a5-403816873798","ios":"levelo://app?vid=01a115ba-0c2d-4dc9-a8a5-403816873798"},"vehicle_type_id":"4","last_reported":1736824180,"current_range_meters":27600,"station_id":"ce4bhf92rcd13ifvqf40","pricing_plan_id":"cebpf4jnsgd1na2vs0mg"},{"bike_id":"8771d255-2a69-4ce2-b970-b912eeba4555","system_id":"levelo_inurba_marseille","lat":43.28032,"lon":5.36957,"is_reserved":false,"is_disabled":false,"rental_uris":{"android":"levelo://app?vid=8771d255-2a69-4ce2-b970-b912eeba4555","ios":"levelo://app?vid=8771d255-2a69-4ce2-b970-b912eeba4555"},"vehicle_type_id":"4","last_reported":1736824180,"current_range_meters":27200,"station_id":"ce4bha12rcd13ifvqef0","pricing_plan_id":"cebpf4jnsgd1na2vs0mg"},{"bike_id":"1c545887-c370-4af0-91fd-cbb590adeb64","system_id":"levelo_inurba_marseille","lat":43.30779,"lon":5.37642,"is_reserved":false,"is_disabled":false,"rental_uris":{"android":"levelo://app?vid=1c545887-c370-4af0-91fd-cbb590adeb64","ios":"levelo://app?vid=1c545887-c370-4af0-91fd-cbb590adeb64"},"vehicle_type_id":"4","last_reported":1736824180,"current_range_meters":38000,"station_id":"ce4bgv92rcd13ifvqcq0","pricing_plan_id":"cebpf4jnsgd1na2vs0mg"},{"bike_id":"2ac5d086-ba2c-4c68-8515-9cd6aee6e212","system_id":"levelo_inurba_marseille","lat":43.31339,"lon":5.39711,"is_reserved":false,"is_disabled":false,"rental_uris":{"android":"levelo://app?vid=2ac5d086-ba2c-4c68-8515-9cd6aee6e212","ios":"levelo://app?vid=2ac5d086-ba2c-4c68-8515-9cd6aee6e212"},"vehicle_type_id":"4","last_reported":1736824180,"current_range_meters":38800,"station_id":"ce4bgvp2rcd13ifvqcu0","pricing_plan_id":"cebpf4jnsgd1na2vs0mg"},{"bike_id":"b560f55a-95c8-41f5-8bf0-866c9d6c5d56","system_id":"levelo_inurba_marseille","lat":43.27933,"lon":5.41054,"is_reserved":false,"is_disabled":false,"rental_uris":{"android":"levelo://app?vid=b560f55a-95c8-41f5-8bf0-866c9d6c5d56","ios":"levelo://app?vid=b560f55a-95c8-41f5-8bf0-866c9d6c5d56"},"vehicle_type_id":"4","last_reported":1736824180,"current_range_meters":11200,"station_id":"ce4bhnp2rcd13ifvqh0g","pricing_plan_id":"cebpf4jnsgd1na2vs0mg"},{"bike_id":"3147198e-f7af-4d86-8baa-2dd97c18f4ad","system_id":"levelo_inurba_marseille","lat":43.311197,"lon":5.377586,"is_reserved":false,"is_disabled":false,"rental_uris":{"android":"levelo://app?vid=3147198e-f7af-4d86-8baa-2dd97c18f4ad","ios":"levelo://app?vid=3147198e-f7af-4d86-8baa-2dd97c18f4ad"},"vehicle_type_id":"4","last_reported":1736824180,"current_range_meters":38400,"station_id":"ce4bgt92rcd13ifvqcg0","pricing_plan_id":"cebpf4jnsgd1na2vs0mg"},{"bike_id":"31240ca4-9f64-4406-9c52-14b4354e548c","system_id":"levelo_inurba_marseille","lat":43.286216,"lon":5.35102,"is_reserved":false,"is_disabled":false,"rental_uris":{"android":"levelo://app?vid=31240ca4-9f64-4406-9c52-14b4354e548c","ios":"levelo://app?vid=31240ca4-9f64-4406-9c52-14b4354e548c"},"vehicle_type_id":"4","last_reported":1736824180,"current_range_meters":30400,"station_id":"ce4bhch2rcd13ifvqeug","pricing_plan_id":"cebpf4jnsgd1na2vs0mg"},{"bike_id":"4450aa92-2df8-4686-aa7c-57edfca71699","system_id":"levelo_inurba_marseille","lat":43.31712,"lon":5.43699,"is_reserved":false,"is_disabled":false,"rental_uris":{"android":"levelo://app?vid=4450aa92-2df8-4686-aa7c-57edfca71699","ios":"levelo://app?vid=4450aa92-2df8-4686-aa7c-57edfca71699"},"vehicle_type_id":"4","last_reported":1736824180,"current_range_meters":36800,"station_id":"ce4bhp92rcd13ifvqhcg","pricing_plan_id":"cebpf4jnsgd1na2vs0mg"},{"bike_id":"c57da018-bfbb-4cbc-9a23-aaed6c1fa365","system_id":"levelo_inurba_marseille","lat":43.27619,"lon":5.36109,"is_reserved":false,"is_disabled":false,"rental_uris":{"android":"levelo://app?vid=c57da018-bfbb-4cbc-9a23-aaed6c1fa365","ios":"levelo://app?vid=c57da018-bfbb-4cbc-9a23-aaed6c1fa365"},"vehicle_type_id":"4","last_reported":1736824180,"current_range_meters":35200,"station_id":"ce4bgj92rcd13ifvqbe0","pricing_plan_id":"cebpf4jnsgd1na2vs0mg"},{"bike_id":"221f4a6e-610a-4c65-84df-73db7b6350f1","system_id":"levelo_inurba_marseille","lat":43.2648,"lon":5.39576,"is_reserved":false,"is_disabled":false,"rental_uris":{"android":"levelo://app?vid=221f4a6e-610a-4c65-84df-73db7b6350f1","ios":"levelo://app?vid=221f4a6e-610a-4c65-84df-73db7b6350f1"},"vehicle_type_id":"4","last_reported":1736824180,"current_range_meters":12400,"station_id":"ce4bhi12rcd13ifvqfq0","pricing_plan_id":"cebpf4jnsgd1na2vs0mg"},{"bike_id":"9f73596c-b166-420e-ba3f-20bc292abfe8","system_id":"levelo_inurba_marseille","lat":43.3013,"lon":5.37414,"is_reserved":false,"is_disabled":false,"rental_uris":{"android":"levelo://app?vid=9f73596c-b166-420e-ba3f-20bc292abfe8","ios":"levelo://app?vid=9f73596c-b166-420e-ba3f-20bc292abfe8"},"vehicle_type_id":"4","last_reported":1736824180,"current_range_meters":38400,"station_id":"ce4bgs92rcd13ifvqcc0","pricing_plan_id":"cebpf4jnsgd1na2vs0mg"},{"bike_id":"978cf5ba-7ca2-48b0-8fa5-79ef9769d0ae","system_id":"levelo_inurba_marseille","lat":43.25866,"lon":5.39892,"is_reserved":false,"is_disabled":false,"rental_uris":{"android":"levelo://app?vid=978cf5ba-7ca2-48b0-8fa5-79ef9769d0ae","ios":"levelo://app?vid=978cf5ba-7ca2-48b0-8fa5-79ef9769d0ae"},"vehicle_type_id":"4","last_reported":1736824180,"current_range_meters":38800,"station_id":"ce4bhl92rcd13ifvqghg","pricing_plan_id":"cebpf4jnsgd1na2vs0mg"},{"bike_id":"a7ef986d-d54a-4d7d-a996-fbacf775287a","system_id":"levelo_inurba_marseille","lat":43.286993,"lon":5.373924,"is_reserved":false,"is_disabled":false,"rental_uris":{"android":"levelo://app?vid=a7ef986d-d54a-4d7d-a996-fbacf775287a","ios":"levelo://app?vid=a7ef986d-d54a-4d7d-a996-fbacf775287a"},"vehicle_type_id":"4","last_reported":1736824180,"current_range_meters":19600,"station_id":"ce4bh3p2rcd13ifvqdq0","pricing_plan_id":"cebpf4jnsgd1na2vs0mg"},{"bike_id":"bc0fc0ae-91df-407f-93bf-ca0740b6d5e2","system_id":"levelo_inurba_marseille","lat":43.25505,"lon":5.37644,"is_reserved":false,"is_disabled":false,"rental_uris":{"android":"levelo://app?vid=bc0fc0ae-91df-407f-93bf-ca0740b6d5e2","ios":"levelo://app?vid=bc0fc0ae-91df-407f-93bf-ca0740b6d5e2"},"vehicle_type_id":"4","last_reported":1736824180,"current_range_meters":36400,"station_id":"ce4bhh12rcd13ifvqff0","pricing_plan_id":"cebpf4jnsgd1na2vs0mg"},{"bike_id":"6a82c774-38ee-4c22-8c3e-234efb64295f","system_id":"levelo_inurba_marseille","lat":43.30158,"lon":5.37377,"is_reserved":false,"is_disabled":false,"rental_uris":{"android":"levelo://app?vid=6a82c774-38ee-4c22-8c3e-234efb64295f","ios":"levelo://app?vid=6a82c774-38ee-4c22-8c3e-234efb64295f"},"vehicle_type_id":"4","last_reported":1736824180,"current_range_meters":38800,"station_id":"ce4bgs92rcd13ifvqcc0","pricing_plan_id":"cebpf4jnsgd1na2vs0mg"},{"bike_id":"739b9309-56f3-4b21-b61d-ade9ae6cc990","system_id":"levelo_inurba_marseille","lat":43.29265,"lon":5.40127,"is_reserved":false,"is_disabled":true,"rental_uris":{"android":"levelo://app?vid=739b9309-56f3-4b21-b61d-ade9ae6cc990","ios":"levelo://app?vid=739b9309-56f3-4b21-b61d-ade9ae6cc990"},"vehicle_type_id":"4","last_reported":1736824180,"current_range_meters":36800,"station_id":"ce4bh312rcd13ifvqdk0","pricing_plan_id":"cebpf4jnsgd1na2vs0mg"},{"bike_id":"80c35a06-feb7-4b4b-b8b0-90b97a94e865","system_id":"levelo_inurba_marseille","lat":43.30094,"lon":5.39073,"is_reserved":false,"is_disabled":false,"rental_uris":{"android":"levelo://app?vid=80c35a06-feb7-4b4b-b8b0-90b97a94e865","ios":"levelo://app?vid=80c35a06-feb7-4b4b-b8b0-90b97a94e865"},"vehicle_type_id":"4","last_reported":1736824180,"current_range_meters":38000,"station_id":"ce4bh192rcd13ifvqdb0","pricing_plan_id":"cebpf4jnsgd1na2vs0mg"},{"bike_id":"f7e8f7f7-721b-47a0-aeb2-457ccd531561","system_id":"levelo_inurba_marseille","lat":43.32357,"lon":5.38888,"is_reserved":false,"is_disabled":false,"rental_uris":{"android":"levelo://app?vid=f7e8f7f7-721b-47a0-aeb2-457ccd531561","ios":"levelo://app?vid=f7e8f7f7-721b-47a0-aeb2-457ccd531561"},"vehicle_type_id":"4","last_reported":1736824180,"current_range_meters":28800,"station_id":"ce4bhqp2rcd13ifvqhog","pricing_plan_id":"cebpf4jnsgd1na2vs0mg"},{"bike_id":"3c3c287f-e835-4040-bdb7-259026d8f5b9","system_id":"levelo_inurba_marseille","lat":43.29053,"lon":5.38155,"is_reserved":false,"is_disabled":true,"rental_uris":{"android":"levelo://app?vid=3c3c287f-e835-4040-bdb7-259026d8f5b9","ios":"levelo://app?vid=3c3c287f-e835-4040-bdb7-259026d8f5b9"},"vehicle_type_id":"4","last_reported":1736824180,"current_range_meters":0,"station_id":"","pricing_plan_id":"cebpf4jnsgd1na2vs0mg"},{"bike_id":"d93983d5-ce14-4453-adb6-eca901e85853","system_id":"levelo_inurba_marseille","lat":43.30637,"lon":5.40079,"is_reserved":false,"is_disabled":false,"rental_uris":{"android":"levelo://app?vid=d93983d5-ce14-4453-adb6-eca901e85853","ios":"levelo://app?vid=d93983d5-ce14-4453-adb6-eca901e85853"},"vehicle_type_id":"4","last_reported":1736824180,"current_range_meters":38400,"station_id":"ce4bh112rcd13ifvqda0","pricing_plan_id":"cebpf4jnsgd1na2vs0mg"},{"bike_id":"0904d16b-18ab-4903-a592-a14efb4761ff","system_id":"levelo_inurba_marseille","lat":43.27546,"lon":5.38431,"is_reserved":false,"is_disabled":false,"rental_uris":{"android":"levelo://app?vid=0904d16b-18ab-4903-a592-a14efb4761ff","ios":"levelo://app?vid=0904d16b-18ab-4903-a592-a14efb4761ff"},"vehicle_type_id":"4","last_reported":1736824180,"current_range_meters":38000,"station_id":"ce4bhh92rcd13ifvqfi0","pricing_plan_id":"cebpf4jnsgd1na2vs0mg"},{"bike_id":"9f490960-07dc-47e0-a08b-9e14360727a2","system_id":"levelo_inurba_marseille","lat":43.29537,"lon":5.39035,"is_reserved":false,"is_disabled":false,"rental_uris":{"android":"levelo://app?vid=9f490960-07dc-47e0-a08b-9e14360727a2","ios":"levelo://app?vid=9f490960-07dc-47e0-a08b-9e14360727a2"},"vehicle_type_id":"4","last_reported":1736824180,"current_range_meters":36400,"station_id":"ce4bh3p2rcd13ifvqdp0","pricing_plan_id":"cebpf4jnsgd1na2vs0mg"},{"bike_id":"f8e22307-a1e3-42d9-85c8-12a8587fea9b","system_id":"levelo_inurba_marseille","lat":43.31329,"lon":5.39715,"is_reserved":false,"is_disabled":false,"rental_uris":{"android":"levelo://app?vid=f8e22307-a1e3-42d9-85c8-12a8587fea9b","ios":"levelo://app?vid=f8e22307-a1e3-42d9-85c8-12a8587fea9b"},"vehicle_type_id":"4","last_reported":1736824180,"current_range_meters":37600,"station_id":"ce4bgvp2rcd13ifvqcu0","pricing_plan_id":"cebpf4jnsgd1na2vs0mg"},{"bike_id":"41922604-c7b8-4e93-9da5-3903771d7233","system_id":"levelo_inurba_marseille","lat":43.24808,"lon":5.37449,"is_reserved":false,"is_disabled":false,"rental_uris":{"android":"levelo://app?vid=41922604-c7b8-4e93-9da5-3903771d7233","ios":"levelo://app?vid=41922604-c7b8-4e93-9da5-3903771d7233"},"vehicle_type_id":"4","last_reported":1736824180,"current_range_meters":24400,"station_id":"ce4bhgh2rcd13ifvqfb0","pricing_plan_id":"cebpf4jnsgd1na2vs0mg"},{"bike_id":"3080ca5b-13fd-4859-9a7c-641fe307af16","system_id":"levelo_inurba_marseille","lat":43.25002,"lon":5.38917,"is_reserved":false,"is_disabled":false,"rental_uris":{"android":"levelo://app?vid=3080ca5b-13fd-4859-9a7c-641fe307af16","ios":"levelo://app?vid=3080ca5b-13fd-4859-9a7c-641fe307af16"},"vehicle_type_id":"4","last_reported":1736824180,"current_range_meters":28000,"station_id":"ce4bhgp2rcd13ifvqfd0","pricing_plan_id":"cebpf4jnsgd1na2vs0mg"},{"bike_id":"b3989067-f48e-48e8-9f72-9d04db4132b9","system_id":"levelo_inurba_marseille","lat":43.30835,"lon":5.38162,"is_reserved":false,"is_disabled":true,"rental_uris":{"android":"levelo://app?vid=b3989067-f48e-48e8-9f72-9d04db4132b9","ios":"levelo://app?vid=b3989067-f48e-48e8-9f72-9d04db4132b9"},"vehicle_type_id":"4","last_reported":1736824180,"current_range_meters":31200,"station_id":"ce4bgt12rcd13ifvqce0","pricing_plan_id":"cebpf4jnsgd1na2vs0mg"},{"bike_id":"b11d8398-3e94-43f6-9dde-8830aae0586e","system_id":"levelo_inurba_marseille","lat":43.28561,"lon":5.39499,"is_reserved":false,"is_disabled":false,"rental_uris":{"android":"levelo://app?vid=b11d8398-3e94-43f6-9dde-8830aae0586e","ios":"levelo://app?vid=b11d8398-3e94-43f6-9dde-8830aae0586e"},"vehicle_type_id":"4","last_reported":1736824180,"current_range_meters":36000,"station_id":"ce4bh292rcd13ifvqdg0","pricing_plan_id":"cebpf4jnsgd1na2vs0mg"},