{"last_updated":1707167152,"ttl":30,"version":"2.2","data":{"bikes":[{"bike_id":"80412f94-c2d0-4531-a8d3-e73e78ed5604","system_id":"levelo_inurba_marseille","lat":43.312239,"lon":5.368562,"is_reserved":false,"is_disabled":false,"rental_uris":{"android":"levelo://app?vid=80412f94-c2d0-4531-a8d3-e73e78ed5604","ios":"levelo://app?vid=80412f94-c2d0-4531-a8d3-e73e78ed5604"},"vehicle_type_id":"4","last_reported":1707167152,"current_range_meters":23200,"station_id":"ce4bgl92rcd13ifvqbq0","pricing_plan_id":"free"},{"bike_id":"73dbda8f-0bab-4cad-bdfd-050d2837173a","system_id":"levelo_inurba_marseille","lat":43.314811,"lon":5.373103,"is_reserved":false,"is_disabled":false,"rental_uris":{"android":"levelo://app?vid=73dbda8f-0bab-4cad-bdfd-050d2837173a","ios":"levelo://app?vid=73dbda8f-0bab-4cad-bdfd-050d2837173a"},"vehicle_type_id":"4","last_reported":1707167152,"current_range_meters":800,"station_id":"ce4bgt12rcd13ifvqcd0","pricing_plan_id":"free"},{"bike_id":"5e2c4ce9-6ec2-4459-b07e-ee3d4902e597","system_id":"levelo_inurba_marseille","lat":43.30627,"lon":5.36576,"is_reserved":false,"is_disabled":false,"rental_uris":{"android":"levelo://app?vid=5e2c4ce9-6ec2-4459-b07e-ee3d4902e597","ios":"levelo://app?vid=5e2c4ce9-6ec2-4459-b07e-ee3d4902e597"},"vehicle_type_id":"4","last_reported":1707167152,"current_range_meters":17600,"station_id":"","pricing_plan_id":"free"},{"bike_id":"0fdcae2f-fd7a-40d1-8f2c-4b0b84fc8288","system_id":"levelo_inurba_marseille","lat":43.305706,"lon":5.365654,"is_reserved":false,"is_disabled":false,"rental_uris":{"android":"levelo://app?vid=0fdcae2f-fd7a-40d1-8f2c-4b0b84fc8288","ios":"levelo://app?vid=0fdcae2f-fd7a-40d1-8f2c-4b0b84fc8288"},"vehicle_type_id":"4","last_reported":1707167152,"current_range_meters":400,"station_id":"ce4bgs12rcd13ifvqcag","pricing_plan_id":"free"},{"bike_id":"8fe84584-0a28-48d3-89df-88458d55ba8f","system_id":"levelo_inurba_marseille","lat":43.305368,"lon":5.367343,"is_reserved":false,"is_disabled":false,"rental_uris":{"android":"levelo://app?vid=8fe84584-0a28-48d3-89df-88458d55ba8f","ios":"levelo://app?vid=8fe84584-0a28-48d3-89df-88458d55ba8f"},"vehicle_type_id":"4","last_reported":1707167152,"current_range_meters":0,"station_id":"ce4bgrp2rcd13ifvqc9g","pricing_plan_id":"free"},{"bike_id":"da3a1ce5-dcff-4188-9c8e-db1fc13aa675","system_id":"levelo_inurba_marseille","lat":43.305989,"lon":5.37225,"is_reserved":false,"is_disabled":false,"rental_uris":{"android":"levelo://app?vid=da3a1ce5-dcff-4188-9c8e-db1fc13aa675","ios":"levelo://app?vid=da3a1ce5-dcff-4188-9c8e-db1fc13aa675"},"vehicle_type_id":"4","last_reported":1707167152,"current_range_meters":17200,"station_id":"ce4bgqh2rcd13ifvqc4g","pricing_plan_id":"free"},{"bike_id":"0c0f3852-7491-4e36-9d00-6370e30c1f53","system_id":"levelo_inurba_marseille","lat":43.305989,"lon":5.37225,"is_reserved":false,"is_disabled":false,"rental_uris":{"android":"levelo://app?vid=0c0f3852-7491-4e36-9d00-6370e30c1f53","ios":"levelo://app?vid=0c0f3852-7491-4e36-9d00-6370e30c1f53"},"vehicle_type_id":"4","last_reported":1707167152,"current_range_meters":14400,"station_id":"ce4bgqh2rcd13ifvqc4g","pricing_plan_id":"free"},{"bike_id":"810b39c9-d068-460e-aff8-a829aad007f4","system_id":"levelo_inurba_marseille","lat":43.305989,"lon":5.37225,"is_reserved":false,"is_disabled":false,"rental_uris":{"android":"levelo://app?vid=810b39c9-d068-460e-aff8-a829aad007f4","ios":"levelo://app?vid=810b39c9-d068-460e-aff8-a829aad007f4"},"vehicle_type_id":"4","last_reported":1707167152,"current_range_meters":26400,"station_id":"ce4bgqh2rcd13ifvqc4g","pricing_plan_id":"free"},{"bike_id":"1693d5dd-c74a-4048-9a20-78f31ad4c84e","system_id":"levelo_inurba_marseille","lat":43.311125,"lon":5.377624,"is_reserved":false,"is_disabled":false,"rental_uris":{"android":"levelo://app?vid=1693d5dd-c74a-4048-9a20-78f31ad4c84e","ios":"levelo://app?vid=1693d5dd-c74a-4048-9a20-78f31ad4c84e"},"vehicle_type_id":"4","last_reported":1707167152,"current_range_meters":15600,"station_id":"ce4bgt92rcd13ifvqcg0","pricing_plan_id":"free"},{"bike_id":"d869b894-5ea0-4cb5-ade4-07f1016675cc","system_id":"levelo_inurba_marseille","lat":43.31125,"lon":5.37771,"is_reserved":false,"is_disabled":false,"rental_uris":{"android":"levelo://app?vid=d869b894-5ea0-4cb5-ade4-07f1016675cc","ios":"levelo://app?vid=d869b894-5ea0-4cb5-ade4-07f1016675cc"},"vehicle_type_id":"4","last_reported":1707167152,"current_range_meters":4800,"station_id":"ce4bgt92rcd13ifvqcg0","pricing_plan_id":"free"},{"bike_id":"98de5ce1-a00e-4ddf-9acf-f925c33042e5","system_id":"levelo_inurba_marseille","lat":43.3112,"lon":5.3777,"is_reserved":false,"is_disabled":false,"rental_uris":{"android":"levelo://app?vid=98de5ce1-a00e-4ddf-9acf-f925c33042e5","ios":"levelo://app?vid=98de5ce1-a00e-4ddf-9acf-f925c33042e5"},"vehicle_type_id":"4","last_reported":1707167152,"current_range_meters":0,"station_id":"ce4bgt92rcd13ifvqcg0","pricing_plan_id":"free"},{"bike_id":"9f627477-7ccf-4709-b6be-75724d7504d3","system_id":"levelo_inurba_marseille","lat":43.311214,"lon":5.377721,"is_reserved":false,"is_disabled":false,"rental_uris":{"android":"levelo://app?vid=9f627477-7ccf-4709-b6be-75724d7504d3","ios":"levelo://app?vid=9f627477-7ccf-4709-b6be-75724d7504d3"},"vehicle_type_id":"4","last_reported":1707167152,"current_range_meters":30000,"station_id":"ce4bgt92rcd13ifvqcg0","pricing_plan_id":"free"},{"bike_id":"4cef5466-f755-4790-8869-ac4743470f82","system_id":"levelo_inurba_marseille","lat":43.311125,"lon":5.377624,"is_reserved":false,"is_disabled":false,"rental_uris":{"android":"levelo://app?vid=4cef5466-f755-4790-8869-ac4743470f82","ios":"levelo://app?vid=4cef5466-f755-4790-8869-ac4743470f82"},"vehicle_type_id":"4","last_reported":1707167152,"current_range_meters":12800,"station_id":"ce4bgt92rcd13ifvqcg0","pricing_plan_id":"free"},{"bike_id":"e00c74e5-4282-47e4-aa1c-cd7f1b7c0cc9","system_id":"levelo_inurba_marseille","lat":43.307945,"lon":5.376487,"is_reserved":false,"is_disabled":false,"rental_uris":{"android":"levelo://app?vid=e00c74e5-4282-47e4-aa1c-cd7f1b7c0cc9","ios":"levelo://app?vid=e00c74e5-4282-47e4-aa1c-cd7f1b7c0cc9"},"vehicle_type_id":"4","last_reported":1707167152,"current_range_meters":12000,"station_id":"ce4bgv92rcd13ifvqcq0","pricing_plan_id":"free"},{"bike_id":"01d5dcf5-c416-4815-884a-8fb92230de22","system_id":"levelo_inurba_marseille","lat":43.307945,"lon":5.376487,"is_reserved":false,"is_disabled":false,"rental_uris":{"android":"levelo://app?vid=01d5dcf5-c416-4815-884a-8fb92230de22","ios":"levelo://app?vid=01d5dcf5-c416-4815-884a-8fb92230de22"},"vehicle_type_id":"4","last_reported":1707167152,"current_range_meters":21600,"station_id":"ce4bgv92rcd13ifvqcq0","pricing_plan_id":"free"},{"bike_id":"929beef4-557d-4b94-b906-93bdb251d0fc","system_id":"levelo_inurba_marseille","lat":43.30783,"lon":5.37654,"is_reserved":false,"is_disabled":false,"rental_uris":{"android":"levelo://app?vid=929beef4-557d-4b94-b906-93bdb251d0fc","ios":"levelo://app?vid=929beef4-557d-4b94-b906-93bdb251d0fc"},"vehicle_type_id":"4","last_reported":1707167152,"current_range_meters":4000,"station_id":"ce4bgv92rcd13ifvqcq0","pricing_plan_id":"free"},{"bike_id":"720e0343-79e1-4a7f-b67b-a5e9e8907370","system_id":"levelo_inurba_marseille","lat":43.31712,"lon":5.37766,"is_reserved":false,"is_disabled":false,"rental_uris":{"android":"levelo://app?vid=720e0343-79e1-4a7f-b67b-a5e9e8907370","ios":"levelo://app?vid=720e0343-79e1-4a7f-b67b-a5e9e8907370"},"vehicle_type_id":"4","last_reported":1707167152,"current_range_meters":0,"station_id":"ce4bgth2rcd13ifvqch0","pricing_plan_id":"free"},{"bike_id":"90ef99e6-59f3-4e77-9d74-34fbad5b262d","system_id":"levelo_inurba_marseille","lat":43.30312,"lon":5.36887,"is_reserved":false,"is_disabled":false,"rental_uris":{"android":"levelo://app?vid=90ef99e6-59f3-4e77-9d74-34fbad5b262d","ios":"levelo://app?vid=90ef99e6-59f3-4e77-9d74-34fbad5b262d"},"vehicle_type_id":"4","last_reported":1707167152,"current_range_meters":28400,"station_id":"ce4bgqh2rcd13ifvqc5g","pricing_plan_id":"free"},{"bike_id":"b93f270d-a107-48ad-8b4a-532afb5fe8db","system_id":"levelo_inurba_marseille","lat":43.315293,"lon":5.380349,"is_reserved":false,"is_disabled":false,"rental_uris":{"android":"levelo://app?vid=b93f270d-a107-48ad-8b4a-532afb5fe8db","ios":"levelo://app?vid=b93f270d-a107-48ad-8b4a-532afb5fe8db"},"vehicle_type_id":"4","last_reported":1707167152,"current_range_meters":30000,"station_id":"ce4bhsp2rcd13ifvqi50","pricing_plan_id":"free"},{"bike_id":"124eee7d-dbc9-4171-a77d-06d77282256a","system_id":"levelo_inurba_marseille","lat":43.308012,"lon":5.381511,"is_reserved":false,"is_disabled":false,"rental_uris":{"android":"levelo://app?vid=124eee7d-dbc9-4171-a77d-06d77282256a","ios":"levelo://app?vid=124eee7d-dbc9-4171-a77d-06d77282256a"},"vehicle_type_id":"4","last_reported":1707167152,"current_range_meters":31200,"station_id":"ce4bgt12rcd13ifvqce0","pricing_plan_id":"free"},{"bike_id":"029050c2-6172-4e20-a96e-dfca5547c97b","system_id":"levelo_inurba_marseille","lat":43.308012,"lon":5.381511,"is_reserved":false,"is_disabled":false,"rental_uris":{"android":"levelo://app?vid=029050c2-6172-4e20-a96e-dfca5547c97b","ios":"levelo://app?vid=029050c2-6172-4e20-a96e-dfca5547c97b"},"vehicle_type_id":"4","last_reported":1707167152,"current_range_meters":31200,"station_id":"ce4bgt12rcd13ifvqce0","pricing_plan_id":"free"},{"bike_id":"7b6c792e-4ce7-4fed-bd87-f69a6c028290","system_id":"levelo_inurba_marseille","lat":43.308012,"lon":5.381511,"is_reserved":false,"is_disabled":false,"rental_uris":{"android":"levelo://app?vid=7b6c792e-4ce7-4fed-bd87-f69a6c028290","ios":"levelo://app?vid=7b6c792e-4ce7-4fed-bd87-f69a6c028290"},"vehicle_type_id":"4","last_reported":1707167152,"current_range_meters":13200,"station_id":"ce4bgt12rcd13ifvqce0","pricing_plan_id":"free"},{"bike_id":"88c08848-7b21-4e20-852c-6b45b128fecc","system_id":"levelo_inurba_marseille","lat":43.308012,"lon":5.381511,"is_reserved":false,"is_disabled":false,"rental_uris":{"android":"levelo://app?vid=88c08848-7b21-4e20-852c-6b45b128fecc","ios":"levelo://app?vid=88c08848-7b21-4e20-852c-6b45b128fecc"},"vehicle_type_id":"4","last_reported":1707167152,"current_range_meters":22000,"station_id":"ce4bgt12rcd13ifvqce0","pricing_plan_id":"free"},{"bike_id":"d0b4ff06-82aa-4d6c-a7bb-410d5f248bde","system_id":"levelo_inurba_marseille","lat":43.308012,"lon":5.381511,"is_reserved":false,"is_disabled":false,"rental_uris":{"android":"levelo://app?vid=d0b4ff06-82aa-4d6c-a7bb-410d5f248bde","ios":"levelo://app?vid=d0b4ff06-82aa-4d6c-a7bb-410d5f248bde"},"vehicle_type_id":"4","last_reported":1707167152,"current_range_meters":24000,"station_id":"ce4bgt12rcd13ifvqce0","pricing_plan_id":"free"},{"bike_id":"af194b2f-e009-4732-aa23-9b2c04ad31e7","system_id":"levelo_inurba_marseille","lat":43.324771,"lon":5.36557,"is_reserved":false,"is_disabled":false,"rental_uris":{"android":"levelo://app?vid=af194b2f-e009-4732-aa23-9b2c04ad31e7","ios":"levelo://app?vid=af194b2f-e009-4732-aa23-9b2c04ad31e7"},"vehicle_type_id":"4","last_reported":1707167152,"current_range_meters":8400,"station_id":"ce4bhs12rcd13ifvqhvg","pricing_plan_id":"free"},{"bike_id":"dab176e5-b901-462f-b780-4d4f13205619","system_id":"levelo_inurba_marseille","lat":43.324771,"lon":5.36557,"is_reserved":false,"is_disabled":false,"rental_uris":{"android":"levelo://app?vid=dab176e5-b901-462f-b780-4d4f13205619","ios":"levelo://app?vid=dab176e5-b901-462f-b780-4d4f13205619"},"vehicle_type_id":"4","last_reported":1707167152,"current_range_meters":27600,"station_id":"ce4bhs12rcd13ifvqhvg","pricing_plan_id":"free"},{"bike_id":"2a2951e9-2fd8-4fe4-91dd-d08909f6b091","system_id":"levelo_inurba_marseille","lat":43.310804,"lon":5.38359,"is_reserved":false,"is_disabled":false,"rental_uris":{"android":"levelo://app?vid=2a2951e9-2fd8-4fe4-91dd-d08909f6b091","ios":"levelo://app?vid=2a2951e9-2fd8-4fe4-91dd-d08909f6b091"},"vehicle_type_id":"4","last_reported":1707167152,"current_range_meters":9600,"station_id":"ce4bgv92rcd13ifvqcr0","pricing_plan_id":"free"},{"bike_id":"bbce9044-ada2-4ca7-9e4f-2e7fff72f1ae","system_id":"levelo_inurba_marseille","lat":43.310804,"lon":5.38359,"is_reserved":false,"is_disabled":false,"rental_uris":{"android":"levelo://app?vid=bbce9044-ada2-4ca7-9e4f-2e7fff72f1ae","ios":"levelo://app?vid=bbce9044-ada2-4ca7-9e4f-2e7fff72f1ae"},"vehicle_type_id":"4","last_reported":1707167152,"current_range_meters":6800,"station_id":"ce4bgv92rcd13ifvqcr0","pricing_plan_id":"free"},{"bike_id":"e6e36ede-6a48-4fdf-aa6a-82c9fd78d5b8","system_id":"levelo_inurba_marseille","lat":43.310804,"lon":5.38359,"is_reserved":false,"is_disabled":false,"rental_uris":{"android":"levelo://app?vid=e6e36ede-6a48-4fdf-aa6a-82c9fd78d5b8","ios":"levelo://app?vid=e6e36ede-6a48-4fdf-aa6a-82c9fd78d5b8"},"vehicle_type_id":"4","last_reported":1707167152,"current_range_meters":29600,"station_id":"ce4bgv92rcd13ifvqcr0","pricing_plan_id":"free"},{"bike_id":"e9a7485a-8cad-45c3-8928-37f47000aaf6","system_id":"levelo_inurba_marseille","lat":43.310804,"lon":5.38359,"is_reserved":false,"is_disabled":false,"rental_uris":{"android":"levelo://app?vid=e9a7485a-8cad-45c3-8928-37f47000aaf6","ios":"levelo://app?vid=e9a7485a-8cad-45c3-8928-37f47000aaf6"},"vehicle_type_id":"4","last_reported":1707167152,"current_range_meters":16000,"station_id":"ce4bgv92rcd13ifvqcr0","pricing_plan_id":"free"},{"bike_id":"1cdc8df9-000e-4e0e-a6f3-f37b19fd07b2","system_id":"levelo_inurba_marseille","lat":43.31991,"lon":5.38156,"is_reserved":false,"is_disabled":false,"rental_uris":{"android":"levelo://app?vid=1cdc8df9-000e-4e0e-a6f3-f37b19fd07b2","ios":"levelo://app?vid=1cdc8df9-000e-4e0e-a6f3-f37b19fd07b2"},"vehicle_type_id":"4","last_reported":1707167152,"current_range_meters":800,"station_id":"ce4bhr12rcd13ifvqhpg","pricing_plan_id":"free"},{"bike_id":"12ce1b51-e513-48d4-8826-d38689553faa","system_id":"levelo_inurba_marseille","lat":43.31998,"lon":5.38152,"is_reserved":false,"is_disabled":false,"rental_uris":{"android":"levelo://app?vid=12ce1b51-e513-48d4-8826-d38689553faa","ios":"levelo://app?vid=12ce1b51-e513-48d4-8826-d38689553faa"},"vehicle_type_id":"4","last_reported":1707167152,"current_range_meters":1600,"station_id":"ce4bhr12rcd13ifvqhpg","pricing_plan_id":"free"},{"bike_id":"d91ddaaf-996a-434e-b562-f2ffb54f2299","system_id":"levelo_inurba_marseille","lat":43.319976,"lon":5.381546,"is_reserved":false,"is_disabled":false,"rental_uris":{"android":"levelo://app?vid=d91ddaaf-996a-434e-b562-f2ffb54f2299","ios":"levelo://app?vid=d91ddaaf-996a-434e-b562-f2ffb54f2299"},"vehicle_type_id":"4","last_reported":1707167152,"current_range_meters":4000,"station_id":"ce4bhr12rcd13ifvqhpg","pricing_plan_id":"free"},{"bike_id":"2b9206d7-f3be-4516-95f3-0cd0f4a3318b","system_id":"levelo_inurba_marseille","lat":43.31995,"lon":5.38162,"is_reserved":false,"is_disabled":false,"rental_uris":{"android":"levelo://app?vid=2b9206d7-f3be-4516-95f3-0cd0f4a3318b","ios":"levelo://app?vid=2b9206d7-f3be-4516-95f3-0cd0f4a3318b"},"vehicle_type_id":"4","last_reported":1707167152,"current_range_meters":20800,"station_id":"ce4bhr12rcd13ifvqhpg","pricing_plan_id":"free"},{"bike_id":"1e501507-574b-4e34-88e8-57549202ca70","system_id":"levelo_inurba_marseille","lat":43.31372,"lon":5.38491,"is_reserved":false,"is_disabled":false,"rental_uris":{"android":"levelo://app?vid=1e501507-574b-4e34-88e8-57549202ca70","ios":"levelo://app?vid=1e501507-574b-4e34-88e8-57549202ca70"},"vehicle_type_id":"4","last_reported":1707167152,"current_range_meters":18000,"station_id":"ce4bgt92rcd13ifvqcf0","pricing_plan_id":"free"},{"bike_id":"6996c76a-7f7b-47a8-8b97-4e0c49861d04","system_id":"levelo_inurba_marseille","lat":43.299724,"lon":5.371829,"is_reserved":false,"is_disabled":false,"rental_uris":{"android":"levelo://app?vid=6996c76a-7f7b-47a8-8b97-4e0c49861d04","ios":"levelo://app?vid=6996c76a-7f7b-47a8-8b97-4e0c49861d04"},"vehicle_type_id":"4","last_reported":1707167152,"current_range_meters":16000,"station_id":"ce4bgr92rcd13ifvqc7g","pricing_plan_id":"free"},{"bike_id":"3765f6d9-605f-4b9a-b247-534fed5a17df","system_id":"levelo_inurba_marseille","lat":43.299209,"lon":5.365547,"is_reserved":false,"is_disabled":false,"rental_uris":{"android":"levelo://app?vid=3765f6d9-605f-4b9a-b247-534fed5a17df","ios":"levelo://app?vid=3765f6d9-605f-4b9a-b247-534fed5a17df"},"vehicle_type_id":"4","last_reported":1707167152,"current_range_meters":12400,"station_id":"ce4bgm92rcd13ifvqbr0","pricing_plan_id":"free"},{"bike_id":"d5e8d59f-3a6f-475e-b3be-ced94aea5c6e","system_id":"levelo_inurba_marseille","lat":43.299724,"lon":5.371829,"is_reserved":false,"is_disabled":false,"rental_uris":{"android":"levelo://app?vid=d5e8d59f-3a6f-475e-b3be-ced94aea5c6e","ios":"levelo://app?vid=d5e8d59f-3a6f-475e-b3be-ced94aea5c6e"},"vehicle_type_id":"4","last_reported":1707167152,"current_range_meters":28800,"station_id":"ce4bgr92rcd13ifvqc7g","pricing_plan_id":"free"},{"bike_id":"d73908e2-2bfd-489b-804e-d4e95fac72d2","system_id":"levelo_inurba_marseille","lat":43.326525,"lon":5.36078,"is_reserved":false,"is_disabled":false,"rental_uris":{"android":"levelo://app?vid=d73908e2-2bfd-489b-804e-d4e95fac72d2","ios":"levelo://app?vid=d73908e2-2bfd-489b-804e-d4e95fac72d2"},"vehicle_type_id":"4","last_reported":1707167152,"current_range_meters":17200,"station_id":"","pricing_plan_id":"free"},{"bike_id":"d3206ae6-343c-41c5-a164-4fe5c1bebd16","system_id":"levelo_inurba_marseille","lat":43.305364,"lon":5.384119,"is_reserved":false,"is_disabled":false,"rental_uris":{"android":"levelo://app?vid=d3206ae6-343c-41c5-a164-4fe5c1bebd16","ios":"levelo://app?vid=d3206ae6-343c-41c5-a164-4fe5c1bebd16"},"vehicle_type_id":"4","last_reported":1707167152,"current_range_meters":6800,"station_id":"ce4bgg92rcd13ifvqb30","pricing_plan_id":"free"},{"bike_id":"4c37e107-c706-41ca-9256-00391d6b1474","system_id":"levelo_inurba_marseille","lat":43.305364,"lon":5.384119,"is_reserved":false,"is_disabled":false,"rental_uris":{"android":"levelo://app?vid=4c37e107-c706-41ca-9256-00391d6b1474","ios":"levelo://app?vid=4c37e107-c706-41ca-9256-00391d6b1474"},"vehicle_type_id":"4","last_reported":1707167152,"current_range_meters":30400,"station_id":"ce4bgg92rcd13ifvqb30","pricing_plan_id":"free"},{"bike_id":"50ef4410-4669-4490-9944-823e5450d96b","system_id":"levelo_inurba_marseille","lat":43.305327,"lon":5.384283,"is_reserved":false,"is_disabled":false,"rental_uris":{"android":"levelo://app?vid=50ef4410-4669-4490-9944-823e5450d96b","ios":"levelo://app?vid=50ef4410-4669-4490-9944-823e5450d96b"},"vehicle_type_id":"4","last_reported":1707167152,"current_range_meters":11200,"station_id":"ce4bgg92rcd13ifvqb30","pricing_plan_id":"free"},{"bike_id":"64a23d42-750a-4261-a71b-2e0efa217dd6","system_id":"levelo_inurba_marseille","lat":43.311722,"lon":5.387247,"is_reserved":false,"is_disabled":false,"rental_uris":{"android":"levelo://app?vid=64a23d42-750a-4261-a71b-2e0efa217dd6","ios":"levelo://app?vid=64a23d42-750a-4261-a71b-2e0efa217dd6"},"vehicle_type_id":"4","last_reported":1707167152,"current_range_meters":26800,"station_id":"ce4bgv12rcd13ifvqcp0","pricing_plan_id":"free"},{"bike_id":"69f55d5a-bc56-4c1f-9f71-69c4115cbdca","system_id":"levelo_inurba_marseille","lat":43.311722,"lon":5.387247,"is_reserved":false,"is_disabled":false,"rental_uris":{"android":"levelo://app?vid=69f55d5a-bc56-4c1f-9f71-69c4115cbdca","ios":"levelo://app?vid=69f55d5a-bc56-4c1f-9f71-69c4115cbdca"},"vehicle_type_id":"4","last_reported":1707167152,"current_range_meters":25600,"station_id":"ce4bgv12rcd13ifvqcp0","pricing_plan_id":"free"},{"bike_id":"bc8e1367-7288-4e2c-97bc-24866d8f8be9","system_id":"levelo_inurba_marseille","lat":43.299243,"lon":5.37481,"is_reserved":false,"is_disabled":false,"rental_uris":{"android":"levelo://app?vid=bc8e1367-7288-4e2c-97bc-24866d8f8be9","ios":"levelo://app?vid=bc8e1367-7288-4e2c-97bc-24866d8f8be9"},"vehicle_type_id":"4","last_reported":1707167152,"current_range_meters":9600,"station_id":"ce4bgjh2rcd13ifvqbg0","pricing_plan_id":"free"},{"bike_id":"0210949c-3f39-45fb-9d4d-ff3a27e7b63b","system_id":"levelo_inurba_marseille","lat":43.297832,"lon":5.371119,"is_reserved":false,"is_disabled":false,"rental_uris":{"android":"levelo://app?vid=0210949c-3f39-45fb-9d4d-ff3a27e7b63b","ios":"levelo://app?vid=0210949c-3f39-45fb-9d4d-ff3a27e7b63b"},"vehicle_type_id":"4","last_reported":1707167152,"current_range_meters":0,"station_id":"ce4bgop2rcd13ifvqc1g","pricing_plan_id":"free"},{"bike_id":"5b6b1a7c-98ca-4350-95b4-27e3500212de","system_id":"levelo_inurba_marseille","lat":43.297774,"lon":5.370875,"is_reserved":false,"is_disabled":false,"rental_uris":{"android":"levelo://app?vid=5b6b1a7c-98ca-4350-95b4-27e3500212de","ios":"levelo://app?vid=5b6b1a7c-98ca-4350-95b4-27e3500212de"},"vehicle_type_id":"4","last_reported":1707167152,"current_range_meters":22800,"station_id":"ce4bgop2rcd13ifvqc1g","pricing_plan_id":"free"},{"bike_id":"642b6707-55dc-499a-96df-e1892771c3ea","system_id":"levelo_inurba_marseille","lat":43.322872,"lon":5.382756,"is_reserved":false,"is_disabled":false,"rental_uris":{"android":"levelo://app?vid=642b6707-55dc-499a-96df-e1892771c3ea","ios":"levelo://app?vid=642b6707-55dc-499a-96df-e1892771c3ea"},"vehicle_type_id":"4","last_reported":1707167152,"current_range_meters":30400,"station_id":"ce4bhr12rcd13ifvqhqg","pricing_plan_id":"free"},{"bike_id":"acb0b184-9bf5-46e1-94e9-e996216dd8a0","system_id":"levelo_inurba_marseille","lat":43.322872,"lon":5.382756,"is_reserved":false,"is_disabled":false,"rental_uris":{"android":"levelo://app?vid=acb0b184-9bf5-46e1-94e9-e996216dd8a0","ios":"levelo://app?vid=acb0b184-9bf5-46e1-94e9-e996216dd8a0"},"vehicle_type_id":"4","last_reported":1707167152,"current_range_meters":30400,"station_id":"ce4bhr12rcd13ifvqhqg","pricing_plan_id":"free"},{"bike_id":"067f66e1-9b81-4458-bb45-5c10a4329356","system_id":"levelo_inurba_marseille","lat":43.322872,"lon":5.382756,"is_reserved":false,"is_disabled":false,"rental_uris":{"android":"levelo://app?vid=067f66e1-9b81-4458-bb45-5c10a4329356","ios":"levelo://app?vid=067f66e1-9b81-4458-bb45-5c10a4329356"},"vehicle_type_id":"4","last_reported":1707167152,"current_range_meters":31200,"station_id":"ce4bhr12rcd13ifvqhqg","pricing_plan_id":"free"},{"bike_id":"2d35649e-5275-4c8a-a083-907f59a3cbfa","system_id":"levelo_inurba_marseille","lat":43.322872,"lon":5.382756,"is_reserved":false,"is_disabled":false,"rental_uris":{"android":"levelo://app?vid=2d35649e-5275-4c8a-a083-907f59a3cbfa","ios":"levelo://app?vid=2d35649e-5275-4c8a-a083-907f59a3cbfa"},"vehicle_type_id":"4","last_reported":1707167152,"current_range_meters":5600,"station_id":"ce4bhr12rcd13ifvqhqg","pricing_plan_id":"free"},{"bike_id":"1900e2ea-9239-49b1-933e-57903fa99707","system_id":"levelo_inurba_marseille","lat":43.32826,"lon":5.36695,"is_reserved":false,"is_disabled":false,"rental_uris":{"android":"levelo://app?vid=1900e2ea-9239-49b1-933e-57903fa99707","ios":"levelo://app?vid=1900e2ea-9239-49b1-933e-57903fa99707"},"vehicle_type_id":"4","last_reported":1707167152,"current_range_meters":6000,"station_id":"ce4bhs92rcd13ifvqi0g","pricing_plan_id":"free"},{"bike_id":"068825c3-0e30-4039-9991-0f25d2c61d15","system_id":"levelo_inurba_marseille","lat":43.32827,"lon":5.36691,"is_reserved":false,"is_disabled":false,"rental_uris":{"android":"levelo://app?vid=068825c3-0e30-4039-9991-0f25d2c61d15","ios":"levelo://app?vid=068825c3-0e30-4039-9991-0f25d2c61d15"},"vehicle_type_id":"4","last_reported":1707167152,"current_range_meters":19600,"station_id":"ce4bhs92rcd13ifvqi0g","pricing_plan_id":"free"},{"bike_id":"a7f79efb-1544-4a9c-90b1-63c97e52bce2","system_id":"levelo_inurba_marseille","lat":43.328371,"lon":5.366909,"is_reserved":false,"is_disabled":false,"rental_uris":{"android":"levelo://app?vid=a7f79efb-1544-4a9c-90b1-63c97e52bce2","ios":"levelo://app?vid=a7f79efb-1544-4a9c-90b1-63c97e52bce2"},"vehicle_type_id":"4","last_reported":1707167152,"current_range_meters":14800,"station_id":"ce4bhs92rcd13ifvqi0g","pricing_plan_id":"free"},{"bike_id":"36243836-0b62-45d5-b00e-078a5c9e3add","system_id":"levelo_inurba_marseille","lat":43.32829,"lon":5.36677,"is_reserved":false,"is_disabled":false,"rental_uris":{"android":"levelo://app?vid=36243836-0b62-45d5-b00e-078a5c9e3add","ios":"levelo://app?vid=36243836-0b62-45d5-b00e-078a5c9e3add"},"vehicle_type_id":"4","last_reported":1707167152,"current_range_meters":9200,"station_id":"ce4bhs92rcd13ifvqi0g","pricing_plan_id":"free"},{"bike_id":"6cd6b889-8d57-4573-b2a2-aa0a2c9636a8","system_id":"levelo_inurba_marseille","lat":43.328371,"lon":5.366909,"is_reserved":false,"is_disabled":false,"rental_uris":{"android":"levelo://app?vid=6cd6b889-8d57-4573-b2a2-aa0a2c9636a8","ios":"levelo://app?vid=6cd6b889-8d57-4573-b2a2-aa0a2c9636a8"},"vehicle_type_id":"4","last_reported":1707167152,"current_range_meters":5200,"station_id":"ce4bhs92rcd13ifvqi0g","pricing_plan_id":"free"},{"bike_id":"76203f1e-482c-4e44-8377-d701af8caa9f","system_id":"levelo_inurba_marseille","lat":43.328317,"lon":5.36683,"is_reserved":false,"is_disabled":false,"rental_uris":{"android":"levelo://app?vid=76203f1e-482c-4e44-8377-d701af8caa9f","ios":"levelo://app?vid=76203f1e-482c-4e44-8377-d701af8caa9f"},"vehicle_type_id":"4","last_reported":1707167152,"current_range_meters":31200,"station_id":"ce4bhs92rcd13ifvqi0g","pricing_plan_id":"free"},{"bike_id":"62aabb2b-c9f9-48ea-a3a4-e4eb79305b81","system_id":"levelo_inurba_marseille","lat":43.328371,"lon":5.366909,"is_reserved":false,"is_disabled":false,"rental_uris":{"android":"levelo://app?vid=62aabb2b-c9f9-48ea-a3a4-e4eb79305b81","ios":"levelo://app?vid=62aabb2b-c9f9-48ea-a3a4-e4eb79305b81"},"vehicle_type_id":"4","last_reported":1707167152,"current_range_meters":7600,"station_id":"ce4bhs92rcd13ifvqi0g","pricing_plan_id":"free"},{"bike_id":"08be0c47-13c6-4c3f-9d4e-3d9fccc9c509","system_id":"levelo_inurba_marseille","lat":43.297163,"lon":5.365866,"is_reserved":false,"is_disabled":false,"rental_uris":{"android":"levelo://app?vid=08be0c47-13c6-4c3f-9d4e-3d9fccc9c509","ios":"levelo://app?vid=08be0c47-13c6-4c3f-9d4e-3d9fccc9c509"},"vehicle_type_id":"4","last_reported":1707167152,"current_range_meters":30000,"station_id":"ce4bgn12rcd13ifvqbt0","pricing_plan_id":"free"},{"bike_id":"98fb478c-2c90-4367-b2fe-e3ba20dfacae","system_id":"levelo_inurba_marseille","lat":43.314884,"lon":5.388916,"is_reserved":false,"is_disabled":false,"rental_uris":{"android":"levelo://app?vid=98fb478c-2c90-4367-b2fe-e3ba20dfacae","ios":"levelo://app?vid=98fb478c-2c90-4367-b2fe-e3ba20dfacae"},"vehicle_type_id":"4","last_reported":1707167152,"current_range_meters":25200,"station_id":"","pricing_plan_id":"free"},{"bike_id":"50b08a96-15dc-4a5d-9d6a-a831c874af68","system_id":"levelo_inurba_marseille","lat":43.297781,"lon":5.375384,"is_reserved":false,"is_disabled":false,"rental_uris":{"android":"levelo://app?vid=50b08a96-15dc-4a5d-9d6a-a831c874af68","ios":"levelo://app?vid=50b08a96-15dc-4a5d-9d6a-a831c874af68"},"vehicle_type_id":"4","last_reported":1707167152,"current_range_meters":15200,"station_id":"","pricing_plan_id":"free"},{"bike_id":"c5438bc6-3cad-4df3-be40-48796f55474d","system_id":"levelo_inurba_marseille","lat":43.29573,"lon":5.367355,"is_reserved":false,"is_disabled":false,"rental_uris":{"android":"levelo://app?vid=c5438bc6-3cad-4df3-be40-48796f55474d","ios":"levelo://app?vid=c5438bc6-3cad-4df3-be40-48796f55474d"},"vehicle_type_id":"4","last_reported":1707167152,"current_range_meters":20800,"station_id":"ce4bgph2rcd13ifvqc2g","pricing_plan_id":"free"},{"bike_id":"142b6048-a4bf-4171-a611-276e522a7b2b","system_id":"levelo_inurba_marseille","lat":43.299028,"lon":5.381509,"is_reserved":false,"is_disabled":false,"rental_uris":{"android":"levelo://app?vid=142b6048-a4bf-4171-a611-276e522a7b2b","ios":"levelo://app?vid=142b6048-a4bf-4171-a611-276e522a7b2b"},"vehicle_type_id":"4","last_reported":1707167152,"current_range_meters":29200,"station_id":"ce4bgj12rcd13ifvqbc0","pricing_plan_id":"free"},{"bike_id":"e1c31943-c6a1-4069-8257-d9f3674fe881","system_id":"levelo_inurba_marseille","lat":43.3095,"lon":5.39026,"is_reserved":false,"is_disabled":false,"rental_uris":{"android":"levelo://app?vid=e1c31943-c6a1-4069-8257-d9f3674fe881","ios":"levelo://app?vid=e1c31943-c6a1-4069-8257-d9f3674fe881"},"vehicle_type_id":"4","last_reported":1707167152,"current_range_meters":18800,"station_id":"ce4bgup2rcd13ifvqco0","pricing_plan_id":"free"},{"bike_id":"2ae0df79-2c92-4e9d-a4cd-1b09866554b1","system_id":"levelo_inurba_marseille","lat":43.317557,"lon":5.390173,"is_reserved":false,"is_disabled":false,"rental_uris":{"android":"levelo://app?vid=2ae0df79-2c92-4e9d-a4cd-1b09866554b1","ios":"levelo://app?vid=2ae0df79-2c92-4e9d-a4cd-1b09866554b1"},"vehicle_type_id":"4","last_reported":1707167152,"current_range_meters":29200,"station_id":"ce4bhqp2rcd13ifvqhng","pricing_plan_id":"free"},{"bike_id":"fa3edbd3-ffbc-4447-9335-a817e916f6da","system_id":"levelo_inurba_marseille","lat":43.309589,"lon":5.390258,"is_reserved":false,"is_disabled":false,"rental_uris":{"android":"levelo://app?vid=fa3edbd3-ffbc-4447-9335-a817e916f6da","ios":"levelo://app?vid=fa3edbd3-ffbc-4447-9335-a817e916f6da"},"vehicle_type_id":"4","last_reported":1707167152,"current_range_meters":28000,"station_id":"ce4bgup2rcd13ifvqco0","pricing_plan_id":"free"},{"bike_id":"986b6c9f-34fd-4704-b8c8-1b7477a55cca","system_id":"levelo_inurba_marseille","lat":43.309589,"lon":5.390258,"is_reserved":false,"is_disabled":false,"rental_uris":{"android":"levelo://app?vid=986b6c9f-34fd-4704-b8c8-1b7477a55cca","ios":"levelo://app?vid=986b6c9f-34fd-4704-b8c8-1b7477a55cca"},"vehicle_type_id":"4","last_reported":1707167152,"current_range_meters":6400,"station_id":"ce4bgup2rcd13ifvqco0","pricing_plan_id":"free"},{"bike_id":"4f752cbf-1ca6-40f6-9f34-64f0e4f4d3c2","system_id":"levelo_inurba_marseille","lat":43.309589,"lon":5.390258,"is_reserved":false,"is_disabled":false,"rental_uris":{"android":"levelo://app?vid=4f752cbf-1ca6-40f6-9f34-64f0e4f4d3c2","ios":"levelo://app?vid=4f752cbf-1ca6-40f6-9f34-64f0e4f4d3c2"},"vehicle_type_id":"4","last_reported":1707167152,"current_range_meters":11200,"station_id":"ce4bgup2rcd13ifvqco0","pricing_plan_id":"free"},{"bike_id":"90e02760-0c46-48ac-8940-38c33e37b113","system_id":"levelo_inurba_marseille","lat":43.309589,"lon":5.390258,"is_reserved":false,"is_disabled":false,"rental_uris":{"android":"levelo://app?vid=90e02760-0c46-48ac-8940-38c33e37b113","ios":"levelo://app?vid=90e02760-0c46-48ac-8940-38c33e37b113"},"vehicle_type_id":"4","last_reported":1707167152,"current_range_meters":6400,"station_id":"ce4bgup2rcd13ifvqco0","pricing_plan_id":"free"},{"bike_id":"654f83f4-e5ac-4bc0-a533-14572827dd15","system_id":"levelo_inurba_marseille","lat":43.30953,"lon":5.39045,"is_reserved":false,"is_disabled":false,"rental_uris":{"android":"levelo://app?vid=654f83f4-e5ac-4bc0-a533-14572827dd15","ios":"levelo://app?vid=654f83f4-e5ac-4bc0-a533-14572827dd15"},"vehicle_type_id":"4","last_reported":1707167152,"current_range_meters":10000,"station_id":"ce4bgup2rcd13ifvqco0","pricing_plan_id":"free"},{"bike_id":"a19f363b-05e8-4df9-894f-36b478efe04a","system_id":"levelo_inurba_marseille","lat":43.309589,"lon":5.390258,"is_reserved":false,"is_disabled":false,"rental_uris":{"android":"levelo://app?vid=a19f363b-05e8-4df9-894f-36b478efe04a","ios":"levelo://app?vid=a19f363b-05e8-4df9-894f-36b478efe04a"},"vehicle_type_id":"4","last_reported":1707167152,"current_range_meters":18800,"station_id":"ce4bgup2rcd13ifvqco0","pricing_plan_id":"free"},{"bike_id":"2180d5bc-a1ff-4f28-924e-e51b8a619ab4","system_id":"levelo_inurba_marseille","lat":43.317556,"lon":5.390132,"is_reserved":false,"is_disabled":false,"rental_uris":{"android":"levelo://app?vid=2180d5bc-a1ff-4f28-924e-e51b8a619ab4","ios":"levelo://app?vid=2180d5bc-a1ff-4f28-924e-e51b8a619ab4"},"vehicle_type_id":"4","last_reported":1707167152,"current_range_meters":15200,"station_id":"ce4bhqp2rcd13ifvqhng","pricing_plan_id":"free"},{"bike_id":"bf5596bb-afb2-46d3-93c4-a5572d7667f8","system_id":"levelo_inurba_marseille","lat":43.31759,"lon":5.39018,"is_reserved":false,"is_disabled":false,"rental_uris":{"android":"levelo://app?vid=bf5596bb-afb2-46d3-93c4-a5572d7667f8","ios":"levelo://app?vid=bf5596bb-afb2-46d3-93c4-a5572d7667f8"},"vehicle_type_id":"4","last_reported":1707167152,"current_range_meters":30800,"station_id":"ce4bhqp2rcd13ifvqhng","pricing_plan_id":"free"},{"bike_id":"5f4bbffd-645d-4394-9713-b7d56fa1e800","system_id":"levelo_inurba_marseille","lat":43.317583,"lon":5.390183,"is_reserved":false,"is_disabled":false,"rental_uris":{"android":"levelo://app?vid=5f4bbffd-645d-4394-9713-b7d56fa1e800","ios":"levelo://app?vid=5f4bbffd-645d-4394-9713-b7d56fa1e800"},"vehicle_type_id":"4","last_reported":1707167152,"current_range_meters":10000,"station_id":"ce4bhqp2rcd13ifvqhng","pricing_plan_id":"free"},{"bike_id":"b023b8de-681e-4a4f-921a-3ae0e7b207d6","system_id":"levelo_inurba_marseille","lat":43.317557,"lon":5.390173,"is_reserved":false,"is_disabled":false,"rental_uris":{"android":"levelo://app?vid=b023b8de-681e-4a4f-921a-3ae0e7b207d6","ios":"levelo://app?vid=b023b8de-681e-4a4f-921a-3ae0e7b207d6"},"vehicle_type_id":"4","last_reported":1707167152,"current_range_meters":22400,"station_id":"ce4bhqp2rcd13ifvqhng","pricing_plan_id":"free"},{"bike_id":"79d14bfc-06e9-4997-bbc0-831f3a1a5fef","system_id":"levelo_inurba_marseille","lat":43.31756,"lon":5.390225,"is_reserved":false,"is_disabled":false,"rental_uris":{"android":"levelo://app?vid=79d14bfc-06e9-4997-bbc0-831f3a1a5fef","ios":"levelo://app?vid=79d14bfc-06e9-4997-bbc0-831f3a1a5fef"},"vehicle_type_id":"4","last_reported":1707167152,"current_range_meters":0,"station_id":"ce4bhqp2rcd13ifvqhng","pricing_plan_id":"free"},{"bike_id":"40a85205-af79-43c2-bdc9-257280312aae","system_id":"levelo_inurba_marseille","lat":43.317607,"lon":5.390238,"is_reserved":false,"is_disabled":false,"rental_uris":{"android":"levelo://app?vid=40a85205-af79-43c2-bdc9-257280312aae","ios":"levelo://app?vid=40a85205-af79-43c2-bdc9-257280312aae"},"vehicle_type_id":"4","last_reported":1707167152,"current_range_meters":23200,"station_id":"ce4bhqp2rcd13ifvqhng","pricing_plan_id":"free"},{"bike_id":"1033b78d-f901-4cfa-8cae-54cb1e173be4","system_id":"levelo_inurba_marseille","lat":43.31757,"lon":5.39026,"is_reserved":false,"is_disabled":false,"rental_uris":{"android":"levelo://app?vid=1033b78d-f901-4cfa-8cae-54cb1e173be4","ios":"levelo://app?vid=1033b78d-f901-4cfa-8cae-54cb1e173be4"},"vehicle_type_id":"4","last_reported":1707167152,"current_range_meters":25200,"station_id":"ce4bhqp2rcd13ifvqhng","pricing_plan_id":"free"},{"bike_id":"c0c185cd-69c7-4483-9ccd-3a51cb8f7c58","system_id":"levelo_inurba_marseille","lat":43.29747,"lon":5.37921,"is_reserved":false,"is_disabled":false,"rental_uris":{"android":"levelo://app?vid=c0c185cd-69c7-4483-9ccd-3a51cb8f7c58","ios":"levelo://app?vid=c0c185cd-69c7-4483-9ccd-3a51cb8f7c58"},"vehicle_type_id":"4","last_reported":1707167152,"current_range_meters":26400,"station_id":"","pricing_plan_id":"free"},{"bike_id":"07bf0223-8e9d-45af-ab3d-04b395650bde","system_id":"levelo_inurba_marseille","lat":43.298037,"lon":5.381066,"is_reserved":false,"is_disabled":false,"rental_uris":{"android":"levelo://app?vid=07bf0223-8e9d-45af-ab3d-04b395650bde","ios":"levelo://app?vid=07bf0223-8e9d-45af-ab3d-04b395650bde"},"vehicle_type_id":"4","last_reported":1707167152,"current_range_meters":22800,"station_id":"ce4bgip2rcd13ifvqbb0","pricing_plan_id":"free"},{"bike_id":"2036d8e5-20c5-4d21-922c-61fbcf72be64","system_id":"levelo_inurba_marseille","lat":43.304413,"lon":5.38882,"is_reserved":false,"is_disabled":false,"rental_uris":{"android":"levelo://app?vid=2036d8e5-20c5-4d21-922c-61fbcf72be64","ios":"levelo://app?vid=2036d8e5-20c5-4d21-922c-61fbcf72be64"},"vehicle_type_id":"4","last_reported":1707167152,"current_range_meters":8800,"station_id":"ce4bgk12rcd13ifvqbi0","pricing_plan_id":"free"},{"bike_id":"bb44c58b-c05c-480f-8c27-e2e6bf908e53","system_id":"levelo_inurba_marseille","lat":43.304278,"lon":5.388868,"is_reserved":false,"is_disabled":false,"rental_uris":{"android":"levelo://app?vid=bb44c58b-c05c-480f-8c27-e2e6bf908e53","ios":"levelo://app?vid=bb44c58b-c05c-480f-8c27-e2e6bf908e53"},"vehicle_type_id":"4","last_reported":1707167152,"current_range_meters":20800,"station_id":"ce4bgk12rcd13ifvqbi0","pricing_plan_id":"free"},{"bike_id":"72b6bb8b-c7df-47dd-8b9f-c49ac5c18da3","system_id":"levelo_inurba_marseille","lat":43.304337,"lon":5.388853,"is_reserved":false,"is_disabled":false,"rental_uris":{"android":"levelo://app?vid=72b6bb8b-c7df-47dd-8b9f-c49ac5c18da3","ios":"levelo://app?vid=72b6bb8b-c7df-47dd-8b9f-c49ac5c18da3"},"vehicle_type_id":"4","last_reported":1707167152,"current_range_meters":20800,"station_id":"ce4bgk12rcd13ifvqbi0","pricing_plan_id":"free"},{"bike_id":"33cafe7d-6a9a-4de8-9ce8-d77b985be376","system_id":"levelo_inurba_marseille","lat":43.30418,"lon":5.38874,"is_reserved":false,"is_disabled":false,"rental_uris":{"android":"levelo://app?vid=33cafe7d-6a9a-4de8-9ce8-d77b985be376","ios":"levelo://app?vid=33cafe7d-6a9a-4de8-9ce8-d77b985be376"},"vehicle_type_id":"4","last_reported":1707167152,"current_range_meters":10400,"station_id":"ce4bgk12rcd13ifvqbi0","pricing_plan_id":"free"},{"bike_id":"67163487-c9b7-4f94-9d82-70d6f0997bde","system_id":"levelo_inurba_marseille","lat":43.29786,"lon":5.38095,"is_reserved":false,"is_disabled":false,"rental_uris":{"android":"levelo://app?vid=67163487-c9b7-4f94-9d82-70d6f0997bde","ios":"levelo://app?vid=67163487-c9b7-4f94-9d82-70d6f0997bde"},"vehicle_type_id":"4","last_reported":1707167152,"current_range_meters":3600,"station_id":"ce4bgip2rcd13ifvqbb0","pricing_plan_id":"free"},{"bike_id":"1805feba-fa9d-48b3-8273-91b849c82b90","system_id":"levelo_inurba_marseille","lat":43.304274,"lon":5.388873,"is_reserved":false,"is_disabled":false,"rental_uris":{"android":"levelo://app?vid=1805feba-fa9d-48b3-8273-91b849c82b90","ios":"levelo://app?vid=1805feba-fa9d-48b3-8273-91b849c82b90"},"vehicle_type_id":"4","last_reported":1707167152,"current_range_meters":20400,"station_id":"ce4bgk12rcd13ifvqbi0","pricing_plan_id":"free"},{"bike_id":"6fe77834-24ec-40bf-bd72-2ee8f3678e74","system_id":"levelo_inurba_marseille","lat":43.304278,"lon":5.388868,"is_reserved":false,"is_disabled":false,"rental_uris":{"android":"levelo://app?vid=6fe77834-24ec-40bf-bd72-2ee8f3678e74","ios":"levelo://app?vid=6fe77834-24ec-40bf-bd72-2ee8f3678e74"},"vehicle_type_id":"4","last_reported":1707167152,"current_range_meters":30400,"station_id":"ce4bgk12rcd13ifvqbi0","pricing_plan_id":"free"},{"bike_id":"a34c4a0b-ba08-474f-9956-20e7bb33d586","system_id":"levelo_inurba_marseille","lat":43.304278,"lon":5.388868,"is_reserved":false,"is_disabled":false,"rental_uris":{"android":"levelo://app?vid=a34c4a0b-ba08-474f-9956-20e7bb33d586","ios":"levelo://app?vid=a34c4a0b-ba08-474f-9956-20e7bb33d586"},"vehicle_type_id":"4","last_reported":1707167152,"current_range_meters":30400,"station_id":"ce4bgk12rcd13ifvqbi0","pricing_plan_id":"free"},{"bike_id":"bcfdd887-db52-41f1-9eeb-61ae4f6c2f99","system_id":"levelo_inurba_marseille","lat":43.296277,"lon":5.377108,"is_reserved":false,"is_disabled":false,"rental_uris":{"android":"levelo://app?vid=bcfdd887-db52-41f1-9eeb-61ae4f6c2f99","ios":"levelo://app?vid=bcfdd887-db52-41f1-9eeb-61ae4f6c2f99"},"vehicle_type_id":"4","last_reported":1707167152,"current_range_meters":0,"station_id":"ce4bgi92rcd13ifvqb90","pricing_plan_id":"free"},{"bike_id":"93557e75-511e-4bed-a082-d407a68e9d59","system_id":"levelo_inurba_marseille","lat":43.304278,"lon":5.388868,"is_reserved":false,"is_disabled":false,"rental_uris":{"android":"levelo://app?vid=93557e75-511e-4bed-a082-d407a68e9d59","ios":"levelo://app?vid=93557e75-511e-4bed-a082-d407a68e9d59"},"vehicle_type_id":"4","last_reported":1707167152,"current_range_meters":14800,"station_id":"ce4bgk12rcd13ifvqbi0","pricing_plan_id":"free"},{"bike_id":"fed528e1-73f0-4497-882f-bae2ab7c7d23","system_id":"levelo_inurba_marseille","lat":43.295279,"lon":5.375048,"is_reserved":false,"is_disabled":false,"rental_uris":{"android":"levelo://app?vid=fed528e1-73f0-4497-882f-bae2ab7c7d23","ios":"levelo://app?vid=fed528e1-73f0-4497-882f-bae2ab7c7d23"},"vehicle_type_id":"4","last_reported":1707167152,"current_range_meters":2000,"station_id":"ce4bgkp2rcd13ifvqbmg","pricing_plan_id":"free"},{"bike_id":"ac2257c2-ec76-436c-b368-09d4a43fcf8a","system_id":"levelo_inurba_marseille","lat":43.299724,"lon":5.384848,"is_reserved":false,"is_disabled":false,"rental_uris":{"android":"levelo://app?vid=ac2257c2-ec76-436c-b368-09d4a43fcf8a","ios":"levelo://app?vid=ac2257c2-ec76-436c-b368-09d4a43fcf8a"},"vehicle_type_id":"4","last_reported":1707167152,"current_range_meters":23600,"station_id":"ce4bgj92rcd13ifvqbd0","pricing_plan_id":"free"},{"bike_id":"42d05ee1-551c-4d8b-aa1d-f3504cf514c8","system_id":"levelo_inurba_marseille","lat":43.299717,"lon":5.384845,"is_reserved":false,"is_disabled":false,"rental_uris":{"android":"levelo://app?vid=42d05ee1-551c-4d8b-aa1d-f3504cf514c8","ios":"levelo://app?vid=42d05ee1-551c-4d8b-aa1d-f3504cf514c8"},"vehicle_type_id":"4","last_reported":1707167152,"current_range_meters":28000,"station_id":"ce4bgj92rcd13ifvqbd0","pricing_plan_id":"free"},{"bike_id":"52927b24-f824-4f70-b2ec-9d91dde5dcb6","system_id":"levelo_inurba_marseille","lat":43.295279,"lon":5.375048,"is_reserved":false,"is_disabled":false,"rental_uris":{"android":"levelo://app?vid=52927b24-f824-4f70-b2ec-9d91dde5dcb6","ios":"levelo://app?vid=52927b24-f824-4f70-b2ec-9d91dde5dcb6"},"vehicle_type_id":"4","last_reported":1707167152,"current_range_meters":4400,"station_id":"ce4bgkp2rcd13ifvqbmg","pricing_plan_id":"free"},{"bike_id":"a671ba84-b7e4-4d4f-9ad5-03ba550b9cb2","system_id":"levelo_inurba_marseille","lat":43.32367,"lon":5.388836,"is_reserved":false,"is_disabled":false,"rental_uris":{"android":"levelo://app?vid=a671ba84-b7e4-4d4f-9ad5-03ba550b9cb2","ios":"levelo://app?vid=a671ba84-b7e4-4d4f-9ad5-03ba550b9cb2"},"vehicle_type_id":"4","last_reported":1707167152,"current_range_meters":0,"station_id":"ce4bhqp2rcd13ifvqhog","pricing_plan_id":"free"},{"bike_id":"61e81190-42e2-45ed-a13d-88af3455070d","system_id":"levelo_inurba_marseille","lat":43.29601,"lon":5.381084,"is_reserved":false,"is_disabled":false,"rental_uris":{"android":"levelo://app?vid=61e81190-42e2-45ed-a13d-88af3455070d","ios":"levelo://app?vid=61e81190-42e2-45ed-a13d-88af3455070d"},"vehicle_type_id":"4","last_reported":1707167152,"current_range_meters":21200,"station_id":"ce4bgl12rcd13ifvqbo0","pricing_plan_id":"free"},{"bike_id":"d185556f-0967-4bb9-a49a-933ca5b91d7b","system_id":"levelo_inurba_marseille","lat":43.293259,"lon":5.371586,"is_reserved":false,"is_disabled":false,"rental_uris":{"android":"levelo://app?vid=d185556f-0967-4bb9-a49a-933ca5b91d7b","ios":"levelo://app?vid=d185556f-0967-4bb9-a49a-933ca5b91d7b"},"vehicle_type_id":"4","last_reported":1707167152,"current_range_meters":1600,"station_id":"ce4bgh92rcd13ifvqb40","pricing_plan_id":"free"},{"bike_id":"29623b3a-ac6a-45db-89a6-486d88380fc1","system_id":"levelo_inurba_marseille","lat":43.305994,"lon":5.393687,"is_reserved":false,"is_disabled":false,"rental_uris":{"android":"levelo://app?vid=29623b3a-ac6a-45db-89a6-486d88380fc1","ios":"levelo://app?vid=29623b3a-ac6a-45db-89a6-486d88380fc1"},"vehicle_type_id":"4","last_reported":1707167152,"current_range_meters":22800,"station_id":"ce4bh0p2rcd13ifvqd80","pricing_plan_id":"free"},{"bike_id":"145cfa52-8d2a-448d-a5c9-73d20c115777","system_id":"levelo_inurba_marseille","lat":43.305994,"lon":5.393687,"is_reserved":false,"is_disabled":false,"rental_uris":{"android":"levelo://app?vid=145cfa52-8d2a-448d-a5c9-73d20c115777","ios":"levelo://app?vid=145cfa52-8d2a-448d-a5c9-73d20c115777"},"vehicle_type_id":"4","last_reported":1707167152,"current_range_meters":2800,"station_id":"ce4bh0p2rcd13ifvqd80","pricing_plan_id":"free"},{"bike_id":"31c86d28-e933-4feb-ba6e-f9151b2b8c13","system_id":"levelo_inurba_marseille","lat":43.293009,"lon":5.374584,"is_reserved":false,"is_disabled":false,"rental_uris":{"android":"levelo://app?vid=31c86d28-e933-4feb-ba6e-f9151b2b8c13","ios":"levelo://app?vid=31c86d28-e933-4feb-ba6e-f9151b2b8c13"},"vehicle_type_id":"4","last_reported":1707167152,"current_range_meters":26400,"station_id":"ce4bgi12rcd13ifvqb70","pricing_plan_id":"free"},{"bike_id":"58ce6322-a791-48f0-8bcc-95a1314180fc","system_id":"levelo_inurba_marseille","lat":43.29508,"lon":5.38132,"is_reserved":false,"is_disabled":false,"rental_uris":{"android":"levelo://app?vid=58ce6322-a791-48f0-8bcc-95a1314180fc","ios":"levelo://app?vid=58ce6322-a791-48f0-8bcc-95a1314180fc"},"vehicle_type_id":"4","last_reported":1707167152,"current_range_meters":12000,"station_id":"","pricing_plan_id":"free"},{"bike_id":"e6693499-32d1-44ec-96b9-06fe854f4e7f","system_id":"levelo_inurba_marseille","lat":43.305994,"lon":5.393687,"is_reserved":false,"is_disabled":false,"rental_uris":{"android":"levelo://app?vid=e6693499-32d1-44ec-96b9-06fe854f4e7f","ios":"levelo://app?vid=e6693499-32d1-44ec-96b9-06fe854f4e7f"},"vehicle_type_id":"4","last_reported":1707167152,"current_range_meters":22800,"station_id":"ce4bh0p2rcd13ifvqd80","pricing_plan_id":"free"},{"bike_id":"7e55fab3-6446-4b33-b671-6970ca4dad33","system_id":"levelo_inurba_marseille","lat":43.303002,"lon":5.392142,"is_reserved":false,"is_disabled":false,"rental_uris":{"android":"levelo://app?vid=7e55fab3-6446-4b33-b671-6970ca4dad33","ios":"levelo://app?vid=7e55fab3-6446-4b33-b671-6970ca4dad33"},"vehicle_type_id":"4","last_reported":1707167152,"current_range_meters":20400,"station_id":"ce4bgkh2rcd13ifvqbk0","pricing_plan_id":"free"},{"bike_id":"6d66f854-732c-48ac-8f63-b816b527ad32","system_id":"levelo_inurba_marseille","lat":43.303002,"lon":5.392142,"is_reserved":false,"is_disabled":false,"rental_uris":{"android":"levelo://app?vid=6d66f854-732c-48ac-8f63-b816b527ad32","ios":"levelo://app?vid=6d66f854-732c-48ac-8f63-b816b527ad32"},"vehicle_type_id":"4","last_reported":1707167152,"current_range_meters":16400,"station_id":"ce4bgkh2rcd13ifvqbk0","pricing_plan_id":"free"},{"bike_id":"adfdc9f5-7ebd-4d79-b7bc-e8de606f1e98","system_id":"levelo_inurba_marseille","lat":43.303002,"lon":5.392142,"is_reserved":false,"is_disabled":false,"rental_uris":{"android":"levelo://app?vid=adfdc9f5-7ebd-4d79-b7bc-e8de606f1e98","ios":"levelo://app?vid=adfdc9f5-7ebd-4d79-b7bc-e8de606f1e98"},"vehicle_type_id":"4","last_reported":1707167152,"current_range_meters":16800,"station_id":"ce4bgkh2rcd13ifvqbk0","pricing_plan_id":"free"},{"bike_id":"4febbf1b-a352-407c-ab11-cac3abcddc0e","system_id":"levelo_inurba_marseille","lat":43.303002,"lon":5.392142,"is_reserved":false,"is_disabled":false,"rental_uris":{"android":"levelo://app?vid=4febbf1b-a352-407c-ab11-cac3abcddc0e","ios":"levelo://app?vid=4febbf1b-a352-407c-ab11-cac3abcddc0e"},"vehicle_type_id":"4","last_reported":1707167152,"current_range_meters":11200,"station_id":"ce4bgkh2rcd13ifvqbk0","pricing_plan_id":"free"},{"bike_id":"3ca41cfa-809e-41c3-b667-b7cf099388fd","system_id":"levelo_inurba_marseille","lat":43.302992,"lon":5.392136,"is_reserved":false,"is_disabled":false,"rental_uris":{"android":"levelo://app?vid=3ca41cfa-809e-41c3-b667-b7cf099388fd","ios":"levelo://app?vid=3ca41cfa-809e-41c3-b667-b7cf099388fd"},"vehicle_type_id":"4","last_reported":1707167152,"current_range_meters":14800,"station_id":"ce4bgkh2rcd13ifvqbk0","pricing_plan_id":"free"},{"bike_id":"2b54da50-da42-469c-9fa6-27782163ca0e","system_id":"levelo_inurba_marseille","lat":43.292311,"lon":5.360731,"is_reserved":false,"is_disabled":false,"rental_uris":{"android":"levelo://app?vid=2b54da50-da42-469c-9fa6-27782163ca0e","ios":"levelo://app?vid=2b54da50-da42-469c-9fa6-27782163ca0e"},"vehicle_type_id":"4","last_reported":1707167152,"current_range_meters":29600,"station_id":"ce4bhbh2rcd13ifvqeqg","pricing_plan_id":"free"},{"bike_id":"1597e819-5b10-413c-8eff-964f283950c8","system_id":"levelo_inurba_marseille","lat":43.300852,"lon":5.390859,"is_reserved":false,"is_disabled":false,"rental_uris":{"android":"levelo://app?vid=1597e819-5b10-413c-8eff-964f283950c8","ios":"levelo://app?vid=1597e819-5b10-413c-8eff-964f283950c8"},"vehicle_type_id":"4","last_reported":1707167152,"current_range_meters":30000,"station_id":"ce4bh192rcd13ifvqdb0","pricing_plan_id":"free"},{"bike_id":"fc848809-688a-4985-875d-67f0418d07fa","system_id":"levelo_inurba_marseille","lat":43.30093,"lon":5.39066,"is_reserved":false,"is_disabled":false,"rental_uris":{"android":"levelo://app?vid=fc848809-688a-4985-875d-67f0418d07fa","ios":"levelo://app?vid=fc848809-688a-4985-875d-67f0418d07fa"},"vehicle_type_id":"4","last_reported":1707167152,"current_range_meters":4000,"station_id":"ce4bh192rcd13ifvqdb0","pricing_plan_id":"free"},{"bike_id":"659c7763-6550-45cd-80ea-18960db594d4","system_id":"levelo_inurba_marseille","lat":43.300852,"lon":5.390859,"is_reserved":false,"is_disabled":false,"rental_uris":{"android":"levelo://app?vid=659c7763-6550-45cd-80ea-18960db594d4","ios":"levelo://app?vid=659c7763-6550-45cd-80ea-18960db594d4"},"vehicle_type_id":"4","last_reported":1707167152,"current_range_meters":31200,"station_id":"ce4bh192rcd13ifvqdb0","pricing_plan_id":"free"},{"bike_id":"46a9cdab-4c33-47f9-bea2-7afb472dab95","system_id":"levelo_inurba_marseille","lat":43.300852,"lon":5.390859,"is_reserved":false,"is_disabled":false,"rental_uris":{"android":"levelo://app?vid=46a9cdab-4c33-47f9-bea2-7afb472dab95","ios":"levelo://app?vid=46a9cdab-4c33-47f9-bea2-7afb472dab95"},"vehicle_type_id":"4","last_reported":1707167152,"current_range_meters":21600,"station_id":"ce4bh192rcd13ifvqdb0","pricing_plan_id":"free"},{"bike_id":"50ffd882-31ac-4176-a11e-0756f70de274","system_id":"levelo_inurba_marseille","lat":43.292311,"lon":5.360731,"is_reserved":false,"is_disabled":false,"rental_uris":{"android":"levelo://app?vid=50ffd882-31ac-4176-a11e-0756f70de274","ios":"levelo://app?vid=50ffd882-31ac-4176-a11e-0756f70de274"},"vehicle_type_id":"4","last_reported":1707167152,"current_range_meters":15600,"station_id":"ce4bhbh2rcd13ifvqeqg","pricing_plan_id":"free"},{"bike_id":"7c3d2f5e-08a1-467e-9dfb-4eb70571d2f5","system_id":"levelo_inurba_marseille","lat":43.303002,"lon":5.392142,"is_reserved":false,"is_disabled":false,"rental_uris":{"android":"levelo://app?vid=7c3d2f5e-08a1-467e-9dfb-4eb70571d2f5","ios":"levelo://app?vid=7c3d2f5e-08a1-467e-9dfb-4eb70571d2f5"},"vehicle_type_id":"4","last_reported":1707167152,"current_range_meters":28400,"station_id":"ce4bgkh2rcd13ifvqbk0","pricing_plan_id":"free"},{"bike_id":"5ee21015-9a4d-4577-813c-9c84c8aab881","system_id":"levelo_inurba_marseille","lat":43.298764,"lon":5.388973,"is_reserved":false,"is_disabled":false,"rental_uris":{"android":"levelo://app?vid=5ee21015-9a4d-4577-813c-9c84c8aab881","ios":"levelo://app?vid=5ee21015-9a4d-4577-813c-9c84c8aab881"},"vehicle_type_id":"4","last_reported":1707167152,"current_range_meters":13600,"station_id":"ce4bh392rcd13ifvqdl0","pricing_plan_id":"free"},{"bike_id":"6e18c83c-4423-4b39-ad69-146e43212d20","system_id":"levelo_inurba_marseille","lat":43.298764,"lon":5.388973,"is_reserved":false,"is_disabled":false,"rental_uris":{"android":"levelo://app?vid=6e18c83c-4423-4b39-ad69-146e43212d20","ios":"levelo://app?vid=6e18c83c-4423-4b39-ad69-146e43212d20"},"vehicle_type_id":"4","last_reported":1707167152,"current_range_meters":22000,"station_id":"ce4bh392rcd13ifvqdl0","pricing_plan_id":"free"},{"bike_id":"8324566f-6423-49f4-843c-99f04a68cac0","system_id":"levelo_inurba_marseille","lat":43.298764,"lon":5.388973,"is_reserved":false,"is_disabled":false,"rental_uris":{"android":"levelo://app?vid=8324566f-6423-49f4-843c-99f04a68cac0","ios":"levelo://app?vid=8324566f-6423-49f4-843c-99f04a68cac0"},"vehicle_type_id":"4","last_reported":1707167152,"current_range_meters":29200,"station_id":"ce4bh392rcd13ifvqdl0","pricing_plan_id":"free"},{"bike_id":"af155b65-7503-49a1-acd7-96ad546c2bb4","system_id":"levelo_inurba_marseille","lat":43.298764,"lon":5.388973,"is_reserved":false,"is_disabled":false,"rental_uris":{"android":"levelo://app?vid=af155b65-7503-49a1-acd7-96ad546c2bb4","ios":"levelo://app?vid=af155b65-7503-49a1-acd7-96ad546c2bb4"},"vehicle_type_id":"4","last_reported":1707167152,"current_range_meters":24000,"station_id":"ce4bh392rcd13ifvqdl0","pricing_plan_id":"free"},{"bike_id":"d92a2dd8-c86b-4665-824d-ff216b077688","system_id":"levelo_inurba_marseille","lat":43.291994,"lon":5.357886,"is_reserved":false,"is_disabled":false,"rental_uris":{"android":"levelo://app?vid=d92a2dd8-c86b-4665-824d-ff216b077688","ios":"levelo://app?vid=d92a2dd8-c86b-4665-824d-ff216b077688"},"vehicle_type_id":"4","last_reported":1707167152,"current_range_meters":0,"station_id":"ce4bhb12rcd13ifvqel0","pricing_plan_id":"free"},{"bike_id":"0cbbd74f-5659-45ff-ae70-c537acc11923","system_id":"levelo_inurba_marseille","lat":43.30881,"lon":5.39638,"is_reserved":false,"is_disabled":false,"rental_uris":{"android":"levelo://app?vid=0cbbd74f-5659-45ff-ae70-c537acc11923","ios":"levelo://app?vid=0cbbd74f-5659-45ff-ae70-c537acc11923"},"vehicle_type_id":"4","last_reported":1707167152,"current_range_meters":4800,"station_id":"ce4bh012rcd13ifvqcv0","pricing_plan_id":"free"},{"bike_id":"a308fa7e-cfac-4908-a9b8-68902fdf16fb","system_id":"levelo_inurba_marseille","lat":43.313291,"lon":5.396838,"is_reserved":false,"is_disabled":false,"rental_uris":{"android":"levelo://app?vid=a308fa7e-cfac-4908-a9b8-68902fdf16fb","ios":"levelo://app?vid=a308fa7e-cfac-4908-a9b8-68902fdf16fb"},"vehicle_type_id":"4","last_reported":1707167152,"current_range_meters":3200,"station_id":"ce4bgvp2rcd13ifvqcu0","pricing_plan_id":"free"},{"bike_id":"1ddeecfd-cfa5-49b6-9cdb-2c7f29fe1be0","system_id":"levelo_inurba_marseille","lat":43.291994,"lon":5.357886,"is_reserved":false,"is_disabled":false,"rental_uris":{"android":"levelo://app?vid=1ddeecfd-cfa5-49b6-9cdb-2c7f29fe1be0","ios":"levelo://app?vid=1ddeecfd-cfa5-49b6-9cdb-2c7f29fe1be0"},"vehicle_type_id":"4","last_reported":1707167152,"current_range_meters":14400,"station_id":"ce4bhb12rcd13ifvqel0","pricing_plan_id":"free"},{"bike_id":"00b2ceb5-080f-4b6b-8f11-43ff114ce4a8","system_id":"levelo_inurba_marseille","lat":43.313291,"lon":5.396838,"is_reserved":false,"is_disabled":false,"rental_uris":{"android":"levelo://app?vid=00b2ceb5-080f-4b6b-8f11-43ff114ce4a8","ios":"levelo://app?vid=00b2ceb5-080f-4b6b-8f11-43ff114ce4a8"},"vehicle_type_id":"4","last_reported":1707167152,"current_range_meters":18000,"station_id":"ce4bgvp2rcd13ifvqcu0","pricing_plan_id":"free"},{"bike_id":"2ddb9959-d35b-4c21-96c7-383dadd13f9a","system_id":"levelo_inurba_marseille","lat":43.313308,"lon":5.39691,"is_reserved":false,"is_disabled":false,"rental_uris":{"android":"levelo://app?vid=2ddb9959-d35b-4c21-96c7-383dadd13f9a","ios":"levelo://app?vid=2ddb9959-d35b-4c21-96c7-383dadd13f9a"},"vehicle_type_id":"4","last_reported":1707167152,"current_range_meters":7600,"station_id":"ce4bgvp2rcd13ifvqcu0","pricing_plan_id":"free"},{"bike_id":"263290b7-3f5f-4422-9b7a-33f2739d74f4","system_id":"levelo_inurba_marseille","lat":43.291909,"lon":5.357969,"is_reserved":false,"is_disabled":false,"rental_uris":{"android":"levelo://app?vid=263290b7-3f5f-4422-9b7a-33f2739d74f4","ios":"levelo://app?vid=263290b7-3f5f-4422-9b7a-33f2739d74f4"},"vehicle_type_id":"4","last_reported":1707167152,"current_range_meters":0,"station_id":"ce4bhb12rcd13ifvqel0","pricing_plan_id":"free"},{"bike_id":"24acd523-dffc-4e9d-bdb3-17e5be54ba12","system_id":"levelo_inurba_marseille","lat":43.313284,"lon":5.396915,"is_reserved":false,"is_disabled":false,"rental_uris":{"android":"levelo://app?vid=24acd523-dffc-4e9d-bdb3-17e5be54ba12","ios":"levelo://app?vid=24acd523-dffc-4e9d-bdb3-17e5be54ba12"},"vehicle_type_id":"4","last_reported":1707167152,"current_range_meters":4800,"station_id":"ce4bgvp2rcd13ifvqcu0","pricing_plan_id":"free"},{"bike_id":"0631623c-4a9e-4247-bdad-cc5d5cc2457f","system_id":"levelo_inurba_marseille","lat":43.31328,"lon":5.39692,"is_reserved":false,"is_disabled":false,"rental_uris":{"android":"levelo://app?vid=0631623c-4a9e-4247-bdad-cc5d5cc2457f","ios":"levelo://app?vid=0631623c-4a9e-4247-bdad-cc5d5cc2457f"},"vehicle_type_id":"4","last_reported":1707167152,"current_range_meters":3200,"station_id":"ce4bgvp2rcd13ifvqcu0","pricing_plan_id":"free"},{"bike_id":"6a09dc80-7eb1-4ddd-8d94-06f0801c356c","system_id":"levelo_inurba_marseille","lat":43.313291,"lon":5.396838,"is_reserved":false,"is_disabled":false,"rental_uris":{"android":"levelo://app?vid=6a09dc80-7eb1-4ddd-8d94-06f0801c356c","ios":"levelo://app?vid=6a09dc80-7eb1-4ddd-8d94-06f0801c356c"},"vehicle_type_id":"4","last_reported":1707167152,"current_range_meters":0,"station_id":"ce4bgvp2rcd13ifvqcu0","pricing_plan_id":"free"},{"bike_id":"69bc5529-7d4d-45ec-9a30-4d9356d03867","system_id":"levelo_inurba_marseille","lat":43.308791,"lon":5.396447,"is_reserved":false,"is_disabled":false,"rental_uris":{"android":"levelo://app?vid=69bc5529-7d4d-45ec-9a30-4d9356d03867","ios":"levelo://app?vid=69bc5529-7d4d-45ec-9a30-4d9356d03867"},"vehicle_type_id":"4","last_reported":1707167152,"current_range_meters":6800,"station_id":"ce4bh012rcd13ifvqcv0","pricing_plan_id":"free"},{"bike_id":"7189e1db-2648-4106-8cc0-ca80993b8e39","system_id":"levelo_inurba_marseille","lat":43.313291,"lon":5.396838,"is_reserved":false,"is_disabled":false,"rental_uris":{"android":"levelo://app?vid=7189e1db-2648-4106-8cc0-ca80993b8e39","ios":"levelo://app?vid=7189e1db-2648-4106-8cc0-ca80993b8e39"},"vehicle_type_id":"4","last_reported":1707167152,"current_range_meters":12400,"station_id":"ce4bgvp2rcd13ifvqcu0","pricing_plan_id":"free"},{"bike_id":"bd0334eb-789b-4ae2-b843-6a42e0c0f9a4","system_id":"levelo_inurba_marseille","lat":43.313291,"lon":5.396838,"is_reserved":false,"is_disabled":false,"rental_uris":{"android":"levelo://app?vid=bd0334eb-789b-4ae2-b843-6a42e0c0f9a4","ios":"levelo://app?vid=bd0334eb-789b-4ae2-b843-6a42e0c0f9a4"},"vehicle_type_id":"4","last_reported":1707167152,"current_range_meters":25600,"station_id":"ce4bgvp2rcd13ifvqcu0","pricing_plan_id":"free"},{"bike_id":"7447e538-93ea-496b-9139-de1f49c84e8d","system_id":"levelo_inurba_marseille","lat":43.313312,"lon":5.396954,"is_reserved":false,"is_disabled":false,"rental_uris":{"android":"levelo://app?vid=7447e538-93ea-496b-9139-de1f49c84e8d","ios":"levelo://app?vid=7447e538-93ea-496b-9139-de1f49c84e8d"},"vehicle_type_id":"4","last_reported":1707167152,"current_range_meters":30000,"station_id":"ce4bgvp2rcd13ifvqcu0","pricing_plan_id":"free"},{"bike_id":"e3ce010b-9cae-4639-95a5-e8ba0c545a2e","system_id":"levelo_inurba_marseille","lat":43.31323,"lon":5.39697,"is_reserved":false,"is_disabled":false,"rental_uris":{"android":"levelo://app?vid=e3ce010b-9cae-4639-95a5-e8ba0c545a2e","ios":"levelo://app?vid=e3ce010b-9cae-4639-95a5-e8ba0c545a2e"},"vehicle_type_id":"4","last_reported":1707167152,"current_range_meters":24400,"station_id":"ce4bgvp2rcd13ifvqcu0","pricing_plan_id":"free"},{"bike_id":"028b69b2-5e8e-4463-8efe-bc9cb2f47340","system_id":"levelo_inurba_marseille","lat":43.31332,"lon":5.39697,"is_reserved":false,"is_disabled":false,"rental_uris":{"android":"levelo://app?vid=028b69b2-5e8e-4463-8efe-bc9cb2f47340","ios":"levelo://app?vid=028b69b2-5e8e-4463-8efe-bc9cb2f47340"},"vehicle_type_id":"4","last_reported":1707167152,"current_range_meters":22400,"station_id":"ce4bgvp2rcd13ifvqcu0","pricing_plan_id":"free"},{"bike_id":"3f1adaa1-f082-4b01-b176-05fce19e59a0","system_id":"levelo_inurba_marseille","lat":43.31326,"lon":5.39698,"is_reserved":false,"is_disabled":false,"rental_uris":{"android":"levelo://app?vid=3f1adaa1-f082-4b01-b176-05fce19e59a0","ios":"levelo://app?vid=3f1adaa1-f082-4b01-b176-05fce19e59a0"},"vehicle_type_id":"4","last_reported":1707167152,"current_range_meters":22400,"station_id":"ce4bgvp2rcd13ifvqcu0","pricing_plan_id":"free"},{"bike_id":"aff7b945-31be-4f2c-bc30-c744e348bb62","system_id":"levelo_inurba_marseille","lat":43.313291,"lon":5.396838,"is_reserved":false,"is_disabled":false,"rental_uris":{"android":"levelo://app?vid=aff7b945-31be-4f2c-bc30-c744e348bb62","ios":"levelo://app?vid=aff7b945-31be-4f2c-bc30-c744e348bb62"},"vehicle_type_id":"4","last_reported":1707167152,"current_range_meters":22800,"station_id":"ce4bgvp2rcd13ifvqcu0","pricing_plan_id":"free"},{"bike_id":"ff0b2937-db5e-461e-b998-b08c472342eb","system_id":"levelo_inurba_marseille","lat":43.31324,"lon":5.397,"is_reserved":false,"is_disabled":false,"rental_uris":{"android":"levelo://app?vid=ff0b2937-db5e-461e-b998-b08c472342eb","ios":"levelo://app?vid=ff0b2937-db5e-461e-b998-b08c472342eb"},"vehicle_type_id":"4","last_reported":1707167152,"current_range_meters":1600,"station_id":"ce4bgvp2rcd13ifvqcu0","pricing_plan_id":"free"},{"bike_id":"fe9a8a76-eac5-40c7-a1d5-daf22af3c9d2","system_id":"levelo_inurba_marseille","lat":43.313291,"lon":5.396838,"is_reserved":false,"is_disabled":false,"rental_uris":{"android":"levelo://app?vid=fe9a8a76-eac5-40c7-a1d5-daf22af3c9d2","ios":"levelo://app?vid=fe9a8a76-eac5-40c7-a1d5-daf22af3c9d2"},"vehicle_type_id":"4","last_reported":1707167152,"current_range_meters":0,"station_id":"ce4bgvp2rcd13ifvqcu0","pricing_plan_id":"free"},{"bike_id":"b2d69ced-47ee-4cb8-87b8-d2050325ab8f","system_id":"levelo_inurba_marseille","lat":43.309038,"lon":5.396546,"is_reserved":false,"is_disabled":false,"rental_uris":{"android":"levelo://app?vid=b2d69ced-47ee-4cb8-87b8-d2050325ab8f","ios":"levelo://app?vid=b2d69ced-47ee-4cb8-87b8-d2050325ab8f"},"vehicle_type_id":"4","last_reported":1707167152,"current_range_meters":20800,"station_id":"ce4bh012rcd13ifvqcv0","pricing_plan_id":"free"},{"bike_id":"3d78babf-b6b5-494b-8319-25c9c350bed9","system_id":"levelo_inurba_marseille","lat":43.313291,"lon":5.396838,"is_reserved":false,"is_disabled":false,"rental_uris":{"android":"levelo://app?vid=3d78babf-b6b5-494b-8319-25c9c350bed9","ios":"levelo://app?vid=3d78babf-b6b5-494b-8319-25c9c350bed9"},"vehicle_type_id":"4","last_reported":1707167152,"current_range_meters":30000,"station_id":"ce4bgvp2rcd13ifvqcu0","pricing_plan_id":"free"},{"bike_id":"eab93203-5aa5-40dd-a5a0-659fa6415334","system_id":"levelo_inurba_marseille","lat":43.29529,"lon":5.385581,"is_reserved":false,"is_disabled":false,"rental_uris":{"android":"levelo://app?vid=eab93203-5aa5-40dd-a5a0-659fa6415334","ios":"levelo://app?vid=eab93203-5aa5-40dd-a5a0-659fa6415334"},"vehicle_type_id":"4","last_reported":1707167152,"current_range_meters":4800,"station_id":"ce4bgih2rcd13ifvqba0","pricing_plan_id":"free"},{"bike_id":"cb48cac4-f5cb-4f97-b74d-e6992b401f82","system_id":"levelo_inurba_marseille","lat":43.29529,"lon":5.385581,"is_reserved":false,"is_disabled":false,"rental_uris":{"android":"levelo://app?vid=cb48cac4-f5cb-4f97-b74d-e6992b401f82","ios":"levelo://app?vid=cb48cac4-f5cb-4f97-b74d-e6992b401f82"},"vehicle_type_id":"4","last_reported":1707167152,"current_range_meters":15600,"station_id":"ce4bgih2rcd13ifvqba0","pricing_plan_id":"free"},{"bike_id":"4419a724-5255-4916-9ab6-08c2c5ae2fc3","system_id":"levelo_inurba_marseille","lat":43.316351,"lon":5.396771,"is_reserved":false,"is_disabled":false,"rental_uris":{"android":"levelo://app?vid=4419a724-5255-4916-9ab6-08c2c5ae2fc3","ios":"levelo://app?vid=4419a724-5255-4916-9ab6-08c2c5ae2fc3"},"vehicle_type_id":"4","last_reported":1707167152,"current_range_meters":22800,"station_id":"","pricing_plan_id":"free"},{"bike_id":"baf5fbfb-626a-41e0-8a73-864d88921197","system_id":"levelo_inurba_marseille","lat":43.29529,"lon":5.385581,"is_reserved":false,"is_disabled":false,"rental_uris":{"android":"levelo://app?vid=baf5fbfb-626a-41e0-8a73-864d88921197","ios":"levelo://app?vid=baf5fbfb-626a-41e0-8a73-864d88921197"},"vehicle_type_id":"4","last_reported":1707167152,"current_range_meters":24400,"station_id":"ce4bgih2rcd13ifvqba0","pricing_plan_id":"free"},{"bike_id":"f6f69228-e3df-4c31-92b2-c32b86398e00","system_id":"levelo_inurba_marseille","lat":43.29529,"lon":5.385581,"is_reserved":false,"is_disabled":false,"rental_uris":{"android":"levelo://app?vid=f6f69228-e3df-4c31-92b2-c32b86398e00","ios":"levelo://app?vid=f6f69228-e3df-4c31-92b2-c32b86398e00"},"vehicle_type_id":"4","last_reported":1707167152,"current_range_meters":10000,"station_id":"ce4bgih2rcd13ifvqba0","pricing_plan_id":"free"},{"bike_id":"5958fd2b-78ce-408e-9df9-b106c2e8521f","system_id":"levelo_inurba_marseille","lat":43.295295,"lon":5.385462,"is_reserved":false,"is_disabled":false,"rental_uris":{"android":"levelo://app?vid=5958fd2b-78ce-408e-9df9-b106c2e8521f","ios":"levelo://app?vid=5958fd2b-78ce-408e-9df9-b106c2e8521f"},"vehicle_type_id":"4","last_reported":1707167152,"current_range_meters":30400,"station_id":"ce4bgih2rcd13ifvqba0","pricing_plan_id":"free"},{"bike_id":"830502f4-694f-4883-86e9-b5349300d8a7","system_id":"levelo_inurba_marseille","lat":43.29529,"lon":5.385581,"is_reserved":false,"is_disabled":false,"rental_uris":{"android":"levelo://app?vid=830502f4-694f-4883-86e9-b5349300d8a7","ios":"levelo://app?vid=830502f4-694f-4883-86e9-b5349300d8a7"},"vehicle_type_id":"4","last_reported":1707167152,"current_range_meters":29600,"station_id":"ce4bgih2rcd13ifvqba0","pricing_plan_id":"free"},{"bike_id":"23855922-8077-4200-b5b0-61e919aa6847","system_id":"levelo_inurba_marseille","lat":43.29529,"lon":5.385581,"is_reserved":false,"is_disabled":false,"rental_uris":{"android":"levelo://app?vid=23855922-8077-4200-b5b0-61e919aa6847","ios":"levelo://app?vid=23855922-8077-4200-b5b0-61e919aa6847"},"vehicle_type_id":"4","last_reported":1707167152,"current_range_meters":31200,"station_id":"ce4bgih2rcd13ifvqba0","pricing_plan_id":"free"},{"bike_id":"7bdf159e-e848-4251-832f-bd6216b524dc","system_id":"levelo_inurba_marseille","lat":43.29529,"lon":5.385581,"is_reserved":false,"is_disabled":false,"rental_uris":{"android":"levelo://app?vid=7bdf159e-e848-4251-832f-bd6216b524dc","ios":"levelo://app?vid=7bdf159e-e848-4251-832f-bd6216b524dc"},"vehicle_type_id":"4","last_reported":1707167152,"current_range_meters":11600,"station_id":"ce4bgih2rcd13ifvqba0","pricing_plan_id":"free"},{"bike_id":"2472e0f7-0022-470c-a8a2-93d08c1ff338","system_id":"levelo_inurba_marseille","lat":43.29529,"lon":5.385581,"is_reserved":false,"is_disabled":false,"rental_uris":{"android":"levelo://app?vid=2472e0f7-0022-470c-a8a2-93d08c1ff338","ios":"levelo://app?vid=2472e0f7-0022-470c-a8a2-93d08c1ff338"},"vehicle_type_id":"4","last_reported":1707167152,"current_range_meters":10800,"station_id":"ce4bgih2rcd13ifvqba0","pricing_plan_id":"free"},{"bike_id":"f51e474c-e7d2-4ebb-b739-fd600a346ae3","system_id":"levelo_inurba_marseille","lat":43.290779,"lon":5.371482,"is_reserved":false,"is_disabled":false,"rental_uris":{"android":"levelo://app?vid=f51e474c-e7d2-4ebb-b739-fd600a346ae3","ios":"levelo://app?vid=f51e474c-e7d2-4ebb-b739-fd600a346ae3"},"vehicle_type_id":"4","last_reported":1707167152,"current_range_meters":15200,"station_id":"ce4bh5p2rcd13ifvqe4g","pricing_plan_id":"free"},{"bike_id":"c43c66c8-47ae-4a02-96c5-4d507d6a780d","system_id":"levelo_inurba_marseille","lat":43.290631,"lon":5.359244,"is_reserved":false,"is_disabled":false,"rental_uris":{"android":"levelo://app?vid=c43c66c8-47ae-4a02-96c5-4d507d6a780d","ios":"levelo://app?vid=c43c66c8-47ae-4a02-96c5-4d507d6a780d"},"vehicle_type_id":"4","last_reported":1707167152,"current_range_meters":25200,"station_id":"ce4bha92rcd13ifvqeg0","pricing_plan_id":"free"},{"bike_id":"b7a557b6-207c-4498-87d4-bb4315e98c44","system_id":"levelo_inurba_marseille","lat":43.290624,"lon":5.359245,"is_reserved":false,"is_disabled":false,"rental_uris":{"android":"levelo://app?vid=b7a557b6-207c-4498-87d4-bb4315e98c44","ios":"levelo://app?vid=b7a557b6-207c-4498-87d4-bb4315e98c44"},"vehicle_type_id":"4","last_reported":1707167152,"current_range_meters":18400,"station_id":"ce4bha92rcd13ifvqeg0","pricing_plan_id":"free"},{"bike_id":"566d8197-0dda-49eb-84a3-ff5e1aedc452","system_id":"levelo_inurba_marseille","lat":43.290631,"lon":5.359244,"is_reserved":false,"is_disabled":false,"rental_uris":{"android":"levelo://app?vid=566d8197-0dda-49eb-84a3-ff5e1aedc452","ios":"levelo://app?vid=566d8197-0dda-49eb-84a3-ff5e1aedc452"},"vehicle_type_id":"4","last_reported":1707167152,"current_range_meters":4000,"station_id":"ce4bha92rcd13ifvqeg0","pricing_plan_id":"free"},{"bike_id":"f12bd98f-b3ac-4d18-9c63-9d3c6bc422d3","system_id":"levelo_inurba_marseille","lat":43.2942,"lon":5.38623,"is_reserved":false,"is_disabled":false,"rental_uris":{"android":"levelo://app?vid=f12bd98f-b3ac-4d18-9c63-9d3c6bc422d3","ios":"levelo://app?vid=f12bd98f-b3ac-4d18-9c63-9d3c6bc422d3"},"vehicle_type_id":"4","last_reported":1707167152,"current_range_meters":0,"station_id":"ce4bh2h2rcd13ifvqdh0","pricing_plan_id":"free"},{"bike_id":"00ae7e26-0e9d-4ea9-b2bc-58f1b1ede344","system_id":"levelo_inurba_marseille","lat":43.294153,"lon":5.386305,"is_reserved":false,"is_disabled":false,"rental_uris":{"android":"levelo://app?vid=00ae7e26-0e9d-4ea9-b2bc-58f1b1ede344","ios":"levelo://app?vid=00ae7e26-0e9d-4ea9-b2bc-58f1b1ede344"},"vehicle_type_id":"4","last_reported":1707167152,"current_range_meters":4400,"station_id":"ce4bh2h2rcd13ifvqdh0","pricing_plan_id":"free"},{"bike_id":"b1a6d20e-e781-454e-b481-44a4fa187749","system_id":"levelo_inurba_marseille","lat":43.289184,"lon":5.366408,"is_reserved":false,"is_disabled":false,"rental_uris":{"android":"levelo://app?vid=b1a6d20e-e781-454e-b481-44a4fa187749","ios":"levelo://app?vid=b1a6d20e-e781-454e-b481-44a4fa187749"},"vehicle_type_id":"4","last_reported":1707167152,"current_range_meters":18800,"station_id":"ce4bhap2rcd13ifvqek0","pricing_plan_id":"free"},{"bike_id":"244e72d7-3ba8-4e26-8f32-dc3b75c656e7","system_id":"levelo_inurba_marseille","lat":43.289184,"lon":5.366408,"is_reserved":false,"is_disabled":false,"rental_uris":{"android":"levelo://app?vid=244e72d7-3ba8-4e26-8f32-dc3b75c656e7","ios":"levelo://app?vid=244e72d7-3ba8-4e26-8f32-dc3b75c656e7"},"vehicle_type_id":"4","last_reported":1707167152,"current_range_meters":17600,"station_id":"ce4bhap2rcd13ifvqek0","pricing_plan_id":"free"},{"bike_id":"fc7d8f5c-f000-44ba-a383-e454b1baee36","system_id":"levelo_inurba_marseille","lat":43.289468,"lon":5.363719,"is_reserved":false,"is_disabled":false,"rental_uris":{"android":"levelo://app?vid=fc7d8f5c-f000-44ba-a383-e454b1baee36","ios":"levelo://app?vid=fc7d8f5c-f000-44ba-a383-e454b1baee36"},"vehicle_type_id":"4","last_reported":1707167152,"current_range_meters":30800,"station_id":"ce4bhc92rcd13ifvqetg","pricing_plan_id":"free"},{"bike_id":"bda46709-d167-413b-b592-a6c1898a91a9","system_id":"levelo_inurba_marseille","lat":43.289468,"lon":5.363719,"is_reserved":false,"is_disabled":false,"rental_uris":{"android":"levelo://app?vid=bda46709-d167-413b-b592-a6c1898a91a9","ios":"levelo://app?vid=bda46709-d167-413b-b592-a6c1898a91a9"},"vehicle_type_id":"4","last_reported":1707167152,"current_range_meters":15600,"station_id":"ce4bhc92rcd13ifvqetg","pricing_plan_id":"free"},{"bike_id":"ac506a4f-3e73-43c9-9d29-713ff3ed32cd","system_id":"levelo_inurba_marseille","lat":43.289184,"lon":5.366408,"is_reserved":false,"is_disabled":false,"rental_uris":{"android":"levelo://app?vid=ac506a4f-3e73-43c9-9d29-713ff3ed32cd","ios":"levelo://app?vid=ac506a4f-3e73-43c9-9d29-713ff3ed32cd"},"vehicle_type_id":"4","last_reported":1707167152,"current_range_meters":17600,"station_id":"ce4bhap2rcd13ifvqek0","pricing_plan_id":"free"},{"bike_id":"e587fde1-6971-4fe2-aa05-e7d4efca285e","system_id":"levelo_inurba_marseille","lat":43.28936,"lon":5.36631,"is_reserved":false,"is_disabled":false,"rental_uris":{"android":"levelo://app?vid=e587fde1-6971-4fe2-aa05-e7d4efca285e","ios":"levelo://app?vid=e587fde1-6971-4fe2-aa05-e7d4efca285e"},"vehicle_type_id":"4","last_reported":1707167152,"current_range_meters":4400,"station_id":"ce4bhap2rcd13ifvqek0","pricing_plan_id":"free"},{"bike_id":"e2e49b5b-5def-4ac3-a348-3d5913850d6c","system_id":"levelo_inurba_marseille","lat":43.289354,"lon":5.366469,"is_reserved":false,"is_disabled":false,"rental_uris":{"android":"levelo://app?vid=e2e49b5b-5def-4ac3-a348-3d5913850d6c","ios":"levelo://app?vid=e2e49b5b-5def-4ac3-a348-3d5913850d6c"},"vehicle_type_id":"4","last_reported":1707167152,"current_range_meters":22800,"station_id":"ce4bhap2rcd13ifvqek0","pricing_plan_id":"free"},{"bike_id":"8249ce6c-6c4d-4143-a530-e120180786e5","system_id":"levelo_inurba_marseille","lat":43.28933,"lon":5.36639,"is_reserved":false,"is_disabled":false,"rental_uris":{"android":"levelo://app?vid=8249ce6c-6c4d-4143-a530-e120180786e5","ios":"levelo://app?vid=8249ce6c-6c4d-4143-a530-e120180786e5"},"vehicle_type_id":"4","last_reported":1707167152,"current_range_meters":0,"station_id":"ce4bhap2rcd13ifvqek0","pricing_plan_id":"free"},{"bike_id":"214c6f0a-8b71-4327-89b8-5e0d94d9557e","system_id":"levelo_inurba_marseille","lat":43.289468,"lon":5.363719,"is_reserved":false,"is_disabled":false,"rental_uris":{"android":"levelo://app?vid=214c6f0a-8b71-4327-89b8-5e0d94d9557e","ios":"levelo://app?vid=214c6f0a-8b71-4327-89b8-5e0d94d9557e"},"vehicle_type_id":"4","last_reported":1707167152,"current_range_meters":17200,"station_id":"ce4bhc92rcd13ifvqetg","pricing_plan_id":"free"},{"bike_id":"30e63aee-ebd5-4086-b7ae-6180eb491738","system_id":"levelo_inurba_marseille","lat":43.289263,"lon":5.366382,"is_reserved":false,"is_disabled":false,"rental_uris":{"android":"levelo://app?vid=30e63aee-ebd5-4086-b7ae-6180eb491738","ios":"levelo://app?vid=30e63aee-ebd5-4086-b7ae-6180eb491738"},"vehicle_type_id":"4","last_reported":1707167152,"current_range_meters":12800,"station_id":"ce4bhap2rcd13ifvqek0","pricing_plan_id":"free"},{"bike_id":"c343f3fe-ab42-49e3-8f91-565e26a752f5","system_id":"levelo_inurba_marseille","lat":43.289468,"lon":5.363719,"is_reserved":false,"is_disabled":false,"rental_uris":{"android":"levelo://app?vid=c343f3fe-ab42-49e3-8f91-565e26a752f5","ios":"levelo://app?vid=c343f3fe-ab42-49e3-8f91-565e26a752f5"},"vehicle_type_id":"4","last_reported":1707167152,"current_range_meters":13600,"station_id":"ce4bhc92rcd13ifvqetg","pricing_plan_id":"free"},{"bike_id":"89bc92f6-2212-4fe1-a9bb-618a545329cc","system_id":"levelo_inurba_marseille","lat":43.289468,"lon":5.363719,"is_reserved":false,"is_disabled":false,"rental_uris":{"android":"levelo://app?vid=89bc92f6-2212-4fe1-a9bb-618a545329cc","ios":"levelo://app?vid=89bc92f6-2212-4fe1-a9bb-618a545329cc"},"vehicle_type_id":"4","last_reported":1707167152,"current_range_meters":6000,"station_id":"ce4bhc92rcd13ifvqetg","pricing_plan_id":"free"},{"bike_id":"75a1e213-5dd1-4bda-85ab-92fb8600611a","system_id":"levelo_inurba_marseille","lat":43.289468,"lon":5.363719,"is_reserved":false,"is_disabled":false,"rental_uris":{"android":"levelo://app?vid=75a1e213-5dd1-4bda-85ab-92fb8600611a","ios":"levelo://app?vid=75a1e213-5dd1-4bda-85ab-92fb8600611a"},"vehicle_type_id":"4","last_reported":1707167152,"current_range_meters":28400,"station_id":"ce4bhc92rcd13ifvqetg","pricing_plan_id":"free"},{"bike_id":"ad241d81-ecc7-423f-afaa-01d93d960f68","system_id":"levelo_inurba_marseille","lat":43.292778,"lon":5.384483,"is_reserved":false,"is_disabled":false,"rental_uris":{"android":"levelo://app?vid=ad241d81-ecc7-423f-afaa-01d93d960f68","ios":"levelo://app?vid=ad241d81-ecc7-423f-afaa-01d93d960f68"},"vehicle_type_id":"4","last_reported":1707167152,"current_range_meters":4000,"station_id":"ce4bh692rcd13ifvqea0","pricing_plan_id":"free"},{"bike_id":"f4a70ade-789b-4422-8de5-b8540d89a4ee","system_id":"levelo_inurba_marseille","lat":43.29274,"lon":5.384476,"is_reserved":false,"is_disabled":false,"rental_uris":{"android":"levelo://app?vid=f4a70ade-789b-4422-8de5-b8540d89a4ee","ios":"levelo://app?vid=f4a70ade-789b-4422-8de5-b8540d89a4ee"},"vehicle_type_id":"4","last_reported":1707167152,"current_range_meters":0,"station_id":"ce4bh692rcd13ifvqea0","pricing_plan_id":"free"},{"bike_id":"1ab4c7dd-fe68-4704-a4be-a304fd0fb638","system_id":"levelo_inurba_marseille","lat":43.305994,"lon":5.393687,"is_reserved":false,"is_disabled":false,"rental_uris":{"android":"levelo://app?vid=1ab4c7dd-fe68-4704-a4be-a304fd0fb638","ios":"levelo://app?vid=1ab4c7dd-fe68-4704-a4be-a304fd0fb638"},"vehicle_type_id":"4","last_reported":1707167152,"current_range_meters":6800,"station_id":"ce4bh0p2rcd13ifvqd80","pricing_plan_id":"free"},{"bike_id":"a2539f4e-a159-42ab-9d28-751e82d484cd","system_id":"levelo_inurba_marseille","lat":43.292738,"lon":5.384495,"is_reserved":false,"is_disabled":false,"rental_uris":{"android":"levelo://app?vid=a2539f4e-a159-42ab-9d28-751e82d484cd","ios":"levelo://app?vid=a2539f4e-a159-42ab-9d28-751e82d484cd"},"vehicle_type_id":"4","last_reported":1707167152,"current_range_meters":2400,"station_id":"ce4bh692rcd13ifvqea0","pricing_plan_id":"free"},{"bike_id":"a811f7a7-fc15-448a-b504-d6fb01769d9f","system_id":"levelo_inurba_marseille","lat":43.29264,"lon":5.38444,"is_reserved":false,"is_disabled":false,"rental_uris":{"android":"levelo://app?vid=a811f7a7-fc15-448a-b504-d6fb01769d9f","ios":"levelo://app?vid=a811f7a7-fc15-448a-b504-d6fb01769d9f"},"vehicle_type_id":"4","last_reported":1707167152,"current_range_meters":0,"station_id":"ce4bh692rcd13ifvqea0","pricing_plan_id":"free"},{"bike_id":"391ccb18-d4d6-4127-8056-ca569570e9b7","system_id":"levelo_inurba_marseille","lat":43.292642,"lon":5.384254,"is_reserved":false,"is_disabled":false,"rental_uris":{"android":"levelo://app?vid=391ccb18-d4d6-4127-8056-ca569570e9b7","ios":"levelo://app?vid=391ccb18-d4d6-4127-8056-ca569570e9b7"},"vehicle_type_id":"4","last_reported":1707167152,"current_range_meters":0,"station_id":"ce4bh692rcd13ifvqea0","pricing_plan_id":"free"},{"bike_id":"2dbf349a-485c-4872-b7ad-aab60113c936","system_id":"levelo_inurba_marseille","lat":43.292642,"lon":5.384254,"is_reserved":false,"is_disabled":false,"rental_uris":{"android":"levelo://app?vid=2dbf349a-485c-4872-b7ad-aab60113c936","ios":"levelo://app?vid=2dbf349a-485c-4872-b7ad-aab60113c936"},"vehicle_type_id":"4","last_reported":1707167152,"current_range_meters":18400,"station_id":"ce4bh692rcd13ifvqea0","pricing_plan_id":"free"},{"bike_id":"1c86cad6-c7e1-427d-96d7-3ed897233140","system_id":"levelo_inurba_marseille","lat":43.290103,"lon":5.356114,"is_reserved":false,"is_disabled":false,"rental_uris":{"android":"levelo://app?vid=1c86cad6-c7e1-427d-96d7-3ed897233140","ios":"levelo://app?vid=1c86cad6-c7e1-427d-96d7-3ed897233140"},"vehicle_type_id":"4","last_reported":1707167152,"current_range_meters":1200,"station_id":"ce4bhb92rcd13ifvqen0","pricing_plan_id":"free"},{"bike_id":"4184b14e-8b3e-406d-a783-b476af9c7d3b","system_id":"levelo_inurba_marseille","lat":43.290112,"lon":5.35612,"is_reserved":false,"is_disabled":false,"rental_uris":{"android":"levelo://app?vid=4184b14e-8b3e-406d-a783-b476af9c7d3b","ios":"levelo://app?vid=4184b14e-8b3e-406d-a783-b476af9c7d3b"},"vehicle_type_id":"4","last_reported":1707167152,"current_range_meters":0,"station_id":"ce4bhb92rcd13ifvqen0","pricing_plan_id":"free"},{"bike_id":"cd033e42-c881-4844-b086-682b365aa785","system_id":"levelo_inurba_marseille","lat":43.2901,"lon":5.35609,"is_reserved":false,"is_disabled":false,"rental_uris":{"android":"levelo://app?vid=cd033e42-c881-4844-b086-682b365aa785","ios":"levelo://app?vid=cd033e42-c881-4844-b086-682b365aa785"},"vehicle_type_id":"4","last_reported":1707167152,"current_range_meters":17600,"station_id":"ce4bhb92rcd13ifvqen0","pricing_plan_id":"free"},{"bike_id":"d87a43d2-eb7a-423c-9add-572b788dd305","system_id":"levelo_inurba_marseille","lat":43.297888,"lon":5.393411,"is_reserved":false,"is_disabled":false,"rental_uris":{"android":"levelo://app?vid=d87a43d2-eb7a-423c-9add-572b788dd305","ios":"levelo://app?vid=d87a43d2-eb7a-423c-9add-572b788dd305"},"vehicle_type_id":"4","last_reported":1707167152,"current_range_meters":16800,"station_id":"chh1huq6cuj3fo74tm60","pricing_plan_id":"free"},{"bike_id":"b7a7d7af-765d-4977-bfad-5a7575380362","system_id":"levelo_inurba_marseille","lat":43.297815,"lon":5.393548,"is_reserved":false,"is_disabled":false,"rental_uris":{"android":"levelo://app?vid=b7a7d7af-765d-4977-bfad-5a7575380362","ios":"levelo://app?vid=b7a7d7af-765d-4977-bfad-5a7575380362"},"vehicle_type_id":"4","last_reported":1707167152,"current_range_meters":14400,"station_id":"chh1huq6cuj3fo74tm60","pricing_plan_id":"free"},{"bike_id":"383fecf4-c283-4ff2-a945-f97c814fb9e5","system_id":"levelo_inurba_marseille","lat":43.297815,"lon":5.393548,"is_reserved":false,"is_disabled":false,"rental_uris":{"android":"levelo://app?vid=383fecf4-c283-4ff2-a945-f97c814fb9e5","ios":"levelo://app?vid=383fecf4-c283-4ff2-a945-f97c814fb9e5"},"vehicle_type_id":"4","last_reported":1707167152,"current_range_meters":15600,"station_id":"chh1huq6cuj3fo74tm60","pricing_plan_id":"free"},{"bike_id":"94bb7d01-01a2-4190-8e02-6cf5c5556a05","system_id":"levelo_inurba_marseille","lat":43.297815,"lon":5.393548,"is_reserved":false,"is_disabled":false,"rental_uris":{"android":"levelo://app?vid=94bb7d01-01a2-4190-8e02-6cf5c5556a05","ios":"levelo://app?vid=94bb7d01-01a2-4190-8e02-6cf5c5556a05"},"vehicle_type_id":"4","last_reported":1707167152,"current_range_meters":0,"station_id":"chh1huq6cuj3fo74tm60","pricing_plan_id":"free"},{"bike_id":"32c118b0-c898-48d6-ae3e-91767397bede","system_id":"levelo_inurba_marseille","lat":43.33017,"lon":5.39039,"is_reserved":false,"is_disabled":false,"rental_uris":{"android":"levelo://app?vid=32c118b0-c898-48d6-ae3e-91767397bede","ios":"levelo://app?vid=32c118b0-c898-48d6-ae3e-91767397bede"},"vehicle_type_id":"4","last_reported":1707167152,"current_range_meters":3600,"station_id":"ce4bhr92rcd13ifvqhrg","pricing_plan_id":"free"},{"bike_id":"3fe6d1f0-cf87-410d-bcbb-b9715ccec449","system_id":"levelo_inurba_marseille","lat":43.297815,"lon":5.393548,"is_reserved":false,"is_disabled":false,"rental_uris":{"android":"levelo://app?vid=3fe6d1f0-cf87-410d-bcbb-b9715ccec449","ios":"levelo://app?vid=3fe6d1f0-cf87-410d-bcbb-b9715ccec449"},"vehicle_type_id":"4","last_reported":1707167152,"current_range_meters":22800,"station_id":"chh1huq6cuj3fo74tm60","pricing_plan_id":"free"},{"bike_id":"b5772277-1e5a-490d-974c-370957e07eed","system_id":"levelo_inurba_marseille","lat":43.33021,"lon":5.39037,"is_reserved":false,"is_disabled":false,"rental_uris":{"android":"levelo://app?vid=b5772277-1e5a-490d-974c-370957e07eed","ios":"levelo://app?vid=b5772277-1e5a-490d-974c-370957e07eed"},"vehicle_type_id":"4","last_reported":1707167152,"current_range_meters":5600,"station_id":"ce4bhr92rcd13ifvqhrg","pricing_plan_id":"free"},{"bike_id":"baa26e4d-1d69-4d44-9c43-7fa7bc9a94af","system_id":"levelo_inurba_marseille","lat":43.33023,"lon":5.39043,"is_reserved":false,"is_disabled":false,"rental_uris":{"android":"levelo://app?vid=baa26e4d-1d69-4d44-9c43-7fa7bc9a94af","ios":"levelo://app?vid=baa26e4d-1d69-4d44-9c43-7fa7bc9a94af"},"vehicle_type_id":"4","last_reported":1707167152,"current_range_meters":25200,"station_id":"ce4bhr92rcd13ifvqhrg","pricing_plan_id":"free"},{"bike_id":"b9ba3a6e-065a-49ce-82e3-3d6dbb6ea2bf","system_id":"levelo_inurba_marseille","lat":43.295169,"lon":5.390426,"is_reserved":false,"is_disabled":false,"rental_uris":{"android":"levelo://app?vid=b9ba3a6e-065a-49ce-82e3-3d6dbb6ea2bf","ios":"levelo://app?vid=b9ba3a6e-065a-49ce-82e3-3d6dbb6ea2bf"},"vehicle_type_id":"4","last_reported":1707167152,"current_range_meters":23200,"station_id":"ce4bh3p2rcd13ifvqdp0","pricing_plan_id":"free"},{"bike_id":"70d0823d-5c44-443a-b015-47c036c989a8","system_id":"levelo_inurba_marseille","lat":43.290094,"lon":5.381264,"is_reserved":false,"is_disabled":false,"rental_uris":{"android":"levelo://app?vid=70d0823d-5c44-443a-b015-47c036c989a8","ios":"levelo://app?vid=70d0823d-5c44-443a-b015-47c036c989a8"},"vehicle_type_id":"4","last_reported":1707167152,"current_range_meters":800,"station_id":"ce4bh4p2rcd13ifvqe1g","pricing_plan_id":"free"},{"bike_id":"6ef41720-a67d-415a-a58f-7a7dc774e5ff","system_id":"levelo_inurba_marseille","lat":43.28856,"lon":5.358371,"is_reserved":false,"is_disabled":false,"rental_uris":{"android":"levelo://app?vid=6ef41720-a67d-415a-a58f-7a7dc774e5ff","ios":"levelo://app?vid=6ef41720-a67d-415a-a58f-7a7dc774e5ff"},"vehicle_type_id":"4","last_reported":1707167152,"current_range_meters":0,"station_id":"ce4bhb12rcd13ifvqem0","pricing_plan_id":"free"},{"bike_id":"f799c0a7-6554-479a-808f-d81a63363393","system_id":"levelo_inurba_marseille","lat":43.31189,"lon":5.40111,"is_reserved":false,"is_disabled":false,"rental_uris":{"android":"levelo://app?vid=f799c0a7-6554-479a-808f-d81a63363393","ios":"levelo://app?vid=f799c0a7-6554-479a-808f-d81a63363393"},"vehicle_type_id":"4","last_reported":1707167152,"current_range_meters":6400,"station_id":"","pricing_plan_id":"free"},{"bike_id":"ed9a2a96-daae-4f1c-b257-c03c57957d88","system_id":"levelo_inurba_marseille","lat":43.28856,"lon":5.358371,"is_reserved":false,"is_disabled":false,"rental_uris":{"android":"levelo://app?vid=ed9a2a96-daae-4f1c-b257-c03c57957d88","ios":"levelo://app?vid=ed9a2a96-daae-4f1c-b257-c03c57957d88"},"vehicle_type_id":"4","last_reported":1707167152,"current_range_meters":11600,"station_id":"ce4bhb12rcd13ifvqem0","pricing_plan_id":"free"},{"bike_id":"d01e54af-f0ad-4541-824c-86e8425aa5e7","system_id":"levelo_inurba_marseille","lat":43.28856,"lon":5.358371,"is_reserved":false,"is_disabled":false,"rental_uris":{"android":"levelo://app?vid=d01e54af-f0ad-4541-824c-86e8425aa5e7","ios":"levelo://app?vid=d01e54af-f0ad-4541-824c-86e8425aa5e7"},"vehicle_type_id":"4","last_reported":1707167152,"current_range_meters":18800,"station_id":"ce4bhb12rcd13ifvqem0","pricing_plan_id":"free"},{"bike_id":"cc9f828a-79fa-4292-8818-143a25e9609d","system_id":"levelo_inurba_marseille","lat":43.28856,"lon":5.358371,"is_reserved":false,"is_disabled":false,"rental_uris":{"android":"levelo://app?vid=cc9f828a-79fa-4292-8818-143a25e9609d","ios":"levelo://app?vid=cc9f828a-79fa-4292-8818-143a25e9609d"},"vehicle_type_id":"4","last_reported":1707167152,"current_range_meters":6400,"station_id":"ce4bhb12rcd13ifvqem0","pricing_plan_id":"free"},{"bike_id":"4475a748-44e8-4b81-a3b8-2d83771dd8e5","system_id":"levelo_inurba_marseille","lat":43.28856,"lon":5.358371,"is_reserved":false,"is_disabled":false,"rental_uris":{"android":"levelo://app?vid=4475a748-44e8-4b81-a3b8-2d83771dd8e5","ios":"levelo://app?vid=4475a748-44e8-4b81-a3b8-2d83771dd8e5"},"vehicle_type_id":"4","last_reported":1707167152,"current_range_meters":13600,"station_id":"ce4bhb12rcd13ifvqem0","pricing_plan_id":"free"},{"bike_id":"2ce473c3-9d30-49bd-a4db-d97f4cee8463","system_id":"levelo_inurba_marseille","lat":43.28856,"lon":5.358371,"is_reserved":false,"is_disabled":false,"rental_uris":{"android":"levelo://app?vid=2ce473c3-9d30-49bd-a4db-d97f4cee8463","ios":"levelo://app?vid=2ce473c3-9d30-49bd-a4db-d97f4cee8463"},"vehicle_type_id":"4","last_reported":1707167152,"current_range_meters":6400,"station_id":"ce4bhb12rcd13ifvqem0","pricing_plan_id":"free"},{"bike_id":"c623ed3b-c03c-4636-8716-7e9b14d1c7e9","system_id":"levelo_inurba_marseille","lat":43.337405,"lon":5.374496,"is_reserved":false,"is_disabled":false,"rental_uris":{"android":"levelo://app?vid=c623ed3b-c03c-4636-8716-7e9b14d1c7e9","ios":"levelo://app?vid=c623ed3b-c03c-4636-8716-7e9b14d1c7e9"},"vehicle_type_id":"4","last_reported":1707167152,"current_range_meters":30400,"station_id":"","pricing_plan_id":"free"},{"bike_id":"d019aae9-15fd-4a6f-a27e-be3035201242","system_id":"levelo_inurba_marseille","lat":43.312609,"lon":5.401662,"is_reserved":false,"is_disabled":false,"rental_uris":{"android":"levelo://app?vid=d019aae9-15fd-4a6f-a27e-be3035201242","ios":"levelo://app?vid=d019aae9-15fd-4a6f-a27e-be3035201242"},"vehicle_type_id":"4","last_reported":1707167152,"current_range_meters":10800,"station_id":"ce4bh092rcd13ifvqd30","pricing_plan_id":"free"},{"bike_id":"d3608585-baf1-4d13-a7b6-61e77cee46b7","system_id":"levelo_inurba_marseille","lat":43.309371,"lon":5.401449,"is_reserved":false,"is_disabled":false,"rental_uris":{"android":"levelo://app?vid=d3608585-baf1-4d13-a7b6-61e77cee46b7","ios":"levelo://app?vid=d3608585-baf1-4d13-a7b6-61e77cee46b7"},"vehicle_type_id":"4","last_reported":1707167152,"current_range_meters":25200,"station_id":"ce4bgvp2rcd13ifvqct0","pricing_plan_id":"free"},{"bike_id":"0cbb4923-9753-46b2-802c-fc001737c530","system_id":"levelo_inurba_marseille","lat":43.337456,"lon":5.374561,"is_reserved":false,"is_disabled":false,"rental_uris":{"android":"levelo://app?vid=0cbb4923-9753-46b2-802c-fc001737c530","ios":"levelo://app?vid=0cbb4923-9753-46b2-802c-fc001737c530"},"vehicle_type_id":"4","last_reported":1707167152,"current_range_meters":29600,"station_id":"","pricing_plan_id":"free"},{"bike_id":"c88b544a-7d5f-44cd-9e90-26ffcf31651a","system_id":"levelo_inurba_marseille","lat":43.32686,"lon":5.39586,"is_reserved":false,"is_disabled":false,"rental_uris":{"android":"levelo://app?vid=c88b544a-7d5f-44cd-9e90-26ffcf31651a","ios":"levelo://app?vid=c88b544a-7d5f-44cd-9e90-26ffcf31651a"},"vehicle_type_id":"4","last_reported":1707167152,"current_range_meters":8400,"station_id":"","pricing_plan_id":"free"},{"bike_id":"a330071c-2da9-4b64-9bc3-5446b815df8b","system_id":"levelo_inurba_marseille","lat":43.309293,"lon":5.401479,"is_reserved":false,"is_disabled":false,"rental_uris":{"android":"levelo://app?vid=a330071c-2da9-4b64-9bc3-5446b815df8b","ios":"levelo://app?vid=a330071c-2da9-4b64-9bc3-5446b815df8b"},"vehicle_type_id":"4","last_reported":1707167152,"current_range_meters":0,"station_id":"ce4bgvp2rcd13ifvqct0","pricing_plan_id":"free"},{"bike_id":"8ae7335a-745c-47ce-bae3-f7137c433657","system_id":"levelo_inurba_marseille","lat":43.30924,"lon":5.40147,"is_reserved":false,"is_disabled":false,"rental_uris":{"android":"levelo://app?vid=8ae7335a-745c-47ce-bae3-f7137c433657","ios":"levelo://app?vid=8ae7335a-745c-47ce-bae3-f7137c433657"},"vehicle_type_id":"4","last_reported":1707167152,"current_range_meters":4400,"station_id":"ce4bgvp2rcd13ifvqct0","pricing_plan_id":"free"},{"bike_id":"51d2b538-b175-4d78-a9aa-5457907f7427","system_id":"levelo_inurba_marseille","lat":43.337501,"lon":5.374666,"is_reserved":false,"is_disabled":false,"rental_uris":{"android":"levelo://app?vid=51d2b538-b175-4d78-a9aa-5457907f7427","ios":"levelo://app?vid=51d2b538-b175-4d78-a9aa-5457907f7427"},"vehicle_type_id":"4","last_reported":1707167152,"current_range_meters":11600,"station_id":"","pricing_plan_id":"free"},{"bike_id":"969979b9-d9fd-446a-9a67-0604cf8a0ff5","system_id":"levelo_inurba_marseille","lat":43.306412,"lon":5.401035,"is_reserved":false,"is_disabled":false,"rental_uris":{"android":"levelo://app?vid=969979b9-d9fd-446a-9a67-0604cf8a0ff5","ios":"levelo://app?vid=969979b9-d9fd-446a-9a67-0604cf8a0ff5"},"vehicle_type_id":"4","last_reported":1707167152,"current_range_meters":22400,"station_id":"ce4bh112rcd13ifvqda0","pricing_plan_id":"free"},{"bike_id":"e5cd9ba0-809c-457b-b079-012319951636","system_id":"levelo_inurba_marseille","lat":43.33748,"lon":5.37491,"is_reserved":false,"is_disabled":false,"rental_uris":{"android":"levelo://app?vid=e5cd9ba0-809c-457b-b079-012319951636","ios":"levelo://app?vid=e5cd9ba0-809c-457b-b079-012319951636"},"vehicle_type_id":"4","last_reported":1707167152,"current_range_meters":24800,"station_id":"","pricing_plan_id":"free"},{"bike_id":"213f17dd-374e-4dff-9321-d5dea79456ff","system_id":"levelo_inurba_marseille","lat":43.30642,"lon":5.401031,"is_reserved":false,"is_disabled":false,"rental_uris":{"android":"levelo://app?vid=213f17dd-374e-4dff-9321-d5dea79456ff","ios":"levelo://app?vid=213f17dd-374e-4dff-9321-d5dea79456ff"},"vehicle_type_id":"4","last_reported":1707167152,"current_range_meters":31200,"station_id":"ce4bh112rcd13ifvqda0","pricing_plan_id":"free"},{"bike_id":"eaae03a2-ed37-4ff3-b6c1-696f5dfb9726","system_id":"levelo_inurba_marseille","lat":43.33753,"lon":5.374641,"is_reserved":false,"is_disabled":false,"rental_uris":{"android":"levelo://app?vid=eaae03a2-ed37-4ff3-b6c1-696f5dfb9726","ios":"levelo://app?vid=eaae03a2-ed37-4ff3-b6c1-696f5dfb9726"},"vehicle_type_id":"4","last_reported":1707167152,"current_range_meters":26800,"station_id":"","pricing_plan_id":"free"},{"bike_id":"7063affd-2d48-4c87-b9b3-3037693d2890","system_id":"levelo_inurba_marseille","lat":43.30642,"lon":5.401031,"is_reserved":false,"is_disabled":false,"rental_uris":{"android":"levelo://app?vid=7063affd-2d48-4c87-b9b3-3037693d2890","ios":"levelo://app?vid=7063affd-2d48-4c87-b9b3-3037693d2890"},"vehicle_type_id":"4","last_reported":1707167152,"current_range_meters":4800,"station_id":"ce4bh112rcd13ifvqda0","pricing_plan_id":"free"},{"bike_id":"10074680-019e-4025-a9b6-96cd525dd3bb","system_id":"levelo_inurba_marseille","lat":43.337573,"lon":5.374733,"is_reserved":false,"is_disabled":false,"rental_uris":{"android":"levelo://app?vid=10074680-019e-4025-a9b6-96cd525dd3bb","ios":"levelo://app?vid=10074680-019e-4025-a9b6-96cd525dd3bb"},"vehicle_type_id":"4","last_reported":1707167152,"current_range_meters":7200,"station_id":"","pricing_plan_id":"free"},{"bike_id":"87ac480b-c77d-4be5-9c57-a984a5100440","system_id":"levelo_inurba_marseille","lat":43.306412,"lon":5.401035,"is_reserved":false,"is_disabled":false,"rental_uris":{"android":"levelo://app?vid=87ac480b-c77d-4be5-9c57-a984a5100440","ios":"levelo://app?vid=87ac480b-c77d-4be5-9c57-a984a5100440"},"vehicle_type_id":"4","last_reported":1707167152,"current_range_meters":28400,"station_id":"ce4bh112rcd13ifvqda0","pricing_plan_id":"free"},{"bike_id":"a368173b-1f56-4e7a-ae4a-3db6441d8a1f","system_id":"levelo_inurba_marseille","lat":43.30642,"lon":5.401031,"is_reserved":false,"is_disabled":false,"rental_uris":{"android":"levelo://app?vid=a368173b-1f56-4e7a-ae4a-3db6441d8a1f","ios":"levelo://app?vid=a368173b-1f56-4e7a-ae4a-3db6441d8a1f"},"vehicle_type_id":"4","last_reported":1707167152,"current_range_meters":5200,"station_id":"ce4bh112rcd13ifvqda0","pricing_plan_id":"free"},{"bike_id":"5d1af433-ee3b-4b57-affc-3e3392d231fd","system_id":"levelo_inurba_marseille","lat":43.30642,"lon":5.401031,"is_reserved":false,"is_disabled":false,"rental_uris":{"android":"levelo://app?vid=5d1af433-ee3b-4b57-affc-3e3392d231fd","ios":"levelo://app?vid=5d1af433-ee3b-4b57-affc-3e3392d231fd"},"vehicle_type_id":"4","last_reported":1707167152,"current_range_meters":8000,"station_id":"ce4bh112rcd13ifvqda0","pricing_plan_id":"free"},{"bike_id":"f380f437-043f-4098-acdc-e09bc586fa7e","system_id":"levelo_inurba_marseille","lat":43.306412,"lon":5.401035,"is_reserved":false,"is_disabled":false,"rental_uris":{"android":"levelo://app?vid=f380f437-043f-4098-acdc-e09bc586fa7e","ios":"levelo://app?vid=f380f437-043f-4098-acdc-e09bc586fa7e"},"vehicle_type_id":"4","last_reported":1707167152,"current_range_meters":20400,"station_id":"ce4bh112rcd13ifvqda0","pricing_plan_id":"free"},{"bike_id":"b5c8cd35-34dd-45ee-b3e7-3050ef3cbe6a","system_id":"levelo_inurba_marseille","lat":43.337673,"lon":5.374918,"is_reserved":false,"is_disabled":false,"rental_uris":{"android":"levelo://app?vid=b5c8cd35-34dd-45ee-b3e7-3050ef3cbe6a","ios":"levelo://app?vid=b5c8cd35-34dd-45ee-b3e7-3050ef3cbe6a"},"vehicle_type_id":"4","last_reported":1707167152,"current_range_meters":7200,"station_id":"","pricing_plan_id":"free"},{"bike_id":"07a81303-a128-4df8-98cd-13e752ee370f","system_id":"levelo_inurba_marseille","lat":43.301117,"lon":5.398795,"is_reserved":false,"is_disabled":false,"rental_uris":{"android":"levelo://app?vid=07a81303-a128-4df8-98cd-13e752ee370f","ios":"levelo://app?vid=07a81303-a128-4df8-98cd-13e752ee370f"},"vehicle_type_id":"4","last_reported":1707167152,"current_range_meters":25200,"station_id":"ce4bh0h2rcd13ifvqd40","pricing_plan_id":"free"},{"bike_id":"d9dc47a7-32ac-4ba4-9dfd-fdd1dc93eb61","system_id":"levelo_inurba_marseille","lat":43.301117,"lon":5.398795,"is_reserved":false,"is_disabled":false,"rental_uris":{"android":"levelo://app?vid=d9dc47a7-32ac-4ba4-9dfd-fdd1dc93eb61","ios":"levelo://app?vid=d9dc47a7-32ac-4ba4-9dfd-fdd1dc93eb61"},"vehicle_type_id":"4","last_reported":1707167152,"current_range_meters":8400,"station_id":"ce4bh0h2rcd13ifvqd40","pricing_plan_id":"free"},{"bike_id":"36c55f84-edc9-40cb-9183-7b5d4241db86","system_id":"levelo_inurba_marseille","lat":43.30133,"lon":5.39863,"is_reserved":false,"is_disabled":false,"rental_uris":{"android":"levelo://app?vid=36c55f84-edc9-40cb-9183-7b5d4241db86","ios":"levelo://app?vid=36c55f84-edc9-40cb-9183-7b5d4241db86"},"vehicle_type_id":"4","last_reported":1707167152,"current_range_meters":31200,"station_id":"ce4bh0h2rcd13ifvqd40","pricing_plan_id":"free"},{"bike_id":"4a43167f-194f-4e8a-9cfe-9ed02719dfe0","system_id":"levelo_inurba_marseille","lat":43.28727,"lon":5.36078,"is_reserved":false,"is_disabled":false,"rental_uris":{"android":"levelo://app?vid=4a43167f-194f-4e8a-9cfe-9ed02719dfe0","ios":"levelo://app?vid=4a43167f-194f-4e8a-9cfe-9ed02719dfe0"},"vehicle_type_id":"4","last_reported":1707167152,"current_range_meters":1600,"station_id":"cki0cbj6b192h4jlfktg","pricing_plan_id":"free"},{"bike_id":"ea6cabfe-c993-419b-9e3f-8fd653cabef9","system_id":"levelo_inurba_marseille","lat":43.28727,"lon":5.36078,"is_reserved":false,"is_disabled":false,"rental_uris":{"android":"levelo://app?vid=ea6cabfe-c993-419b-9e3f-8fd653cabef9","ios":"levelo://app?vid=ea6cabfe-c993-419b-9e3f-8fd653cabef9"},"vehicle_type_id":"4","last_reported":1707167152,"current_range_meters":0,"station_id":"cki0cbj6b192h4jlfktg","pricing_plan_id":"free"},{"bike_id":"b76b72bd-b34b-41bb-95c9-e32ebb071e80","system_id":"levelo_inurba_marseille","lat":43.28727,"lon":5.36078,"is_reserved":false,"is_disabled":false,"rental_uris":{"android":"levelo://app?vid=b76b72bd-b34b-41bb-95c9-e32ebb071e80","ios":"levelo://app?vid=b76b72bd-b34b-41bb-95c9-e32ebb071e80"},"vehicle_type_id":"4","last_reported":1707167152,"current_range_meters":11600,"station_id":"cki0cbj6b192h4jlfktg","pricing_plan_id":"free"},{"bike_id":"b2b0fc82-637a-4be0-bf42-9fd27664a1e0","system_id":"levelo_inurba_marseille","lat":43.28727,"lon":5.36078,"is_reserved":false,"is_disabled":false,"rental_uris":{"android":"levelo://app?vid=b2b0fc82-637a-4be0-bf42-9fd27664a1e0","ios":"levelo://app?vid=b2b0fc82-637a-4be0-bf42-9fd27664a1e0"},"vehicle_type_id":"4","last_reported":1707167152,"current_range_meters":20800,"station_id":"cki0cbj6b192h4jlfktg","pricing_plan_id":"free"},{"bike_id":"56cd2b90-8fd3-4a3d-9760-9719428489c3","system_id":"levelo_inurba_marseille","lat":43.286961,"lon":5.373785,"is_reserved":false,"is_disabled":false,"rental_uris":{"android":"levelo://app?vid=56cd2b90-8fd3-4a3d-9760-9719428489c3","ios":"levelo://app?vid=56cd2b90-8fd3-4a3d-9760-9719428489c3"},"vehicle_type_id":"4","last_reported":1707167152,"current_range_meters":13600,"station_id":"ce4bh3p2rcd13ifvqdq0","pricing_plan_id":"free"},{"bike_id":"ee4b34a4-61db-4621-a2b8-199328b1b273","system_id":"levelo_inurba_marseille","lat":43.286591,"lon":5.363346,"is_reserved":false,"is_disabled":false,"rental_uris":{"android":"levelo://app?vid=ee4b34a4-61db-4621-a2b8-199328b1b273","ios":"levelo://app?vid=ee4b34a4-61db-4621-a2b8-199328b1b273"},"vehicle_type_id":"4","last_reported":1707167152,"current_range_meters":8400,"station_id":"ce4bhah2rcd13ifvqej0","pricing_plan_id":"free"},{"bike_id":"15bb5fd2-a440-40e9-be8b-e7512549769f","system_id":"levelo_inurba_marseille","lat":43.286591,"lon":5.363346,"is_reserved":false,"is_disabled":false,"rental_uris":{"android":"levelo://app?vid=15bb5fd2-a440-40e9-be8b-e7512549769f","ios":"levelo://app?vid=15bb5fd2-a440-40e9-be8b-e7512549769f"},"vehicle_type_id":"4","last_reported":1707167152,"current_range_meters":31600,"station_id":"ce4bhah2rcd13ifvqej0","pricing_plan_id":"free"},{"bike_id":"4cedcf62-5b2b-482e-9d49-1ab31025ea06","system_id":"levelo_inurba_marseille","lat":43.286671,"lon":5.363549,"is_reserved":false,"is_disabled":false,"rental_uris":{"android":"levelo://app?vid=4cedcf62-5b2b-482e-9d49-1ab31025ea06","ios":"levelo://app?vid=4cedcf62-5b2b-482e-9d49-1ab31025ea06"},"vehicle_type_id":"4","last_reported":1707167152,"current_range_meters":27600,"station_id":"ce4bhah2rcd13ifvqej0","pricing_plan_id":"free"},{"bike_id":"5c72941a-faac-4bc4-b63a-f3f407cb256a","system_id":"levelo_inurba_marseille","lat":43.286591,"lon":5.363346,"is_reserved":false,"is_disabled":false,"rental_uris":{"android":"levelo://app?vid=5c72941a-faac-4bc4-b63a-f3f407cb256a","ios":"levelo://app?vid=5c72941a-faac-4bc4-b63a-f3f407cb256a"},