{"last_updated":1746475885,"ttl":60,"version":"2.2","data":{"bikes":[{"bike_id":"ee931f74-c945-4d42-9401-20cdfa16d42e","system_id":"levelo_inurba_marseille","lat":43.31024,"lon":5.37145,"is_reserved":false,"is_disabled":false,"rental_uris":{"android":"levelo://app?vid=ee931f74-c945-4d42-9401-20cdfa16d42e","ios":"levelo://app?vid=ee931f74-c945-4d42-9401-20cdfa16d42e"},"vehicle_type_id":"4","last_reported":1746475885,"current_range_meters":2800,"station_id":"","pricing_plan_id":"cebpf4jnsgd1na2vs0mg"},{"bike_id":"e080a43d-a8b3-4a70-9ed0-c058c452f99f","system_id":"levelo_inurba_marseille","lat":43.30416,"lon":5.41288,"is_reserved":false,"is_disabled":false,"rental_uris":{"android":"levelo://app?vid=e080a43d-a8b3-4a70-9ed0-c058c452f99f","ios":"levelo://app?vid=e080a43d-a8b3-4a70-9ed0-c058c452f99f"},"vehicle_type_id":"4","last_reported":1746475885,"current_range_meters":2800,"station_id":"ce4bhop2rcd13ifvqh8g","pricing_plan_id":"cebpf4jnsgd1na2vs0mg"},{"bike_id":"08d06c84-d9e9-43f6-aa7a-603249ac6ecd","system_id":"levelo_inurba_marseille","lat":43.280057,"lon":5.399943,"is_reserved":false,"is_disabled":false,"rental_uris":{"android":"levelo://app?vid=08d06c84-d9e9-43f6-aa7a-603249ac6ecd","ios":"levelo://app?vid=08d06c84-d9e9-43f6-aa7a-603249ac6ecd"},"vehicle_type_id":"4","last_reported":1746475885,"current_range_meters":2800,"station_id":"ce4bho92rcd13ifvqh4g","pricing_plan_id":"cebpf4jnsgd1na2vs0mg"},{"bike_id":"963c14e4-e8f8-4cce-bd33-84990bd09520","system_id":"levelo_inurba_marseille","lat":43.28024,"lon":5.369415,"is_reserved":false,"is_disabled":false,"rental_uris":{"android":"levelo://app?vid=963c14e4-e8f8-4cce-bd33-84990bd09520","ios":"levelo://app?vid=963c14e4-e8f8-4cce-bd33-84990bd09520"},"vehicle_type_id":"4","last_reported":1746475885,"current_range_meters":2800,"station_id":"ce4bha12rcd13ifvqef0","pricing_plan_id":"cebpf4jnsgd1na2vs0mg"},{"bike_id":"65b11aeb-014c-44c8-b065-8318cb66fa50","system_id":"levelo_inurba_marseille","lat":43.30468,"lon":5.37903,"is_reserved":false,"is_disabled":false,"rental_uris":{"android":"levelo://app?vid=65b11aeb-014c-44c8-b065-8318cb66fa50","ios":"levelo://app?vid=65b11aeb-014c-44c8-b065-8318cb66fa50"},"vehicle_type_id":"4","last_reported":1746475885,"current_range_meters":2800,"station_id":"ce4bgup2rcd13ifvqcn0","pricing_plan_id":"cebpf4jnsgd1na2vs0mg"},{"bike_id":"6cfbaaf2-4663-45e4-b1ba-8e17b4acf5f8","system_id":"levelo_inurba_marseille","lat":43.28032,"lon":5.3694,"is_reserved":false,"is_disabled":false,"rental_uris":{"android":"levelo://app?vid=6cfbaaf2-4663-45e4-b1ba-8e17b4acf5f8","ios":"levelo://app?vid=6cfbaaf2-4663-45e4-b1ba-8e17b4acf5f8"},"vehicle_type_id":"4","last_reported":1746475885,"current_range_meters":3600,"station_id":"ce4bha12rcd13ifvqef0","pricing_plan_id":"cebpf4jnsgd1na2vs0mg"},{"bike_id":"481689db-620a-444a-bc0f-e9642a295df7","system_id":"levelo_inurba_marseille","lat":43.289405,"lon":5.366488,"is_reserved":false,"is_disabled":false,"rental_uris":{"android":"levelo://app?vid=481689db-620a-444a-bc0f-e9642a295df7","ios":"levelo://app?vid=481689db-620a-444a-bc0f-e9642a295df7"},"vehicle_type_id":"4","last_reported":1746475885,"current_range_meters":3600,"station_id":"ce4bhap2rcd13ifvqek0","pricing_plan_id":"cebpf4jnsgd1na2vs0mg"},{"bike_id":"d21a1bf2-ff47-419b-9fda-93647c68b552","system_id":"levelo_inurba_marseille","lat":43.28105,"lon":5.37834,"is_reserved":false,"is_disabled":false,"rental_uris":{"android":"levelo://app?vid=d21a1bf2-ff47-419b-9fda-93647c68b552","ios":"levelo://app?vid=d21a1bf2-ff47-419b-9fda-93647c68b552"},"vehicle_type_id":"4","last_reported":1746475885,"current_range_meters":4000,"station_id":"ce4bha12rcd13ifvqee0","pricing_plan_id":"cebpf4jnsgd1na2vs0mg"},{"bike_id":"b2ccdc84-94c3-42d1-a780-adcca95f1f06","system_id":"levelo_inurba_marseille","lat":43.29967,"lon":5.38511,"is_reserved":false,"is_disabled":true,"rental_uris":{"android":"levelo://app?vid=b2ccdc84-94c3-42d1-a780-adcca95f1f06","ios":"levelo://app?vid=b2ccdc84-94c3-42d1-a780-adcca95f1f06"},"vehicle_type_id":"4","last_reported":1746475885,"current_range_meters":4000,"station_id":"ce4bgj92rcd13ifvqbd0","pricing_plan_id":"cebpf4jnsgd1na2vs0mg"},{"bike_id":"9064d971-3a4c-4284-ab13-670f9e6ead80","system_id":"levelo_inurba_marseille","lat":43.2396,"lon":5.3664,"is_reserved":false,"is_disabled":false,"rental_uris":{"android":"levelo://app?vid=9064d971-3a4c-4284-ab13-670f9e6ead80","ios":"levelo://app?vid=9064d971-3a4c-4284-ab13-670f9e6ead80"},"vehicle_type_id":"4","last_reported":1746475885,"current_range_meters":4400,"station_id":"ce4bhi12rcd13ifvqfp0","pricing_plan_id":"cebpf4jnsgd1na2vs0mg"},{"bike_id":"1e3195f6-106c-4dd3-8852-0494cfce0d2f","system_id":"levelo_inurba_marseille","lat":43.28621,"lon":5.37064,"is_reserved":false,"is_disabled":false,"rental_uris":{"android":"levelo://app?vid=1e3195f6-106c-4dd3-8852-0494cfce0d2f","ios":"levelo://app?vid=1e3195f6-106c-4dd3-8852-0494cfce0d2f"},"vehicle_type_id":"4","last_reported":1746475885,"current_range_meters":4400,"station_id":"ce4bht12rcd13ifvqi60","pricing_plan_id":"cebpf4jnsgd1na2vs0mg"},{"bike_id":"0e3d98c7-5f68-4ce1-b416-d339b8010f0f","system_id":"levelo_inurba_marseille","lat":43.29259,"lon":5.40894,"is_reserved":false,"is_disabled":false,"rental_uris":{"android":"levelo://app?vid=0e3d98c7-5f68-4ce1-b416-d339b8010f0f","ios":"levelo://app?vid=0e3d98c7-5f68-4ce1-b416-d339b8010f0f"},"vehicle_type_id":"4","last_reported":1746475885,"current_range_meters":4400,"station_id":"ce4bh192rcd13ifvqdc0","pricing_plan_id":"cebpf4jnsgd1na2vs0mg"},{"bike_id":"75e8ec7b-b97d-4041-ba4c-e6403b45949f","system_id":"levelo_inurba_marseille","lat":43.239667,"lon":5.36631,"is_reserved":false,"is_disabled":false,"rental_uris":{"android":"levelo://app?vid=75e8ec7b-b97d-4041-ba4c-e6403b45949f","ios":"levelo://app?vid=75e8ec7b-b97d-4041-ba4c-e6403b45949f"},"vehicle_type_id":"4","last_reported":1746475885,"current_range_meters":4400,"station_id":"ce4bhi12rcd13ifvqfp0","pricing_plan_id":"cebpf4jnsgd1na2vs0mg"},{"bike_id":"53328bff-7e06-44bd-9749-4901e317ce40","system_id":"levelo_inurba_marseille","lat":43.33024,"lon":5.39043,"is_reserved":false,"is_disabled":false,"rental_uris":{"android":"levelo://app?vid=53328bff-7e06-44bd-9749-4901e317ce40","ios":"levelo://app?vid=53328bff-7e06-44bd-9749-4901e317ce40"},"vehicle_type_id":"4","last_reported":1746475885,"current_range_meters":4400,"station_id":"ce4bhr92rcd13ifvqhrg","pricing_plan_id":"cebpf4jnsgd1na2vs0mg"},{"bike_id":"f1764782-626c-4afb-85a2-52691ccd338f","system_id":"levelo_inurba_marseille","lat":43.30437,"lon":5.38881,"is_reserved":false,"is_disabled":false,"rental_uris":{"android":"levelo://app?vid=f1764782-626c-4afb-85a2-52691ccd338f","ios":"levelo://app?vid=f1764782-626c-4afb-85a2-52691ccd338f"},"vehicle_type_id":"4","last_reported":1746475885,"current_range_meters":4400,"station_id":"ce4bgk12rcd13ifvqbi0","pricing_plan_id":"cebpf4jnsgd1na2vs0mg"},{"bike_id":"d3ddbc88-7d26-4032-b6d5-fd4a4ee3993f","system_id":"levelo_inurba_marseille","lat":43.29302,"lon":5.37161,"is_reserved":false,"is_disabled":false,"rental_uris":{"android":"levelo://app?vid=d3ddbc88-7d26-4032-b6d5-fd4a4ee3993f","ios":"levelo://app?vid=d3ddbc88-7d26-4032-b6d5-fd4a4ee3993f"},"vehicle_type_id":"4","last_reported":1746475885,"current_range_meters":4400,"station_id":"ce4bgh92rcd13ifvqb40","pricing_plan_id":"cebpf4jnsgd1na2vs0mg"},{"bike_id":"5ed25235-2c54-4555-9b77-e5696daaf187","system_id":"levelo_inurba_marseille","lat":43.28409,"lon":5.37511,"is_reserved":false,"is_disabled":false,"rental_uris":{"android":"levelo://app?vid=5ed25235-2c54-4555-9b77-e5696daaf187","ios":"levelo://app?vid=5ed25235-2c54-4555-9b77-e5696daaf187"},"vehicle_type_id":"4","last_reported":1746475885,"current_range_meters":4800,"station_id":"ce4bh412rcd13ifvqds0","pricing_plan_id":"cebpf4jnsgd1na2vs0mg"},{"bike_id":"b799d429-7cd1-4692-8504-9732c57db73a","system_id":"levelo_inurba_marseille","lat":43.28635,"lon":5.3867,"is_reserved":false,"is_disabled":false,"rental_uris":{"android":"levelo://app?vid=b799d429-7cd1-4692-8504-9732c57db73a","ios":"levelo://app?vid=b799d429-7cd1-4692-8504-9732c57db73a"},"vehicle_type_id":"4","last_reported":1746475885,"current_range_meters":5600,"station_id":"ce4bh492rcd13ifvqdug","pricing_plan_id":"cebpf4jnsgd1na2vs0mg"},{"bike_id":"6873ae2c-4ccb-4193-b53d-3546990c1592","system_id":"levelo_inurba_marseille","lat":43.27814,"lon":5.40707,"is_reserved":false,"is_disabled":false,"rental_uris":{"android":"levelo://app?vid=6873ae2c-4ccb-4193-b53d-3546990c1592","ios":"levelo://app?vid=6873ae2c-4ccb-4193-b53d-3546990c1592"},"vehicle_type_id":"4","last_reported":1746475885,"current_range_meters":5600,"station_id":"ce4bhnh2rcd13ifvqgtg","pricing_plan_id":"cebpf4jnsgd1na2vs0mg"},{"bike_id":"0c6712bb-c246-4d03-b305-0f5d0e9a0657","system_id":"levelo_inurba_marseille","lat":43.24658,"lon":5.38149,"is_reserved":false,"is_disabled":false,"rental_uris":{"android":"levelo://app?vid=0c6712bb-c246-4d03-b305-0f5d0e9a0657","ios":"levelo://app?vid=0c6712bb-c246-4d03-b305-0f5d0e9a0657"},"vehicle_type_id":"4","last_reported":1746475885,"current_range_meters":5600,"station_id":"ce4bhih2rcd13ifvqfr0","pricing_plan_id":"cebpf4jnsgd1na2vs0mg"},{"bike_id":"98a6d5db-101d-40a9-aedc-1bf80575f220","system_id":"levelo_inurba_marseille","lat":43.322677,"lon":5.367703,"is_reserved":false,"is_disabled":false,"rental_uris":{"android":"levelo://app?vid=98a6d5db-101d-40a9-aedc-1bf80575f220","ios":"levelo://app?vid=98a6d5db-101d-40a9-aedc-1bf80575f220"},"vehicle_type_id":"4","last_reported":1746475885,"current_range_meters":5600,"station_id":"","pricing_plan_id":"cebpf4jnsgd1na2vs0mg"},{"bike_id":"134ddf19-6726-491e-be74-f60482bd3c36","system_id":"levelo_inurba_marseille","lat":43.28616,"lon":5.35106,"is_reserved":false,"is_disabled":false,"rental_uris":{"android":"levelo://app?vid=134ddf19-6726-491e-be74-f60482bd3c36","ios":"levelo://app?vid=134ddf19-6726-491e-be74-f60482bd3c36"},"vehicle_type_id":"4","last_reported":1746475885,"current_range_meters":5600,"station_id":"ce4bhch2rcd13ifvqeug","pricing_plan_id":"cebpf4jnsgd1na2vs0mg"},{"bike_id":"19cc5d4a-3669-481b-add7-2079b93dcf06","system_id":"levelo_inurba_marseille","lat":43.27934,"lon":5.41029,"is_reserved":false,"is_disabled":false,"rental_uris":{"android":"levelo://app?vid=19cc5d4a-3669-481b-add7-2079b93dcf06","ios":"levelo://app?vid=19cc5d4a-3669-481b-add7-2079b93dcf06"},"vehicle_type_id":"4","last_reported":1746475885,"current_range_meters":6000,"station_id":"ce4bhnp2rcd13ifvqh0g","pricing_plan_id":"cebpf4jnsgd1na2vs0mg"},{"bike_id":"bfc31f0c-44c0-4198-8909-e3108b79ade7","system_id":"levelo_inurba_marseille","lat":43.30746,"lon":5.3738,"is_reserved":false,"is_disabled":false,"rental_uris":{"android":"levelo://app?vid=bfc31f0c-44c0-4198-8909-e3108b79ade7","ios":"levelo://app?vid=bfc31f0c-44c0-4198-8909-e3108b79ade7"},"vehicle_type_id":"4","last_reported":1746475885,"current_range_meters":6000,"station_id":"","pricing_plan_id":"cebpf4jnsgd1na2vs0mg"},{"bike_id":"6f8f9ee0-7ecc-4b11-b341-c394002723a1","system_id":"levelo_inurba_marseille","lat":43.29197,"lon":5.36072,"is_reserved":false,"is_disabled":false,"rental_uris":{"android":"levelo://app?vid=6f8f9ee0-7ecc-4b11-b341-c394002723a1","ios":"levelo://app?vid=6f8f9ee0-7ecc-4b11-b341-c394002723a1"},"vehicle_type_id":"4","last_reported":1746475885,"current_range_meters":6000,"station_id":"ce4bhbh2rcd13ifvqeqg","pricing_plan_id":"cebpf4jnsgd1na2vs0mg"},{"bike_id":"965d9a68-35d6-4b3e-beea-cec1f338cad2","system_id":"levelo_inurba_marseille","lat":43.28262,"lon":5.35074,"is_reserved":false,"is_disabled":false,"rental_uris":{"android":"levelo://app?vid=965d9a68-35d6-4b3e-beea-cec1f338cad2","ios":"levelo://app?vid=965d9a68-35d6-4b3e-beea-cec1f338cad2"},"vehicle_type_id":"4","last_reported":1746475885,"current_range_meters":5600,"station_id":"ce4bhbp2rcd13ifvqerg","pricing_plan_id":"cebpf4jnsgd1na2vs0mg"},{"bike_id":"2f51ff5b-9e12-4b6c-9106-9df85a9d5650","system_id":"levelo_inurba_marseille","lat":43.30153,"lon":5.3739,"is_reserved":false,"is_disabled":true,"rental_uris":{"android":"levelo://app?vid=2f51ff5b-9e12-4b6c-9106-9df85a9d5650","ios":"levelo://app?vid=2f51ff5b-9e12-4b6c-9106-9df85a9d5650"},"vehicle_type_id":"4","last_reported":1746475885,"current_range_meters":6000,"station_id":"ce4bgs92rcd13ifvqcc0","pricing_plan_id":"cebpf4jnsgd1na2vs0mg"},{"bike_id":"0aaab185-1839-4a36-80a2-f4c1c5199386","system_id":"levelo_inurba_marseille","lat":43.25827,"lon":5.39433,"is_reserved":false,"is_disabled":false,"rental_uris":{"android":"levelo://app?vid=0aaab185-1839-4a36-80a2-f4c1c5199386","ios":"levelo://app?vid=0aaab185-1839-4a36-80a2-f4c1c5199386"},"vehicle_type_id":"4","last_reported":1746475885,"current_range_meters":6000,"station_id":"ce4bhip2rcd13ifvqft0","pricing_plan_id":"cebpf4jnsgd1na2vs0mg"},{"bike_id":"9560e695-2cb4-4bfb-b95c-1c8364f718f8","system_id":"levelo_inurba_marseille","lat":43.25823,"lon":5.39437,"is_reserved":false,"is_disabled":false,"rental_uris":{"android":"levelo://app?vid=9560e695-2cb4-4bfb-b95c-1c8364f718f8","ios":"levelo://app?vid=9560e695-2cb4-4bfb-b95c-1c8364f718f8"},"vehicle_type_id":"4","last_reported":1746475885,"current_range_meters":6000,"station_id":"ce4bhip2rcd13ifvqft0","pricing_plan_id":"cebpf4jnsgd1na2vs0mg"},{"bike_id":"8d4118ea-a5f3-456d-9ed5-ca6ae3812f74","system_id":"levelo_inurba_marseille","lat":43.294422,"lon":5.397622,"is_reserved":false,"is_disabled":false,"rental_uris":{"android":"levelo://app?vid=8d4118ea-a5f3-456d-9ed5-ca6ae3812f74","ios":"levelo://app?vid=8d4118ea-a5f3-456d-9ed5-ca6ae3812f74"},"vehicle_type_id":"4","last_reported":1746475885,"current_range_meters":6000,"station_id":"ce4bh312rcd13ifvqdk0","pricing_plan_id":"cebpf4jnsgd1na2vs0mg"},{"bike_id":"67b28531-ab35-42fc-9e09-a1b13d8b1a1c","system_id":"levelo_inurba_marseille","lat":43.29413,"lon":5.38628,"is_reserved":false,"is_disabled":false,"rental_uris":{"android":"levelo://app?vid=67b28531-ab35-42fc-9e09-a1b13d8b1a1c","ios":"levelo://app?vid=67b28531-ab35-42fc-9e09-a1b13d8b1a1c"},"vehicle_type_id":"4","last_reported":1746475885,"current_range_meters":6400,"station_id":"ce4bh2h2rcd13ifvqdh0","pricing_plan_id":"cebpf4jnsgd1na2vs0mg"},{"bike_id":"66b646b3-6352-44bb-9bfb-21570512e3e5","system_id":"levelo_inurba_marseille","lat":43.28084,"lon":5.40388,"is_reserved":false,"is_disabled":false,"rental_uris":{"android":"levelo://app?vid=66b646b3-6352-44bb-9bfb-21570512e3e5","ios":"levelo://app?vid=66b646b3-6352-44bb-9bfb-21570512e3e5"},"vehicle_type_id":"4","last_reported":1746475885,"current_range_meters":6400,"station_id":"","pricing_plan_id":"cebpf4jnsgd1na2vs0mg"},{"bike_id":"0e6502e0-d856-4f65-a3b0-ee206ebda4ff","system_id":"levelo_inurba_marseille","lat":43.31532,"lon":5.380426,"is_reserved":false,"is_disabled":false,"rental_uris":{"android":"levelo://app?vid=0e6502e0-d856-4f65-a3b0-ee206ebda4ff","ios":"levelo://app?vid=0e6502e0-d856-4f65-a3b0-ee206ebda4ff"},"vehicle_type_id":"4","last_reported":1746475885,"current_range_meters":6400,"station_id":"","pricing_plan_id":"cebpf4jnsgd1na2vs0mg"},{"bike_id":"113f6a61-1549-4df9-861d-5996db078fc4","system_id":"levelo_inurba_marseille","lat":43.29279,"lon":5.40111,"is_reserved":false,"is_disabled":false,"rental_uris":{"android":"levelo://app?vid=113f6a61-1549-4df9-861d-5996db078fc4","ios":"levelo://app?vid=113f6a61-1549-4df9-861d-5996db078fc4"},"vehicle_type_id":"4","last_reported":1746475885,"current_range_meters":6400,"station_id":"ce4bh312rcd13ifvqdk0","pricing_plan_id":"cebpf4jnsgd1na2vs0mg"},{"bike_id":"414fb838-f5a4-4fc8-aff5-670e992aded8","system_id":"levelo_inurba_marseille","lat":43.293075,"lon":5.371819,"is_reserved":false,"is_disabled":false,"rental_uris":{"android":"levelo://app?vid=414fb838-f5a4-4fc8-aff5-670e992aded8","ios":"levelo://app?vid=414fb838-f5a4-4fc8-aff5-670e992aded8"},"vehicle_type_id":"4","last_reported":1746475885,"current_range_meters":6800,"station_id":"ce4bgh92rcd13ifvqb40","pricing_plan_id":"cebpf4jnsgd1na2vs0mg"},{"bike_id":"0399ac03-3722-4633-936f-041724496d1c","system_id":"levelo_inurba_marseille","lat":43.32474,"lon":5.36575,"is_reserved":false,"is_disabled":false,"rental_uris":{"android":"levelo://app?vid=0399ac03-3722-4633-936f-041724496d1c","ios":"levelo://app?vid=0399ac03-3722-4633-936f-041724496d1c"},"vehicle_type_id":"4","last_reported":1746475885,"current_range_meters":6400,"station_id":"ce4bhs12rcd13ifvqhvg","pricing_plan_id":"cebpf4jnsgd1na2vs0mg"},{"bike_id":"7bac376f-17c2-4484-a95b-9218bce59ef6","system_id":"levelo_inurba_marseille","lat":43.24678,"lon":5.38148,"is_reserved":false,"is_disabled":false,"rental_uris":{"android":"levelo://app?vid=7bac376f-17c2-4484-a95b-9218bce59ef6","ios":"levelo://app?vid=7bac376f-17c2-4484-a95b-9218bce59ef6"},"vehicle_type_id":"4","last_reported":1746475885,"current_range_meters":6800,"station_id":"ce4bhih2rcd13ifvqfr0","pricing_plan_id":"cebpf4jnsgd1na2vs0mg"},{"bike_id":"5d40057c-3353-475e-ab0c-9d4d917c283c","system_id":"levelo_inurba_marseille","lat":43.315228,"lon":5.380404,"is_reserved":false,"is_disabled":false,"rental_uris":{"android":"levelo://app?vid=5d40057c-3353-475e-ab0c-9d4d917c283c","ios":"levelo://app?vid=5d40057c-3353-475e-ab0c-9d4d917c283c"},"vehicle_type_id":"4","last_reported":1746475885,"current_range_meters":6800,"station_id":"ce4bhsp2rcd13ifvqi50","pricing_plan_id":"cebpf4jnsgd1na2vs0mg"},{"bike_id":"c7569f25-9bc2-4a7b-94d5-25bad92fcfaa","system_id":"levelo_inurba_marseille","lat":43.27921,"lon":5.38268,"is_reserved":false,"is_disabled":false,"rental_uris":{"android":"levelo://app?vid=c7569f25-9bc2-4a7b-94d5-25bad92fcfaa","ios":"levelo://app?vid=c7569f25-9bc2-4a7b-94d5-25bad92fcfaa"},"vehicle_type_id":"4","last_reported":1746475885,"current_range_meters":6800,"station_id":"","pricing_plan_id":"cebpf4jnsgd1na2vs0mg"},{"bike_id":"3f03faa1-aab4-4cbb-9b60-c64d1d19096f","system_id":"levelo_inurba_marseille","lat":43.27906,"lon":5.38014,"is_reserved":false,"is_disabled":false,"rental_uris":{"android":"levelo://app?vid=3f03faa1-aab4-4cbb-9b60-c64d1d19096f","ios":"levelo://app?vid=3f03faa1-aab4-4cbb-9b60-c64d1d19096f"},"vehicle_type_id":"4","last_reported":1746475885,"current_range_meters":6800,"station_id":"ce4bhf92rcd13ifvqf50","pricing_plan_id":"cebpf4jnsgd1na2vs0mg"},{"bike_id":"2c488c66-db1f-4eb1-b8a8-65da619378ac","system_id":"levelo_inurba_marseille","lat":43.29909,"lon":5.38116,"is_reserved":false,"is_disabled":true,"rental_uris":{"android":"levelo://app?vid=2c488c66-db1f-4eb1-b8a8-65da619378ac","ios":"levelo://app?vid=2c488c66-db1f-4eb1-b8a8-65da619378ac"},"vehicle_type_id":"4","last_reported":1746475885,"current_range_meters":6800,"station_id":"ce4bgj12rcd13ifvqbc0","pricing_plan_id":"cebpf4jnsgd1na2vs0mg"},{"bike_id":"62691767-40f7-43ec-b717-4215cb684fb0","system_id":"levelo_inurba_marseille","lat":43.30886,"lon":5.39655,"is_reserved":false,"is_disabled":false,"rental_uris":{"android":"levelo://app?vid=62691767-40f7-43ec-b717-4215cb684fb0","ios":"levelo://app?vid=62691767-40f7-43ec-b717-4215cb684fb0"},"vehicle_type_id":"4","last_reported":1746475885,"current_range_meters":6400,"station_id":"ce4bh012rcd13ifvqcv0","pricing_plan_id":"cebpf4jnsgd1na2vs0mg"},{"bike_id":"29e317d8-dfba-4d86-b7ff-b8a45bf9f9f0","system_id":"levelo_inurba_marseille","lat":43.299652,"lon":5.384909,"is_reserved":false,"is_disabled":false,"rental_uris":{"android":"levelo://app?vid=29e317d8-dfba-4d86-b7ff-b8a45bf9f9f0","ios":"levelo://app?vid=29e317d8-dfba-4d86-b7ff-b8a45bf9f9f0"},"vehicle_type_id":"4","last_reported":1746475885,"current_range_meters":6800,"station_id":"ce4bgvp2rcd13ifvqct0","pricing_plan_id":"cebpf4jnsgd1na2vs0mg"},{"bike_id":"f4058794-639c-4973-ab5d-8009a25ee731","system_id":"levelo_inurba_marseille","lat":43.23962,"lon":5.36626,"is_reserved":false,"is_disabled":false,"rental_uris":{"android":"levelo://app?vid=f4058794-639c-4973-ab5d-8009a25ee731","ios":"levelo://app?vid=f4058794-639c-4973-ab5d-8009a25ee731"},"vehicle_type_id":"4","last_reported":1746475885,"current_range_meters":7200,"station_id":"ce4bhi12rcd13ifvqfp0","pricing_plan_id":"cebpf4jnsgd1na2vs0mg"},{"bike_id":"e8d3c57f-002a-4ddc-8c08-58b239aae800","system_id":"levelo_inurba_marseille","lat":43.26202,"lon":5.40415,"is_reserved":false,"is_disabled":false,"rental_uris":{"android":"levelo://app?vid=e8d3c57f-002a-4ddc-8c08-58b239aae800","ios":"levelo://app?vid=e8d3c57f-002a-4ddc-8c08-58b239aae800"},"vehicle_type_id":"4","last_reported":1746475885,"current_range_meters":7200,"station_id":"ce4bhmh2rcd13ifvqgmg","pricing_plan_id":"cebpf4jnsgd1na2vs0mg"},{"bike_id":"8f7668ba-4e65-436e-9180-1bde8f1b1499","system_id":"levelo_inurba_marseille","lat":43.29976,"lon":5.37178,"is_reserved":false,"is_disabled":false,"rental_uris":{"android":"levelo://app?vid=8f7668ba-4e65-436e-9180-1bde8f1b1499","ios":"levelo://app?vid=8f7668ba-4e65-436e-9180-1bde8f1b1499"},"vehicle_type_id":"4","last_reported":1746475885,"current_range_meters":8000,"station_id":"ce4bgr92rcd13ifvqc7g","pricing_plan_id":"cebpf4jnsgd1na2vs0mg"},{"bike_id":"aaf920dc-41ad-4528-adb3-d6fbc4626617","system_id":"levelo_inurba_marseille","lat":43.28613,"lon":5.37059,"is_reserved":false,"is_disabled":false,"rental_uris":{"android":"levelo://app?vid=aaf920dc-41ad-4528-adb3-d6fbc4626617","ios":"levelo://app?vid=aaf920dc-41ad-4528-adb3-d6fbc4626617"},"vehicle_type_id":"4","last_reported":1746475885,"current_range_meters":7200,"station_id":"ce4bht12rcd13ifvqi60","pricing_plan_id":"cebpf4jnsgd1na2vs0mg"},{"bike_id":"631fd0d9-3924-40be-ab56-22cc784724c8","system_id":"levelo_inurba_marseille","lat":43.29866,"lon":5.3974,"is_reserved":false,"is_disabled":false,"rental_uris":{"android":"levelo://app?vid=631fd0d9-3924-40be-ab56-22cc784724c8","ios":"levelo://app?vid=631fd0d9-3924-40be-ab56-22cc784724c8"},"vehicle_type_id":"4","last_reported":1746475885,"current_range_meters":8000,"station_id":"ce4bh0h2rcd13ifvqd50","pricing_plan_id":"cebpf4jnsgd1na2vs0mg"},{"bike_id":"9cc6ce49-13a0-471f-88f5-30a0c9a13804","system_id":"levelo_inurba_marseille","lat":43.29875,"lon":5.38908,"is_reserved":false,"is_disabled":false,"rental_uris":{"android":"levelo://app?vid=9cc6ce49-13a0-471f-88f5-30a0c9a13804","ios":"levelo://app?vid=9cc6ce49-13a0-471f-88f5-30a0c9a13804"},"vehicle_type_id":"4","last_reported":1746475885,"current_range_meters":8000,"station_id":"ce4bh392rcd13ifvqdl0","pricing_plan_id":"cebpf4jnsgd1na2vs0mg"},{"bike_id":"4239a9ca-c563-4462-b7e4-209e771f0cd9","system_id":"levelo_inurba_marseille","lat":43.29915,"lon":5.38128,"is_reserved":false,"is_disabled":false,"rental_uris":{"android":"levelo://app?vid=4239a9ca-c563-4462-b7e4-209e771f0cd9","ios":"levelo://app?vid=4239a9ca-c563-4462-b7e4-209e771f0cd9"},"vehicle_type_id":"4","last_reported":1746475885,"current_range_meters":8000,"station_id":"ce4bgj12rcd13ifvqbc0","pricing_plan_id":"cebpf4jnsgd1na2vs0mg"},{"bike_id":"10d563a4-424a-4a44-88bc-065a04b5247a","system_id":"levelo_inurba_marseille","lat":43.21745,"lon":5.34612,"is_reserved":false,"is_disabled":true,"rental_uris":{"android":"levelo://app?vid=10d563a4-424a-4a44-88bc-065a04b5247a","ios":"levelo://app?vid=10d563a4-424a-4a44-88bc-065a04b5247a"},"vehicle_type_id":"4","last_reported":1746475885,"current_range_meters":8000,"station_id":"","pricing_plan_id":"cebpf4jnsgd1na2vs0mg"},{"bike_id":"227e2965-353d-4779-91cd-81ddbdecbc91","system_id":"levelo_inurba_marseille","lat":43.28027,"lon":5.36943,"is_reserved":false,"is_disabled":false,"rental_uris":{"android":"levelo://app?vid=227e2965-353d-4779-91cd-81ddbdecbc91","ios":"levelo://app?vid=227e2965-353d-4779-91cd-81ddbdecbc91"},"vehicle_type_id":"4","last_reported":1746475885,"current_range_meters":8400,"station_id":"ce4bha12rcd13ifvqef0","pricing_plan_id":"cebpf4jnsgd1na2vs0mg"},{"bike_id":"5c7249a3-596f-4101-8dbd-1087a1f3b438","system_id":"levelo_inurba_marseille","lat":43.23195,"lon":5.35578,"is_reserved":false,"is_disabled":false,"rental_uris":{"android":"levelo://app?vid=5c7249a3-596f-4101-8dbd-1087a1f3b438","ios":"levelo://app?vid=5c7249a3-596f-4101-8dbd-1087a1f3b438"},"vehicle_type_id":"4","last_reported":1746475885,"current_range_meters":8400,"station_id":"ce4bhu92rcd13ifvqi70","pricing_plan_id":"cebpf4jnsgd1na2vs0mg"},{"bike_id":"9d4cc952-e455-4fba-8b3f-d5cacd90c8d5","system_id":"levelo_inurba_marseille","lat":43.25101,"lon":5.395154,"is_reserved":false,"is_disabled":false,"rental_uris":{"android":"levelo://app?vid=9d4cc952-e455-4fba-8b3f-d5cacd90c8d5","ios":"levelo://app?vid=9d4cc952-e455-4fba-8b3f-d5cacd90c8d5"},"vehicle_type_id":"4","last_reported":1746475885,"current_range_meters":8400,"station_id":"ce4bhm12rcd13ifvqgkg","pricing_plan_id":"cebpf4jnsgd1na2vs0mg"},{"bike_id":"d08e881c-4ac2-413a-af9c-5ff0285ab7f6","system_id":"levelo_inurba_marseille","lat":43.27928,"lon":5.4105,"is_reserved":false,"is_disabled":false,"rental_uris":{"android":"levelo://app?vid=d08e881c-4ac2-413a-af9c-5ff0285ab7f6","ios":"levelo://app?vid=d08e881c-4ac2-413a-af9c-5ff0285ab7f6"},"vehicle_type_id":"4","last_reported":1746475885,"current_range_meters":8400,"station_id":"ce4bhnp2rcd13ifvqh0g","pricing_plan_id":"cebpf4jnsgd1na2vs0mg"},{"bike_id":"3fe14760-50d4-43a8-b058-218490851f16","system_id":"levelo_inurba_marseille","lat":43.28864,"lon":5.35882,"is_reserved":false,"is_disabled":false,"rental_uris":{"android":"levelo://app?vid=3fe14760-50d4-43a8-b058-218490851f16","ios":"levelo://app?vid=3fe14760-50d4-43a8-b058-218490851f16"},"vehicle_type_id":"4","last_reported":1746475885,"current_range_meters":8400,"station_id":"ce4bhb12rcd13ifvqem0","pricing_plan_id":"cebpf4jnsgd1na2vs0mg"},{"bike_id":"66c2a869-8d71-4d97-aca8-9c0e74034110","system_id":"levelo_inurba_marseille","lat":43.29273,"lon":5.36847,"is_reserved":false,"is_disabled":false,"rental_uris":{"android":"levelo://app?vid=66c2a869-8d71-4d97-aca8-9c0e74034110","ios":"levelo://app?vid=66c2a869-8d71-4d97-aca8-9c0e74034110"},"vehicle_type_id":"4","last_reported":1746475885,"current_range_meters":8800,"station_id":"ce4bhbp2rcd13ifvqesg","pricing_plan_id":"cebpf4jnsgd1na2vs0mg"},{"bike_id":"d9ebccfe-dd7b-4132-a6f6-002262765ed4","system_id":"levelo_inurba_marseille","lat":43.27993,"lon":5.40012,"is_reserved":false,"is_disabled":false,"rental_uris":{"android":"levelo://app?vid=d9ebccfe-dd7b-4132-a6f6-002262765ed4","ios":"levelo://app?vid=d9ebccfe-dd7b-4132-a6f6-002262765ed4"},"vehicle_type_id":"4","last_reported":1746475885,"current_range_meters":8800,"station_id":"ce4bho92rcd13ifvqh4g","pricing_plan_id":"cebpf4jnsgd1na2vs0mg"},{"bike_id":"b73c5f22-57c3-42fb-a428-749049909d64","system_id":"levelo_inurba_marseille","lat":43.2794,"lon":5.41042,"is_reserved":false,"is_disabled":false,"rental_uris":{"android":"levelo://app?vid=b73c5f22-57c3-42fb-a428-749049909d64","ios":"levelo://app?vid=b73c5f22-57c3-42fb-a428-749049909d64"},"vehicle_type_id":"4","last_reported":1746475885,"current_range_meters":8800,"station_id":"ce4bhnp2rcd13ifvqh0g","pricing_plan_id":"cebpf4jnsgd1na2vs0mg"},{"bike_id":"2306010e-85bf-4d9b-a6bc-107f35580834","system_id":"levelo_inurba_marseille","lat":43.258298,"lon":5.394272,"is_reserved":false,"is_disabled":false,"rental_uris":{"android":"levelo://app?vid=2306010e-85bf-4d9b-a6bc-107f35580834","ios":"levelo://app?vid=2306010e-85bf-4d9b-a6bc-107f35580834"},"vehicle_type_id":"4","last_reported":1746475885,"current_range_meters":8800,"station_id":"ce4bhip2rcd13ifvqft0","pricing_plan_id":"cebpf4jnsgd1na2vs0mg"},{"bike_id":"0df6ff4a-d789-4276-8939-264863baa64d","system_id":"levelo_inurba_marseille","lat":43.31738,"lon":5.39019,"is_reserved":false,"is_disabled":false,"rental_uris":{"android":"levelo://app?vid=0df6ff4a-d789-4276-8939-264863baa64d","ios":"levelo://app?vid=0df6ff4a-d789-4276-8939-264863baa64d"},"vehicle_type_id":"4","last_reported":1746475885,"current_range_meters":9200,"station_id":"ce4bhqp2rcd13ifvqhng","pricing_plan_id":"cebpf4jnsgd1na2vs0mg"},{"bike_id":"a105130d-2c0b-47d7-ad9e-26b35e0360b8","system_id":"levelo_inurba_marseille","lat":43.23959,"lon":5.36654,"is_reserved":false,"is_disabled":false,"rental_uris":{"android":"levelo://app?vid=a105130d-2c0b-47d7-ad9e-26b35e0360b8","ios":"levelo://app?vid=a105130d-2c0b-47d7-ad9e-26b35e0360b8"},"vehicle_type_id":"4","last_reported":1746475885,"current_range_meters":9200,"station_id":"ce4bhi12rcd13ifvqfp0","pricing_plan_id":"cebpf4jnsgd1na2vs0mg"},{"bike_id":"482344f1-460c-48ea-83dd-01b9a385e5cf","system_id":"levelo_inurba_marseille","lat":43.3069,"lon":5.36824,"is_reserved":false,"is_disabled":false,"rental_uris":{"android":"levelo://app?vid=482344f1-460c-48ea-83dd-01b9a385e5cf","ios":"levelo://app?vid=482344f1-460c-48ea-83dd-01b9a385e5cf"},"vehicle_type_id":"4","last_reported":1746475885,"current_range_meters":9200,"station_id":"","pricing_plan_id":"cebpf4jnsgd1na2vs0mg"},{"bike_id":"b231d788-71ef-4421-8a26-2ccbd43051d7","system_id":"levelo_inurba_marseille","lat":43.27997,"lon":5.40011,"is_reserved":false,"is_disabled":false,"rental_uris":{"android":"levelo://app?vid=b231d788-71ef-4421-8a26-2ccbd43051d7","ios":"levelo://app?vid=b231d788-71ef-4421-8a26-2ccbd43051d7"},"vehicle_type_id":"4","last_reported":1746475885,"current_range_meters":9200,"station_id":"ce4bho92rcd13ifvqh4g","pricing_plan_id":"cebpf4jnsgd1na2vs0mg"},{"bike_id":"04b4674b-4434-40e5-9e75-4a7229750edd","system_id":"levelo_inurba_marseille","lat":43.27955,"lon":5.4104,"is_reserved":false,"is_disabled":false,"rental_uris":{"android":"levelo://app?vid=04b4674b-4434-40e5-9e75-4a7229750edd","ios":"levelo://app?vid=04b4674b-4434-40e5-9e75-4a7229750edd"},"vehicle_type_id":"4","last_reported":1746475885,"current_range_meters":9600,"station_id":"ce4bhnp2rcd13ifvqh0g","pricing_plan_id":"cebpf4jnsgd1na2vs0mg"},{"bike_id":"90728acd-507e-4586-8514-7150be18c1a3","system_id":"levelo_inurba_marseille","lat":43.31987,"lon":5.38139,"is_reserved":false,"is_disabled":true,"rental_uris":{"android":"levelo://app?vid=90728acd-507e-4586-8514-7150be18c1a3","ios":"levelo://app?vid=90728acd-507e-4586-8514-7150be18c1a3"},"vehicle_type_id":"4","last_reported":1746475885,"current_range_meters":9600,"station_id":"ce4bhr12rcd13ifvqhpg","pricing_plan_id":"cebpf4jnsgd1na2vs0mg"},{"bike_id":"f7f685cd-3f69-4e28-b1ba-dd267fb3831d","system_id":"levelo_inurba_marseille","lat":43.28719,"lon":5.36101,"is_reserved":false,"is_disabled":false,"rental_uris":{"android":"levelo://app?vid=f7f685cd-3f69-4e28-b1ba-dd267fb3831d","ios":"levelo://app?vid=f7f685cd-3f69-4e28-b1ba-dd267fb3831d"},"vehicle_type_id":"4","last_reported":1746475885,"current_range_meters":9200,"station_id":"cki0cbj6b192h4jlfktg","pricing_plan_id":"cebpf4jnsgd1na2vs0mg"},{"bike_id":"bda5329c-0ca8-4429-8276-953c6ccd9961","system_id":"levelo_inurba_marseille","lat":43.27992,"lon":5.416532,"is_reserved":false,"is_disabled":false,"rental_uris":{"android":"levelo://app?vid=bda5329c-0ca8-4429-8276-953c6ccd9961","ios":"levelo://app?vid=bda5329c-0ca8-4429-8276-953c6ccd9961"},"vehicle_type_id":"4","last_reported":1746475885,"current_range_meters":9600,"station_id":"ce4bho12rcd13ifvqh1g","pricing_plan_id":"cebpf4jnsgd1na2vs0mg"},{"bike_id":"ed4fa2df-201b-40f8-890c-d33637171797","system_id":"levelo_inurba_marseille","lat":43.276147,"lon":5.361018,"is_reserved":false,"is_disabled":false,"rental_uris":{"android":"levelo://app?vid=ed4fa2df-201b-40f8-890c-d33637171797","ios":"levelo://app?vid=ed4fa2df-201b-40f8-890c-d33637171797"},"vehicle_type_id":"4","last_reported":1746475885,"current_range_meters":14000,"station_id":"ce4bgj92rcd13ifvqbe0","pricing_plan_id":"cebpf4jnsgd1na2vs0mg"},{"bike_id":"0516f56f-d6da-4619-b60f-e7bb507cb1e3","system_id":"levelo_inurba_marseille","lat":43.3236,"lon":5.38888,"is_reserved":false,"is_disabled":false,"rental_uris":{"android":"levelo://app?vid=0516f56f-d6da-4619-b60f-e7bb507cb1e3","ios":"levelo://app?vid=0516f56f-d6da-4619-b60f-e7bb507cb1e3"},"vehicle_type_id":"4","last_reported":1746475885,"current_range_meters":9600,"station_id":"ce4bhqp2rcd13ifvqhog","pricing_plan_id":"cebpf4jnsgd1na2vs0mg"},{"bike_id":"7a2589c6-a8c1-46f5-a962-7daecd246db4","system_id":"levelo_inurba_marseille","lat":43.315373,"lon":5.38041,"is_reserved":false,"is_disabled":false,"rental_uris":{"android":"levelo://app?vid=7a2589c6-a8c1-46f5-a962-7daecd246db4","ios":"levelo://app?vid=7a2589c6-a8c1-46f5-a962-7daecd246db4"},"vehicle_type_id":"4","last_reported":1746475885,"current_range_meters":9600,"station_id":"ce4bhsp2rcd13ifvqi50","pricing_plan_id":"cebpf4jnsgd1na2vs0mg"},{"bike_id":"20ed8582-ac55-44ea-9ff1-9ba62505eeb4","system_id":"levelo_inurba_marseille","lat":43.30639,"lon":5.40077,"is_reserved":false,"is_disabled":false,"rental_uris":{"android":"levelo://app?vid=20ed8582-ac55-44ea-9ff1-9ba62505eeb4","ios":"levelo://app?vid=20ed8582-ac55-44ea-9ff1-9ba62505eeb4"},"vehicle_type_id":"4","last_reported":1746475885,"current_range_meters":10000,"station_id":"ce4bh112rcd13ifvqda0","pricing_plan_id":"cebpf4jnsgd1na2vs0mg"},{"bike_id":"9fc13afb-e947-475e-b143-9f3ee51b87b5","system_id":"levelo_inurba_marseille","lat":43.30294,"lon":5.39219,"is_reserved":false,"is_disabled":true,"rental_uris":{"android":"levelo://app?vid=9fc13afb-e947-475e-b143-9f3ee51b87b5","ios":"levelo://app?vid=9fc13afb-e947-475e-b143-9f3ee51b87b5"},"vehicle_type_id":"4","last_reported":1746475885,"current_range_meters":10000,"station_id":"ce4bgkh2rcd13ifvqbk0","pricing_plan_id":"cebpf4jnsgd1na2vs0mg"},{"bike_id":"02235f25-174f-4e5d-bce9-a59804091448","system_id":"levelo_inurba_marseille","lat":43.31347,"lon":5.38504,"is_reserved":false,"is_disabled":true,"rental_uris":{"android":"levelo://app?vid=02235f25-174f-4e5d-bce9-a59804091448","ios":"levelo://app?vid=02235f25-174f-4e5d-bce9-a59804091448"},"vehicle_type_id":"4","last_reported":1746475885,"current_range_meters":10000,"station_id":"ce4bgt92rcd13ifvqcf0","pricing_plan_id":"cebpf4jnsgd1na2vs0mg"},{"bike_id":"bcbaa019-21bc-432f-8f68-7971990aa14a","system_id":"levelo_inurba_marseille","lat":43.25112,"lon":5.40331,"is_reserved":false,"is_disabled":false,"rental_uris":{"android":"levelo://app?vid=bcbaa019-21bc-432f-8f68-7971990aa14a","ios":"levelo://app?vid=bcbaa019-21bc-432f-8f68-7971990aa14a"},"vehicle_type_id":"4","last_reported":1746475885,"current_range_meters":10000,"station_id":"ce4bhlh2rcd13ifvqgig","pricing_plan_id":"cebpf4jnsgd1na2vs0mg"},{"bike_id":"969656b2-cdf4-446c-a1a4-f7325c5aeaa7","system_id":"levelo_inurba_marseille","lat":43.27984,"lon":5.40023,"is_reserved":false,"is_disabled":false,"rental_uris":{"android":"levelo://app?vid=969656b2-cdf4-446c-a1a4-f7325c5aeaa7","ios":"levelo://app?vid=969656b2-cdf4-446c-a1a4-f7325c5aeaa7"},"vehicle_type_id":"4","last_reported":1746475885,"current_range_meters":10000,"station_id":"ce4bho92rcd13ifvqh4g","pricing_plan_id":"cebpf4jnsgd1na2vs0mg"},{"bike_id":"dbb60277-38eb-4da4-ba71-e96a9ff8cf93","system_id":"levelo_inurba_marseille","lat":43.30149,"lon":5.38784,"is_reserved":false,"is_disabled":false,"rental_uris":{"android":"levelo://app?vid=dbb60277-38eb-4da4-ba71-e96a9ff8cf93","ios":"levelo://app?vid=dbb60277-38eb-4da4-ba71-e96a9ff8cf93"},"vehicle_type_id":"4","last_reported":1746475885,"current_range_meters":10000,"station_id":"ce4bghh2rcd13ifvqb60","pricing_plan_id":"cebpf4jnsgd1na2vs0mg"},{"bike_id":"763c412a-22fd-426f-a46a-b5235da371a1","system_id":"levelo_inurba_marseille","lat":43.27943,"lon":5.41051,"is_reserved":false,"is_disabled":false,"rental_uris":{"android":"levelo://app?vid=763c412a-22fd-426f-a46a-b5235da371a1","ios":"levelo://app?vid=763c412a-22fd-426f-a46a-b5235da371a1"},"vehicle_type_id":"4","last_reported":1746475885,"current_range_meters":10000,"station_id":"ce4bhnp2rcd13ifvqh0g","pricing_plan_id":"cebpf4jnsgd1na2vs0mg"},{"bike_id":"19d1e1dc-a272-4993-be53-cfc9889d0298","system_id":"levelo_inurba_marseille","lat":43.301315,"lon":5.387718,"is_reserved":false,"is_disabled":false,"rental_uris":{"android":"levelo://app?vid=19d1e1dc-a272-4993-be53-cfc9889d0298","ios":"levelo://app?vid=19d1e1dc-a272-4993-be53-cfc9889d0298"},"vehicle_type_id":"4","last_reported":1746475885,"current_range_meters":10000,"station_id":"ce4bghh2rcd13ifvqb60","pricing_plan_id":"cebpf4jnsgd1na2vs0mg"},{"bike_id":"6a66ce09-9baf-450b-97c2-50a981a00aec","system_id":"levelo_inurba_marseille","lat":43.30296,"lon":5.39229,"is_reserved":false,"is_disabled":false,"rental_uris":{"android":"levelo://app?vid=6a66ce09-9baf-450b-97c2-50a981a00aec","ios":"levelo://app?vid=6a66ce09-9baf-450b-97c2-50a981a00aec"},"vehicle_type_id":"4","last_reported":1746475885,"current_range_meters":9600,"station_id":"ce4bgkh2rcd13ifvqbk0","pricing_plan_id":"cebpf4jnsgd1na2vs0mg"},{"bike_id":"3ff8737e-6d18-4487-9823-49dfaa1375c8","system_id":"levelo_inurba_marseille","lat":43.30293,"lon":5.39205,"is_reserved":false,"is_disabled":false,"rental_uris":{"android":"levelo://app?vid=3ff8737e-6d18-4487-9823-49dfaa1375c8","ios":"levelo://app?vid=3ff8737e-6d18-4487-9823-49dfaa1375c8"},"vehicle_type_id":"4","last_reported":1746475885,"current_range_meters":10800,"station_id":"ce4bgkh2rcd13ifvqbk0","pricing_plan_id":"cebpf4jnsgd1na2vs0mg"},{"bike_id":"1858d475-64c1-4a30-a90d-6e80fdac193d","system_id":"levelo_inurba_marseille","lat":43.27949,"lon":5.4104,"is_reserved":false,"is_disabled":false,"rental_uris":{"android":"levelo://app?vid=1858d475-64c1-4a30-a90d-6e80fdac193d","ios":"levelo://app?vid=1858d475-64c1-4a30-a90d-6e80fdac193d"},"vehicle_type_id":"4","last_reported":1746475885,"current_range_meters":10800,"station_id":"ce4bhnp2rcd13ifvqh0g","pricing_plan_id":"cebpf4jnsgd1na2vs0mg"},{"bike_id":"3bd7d60f-8093-4151-b698-bbe569eb2779","system_id":"levelo_inurba_marseille","lat":43.29595,"lon":5.38102,"is_reserved":false,"is_disabled":false,"rental_uris":{"android":"levelo://app?vid=3bd7d60f-8093-4151-b698-bbe569eb2779","ios":"levelo://app?vid=3bd7d60f-8093-4151-b698-bbe569eb2779"},"vehicle_type_id":"4","last_reported":1746475885,"current_range_meters":10800,"station_id":"ce4bgl12rcd13ifvqbo0","pricing_plan_id":"cebpf4jnsgd1na2vs0mg"},{"bike_id":"08ff2bcf-7233-4803-aa19-4c645279e28a","system_id":"levelo_inurba_marseille","lat":43.29253,"lon":5.40897,"is_reserved":false,"is_disabled":false,"rental_uris":{"android":"levelo://app?vid=08ff2bcf-7233-4803-aa19-4c645279e28a","ios":"levelo://app?vid=08ff2bcf-7233-4803-aa19-4c645279e28a"},"vehicle_type_id":"4","last_reported":1746475885,"current_range_meters":10800,"station_id":"ce4bh192rcd13ifvqdc0","pricing_plan_id":"cebpf4jnsgd1na2vs0mg"},{"bike_id":"996b6168-a05d-48a0-af5f-f3a95295abf0","system_id":"levelo_inurba_marseille","lat":43.24092,"lon":5.37752,"is_reserved":false,"is_disabled":false,"rental_uris":{"android":"levelo://app?vid=996b6168-a05d-48a0-af5f-f3a95295abf0","ios":"levelo://app?vid=996b6168-a05d-48a0-af5f-f3a95295abf0"},"vehicle_type_id":"4","last_reported":1746475885,"current_range_meters":10800,"station_id":"ce4bhnp2rcd13ifvqgvg","pricing_plan_id":"cebpf4jnsgd1na2vs0mg"},{"bike_id":"ebe833ea-970e-4351-8421-466fcd103478","system_id":"levelo_inurba_marseille","lat":43.31218,"lon":5.36843,"is_reserved":false,"is_disabled":false,"rental_uris":{"android":"levelo://app?vid=ebe833ea-970e-4351-8421-466fcd103478","ios":"levelo://app?vid=ebe833ea-970e-4351-8421-466fcd103478"},"vehicle_type_id":"4","last_reported":1746475885,"current_range_meters":10800,"station_id":"ce4bgl92rcd13ifvqbq0","pricing_plan_id":"cebpf4jnsgd1na2vs0mg"},{"bike_id":"45c16268-dcf5-4e4a-b4f6-0b7cb10c71b1","system_id":"levelo_inurba_marseille","lat":43.30584,"lon":5.3935,"is_reserved":false,"is_disabled":false,"rental_uris":{"android":"levelo://app?vid=45c16268-dcf5-4e4a-b4f6-0b7cb10c71b1","ios":"levelo://app?vid=45c16268-dcf5-4e4a-b4f6-0b7cb10c71b1"},"vehicle_type_id":"4","last_reported":1746475885,"current_range_meters":10800,"station_id":"ce4bh0p2rcd13ifvqd80","pricing_plan_id":"cebpf4jnsgd1na2vs0mg"},{"bike_id":"1a56d2e1-6609-455c-8523-959d44394069","system_id":"levelo_inurba_marseille","lat":43.30313,"lon":5.39198,"is_reserved":false,"is_disabled":true,"rental_uris":{"android":"levelo://app?vid=1a56d2e1-6609-455c-8523-959d44394069","ios":"levelo://app?vid=1a56d2e1-6609-455c-8523-959d44394069"},"vehicle_type_id":"4","last_reported":1746475885,"current_range_meters":11200,"station_id":"ce4bgkh2rcd13ifvqbk0","pricing_plan_id":"cebpf4jnsgd1na2vs0mg"},{"bike_id":"f9cec597-af13-4a8a-be1d-b7cf54819d4d","system_id":"levelo_inurba_marseille","lat":43.28967,"lon":5.40723,"is_reserved":false,"is_disabled":false,"rental_uris":{"android":"levelo://app?vid=f9cec597-af13-4a8a-be1d-b7cf54819d4d","ios":"levelo://app?vid=f9cec597-af13-4a8a-be1d-b7cf54819d4d"},"vehicle_type_id":"4","last_reported":1746475885,"current_range_meters":11200,"station_id":"","pricing_plan_id":"cebpf4jnsgd1na2vs0mg"},{"bike_id":"86d7d3ed-cc39-4e3c-821d-1478b4b5f932","system_id":"levelo_inurba_marseille","lat":43.30793,"lon":5.37645,"is_reserved":false,"is_disabled":false,"rental_uris":{"android":"levelo://app?vid=86d7d3ed-cc39-4e3c-821d-1478b4b5f932","ios":"levelo://app?vid=86d7d3ed-cc39-4e3c-821d-1478b4b5f932"},"vehicle_type_id":"4","last_reported":1746475885,"current_range_meters":11200,"station_id":"ce4bgv92rcd13ifvqcq0","pricing_plan_id":"cebpf4jnsgd1na2vs0mg"},{"bike_id":"7b602b1d-e420-4acb-b3b4-4b63bb884ab4","system_id":"levelo_inurba_marseille","lat":43.28935,"lon":5.3664,"is_reserved":false,"is_disabled":false,"rental_uris":{"android":"levelo://app?vid=7b602b1d-e420-4acb-b3b4-4b63bb884ab4","ios":"levelo://app?vid=7b602b1d-e420-4acb-b3b4-4b63bb884ab4"},"vehicle_type_id":"4","last_reported":1746475885,"current_range_meters":11200,"station_id":"ce4bhap2rcd13ifvqek0","pricing_plan_id":"cebpf4jnsgd1na2vs0mg"},{"bike_id":"4567db42-a456-48b6-bc7d-8dd13247fcc0","system_id":"levelo_inurba_marseille","lat":43.27945,"lon":5.41044,"is_reserved":false,"is_disabled":false,"rental_uris":{"android":"levelo://app?vid=4567db42-a456-48b6-bc7d-8dd13247fcc0","ios":"levelo://app?vid=4567db42-a456-48b6-bc7d-8dd13247fcc0"},"vehicle_type_id":"4","last_reported":1746475885,"current_range_meters":11200,"station_id":"ce4bhnp2rcd13ifvqh0g","pricing_plan_id":"cebpf4jnsgd1na2vs0mg"},{"bike_id":"60718572-3ccb-465d-b263-979eb251309b","system_id":"levelo_inurba_marseille","lat":43.23971,"lon":5.36621,"is_reserved":false,"is_disabled":false,"rental_uris":{"android":"levelo://app?vid=60718572-3ccb-465d-b263-979eb251309b","ios":"levelo://app?vid=60718572-3ccb-465d-b263-979eb251309b"},"vehicle_type_id":"4","last_reported":1746475885,"current_range_meters":11200,"station_id":"ce4bhi12rcd13ifvqfp0","pricing_plan_id":"cebpf4jnsgd1na2vs0mg"},{"bike_id":"8e310206-910f-410c-ade7-b0f0f03a4047","system_id":"levelo_inurba_marseille","lat":43.28466,"lon":5.35882,"is_reserved":false,"is_disabled":false,"rental_uris":{"android":"levelo://app?vid=8e310206-910f-410c-ade7-b0f0f03a4047","ios":"levelo://app?vid=8e310206-910f-410c-ade7-b0f0f03a4047"},"vehicle_type_id":"4","last_reported":1746475885,"current_range_meters":11200,"station_id":"ce4bhah2rcd13ifvqei0","pricing_plan_id":"cebpf4jnsgd1na2vs0mg"},{"bike_id":"41aaa1ed-a708-4a9a-b5aa-450e891d24b0","system_id":"levelo_inurba_marseille","lat":43.26556,"lon":5.39034,"is_reserved":false,"is_disabled":true,"rental_uris":{"android":"levelo://app?vid=41aaa1ed-a708-4a9a-b5aa-450e891d24b0","ios":"levelo://app?vid=41aaa1ed-a708-4a9a-b5aa-450e891d24b0"},"vehicle_type_id":"4","last_reported":1746475885,"current_range_meters":11200,"station_id":"ce4bhe12rcd13ifvqf30","pricing_plan_id":"cebpf4jnsgd1na2vs0mg"},{"bike_id":"683e8fb9-290c-4e4c-a1ec-a0cfe6b99e75","system_id":"levelo_inurba_marseille","lat":43.27178,"lon":5.4099,"is_reserved":false,"is_disabled":false,"rental_uris":{"android":"levelo://app?vid=683e8fb9-290c-4e4c-a1ec-a0cfe6b99e75","ios":"levelo://app?vid=683e8fb9-290c-4e4c-a1ec-a0cfe6b99e75"},"vehicle_type_id":"4","last_reported":1746475885,"current_range_meters":11200,"station_id":"ce4bhl12rcd13ifvqgf0","pricing_plan_id":"cebpf4jnsgd1na2vs0mg"},{"bike_id":"46515b8e-2c91-48c1-8869-455cffd3d0b7","system_id":"levelo_inurba_marseille","lat":43.27939,"lon":5.41045,"is_reserved":false,"is_disabled":false,"rental_uris":{"android":"levelo://app?vid=46515b8e-2c91-48c1-8869-455cffd3d0b7","ios":"levelo://app?vid=46515b8e-2c91-48c1-8869-455cffd3d0b7"},"vehicle_type_id":"4","last_reported":1746475885,"current_range_meters":11600,"station_id":"ce4bhnp2rcd13ifvqh0g","pricing_plan_id":"cebpf4jnsgd1na2vs0mg"},{"bike_id":"bd0f5d5e-963b-4fe6-aa82-9fc047b0ac51","system_id":"levelo_inurba_marseille","lat":43.299042,"lon":5.388155,"is_reserved":false,"is_disabled":false,"rental_uris":{"android":"levelo://app?vid=bd0f5d5e-963b-4fe6-aa82-9fc047b0ac51","ios":"levelo://app?vid=bd0f5d5e-963b-4fe6-aa82-9fc047b0ac51"},"vehicle_type_id":"4","last_reported":1746475885,"current_range_meters":11600,"station_id":"","pricing_plan_id":"cebpf4jnsgd1na2vs0mg"},{"bike_id":"62bfa9fa-531f-4d2b-9e57-eb50b2d48c8c","system_id":"levelo_inurba_marseille","lat":43.242921,"lon":5.380129,"is_reserved":false,"is_disabled":false,"rental_uris":{"android":"levelo://app?vid=62bfa9fa-531f-4d2b-9e57-eb50b2d48c8c","ios":"levelo://app?vid=62bfa9fa-531f-4d2b-9e57-eb50b2d48c8c"},"vehicle_type_id":"4","last_reported":1746475885,"current_range_meters":11600,"station_id":"","pricing_plan_id":"cebpf4jnsgd1na2vs0mg"},{"bike_id":"a86abd35-e3bf-49ef-9184-d6bfdb3e54d7","system_id":"levelo_inurba_marseille","lat":43.301132,"lon":5.40079,"is_reserved":false,"is_disabled":false,"rental_uris":{"android":"levelo://app?vid=a86abd35-e3bf-49ef-9184-d6bfdb3e54d7","ios":"levelo://app?vid=a86abd35-e3bf-49ef-9184-d6bfdb3e54d7"},"vehicle_type_id":"4","last_reported":1746475885,"current_range_meters":11200,"station_id":"ce4bgvh2rcd13ifvqcs0","pricing_plan_id":"cebpf4jnsgd1na2vs0mg"},{"bike_id":"a681825d-9dfb-4dda-bbaf-218331472c7f","system_id":"levelo_inurba_marseille","lat":43.32289,"lon":5.38277,"is_reserved":false,"is_disabled":false,"rental_uris":{"android":"levelo://app?vid=a681825d-9dfb-4dda-bbaf-218331472c7f","ios":"levelo://app?vid=a681825d-9dfb-4dda-bbaf-218331472c7f"},"vehicle_type_id":"4","last_reported":1746475885,"current_range_meters":11600,"station_id":"ce4bhr12rcd13ifvqhqg","pricing_plan_id":"cebpf4jnsgd1na2vs0mg"},{"bike_id":"5b8d1337-a035-4531-8ae9-843647d6f95e","system_id":"levelo_inurba_marseille","lat":43.23184,"lon":5.39976,"is_reserved":false,"is_disabled":false,"rental_uris":{"android":"levelo://app?vid=5b8d1337-a035-4531-8ae9-843647d6f95e","ios":"levelo://app?vid=5b8d1337-a035-4531-8ae9-843647d6f95e"},"vehicle_type_id":"4","last_reported":1746475885,"current_range_meters":12000,"station_id":"ce4bhn12rcd13ifvqgqg","pricing_plan_id":"cebpf4jnsgd1na2vs0mg"},{"bike_id":"0cb139c7-ebfc-4316-b1f8-0830598824b5","system_id":"levelo_inurba_marseille","lat":43.29777,"lon":5.39362,"is_reserved":false,"is_disabled":true,"rental_uris":{"android":"levelo://app?vid=0cb139c7-ebfc-4316-b1f8-0830598824b5","ios":"levelo://app?vid=0cb139c7-ebfc-4316-b1f8-0830598824b5"},"vehicle_type_id":"4","last_reported":1746475885,"current_range_meters":12400,"station_id":"chh1huq6cuj3fo74tm60","pricing_plan_id":"cebpf4jnsgd1na2vs0mg"},{"bike_id":"9d8f73eb-df09-4699-86a7-d631e2319093","system_id":"levelo_inurba_marseille","lat":43.2627,"lon":5.37441,"is_reserved":false,"is_disabled":false,"rental_uris":{"android":"levelo://app?vid=9d8f73eb-df09-4699-86a7-d631e2319093","ios":"levelo://app?vid=9d8f73eb-df09-4699-86a7-d631e2319093"},"vehicle_type_id":"4","last_reported":1746475885,"current_range_meters":12000,"station_id":"","pricing_plan_id":"cebpf4jnsgd1na2vs0mg"},{"bike_id":"6707e332-34f0-49a1-943a-310d3c85bcd2","system_id":"levelo_inurba_marseille","lat":43.31683,"lon":5.40472,"is_reserved":false,"is_disabled":false,"rental_uris":{"android":"levelo://app?vid=6707e332-34f0-49a1-943a-310d3c85bcd2","ios":"levelo://app?vid=6707e332-34f0-49a1-943a-310d3c85bcd2"},"vehicle_type_id":"4","last_reported":1746475885,"current_range_meters":12400,"station_id":"ce4bh012rcd13ifvqd00","pricing_plan_id":"cebpf4jnsgd1na2vs0mg"},{"bike_id":"46a428a1-3a45-4310-8fc1-8ac5239110b0","system_id":"levelo_inurba_marseille","lat":43.25825,"lon":5.39439,"is_reserved":false,"is_disabled":false,"rental_uris":{"android":"levelo://app?vid=46a428a1-3a45-4310-8fc1-8ac5239110b0","ios":"levelo://app?vid=46a428a1-3a45-4310-8fc1-8ac5239110b0"},"vehicle_type_id":"4","last_reported":1746475885,"current_range_meters":12400,"station_id":"ce4bhip2rcd13ifvqft0","pricing_plan_id":"cebpf4jnsgd1na2vs0mg"},{"bike_id":"fbda12d9-6999-44a5-a236-2a288c2ac07c","system_id":"levelo_inurba_marseille","lat":43.24071,"lon":5.37768,"is_reserved":false,"is_disabled":false,"rental_uris":{"android":"levelo://app?vid=fbda12d9-6999-44a5-a236-2a288c2ac07c","ios":"levelo://app?vid=fbda12d9-6999-44a5-a236-2a288c2ac07c"},"vehicle_type_id":"4","last_reported":1746475885,"current_range_meters":12800,"station_id":"ce4bhnp2rcd13ifvqgvg","pricing_plan_id":"cebpf4jnsgd1na2vs0mg"},{"bike_id":"b60c17f5-436e-489e-8f3c-790e6084ac64","system_id":"levelo_inurba_marseille","lat":43.211891,"lon":5.350769,"is_reserved":false,"is_disabled":false,"rental_uris":{"android":"levelo://app?vid=b60c17f5-436e-489e-8f3c-790e6084ac64","ios":"levelo://app?vid=b60c17f5-436e-489e-8f3c-790e6084ac64"},"vehicle_type_id":"4","last_reported":1746475885,"current_range_meters":12800,"station_id":"st_cvj6sg6p6f1abm77japg","pricing_plan_id":"cebpf4jnsgd1na2vs0mg"},{"bike_id":"8c889753-13fd-49d2-9071-aba53083dd5c","system_id":"levelo_inurba_marseille","lat":43.341396,"lon":5.409054,"is_reserved":false,"is_disabled":false,"rental_uris":{"android":"levelo://app?vid=8c889753-13fd-49d2-9071-aba53083dd5c","ios":"levelo://app?vid=8c889753-13fd-49d2-9071-aba53083dd5c"},"vehicle_type_id":"4","last_reported":1746475885,"current_range_meters":12800,"station_id":"ce4bhqh2rcd13ifvqhlg","pricing_plan_id":"cebpf4jnsgd1na2vs0mg"},{"bike_id":"0c377d9d-9a3a-47a7-9944-6039314b5e15","system_id":"levelo_inurba_marseille","lat":43.24599,"lon":5.404949,"is_reserved":false,"is_disabled":false,"rental_uris":{"android":"levelo://app?vid=0c377d9d-9a3a-47a7-9944-6039314b5e15","ios":"levelo://app?vid=0c377d9d-9a3a-47a7-9944-6039314b5e15"},"vehicle_type_id":"4","last_reported":1746475885,"current_range_meters":12800,"station_id":"","pricing_plan_id":"cebpf4jnsgd1na2vs0mg"},{"bike_id":"05a84f69-0592-442a-b098-6253d0b70e9e","system_id":"levelo_inurba_marseille","lat":43.30004,"lon":5.3722,"is_reserved":false,"is_disabled":false,"rental_uris":{"android":"levelo://app?vid=05a84f69-0592-442a-b098-6253d0b70e9e","ios":"levelo://app?vid=05a84f69-0592-442a-b098-6253d0b70e9e"},"vehicle_type_id":"4","last_reported":1746475885,"current_range_meters":12800,"station_id":"ce4bgr92rcd13ifvqc7g","pricing_plan_id":"cebpf4jnsgd1na2vs0mg"},{"bike_id":"422384e3-5b65-425e-af9a-69c8dfb04ce3","system_id":"levelo_inurba_marseille","lat":43.23959,"lon":5.36644,"is_reserved":false,"is_disabled":false,"rental_uris":{"android":"levelo://app?vid=422384e3-5b65-425e-af9a-69c8dfb04ce3","ios":"levelo://app?vid=422384e3-5b65-425e-af9a-69c8dfb04ce3"},"vehicle_type_id":"4","last_reported":1746475885,"current_range_meters":12800,"station_id":"ce4bhi12rcd13ifvqfp0","pricing_plan_id":"cebpf4jnsgd1na2vs0mg"},{"bike_id":"3638ab49-c2ef-40f7-8039-83a16b621afd","system_id":"levelo_inurba_marseille","lat":43.27991,"lon":5.40019,"is_reserved":false,"is_disabled":false,"rental_uris":{"android":"levelo://app?vid=3638ab49-c2ef-40f7-8039-83a16b621afd","ios":"levelo://app?vid=3638ab49-c2ef-40f7-8039-83a16b621afd"},"vehicle_type_id":"4","last_reported":1746475885,"current_range_meters":12800,"station_id":"ce4bho92rcd13ifvqh4g","pricing_plan_id":"cebpf4jnsgd1na2vs0mg"},{"bike_id":"a46b5721-597c-404e-8ddb-3ba6469f967d","system_id":"levelo_inurba_marseille","lat":43.23204,"lon":5.35558,"is_reserved":false,"is_disabled":false,"rental_uris":{"android":"levelo://app?vid=a46b5721-597c-404e-8ddb-3ba6469f967d","ios":"levelo://app?vid=a46b5721-597c-404e-8ddb-3ba6469f967d"},"vehicle_type_id":"4","last_reported":1746475885,"current_range_meters":13600,"station_id":"ce4bhu92rcd13ifvqi70","pricing_plan_id":"cebpf4jnsgd1na2vs0mg"},{"bike_id":"d6343cca-3fab-461b-bf6f-14e0c0d62f03","system_id":"levelo_inurba_marseille","lat":43.29565,"lon":5.37529,"is_reserved":false,"is_disabled":false,"rental_uris":{"android":"levelo://app?vid=d6343cca-3fab-461b-bf6f-14e0c0d62f03","ios":"levelo://app?vid=d6343cca-3fab-461b-bf6f-14e0c0d62f03"},"vehicle_type_id":"4","last_reported":1746475885,"current_range_meters":13600,"station_id":"ce4bgh92rcd13ifvqb50","pricing_plan_id":"cebpf4jnsgd1na2vs0mg"},{"bike_id":"9924043d-ad75-4d9e-ab8c-34017e8cf956","system_id":"levelo_inurba_marseille","lat":43.29261,"lon":5.409,"is_reserved":false,"is_disabled":false,"rental_uris":{"android":"levelo://app?vid=9924043d-ad75-4d9e-ab8c-34017e8cf956","ios":"levelo://app?vid=9924043d-ad75-4d9e-ab8c-34017e8cf956"},"vehicle_type_id":"4","last_reported":1746475885,"current_range_meters":13600,"station_id":"ce4bh192rcd13ifvqdc0","pricing_plan_id":"cebpf4jnsgd1na2vs0mg"},{"bike_id":"5423b67b-7d78-436a-846a-99a9f32bc3c9","system_id":"levelo_inurba_marseille","lat":43.25083,"lon":5.3951,"is_reserved":false,"is_disabled":false,"rental_uris":{"android":"levelo://app?vid=5423b67b-7d78-436a-846a-99a9f32bc3c9","ios":"levelo://app?vid=5423b67b-7d78-436a-846a-99a9f32bc3c9"},"vehicle_type_id":"4","last_reported":1746475885,"current_range_meters":13600,"station_id":"ce4bhm12rcd13ifvqgkg","pricing_plan_id":"cebpf4jnsgd1na2vs0mg"},{"bike_id":"ff6a9f5a-ff81-4e5c-b06c-8d491fde3057","system_id":"levelo_inurba_marseille","lat":43.30242,"lon":5.40059,"is_reserved":false,"is_disabled":false,"rental_uris":{"android":"levelo://app?vid=ff6a9f5a-ff81-4e5c-b06c-8d491fde3057","ios":"levelo://app?vid=ff6a9f5a-ff81-4e5c-b06c-8d491fde3057"},"vehicle_type_id":"4","last_reported":1746475885,"current_range_meters":13600,"station_id":"ce4bgvh2rcd13ifvqcs0","pricing_plan_id":"cebpf4jnsgd1na2vs0mg"},{"bike_id":"66d0f49c-8731-4101-ba38-59582f984072","system_id":"levelo_inurba_marseille","lat":43.317535,"lon":5.390134,"is_reserved":false,"is_disabled":false,"rental_uris":{"android":"levelo://app?vid=66d0f49c-8731-4101-ba38-59582f984072","ios":"levelo://app?vid=66d0f49c-8731-4101-ba38-59582f984072"},"vehicle_type_id":"4","last_reported":1746475885,"current_range_meters":12800,"station_id":"ce4bhqp2rcd13ifvqhng","pricing_plan_id":"cebpf4jnsgd1na2vs0mg"},{"bike_id":"db607aba-0db6-423b-a818-c23224727203","system_id":"levelo_inurba_marseille","lat":43.231504,"lon":5.436959,"is_reserved":false,"is_disabled":false,"rental_uris":{"android":"levelo://app?vid=db607aba-0db6-423b-a818-c23224727203","ios":"levelo://app?vid=db607aba-0db6-423b-a818-c23224727203"},"vehicle_type_id":"4","last_reported":1746475885,"current_range_meters":13600,"station_id":"ce4bhmp2rcd13ifvqgog","pricing_plan_id":"cebpf4jnsgd1na2vs0mg"},{"bike_id":"e59f121e-ba4f-4890-a742-2d0c49eae7d8","system_id":"levelo_inurba_marseille","lat":43.31548,"lon":5.38037,"is_reserved":false,"is_disabled":false,"rental_uris":{"android":"levelo://app?vid=e59f121e-ba4f-4890-a742-2d0c49eae7d8","ios":"levelo://app?vid=e59f121e-ba4f-4890-a742-2d0c49eae7d8"},"vehicle_type_id":"4","last_reported":1746475885,"current_range_meters":14000,"station_id":"ce4bhsp2rcd13ifvqi50","pricing_plan_id":"cebpf4jnsgd1na2vs0mg"},{"bike_id":"404f6b56-6c33-4aa5-81c5-b1c9984a7488","system_id":"levelo_inurba_marseille","lat":43.30423,"lon":5.41401,"is_reserved":false,"is_disabled":false,"rental_uris":{"android":"levelo://app?vid=404f6b56-6c33-4aa5-81c5-b1c9984a7488","ios":"levelo://app?vid=404f6b56-6c33-4aa5-81c5-b1c9984a7488"},"vehicle_type_id":"4","last_reported":1746475885,"current_range_meters":14000,"station_id":"ce4bhop2rcd13ifvqh8g","pricing_plan_id":"cebpf4jnsgd1na2vs0mg"},{"bike_id":"bfd18729-234a-4c72-b47b-2cff574b2dc5","system_id":"levelo_inurba_marseille","lat":43.29241,"lon":5.38288,"is_reserved":false,"is_disabled":false,"rental_uris":{"android":"levelo://app?vid=bfd18729-234a-4c72-b47b-2cff574b2dc5","ios":"levelo://app?vid=bfd18729-234a-4c72-b47b-2cff574b2dc5"},"vehicle_type_id":"4","last_reported":1746475885,"current_range_meters":14000,"station_id":"","pricing_plan_id":"cebpf4jnsgd1na2vs0mg"},{"bike_id":"7ebbe346-7a11-413e-9f49-fd1e2fb2a56c","system_id":"levelo_inurba_marseille","lat":43.27812,"lon":5.40713,"is_reserved":false,"is_disabled":false,"rental_uris":{"android":"levelo://app?vid=7ebbe346-7a11-413e-9f49-fd1e2fb2a56c","ios":"levelo://app?vid=7ebbe346-7a11-413e-9f49-fd1e2fb2a56c"},"vehicle_type_id":"4","last_reported":1746475885,"current_range_meters":14000,"station_id":"ce4bhnh2rcd13ifvqgtg","pricing_plan_id":"cebpf4jnsgd1na2vs0mg"},{"bike_id":"311ec4e0-482e-4b83-a693-e6b86a1abb04","system_id":"levelo_inurba_marseille","lat":43.331464,"lon":5.413775,"is_reserved":false,"is_disabled":false,"rental_uris":{"android":"levelo://app?vid=311ec4e0-482e-4b83-a693-e6b86a1abb04","ios":"levelo://app?vid=311ec4e0-482e-4b83-a693-e6b86a1abb04"},"vehicle_type_id":"4","last_reported":1746475885,"current_range_meters":14000,"station_id":"","pricing_plan_id":"cebpf4jnsgd1na2vs0mg"},{"bike_id":"49c43e7d-9c4d-4d14-9930-0efc7afe330b","system_id":"levelo_inurba_marseille","lat":43.23135,"lon":5.4373,"is_reserved":false,"is_disabled":false,"rental_uris":{"android":"levelo://app?vid=49c43e7d-9c4d-4d14-9930-0efc7afe330b","ios":"levelo://app?vid=49c43e7d-9c4d-4d14-9930-0efc7afe330b"},"vehicle_type_id":"4","last_reported":1746475885,"current_range_meters":14000,"station_id":"ce4bhmp2rcd13ifvqgog","pricing_plan_id":"cebpf4jnsgd1na2vs0mg"},{"bike_id":"44d1a496-4f16-46a6-b178-f49cec17003e","system_id":"levelo_inurba_marseille","lat":43.27195,"lon":5.40992,"is_reserved":false,"is_disabled":false,"rental_uris":{"android":"levelo://app?vid=44d1a496-4f16-46a6-b178-f49cec17003e","ios":"levelo://app?vid=44d1a496-4f16-46a6-b178-f49cec17003e"},"vehicle_type_id":"4","last_reported":1746475885,"current_range_meters":14400,"station_id":"ce4bhl12rcd13ifvqgf0","pricing_plan_id":"cebpf4jnsgd1na2vs0mg"},{"bike_id":"13fcfc94-37a5-49a8-a177-77725e8512b6","system_id":"levelo_inurba_marseille","lat":43.30453,"lon":5.37904,"is_reserved":false,"is_disabled":true,"rental_uris":{"android":"levelo://app?vid=13fcfc94-37a5-49a8-a177-77725e8512b6","ios":"levelo://app?vid=13fcfc94-37a5-49a8-a177-77725e8512b6"},"vehicle_type_id":"4","last_reported":1746475885,"current_range_meters":14400,"station_id":"ce4bgup2rcd13ifvqcn0","pricing_plan_id":"cebpf4jnsgd1na2vs0mg"},{"bike_id":"7e86d21d-45f2-4214-8268-1894a29d6870","system_id":"levelo_inurba_marseille","lat":43.27812,"lon":5.40716,"is_reserved":false,"is_disabled":false,"rental_uris":{"android":"levelo://app?vid=7e86d21d-45f2-4214-8268-1894a29d6870","ios":"levelo://app?vid=7e86d21d-45f2-4214-8268-1894a29d6870"},"vehicle_type_id":"4","last_reported":1746475885,"current_range_meters":14400,"station_id":"ce4bhnh2rcd13ifvqgtg","pricing_plan_id":"cebpf4jnsgd1na2vs0mg"},{"bike_id":"b1b509db-3f2c-4765-abf3-6542ad5caba2","system_id":"levelo_inurba_marseille","lat":43.29594,"lon":5.38102,"is_reserved":false,"is_disabled":false,"rental_uris":{"android":"levelo://app?vid=b1b509db-3f2c-4765-abf3-6542ad5caba2","ios":"levelo://app?vid=b1b509db-3f2c-4765-abf3-6542ad5caba2"},"vehicle_type_id":"4","last_reported":1746475885,"current_range_meters":14400,"station_id":"ce4bgl12rcd13ifvqbo0","pricing_plan_id":"cebpf4jnsgd1na2vs0mg"},{"bike_id":"7e7dc147-9fb8-4df0-905e-a56344049728","system_id":"levelo_inurba_marseille","lat":43.29036,"lon":5.38652,"is_reserved":false,"is_disabled":true,"rental_uris":{"android":"levelo://app?vid=7e7dc147-9fb8-4df0-905e-a56344049728","ios":"levelo://app?vid=7e7dc147-9fb8-4df0-905e-a56344049728"},"vehicle_type_id":"4","last_reported":1746475885,"current_range_meters":14400,"station_id":"ce4bh4p2rcd13ifvqe0g","pricing_plan_id":"cebpf4jnsgd1na2vs0mg"},{"bike_id":"6eb6ecde-2ded-4a1e-856a-a87d40d7c47f","system_id":"levelo_inurba_marseille","lat":43.24386,"lon":5.37059,"is_reserved":false,"is_disabled":false,"rental_uris":{"android":"levelo://app?vid=6eb6ecde-2ded-4a1e-856a-a87d40d7c47f","ios":"levelo://app?vid=6eb6ecde-2ded-4a1e-856a-a87d40d7c47f"},"vehicle_type_id":"4","last_reported":1746475885,"current_range_meters":14800,"station_id":"ce4bhhh2rcd13ifvqfk0","pricing_plan_id":"cebpf4jnsgd1na2vs0mg"},{"bike_id":"f3a35506-97fa-42ff-b934-98d4b2d65cd8","system_id":"levelo_inurba_marseille","lat":43.28699,"lon":5.37394,"is_reserved":false,"is_disabled":false,"rental_uris":{"android":"levelo://app?vid=f3a35506-97fa-42ff-b934-98d4b2d65cd8","ios":"levelo://app?vid=f3a35506-97fa-42ff-b934-98d4b2d65cd8"},"vehicle_type_id":"4","last_reported":1746475885,"current_range_meters":14800,"station_id":"ce4bh3p2rcd13ifvqdq0","pricing_plan_id":"cebpf4jnsgd1na2vs0mg"},{"bike_id":"f9308a73-05b8-4b98-a1ef-3fadc0d50308","system_id":"levelo_inurba_marseille","lat":43.27419,"lon":5.39413,"is_reserved":false,"is_disabled":false,"rental_uris":{"android":"levelo://app?vid=f9308a73-05b8-4b98-a1ef-3fadc0d50308","ios":"levelo://app?vid=f9308a73-05b8-4b98-a1ef-3fadc0d50308"},"vehicle_type_id":"4","last_reported":1746475885,"current_range_meters":14800,"station_id":"ce4bhdp2rcd13ifvqf20","pricing_plan_id":"cebpf4jnsgd1na2vs0mg"},{"bike_id":"ff98988f-b7b5-4b59-aafa-108198aebfdf","system_id":"levelo_inurba_marseille","lat":43.311723,"lon":5.387107,"is_reserved":false,"is_disabled":false,"rental_uris":{"android":"levelo://app?vid=ff98988f-b7b5-4b59-aafa-108198aebfdf","ios":"levelo://app?vid=ff98988f-b7b5-4b59-aafa-108198aebfdf"},"vehicle_type_id":"4","last_reported":1746475885,"current_range_meters":14800,"station_id":"ce4bgv12rcd13ifvqcp0","pricing_plan_id":"cebpf4jnsgd1na2vs0mg"},{"bike_id":"c9592205-9409-4f74-aed1-7c4141a58caa","system_id":"levelo_inurba_marseille","lat":43.27141,"lon":5.36355,"is_reserved":false,"is_disabled":false,"rental_uris":{"android":"levelo://app?vid=c9592205-9409-4f74-aed1-7c4141a58caa","ios":"levelo://app?vid=c9592205-9409-4f74-aed1-7c4141a58caa"},"vehicle_type_id":"4","last_reported":1746475885,"current_range_meters":14800,"station_id":"","pricing_plan_id":"cebpf4jnsgd1na2vs0mg"},{"bike_id":"a9b78ccc-48f0-4502-b89e-0369c4bf7b0b","system_id":"levelo_inurba_marseille","lat":43.23192,"lon":5.39971,"is_reserved":false,"is_disabled":false,"rental_uris":{"android":"levelo://app?vid=a9b78ccc-48f0-4502-b89e-0369c4bf7b0b","ios":"levelo://app?vid=a9b78ccc-48f0-4502-b89e-0369c4bf7b0b"},"vehicle_type_id":"4","last_reported":1746475885,"current_range_meters":14800,"station_id":"ce4bhn12rcd13ifvqgqg","pricing_plan_id":"cebpf4jnsgd1na2vs0mg"},{"bike_id":"267add20-8ef9-47ac-9193-39301db32359","system_id":"levelo_inurba_marseille","lat":43.309306,"lon":5.401361,"is_reserved":false,"is_disabled":false,"rental_uris":{"android":"levelo://app?vid=267add20-8ef9-47ac-9193-39301db32359","ios":"levelo://app?vid=267add20-8ef9-47ac-9193-39301db32359"},"vehicle_type_id":"4","last_reported":1746475885,"current_range_meters":14400,"station_id":"ce4bgvp2rcd13ifvqct0","pricing_plan_id":"cebpf4jnsgd1na2vs0mg"},{"bike_id":"2d3a4e18-5e5c-41fd-a652-c6f84f49b159","system_id":"levelo_inurba_marseille","lat":43.293737,"lon":5.37859,"is_reserved":false,"is_disabled":true,"rental_uris":{"android":"levelo://app?vid=2d3a4e18-5e5c-41fd-a652-c6f84f49b159","ios":"levelo://app?vid=2d3a4e18-5e5c-41fd-a652-c6f84f49b159"},"vehicle_type_id":"4","last_reported":1746475885,"current_range_meters":14800,"station_id":"ce4bgjh2rcd13ifvqbf0","pricing_plan_id":"cebpf4jnsgd1na2vs0mg"},{"bike_id":"ca0c56c5-82fc-40a2-9a8e-408f18747063","system_id":"levelo_inurba_marseille","lat":43.27622,"lon":5.36106,"is_reserved":false,"is_disabled":false,"rental_uris":{"android":"levelo://app?vid=ca0c56c5-82fc-40a2-9a8e-408f18747063","ios":"levelo://app?vid=ca0c56c5-82fc-40a2-9a8e-408f18747063"},"vehicle_type_id":"4","last_reported":1746475885,"current_range_meters":15200,"station_id":"ce4bgj92rcd13ifvqbe0","pricing_plan_id":"cebpf4jnsgd1na2vs0mg"},{"bike_id":"2f538c72-3f67-4152-b779-e6f5447f0f46","system_id":"levelo_inurba_marseille","lat":43.28837,"lon":5.39335,"is_reserved":false,"is_disabled":false,"rental_uris":{"android":"levelo://app?vid=2f538c72-3f67-4152-b779-e6f5447f0f46","ios":"levelo://app?vid=2f538c72-3f67-4152-b779-e6f5447f0f46"},"vehicle_type_id":"4","last_reported":1746475885,"current_range_meters":15200,"station_id":"ce4bh2p2rcd13ifvqdi0","pricing_plan_id":"cebpf4jnsgd1na2vs0mg"},{"bike_id":"7ae923fd-583b-405f-968d-fb1bcede32b7","system_id":"levelo_inurba_marseille","lat":43.25082,"lon":5.39515,"is_reserved":false,"is_disabled":false,"rental_uris":{"android":"levelo://app?vid=7ae923fd-583b-405f-968d-fb1bcede32b7","ios":"levelo://app?vid=7ae923fd-583b-405f-968d-fb1bcede32b7"},"vehicle_type_id":"4","last_reported":1746475885,"current_range_meters":15200,"station_id":"ce4bhm12rcd13ifvqgkg","pricing_plan_id":"cebpf4jnsgd1na2vs0mg"},{"bike_id":"8dac27be-a00b-4425-aba9-9ad4ebb57a63","system_id":"levelo_inurba_marseille","lat":43.28708,"lon":5.38709,"is_reserved":false,"is_disabled":true,"rental_uris":{"android":"levelo://app?vid=8dac27be-a00b-4425-aba9-9ad4ebb57a63","ios":"levelo://app?vid=8dac27be-a00b-4425-aba9-9ad4ebb57a63"},"vehicle_type_id":"4","last_reported":1746475885,"current_range_meters":15200,"station_id":"","pricing_plan_id":"cebpf4jnsgd1na2vs0mg"},{"bike_id":"858bed88-3c9c-4c60-b913-cfc9a1021309","system_id":"levelo_inurba_marseille","lat":43.317559,"lon":5.390157,"is_reserved":false,"is_disabled":true,"rental_uris":{"android":"levelo://app?vid=858bed88-3c9c-4c60-b913-cfc9a1021309","ios":"levelo://app?vid=858bed88-3c9c-4c60-b913-cfc9a1021309"},"vehicle_type_id":"4","last_reported":1746475885,"current_range_meters":15200,"station_id":"ce4bhqp2rcd13ifvqhng","pricing_plan_id":"cebpf4jnsgd1na2vs0mg"},{"bike_id":"ce8f7ef5-e33a-4757-8034-06b6b466156a","system_id":"levelo_inurba_marseille","lat":43.26191,"lon":5.37446,"is_reserved":false,"is_disabled":false,"rental_uris":{"android":"levelo://app?vid=ce8f7ef5-e33a-4757-8034-06b6b466156a","ios":"levelo://app?vid=ce8f7ef5-e33a-4757-8034-06b6b466156a"},"vehicle_type_id":"4","last_reported":1746475885,"current_range_meters":15200,"station_id":"ce4bhgp2rcd13ifvqfc0","pricing_plan_id":"cebpf4jnsgd1na2vs0mg"},{"bike_id":"3ef3f82b-f44c-4d3c-a690-2602cf85f9de","system_id":"levelo_inurba_marseille","lat":43.28457,"lon":5.35894,"is_reserved":false,"is_disabled":false,"rental_uris":{"android":"levelo://app?vid=3ef3f82b-f44c-4d3c-a690-2602cf85f9de","ios":"levelo://app?vid=3ef3f82b-f44c-4d3c-a690-2602cf85f9de"},"vehicle_type_id":"4","last_reported":1746475885,"current_range_meters":15200,"station_id":"ce4bhah2rcd13ifvqei0","pricing_plan_id":"cebpf4jnsgd1na2vs0mg"},{"bike_id":"48d1a623-5e08-404d-89cc-f076c785ec8a","system_id":"levelo_inurba_marseille","lat":43.28469,"lon":5.35872,"is_reserved":false,"is_disabled":false,"rental_uris":{"android":"levelo://app?vid=48d1a623-5e08-404d-89cc-f076c785ec8a","ios":"levelo://app?vid=48d1a623-5e08-404d-89cc-f076c785ec8a"},"vehicle_type_id":"4","last_reported":1746475885,"current_range_meters":16000,"station_id":"ce4bhah2rcd13ifvqei0","pricing_plan_id":"cebpf4jnsgd1na2vs0mg"},{"bike_id":"2df614bf-145f-44cd-b174-f8bd8326963c","system_id":"levelo_inurba_marseille","lat":43.31538,"lon":5.38042,"is_reserved":false,"is_disabled":false,"rental_uris":{"android":"levelo://app?vid=2df614bf-145f-44cd-b174-f8bd8326963c","ios":"levelo://app?vid=2df614bf-145f-44cd-b174-f8bd8326963c"},"vehicle_type_id":"4","last_reported":1746475885,"current_range_meters":16000,"station_id":"ce4bhsp2rcd13ifvqi50","pricing_plan_id":"cebpf4jnsgd1na2vs0mg"},{"bike_id":"7ca09d8d-51db-4057-abe2-e9c1bdbcdfac","system_id":"levelo_inurba_marseille","lat":43.22933,"lon":5.35374,"is_reserved":false,"is_disabled":true,"rental_uris":{"android":"levelo://app?vid=7ca09d8d-51db-4057-abe2-e9c1bdbcdfac","ios":"levelo://app?vid=7ca09d8d-51db-4057-abe2-e9c1bdbcdfac"},"vehicle_type_id":"4","last_reported":1746475885,"current_range_meters":16000,"station_id":"cpo3532slgdg3j2ikp40","pricing_plan_id":"cebpf4jnsgd1na2vs0mg"},{"bike_id":"53244cb6-fb82-4872-b855-d7022e098455","system_id":"levelo_inurba_marseille","lat":43.28934,"lon":5.36641,"is_reserved":false,"is_disabled":false,"rental_uris":{"android":"levelo://app?vid=53244cb6-fb82-4872-b855-d7022e098455","ios":"levelo://app?vid=53244cb6-fb82-4872-b855-d7022e098455"},"vehicle_type_id":"4","last_reported":1746475885,"current_range_meters":16400,"station_id":"ce4bhap2rcd13ifvqek0","pricing_plan_id":"cebpf4jnsgd1na2vs0mg"},{"bike_id":"bedea05d-d78e-49aa-a496-3f51d4ea594b","system_id":"levelo_inurba_marseille","lat":43.28477,"lon":5.35881,"is_reserved":false,"is_disabled":false,"rental_uris":{"android":"levelo://app?vid=bedea05d-d78e-49aa-a496-3f51d4ea594b","ios":"levelo://app?vid=bedea05d-d78e-49aa-a496-3f51d4ea594b"},"vehicle_type_id":"4","last_reported":1746475885,"current_range_meters":16400,"station_id":"ce4bhah2rcd13ifvqei0","pricing_plan_id":"cebpf4jnsgd1na2vs0mg"},{"bike_id":"99097e50-dd2e-47c3-a879-f48655baf4d9","system_id":"levelo_inurba_marseille","lat":43.245938,"lon":5.408338,"is_reserved":false,"is_disabled":false,"rental_uris":{"android":"levelo://app?vid=99097e50-dd2e-47c3-a879-f48655baf4d9","ios":"levelo://app?vid=99097e50-dd2e-47c3-a879-f48655baf4d9"},"vehicle_type_id":"4","last_reported":1746475885,"current_range_meters":16400,"station_id":"","pricing_plan_id":"cebpf4jnsgd1na2vs0mg"},{"bike_id":"e3bb4c0a-ea28-4d8b-a92a-340ecfdd5f1d","system_id":"levelo_inurba_marseille","lat":43.310617,"lon":5.375503,"is_reserved":false,"is_disabled":false,"rental_uris":{"android":"levelo://app?vid=e3bb4c0a-ea28-4d8b-a92a-340ecfdd5f1d","ios":"levelo://app?vid=e3bb4c0a-ea28-4d8b-a92a-340ecfdd5f1d"},"vehicle_type_id":"4","last_reported":1746475885,"current_range_meters":16400,"station_id":"","pricing_plan_id":"cebpf4jnsgd1na2vs0mg"},{"bike_id":"5a7d2749-ecbc-4351-94f2-8339d95d4c06","system_id":"levelo_inurba_marseille","lat":43.3154,"lon":5.38035,"is_reserved":false,"is_disabled":false,"rental_uris":{"android":"levelo://app?vid=5a7d2749-ecbc-4351-94f2-8339d95d4c06","ios":"levelo://app?vid=5a7d2749-ecbc-4351-94f2-8339d95d4c06"},"vehicle_type_id":"4","last_reported":1746475885,"current_range_meters":16400,"station_id":"ce4bhsp2rcd13ifvqi50","pricing_plan_id":"cebpf4jnsgd1na2vs0mg"},{"bike_id":"d5630c10-837a-43eb-9e38-7907fdc3b4ae","system_id":"levelo_inurba_marseille","lat":43.31291,"lon":5.370308,"is_reserved":false,"is_disabled":false,"rental_uris":{"android":"levelo://app?vid=d5630c10-837a-43eb-9e38-7907fdc3b4ae","ios":"levelo://app?vid=d5630c10-837a-43eb-9e38-7907fdc3b4ae"},"vehicle_type_id":"4","last_reported":1746475885,"current_range_meters":16400,"station_id":"","pricing_plan_id":"cebpf4jnsgd1na2vs0mg"},{"bike_id":"120866c5-fe49-4855-abcb-c87c5dc16fa7","system_id":"levelo_inurba_marseille","lat":43.29592,"lon":5.3811,"is_reserved":false,"is_disabled":false,"rental_uris":{"android":"levelo://app?vid=120866c5-fe49-4855-abcb-c87c5dc16fa7","ios":"levelo://app?vid=120866c5-fe49-4855-abcb-c87c5dc16fa7"},"vehicle_type_id":"4","last_reported":1746475885,"current_range_meters":16400,"station_id":"ce4bgl12rcd13ifvqbo0","pricing_plan_id":"cebpf4jnsgd1na2vs0mg"},{"bike_id":"3f84d55c-f7b3-443f-a8ba-1f83ba8291a2","system_id":"levelo_inurba_marseille","lat":43.21192,"lon":5.3507,"is_reserved":false,"is_disabled":false,"rental_uris":{"android":"levelo://app?vid=3f84d55c-f7b3-443f-a8ba-1f83ba8291a2","ios":"levelo://app?vid=3f84d55c-f7b3-443f-a8ba-1f83ba8291a2"},"vehicle_type_id":"4","last_reported":1746475885,"current_range_meters":16400,"station_id":"st_cvj6sg6p6f1abm77japg","pricing_plan_id":"cebpf4jnsgd1na2vs0mg"},{"bike_id":"f8951e71-e6d6-4079-85a7-64eca3dfb50c","system_id":"levelo_inurba_marseille","lat":43.2419,"lon":5.39725,"is_reserved":false,"is_disabled":false,"rental_uris":{"android":"levelo://app?vid=f8951e71-e6d6-4079-85a7-64eca3dfb50c","ios":"levelo://app?vid=f8951e71-e6d6-4079-85a7-64eca3dfb50c"},"vehicle_type_id":"4","last_reported":1746475885,"current_range_meters":16400,"station_id":"ce4bhn12rcd13ifvqgpg","pricing_plan_id":"cebpf4jnsgd1na2vs0mg"},{"bike_id":"13a33661-336b-40d3-8177-5933c619331c","system_id":"levelo_inurba_marseille","lat":43.28713,"lon":5.37385,"is_reserved":false,"is_disabled":false,"rental_uris":{"android":"levelo://app?vid=13a33661-336b-40d3-8177-5933c619331c","ios":"levelo://app?vid=13a33661-336b-40d3-8177-5933c619331c"},"vehicle_type_id":"4","last_reported":1746475885,"current_range_meters":16800,"station_id":"ce4bh3p2rcd13ifvqdq0","pricing_plan_id":"cebpf4jnsgd1na2vs0mg"},{"bike_id":"1d318b75-2fd7-4c46-b5b7-6f3f2d099498","system_id":"levelo_inurba_marseille","lat":43.30881,"lon":5.39648,"is_reserved":false,"is_disabled":false,"rental_uris":{"android":"levelo://app?vid=1d318b75-2fd7-4c46-b5b7-6f3f2d099498","ios":"levelo://app?vid=1d318b75-2fd7-4c46-b5b7-6f3f2d099498"},"vehicle_type_id":"4","last_reported":1746475885,"current_range_meters":16800,"station_id":"ce4bh012rcd13ifvqcv0","pricing_plan_id":"cebpf4jnsgd1na2vs0mg"},{"bike_id":"5987d684-ebbc-4e3b-9225-d827a0b9ff39","system_id":"levelo_inurba_marseille","lat":43.23961,"lon":5.36639,"is_reserved":false,"is_disabled":false,"rental_uris":{"android":"levelo://app?vid=5987d684-ebbc-4e3b-9225-d827a0b9ff39","ios":"levelo://app?vid=5987d684-ebbc-4e3b-9225-d827a0b9ff39"},"vehicle_type_id":"4","last_reported":1746475885,"current_range_meters":16800,"station_id":"ce4bhi12rcd13ifvqfp0","pricing_plan_id":"cebpf4jnsgd1na2vs0mg"},{"bike_id":"bfb768d4-db43-4db8-8659-afeb33dd4edd","system_id":"levelo_inurba_marseille","lat":43.30729,"lon":5.42429,"is_reserved":false,"is_disabled":false,"rental_uris":{"android":"levelo://app?vid=bfb768d4-db43-4db8-8659-afeb33dd4edd","ios":"levelo://app?vid=bfb768d4-db43-4db8-8659-afeb33dd4edd"},"vehicle_type_id":"4","last_reported":1746475885,"current_range_meters":16800,"station_id":"st_cvj6ca6bvosntc0bfgr0","pricing_plan_id":"cebpf4jnsgd1na2vs0mg"},{"bike_id":"adf5dfc5-5664-4b0f-8d86-0129f9858272","system_id":"levelo_inurba_marseille","lat":43.307708,"lon":5.376657,"is_reserved":false,"is_disabled":false,"rental_uris":{"android":"levelo://app?vid=adf5dfc5-5664-4b0f-8d86-0129f9858272","ios":"levelo://app?vid=adf5dfc5-5664-4b0f-8d86-0129f9858272"},"vehicle_type_id":"4","last_reported":1746475885,"current_range_meters":16800,"station_id":"ce4bgv92rcd13ifvqcq0","pricing_plan_id":"cebpf4jnsgd1na2vs0mg"},{"bike_id":"e137adc0-a2f8-4dd9-8018-ae34547185e2","system_id":"levelo_inurba_marseille","lat":43.28456,"lon":5.3589,"is_reserved":false,"is_disabled":false,"rental_uris":{"android":"levelo://app?vid=e137adc0-a2f8-4dd9-8018-ae34547185e2","ios":"levelo://app?vid=e137adc0-a2f8-4dd9-8018-ae34547185e2"},"vehicle_type_id":"4","last_reported":1746475885,"current_range_meters":16800,"station_id":"ce4bhah2rcd13ifvqei0","pricing_plan_id":"cebpf4jnsgd1na2vs0mg"},{"bike_id":"62abd1a7-7a0b-4601-b7d9-44b92d8d2d1e","system_id":"levelo_inurba_marseille","lat":43.28104,"lon":5.37831,"is_reserved":false,"is_disabled":false,"rental_uris":{"android":"levelo://app?vid=62abd1a7-7a0b-4601-b7d9-44b92d8d2d1e","ios":"levelo://app?vid=62abd1a7-7a0b-4601-b7d9-44b92d8d2d1e"},"vehicle_type_id":"4","last_reported":1746475885,"current_range_meters":17200,"station_id":"ce4bha12rcd13ifvqee0","pricing_plan_id":"cebpf4jnsgd1na2vs0mg"},{"bike_id":"b5f925dc-e712-4427-b50f-50d149dfbeb2","system_id":"levelo_inurba_marseille","lat":43.29553,"lon":5.42271,"is_reserved":false,"is_disabled":false,"rental_uris":{"android":"levelo://app?vid=b5f925dc-e712-4427-b50f-50d149dfbeb2","ios":"levelo://app?vid=b5f925dc-e712-4427-b50f-50d149dfbeb2"},"vehicle_type_id":"4","last_reported":1746475885,"current_range_meters":17200,"station_id":"ce4bhph2rcd13ifvqhdg","pricing_plan_id":"cebpf4jnsgd1na2vs0mg"},{"bike_id":"44c374f6-0dc9-4621-bda4-b9f2e2b8798d","system_id":"levelo_inurba_marseille","lat":43.28458,"lon":5.35892,"is_reserved":false,"is_disabled":false,"rental_uris":{"android":"levelo://app?vid=44c374f6-0dc9-4621-bda4-b9f2e2b8798d","ios":"levelo://app?vid=44c374f6-0dc9-4621-bda4-b9f2e2b8798d"},"vehicle_type_id":"4","last_reported":1746475885,"current_range_meters":17200,"station_id":"ce4bhah2rcd13ifvqei0","pricing_plan_id":"cebpf4jnsgd1na2vs0mg"},{"bike_id":"68db1e13-3b7e-40af-83a2-a4203eac9c02","system_id":"levelo_inurba_marseille","lat":43.28106,"lon":5.3785,"is_reserved":false,"is_disabled":false,"rental_uris":{"android":"levelo://app?vid=68db1e13-3b7e-40af-83a2-a4203eac9c02","ios":"levelo://app?vid=68db1e13-3b7e-40af-83a2-a4203eac9c02"},"vehicle_type_id":"4","last_reported":1746475885,"current_range_meters":17200,"station_id":"ce4bha12rcd13ifvqee0","pricing_plan_id":"cebpf4jnsgd1na2vs0mg"},{"bike_id":"a07db7df-d212-4a63-ba71-2fc2a43e04a0","system_id":"levelo_inurba_marseille","lat":43.317192,"lon":5.437088,"is_reserved":false,"is_disabled":false,"rental_uris":{"android":"levelo://app?vid=a07db7df-d212-4a63-ba71-2fc2a43e04a0","ios":"levelo://app?vid=a07db7df-d212-4a63-ba71-2fc2a43e04a0"},"vehicle_type_id":"4","last_reported":1746475885,"current_range_meters":17200,"station_id":"ce4bhp92rcd13ifvqhcg","pricing_plan_id":"cebpf4jnsgd1na2vs0mg"},{"bike_id":"e96aed38-4a0d-4978-b6c9-65d6ecdea43d","system_id":"levelo_inurba_marseille","lat":43.293817,"lon":5.378673,"is_reserved":false,"is_disabled":true,"rental_uris":{"android":"levelo://app?vid=e96aed38-4a0d-4978-b6c9-65d6ecdea43d","ios":"levelo://app?vid=e96aed38-4a0d-4978-b6c9-65d6ecdea43d"},"vehicle_type_id":"4","last_reported":1746475885,"current_range_meters":17200,"station_id":"ce4bgjh2rcd13ifvqbf0","pricing_plan_id":"cebpf4jnsgd1na2vs0mg"},{"bike_id":"d80a186c-6cde-48d1-a6c4-cc1ccc278891","system_id":"levelo_inurba_marseille","lat":43.3171,"lon":5.43705,"is_reserved":false,"is_disabled":false,"rental_uris":{"android":"levelo://app?vid=d80a186c-6cde-48d1-a6c4-cc1ccc278891","ios":"levelo://app?vid=d80a186c-6cde-48d1-a6c4-cc1ccc278891"},"vehicle_type_id":"4","last_reported":1746475885,"current_range_meters":17600,"station_id":"ce4bhp92rcd13ifvqhcg","pricing_plan_id":"cebpf4jnsgd1na2vs0mg"},{"bike_id":"9175d517-3c9f-4a9d-9359-bc5552cd94b8","system_id":"levelo_inurba_marseille","lat":43.286281,"lon":5.350895,"is_reserved":false,"is_disabled":false,"rental_uris":{"android":"levelo://app?vid=9175d517-3c9f-4a9d-9359-bc5552cd94b8","ios":"levelo://app?vid=9175d517-3c9f-4a9d-9359-bc5552cd94b8"},"vehicle_type_id":"4","last_reported":1746475885,"current_range_meters":17600,"station_id":"ce4bhch2rcd13ifvqeug","pricing_plan_id":"cebpf4jnsgd1na2vs0mg"},{"bike_id":"42c81975-f2fc-488c-a8d4-80169e8b3e85","system_id":"levelo_inurba_marseille","lat":43.29516,"lon":5.39025,"is_reserved":false,"is_disabled":false,"rental_uris":{"android":"levelo://app?vid=42c81975-f2fc-488c-a8d4-80169e8b3e85","ios":"levelo://app?vid=42c81975-f2fc-488c-a8d4-80169e8b3e85"},"vehicle_type_id":"4","last_reported":1746475885,"current_range_meters":17600,"station_id":"ce4bh3p2rcd13ifvqdp0","pricing_plan_id":"cebpf4jnsgd1na2vs0mg"},{"bike_id":"63a15020-6909-43f9-8614-e2fa8f24fa11","system_id":"levelo_inurba_marseille","lat":43.313603,"lon":5.3851,"is_reserved":false,"is_disabled":false,"rental_uris":{"android":"levelo://app?vid=63a15020-6909-43f9-8614-e2fa8f24fa11","ios":"levelo://app?vid=63a15020-6909-43f9-8614-e2fa8f24fa11"},"vehicle_type_id":"4","last_reported":1746475885,"current_range_meters":17600,"station_id":"ce4bgt92rcd13ifvqcf0","pricing_plan_id":"cebpf4jnsgd1na2vs0mg"},{"bike_id":"0d967454-9bd6-4b78-9267-a1233467cbb1","system_id":"levelo_inurba_marseille","lat":43.30601,"lon":5.37221,"is_reserved":false,"is_disabled":false,"rental_uris":{"android":"levelo://app?vid=0d967454-9bd6-4b78-9267-a1233467cbb1","ios":"levelo://app?vid=0d967454-9bd6-4b78-9267-a1233467cbb1"},"vehicle_type_id":"4","last_reported":1746475885,"current_range_meters":17200,"station_id":"ce4bgqh2rcd13ifvqc4g","pricing_plan_id":"cebpf4jnsgd1na2vs0mg"},{"bike_id":"6a038e05-52bb-4f8e-bf88-dfeeda536871","system_id":"levelo_inurba_marseille","lat":43.29597,"lon":5.38099,"is_reserved":false,"is_disabled":false,"rental_uris":{"android":"levelo://app?vid=6a038e05-52bb-4f8e-bf88-dfeeda536871","ios":"levelo://app?vid=6a038e05-52bb-4f8e-bf88-dfeeda536871"},"vehicle_type_id":"4","last_reported":1746475885,"current_range_meters":18000,"station_id":"ce4bgl12rcd13ifvqbo0","pricing_plan_id":"cebpf4jnsgd1na2vs0mg"},{"bike_id":"e913cf30-eb5e-4abe-8900-12e0ae6d43b8","system_id":"levelo_inurba_marseille","lat":43.28694,"lon":5.37397,"is_reserved":false,"is_disabled":false,"rental_uris":{"android":"levelo://app?vid=e913cf30-eb5e-4abe-8900-12e0ae6d43b8","ios":"levelo://app?vid=e913cf30-eb5e-4abe-8900-12e0ae6d43b8"},"vehicle_type_id":"4","last_reported":1746475885,"current_range_meters":18000,"station_id":"ce4bh3p2rcd13ifvqdq0","pricing_plan_id":"cebpf4jnsgd1na2vs0mg"},{"bike_id":"2f138e90-ff66-476b-b844-8710bf955bb8","system_id":"levelo_inurba_marseille","lat":43.311785,"lon":5.38729,"is_reserved":false,"is_disabled":false,"rental_uris":{"android":"levelo://app?vid=2f138e90-ff66-476b-b844-8710bf955bb8","ios":"levelo://app?vid=2f138e90-ff66-476b-b844-8710bf955bb8"},"vehicle_type_id":"4","last_reported":1746475885,"current_range_meters":18000,"station_id":"ce4bgv12rcd13ifvqcp0","pricing_plan_id":"cebpf4jnsgd1na2vs0mg"},{"bike_id":"e158c9eb-e400-4339-a7f7-f9c7710d3b1c","system_id":"levelo_inurba_marseille","lat":43.25823,"lon":5.3943,"is_reserved":false,"is_disabled":false,"rental_uris":{"android":"levelo://app?vid=e158c9eb-e400-4339-a7f7-f9c7710d3b1c","ios":"levelo://app?vid=e158c9eb-e400-4339-a7f7-f9c7710d3b1c"},"vehicle_type_id":"4","last_reported":1746475885,"current_range_meters":18000,"station_id":"ce4bhip2rcd13ifvqft0","pricing_plan_id":"cebpf4jnsgd1na2vs0mg"},{"bike_id":"89d3f377-5a64-405e-ad75-45e8469ae3f6","system_id":"levelo_inurba_marseille","lat":43.26953,"lon":5.40293,"is_reserved":false,"is_disabled":true,"rental_uris":{"android":"levelo://app?vid=89d3f377-5a64-405e-ad75-45e8469ae3f6","ios":"levelo://app?vid=89d3f377-5a64-405e-ad75-45e8469ae3f6"},"vehicle_type_id":"4","last_reported":1746475885,"current_range_meters":18000,"station_id":"cjm6bp8fraef2m0cb0m0","pricing_plan_id":"cebpf4jnsgd1na2vs0mg"},{"bike_id":"a327ed7c-cb3d-44b1-bb3d-7951cd226f01","system_id":"levelo_inurba_marseille","lat":43.293396,"lon":5.371296,"is_reserved":false,"is_disabled":false,"rental_uris":{"android":"levelo://app?vid=a327ed7c-cb3d-44b1-bb3d-7951cd226f01","ios":"levelo://app?vid=a327ed7c-cb3d-44b1-bb3d-7951cd226f01"},"vehicle_type_id":"4","last_reported":1746475885,"current_range_meters":18000,"station_id":"","pricing_plan_id":"cebpf4jnsgd1na2vs0mg"},{"bike_id":"6ce81efa-e8f3-477a-b7a1-a1c58c727c56","system_id":"levelo_inurba_marseille","lat":43.21191,"lon":5.350758,"is_reserved":false,"is_disabled":false,"rental_uris":{"android":"levelo://app?vid=6ce81efa-e8f3-477a-b7a1-a1c58c727c56","ios":"levelo://app?vid=6ce81efa-e8f3-477a-b7a1-a1c58c727c56"},"vehicle_type_id":"4","last_reported":1746475885,"current_range_meters":18000,"station_id":"","pricing_plan_id":"cebpf4jnsgd1na2vs0mg"},{"bike_id":"74f6968b-bea7-40d3-a0fc-28084d2e7242","system_id":"levelo_inurba_marseille","lat":43.28405,"lon":5.37521,"is_reserved":false,"is_disabled":false,"rental_uris":{"android":"levelo://app?vid=74f6968b-bea7-40d3-a0fc-28084d2e7242","ios":"levelo://app?vid=74f6968b-bea7-40d3-a0fc-28084d2e7242"},"vehicle_type_id":"4","last_reported":1746475885,"current_range_meters":18000,"station_id":"ce4bh412rcd13ifvqds0","pricing_plan_id":"cebpf4jnsgd1na2vs0mg"},{"bike_id":"5bc4ec4e-1872-4ae1-9e0b-c9b290a363d7","system_id":"levelo_inurba_marseille","lat":43.30331,"lon":5.40443,"is_reserved":false,"is_disabled":false,"rental_uris":{"android":"levelo://app?vid=5bc4ec4e-1872-4ae1-9e0b-c9b290a363d7","ios":"levelo://app?vid=5bc4ec4e-1872-4ae1-9e0b-c9b290a363d7"},"vehicle_type_id":"4","last_reported":1746475885,"current_range_meters":18000,"station_id":"ce4bh012rcd13ifvqd10","pricing_plan_id":"cebpf4jnsgd1na2vs0mg"},{"bike_id":"82f4dc22-101f-465e-a26a-59bc1ffb8cd4","system_id":"levelo_inurba_marseille","lat":43.28409,"lon":5.37509,"is_reserved":false,"is_disabled":false,"rental_uris":{"android":"levelo://app?vid=82f4dc22-101f-465e-a26a-59bc1ffb8cd4","ios":"levelo://app?vid=82f4dc22-101f-465e-a26a-59bc1ffb8cd4"},"vehicle_type_id":"4","last_reported":1746475885,"current_range_meters":18800,"station_id":"ce4bh412rcd13ifvqds0","pricing_plan_id":"cebpf4jnsgd1na2vs0mg"},{"bike_id":"24616366-4787-4f02-a31b-2241651566f8","system_id":"levelo_inurba_marseille","lat":43.28729,"lon":5.36094,"is_reserved":false,"is_disabled":false,"rental_uris":{"android":"levelo://app?vid=24616366-4787-4f02-a31b-2241651566f8","ios":"levelo://app?vid=24616366-4787-4f02-a31b-2241651566f8"},"vehicle_type_id":"4","last_reported":1746475885,"current_range_meters":18800,"station_id":"cki0cbj6b192h4jlfktg","pricing_plan_id":"cebpf4jnsgd1na2vs0mg"},{"bike_id":"bddb86f6-f3d5-48a8-af56-966ead4680eb","system_id":"levelo_inurba_marseille","lat":43.30217,"lon":5.39465,"is_reserved":false,"is_disabled":false,"rental_uris":{"android":"levelo://app?vid=bddb86f6-f3d5-48a8-af56-966ead4680eb","ios":"levelo://app?vid=bddb86f6-f3d5-48a8-af56-966ead4680eb"},"vehicle_type_id":"4","last_reported":1746475885,"current_range_meters":18800,"station_id":"ce4bh0p2rcd13ifvqd70","pricing_plan_id":"cebpf4jnsgd1na2vs0mg"},{"bike_id":"03bb5049-51e5-461e-8353-3cc13edfbfb8","system_id":"levelo_inurba_marseille","lat":43.23958,"lon":5.36626,"is_reserved":false,"is_disabled":false,"rental_uris":{"android":"levelo://app?vid=03bb5049-51e5-461e-8353-3cc13edfbfb8","ios":"levelo://app?vid=03bb5049-51e5-461e-8353-3cc13edfbfb8"},"vehicle_type_id":"4","last_reported":1746475885,"current_range_meters":18800,"station_id":"ce4bhi12rcd13ifvqfp0","pricing_plan_id":"cebpf4jnsgd1na2vs0mg"},{"bike_id":"95cb813b-9266-44b9-a68b-7aa79bf3eb36","system_id":"levelo_inurba_marseille","lat":43.32672,"lon":5.40961,"is_reserved":false,"is_disabled":true,"rental_uris":{"android":"levelo://app?vid=95cb813b-9266-44b9-a68b-7aa79bf3eb36","ios":"levelo://app?vid=95cb813b-9266-44b9-a68b-7aa79bf3eb36"},"vehicle_type_id":"4","last_reported":1746475885,"current_range_meters":18800,"station_id":"ce4bhpp2rcd13ifvqhgg","pricing_plan_id":"cebpf4jnsgd1na2vs0mg"},{"bike_id":"24eeb213-7862-4331-ac98-78c221426aae","system_id":"levelo_inurba_marseille","lat":43.23965,"lon":5.36649,"is_reserved":false,"is_disabled":false,"rental_uris":{"android":"levelo://app?vid=24eeb213-7862-4331-ac98-78c221426aae","ios":"levelo://app?vid=24eeb213-7862-4331-ac98-78c221426aae"},"vehicle_type_id":"4","last_reported":1746475885,"current_range_meters":18800,"station_id":"ce4bhi12rcd13ifvqfp0","pricing_plan_id":"cebpf4jnsgd1na2vs0mg"},{"bike_id":"e0a0fb85-9539-4fb6-b21f-392540fb8a26","system_id":"levelo_inurba_marseille","lat":43.32378,"lon":5.36761,"is_reserved":false,"is_disabled":false,"rental_uris":{"android":"levelo://app?vid=e0a0fb85-9539-4fb6-b21f-392540fb8a26","ios":"levelo://app?vid=e0a0fb85-9539-4fb6-b21f-392540fb8a26"},"vehicle_type_id":"4","last_reported":1746475885,"current_range_meters":18800,"station_id":"ce4bhsh2rcd13ifvqi2g","pricing_plan_id":"cebpf4jnsgd1na2vs0mg"},{"bike_id":"45d8f20b-d479-405d-a1a6-63a2cb4cc7d3","system_id":"levelo_inurba_marseille","lat":43.280854,"lon":5.396511,"is_reserved":false,"is_disabled":false,"rental_uris":{"android":"levelo://app?vid=45d8f20b-d479-405d-a1a6-63a2cb4cc7d3","ios":"levelo://app?vid=45d8f20b-d479-405d-a1a6-63a2cb4cc7d3"},"vehicle_type_id":"4","last_reported":1746475885,"current_range_meters":18800,"station_id":"ce4bho12rcd13ifvqh2g","pricing_plan_id":"cebpf4jnsgd1na2vs0mg"},{"bike_id":"ceabe490-1f11-4366-85ad-8996dd4944f3","system_id":"levelo_inurba_marseille","lat":43.29308,"lon":5.37172,"is_reserved":false,"is_disabled":true,"rental_uris":{"android":"levelo://app?vid=ceabe490-1f11-4366-85ad-8996dd4944f3","ios":"levelo://app?vid=ceabe490-1f11-4366-85ad-8996dd4944f3"},"vehicle_type_id":"4","last_reported":1746475885,"current_range_meters":17600,"station_id":"ce4bgh92rcd13ifvqb40","pricing_plan_id":"cebpf4jnsgd1na2vs0mg"},{"bike_id":"cd619244-f840-471a-8b52-6926872d4631","system_id":"levelo_inurba_marseille","lat":43.25118,"lon":5.40313,"is_reserved":false,"is_disabled":false,"rental_uris":{"android":"levelo://app?vid=cd619244-f840-471a-8b52-6926872d4631","ios":"levelo://app?vid=cd619244-f840-471a-8b52-6926872d4631"},"vehicle_type_id":"4","last_reported":1746475885,"current_range_meters":18800,"station_id":"ce4bhlh2rcd13ifvqgig","pricing_plan_id":"cebpf4jnsgd1na2vs0mg"},{"bike_id":"13d72c90-097d-44e3-a161-c92142027aeb","system_id":"levelo_inurba_marseille","lat":43.32105,"lon":5.36765,"is_reserved":false,"is_disabled":false,"rental_uris":{"android":"levelo://app?vid=13d72c90-097d-44e3-a161-c92142027aeb","ios":"levelo://app?vid=13d72c90-097d-44e3-a161-c92142027aeb"},"vehicle_type_id":"4","last_reported":1746475885,"current_range_meters":18800,"station_id":"ce4bhrh2rcd13ifvqhug","pricing_plan_id":"cebpf4jnsgd1na2vs0mg"},{"bike_id":"e1f94d6b-e598-49a1-a527-85b302127dd3","system_id":"levelo_inurba_marseille","lat":43.29194,"lon":5.39313,"is_reserved":false,"is_disabled":false,"rental_uris":{"android":"levelo://app?vid=e1f94d6b-e598-49a1-a527-85b302127dd3","ios":"levelo://app?vid=e1f94d6b-e598-49a1-a527-85b302127dd3"},"vehicle_type_id":"4","last_reported":1746475885,"current_range_meters":19200,"station_id":"ce4bh192rcd13ifvqdd0","pricing_plan_id":"cebpf4jnsgd1na2vs0mg"},{"bike_id":"ad3e95d1-33fd-4c52-8138-33e1a87f9b95","system_id":"levelo_inurba_marseille","lat":43.23211,"lon":5.35559,"is_reserved":false,"is_disabled":false,"rental_uris":{"android":"levelo://app?vid=ad3e95d1-33fd-4c52-8138-33e1a87f9b95","ios":"levelo://app?vid=ad3e95d1-33fd-4c52-8138-33e1a87f9b95"},"vehicle_type_id":"4","last_reported":1746475885,"current_range_meters":19200,"station_id":"ce4bhu92rcd13ifvqi70","pricing_plan_id":"cebpf4jnsgd1na2vs0mg"},{"bike_id":"144c51af-426b-42d7-b56e-922177862b14","system_id":"levelo_inurba_marseille","lat":43.31059,"lon":5.3835,"is_reserved":false,"is_disabled":false,"rental_uris":{"android":"levelo://app?vid=144c51af-426b-42d7-b56e-922177862b14","ios":"levelo://app?vid=144c51af-426b-42d7-b56e-922177862b14"},"vehicle_type_id":"4","last_reported":1746475885,"current_range_meters":19200,"station_id":"ce4bgv92rcd13ifvqcr0","pricing_plan_id":"cebpf4jnsgd1na2vs0mg"},{"bike_id":"5f841359-950e-4be8-ad67-551c7c896f46","system_id":"levelo_inurba_marseille","lat":43.29443,"lon":5.39747,"is_reserved":false,"is_disabled":false,"rental_uris":{"android":"levelo://app?vid=5f841359-950e-4be8-ad67-551c7c896f46","ios":"levelo://app?vid=5f841359-950e-4be8-ad67-551c7c896f46"},"vehicle_type_id":"4","last_reported":1746475885,"current_range_meters":19200,"station_id":"ce4bh3h2rcd13ifvqdo0","pricing_plan_id":"cebpf4jnsgd1na2vs0mg"},{"bike_id":"bdaa1765-0ac5-4bf0-a197-3b9e95802455","system_id":"levelo_inurba_marseille","lat":43.28608,"lon":5.37061,"is_reserved":false,"is_disabled":false,"rental_uris":{"android":"levelo://app?vid=bdaa1765-0ac5-4bf0-a197-3b9e95802455","ios":"levelo://app?vid=bdaa1765-0ac5-4bf0-a197-3b9e95802455"},"vehicle_type_id":"4","last_reported":1746475885,"current_range_meters":19200,"station_id":"ce4bht12rcd13ifvqi60","pricing_plan_id":"cebpf4jnsgd1na2vs0mg"},{"bike_id":"697a1d79-a8ba-489a-9d7d-f8137558db0e","system_id":"levelo_inurba_marseille","lat":43.28526,"lon":5.36014,"is_reserved":false,"is_disabled":false,"rental_uris":{"android":"levelo://app?vid=697a1d79-a8ba-489a-9d7d-f8137558db0e","ios":"levelo://app?vid=697a1d79-a8ba-489a-9d7d-f8137558db0e"},"vehicle_type_id":"4","last_reported":1746475885,"current_range_meters":19600,"station_id":"","pricing_plan_id":"cebpf4jnsgd1na2vs0mg"},{"bike_id":"68cecf43-9a47-4b3c-81fd-b49c1375d27a","system_id":"levelo_inurba_marseille","lat":43.28354,"lon":5.38105,"is_reserved":false,"is_disabled":false,"rental_uris":{"android":"levelo://app?vid=68cecf43-9a47-4b3c-81fd-b49c1375d27a","ios":"levelo://app?vid=68cecf43-9a47-4b3c-81fd-b49c1375d27a"},"vehicle_type_id":"4","last_reported":1746475885,"current_range_meters":19600,"station_id":"ce4bh412rcd13ifvqdr0","pricing_plan_id":"cebpf4jnsgd1na2vs0mg"},{"bike_id":"4bdbfa2a-ffc0-4860-819c-6326869a5a0f","system_id":"levelo_inurba_marseille","lat":43.28725,"lon":5.360875,"is_reserved":false,"is_disabled":false,"rental_uris":{"android":"levelo://app?vid=4bdbfa2a-ffc0-4860-819c-6326869a5a0f","ios":"levelo://app?vid=4bdbfa2a-ffc0-4860-819c-6326869a5a0f"},"vehicle_type_id":"4","last_reported":1746475885,"current_range_meters":19600,"station_id":"cki0cbj6b192h4jlfktg","pricing_plan_id":"cebpf4jnsgd1na2vs0mg"},{"bike_id":"bb57f667-396d-4003-ae12-13bf8f696902","system_id":"levelo_inurba_marseille","lat":43.27932,"lon":5.41037,"is_reserved":false,"is_disabled":false,"rental_uris":{"android":"levelo://app?vid=bb57f667-396d-4003-ae12-13bf8f696902","ios":"levelo://app?vid=bb57f667-396d-4003-ae12-13bf8f696902"},"vehicle_type_id":"4","last_reported":1746475885,"current_range_meters":19600,"station_id":"ce4bhnp2rcd13ifvqh0g","pricing_plan_id":"cebpf4jnsgd1na2vs0mg"},{"bike_id":"e9daf406-a34a-41c8-98f3-1498d46432fc","system_id":"levelo_inurba_marseille","lat":43.297913,"lon":5.403801,"is_reserved":false,"is_disabled":false,"rental_uris":{"android":"levelo://app?vid=e9daf406-a34a-41c8-98f3-1498d46432fc","ios":"levelo://app?vid=e9daf406-a34a-41c8-98f3-1498d46432fc"},"vehicle_type_id":"4","last_reported":1746475885,"current_range_meters":19600,"station_id":"ce4bh112rcd13ifvqd90","pricing_plan_id":"cebpf4jnsgd1na2vs0mg"},{"bike_id":"ea0f2b88-eee9-4cab-835e-c3f755931ddc","system_id":"levelo_inurba_marseille","lat":43.2902,"lon":5.38611,"is_reserved":false,"is_disabled":false,"rental_uris":{"android":"levelo://app?vid=ea0f2b88-eee9-4cab-835e-c3f755931ddc","ios":"levelo://app?vid=ea0f2b88-eee9-4cab-835e-c3f755931ddc"},"vehicle_type_id":"4","last_reported":1746475885,"current_range_meters":19600,"station_id":"ce4bh4p2rcd13ifvqe0g","pricing_plan_id":"cebpf4jnsgd1na2vs0mg"},{"bike_id":"9e8165ce-7187-47bf-96c5-86a087f543d1","system_id":"levelo_inurba_marseille","lat":43.30402,"lon":5.41292,"is_reserved":false,"is_disabled":false,"rental_uris":{"android":"levelo://app?vid=9e8165ce-7187-47bf-96c5-86a087f543d1","ios":"levelo://app?vid=9e8165ce-7187-47bf-96c5-86a087f543d1"},"vehicle_type_id":"4","last_reported":1746475885,"current_range_meters":19600,"station_id":"ce4bhop2rcd13ifvqh8g","pricing_plan_id":"cebpf4jnsgd1na2vs0mg"},{"bike_id":"25ff4de7-598e-4258-b035-b19e39066987","system_id":"levelo_inurba_marseille","lat":43.24669,"lon":5.38162,"is_reserved":false,"is_disabled":false,"rental_uris":{"android":"levelo://app?vid=25ff4de7-598e-4258-b035-b19e39066987","ios":"levelo://app?vid=25ff4de7-598e-4258-b035-b19e39066987"},"vehicle_type_id":"4","last_reported":1746475885,"current_range_meters":19600,"station_id":"ce4bhih2rcd13ifvqfr0","pricing_plan_id":"cebpf4jnsgd1na2vs0mg"},{"bike_id":"ad120d84-4916-432f-9c5a-7dfcb191161d","system_id":"levelo_inurba_marseille","lat":43.2175,"lon":5.346005,"is_reserved":false,"is_disabled":false,"rental_uris":{"android":"levelo://app?vid=ad120d84-4916-432f-9c5a-7dfcb191161d","ios":"levelo://app?vid=ad120d84-4916-432f-9c5a-7dfcb191161d"},"vehicle_type_id":"4","last_reported":1746475885,"current_range_meters":19600,"station_id":"","pricing_plan_id":"cebpf4jnsgd1na2vs0mg"},{"bike_id":"f712a217-ee41-494c-a7f5-750dc7c7ab68","system_id":"levelo_inurba_marseille","lat":43.31509,"lon":5.37833,"is_reserved":false,"is_disabled":false,"rental_uris":{"android":"levelo://app?vid=f712a217-ee41-494c-a7f5-750dc7c7ab68","ios":"levelo://app?vid=f712a217-ee41-494c-a7f5-750dc7c7ab68"},"vehicle_type_id":"4","last_reported":1746475885,"current_range_meters":20000,"station_id":"","pricing_plan_id":"cebpf4jnsgd1na2vs0mg"},{"bike_id":"5a0ad73c-3c5e-43f7-b272-b9a8b9217d4c","system_id":"levelo_inurba_marseille","lat":43.26555,"lon":5.37282,"is_reserved":false,"is_disabled":false,"rental_uris":{"android":"levelo://app?vid=5a0ad73c-3c5e-43f7-b272-b9a8b9217d4c","ios":"levelo://app?vid=5a0ad73c-3c5e-43f7-b272-b9a8b9217d4c"},"vehicle_type_id":"4","last_reported":1746475885,"current_range_meters":20000,"station_id":"ce4bhg12rcd13ifvqf70","pricing_plan_id":"cebpf4jnsgd1na2vs0mg"},{"bike_id":"c65850d4-e20b-47ef-9a62-21e7d886f9dd","system_id":"levelo_inurba_marseille","lat":43.24657,"lon":5.38161,"is_reserved":false,"is_disabled":false,"rental_uris":{"android":"levelo://app?vid=c65850d4-e20b-47ef-9a62-21e7d886f9dd","ios":"levelo://app?vid=c65850d4-e20b-47ef-9a62-21e7d886f9dd"},"vehicle_type_id":"4","last_reported":1746475885,"current_range_meters":20000,"station_id":"ce4bhih2rcd13ifvqfr0","pricing_plan_id":"cebpf4jnsgd1na2vs0mg"},{"bike_id":"c871eee8-0da6-4377-a846-0bf7400cb3c3","system_id":"levelo_inurba_marseille","lat":43.27815,"lon":5.40701,"is_reserved":false,"is_disabled":true,"rental_uris":{"android":"levelo://app?vid=c871eee8-0da6-4377-a846-0bf7400cb3c3","ios":"levelo://app?vid=c871eee8-0da6-4377-a846-0bf7400cb3c3"},"vehicle_type_id":"4","last_reported":1746475885,"current_range_meters":20000,"station_id":"ce4bhnh2rcd13ifvqgtg","pricing_plan_id":"cebpf4jnsgd1na2vs0mg"},{"bike_id":"a51eea62-80fa-4b6a-b2bf-7a993dcf0fcb","system_id":"levelo_inurba_marseille","lat":43.323552,"lon":5.367617,"is_reserved":false,"is_disabled":false,"rental_uris":{"android":"levelo://app?vid=a51eea62-80fa-4b6a-b2bf-7a993dcf0fcb","ios":"levelo://app?vid=a51eea62-80fa-4b6a-b2bf-7a993dcf0fcb"},"vehicle_type_id":"4","last_reported":1746475885,"current_range_meters":20000,"station_id":"ce4bhsh2rcd13ifvqi2g","pricing_plan_id":"cebpf4jnsgd1na2vs0mg"},{"bike_id":"ee7fa686-9525-401c-bfcb-8e632242be94","system_id":"levelo_inurba_marseille","lat":43.28487,"lon":5.38407,"is_reserved":false,"is_disabled":false,"rental_uris":{"android":"levelo://app?vid=ee7fa686-9525-401c-bfcb-8e632242be94","ios":"levelo://app?vid=ee7fa686-9525-401c-bfcb-8e632242be94"},"vehicle_type_id":"4","last_reported":1746475885,"current_range_meters":20400,"station_id":"ce4bh512rcd13ifvqe3g","pricing_plan_id":"cebpf4jnsgd1na2vs0mg"},{"bike_id":"d0e17230-ce14-4bbf-8173-34c1444b9704","system_id":"levelo_inurba_marseille","lat":43.30131,"lon":5.398766,"is_reserved":false,"is_disabled":true,"rental_uris":{"android":"levelo://app?vid=d0e17230-ce14-4bbf-8173-34c1444b9704","ios":"levelo://app?vid=d0e17230-ce14-4bbf-8173-34c1444b9704"},"vehicle_type_id":"4","last_reported":1746475885,"current_range_meters":20400,"station_id":"ce4bh0h2rcd13ifvqd40","pricing_plan_id":"cebpf4jnsgd1na2vs0mg"},{"bike_id":"f2002c55-e7ea-42cb-91ce-9e036da5dc73","system_id":"levelo_inurba_marseille","lat":43.30887,"lon":5.39652,"is_reserved":false,"is_disabled":false,"rental_uris":{"android":"levelo://app?vid=f2002c55-e7ea-42cb-91ce-9e036da5dc73","ios":"levelo://app?vid=f2002c55-e7ea-42cb-91ce-9e036da5dc73"},"vehicle_type_id":"4","last_reported":1746475885,"current_range_meters":20400,"station_id":"ce4bh012rcd13ifvqcv0","pricing_plan_id":"cebpf4jnsgd1na2vs0mg"},{"bike_id":"49a51f13-8d00-4ee8-bfa9-55faacfe9d23","system_id":"levelo_inurba_marseille","lat":43.30918,"lon":5.36868,"is_reserved":false,"is_disabled":false,"rental_uris":{"android":"levelo://app?vid=49a51f13-8d00-4ee8-bfa9-55faacfe9d23","ios":"levelo://app?vid=49a51f13-8d00-4ee8-bfa9-55faacfe9d23"},"vehicle_type_id":"4","last_reported":1746475885,"current_range_meters":20000,"station_id":"ce4bgn92rcd13ifvqbvg","pricing_plan_id":"cebpf4jnsgd1na2vs0mg"},{"bike_id":"636c050a-f765-415a-a1a5-2f7ef85a965c","system_id":"levelo_inurba_marseille","lat":43.29556,"lon":5.42288,"is_reserved":false,"is_disabled":false,"rental_uris":{"android":"levelo://app?vid=636c050a-f765-415a-a1a5-2f7ef85a965c","ios":"levelo://app?vid=636c050a-f765-415a-a1a5-2f7ef85a965c"},"vehicle_type_id":"4","last_reported":1746475885,"current_range_meters":20400,"station_id":"ce4bhph2rcd13ifvqhdg","pricing_plan_id":"cebpf4jnsgd1na2vs0mg"},{"bike_id":"346c126e-d2aa-49a2-8038-1d64a2d19134","system_id":"levelo_inurba_marseille","lat":43.27986,"lon":5.41656,"is_reserved":false,"is_disabled":false,"rental_uris":{"android":"levelo://app?vid=346c126e-d2aa-49a2-8038-1d64a2d19134","ios":"levelo://app?vid=346c126e-d2aa-49a2-8038-1d64a2d19134"},