{"last_updated":1734365535,"ttl":60,"version":"2.2","data":{"bikes":[{"bike_id":"7b35fa4b-d832-4933-a13c-a26046908b4b","system_id":"levelo_inurba_marseille","lat":43.26212,"lon":5.37925,"is_reserved":false,"is_disabled":false,"rental_uris":{"android":"levelo://app?vid=7b35fa4b-d832-4933-a13c-a26046908b4b","ios":"levelo://app?vid=7b35fa4b-d832-4933-a13c-a26046908b4b"},"vehicle_type_id":"4","last_reported":1734365535,"current_range_meters":20000,"station_id":"ce4bhjp2rcd13ifvqg90","pricing_plan_id":"cebpf4jnsgd1na2vs0mg"},{"bike_id":"25a4561f-9b48-480c-8b9f-14a2ad6fadc3","system_id":"levelo_inurba_marseille","lat":43.27069,"lon":5.42279,"is_reserved":false,"is_disabled":false,"rental_uris":{"android":"levelo://app?vid=25a4561f-9b48-480c-8b9f-14a2ad6fadc3","ios":"levelo://app?vid=25a4561f-9b48-480c-8b9f-14a2ad6fadc3"},"vehicle_type_id":"4","last_reported":1734365535,"current_range_meters":36800,"station_id":"ce4bhk92rcd13ifvqgb0","pricing_plan_id":"cebpf4jnsgd1na2vs0mg"},{"bike_id":"8f4446c0-1d6f-4e09-95e8-7736c491b4cf","system_id":"levelo_inurba_marseille","lat":43.26502,"lon":5.39541,"is_reserved":false,"is_disabled":false,"rental_uris":{"android":"levelo://app?vid=8f4446c0-1d6f-4e09-95e8-7736c491b4cf","ios":"levelo://app?vid=8f4446c0-1d6f-4e09-95e8-7736c491b4cf"},"vehicle_type_id":"4","last_reported":1734365535,"current_range_meters":22000,"station_id":"ce4bhi12rcd13ifvqfq0","pricing_plan_id":"cebpf4jnsgd1na2vs0mg"},{"bike_id":"80afd530-d640-4a7b-94a7-e4e4c81c3b16","system_id":"levelo_inurba_marseille","lat":43.257198,"lon":5.411118,"is_reserved":false,"is_disabled":false,"rental_uris":{"android":"levelo://app?vid=80afd530-d640-4a7b-94a7-e4e4c81c3b16","ios":"levelo://app?vid=80afd530-d640-4a7b-94a7-e4e4c81c3b16"},"vehicle_type_id":"4","last_reported":1734365535,"current_range_meters":24400,"station_id":"ce4bhkp2rcd13ifvqgd0","pricing_plan_id":"cebpf4jnsgd1na2vs0mg"},{"bike_id":"f3e01fc8-fbb6-4bfe-8e45-7f035ecbb02b","system_id":"levelo_inurba_marseille","lat":43.30328,"lon":5.40428,"is_reserved":false,"is_disabled":false,"rental_uris":{"android":"levelo://app?vid=f3e01fc8-fbb6-4bfe-8e45-7f035ecbb02b","ios":"levelo://app?vid=f3e01fc8-fbb6-4bfe-8e45-7f035ecbb02b"},"vehicle_type_id":"4","last_reported":1734365535,"current_range_meters":7200,"station_id":"ce4bh012rcd13ifvqd10","pricing_plan_id":"cebpf4jnsgd1na2vs0mg"},{"bike_id":"072cfddd-5cc6-41cb-a5fb-e56d787e666c","system_id":"levelo_inurba_marseille","lat":43.29605,"lon":5.38105,"is_reserved":false,"is_disabled":false,"rental_uris":{"android":"levelo://app?vid=072cfddd-5cc6-41cb-a5fb-e56d787e666c","ios":"levelo://app?vid=072cfddd-5cc6-41cb-a5fb-e56d787e666c"},"vehicle_type_id":"4","last_reported":1734365535,"current_range_meters":15200,"station_id":"ce4bgl12rcd13ifvqbo0","pricing_plan_id":"cebpf4jnsgd1na2vs0mg"},{"bike_id":"c9e8a0da-499d-412e-b265-3f283d574617","system_id":"levelo_inurba_marseille","lat":43.295368,"lon":5.385683,"is_reserved":false,"is_disabled":true,"rental_uris":{"android":"levelo://app?vid=c9e8a0da-499d-412e-b265-3f283d574617","ios":"levelo://app?vid=c9e8a0da-499d-412e-b265-3f283d574617"},"vehicle_type_id":"4","last_reported":1734365535,"current_range_meters":0,"station_id":"ce4bgih2rcd13ifvqba0","pricing_plan_id":"cebpf4jnsgd1na2vs0mg"},{"bike_id":"2d7aa6cd-b987-4e4f-8195-d51eeaa0625f","system_id":"levelo_inurba_marseille","lat":43.29259,"lon":5.38429,"is_reserved":false,"is_disabled":false,"rental_uris":{"android":"levelo://app?vid=2d7aa6cd-b987-4e4f-8195-d51eeaa0625f","ios":"levelo://app?vid=2d7aa6cd-b987-4e4f-8195-d51eeaa0625f"},"vehicle_type_id":"4","last_reported":1734365535,"current_range_meters":21600,"station_id":"ce4bh692rcd13ifvqea0","pricing_plan_id":"cebpf4jnsgd1na2vs0mg"},{"bike_id":"ed8635a9-8a62-4be7-9d4b-a4dbff1f7c6d","system_id":"levelo_inurba_marseille","lat":43.28519,"lon":5.38025,"is_reserved":false,"is_disabled":true,"rental_uris":{"android":"levelo://app?vid=ed8635a9-8a62-4be7-9d4b-a4dbff1f7c6d","ios":"levelo://app?vid=ed8635a9-8a62-4be7-9d4b-a4dbff1f7c6d"},"vehicle_type_id":"4","last_reported":1734365535,"current_range_meters":24400,"station_id":"","pricing_plan_id":"cebpf4jnsgd1na2vs0mg"},{"bike_id":"b1141b56-3e7b-49ed-8c3a-fdb8940f3e60","system_id":"levelo_inurba_marseille","lat":43.30022,"lon":5.37746,"is_reserved":false,"is_disabled":true,"rental_uris":{"android":"levelo://app?vid=b1141b56-3e7b-49ed-8c3a-fdb8940f3e60","ios":"levelo://app?vid=b1141b56-3e7b-49ed-8c3a-fdb8940f3e60"},"vehicle_type_id":"4","last_reported":1734365535,"current_range_meters":10000,"station_id":"","pricing_plan_id":"cebpf4jnsgd1na2vs0mg"},{"bike_id":"21d155f3-ec9c-4036-88d6-08e6b320a41b","system_id":"levelo_inurba_marseille","lat":43.27217,"lon":5.3919,"is_reserved":false,"is_disabled":false,"rental_uris":{"android":"levelo://app?vid=21d155f3-ec9c-4036-88d6-08e6b320a41b","ios":"levelo://app?vid=21d155f3-ec9c-4036-88d6-08e6b320a41b"},"vehicle_type_id":"4","last_reported":1734365535,"current_range_meters":16000,"station_id":"ce4bhhp2rcd13ifvqfm0","pricing_plan_id":"cebpf4jnsgd1na2vs0mg"},{"bike_id":"10086f5f-eb94-421a-8247-01c4a38e23de","system_id":"levelo_inurba_marseille","lat":43.26786,"lon":5.39928,"is_reserved":false,"is_disabled":true,"rental_uris":{"android":"levelo://app?vid=10086f5f-eb94-421a-8247-01c4a38e23de","ios":"levelo://app?vid=10086f5f-eb94-421a-8247-01c4a38e23de"},"vehicle_type_id":"4","last_reported":1734365535,"current_range_meters":0,"station_id":"","pricing_plan_id":"cebpf4jnsgd1na2vs0mg"},{"bike_id":"5a0471c3-d871-4c27-b65e-9e6e90f8779d","system_id":"levelo_inurba_marseille","lat":43.270625,"lon":5.402618,"is_reserved":false,"is_disabled":true,"rental_uris":{"android":"levelo://app?vid=5a0471c3-d871-4c27-b65e-9e6e90f8779d","ios":"levelo://app?vid=5a0471c3-d871-4c27-b65e-9e6e90f8779d"},"vehicle_type_id":"4","last_reported":1734365535,"current_range_meters":0,"station_id":"ce4bhk92rcd13ifvqgc0","pricing_plan_id":"cebpf4jnsgd1na2vs0mg"},{"bike_id":"19b63edb-b49d-48d7-a32f-d786a72a8236","system_id":"levelo_inurba_marseille","lat":43.28499,"lon":5.35075,"is_reserved":false,"is_disabled":false,"rental_uris":{"android":"levelo://app?vid=19b63edb-b49d-48d7-a32f-d786a72a8236","ios":"levelo://app?vid=19b63edb-b49d-48d7-a32f-d786a72a8236"},"vehicle_type_id":"4","last_reported":1734365535,"current_range_meters":33200,"station_id":"","pricing_plan_id":"cebpf4jnsgd1na2vs0mg"},{"bike_id":"c6f86fb1-ccae-4de7-ae88-4a4c635f0f72","system_id":"levelo_inurba_marseille","lat":43.29582,"lon":5.36746,"is_reserved":false,"is_disabled":false,"rental_uris":{"android":"levelo://app?vid=c6f86fb1-ccae-4de7-ae88-4a4c635f0f72","ios":"levelo://app?vid=c6f86fb1-ccae-4de7-ae88-4a4c635f0f72"},"vehicle_type_id":"4","last_reported":1734365535,"current_range_meters":38000,"station_id":"ce4bgph2rcd13ifvqc2g","pricing_plan_id":"cebpf4jnsgd1na2vs0mg"},{"bike_id":"dacb7737-4c2a-4621-84eb-7e3476eac859","system_id":"levelo_inurba_marseille","lat":43.29704,"lon":5.36579,"is_reserved":false,"is_disabled":false,"rental_uris":{"android":"levelo://app?vid=dacb7737-4c2a-4621-84eb-7e3476eac859","ios":"levelo://app?vid=dacb7737-4c2a-4621-84eb-7e3476eac859"},"vehicle_type_id":"4","last_reported":1734365535,"current_range_meters":38400,"station_id":"ce4bgn12rcd13ifvqbt0","pricing_plan_id":"cebpf4jnsgd1na2vs0mg"},{"bike_id":"b2ec34f9-a539-4054-94dd-2940a3d1cf8f","system_id":"levelo_inurba_marseille","lat":43.30536,"lon":5.36545,"is_reserved":false,"is_disabled":true,"rental_uris":{"android":"levelo://app?vid=b2ec34f9-a539-4054-94dd-2940a3d1cf8f","ios":"levelo://app?vid=b2ec34f9-a539-4054-94dd-2940a3d1cf8f"},"vehicle_type_id":"4","last_reported":1734365535,"current_range_meters":1600,"station_id":"ce4bgs12rcd13ifvqcag","pricing_plan_id":"cebpf4jnsgd1na2vs0mg"},{"bike_id":"e1e1912c-b167-4e6c-8c0f-fb998e272675","system_id":"levelo_inurba_marseille","lat":43.30798,"lon":5.37647,"is_reserved":false,"is_disabled":false,"rental_uris":{"android":"levelo://app?vid=e1e1912c-b167-4e6c-8c0f-fb998e272675","ios":"levelo://app?vid=e1e1912c-b167-4e6c-8c0f-fb998e272675"},"vehicle_type_id":"4","last_reported":1734365535,"current_range_meters":27200,"station_id":"ce4bgv92rcd13ifvqcq0","pricing_plan_id":"cebpf4jnsgd1na2vs0mg"},{"bike_id":"371f53d4-97c1-4517-98db-12fda4440840","system_id":"levelo_inurba_marseille","lat":43.29245,"lon":5.4091,"is_reserved":false,"is_disabled":true,"rental_uris":{"android":"levelo://app?vid=371f53d4-97c1-4517-98db-12fda4440840","ios":"levelo://app?vid=371f53d4-97c1-4517-98db-12fda4440840"},"vehicle_type_id":"4","last_reported":1734365535,"current_range_meters":0,"station_id":"ce4bh192rcd13ifvqdc0","pricing_plan_id":"cebpf4jnsgd1na2vs0mg"},{"bike_id":"96de67e6-ba6f-4b49-a94c-d0e81f1e0e7a","system_id":"levelo_inurba_marseille","lat":43.30542,"lon":5.36532,"is_reserved":false,"is_disabled":false,"rental_uris":{"android":"levelo://app?vid=96de67e6-ba6f-4b49-a94c-d0e81f1e0e7a","ios":"levelo://app?vid=96de67e6-ba6f-4b49-a94c-d0e81f1e0e7a"},"vehicle_type_id":"4","last_reported":1734365535,"current_range_meters":35200,"station_id":"ce4bgs12rcd13ifvqcag","pricing_plan_id":"cebpf4jnsgd1na2vs0mg"},{"bike_id":"51eae91d-6ee5-407e-a8d2-d9fcdda0dd7f","system_id":"levelo_inurba_marseille","lat":43.29623,"lon":5.37164,"is_reserved":false,"is_disabled":false,"rental_uris":{"android":"levelo://app?vid=51eae91d-6ee5-407e-a8d2-d9fcdda0dd7f","ios":"levelo://app?vid=51eae91d-6ee5-407e-a8d2-d9fcdda0dd7f"},"vehicle_type_id":"4","last_reported":1734365535,"current_range_meters":38800,"station_id":"ce4bgnh2rcd13ifvqc0g","pricing_plan_id":"cebpf4jnsgd1na2vs0mg"},{"bike_id":"61ee5dfa-772d-4ffa-96e7-55657db5cb6b","system_id":"levelo_inurba_marseille","lat":43.28571,"lon":5.39497,"is_reserved":false,"is_disabled":false,"rental_uris":{"android":"levelo://app?vid=61ee5dfa-772d-4ffa-96e7-55657db5cb6b","ios":"levelo://app?vid=61ee5dfa-772d-4ffa-96e7-55657db5cb6b"},"vehicle_type_id":"4","last_reported":1734365535,"current_range_meters":8000,"station_id":"ce4bh292rcd13ifvqdg0","pricing_plan_id":"cebpf4jnsgd1na2vs0mg"},{"bike_id":"4d69ec8c-f95e-471b-a9bf-1d843e48682d","system_id":"levelo_inurba_marseille","lat":43.27829,"lon":5.39204,"is_reserved":false,"is_disabled":false,"rental_uris":{"android":"levelo://app?vid=4d69ec8c-f95e-471b-a9bf-1d843e48682d","ios":"levelo://app?vid=4d69ec8c-f95e-471b-a9bf-1d843e48682d"},"vehicle_type_id":"4","last_reported":1734365535,"current_range_meters":16800,"station_id":"ce4bhjp2rcd13ifvqga0","pricing_plan_id":"cebpf4jnsgd1na2vs0mg"},{"bike_id":"7b3a3fbc-253c-4a90-9248-53ba9d24e6f2","system_id":"levelo_inurba_marseille","lat":43.3132,"lon":5.36941,"is_reserved":false,"is_disabled":false,"rental_uris":{"android":"levelo://app?vid=7b3a3fbc-253c-4a90-9248-53ba9d24e6f2","ios":"levelo://app?vid=7b3a3fbc-253c-4a90-9248-53ba9d24e6f2"},"vehicle_type_id":"4","last_reported":1734365535,"current_range_meters":36800,"station_id":"","pricing_plan_id":"cebpf4jnsgd1na2vs0mg"},{"bike_id":"a716bf4a-483b-4082-8d5e-a159c3e6bcca","system_id":"levelo_inurba_marseille","lat":43.29963,"lon":5.41327,"is_reserved":false,"is_disabled":true,"rental_uris":{"android":"levelo://app?vid=a716bf4a-483b-4082-8d5e-a159c3e6bcca","ios":"levelo://app?vid=a716bf4a-483b-4082-8d5e-a159c3e6bcca"},"vehicle_type_id":"4","last_reported":1734365535,"current_range_meters":34000,"station_id":"ce4bhp12rcd13ifvqh9g","pricing_plan_id":"cebpf4jnsgd1na2vs0mg"},{"bike_id":"a4be901a-c286-4046-92e7-25ad4a40a528","system_id":"levelo_inurba_marseille","lat":43.27332,"lon":5.39113,"is_reserved":false,"is_disabled":false,"rental_uris":{"android":"levelo://app?vid=a4be901a-c286-4046-92e7-25ad4a40a528","ios":"levelo://app?vid=a4be901a-c286-4046-92e7-25ad4a40a528"},"vehicle_type_id":"4","last_reported":1734365535,"current_range_meters":38800,"station_id":"ce4bhgp2rcd13ifvqfe0","pricing_plan_id":"cebpf4jnsgd1na2vs0mg"},{"bike_id":"75979f35-52fb-4ff9-aef4-c293842957ed","system_id":"levelo_inurba_marseille","lat":43.32557,"lon":5.41441,"is_reserved":false,"is_disabled":true,"rental_uris":{"android":"levelo://app?vid=75979f35-52fb-4ff9-aef4-c293842957ed","ios":"levelo://app?vid=75979f35-52fb-4ff9-aef4-c293842957ed"},"vehicle_type_id":"4","last_reported":1734365535,"current_range_meters":36800,"station_id":"ce4bhq12rcd13ifvqhhg","pricing_plan_id":"cebpf4jnsgd1na2vs0mg"},{"bike_id":"59d04a27-89e9-48e6-b924-f373e2f8bb99","system_id":"levelo_inurba_marseille","lat":43.23069,"lon":5.35488,"is_reserved":false,"is_disabled":false,"rental_uris":{"android":"levelo://app?vid=59d04a27-89e9-48e6-b924-f373e2f8bb99","ios":"levelo://app?vid=59d04a27-89e9-48e6-b924-f373e2f8bb99"},"vehicle_type_id":"4","last_reported":1734365535,"current_range_meters":27200,"station_id":"cpo3342slgdg3j2ifvpg","pricing_plan_id":"cebpf4jnsgd1na2vs0mg"},{"bike_id":"01dd261f-922b-4db8-a73b-009ae8f8ee61","system_id":"levelo_inurba_marseille","lat":43.30815,"lon":5.38002,"is_reserved":false,"is_disabled":false,"rental_uris":{"android":"levelo://app?vid=01dd261f-922b-4db8-a73b-009ae8f8ee61","ios":"levelo://app?vid=01dd261f-922b-4db8-a73b-009ae8f8ee61"},"vehicle_type_id":"4","last_reported":1734365535,"current_range_meters":12000,"station_id":"","pricing_plan_id":"cebpf4jnsgd1na2vs0mg"},{"bike_id":"ba98bdce-aee7-48db-921f-e5b23de6229a","system_id":"levelo_inurba_marseille","lat":43.33785,"lon":5.42104,"is_reserved":false,"is_disabled":true,"rental_uris":{"android":"levelo://app?vid=ba98bdce-aee7-48db-921f-e5b23de6229a","ios":"levelo://app?vid=ba98bdce-aee7-48db-921f-e5b23de6229a"},"vehicle_type_id":"4","last_reported":1734365535,"current_range_meters":400,"station_id":"","pricing_plan_id":"cebpf4jnsgd1na2vs0mg"},{"bike_id":"dc3d71bb-e7fb-44be-9744-c5c2e707f55c","system_id":"levelo_inurba_marseille","lat":43.27934,"lon":5.39594,"is_reserved":false,"is_disabled":false,"rental_uris":{"android":"levelo://app?vid=dc3d71bb-e7fb-44be-9744-c5c2e707f55c","ios":"levelo://app?vid=dc3d71bb-e7fb-44be-9744-c5c2e707f55c"},"vehicle_type_id":"4","last_reported":1734365535,"current_range_meters":22000,"station_id":"ce4bhf92rcd13ifvqf40","pricing_plan_id":"cebpf4jnsgd1na2vs0mg"},{"bike_id":"707c1665-3b76-479d-8b21-2f00873eb1b4","system_id":"levelo_inurba_marseille","lat":43.27667,"lon":5.38892,"is_reserved":false,"is_disabled":false,"rental_uris":{"android":"levelo://app?vid=707c1665-3b76-479d-8b21-2f00873eb1b4","ios":"levelo://app?vid=707c1665-3b76-479d-8b21-2f00873eb1b4"},"vehicle_type_id":"4","last_reported":1734365535,"current_range_meters":36000,"station_id":"ce4bhi12rcd13ifvqfo0","pricing_plan_id":"cebpf4jnsgd1na2vs0mg"},{"bike_id":"c3e06171-606e-48df-8fdf-8daebe9ad97f","system_id":"levelo_inurba_marseille","lat":43.23187,"lon":5.39987,"is_reserved":false,"is_disabled":false,"rental_uris":{"android":"levelo://app?vid=c3e06171-606e-48df-8fdf-8daebe9ad97f","ios":"levelo://app?vid=c3e06171-606e-48df-8fdf-8daebe9ad97f"},"vehicle_type_id":"4","last_reported":1734365535,"current_range_meters":32400,"station_id":"ce4bhn12rcd13ifvqgqg","pricing_plan_id":"cebpf4jnsgd1na2vs0mg"},{"bike_id":"98de24e9-67b4-441e-84ba-73e6a9f21beb","system_id":"levelo_inurba_marseille","lat":43.33728,"lon":5.39186,"is_reserved":false,"is_disabled":false,"rental_uris":{"android":"levelo://app?vid=98de24e9-67b4-441e-84ba-73e6a9f21beb","ios":"levelo://app?vid=98de24e9-67b4-441e-84ba-73e6a9f21beb"},"vehicle_type_id":"4","last_reported":1734365535,"current_range_meters":38800,"station_id":"ce4bhr92rcd13ifvqhsg","pricing_plan_id":"cebpf4jnsgd1na2vs0mg"},{"bike_id":"31f72d62-ba68-4913-ad69-9aebe7e0b768","system_id":"levelo_inurba_marseille","lat":43.25491,"lon":5.3765,"is_reserved":false,"is_disabled":false,"rental_uris":{"android":"levelo://app?vid=31f72d62-ba68-4913-ad69-9aebe7e0b768","ios":"levelo://app?vid=31f72d62-ba68-4913-ad69-9aebe7e0b768"},"vehicle_type_id":"4","last_reported":1734365535,"current_range_meters":36400,"station_id":"ce4bhh12rcd13ifvqff0","pricing_plan_id":"cebpf4jnsgd1na2vs0mg"},{"bike_id":"f90a56d8-6b58-4667-b1e0-9be9da1c9d3e","system_id":"levelo_inurba_marseille","lat":43.2895,"lon":5.37912,"is_reserved":false,"is_disabled":true,"rental_uris":{"android":"levelo://app?vid=f90a56d8-6b58-4667-b1e0-9be9da1c9d3e","ios":"levelo://app?vid=f90a56d8-6b58-4667-b1e0-9be9da1c9d3e"},"vehicle_type_id":"4","last_reported":1734365535,"current_range_meters":31200,"station_id":"","pricing_plan_id":"cebpf4jnsgd1na2vs0mg"},{"bike_id":"5cfe0866-a6de-4846-8e30-be3ec7edb873","system_id":"levelo_inurba_marseille","lat":43.29897,"lon":5.43659,"is_reserved":false,"is_disabled":false,"rental_uris":{"android":"levelo://app?vid=5cfe0866-a6de-4846-8e30-be3ec7edb873","ios":"levelo://app?vid=5cfe0866-a6de-4846-8e30-be3ec7edb873"},"vehicle_type_id":"4","last_reported":1734365535,"current_range_meters":38800,"station_id":"ce4bhpp2rcd13ifvqhfg","pricing_plan_id":"cebpf4jnsgd1na2vs0mg"},{"bike_id":"06feda71-3b9d-45d8-8432-7419632577d2","system_id":"levelo_inurba_marseille","lat":43.30546,"lon":5.36529,"is_reserved":false,"is_disabled":false,"rental_uris":{"android":"levelo://app?vid=06feda71-3b9d-45d8-8432-7419632577d2","ios":"levelo://app?vid=06feda71-3b9d-45d8-8432-7419632577d2"},"vehicle_type_id":"4","last_reported":1734365535,"current_range_meters":24000,"station_id":"ce4bgs12rcd13ifvqcag","pricing_plan_id":"cebpf4jnsgd1na2vs0mg"},{"bike_id":"65d14d3b-c6ca-4163-9738-5caf15e39af3","system_id":"levelo_inurba_marseille","lat":43.30137,"lon":5.38775,"is_reserved":false,"is_disabled":false,"rental_uris":{"android":"levelo://app?vid=65d14d3b-c6ca-4163-9738-5caf15e39af3","ios":"levelo://app?vid=65d14d3b-c6ca-4163-9738-5caf15e39af3"},"vehicle_type_id":"4","last_reported":1734365535,"current_range_meters":38000,"station_id":"ce4bghh2rcd13ifvqb60","pricing_plan_id":"cebpf4jnsgd1na2vs0mg"},{"bike_id":"e90a5c4c-74bf-492a-8732-ece9e8212ad7","system_id":"levelo_inurba_marseille","lat":43.30596,"lon":5.37208,"is_reserved":false,"is_disabled":false,"rental_uris":{"android":"levelo://app?vid=e90a5c4c-74bf-492a-8732-ece9e8212ad7","ios":"levelo://app?vid=e90a5c4c-74bf-492a-8732-ece9e8212ad7"},"vehicle_type_id":"4","last_reported":1734365535,"current_range_meters":38800,"station_id":"ce4bgqh2rcd13ifvqc4g","pricing_plan_id":"cebpf4jnsgd1na2vs0mg"},{"bike_id":"0854f93a-27ef-4312-bd8f-be30bba0059f","system_id":"levelo_inurba_marseille","lat":43.286164,"lon":5.351056,"is_reserved":false,"is_disabled":true,"rental_uris":{"android":"levelo://app?vid=0854f93a-27ef-4312-bd8f-be30bba0059f","ios":"levelo://app?vid=0854f93a-27ef-4312-bd8f-be30bba0059f"},"vehicle_type_id":"4","last_reported":1734365535,"current_range_meters":27600,"station_id":"","pricing_plan_id":"cebpf4jnsgd1na2vs0mg"},{"bike_id":"8112ccca-6727-44eb-b17a-9f61328d865e","system_id":"levelo_inurba_marseille","lat":43.31112,"lon":5.37761,"is_reserved":false,"is_disabled":false,"rental_uris":{"android":"levelo://app?vid=8112ccca-6727-44eb-b17a-9f61328d865e","ios":"levelo://app?vid=8112ccca-6727-44eb-b17a-9f61328d865e"},"vehicle_type_id":"4","last_reported":1734365535,"current_range_meters":14400,"station_id":"ce4bgt92rcd13ifvqcg0","pricing_plan_id":"cebpf4jnsgd1na2vs0mg"},{"bike_id":"40081067-574b-463f-9cc9-6f4f26d71c7f","system_id":"levelo_inurba_marseille","lat":43.27915,"lon":5.3799,"is_reserved":false,"is_disabled":false,"rental_uris":{"android":"levelo://app?vid=40081067-574b-463f-9cc9-6f4f26d71c7f","ios":"levelo://app?vid=40081067-574b-463f-9cc9-6f4f26d71c7f"},"vehicle_type_id":"4","last_reported":1734365535,"current_range_meters":32400,"station_id":"ce4bhf92rcd13ifvqf50","pricing_plan_id":"cebpf4jnsgd1na2vs0mg"},{"bike_id":"c0a0c9e6-d71d-42e0-9b1f-2849721da8f4","system_id":"levelo_inurba_marseille","lat":43.27173,"lon":5.40992,"is_reserved":false,"is_disabled":false,"rental_uris":{"android":"levelo://app?vid=c0a0c9e6-d71d-42e0-9b1f-2849721da8f4","ios":"levelo://app?vid=c0a0c9e6-d71d-42e0-9b1f-2849721da8f4"},"vehicle_type_id":"4","last_reported":1734365535,"current_range_meters":38000,"station_id":"ce4bhl12rcd13ifvqgf0","pricing_plan_id":"cebpf4jnsgd1na2vs0mg"},{"bike_id":"4c87c601-46e3-4cb7-bf0b-dba02226b8eb","system_id":"levelo_inurba_marseille","lat":43.30548,"lon":5.36702,"is_reserved":false,"is_disabled":false,"rental_uris":{"android":"levelo://app?vid=4c87c601-46e3-4cb7-bf0b-dba02226b8eb","ios":"levelo://app?vid=4c87c601-46e3-4cb7-bf0b-dba02226b8eb"},"vehicle_type_id":"4","last_reported":1734365535,"current_range_meters":39200,"station_id":"ce4bgrp2rcd13ifvqc9g","pricing_plan_id":"cebpf4jnsgd1na2vs0mg"},{"bike_id":"875d6eb1-5c9d-4cf1-ab0c-07b39b12252c","system_id":"levelo_inurba_marseille","lat":43.23218,"lon":5.35554,"is_reserved":false,"is_disabled":false,"rental_uris":{"android":"levelo://app?vid=875d6eb1-5c9d-4cf1-ab0c-07b39b12252c","ios":"levelo://app?vid=875d6eb1-5c9d-4cf1-ab0c-07b39b12252c"},"vehicle_type_id":"4","last_reported":1734365535,"current_range_meters":26000,"station_id":"ce4bhu92rcd13ifvqi70","pricing_plan_id":"cebpf4jnsgd1na2vs0mg"},{"bike_id":"459e6972-8e3d-4b8b-8dac-aba6ff1ec863","system_id":"levelo_inurba_marseille","lat":43.282812,"lon":5.350748,"is_reserved":false,"is_disabled":false,"rental_uris":{"android":"levelo://app?vid=459e6972-8e3d-4b8b-8dac-aba6ff1ec863","ios":"levelo://app?vid=459e6972-8e3d-4b8b-8dac-aba6ff1ec863"},"vehicle_type_id":"4","last_reported":1734365535,"current_range_meters":39200,"station_id":"ce4bhbp2rcd13ifvqerg","pricing_plan_id":"cebpf4jnsgd1na2vs0mg"},{"bike_id":"fefac2e8-e9af-4fc5-a08f-bf8ddb273d39","system_id":"levelo_inurba_marseille","lat":43.2842,"lon":5.37525,"is_reserved":false,"is_disabled":false,"rental_uris":{"android":"levelo://app?vid=fefac2e8-e9af-4fc5-a08f-bf8ddb273d39","ios":"levelo://app?vid=fefac2e8-e9af-4fc5-a08f-bf8ddb273d39"},"vehicle_type_id":"4","last_reported":1734365535,"current_range_meters":26800,"station_id":"ce4bh412rcd13ifvqds0","pricing_plan_id":"cebpf4jnsgd1na2vs0mg"},{"bike_id":"3fb6596b-b720-4e37-88d1-377c7a736425","system_id":"levelo_inurba_marseille","lat":43.23196,"lon":5.35557,"is_reserved":false,"is_disabled":false,"rental_uris":{"android":"levelo://app?vid=3fb6596b-b720-4e37-88d1-377c7a736425","ios":"levelo://app?vid=3fb6596b-b720-4e37-88d1-377c7a736425"},"vehicle_type_id":"4","last_reported":1734365535,"current_range_meters":30800,"station_id":"ce4bhu92rcd13ifvqi70","pricing_plan_id":"cebpf4jnsgd1na2vs0mg"},{"bike_id":"8914bb17-7251-4066-b905-d58eaff8838d","system_id":"levelo_inurba_marseille","lat":43.27181,"lon":5.40999,"is_reserved":false,"is_disabled":false,"rental_uris":{"android":"levelo://app?vid=8914bb17-7251-4066-b905-d58eaff8838d","ios":"levelo://app?vid=8914bb17-7251-4066-b905-d58eaff8838d"},"vehicle_type_id":"4","last_reported":1734365535,"current_range_meters":29600,"station_id":"ce4bhl12rcd13ifvqgf0","pricing_plan_id":"cebpf4jnsgd1na2vs0mg"},{"bike_id":"8ee62417-ba9c-4b61-84a5-5bd7e2cbee2e","system_id":"levelo_inurba_marseille","lat":43.337444,"lon":5.374475,"is_reserved":false,"is_disabled":true,"rental_uris":{"android":"levelo://app?vid=8ee62417-ba9c-4b61-84a5-5bd7e2cbee2e","ios":"levelo://app?vid=8ee62417-ba9c-4b61-84a5-5bd7e2cbee2e"},"vehicle_type_id":"4","last_reported":1734365535,"current_range_meters":0,"station_id":"","pricing_plan_id":"cebpf4jnsgd1na2vs0mg"},{"bike_id":"de4d151c-6004-46ad-8ac8-659e9a3ea1ce","system_id":"levelo_inurba_marseille","lat":43.25725,"lon":5.41109,"is_reserved":false,"is_disabled":false,"rental_uris":{"android":"levelo://app?vid=de4d151c-6004-46ad-8ac8-659e9a3ea1ce","ios":"levelo://app?vid=de4d151c-6004-46ad-8ac8-659e9a3ea1ce"},"vehicle_type_id":"4","last_reported":1734365535,"current_range_meters":18800,"station_id":"ce4bhkp2rcd13ifvqgd0","pricing_plan_id":"cebpf4jnsgd1na2vs0mg"},{"bike_id":"d2294c64-af77-450b-b299-fc06315dbf1a","system_id":"levelo_inurba_marseille","lat":43.29308,"lon":5.37179,"is_reserved":false,"is_disabled":true,"rental_uris":{"android":"levelo://app?vid=d2294c64-af77-450b-b299-fc06315dbf1a","ios":"levelo://app?vid=d2294c64-af77-450b-b299-fc06315dbf1a"},"vehicle_type_id":"4","last_reported":1734365535,"current_range_meters":22400,"station_id":"ce4bgh92rcd13ifvqb40","pricing_plan_id":"cebpf4jnsgd1na2vs0mg"},{"bike_id":"37bd8913-ec74-4485-9e13-8fbf5113ad98","system_id":"levelo_inurba_marseille","lat":43.29625,"lon":5.37153,"is_reserved":false,"is_disabled":false,"rental_uris":{"android":"levelo://app?vid=37bd8913-ec74-4485-9e13-8fbf5113ad98","ios":"levelo://app?vid=37bd8913-ec74-4485-9e13-8fbf5113ad98"},"vehicle_type_id":"4","last_reported":1734365535,"current_range_meters":38800,"station_id":"ce4bgnh2rcd13ifvqc0g","pricing_plan_id":"cebpf4jnsgd1na2vs0mg"},{"bike_id":"056177a6-f3a6-40fa-80e0-574bf5840c95","system_id":"levelo_inurba_marseille","lat":43.283707,"lon":5.386463,"is_reserved":false,"is_disabled":true,"rental_uris":{"android":"levelo://app?vid=056177a6-f3a6-40fa-80e0-574bf5840c95","ios":"levelo://app?vid=056177a6-f3a6-40fa-80e0-574bf5840c95"},"vehicle_type_id":"4","last_reported":1734365535,"current_range_meters":29600,"station_id":"ce4bh492rcd13ifvqdvg","pricing_plan_id":"cebpf4jnsgd1na2vs0mg"},{"bike_id":"2a03e7a9-e623-43fe-99c0-8c16e6af2b40","system_id":"levelo_inurba_marseille","lat":43.26991,"lon":5.39859,"is_reserved":false,"is_disabled":false,"rental_uris":{"android":"levelo://app?vid=2a03e7a9-e623-43fe-99c0-8c16e6af2b40","ios":"levelo://app?vid=2a03e7a9-e623-43fe-99c0-8c16e6af2b40"},"vehicle_type_id":"4","last_reported":1734365535,"current_range_meters":16400,"station_id":"","pricing_plan_id":"cebpf4jnsgd1na2vs0mg"},{"bike_id":"69c046ee-9f41-4aee-b304-96727c1acaf7","system_id":"levelo_inurba_marseille","lat":43.30311,"lon":5.36897,"is_reserved":false,"is_disabled":false,"rental_uris":{"android":"levelo://app?vid=69c046ee-9f41-4aee-b304-96727c1acaf7","ios":"levelo://app?vid=69c046ee-9f41-4aee-b304-96727c1acaf7"},"vehicle_type_id":"4","last_reported":1734365535,"current_range_meters":38800,"station_id":"ce4bgqh2rcd13ifvqc5g","pricing_plan_id":"cebpf4jnsgd1na2vs0mg"},{"bike_id":"7793f37b-a40e-4c45-a85e-dda9ac829718","system_id":"levelo_inurba_marseille","lat":43.28464,"lon":5.35886,"is_reserved":false,"is_disabled":false,"rental_uris":{"android":"levelo://app?vid=7793f37b-a40e-4c45-a85e-dda9ac829718","ios":"levelo://app?vid=7793f37b-a40e-4c45-a85e-dda9ac829718"},"vehicle_type_id":"4","last_reported":1734365535,"current_range_meters":16000,"station_id":"ce4bhah2rcd13ifvqei0","pricing_plan_id":"cebpf4jnsgd1na2vs0mg"},{"bike_id":"9a5e4ab1-27ed-4305-badd-6bfc4b22e168","system_id":"levelo_inurba_marseille","lat":43.250026,"lon":5.389315,"is_reserved":false,"is_disabled":false,"rental_uris":{"android":"levelo://app?vid=9a5e4ab1-27ed-4305-badd-6bfc4b22e168","ios":"levelo://app?vid=9a5e4ab1-27ed-4305-badd-6bfc4b22e168"},"vehicle_type_id":"4","last_reported":1734365535,"current_range_meters":36800,"station_id":"ce4bhgp2rcd13ifvqfd0","pricing_plan_id":"cebpf4jnsgd1na2vs0mg"},{"bike_id":"0e2e421d-cab6-4bab-ab43-0de2daec6dd5","system_id":"levelo_inurba_marseille","lat":43.278805,"lon":5.388003,"is_reserved":false,"is_disabled":true,"rental_uris":{"android":"levelo://app?vid=0e2e421d-cab6-4bab-ab43-0de2daec6dd5","ios":"levelo://app?vid=0e2e421d-cab6-4bab-ab43-0de2daec6dd5"},"vehicle_type_id":"4","last_reported":1734365535,"current_range_meters":0,"station_id":"","pricing_plan_id":"cebpf4jnsgd1na2vs0mg"},{"bike_id":"2531d4af-f030-4132-8ede-79ba696646a7","system_id":"levelo_inurba_marseille","lat":43.30885,"lon":5.37177,"is_reserved":false,"is_disabled":false,"rental_uris":{"android":"levelo://app?vid=2531d4af-f030-4132-8ede-79ba696646a7","ios":"levelo://app?vid=2531d4af-f030-4132-8ede-79ba696646a7"},"vehicle_type_id":"4","last_reported":1734365535,"current_range_meters":35200,"station_id":"ce4bguh2rcd13ifvqckg","pricing_plan_id":"cebpf4jnsgd1na2vs0mg"},{"bike_id":"60f692b6-8226-499b-9750-6d52ff8860c2","system_id":"levelo_inurba_marseille","lat":43.24671,"lon":5.38163,"is_reserved":false,"is_disabled":false,"rental_uris":{"android":"levelo://app?vid=60f692b6-8226-499b-9750-6d52ff8860c2","ios":"levelo://app?vid=60f692b6-8226-499b-9750-6d52ff8860c2"},"vehicle_type_id":"4","last_reported":1734365535,"current_range_meters":36400,"station_id":"ce4bhih2rcd13ifvqfr0","pricing_plan_id":"cebpf4jnsgd1na2vs0mg"},{"bike_id":"25c0c336-834d-421d-b66d-e51c42a0ba97","system_id":"levelo_inurba_marseille","lat":43.30725,"lon":5.3682,"is_reserved":false,"is_disabled":false,"rental_uris":{"android":"levelo://app?vid=25c0c336-834d-421d-b66d-e51c42a0ba97","ios":"levelo://app?vid=25c0c336-834d-421d-b66d-e51c42a0ba97"},"vehicle_type_id":"4","last_reported":1734365535,"current_range_meters":22800,"station_id":"","pricing_plan_id":"cebpf4jnsgd1na2vs0mg"},{"bike_id":"5c3c1393-6013-4339-9dfc-90dce462af03","system_id":"levelo_inurba_marseille","lat":43.25867,"lon":5.39906,"is_reserved":false,"is_disabled":false,"rental_uris":{"android":"levelo://app?vid=5c3c1393-6013-4339-9dfc-90dce462af03","ios":"levelo://app?vid=5c3c1393-6013-4339-9dfc-90dce462af03"},"vehicle_type_id":"4","last_reported":1734365535,"current_range_meters":39200,"station_id":"ce4bhl92rcd13ifvqghg","pricing_plan_id":"cebpf4jnsgd1na2vs0mg"},{"bike_id":"2d05377a-4c0b-4490-8e49-d1c0b4129e93","system_id":"levelo_inurba_marseille","lat":43.246491,"lon":5.389097,"is_reserved":false,"is_disabled":false,"rental_uris":{"android":"levelo://app?vid=2d05377a-4c0b-4490-8e49-d1c0b4129e93","ios":"levelo://app?vid=2d05377a-4c0b-4490-8e49-d1c0b4129e93"},"vehicle_type_id":"4","last_reported":1734365535,"current_range_meters":32400,"station_id":"ce4bhg12rcd13ifvqf60","pricing_plan_id":"cebpf4jnsgd1na2vs0mg"},{"bike_id":"5ce2e0da-569f-4880-baec-26c3582bd0fa","system_id":"levelo_inurba_marseille","lat":43.27914,"lon":5.39585,"is_reserved":false,"is_disabled":false,"rental_uris":{"android":"levelo://app?vid=5ce2e0da-569f-4880-baec-26c3582bd0fa","ios":"levelo://app?vid=5ce2e0da-569f-4880-baec-26c3582bd0fa"},"vehicle_type_id":"4","last_reported":1734365535,"current_range_meters":8400,"station_id":"ce4bhf92rcd13ifvqf40","pricing_plan_id":"cebpf4jnsgd1na2vs0mg"},{"bike_id":"e905f83d-78b8-4239-bbd8-848b1bfcb069","system_id":"levelo_inurba_marseille","lat":43.2781,"lon":5.40706,"is_reserved":false,"is_disabled":false,"rental_uris":{"android":"levelo://app?vid=e905f83d-78b8-4239-bbd8-848b1bfcb069","ios":"levelo://app?vid=e905f83d-78b8-4239-bbd8-848b1bfcb069"},"vehicle_type_id":"4","last_reported":1734365535,"current_range_meters":22800,"station_id":"ce4bhnh2rcd13ifvqgtg","pricing_plan_id":"cebpf4jnsgd1na2vs0mg"},{"bike_id":"584b569e-7298-4afe-b48b-612c38273697","system_id":"levelo_inurba_marseille","lat":43.310753,"lon":5.383493,"is_reserved":false,"is_disabled":true,"rental_uris":{"android":"levelo://app?vid=584b569e-7298-4afe-b48b-612c38273697","ios":"levelo://app?vid=584b569e-7298-4afe-b48b-612c38273697"},"vehicle_type_id":"4","last_reported":1734365535,"current_range_meters":0,"station_id":"ce4bgv92rcd13ifvqcr0","pricing_plan_id":"cebpf4jnsgd1na2vs0mg"},{"bike_id":"6fcca420-7b9a-4500-9580-675e569a2a96","system_id":"levelo_inurba_marseille","lat":43.26557,"lon":5.3729,"is_reserved":false,"is_disabled":false,"rental_uris":{"android":"levelo://app?vid=6fcca420-7b9a-4500-9580-675e569a2a96","ios":"levelo://app?vid=6fcca420-7b9a-4500-9580-675e569a2a96"},"vehicle_type_id":"4","last_reported":1734365535,"current_range_meters":26000,"station_id":"ce4bhg12rcd13ifvqf70","pricing_plan_id":"cebpf4jnsgd1na2vs0mg"},{"bike_id":"9fd0006a-98c6-43eb-a16a-f33b6688078b","system_id":"levelo_inurba_marseille","lat":43.3031,"lon":5.36906,"is_reserved":false,"is_disabled":false,"rental_uris":{"android":"levelo://app?vid=9fd0006a-98c6-43eb-a16a-f33b6688078b","ios":"levelo://app?vid=9fd0006a-98c6-43eb-a16a-f33b6688078b"},"vehicle_type_id":"4","last_reported":1734365535,"current_range_meters":38000,"station_id":"ce4bgqh2rcd13ifvqc5g","pricing_plan_id":"cebpf4jnsgd1na2vs0mg"},{"bike_id":"2b15d063-7a3f-4ab1-9a96-79820bd042f5","system_id":"levelo_inurba_marseille","lat":43.30243,"lon":5.40029,"is_reserved":false,"is_disabled":true,"rental_uris":{"android":"levelo://app?vid=2b15d063-7a3f-4ab1-9a96-79820bd042f5","ios":"levelo://app?vid=2b15d063-7a3f-4ab1-9a96-79820bd042f5"},"vehicle_type_id":"4","last_reported":1734365535,"current_range_meters":20800,"station_id":"ce4bgvh2rcd13ifvqcs0","pricing_plan_id":"cebpf4jnsgd1na2vs0mg"},{"bike_id":"260d6b1a-cb0e-4690-955b-7e8fb829db75","system_id":"levelo_inurba_marseille","lat":43.27319,"lon":5.39094,"is_reserved":false,"is_disabled":false,"rental_uris":{"android":"levelo://app?vid=260d6b1a-cb0e-4690-955b-7e8fb829db75","ios":"levelo://app?vid=260d6b1a-cb0e-4690-955b-7e8fb829db75"},"vehicle_type_id":"4","last_reported":1734365535,"current_range_meters":32800,"station_id":"ce4bhgp2rcd13ifvqfe0","pricing_plan_id":"cebpf4jnsgd1na2vs0mg"},{"bike_id":"c2f59a26-f067-484a-ba7c-5aab09beea22","system_id":"levelo_inurba_marseille","lat":43.2963,"lon":5.3716,"is_reserved":false,"is_disabled":false,"rental_uris":{"android":"levelo://app?vid=c2f59a26-f067-484a-ba7c-5aab09beea22","ios":"levelo://app?vid=c2f59a26-f067-484a-ba7c-5aab09beea22"},"vehicle_type_id":"4","last_reported":1734365535,"current_range_meters":39200,"station_id":"ce4bgnh2rcd13ifvqc0g","pricing_plan_id":"cebpf4jnsgd1na2vs0mg"},{"bike_id":"54c11d0c-45a0-42d8-8ca0-d10a61cb44e5","system_id":"levelo_inurba_marseille","lat":43.26554,"lon":5.37288,"is_reserved":false,"is_disabled":false,"rental_uris":{"android":"levelo://app?vid=54c11d0c-45a0-42d8-8ca0-d10a61cb44e5","ios":"levelo://app?vid=54c11d0c-45a0-42d8-8ca0-d10a61cb44e5"},"vehicle_type_id":"4","last_reported":1734365535,"current_range_meters":35200,"station_id":"ce4bhg12rcd13ifvqf70","pricing_plan_id":"cebpf4jnsgd1na2vs0mg"},{"bike_id":"9d23ab61-6816-4439-a816-11e97cd3b48a","system_id":"levelo_inurba_marseille","lat":43.29592,"lon":5.36738,"is_reserved":false,"is_disabled":false,"rental_uris":{"android":"levelo://app?vid=9d23ab61-6816-4439-a816-11e97cd3b48a","ios":"levelo://app?vid=9d23ab61-6816-4439-a816-11e97cd3b48a"},"vehicle_type_id":"4","last_reported":1734365535,"current_range_meters":6400,"station_id":"ce4bgph2rcd13ifvqc2g","pricing_plan_id":"cebpf4jnsgd1na2vs0mg"},{"bike_id":"8516f8e4-e3d6-408b-bf58-3767cf307f14","system_id":"levelo_inurba_marseille","lat":43.279984,"lon":5.416662,"is_reserved":false,"is_disabled":false,"rental_uris":{"android":"levelo://app?vid=8516f8e4-e3d6-408b-bf58-3767cf307f14","ios":"levelo://app?vid=8516f8e4-e3d6-408b-bf58-3767cf307f14"},"vehicle_type_id":"4","last_reported":1734365535,"current_range_meters":22800,"station_id":"ce4bho12rcd13ifvqh1g","pricing_plan_id":"cebpf4jnsgd1na2vs0mg"},{"bike_id":"88091754-b5d2-4564-ad93-322e5ec98b19","system_id":"levelo_inurba_marseille","lat":43.24648,"lon":5.38896,"is_reserved":false,"is_disabled":false,"rental_uris":{"android":"levelo://app?vid=88091754-b5d2-4564-ad93-322e5ec98b19","ios":"levelo://app?vid=88091754-b5d2-4564-ad93-322e5ec98b19"},"vehicle_type_id":"4","last_reported":1734365535,"current_range_meters":36000,"station_id":"ce4bhg12rcd13ifvqf60","pricing_plan_id":"cebpf4jnsgd1na2vs0mg"},{"bike_id":"c21905bd-f0fb-41c0-8f28-793feb3589bf","system_id":"levelo_inurba_marseille","lat":43.292621,"lon":5.408984,"is_reserved":false,"is_disabled":false,"rental_uris":{"android":"levelo://app?vid=c21905bd-f0fb-41c0-8f28-793feb3589bf","ios":"levelo://app?vid=c21905bd-f0fb-41c0-8f28-793feb3589bf"},"vehicle_type_id":"4","last_reported":1734365535,"current_range_meters":21600,"station_id":"ce4bh192rcd13ifvqdc0","pricing_plan_id":"cebpf4jnsgd1na2vs0mg"},{"bike_id":"76ec3642-6b04-4fa3-81b8-996f867e214d","system_id":"levelo_inurba_marseille","lat":43.24177,"lon":5.39694,"is_reserved":false,"is_disabled":true,"rental_uris":{"android":"levelo://app?vid=76ec3642-6b04-4fa3-81b8-996f867e214d","ios":"levelo://app?vid=76ec3642-6b04-4fa3-81b8-996f867e214d"},"vehicle_type_id":"4","last_reported":1734365535,"current_range_meters":17200,"station_id":"ce4bhn12rcd13ifvqgpg","pricing_plan_id":"cebpf4jnsgd1na2vs0mg"},{"bike_id":"b086f938-3dea-4025-a3c6-185d7dca2dfd","system_id":"levelo_inurba_marseille","lat":43.29602,"lon":5.37721,"is_reserved":false,"is_disabled":true,"rental_uris":{"android":"levelo://app?vid=b086f938-3dea-4025-a3c6-185d7dca2dfd","ios":"levelo://app?vid=b086f938-3dea-4025-a3c6-185d7dca2dfd"},"vehicle_type_id":"4","last_reported":1734365535,"current_range_meters":0,"station_id":"ce4bgi92rcd13ifvqb90","pricing_plan_id":"cebpf4jnsgd1na2vs0mg"},{"bike_id":"4f77a188-5b6b-4fd4-a15d-65dfddf5ab48","system_id":"levelo_inurba_marseille","lat":43.29712,"lon":5.36593,"is_reserved":false,"is_disabled":false,"rental_uris":{"android":"levelo://app?vid=4f77a188-5b6b-4fd4-a15d-65dfddf5ab48","ios":"levelo://app?vid=4f77a188-5b6b-4fd4-a15d-65dfddf5ab48"},"vehicle_type_id":"4","last_reported":1734365535,"current_range_meters":38800,"station_id":"ce4bgn12rcd13ifvqbt0","pricing_plan_id":"cebpf4jnsgd1na2vs0mg"},{"bike_id":"7af764a8-cfce-47d6-9882-37c00c2d628b","system_id":"levelo_inurba_marseille","lat":43.27215,"lon":5.39183,"is_reserved":false,"is_disabled":false,"rental_uris":{"android":"levelo://app?vid=7af764a8-cfce-47d6-9882-37c00c2d628b","ios":"levelo://app?vid=7af764a8-cfce-47d6-9882-37c00c2d628b"},"vehicle_type_id":"4","last_reported":1734365535,"current_range_meters":4800,"station_id":"ce4bhhp2rcd13ifvqfm0","pricing_plan_id":"cebpf4jnsgd1na2vs0mg"},{"bike_id":"eb754f73-4f6d-4a71-ac7c-b7c2518211c6","system_id":"levelo_inurba_marseille","lat":43.28272,"lon":5.35064,"is_reserved":false,"is_disabled":false,"rental_uris":{"android":"levelo://app?vid=eb754f73-4f6d-4a71-ac7c-b7c2518211c6","ios":"levelo://app?vid=eb754f73-4f6d-4a71-ac7c-b7c2518211c6"},"vehicle_type_id":"4","last_reported":1734365535,"current_range_meters":35200,"station_id":"ce4bhbp2rcd13ifvqerg","pricing_plan_id":"cebpf4jnsgd1na2vs0mg"},{"bike_id":"da6e0e45-fbf5-465c-926e-60a004ee7a5d","system_id":"levelo_inurba_marseille","lat":43.282715,"lon":5.350633,"is_reserved":false,"is_disabled":false,"rental_uris":{"android":"levelo://app?vid=da6e0e45-fbf5-465c-926e-60a004ee7a5d","ios":"levelo://app?vid=da6e0e45-fbf5-465c-926e-60a004ee7a5d"},"vehicle_type_id":"4","last_reported":1734365535,"current_range_meters":16000,"station_id":"ce4bhbp2rcd13ifvqerg","pricing_plan_id":"cebpf4jnsgd1na2vs0mg"},{"bike_id":"04934ea9-58d2-4210-ac16-fb5b8b63865e","system_id":"levelo_inurba_marseille","lat":43.27812,"lon":5.40711,"is_reserved":false,"is_disabled":false,"rental_uris":{"android":"levelo://app?vid=04934ea9-58d2-4210-ac16-fb5b8b63865e","ios":"levelo://app?vid=04934ea9-58d2-4210-ac16-fb5b8b63865e"},"vehicle_type_id":"4","last_reported":1734365535,"current_range_meters":38000,"station_id":"ce4bhnh2rcd13ifvqgtg","pricing_plan_id":"cebpf4jnsgd1na2vs0mg"},{"bike_id":"d83f2751-857b-4bf2-a664-7c5522f117f7","system_id":"levelo_inurba_marseille","lat":43.30649,"lon":5.40069,"is_reserved":false,"is_disabled":false,"rental_uris":{"android":"levelo://app?vid=d83f2751-857b-4bf2-a664-7c5522f117f7","ios":"levelo://app?vid=d83f2751-857b-4bf2-a664-7c5522f117f7"},"vehicle_type_id":"4","last_reported":1734365535,"current_range_meters":33600,"station_id":"ce4bh112rcd13ifvqda0","pricing_plan_id":"cebpf4jnsgd1na2vs0mg"},{"bike_id":"8d654d43-9638-4d6a-84ed-0f57ccdac7f5","system_id":"levelo_inurba_marseille","lat":43.28282,"lon":5.35072,"is_reserved":false,"is_disabled":false,"rental_uris":{"android":"levelo://app?vid=8d654d43-9638-4d6a-84ed-0f57ccdac7f5","ios":"levelo://app?vid=8d654d43-9638-4d6a-84ed-0f57ccdac7f5"},"vehicle_type_id":"4","last_reported":1734365535,"current_range_meters":38800,"station_id":"ce4bhbp2rcd13ifvqerg","pricing_plan_id":"cebpf4jnsgd1na2vs0mg"},{"bike_id":"363409c4-9534-4bdc-a8fa-88f89d7ce184","system_id":"levelo_inurba_marseille","lat":43.27175,"lon":5.40996,"is_reserved":false,"is_disabled":false,"rental_uris":{"android":"levelo://app?vid=363409c4-9534-4bdc-a8fa-88f89d7ce184","ios":"levelo://app?vid=363409c4-9534-4bdc-a8fa-88f89d7ce184"},"vehicle_type_id":"4","last_reported":1734365535,"current_range_meters":36000,"station_id":"ce4bhl12rcd13ifvqgf0","pricing_plan_id":"cebpf4jnsgd1na2vs0mg"},{"bike_id":"2ea57883-2902-4502-901a-628a9230e548","system_id":"levelo_inurba_marseille","lat":43.30311,"lon":5.36893,"is_reserved":false,"is_disabled":false,"rental_uris":{"android":"levelo://app?vid=2ea57883-2902-4502-901a-628a9230e548","ios":"levelo://app?vid=2ea57883-2902-4502-901a-628a9230e548"},"vehicle_type_id":"4","last_reported":1734365535,"current_range_meters":21600,"station_id":"ce4bgqh2rcd13ifvqc5g","pricing_plan_id":"cebpf4jnsgd1na2vs0mg"},{"bike_id":"76161a88-001a-4fcb-8463-f6d3d4fa201a","system_id":"levelo_inurba_marseille","lat":43.26847,"lon":5.39647,"is_reserved":false,"is_disabled":false,"rental_uris":{"android":"levelo://app?vid=76161a88-001a-4fcb-8463-f6d3d4fa201a","ios":"levelo://app?vid=76161a88-001a-4fcb-8463-f6d3d4fa201a"},"vehicle_type_id":"4","last_reported":1734365535,"current_range_meters":10000,"station_id":"","pricing_plan_id":"cebpf4jnsgd1na2vs0mg"},{"bike_id":"7dc1a192-837f-413e-98a5-38f43bdb5ecf","system_id":"levelo_inurba_marseille","lat":43.2783,"lon":5.39204,"is_reserved":false,"is_disabled":false,"rental_uris":{"android":"levelo://app?vid=7dc1a192-837f-413e-98a5-38f43bdb5ecf","ios":"levelo://app?vid=7dc1a192-837f-413e-98a5-38f43bdb5ecf"},"vehicle_type_id":"4","last_reported":1734365535,"current_range_meters":39200,"station_id":"ce4bhjp2rcd13ifvqga0","pricing_plan_id":"cebpf4jnsgd1na2vs0mg"},{"bike_id":"bb1c0ef0-184d-4b17-9016-88e561b3d27b","system_id":"levelo_inurba_marseille","lat":43.28615,"lon":5.35099,"is_reserved":false,"is_disabled":true,"rental_uris":{"android":"levelo://app?vid=bb1c0ef0-184d-4b17-9016-88e561b3d27b","ios":"levelo://app?vid=bb1c0ef0-184d-4b17-9016-88e561b3d27b"},"vehicle_type_id":"4","last_reported":1734365535,"current_range_meters":26000,"station_id":"ce4bhch2rcd13ifvqeug","pricing_plan_id":"cebpf4jnsgd1na2vs0mg"},{"bike_id":"eea4ab17-ee4a-4274-b018-a71cbdefaef9","system_id":"levelo_inurba_marseille","lat":43.23057,"lon":5.35501,"is_reserved":false,"is_disabled":false,"rental_uris":{"android":"levelo://app?vid=eea4ab17-ee4a-4274-b018-a71cbdefaef9","ios":"levelo://app?vid=eea4ab17-ee4a-4274-b018-a71cbdefaef9"},"vehicle_type_id":"4","last_reported":1734365535,"current_range_meters":36800,"station_id":"cpo3342slgdg3j2ifvpg","pricing_plan_id":"cebpf4jnsgd1na2vs0mg"},{"bike_id":"c5595fd0-fc8e-462b-8984-5c1c92ed35f5","system_id":"levelo_inurba_marseille","lat":43.29552,"lon":5.42298,"is_reserved":false,"is_disabled":true,"rental_uris":{"android":"levelo://app?vid=c5595fd0-fc8e-462b-8984-5c1c92ed35f5","ios":"levelo://app?vid=c5595fd0-fc8e-462b-8984-5c1c92ed35f5"},"vehicle_type_id":"4","last_reported":1734365535,"current_range_meters":0,"station_id":"ce4bhph2rcd13ifvqhdg","pricing_plan_id":"cebpf4jnsgd1na2vs0mg"},{"bike_id":"a63bc48e-1d1d-4018-9a91-46d2d0597229","system_id":"levelo_inurba_marseille","lat":43.2842,"lon":5.34985,"is_reserved":false,"is_disabled":false,"rental_uris":{"android":"levelo://app?vid=a63bc48e-1d1d-4018-9a91-46d2d0597229","ios":"levelo://app?vid=a63bc48e-1d1d-4018-9a91-46d2d0597229"},"vehicle_type_id":"4","last_reported":1734365535,"current_range_meters":36400,"station_id":"ce4bhbh2rcd13ifvqepg","pricing_plan_id":"cebpf4jnsgd1na2vs0mg"},{"bike_id":"62ae4568-3963-4162-91fe-14454e2a5ed0","system_id":"levelo_inurba_marseille","lat":43.24666,"lon":5.38169,"is_reserved":false,"is_disabled":true,"rental_uris":{"android":"levelo://app?vid=62ae4568-3963-4162-91fe-14454e2a5ed0","ios":"levelo://app?vid=62ae4568-3963-4162-91fe-14454e2a5ed0"},"vehicle_type_id":"4","last_reported":1734365535,"current_range_meters":38800,"station_id":"ce4bhih2rcd13ifvqfr0","pricing_plan_id":"cebpf4jnsgd1na2vs0mg"},{"bike_id":"16ff838f-1cdb-4ddb-b5eb-dde2105d633a","system_id":"levelo_inurba_marseille","lat":43.26566,"lon":5.37281,"is_reserved":false,"is_disabled":false,"rental_uris":{"android":"levelo://app?vid=16ff838f-1cdb-4ddb-b5eb-dde2105d633a","ios":"levelo://app?vid=16ff838f-1cdb-4ddb-b5eb-dde2105d633a"},"vehicle_type_id":"4","last_reported":1734365535,"current_range_meters":30400,"station_id":"ce4bhg12rcd13ifvqf70","pricing_plan_id":"cebpf4jnsgd1na2vs0mg"},{"bike_id":"addd6287-9f05-40e8-a912-dc92d6347ed5","system_id":"levelo_inurba_marseille","lat":43.278774,"lon":5.388175,"is_reserved":false,"is_disabled":false,"rental_uris":{"android":"levelo://app?vid=addd6287-9f05-40e8-a912-dc92d6347ed5","ios":"levelo://app?vid=addd6287-9f05-40e8-a912-dc92d6347ed5"},"vehicle_type_id":"4","last_reported":1734365535,"current_range_meters":36400,"station_id":"ce4bhg12rcd13ifvqf80","pricing_plan_id":"cebpf4jnsgd1na2vs0mg"},{"bike_id":"07974290-673e-48e4-818f-9ca1fff3397c","system_id":"levelo_inurba_marseille","lat":43.24178,"lon":5.39717,"is_reserved":false,"is_disabled":true,"rental_uris":{"android":"levelo://app?vid=07974290-673e-48e4-818f-9ca1fff3397c","ios":"levelo://app?vid=07974290-673e-48e4-818f-9ca1fff3397c"},"vehicle_type_id":"4","last_reported":1734365535,"current_range_meters":0,"station_id":"ce4bhn12rcd13ifvqgpg","pricing_plan_id":"cebpf4jnsgd1na2vs0mg"},{"bike_id":"8e7c3683-99a9-4188-89c4-858575c3d04c","system_id":"levelo_inurba_marseille","lat":43.27631,"lon":5.38948,"is_reserved":false,"is_disabled":true,"rental_uris":{"android":"levelo://app?vid=8e7c3683-99a9-4188-89c4-858575c3d04c","ios":"levelo://app?vid=8e7c3683-99a9-4188-89c4-858575c3d04c"},"vehicle_type_id":"4","last_reported":1734365535,"current_range_meters":34800,"station_id":"","pricing_plan_id":"cebpf4jnsgd1na2vs0mg"},{"bike_id":"bf71b712-b0b1-401f-88fb-1f03f0ed5192","system_id":"levelo_inurba_marseille","lat":43.28443,"lon":5.39178,"is_reserved":false,"is_disabled":false,"rental_uris":{"android":"levelo://app?vid=bf71b712-b0b1-401f-88fb-1f03f0ed5192","ios":"levelo://app?vid=bf71b712-b0b1-401f-88fb-1f03f0ed5192"},"vehicle_type_id":"4","last_reported":1734365535,"current_range_meters":39200,"station_id":"ce4bhoh2rcd13ifvqh5g","pricing_plan_id":"cebpf4jnsgd1na2vs0mg"},{"bike_id":"b2a6d57f-5052-4d3c-9a8b-5166108f0a2a","system_id":"levelo_inurba_marseille","lat":43.25875,"lon":5.39894,"is_reserved":false,"is_disabled":false,"rental_uris":{"android":"levelo://app?vid=b2a6d57f-5052-4d3c-9a8b-5166108f0a2a","ios":"levelo://app?vid=b2a6d57f-5052-4d3c-9a8b-5166108f0a2a"},"vehicle_type_id":"4","last_reported":1734365535,"current_range_meters":10000,"station_id":"ce4bhl92rcd13ifvqghg","pricing_plan_id":"cebpf4jnsgd1na2vs0mg"},{"bike_id":"4577e3e8-7ec6-4361-8738-81257af38076","system_id":"levelo_inurba_marseille","lat":43.28427,"lon":5.34988,"is_reserved":false,"is_disabled":false,"rental_uris":{"android":"levelo://app?vid=4577e3e8-7ec6-4361-8738-81257af38076","ios":"levelo://app?vid=4577e3e8-7ec6-4361-8738-81257af38076"},"vehicle_type_id":"4","last_reported":1734365535,"current_range_meters":800,"station_id":"ce4bhbh2rcd13ifvqepg","pricing_plan_id":"cebpf4jnsgd1na2vs0mg"},{"bike_id":"8ecf3ad5-c87f-40b6-b4f5-aa4431f260b4","system_id":"levelo_inurba_marseille","lat":43.2619,"lon":5.37447,"is_reserved":false,"is_disabled":false,"rental_uris":{"android":"levelo://app?vid=8ecf3ad5-c87f-40b6-b4f5-aa4431f260b4","ios":"levelo://app?vid=8ecf3ad5-c87f-40b6-b4f5-aa4431f260b4"},"vehicle_type_id":"4","last_reported":1734365535,"current_range_meters":38400,"station_id":"ce4bhgp2rcd13ifvqfc0","pricing_plan_id":"cebpf4jnsgd1na2vs0mg"},{"bike_id":"621491f6-ccb0-4336-9455-1c394e692f77","system_id":"levelo_inurba_marseille","lat":43.33004,"lon":5.39065,"is_reserved":false,"is_disabled":true,"rental_uris":{"android":"levelo://app?vid=621491f6-ccb0-4336-9455-1c394e692f77","ios":"levelo://app?vid=621491f6-ccb0-4336-9455-1c394e692f77"},"vehicle_type_id":"4","last_reported":1734365535,"current_range_meters":0,"station_id":"ce4bhr92rcd13ifvqhrg","pricing_plan_id":"cebpf4jnsgd1na2vs0mg"},{"bike_id":"c36dcfa8-7a81-4c93-87b4-ed30b5c43d56","system_id":"levelo_inurba_marseille","lat":43.25584,"lon":5.38234,"is_reserved":false,"is_disabled":false,"rental_uris":{"android":"levelo://app?vid=c36dcfa8-7a81-4c93-87b4-ed30b5c43d56","ios":"levelo://app?vid=c36dcfa8-7a81-4c93-87b4-ed30b5c43d56"},"vehicle_type_id":"4","last_reported":1734365535,"current_range_meters":27600,"station_id":"ce4bhih2rcd13ifvqfs0","pricing_plan_id":"cebpf4jnsgd1na2vs0mg"},{"bike_id":"c1b8dee9-9ce1-42c1-9ed1-4aa5a9cfa85f","system_id":"levelo_inurba_marseille","lat":43.29412,"lon":5.3861,"is_reserved":false,"is_disabled":true,"rental_uris":{"android":"levelo://app?vid=c1b8dee9-9ce1-42c1-9ed1-4aa5a9cfa85f","ios":"levelo://app?vid=c1b8dee9-9ce1-42c1-9ed1-4aa5a9cfa85f"},"vehicle_type_id":"4","last_reported":1734365535,"current_range_meters":2000,"station_id":"ce4bh2h2rcd13ifvqdh0","pricing_plan_id":"cebpf4jnsgd1na2vs0mg"},{"bike_id":"9095ef39-5e37-4d24-819e-4d375be5a75f","system_id":"levelo_inurba_marseille","lat":43.24389,"lon":5.37055,"is_reserved":false,"is_disabled":false,"rental_uris":{"android":"levelo://app?vid=9095ef39-5e37-4d24-819e-4d375be5a75f","ios":"levelo://app?vid=9095ef39-5e37-4d24-819e-4d375be5a75f"},"vehicle_type_id":"4","last_reported":1734365535,"current_range_meters":23200,"station_id":"ce4bhhh2rcd13ifvqfk0","pricing_plan_id":"cebpf4jnsgd1na2vs0mg"},{"bike_id":"6512e093-a716-4355-a981-ab463327399c","system_id":"levelo_inurba_marseille","lat":43.27814,"lon":5.40711,"is_reserved":false,"is_disabled":false,"rental_uris":{"android":"levelo://app?vid=6512e093-a716-4355-a981-ab463327399c","ios":"levelo://app?vid=6512e093-a716-4355-a981-ab463327399c"},"vehicle_type_id":"4","last_reported":1734365535,"current_range_meters":24000,"station_id":"ce4bhnh2rcd13ifvqgtg","pricing_plan_id":"cebpf4jnsgd1na2vs0mg"},{"bike_id":"ab11d6dd-7464-4c92-8817-0e8c2b446e2a","system_id":"levelo_inurba_marseille","lat":43.2816,"lon":5.42645,"is_reserved":false,"is_disabled":false,"rental_uris":{"android":"levelo://app?vid=ab11d6dd-7464-4c92-8817-0e8c2b446e2a","ios":"levelo://app?vid=ab11d6dd-7464-4c92-8817-0e8c2b446e2a"},"vehicle_type_id":"4","last_reported":1734365535,"current_range_meters":38800,"station_id":"ce4bhnh2rcd13ifvqgug","pricing_plan_id":"cebpf4jnsgd1na2vs0mg"},{"bike_id":"6afe920d-4000-429a-84e5-416689c1fee2","system_id":"levelo_inurba_marseille","lat":43.28864,"lon":5.35847,"is_reserved":false,"is_disabled":false,"rental_uris":{"android":"levelo://app?vid=6afe920d-4000-429a-84e5-416689c1fee2","ios":"levelo://app?vid=6afe920d-4000-429a-84e5-416689c1fee2"},"vehicle_type_id":"4","last_reported":1734365535,"current_range_meters":20000,"station_id":"ce4bhb12rcd13ifvqem0","pricing_plan_id":"cebpf4jnsgd1na2vs0mg"},{"bike_id":"17fd1c3b-23af-4fb5-9435-033e2a988571","system_id":"levelo_inurba_marseille","lat":43.30989,"lon":5.40126,"is_reserved":false,"is_disabled":true,"rental_uris":{"android":"levelo://app?vid=17fd1c3b-23af-4fb5-9435-033e2a988571","ios":"levelo://app?vid=17fd1c3b-23af-4fb5-9435-033e2a988571"},"vehicle_type_id":"4","last_reported":1734365535,"current_range_meters":36800,"station_id":"","pricing_plan_id":"cebpf4jnsgd1na2vs0mg"},{"bike_id":"679d31d4-e8f0-4997-ab5e-24dd875b6989","system_id":"levelo_inurba_marseille","lat":43.2465,"lon":5.389,"is_reserved":false,"is_disabled":false,"rental_uris":{"android":"levelo://app?vid=679d31d4-e8f0-4997-ab5e-24dd875b6989","ios":"levelo://app?vid=679d31d4-e8f0-4997-ab5e-24dd875b6989"},"vehicle_type_id":"4","last_reported":1734365535,"current_range_meters":33600,"station_id":"ce4bhg12rcd13ifvqf60","pricing_plan_id":"cebpf4jnsgd1na2vs0mg"},{"bike_id":"d7c1cf73-5ea5-4c2f-a402-88978e03c60a","system_id":"levelo_inurba_marseille","lat":43.29479,"lon":5.36222,"is_reserved":false,"is_disabled":false,"rental_uris":{"android":"levelo://app?vid=d7c1cf73-5ea5-4c2f-a402-88978e03c60a","ios":"levelo://app?vid=d7c1cf73-5ea5-4c2f-a402-88978e03c60a"},"vehicle_type_id":"4","last_reported":1734365535,"current_range_meters":6400,"station_id":"","pricing_plan_id":"cebpf4jnsgd1na2vs0mg"},{"bike_id":"3ae80103-8e35-4100-9ada-0ce3cf2efd16","system_id":"levelo_inurba_marseille","lat":43.32485,"lon":5.36575,"is_reserved":false,"is_disabled":false,"rental_uris":{"android":"levelo://app?vid=3ae80103-8e35-4100-9ada-0ce3cf2efd16","ios":"levelo://app?vid=3ae80103-8e35-4100-9ada-0ce3cf2efd16"},"vehicle_type_id":"4","last_reported":1734365535,"current_range_meters":18800,"station_id":"ce4bhs12rcd13ifvqhvg","pricing_plan_id":"cebpf4jnsgd1na2vs0mg"},{"bike_id":"45e69198-43e0-423d-83f4-b48541e23fe6","system_id":"levelo_inurba_marseille","lat":43.30803,"lon":5.43535,"is_reserved":false,"is_disabled":false,"rental_uris":{"android":"levelo://app?vid=45e69198-43e0-423d-83f4-b48541e23fe6","ios":"levelo://app?vid=45e69198-43e0-423d-83f4-b48541e23fe6"},"vehicle_type_id":"4","last_reported":1734365535,"current_range_meters":38800,"station_id":"ce4bhph2rcd13ifvqheg","pricing_plan_id":"cebpf4jnsgd1na2vs0mg"},{"bike_id":"65c8d187-82fc-471e-a5ca-b92e3ce343fb","system_id":"levelo_inurba_marseille","lat":43.26212,"lon":5.37929,"is_reserved":false,"is_disabled":false,"rental_uris":{"android":"levelo://app?vid=65c8d187-82fc-471e-a5ca-b92e3ce343fb","ios":"levelo://app?vid=65c8d187-82fc-471e-a5ca-b92e3ce343fb"},"vehicle_type_id":"4","last_reported":1734365535,"current_range_meters":21600,"station_id":"ce4bhjp2rcd13ifvqg90","pricing_plan_id":"cebpf4jnsgd1na2vs0mg"},{"bike_id":"bbd73bd0-2c6e-4dd4-9a26-4f73a5d27b91","system_id":"levelo_inurba_marseille","lat":43.27671,"lon":5.38887,"is_reserved":false,"is_disabled":false,"rental_uris":{"android":"levelo://app?vid=bbd73bd0-2c6e-4dd4-9a26-4f73a5d27b91","ios":"levelo://app?vid=bbd73bd0-2c6e-4dd4-9a26-4f73a5d27b91"},"vehicle_type_id":"4","last_reported":1734365535,"current_range_meters":22400,"station_id":"ce4bhi12rcd13ifvqfo0","pricing_plan_id":"cebpf4jnsgd1na2vs0mg"},{"bike_id":"ef0fb4b8-c4b2-4451-af56-582aff9dda9a","system_id":"levelo_inurba_marseille","lat":43.262283,"lon":5.374879,"is_reserved":false,"is_disabled":false,"rental_uris":{"android":"levelo://app?vid=ef0fb4b8-c4b2-4451-af56-582aff9dda9a","ios":"levelo://app?vid=ef0fb4b8-c4b2-4451-af56-582aff9dda9a"},"vehicle_type_id":"4","last_reported":1734365535,"current_range_meters":13600,"station_id":"ce4bhgp2rcd13ifvqfc0","pricing_plan_id":"cebpf4jnsgd1na2vs0mg"},{"bike_id":"dd61c0e2-e3a0-4f10-b24a-cd8e3099b7ef","system_id":"levelo_inurba_marseille","lat":43.29223,"lon":5.36054,"is_reserved":false,"is_disabled":false,"rental_uris":{"android":"levelo://app?vid=dd61c0e2-e3a0-4f10-b24a-cd8e3099b7ef","ios":"levelo://app?vid=dd61c0e2-e3a0-4f10-b24a-cd8e3099b7ef"},"vehicle_type_id":"4","last_reported":1734365535,"current_range_meters":32000,"station_id":"ce4bhbh2rcd13ifvqeqg","pricing_plan_id":"cebpf4jnsgd1na2vs0mg"},{"bike_id":"9f99952f-4350-44b4-bc2b-e8ad010ea19f","system_id":"levelo_inurba_marseille","lat":43.30888,"lon":5.39645,"is_reserved":false,"is_disabled":false,"rental_uris":{"android":"levelo://app?vid=9f99952f-4350-44b4-bc2b-e8ad010ea19f","ios":"levelo://app?vid=9f99952f-4350-44b4-bc2b-e8ad010ea19f"},"vehicle_type_id":"4","last_reported":1734365535,"current_range_meters":24800,"station_id":"ce4bh012rcd13ifvqcv0","pricing_plan_id":"cebpf4jnsgd1na2vs0mg"},{"bike_id":"01972dcb-5194-4c11-855e-693a28551e27","system_id":"levelo_inurba_marseille","lat":43.29704,"lon":5.36597,"is_reserved":false,"is_disabled":false,"rental_uris":{"android":"levelo://app?vid=01972dcb-5194-4c11-855e-693a28551e27","ios":"levelo://app?vid=01972dcb-5194-4c11-855e-693a28551e27"},"vehicle_type_id":"4","last_reported":1734365535,"current_range_meters":38800,"station_id":"ce4bgn12rcd13ifvqbt0","pricing_plan_id":"cebpf4jnsgd1na2vs0mg"},{"bike_id":"f953f43e-1805-4821-ae2b-e06e1efa84c6","system_id":"levelo_inurba_marseille","lat":43.30536,"lon":5.36537,"is_reserved":false,"is_disabled":false,"rental_uris":{"android":"levelo://app?vid=f953f43e-1805-4821-ae2b-e06e1efa84c6","ios":"levelo://app?vid=f953f43e-1805-4821-ae2b-e06e1efa84c6"},"vehicle_type_id":"4","last_reported":1734365535,"current_range_meters":35600,"station_id":"ce4bgs12rcd13ifvqcag","pricing_plan_id":"cebpf4jnsgd1na2vs0mg"},{"bike_id":"d705ef2b-d72b-417f-b321-d9710b5a9281","system_id":"levelo_inurba_marseille","lat":43.24656,"lon":5.38892,"is_reserved":false,"is_disabled":false,"rental_uris":{"android":"levelo://app?vid=d705ef2b-d72b-417f-b321-d9710b5a9281","ios":"levelo://app?vid=d705ef2b-d72b-417f-b321-d9710b5a9281"},"vehicle_type_id":"4","last_reported":1734365535,"current_range_meters":16000,"station_id":"ce4bhg12rcd13ifvqf60","pricing_plan_id":"cebpf4jnsgd1na2vs0mg"},{"bike_id":"b080cd93-ae1d-416c-aff0-33280d88921a","system_id":"levelo_inurba_marseille","lat":43.26556,"lon":5.39505,"is_reserved":false,"is_disabled":false,"rental_uris":{"android":"levelo://app?vid=b080cd93-ae1d-416c-aff0-33280d88921a","ios":"levelo://app?vid=b080cd93-ae1d-416c-aff0-33280d88921a"},"vehicle_type_id":"4","last_reported":1734365535,"current_range_meters":35600,"station_id":"","pricing_plan_id":"cebpf4jnsgd1na2vs0mg"},{"bike_id":"818655c2-9e4a-485a-b6f8-75b9611689aa","system_id":"levelo_inurba_marseille","lat":43.29256,"lon":5.40142,"is_reserved":false,"is_disabled":true,"rental_uris":{"android":"levelo://app?vid=818655c2-9e4a-485a-b6f8-75b9611689aa","ios":"levelo://app?vid=818655c2-9e4a-485a-b6f8-75b9611689aa"},"vehicle_type_id":"4","last_reported":1734365535,"current_range_meters":0,"station_id":"ce4bh312rcd13ifvqdk0","pricing_plan_id":"cebpf4jnsgd1na2vs0mg"},{"bike_id":"22cfe5ba-d34f-4452-a8b6-212d64b4bd9b","system_id":"levelo_inurba_marseille","lat":43.24153,"lon":5.3971,"is_reserved":false,"is_disabled":false,"rental_uris":{"android":"levelo://app?vid=22cfe5ba-d34f-4452-a8b6-212d64b4bd9b","ios":"levelo://app?vid=22cfe5ba-d34f-4452-a8b6-212d64b4bd9b"},"vehicle_type_id":"4","last_reported":1734365535,"current_range_meters":32800,"station_id":"ce4bhn12rcd13ifvqgpg","pricing_plan_id":"cebpf4jnsgd1na2vs0mg"},{"bike_id":"012bf7e8-caab-4a76-ac9e-eb37f258f686","system_id":"levelo_inurba_marseille","lat":43.24396,"lon":5.37055,"is_reserved":false,"is_disabled":false,"rental_uris":{"android":"levelo://app?vid=012bf7e8-caab-4a76-ac9e-eb37f258f686","ios":"levelo://app?vid=012bf7e8-caab-4a76-ac9e-eb37f258f686"},"vehicle_type_id":"4","last_reported":1734365535,"current_range_meters":38800,"station_id":"ce4bhhh2rcd13ifvqfk0","pricing_plan_id":"cebpf4jnsgd1na2vs0mg"},{"bike_id":"ae02acec-19ae-42ee-bf3a-ed72382da8e5","system_id":"levelo_inurba_marseille","lat":43.28,"lon":5.40016,"is_reserved":false,"is_disabled":false,"rental_uris":{"android":"levelo://app?vid=ae02acec-19ae-42ee-bf3a-ed72382da8e5","ios":"levelo://app?vid=ae02acec-19ae-42ee-bf3a-ed72382da8e5"},"vehicle_type_id":"4","last_reported":1734365535,"current_range_meters":17200,"station_id":"ce4bho92rcd13ifvqh4g","pricing_plan_id":"cebpf4jnsgd1na2vs0mg"},{"bike_id":"e3b0895e-a4fc-49df-bb9e-8828b79f9553","system_id":"levelo_inurba_marseille","lat":43.28841,"lon":5.35858,"is_reserved":false,"is_disabled":false,"rental_uris":{"android":"levelo://app?vid=e3b0895e-a4fc-49df-bb9e-8828b79f9553","ios":"levelo://app?vid=e3b0895e-a4fc-49df-bb9e-8828b79f9553"},"vehicle_type_id":"4","last_reported":1734365535,"current_range_meters":34800,"station_id":"ce4bhb12rcd13ifvqem0","pricing_plan_id":"cebpf4jnsgd1na2vs0mg"},{"bike_id":"a3ae6ee4-d060-4597-a716-f8c3846f7f84","system_id":"levelo_inurba_marseille","lat":43.28278,"lon":5.35068,"is_reserved":false,"is_disabled":false,"rental_uris":{"android":"levelo://app?vid=a3ae6ee4-d060-4597-a716-f8c3846f7f84","ios":"levelo://app?vid=a3ae6ee4-d060-4597-a716-f8c3846f7f84"},"vehicle_type_id":"4","last_reported":1734365535,"current_range_meters":38800,"station_id":"ce4bhbp2rcd13ifvqerg","pricing_plan_id":"cebpf4jnsgd1na2vs0mg"},{"bike_id":"074e9dc8-f6cf-4bd7-b43d-e16a09d8bc72","system_id":"levelo_inurba_marseille","lat":43.26499,"lon":5.39559,"is_reserved":false,"is_disabled":false,"rental_uris":{"android":"levelo://app?vid=074e9dc8-f6cf-4bd7-b43d-e16a09d8bc72","ios":"levelo://app?vid=074e9dc8-f6cf-4bd7-b43d-e16a09d8bc72"},"vehicle_type_id":"4","last_reported":1734365535,"current_range_meters":35600,"station_id":"ce4bhi12rcd13ifvqfq0","pricing_plan_id":"cebpf4jnsgd1na2vs0mg"},{"bike_id":"b22f8514-6488-4601-b410-0f71166ad7d2","system_id":"levelo_inurba_marseille","lat":43.30636,"lon":5.40088,"is_reserved":false,"is_disabled":false,"rental_uris":{"android":"levelo://app?vid=b22f8514-6488-4601-b410-0f71166ad7d2","ios":"levelo://app?vid=b22f8514-6488-4601-b410-0f71166ad7d2"},"vehicle_type_id":"4","last_reported":1734365535,"current_range_meters":12400,"station_id":"ce4bh112rcd13ifvqda0","pricing_plan_id":"cebpf4jnsgd1na2vs0mg"},{"bike_id":"403c1fe0-6db0-43ab-acb4-ce56e4fab5d6","system_id":"levelo_inurba_marseille","lat":43.2321,"lon":5.35554,"is_reserved":false,"is_disabled":false,"rental_uris":{"android":"levelo://app?vid=403c1fe0-6db0-43ab-acb4-ce56e4fab5d6","ios":"levelo://app?vid=403c1fe0-6db0-43ab-acb4-ce56e4fab5d6"},"vehicle_type_id":"4","last_reported":1734365535,"current_range_meters":36000,"station_id":"ce4bhu92rcd13ifvqi70","pricing_plan_id":"cebpf4jnsgd1na2vs0mg"},{"bike_id":"32bc3d82-047b-43ea-807f-35639a30fcfb","system_id":"levelo_inurba_marseille","lat":43.30256,"lon":5.40079,"is_reserved":false,"is_disabled":false,"rental_uris":{"android":"levelo://app?vid=32bc3d82-047b-43ea-807f-35639a30fcfb","ios":"levelo://app?vid=32bc3d82-047b-43ea-807f-35639a30fcfb"},"vehicle_type_id":"4","last_reported":1734365535,"current_range_meters":36400,"station_id":"ce4bgvh2rcd13ifvqcs0","pricing_plan_id":"cebpf4jnsgd1na2vs0mg"},{"bike_id":"75e5801f-6f0d-4d2b-bed6-e4fcaf2ccc55","system_id":"levelo_inurba_marseille","lat":43.26804,"lon":5.39434,"is_reserved":false,"is_disabled":false,"rental_uris":{"android":"levelo://app?vid=75e5801f-6f0d-4d2b-bed6-e4fcaf2ccc55","ios":"levelo://app?vid=75e5801f-6f0d-4d2b-bed6-e4fcaf2ccc55"},"vehicle_type_id":"4","last_reported":1734365535,"current_range_meters":7200,"station_id":"ce4bhh12rcd13ifvqfg0","pricing_plan_id":"cebpf4jnsgd1na2vs0mg"},{"bike_id":"777892e2-39b3-497d-9b83-8adcbb8093b9","system_id":"levelo_inurba_marseille","lat":43.24648,"lon":5.38904,"is_reserved":false,"is_disabled":false,"rental_uris":{"android":"levelo://app?vid=777892e2-39b3-497d-9b83-8adcbb8093b9","ios":"levelo://app?vid=777892e2-39b3-497d-9b83-8adcbb8093b9"},"vehicle_type_id":"4","last_reported":1734365535,"current_range_meters":4800,"station_id":"ce4bhg12rcd13ifvqf60","pricing_plan_id":"cebpf4jnsgd1na2vs0mg"},{"bike_id":"cf19dc43-e205-4f3a-9f29-9319fcedb952","system_id":"levelo_inurba_marseille","lat":43.3054,"lon":5.36532,"is_reserved":false,"is_disabled":false,"rental_uris":{"android":"levelo://app?vid=cf19dc43-e205-4f3a-9f29-9319fcedb952","ios":"levelo://app?vid=cf19dc43-e205-4f3a-9f29-9319fcedb952"},"vehicle_type_id":"4","last_reported":1734365535,"current_range_meters":25200,"station_id":"ce4bgs12rcd13ifvqcag","pricing_plan_id":"cebpf4jnsgd1na2vs0mg"},{"bike_id":"8a1ff11d-81f9-449a-97d4-cfef05059ab7","system_id":"levelo_inurba_marseille","lat":43.29622,"lon":5.38097,"is_reserved":false,"is_disabled":false,"rental_uris":{"android":"levelo://app?vid=8a1ff11d-81f9-449a-97d4-cfef05059ab7","ios":"levelo://app?vid=8a1ff11d-81f9-449a-97d4-cfef05059ab7"},"vehicle_type_id":"4","last_reported":1734365535,"current_range_meters":38800,"station_id":"ce4bgl12rcd13ifvqbo0","pricing_plan_id":"cebpf4jnsgd1na2vs0mg"},{"bike_id":"ad3e51cb-df7c-4ce4-b243-f609a121c657","system_id":"levelo_inurba_marseille","lat":43.24169,"lon":5.36402,"is_reserved":false,"is_disabled":false,"rental_uris":{"android":"levelo://app?vid=ad3e51cb-df7c-4ce4-b243-f609a121c657","ios":"levelo://app?vid=ad3e51cb-df7c-4ce4-b243-f609a121c657"},"vehicle_type_id":"4","last_reported":1734365535,"current_range_meters":20800,"station_id":"cpo36qri1sfpv3e86is0","pricing_plan_id":"cebpf4jnsgd1na2vs0mg"},{"bike_id":"3bf936d4-6f74-4f01-8dbf-683436f99f4c","system_id":"levelo_inurba_marseille","lat":43.262037,"lon":5.37449,"is_reserved":false,"is_disabled":false,"rental_uris":{"android":"levelo://app?vid=3bf936d4-6f74-4f01-8dbf-683436f99f4c","ios":"levelo://app?vid=3bf936d4-6f74-4f01-8dbf-683436f99f4c"},"vehicle_type_id":"4","last_reported":1734365535,"current_range_meters":36800,"station_id":"ce4bhgp2rcd13ifvqfc0","pricing_plan_id":"cebpf4jnsgd1na2vs0mg"},{"bike_id":"6c2f8196-548c-49d5-bcb1-35ab07679de5","system_id":"levelo_inurba_marseille","lat":43.31761,"lon":5.39013,"is_reserved":false,"is_disabled":false,"rental_uris":{"android":"levelo://app?vid=6c2f8196-548c-49d5-bcb1-35ab07679de5","ios":"levelo://app?vid=6c2f8196-548c-49d5-bcb1-35ab07679de5"},"vehicle_type_id":"4","last_reported":1734365535,"current_range_meters":35200,"station_id":"ce4bhqp2rcd13ifvqhng","pricing_plan_id":"cebpf4jnsgd1na2vs0mg"},{"bike_id":"6a8fc9ff-6867-422d-aa7d-21a00e56554e","system_id":"levelo_inurba_marseille","lat":43.27346,"lon":5.39102,"is_reserved":false,"is_disabled":false,"rental_uris":{"android":"levelo://app?vid=6a8fc9ff-6867-422d-aa7d-21a00e56554e","ios":"levelo://app?vid=6a8fc9ff-6867-422d-aa7d-21a00e56554e"},"vehicle_type_id":"4","last_reported":1734365535,"current_range_meters":3200,"station_id":"ce4bhgp2rcd13ifvqfe0","pricing_plan_id":"cebpf4jnsgd1na2vs0mg"},{"bike_id":"ba3f42e3-cd58-4396-8367-161560e00f86","system_id":"levelo_inurba_marseille","lat":43.25873,"lon":5.39923,"is_reserved":false,"is_disabled":false,"rental_uris":{"android":"levelo://app?vid=ba3f42e3-cd58-4396-8367-161560e00f86","ios":"levelo://app?vid=ba3f42e3-cd58-4396-8367-161560e00f86"},"vehicle_type_id":"4","last_reported":1734365535,"current_range_meters":38800,"station_id":"ce4bhl92rcd13ifvqghg","pricing_plan_id":"cebpf4jnsgd1na2vs0mg"},{"bike_id":"855ff2b8-19b8-4fb3-bd68-eae7559a4945","system_id":"levelo_inurba_marseille","lat":43.29632,"lon":5.37153,"is_reserved":false,"is_disabled":false,"rental_uris":{"android":"levelo://app?vid=855ff2b8-19b8-4fb3-bd68-eae7559a4945","ios":"levelo://app?vid=855ff2b8-19b8-4fb3-bd68-eae7559a4945"},"vehicle_type_id":"4","last_reported":1734365535,"current_range_meters":38800,"station_id":"ce4bgnh2rcd13ifvqc0g","pricing_plan_id":"cebpf4jnsgd1na2vs0mg"},{"bike_id":"81391304-b451-4119-80ac-f61ef4862eb2","system_id":"levelo_inurba_marseille","lat":43.337444,"lon":5.374475,"is_reserved":false,"is_disabled":true,"rental_uris":{"android":"levelo://app?vid=81391304-b451-4119-80ac-f61ef4862eb2","ios":"levelo://app?vid=81391304-b451-4119-80ac-f61ef4862eb2"},"vehicle_type_id":"4","last_reported":1734365535,"current_range_meters":0,"station_id":"","pricing_plan_id":"cebpf4jnsgd1na2vs0mg"},{"bike_id":"d07ce072-9fa1-44c1-a205-7eba57cf789d","system_id":"levelo_inurba_marseille","lat":43.29608,"lon":5.37719,"is_reserved":false,"is_disabled":false,"rental_uris":{"android":"levelo://app?vid=d07ce072-9fa1-44c1-a205-7eba57cf789d","ios":"levelo://app?vid=d07ce072-9fa1-44c1-a205-7eba57cf789d"},"vehicle_type_id":"4","last_reported":1734365535,"current_range_meters":18000,"station_id":"ce4bgi92rcd13ifvqb90","pricing_plan_id":"cebpf4jnsgd1na2vs0mg"},{"bike_id":"d8ae6b7c-c981-4c70-a21c-bb13552f8641","system_id":"levelo_inurba_marseille","lat":43.30974,"lon":5.37345,"is_reserved":false,"is_disabled":false,"rental_uris":{"android":"levelo://app?vid=d8ae6b7c-c981-4c70-a21c-bb13552f8641","ios":"levelo://app?vid=d8ae6b7c-c981-4c70-a21c-bb13552f8641"},"vehicle_type_id":"4","last_reported":1734365535,"current_range_meters":28000,"station_id":"","pricing_plan_id":"cebpf4jnsgd1na2vs0mg"},{"bike_id":"15f71a9f-864d-48de-9d20-f621cbff105e","system_id":"levelo_inurba_marseille","lat":43.2681,"lon":5.4026,"is_reserved":false,"is_disabled":false,"rental_uris":{"android":"levelo://app?vid=15f71a9f-864d-48de-9d20-f621cbff105e","ios":"levelo://app?vid=15f71a9f-864d-48de-9d20-f621cbff105e"},"vehicle_type_id":"4","last_reported":1734365535,"current_range_meters":25200,"station_id":"ce501612rcd8frsf0b60","pricing_plan_id":"cebpf4jnsgd1na2vs0mg"},{"bike_id":"d9378cf5-f9bb-43e1-ab1a-90bee942b89c","system_id":"levelo_inurba_marseille","lat":43.32058,"lon":5.41538,"is_reserved":false,"is_disabled":false,"rental_uris":{"android":"levelo://app?vid=d9378cf5-f9bb-43e1-ab1a-90bee942b89c","ios":"levelo://app?vid=d9378cf5-f9bb-43e1-ab1a-90bee942b89c"},"vehicle_type_id":"4","last_reported":1734365535,"current_range_meters":22800,"station_id":"ce4bhq92rcd13ifvqhkg","pricing_plan_id":"cebpf4jnsgd1na2vs0mg"},{"bike_id":"72b8a19f-950c-483a-bd81-5a134afcbaea","system_id":"levelo_inurba_marseille","lat":43.33721,"lon":5.39187,"is_reserved":false,"is_disabled":false,"rental_uris":{"android":"levelo://app?vid=72b8a19f-950c-483a-bd81-5a134afcbaea","ios":"levelo://app?vid=72b8a19f-950c-483a-bd81-5a134afcbaea"},"vehicle_type_id":"4","last_reported":1734365535,"current_range_meters":38800,"station_id":"ce4bhr92rcd13ifvqhsg","pricing_plan_id":"cebpf4jnsgd1na2vs0mg"},{"bike_id":"75fde52f-895b-44d0-9d5d-9be117d96ad8","system_id":"levelo_inurba_marseille","lat":43.30895,"lon":5.39641,"is_reserved":false,"is_disabled":false,"rental_uris":{"android":"levelo://app?vid=75fde52f-895b-44d0-9d5d-9be117d96ad8","ios":"levelo://app?vid=75fde52f-895b-44d0-9d5d-9be117d96ad8"},"vehicle_type_id":"4","last_reported":1734365535,"current_range_meters":32400,"station_id":"ce4bh012rcd13ifvqcv0","pricing_plan_id":"cebpf4jnsgd1na2vs0mg"},{"bike_id":"292c5384-5cbc-42ad-a943-7c6df57099c1","system_id":"levelo_inurba_marseille","lat":43.29607,"lon":5.38097,"is_reserved":false,"is_disabled":false,"rental_uris":{"android":"levelo://app?vid=292c5384-5cbc-42ad-a943-7c6df57099c1","ios":"levelo://app?vid=292c5384-5cbc-42ad-a943-7c6df57099c1"},"vehicle_type_id":"4","last_reported":1734365535,"current_range_meters":8000,"station_id":"ce4bgl12rcd13ifvqbo0","pricing_plan_id":"cebpf4jnsgd1na2vs0mg"},{"bike_id":"1591dede-887b-41d4-b3a1-452ef5328a4f","system_id":"levelo_inurba_marseille","lat":43.29552,"lon":5.42286,"is_reserved":false,"is_disabled":false,"rental_uris":{"android":"levelo://app?vid=1591dede-887b-41d4-b3a1-452ef5328a4f","ios":"levelo://app?vid=1591dede-887b-41d4-b3a1-452ef5328a4f"},"vehicle_type_id":"4","last_reported":1734365535,"current_range_meters":39200,"station_id":"ce4bhph2rcd13ifvqhdg","pricing_plan_id":"cebpf4jnsgd1na2vs0mg"},{"bike_id":"6d508ea7-1740-47db-a8c4-e7c1f75d5945","system_id":"levelo_inurba_marseille","lat":43.26945,"lon":5.38628,"is_reserved":false,"is_disabled":true,"rental_uris":{"android":"levelo://app?vid=6d508ea7-1740-47db-a8c4-e7c1f75d5945","ios":"levelo://app?vid=6d508ea7-1740-47db-a8c4-e7c1f75d5945"},"vehicle_type_id":"4","last_reported":1734365535,"current_range_meters":0,"station_id":"ce4bhh92rcd13ifvqfh0","pricing_plan_id":"cebpf4jnsgd1na2vs0mg"},{"bike_id":"83847b59-4e95-4b65-8724-c7049dbfa1d4","system_id":"levelo_inurba_marseille","lat":43.31268,"lon":5.40171,"is_reserved":false,"is_disabled":false,"rental_uris":{"android":"levelo://app?vid=83847b59-4e95-4b65-8724-c7049dbfa1d4","ios":"levelo://app?vid=83847b59-4e95-4b65-8724-c7049dbfa1d4"},"vehicle_type_id":"4","last_reported":1734365535,"current_range_meters":22400,"station_id":"ce4bh092rcd13ifvqd30","pricing_plan_id":"cebpf4jnsgd1na2vs0mg"},{"bike_id":"2fd35e3f-a30b-4e59-bdcf-acab4694b69f","system_id":"levelo_inurba_marseille","lat":43.27425,"lon":5.39406,"is_reserved":false,"is_disabled":false,"rental_uris":{"android":"levelo://app?vid=2fd35e3f-a30b-4e59-bdcf-acab4694b69f","ios":"levelo://app?vid=2fd35e3f-a30b-4e59-bdcf-acab4694b69f"},"vehicle_type_id":"4","last_reported":1734365535,"current_range_meters":36800,"station_id":"ce4bhdp2rcd13ifvqf20","pricing_plan_id":"cebpf4jnsgd1na2vs0mg"},{"bike_id":"dc29da33-6bba-4ec1-8aff-5e63b5dd4a23","system_id":"levelo_inurba_marseille","lat":43.24668,"lon":5.3897,"is_reserved":false,"is_disabled":false,"rental_uris":{"android":"levelo://app?vid=dc29da33-6bba-4ec1-8aff-5e63b5dd4a23","ios":"levelo://app?vid=dc29da33-6bba-4ec1-8aff-5e63b5dd4a23"},"vehicle_type_id":"4","last_reported":1734365535,"current_range_meters":18800,"station_id":"ce4bhg12rcd13ifvqf60","pricing_plan_id":"cebpf4jnsgd1na2vs0mg"},{"bike_id":"26579991-0e4b-445a-93aa-31ab44d1afae","system_id":"levelo_inurba_marseille","lat":43.33617,"lon":5.41005,"is_reserved":false,"is_disabled":true,"rental_uris":{"android":"levelo://app?vid=26579991-0e4b-445a-93aa-31ab44d1afae","ios":"levelo://app?vid=26579991-0e4b-445a-93aa-31ab44d1afae"},"vehicle_type_id":"4","last_reported":1734365535,"current_range_meters":38400,"station_id":"ce4bhqh2rcd13ifvqhmg","pricing_plan_id":"cebpf4jnsgd1na2vs0mg"},{"bike_id":"33c7bbdf-5cb2-4f17-81d2-da9f727634e9","system_id":"levelo_inurba_marseille","lat":43.23164,"lon":5.43694,"is_reserved":false,"is_disabled":true,"rental_uris":{"android":"levelo://app?vid=33c7bbdf-5cb2-4f17-81d2-da9f727634e9","ios":"levelo://app?vid=33c7bbdf-5cb2-4f17-81d2-da9f727634e9"},"vehicle_type_id":"4","last_reported":1734365535,"current_range_meters":0,"station_id":"ce4bhmp2rcd13ifvqgog","pricing_plan_id":"cebpf4jnsgd1na2vs0mg"},{"bike_id":"c1f2f608-52c4-4bfc-9fa5-8849aa0a4af5","system_id":"levelo_inurba_marseille","lat":43.27818,"lon":5.40711,"is_reserved":false,"is_disabled":false,"rental_uris":{"android":"levelo://app?vid=c1f2f608-52c4-4bfc-9fa5-8849aa0a4af5","ios":"levelo://app?vid=c1f2f608-52c4-4bfc-9fa5-8849aa0a4af5"},"vehicle_type_id":"4","last_reported":1734365535,"current_range_meters":37600,"station_id":"ce4bhnh2rcd13ifvqgtg","pricing_plan_id":"cebpf4jnsgd1na2vs0mg"},{"bike_id":"4cd4a959-8ab7-4639-82cb-ca6131f2c27f","system_id":"levelo_inurba_marseille","lat":43.28159,"lon":5.42641,"is_reserved":false,"is_disabled":false,"rental_uris":{"android":"levelo://app?vid=4cd4a959-8ab7-4639-82cb-ca6131f2c27f","ios":"levelo://app?vid=4cd4a959-8ab7-4639-82cb-ca6131f2c27f"},"vehicle_type_id":"4","last_reported":1734365535,"current_range_meters":33200,"station_id":"ce4bhnh2rcd13ifvqgug","pricing_plan_id":"cebpf4jnsgd1na2vs0mg"},{"bike_id":"dee21283-4521-4c1a-b53d-9510ded6ec60","system_id":"levelo_inurba_marseille","lat":43.23969,"lon":5.36639,"is_reserved":false,"is_disabled":false,"rental_uris":{"android":"levelo://app?vid=dee21283-4521-4c1a-b53d-9510ded6ec60","ios":"levelo://app?vid=dee21283-4521-4c1a-b53d-9510ded6ec60"},"vehicle_type_id":"4","last_reported":1734365535,"current_range_meters":38800,"station_id":"ce4bhi12rcd13ifvqfp0","pricing_plan_id":"cebpf4jnsgd1na2vs0mg"},{"bike_id":"1012753e-7bc0-44fd-a4d6-df7e280e8ee8","system_id":"levelo_inurba_marseille","lat":43.32488,"lon":5.36548,"is_reserved":false,"is_disabled":false,"rental_uris":{"android":"levelo://app?vid=1012753e-7bc0-44fd-a4d6-df7e280e8ee8","ios":"levelo://app?vid=1012753e-7bc0-44fd-a4d6-df7e280e8ee8"},"vehicle_type_id":"4","last_reported":1734365535,"current_range_meters":29600,"station_id":"ce4bhs12rcd13ifvqhvg","pricing_plan_id":"cebpf4jnsgd1na2vs0mg"},{"bike_id":"d73e2f90-cb05-4208-9e7d-881ba02830d2","system_id":"levelo_inurba_marseille","lat":43.29558,"lon":5.42292,"is_reserved":false,"is_disabled":false,"rental_uris":{"android":"levelo://app?vid=d73e2f90-cb05-4208-9e7d-881ba02830d2","ios":"levelo://app?vid=d73e2f90-cb05-4208-9e7d-881ba02830d2"},"vehicle_type_id":"4","last_reported":1734365535,"current_range_meters":15200,"station_id":"ce4bhph2rcd13ifvqhdg","pricing_plan_id":"cebpf4jnsgd1na2vs0mg"},{"bike_id":"e132ec11-ed4b-45b2-86f1-cd8587e424cc","system_id":"levelo_inurba_marseille","lat":43.28154,"lon":5.4265,"is_reserved":false,"is_disabled":false,"rental_uris":{"android":"levelo://app?vid=e132ec11-ed4b-45b2-86f1-cd8587e424cc","ios":"levelo://app?vid=e132ec11-ed4b-45b2-86f1-cd8587e424cc"},"vehicle_type_id":"4","last_reported":1734365535,"current_range_meters":38800,"station_id":"ce4bhnh2rcd13ifvqgug","pricing_plan_id":"cebpf4jnsgd1na2vs0mg"},{"bike_id":"53c7c0a7-9095-462a-b5c9-22aa956f82ef","system_id":"levelo_inurba_marseille","lat":43.29841,"lon":5.36271,"is_reserved":false,"is_disabled":false,"rental_uris":{"android":"levelo://app?vid=53c7c0a7-9095-462a-b5c9-22aa956f82ef","ios":"levelo://app?vid=53c7c0a7-9095-462a-b5c9-22aa956f82ef"},"vehicle_type_id":"4","last_reported":1734365535,"current_range_meters":35600,"station_id":"ce4bgpp2rcd13ifvqc3g","pricing_plan_id":"cebpf4jnsgd1na2vs0mg"},{"bike_id":"54a87d25-9b00-4e29-abab-d45604906a44","system_id":"levelo_inurba_marseille","lat":43.27054,"lon":5.40262,"is_reserved":false,"is_disabled":false,"rental_uris":{"android":"levelo://app?vid=54a87d25-9b00-4e29-abab-d45604906a44","ios":"levelo://app?vid=54a87d25-9b00-4e29-abab-d45604906a44"},"vehicle_type_id":"4","last_reported":1734365535,"current_range_meters":3200,"station_id":"ce4bhk92rcd13ifvqgc0","pricing_plan_id":"cebpf4jnsgd1na2vs0mg"},{"bike_id":"74eb31e2-fbda-4add-b068-399caff4d971","system_id":"levelo_inurba_marseille","lat":43.29696,"lon":5.3662,"is_reserved":false,"is_disabled":false,"rental_uris":{"android":"levelo://app?vid=74eb31e2-fbda-4add-b068-399caff4d971","ios":"levelo://app?vid=74eb31e2-fbda-4add-b068-399caff4d971"},"vehicle_type_id":"4","last_reported":1734365535,"current_range_meters":6400,"station_id":"ce4bgn12rcd13ifvqbt0","pricing_plan_id":"cebpf4jnsgd1na2vs0mg"},{"bike_id":"468487ac-d430-43ae-923b-69dc50474470","system_id":"levelo_inurba_marseille","lat":43.27071,"lon":5.42282,"is_reserved":false,"is_disabled":false,"rental_uris":{"android":"levelo://app?vid=468487ac-d430-43ae-923b-69dc50474470","ios":"levelo://app?vid=468487ac-d430-43ae-923b-69dc50474470"},"vehicle_type_id":"4","last_reported":1734365535,"current_range_meters":16000,"station_id":"ce4bhk92rcd13ifvqgb0","pricing_plan_id":"cebpf4jnsgd1na2vs0mg"},{"bike_id":"026f0ae5-8686-448f-bb9f-701b34a7ac3d","system_id":"levelo_inurba_marseille","lat":43.3106,"lon":5.38358,"is_reserved":false,"is_disabled":true,"rental_uris":{"android":"levelo://app?vid=026f0ae5-8686-448f-bb9f-701b34a7ac3d","ios":"levelo://app?vid=026f0ae5-8686-448f-bb9f-701b34a7ac3d"},"vehicle_type_id":"4","last_reported":1734365535,"current_range_meters":0,"station_id":"ce4bgv92rcd13ifvqcr0","pricing_plan_id":"cebpf4jnsgd1na2vs0mg"},{"bike_id":"99b649e3-99f0-41ed-8158-2c4d1cd98c74","system_id":"levelo_inurba_marseille","lat":43.31484,"lon":5.37305,"is_reserved":false,"is_disabled":false,"rental_uris":{"android":"levelo://app?vid=99b649e3-99f0-41ed-8158-2c4d1cd98c74","ios":"levelo://app?vid=99b649e3-99f0-41ed-8158-2c4d1cd98c74"},"vehicle_type_id":"4","last_reported":1734365535,"current_range_meters":36000,"station_id":"ce4bgt12rcd13ifvqcd0","pricing_plan_id":"cebpf4jnsgd1na2vs0mg"},{"bike_id":"3c4cfa80-caff-42e4-b530-3c27bd3d8583","system_id":"levelo_inurba_marseille","lat":43.28098,"lon":5.37714,"is_reserved":false,"is_disabled":false,"rental_uris":{"android":"levelo://app?vid=3c4cfa80-caff-42e4-b530-3c27bd3d8583","ios":"levelo://app?vid=3c4cfa80-caff-42e4-b530-3c27bd3d8583"},"vehicle_type_id":"4","last_reported":1734365535,"current_range_meters":26800,"station_id":"","pricing_plan_id":"cebpf4jnsgd1na2vs0mg"},{"bike_id":"6f99cfb1-4da5-4fd8-a66c-ecbba4c17f17","system_id":"levelo_inurba_marseille","lat":43.29284,"lon":5.40121,"is_reserved":false,"is_disabled":true,"rental_uris":{"android":"levelo://app?vid=6f99cfb1-4da5-4fd8-a66c-ecbba4c17f17","ios":"levelo://app?vid=6f99cfb1-4da5-4fd8-a66c-ecbba4c17f17"},"vehicle_type_id":"4","last_reported":1734365535,"current_range_meters":2000,"station_id":"ce4bh312rcd13ifvqdk0","pricing_plan_id":"cebpf4jnsgd1na2vs0mg"},{"bike_id":"1ca8841b-54dc-4e49-bc1d-e9ff6b338144","system_id":"levelo_inurba_marseille","lat":43.30535,"lon":5.38427,"is_reserved":false,"is_disabled":false,"rental_uris":{"android":"levelo://app?vid=1ca8841b-54dc-4e49-bc1d-e9ff6b338144","ios":"levelo://app?vid=1ca8841b-54dc-4e49-bc1d-e9ff6b338144"},"vehicle_type_id":"4","last_reported":1734365535,"current_range_meters":30000,"station_id":"ce4bgg92rcd13ifvqb30","pricing_plan_id":"cebpf4jnsgd1na2vs0mg"},{"bike_id":"42f7d856-99f6-4b0b-a3e4-1308f35bdaf5","system_id":"levelo_inurba_marseille","lat":43.30613,"lon":5.37254,"is_reserved":false,"is_disabled":false,"rental_uris":{"android":"levelo://app?vid=42f7d856-99f6-4b0b-a3e4-1308f35bdaf5","ios":"levelo://app?vid=42f7d856-99f6-4b0b-a3e4-1308f35bdaf5"},"vehicle_type_id":"4","last_reported":1734365535,"current_range_meters":38800,"station_id":"ce4bgqh2rcd13ifvqc4g","pricing_plan_id":"cebpf4jnsgd1na2vs0mg"},{"bike_id":"c39b3f33-4c8b-41f7-b2f1-d64c26b0e4bd","system_id":"levelo_inurba_marseille","lat":43.28474,"lon":5.43844,"is_reserved":false,"is_disabled":true,"rental_uris":{"android":"levelo://app?vid=c39b3f33-4c8b-41f7-b2f1-d64c26b0e4bd","ios":"levelo://app?vid=c39b3f33-4c8b-41f7-b2f1-d64c26b0e4bd"},"vehicle_type_id":"4","last_reported":1734365535,"current_range_meters":0,"station_id":"","pricing_plan_id":"cebpf4jnsgd1na2vs0mg"},{"bike_id":"b68c698b-20ba-4ee3-8db8-d69e8bd3d589","system_id":"levelo_inurba_marseille","lat":43.28083,"lon":5.39655,"is_reserved":false,"is_disabled":false,"rental_uris":{"android":"levelo://app?vid=b68c698b-20ba-4ee3-8db8-d69e8bd3d589","ios":"levelo://app?vid=b68c698b-20ba-4ee3-8db8-d69e8bd3d589"},"vehicle_type_id":"4","last_reported":1734365535,"current_range_meters":24000,"station_id":"ce4bho12rcd13ifvqh2g","pricing_plan_id":"cebpf4jnsgd1na2vs0mg"},{"bike_id":"dbcbba1c-5011-446c-bd9e-e7bbefd18519","system_id":"levelo_inurba_marseille","lat":43.2509,"lon":5.39523,"is_reserved":false,"is_disabled":false,"rental_uris":{"android":"levelo://app?vid=dbcbba1c-5011-446c-bd9e-e7bbefd18519","ios":"levelo://app?vid=dbcbba1c-5011-446c-bd9e-e7bbefd18519"},"vehicle_type_id":"4","last_reported":1734365535,"current_range_meters":19200,"station_id":"ce4bhm12rcd13ifvqgkg","pricing_plan_id":"cebpf4jnsgd1na2vs0mg"},{"bike_id":"e30b9a9b-26ec-467e-83b2-e3fc0d0a2b96","system_id":"levelo_inurba_marseille","lat":43.28407,"lon":5.34963,"is_reserved":false,"is_disabled":false,"rental_uris":{"android":"levelo://app?vid=e30b9a9b-26ec-467e-83b2-e3fc0d0a2b96","ios":"levelo://app?vid=e30b9a9b-26ec-467e-83b2-e3fc0d0a2b96"},"vehicle_type_id":"4","last_reported":1734365535,"current_range_meters":14800,"station_id":"ce4bhbh2rcd13ifvqepg","pricing_plan_id":"cebpf4jnsgd1na2vs0mg"},{"bike_id":"f4420437-f888-4a35-94aa-ef10a7d130f6","system_id":"levelo_inurba_marseille","lat":43.30138,"lon":5.39859,"is_reserved":false,"is_disabled":true,"rental_uris":{"android":"levelo://app?vid=f4420437-f888-4a35-94aa-ef10a7d130f6","ios":"levelo://app?vid=f4420437-f888-4a35-94aa-ef10a7d130f6"},"vehicle_type_id":"4","last_reported":1734365535,"current_range_meters":0,"station_id":"ce4bh0h2rcd13ifvqd40","pricing_plan_id":"cebpf4jnsgd1na2vs0mg"},{"bike_id":"5ffc39a5-7a4a-499e-9e1b-f06fcbe47d21","system_id":"levelo_inurba_marseille","lat":43.25718,"lon":5.41121,"is_reserved":false,"is_disabled":false,"rental_uris":{"android":"levelo://app?vid=5ffc39a5-7a4a-499e-9e1b-f06fcbe47d21","ios":"levelo://app?vid=5ffc39a5-7a4a-499e-9e1b-f06fcbe47d21"},"vehicle_type_id":"4","last_reported":1734365535,"current_range_meters":38800,"station_id":"ce4bhkp2rcd13ifvqgd0","pricing_plan_id":"cebpf4jnsgd1na2vs0mg"},{"bike_id":"511ddfbb-524e-4cca-a9e4-434948c7cc45","system_id":"levelo_inurba_marseille","lat":43.27312,"lon":5.3908,"is_reserved":false,"is_disabled":true,"rental_uris":{"android":"levelo://app?vid=511ddfbb-524e-4cca-a9e4-434948c7cc45","ios":"levelo://app?vid=511ddfbb-524e-4cca-a9e4-434948c7cc45"},"vehicle_type_id":"4","last_reported":1734365535,"current_range_meters":0,"station_id":"ce4bhgp2rcd13ifvqfe0","pricing_plan_id":"cebpf4jnsgd1na2vs0mg"},{"bike_id":"232ae6c1-4156-48fa-b885-131e0552ef9d","system_id":"levelo_inurba_marseille","lat":43.31767,"lon":5.39015,"is_reserved":false,"is_disabled":false,"rental_uris":{"android":"levelo://app?vid=232ae6c1-4156-48fa-b885-131e0552ef9d","ios":"levelo://app?vid=232ae6c1-4156-48fa-b885-131e0552ef9d"},"vehicle_type_id":"4","last_reported":1734365535,"current_range_meters":11200,"station_id":"ce4bhqp2rcd13ifvqhng","pricing_plan_id":"cebpf4jnsgd1na2vs0mg"},{"bike_id":"f11453c4-8d88-42d8-b95d-dd1004e1caa7","system_id":"levelo_inurba_marseille","lat":43.29906,"lon":5.38133,"is_reserved":false,"is_disabled":false,"rental_uris":{"android":"levelo://app?vid=f11453c4-8d88-42d8-b95d-dd1004e1caa7","ios":"levelo://app?vid=f11453c4-8d88-42d8-b95d-dd1004e1caa7"},"vehicle_type_id":"4","last_reported":1734365535,"current_range_meters":24800,"station_id":"ce4bgj12rcd13ifvqbc0","pricing_plan_id":"cebpf4jnsgd1na2vs0mg"},{"bike_id":"01855138-f013-45a3-9d99-3819c8120925","system_id":"levelo_inurba_marseille","lat":43.23194,"lon":5.35547,"is_reserved":false,"is_disabled":false,"rental_uris":{"android":"levelo://app?vid=01855138-f013-45a3-9d99-3819c8120925","ios":"levelo://app?vid=01855138-f013-45a3-9d99-3819c8120925"},"vehicle_type_id":"4","last_reported":1734365535,"current_range_meters":39200,"station_id":"ce4bhu92rcd13ifvqi70","pricing_plan_id":"cebpf4jnsgd1na2vs0mg"},{"bike_id":"ea2c5bbb-387a-4727-825c-b6871c255ded","system_id":"levelo_inurba_marseille","lat":43.31062,"lon":5.38359,"is_reserved":false,"is_disabled":false,"rental_uris":{"android":"levelo://app?vid=ea2c5bbb-387a-4727-825c-b6871c255ded","ios":"levelo://app?vid=ea2c5bbb-387a-4727-825c-b6871c255ded"},"vehicle_type_id":"4","last_reported":1734365535,"current_range_meters":8400,"station_id":"ce4bgv92rcd13ifvqcr0","pricing_plan_id":"cebpf4jnsgd1na2vs0mg"},{"bike_id":"3ac363dd-ac40-4eff-81a0-c3b72746b35c","system_id":"levelo_inurba_marseille","lat":43.337444,"lon":5.374475,"is_reserved":false,"is_disabled":true,"rental_uris":{"android":"levelo://app?vid=3ac363dd-ac40-4eff-81a0-c3b72746b35c","ios":"levelo://app?vid=3ac363dd-ac40-4eff-81a0-c3b72746b35c"},"vehicle_type_id":"4","last_reported":1734365535,"current_range_meters":0,"station_id":"","pricing_plan_id":"cebpf4jnsgd1na2vs0mg"},{"bike_id":"e7710428-ab62-4ba2-aa0a-18c4368ff8dc","system_id":"levelo_inurba_marseille","lat":43.29832,"lon":5.40091,"is_reserved":false,"is_disabled":false,"rental_uris":{"android":"levelo://app?vid=e7710428-ab62-4ba2-aa0a-18c4368ff8dc","ios":"levelo://app?vid=e7710428-ab62-4ba2-aa0a-18c4368ff8dc"},"vehicle_type_id":"4","last_reported":1734365535,"current_range_meters":28400,"station_id":"","pricing_plan_id":"cebpf4jnsgd1na2vs0mg"},{"bike_id":"c144cd72-0947-48ea-bdb2-a3399b2dc3f9","system_id":"levelo_inurba_marseille","lat":43.3237,"lon":5.38885,"is_reserved":false,"is_disabled":false,"rental_uris":{"android":"levelo://app?vid=c144cd72-0947-48ea-bdb2-a3399b2dc3f9","ios":"levelo://app?vid=c144cd72-0947-48ea-bdb2-a3399b2dc3f9"},"vehicle_type_id":"4","last_reported":1734365535,"current_range_meters":25600,"station_id":"ce4bhqp2rcd13ifvqhog","pricing_plan_id":"cebpf4jnsgd1na2vs0mg"},{"bike_id":"74d18653-cc75-4916-98c0-be17db4e369e","system_id":"levelo_inurba_marseille","lat":43.27831,"lon":5.39208,"is_reserved":false,"is_disabled":false,"rental_uris":{"android":"levelo://app?vid=74d18653-cc75-4916-98c0-be17db4e369e","ios":"levelo://app?vid=74d18653-cc75-4916-98c0-be17db4e369e"},"vehicle_type_id":"4","last_reported":1734365535,"current_range_meters":10000,"station_id":"ce4bhjp2rcd13ifvqga0","pricing_plan_id":"cebpf4jnsgd1na2vs0mg"},{"bike_id":"0f3c6969-5211-4c4a-bb1e-76909c535537","system_id":"levelo_inurba_marseille","lat":43.2885,"lon":5.35855,"is_reserved":false,"is_disabled":false,"rental_uris":{"android":"levelo://app?vid=0f3c6969-5211-4c4a-bb1e-76909c535537","ios":"levelo://app?vid=0f3c6969-5211-4c4a-bb1e-76909c535537"},"vehicle_type_id":"4","last_reported":1734365535,"current_range_meters":28400,"station_id":"ce4bhb12rcd13ifvqem0","pricing_plan_id":"cebpf4jnsgd1na2vs0mg"},{"bike_id":"01ae3b92-9173-4be7-9935-c5b867759b74","system_id":"levelo_inurba_marseille","lat":43.23188,"lon":5.35554,"is_reserved":false,"is_disabled":false,"rental_uris":{"android":"levelo://app?vid=01ae3b92-9173-4be7-9935-c5b867759b74","ios":"levelo://app?vid=01ae3b92-9173-4be7-9935-c5b867759b74"},"vehicle_type_id":"4","last_reported":1734365535,"current_range_meters":6400,"station_id":"ce4bhu92rcd13ifvqi70","pricing_plan_id":"cebpf4jnsgd1na2vs0mg"},{"bike_id":"ef8aadda-c2e6-46a1-9c16-d446d1cf639e","system_id":"levelo_inurba_marseille","lat":43.292569,"lon":5.384513,"is_reserved":false,"is_disabled":false,"rental_uris":{"android":"levelo://app?vid=ef8aadda-c2e6-46a1-9c16-d446d1cf639e","ios":"levelo://app?vid=ef8aadda-c2e6-46a1-9c16-d446d1cf639e"},"vehicle_type_id":"4","last_reported":1734365535,"current_range_meters":24000,"station_id":"","pricing_plan_id":"cebpf4jnsgd1na2vs0mg"},{"bike_id":"41bc05c2-8ec3-4056-9ad8-a7362b804b8c","system_id":"levelo_inurba_marseille","lat":43.27315,"lon":5.39075,"is_reserved":false,"is_disabled":false,"rental_uris":{"android":"levelo://app?vid=41bc05c2-8ec3-4056-9ad8-a7362b804b8c","ios":"levelo://app?vid=41bc05c2-8ec3-4056-9ad8-a7362b804b8c"},"vehicle_type_id":"4","last_reported":1734365535,"current_range_meters":17200,"station_id":"ce4bhgp2rcd13ifvqfe0","pricing_plan_id":"cebpf4jnsgd1na2vs0mg"},{"bike_id":"95cdb95c-998d-491d-8b0d-022da6848f23","system_id":"levelo_inurba_marseille","lat":43.27821,"lon":5.40713,"is_reserved":false,"is_disabled":false,"rental_uris":{"android":"levelo://app?vid=95cdb95c-998d-491d-8b0d-022da6848f23","ios":"levelo://app?vid=95cdb95c-998d-491d-8b0d-022da6848f23"},"vehicle_type_id":"4","last_reported":1734365535,"current_range_meters":34800,"station_id":"ce4bhnh2rcd13ifvqgtg","pricing_plan_id":"cebpf4jnsgd1na2vs0mg"},{"bike_id":"b068654d-e04e-489d-a2bd-4a14968d35e0","system_id":"levelo_inurba_marseille","lat":43.280784,"lon":5.396651,"is_reserved":false,"is_disabled":false,"rental_uris":{"android":"levelo://app?vid=b068654d-e04e-489d-a2bd-4a14968d35e0","ios":"levelo://app?vid=b068654d-e04e-489d-a2bd-4a14968d35e0"},"vehicle_type_id":"4","last_reported":1734365535,"current_range_meters":39200,"station_id":"ce4bho12rcd13ifvqh2g","pricing_plan_id":"cebpf4jnsgd1na2vs0mg"},{"bike_id":"2e3fb960-a885-4b78-8a91-802d1745b2f3","system_id":"levelo_inurba_marseille","lat":43.27324,"lon":5.39128,"is_reserved":false,"is_disabled":false,"rental_uris":{"android":"levelo://app?vid=2e3fb960-a885-4b78-8a91-802d1745b2f3","ios":"levelo://app?vid=2e3fb960-a885-4b78-8a91-802d1745b2f3"},"vehicle_type_id":"4","last_reported":1734365535,"current_range_meters":16400,"station_id":"ce4bhgp2rcd13ifvqfe0","pricing_plan_id":"cebpf4jnsgd1na2vs0mg"},{"bike_id":"aca65e22-6476-4cf5-80e2-74e45a01b2cc","system_id":"levelo_inurba_marseille","lat":43.28289,"lon":5.35071,"is_reserved":false,"is_disabled":false,"rental_uris":{"android":"levelo://app?vid=aca65e22-6476-4cf5-80e2-74e45a01b2cc","ios":"levelo://app?vid=aca65e22-6476-4cf5-80e2-74e45a01b2cc"},"vehicle_type_id":"4","last_reported":1734365535,"current_range_meters":26800,"station_id":"ce4bhbp2rcd13ifvqerg","pricing_plan_id":"cebpf4jnsgd1na2vs0mg"},{"bike_id":"1106dda1-b5c0-4a2f-bd2a-cda9021f3625","system_id":"levelo_inurba_marseille","lat":43.28572,"lon":5.39491,"is_reserved":false,"is_disabled":false,"rental_uris":{"android":"levelo://app?vid=1106dda1-b5c0-4a2f-bd2a-cda9021f3625","ios":"levelo://app?vid=1106dda1-b5c0-4a2f-bd2a-cda9021f3625"},"vehicle_type_id":"4","last_reported":1734365535,"current_range_meters":29600,"station_id":"ce4bh292rcd13ifvqdg0","pricing_plan_id":"cebpf4jnsgd1na2vs0mg"},{"bike_id":"ae9101da-db7d-4786-af14-880a370243ea","system_id":"levelo_inurba_marseille","lat":43.232,"lon":5.35554,"is_reserved":false,"is_disabled":false,"rental_uris":{"android":"levelo://app?vid=ae9101da-db7d-4786-af14-880a370243ea","ios":"levelo://app?vid=ae9101da-db7d-4786-af14-880a370243ea"},"vehicle_type_id":"4","last_reported":1734365535,"current_range_meters":9600,"station_id":"ce4bhu92rcd13ifvqi70","pricing_plan_id":"cebpf4jnsgd1na2vs0mg"},{"bike_id":"1e926599-53d8-4166-ba63-1add69354e53","system_id":"levelo_inurba_marseille","lat":43.26061,"lon":5.39399,"is_reserved":false,"is_disabled":false,"rental_uris":{"android":"levelo://app?vid=1e926599-53d8-4166-ba63-1add69354e53","ios":"levelo://app?vid=1e926599-53d8-4166-ba63-1add69354e53"},"vehicle_type_id":"4","last_reported":1734365535,"current_range_meters":32000,"station_id":"ce4bhh92rcd13ifvqfj0","pricing_plan_id":"cebpf4jnsgd1na2vs0mg"},{"bike_id":"85d29376-255b-4458-acfe-f32fd51e6801","system_id":"levelo_inurba_marseille","lat":43.2784,"lon":5.39207,"is_reserved":false,"is_disabled":false,"rental_uris":{"android":"levelo://app?vid=85d29376-255b-4458-acfe-f32fd51e6801","ios":"levelo://app?vid=85d29376-255b-4458-acfe-f32fd51e6801"},"vehicle_type_id":"4","last_reported":1734365535,"current_range_meters":36000,"station_id":"ce4bhjp2rcd13ifvqga0","pricing_plan_id":"cebpf4jnsgd1na2vs0mg"},{"bike_id":"b21f3b6d-615f-4d96-a792-424d7672b967","system_id":"levelo_inurba_marseille","lat":43.27172,"lon":5.40997,"is_reserved":false,"is_disabled":false,"rental_uris":{"android":"levelo://app?vid=b21f3b6d-615f-4d96-a792-424d7672b967","ios":"levelo://app?vid=b21f3b6d-615f-4d96-a792-424d7672b967"},"vehicle_type_id":"4","last_reported":1734365535,"current_range_meters":33600,"station_id":"ce4bhl12rcd13ifvqgf0","pricing_plan_id":"cebpf4jnsgd1na2vs0mg"},{"bike_id":"0ef0619c-72bd-4820-945b-1947d7b3fa7f","system_id":"levelo_inurba_marseille","lat":43.28661,"lon":5.36343,"is_reserved":false,"is_disabled":false,"rental_uris":{"android":"levelo://app?vid=0ef0619c-72bd-4820-945b-1947d7b3fa7f","ios":"levelo://app?vid=0ef0619c-72bd-4820-945b-1947d7b3fa7f"},"vehicle_type_id":"4","last_reported":1734365535,"current_range_meters":20800,"station_id":"ce4bhah2rcd13ifvqej0","pricing_plan_id":"cebpf4jnsgd1na2vs0mg"},{"bike_id":"8b1e537e-c37b-4236-b3bc-e3f0ad4819b3","system_id":"levelo_inurba_marseille","lat":43.309,"lon":5.37193,"is_reserved":false,"is_disabled":true,"rental_uris":{"android":"levelo://app?vid=8b1e537e-c37b-4236-b3bc-e3f0ad4819b3","ios":"levelo://app?vid=8b1e537e-c37b-4236-b3bc-e3f0ad4819b3"},"vehicle_type_id":"4","last_reported":1734365535,"current_range_meters":14400,"station_id":"ce4bguh2rcd13ifvqckg","pricing_plan_id":"cebpf4jnsgd1na2vs0mg"},{"bike_id":"bb1131dd-8e5f-4323-b21a-50d27bbe7103","system_id":"levelo_inurba_marseille","lat":43.24658,"lon":5.3816,"is_reserved":false,"is_disabled":false,"rental_uris":{"android":"levelo://app?vid=bb1131dd-8e5f-4323-b21a-50d27bbe7103","ios":"levelo://app?vid=bb1131dd-8e5f-4323-b21a-50d27bbe7103"},"vehicle_type_id":"4","last_reported":1734365535,"current_range_meters":17600,"station_id":"ce4bhih2rcd13ifvqfr0","pricing_plan_id":"cebpf4jnsgd1na2vs0mg"},{"bike_id":"cedc90ae-6530-4ba4-a854-8230f5df3fc3","system_id":"levelo_inurba_marseille","lat":43.28101,"lon":5.37829,"is_reserved":false,"is_disabled":false,"rental_uris":{"android":"levelo://app?vid=cedc90ae-6530-4ba4-a854-8230f5df3fc3","ios":"levelo://app?vid=cedc90ae-6530-4ba4-a854-8230f5df3fc3"},"vehicle_type_id":"4","last_reported":1734365535,"current_range_meters":24800,"station_id":"ce4bha12rcd13ifvqee0","pricing_plan_id":"cebpf4jnsgd1na2vs0mg"},{"bike_id":"cb3ed8c2-15e7-43dc-a906-9218a3c6d96f","system_id":"levelo_inurba_marseille","lat":43.29183,"lon":5.3581,"is_reserved":false,"is_disabled":false,"rental_uris":{"android":"levelo://app?vid=cb3ed8c2-15e7-43dc-a906-9218a3c6d96f","ios":"levelo://app?vid=cb3ed8c2-15e7-43dc-a906-9218a3c6d96f"},"vehicle_type_id":"4","last_reported":1734365535,"current_range_meters":31200,"station_id":"ce4bhb12rcd13ifvqel0","pricing_plan_id":"cebpf4jnsgd1na2vs0mg"},{"bike_id":"53b2fc56-6262-4859-b44b-bdcf73d54ece","system_id":"levelo_inurba_marseille","lat":43.27425,"lon":5.39418,"is_reserved":false,"is_disabled":false,"rental_uris":{"android":"levelo://app?vid=53b2fc56-6262-4859-b44b-bdcf73d54ece","ios":"levelo://app?vid=53b2fc56-6262-4859-b44b-bdcf73d54ece"},"vehicle_type_id":"4","last_reported":1734365535,"current_range_meters":28000,"station_id":"ce4bhdp2rcd13ifvqf20","pricing_plan_id":"cebpf4jnsgd1na2vs0mg"},{"bike_id":"c53acec9-e800-4f68-ac87-b8f10185200e","system_id":"levelo_inurba_marseille","lat":43.27333,"lon":5.39123,"is_reserved":false,"is_disabled":false,"rental_uris":{"android":"levelo://app?vid=c53acec9-e800-4f68-ac87-b8f10185200e","ios":"levelo://app?vid=c53acec9-e800-4f68-ac87-b8f10185200e"},"vehicle_type_id":"4","last_reported":1734365535,"current_range_meters":24400,"station_id":"ce4bhgp2rcd13ifvqfe0","pricing_plan_id":"cebpf4jnsgd1na2vs0mg"},{"bike_id":"9297c757-11f6-4173-99f7-1208e0159aed","system_id":"levelo_inurba_marseille","lat":43.281124,"lon":5.395986,"is_reserved":false,"is_disabled":false,"rental_uris":{"android":"levelo://app?vid=9297c757-11f6-4173-99f7-1208e0159aed","ios":"levelo://app?vid=9297c757-11f6-4173-99f7-1208e0159aed"},"vehicle_type_id":"4","last_reported":1734365535,"current_range_meters":32400,"station_id":"ce4bho12rcd13ifvqh2g","pricing_plan_id":"cebpf4jnsgd1na2vs0mg"},{"bike_id":"0994e96d-5c60-4b41-bd11-b27a37bf2cbb","system_id":"levelo_inurba_marseille","lat":43.30608,"lon":5.38023,"is_reserved":false,"is_disabled":false,"rental_uris":{"android":"levelo://app?vid=0994e96d-5c60-4b41-bd11-b27a37bf2cbb","ios":"levelo://app?vid=0994e96d-5c60-4b41-bd11-b27a37bf2cbb"},"vehicle_type_id":"4","last_reported":1734365535,"current_range_meters":37600,"station_id":"","pricing_plan_id":"cebpf4jnsgd1na2vs0mg"},{"bike_id":"f115e37f-f867-455d-ae1c-5be6790a05e5","system_id":"levelo_inurba_marseille","lat":43.29855,"lon":5.36281,"is_reserved":false,"is_disabled":false,"rental_uris":{"android":"levelo://app?vid=f115e37f-f867-455d-ae1c-5be6790a05e5","ios":"levelo://app?vid=f115e37f-f867-455d-ae1c-5be6790a05e5"},"vehicle_type_id":"4","last_reported":1734365535,"current_range_meters":25600,"station_id":"ce4bgpp2rcd13ifvqc3g","pricing_plan_id":"cebpf4jnsgd1na2vs0mg"},{"bike_id":"941d5143-d707-488a-bb66-f4ef5f7f9e0e","system_id":"levelo_inurba_marseille","lat":43.241713,"lon":5.363983,"is_reserved":false,"is_disabled":false,"rental_uris":{"android":"levelo://app?vid=941d5143-d707-488a-bb66-f4ef5f7f9e0e","ios":"levelo://app?vid=941d5143-d707-488a-bb66-f4ef5f7f9e0e"},"vehicle_type_id":"4","last_reported":1734365535,"current_range_meters":19600,"station_id":"cpo36qri1sfpv3e86is0","pricing_plan_id":"cebpf4jnsgd1na2vs0mg"},{"bike_id":"1147cb55-d453-4e3d-a748-8390a33e00cd","system_id":"levelo_inurba_marseille","lat":43.30549,"lon":5.36542,"is_reserved":false,"is_disabled":false,"rental_uris":{"android":"levelo://app?vid=1147cb55-d453-4e3d-a748-8390a33e00cd","ios":"levelo://app?vid=1147cb55-d453-4e3d-a748-8390a33e00cd"},"vehicle_type_id":"4","last_reported":1734365535,"current_range_meters":38400,"station_id":"ce4bgs12rcd13ifvqcag","pricing_plan_id":"cebpf4jnsgd1na2vs0mg"},{"bike_id":"3d57555c-a834-45b9-87cb-3f2eff6b77c9","system_id":"levelo_inurba_marseille","lat":43.28424,"lon":5.37511,"is_reserved":false,"is_disabled":false,"rental_uris":{"android":"levelo://app?vid=3d57555c-a834-45b9-87cb-3f2eff6b77c9","ios":"levelo://app?vid=3d57555c-a834-45b9-87cb-3f2eff6b77c9"},"vehicle_type_id":"4","last_reported":1734365535,"current_range_meters":26800,"station_id":"ce4bh412rcd13ifvqds0","pricing_plan_id":"cebpf4jnsgd1na2vs0mg"},{"bike_id":"1083c157-bbd7-4948-a036-7b63126c77c3","system_id":"levelo_inurba_marseille","lat":43.25821,"lon":5.39432,"is_reserved":false,"is_disabled":false,"rental_uris":{"android":"levelo://app?vid=1083c157-bbd7-4948-a036-7b63126c77c3","ios":"levelo://app?vid=1083c157-bbd7-4948-a036-7b63126c77c3"},"vehicle_type_id":"4","last_reported":1734365535,"current_range_meters":24400,"station_id":"ce4bhip2rcd13ifvqft0","pricing_plan_id":"cebpf4jnsgd1na2vs0mg"},{"bike_id":"03b464f8-d338-4c7e-9472-8b54c3b920bc","system_id":"levelo_inurba_marseille","lat":43.30661,"lon":5.40072,"is_reserved":false,"is_disabled":false,"rental_uris":{"android":"levelo://app?vid=03b464f8-d338-4c7e-9472-8b54c3b920bc","ios":"levelo://app?vid=03b464f8-d338-4c7e-9472-8b54c3b920bc"},"vehicle_type_id":"4","last_reported":1734365535,"current_range_meters":27200,"station_id":"ce4bh112rcd13ifvqda0","pricing_plan_id":"cebpf4jnsgd1na2vs0mg"},{"bike_id":"9f5b199f-4b82-432c-8e46-3dfa3d095678","system_id":"levelo_inurba_marseille","lat":43.30876,"lon":5.36795,"is_reserved":false,"is_disabled":true,"rental_uris":{"android":"levelo://app?vid=9f5b199f-4b82-432c-8e46-3dfa3d095678","ios":"levelo://app?vid=9f5b199f-4b82-432c-8e46-3dfa3d095678"},"vehicle_type_id":"4","last_reported":1734365535,"current_range_meters":0,"station_id":"","pricing_plan_id":"cebpf4jnsgd1na2vs0mg"},