{"last_updated":1736982540,"ttl":60,"version":"2.2","data":{"bikes":[{"bike_id":"86945d6f-cb0a-4bce-9a7a-6417e51fc425","system_id":"levelo_inurba_marseille","lat":43.30343,"lon":5.4043,"is_reserved":false,"is_disabled":false,"rental_uris":{"android":"levelo://app?vid=86945d6f-cb0a-4bce-9a7a-6417e51fc425","ios":"levelo://app?vid=86945d6f-cb0a-4bce-9a7a-6417e51fc425"},"vehicle_type_id":"4","last_reported":1736982540,"current_range_meters":38800,"station_id":"ce4bh012rcd13ifvqd10","pricing_plan_id":"cebpf4jnsgd1na2vs0mg"},{"bike_id":"9376bb88-f1e3-485f-99a6-501e6c8c8a51","system_id":"levelo_inurba_marseille","lat":43.31699,"lon":5.37747,"is_reserved":false,"is_disabled":false,"rental_uris":{"android":"levelo://app?vid=9376bb88-f1e3-485f-99a6-501e6c8c8a51","ios":"levelo://app?vid=9376bb88-f1e3-485f-99a6-501e6c8c8a51"},"vehicle_type_id":"4","last_reported":1736982540,"current_range_meters":30400,"station_id":"ce4bgth2rcd13ifvqch0","pricing_plan_id":"cebpf4jnsgd1na2vs0mg"},{"bike_id":"bb2bff4f-1a83-4e7f-9557-c5605347308e","system_id":"levelo_inurba_marseille","lat":43.31758,"lon":5.39022,"is_reserved":false,"is_disabled":false,"rental_uris":{"android":"levelo://app?vid=bb2bff4f-1a83-4e7f-9557-c5605347308e","ios":"levelo://app?vid=bb2bff4f-1a83-4e7f-9557-c5605347308e"},"vehicle_type_id":"4","last_reported":1736982540,"current_range_meters":25200,"station_id":"ce4bhqp2rcd13ifvqhng","pricing_plan_id":"cebpf4jnsgd1na2vs0mg"},{"bike_id":"ca1ed96c-2e01-4b7a-9a66-0ef019564289","system_id":"levelo_inurba_marseille","lat":43.28376,"lon":5.38638,"is_reserved":false,"is_disabled":false,"rental_uris":{"android":"levelo://app?vid=ca1ed96c-2e01-4b7a-9a66-0ef019564289","ios":"levelo://app?vid=ca1ed96c-2e01-4b7a-9a66-0ef019564289"},"vehicle_type_id":"4","last_reported":1736982540,"current_range_meters":38400,"station_id":"ce4bh492rcd13ifvqdvg","pricing_plan_id":"cebpf4jnsgd1na2vs0mg"},{"bike_id":"c4b529d8-64e2-4efa-b320-5de2e667a18d","system_id":"levelo_inurba_marseille","lat":43.3009,"lon":5.3908,"is_reserved":false,"is_disabled":false,"rental_uris":{"android":"levelo://app?vid=c4b529d8-64e2-4efa-b320-5de2e667a18d","ios":"levelo://app?vid=c4b529d8-64e2-4efa-b320-5de2e667a18d"},"vehicle_type_id":"4","last_reported":1736982540,"current_range_meters":7200,"station_id":"ce4bh192rcd13ifvqdb0","pricing_plan_id":"cebpf4jnsgd1na2vs0mg"},{"bike_id":"481bda0e-fe18-4926-a202-e5913cf32d5b","system_id":"levelo_inurba_marseille","lat":43.24655,"lon":5.38904,"is_reserved":false,"is_disabled":false,"rental_uris":{"android":"levelo://app?vid=481bda0e-fe18-4926-a202-e5913cf32d5b","ios":"levelo://app?vid=481bda0e-fe18-4926-a202-e5913cf32d5b"},"vehicle_type_id":"4","last_reported":1736982540,"current_range_meters":32000,"station_id":"ce4bhg12rcd13ifvqf60","pricing_plan_id":"cebpf4jnsgd1na2vs0mg"},{"bike_id":"f3ad909e-5298-4e1c-b615-b28684ff798b","system_id":"levelo_inurba_marseille","lat":43.27971,"lon":5.41681,"is_reserved":false,"is_disabled":false,"rental_uris":{"android":"levelo://app?vid=f3ad909e-5298-4e1c-b615-b28684ff798b","ios":"levelo://app?vid=f3ad909e-5298-4e1c-b615-b28684ff798b"},"vehicle_type_id":"4","last_reported":1736982540,"current_range_meters":38800,"station_id":"ce4bho12rcd13ifvqh1g","pricing_plan_id":"cebpf4jnsgd1na2vs0mg"},{"bike_id":"6d2a11a4-1d4d-4f20-ad3c-b47d5eaff74a","system_id":"levelo_inurba_marseille","lat":43.28353,"lon":5.38091,"is_reserved":false,"is_disabled":false,"rental_uris":{"android":"levelo://app?vid=6d2a11a4-1d4d-4f20-ad3c-b47d5eaff74a","ios":"levelo://app?vid=6d2a11a4-1d4d-4f20-ad3c-b47d5eaff74a"},"vehicle_type_id":"4","last_reported":1736982540,"current_range_meters":38800,"station_id":"ce4bh412rcd13ifvqdr0","pricing_plan_id":"cebpf4jnsgd1na2vs0mg"},{"bike_id":"6d540c0f-98a4-4311-9d97-d8f4a0c4b88a","system_id":"levelo_inurba_marseille","lat":43.231948,"lon":5.399766,"is_reserved":false,"is_disabled":false,"rental_uris":{"android":"levelo://app?vid=6d540c0f-98a4-4311-9d97-d8f4a0c4b88a","ios":"levelo://app?vid=6d540c0f-98a4-4311-9d97-d8f4a0c4b88a"},"vehicle_type_id":"4","last_reported":1736982540,"current_range_meters":22000,"station_id":"ce4bhn12rcd13ifvqgqg","pricing_plan_id":"cebpf4jnsgd1na2vs0mg"},{"bike_id":"b80161e1-2168-4ade-a2d2-f1956561ac66","system_id":"levelo_inurba_marseille","lat":43.25867,"lon":5.39911,"is_reserved":false,"is_disabled":false,"rental_uris":{"android":"levelo://app?vid=b80161e1-2168-4ade-a2d2-f1956561ac66","ios":"levelo://app?vid=b80161e1-2168-4ade-a2d2-f1956561ac66"},"vehicle_type_id":"4","last_reported":1736982540,"current_range_meters":36000,"station_id":"ce4bhl92rcd13ifvqghg","pricing_plan_id":"cebpf4jnsgd1na2vs0mg"},{"bike_id":"72e10142-2895-4e95-9217-bd2f39e60a09","system_id":"levelo_inurba_marseille","lat":43.30541,"lon":5.38434,"is_reserved":false,"is_disabled":false,"rental_uris":{"android":"levelo://app?vid=72e10142-2895-4e95-9217-bd2f39e60a09","ios":"levelo://app?vid=72e10142-2895-4e95-9217-bd2f39e60a09"},"vehicle_type_id":"4","last_reported":1736982540,"current_range_meters":36400,"station_id":"ce4bgg92rcd13ifvqb30","pricing_plan_id":"cebpf4jnsgd1na2vs0mg"},{"bike_id":"25a31c70-16ff-440d-a9a5-1ee9088dfeb4","system_id":"levelo_inurba_marseille","lat":43.30287,"lon":5.3688,"is_reserved":false,"is_disabled":false,"rental_uris":{"android":"levelo://app?vid=25a31c70-16ff-440d-a9a5-1ee9088dfeb4","ios":"levelo://app?vid=25a31c70-16ff-440d-a9a5-1ee9088dfeb4"},"vehicle_type_id":"4","last_reported":1736982540,"current_range_meters":14400,"station_id":"ce4bgqh2rcd13ifvqc5g","pricing_plan_id":"cebpf4jnsgd1na2vs0mg"},{"bike_id":"4fa358ca-b741-467a-a03f-b8033021b471","system_id":"levelo_inurba_marseille","lat":43.337571,"lon":5.374567,"is_reserved":false,"is_disabled":false,"rental_uris":{"android":"levelo://app?vid=4fa358ca-b741-467a-a03f-b8033021b471","ios":"levelo://app?vid=4fa358ca-b741-467a-a03f-b8033021b471"},"vehicle_type_id":"4","last_reported":1736982540,"current_range_meters":35200,"station_id":"","pricing_plan_id":"cebpf4jnsgd1na2vs0mg"},{"bike_id":"5db5f749-55d7-4666-b989-2cc4222957b1","system_id":"levelo_inurba_marseille","lat":43.28436,"lon":5.3918,"is_reserved":false,"is_disabled":true,"rental_uris":{"android":"levelo://app?vid=5db5f749-55d7-4666-b989-2cc4222957b1","ios":"levelo://app?vid=5db5f749-55d7-4666-b989-2cc4222957b1"},"vehicle_type_id":"4","last_reported":1736982540,"current_range_meters":28800,"station_id":"ce4bhoh2rcd13ifvqh5g","pricing_plan_id":"cebpf4jnsgd1na2vs0mg"},{"bike_id":"2b2cb29b-656b-412b-b107-6e49fdf15518","system_id":"levelo_inurba_marseille","lat":43.274927,"lon":5.424556,"is_reserved":false,"is_disabled":true,"rental_uris":{"android":"levelo://app?vid=2b2cb29b-656b-412b-b107-6e49fdf15518","ios":"levelo://app?vid=2b2cb29b-656b-412b-b107-6e49fdf15518"},"vehicle_type_id":"4","last_reported":1736982540,"current_range_meters":0,"station_id":"ce4bhn92rcd13ifvqgrg","pricing_plan_id":"cebpf4jnsgd1na2vs0mg"},{"bike_id":"568479cf-899b-434a-9af7-c6bc9aaff64f","system_id":"levelo_inurba_marseille","lat":43.31119,"lon":5.37783,"is_reserved":false,"is_disabled":false,"rental_uris":{"android":"levelo://app?vid=568479cf-899b-434a-9af7-c6bc9aaff64f","ios":"levelo://app?vid=568479cf-899b-434a-9af7-c6bc9aaff64f"},"vehicle_type_id":"4","last_reported":1736982540,"current_range_meters":19200,"station_id":"ce4bgt92rcd13ifvqcg0","pricing_plan_id":"cebpf4jnsgd1na2vs0mg"},{"bike_id":"e7525fb8-d58c-4068-a38f-e353cc185a02","system_id":"levelo_inurba_marseille","lat":43.30917,"lon":5.40175,"is_reserved":false,"is_disabled":false,"rental_uris":{"android":"levelo://app?vid=e7525fb8-d58c-4068-a38f-e353cc185a02","ios":"levelo://app?vid=e7525fb8-d58c-4068-a38f-e353cc185a02"},"vehicle_type_id":"4","last_reported":1736982540,"current_range_meters":28000,"station_id":"ce4bgvp2rcd13ifvqct0","pricing_plan_id":"cebpf4jnsgd1na2vs0mg"},{"bike_id":"e815a81b-bac9-44d8-927b-cad09d4c7319","system_id":"levelo_inurba_marseille","lat":43.27823,"lon":5.40808,"is_reserved":false,"is_disabled":false,"rental_uris":{"android":"levelo://app?vid=e815a81b-bac9-44d8-927b-cad09d4c7319","ios":"levelo://app?vid=e815a81b-bac9-44d8-927b-cad09d4c7319"},"vehicle_type_id":"4","last_reported":1736982540,"current_range_meters":38800,"station_id":"","pricing_plan_id":"cebpf4jnsgd1na2vs0mg"},{"bike_id":"112ce520-564c-4694-9da0-cc1b15c74fde","system_id":"levelo_inurba_marseille","lat":43.28681,"lon":5.3867,"is_reserved":false,"is_disabled":false,"rental_uris":{"android":"levelo://app?vid=112ce520-564c-4694-9da0-cc1b15c74fde","ios":"levelo://app?vid=112ce520-564c-4694-9da0-cc1b15c74fde"},"vehicle_type_id":"4","last_reported":1736982540,"current_range_meters":38800,"station_id":"ce4bh492rcd13ifvqdug","pricing_plan_id":"cebpf4jnsgd1na2vs0mg"},{"bike_id":"7c058576-7976-4e97-8115-6fc04361538b","system_id":"levelo_inurba_marseille","lat":43.27817,"lon":5.39214,"is_reserved":false,"is_disabled":false,"rental_uris":{"android":"levelo://app?vid=7c058576-7976-4e97-8115-6fc04361538b","ios":"levelo://app?vid=7c058576-7976-4e97-8115-6fc04361538b"},"vehicle_type_id":"4","last_reported":1736982540,"current_range_meters":33600,"station_id":"ce4bhjp2rcd13ifvqga0","pricing_plan_id":"cebpf4jnsgd1na2vs0mg"},{"bike_id":"8bd17459-e6a3-4833-bc9c-b037a2e8fda9","system_id":"levelo_inurba_marseille","lat":43.29537,"lon":5.375,"is_reserved":false,"is_disabled":false,"rental_uris":{"android":"levelo://app?vid=8bd17459-e6a3-4833-bc9c-b037a2e8fda9","ios":"levelo://app?vid=8bd17459-e6a3-4833-bc9c-b037a2e8fda9"},"vehicle_type_id":"4","last_reported":1736982540,"current_range_meters":38400,"station_id":"ce4bgkp2rcd13ifvqbmg","pricing_plan_id":"cebpf4jnsgd1na2vs0mg"},{"bike_id":"7da582b5-d718-412b-abc6-2fad630c4547","system_id":"levelo_inurba_marseille","lat":43.2979,"lon":5.37106,"is_reserved":false,"is_disabled":false,"rental_uris":{"android":"levelo://app?vid=7da582b5-d718-412b-abc6-2fad630c4547","ios":"levelo://app?vid=7da582b5-d718-412b-abc6-2fad630c4547"},"vehicle_type_id":"4","last_reported":1736982540,"current_range_meters":38800,"station_id":"ce4bgop2rcd13ifvqc1g","pricing_plan_id":"cebpf4jnsgd1na2vs0mg"},{"bike_id":"1196e9f5-0570-4505-b30c-37b2b9c61113","system_id":"levelo_inurba_marseille","lat":43.25509,"lon":5.3764,"is_reserved":false,"is_disabled":false,"rental_uris":{"android":"levelo://app?vid=1196e9f5-0570-4505-b30c-37b2b9c61113","ios":"levelo://app?vid=1196e9f5-0570-4505-b30c-37b2b9c61113"},"vehicle_type_id":"4","last_reported":1736982540,"current_range_meters":38400,"station_id":"ce4bhh12rcd13ifvqff0","pricing_plan_id":"cebpf4jnsgd1na2vs0mg"},{"bike_id":"05dcce0a-1f30-4267-9930-c165e5e4ea9d","system_id":"levelo_inurba_marseille","lat":43.24082,"lon":5.37744,"is_reserved":false,"is_disabled":false,"rental_uris":{"android":"levelo://app?vid=05dcce0a-1f30-4267-9930-c165e5e4ea9d","ios":"levelo://app?vid=05dcce0a-1f30-4267-9930-c165e5e4ea9d"},"vehicle_type_id":"4","last_reported":1736982540,"current_range_meters":39200,"station_id":"ce4bhnp2rcd13ifvqgvg","pricing_plan_id":"cebpf4jnsgd1na2vs0mg"},{"bike_id":"0b8cc1da-c0cb-47d1-a0f0-027b07b55b96","system_id":"levelo_inurba_marseille","lat":43.29787,"lon":5.393394,"is_reserved":false,"is_disabled":false,"rental_uris":{"android":"levelo://app?vid=0b8cc1da-c0cb-47d1-a0f0-027b07b55b96","ios":"levelo://app?vid=0b8cc1da-c0cb-47d1-a0f0-027b07b55b96"},"vehicle_type_id":"4","last_reported":1736982540,"current_range_meters":36800,"station_id":"chh1huq6cuj3fo74tm60","pricing_plan_id":"cebpf4jnsgd1na2vs0mg"},{"bike_id":"0e842b39-329d-48e2-b781-7e3babc96cf4","system_id":"levelo_inurba_marseille","lat":43.22928,"lon":5.35385,"is_reserved":false,"is_disabled":false,"rental_uris":{"android":"levelo://app?vid=0e842b39-329d-48e2-b781-7e3babc96cf4","ios":"levelo://app?vid=0e842b39-329d-48e2-b781-7e3babc96cf4"},"vehicle_type_id":"4","last_reported":1736982540,"current_range_meters":19200,"station_id":"cpo3532slgdg3j2ikp40","pricing_plan_id":"cebpf4jnsgd1na2vs0mg"},{"bike_id":"66d86647-f3d9-43c2-8067-2511dcc8853d","system_id":"levelo_inurba_marseille","lat":43.26939,"lon":5.40232,"is_reserved":false,"is_disabled":true,"rental_uris":{"android":"levelo://app?vid=66d86647-f3d9-43c2-8067-2511dcc8853d","ios":"levelo://app?vid=66d86647-f3d9-43c2-8067-2511dcc8853d"},"vehicle_type_id":"4","last_reported":1736982540,"current_range_meters":1600,"station_id":"cjm6bp8fraef2m0cb0m0","pricing_plan_id":"cebpf4jnsgd1na2vs0mg"},{"bike_id":"04bfd732-e3f2-4dbb-a7c9-bb99355282fc","system_id":"levelo_inurba_marseille","lat":43.31719,"lon":5.42399,"is_reserved":false,"is_disabled":false,"rental_uris":{"android":"levelo://app?vid=04bfd732-e3f2-4dbb-a7c9-bb99355282fc","ios":"levelo://app?vid=04bfd732-e3f2-4dbb-a7c9-bb99355282fc"},"vehicle_type_id":"4","last_reported":1736982540,"current_range_meters":39200,"station_id":"ce4bhp92rcd13ifvqhbg","pricing_plan_id":"cebpf4jnsgd1na2vs0mg"},{"bike_id":"d4d7adfe-943d-4585-86b3-b9cf81c5a37b","system_id":"levelo_inurba_marseille","lat":43.266807,"lon":5.382656,"is_reserved":false,"is_disabled":false,"rental_uris":{"android":"levelo://app?vid=d4d7adfe-943d-4585-86b3-b9cf81c5a37b","ios":"levelo://app?vid=d4d7adfe-943d-4585-86b3-b9cf81c5a37b"},"vehicle_type_id":"4","last_reported":1736982540,"current_range_meters":38000,"station_id":"ce4bhg92rcd13ifvqf90","pricing_plan_id":"cebpf4jnsgd1na2vs0mg"},{"bike_id":"0e7c3373-583a-438f-8dea-9a5760a26114","system_id":"levelo_inurba_marseille","lat":43.30891,"lon":5.37195,"is_reserved":false,"is_disabled":false,"rental_uris":{"android":"levelo://app?vid=0e7c3373-583a-438f-8dea-9a5760a26114","ios":"levelo://app?vid=0e7c3373-583a-438f-8dea-9a5760a26114"},"vehicle_type_id":"4","last_reported":1736982540,"current_range_meters":22800,"station_id":"ce4bguh2rcd13ifvqckg","pricing_plan_id":"cebpf4jnsgd1na2vs0mg"},{"bike_id":"8b6182c3-3c5e-4a05-80f5-f25cf3a13217","system_id":"levelo_inurba_marseille","lat":43.24581,"lon":5.39421,"is_reserved":false,"is_disabled":false,"rental_uris":{"android":"levelo://app?vid=8b6182c3-3c5e-4a05-80f5-f25cf3a13217","ios":"levelo://app?vid=8b6182c3-3c5e-4a05-80f5-f25cf3a13217"},"vehicle_type_id":"4","last_reported":1736982540,"current_range_meters":26000,"station_id":"","pricing_plan_id":"cebpf4jnsgd1na2vs0mg"},{"bike_id":"bba08d00-d718-4d13-9b97-9ed73b370226","system_id":"levelo_inurba_marseille","lat":43.30426,"lon":5.3975,"is_reserved":false,"is_disabled":false,"rental_uris":{"android":"levelo://app?vid=bba08d00-d718-4d13-9b97-9ed73b370226","ios":"levelo://app?vid=bba08d00-d718-4d13-9b97-9ed73b370226"},"vehicle_type_id":"4","last_reported":1736982540,"current_range_meters":39200,"station_id":"ce4bh092rcd13ifvqd20","pricing_plan_id":"cebpf4jnsgd1na2vs0mg"},{"bike_id":"85fb2bf8-5b4b-4be2-81d5-99a2452f7f4a","system_id":"levelo_inurba_marseille","lat":43.25872,"lon":5.39914,"is_reserved":false,"is_disabled":false,"rental_uris":{"android":"levelo://app?vid=85fb2bf8-5b4b-4be2-81d5-99a2452f7f4a","ios":"levelo://app?vid=85fb2bf8-5b4b-4be2-81d5-99a2452f7f4a"},"vehicle_type_id":"4","last_reported":1736982540,"current_range_meters":38800,"station_id":"ce4bhl92rcd13ifvqghg","pricing_plan_id":"cebpf4jnsgd1na2vs0mg"},{"bike_id":"21991245-c0ed-460a-96c0-efd1586188d9","system_id":"levelo_inurba_marseille","lat":43.26031,"lon":5.37559,"is_reserved":false,"is_disabled":false,"rental_uris":{"android":"levelo://app?vid=21991245-c0ed-460a-96c0-efd1586188d9","ios":"levelo://app?vid=21991245-c0ed-460a-96c0-efd1586188d9"},"vehicle_type_id":"4","last_reported":1736982540,"current_range_meters":37600,"station_id":"ce4bhgh2rcd13ifvqfa0","pricing_plan_id":"cebpf4jnsgd1na2vs0mg"},{"bike_id":"a113a636-9709-4346-9337-9ff9f13c7d24","system_id":"levelo_inurba_marseille","lat":43.26559,"lon":5.37284,"is_reserved":false,"is_disabled":false,"rental_uris":{"android":"levelo://app?vid=a113a636-9709-4346-9337-9ff9f13c7d24","ios":"levelo://app?vid=a113a636-9709-4346-9337-9ff9f13c7d24"},"vehicle_type_id":"4","last_reported":1736982540,"current_range_meters":16800,"station_id":"ce4bhg12rcd13ifvqf70","pricing_plan_id":"cebpf4jnsgd1na2vs0mg"},{"bike_id":"b96abaf4-0fa5-4720-8999-93f7ce59d4e6","system_id":"levelo_inurba_marseille","lat":43.27085,"lon":5.42268,"is_reserved":false,"is_disabled":false,"rental_uris":{"android":"levelo://app?vid=b96abaf4-0fa5-4720-8999-93f7ce59d4e6","ios":"levelo://app?vid=b96abaf4-0fa5-4720-8999-93f7ce59d4e6"},"vehicle_type_id":"4","last_reported":1736982540,"current_range_meters":36800,"station_id":"ce4bhk92rcd13ifvqgb0","pricing_plan_id":"cebpf4jnsgd1na2vs0mg"},{"bike_id":"bf640603-83b1-45ec-97b9-6f63203dda4b","system_id":"levelo_inurba_marseille","lat":43.28174,"lon":5.42611,"is_reserved":false,"is_disabled":false,"rental_uris":{"android":"levelo://app?vid=bf640603-83b1-45ec-97b9-6f63203dda4b","ios":"levelo://app?vid=bf640603-83b1-45ec-97b9-6f63203dda4b"},"vehicle_type_id":"4","last_reported":1736982540,"current_range_meters":24400,"station_id":"ce4bhnh2rcd13ifvqgug","pricing_plan_id":"cebpf4jnsgd1na2vs0mg"},{"bike_id":"43fd6972-8b77-49c4-9232-69d397e2e1ec","system_id":"levelo_inurba_marseille","lat":43.2409,"lon":5.37755,"is_reserved":false,"is_disabled":false,"rental_uris":{"android":"levelo://app?vid=43fd6972-8b77-49c4-9232-69d397e2e1ec","ios":"levelo://app?vid=43fd6972-8b77-49c4-9232-69d397e2e1ec"},"vehicle_type_id":"4","last_reported":1736982540,"current_range_meters":10800,"station_id":"ce4bhnp2rcd13ifvqgvg","pricing_plan_id":"cebpf4jnsgd1na2vs0mg"},{"bike_id":"abd70145-a4d5-456b-aff2-316f688b7c3d","system_id":"levelo_inurba_marseille","lat":43.298843,"lon":5.3973,"is_reserved":false,"is_disabled":false,"rental_uris":{"android":"levelo://app?vid=abd70145-a4d5-456b-aff2-316f688b7c3d","ios":"levelo://app?vid=abd70145-a4d5-456b-aff2-316f688b7c3d"},"vehicle_type_id":"4","last_reported":1736982540,"current_range_meters":28800,"station_id":"ce4bh0h2rcd13ifvqd50","pricing_plan_id":"cebpf4jnsgd1na2vs0mg"},{"bike_id":"ada49849-33d8-4082-8c23-de50c15aac1c","system_id":"levelo_inurba_marseille","lat":43.31127,"lon":5.37761,"is_reserved":false,"is_disabled":false,"rental_uris":{"android":"levelo://app?vid=ada49849-33d8-4082-8c23-de50c15aac1c","ios":"levelo://app?vid=ada49849-33d8-4082-8c23-de50c15aac1c"},"vehicle_type_id":"4","last_reported":1736982540,"current_range_meters":37600,"station_id":"ce4bgt92rcd13ifvqcg0","pricing_plan_id":"cebpf4jnsgd1na2vs0mg"},{"bike_id":"73bbd733-8668-482c-b82d-a3e1fe3cf3e3","system_id":"levelo_inurba_marseille","lat":43.2872,"lon":5.36098,"is_reserved":false,"is_disabled":false,"rental_uris":{"android":"levelo://app?vid=73bbd733-8668-482c-b82d-a3e1fe3cf3e3","ios":"levelo://app?vid=73bbd733-8668-482c-b82d-a3e1fe3cf3e3"},"vehicle_type_id":"4","last_reported":1736982540,"current_range_meters":29600,"station_id":"cki0cbj6b192h4jlfktg","pricing_plan_id":"cebpf4jnsgd1na2vs0mg"},{"bike_id":"f8df8702-d3f4-43b5-a8c0-49f59afccc7f","system_id":"levelo_inurba_marseille","lat":43.30925,"lon":5.40158,"is_reserved":false,"is_disabled":false,"rental_uris":{"android":"levelo://app?vid=f8df8702-d3f4-43b5-a8c0-49f59afccc7f","ios":"levelo://app?vid=f8df8702-d3f4-43b5-a8c0-49f59afccc7f"},"vehicle_type_id":"4","last_reported":1736982540,"current_range_meters":28800,"station_id":"ce4bgvp2rcd13ifvqct0","pricing_plan_id":"cebpf4jnsgd1na2vs0mg"},{"bike_id":"c8e997c0-8580-4d0f-8d9f-0766596381e1","system_id":"levelo_inurba_marseille","lat":43.33918,"lon":5.37562,"is_reserved":false,"is_disabled":true,"rental_uris":{"android":"levelo://app?vid=c8e997c0-8580-4d0f-8d9f-0766596381e1","ios":"levelo://app?vid=c8e997c0-8580-4d0f-8d9f-0766596381e1"},"vehicle_type_id":"4","last_reported":1736982540,"current_range_meters":0,"station_id":"","pricing_plan_id":"cebpf4jnsgd1na2vs0mg"},{"bike_id":"ad1ccaac-d0f5-4efb-87d0-5d27d52d334f","system_id":"levelo_inurba_marseille","lat":43.3153,"lon":5.38035,"is_reserved":false,"is_disabled":false,"rental_uris":{"android":"levelo://app?vid=ad1ccaac-d0f5-4efb-87d0-5d27d52d334f","ios":"levelo://app?vid=ad1ccaac-d0f5-4efb-87d0-5d27d52d334f"},"vehicle_type_id":"4","last_reported":1736982540,"current_range_meters":33600,"station_id":"ce4bhsp2rcd13ifvqi50","pricing_plan_id":"cebpf4jnsgd1na2vs0mg"},{"bike_id":"28d58d01-ff9a-4d04-a9a2-3f3598663adb","system_id":"levelo_inurba_marseille","lat":43.28702,"lon":5.37404,"is_reserved":false,"is_disabled":false,"rental_uris":{"android":"levelo://app?vid=28d58d01-ff9a-4d04-a9a2-3f3598663adb","ios":"levelo://app?vid=28d58d01-ff9a-4d04-a9a2-3f3598663adb"},"vehicle_type_id":"4","last_reported":1736982540,"current_range_meters":24000,"station_id":"ce4bh3p2rcd13ifvqdq0","pricing_plan_id":"cebpf4jnsgd1na2vs0mg"},{"bike_id":"d897c182-a994-41ed-8182-39285d609a0b","system_id":"levelo_inurba_marseille","lat":43.30338,"lon":5.40486,"is_reserved":false,"is_disabled":false,"rental_uris":{"android":"levelo://app?vid=d897c182-a994-41ed-8182-39285d609a0b","ios":"levelo://app?vid=d897c182-a994-41ed-8182-39285d609a0b"},"vehicle_type_id":"4","last_reported":1736982540,"current_range_meters":35200,"station_id":"ce4bh012rcd13ifvqd10","pricing_plan_id":"cebpf4jnsgd1na2vs0mg"},{"bike_id":"d304ae28-44c5-493e-af9c-c7db2f57e3a6","system_id":"levelo_inurba_marseille","lat":43.298755,"lon":5.397413,"is_reserved":false,"is_disabled":false,"rental_uris":{"android":"levelo://app?vid=d304ae28-44c5-493e-af9c-c7db2f57e3a6","ios":"levelo://app?vid=d304ae28-44c5-493e-af9c-c7db2f57e3a6"},"vehicle_type_id":"4","last_reported":1736982540,"current_range_meters":35600,"station_id":"ce4bh0h2rcd13ifvqd50","pricing_plan_id":"cebpf4jnsgd1na2vs0mg"},{"bike_id":"85a7b7fe-337d-47e7-b225-17728841ea08","system_id":"levelo_inurba_marseille","lat":43.31171,"lon":5.38707,"is_reserved":false,"is_disabled":false,"rental_uris":{"android":"levelo://app?vid=85a7b7fe-337d-47e7-b225-17728841ea08","ios":"levelo://app?vid=85a7b7fe-337d-47e7-b225-17728841ea08"},"vehicle_type_id":"4","last_reported":1736982540,"current_range_meters":12400,"station_id":"ce4bgv12rcd13ifvqcp0","pricing_plan_id":"cebpf4jnsgd1na2vs0mg"},{"bike_id":"81d7e317-e15b-4a92-a48b-84a2057f4665","system_id":"levelo_inurba_marseille","lat":43.29279,"lon":5.4011,"is_reserved":false,"is_disabled":false,"rental_uris":{"android":"levelo://app?vid=81d7e317-e15b-4a92-a48b-84a2057f4665","ios":"levelo://app?vid=81d7e317-e15b-4a92-a48b-84a2057f4665"},"vehicle_type_id":"4","last_reported":1736982540,"current_range_meters":34800,"station_id":"ce4bh312rcd13ifvqdk0","pricing_plan_id":"cebpf4jnsgd1na2vs0mg"},{"bike_id":"bb90d116-cd2d-49c0-9a85-782232d09c9e","system_id":"levelo_inurba_marseille","lat":43.28958,"lon":5.36391,"is_reserved":false,"is_disabled":false,"rental_uris":{"android":"levelo://app?vid=bb90d116-cd2d-49c0-9a85-782232d09c9e","ios":"levelo://app?vid=bb90d116-cd2d-49c0-9a85-782232d09c9e"},"vehicle_type_id":"4","last_reported":1736982540,"current_range_meters":22400,"station_id":"ce4bhc92rcd13ifvqetg","pricing_plan_id":"cebpf4jnsgd1na2vs0mg"},{"bike_id":"98384fdc-4e22-410d-8ac0-a95f275d2dff","system_id":"levelo_inurba_marseille","lat":43.30779,"lon":5.37657,"is_reserved":false,"is_disabled":false,"rental_uris":{"android":"levelo://app?vid=98384fdc-4e22-410d-8ac0-a95f275d2dff","ios":"levelo://app?vid=98384fdc-4e22-410d-8ac0-a95f275d2dff"},"vehicle_type_id":"4","last_reported":1736982540,"current_range_meters":28400,"station_id":"ce4bgv92rcd13ifvqcq0","pricing_plan_id":"cebpf4jnsgd1na2vs0mg"},{"bike_id":"7b693463-6b82-4e9a-aa2d-726f031e21f9","system_id":"levelo_inurba_marseille","lat":43.30803,"lon":5.43521,"is_reserved":false,"is_disabled":false,"rental_uris":{"android":"levelo://app?vid=7b693463-6b82-4e9a-aa2d-726f031e21f9","ios":"levelo://app?vid=7b693463-6b82-4e9a-aa2d-726f031e21f9"},"vehicle_type_id":"4","last_reported":1736982540,"current_range_meters":32400,"station_id":"ce4bhph2rcd13ifvqheg","pricing_plan_id":"cebpf4jnsgd1na2vs0mg"},{"bike_id":"0759facd-724c-47a6-b634-22d25343fc2d","system_id":"levelo_inurba_marseille","lat":43.29575,"lon":5.39965,"is_reserved":false,"is_disabled":false,"rental_uris":{"android":"levelo://app?vid=0759facd-724c-47a6-b634-22d25343fc2d","ios":"levelo://app?vid=0759facd-724c-47a6-b634-22d25343fc2d"},"vehicle_type_id":"4","last_reported":1736982540,"current_range_meters":22400,"station_id":"ce4bh312rcd13ifvqdj0","pricing_plan_id":"cebpf4jnsgd1na2vs0mg"},{"bike_id":"ee28e867-21e8-4831-b259-c94c83f948c2","system_id":"levelo_inurba_marseille","lat":43.29572,"lon":5.36745,"is_reserved":false,"is_disabled":false,"rental_uris":{"android":"levelo://app?vid=ee28e867-21e8-4831-b259-c94c83f948c2","ios":"levelo://app?vid=ee28e867-21e8-4831-b259-c94c83f948c2"},"vehicle_type_id":"4","last_reported":1736982540,"current_range_meters":30400,"station_id":"ce4bgph2rcd13ifvqc2g","pricing_plan_id":"cebpf4jnsgd1na2vs0mg"},{"bike_id":"5416b3d0-0626-4e79-9d40-c2d4d2711930","system_id":"levelo_inurba_marseille","lat":43.30322,"lon":5.40438,"is_reserved":false,"is_disabled":false,"rental_uris":{"android":"levelo://app?vid=5416b3d0-0626-4e79-9d40-c2d4d2711930","ios":"levelo://app?vid=5416b3d0-0626-4e79-9d40-c2d4d2711930"},"vehicle_type_id":"4","last_reported":1736982540,"current_range_meters":38800,"station_id":"ce4bh012rcd13ifvqd10","pricing_plan_id":"cebpf4jnsgd1na2vs0mg"},{"bike_id":"fa53afd0-c3c0-46c2-be7e-d056eb14f6b8","system_id":"levelo_inurba_marseille","lat":43.24041,"lon":5.3776,"is_reserved":false,"is_disabled":false,"rental_uris":{"android":"levelo://app?vid=fa53afd0-c3c0-46c2-be7e-d056eb14f6b8","ios":"levelo://app?vid=fa53afd0-c3c0-46c2-be7e-d056eb14f6b8"},"vehicle_type_id":"4","last_reported":1736982540,"current_range_meters":39200,"station_id":"ce4bhnp2rcd13ifvqgvg","pricing_plan_id":"cebpf4jnsgd1na2vs0mg"},{"bike_id":"b713aa20-673e-4776-ad1a-f1df82a1e4e1","system_id":"levelo_inurba_marseille","lat":43.28443,"lon":5.35882,"is_reserved":false,"is_disabled":false,"rental_uris":{"android":"levelo://app?vid=b713aa20-673e-4776-ad1a-f1df82a1e4e1","ios":"levelo://app?vid=b713aa20-673e-4776-ad1a-f1df82a1e4e1"},"vehicle_type_id":"4","last_reported":1736982540,"current_range_meters":35200,"station_id":"ce4bhah2rcd13ifvqei0","pricing_plan_id":"cebpf4jnsgd1na2vs0mg"},{"bike_id":"f90ce595-f471-4c14-b36b-3bba7cea4d17","system_id":"levelo_inurba_marseille","lat":43.28697,"lon":5.37401,"is_reserved":false,"is_disabled":false,"rental_uris":{"android":"levelo://app?vid=f90ce595-f471-4c14-b36b-3bba7cea4d17","ios":"levelo://app?vid=f90ce595-f471-4c14-b36b-3bba7cea4d17"},"vehicle_type_id":"4","last_reported":1736982540,"current_range_meters":36000,"station_id":"ce4bh3p2rcd13ifvqdq0","pricing_plan_id":"cebpf4jnsgd1na2vs0mg"},{"bike_id":"6f7c6a9b-f0fe-4abb-820c-ab63a7496cb5","system_id":"levelo_inurba_marseille","lat":43.31533,"lon":5.38033,"is_reserved":false,"is_disabled":false,"rental_uris":{"android":"levelo://app?vid=6f7c6a9b-f0fe-4abb-820c-ab63a7496cb5","ios":"levelo://app?vid=6f7c6a9b-f0fe-4abb-820c-ab63a7496cb5"},"vehicle_type_id":"4","last_reported":1736982540,"current_range_meters":20400,"station_id":"ce4bhsp2rcd13ifvqi50","pricing_plan_id":"cebpf4jnsgd1na2vs0mg"},{"bike_id":"155dbf4b-d6fe-46aa-9097-9994452a5158","system_id":"levelo_inurba_marseille","lat":43.23068,"lon":5.35491,"is_reserved":false,"is_disabled":false,"rental_uris":{"android":"levelo://app?vid=155dbf4b-d6fe-46aa-9097-9994452a5158","ios":"levelo://app?vid=155dbf4b-d6fe-46aa-9097-9994452a5158"},"vehicle_type_id":"4","last_reported":1736982540,"current_range_meters":10800,"station_id":"cpo3342slgdg3j2ifvpg","pricing_plan_id":"cebpf4jnsgd1na2vs0mg"},{"bike_id":"e5dac3e9-311e-4c35-a93e-6977f4c3e4f6","system_id":"levelo_inurba_marseille","lat":43.28706,"lon":5.37371,"is_reserved":false,"is_disabled":false,"rental_uris":{"android":"levelo://app?vid=e5dac3e9-311e-4c35-a93e-6977f4c3e4f6","ios":"levelo://app?vid=e5dac3e9-311e-4c35-a93e-6977f4c3e4f6"},"vehicle_type_id":"4","last_reported":1736982540,"current_range_meters":38800,"station_id":"ce4bh3p2rcd13ifvqdq0","pricing_plan_id":"cebpf4jnsgd1na2vs0mg"},{"bike_id":"fea1b24d-bbfb-474a-b028-8645483cd7e6","system_id":"levelo_inurba_marseille","lat":43.33785,"lon":5.37449,"is_reserved":false,"is_disabled":false,"rental_uris":{"android":"levelo://app?vid=fea1b24d-bbfb-474a-b028-8645483cd7e6","ios":"levelo://app?vid=fea1b24d-bbfb-474a-b028-8645483cd7e6"},"vehicle_type_id":"4","last_reported":1736982540,"current_range_meters":36400,"station_id":"","pricing_plan_id":"cebpf4jnsgd1na2vs0mg"},{"bike_id":"38bab05e-778b-4bd4-82ae-2fe0acda18d3","system_id":"levelo_inurba_marseille","lat":43.34154,"lon":5.40897,"is_reserved":false,"is_disabled":false,"rental_uris":{"android":"levelo://app?vid=38bab05e-778b-4bd4-82ae-2fe0acda18d3","ios":"levelo://app?vid=38bab05e-778b-4bd4-82ae-2fe0acda18d3"},"vehicle_type_id":"4","last_reported":1736982540,"current_range_meters":38800,"station_id":"ce4bhqh2rcd13ifvqhlg","pricing_plan_id":"cebpf4jnsgd1na2vs0mg"},{"bike_id":"9a63f0cd-32ef-484a-a164-6bb057ec52f3","system_id":"levelo_inurba_marseille","lat":43.30928,"lon":5.40142,"is_reserved":false,"is_disabled":false,"rental_uris":{"android":"levelo://app?vid=9a63f0cd-32ef-484a-a164-6bb057ec52f3","ios":"levelo://app?vid=9a63f0cd-32ef-484a-a164-6bb057ec52f3"},"vehicle_type_id":"4","last_reported":1736982540,"current_range_meters":32400,"station_id":"ce4bgvp2rcd13ifvqct0","pricing_plan_id":"cebpf4jnsgd1na2vs0mg"},{"bike_id":"e979d60c-d5ee-4666-9345-5faffd5dfc17","system_id":"levelo_inurba_marseille","lat":43.30133,"lon":5.39865,"is_reserved":false,"is_disabled":false,"rental_uris":{"android":"levelo://app?vid=e979d60c-d5ee-4666-9345-5faffd5dfc17","ios":"levelo://app?vid=e979d60c-d5ee-4666-9345-5faffd5dfc17"},"vehicle_type_id":"4","last_reported":1736982540,"current_range_meters":24000,"station_id":"ce4bh0h2rcd13ifvqd40","pricing_plan_id":"cebpf4jnsgd1na2vs0mg"},{"bike_id":"72eec60a-2667-4f1f-a2bb-7c5536e9c1b2","system_id":"levelo_inurba_marseille","lat":43.28722,"lon":5.36092,"is_reserved":false,"is_disabled":false,"rental_uris":{"android":"levelo://app?vid=72eec60a-2667-4f1f-a2bb-7c5536e9c1b2","ios":"levelo://app?vid=72eec60a-2667-4f1f-a2bb-7c5536e9c1b2"},"vehicle_type_id":"4","last_reported":1736982540,"current_range_meters":33200,"station_id":"cki0cbj6b192h4jlfktg","pricing_plan_id":"cebpf4jnsgd1na2vs0mg"},{"bike_id":"e1fe12c3-1829-4f11-ac72-e281b2a37c12","system_id":"levelo_inurba_marseille","lat":43.30906,"lon":5.39625,"is_reserved":false,"is_disabled":false,"rental_uris":{"android":"levelo://app?vid=e1fe12c3-1829-4f11-ac72-e281b2a37c12","ios":"levelo://app?vid=e1fe12c3-1829-4f11-ac72-e281b2a37c12"},"vehicle_type_id":"4","last_reported":1736982540,"current_range_meters":22000,"station_id":"ce4bh012rcd13ifvqcv0","pricing_plan_id":"cebpf4jnsgd1na2vs0mg"},{"bike_id":"0de1c0c3-224c-470c-9c40-92abbb1e542e","system_id":"levelo_inurba_marseille","lat":43.27455,"lon":5.39406,"is_reserved":false,"is_disabled":true,"rental_uris":{"android":"levelo://app?vid=0de1c0c3-224c-470c-9c40-92abbb1e542e","ios":"levelo://app?vid=0de1c0c3-224c-470c-9c40-92abbb1e542e"},"vehicle_type_id":"4","last_reported":1736982540,"current_range_meters":27200,"station_id":"ce4bhdp2rcd13ifvqf20","pricing_plan_id":"cebpf4jnsgd1na2vs0mg"},{"bike_id":"c128629d-a6b0-4e56-8fb2-9acca0407eec","system_id":"levelo_inurba_marseille","lat":43.28457,"lon":5.35895,"is_reserved":false,"is_disabled":false,"rental_uris":{"android":"levelo://app?vid=c128629d-a6b0-4e56-8fb2-9acca0407eec","ios":"levelo://app?vid=c128629d-a6b0-4e56-8fb2-9acca0407eec"},"vehicle_type_id":"4","last_reported":1736982540,"current_range_meters":38400,"station_id":"ce4bhah2rcd13ifvqei0","pricing_plan_id":"cebpf4jnsgd1na2vs0mg"},{"bike_id":"45c4b311-d420-4285-be5e-8fbbcedd6483","system_id":"levelo_inurba_marseille","lat":43.28086,"lon":5.39655,"is_reserved":false,"is_disabled":false,"rental_uris":{"android":"levelo://app?vid=45c4b311-d420-4285-be5e-8fbbcedd6483","ios":"levelo://app?vid=45c4b311-d420-4285-be5e-8fbbcedd6483"},"vehicle_type_id":"4","last_reported":1736982540,"current_range_meters":38800,"station_id":"ce4bho12rcd13ifvqh2g","pricing_plan_id":"cebpf4jnsgd1na2vs0mg"},{"bike_id":"1f149e26-9d4e-4970-96ec-1b76430b914b","system_id":"levelo_inurba_marseille","lat":43.244,"lon":5.37053,"is_reserved":false,"is_disabled":false,"rental_uris":{"android":"levelo://app?vid=1f149e26-9d4e-4970-96ec-1b76430b914b","ios":"levelo://app?vid=1f149e26-9d4e-4970-96ec-1b76430b914b"},"vehicle_type_id":"4","last_reported":1736982540,"current_range_meters":36800,"station_id":"ce4bhhh2rcd13ifvqfk0","pricing_plan_id":"cebpf4jnsgd1na2vs0mg"},{"bike_id":"da3afe3c-5cdd-453f-9551-77e8476e7381","system_id":"levelo_inurba_marseille","lat":43.29546,"lon":5.38552,"is_reserved":false,"is_disabled":true,"rental_uris":{"android":"levelo://app?vid=da3afe3c-5cdd-453f-9551-77e8476e7381","ios":"levelo://app?vid=da3afe3c-5cdd-453f-9551-77e8476e7381"},"vehicle_type_id":"4","last_reported":1736982540,"current_range_meters":38400,"station_id":"ce4bgih2rcd13ifvqba0","pricing_plan_id":"cebpf4jnsgd1na2vs0mg"},{"bike_id":"7ae55881-355c-4568-817f-c94fd19ee31d","system_id":"levelo_inurba_marseille","lat":43.286639,"lon":5.363452,"is_reserved":false,"is_disabled":false,"rental_uris":{"android":"levelo://app?vid=7ae55881-355c-4568-817f-c94fd19ee31d","ios":"levelo://app?vid=7ae55881-355c-4568-817f-c94fd19ee31d"},"vehicle_type_id":"4","last_reported":1736982540,"current_range_meters":38000,"station_id":"ce4bhah2rcd13ifvqej0","pricing_plan_id":"cebpf4jnsgd1na2vs0mg"},{"bike_id":"e5ae2f7c-bcf7-4e90-8647-01cc30d26abe","system_id":"levelo_inurba_marseille","lat":43.28716,"lon":5.39961,"is_reserved":false,"is_disabled":false,"rental_uris":{"android":"levelo://app?vid=e5ae2f7c-bcf7-4e90-8647-01cc30d26abe","ios":"levelo://app?vid=e5ae2f7c-bcf7-4e90-8647-01cc30d26abe"},"vehicle_type_id":"4","last_reported":1736982540,"current_range_meters":38800,"station_id":"ce4bho92rcd13ifvqh3g","pricing_plan_id":"cebpf4jnsgd1na2vs0mg"},{"bike_id":"e052f47d-c314-4142-a490-846c18d74eff","system_id":"levelo_inurba_marseille","lat":43.287116,"lon":5.379356,"is_reserved":false,"is_disabled":true,"rental_uris":{"android":"levelo://app?vid=e052f47d-c314-4142-a490-846c18d74eff","ios":"levelo://app?vid=e052f47d-c314-4142-a490-846c18d74eff"},"vehicle_type_id":"4","last_reported":1736982540,"current_range_meters":28800,"station_id":"ce4bh9p2rcd13ifvqec0","pricing_plan_id":"cebpf4jnsgd1na2vs0mg"},{"bike_id":"621018d6-0c89-48f7-8979-071c47824b8a","system_id":"levelo_inurba_marseille","lat":43.30308,"lon":5.36907,"is_reserved":false,"is_disabled":false,"rental_uris":{"android":"levelo://app?vid=621018d6-0c89-48f7-8979-071c47824b8a","ios":"levelo://app?vid=621018d6-0c89-48f7-8979-071c47824b8a"},"vehicle_type_id":"4","last_reported":1736982540,"current_range_meters":39200,"station_id":"ce4bgqh2rcd13ifvqc5g","pricing_plan_id":"cebpf4jnsgd1na2vs0mg"},{"bike_id":"63cc8642-685b-489d-905f-b1e9c7c25773","system_id":"levelo_inurba_marseille","lat":43.28022,"lon":5.36951,"is_reserved":false,"is_disabled":false,"rental_uris":{"android":"levelo://app?vid=63cc8642-685b-489d-905f-b1e9c7c25773","ios":"levelo://app?vid=63cc8642-685b-489d-905f-b1e9c7c25773"},"vehicle_type_id":"4","last_reported":1736982540,"current_range_meters":13600,"station_id":"ce4bha12rcd13ifvqef0","pricing_plan_id":"cebpf4jnsgd1na2vs0mg"},{"bike_id":"b85c581f-730e-4cc8-a0fe-b3c19f390caf","system_id":"levelo_inurba_marseille","lat":43.29954,"lon":5.39763,"is_reserved":false,"is_disabled":false,"rental_uris":{"android":"levelo://app?vid=b85c581f-730e-4cc8-a0fe-b3c19f390caf","ios":"levelo://app?vid=b85c581f-730e-4cc8-a0fe-b3c19f390caf"},"vehicle_type_id":"4","last_reported":1736982540,"current_range_meters":16800,"station_id":"","pricing_plan_id":"cebpf4jnsgd1na2vs0mg"},{"bike_id":"9f205d25-0cee-49b5-941b-09962740ffaf","system_id":"levelo_inurba_marseille","lat":43.29008,"lon":5.35615,"is_reserved":false,"is_disabled":false,"rental_uris":{"android":"levelo://app?vid=9f205d25-0cee-49b5-941b-09962740ffaf","ios":"levelo://app?vid=9f205d25-0cee-49b5-941b-09962740ffaf"},"vehicle_type_id":"4","last_reported":1736982540,"current_range_meters":38400,"station_id":"ce4bhb92rcd13ifvqen0","pricing_plan_id":"cebpf4jnsgd1na2vs0mg"},{"bike_id":"2c839bfc-228b-4afd-9c45-0e54b8f36672","system_id":"levelo_inurba_marseille","lat":43.24644,"lon":5.3889,"is_reserved":false,"is_disabled":false,"rental_uris":{"android":"levelo://app?vid=2c839bfc-228b-4afd-9c45-0e54b8f36672","ios":"levelo://app?vid=2c839bfc-228b-4afd-9c45-0e54b8f36672"},"vehicle_type_id":"4","last_reported":1736982540,"current_range_meters":38800,"station_id":"ce4bhg12rcd13ifvqf60","pricing_plan_id":"cebpf4jnsgd1na2vs0mg"},{"bike_id":"f1f9e6a5-fa5f-47dc-a0ed-815bb1c94d70","system_id":"levelo_inurba_marseille","lat":43.303173,"lon":5.404319,"is_reserved":false,"is_disabled":false,"rental_uris":{"android":"levelo://app?vid=f1f9e6a5-fa5f-47dc-a0ed-815bb1c94d70","ios":"levelo://app?vid=f1f9e6a5-fa5f-47dc-a0ed-815bb1c94d70"},"vehicle_type_id":"4","last_reported":1736982540,"current_range_meters":36000,"station_id":"ce4bgl12rcd13ifvqbo0","pricing_plan_id":"cebpf4jnsgd1na2vs0mg"},{"bike_id":"5ac6e81e-c019-47ef-b708-c59262b0c774","system_id":"levelo_inurba_marseille","lat":43.24068,"lon":5.37766,"is_reserved":false,"is_disabled":false,"rental_uris":{"android":"levelo://app?vid=5ac6e81e-c019-47ef-b708-c59262b0c774","ios":"levelo://app?vid=5ac6e81e-c019-47ef-b708-c59262b0c774"},"vehicle_type_id":"4","last_reported":1736982540,"current_range_meters":30000,"station_id":"ce4bhnp2rcd13ifvqgvg","pricing_plan_id":"cebpf4jnsgd1na2vs0mg"},{"bike_id":"663d7f2c-2062-4d24-ae4c-cbceda4e4161","system_id":"levelo_inurba_marseille","lat":43.27201,"lon":5.40995,"is_reserved":false,"is_disabled":false,"rental_uris":{"android":"levelo://app?vid=663d7f2c-2062-4d24-ae4c-cbceda4e4161","ios":"levelo://app?vid=663d7f2c-2062-4d24-ae4c-cbceda4e4161"},"vehicle_type_id":"4","last_reported":1736982540,"current_range_meters":30400,"station_id":"ce4bhl12rcd13ifvqgf0","pricing_plan_id":"cebpf4jnsgd1na2vs0mg"},{"bike_id":"eb36113f-26ca-4395-b635-d082ab13ba53","system_id":"levelo_inurba_marseille","lat":43.28934,"lon":5.36391,"is_reserved":false,"is_disabled":false,"rental_uris":{"android":"levelo://app?vid=eb36113f-26ca-4395-b635-d082ab13ba53","ios":"levelo://app?vid=eb36113f-26ca-4395-b635-d082ab13ba53"},"vehicle_type_id":"4","last_reported":1736982540,"current_range_meters":38800,"station_id":"ce4bhc92rcd13ifvqetg","pricing_plan_id":"cebpf4jnsgd1na2vs0mg"},{"bike_id":"df9ae605-a47c-414c-b226-4d803c96838f","system_id":"levelo_inurba_marseille","lat":43.30893,"lon":5.37194,"is_reserved":false,"is_disabled":false,"rental_uris":{"android":"levelo://app?vid=df9ae605-a47c-414c-b226-4d803c96838f","ios":"levelo://app?vid=df9ae605-a47c-414c-b226-4d803c96838f"},"vehicle_type_id":"4","last_reported":1736982540,"current_range_meters":38800,"station_id":"ce4bguh2rcd13ifvqckg","pricing_plan_id":"cebpf4jnsgd1na2vs0mg"},{"bike_id":"a15980ac-c225-4e68-8982-6cc8c4cbfd79","system_id":"levelo_inurba_marseille","lat":43.23193,"lon":5.35553,"is_reserved":false,"is_disabled":false,"rental_uris":{"android":"levelo://app?vid=a15980ac-c225-4e68-8982-6cc8c4cbfd79","ios":"levelo://app?vid=a15980ac-c225-4e68-8982-6cc8c4cbfd79"},"vehicle_type_id":"4","last_reported":1736982540,"current_range_meters":38800,"station_id":"ce4bhu92rcd13ifvqi70","pricing_plan_id":"cebpf4jnsgd1na2vs0mg"},{"bike_id":"a36bbba5-4c56-4543-aded-fa7c13f2ecca","system_id":"levelo_inurba_marseille","lat":43.28702,"lon":5.37954,"is_reserved":false,"is_disabled":false,"rental_uris":{"android":"levelo://app?vid=a36bbba5-4c56-4543-aded-fa7c13f2ecca","ios":"levelo://app?vid=a36bbba5-4c56-4543-aded-fa7c13f2ecca"},"vehicle_type_id":"4","last_reported":1736982540,"current_range_meters":39200,"station_id":"ce4bh9p2rcd13ifvqec0","pricing_plan_id":"cebpf4jnsgd1na2vs0mg"},{"bike_id":"a72f9127-8fde-413a-96f3-4b81783ba6ca","system_id":"levelo_inurba_marseille","lat":43.30318,"lon":5.40439,"is_reserved":false,"is_disabled":false,"rental_uris":{"android":"levelo://app?vid=a72f9127-8fde-413a-96f3-4b81783ba6ca","ios":"levelo://app?vid=a72f9127-8fde-413a-96f3-4b81783ba6ca"},"vehicle_type_id":"4","last_reported":1736982540,"current_range_meters":38000,"station_id":"ce4bh012rcd13ifvqd10","pricing_plan_id":"cebpf4jnsgd1na2vs0mg"},{"bike_id":"a0f052b6-765c-4f88-94e0-860938c612c5","system_id":"levelo_inurba_marseille","lat":43.271759,"lon":5.409892,"is_reserved":false,"is_disabled":false,"rental_uris":{"android":"levelo://app?vid=a0f052b6-765c-4f88-94e0-860938c612c5","ios":"levelo://app?vid=a0f052b6-765c-4f88-94e0-860938c612c5"},"vehicle_type_id":"4","last_reported":1736982540,"current_range_meters":38800,"station_id":"ce4bhl12rcd13ifvqgf0","pricing_plan_id":"cebpf4jnsgd1na2vs0mg"},{"bike_id":"c1d914f9-317b-4356-9031-7d930891593e","system_id":"levelo_inurba_marseille","lat":43.28098,"lon":5.37832,"is_reserved":false,"is_disabled":false,"rental_uris":{"android":"levelo://app?vid=c1d914f9-317b-4356-9031-7d930891593e","ios":"levelo://app?vid=c1d914f9-317b-4356-9031-7d930891593e"},"vehicle_type_id":"4","last_reported":1736982540,"current_range_meters":28400,"station_id":"ce4bha12rcd13ifvqee0","pricing_plan_id":"cebpf4jnsgd1na2vs0mg"},{"bike_id":"4f26bc33-39ee-44c8-a9e9-5ae03626a86e","system_id":"levelo_inurba_marseille","lat":43.32339,"lon":5.38846,"is_reserved":false,"is_disabled":false,"rental_uris":{"android":"levelo://app?vid=4f26bc33-39ee-44c8-a9e9-5ae03626a86e","ios":"levelo://app?vid=4f26bc33-39ee-44c8-a9e9-5ae03626a86e"},"vehicle_type_id":"4","last_reported":1736982540,"current_range_meters":38800,"station_id":"ce4bhqp2rcd13ifvqhog","pricing_plan_id":"cebpf4jnsgd1na2vs0mg"},{"bike_id":"7680d9c7-0877-4a9f-a172-87f40b34ef9e","system_id":"levelo_inurba_marseille","lat":43.28029,"lon":5.36947,"is_reserved":false,"is_disabled":false,"rental_uris":{"android":"levelo://app?vid=7680d9c7-0877-4a9f-a172-87f40b34ef9e","ios":"levelo://app?vid=7680d9c7-0877-4a9f-a172-87f40b34ef9e"},"vehicle_type_id":"4","last_reported":1736982540,"current_range_meters":20000,"station_id":"ce4bha12rcd13ifvqef0","pricing_plan_id":"cebpf4jnsgd1na2vs0mg"},{"bike_id":"78eae67c-a4f7-48b2-9885-b3b915b1a5ec","system_id":"levelo_inurba_marseille","lat":43.30441,"lon":5.38892,"is_reserved":false,"is_disabled":false,"rental_uris":{"android":"levelo://app?vid=78eae67c-a4f7-48b2-9885-b3b915b1a5ec","ios":"levelo://app?vid=78eae67c-a4f7-48b2-9885-b3b915b1a5ec"},"vehicle_type_id":"4","last_reported":1736982540,"current_range_meters":35600,"station_id":"ce4bgk12rcd13ifvqbi0","pricing_plan_id":"cebpf4jnsgd1na2vs0mg"},{"bike_id":"d7ab7de0-4a8c-457a-a21a-73391af488df","system_id":"levelo_inurba_marseille","lat":43.32102,"lon":5.36773,"is_reserved":false,"is_disabled":false,"rental_uris":{"android":"levelo://app?vid=d7ab7de0-4a8c-457a-a21a-73391af488df","ios":"levelo://app?vid=d7ab7de0-4a8c-457a-a21a-73391af488df"},"vehicle_type_id":"4","last_reported":1736982540,"current_range_meters":38800,"station_id":"ce4bhrh2rcd13ifvqhug","pricing_plan_id":"cebpf4jnsgd1na2vs0mg"},{"bike_id":"51bb6953-dea8-4e82-96bf-52696267905f","system_id":"levelo_inurba_marseille","lat":43.23074,"lon":5.35487,"is_reserved":false,"is_disabled":false,"rental_uris":{"android":"levelo://app?vid=51bb6953-dea8-4e82-96bf-52696267905f","ios":"levelo://app?vid=51bb6953-dea8-4e82-96bf-52696267905f"},"vehicle_type_id":"4","last_reported":1736982540,"current_range_meters":38800,"station_id":"cpo3342slgdg3j2ifvpg","pricing_plan_id":"cebpf4jnsgd1na2vs0mg"},{"bike_id":"b702870c-1d78-46d2-88fc-1641a595db26","system_id":"levelo_inurba_marseille","lat":43.34145,"lon":5.40903,"is_reserved":false,"is_disabled":false,"rental_uris":{"android":"levelo://app?vid=b702870c-1d78-46d2-88fc-1641a595db26","ios":"levelo://app?vid=b702870c-1d78-46d2-88fc-1641a595db26"},"vehicle_type_id":"4","last_reported":1736982540,"current_range_meters":37600,"station_id":"ce4bhqh2rcd13ifvqhlg","pricing_plan_id":"cebpf4jnsgd1na2vs0mg"},{"bike_id":"bcaf1888-0e72-497a-935f-c6ecf67bfe31","system_id":"levelo_inurba_marseille","lat":43.30724,"lon":5.39521,"is_reserved":false,"is_disabled":false,"rental_uris":{"android":"levelo://app?vid=bcaf1888-0e72-497a-935f-c6ecf67bfe31","ios":"levelo://app?vid=bcaf1888-0e72-497a-935f-c6ecf67bfe31"},"vehicle_type_id":"4","last_reported":1736982540,"current_range_meters":29600,"station_id":"","pricing_plan_id":"cebpf4jnsgd1na2vs0mg"},{"bike_id":"fd7be8f0-9c83-4f08-bd24-065ae8f50b31","system_id":"levelo_inurba_marseille","lat":43.2465,"lon":5.38907,"is_reserved":false,"is_disabled":false,"rental_uris":{"android":"levelo://app?vid=fd7be8f0-9c83-4f08-bd24-065ae8f50b31","ios":"levelo://app?vid=fd7be8f0-9c83-4f08-bd24-065ae8f50b31"},"vehicle_type_id":"4","last_reported":1736982540,"current_range_meters":38800,"station_id":"ce4bhg12rcd13ifvqf60","pricing_plan_id":"cebpf4jnsgd1na2vs0mg"},{"bike_id":"d62aabf6-9ee5-4808-8677-670939ad6911","system_id":"levelo_inurba_marseille","lat":43.28924,"lon":5.36383,"is_reserved":false,"is_disabled":false,"rental_uris":{"android":"levelo://app?vid=d62aabf6-9ee5-4808-8677-670939ad6911","ios":"levelo://app?vid=d62aabf6-9ee5-4808-8677-670939ad6911"},"vehicle_type_id":"4","last_reported":1736982540,"current_range_meters":36800,"station_id":"ce4bhc92rcd13ifvqetg","pricing_plan_id":"cebpf4jnsgd1na2vs0mg"},{"bike_id":"78218188-10d8-41e6-bf5a-150ff3b43099","system_id":"levelo_inurba_marseille","lat":43.2396,"lon":5.36631,"is_reserved":false,"is_disabled":false,"rental_uris":{"android":"levelo://app?vid=78218188-10d8-41e6-bf5a-150ff3b43099","ios":"levelo://app?vid=78218188-10d8-41e6-bf5a-150ff3b43099"},"vehicle_type_id":"4","last_reported":1736982540,"current_range_meters":7200,"station_id":"ce4bhi12rcd13ifvqfp0","pricing_plan_id":"cebpf4jnsgd1na2vs0mg"},{"bike_id":"3bea599d-9d1d-4ce1-a78c-b94821d3e8a3","system_id":"levelo_inurba_marseille","lat":43.25,"lon":5.38939,"is_reserved":false,"is_disabled":false,"rental_uris":{"android":"levelo://app?vid=3bea599d-9d1d-4ce1-a78c-b94821d3e8a3","ios":"levelo://app?vid=3bea599d-9d1d-4ce1-a78c-b94821d3e8a3"},"vehicle_type_id":"4","last_reported":1736982540,"current_range_meters":38800,"station_id":"ce4bhgp2rcd13ifvqfd0","pricing_plan_id":"cebpf4jnsgd1na2vs0mg"},{"bike_id":"4ed35703-7db0-45cb-9540-60199c11afca","system_id":"levelo_inurba_marseille","lat":43.310738,"lon":5.383503,"is_reserved":false,"is_disabled":false,"rental_uris":{"android":"levelo://app?vid=4ed35703-7db0-45cb-9540-60199c11afca","ios":"levelo://app?vid=4ed35703-7db0-45cb-9540-60199c11afca"},"vehicle_type_id":"4","last_reported":1736982540,"current_range_meters":38800,"station_id":"ce4bgv92rcd13ifvqcr0","pricing_plan_id":"cebpf4jnsgd1na2vs0mg"},{"bike_id":"22086968-6826-4a37-97ae-ffe81d3b7d5d","system_id":"levelo_inurba_marseille","lat":43.31717,"lon":5.40457,"is_reserved":false,"is_disabled":false,"rental_uris":{"android":"levelo://app?vid=22086968-6826-4a37-97ae-ffe81d3b7d5d","ios":"levelo://app?vid=22086968-6826-4a37-97ae-ffe81d3b7d5d"},"vehicle_type_id":"4","last_reported":1736982540,"current_range_meters":35200,"station_id":"ce4bh012rcd13ifvqd00","pricing_plan_id":"cebpf4jnsgd1na2vs0mg"},{"bike_id":"1a88b36a-bdcc-4ab6-a257-59715f73d204","system_id":"levelo_inurba_marseille","lat":43.26682,"lon":5.38273,"is_reserved":false,"is_disabled":false,"rental_uris":{"android":"levelo://app?vid=1a88b36a-bdcc-4ab6-a257-59715f73d204","ios":"levelo://app?vid=1a88b36a-bdcc-4ab6-a257-59715f73d204"},"vehicle_type_id":"4","last_reported":1736982540,"current_range_meters":24000,"station_id":"ce4bhg92rcd13ifvqf90","pricing_plan_id":"cebpf4jnsgd1na2vs0mg"},{"bike_id":"f6b5a21b-caca-4bab-9767-62a516c88435","system_id":"levelo_inurba_marseille","lat":43.24648,"lon":5.38907,"is_reserved":false,"is_disabled":false,"rental_uris":{"android":"levelo://app?vid=f6b5a21b-caca-4bab-9767-62a516c88435","ios":"levelo://app?vid=f6b5a21b-caca-4bab-9767-62a516c88435"},"vehicle_type_id":"4","last_reported":1736982540,"current_range_meters":39200,"station_id":"ce4bhg12rcd13ifvqf60","pricing_plan_id":"cebpf4jnsgd1na2vs0mg"},{"bike_id":"ee8d712c-ac74-4c5c-a149-82b10ba49214","system_id":"levelo_inurba_marseille","lat":43.26937,"lon":5.38925,"is_reserved":false,"is_disabled":false,"rental_uris":{"android":"levelo://app?vid=ee8d712c-ac74-4c5c-a149-82b10ba49214","ios":"levelo://app?vid=ee8d712c-ac74-4c5c-a149-82b10ba49214"},"vehicle_type_id":"4","last_reported":1736982540,"current_range_meters":27600,"station_id":"ce4bhhh2rcd13ifvqfl0","pricing_plan_id":"cebpf4jnsgd1na2vs0mg"},{"bike_id":"26bf88bc-9ab6-4d8a-bd3b-8823091c5a70","system_id":"levelo_inurba_marseille","lat":43.281549,"lon":5.426403,"is_reserved":false,"is_disabled":false,"rental_uris":{"android":"levelo://app?vid=26bf88bc-9ab6-4d8a-bd3b-8823091c5a70","ios":"levelo://app?vid=26bf88bc-9ab6-4d8a-bd3b-8823091c5a70"},"vehicle_type_id":"4","last_reported":1736982540,"current_range_meters":20800,"station_id":"ce4bhnh2rcd13ifvqgug","pricing_plan_id":"cebpf4jnsgd1na2vs0mg"},{"bike_id":"4a8c20d9-670a-4029-9219-52996fd0718d","system_id":"levelo_inurba_marseille","lat":43.280744,"lon":5.396457,"is_reserved":false,"is_disabled":false,"rental_uris":{"android":"levelo://app?vid=4a8c20d9-670a-4029-9219-52996fd0718d","ios":"levelo://app?vid=4a8c20d9-670a-4029-9219-52996fd0718d"},"vehicle_type_id":"4","last_reported":1736982540,"current_range_meters":38000,"station_id":"ce4bho12rcd13ifvqh2g","pricing_plan_id":"cebpf4jnsgd1na2vs0mg"},{"bike_id":"9f01486f-2bf6-4386-82c7-df7001a32308","system_id":"levelo_inurba_marseille","lat":43.25124,"lon":5.40318,"is_reserved":false,"is_disabled":true,"rental_uris":{"android":"levelo://app?vid=9f01486f-2bf6-4386-82c7-df7001a32308","ios":"levelo://app?vid=9f01486f-2bf6-4386-82c7-df7001a32308"},"vehicle_type_id":"4","last_reported":1736982540,"current_range_meters":39200,"station_id":"ce4bhlh2rcd13ifvqgig","pricing_plan_id":"cebpf4jnsgd1na2vs0mg"},{"bike_id":"89adac29-7f45-41f5-a375-7c2c03f95ecb","system_id":"levelo_inurba_marseille","lat":43.29808,"lon":5.40392,"is_reserved":false,"is_disabled":false,"rental_uris":{"android":"levelo://app?vid=89adac29-7f45-41f5-a375-7c2c03f95ecb","ios":"levelo://app?vid=89adac29-7f45-41f5-a375-7c2c03f95ecb"},"vehicle_type_id":"4","last_reported":1736982540,"current_range_meters":37600,"station_id":"ce4bh112rcd13ifvqd90","pricing_plan_id":"cebpf4jnsgd1na2vs0mg"},{"bike_id":"cb57f13e-0f96-498a-b9ca-57c0b42e7a64","system_id":"levelo_inurba_marseille","lat":43.2396,"lon":5.36627,"is_reserved":false,"is_disabled":false,"rental_uris":{"android":"levelo://app?vid=cb57f13e-0f96-498a-b9ca-57c0b42e7a64","ios":"levelo://app?vid=cb57f13e-0f96-498a-b9ca-57c0b42e7a64"},"vehicle_type_id":"4","last_reported":1736982540,"current_range_meters":22000,"station_id":"ce4bhi12rcd13ifvqfp0","pricing_plan_id":"cebpf4jnsgd1na2vs0mg"},{"bike_id":"a56bdef2-14b8-4e02-b3bc-538917283971","system_id":"levelo_inurba_marseille","lat":43.25098,"lon":5.39504,"is_reserved":false,"is_disabled":false,"rental_uris":{"android":"levelo://app?vid=a56bdef2-14b8-4e02-b3bc-538917283971","ios":"levelo://app?vid=a56bdef2-14b8-4e02-b3bc-538917283971"},"vehicle_type_id":"4","last_reported":1736982540,"current_range_meters":26000,"station_id":"ce4bhm12rcd13ifvqgkg","pricing_plan_id":"cebpf4jnsgd1na2vs0mg"},{"bike_id":"4a580b3d-1de7-410c-b007-9f6f811026cd","system_id":"levelo_inurba_marseille","lat":43.25822,"lon":5.39412,"is_reserved":false,"is_disabled":false,"rental_uris":{"android":"levelo://app?vid=4a580b3d-1de7-410c-b007-9f6f811026cd","ios":"levelo://app?vid=4a580b3d-1de7-410c-b007-9f6f811026cd"},"vehicle_type_id":"4","last_reported":1736982540,"current_range_meters":38800,"station_id":"ce4bhip2rcd13ifvqft0","pricing_plan_id":"cebpf4jnsgd1na2vs0mg"},{"bike_id":"1e040693-baaf-4374-8c35-8fd64d6321d0","system_id":"levelo_inurba_marseille","lat":43.28587,"lon":5.39036,"is_reserved":false,"is_disabled":false,"rental_uris":{"android":"levelo://app?vid=1e040693-baaf-4374-8c35-8fd64d6321d0","ios":"levelo://app?vid=1e040693-baaf-4374-8c35-8fd64d6321d0"},"vehicle_type_id":"4","last_reported":1736982540,"current_range_meters":32800,"station_id":"","pricing_plan_id":"cebpf4jnsgd1na2vs0mg"},{"bike_id":"512796d1-8e41-4714-bb68-24ce5b606af1","system_id":"levelo_inurba_marseille","lat":43.26489,"lon":5.39554,"is_reserved":false,"is_disabled":false,"rental_uris":{"android":"levelo://app?vid=512796d1-8e41-4714-bb68-24ce5b606af1","ios":"levelo://app?vid=512796d1-8e41-4714-bb68-24ce5b606af1"},"vehicle_type_id":"4","last_reported":1736982540,"current_range_meters":38800,"station_id":"ce4bhi12rcd13ifvqfq0","pricing_plan_id":"cebpf4jnsgd1na2vs0mg"},{"bike_id":"944551cb-bc5e-419f-8a98-9b450af1f656","system_id":"levelo_inurba_marseille","lat":43.25584,"lon":5.38237,"is_reserved":false,"is_disabled":false,"rental_uris":{"android":"levelo://app?vid=944551cb-bc5e-419f-8a98-9b450af1f656","ios":"levelo://app?vid=944551cb-bc5e-419f-8a98-9b450af1f656"},"vehicle_type_id":"4","last_reported":1736982540,"current_range_meters":27600,"station_id":"ce4bhih2rcd13ifvqfs0","pricing_plan_id":"cebpf4jnsgd1na2vs0mg"},{"bike_id":"13f0fab4-fd5c-4376-8665-f2bb295d2983","system_id":"levelo_inurba_marseille","lat":43.30888,"lon":5.39653,"is_reserved":false,"is_disabled":false,"rental_uris":{"android":"levelo://app?vid=13f0fab4-fd5c-4376-8665-f2bb295d2983","ios":"levelo://app?vid=13f0fab4-fd5c-4376-8665-f2bb295d2983"},"vehicle_type_id":"4","last_reported":1736982540,"current_range_meters":19600,"station_id":"ce4bh012rcd13ifvqcv0","pricing_plan_id":"cebpf4jnsgd1na2vs0mg"},{"bike_id":"e5b9252e-eebf-4c90-b028-b53cc4934330","system_id":"levelo_inurba_marseille","lat":43.30361,"lon":5.41898,"is_reserved":false,"is_disabled":true,"rental_uris":{"android":"levelo://app?vid=e5b9252e-eebf-4c90-b028-b53cc4934330","ios":"levelo://app?vid=e5b9252e-eebf-4c90-b028-b53cc4934330"},"vehicle_type_id":"4","last_reported":1736982540,"current_range_meters":16000,"station_id":"ce4bhop2rcd13ifvqh7g","pricing_plan_id":"cebpf4jnsgd1na2vs0mg"},{"bike_id":"478e430e-958e-46e1-944b-c9fbb0aeb287","system_id":"levelo_inurba_marseille","lat":43.29895,"lon":5.39735,"is_reserved":false,"is_disabled":false,"rental_uris":{"android":"levelo://app?vid=478e430e-958e-46e1-944b-c9fbb0aeb287","ios":"levelo://app?vid=478e430e-958e-46e1-944b-c9fbb0aeb287"},"vehicle_type_id":"4","last_reported":1736982540,"current_range_meters":38000,"station_id":"ce4bh0h2rcd13ifvqd50","pricing_plan_id":"cebpf4jnsgd1na2vs0mg"},{"bike_id":"616f800e-b36e-415d-af31-5ce43bcd69c8","system_id":"levelo_inurba_marseille","lat":43.25088,"lon":5.39495,"is_reserved":false,"is_disabled":false,"rental_uris":{"android":"levelo://app?vid=616f800e-b36e-415d-af31-5ce43bcd69c8","ios":"levelo://app?vid=616f800e-b36e-415d-af31-5ce43bcd69c8"},"vehicle_type_id":"4","last_reported":1736982540,"current_range_meters":12800,"station_id":"ce4bhm12rcd13ifvqgkg","pricing_plan_id":"cebpf4jnsgd1na2vs0mg"},{"bike_id":"93af35ad-738e-40e4-afcb-6d3589d7e732","system_id":"levelo_inurba_marseille","lat":43.23156,"lon":5.43696,"is_reserved":false,"is_disabled":false,"rental_uris":{"android":"levelo://app?vid=93af35ad-738e-40e4-afcb-6d3589d7e732","ios":"levelo://app?vid=93af35ad-738e-40e4-afcb-6d3589d7e732"},"vehicle_type_id":"4","last_reported":1736982540,"current_range_meters":25200,"station_id":"ce4bhmp2rcd13ifvqgog","pricing_plan_id":"cebpf4jnsgd1na2vs0mg"},{"bike_id":"653d7eb5-e932-4d0f-8eba-b2bccd81fbe5","system_id":"levelo_inurba_marseille","lat":43.3132,"lon":5.36774,"is_reserved":false,"is_disabled":true,"rental_uris":{"android":"levelo://app?vid=653d7eb5-e932-4d0f-8eba-b2bccd81fbe5","ios":"levelo://app?vid=653d7eb5-e932-4d0f-8eba-b2bccd81fbe5"},"vehicle_type_id":"4","last_reported":1736982540,"current_range_meters":0,"station_id":"","pricing_plan_id":"cebpf4jnsgd1na2vs0mg"},{"bike_id":"f82ceb99-c44d-4f9d-bec0-701c6e43c0c2","system_id":"levelo_inurba_marseille","lat":43.31172,"lon":5.38711,"is_reserved":false,"is_disabled":false,"rental_uris":{"android":"levelo://app?vid=f82ceb99-c44d-4f9d-bec0-701c6e43c0c2","ios":"levelo://app?vid=f82ceb99-c44d-4f9d-bec0-701c6e43c0c2"},"vehicle_type_id":"4","last_reported":1736982540,"current_range_meters":16800,"station_id":"ce4bgv12rcd13ifvqcp0","pricing_plan_id":"cebpf4jnsgd1na2vs0mg"},{"bike_id":"edc3ef82-4f7e-4056-942f-8e28e925ea2f","system_id":"levelo_inurba_marseille","lat":43.24093,"lon":5.37765,"is_reserved":false,"is_disabled":false,"rental_uris":{"android":"levelo://app?vid=edc3ef82-4f7e-4056-942f-8e28e925ea2f","ios":"levelo://app?vid=edc3ef82-4f7e-4056-942f-8e28e925ea2f"},"vehicle_type_id":"4","last_reported":1736982540,"current_range_meters":39200,"station_id":"ce4bhnp2rcd13ifvqgvg","pricing_plan_id":"cebpf4jnsgd1na2vs0mg"},{"bike_id":"48f101cc-dfef-4933-a09b-b6d0ee025ad9","system_id":"levelo_inurba_marseille","lat":43.323665,"lon":5.388792,"is_reserved":false,"is_disabled":false,"rental_uris":{"android":"levelo://app?vid=48f101cc-dfef-4933-a09b-b6d0ee025ad9","ios":"levelo://app?vid=48f101cc-dfef-4933-a09b-b6d0ee025ad9"},"vehicle_type_id":"4","last_reported":1736982540,"current_range_meters":37600,"station_id":"ce4bhqp2rcd13ifvqhog","pricing_plan_id":"cebpf4jnsgd1na2vs0mg"},{"bike_id":"4b5a720b-ef9e-421e-b75e-c96b247c25a9","system_id":"levelo_inurba_marseille","lat":43.30778,"lon":5.37663,"is_reserved":false,"is_disabled":false,"rental_uris":{"android":"levelo://app?vid=4b5a720b-ef9e-421e-b75e-c96b247c25a9","ios":"levelo://app?vid=4b5a720b-ef9e-421e-b75e-c96b247c25a9"},"vehicle_type_id":"4","last_reported":1736982540,"current_range_meters":38800,"station_id":"ce4bgv92rcd13ifvqcq0","pricing_plan_id":"cebpf4jnsgd1na2vs0mg"},{"bike_id":"48dc9977-942c-469c-90b6-18ec7a2f483b","system_id":"levelo_inurba_marseille","lat":43.33022,"lon":5.39044,"is_reserved":false,"is_disabled":false,"rental_uris":{"android":"levelo://app?vid=48dc9977-942c-469c-90b6-18ec7a2f483b","ios":"levelo://app?vid=48dc9977-942c-469c-90b6-18ec7a2f483b"},"vehicle_type_id":"4","last_reported":1736982540,"current_range_meters":28400,"station_id":"ce4bhr92rcd13ifvqhrg","pricing_plan_id":"cebpf4jnsgd1na2vs0mg"},{"bike_id":"0adbfa65-465c-487a-8c44-6247250163c9","system_id":"levelo_inurba_marseille","lat":43.31216,"lon":5.36879,"is_reserved":false,"is_disabled":true,"rental_uris":{"android":"levelo://app?vid=0adbfa65-465c-487a-8c44-6247250163c9","ios":"levelo://app?vid=0adbfa65-465c-487a-8c44-6247250163c9"},"vehicle_type_id":"4","last_reported":1736982540,"current_range_meters":3200,"station_id":"ce4bgl92rcd13ifvqbq0","pricing_plan_id":"cebpf4jnsgd1na2vs0mg"},{"bike_id":"c57f7411-350c-444f-bc55-fcab7a54283f","system_id":"levelo_inurba_marseille","lat":43.279449,"lon":5.410527,"is_reserved":false,"is_disabled":false,"rental_uris":{"android":"levelo://app?vid=c57f7411-350c-444f-bc55-fcab7a54283f","ios":"levelo://app?vid=c57f7411-350c-444f-bc55-fcab7a54283f"},"vehicle_type_id":"4","last_reported":1736982540,"current_range_meters":32000,"station_id":"ce4bhnp2rcd13ifvqh0g","pricing_plan_id":"cebpf4jnsgd1na2vs0mg"},{"bike_id":"d8e3941b-0cae-4b8e-ae3c-c34a4b3b2c65","system_id":"levelo_inurba_marseille","lat":43.31995,"lon":5.3814,"is_reserved":false,"is_disabled":false,"rental_uris":{"android":"levelo://app?vid=d8e3941b-0cae-4b8e-ae3c-c34a4b3b2c65","ios":"levelo://app?vid=d8e3941b-0cae-4b8e-ae3c-c34a4b3b2c65"},"vehicle_type_id":"4","last_reported":1736982540,"current_range_meters":38000,"station_id":"ce4bhr12rcd13ifvqhpg","pricing_plan_id":"cebpf4jnsgd1na2vs0mg"},{"bike_id":"c7e4f96c-e72f-449d-8ddb-6a60bf61eb3e","system_id":"levelo_inurba_marseille","lat":43.290955,"lon":5.381407,"is_reserved":false,"is_disabled":false,"rental_uris":{"android":"levelo://app?vid=c7e4f96c-e72f-449d-8ddb-6a60bf61eb3e","ios":"levelo://app?vid=c7e4f96c-e72f-449d-8ddb-6a60bf61eb3e"},"vehicle_type_id":"4","last_reported":1736982540,"current_range_meters":28000,"station_id":"ce4bgvh2rcd13ifvqcs0","pricing_plan_id":"cebpf4jnsgd1na2vs0mg"},{"bike_id":"ef7adbc7-f956-407a-a3eb-ebdd3e60d992","system_id":"levelo_inurba_marseille","lat":43.30555,"lon":5.36529,"is_reserved":false,"is_disabled":true,"rental_uris":{"android":"levelo://app?vid=ef7adbc7-f956-407a-a3eb-ebdd3e60d992","ios":"levelo://app?vid=ef7adbc7-f956-407a-a3eb-ebdd3e60d992"},"vehicle_type_id":"4","last_reported":1736982540,"current_range_meters":6400,"station_id":"ce4bgs12rcd13ifvqcag","pricing_plan_id":"cebpf4jnsgd1na2vs0mg"},{"bike_id":"f5ea83ca-f3f7-4d62-ab7d-6af55e2e03de","system_id":"levelo_inurba_marseille","lat":43.28705,"lon":5.3998,"is_reserved":false,"is_disabled":false,"rental_uris":{"android":"levelo://app?vid=f5ea83ca-f3f7-4d62-ab7d-6af55e2e03de","ios":"levelo://app?vid=f5ea83ca-f3f7-4d62-ab7d-6af55e2e03de"},"vehicle_type_id":"4","last_reported":1736982540,"current_range_meters":30400,"station_id":"ce4bho92rcd13ifvqh3g","pricing_plan_id":"cebpf4jnsgd1na2vs0mg"},{"bike_id":"8a5a41c6-c6c6-427e-a7d8-5be0f418b8ed","system_id":"levelo_inurba_marseille","lat":43.26815,"lon":5.40254,"is_reserved":false,"is_disabled":false,"rental_uris":{"android":"levelo://app?vid=8a5a41c6-c6c6-427e-a7d8-5be0f418b8ed","ios":"levelo://app?vid=8a5a41c6-c6c6-427e-a7d8-5be0f418b8ed"},"vehicle_type_id":"4","last_reported":1736982540,"current_range_meters":39200,"station_id":"ce501612rcd8frsf0b60","pricing_plan_id":"cebpf4jnsgd1na2vs0mg"},{"bike_id":"c1b93f11-c5af-455c-b2e3-1cfe9a6876da","system_id":"levelo_inurba_marseille","lat":43.306482,"lon":5.400638,"is_reserved":false,"is_disabled":false,"rental_uris":{"android":"levelo://app?vid=c1b93f11-c5af-455c-b2e3-1cfe9a6876da","ios":"levelo://app?vid=c1b93f11-c5af-455c-b2e3-1cfe9a6876da"},"vehicle_type_id":"4","last_reported":1736982540,"current_range_meters":26000,"station_id":"ce4bh112rcd13ifvqda0","pricing_plan_id":"cebpf4jnsgd1na2vs0mg"},{"bike_id":"f3369e4c-1136-4459-9b68-87479f745033","system_id":"levelo_inurba_marseille","lat":43.30301,"lon":5.39214,"is_reserved":false,"is_disabled":true,"rental_uris":{"android":"levelo://app?vid=f3369e4c-1136-4459-9b68-87479f745033","ios":"levelo://app?vid=f3369e4c-1136-4459-9b68-87479f745033"},"vehicle_type_id":"4","last_reported":1736982540,"current_range_meters":1200,"station_id":"ce4bgkh2rcd13ifvqbk0","pricing_plan_id":"cebpf4jnsgd1na2vs0mg"},{"bike_id":"e1c27fcd-d2f7-4eb4-ad93-396f77fe7029","system_id":"levelo_inurba_marseille","lat":43.31125,"lon":5.37776,"is_reserved":false,"is_disabled":false,"rental_uris":{"android":"levelo://app?vid=e1c27fcd-d2f7-4eb4-ad93-396f77fe7029","ios":"levelo://app?vid=e1c27fcd-d2f7-4eb4-ad93-396f77fe7029"},"vehicle_type_id":"4","last_reported":1736982540,"current_range_meters":28000,"station_id":"ce4bgt92rcd13ifvqcg0","pricing_plan_id":"cebpf4jnsgd1na2vs0mg"},{"bike_id":"8809c6f6-121e-4510-8071-0bf0f827f4c0","system_id":"levelo_inurba_marseille","lat":43.26483,"lon":5.39548,"is_reserved":false,"is_disabled":false,"rental_uris":{"android":"levelo://app?vid=8809c6f6-121e-4510-8071-0bf0f827f4c0","ios":"levelo://app?vid=8809c6f6-121e-4510-8071-0bf0f827f4c0"},"vehicle_type_id":"4","last_reported":1736982540,"current_range_meters":10000,"station_id":"ce4bhi12rcd13ifvqfq0","pricing_plan_id":"cebpf4jnsgd1na2vs0mg"},{"bike_id":"48129861-065e-44a1-be0d-32348f0bdedb","system_id":"levelo_inurba_marseille","lat":43.28706,"lon":5.39962,"is_reserved":false,"is_disabled":false,"rental_uris":{"android":"levelo://app?vid=48129861-065e-44a1-be0d-32348f0bdedb","ios":"levelo://app?vid=48129861-065e-44a1-be0d-32348f0bdedb"},"vehicle_type_id":"4","last_reported":1736982540,"current_range_meters":18800,"station_id":"ce4bho92rcd13ifvqh3g","pricing_plan_id":"cebpf4jnsgd1na2vs0mg"},{"bike_id":"0bee06f7-2a8e-4683-b4fb-ba4223d8810d","system_id":"levelo_inurba_marseille","lat":43.30938,"lon":5.40145,"is_reserved":false,"is_disabled":false,"rental_uris":{"android":"levelo://app?vid=0bee06f7-2a8e-4683-b4fb-ba4223d8810d","ios":"levelo://app?vid=0bee06f7-2a8e-4683-b4fb-ba4223d8810d"},"vehicle_type_id":"4","last_reported":1736982540,"current_range_meters":30400,"station_id":"ce4bgvp2rcd13ifvqct0","pricing_plan_id":"cebpf4jnsgd1na2vs0mg"},{"bike_id":"e8a63cd5-0015-4448-a93d-2fed9cfa5ba5","system_id":"levelo_inurba_marseille","lat":43.31367,"lon":5.38504,"is_reserved":false,"is_disabled":false,"rental_uris":{"android":"levelo://app?vid=e8a63cd5-0015-4448-a93d-2fed9cfa5ba5","ios":"levelo://app?vid=e8a63cd5-0015-4448-a93d-2fed9cfa5ba5"},"vehicle_type_id":"4","last_reported":1736982540,"current_range_meters":38800,"station_id":"ce4bgt92rcd13ifvqcf0","pricing_plan_id":"cebpf4jnsgd1na2vs0mg"},{"bike_id":"e54d3737-b658-43e0-b269-2b5f2f7570ee","system_id":"levelo_inurba_marseille","lat":43.2866,"lon":5.36366,"is_reserved":false,"is_disabled":false,"rental_uris":{"android":"levelo://app?vid=e54d3737-b658-43e0-b269-2b5f2f7570ee","ios":"levelo://app?vid=e54d3737-b658-43e0-b269-2b5f2f7570ee"},"vehicle_type_id":"4","last_reported":1736982540,"current_range_meters":6800,"station_id":"ce4bhah2rcd13ifvqej0","pricing_plan_id":"cebpf4jnsgd1na2vs0mg"},{"bike_id":"7dafb13a-c010-4e97-a0b8-ce1813ba0a32","system_id":"levelo_inurba_marseille","lat":43.2861,"lon":5.37063,"is_reserved":false,"is_disabled":false,"rental_uris":{"android":"levelo://app?vid=7dafb13a-c010-4e97-a0b8-ce1813ba0a32","ios":"levelo://app?vid=7dafb13a-c010-4e97-a0b8-ce1813ba0a32"},"vehicle_type_id":"4","last_reported":1736982540,"current_range_meters":27200,"station_id":"ce4bht12rcd13ifvqi60","pricing_plan_id":"cebpf4jnsgd1na2vs0mg"},{"bike_id":"7a26b63c-652f-4d2d-8353-1a9dfb4e945a","system_id":"levelo_inurba_marseille","lat":43.33724,"lon":5.39189,"is_reserved":false,"is_disabled":false,"rental_uris":{"android":"levelo://app?vid=7a26b63c-652f-4d2d-8353-1a9dfb4e945a","ios":"levelo://app?vid=7a26b63c-652f-4d2d-8353-1a9dfb4e945a"},"vehicle_type_id":"4","last_reported":1736982540,"current_range_meters":39200,"station_id":"ce4bhr92rcd13ifvqhsg","pricing_plan_id":"cebpf4jnsgd1na2vs0mg"},{"bike_id":"e96d83a8-cde8-404a-9e40-5bc9e9229ea9","system_id":"levelo_inurba_marseille","lat":43.33775,"lon":5.37433,"is_reserved":false,"is_disabled":false,"rental_uris":{"android":"levelo://app?vid=e96d83a8-cde8-404a-9e40-5bc9e9229ea9","ios":"levelo://app?vid=e96d83a8-cde8-404a-9e40-5bc9e9229ea9"},"vehicle_type_id":"4","last_reported":1736982540,"current_range_meters":36800,"station_id":"","pricing_plan_id":"cebpf4jnsgd1na2vs0mg"},{"bike_id":"f4764a42-86eb-4d76-b558-df598e488f6c","system_id":"levelo_inurba_marseille","lat":43.23925,"lon":5.376,"is_reserved":false,"is_disabled":false,"rental_uris":{"android":"levelo://app?vid=f4764a42-86eb-4d76-b558-df598e488f6c","ios":"levelo://app?vid=f4764a42-86eb-4d76-b558-df598e488f6c"},"vehicle_type_id":"4","last_reported":1736982540,"current_range_meters":3200,"station_id":"","pricing_plan_id":"cebpf4jnsgd1na2vs0mg"},{"bike_id":"5e5fc1d6-193c-4267-9b79-66f1a3263221","system_id":"levelo_inurba_marseille","lat":43.24069,"lon":5.37746,"is_reserved":false,"is_disabled":false,"rental_uris":{"android":"levelo://app?vid=5e5fc1d6-193c-4267-9b79-66f1a3263221","ios":"levelo://app?vid=5e5fc1d6-193c-4267-9b79-66f1a3263221"},"vehicle_type_id":"4","last_reported":1736982540,"current_range_meters":38000,"station_id":"ce4bhnp2rcd13ifvqgvg","pricing_plan_id":"cebpf4jnsgd1na2vs0mg"},{"bike_id":"56b8e9bc-f750-4815-bc98-9098414d16db","system_id":"levelo_inurba_marseille","lat":43.23195,"lon":5.35552,"is_reserved":false,"is_disabled":true,"rental_uris":{"android":"levelo://app?vid=56b8e9bc-f750-4815-bc98-9098414d16db","ios":"levelo://app?vid=56b8e9bc-f750-4815-bc98-9098414d16db"},"vehicle_type_id":"4","last_reported":1736982540,"current_range_meters":0,"station_id":"ce4bhu92rcd13ifvqi70","pricing_plan_id":"cebpf4jnsgd1na2vs0mg"},{"bike_id":"8e734dd1-aaf0-44fe-8abc-175106067a04","system_id":"levelo_inurba_marseille","lat":43.28933,"lon":5.36417,"is_reserved":false,"is_disabled":false,"rental_uris":{"android":"levelo://app?vid=8e734dd1-aaf0-44fe-8abc-175106067a04","ios":"levelo://app?vid=8e734dd1-aaf0-44fe-8abc-175106067a04"},"vehicle_type_id":"4","last_reported":1736982540,"current_range_meters":38800,"station_id":"ce4bhc92rcd13ifvqetg","pricing_plan_id":"cebpf4jnsgd1na2vs0mg"},{"bike_id":"886c2bbb-1b99-4795-80cb-99bf8240c559","system_id":"levelo_inurba_marseille","lat":43.246546,"lon":5.388882,"is_reserved":false,"is_disabled":false,"rental_uris":{"android":"levelo://app?vid=886c2bbb-1b99-4795-80cb-99bf8240c559","ios":"levelo://app?vid=886c2bbb-1b99-4795-80cb-99bf8240c559"},"vehicle_type_id":"4","last_reported":1736982540,"current_range_meters":24800,"station_id":"ce4bhg12rcd13ifvqf60","pricing_plan_id":"cebpf4jnsgd1na2vs0mg"},{"bike_id":"56b31172-4f32-4011-8cd1-17d51ee6f061","system_id":"levelo_inurba_marseille","lat":43.29913,"lon":5.37476,"is_reserved":false,"is_disabled":false,"rental_uris":{"android":"levelo://app?vid=56b31172-4f32-4011-8cd1-17d51ee6f061","ios":"levelo://app?vid=56b31172-4f32-4011-8cd1-17d51ee6f061"},"vehicle_type_id":"4","last_reported":1736982540,"current_range_meters":18800,"station_id":"ce4bgjh2rcd13ifvqbg0","pricing_plan_id":"cebpf4jnsgd1na2vs0mg"},{"bike_id":"8fa56adc-0eaa-4d1e-86c0-b8759c4fb267","system_id":"levelo_inurba_marseille","lat":43.25087,"lon":5.39522,"is_reserved":false,"is_disabled":false,"rental_uris":{"android":"levelo://app?vid=8fa56adc-0eaa-4d1e-86c0-b8759c4fb267","ios":"levelo://app?vid=8fa56adc-0eaa-4d1e-86c0-b8759c4fb267"},"vehicle_type_id":"4","last_reported":1736982540,"current_range_meters":37600,"station_id":"ce4bhm12rcd13ifvqgkg","pricing_plan_id":"cebpf4jnsgd1na2vs0mg"},{"bike_id":"f6bb3330-51df-4aaa-8269-ab7638db39bd","system_id":"levelo_inurba_marseille","lat":43.24398,"lon":5.37073,"is_reserved":false,"is_disabled":false,"rental_uris":{"android":"levelo://app?vid=f6bb3330-51df-4aaa-8269-ab7638db39bd","ios":"levelo://app?vid=f6bb3330-51df-4aaa-8269-ab7638db39bd"},"vehicle_type_id":"4","last_reported":1736982540,"current_range_meters":30000,"station_id":"ce4bhhh2rcd13ifvqfk0","pricing_plan_id":"cebpf4jnsgd1na2vs0mg"},{"bike_id":"ef87f77f-d203-49b7-892a-ffc95d000999","system_id":"levelo_inurba_marseille","lat":43.28727,"lon":5.3609,"is_reserved":false,"is_disabled":false,"rental_uris":{"android":"levelo://app?vid=ef87f77f-d203-49b7-892a-ffc95d000999","ios":"levelo://app?vid=ef87f77f-d203-49b7-892a-ffc95d000999"},"vehicle_type_id":"4","last_reported":1736982540,"current_range_meters":38000,"station_id":"cki0cbj6b192h4jlfktg","pricing_plan_id":"cebpf4jnsgd1na2vs0mg"},{"bike_id":"6801b75f-ba24-4717-968a-a8d23abfc515","system_id":"levelo_inurba_marseille","lat":43.25108,"lon":5.40352,"is_reserved":false,"is_disabled":false,"rental_uris":{"android":"levelo://app?vid=6801b75f-ba24-4717-968a-a8d23abfc515","ios":"levelo://app?vid=6801b75f-ba24-4717-968a-a8d23abfc515"},"vehicle_type_id":"4","last_reported":1736982540,"current_range_meters":38800,"station_id":"ce4bhlh2rcd13ifvqgig","pricing_plan_id":"cebpf4jnsgd1na2vs0mg"},{"bike_id":"12b5f6a3-f139-4417-8263-7e4fcd1e2ee5","system_id":"levelo_inurba_marseille","lat":43.28706,"lon":5.37954,"is_reserved":false,"is_disabled":false,"rental_uris":{"android":"levelo://app?vid=12b5f6a3-f139-4417-8263-7e4fcd1e2ee5","ios":"levelo://app?vid=12b5f6a3-f139-4417-8263-7e4fcd1e2ee5"},"vehicle_type_id":"4","last_reported":1736982540,"current_range_meters":38800,"station_id":"ce4bh9p2rcd13ifvqec0","pricing_plan_id":"cebpf4jnsgd1na2vs0mg"},{"bike_id":"dccac9f7-22cb-4419-8286-e3f3fc1791cb","system_id":"levelo_inurba_marseille","lat":43.3135,"lon":5.39683,"is_reserved":false,"is_disabled":false,"rental_uris":{"android":"levelo://app?vid=dccac9f7-22cb-4419-8286-e3f3fc1791cb","ios":"levelo://app?vid=dccac9f7-22cb-4419-8286-e3f3fc1791cb"},"vehicle_type_id":"4","last_reported":1736982540,"current_range_meters":38800,"station_id":"ce4bgvp2rcd13ifvqcu0","pricing_plan_id":"cebpf4jnsgd1na2vs0mg"},{"bike_id":"8c8befec-83a6-4ae4-9845-821c3ffb6ed4","system_id":"levelo_inurba_marseille","lat":43.27914,"lon":5.3959,"is_reserved":false,"is_disabled":false,"rental_uris":{"android":"levelo://app?vid=8c8befec-83a6-4ae4-9845-821c3ffb6ed4","ios":"levelo://app?vid=8c8befec-83a6-4ae4-9845-821c3ffb6ed4"},"vehicle_type_id":"4","last_reported":1736982540,"current_range_meters":26800,"station_id":"ce4bhf92rcd13ifvqf40","pricing_plan_id":"cebpf4jnsgd1na2vs0mg"},{"bike_id":"66c7ef40-be78-46fe-ac73-71f11e84f5c4","system_id":"levelo_inurba_marseille","lat":43.25572,"lon":5.38238,"is_reserved":false,"is_disabled":false,"rental_uris":{"android":"levelo://app?vid=66c7ef40-be78-46fe-ac73-71f11e84f5c4","ios":"levelo://app?vid=66c7ef40-be78-46fe-ac73-71f11e84f5c4"},"vehicle_type_id":"4","last_reported":1736982540,"current_range_meters":12800,"station_id":"ce4bhih2rcd13ifvqfs0","pricing_plan_id":"cebpf4jnsgd1na2vs0mg"},{"bike_id":"c5748c79-66ea-4909-9026-e66a2b573a47","system_id":"levelo_inurba_marseille","lat":43.303074,"lon":5.369066,"is_reserved":false,"is_disabled":true,"rental_uris":{"android":"levelo://app?vid=c5748c79-66ea-4909-9026-e66a2b573a47","ios":"levelo://app?vid=c5748c79-66ea-4909-9026-e66a2b573a47"},"vehicle_type_id":"4","last_reported":1736982540,"current_range_meters":27200,"station_id":"ce4bgqh2rcd13ifvqc5g","pricing_plan_id":"cebpf4jnsgd1na2vs0mg"},{"bike_id":"a23757a7-8413-4de4-9d49-85c9c5186475","system_id":"levelo_inurba_marseille","lat":43.29979,"lon":5.3717,"is_reserved":false,"is_disabled":false,"rental_uris":{"android":"levelo://app?vid=a23757a7-8413-4de4-9d49-85c9c5186475","ios":"levelo://app?vid=a23757a7-8413-4de4-9d49-85c9c5186475"},"vehicle_type_id":"4","last_reported":1736982540,"current_range_meters":39200,"station_id":"ce4bgr92rcd13ifvqc7g","pricing_plan_id":"cebpf4jnsgd1na2vs0mg"},{"bike_id":"60c48e84-151f-4edd-83cd-789ff87c7f63","system_id":"levelo_inurba_marseille","lat":43.28689,"lon":5.3742,"is_reserved":false,"is_disabled":true,"rental_uris":{"android":"levelo://app?vid=60c48e84-151f-4edd-83cd-789ff87c7f63","ios":"levelo://app?vid=60c48e84-151f-4edd-83cd-789ff87c7f63"},"vehicle_type_id":"4","last_reported":1736982540,"current_range_meters":27600,"station_id":"ce4bh3p2rcd13ifvqdq0","pricing_plan_id":"cebpf4jnsgd1na2vs0mg"},{"bike_id":"1ea05333-113b-43e7-929a-470579ef95c0","system_id":"levelo_inurba_marseille","lat":43.295177,"lon":5.393992,"is_reserved":false,"is_disabled":true,"rental_uris":{"android":"levelo://app?vid=1ea05333-113b-43e7-929a-470579ef95c0","ios":"levelo://app?vid=1ea05333-113b-43e7-929a-470579ef95c0"},"vehicle_type_id":"4","last_reported":1736982540,"current_range_meters":16400,"station_id":"ce4bh292rcd13ifvqdf0","pricing_plan_id":"cebpf4jnsgd1na2vs0mg"},{"bike_id":"557bdeaa-471c-464a-90e1-5911c6fabaf0","system_id":"levelo_inurba_marseille","lat":43.32371,"lon":5.389,"is_reserved":false,"is_disabled":false,"rental_uris":{"android":"levelo://app?vid=557bdeaa-471c-464a-90e1-5911c6fabaf0","ios":"levelo://app?vid=557bdeaa-471c-464a-90e1-5911c6fabaf0"},"vehicle_type_id":"4","last_reported":1736982540,"current_range_meters":36000,"station_id":"ce4bhqp2rcd13ifvqhog","pricing_plan_id":"cebpf4jnsgd1na2vs0mg"},{"bike_id":"8877e7a6-4aa2-4c5a-ac5a-26bcf6368000","system_id":"levelo_inurba_marseille","lat":43.28031,"lon":5.36957,"is_reserved":false,"is_disabled":false,"rental_uris":{"android":"levelo://app?vid=8877e7a6-4aa2-4c5a-ac5a-26bcf6368000","ios":"levelo://app?vid=8877e7a6-4aa2-4c5a-ac5a-26bcf6368000"},"vehicle_type_id":"4","last_reported":1736982540,"current_range_meters":28400,"station_id":"ce4bha12rcd13ifvqef0","pricing_plan_id":"cebpf4jnsgd1na2vs0mg"},{"bike_id":"a0ffede7-3341-4855-b911-b1e6e871db85","system_id":"levelo_inurba_marseille","lat":43.32074,"lon":5.41535,"is_reserved":false,"is_disabled":false,"rental_uris":{"android":"levelo://app?vid=a0ffede7-3341-4855-b911-b1e6e871db85","ios":"levelo://app?vid=a0ffede7-3341-4855-b911-b1e6e871db85"},"vehicle_type_id":"4","last_reported":1736982540,"current_range_meters":12000,"station_id":"ce4bhq92rcd13ifvqhkg","pricing_plan_id":"cebpf4jnsgd1na2vs0mg"},{"bike_id":"72c1a72b-7611-4579-b0e3-c6973d08e01a","system_id":"levelo_inurba_marseille","lat":43.29236,"lon":5.36838,"is_reserved":false,"is_disabled":false,"rental_uris":{"android":"levelo://app?vid=72c1a72b-7611-4579-b0e3-c6973d08e01a","ios":"levelo://app?vid=72c1a72b-7611-4579-b0e3-c6973d08e01a"},"vehicle_type_id":"4","last_reported":1736982540,"current_range_meters":8000,"station_id":"ce4bhbp2rcd13ifvqesg","pricing_plan_id":"cebpf4jnsgd1na2vs0mg"},{"bike_id":"e654ab61-f970-4fc3-a129-f43508d487eb","system_id":"levelo_inurba_marseille","lat":43.28682,"lon":5.38654,"is_reserved":false,"is_disabled":false,"rental_uris":{"android":"levelo://app?vid=e654ab61-f970-4fc3-a129-f43508d487eb","ios":"levelo://app?vid=e654ab61-f970-4fc3-a129-f43508d487eb"},"vehicle_type_id":"4","last_reported":1736982540,"current_range_meters":38400,"station_id":"ce4bh492rcd13ifvqdug","pricing_plan_id":"cebpf4jnsgd1na2vs0mg"},{"bike_id":"c89b232d-343f-46cb-b833-7d43ba08c02a","system_id":"levelo_inurba_marseille","lat":43.33016,"lon":5.39008,"is_reserved":false,"is_disabled":false,"rental_uris":{"android":"levelo://app?vid=c89b232d-343f-46cb-b833-7d43ba08c02a","ios":"levelo://app?vid=c89b232d-343f-46cb-b833-7d43ba08c02a"},"vehicle_type_id":"4","last_reported":1736982540,"current_range_meters":34000,"station_id":"ce4bhr92rcd13ifvqhrg","pricing_plan_id":"cebpf4jnsgd1na2vs0mg"},{"bike_id":"23f5ea08-82a0-4cba-b3a5-e1cda91a8208","system_id":"levelo_inurba_marseille","lat":43.3172,"lon":5.42408,"is_reserved":false,"is_disabled":false,"rental_uris":{"android":"levelo://app?vid=23f5ea08-82a0-4cba-b3a5-e1cda91a8208","ios":"levelo://app?vid=23f5ea08-82a0-4cba-b3a5-e1cda91a8208"},"vehicle_type_id":"4","last_reported":1736982540,"current_range_meters":38000,"station_id":"ce4bhp92rcd13ifvqhbg","pricing_plan_id":"cebpf4jnsgd1na2vs0mg"},{"bike_id":"9f89b701-7d41-4871-a620-462fe45589bd","system_id":"levelo_inurba_marseille","lat":43.27374,"lon":5.36251,"is_reserved":false,"is_disabled":false,"rental_uris":{"android":"levelo://app?vid=9f89b701-7d41-4871-a620-462fe45589bd","ios":"levelo://app?vid=9f89b701-7d41-4871-a620-462fe45589bd"},"vehicle_type_id":"4","last_reported":1736982540,"current_range_meters":38800,"station_id":"ce4bhbh2rcd13ifvqeo0","pricing_plan_id":"cebpf4jnsgd1na2vs0mg"},{"bike_id":"917148ce-4c9d-450a-97ee-d2deee4d50c3","system_id":"levelo_inurba_marseille","lat":43.32488,"lon":5.36577,"is_reserved":false,"is_disabled":false,"rental_uris":{"android":"levelo://app?vid=917148ce-4c9d-450a-97ee-d2deee4d50c3","ios":"levelo://app?vid=917148ce-4c9d-450a-97ee-d2deee4d50c3"},"vehicle_type_id":"4","last_reported":1736982540,"current_range_meters":14000,"station_id":"ce4bhs12rcd13ifvqhvg","pricing_plan_id":"cebpf4jnsgd1na2vs0mg"},{"bike_id":"6f0a34a5-dcd2-40df-a525-7f6c1402acf2","system_id":"levelo_inurba_marseille","lat":43.29883,"lon":5.39746,"is_reserved":false,"is_disabled":false,"rental_uris":{"android":"levelo://app?vid=6f0a34a5-dcd2-40df-a525-7f6c1402acf2","ios":"levelo://app?vid=6f0a34a5-dcd2-40df-a525-7f6c1402acf2"},"vehicle_type_id":"4","last_reported":1736982540,"current_range_meters":10000,"station_id":"ce4bh0h2rcd13ifvqd50","pricing_plan_id":"cebpf4jnsgd1na2vs0mg"},{"bike_id":"c4944fc2-d767-48b9-bd43-af584a393e70","system_id":"levelo_inurba_marseille","lat":43.30314,"lon":5.40426,"is_reserved":false,"is_disabled":false,"rental_uris":{"android":"levelo://app?vid=c4944fc2-d767-48b9-bd43-af584a393e70","ios":"levelo://app?vid=c4944fc2-d767-48b9-bd43-af584a393e70"},"vehicle_type_id":"4","last_reported":1736982540,"current_range_meters":4800,"station_id":"ce4bh012rcd13ifvqd10","pricing_plan_id":"cebpf4jnsgd1na2vs0mg"},{"bike_id":"becd60ec-8baa-4bd4-baf7-76ee6c6b3447","system_id":"levelo_inurba_marseille","lat":43.286121,"lon":5.351042,"is_reserved":false,"is_disabled":false,"rental_uris":{"android":"levelo://app?vid=becd60ec-8baa-4bd4-baf7-76ee6c6b3447","ios":"levelo://app?vid=becd60ec-8baa-4bd4-baf7-76ee6c6b3447"},"vehicle_type_id":"4","last_reported":1736982540,"current_range_meters":38800,"station_id":"ce4bhch2rcd13ifvqeug","pricing_plan_id":"cebpf4jnsgd1na2vs0mg"},{"bike_id":"2635dd77-daaa-46f8-b481-18d8bd38ecb3","system_id":"levelo_inurba_marseille","lat":43.28417,"lon":5.34988,"is_reserved":false,"is_disabled":false,"rental_uris":{"android":"levelo://app?vid=2635dd77-daaa-46f8-b481-18d8bd38ecb3","ios":"levelo://app?vid=2635dd77-daaa-46f8-b481-18d8bd38ecb3"},"vehicle_type_id":"4","last_reported":1736982540,"current_range_meters":16400,"station_id":"ce4bhbh2rcd13ifvqepg","pricing_plan_id":"cebpf4jnsgd1na2vs0mg"},{"bike_id":"08427958-dadb-449a-a72a-55745025d77c","system_id":"levelo_inurba_marseille","lat":43.29879,"lon":5.39726,"is_reserved":false,"is_disabled":false,"rental_uris":{"android":"levelo://app?vid=08427958-dadb-449a-a72a-55745025d77c","ios":"levelo://app?vid=08427958-dadb-449a-a72a-55745025d77c"},"vehicle_type_id":"4","last_reported":1736982540,"current_range_meters":29600,"station_id":"ce4bh0h2rcd13ifvqd50","pricing_plan_id":"cebpf4jnsgd1na2vs0mg"},{"bike_id":"f582b59d-1225-4cb5-8d0c-2c17265f6846","system_id":"levelo_inurba_marseille","lat":43.28099,"lon":5.37851,"is_reserved":false,"is_disabled":false,"rental_uris":{"android":"levelo://app?vid=f582b59d-1225-4cb5-8d0c-2c17265f6846","ios":"levelo://app?vid=f582b59d-1225-4cb5-8d0c-2c17265f6846"},"vehicle_type_id":"4","last_reported":1736982540,"current_range_meters":36400,"station_id":"ce4bha12rcd13ifvqee0","pricing_plan_id":"cebpf4jnsgd1na2vs0mg"},{"bike_id":"2d7f3353-743b-41e1-85f2-e32181d4ae48","system_id":"levelo_inurba_marseille","lat":43.32009,"lon":5.38147,"is_reserved":false,"is_disabled":false,"rental_uris":{"android":"levelo://app?vid=2d7f3353-743b-41e1-85f2-e32181d4ae48","ios":"levelo://app?vid=2d7f3353-743b-41e1-85f2-e32181d4ae48"},"vehicle_type_id":"4","last_reported":1736982540,"current_range_meters":36400,"station_id":"ce4bhr12rcd13ifvqhpg","pricing_plan_id":"cebpf4jnsgd1na2vs0mg"},{"bike_id":"7e3ee2e7-7482-4133-a472-006dba3905fa","system_id":"levelo_inurba_marseille","lat":43.2551,"lon":5.37644,"is_reserved":false,"is_disabled":false,"rental_uris":{"android":"levelo://app?vid=7e3ee2e7-7482-4133-a472-006dba3905fa","ios":"levelo://app?vid=7e3ee2e7-7482-4133-a472-006dba3905fa"},"vehicle_type_id":"4","last_reported":1736982540,"current_range_meters":29600,"station_id":"ce4bhh12rcd13ifvqff0","pricing_plan_id":"cebpf4jnsgd1na2vs0mg"},{"bike_id":"4b9616fb-f934-46c3-b012-54b53053349a","system_id":"levelo_inurba_marseille","lat":43.30892,"lon":5.39647,"is_reserved":false,"is_disabled":false,"rental_uris":{"android":"levelo://app?vid=4b9616fb-f934-46c3-b012-54b53053349a","ios":"levelo://app?vid=4b9616fb-f934-46c3-b012-54b53053349a"},"vehicle_type_id":"4","last_reported":1736982540,"current_range_meters":33600,"station_id":"ce4bh012rcd13ifvqcv0","pricing_plan_id":"cebpf4jnsgd1na2vs0mg"},{"bike_id":"363da7d7-f331-4be5-b616-92543340adb3","system_id":"levelo_inurba_marseille","lat":43.27186,"lon":5.40983,"is_reserved":false,"is_disabled":false,"rental_uris":{"android":"levelo://app?vid=363da7d7-f331-4be5-b616-92543340adb3","ios":"levelo://app?vid=363da7d7-f331-4be5-b616-92543340adb3"},"vehicle_type_id":"4","last_reported":1736982540,"current_range_meters":36400,"station_id":"ce4bhl12rcd13ifvqgf0","pricing_plan_id":"cebpf4jnsgd1na2vs0mg"},{"bike_id":"3b81ae39-027f-428c-b2db-070b6b26668c","system_id":"levelo_inurba_marseille","lat":43.28104,"lon":5.37835,"is_reserved":false,"is_disabled":false,"rental_uris":{"android":"levelo://app?vid=3b81ae39-027f-428c-b2db-070b6b26668c","ios":"levelo://app?vid=3b81ae39-027f-428c-b2db-070b6b26668c"},"vehicle_type_id":"4","last_reported":1736982540,"current_range_meters":24400,"station_id":"ce4bha12rcd13ifvqee0","pricing_plan_id":"cebpf4jnsgd1na2vs0mg"},{"bike_id":"f7e38dc7-32fb-4613-b8a0-f1dcd3094a54","system_id":"levelo_inurba_marseille","lat":43.31172,"lon":5.3871,"is_reserved":false,"is_disabled":false,"rental_uris":{"android":"levelo://app?vid=f7e38dc7-32fb-4613-b8a0-f1dcd3094a54","ios":"levelo://app?vid=f7e38dc7-32fb-4613-b8a0-f1dcd3094a54"},"vehicle_type_id":"4","last_reported":1736982540,"current_range_meters":38400,"station_id":"ce4bgv12rcd13ifvqcp0","pricing_plan_id":"cebpf4jnsgd1na2vs0mg"},{"bike_id":"1d6528fb-0c16-40a0-8901-74c2906f9d60","system_id":"levelo_inurba_marseille","lat":43.31764,"lon":5.39028,"is_reserved":false,"is_disabled":false,"rental_uris":{"android":"levelo://app?vid=1d6528fb-0c16-40a0-8901-74c2906f9d60","ios":"levelo://app?vid=1d6528fb-0c16-40a0-8901-74c2906f9d60"},"vehicle_type_id":"4","last_reported":1736982540,"current_range_meters":15200,"station_id":"ce4bhqp2rcd13ifvqhng","pricing_plan_id":"cebpf4jnsgd1na2vs0mg"},{"bike_id":"c3e35290-6491-44eb-9866-0c9e8e5b99c9","system_id":"levelo_inurba_marseille","lat":43.32289,"lon":5.38276,"is_reserved":false,"is_disabled":false,"rental_uris":{"android":"levelo://app?vid=c3e35290-6491-44eb-9866-0c9e8e5b99c9","ios":"levelo://app?vid=c3e35290-6491-44eb-9866-0c9e8e5b99c9"},"vehicle_type_id":"4","last_reported":1736982540,"current_range_meters":30400,"station_id":"ce4bhr12rcd13ifvqhqg","pricing_plan_id":"cebpf4jnsgd1na2vs0mg"},{"bike_id":"b583689d-4b3b-4fec-a4c3-0358dd755494","system_id":"levelo_inurba_marseille","lat":43.266878,"lon":5.382702,"is_reserved":false,"is_disabled":false,"rental_uris":{"android":"levelo://app?vid=b583689d-4b3b-4fec-a4c3-0358dd755494","ios":"levelo://app?vid=b583689d-4b3b-4fec-a4c3-0358dd755494"},"vehicle_type_id":"4","last_reported":1736982540,"current_range_meters":26000,"station_id":"ce4bhg92rcd13ifvqf90","pricing_plan_id":"cebpf4jnsgd1na2vs0mg"},{"bike_id":"b514e88f-56ed-470d-b75b-8bf46e194432","system_id":"levelo_inurba_marseille","lat":43.29289,"lon":5.37462,"is_reserved":false,"is_disabled":false,"rental_uris":{"android":"levelo://app?vid=b514e88f-56ed-470d-b75b-8bf46e194432","ios":"levelo://app?vid=b514e88f-56ed-470d-b75b-8bf46e194432"},"vehicle_type_id":"4","last_reported":1736982540,"current_range_meters":11200,"station_id":"ce4bgi12rcd13ifvqb70","pricing_plan_id":"cebpf4jnsgd1na2vs0mg"},{"bike_id":"eba05962-a26b-40af-8ae4-84f831972fde","system_id":"levelo_inurba_marseille","lat":43.31175,"lon":5.38709,"is_reserved":false,"is_disabled":false,"rental_uris":{"android":"levelo://app?vid=eba05962-a26b-40af-8ae4-84f831972fde","ios":"levelo://app?vid=eba05962-a26b-40af-8ae4-84f831972fde"},"vehicle_type_id":"4","last_reported":1736982540,"current_range_meters":34800,"station_id":"ce4bgv12rcd13ifvqcp0","pricing_plan_id":"cebpf4jnsgd1na2vs0mg"},{"bike_id":"8534aaf4-535f-4db5-8998-0f97ef68ef36","system_id":"levelo_inurba_marseille","lat":43.24396,"lon":5.37066,"is_reserved":false,"is_disabled":false,"rental_uris":{"android":"levelo://app?vid=8534aaf4-535f-4db5-8998-0f97ef68ef36","ios":"levelo://app?vid=8534aaf4-535f-4db5-8998-0f97ef68ef36"},"vehicle_type_id":"4","last_reported":1736982540,"current_range_meters":12800,"station_id":"ce4bhhh2rcd13ifvqfk0","pricing_plan_id":"cebpf4jnsgd1na2vs0mg"},{"bike_id":"5d42a98e-bef8-43af-946e-751274f82d4c","system_id":"levelo_inurba_marseille","lat":43.23663,"lon":5.43591,"is_reserved":false,"is_disabled":false,"rental_uris":{"android":"levelo://app?vid=5d42a98e-bef8-43af-946e-751274f82d4c","ios":"levelo://app?vid=5d42a98e-bef8-43af-946e-751274f82d4c"},"vehicle_type_id":"4","last_reported":1736982540,"current_range_meters":34000,"station_id":"","pricing_plan_id":"cebpf4jnsgd1na2vs0mg"},{"bike_id":"b9086b18-df91-424a-b73b-9e86c285b849","system_id":"levelo_inurba_marseille","lat":43.28415,"lon":5.37511,"is_reserved":false,"is_disabled":false,"rental_uris":{"android":"levelo://app?vid=b9086b18-df91-424a-b73b-9e86c285b849","ios":"levelo://app?vid=b9086b18-df91-424a-b73b-9e86c285b849"},"vehicle_type_id":"4","last_reported":1736982540,"current_range_meters":33600,"station_id":"ce4bh412rcd13ifvqds0","pricing_plan_id":"cebpf4jnsgd1na2vs0mg"},{"bike_id":"a2908b4f-e283-49c6-a08d-76ce2a17372d","system_id":"levelo_inurba_marseille","lat":43.29974,"lon":5.38493,"is_reserved":false,"is_disabled":true,"rental_uris":{"android":"levelo://app?vid=a2908b4f-e283-49c6-a08d-76ce2a17372d","ios":"levelo://app?vid=a2908b4f-e283-49c6-a08d-76ce2a17372d"},"vehicle_type_id":"4","last_reported":1736982540,"current_range_meters":38800,"station_id":"ce4bgj92rcd13ifvqbd0","pricing_plan_id":"cebpf4jnsgd1na2vs0mg"},{"bike_id":"05f99b36-9cf7-43cd-9526-71c0f6c7002c","system_id":"levelo_inurba_marseille","lat":43.2607,"lon":5.39393,"is_reserved":false,"is_disabled":false,"rental_uris":{"android":"levelo://app?vid=05f99b36-9cf7-43cd-9526-71c0f6c7002c","ios":"levelo://app?vid=05f99b36-9cf7-43cd-9526-71c0f6c7002c"},"vehicle_type_id":"4","last_reported":1736982540,"current_range_meters":36400,"station_id":"ce4bhh92rcd13ifvqfj0","pricing_plan_id":"cebpf4jnsgd1na2vs0mg"},{"bike_id":"11278e1c-be2e-4e31-bf3c-f5d6585df2f8","system_id":"levelo_inurba_marseille","lat":43.30809,"lon":5.382,"is_reserved":false,"is_disabled":false,"rental_uris":{"android":"levelo://app?vid=11278e1c-be2e-4e31-bf3c-f5d6585df2f8","ios":"levelo://app?vid=11278e1c-be2e-4e31-bf3c-f5d6585df2f8"},"vehicle_type_id":"4","last_reported":1736982540,"current_range_meters":38800,"station_id":"ce4bgt12rcd13ifvqce0","pricing_plan_id":"cebpf4jnsgd1na2vs0mg"},{"bike_id":"6c02ae22-4e33-4b73-a0d5-7fa499611cc2","system_id":"levelo_inurba_marseille","lat":43.23164,"lon":5.43684,"is_reserved":false,"is_disabled":false,"rental_uris":{"android":"levelo://app?vid=6c02ae22-4e33-4b73-a0d5-7fa499611cc2","ios":"levelo://app?vid=6c02ae22-4e33-4b73-a0d5-7fa499611cc2"},"vehicle_type_id":"4","last_reported":1736982540,"current_range_meters":36800,"station_id":"ce4bhmp2rcd13ifvqgog","pricing_plan_id":"cebpf4jnsgd1na2vs0mg"},{"bike_id":"26c59f0b-5c67-41af-a7c3-448cd620e554","system_id":"levelo_inurba_marseille","lat":43.26771,"lon":5.40258,"is_reserved":false,"is_disabled":false,"rental_uris":{"android":"levelo://app?vid=26c59f0b-5c67-41af-a7c3-448cd620e554","ios":"levelo://app?vid=26c59f0b-5c67-41af-a7c3-448cd620e554"},"vehicle_type_id":"4","last_reported":1736982540,"current_range_meters":39200,"station_id":"ce501612rcd8frsf0b60","pricing_plan_id":"cebpf4jnsgd1na2vs0mg"},{"bike_id":"f3000f12-d78d-46d5-99ca-8a4e13f94f9e","system_id":"levelo_inurba_marseille","lat":43.25526,"lon":5.37693,"is_reserved":false,"is_disabled":false,"rental_uris":{"android":"levelo://app?vid=f3000f12-d78d-46d5-99ca-8a4e13f94f9e","ios":"levelo://app?vid=f3000f12-d78d-46d5-99ca-8a4e13f94f9e"},"vehicle_type_id":"4","last_reported":1736982540,"current_range_meters":38800,"station_id":"ce4bhh12rcd13ifvqff0","pricing_plan_id":"cebpf4jnsgd1na2vs0mg"},{"bike_id":"7241fb88-c4be-4279-8256-9b9eda4440ff","system_id":"levelo_inurba_marseille","lat":43.24661,"lon":5.38886,"is_reserved":false,"is_disabled":false,"rental_uris":{"android":"levelo://app?vid=7241fb88-c4be-4279-8256-9b9eda4440ff","ios":"levelo://app?vid=7241fb88-c4be-4279-8256-9b9eda4440ff"},"vehicle_type_id":"4","last_reported":1736982540,"current_range_meters":28800,"station_id":"ce4bhg12rcd13ifvqf60","pricing_plan_id":"cebpf4jnsgd1na2vs0mg"},{"bike_id":"daed1ccd-abf9-45c7-831e-19fefaff00a6","system_id":"levelo_inurba_marseille","lat":43.2815,"lon":5.42629,"is_reserved":false,"is_disabled":false,"rental_uris":{"android":"levelo://app?vid=daed1ccd-abf9-45c7-831e-19fefaff00a6","ios":"levelo://app?vid=daed1ccd-abf9-45c7-831e-19fefaff00a6"},"vehicle_type_id":"4","last_reported":1736982540,"current_range_meters":26000,"station_id":"ce4bhnh2rcd13ifvqgug","pricing_plan_id":"cebpf4jnsgd1na2vs0mg"},{"bike_id":"6003524c-18e4-4d25-8fc7-903f93c12173","system_id":"levelo_inurba_marseille","lat":43.30135,"lon":5.38762,"is_reserved":false,"is_disabled":true,"rental_uris":{"android":"levelo://app?vid=6003524c-18e4-4d25-8fc7-903f93c12173","ios":"levelo://app?vid=6003524c-18e4-4d25-8fc7-903f93c12173"},"vehicle_type_id":"4","last_reported":1736982540,"current_range_meters":400,"station_id":"ce4bghh2rcd13ifvqb60","pricing_plan_id":"cebpf4jnsgd1na2vs0mg"},{"bike_id":"57edb4d6-08bb-4140-842e-8411bf1bbd16","system_id":"levelo_inurba_marseille","lat":43.31361,"lon":5.38502,"is_reserved":false,"is_disabled":false,"rental_uris":{"android":"levelo://app?vid=57edb4d6-08bb-4140-842e-8411bf1bbd16","ios":"levelo://app?vid=57edb4d6-08bb-4140-842e-8411bf1bbd16"},"vehicle_type_id":"4","last_reported":1736982540,"current_range_meters":17600,"station_id":"ce4bgt92rcd13ifvqcf0","pricing_plan_id":"cebpf4jnsgd1na2vs0mg"},{"bike_id":"18aa87ac-4f2a-414a-88f7-f106e8544a48","system_id":"levelo_inurba_marseille","lat":43.28455,"lon":5.35895,"is_reserved":false,"is_disabled":false,"rental_uris":{"android":"levelo://app?vid=18aa87ac-4f2a-414a-88f7-f106e8544a48","ios":"levelo://app?vid=18aa87ac-4f2a-414a-88f7-f106e8544a48"},"vehicle_type_id":"4","last_reported":1736982540,"current_range_meters":26800,"station_id":"ce4bhah2rcd13ifvqei0","pricing_plan_id":"cebpf4jnsgd1na2vs0mg"},{"bike_id":"f8bb08a1-0db5-46dc-aa64-c2185c8a7491","system_id":"levelo_inurba_marseille","lat":43.31167,"lon":5.38731,"is_reserved":false,"is_disabled":false,"rental_uris":{"android":"levelo://app?vid=f8bb08a1-0db5-46dc-aa64-c2185c8a7491","ios":"levelo://app?vid=f8bb08a1-0db5-46dc-aa64-c2185c8a7491"},"vehicle_type_id":"4","last_reported":1736982540,"current_range_meters":36000,"station_id":"ce4bgv12rcd13ifvqcp0","pricing_plan_id":"cebpf4jnsgd1na2vs0mg"},{"bike_id":"7b2dad03-0db0-43a1-9f51-dcbeeaadc873","system_id":"levelo_inurba_marseille","lat":43.24803,"lon":5.37453,"is_reserved":false,"is_disabled":false,"rental_uris":{"android":"levelo://app?vid=7b2dad03-0db0-43a1-9f51-dcbeeaadc873","ios":"levelo://app?vid=7b2dad03-0db0-43a1-9f51-dcbeeaadc873"},"vehicle_type_id":"4","last_reported":1736982540,"current_range_meters":39200,"station_id":"ce4bhgh2rcd13ifvqfb0","pricing_plan_id":"cebpf4jnsgd1na2vs0mg"},{"bike_id":"e1ef5d1c-0e65-4750-a161-52ba58c02508","system_id":"levelo_inurba_marseille","lat":43.2582,"lon":5.39438,"is_reserved":false,"is_disabled":false,"rental_uris":{"android":"levelo://app?vid=e1ef5d1c-0e65-4750-a161-52ba58c02508","ios":"levelo://app?vid=e1ef5d1c-0e65-4750-a161-52ba58c02508"},"vehicle_type_id":"4","last_reported":1736982540,"current_range_meters":38800,"station_id":"ce4bhip2rcd13ifvqft0","pricing_plan_id":"cebpf4jnsgd1na2vs0mg"},{"bike_id":"76fa4a10-90fd-4c10-828d-b6d10a725eac","system_id":"levelo_inurba_marseille","lat":43.28474,"lon":5.38412,"is_reserved":false,"is_disabled":false,"rental_uris":{"android":"levelo://app?vid=76fa4a10-90fd-4c10-828d-b6d10a725eac","ios":"levelo://app?vid=76fa4a10-90fd-4c10-828d-b6d10a725eac"},"vehicle_type_id":"4","last_reported":1736982540,"current_range_meters":35600,"station_id":"ce4bh512rcd13ifvqe3g","pricing_plan_id":"cebpf4jnsgd1na2vs0mg"},{"bike_id":"436208d9-22ee-4b59-8ade-7d37f5f818f8","system_id":"levelo_inurba_marseille","lat":43.30357,"lon":5.39083,"is_reserved":false,"is_disabled":true,"rental_uris":{"android":"levelo://app?vid=436208d9-22ee-4b59-8ade-7d37f5f818f8","ios":"levelo://app?vid=436208d9-22ee-4b59-8ade-7d37f5f818f8"},"vehicle_type_id":"4","last_reported":1736982540,"current_range_meters":6400,"station_id":"ce4bgkh2rcd13ifvqbk0","pricing_plan_id":"cebpf4jnsgd1na2vs0mg"},{"bike_id":"ba1008a8-8bd4-4cbd-ad17-281945b98710","system_id":"levelo_inurba_marseille","lat":43.26565,"lon":5.390088,"is_reserved":false,"is_disabled":true,"rental_uris":{"android":"levelo://app?vid=ba1008a8-8bd4-4cbd-ad17-281945b98710","ios":"levelo://app?vid=ba1008a8-8bd4-4cbd-ad17-281945b98710"},"vehicle_type_id":"4","last_reported":1736982540,"current_range_meters":38800,"station_id":"ce4bhe12rcd13ifvqf30","pricing_plan_id":"cebpf4jnsgd1na2vs0mg"},{"bike_id":"6a8ddc33-6cb4-4563-a42d-1bcac5d8a6a4","system_id":"levelo_inurba_marseille","lat":43.29972,"lon":5.3718,"is_reserved":false,"is_disabled":false,"rental_uris":{"android":"levelo://app?vid=6a8ddc33-6cb4-4563-a42d-1bcac5d8a6a4","ios":"levelo://app?vid=6a8ddc33-6cb4-4563-a42d-1bcac5d8a6a4"},"vehicle_type_id":"4","last_reported":1736982540,"current_range_meters":11200,"station_id":"ce4bgr92rcd13ifvqc7g","pricing_plan_id":"cebpf4jnsgd1na2vs0mg"},{"bike_id":"71bcce36-8466-4391-85d6-adf03de6bf7b","system_id":"levelo_inurba_marseille","lat":43.30457,"lon":5.38906,"is_reserved":false,"is_disabled":false,"rental_uris":{"android":"levelo://app?vid=71bcce36-8466-4391-85d6-adf03de6bf7b","ios":"levelo://app?vid=71bcce36-8466-4391-85d6-adf03de6bf7b"},"vehicle_type_id":"4","last_reported":1736982540,"current_range_meters":35200,"station_id":"ce4bgk12rcd13ifvqbi0","pricing_plan_id":"cebpf4jnsgd1na2vs0mg"},{"bike_id":"b66c8a7c-98ac-480c-a383-f54813a2d5aa","system_id":"levelo_inurba_marseille","lat":43.25823,"lon":5.39437,"is_reserved":false,"is_disabled":false,"rental_uris":{"android":"levelo://app?vid=b66c8a7c-98ac-480c-a383-f54813a2d5aa","ios":"levelo://app?vid=b66c8a7c-98ac-480c-a383-f54813a2d5aa"},"vehicle_type_id":"4","last_reported":1736982540,"current_range_meters":38800,"station_id":"ce4bhip2rcd13ifvqft0","pricing_plan_id":"cebpf4jnsgd1na2vs0mg"},{"bike_id":"89998088-6e50-48ad-aeac-8b7a60b9999a","system_id":"levelo_inurba_marseille","lat":43.27966,"lon":5.38681,"is_reserved":false,"is_disabled":false,"rental_uris":{"android":"levelo://app?vid=89998088-6e50-48ad-aeac-8b7a60b9999a","ios":"levelo://app?vid=89998088-6e50-48ad-aeac-8b7a60b9999a"},"vehicle_type_id":"4","last_reported":1736982540,"current_range_meters":38800,"station_id":"ce4bhg12rcd13ifvqf80","pricing_plan_id":"cebpf4jnsgd1na2vs0mg"},{"bike_id":"e3848547-df47-4a51-92ba-9382fd18f259","system_id":"levelo_inurba_marseille","lat":43.26951,"lon":5.40249,"is_reserved":false,"is_disabled":false,"rental_uris":{"android":"levelo://app?vid=e3848547-df47-4a51-92ba-9382fd18f259","ios":"levelo://app?vid=e3848547-df47-4a51-92ba-9382fd18f259"},"vehicle_type_id":"4","last_reported":1736982540,"current_range_meters":38800,"station_id":"cjm6bp8fraef2m0cb0m0","pricing_plan_id":"cebpf4jnsgd1na2vs0mg"},{"bike_id":"e23da64d-04ba-457d-9262-af80d08f58ba","system_id":"levelo_inurba_marseille","lat":43.30323,"lon":5.40444,"is_reserved":false,"is_disabled":false,"rental_uris":{"android":"levelo://app?vid=e23da64d-04ba-457d-9262-af80d08f58ba","ios":"levelo://app?vid=e23da64d-04ba-457d-9262-af80d08f58ba"},"vehicle_type_id":"4","last_reported":1736982540,"current_range_meters":37600,"station_id":"ce4bh012rcd13ifvqd10","pricing_plan_id":"cebpf4jnsgd1na2vs0mg"},{"bike_id":"da3f7a96-04f0-45a8-ab21-e4d3ec53c466","system_id":"levelo_inurba_marseille","lat":43.246,"lon":5.39506,"is_reserved":false,"is_disabled":false,"rental_uris":{"android":"levelo://app?vid=da3f7a96-04f0-45a8-ab21-e4d3ec53c466","ios":"levelo://app?vid=da3f7a96-04f0-45a8-ab21-e4d3ec53c466"},"vehicle_type_id":"4","last_reported":1736982540,"current_range_meters":30800,"station_id":"ce4bhlp2rcd13ifvqgjg","pricing_plan_id":"cebpf4jnsgd1na2vs0mg"},{"bike_id":"3db749df-9f2a-4e9d-8f74-e4ba80be6ff9","system_id":"levelo_inurba_marseille","lat":43.23185,"lon":5.39989,"is_reserved":false,"is_disabled":false,"rental_uris":{"android":"levelo://app?vid=3db749df-9f2a-4e9d-8f74-e4ba80be6ff9","ios":"levelo://app?vid=3db749df-9f2a-4e9d-8f74-e4ba80be6ff9"},"vehicle_type_id":"4","last_reported":1736982540,"current_range_meters":28000,"station_id":"ce4bhn12rcd13ifvqgqg","pricing_plan_id":"cebpf4jnsgd1na2vs0mg"},{"bike_id":"e476b437-fa32-443b-8c6d-b46362cd090b","system_id":"levelo_inurba_marseille","lat":43.30606,"lon":5.3936,"is_reserved":false,"is_disabled":false,"rental_uris":{"android":"levelo://app?vid=e476b437-fa32-443b-8c6d-b46362cd090b","ios":"levelo://app?vid=e476b437-fa32-443b-8c6d-b46362cd090b"},"vehicle_type_id":"4","last_reported":1736982540,"current_range_meters":38000,"station_id":"ce4bh0p2rcd13ifvqd80","pricing_plan_id":"cebpf4jnsgd1na2vs0mg"},{"bike_id":"b5a5123f-0104-4536-bce5-1557eef1c1ed","system_id":"levelo_inurba_marseille","lat":43.30263,"lon":5.40069,"is_reserved":false,"is_disabled":false,"rental_uris":{"android":"levelo://app?vid=b5a5123f-0104-4536-bce5-1557eef1c1ed","ios":"levelo://app?vid=b5a5123f-0104-4536-bce5-1557eef1c1ed"},"vehicle_type_id":"4","last_reported":1736982540,"current_range_meters":25600,"station_id":"ce4bgvh2rcd13ifvqcs0","pricing_plan_id":"cebpf4jnsgd1na2vs0mg"},