{"last_updated":1730196615,"ttl":60,"version":"2.2","data":{"bikes":[{"bike_id":"1a5400bf-5362-468a-b5b2-117e0131c47b","system_id":"levelo_inurba_marseille","lat":43.26682,"lon":5.38268,"is_reserved":false,"is_disabled":false,"rental_uris":{"android":"levelo://app?vid=1a5400bf-5362-468a-b5b2-117e0131c47b","ios":"levelo://app?vid=1a5400bf-5362-468a-b5b2-117e0131c47b"},"vehicle_type_id":"4","last_reported":1730196615,"current_range_meters":18800,"station_id":"ce4bhg92rcd13ifvqf90","pricing_plan_id":"cebpf4jnsgd1na2vs0mg"},{"bike_id":"2d45e113-cc9b-4df9-af3b-c913d19124d5","system_id":"levelo_inurba_marseille","lat":43.31229,"lon":5.36856,"is_reserved":false,"is_disabled":false,"rental_uris":{"android":"levelo://app?vid=2d45e113-cc9b-4df9-af3b-c913d19124d5","ios":"levelo://app?vid=2d45e113-cc9b-4df9-af3b-c913d19124d5"},"vehicle_type_id":"4","last_reported":1730196615,"current_range_meters":34000,"station_id":"ce4bgl92rcd13ifvqbq0","pricing_plan_id":"cebpf4jnsgd1na2vs0mg"},{"bike_id":"5b6da0fb-5d65-41eb-8aa7-edd3cba55e1e","system_id":"levelo_inurba_marseille","lat":43.30359,"lon":5.41885,"is_reserved":false,"is_disabled":false,"rental_uris":{"android":"levelo://app?vid=5b6da0fb-5d65-41eb-8aa7-edd3cba55e1e","ios":"levelo://app?vid=5b6da0fb-5d65-41eb-8aa7-edd3cba55e1e"},"vehicle_type_id":"4","last_reported":1730196615,"current_range_meters":38000,"station_id":"ce4bhop2rcd13ifvqh7g","pricing_plan_id":"cebpf4jnsgd1na2vs0mg"},{"bike_id":"5aef8b8d-a1c0-4d83-a273-c6b671bedd61","system_id":"levelo_inurba_marseille","lat":43.27179,"lon":5.40996,"is_reserved":false,"is_disabled":false,"rental_uris":{"android":"levelo://app?vid=5aef8b8d-a1c0-4d83-a273-c6b671bedd61","ios":"levelo://app?vid=5aef8b8d-a1c0-4d83-a273-c6b671bedd61"},"vehicle_type_id":"4","last_reported":1730196615,"current_range_meters":8000,"station_id":"ce4bhl12rcd13ifvqgf0","pricing_plan_id":"cebpf4jnsgd1na2vs0mg"},{"bike_id":"68fb4f18-f8e3-4888-ad74-cdb4024540a7","system_id":"levelo_inurba_marseille","lat":43.29899,"lon":5.4366,"is_reserved":false,"is_disabled":false,"rental_uris":{"android":"levelo://app?vid=68fb4f18-f8e3-4888-ad74-cdb4024540a7","ios":"levelo://app?vid=68fb4f18-f8e3-4888-ad74-cdb4024540a7"},"vehicle_type_id":"4","last_reported":1730196615,"current_range_meters":39200,"station_id":"ce4bhpp2rcd13ifvqhfg","pricing_plan_id":"cebpf4jnsgd1na2vs0mg"},{"bike_id":"83f7db1f-5175-4f37-854b-cde355acc9c6","system_id":"levelo_inurba_marseille","lat":43.322912,"lon":5.38281,"is_reserved":false,"is_disabled":false,"rental_uris":{"android":"levelo://app?vid=83f7db1f-5175-4f37-854b-cde355acc9c6","ios":"levelo://app?vid=83f7db1f-5175-4f37-854b-cde355acc9c6"},"vehicle_type_id":"4","last_reported":1730196615,"current_range_meters":38800,"station_id":"ce4bhr12rcd13ifvqhqg","pricing_plan_id":"cebpf4jnsgd1na2vs0mg"},{"bike_id":"c468bca0-1a60-4851-8919-d208dcbbcda3","system_id":"levelo_inurba_marseille","lat":43.24176,"lon":5.39729,"is_reserved":false,"is_disabled":false,"rental_uris":{"android":"levelo://app?vid=c468bca0-1a60-4851-8919-d208dcbbcda3","ios":"levelo://app?vid=c468bca0-1a60-4851-8919-d208dcbbcda3"},"vehicle_type_id":"4","last_reported":1730196615,"current_range_meters":30000,"station_id":"ce4bhn12rcd13ifvqgpg","pricing_plan_id":"cebpf4jnsgd1na2vs0mg"},{"bike_id":"d6745d68-cf74-4bc3-a103-15ddae085173","system_id":"levelo_inurba_marseille","lat":43.25102,"lon":5.40324,"is_reserved":false,"is_disabled":false,"rental_uris":{"android":"levelo://app?vid=d6745d68-cf74-4bc3-a103-15ddae085173","ios":"levelo://app?vid=d6745d68-cf74-4bc3-a103-15ddae085173"},"vehicle_type_id":"4","last_reported":1730196615,"current_range_meters":38800,"station_id":"ce4bhlh2rcd13ifvqgig","pricing_plan_id":"cebpf4jnsgd1na2vs0mg"},{"bike_id":"e0d0d180-5baf-45bb-93d1-d458672e7b7f","system_id":"levelo_inurba_marseille","lat":43.31882,"lon":5.40732,"is_reserved":false,"is_disabled":false,"rental_uris":{"android":"levelo://app?vid=e0d0d180-5baf-45bb-93d1-d458672e7b7f","ios":"levelo://app?vid=e0d0d180-5baf-45bb-93d1-d458672e7b7f"},"vehicle_type_id":"4","last_reported":1730196615,"current_range_meters":29600,"station_id":"ce4bhq12rcd13ifvqhig","pricing_plan_id":"cebpf4jnsgd1na2vs0mg"},{"bike_id":"ac7494c9-3beb-4035-857a-7936ac827ac9","system_id":"levelo_inurba_marseille","lat":43.30531,"lon":5.3671,"is_reserved":false,"is_disabled":false,"rental_uris":{"android":"levelo://app?vid=ac7494c9-3beb-4035-857a-7936ac827ac9","ios":"levelo://app?vid=ac7494c9-3beb-4035-857a-7936ac827ac9"},"vehicle_type_id":"4","last_reported":1730196615,"current_range_meters":23200,"station_id":"ce4bgrp2rcd13ifvqc9g","pricing_plan_id":"cebpf4jnsgd1na2vs0mg"},{"bike_id":"3e52980f-94d7-4d97-b274-15dc53ff4c5d","system_id":"levelo_inurba_marseille","lat":43.26683,"lon":5.38272,"is_reserved":false,"is_disabled":false,"rental_uris":{"android":"levelo://app?vid=3e52980f-94d7-4d97-b274-15dc53ff4c5d","ios":"levelo://app?vid=3e52980f-94d7-4d97-b274-15dc53ff4c5d"},"vehicle_type_id":"4","last_reported":1730196615,"current_range_meters":26800,"station_id":"ce4bhg92rcd13ifvqf90","pricing_plan_id":"cebpf4jnsgd1na2vs0mg"},{"bike_id":"68941e6f-a221-4e22-b678-18e873f55bca","system_id":"levelo_inurba_marseille","lat":43.31223,"lon":5.36864,"is_reserved":false,"is_disabled":false,"rental_uris":{"android":"levelo://app?vid=68941e6f-a221-4e22-b678-18e873f55bca","ios":"levelo://app?vid=68941e6f-a221-4e22-b678-18e873f55bca"},"vehicle_type_id":"4","last_reported":1730196615,"current_range_meters":24000,"station_id":"ce4bgl92rcd13ifvqbq0","pricing_plan_id":"cebpf4jnsgd1na2vs0mg"},{"bike_id":"979f0f1a-b96f-4580-b40d-344e5bd215ad","system_id":"levelo_inurba_marseille","lat":43.27368,"lon":5.36251,"is_reserved":false,"is_disabled":false,"rental_uris":{"android":"levelo://app?vid=979f0f1a-b96f-4580-b40d-344e5bd215ad","ios":"levelo://app?vid=979f0f1a-b96f-4580-b40d-344e5bd215ad"},"vehicle_type_id":"4","last_reported":1730196615,"current_range_meters":20800,"station_id":"ce4bhbh2rcd13ifvqeo0","pricing_plan_id":"cebpf4jnsgd1na2vs0mg"},{"bike_id":"0dd0ccc2-f1bf-42cd-a425-db2be977a4df","system_id":"levelo_inurba_marseille","lat":43.25584,"lon":5.38231,"is_reserved":false,"is_disabled":false,"rental_uris":{"android":"levelo://app?vid=0dd0ccc2-f1bf-42cd-a425-db2be977a4df","ios":"levelo://app?vid=0dd0ccc2-f1bf-42cd-a425-db2be977a4df"},"vehicle_type_id":"4","last_reported":1730196615,"current_range_meters":38800,"station_id":"ce4bhih2rcd13ifvqfs0","pricing_plan_id":"cebpf4jnsgd1na2vs0mg"},{"bike_id":"62b5614c-5f33-4953-a27e-e0c821552090","system_id":"levelo_inurba_marseille","lat":43.23196,"lon":5.35544,"is_reserved":false,"is_disabled":false,"rental_uris":{"android":"levelo://app?vid=62b5614c-5f33-4953-a27e-e0c821552090","ios":"levelo://app?vid=62b5614c-5f33-4953-a27e-e0c821552090"},"vehicle_type_id":"4","last_reported":1730196615,"current_range_meters":38800,"station_id":"ce4bhu92rcd13ifvqi70","pricing_plan_id":"cebpf4jnsgd1na2vs0mg"},{"bike_id":"67909534-5d2b-4e3d-b735-978adeea462c","system_id":"levelo_inurba_marseille","lat":43.32481,"lon":5.36564,"is_reserved":false,"is_disabled":false,"rental_uris":{"android":"levelo://app?vid=67909534-5d2b-4e3d-b735-978adeea462c","ios":"levelo://app?vid=67909534-5d2b-4e3d-b735-978adeea462c"},"vehicle_type_id":"4","last_reported":1730196615,"current_range_meters":30000,"station_id":"ce4bhs12rcd13ifvqhvg","pricing_plan_id":"cebpf4jnsgd1na2vs0mg"},{"bike_id":"adf6af35-cd01-4122-b565-1024fda48841","system_id":"levelo_inurba_marseille","lat":43.30536,"lon":5.36698,"is_reserved":false,"is_disabled":false,"rental_uris":{"android":"levelo://app?vid=adf6af35-cd01-4122-b565-1024fda48841","ios":"levelo://app?vid=adf6af35-cd01-4122-b565-1024fda48841"},"vehicle_type_id":"4","last_reported":1730196615,"current_range_meters":37600,"station_id":"ce4bgrp2rcd13ifvqc9g","pricing_plan_id":"cebpf4jnsgd1na2vs0mg"},{"bike_id":"dd1a78e2-9ac3-497c-a0dc-fa40acc73c13","system_id":"levelo_inurba_marseille","lat":43.29885,"lon":5.389016,"is_reserved":false,"is_disabled":false,"rental_uris":{"android":"levelo://app?vid=dd1a78e2-9ac3-497c-a0dc-fa40acc73c13","ios":"levelo://app?vid=dd1a78e2-9ac3-497c-a0dc-fa40acc73c13"},"vehicle_type_id":"4","last_reported":1730196615,"current_range_meters":37600,"station_id":"ce4bh392rcd13ifvqdl0","pricing_plan_id":"cebpf4jnsgd1na2vs0mg"},{"bike_id":"0cf5812f-8b5f-4b97-99dd-020844ac549f","system_id":"levelo_inurba_marseille","lat":43.22935,"lon":5.35374,"is_reserved":false,"is_disabled":false,"rental_uris":{"android":"levelo://app?vid=0cf5812f-8b5f-4b97-99dd-020844ac549f","ios":"levelo://app?vid=0cf5812f-8b5f-4b97-99dd-020844ac549f"},"vehicle_type_id":"4","last_reported":1730196615,"current_range_meters":36400,"station_id":"cpo3532slgdg3j2ikp40","pricing_plan_id":"cebpf4jnsgd1na2vs0mg"},{"bike_id":"310b37ff-ab6e-4d4d-9dc6-0e305c1b9044","system_id":"levelo_inurba_marseille","lat":43.261536,"lon":5.382278,"is_reserved":false,"is_disabled":false,"rental_uris":{"android":"levelo://app?vid=310b37ff-ab6e-4d4d-9dc6-0e305c1b9044","ios":"levelo://app?vid=310b37ff-ab6e-4d4d-9dc6-0e305c1b9044"},"vehicle_type_id":"4","last_reported":1730196615,"current_range_meters":31200,"station_id":"ce4bhjp2rcd13ifvqg90","pricing_plan_id":"cebpf4jnsgd1na2vs0mg"},{"bike_id":"53483838-c1ec-419f-92e3-0e203828f65e","system_id":"levelo_inurba_marseille","lat":43.30554,"lon":5.36545,"is_reserved":false,"is_disabled":false,"rental_uris":{"android":"levelo://app?vid=53483838-c1ec-419f-92e3-0e203828f65e","ios":"levelo://app?vid=53483838-c1ec-419f-92e3-0e203828f65e"},"vehicle_type_id":"4","last_reported":1730196615,"current_range_meters":38800,"station_id":"ce4bgs12rcd13ifvqcag","pricing_plan_id":"cebpf4jnsgd1na2vs0mg"},{"bike_id":"ae961148-4607-4a0a-a87d-de4f55ef5eb6","system_id":"levelo_inurba_marseille","lat":43.27315,"lon":5.39088,"is_reserved":false,"is_disabled":false,"rental_uris":{"android":"levelo://app?vid=ae961148-4607-4a0a-a87d-de4f55ef5eb6","ios":"levelo://app?vid=ae961148-4607-4a0a-a87d-de4f55ef5eb6"},"vehicle_type_id":"4","last_reported":1730196615,"current_range_meters":33200,"station_id":"ce4bhgp2rcd13ifvqfe0","pricing_plan_id":"cebpf4jnsgd1na2vs0mg"},{"bike_id":"83a287b9-40aa-4882-8b81-76be606ae1d5","system_id":"levelo_inurba_marseille","lat":43.27979,"lon":5.38742,"is_reserved":false,"is_disabled":false,"rental_uris":{"android":"levelo://app?vid=83a287b9-40aa-4882-8b81-76be606ae1d5","ios":"levelo://app?vid=83a287b9-40aa-4882-8b81-76be606ae1d5"},"vehicle_type_id":"4","last_reported":1730196615,"current_range_meters":32800,"station_id":"ce4bhg12rcd13ifvqf80","pricing_plan_id":"cebpf4jnsgd1na2vs0mg"},{"bike_id":"5e517b1e-2080-4331-897c-dfd705392953","system_id":"levelo_inurba_marseille","lat":43.27974,"lon":5.38744,"is_reserved":false,"is_disabled":false,"rental_uris":{"android":"levelo://app?vid=5e517b1e-2080-4331-897c-dfd705392953","ios":"levelo://app?vid=5e517b1e-2080-4331-897c-dfd705392953"},"vehicle_type_id":"4","last_reported":1730196615,"current_range_meters":36800,"station_id":"ce4bhg12rcd13ifvqf80","pricing_plan_id":"cebpf4jnsgd1na2vs0mg"},{"bike_id":"17b8805d-39a1-4337-aeef-2a0d1dd770fe","system_id":"levelo_inurba_marseille","lat":43.25088,"lon":5.39526,"is_reserved":false,"is_disabled":false,"rental_uris":{"android":"levelo://app?vid=17b8805d-39a1-4337-aeef-2a0d1dd770fe","ios":"levelo://app?vid=17b8805d-39a1-4337-aeef-2a0d1dd770fe"},"vehicle_type_id":"4","last_reported":1730196615,"current_range_meters":26000,"station_id":"ce4bhm12rcd13ifvqgkg","pricing_plan_id":"cebpf4jnsgd1na2vs0mg"},{"bike_id":"677cf563-d0a7-495a-88ac-60bbc39ff34f","system_id":"levelo_inurba_marseille","lat":43.29547,"lon":5.42267,"is_reserved":false,"is_disabled":false,"rental_uris":{"android":"levelo://app?vid=677cf563-d0a7-495a-88ac-60bbc39ff34f","ios":"levelo://app?vid=677cf563-d0a7-495a-88ac-60bbc39ff34f"},"vehicle_type_id":"4","last_reported":1730196615,"current_range_meters":32400,"station_id":"ce4bhph2rcd13ifvqhdg","pricing_plan_id":"cebpf4jnsgd1na2vs0mg"},{"bike_id":"ce399f4d-fdde-4bf7-91c4-1dceaefc5aed","system_id":"levelo_inurba_marseille","lat":43.30528,"lon":5.36711,"is_reserved":false,"is_disabled":false,"rental_uris":{"android":"levelo://app?vid=ce399f4d-fdde-4bf7-91c4-1dceaefc5aed","ios":"levelo://app?vid=ce399f4d-fdde-4bf7-91c4-1dceaefc5aed"},"vehicle_type_id":"4","last_reported":1730196615,"current_range_meters":38400,"station_id":"ce4bgrp2rcd13ifvqc9g","pricing_plan_id":"cebpf4jnsgd1na2vs0mg"},{"bike_id":"a8682cd9-5306-433c-8911-7f45e2856c80","system_id":"levelo_inurba_marseille","lat":43.301453,"lon":5.365936,"is_reserved":false,"is_disabled":false,"rental_uris":{"android":"levelo://app?vid=a8682cd9-5306-433c-8911-7f45e2856c80","ios":"levelo://app?vid=a8682cd9-5306-433c-8911-7f45e2856c80"},"vehicle_type_id":"4","last_reported":1730196615,"current_range_meters":24800,"station_id":"ce4bgop2rcd13ifvqc1g","pricing_plan_id":"cebpf4jnsgd1na2vs0mg"},{"bike_id":"d455af85-2d24-418c-8867-b1d2da530077","system_id":"levelo_inurba_marseille","lat":43.29786,"lon":5.37098,"is_reserved":false,"is_disabled":false,"rental_uris":{"android":"levelo://app?vid=d455af85-2d24-418c-8867-b1d2da530077","ios":"levelo://app?vid=d455af85-2d24-418c-8867-b1d2da530077"},"vehicle_type_id":"4","last_reported":1730196615,"current_range_meters":26800,"station_id":"ce4bgop2rcd13ifvqc1g","pricing_plan_id":"cebpf4jnsgd1na2vs0mg"},{"bike_id":"8d3f9bb0-c04b-48a8-b580-0d2f77aa1bb9","system_id":"levelo_inurba_marseille","lat":43.276751,"lon":5.389046,"is_reserved":false,"is_disabled":false,"rental_uris":{"android":"levelo://app?vid=8d3f9bb0-c04b-48a8-b580-0d2f77aa1bb9","ios":"levelo://app?vid=8d3f9bb0-c04b-48a8-b580-0d2f77aa1bb9"},"vehicle_type_id":"4","last_reported":1730196615,"current_range_meters":35200,"station_id":"ce4bhi12rcd13ifvqfo0","pricing_plan_id":"cebpf4jnsgd1na2vs0mg"},{"bike_id":"559e0993-d3ec-4994-8a4d-edbc5593d328","system_id":"levelo_inurba_marseille","lat":43.22934,"lon":5.35375,"is_reserved":false,"is_disabled":false,"rental_uris":{"android":"levelo://app?vid=559e0993-d3ec-4994-8a4d-edbc5593d328","ios":"levelo://app?vid=559e0993-d3ec-4994-8a4d-edbc5593d328"},"vehicle_type_id":"4","last_reported":1730196615,"current_range_meters":38000,"station_id":"cpo3532slgdg3j2ikp40","pricing_plan_id":"cebpf4jnsgd1na2vs0mg"},{"bike_id":"b4babc66-0248-40c3-a506-51df315349f7","system_id":"levelo_inurba_marseille","lat":43.24076,"lon":5.37757,"is_reserved":false,"is_disabled":false,"rental_uris":{"android":"levelo://app?vid=b4babc66-0248-40c3-a506-51df315349f7","ios":"levelo://app?vid=b4babc66-0248-40c3-a506-51df315349f7"},"vehicle_type_id":"4","last_reported":1730196615,"current_range_meters":28400,"station_id":"ce4bhnp2rcd13ifvqgvg","pricing_plan_id":"cebpf4jnsgd1na2vs0mg"},{"bike_id":"c25c6934-e626-496d-8891-6f5db0cd46e2","system_id":"levelo_inurba_marseille","lat":43.25939,"lon":5.40908,"is_reserved":false,"is_disabled":false,"rental_uris":{"android":"levelo://app?vid=c25c6934-e626-496d-8891-6f5db0cd46e2","ios":"levelo://app?vid=c25c6934-e626-496d-8891-6f5db0cd46e2"},"vehicle_type_id":"4","last_reported":1730196615,"current_range_meters":34800,"station_id":"ce4bhm92rcd13ifvqglg","pricing_plan_id":"cebpf4jnsgd1na2vs0mg"},{"bike_id":"d1dacee6-8f47-4ca5-823b-a2ea6c3413e8","system_id":"levelo_inurba_marseille","lat":43.23195,"lon":5.35554,"is_reserved":false,"is_disabled":false,"rental_uris":{"android":"levelo://app?vid=d1dacee6-8f47-4ca5-823b-a2ea6c3413e8","ios":"levelo://app?vid=d1dacee6-8f47-4ca5-823b-a2ea6c3413e8"},"vehicle_type_id":"4","last_reported":1730196615,"current_range_meters":39200,"station_id":"ce4bhu92rcd13ifvqi70","pricing_plan_id":"cebpf4jnsgd1na2vs0mg"},{"bike_id":"2621ddce-ee58-4b32-8dcc-47df4d51772d","system_id":"levelo_inurba_marseille","lat":43.29676,"lon":5.37286,"is_reserved":false,"is_disabled":false,"rental_uris":{"android":"levelo://app?vid=2621ddce-ee58-4b32-8dcc-47df4d51772d","ios":"levelo://app?vid=2621ddce-ee58-4b32-8dcc-47df4d51772d"},"vehicle_type_id":"4","last_reported":1730196615,"current_range_meters":16800,"station_id":"ce4bgk12rcd13ifvqbj0","pricing_plan_id":"cebpf4jnsgd1na2vs0mg"},{"bike_id":"57d70c04-ba9c-4c5d-b4f3-5a3f4d55d87f","system_id":"levelo_inurba_marseille","lat":43.29801,"lon":5.40406,"is_reserved":false,"is_disabled":false,"rental_uris":{"android":"levelo://app?vid=57d70c04-ba9c-4c5d-b4f3-5a3f4d55d87f","ios":"levelo://app?vid=57d70c04-ba9c-4c5d-b4f3-5a3f4d55d87f"},"vehicle_type_id":"4","last_reported":1730196615,"current_range_meters":13600,"station_id":"ce4bh112rcd13ifvqd90","pricing_plan_id":"cebpf4jnsgd1na2vs0mg"},{"bike_id":"f09371cc-1c70-462f-907e-11f44ba1feec","system_id":"levelo_inurba_marseille","lat":43.25939,"lon":5.40914,"is_reserved":false,"is_disabled":false,"rental_uris":{"android":"levelo://app?vid=f09371cc-1c70-462f-907e-11f44ba1feec","ios":"levelo://app?vid=f09371cc-1c70-462f-907e-11f44ba1feec"},"vehicle_type_id":"4","last_reported":1730196615,"current_range_meters":33600,"station_id":"ce4bhm92rcd13ifvqglg","pricing_plan_id":"cebpf4jnsgd1na2vs0mg"},{"bike_id":"39ff96a4-7bc1-4a89-81c9-c6c9b24b33f1","system_id":"levelo_inurba_marseille","lat":43.29164,"lon":5.3716,"is_reserved":false,"is_disabled":false,"rental_uris":{"android":"levelo://app?vid=39ff96a4-7bc1-4a89-81c9-c6c9b24b33f1","ios":"levelo://app?vid=39ff96a4-7bc1-4a89-81c9-c6c9b24b33f1"},"vehicle_type_id":"4","last_reported":1730196615,"current_range_meters":19200,"station_id":"ce4bha92rcd13ifvqeh0","pricing_plan_id":"cebpf4jnsgd1na2vs0mg"},{"bike_id":"54399a13-f8cb-435f-8b52-6878bec0e3bf","system_id":"levelo_inurba_marseille","lat":43.28153,"lon":5.42648,"is_reserved":false,"is_disabled":false,"rental_uris":{"android":"levelo://app?vid=54399a13-f8cb-435f-8b52-6878bec0e3bf","ios":"levelo://app?vid=54399a13-f8cb-435f-8b52-6878bec0e3bf"},"vehicle_type_id":"4","last_reported":1730196615,"current_range_meters":36000,"station_id":"ce4bhnh2rcd13ifvqgug","pricing_plan_id":"cebpf4jnsgd1na2vs0mg"},{"bike_id":"bbe4f11a-7fb0-468d-b09a-06b0f65a7061","system_id":"levelo_inurba_marseille","lat":43.23152,"lon":5.4372,"is_reserved":false,"is_disabled":false,"rental_uris":{"android":"levelo://app?vid=bbe4f11a-7fb0-468d-b09a-06b0f65a7061","ios":"levelo://app?vid=bbe4f11a-7fb0-468d-b09a-06b0f65a7061"},"vehicle_type_id":"4","last_reported":1730196615,"current_range_meters":10800,"station_id":"ce4bhmp2rcd13ifvqgog","pricing_plan_id":"cebpf4jnsgd1na2vs0mg"},{"bike_id":"5e121dfd-d511-4057-8250-c64c153e88a8","system_id":"levelo_inurba_marseille","lat":43.28929,"lon":5.38388,"is_reserved":false,"is_disabled":false,"rental_uris":{"android":"levelo://app?vid=5e121dfd-d511-4057-8250-c64c153e88a8","ios":"levelo://app?vid=5e121dfd-d511-4057-8250-c64c153e88a8"},"vehicle_type_id":"4","last_reported":1730196615,"current_range_meters":6400,"station_id":"ce4bh612rcd13ifvqe6g","pricing_plan_id":"cebpf4jnsgd1na2vs0mg"},{"bike_id":"47b98d2f-07e1-4c21-b0d2-a7fef571c542","system_id":"levelo_inurba_marseille","lat":43.30892,"lon":5.37188,"is_reserved":false,"is_disabled":false,"rental_uris":{"android":"levelo://app?vid=47b98d2f-07e1-4c21-b0d2-a7fef571c542","ios":"levelo://app?vid=47b98d2f-07e1-4c21-b0d2-a7fef571c542"},"vehicle_type_id":"4","last_reported":1730196615,"current_range_meters":20800,"station_id":"ce4bguh2rcd13ifvqckg","pricing_plan_id":"cebpf4jnsgd1na2vs0mg"},{"bike_id":"1b267d64-871f-4f53-b983-48a2463b9ac6","system_id":"levelo_inurba_marseille","lat":43.30892,"lon":5.37192,"is_reserved":false,"is_disabled":false,"rental_uris":{"android":"levelo://app?vid=1b267d64-871f-4f53-b983-48a2463b9ac6","ios":"levelo://app?vid=1b267d64-871f-4f53-b983-48a2463b9ac6"},"vehicle_type_id":"4","last_reported":1730196615,"current_range_meters":38800,"station_id":"ce4bguh2rcd13ifvqckg","pricing_plan_id":"cebpf4jnsgd1na2vs0mg"},{"bike_id":"77bda5e6-f055-4c3a-9927-55ea8f7365ab","system_id":"levelo_inurba_marseille","lat":43.25931,"lon":5.40907,"is_reserved":false,"is_disabled":false,"rental_uris":{"android":"levelo://app?vid=77bda5e6-f055-4c3a-9927-55ea8f7365ab","ios":"levelo://app?vid=77bda5e6-f055-4c3a-9927-55ea8f7365ab"},"vehicle_type_id":"4","last_reported":1730196615,"current_range_meters":20800,"station_id":"ce4bhm92rcd13ifvqglg","pricing_plan_id":"cebpf4jnsgd1na2vs0mg"},{"bike_id":"4b1f45ca-5ba1-42a7-87e4-e9967261b64c","system_id":"levelo_inurba_marseille","lat":43.31085,"lon":5.42431,"is_reserved":false,"is_disabled":false,"rental_uris":{"android":"levelo://app?vid=4b1f45ca-5ba1-42a7-87e4-e9967261b64c","ios":"levelo://app?vid=4b1f45ca-5ba1-42a7-87e4-e9967261b64c"},"vehicle_type_id":"4","last_reported":1730196615,"current_range_meters":38800,"station_id":"ce4bhp92rcd13ifvqhag","pricing_plan_id":"cebpf4jnsgd1na2vs0mg"},{"bike_id":"6249027d-e0c9-4975-8edf-7af0ab52773c","system_id":"levelo_inurba_marseille","lat":43.29624,"lon":5.37162,"is_reserved":false,"is_disabled":false,"rental_uris":{"android":"levelo://app?vid=6249027d-e0c9-4975-8edf-7af0ab52773c","ios":"levelo://app?vid=6249027d-e0c9-4975-8edf-7af0ab52773c"},"vehicle_type_id":"4","last_reported":1730196615,"current_range_meters":36800,"station_id":"ce4bgnh2rcd13ifvqc0g","pricing_plan_id":"cebpf4jnsgd1na2vs0mg"},{"bike_id":"19b82e21-3d35-41bf-aafb-3cde2bd09028","system_id":"levelo_inurba_marseille","lat":43.29038,"lon":5.39961,"is_reserved":false,"is_disabled":false,"rental_uris":{"android":"levelo://app?vid=19b82e21-3d35-41bf-aafb-3cde2bd09028","ios":"levelo://app?vid=19b82e21-3d35-41bf-aafb-3cde2bd09028"},"vehicle_type_id":"4","last_reported":1730196615,"current_range_meters":26000,"station_id":"ce4bh392rcd13ifvqdm0","pricing_plan_id":"cebpf4jnsgd1na2vs0mg"},{"bike_id":"060d5bff-63f2-48b5-8503-2c67d2254e41","system_id":"levelo_inurba_marseille","lat":43.3211,"lon":5.36765,"is_reserved":false,"is_disabled":false,"rental_uris":{"android":"levelo://app?vid=060d5bff-63f2-48b5-8503-2c67d2254e41","ios":"levelo://app?vid=060d5bff-63f2-48b5-8503-2c67d2254e41"},"vehicle_type_id":"4","last_reported":1730196615,"current_range_meters":37600,"station_id":"ce4bhrh2rcd13ifvqhug","pricing_plan_id":"cebpf4jnsgd1na2vs0mg"},{"bike_id":"14fa7ab4-3d26-47e0-af42-b940b3c853b8","system_id":"levelo_inurba_marseille","lat":43.27176,"lon":5.40987,"is_reserved":false,"is_disabled":false,"rental_uris":{"android":"levelo://app?vid=14fa7ab4-3d26-47e0-af42-b940b3c853b8","ios":"levelo://app?vid=14fa7ab4-3d26-47e0-af42-b940b3c853b8"},"vehicle_type_id":"4","last_reported":1730196615,"current_range_meters":16400,"station_id":"ce4bhl12rcd13ifvqgf0","pricing_plan_id":"cebpf4jnsgd1na2vs0mg"},{"bike_id":"9f422c91-7c0f-4548-8513-8523cc1662dd","system_id":"levelo_inurba_marseille","lat":43.23064,"lon":5.35489,"is_reserved":false,"is_disabled":false,"rental_uris":{"android":"levelo://app?vid=9f422c91-7c0f-4548-8513-8523cc1662dd","ios":"levelo://app?vid=9f422c91-7c0f-4548-8513-8523cc1662dd"},"vehicle_type_id":"4","last_reported":1730196615,"current_range_meters":20800,"station_id":"cpo3342slgdg3j2ifvpg","pricing_plan_id":"cebpf4jnsgd1na2vs0mg"},{"bike_id":"57d38230-e59e-4703-89b6-e192dc22bcde","system_id":"levelo_inurba_marseille","lat":43.31502,"lon":5.37307,"is_reserved":false,"is_disabled":false,"rental_uris":{"android":"levelo://app?vid=57d38230-e59e-4703-89b6-e192dc22bcde","ios":"levelo://app?vid=57d38230-e59e-4703-89b6-e192dc22bcde"},"vehicle_type_id":"4","last_reported":1730196615,"current_range_meters":9200,"station_id":"ce4bgt12rcd13ifvqcd0","pricing_plan_id":"cebpf4jnsgd1na2vs0mg"},{"bike_id":"d13fe43c-9913-4e06-9aa1-e76dcf03f96a","system_id":"levelo_inurba_marseille","lat":43.29394,"lon":5.37319,"is_reserved":false,"is_disabled":false,"rental_uris":{"android":"levelo://app?vid=d13fe43c-9913-4e06-9aa1-e76dcf03f96a","ios":"levelo://app?vid=d13fe43c-9913-4e06-9aa1-e76dcf03f96a"},"vehicle_type_id":"4","last_reported":1730196615,"current_range_meters":28800,"station_id":"","pricing_plan_id":"cebpf4jnsgd1na2vs0mg"},{"bike_id":"edee228c-76f1-4f9d-b4f7-5773b8a0b850","system_id":"levelo_inurba_marseille","lat":43.23196,"lon":5.35557,"is_reserved":false,"is_disabled":false,"rental_uris":{"android":"levelo://app?vid=edee228c-76f1-4f9d-b4f7-5773b8a0b850","ios":"levelo://app?vid=edee228c-76f1-4f9d-b4f7-5773b8a0b850"},"vehicle_type_id":"4","last_reported":1730196615,"current_range_meters":19600,"station_id":"ce4bhu92rcd13ifvqi70","pricing_plan_id":"cebpf4jnsgd1na2vs0mg"},{"bike_id":"de64aefc-2736-480f-8f17-3a77ec3af0e8","system_id":"levelo_inurba_marseille","lat":43.25586,"lon":5.3823,"is_reserved":false,"is_disabled":false,"rental_uris":{"android":"levelo://app?vid=de64aefc-2736-480f-8f17-3a77ec3af0e8","ios":"levelo://app?vid=de64aefc-2736-480f-8f17-3a77ec3af0e8"},"vehicle_type_id":"4","last_reported":1730196615,"current_range_meters":38400,"station_id":"ce4bhih2rcd13ifvqfs0","pricing_plan_id":"cebpf4jnsgd1na2vs0mg"},{"bike_id":"42de6be6-ed11-43cd-b8dd-fc4c9b7737ea","system_id":"levelo_inurba_marseille","lat":43.29278,"lon":5.36848,"is_reserved":false,"is_disabled":false,"rental_uris":{"android":"levelo://app?vid=42de6be6-ed11-43cd-b8dd-fc4c9b7737ea","ios":"levelo://app?vid=42de6be6-ed11-43cd-b8dd-fc4c9b7737ea"},"vehicle_type_id":"4","last_reported":1730196615,"current_range_meters":38800,"station_id":"ce4bhbp2rcd13ifvqesg","pricing_plan_id":"cebpf4jnsgd1na2vs0mg"},{"bike_id":"9b9b6a33-f33e-42da-9fed-c30e857b5b87","system_id":"levelo_inurba_marseille","lat":43.3091,"lon":5.36849,"is_reserved":false,"is_disabled":false,"rental_uris":{"android":"levelo://app?vid=9b9b6a33-f33e-42da-9fed-c30e857b5b87","ios":"levelo://app?vid=9b9b6a33-f33e-42da-9fed-c30e857b5b87"},"vehicle_type_id":"4","last_reported":1730196615,"current_range_meters":19600,"station_id":"ce4bgn92rcd13ifvqbvg","pricing_plan_id":"cebpf4jnsgd1na2vs0mg"},{"bike_id":"aa2c8745-5dc4-40c1-aab0-613db792e9e6","system_id":"levelo_inurba_marseille","lat":43.33743,"lon":5.37468,"is_reserved":false,"is_disabled":false,"rental_uris":{"android":"levelo://app?vid=aa2c8745-5dc4-40c1-aab0-613db792e9e6","ios":"levelo://app?vid=aa2c8745-5dc4-40c1-aab0-613db792e9e6"},"vehicle_type_id":"4","last_reported":1730196615,"current_range_meters":37600,"station_id":"","pricing_plan_id":"cebpf4jnsgd1na2vs0mg"},{"bike_id":"475a03f6-3b10-456d-91ad-91b43de9799b","system_id":"levelo_inurba_marseille","lat":43.33755,"lon":5.37466,"is_reserved":false,"is_disabled":false,"rental_uris":{"android":"levelo://app?vid=475a03f6-3b10-456d-91ad-91b43de9799b","ios":"levelo://app?vid=475a03f6-3b10-456d-91ad-91b43de9799b"},"vehicle_type_id":"4","last_reported":1730196615,"current_range_meters":38400,"station_id":"","pricing_plan_id":"cebpf4jnsgd1na2vs0mg"},{"bike_id":"ee95b97d-ec6a-4612-99b6-3c3aa0c5e049","system_id":"levelo_inurba_marseille","lat":43.2903,"lon":5.38132,"is_reserved":false,"is_disabled":false,"rental_uris":{"android":"levelo://app?vid=ee95b97d-ec6a-4612-99b6-3c3aa0c5e049","ios":"levelo://app?vid=ee95b97d-ec6a-4612-99b6-3c3aa0c5e049"},"vehicle_type_id":"4","last_reported":1730196615,"current_range_meters":36800,"station_id":"ce4bh4p2rcd13ifvqe1g","pricing_plan_id":"cebpf4jnsgd1na2vs0mg"},{"bike_id":"9115e988-ee96-4439-a207-fe0a3909ee9b","system_id":"levelo_inurba_marseille","lat":43.23149,"lon":5.43723,"is_reserved":false,"is_disabled":false,"rental_uris":{"android":"levelo://app?vid=9115e988-ee96-4439-a207-fe0a3909ee9b","ios":"levelo://app?vid=9115e988-ee96-4439-a207-fe0a3909ee9b"},"vehicle_type_id":"4","last_reported":1730196615,"current_range_meters":8000,"station_id":"ce4bhmp2rcd13ifvqgog","pricing_plan_id":"cebpf4jnsgd1na2vs0mg"},{"bike_id":"3a47f4a6-6d10-4877-8639-ff07d4f62a3c","system_id":"levelo_inurba_marseille","lat":43.24392,"lon":5.37055,"is_reserved":false,"is_disabled":false,"rental_uris":{"android":"levelo://app?vid=3a47f4a6-6d10-4877-8639-ff07d4f62a3c","ios":"levelo://app?vid=3a47f4a6-6d10-4877-8639-ff07d4f62a3c"},"vehicle_type_id":"4","last_reported":1730196615,"current_range_meters":16800,"station_id":"ce4bhhh2rcd13ifvqfk0","pricing_plan_id":"cebpf4jnsgd1na2vs0mg"},{"bike_id":"bf118fa7-d524-4e75-9c48-79eae93674d1","system_id":"levelo_inurba_marseille","lat":43.28374,"lon":5.38095,"is_reserved":false,"is_disabled":false,"rental_uris":{"android":"levelo://app?vid=bf118fa7-d524-4e75-9c48-79eae93674d1","ios":"levelo://app?vid=bf118fa7-d524-4e75-9c48-79eae93674d1"},"vehicle_type_id":"4","last_reported":1730196615,"current_range_meters":35200,"station_id":"ce4bh412rcd13ifvqdr0","pricing_plan_id":"cebpf4jnsgd1na2vs0mg"},{"bike_id":"327e0ec2-bf13-48bd-9253-8a960626f1f2","system_id":"levelo_inurba_marseille","lat":43.3117,"lon":5.38719,"is_reserved":false,"is_disabled":false,"rental_uris":{"android":"levelo://app?vid=327e0ec2-bf13-48bd-9253-8a960626f1f2","ios":"levelo://app?vid=327e0ec2-bf13-48bd-9253-8a960626f1f2"},"vehicle_type_id":"4","last_reported":1730196615,"current_range_meters":6800,"station_id":"ce4bgv12rcd13ifvqcp0","pricing_plan_id":"cebpf4jnsgd1na2vs0mg"},{"bike_id":"2f921f60-1890-404a-898c-6dae28d2ff64","system_id":"levelo_inurba_marseille","lat":43.32114,"lon":5.36768,"is_reserved":false,"is_disabled":false,"rental_uris":{"android":"levelo://app?vid=2f921f60-1890-404a-898c-6dae28d2ff64","ios":"levelo://app?vid=2f921f60-1890-404a-898c-6dae28d2ff64"},"vehicle_type_id":"4","last_reported":1730196615,"current_range_meters":36800,"station_id":"ce4bhrh2rcd13ifvqhug","pricing_plan_id":"cebpf4jnsgd1na2vs0mg"},{"bike_id":"1ce8273e-c4a1-4c41-b380-ee57463836f9","system_id":"levelo_inurba_marseille","lat":43.25932,"lon":5.40915,"is_reserved":false,"is_disabled":false,"rental_uris":{"android":"levelo://app?vid=1ce8273e-c4a1-4c41-b380-ee57463836f9","ios":"levelo://app?vid=1ce8273e-c4a1-4c41-b380-ee57463836f9"},"vehicle_type_id":"4","last_reported":1730196615,"current_range_meters":33200,"station_id":"ce4bhm92rcd13ifvqglg","pricing_plan_id":"cebpf4jnsgd1na2vs0mg"},{"bike_id":"013b06ae-421b-43b9-99aa-1340de80d05e","system_id":"levelo_inurba_marseille","lat":43.29008,"lon":5.35605,"is_reserved":false,"is_disabled":false,"rental_uris":{"android":"levelo://app?vid=013b06ae-421b-43b9-99aa-1340de80d05e","ios":"levelo://app?vid=013b06ae-421b-43b9-99aa-1340de80d05e"},"vehicle_type_id":"4","last_reported":1730196615,"current_range_meters":22800,"station_id":"ce4bhb92rcd13ifvqen0","pricing_plan_id":"cebpf4jnsgd1na2vs0mg"},{"bike_id":"218a8854-98c5-49e6-bc4c-d777161608c5","system_id":"levelo_inurba_marseille","lat":43.29299,"lon":5.37446,"is_reserved":false,"is_disabled":false,"rental_uris":{"android":"levelo://app?vid=218a8854-98c5-49e6-bc4c-d777161608c5","ios":"levelo://app?vid=218a8854-98c5-49e6-bc4c-d777161608c5"},"vehicle_type_id":"4","last_reported":1730196615,"current_range_meters":38000,"station_id":"ce4bgi12rcd13ifvqb70","pricing_plan_id":"cebpf4jnsgd1na2vs0mg"},{"bike_id":"756963b7-8a11-46c0-81d2-d643b1ae9e09","system_id":"levelo_inurba_marseille","lat":43.25087,"lon":5.39526,"is_reserved":false,"is_disabled":false,"rental_uris":{"android":"levelo://app?vid=756963b7-8a11-46c0-81d2-d643b1ae9e09","ios":"levelo://app?vid=756963b7-8a11-46c0-81d2-d643b1ae9e09"},"vehicle_type_id":"4","last_reported":1730196615,"current_range_meters":20000,"station_id":"ce4bhm12rcd13ifvqgkg","pricing_plan_id":"cebpf4jnsgd1na2vs0mg"},{"bike_id":"7c06f4f9-bba4-4c8d-b7dd-668ac0facce1","system_id":"levelo_inurba_marseille","lat":43.26569,"lon":5.39019,"is_reserved":false,"is_disabled":false,"rental_uris":{"android":"levelo://app?vid=7c06f4f9-bba4-4c8d-b7dd-668ac0facce1","ios":"levelo://app?vid=7c06f4f9-bba4-4c8d-b7dd-668ac0facce1"},"vehicle_type_id":"4","last_reported":1730196615,"current_range_meters":34800,"station_id":"ce4bhe12rcd13ifvqf30","pricing_plan_id":"cebpf4jnsgd1na2vs0mg"},{"bike_id":"9d96a183-d92a-4547-b6b6-3255c9630463","system_id":"levelo_inurba_marseille","lat":43.33599,"lon":5.41024,"is_reserved":false,"is_disabled":false,"rental_uris":{"android":"levelo://app?vid=9d96a183-d92a-4547-b6b6-3255c9630463","ios":"levelo://app?vid=9d96a183-d92a-4547-b6b6-3255c9630463"},"vehicle_type_id":"4","last_reported":1730196615,"current_range_meters":26000,"station_id":"ce4bhqh2rcd13ifvqhmg","pricing_plan_id":"cebpf4jnsgd1na2vs0mg"},{"bike_id":"3c083404-e2d9-48d5-a2d9-71da6b37319f","system_id":"levelo_inurba_marseille","lat":43.28151,"lon":5.42644,"is_reserved":false,"is_disabled":false,"rental_uris":{"android":"levelo://app?vid=3c083404-e2d9-48d5-a2d9-71da6b37319f","ios":"levelo://app?vid=3c083404-e2d9-48d5-a2d9-71da6b37319f"},"vehicle_type_id":"4","last_reported":1730196615,"current_range_meters":38800,"station_id":"ce4bhnh2rcd13ifvqgug","pricing_plan_id":"cebpf4jnsgd1na2vs0mg"},{"bike_id":"1a069240-612c-4428-9d20-e1023cc0e0aa","system_id":"levelo_inurba_marseille","lat":43.25944,"lon":5.40902,"is_reserved":false,"is_disabled":false,"rental_uris":{"android":"levelo://app?vid=1a069240-612c-4428-9d20-e1023cc0e0aa","ios":"levelo://app?vid=1a069240-612c-4428-9d20-e1023cc0e0aa"},"vehicle_type_id":"4","last_reported":1730196615,"current_range_meters":31200,"station_id":"ce4bhm92rcd13ifvqglg","pricing_plan_id":"cebpf4jnsgd1na2vs0mg"},{"bike_id":"17070017-6b4b-4608-bb5f-02f00021915a","system_id":"levelo_inurba_marseille","lat":43.2894,"lon":5.39622,"is_reserved":false,"is_disabled":false,"rental_uris":{"android":"levelo://app?vid=17070017-6b4b-4608-bb5f-02f00021915a","ios":"levelo://app?vid=17070017-6b4b-4608-bb5f-02f00021915a"},"vehicle_type_id":"4","last_reported":1730196615,"current_range_meters":37600,"station_id":"ce4bh3h2rcd13ifvqdn0","pricing_plan_id":"cebpf4jnsgd1na2vs0mg"},{"bike_id":"39078943-7118-462f-958f-a40bed4af7fb","system_id":"levelo_inurba_marseille","lat":43.30906,"lon":5.36847,"is_reserved":false,"is_disabled":false,"rental_uris":{"android":"levelo://app?vid=39078943-7118-462f-958f-a40bed4af7fb","ios":"levelo://app?vid=39078943-7118-462f-958f-a40bed4af7fb"},"vehicle_type_id":"4","last_reported":1730196615,"current_range_meters":38000,"station_id":"ce4bgn92rcd13ifvqbvg","pricing_plan_id":"cebpf4jnsgd1na2vs0mg"},{"bike_id":"4f4bf255-9d1a-4a0e-9a11-a04474ca4160","system_id":"levelo_inurba_marseille","lat":43.27183,"lon":5.40991,"is_reserved":false,"is_disabled":false,"rental_uris":{"android":"levelo://app?vid=4f4bf255-9d1a-4a0e-9a11-a04474ca4160","ios":"levelo://app?vid=4f4bf255-9d1a-4a0e-9a11-a04474ca4160"},"vehicle_type_id":"4","last_reported":1730196615,"current_range_meters":38400,"station_id":"ce4bhl12rcd13ifvqgf0","pricing_plan_id":"cebpf4jnsgd1na2vs0mg"},{"bike_id":"3596a464-c770-4ebd-b1e2-e40084414ba9","system_id":"levelo_inurba_marseille","lat":43.23139,"lon":5.39984,"is_reserved":false,"is_disabled":false,"rental_uris":{"android":"levelo://app?vid=3596a464-c770-4ebd-b1e2-e40084414ba9","ios":"levelo://app?vid=3596a464-c770-4ebd-b1e2-e40084414ba9"},"vehicle_type_id":"4","last_reported":1730196615,"current_range_meters":38000,"station_id":"ce4bhn12rcd13ifvqgqg","pricing_plan_id":"cebpf4jnsgd1na2vs0mg"},{"bike_id":"8478f686-e026-43b3-99f3-eb86891fc6fa","system_id":"levelo_inurba_marseille","lat":43.25932,"lon":5.40913,"is_reserved":false,"is_disabled":false,"rental_uris":{"android":"levelo://app?vid=8478f686-e026-43b3-99f3-eb86891fc6fa","ios":"levelo://app?vid=8478f686-e026-43b3-99f3-eb86891fc6fa"},"vehicle_type_id":"4","last_reported":1730196615,"current_range_meters":27200,"station_id":"ce4bhm92rcd13ifvqglg","pricing_plan_id":"cebpf4jnsgd1na2vs0mg"},{"bike_id":"b890057b-5455-4fed-a346-a30140dbf239","system_id":"levelo_inurba_marseille","lat":43.30536,"lon":5.3653,"is_reserved":false,"is_disabled":false,"rental_uris":{"android":"levelo://app?vid=b890057b-5455-4fed-a346-a30140dbf239","ios":"levelo://app?vid=b890057b-5455-4fed-a346-a30140dbf239"},"vehicle_type_id":"4","last_reported":1730196615,"current_range_meters":38400,"station_id":"ce4bgs12rcd13ifvqcag","pricing_plan_id":"cebpf4jnsgd1na2vs0mg"},{"bike_id":"8107a8d0-709d-4632-b364-a62acb854625","system_id":"levelo_inurba_marseille","lat":43.30912,"lon":5.36851,"is_reserved":false,"is_disabled":false,"rental_uris":{"android":"levelo://app?vid=8107a8d0-709d-4632-b364-a62acb854625","ios":"levelo://app?vid=8107a8d0-709d-4632-b364-a62acb854625"},"vehicle_type_id":"4","last_reported":1730196615,"current_range_meters":30800,"station_id":"ce4bgn92rcd13ifvqbvg","pricing_plan_id":"cebpf4jnsgd1na2vs0mg"},{"bike_id":"9a061509-ab8e-4f69-bbb3-d3345ac56b82","system_id":"levelo_inurba_marseille","lat":43.3014,"lon":5.37422,"is_reserved":false,"is_disabled":false,"rental_uris":{"android":"levelo://app?vid=9a061509-ab8e-4f69-bbb3-d3345ac56b82","ios":"levelo://app?vid=9a061509-ab8e-4f69-bbb3-d3345ac56b82"},"vehicle_type_id":"4","last_reported":1730196615,"current_range_meters":38800,"station_id":"ce4bgs92rcd13ifvqcc0","pricing_plan_id":"cebpf4jnsgd1na2vs0mg"},{"bike_id":"0f97001e-c5a8-49d1-a0bc-a9a0a23de9e9","system_id":"levelo_inurba_marseille","lat":43.337444,"lon":5.374475,"is_reserved":false,"is_disabled":false,"rental_uris":{"android":"levelo://app?vid=0f97001e-c5a8-49d1-a0bc-a9a0a23de9e9","ios":"levelo://app?vid=0f97001e-c5a8-49d1-a0bc-a9a0a23de9e9"},"vehicle_type_id":"4","last_reported":1730196615,"current_range_meters":25200,"station_id":"ce4bgvh2rcd13ifvqcs0","pricing_plan_id":"cebpf4jnsgd1na2vs0mg"},{"bike_id":"fe0f4ad9-8221-48ed-be5d-c64547a2f47a","system_id":"levelo_inurba_marseille","lat":43.286274,"lon":5.383534,"is_reserved":false,"is_disabled":false,"rental_uris":{"android":"levelo://app?vid=fe0f4ad9-8221-48ed-be5d-c64547a2f47a","ios":"levelo://app?vid=fe0f4ad9-8221-48ed-be5d-c64547a2f47a"},"vehicle_type_id":"4","last_reported":1730196615,"current_range_meters":16800,"station_id":"ce4bh4p2rcd13ifvqe1g","pricing_plan_id":"cebpf4jnsgd1na2vs0mg"},{"bike_id":"ace72f9e-7d3c-4255-8bf9-d680adf20397","system_id":"levelo_inurba_marseille","lat":43.2769,"lon":5.38883,"is_reserved":false,"is_disabled":false,"rental_uris":{"android":"levelo://app?vid=ace72f9e-7d3c-4255-8bf9-d680adf20397","ios":"levelo://app?vid=ace72f9e-7d3c-4255-8bf9-d680adf20397"},"vehicle_type_id":"4","last_reported":1730196615,"current_range_meters":38800,"station_id":"ce4bhi12rcd13ifvqfo0","pricing_plan_id":"cebpf4jnsgd1na2vs0mg"},{"bike_id":"95a0b55b-c5e7-457d-a4e9-41be027a3aeb","system_id":"levelo_inurba_marseille","lat":43.27181,"lon":5.40996,"is_reserved":false,"is_disabled":false,"rental_uris":{"android":"levelo://app?vid=95a0b55b-c5e7-457d-a4e9-41be027a3aeb","ios":"levelo://app?vid=95a0b55b-c5e7-457d-a4e9-41be027a3aeb"},"vehicle_type_id":"4","last_reported":1730196615,"current_range_meters":37600,"station_id":"ce4bhl12rcd13ifvqgf0","pricing_plan_id":"cebpf4jnsgd1na2vs0mg"},{"bike_id":"6161ee4d-3bd9-4b36-a4d7-867c052bdc22","system_id":"levelo_inurba_marseille","lat":43.32052,"lon":5.41556,"is_reserved":false,"is_disabled":false,"rental_uris":{"android":"levelo://app?vid=6161ee4d-3bd9-4b36-a4d7-867c052bdc22","ios":"levelo://app?vid=6161ee4d-3bd9-4b36-a4d7-867c052bdc22"},"vehicle_type_id":"4","last_reported":1730196615,"current_range_meters":38000,"station_id":"ce4bhq92rcd13ifvqhkg","pricing_plan_id":"cebpf4jnsgd1na2vs0mg"},{"bike_id":"8657a7a0-912a-44f2-879d-8b41f669f001","system_id":"levelo_inurba_marseille","lat":43.32481,"lon":5.36571,"is_reserved":false,"is_disabled":false,"rental_uris":{"android":"levelo://app?vid=8657a7a0-912a-44f2-879d-8b41f669f001","ios":"levelo://app?vid=8657a7a0-912a-44f2-879d-8b41f669f001"},"vehicle_type_id":"4","last_reported":1730196615,"current_range_meters":12000,"station_id":"ce4bhs12rcd13ifvqhvg","pricing_plan_id":"cebpf4jnsgd1na2vs0mg"},{"bike_id":"21b0d405-022c-4046-9483-b0c711fb60b5","system_id":"levelo_inurba_marseille","lat":43.29552,"lon":5.42285,"is_reserved":false,"is_disabled":false,"rental_uris":{"android":"levelo://app?vid=21b0d405-022c-4046-9483-b0c711fb60b5","ios":"levelo://app?vid=21b0d405-022c-4046-9483-b0c711fb60b5"},"vehicle_type_id":"4","last_reported":1730196615,"current_range_meters":38800,"station_id":"ce4bhph2rcd13ifvqhdg","pricing_plan_id":"cebpf4jnsgd1na2vs0mg"},{"bike_id":"48654472-0672-4598-907c-00ae4bc0929f","system_id":"levelo_inurba_marseille","lat":43.24173,"lon":5.39735,"is_reserved":false,"is_disabled":false,"rental_uris":{"android":"levelo://app?vid=48654472-0672-4598-907c-00ae4bc0929f","ios":"levelo://app?vid=48654472-0672-4598-907c-00ae4bc0929f"},"vehicle_type_id":"4","last_reported":1730196615,"current_range_meters":38800,"station_id":"ce4bhn12rcd13ifvqgpg","pricing_plan_id":"cebpf4jnsgd1na2vs0mg"},{"bike_id":"ece22d74-3a31-4f1e-8fdf-55aa780cc81d","system_id":"levelo_inurba_marseille","lat":43.29583,"lon":5.36744,"is_reserved":false,"is_disabled":false,"rental_uris":{"android":"levelo://app?vid=ece22d74-3a31-4f1e-8fdf-55aa780cc81d","ios":"levelo://app?vid=ece22d74-3a31-4f1e-8fdf-55aa780cc81d"},"vehicle_type_id":"4","last_reported":1730196615,"current_range_meters":37600,"station_id":"ce4bgph2rcd13ifvqc2g","pricing_plan_id":"cebpf4jnsgd1na2vs0mg"},{"bike_id":"6e35c370-f810-44c2-a1c4-58d4a57a0f82","system_id":"levelo_inurba_marseille","lat":43.30944,"lon":5.39043,"is_reserved":false,"is_disabled":false,"rental_uris":{"android":"levelo://app?vid=6e35c370-f810-44c2-a1c4-58d4a57a0f82","ios":"levelo://app?vid=6e35c370-f810-44c2-a1c4-58d4a57a0f82"},"vehicle_type_id":"4","last_reported":1730196615,"current_range_meters":8400,"station_id":"ce4bgup2rcd13ifvqco0","pricing_plan_id":"cebpf4jnsgd1na2vs0mg"},{"bike_id":"d8c1ecc8-888d-45da-a985-35c2481f7a51","system_id":"levelo_inurba_marseille","lat":43.28143,"lon":5.42645,"is_reserved":false,"is_disabled":false,"rental_uris":{"android":"levelo://app?vid=d8c1ecc8-888d-45da-a985-35c2481f7a51","ios":"levelo://app?vid=d8c1ecc8-888d-45da-a985-35c2481f7a51"},"vehicle_type_id":"4","last_reported":1730196615,"current_range_meters":38800,"station_id":"ce4bhnh2rcd13ifvqgug","pricing_plan_id":"cebpf4jnsgd1na2vs0mg"},{"bike_id":"76f2154f-aca9-4400-9712-31e97cca02c3","system_id":"levelo_inurba_marseille","lat":43.28152,"lon":5.42641,"is_reserved":false,"is_disabled":false,"rental_uris":{"android":"levelo://app?vid=76f2154f-aca9-4400-9712-31e97cca02c3","ios":"levelo://app?vid=76f2154f-aca9-4400-9712-31e97cca02c3"},"vehicle_type_id":"4","last_reported":1730196615,"current_range_meters":38800,"station_id":"ce4bhnh2rcd13ifvqgug","pricing_plan_id":"cebpf4jnsgd1na2vs0mg"},{"bike_id":"49c8448f-2e2d-4bf4-ad0c-ddc7dfaccf55","system_id":"levelo_inurba_marseille","lat":43.24182,"lon":5.39721,"is_reserved":false,"is_disabled":false,"rental_uris":{"android":"levelo://app?vid=49c8448f-2e2d-4bf4-ad0c-ddc7dfaccf55","ios":"levelo://app?vid=49c8448f-2e2d-4bf4-ad0c-ddc7dfaccf55"},"vehicle_type_id":"4","last_reported":1730196615,"current_range_meters":32800,"station_id":"ce4bhn12rcd13ifvqgpg","pricing_plan_id":"cebpf4jnsgd1na2vs0mg"},{"bike_id":"a53c049f-6f82-47cf-8dbf-2be4ba325c3b","system_id":"levelo_inurba_marseille","lat":43.2815,"lon":5.42647,"is_reserved":false,"is_disabled":false,"rental_uris":{"android":"levelo://app?vid=a53c049f-6f82-47cf-8dbf-2be4ba325c3b","ios":"levelo://app?vid=a53c049f-6f82-47cf-8dbf-2be4ba325c3b"},"vehicle_type_id":"4","last_reported":1730196615,"current_range_meters":38000,"station_id":"ce4bhnh2rcd13ifvqgug","pricing_plan_id":"cebpf4jnsgd1na2vs0mg"},{"bike_id":"e5eeca8e-eae6-4ded-8e97-461d735497ca","system_id":"levelo_inurba_marseille","lat":43.29934,"lon":5.36544,"is_reserved":false,"is_disabled":false,"rental_uris":{"android":"levelo://app?vid=e5eeca8e-eae6-4ded-8e97-461d735497ca","ios":"levelo://app?vid=e5eeca8e-eae6-4ded-8e97-461d735497ca"},"vehicle_type_id":"4","last_reported":1730196615,"current_range_meters":30400,"station_id":"ce4bgm92rcd13ifvqbr0","pricing_plan_id":"cebpf4jnsgd1na2vs0mg"},{"bike_id":"f6cdcc7b-6892-45a3-9199-3ce451c7d8cc","system_id":"levelo_inurba_marseille","lat":43.29971,"lon":5.37177,"is_reserved":false,"is_disabled":false,"rental_uris":{"android":"levelo://app?vid=f6cdcc7b-6892-45a3-9199-3ce451c7d8cc","ios":"levelo://app?vid=f6cdcc7b-6892-45a3-9199-3ce451c7d8cc"},"vehicle_type_id":"4","last_reported":1730196615,"current_range_meters":6800,"station_id":"ce4bgr92rcd13ifvqc7g","pricing_plan_id":"cebpf4jnsgd1na2vs0mg"},{"bike_id":"c83bf92a-895e-4031-90cc-0a4806604b3f","system_id":"levelo_inurba_marseille","lat":43.23054,"lon":5.35494,"is_reserved":false,"is_disabled":false,"rental_uris":{"android":"levelo://app?vid=c83bf92a-895e-4031-90cc-0a4806604b3f","ios":"levelo://app?vid=c83bf92a-895e-4031-90cc-0a4806604b3f"},"vehicle_type_id":"4","last_reported":1730196615,"current_range_meters":32800,"station_id":"cpo3342slgdg3j2ifvpg","pricing_plan_id":"cebpf4jnsgd1na2vs0mg"},{"bike_id":"428b1ad4-0543-45b1-966b-50120bd1e0f0","system_id":"levelo_inurba_marseille","lat":43.29274,"lon":5.36839,"is_reserved":false,"is_disabled":false,"rental_uris":{"android":"levelo://app?vid=428b1ad4-0543-45b1-966b-50120bd1e0f0","ios":"levelo://app?vid=428b1ad4-0543-45b1-966b-50120bd1e0f0"},"vehicle_type_id":"4","last_reported":1730196615,"current_range_meters":36800,"station_id":"ce4bhbp2rcd13ifvqesg","pricing_plan_id":"cebpf4jnsgd1na2vs0mg"},{"bike_id":"3f4e9f7d-d364-447b-b7a3-5938ab5df8c4","system_id":"levelo_inurba_marseille","lat":43.32477,"lon":5.36572,"is_reserved":false,"is_disabled":false,"rental_uris":{"android":"levelo://app?vid=3f4e9f7d-d364-447b-b7a3-5938ab5df8c4","ios":"levelo://app?vid=3f4e9f7d-d364-447b-b7a3-5938ab5df8c4"},"vehicle_type_id":"4","last_reported":1730196615,"current_range_meters":38800,"station_id":"ce4bhs12rcd13ifvqhvg","pricing_plan_id":"cebpf4jnsgd1na2vs0mg"},{"bike_id":"9fd56fad-5f3d-42b4-b491-7b57b76bc0cf","system_id":"levelo_inurba_marseille","lat":43.27816,"lon":5.40719,"is_reserved":false,"is_disabled":false,"rental_uris":{"android":"levelo://app?vid=9fd56fad-5f3d-42b4-b491-7b57b76bc0cf","ios":"levelo://app?vid=9fd56fad-5f3d-42b4-b491-7b57b76bc0cf"},"vehicle_type_id":"4","last_reported":1730196615,"current_range_meters":11200,"station_id":"ce4bhnh2rcd13ifvqgtg","pricing_plan_id":"cebpf4jnsgd1na2vs0mg"},{"bike_id":"50ec38cb-6158-42ad-8634-ba8de4c0fcc5","system_id":"levelo_inurba_marseille","lat":43.30549,"lon":5.36534,"is_reserved":false,"is_disabled":false,"rental_uris":{"android":"levelo://app?vid=50ec38cb-6158-42ad-8634-ba8de4c0fcc5","ios":"levelo://app?vid=50ec38cb-6158-42ad-8634-ba8de4c0fcc5"},"vehicle_type_id":"4","last_reported":1730196615,"current_range_meters":19200,"station_id":"ce4bgs12rcd13ifvqcag","pricing_plan_id":"cebpf4jnsgd1na2vs0mg"},{"bike_id":"dabdafcf-63d2-4cc4-890f-eabbcd91b9b3","system_id":"levelo_inurba_marseille","lat":43.30592,"lon":5.37211,"is_reserved":false,"is_disabled":false,"rental_uris":{"android":"levelo://app?vid=dabdafcf-63d2-4cc4-890f-eabbcd91b9b3","ios":"levelo://app?vid=dabdafcf-63d2-4cc4-890f-eabbcd91b9b3"},"vehicle_type_id":"4","last_reported":1730196615,"current_range_meters":29600,"station_id":"ce4bgqh2rcd13ifvqc4g","pricing_plan_id":"cebpf4jnsgd1na2vs0mg"},{"bike_id":"29e730b5-77d0-469f-aebb-f8f3daf3000c","system_id":"levelo_inurba_marseille","lat":43.2467,"lon":5.38154,"is_reserved":false,"is_disabled":false,"rental_uris":{"android":"levelo://app?vid=29e730b5-77d0-469f-aebb-f8f3daf3000c","ios":"levelo://app?vid=29e730b5-77d0-469f-aebb-f8f3daf3000c"},"vehicle_type_id":"4","last_reported":1730196615,"current_range_meters":22400,"station_id":"ce4bhih2rcd13ifvqfr0","pricing_plan_id":"cebpf4jnsgd1na2vs0mg"},{"bike_id":"8906317c-2882-4bc3-9c8f-30620054b866","system_id":"levelo_inurba_marseille","lat":43.29924,"lon":5.37451,"is_reserved":false,"is_disabled":false,"rental_uris":{"android":"levelo://app?vid=8906317c-2882-4bc3-9c8f-30620054b866","ios":"levelo://app?vid=8906317c-2882-4bc3-9c8f-30620054b866"},"vehicle_type_id":"4","last_reported":1730196615,"current_range_meters":36400,"station_id":"ce4bgjh2rcd13ifvqbg0","pricing_plan_id":"cebpf4jnsgd1na2vs0mg"},{"bike_id":"7ee50b70-bca8-49aa-b900-a39392477c4f","system_id":"levelo_inurba_marseille","lat":43.3248,"lon":5.36573,"is_reserved":false,"is_disabled":false,"rental_uris":{"android":"levelo://app?vid=7ee50b70-bca8-49aa-b900-a39392477c4f","ios":"levelo://app?vid=7ee50b70-bca8-49aa-b900-a39392477c4f"},"vehicle_type_id":"4","last_reported":1730196615,"current_range_meters":31200,"station_id":"ce4bhs12rcd13ifvqhvg","pricing_plan_id":"cebpf4jnsgd1na2vs0mg"},{"bike_id":"4d934123-5ca6-4ffb-ad0b-cdce384ae06d","system_id":"levelo_inurba_marseille","lat":43.25938,"lon":5.40903,"is_reserved":false,"is_disabled":false,"rental_uris":{"android":"levelo://app?vid=4d934123-5ca6-4ffb-ad0b-cdce384ae06d","ios":"levelo://app?vid=4d934123-5ca6-4ffb-ad0b-cdce384ae06d"},"vehicle_type_id":"4","last_reported":1730196615,"current_range_meters":33600,"station_id":"ce4bhm92rcd13ifvqglg","pricing_plan_id":"cebpf4jnsgd1na2vs0mg"},{"bike_id":"8366d555-804b-4c1b-a558-8cce48e0a368","system_id":"levelo_inurba_marseille","lat":43.30601,"lon":5.37217,"is_reserved":false,"is_disabled":false,"rental_uris":{"android":"levelo://app?vid=8366d555-804b-4c1b-a558-8cce48e0a368","ios":"levelo://app?vid=8366d555-804b-4c1b-a558-8cce48e0a368"},"vehicle_type_id":"4","last_reported":1730196615,"current_range_meters":38800,"station_id":"ce4bgqh2rcd13ifvqc4g","pricing_plan_id":"cebpf4jnsgd1na2vs0mg"},{"bike_id":"61099eb1-4b94-4282-b554-5570ba161bf2","system_id":"levelo_inurba_marseille","lat":43.32477,"lon":5.36563,"is_reserved":false,"is_disabled":false,"rental_uris":{"android":"levelo://app?vid=61099eb1-4b94-4282-b554-5570ba161bf2","ios":"levelo://app?vid=61099eb1-4b94-4282-b554-5570ba161bf2"},"vehicle_type_id":"4","last_reported":1730196615,"current_range_meters":32000,"station_id":"ce4bhs12rcd13ifvqhvg","pricing_plan_id":"cebpf4jnsgd1na2vs0mg"},{"bike_id":"982ae63b-751d-45d8-9f75-618867fc2c9e","system_id":"levelo_inurba_marseille","lat":43.2846,"lon":5.35892,"is_reserved":false,"is_disabled":false,"rental_uris":{"android":"levelo://app?vid=982ae63b-751d-45d8-9f75-618867fc2c9e","ios":"levelo://app?vid=982ae63b-751d-45d8-9f75-618867fc2c9e"},"vehicle_type_id":"4","last_reported":1730196615,"current_range_meters":36800,"station_id":"ce4bhah2rcd13ifvqei0","pricing_plan_id":"cebpf4jnsgd1na2vs0mg"},{"bike_id":"a21eaedd-f300-44ba-be8f-70a383262c37","system_id":"levelo_inurba_marseille","lat":43.33604,"lon":5.41032,"is_reserved":false,"is_disabled":false,"rental_uris":{"android":"levelo://app?vid=a21eaedd-f300-44ba-be8f-70a383262c37","ios":"levelo://app?vid=a21eaedd-f300-44ba-be8f-70a383262c37"},"vehicle_type_id":"4","last_reported":1730196615,"current_range_meters":20800,"station_id":"ce4bhqh2rcd13ifvqhmg","pricing_plan_id":"cebpf4jnsgd1na2vs0mg"},{"bike_id":"205f077e-8363-49f0-9ddd-928a7306e289","system_id":"levelo_inurba_marseille","lat":43.30677,"lon":5.3674,"is_reserved":false,"is_disabled":false,"rental_uris":{"android":"levelo://app?vid=205f077e-8363-49f0-9ddd-928a7306e289","ios":"levelo://app?vid=205f077e-8363-49f0-9ddd-928a7306e289"},"vehicle_type_id":"4","last_reported":1730196615,"current_range_meters":38800,"station_id":"ce4bgrp2rcd13ifvqc9g","pricing_plan_id":"cebpf4jnsgd1na2vs0mg"},{"bike_id":"617f85fe-dac5-4e5b-a998-dacfbcdbf21f","system_id":"levelo_inurba_marseille","lat":43.26489,"lon":5.3955,"is_reserved":false,"is_disabled":false,"rental_uris":{"android":"levelo://app?vid=617f85fe-dac5-4e5b-a998-dacfbcdbf21f","ios":"levelo://app?vid=617f85fe-dac5-4e5b-a998-dacfbcdbf21f"},"vehicle_type_id":"4","last_reported":1730196615,"current_range_meters":33600,"station_id":"ce4bhi12rcd13ifvqfq0","pricing_plan_id":"cebpf4jnsgd1na2vs0mg"},{"bike_id":"84e097fc-4c5a-4374-8aa0-d59b453bdd67","system_id":"levelo_inurba_marseille","lat":43.30422,"lon":5.39743,"is_reserved":false,"is_disabled":false,"rental_uris":{"android":"levelo://app?vid=84e097fc-4c5a-4374-8aa0-d59b453bdd67","ios":"levelo://app?vid=84e097fc-4c5a-4374-8aa0-d59b453bdd67"},"vehicle_type_id":"4","last_reported":1730196615,"current_range_meters":33600,"station_id":"ce4bh092rcd13ifvqd20","pricing_plan_id":"cebpf4jnsgd1na2vs0mg"},{"bike_id":"6dee3289-4dcb-4a7a-ad7a-e9bbb3566f63","system_id":"levelo_inurba_marseille","lat":43.29703,"lon":5.36605,"is_reserved":false,"is_disabled":false,"rental_uris":{"android":"levelo://app?vid=6dee3289-4dcb-4a7a-ad7a-e9bbb3566f63","ios":"levelo://app?vid=6dee3289-4dcb-4a7a-ad7a-e9bbb3566f63"},"vehicle_type_id":"4","last_reported":1730196615,"current_range_meters":38800,"station_id":"ce4bgn12rcd13ifvqbt0","pricing_plan_id":"cebpf4jnsgd1na2vs0mg"},{"bike_id":"9392ce40-a24d-4085-b8e5-c2a14c6a57c0","system_id":"levelo_inurba_marseille","lat":43.2512,"lon":5.40314,"is_reserved":false,"is_disabled":false,"rental_uris":{"android":"levelo://app?vid=9392ce40-a24d-4085-b8e5-c2a14c6a57c0","ios":"levelo://app?vid=9392ce40-a24d-4085-b8e5-c2a14c6a57c0"},"vehicle_type_id":"4","last_reported":1730196615,"current_range_meters":39200,"station_id":"ce4bhlh2rcd13ifvqgig","pricing_plan_id":"cebpf4jnsgd1na2vs0mg"},{"bike_id":"23672e5b-050f-4837-a454-e50245d17695","system_id":"levelo_inurba_marseille","lat":43.31707,"lon":5.37748,"is_reserved":false,"is_disabled":false,"rental_uris":{"android":"levelo://app?vid=23672e5b-050f-4837-a454-e50245d17695","ios":"levelo://app?vid=23672e5b-050f-4837-a454-e50245d17695"},"vehicle_type_id":"4","last_reported":1730196615,"current_range_meters":38800,"station_id":"ce4bgth2rcd13ifvqch0","pricing_plan_id":"cebpf4jnsgd1na2vs0mg"},{"bike_id":"9a2fc85a-a17a-458e-b939-1d53446c5048","system_id":"levelo_inurba_marseille","lat":43.2454,"lon":5.39522,"is_reserved":false,"is_disabled":false,"rental_uris":{"android":"levelo://app?vid=9a2fc85a-a17a-458e-b939-1d53446c5048","ios":"levelo://app?vid=9a2fc85a-a17a-458e-b939-1d53446c5048"},"vehicle_type_id":"4","last_reported":1730196615,"current_range_meters":18000,"station_id":"ce4bhlp2rcd13ifvqgjg","pricing_plan_id":"cebpf4jnsgd1na2vs0mg"},{"bike_id":"7d448865-89d6-47db-9acc-4a303dfc59b2","system_id":"levelo_inurba_marseille","lat":43.3028,"lon":5.37699,"is_reserved":false,"is_disabled":false,"rental_uris":{"android":"levelo://app?vid=7d448865-89d6-47db-9acc-4a303dfc59b2","ios":"levelo://app?vid=7d448865-89d6-47db-9acc-4a303dfc59b2"},"vehicle_type_id":"4","last_reported":1730196615,"current_range_meters":33600,"station_id":"ce4bguh2rcd13ifvqcj0","pricing_plan_id":"cebpf4jnsgd1na2vs0mg"},{"bike_id":"e09d0544-7571-405a-9ba5-909482db8629","system_id":"levelo_inurba_marseille","lat":43.29843,"lon":5.36264,"is_reserved":false,"is_disabled":false,"rental_uris":{"android":"levelo://app?vid=e09d0544-7571-405a-9ba5-909482db8629","ios":"levelo://app?vid=e09d0544-7571-405a-9ba5-909482db8629"},"vehicle_type_id":"4","last_reported":1730196615,"current_range_meters":36800,"station_id":"ce4bgpp2rcd13ifvqc3g","pricing_plan_id":"cebpf4jnsgd1na2vs0mg"},{"bike_id":"6625bd6a-f210-424a-849f-4051965146cb","system_id":"levelo_inurba_marseille","lat":43.29733,"lon":5.37691,"is_reserved":false,"is_disabled":false,"rental_uris":{"android":"levelo://app?vid=6625bd6a-f210-424a-849f-4051965146cb","ios":"levelo://app?vid=6625bd6a-f210-424a-849f-4051965146cb"},"vehicle_type_id":"4","last_reported":1730196615,"current_range_meters":23200,"station_id":"ce4bgkh2rcd13ifvqbl0","pricing_plan_id":"cebpf4jnsgd1na2vs0mg"},{"bike_id":"7a0705f9-7ab6-4b8d-be3c-858bc4053913","system_id":"levelo_inurba_marseille","lat":43.26196,"lon":5.37446,"is_reserved":false,"is_disabled":false,"rental_uris":{"android":"levelo://app?vid=7a0705f9-7ab6-4b8d-be3c-858bc4053913","ios":"levelo://app?vid=7a0705f9-7ab6-4b8d-be3c-858bc4053913"},"vehicle_type_id":"4","last_reported":1730196615,"current_range_meters":8400,"station_id":"ce4bhgp2rcd13ifvqfc0","pricing_plan_id":"cebpf4jnsgd1na2vs0mg"},{"bike_id":"df951adf-e6c9-46a7-a012-af0d884c05f9","system_id":"levelo_inurba_marseille","lat":43.26683,"lon":5.38272,"is_reserved":false,"is_disabled":false,"rental_uris":{"android":"levelo://app?vid=df951adf-e6c9-46a7-a012-af0d884c05f9","ios":"levelo://app?vid=df951adf-e6c9-46a7-a012-af0d884c05f9"},"vehicle_type_id":"4","last_reported":1730196615,"current_range_meters":32400,"station_id":"ce4bhg92rcd13ifvqf90","pricing_plan_id":"cebpf4jnsgd1na2vs0mg"},{"bike_id":"0caf4ce8-d0d8-434a-9e87-f0476d0cdbfc","system_id":"levelo_inurba_marseille","lat":43.30323,"lon":5.36896,"is_reserved":false,"is_disabled":false,"rental_uris":{"android":"levelo://app?vid=0caf4ce8-d0d8-434a-9e87-f0476d0cdbfc","ios":"levelo://app?vid=0caf4ce8-d0d8-434a-9e87-f0476d0cdbfc"},"vehicle_type_id":"4","last_reported":1730196615,"current_range_meters":9600,"station_id":"ce4bgqh2rcd13ifvqc5g","pricing_plan_id":"cebpf4jnsgd1na2vs0mg"},{"bike_id":"c10b7c2c-215b-42b7-bf6f-5707822b2d61","system_id":"levelo_inurba_marseille","lat":43.25932,"lon":5.40904,"is_reserved":false,"is_disabled":false,"rental_uris":{"android":"levelo://app?vid=c10b7c2c-215b-42b7-bf6f-5707822b2d61","ios":"levelo://app?vid=c10b7c2c-215b-42b7-bf6f-5707822b2d61"},"vehicle_type_id":"4","last_reported":1730196615,"current_range_meters":28800,"station_id":"ce4bhm92rcd13ifvqglg","pricing_plan_id":"cebpf4jnsgd1na2vs0mg"},{"bike_id":"7dd6e0f3-5dcf-4487-9064-5b1adb288645","system_id":"levelo_inurba_marseille","lat":43.29968,"lon":5.37156,"is_reserved":false,"is_disabled":false,"rental_uris":{"android":"levelo://app?vid=7dd6e0f3-5dcf-4487-9064-5b1adb288645","ios":"levelo://app?vid=7dd6e0f3-5dcf-4487-9064-5b1adb288645"},"vehicle_type_id":"4","last_reported":1730196615,"current_range_meters":35200,"station_id":"ce4bgr92rcd13ifvqc7g","pricing_plan_id":"cebpf4jnsgd1na2vs0mg"},{"bike_id":"b8f9102b-01ea-45e7-b421-bc0a010b02fb","system_id":"levelo_inurba_marseille","lat":43.24547,"lon":5.39522,"is_reserved":false,"is_disabled":false,"rental_uris":{"android":"levelo://app?vid=b8f9102b-01ea-45e7-b421-bc0a010b02fb","ios":"levelo://app?vid=b8f9102b-01ea-45e7-b421-bc0a010b02fb"},"vehicle_type_id":"4","last_reported":1730196615,"current_range_meters":38800,"station_id":"ce4bhlp2rcd13ifvqgjg","pricing_plan_id":"cebpf4jnsgd1na2vs0mg"},{"bike_id":"2ec6e1c8-74f0-482d-b63e-22458c9584cb","system_id":"levelo_inurba_marseille","lat":43.304615,"lon":5.379067,"is_reserved":false,"is_disabled":false,"rental_uris":{"android":"levelo://app?vid=2ec6e1c8-74f0-482d-b63e-22458c9584cb","ios":"levelo://app?vid=2ec6e1c8-74f0-482d-b63e-22458c9584cb"},"vehicle_type_id":"4","last_reported":1730196615,"current_range_meters":5600,"station_id":"ce4bgup2rcd13ifvqcn0","pricing_plan_id":"cebpf4jnsgd1na2vs0mg"},{"bike_id":"e2e0cb9b-e038-4f3c-9f15-a889a0d6743f","system_id":"levelo_inurba_marseille","lat":43.32487,"lon":5.36557,"is_reserved":false,"is_disabled":false,"rental_uris":{"android":"levelo://app?vid=e2e0cb9b-e038-4f3c-9f15-a889a0d6743f","ios":"levelo://app?vid=e2e0cb9b-e038-4f3c-9f15-a889a0d6743f"},"vehicle_type_id":"4","last_reported":1730196615,"current_range_meters":31200,"station_id":"ce4bhs12rcd13ifvqhvg","pricing_plan_id":"cebpf4jnsgd1na2vs0mg"},{"bike_id":"3ae749c1-46ed-4d6f-8a2b-05668312da6a","system_id":"levelo_inurba_marseille","lat":43.25105,"lon":5.40327,"is_reserved":false,"is_disabled":false,"rental_uris":{"android":"levelo://app?vid=3ae749c1-46ed-4d6f-8a2b-05668312da6a","ios":"levelo://app?vid=3ae749c1-46ed-4d6f-8a2b-05668312da6a"},"vehicle_type_id":"4","last_reported":1730196615,"current_range_meters":16000,"station_id":"ce4bhlh2rcd13ifvqgig","pricing_plan_id":"cebpf4jnsgd1na2vs0mg"},{"bike_id":"95048e77-936d-4acd-84b5-3f8fd209ed9a","system_id":"levelo_inurba_marseille","lat":43.303127,"lon":5.368992,"is_reserved":false,"is_disabled":false,"rental_uris":{"android":"levelo://app?vid=95048e77-936d-4acd-84b5-3f8fd209ed9a","ios":"levelo://app?vid=95048e77-936d-4acd-84b5-3f8fd209ed9a"},"vehicle_type_id":"4","last_reported":1730196615,"current_range_meters":38800,"station_id":"ce4bgqh2rcd13ifvqc5g","pricing_plan_id":"cebpf4jnsgd1na2vs0mg"},{"bike_id":"4a7d2e78-51b9-46d2-bf89-98a48709d13a","system_id":"levelo_inurba_marseille","lat":43.31719,"lon":5.42404,"is_reserved":false,"is_disabled":false,"rental_uris":{"android":"levelo://app?vid=4a7d2e78-51b9-46d2-bf89-98a48709d13a","ios":"levelo://app?vid=4a7d2e78-51b9-46d2-bf89-98a48709d13a"},"vehicle_type_id":"4","last_reported":1730196615,"current_range_meters":38800,"station_id":"ce4bhp92rcd13ifvqhbg","pricing_plan_id":"cebpf4jnsgd1na2vs0mg"},{"bike_id":"f99bccd3-d3a6-4026-8c96-f3f15e63c7d1","system_id":"levelo_inurba_marseille","lat":43.31235,"lon":5.36852,"is_reserved":false,"is_disabled":false,"rental_uris":{"android":"levelo://app?vid=f99bccd3-d3a6-4026-8c96-f3f15e63c7d1","ios":"levelo://app?vid=f99bccd3-d3a6-4026-8c96-f3f15e63c7d1"},"vehicle_type_id":"4","last_reported":1730196615,"current_range_meters":39200,"station_id":"ce4bgl92rcd13ifvqbq0","pricing_plan_id":"cebpf4jnsgd1na2vs0mg"},{"bike_id":"4f40babb-918a-48a8-a079-449946d7f754","system_id":"levelo_inurba_marseille","lat":43.2996,"lon":5.41321,"is_reserved":false,"is_disabled":false,"rental_uris":{"android":"levelo://app?vid=4f40babb-918a-48a8-a079-449946d7f754","ios":"levelo://app?vid=4f40babb-918a-48a8-a079-449946d7f754"},"vehicle_type_id":"4","last_reported":1730196615,"current_range_meters":31200,"station_id":"ce4bhp12rcd13ifvqh9g","pricing_plan_id":"cebpf4jnsgd1na2vs0mg"},{"bike_id":"fbc27b08-f101-4599-8f6b-beb812780993","system_id":"levelo_inurba_marseille","lat":43.29896,"lon":5.436661,"is_reserved":false,"is_disabled":false,"rental_uris":{"android":"levelo://app?vid=fbc27b08-f101-4599-8f6b-beb812780993","ios":"levelo://app?vid=fbc27b08-f101-4599-8f6b-beb812780993"},"vehicle_type_id":"4","last_reported":1730196615,"current_range_meters":39200,"station_id":"ce4bhpp2rcd13ifvqhfg","pricing_plan_id":"cebpf4jnsgd1na2vs0mg"},{"bike_id":"a4c48a3c-1b82-4956-80be-6be3342d47bb","system_id":"levelo_inurba_marseille","lat":43.26947,"lon":5.40249,"is_reserved":false,"is_disabled":false,"rental_uris":{"android":"levelo://app?vid=a4c48a3c-1b82-4956-80be-6be3342d47bb","ios":"levelo://app?vid=a4c48a3c-1b82-4956-80be-6be3342d47bb"},"vehicle_type_id":"4","last_reported":1730196615,"current_range_meters":39200,"station_id":"cjm6bp8fraef2m0cb0m0","pricing_plan_id":"cebpf4jnsgd1na2vs0mg"},{"bike_id":"5d5bbd83-37f5-459b-9a5d-210e4f657aaf","system_id":"levelo_inurba_marseille","lat":43.25934,"lon":5.40897,"is_reserved":false,"is_disabled":false,"rental_uris":{"android":"levelo://app?vid=5d5bbd83-37f5-459b-9a5d-210e4f657aaf","ios":"levelo://app?vid=5d5bbd83-37f5-459b-9a5d-210e4f657aaf"},"vehicle_type_id":"4","last_reported":1730196615,"current_range_meters":38800,"station_id":"ce4bhm92rcd13ifvqglg","pricing_plan_id":"cebpf4jnsgd1na2vs0mg"},{"bike_id":"9befed88-9f8c-464c-b07b-093bd97066bb","system_id":"levelo_inurba_marseille","lat":43.29805,"lon":5.37136,"is_reserved":false,"is_disabled":false,"rental_uris":{"android":"levelo://app?vid=9befed88-9f8c-464c-b07b-093bd97066bb","ios":"levelo://app?vid=9befed88-9f8c-464c-b07b-093bd97066bb"},"vehicle_type_id":"4","last_reported":1730196615,"current_range_meters":11200,"station_id":"","pricing_plan_id":"cebpf4jnsgd1na2vs0mg"},{"bike_id":"c8a92740-2b09-4ca5-9043-1ba83935e34d","system_id":"levelo_inurba_marseille","lat":43.24391,"lon":5.37065,"is_reserved":false,"is_disabled":false,"rental_uris":{"android":"levelo://app?vid=c8a92740-2b09-4ca5-9043-1ba83935e34d","ios":"levelo://app?vid=c8a92740-2b09-4ca5-9043-1ba83935e34d"},"vehicle_type_id":"4","last_reported":1730196615,"current_range_meters":38000,"station_id":"ce4bhhh2rcd13ifvqfk0","pricing_plan_id":"cebpf4jnsgd1na2vs0mg"},{"bike_id":"e4c4e7ab-cd77-4c47-aa97-a8549eace488","system_id":"levelo_inurba_marseille","lat":43.25114,"lon":5.40319,"is_reserved":false,"is_disabled":false,"rental_uris":{"android":"levelo://app?vid=e4c4e7ab-cd77-4c47-aa97-a8549eace488","ios":"levelo://app?vid=e4c4e7ab-cd77-4c47-aa97-a8549eace488"},"vehicle_type_id":"4","last_reported":1730196615,"current_range_meters":31200,"station_id":"ce4bhlh2rcd13ifvqgig","pricing_plan_id":"cebpf4jnsgd1na2vs0mg"},{"bike_id":"42296b76-14bb-491f-b265-552debb264f0","system_id":"levelo_inurba_marseille","lat":43.31105,"lon":5.37771,"is_reserved":false,"is_disabled":false,"rental_uris":{"android":"levelo://app?vid=42296b76-14bb-491f-b265-552debb264f0","ios":"levelo://app?vid=42296b76-14bb-491f-b265-552debb264f0"},"vehicle_type_id":"4","last_reported":1730196615,"current_range_meters":21600,"station_id":"ce4bgt92rcd13ifvqcg0","pricing_plan_id":"cebpf4jnsgd1na2vs0mg"},{"bike_id":"f9a2aa18-615d-43f8-9a19-eb948e242e45","system_id":"levelo_inurba_marseille","lat":43.25007,"lon":5.38912,"is_reserved":false,"is_disabled":false,"rental_uris":{"android":"levelo://app?vid=f9a2aa18-615d-43f8-9a19-eb948e242e45","ios":"levelo://app?vid=f9a2aa18-615d-43f8-9a19-eb948e242e45"},"vehicle_type_id":"4","last_reported":1730196615,"current_range_meters":38000,"station_id":"ce4bhgp2rcd13ifvqfd0","pricing_plan_id":"cebpf4jnsgd1na2vs0mg"},{"bike_id":"1641e2d9-e39a-4f2a-a551-3a59775f9162","system_id":"levelo_inurba_marseille","lat":43.32481,"lon":5.3657,"is_reserved":false,"is_disabled":false,"rental_uris":{"android":"levelo://app?vid=1641e2d9-e39a-4f2a-a551-3a59775f9162","ios":"levelo://app?vid=1641e2d9-e39a-4f2a-a551-3a59775f9162"},"vehicle_type_id":"4","last_reported":1730196615,"current_range_meters":8000,"station_id":"ce4bhs12rcd13ifvqhvg","pricing_plan_id":"cebpf4jnsgd1na2vs0mg"},{"bike_id":"99be546e-23a0-4a8f-897d-f4ebd4b3bc15","system_id":"levelo_inurba_marseille","lat":43.27377,"lon":5.36258,"is_reserved":false,"is_disabled":false,"rental_uris":{"android":"levelo://app?vid=99be546e-23a0-4a8f-897d-f4ebd4b3bc15","ios":"levelo://app?vid=99be546e-23a0-4a8f-897d-f4ebd4b3bc15"},"vehicle_type_id":"4","last_reported":1730196615,"current_range_meters":38000,"station_id":"ce4bhbh2rcd13ifvqeo0","pricing_plan_id":"cebpf4jnsgd1na2vs0mg"},{"bike_id":"73597882-d38d-4f2f-a5b2-2f4b8d949a4a","system_id":"levelo_inurba_marseille","lat":43.30522,"lon":5.36702,"is_reserved":false,"is_disabled":false,"rental_uris":{"android":"levelo://app?vid=73597882-d38d-4f2f-a5b2-2f4b8d949a4a","ios":"levelo://app?vid=73597882-d38d-4f2f-a5b2-2f4b8d949a4a"},"vehicle_type_id":"4","last_reported":1730196615,"current_range_meters":32000,"station_id":"","pricing_plan_id":"cebpf4jnsgd1na2vs0mg"},{"bike_id":"844023ff-6d0b-454c-9110-ed149a7ecdf3","system_id":"levelo_inurba_marseille","lat":43.33613,"lon":5.41028,"is_reserved":false,"is_disabled":false,"rental_uris":{"android":"levelo://app?vid=844023ff-6d0b-454c-9110-ed149a7ecdf3","ios":"levelo://app?vid=844023ff-6d0b-454c-9110-ed149a7ecdf3"},"vehicle_type_id":"4","last_reported":1730196615,"current_range_meters":17200,"station_id":"ce4bhqh2rcd13ifvqhmg","pricing_plan_id":"cebpf4jnsgd1na2vs0mg"},{"bike_id":"86cc0f01-10a0-4cdb-b1e7-4d6e7cd80c0e","system_id":"levelo_inurba_marseille","lat":43.32478,"lon":5.36566,"is_reserved":false,"is_disabled":false,"rental_uris":{"android":"levelo://app?vid=86cc0f01-10a0-4cdb-b1e7-4d6e7cd80c0e","ios":"levelo://app?vid=86cc0f01-10a0-4cdb-b1e7-4d6e7cd80c0e"},"vehicle_type_id":"4","last_reported":1730196615,"current_range_meters":28400,"station_id":"ce4bhs12rcd13ifvqhvg","pricing_plan_id":"cebpf4jnsgd1na2vs0mg"},{"bike_id":"0f830cc3-9dea-4ac5-9775-7d0a2c239f5a","system_id":"levelo_inurba_marseille","lat":43.25005,"lon":5.38919,"is_reserved":false,"is_disabled":false,"rental_uris":{"android":"levelo://app?vid=0f830cc3-9dea-4ac5-9775-7d0a2c239f5a","ios":"levelo://app?vid=0f830cc3-9dea-4ac5-9775-7d0a2c239f5a"},"vehicle_type_id":"4","last_reported":1730196615,"current_range_meters":9600,"station_id":"","pricing_plan_id":"cebpf4jnsgd1na2vs0mg"},{"bike_id":"5dc1d898-0a14-423f-bebd-b4e6ce485f18","system_id":"levelo_inurba_marseille","lat":43.27201,"lon":5.39185,"is_reserved":false,"is_disabled":false,"rental_uris":{"android":"levelo://app?vid=5dc1d898-0a14-423f-bebd-b4e6ce485f18","ios":"levelo://app?vid=5dc1d898-0a14-423f-bebd-b4e6ce485f18"},"vehicle_type_id":"4","last_reported":1730196615,"current_range_meters":36000,"station_id":"ce4bhhp2rcd13ifvqfm0","pricing_plan_id":"cebpf4jnsgd1na2vs0mg"},{"bike_id":"0653fcdd-e92d-452f-8f98-0dbb80bc8e0d","system_id":"levelo_inurba_marseille","lat":43.32483,"lon":5.36564,"is_reserved":false,"is_disabled":false,"rental_uris":{"android":"levelo://app?vid=0653fcdd-e92d-452f-8f98-0dbb80bc8e0d","ios":"levelo://app?vid=0653fcdd-e92d-452f-8f98-0dbb80bc8e0d"},"vehicle_type_id":"4","last_reported":1730196615,"current_range_meters":36000,"station_id":"ce4bhs12rcd13ifvqhvg","pricing_plan_id":"cebpf4jnsgd1na2vs0mg"},{"bike_id":"03078b0d-7eef-4212-b91b-9339bda80681","system_id":"levelo_inurba_marseille","lat":43.33759,"lon":5.37438,"is_reserved":false,"is_disabled":false,"rental_uris":{"android":"levelo://app?vid=03078b0d-7eef-4212-b91b-9339bda80681","ios":"levelo://app?vid=03078b0d-7eef-4212-b91b-9339bda80681"},"vehicle_type_id":"4","last_reported":1730196615,"current_range_meters":36800,"station_id":"","pricing_plan_id":"cebpf4jnsgd1na2vs0mg"},{"bike_id":"2d12c957-3c21-49fc-84ec-80691e697d95","system_id":"levelo_inurba_marseille","lat":43.29732,"lon":5.37682,"is_reserved":false,"is_disabled":false,"rental_uris":{"android":"levelo://app?vid=2d12c957-3c21-49fc-84ec-80691e697d95","ios":"levelo://app?vid=2d12c957-3c21-49fc-84ec-80691e697d95"},"vehicle_type_id":"4","last_reported":1730196615,"current_range_meters":39200,"station_id":"ce4bgkh2rcd13ifvqbl0","pricing_plan_id":"cebpf4jnsgd1na2vs0mg"},{"bike_id":"4f18b26c-ebf2-48cd-93a7-f4f2ec23735b","system_id":"levelo_inurba_marseille","lat":43.29043,"lon":5.39968,"is_reserved":false,"is_disabled":false,"rental_uris":{"android":"levelo://app?vid=4f18b26c-ebf2-48cd-93a7-f4f2ec23735b","ios":"levelo://app?vid=4f18b26c-ebf2-48cd-93a7-f4f2ec23735b"},"vehicle_type_id":"4","last_reported":1730196615,"current_range_meters":34800,"station_id":"ce4bh392rcd13ifvqdm0","pricing_plan_id":"cebpf4jnsgd1na2vs0mg"},{"bike_id":"b35b1f2e-f3b9-4802-a1e0-9dd89f8221ae","system_id":"levelo_inurba_marseille","lat":43.32343,"lon":5.40611,"is_reserved":false,"is_disabled":false,"rental_uris":{"android":"levelo://app?vid=b35b1f2e-f3b9-4802-a1e0-9dd89f8221ae","ios":"levelo://app?vid=b35b1f2e-f3b9-4802-a1e0-9dd89f8221ae"},"vehicle_type_id":"4","last_reported":1730196615,"current_range_meters":28400,"station_id":"ce4bhq92rcd13ifvqhjg","pricing_plan_id":"cebpf4jnsgd1na2vs0mg"},{"bike_id":"9f03b1df-8133-40fb-a13a-a54023231a9e","system_id":"levelo_inurba_marseille","lat":43.320468,"lon":5.415473,"is_reserved":false,"is_disabled":false,"rental_uris":{"android":"levelo://app?vid=9f03b1df-8133-40fb-a13a-a54023231a9e","ios":"levelo://app?vid=9f03b1df-8133-40fb-a13a-a54023231a9e"},"vehicle_type_id":"4","last_reported":1730196615,"current_range_meters":38800,"station_id":"ce4bhq92rcd13ifvqhkg","pricing_plan_id":"cebpf4jnsgd1na2vs0mg"},{"bike_id":"0119939b-cf07-4e11-96d6-8913fff0c6b6","system_id":"levelo_inurba_marseille","lat":43.23176,"lon":5.39974,"is_reserved":false,"is_disabled":false,"rental_uris":{"android":"levelo://app?vid=0119939b-cf07-4e11-96d6-8913fff0c6b6","ios":"levelo://app?vid=0119939b-cf07-4e11-96d6-8913fff0c6b6"},"vehicle_type_id":"4","last_reported":1730196615,"current_range_meters":22800,"station_id":"ce4bhn12rcd13ifvqgqg","pricing_plan_id":"cebpf4jnsgd1na2vs0mg"},{"bike_id":"85b586a7-11ad-40a8-9bd6-4a2e9d99f9df","system_id":"levelo_inurba_marseille","lat":43.30539,"lon":5.36527,"is_reserved":false,"is_disabled":false,"rental_uris":{"android":"levelo://app?vid=85b586a7-11ad-40a8-9bd6-4a2e9d99f9df","ios":"levelo://app?vid=85b586a7-11ad-40a8-9bd6-4a2e9d99f9df"},"vehicle_type_id":"4","last_reported":1730196615,"current_range_meters":38800,"station_id":"ce4bgs12rcd13ifvqcag","pricing_plan_id":"cebpf4jnsgd1na2vs0mg"},{"bike_id":"bb2e6c31-bada-4ebc-afad-ca813230e716","system_id":"levelo_inurba_marseille","lat":43.25939,"lon":5.40893,"is_reserved":false,"is_disabled":false,"rental_uris":{"android":"levelo://app?vid=bb2e6c31-bada-4ebc-afad-ca813230e716","ios":"levelo://app?vid=bb2e6c31-bada-4ebc-afad-ca813230e716"},"vehicle_type_id":"4","last_reported":1730196615,"current_range_meters":24400,"station_id":"ce4bhm92rcd13ifvqglg","pricing_plan_id":"cebpf4jnsgd1na2vs0mg"},{"bike_id":"ad5c0cd7-3b13-418b-8576-fa68bbcffce3","system_id":"levelo_inurba_marseille","lat":43.31694,"lon":5.4047,"is_reserved":false,"is_disabled":false,"rental_uris":{"android":"levelo://app?vid=ad5c0cd7-3b13-418b-8576-fa68bbcffce3","ios":"levelo://app?vid=ad5c0cd7-3b13-418b-8576-fa68bbcffce3"},"vehicle_type_id":"4","last_reported":1730196615,"current_range_meters":38800,"station_id":"ce4bh012rcd13ifvqd00","pricing_plan_id":"cebpf4jnsgd1na2vs0mg"},{"bike_id":"5bf69e26-7f99-40d3-8c2f-27b2c43c1336","system_id":"levelo_inurba_marseille","lat":43.2315,"lon":5.43718,"is_reserved":false,"is_disabled":false,"rental_uris":{"android":"levelo://app?vid=5bf69e26-7f99-40d3-8c2f-27b2c43c1336","ios":"levelo://app?vid=5bf69e26-7f99-40d3-8c2f-27b2c43c1336"},"vehicle_type_id":"4","last_reported":1730196615,"current_range_meters":36400,"station_id":"ce4bhmp2rcd13ifvqgog","pricing_plan_id":"cebpf4jnsgd1na2vs0mg"},{"bike_id":"1b5ce385-5047-4575-ba97-fdcd178451d1","system_id":"levelo_inurba_marseille","lat":43.29675,"lon":5.37285,"is_reserved":false,"is_disabled":false,"rental_uris":{"android":"levelo://app?vid=1b5ce385-5047-4575-ba97-fdcd178451d1","ios":"levelo://app?vid=1b5ce385-5047-4575-ba97-fdcd178451d1"},"vehicle_type_id":"4","last_reported":1730196615,"current_range_meters":39200,"station_id":"ce4bgk12rcd13ifvqbj0","pricing_plan_id":"cebpf4jnsgd1na2vs0mg"},{"bike_id":"01e2e02e-6d78-40ae-b200-8fdff8f15b1f","system_id":"levelo_inurba_marseille","lat":43.30459,"lon":5.37899,"is_reserved":false,"is_disabled":false,"rental_uris":{"android":"levelo://app?vid=01e2e02e-6d78-40ae-b200-8fdff8f15b1f","ios":"levelo://app?vid=01e2e02e-6d78-40ae-b200-8fdff8f15b1f"},"vehicle_type_id":"4","last_reported":1730196615,"current_range_meters":3600,"station_id":"ce4bgup2rcd13ifvqcn0","pricing_plan_id":"cebpf4jnsgd1na2vs0mg"},{"bike_id":"a115272b-d982-443a-87c0-8ebb7cafe252","system_id":"levelo_inurba_marseille","lat":43.24075,"lon":5.37756,"is_reserved":false,"is_disabled":false,"rental_uris":{"android":"levelo://app?vid=a115272b-d982-443a-87c0-8ebb7cafe252","ios":"levelo://app?vid=a115272b-d982-443a-87c0-8ebb7cafe252"},"vehicle_type_id":"4","last_reported":1730196615,"current_range_meters":10800,"station_id":"ce4bhnp2rcd13ifvqgvg","pricing_plan_id":"cebpf4jnsgd1na2vs0mg"},{"bike_id":"aed893fd-e5e4-4905-8d17-3ab822a798f2","system_id":"levelo_inurba_marseille","lat":43.30953,"lon":5.39043,"is_reserved":false,"is_disabled":false,"rental_uris":{"android":"levelo://app?vid=aed893fd-e5e4-4905-8d17-3ab822a798f2","ios":"levelo://app?vid=aed893fd-e5e4-4905-8d17-3ab822a798f2"},"vehicle_type_id":"4","last_reported":1730196615,"current_range_meters":38400,"station_id":"ce4bgup2rcd13ifvqco0","pricing_plan_id":"cebpf4jnsgd1na2vs0mg"},{"bike_id":"180643fe-fdbd-42f0-bb12-5a2c89cf900c","system_id":"levelo_inurba_marseille","lat":43.29572,"lon":5.375,"is_reserved":false,"is_disabled":false,"rental_uris":{"android":"levelo://app?vid=180643fe-fdbd-42f0-bb12-5a2c89cf900c","ios":"levelo://app?vid=180643fe-fdbd-42f0-bb12-5a2c89cf900c"},"vehicle_type_id":"4","last_reported":1730196615,"current_range_meters":38000,"station_id":"ce4bgh92rcd13ifvqb50","pricing_plan_id":"cebpf4jnsgd1na2vs0mg"},{"bike_id":"042d86ea-7ee7-46e1-ad4f-9f31badbad8c","system_id":"levelo_inurba_marseille","lat":43.30544,"lon":5.36515,"is_reserved":false,"is_disabled":false,"rental_uris":{"android":"levelo://app?vid=042d86ea-7ee7-46e1-ad4f-9f31badbad8c","ios":"levelo://app?vid=042d86ea-7ee7-46e1-ad4f-9f31badbad8c"},"vehicle_type_id":"4","last_reported":1730196615,"current_range_meters":38800,"station_id":"ce4bgs12rcd13ifvqcag","pricing_plan_id":"cebpf4jnsgd1na2vs0mg"},{"bike_id":"26cc3e4e-3e44-4ac0-be67-f899aefcefa4","system_id":"levelo_inurba_marseille","lat":43.295049,"lon":5.375049,"is_reserved":false,"is_disabled":false,"rental_uris":{"android":"levelo://app?vid=26cc3e4e-3e44-4ac0-be67-f899aefcefa4","ios":"levelo://app?vid=26cc3e4e-3e44-4ac0-be67-f899aefcefa4"},"vehicle_type_id":"4","last_reported":1730196615,"current_range_meters":34000,"station_id":"ce4bgkp2rcd13ifvqbmg","pricing_plan_id":"cebpf4jnsgd1na2vs0mg"},{"bike_id":"2e15a315-6686-4ca1-ad3d-3d92a2178bb6","system_id":"levelo_inurba_marseille","lat":43.24166,"lon":5.36391,"is_reserved":false,"is_disabled":false,"rental_uris":{"android":"levelo://app?vid=2e15a315-6686-4ca1-ad3d-3d92a2178bb6","ios":"levelo://app?vid=2e15a315-6686-4ca1-ad3d-3d92a2178bb6"},"vehicle_type_id":"4","last_reported":1730196615,"current_range_meters":28400,"station_id":"cpo36qri1sfpv3e86is0","pricing_plan_id":"cebpf4jnsgd1na2vs0mg"},{"bike_id":"98b9a4cb-6190-429d-9cbc-c84fd61568cf","system_id":"levelo_inurba_marseille","lat":43.2958,"lon":5.36734,"is_reserved":false,"is_disabled":false,"rental_uris":{"android":"levelo://app?vid=98b9a4cb-6190-429d-9cbc-c84fd61568cf","ios":"levelo://app?vid=98b9a4cb-6190-429d-9cbc-c84fd61568cf"},"vehicle_type_id":"4","last_reported":1730196615,"current_range_meters":28800,"station_id":"ce4bgph2rcd13ifvqc2g","pricing_plan_id":"cebpf4jnsgd1na2vs0mg"},{"bike_id":"63cc10ca-7979-4387-8ee1-b7c12fe6348b","system_id":"levelo_inurba_marseille","lat":43.23148,"lon":5.43725,"is_reserved":false,"is_disabled":false,"rental_uris":{"android":"levelo://app?vid=63cc10ca-7979-4387-8ee1-b7c12fe6348b","ios":"levelo://app?vid=63cc10ca-7979-4387-8ee1-b7c12fe6348b"},"vehicle_type_id":"4","last_reported":1730196615,"current_range_meters":22000,"station_id":"ce4bhmp2rcd13ifvqgog","pricing_plan_id":"cebpf4jnsgd1na2vs0mg"},{"bike_id":"768e8b57-dfe2-4706-aed3-7696914e6381","system_id":"levelo_inurba_marseille","lat":43.25114,"lon":5.40316,"is_reserved":false,"is_disabled":false,"rental_uris":{"android":"levelo://app?vid=768e8b57-dfe2-4706-aed3-7696914e6381","ios":"levelo://app?vid=768e8b57-dfe2-4706-aed3-7696914e6381"},"vehicle_type_id":"4","last_reported":1730196615,"current_range_meters":30800,"station_id":"ce4bhlh2rcd13ifvqgig","pricing_plan_id":"cebpf4jnsgd1na2vs0mg"},{"bike_id":"d065c724-0875-4041-9f9b-8487a87add77","system_id":"levelo_inurba_marseille","lat":43.29041,"lon":5.3997,"is_reserved":false,"is_disabled":false,"rental_uris":{"android":"levelo://app?vid=d065c724-0875-4041-9f9b-8487a87add77","ios":"levelo://app?vid=d065c724-0875-4041-9f9b-8487a87add77"},"vehicle_type_id":"4","last_reported":1730196615,"current_range_meters":38400,"station_id":"ce4bh392rcd13ifvqdm0","pricing_plan_id":"cebpf4jnsgd1na2vs0mg"},{"bike_id":"8c49d97c-9125-4468-bafd-26c7e86003c4","system_id":"levelo_inurba_marseille","lat":43.31234,"lon":5.36854,"is_reserved":false,"is_disabled":false,"rental_uris":{"android":"levelo://app?vid=8c49d97c-9125-4468-bafd-26c7e86003c4","ios":"levelo://app?vid=8c49d97c-9125-4468-bafd-26c7e86003c4"},"vehicle_type_id":"4","last_reported":1730196615,"current_range_meters":28800,"station_id":"ce4bgl92rcd13ifvqbq0","pricing_plan_id":"cebpf4jnsgd1na2vs0mg"},{"bike_id":"b16ea274-24cd-4295-9bf5-10bc67878eff","system_id":"levelo_inurba_marseille","lat":43.33105,"lon":5.38241,"is_reserved":false,"is_disabled":false,"rental_uris":{"android":"levelo://app?vid=b16ea274-24cd-4295-9bf5-10bc67878eff","ios":"levelo://app?vid=b16ea274-24cd-4295-9bf5-10bc67878eff"},"vehicle_type_id":"4","last_reported":1730196615,"current_range_meters":4800,"station_id":"","pricing_plan_id":"cebpf4jnsgd1na2vs0mg"},{"bike_id":"43966cb7-6f2e-496d-bfcf-055444b3f859","system_id":"levelo_inurba_marseille","lat":43.27996,"lon":5.41655,"is_reserved":false,"is_disabled":false,"rental_uris":{"android":"levelo://app?vid=43966cb7-6f2e-496d-bfcf-055444b3f859","ios":"levelo://app?vid=43966cb7-6f2e-496d-bfcf-055444b3f859"},"vehicle_type_id":"4","last_reported":1730196615,"current_range_meters":32000,"station_id":"ce4bho12rcd13ifvqh1g","pricing_plan_id":"cebpf4jnsgd1na2vs0mg"},{"bike_id":"59a50482-cb1e-4ca9-8514-d5b201b306ed","system_id":"levelo_inurba_marseille","lat":43.29932,"lon":5.36547,"is_reserved":false,"is_disabled":false,"rental_uris":{"android":"levelo://app?vid=59a50482-cb1e-4ca9-8514-d5b201b306ed","ios":"levelo://app?vid=59a50482-cb1e-4ca9-8514-d5b201b306ed"},"vehicle_type_id":"4","last_reported":1730196615,"current_range_meters":28400,"station_id":"ce4bgm92rcd13ifvqbr0","pricing_plan_id":"cebpf4jnsgd1na2vs0mg"},{"bike_id":"c16725da-ec0e-4b24-bd47-eab767362945","system_id":"levelo_inurba_marseille","lat":43.25117,"lon":5.40318,"is_reserved":false,"is_disabled":false,"rental_uris":{"android":"levelo://app?vid=c16725da-ec0e-4b24-bd47-eab767362945","ios":"levelo://app?vid=c16725da-ec0e-4b24-bd47-eab767362945"},"vehicle_type_id":"4","last_reported":1730196615,"current_range_meters":39200,"station_id":"ce4bhlh2rcd13ifvqgig","pricing_plan_id":"cebpf4jnsgd1na2vs0mg"},{"bike_id":"a0f43164-83c5-42a1-8e8a-feadc8022d2b","system_id":"levelo_inurba_marseille","lat":43.31347,"lon":5.36696,"is_reserved":false,"is_disabled":false,"rental_uris":{"android":"levelo://app?vid=a0f43164-83c5-42a1-8e8a-feadc8022d2b","ios":"levelo://app?vid=a0f43164-83c5-42a1-8e8a-feadc8022d2b"},"vehicle_type_id":"4","last_reported":1730196615,"current_range_meters":39200,"station_id":"ce4bgr92rcd13ifvqc6g","pricing_plan_id":"cebpf4jnsgd1na2vs0mg"},{"bike_id":"98e7253d-bde7-4335-85d0-48b66e126c10","system_id":"levelo_inurba_marseille","lat":43.23154,"lon":5.43709,"is_reserved":false,"is_disabled":false,"rental_uris":{"android":"levelo://app?vid=98e7253d-bde7-4335-85d0-48b66e126c10","ios":"levelo://app?vid=98e7253d-bde7-4335-85d0-48b66e126c10"},"vehicle_type_id":"4","last_reported":1730196615,"current_range_meters":22400,"station_id":"ce4bhmp2rcd13ifvqgog","pricing_plan_id":"cebpf4jnsgd1na2vs0mg"},{"bike_id":"bd801bbe-605a-44d5-aa84-a87dae5a750a","system_id":"levelo_inurba_marseille","lat":43.24072,"lon":5.37762,"is_reserved":false,"is_disabled":false,"rental_uris":{"android":"levelo://app?vid=bd801bbe-605a-44d5-aa84-a87dae5a750a","ios":"levelo://app?vid=bd801bbe-605a-44d5-aa84-a87dae5a750a"},"vehicle_type_id":"4","last_reported":1730196615,"current_range_meters":31200,"station_id":"ce4bhnp2rcd13ifvqgvg","pricing_plan_id":"cebpf4jnsgd1na2vs0mg"},{"bike_id":"49645c5a-1ea3-40d3-916a-81ee133604ef","system_id":"levelo_inurba_marseille","lat":43.32292,"lon":5.38267,"is_reserved":false,"is_disabled":false,"rental_uris":{"android":"levelo://app?vid=49645c5a-1ea3-40d3-916a-81ee133604ef","ios":"levelo://app?vid=49645c5a-1ea3-40d3-916a-81ee133604ef"},"vehicle_type_id":"4","last_reported":1730196615,"current_range_meters":33600,"station_id":"ce4bhr12rcd13ifvqhqg","pricing_plan_id":"cebpf4jnsgd1na2vs0mg"},{"bike_id":"e79de953-afab-425a-84d5-0be4c9734950","system_id":"levelo_inurba_marseille","lat":43.28151,"lon":5.42638,"is_reserved":false,"is_disabled":false,"rental_uris":{"android":"levelo://app?vid=e79de953-afab-425a-84d5-0be4c9734950","ios":"levelo://app?vid=e79de953-afab-425a-84d5-0be4c9734950"},"vehicle_type_id":"4","last_reported":1730196615,"current_range_meters":38400,"station_id":"ce4bhnh2rcd13ifvqgug","pricing_plan_id":"cebpf4jnsgd1na2vs0mg"},{"bike_id":"eeea0a43-9d4a-480a-acaf-19aeac5b3891","system_id":"levelo_inurba_marseille","lat":43.28369,"lon":5.38631,"is_reserved":false,"is_disabled":false,"rental_uris":{"android":"levelo://app?vid=eeea0a43-9d4a-480a-acaf-19aeac5b3891","ios":"levelo://app?vid=eeea0a43-9d4a-480a-acaf-19aeac5b3891"},"vehicle_type_id":"4","last_reported":1730196615,"current_range_meters":31200,"station_id":"ce4bh492rcd13ifvqdvg","pricing_plan_id":"cebpf4jnsgd1na2vs0mg"},{"bike_id":"21bbed62-6541-48ad-9f1f-e4da26fc4934","system_id":"levelo_inurba_marseille","lat":43.3149,"lon":5.37301,"is_reserved":false,"is_disabled":false,"rental_uris":{"android":"levelo://app?vid=21bbed62-6541-48ad-9f1f-e4da26fc4934","ios":"levelo://app?vid=21bbed62-6541-48ad-9f1f-e4da26fc4934"},"vehicle_type_id":"4","last_reported":1730196615,"current_range_meters":38800,"station_id":"ce4bgt12rcd13ifvqcd0","pricing_plan_id":"cebpf4jnsgd1na2vs0mg"},{"bike_id":"def365ea-ce4e-4795-afd2-50a6da467404","system_id":"levelo_inurba_marseille","lat":43.33754,"lon":5.37453,"is_reserved":false,"is_disabled":false,"rental_uris":{"android":"levelo://app?vid=def365ea-ce4e-4795-afd2-50a6da467404","ios":"levelo://app?vid=def365ea-ce4e-4795-afd2-50a6da467404"},"vehicle_type_id":"4","last_reported":1730196615,"current_range_meters":38400,"station_id":"","pricing_plan_id":"cebpf4jnsgd1na2vs0mg"},{"bike_id":"c4aa130f-77ea-443e-b5af-a096bdac6028","system_id":"levelo_inurba_marseille","lat":43.23155,"lon":5.43708,"is_reserved":false,"is_disabled":false,"rental_uris":{"android":"levelo://app?vid=c4aa130f-77ea-443e-b5af-a096bdac6028","ios":"levelo://app?vid=c4aa130f-77ea-443e-b5af-a096bdac6028"},"vehicle_type_id":"4","last_reported":1730196615,"current_range_meters":24800,"station_id":"ce4bhmp2rcd13ifvqgog","pricing_plan_id":"cebpf4jnsgd1na2vs0mg"},{"bike_id":"6c5e2945-9991-4b83-a735-89629bef68a3","system_id":"levelo_inurba_marseille","lat":43.33024,"lon":5.39037,"is_reserved":false,"is_disabled":false,"rental_uris":{"android":"levelo://app?vid=6c5e2945-9991-4b83-a735-89629bef68a3","ios":"levelo://app?vid=6c5e2945-9991-4b83-a735-89629bef68a3"},"vehicle_type_id":"4","last_reported":1730196615,"current_range_meters":27200,"station_id":"ce4bhr92rcd13ifvqhrg","pricing_plan_id":"cebpf4jnsgd1na2vs0mg"},{"bike_id":"41b14c60-2494-46c8-8b28-b1be8c13fe16","system_id":"levelo_inurba_marseille","lat":43.29973,"lon":5.37171,"is_reserved":false,"is_disabled":false,"rental_uris":{"android":"levelo://app?vid=41b14c60-2494-46c8-8b28-b1be8c13fe16","ios":"levelo://app?vid=41b14c60-2494-46c8-8b28-b1be8c13fe16"},"vehicle_type_id":"4","last_reported":1730196615,"current_range_meters":24000,"station_id":"ce4bgr92rcd13ifvqc7g","pricing_plan_id":"cebpf4jnsgd1na2vs0mg"},{"bike_id":"47620d8e-70ce-44f8-8c26-4afbd4cf735b","system_id":"levelo_inurba_marseille","lat":43.337444,"lon":5.374475,"is_reserved":false,"is_disabled":false,"rental_uris":{"android":"levelo://app?vid=47620d8e-70ce-44f8-8c26-4afbd4cf735b","ios":"levelo://app?vid=47620d8e-70ce-44f8-8c26-4afbd4cf735b"},"vehicle_type_id":"4","last_reported":1730196615,"current_range_meters":19600,"station_id":"","pricing_plan_id":"cebpf4jnsgd1na2vs0mg"},{"bike_id":"7fda42aa-28d7-4fc7-858b-960ce986865c","system_id":"levelo_inurba_marseille","lat":43.23202,"lon":5.35546,"is_reserved":false,"is_disabled":false,"rental_uris":{"android":"levelo://app?vid=7fda42aa-28d7-4fc7-858b-960ce986865c","ios":"levelo://app?vid=7fda42aa-28d7-4fc7-858b-960ce986865c"},"vehicle_type_id":"4","last_reported":1730196615,"current_range_meters":17200,"station_id":"ce4bhu92rcd13ifvqi70","pricing_plan_id":"cebpf4jnsgd1na2vs0mg"},{"bike_id":"ce2b35c8-b45c-4c36-92f3-4c73eb4d1d47","system_id":"levelo_inurba_marseille","lat":43.2721,"lon":5.39175,"is_reserved":false,"is_disabled":false,"rental_uris":{"android":"levelo://app?vid=ce2b35c8-b45c-4c36-92f3-4c73eb4d1d47","ios":"levelo://app?vid=ce2b35c8-b45c-4c36-92f3-4c73eb4d1d47"},"vehicle_type_id":"4","last_reported":1730196615,"current_range_meters":29600,"station_id":"ce4bhhp2rcd13ifvqfm0","pricing_plan_id":"cebpf4jnsgd1na2vs0mg"},{"bike_id":"650bf3f4-7f56-4f32-8a48-b5a2b2978358","system_id":"levelo_inurba_marseille","lat":43.30419,"lon":5.41287,"is_reserved":false,"is_disabled":false,"rental_uris":{"android":"levelo://app?vid=650bf3f4-7f56-4f32-8a48-b5a2b2978358","ios":"levelo://app?vid=650bf3f4-7f56-4f32-8a48-b5a2b2978358"},"vehicle_type_id":"4","last_reported":1730196615,"current_range_meters":17600,"station_id":"ce4bhop2rcd13ifvqh8g","pricing_plan_id":"cebpf4jnsgd1na2vs0mg"},{"bike_id":"1cc8df4a-9325-45a9-bd08-cbebc424d730","system_id":"levelo_inurba_marseille","lat":43.25939,"lon":5.40905,"is_reserved":false,"is_disabled":false,"rental_uris":{"android":"levelo://app?vid=1cc8df4a-9325-45a9-bd08-cbebc424d730","ios":"levelo://app?vid=1cc8df4a-9325-45a9-bd08-cbebc424d730"},"vehicle_type_id":"4","last_reported":1730196615,"current_range_meters":30000,"station_id":"ce4bhm92rcd13ifvqglg","pricing_plan_id":"cebpf4jnsgd1na2vs0mg"},{"bike_id":"8c30d4bd-e385-42f3-a7d5-88401259aa4c","system_id":"levelo_inurba_marseille","lat":43.24175,"lon":5.39722,"is_reserved":false,"is_disabled":false,"rental_uris":{"android":"levelo://app?vid=8c30d4bd-e385-42f3-a7d5-88401259aa4c","ios":"levelo://app?vid=8c30d4bd-e385-42f3-a7d5-88401259aa4c"},"vehicle_type_id":"4","last_reported":1730196615,"current_range_meters":27200,"station_id":"ce4bhn12rcd13ifvqgpg","pricing_plan_id":"cebpf4jnsgd1na2vs0mg"},{"bike_id":"4ff9c218-f22c-419d-8965-ef26fe4a1233","system_id":"levelo_inurba_marseille","lat":43.30147,"lon":5.37421,"is_reserved":false,"is_disabled":false,"rental_uris":{"android":"levelo://app?vid=4ff9c218-f22c-419d-8965-ef26fe4a1233","ios":"levelo://app?vid=4ff9c218-f22c-419d-8965-ef26fe4a1233"},"vehicle_type_id":"4","last_reported":1730196615,"current_range_meters":38000,"station_id":"ce4bgs92rcd13ifvqcc0","pricing_plan_id":"cebpf4jnsgd1na2vs0mg"},{"bike_id":"b807bfad-6bb6-429f-9b97-3405c513e267","system_id":"levelo_inurba_marseille","lat":43.250025,"lon":5.389366,"is_reserved":false,"is_disabled":false,"rental_uris":{"android":"levelo://app?vid=b807bfad-6bb6-429f-9b97-3405c513e267","ios":"levelo://app?vid=b807bfad-6bb6-429f-9b97-3405c513e267"},"vehicle_type_id":"4","last_reported":1730196615,"current_range_meters":19200,"station_id":"ce4bhgp2rcd13ifvqfd0","pricing_plan_id":"cebpf4jnsgd1na2vs0mg"},{"bike_id":"0af527c6-3088-4971-8c8a-715dc1284096","system_id":"levelo_inurba_marseille","lat":43.29846,"lon":5.36264,"is_reserved":false,"is_disabled":false,"rental_uris":{"android":"levelo://app?vid=0af527c6-3088-4971-8c8a-715dc1284096","ios":"levelo://app?vid=0af527c6-3088-4971-8c8a-715dc1284096"},"vehicle_type_id":"4","last_reported":1730196615,"current_range_meters":34800,"station_id":"ce4bgpp2rcd13ifvqc3g","pricing_plan_id":"cebpf4jnsgd1na2vs0mg"},{"bike_id":"ddce2efe-5baf-433a-8887-21016321f6c2","system_id":"levelo_inurba_marseille","lat":43.27816,"lon":5.40711,"is_reserved":false,"is_disabled":false,"rental_uris":{"android":"levelo://app?vid=ddce2efe-5baf-433a-8887-21016321f6c2","ios":"levelo://app?vid=ddce2efe-5baf-433a-8887-21016321f6c2"},"vehicle_type_id":"4","last_reported":1730196615,"current_range_meters":36400,"station_id":"ce4bhnh2rcd13ifvqgtg","pricing_plan_id":"cebpf4jnsgd1na2vs0mg"},{"bike_id":"d6509b06-322a-488b-b7e4-c27207022b2f","system_id":"levelo_inurba_marseille","lat":43.30936,"lon":5.40137,"is_reserved":false,"is_disabled":false,"rental_uris":{"android":"levelo://app?vid=d6509b06-322a-488b-b7e4-c27207022b2f","ios":"levelo://app?vid=d6509b06-322a-488b-b7e4-c27207022b2f"},"vehicle_type_id":"4","last_reported":1730196615,"current_range_meters":28000,"station_id":"ce4bgvp2rcd13ifvqct0","pricing_plan_id":"cebpf4jnsgd1na2vs0mg"},{"bike_id":"dcd98ba9-c8cc-4340-a071-62f2c6f4e9dc","system_id":"levelo_inurba_marseille","lat":43.30879,"lon":5.37193,"is_reserved":false,"is_disabled":false,"rental_uris":{"android":"levelo://app?vid=dcd98ba9-c8cc-4340-a071-62f2c6f4e9dc","ios":"levelo://app?vid=dcd98ba9-c8cc-4340-a071-62f2c6f4e9dc"},"vehicle_type_id":"4","last_reported":1730196615,"current_range_meters":38000,"station_id":"ce4bguh2rcd13ifvqckg","pricing_plan_id":"cebpf4jnsgd1na2vs0mg"},{"bike_id":"7611f6b4-662f-47a5-b8c8-3032dd62ec90","system_id":"levelo_inurba_marseille","lat":43.309,"lon":5.36849,"is_reserved":false,"is_disabled":false,"rental_uris":{"android":"levelo://app?vid=7611f6b4-662f-47a5-b8c8-3032dd62ec90","ios":"levelo://app?vid=7611f6b4-662f-47a5-b8c8-3032dd62ec90"},"vehicle_type_id":"4","last_reported":1730196615,"current_range_meters":23200,"station_id":"ce4bgn92rcd13ifvqbvg","pricing_plan_id":"cebpf4jnsgd1na2vs0mg"},{"bike_id":"a6e2467b-ac75-4a64-b3ac-d4194a708c69","system_id":"levelo_inurba_marseille","lat":43.29969,"lon":5.3718,"is_reserved":false,"is_disabled":false,"rental_uris":{"android":"levelo://app?vid=a6e2467b-ac75-4a64-b3ac-d4194a708c69","ios":"levelo://app?vid=a6e2467b-ac75-4a64-b3ac-d4194a708c69"},"vehicle_type_id":"4","last_reported":1730196615,"current_range_meters":28400,"station_id":"ce4bgr92rcd13ifvqc7g","pricing_plan_id":"cebpf4jnsgd1na2vs0mg"},{"bike_id":"87f2345b-77fb-4930-91b3-910e5db2973d","system_id":"levelo_inurba_marseille","lat":43.24074,"lon":5.37749,"is_reserved":false,"is_disabled":false,"rental_uris":{"android":"levelo://app?vid=87f2345b-77fb-4930-91b3-910e5db2973d","ios":"levelo://app?vid=87f2345b-77fb-4930-91b3-910e5db2973d"},"vehicle_type_id":"4","last_reported":1730196615,"current_range_meters":14800,"station_id":"ce4bhnp2rcd13ifvqgvg","pricing_plan_id":"cebpf4jnsgd1na2vs0mg"},{"bike_id":"bf50e22e-4ead-4bb4-a449-d3f66bc7d5b0","system_id":"levelo_inurba_marseille","lat":43.30531,"lon":5.36713,"is_reserved":false,"is_disabled":false,"rental_uris":{"android":"levelo://app?vid=bf50e22e-4ead-4bb4-a449-d3f66bc7d5b0","ios":"levelo://app?vid=bf50e22e-4ead-4bb4-a449-d3f66bc7d5b0"},"vehicle_type_id":"4","last_reported":1730196615,"current_range_meters":36800,"station_id":"","pricing_plan_id":"cebpf4jnsgd1na2vs0mg"},{"bike_id":"506c2716-6e99-4826-afc6-98b98d5d215f","system_id":"levelo_inurba_marseille","lat":43.28716,"lon":5.37942,"is_reserved":false,"is_disabled":false,"rental_uris":{"android":"levelo://app?vid=506c2716-6e99-4826-afc6-98b98d5d215f","ios":"levelo://app?vid=506c2716-6e99-4826-afc6-98b98d5d215f"},"vehicle_type_id":"4","last_reported":1730196615,"current_range_meters":35200,"station_id":"ce4bh9p2rcd13ifvqec0","pricing_plan_id":"cebpf4jnsgd1na2vs0mg"},{"bike_id":"f8202e8b-a751-4fc2-b294-5f488d74c5ee","system_id":"levelo_inurba_marseille","lat":43.27675,"lon":5.38889,"is_reserved":false,"is_disabled":false,"rental_uris":{"android":"levelo://app?vid=f8202e8b-a751-4fc2-b294-5f488d74c5ee","ios":"levelo://app?vid=f8202e8b-a751-4fc2-b294-5f488d74c5ee"},"vehicle_type_id":"4","last_reported":1730196615,"current_range_meters":24800,"station_id":"ce4bhi12rcd13ifvqfo0","pricing_plan_id":"cebpf4jnsgd1na2vs0mg"},{"bike_id":"02b72eb8-0543-4472-a965-8e5e8373d9ba","system_id":"levelo_inurba_marseille","lat":43.26207,"lon":5.37923,"is_reserved":false,"is_disabled":false,"rental_uris":{"android":"levelo://app?vid=02b72eb8-0543-4472-a965-8e5e8373d9ba","ios":"levelo://app?vid=02b72eb8-0543-4472-a965-8e5e8373d9ba"},"vehicle_type_id":"4","last_reported":1730196615,"current_range_meters":24400,"station_id":"ce4bhjp2rcd13ifvqg90","pricing_plan_id":"cebpf4jnsgd1na2vs0mg"},{"bike_id":"328d061a-042d-4966-8f2e-95eb65d8045d","system_id":"levelo_inurba_marseille","lat":43.30089,"lon":5.3908,"is_reserved":false,"is_disabled":false,"rental_uris":{"android":"levelo://app?vid=328d061a-042d-4966-8f2e-95eb65d8045d","ios":"levelo://app?vid=328d061a-042d-4966-8f2e-95eb65d8045d"},"vehicle_type_id":"4","last_reported":1730196615,"current_range_meters":32800,"station_id":"ce4bh192rcd13ifvqdb0","pricing_plan_id":"cebpf4jnsgd1na2vs0mg"},{"bike_id":"d55d36fb-3a1e-4af5-bd26-28015515abe0","system_id":"levelo_inurba_marseille","lat":43.22933,"lon":5.35379,"is_reserved":false,"is_disabled":false,"rental_uris":{"android":"levelo://app?vid=d55d36fb-3a1e-4af5-bd26-28015515abe0","ios":"levelo://app?vid=d55d36fb-3a1e-4af5-bd26-28015515abe0"},"vehicle_type_id":"4","last_reported":1730196615,"current_range_meters":22000,"station_id":"cpo3532slgdg3j2ikp40","pricing_plan_id":"cebpf4jnsgd1na2vs0mg"},{"bike_id":"ba9b578c-b3f6-4175-aceb-010d9e18f6b9","system_id":"levelo_inurba_marseille","lat":43.290327,"lon":5.399807,"is_reserved":false,"is_disabled":false,"rental_uris":{"android":"levelo://app?vid=ba9b578c-b3f6-4175-aceb-010d9e18f6b9","ios":"levelo://app?vid=ba9b578c-b3f6-4175-aceb-010d9e18f6b9"},"vehicle_type_id":"4","last_reported":1730196615,"current_range_meters":32400,"station_id":"ce4bh392rcd13ifvqdm0","pricing_plan_id":"cebpf4jnsgd1na2vs0mg"},{"bike_id":"c07eb6df-6c92-49c7-9aef-6feed1c8a4a0","system_id":"levelo_inurba_marseille","lat":43.31688,"lon":5.40476,"is_reserved":false,"is_disabled":false,"rental_uris":{"android":"levelo://app?vid=c07eb6df-6c92-49c7-9aef-6feed1c8a4a0","ios":"levelo://app?vid=c07eb6df-6c92-49c7-9aef-6feed1c8a4a0"},"vehicle_type_id":"4","last_reported":1730196615,"current_range_meters":35600,"station_id":"ce4bh012rcd13ifvqd00","pricing_plan_id":"cebpf4jnsgd1na2vs0mg"},{"bike_id":"313e3e8f-de43-42df-a96e-9f76df3962b3","system_id":"levelo_inurba_marseille","lat":43.30605,"lon":5.37224,"is_reserved":false,"is_disabled":false,"rental_uris":{"android":"levelo://app?vid=313e3e8f-de43-42df-a96e-9f76df3962b3","ios":"levelo://app?vid=313e3e8f-de43-42df-a96e-9f76df3962b3"},"vehicle_type_id":"4","last_reported":1730196615,"current_range_meters":23200,"station_id":"ce4bgqh2rcd13ifvqc4g","pricing_plan_id":"cebpf4jnsgd1na2vs0mg"},{"bike_id":"9c19a3fe-deef-4025-9c4d-aa7ba28d4ee7","system_id":"levelo_inurba_marseille","lat":43.2418,"lon":5.39721,"is_reserved":false,"is_disabled":false,"rental_uris":{"android":"levelo://app?vid=9c19a3fe-deef-4025-9c4d-aa7ba28d4ee7","ios":"levelo://app?vid=9c19a3fe-deef-4025-9c4d-aa7ba28d4ee7"},"vehicle_type_id":"4","last_reported":1730196615,"current_range_meters":30400,"station_id":"ce4bhn12rcd13ifvqgpg","pricing_plan_id":"cebpf4jnsgd1na2vs0mg"},{"bike_id":"f4b58118-bd8b-48c2-94fd-250965cf9e7a","system_id":"levelo_inurba_marseille","lat":43.23179,"lon":5.3998,"is_reserved":false,"is_disabled":false,"rental_uris":{"android":"levelo://app?vid=f4b58118-bd8b-48c2-94fd-250965cf9e7a","ios":"levelo://app?vid=f4b58118-bd8b-48c2-94fd-250965cf9e7a"},"vehicle_type_id":"4","last_reported":1730196615,"current_range_meters":38800,"station_id":"ce4bhn12rcd13ifvqgqg","pricing_plan_id":"cebpf4jnsgd1na2vs0mg"},{"bike_id":"e05522ea-aeb2-4446-adab-cf89b4cc07ae","system_id":"levelo_inurba_marseille","lat":43.3095,"lon":5.39043,"is_reserved":false,"is_disabled":false,"rental_uris":{"android":"levelo://app?vid=e05522ea-aeb2-4446-adab-cf89b4cc07ae","ios":"levelo://app?vid=e05522ea-aeb2-4446-adab-cf89b4cc07ae"},"vehicle_type_id":"4","last_reported":1730196615,"current_range_meters":20400,"station_id":"ce4bgup2rcd13ifvqco0","pricing_plan_id":"cebpf4jnsgd1na2vs0mg"},{"bike_id":"a3d7b77e-72d5-452b-afac-f67f9be9bbd6","system_id":"levelo_inurba_marseille","lat":43.29056,"lon":5.38094,"is_reserved":false,"is_disabled":false,"rental_uris":{"android":"levelo://app?vid=a3d7b77e-72d5-452b-afac-f67f9be9bbd6","ios":"levelo://app?vid=a3d7b77e-72d5-452b-afac-f67f9be9bbd6"},"vehicle_type_id":"4","last_reported":1730196615,"current_range_meters":36000,"station_id":"ce4bh512rcd13ifvqe2g","pricing_plan_id":"cebpf4jnsgd1na2vs0mg"},{"bike_id":"76e4b6ea-7eb4-405e-be7e-0271a7fc6f4e","system_id":"levelo_inurba_marseille","lat":43.29842,"lon":5.36267,"is_reserved":false,"is_disabled":false,"rental_uris":{"android":"levelo://app?vid=76e4b6ea-7eb4-405e-be7e-0271a7fc6f4e","ios":"levelo://app?vid=76e4b6ea-7eb4-405e-be7e-0271a7fc6f4e"},"vehicle_type_id":"4","last_reported":1730196615,"current_range_meters":19200,"station_id":"ce4bgpp2rcd13ifvqc3g","pricing_plan_id":"cebpf4jnsgd1na2vs0mg"},{"bike_id":"939e3fab-27e3-4316-a5e5-8bd3ec2713f7","system_id":"levelo_inurba_marseille","lat":43.24666,"lon":5.38159,"is_reserved":false,"is_disabled":false,"rental_uris":{"android":"levelo://app?vid=939e3fab-27e3-4316-a5e5-8bd3ec2713f7","ios":"levelo://app?vid=939e3fab-27e3-4316-a5e5-8bd3ec2713f7"},"vehicle_type_id":"4","last_reported":1730196615,"current_range_meters":35600,"station_id":"ce4bhih2rcd13ifvqfr0","pricing_plan_id":"cebpf4jnsgd1na2vs0mg"},{"bike_id":"808e4760-58f5-4429-862e-042fdefa080a","system_id":"levelo_inurba_marseille","lat":43.28154,"lon":5.42642,"is_reserved":false,"is_disabled":false,"rental_uris":{"android":"levelo://app?vid=808e4760-58f5-4429-862e-042fdefa080a","ios":"levelo://app?vid=808e4760-58f5-4429-862e-042fdefa080a"},"vehicle_type_id":"4","last_reported":1730196615,"current_range_meters":38800,"station_id":"ce4bhnh2rcd13ifvqgug","pricing_plan_id":"cebpf4jnsgd1na2vs0mg"},{"bike_id":"5b1bbce6-8f9f-43b8-bebb-bbd0ea9499f0","system_id":"levelo_inurba_marseille","lat":43.29788,"lon":5.39338,"is_reserved":false,"is_disabled":false,"rental_uris":{"android":"levelo://app?vid=5b1bbce6-8f9f-43b8-bebb-bbd0ea9499f0","ios":"levelo://app?vid=5b1bbce6-8f9f-43b8-bebb-bbd0ea9499f0"},"vehicle_type_id":"4","last_reported":1730196615,"current_range_meters":38800,"station_id":"chh1huq6cuj3fo74tm60","pricing_plan_id":"cebpf4jnsgd1na2vs0mg"},