{"last_updated":1761365512,"ttl":60,"version":"2.2","data":{"bikes":[{"bike_id":"c21b3611-9c87-4ee4-82e8-ce01f8e21e69","system_id":"levelo_inurba_marseille","lat":43.30179,"lon":5.40165,"is_reserved":false,"is_disabled":false,"rental_uris":{"android":"levelo://app?vid=c21b3611-9c87-4ee4-82e8-ce01f8e21e69","ios":"levelo://app?vid=c21b3611-9c87-4ee4-82e8-ce01f8e21e69"},"vehicle_type_id":"4","last_reported":1761365512,"current_range_meters":2800,"station_id":"","pricing_plan_id":"cebpf4jnsgd1na2vs0mg"},{"bike_id":"c9c09511-95d4-4e12-8c2d-e05fcc9fe6b1","system_id":"levelo_inurba_marseille","lat":43.22933,"lon":5.35377,"is_reserved":false,"is_disabled":false,"rental_uris":{"android":"levelo://app?vid=c9c09511-95d4-4e12-8c2d-e05fcc9fe6b1","ios":"levelo://app?vid=c9c09511-95d4-4e12-8c2d-e05fcc9fe6b1"},"vehicle_type_id":"4","last_reported":1761365512,"current_range_meters":3200,"station_id":"cpo3532slgdg3j2ikp40","pricing_plan_id":"cebpf4jnsgd1na2vs0mg"},{"bike_id":"ab451abc-88c7-4576-a77c-6789969e9dae","system_id":"levelo_inurba_marseille","lat":43.229261,"lon":5.353816,"is_reserved":false,"is_disabled":false,"rental_uris":{"android":"levelo://app?vid=ab451abc-88c7-4576-a77c-6789969e9dae","ios":"levelo://app?vid=ab451abc-88c7-4576-a77c-6789969e9dae"},"vehicle_type_id":"4","last_reported":1761365512,"current_range_meters":3600,"station_id":"cpo3532slgdg3j2ikp40","pricing_plan_id":"cebpf4jnsgd1na2vs0mg"},{"bike_id":"1cf570c7-1724-4b95-9963-1b39dfb32ee3","system_id":"levelo_inurba_marseille","lat":43.263754,"lon":5.38745,"is_reserved":false,"is_disabled":false,"rental_uris":{"android":"levelo://app?vid=1cf570c7-1724-4b95-9963-1b39dfb32ee3","ios":"levelo://app?vid=1cf570c7-1724-4b95-9963-1b39dfb32ee3"},"vehicle_type_id":"4","last_reported":1761365512,"current_range_meters":4000,"station_id":"","pricing_plan_id":"cebpf4jnsgd1na2vs0mg"},{"bike_id":"da1861dd-fba9-4602-8d99-e1c7f4d78b87","system_id":"levelo_inurba_marseille","lat":43.29901,"lon":5.3974,"is_reserved":false,"is_disabled":false,"rental_uris":{"android":"levelo://app?vid=da1861dd-fba9-4602-8d99-e1c7f4d78b87","ios":"levelo://app?vid=da1861dd-fba9-4602-8d99-e1c7f4d78b87"},"vehicle_type_id":"4","last_reported":1761365512,"current_range_meters":4000,"station_id":"ce4bh0h2rcd13ifvqd50","pricing_plan_id":"cebpf4jnsgd1na2vs0mg"},{"bike_id":"4d5267d3-0fb3-4a46-b8bb-7d6dacaada47","system_id":"levelo_inurba_marseille","lat":43.31332,"lon":5.39699,"is_reserved":false,"is_disabled":false,"rental_uris":{"android":"levelo://app?vid=4d5267d3-0fb3-4a46-b8bb-7d6dacaada47","ios":"levelo://app?vid=4d5267d3-0fb3-4a46-b8bb-7d6dacaada47"},"vehicle_type_id":"4","last_reported":1761365512,"current_range_meters":4000,"station_id":"ce4bgvp2rcd13ifvqcu0","pricing_plan_id":"cebpf4jnsgd1na2vs0mg"},{"bike_id":"7546f470-e2c9-46ad-b638-733b3092a9dc","system_id":"levelo_inurba_marseille","lat":43.22537,"lon":5.34856,"is_reserved":false,"is_disabled":false,"rental_uris":{"android":"levelo://app?vid=7546f470-e2c9-46ad-b638-733b3092a9dc","ios":"levelo://app?vid=7546f470-e2c9-46ad-b638-733b3092a9dc"},"vehicle_type_id":"4","last_reported":1761365512,"current_range_meters":4000,"station_id":"","pricing_plan_id":"cebpf4jnsgd1na2vs0mg"},{"bike_id":"ed5592f6-738f-424e-b1c7-4090ab91b445","system_id":"levelo_inurba_marseille","lat":43.211927,"lon":5.350631,"is_reserved":false,"is_disabled":false,"rental_uris":{"android":"levelo://app?vid=ed5592f6-738f-424e-b1c7-4090ab91b445","ios":"levelo://app?vid=ed5592f6-738f-424e-b1c7-4090ab91b445"},"vehicle_type_id":"4","last_reported":1761365512,"current_range_meters":4400,"station_id":"st_cvj6sg6p6f1abm77japg","pricing_plan_id":"cebpf4jnsgd1na2vs0mg"},{"bike_id":"89bb1f52-648f-42bf-ab38-085cb512383d","system_id":"levelo_inurba_marseille","lat":43.30154,"lon":5.38099,"is_reserved":false,"is_disabled":false,"rental_uris":{"android":"levelo://app?vid=89bb1f52-648f-42bf-ab38-085cb512383d","ios":"levelo://app?vid=89bb1f52-648f-42bf-ab38-085cb512383d"},"vehicle_type_id":"4","last_reported":1761365512,"current_range_meters":4400,"station_id":"ce4bgjp2rcd13ifvqbh0","pricing_plan_id":"cebpf4jnsgd1na2vs0mg"},{"bike_id":"4b39174c-5820-4cb8-8ed4-e74eb97f33a6","system_id":"levelo_inurba_marseille","lat":43.217571,"lon":5.345986,"is_reserved":false,"is_disabled":false,"rental_uris":{"android":"levelo://app?vid=4b39174c-5820-4cb8-8ed4-e74eb97f33a6","ios":"levelo://app?vid=4b39174c-5820-4cb8-8ed4-e74eb97f33a6"},"vehicle_type_id":"4","last_reported":1761365512,"current_range_meters":4800,"station_id":"st_cvj6r9ubvosntc0bgbag","pricing_plan_id":"cebpf4jnsgd1na2vs0mg"},{"bike_id":"7a7b5695-8ee4-40ae-9a5d-cb68d504012d","system_id":"levelo_inurba_marseille","lat":43.23124,"lon":5.43714,"is_reserved":false,"is_disabled":false,"rental_uris":{"android":"levelo://app?vid=7a7b5695-8ee4-40ae-9a5d-cb68d504012d","ios":"levelo://app?vid=7a7b5695-8ee4-40ae-9a5d-cb68d504012d"},"vehicle_type_id":"4","last_reported":1761365512,"current_range_meters":4800,"station_id":"ce4bhmp2rcd13ifvqgog","pricing_plan_id":"cebpf4jnsgd1na2vs0mg"},{"bike_id":"ca3158aa-129b-4957-84c0-b372cdade23b","system_id":"levelo_inurba_marseille","lat":43.298846,"lon":5.389031,"is_reserved":false,"is_disabled":false,"rental_uris":{"android":"levelo://app?vid=ca3158aa-129b-4957-84c0-b372cdade23b","ios":"levelo://app?vid=ca3158aa-129b-4957-84c0-b372cdade23b"},"vehicle_type_id":"4","last_reported":1761365512,"current_range_meters":4800,"station_id":"ce4bh392rcd13ifvqdl0","pricing_plan_id":"cebpf4jnsgd1na2vs0mg"},{"bike_id":"3bf5a735-28b1-4d8f-bd94-e964a47d4c10","system_id":"levelo_inurba_marseille","lat":43.28224,"lon":5.39069,"is_reserved":false,"is_disabled":false,"rental_uris":{"android":"levelo://app?vid=3bf5a735-28b1-4d8f-bd94-e964a47d4c10","ios":"levelo://app?vid=3bf5a735-28b1-4d8f-bd94-e964a47d4c10"},"vehicle_type_id":"4","last_reported":1761365512,"current_range_meters":4800,"station_id":"ce4bhn92rcd13ifvqgsg","pricing_plan_id":"cebpf4jnsgd1na2vs0mg"},{"bike_id":"e6d54427-79c0-4cbc-b2dc-aab7281da2a6","system_id":"levelo_inurba_marseille","lat":43.28485,"lon":5.3843,"is_reserved":false,"is_disabled":false,"rental_uris":{"android":"levelo://app?vid=e6d54427-79c0-4cbc-b2dc-aab7281da2a6","ios":"levelo://app?vid=e6d54427-79c0-4cbc-b2dc-aab7281da2a6"},"vehicle_type_id":"4","last_reported":1761365512,"current_range_meters":6000,"station_id":"ce4bh512rcd13ifvqe3g","pricing_plan_id":"cebpf4jnsgd1na2vs0mg"},{"bike_id":"ec9665a2-32ab-42b2-9bdf-cf94d158a9c2","system_id":"levelo_inurba_marseille","lat":43.30131,"lon":5.37087,"is_reserved":false,"is_disabled":false,"rental_uris":{"android":"levelo://app?vid=ec9665a2-32ab-42b2-9bdf-cf94d158a9c2","ios":"levelo://app?vid=ec9665a2-32ab-42b2-9bdf-cf94d158a9c2"},"vehicle_type_id":"4","last_reported":1761365512,"current_range_meters":6000,"station_id":"","pricing_plan_id":"cebpf4jnsgd1na2vs0mg"},{"bike_id":"22edc331-bab5-40d8-9c45-d0595c93610e","system_id":"levelo_inurba_marseille","lat":43.30179,"lon":5.38114,"is_reserved":false,"is_disabled":false,"rental_uris":{"android":"levelo://app?vid=22edc331-bab5-40d8-9c45-d0595c93610e","ios":"levelo://app?vid=22edc331-bab5-40d8-9c45-d0595c93610e"},"vehicle_type_id":"4","last_reported":1761365512,"current_range_meters":6000,"station_id":"ce4bgjp2rcd13ifvqbh0","pricing_plan_id":"cebpf4jnsgd1na2vs0mg"},{"bike_id":"3e4783b6-28d8-4737-a4ef-6a1b0da02476","system_id":"levelo_inurba_marseille","lat":43.294533,"lon":5.407108,"is_reserved":false,"is_disabled":false,"rental_uris":{"android":"levelo://app?vid=3e4783b6-28d8-4737-a4ef-6a1b0da02476","ios":"levelo://app?vid=3e4783b6-28d8-4737-a4ef-6a1b0da02476"},"vehicle_type_id":"4","last_reported":1761365512,"current_range_meters":6400,"station_id":"","pricing_plan_id":"cebpf4jnsgd1na2vs0mg"},{"bike_id":"60ee768e-a80f-4185-bb91-1d0a89831466","system_id":"levelo_inurba_marseille","lat":43.27073,"lon":5.38316,"is_reserved":false,"is_disabled":false,"rental_uris":{"android":"levelo://app?vid=60ee768e-a80f-4185-bb91-1d0a89831466","ios":"levelo://app?vid=60ee768e-a80f-4185-bb91-1d0a89831466"},"vehicle_type_id":"4","last_reported":1761365512,"current_range_meters":6400,"station_id":"st_d3n2fo6cfp8s73cte1j0","pricing_plan_id":"cebpf4jnsgd1na2vs0mg"},{"bike_id":"0ac2a14e-cebb-44ce-a399-5d0c00a8bbdf","system_id":"levelo_inurba_marseille","lat":43.303015,"lon":5.392215,"is_reserved":false,"is_disabled":false,"rental_uris":{"android":"levelo://app?vid=0ac2a14e-cebb-44ce-a399-5d0c00a8bbdf","ios":"levelo://app?vid=0ac2a14e-cebb-44ce-a399-5d0c00a8bbdf"},"vehicle_type_id":"4","last_reported":1761365512,"current_range_meters":6800,"station_id":"","pricing_plan_id":"cebpf4jnsgd1na2vs0mg"},{"bike_id":"f472a566-63bd-4d8a-8bda-61055e3c8480","system_id":"levelo_inurba_marseille","lat":43.28948,"lon":5.3665,"is_reserved":false,"is_disabled":false,"rental_uris":{"android":"levelo://app?vid=f472a566-63bd-4d8a-8bda-61055e3c8480","ios":"levelo://app?vid=f472a566-63bd-4d8a-8bda-61055e3c8480"},"vehicle_type_id":"4","last_reported":1761365512,"current_range_meters":6800,"station_id":"ce4bhap2rcd13ifvqek0","pricing_plan_id":"cebpf4jnsgd1na2vs0mg"},{"bike_id":"6acf9db3-111e-42b7-abc7-49b6d014c164","system_id":"levelo_inurba_marseille","lat":43.284262,"lon":5.391895,"is_reserved":false,"is_disabled":false,"rental_uris":{"android":"levelo://app?vid=6acf9db3-111e-42b7-abc7-49b6d014c164","ios":"levelo://app?vid=6acf9db3-111e-42b7-abc7-49b6d014c164"},"vehicle_type_id":"4","last_reported":1761365512,"current_range_meters":6800,"station_id":"ce4bhoh2rcd13ifvqh5g","pricing_plan_id":"cebpf4jnsgd1na2vs0mg"},{"bike_id":"b710d1b3-c0bc-46e4-94f0-68c92792f524","system_id":"levelo_inurba_marseille","lat":43.29906,"lon":5.39767,"is_reserved":false,"is_disabled":false,"rental_uris":{"android":"levelo://app?vid=b710d1b3-c0bc-46e4-94f0-68c92792f524","ios":"levelo://app?vid=b710d1b3-c0bc-46e4-94f0-68c92792f524"},"vehicle_type_id":"4","last_reported":1761365512,"current_range_meters":6800,"station_id":"","pricing_plan_id":"cebpf4jnsgd1na2vs0mg"},{"bike_id":"00fd3c6a-780c-49dc-9993-d4de69c9b57a","system_id":"levelo_inurba_marseille","lat":43.31086,"lon":5.37485,"is_reserved":false,"is_disabled":false,"rental_uris":{"android":"levelo://app?vid=00fd3c6a-780c-49dc-9993-d4de69c9b57a","ios":"levelo://app?vid=00fd3c6a-780c-49dc-9993-d4de69c9b57a"},"vehicle_type_id":"4","last_reported":1761365512,"current_range_meters":6800,"station_id":"","pricing_plan_id":"cebpf4jnsgd1na2vs0mg"},{"bike_id":"323bf2de-3bb4-4b4c-b330-b19ea807dbf5","system_id":"levelo_inurba_marseille","lat":43.330033,"lon":5.429526,"is_reserved":false,"is_disabled":false,"rental_uris":{"android":"levelo://app?vid=323bf2de-3bb4-4b4c-b330-b19ea807dbf5","ios":"levelo://app?vid=323bf2de-3bb4-4b4c-b330-b19ea807dbf5"},"vehicle_type_id":"4","last_reported":1761365512,"current_range_meters":6800,"station_id":"","pricing_plan_id":"cebpf4jnsgd1na2vs0mg"},{"bike_id":"17bd9fff-f8a7-45af-8120-cab272292f42","system_id":"levelo_inurba_marseille","lat":43.284842,"lon":5.483866,"is_reserved":false,"is_disabled":false,"rental_uris":{"android":"levelo://app?vid=17bd9fff-f8a7-45af-8120-cab272292f42","ios":"levelo://app?vid=17bd9fff-f8a7-45af-8120-cab272292f42"},"vehicle_type_id":"4","last_reported":1761365512,"current_range_meters":6800,"station_id":"st_d3svhcjqgbts73a3dn0g","pricing_plan_id":"cebpf4jnsgd1na2vs0mg"},{"bike_id":"9bfed83c-4a67-448a-b6b2-0cdeb6d04c62","system_id":"levelo_inurba_marseille","lat":43.21194,"lon":5.35067,"is_reserved":false,"is_disabled":false,"rental_uris":{"android":"levelo://app?vid=9bfed83c-4a67-448a-b6b2-0cdeb6d04c62","ios":"levelo://app?vid=9bfed83c-4a67-448a-b6b2-0cdeb6d04c62"},"vehicle_type_id":"4","last_reported":1761365512,"current_range_meters":7200,"station_id":"st_cvj6sg6p6f1abm77japg","pricing_plan_id":"cebpf4jnsgd1na2vs0mg"},{"bike_id":"a763322a-34e0-4e4a-abb0-0561413fbf77","system_id":"levelo_inurba_marseille","lat":43.25083,"lon":5.39501,"is_reserved":false,"is_disabled":false,"rental_uris":{"android":"levelo://app?vid=a763322a-34e0-4e4a-abb0-0561413fbf77","ios":"levelo://app?vid=a763322a-34e0-4e4a-abb0-0561413fbf77"},"vehicle_type_id":"4","last_reported":1761365512,"current_range_meters":8000,"station_id":"ce4bhm12rcd13ifvqgkg","pricing_plan_id":"cebpf4jnsgd1na2vs0mg"},{"bike_id":"bf52d227-e2e6-4e46-bfde-44cbb96d7d45","system_id":"levelo_inurba_marseille","lat":43.211952,"lon":5.350681,"is_reserved":false,"is_disabled":false,"rental_uris":{"android":"levelo://app?vid=bf52d227-e2e6-4e46-bfde-44cbb96d7d45","ios":"levelo://app?vid=bf52d227-e2e6-4e46-bfde-44cbb96d7d45"},"vehicle_type_id":"4","last_reported":1761365512,"current_range_meters":8000,"station_id":"st_cvj6sg6p6f1abm77japg","pricing_plan_id":"cebpf4jnsgd1na2vs0mg"},{"bike_id":"bda0b0e2-dc52-45b2-a051-652b9e996651","system_id":"levelo_inurba_marseille","lat":43.30417,"lon":5.39752,"is_reserved":false,"is_disabled":true,"rental_uris":{"android":"levelo://app?vid=bda0b0e2-dc52-45b2-a051-652b9e996651","ios":"levelo://app?vid=bda0b0e2-dc52-45b2-a051-652b9e996651"},"vehicle_type_id":"4","last_reported":1761365512,"current_range_meters":8400,"station_id":"ce4bh092rcd13ifvqd20","pricing_plan_id":"cebpf4jnsgd1na2vs0mg"},{"bike_id":"b9764ed2-f91a-421e-b54e-d7527bd8af22","system_id":"levelo_inurba_marseille","lat":43.29811,"lon":5.36588,"is_reserved":false,"is_disabled":false,"rental_uris":{"android":"levelo://app?vid=b9764ed2-f91a-421e-b54e-d7527bd8af22","ios":"levelo://app?vid=b9764ed2-f91a-421e-b54e-d7527bd8af22"},"vehicle_type_id":"4","last_reported":1761365512,"current_range_meters":8400,"station_id":"","pricing_plan_id":"cebpf4jnsgd1na2vs0mg"},{"bike_id":"8bcacd78-80de-4026-af75-b37ebe3030fe","system_id":"levelo_inurba_marseille","lat":43.334756,"lon":5.404255,"is_reserved":false,"is_disabled":false,"rental_uris":{"android":"levelo://app?vid=8bcacd78-80de-4026-af75-b37ebe3030fe","ios":"levelo://app?vid=8bcacd78-80de-4026-af75-b37ebe3030fe"},"vehicle_type_id":"4","last_reported":1761365512,"current_range_meters":8400,"station_id":"","pricing_plan_id":"cebpf4jnsgd1na2vs0mg"},{"bike_id":"9881c788-42a8-46f5-8ccc-580a73583155","system_id":"levelo_inurba_marseille","lat":43.32085,"lon":5.40922,"is_reserved":false,"is_disabled":true,"rental_uris":{"android":"levelo://app?vid=9881c788-42a8-46f5-8ccc-580a73583155","ios":"levelo://app?vid=9881c788-42a8-46f5-8ccc-580a73583155"},"vehicle_type_id":"4","last_reported":1761365512,"current_range_meters":8400,"station_id":"","pricing_plan_id":"cebpf4jnsgd1na2vs0mg"},{"bike_id":"1ca37eef-a0cd-496d-abbf-41e294a0b067","system_id":"levelo_inurba_marseille","lat":43.29637,"lon":5.40578,"is_reserved":false,"is_disabled":false,"rental_uris":{"android":"levelo://app?vid=1ca37eef-a0cd-496d-abbf-41e294a0b067","ios":"levelo://app?vid=1ca37eef-a0cd-496d-abbf-41e294a0b067"},"vehicle_type_id":"4","last_reported":1761365512,"current_range_meters":8400,"station_id":"ce4bh0h2rcd13ifvqd60","pricing_plan_id":"cebpf4jnsgd1na2vs0mg"},{"bike_id":"19617586-9c98-4d5f-a662-e9c1490752aa","system_id":"levelo_inurba_marseille","lat":43.28152,"lon":5.42635,"is_reserved":false,"is_disabled":true,"rental_uris":{"android":"levelo://app?vid=19617586-9c98-4d5f-a662-e9c1490752aa","ios":"levelo://app?vid=19617586-9c98-4d5f-a662-e9c1490752aa"},"vehicle_type_id":"4","last_reported":1761365512,"current_range_meters":8800,"station_id":"ce4bhnh2rcd13ifvqgug","pricing_plan_id":"cebpf4jnsgd1na2vs0mg"},{"bike_id":"775dccad-261d-474c-a693-df999f60a284","system_id":"levelo_inurba_marseille","lat":43.292632,"lon":5.409101,"is_reserved":false,"is_disabled":false,"rental_uris":{"android":"levelo://app?vid=775dccad-261d-474c-a693-df999f60a284","ios":"levelo://app?vid=775dccad-261d-474c-a693-df999f60a284"},"vehicle_type_id":"4","last_reported":1761365512,"current_range_meters":8800,"station_id":"ce4bh192rcd13ifvqdc0","pricing_plan_id":"cebpf4jnsgd1na2vs0mg"},{"bike_id":"2842f5fd-7b05-4b47-909c-5ee54d7d3bc5","system_id":"levelo_inurba_marseille","lat":43.32449,"lon":5.42787,"is_reserved":false,"is_disabled":false,"rental_uris":{"android":"levelo://app?vid=2842f5fd-7b05-4b47-909c-5ee54d7d3bc5","ios":"levelo://app?vid=2842f5fd-7b05-4b47-909c-5ee54d7d3bc5"},"vehicle_type_id":"4","last_reported":1761365512,"current_range_meters":8800,"station_id":"","pricing_plan_id":"cebpf4jnsgd1na2vs0mg"},{"bike_id":"3ea860b0-bcc7-4174-8003-dcebcf1c1d38","system_id":"levelo_inurba_marseille","lat":43.2813,"lon":5.43217,"is_reserved":false,"is_disabled":false,"rental_uris":{"android":"levelo://app?vid=3ea860b0-bcc7-4174-8003-dcebcf1c1d38","ios":"levelo://app?vid=3ea860b0-bcc7-4174-8003-dcebcf1c1d38"},"vehicle_type_id":"4","last_reported":1761365512,"current_range_meters":9200,"station_id":"","pricing_plan_id":"cebpf4jnsgd1na2vs0mg"},{"bike_id":"2af02dba-6638-48a6-bad1-c865fdfbfab2","system_id":"levelo_inurba_marseille","lat":43.28722,"lon":5.40004,"is_reserved":false,"is_disabled":false,"rental_uris":{"android":"levelo://app?vid=2af02dba-6638-48a6-bad1-c865fdfbfab2","ios":"levelo://app?vid=2af02dba-6638-48a6-bad1-c865fdfbfab2"},"vehicle_type_id":"4","last_reported":1761365512,"current_range_meters":9200,"station_id":"ce4bho92rcd13ifvqh3g","pricing_plan_id":"cebpf4jnsgd1na2vs0mg"},{"bike_id":"a03cabf9-33ae-42f0-bdae-b6310159a4cb","system_id":"levelo_inurba_marseille","lat":43.2757,"lon":5.38426,"is_reserved":false,"is_disabled":false,"rental_uris":{"android":"levelo://app?vid=a03cabf9-33ae-42f0-bdae-b6310159a4cb","ios":"levelo://app?vid=a03cabf9-33ae-42f0-bdae-b6310159a4cb"},"vehicle_type_id":"4","last_reported":1761365512,"current_range_meters":9200,"station_id":"ce4bhh92rcd13ifvqfi0","pricing_plan_id":"cebpf4jnsgd1na2vs0mg"},{"bike_id":"fd056f45-cb13-4448-88a4-8b75b326a45e","system_id":"levelo_inurba_marseille","lat":43.28718,"lon":5.37384,"is_reserved":false,"is_disabled":false,"rental_uris":{"android":"levelo://app?vid=fd056f45-cb13-4448-88a4-8b75b326a45e","ios":"levelo://app?vid=fd056f45-cb13-4448-88a4-8b75b326a45e"},"vehicle_type_id":"4","last_reported":1761365512,"current_range_meters":9200,"station_id":"ce4bh3p2rcd13ifvqdq0","pricing_plan_id":"cebpf4jnsgd1na2vs0mg"},{"bike_id":"d6f3fead-56c5-4eef-8b9f-2a96494ed0c3","system_id":"levelo_inurba_marseille","lat":43.24566,"lon":5.39549,"is_reserved":false,"is_disabled":false,"rental_uris":{"android":"levelo://app?vid=d6f3fead-56c5-4eef-8b9f-2a96494ed0c3","ios":"levelo://app?vid=d6f3fead-56c5-4eef-8b9f-2a96494ed0c3"},"vehicle_type_id":"4","last_reported":1761365512,"current_range_meters":9600,"station_id":"ce4bhlp2rcd13ifvqgjg","pricing_plan_id":"cebpf4jnsgd1na2vs0mg"},{"bike_id":"db94d1e3-d6ad-4bc0-b456-0d49f128a641","system_id":"levelo_inurba_marseille","lat":43.30229,"lon":5.37125,"is_reserved":false,"is_disabled":false,"rental_uris":{"android":"levelo://app?vid=db94d1e3-d6ad-4bc0-b456-0d49f128a641","ios":"levelo://app?vid=db94d1e3-d6ad-4bc0-b456-0d49f128a641"},"vehicle_type_id":"4","last_reported":1761365512,"current_range_meters":9600,"station_id":"","pricing_plan_id":"cebpf4jnsgd1na2vs0mg"},{"bike_id":"e35e1247-2ec0-4206-a360-6aaa534a130f","system_id":"levelo_inurba_marseille","lat":43.28491,"lon":5.48382,"is_reserved":false,"is_disabled":false,"rental_uris":{"android":"levelo://app?vid=e35e1247-2ec0-4206-a360-6aaa534a130f","ios":"levelo://app?vid=e35e1247-2ec0-4206-a360-6aaa534a130f"},"vehicle_type_id":"4","last_reported":1761365512,"current_range_meters":9600,"station_id":"st_d3svhcjqgbts73a3dn0g","pricing_plan_id":"cebpf4jnsgd1na2vs0mg"},{"bike_id":"703a42a4-401c-4f14-91da-be447fbb6e06","system_id":"levelo_inurba_marseille","lat":43.30144,"lon":5.3808,"is_reserved":false,"is_disabled":false,"rental_uris":{"android":"levelo://app?vid=703a42a4-401c-4f14-91da-be447fbb6e06","ios":"levelo://app?vid=703a42a4-401c-4f14-91da-be447fbb6e06"},"vehicle_type_id":"4","last_reported":1761365512,"current_range_meters":9600,"station_id":"ce4bgjp2rcd13ifvqbh0","pricing_plan_id":"cebpf4jnsgd1na2vs0mg"},{"bike_id":"9f5c956e-6fb9-4327-b965-b9c59c52aef2","system_id":"levelo_inurba_marseille","lat":43.30256,"lon":5.40068,"is_reserved":false,"is_disabled":false,"rental_uris":{"android":"levelo://app?vid=9f5c956e-6fb9-4327-b965-b9c59c52aef2","ios":"levelo://app?vid=9f5c956e-6fb9-4327-b965-b9c59c52aef2"},"vehicle_type_id":"4","last_reported":1761365512,"current_range_meters":10000,"station_id":"ce4bgvh2rcd13ifvqcs0","pricing_plan_id":"cebpf4jnsgd1na2vs0mg"},{"bike_id":"5f9debc0-c360-4a2e-b517-592e9a0c2818","system_id":"levelo_inurba_marseille","lat":43.329416,"lon":5.427847,"is_reserved":false,"is_disabled":false,"rental_uris":{"android":"levelo://app?vid=5f9debc0-c360-4a2e-b517-592e9a0c2818","ios":"levelo://app?vid=5f9debc0-c360-4a2e-b517-592e9a0c2818"},"vehicle_type_id":"4","last_reported":1761365512,"current_range_meters":10000,"station_id":"","pricing_plan_id":"cebpf4jnsgd1na2vs0mg"},{"bike_id":"408e1aa4-ba69-4988-8857-9cb927f6b99f","system_id":"levelo_inurba_marseille","lat":43.24188,"lon":5.39731,"is_reserved":false,"is_disabled":false,"rental_uris":{"android":"levelo://app?vid=408e1aa4-ba69-4988-8857-9cb927f6b99f","ios":"levelo://app?vid=408e1aa4-ba69-4988-8857-9cb927f6b99f"},"vehicle_type_id":"4","last_reported":1761365512,"current_range_meters":10000,"station_id":"ce4bhn12rcd13ifvqgpg","pricing_plan_id":"cebpf4jnsgd1na2vs0mg"},{"bike_id":"ca1f638f-31ee-4988-b094-5e7802fc2669","system_id":"levelo_inurba_marseille","lat":43.26194,"lon":5.37926,"is_reserved":false,"is_disabled":false,"rental_uris":{"android":"levelo://app?vid=ca1f638f-31ee-4988-b094-5e7802fc2669","ios":"levelo://app?vid=ca1f638f-31ee-4988-b094-5e7802fc2669"},"vehicle_type_id":"4","last_reported":1761365512,"current_range_meters":10000,"station_id":"ce4bhjp2rcd13ifvqg90","pricing_plan_id":"cebpf4jnsgd1na2vs0mg"},{"bike_id":"dc32c902-0e78-43e9-86e5-99ce7ac82a0d","system_id":"levelo_inurba_marseille","lat":43.27905,"lon":5.3959,"is_reserved":false,"is_disabled":false,"rental_uris":{"android":"levelo://app?vid=dc32c902-0e78-43e9-86e5-99ce7ac82a0d","ios":"levelo://app?vid=dc32c902-0e78-43e9-86e5-99ce7ac82a0d"},"vehicle_type_id":"4","last_reported":1761365512,"current_range_meters":10000,"station_id":"ce4bhf92rcd13ifvqf40","pricing_plan_id":"cebpf4jnsgd1na2vs0mg"},{"bike_id":"1067e143-f527-438d-a26b-4380b111a05f","system_id":"levelo_inurba_marseille","lat":43.28875,"lon":5.35853,"is_reserved":false,"is_disabled":false,"rental_uris":{"android":"levelo://app?vid=1067e143-f527-438d-a26b-4380b111a05f","ios":"levelo://app?vid=1067e143-f527-438d-a26b-4380b111a05f"},"vehicle_type_id":"4","last_reported":1761365512,"current_range_meters":10000,"station_id":"ce4bhb12rcd13ifvqem0","pricing_plan_id":"cebpf4jnsgd1na2vs0mg"},{"bike_id":"2ea49922-2074-4613-aa64-a997e98a287e","system_id":"levelo_inurba_marseille","lat":43.309283,"lon":5.401352,"is_reserved":false,"is_disabled":false,"rental_uris":{"android":"levelo://app?vid=2ea49922-2074-4613-aa64-a997e98a287e","ios":"levelo://app?vid=2ea49922-2074-4613-aa64-a997e98a287e"},"vehicle_type_id":"4","last_reported":1761365512,"current_range_meters":10000,"station_id":"ce4bgvp2rcd13ifvqct0","pricing_plan_id":"cebpf4jnsgd1na2vs0mg"},{"bike_id":"8db996a9-a123-4ae0-bf2e-1c6a4eded6ba","system_id":"levelo_inurba_marseille","lat":43.26575,"lon":5.389957,"is_reserved":false,"is_disabled":false,"rental_uris":{"android":"levelo://app?vid=8db996a9-a123-4ae0-bf2e-1c6a4eded6ba","ios":"levelo://app?vid=8db996a9-a123-4ae0-bf2e-1c6a4eded6ba"},"vehicle_type_id":"4","last_reported":1761365512,"current_range_meters":10800,"station_id":"ce4bhe12rcd13ifvqf30","pricing_plan_id":"cebpf4jnsgd1na2vs0mg"},{"bike_id":"de4b8ab5-285e-474a-b521-72ccb626a9fe","system_id":"levelo_inurba_marseille","lat":43.32246,"lon":5.38357,"is_reserved":false,"is_disabled":false,"rental_uris":{"android":"levelo://app?vid=de4b8ab5-285e-474a-b521-72ccb626a9fe","ios":"levelo://app?vid=de4b8ab5-285e-474a-b521-72ccb626a9fe"},"vehicle_type_id":"4","last_reported":1761365512,"current_range_meters":10800,"station_id":"ce4bhr12rcd13ifvqhqg","pricing_plan_id":"cebpf4jnsgd1na2vs0mg"},{"bike_id":"20ed8898-129d-47a9-8640-6e442dec20cd","system_id":"levelo_inurba_marseille","lat":43.28436,"lon":5.37536,"is_reserved":false,"is_disabled":false,"rental_uris":{"android":"levelo://app?vid=20ed8898-129d-47a9-8640-6e442dec20cd","ios":"levelo://app?vid=20ed8898-129d-47a9-8640-6e442dec20cd"},"vehicle_type_id":"4","last_reported":1761365512,"current_range_meters":10800,"station_id":"ce4bh412rcd13ifvqds0","pricing_plan_id":"cebpf4jnsgd1na2vs0mg"},{"bike_id":"6b307c52-f33b-4885-85a6-9bac6592bb3d","system_id":"levelo_inurba_marseille","lat":43.21202,"lon":5.3508,"is_reserved":false,"is_disabled":false,"rental_uris":{"android":"levelo://app?vid=6b307c52-f33b-4885-85a6-9bac6592bb3d","ios":"levelo://app?vid=6b307c52-f33b-4885-85a6-9bac6592bb3d"},"vehicle_type_id":"4","last_reported":1761365512,"current_range_meters":10800,"station_id":"st_cvj6sg6p6f1abm77japg","pricing_plan_id":"cebpf4jnsgd1na2vs0mg"},{"bike_id":"73019415-679c-46df-bd2d-1b42534d9724","system_id":"levelo_inurba_marseille","lat":43.264233,"lon":5.373763,"is_reserved":false,"is_disabled":false,"rental_uris":{"android":"levelo://app?vid=73019415-679c-46df-bd2d-1b42534d9724","ios":"levelo://app?vid=73019415-679c-46df-bd2d-1b42534d9724"},"vehicle_type_id":"4","last_reported":1761365512,"current_range_meters":10800,"station_id":"","pricing_plan_id":"cebpf4jnsgd1na2vs0mg"},{"bike_id":"c91491a6-50b3-4a5f-8e6b-63afb7874f1f","system_id":"levelo_inurba_marseille","lat":43.28039,"lon":5.36956,"is_reserved":false,"is_disabled":false,"rental_uris":{"android":"levelo://app?vid=c91491a6-50b3-4a5f-8e6b-63afb7874f1f","ios":"levelo://app?vid=c91491a6-50b3-4a5f-8e6b-63afb7874f1f"},"vehicle_type_id":"4","last_reported":1761365512,"current_range_meters":11200,"station_id":"ce4bha12rcd13ifvqef0","pricing_plan_id":"cebpf4jnsgd1na2vs0mg"},{"bike_id":"32ce9492-4637-4d6e-a292-cd351db28377","system_id":"levelo_inurba_marseille","lat":43.31126,"lon":5.37028,"is_reserved":false,"is_disabled":false,"rental_uris":{"android":"levelo://app?vid=32ce9492-4637-4d6e-a292-cd351db28377","ios":"levelo://app?vid=32ce9492-4637-4d6e-a292-cd351db28377"},"vehicle_type_id":"4","last_reported":1761365512,"current_range_meters":11200,"station_id":"","pricing_plan_id":"cebpf4jnsgd1na2vs0mg"},{"bike_id":"fc3ad3ab-216e-47ca-a0b1-3ef56f7121dc","system_id":"levelo_inurba_marseille","lat":43.316907,"lon":5.40479,"is_reserved":false,"is_disabled":false,"rental_uris":{"android":"levelo://app?vid=fc3ad3ab-216e-47ca-a0b1-3ef56f7121dc","ios":"levelo://app?vid=fc3ad3ab-216e-47ca-a0b1-3ef56f7121dc"},"vehicle_type_id":"4","last_reported":1761365512,"current_range_meters":11200,"station_id":"ce4bh012rcd13ifvqd00","pricing_plan_id":"cebpf4jnsgd1na2vs0mg"},{"bike_id":"25b77d4a-c657-4f7c-be8c-daf6c7bed861","system_id":"levelo_inurba_marseille","lat":43.28719,"lon":5.3742,"is_reserved":false,"is_disabled":false,"rental_uris":{"android":"levelo://app?vid=25b77d4a-c657-4f7c-be8c-daf6c7bed861","ios":"levelo://app?vid=25b77d4a-c657-4f7c-be8c-daf6c7bed861"},"vehicle_type_id":"4","last_reported":1761365512,"current_range_meters":11200,"station_id":"ce4bh3p2rcd13ifvqdq0","pricing_plan_id":"cebpf4jnsgd1na2vs0mg"},{"bike_id":"faa9e64a-426c-4d0c-8cdb-396ea27458d0","system_id":"levelo_inurba_marseille","lat":43.280788,"lon":5.396447,"is_reserved":false,"is_disabled":false,"rental_uris":{"android":"levelo://app?vid=faa9e64a-426c-4d0c-8cdb-396ea27458d0","ios":"levelo://app?vid=faa9e64a-426c-4d0c-8cdb-396ea27458d0"},"vehicle_type_id":"4","last_reported":1761365512,"current_range_meters":11200,"station_id":"ce4bho12rcd13ifvqh2g","pricing_plan_id":"cebpf4jnsgd1na2vs0mg"},{"bike_id":"5a753e64-b9ab-4258-baac-3e5dbb098814","system_id":"levelo_inurba_marseille","lat":43.269553,"lon":5.386209,"is_reserved":false,"is_disabled":false,"rental_uris":{"android":"levelo://app?vid=5a753e64-b9ab-4258-baac-3e5dbb098814","ios":"levelo://app?vid=5a753e64-b9ab-4258-baac-3e5dbb098814"},"vehicle_type_id":"4","last_reported":1761365512,"current_range_meters":11200,"station_id":"ce4bhh92rcd13ifvqfh0","pricing_plan_id":"cebpf4jnsgd1na2vs0mg"},{"bike_id":"36169dca-ffb5-4c6b-b89c-f9e7630e0670","system_id":"levelo_inurba_marseille","lat":43.308835,"lon":5.396358,"is_reserved":false,"is_disabled":false,"rental_uris":{"android":"levelo://app?vid=36169dca-ffb5-4c6b-b89c-f9e7630e0670","ios":"levelo://app?vid=36169dca-ffb5-4c6b-b89c-f9e7630e0670"},"vehicle_type_id":"4","last_reported":1761365512,"current_range_meters":11200,"station_id":"ce4bh012rcd13ifvqcv0","pricing_plan_id":"cebpf4jnsgd1na2vs0mg"},{"bike_id":"6398fd05-47e5-41f8-95bf-116d17d1d757","system_id":"levelo_inurba_marseille","lat":43.292603,"lon":5.384447,"is_reserved":false,"is_disabled":false,"rental_uris":{"android":"levelo://app?vid=6398fd05-47e5-41f8-95bf-116d17d1d757","ios":"levelo://app?vid=6398fd05-47e5-41f8-95bf-116d17d1d757"},"vehicle_type_id":"4","last_reported":1761365512,"current_range_meters":11600,"station_id":"","pricing_plan_id":"cebpf4jnsgd1na2vs0mg"},{"bike_id":"ad50cdc6-14ac-4ee0-8fca-5cde66c278a9","system_id":"levelo_inurba_marseille","lat":43.24055,"lon":5.37761,"is_reserved":false,"is_disabled":false,"rental_uris":{"android":"levelo://app?vid=ad50cdc6-14ac-4ee0-8fca-5cde66c278a9","ios":"levelo://app?vid=ad50cdc6-14ac-4ee0-8fca-5cde66c278a9"},"vehicle_type_id":"4","last_reported":1761365512,"current_range_meters":11600,"station_id":"ce4bhnp2rcd13ifvqgvg","pricing_plan_id":"cebpf4jnsgd1na2vs0mg"},{"bike_id":"d7e7d97d-83fa-498a-ab76-bb06d7459e0c","system_id":"levelo_inurba_marseille","lat":43.29042,"lon":5.39951,"is_reserved":false,"is_disabled":false,"rental_uris":{"android":"levelo://app?vid=d7e7d97d-83fa-498a-ab76-bb06d7459e0c","ios":"levelo://app?vid=d7e7d97d-83fa-498a-ab76-bb06d7459e0c"},"vehicle_type_id":"4","last_reported":1761365512,"current_range_meters":12000,"station_id":"ce4bh392rcd13ifvqdm0","pricing_plan_id":"cebpf4jnsgd1na2vs0mg"},{"bike_id":"b27d77c7-cb64-4204-9ade-986c14c57cb9","system_id":"levelo_inurba_marseille","lat":43.286192,"lon":5.350958,"is_reserved":false,"is_disabled":false,"rental_uris":{"android":"levelo://app?vid=b27d77c7-cb64-4204-9ade-986c14c57cb9","ios":"levelo://app?vid=b27d77c7-cb64-4204-9ade-986c14c57cb9"},"vehicle_type_id":"4","last_reported":1761365512,"current_range_meters":12000,"station_id":"ce4bhch2rcd13ifvqeug","pricing_plan_id":"cebpf4jnsgd1na2vs0mg"},{"bike_id":"6327b9e4-b2d2-4a13-89be-11ffd776b74c","system_id":"levelo_inurba_marseille","lat":43.279265,"lon":5.395825,"is_reserved":false,"is_disabled":false,"rental_uris":{"android":"levelo://app?vid=6327b9e4-b2d2-4a13-89be-11ffd776b74c","ios":"levelo://app?vid=6327b9e4-b2d2-4a13-89be-11ffd776b74c"},"vehicle_type_id":"4","last_reported":1761365512,"current_range_meters":12000,"station_id":"ce4bhf92rcd13ifvqf40","pricing_plan_id":"cebpf4jnsgd1na2vs0mg"},{"bike_id":"4f5c5045-2f2c-4ab7-ad8b-eeba1d52fe66","system_id":"levelo_inurba_marseille","lat":43.310707,"lon":5.374485,"is_reserved":false,"is_disabled":false,"rental_uris":{"android":"levelo://app?vid=4f5c5045-2f2c-4ab7-ad8b-eeba1d52fe66","ios":"levelo://app?vid=4f5c5045-2f2c-4ab7-ad8b-eeba1d52fe66"},"vehicle_type_id":"4","last_reported":1761365512,"current_range_meters":12000,"station_id":"","pricing_plan_id":"cebpf4jnsgd1na2vs0mg"},{"bike_id":"e94f57f2-601c-4cad-a187-6e953770aa25","system_id":"levelo_inurba_marseille","lat":43.3122,"lon":5.37877,"is_reserved":false,"is_disabled":false,"rental_uris":{"android":"levelo://app?vid=e94f57f2-601c-4cad-a187-6e953770aa25","ios":"levelo://app?vid=e94f57f2-601c-4cad-a187-6e953770aa25"},"vehicle_type_id":"4","last_reported":1761365512,"current_range_meters":12000,"station_id":"","pricing_plan_id":"cebpf4jnsgd1na2vs0mg"},{"bike_id":"fb7b5adf-91f4-4a05-ace2-e594ea9c65a7","system_id":"levelo_inurba_marseille","lat":43.2872,"lon":5.37431,"is_reserved":false,"is_disabled":false,"rental_uris":{"android":"levelo://app?vid=fb7b5adf-91f4-4a05-ace2-e594ea9c65a7","ios":"levelo://app?vid=fb7b5adf-91f4-4a05-ace2-e594ea9c65a7"},"vehicle_type_id":"4","last_reported":1761365512,"current_range_meters":12000,"station_id":"ce4bh3p2rcd13ifvqdq0","pricing_plan_id":"cebpf4jnsgd1na2vs0mg"},{"bike_id":"69599b97-b573-4868-ae16-9bda40c9248f","system_id":"levelo_inurba_marseille","lat":43.211893,"lon":5.350665,"is_reserved":false,"is_disabled":false,"rental_uris":{"android":"levelo://app?vid=69599b97-b573-4868-ae16-9bda40c9248f","ios":"levelo://app?vid=69599b97-b573-4868-ae16-9bda40c9248f"},"vehicle_type_id":"4","last_reported":1761365512,"current_range_meters":12400,"station_id":"st_cvj6sg6p6f1abm77japg","pricing_plan_id":"cebpf4jnsgd1na2vs0mg"},{"bike_id":"85831b0c-ac03-4a31-ad4b-6acd383c62ca","system_id":"levelo_inurba_marseille","lat":43.27729,"lon":5.38873,"is_reserved":false,"is_disabled":false,"rental_uris":{"android":"levelo://app?vid=85831b0c-ac03-4a31-ad4b-6acd383c62ca","ios":"levelo://app?vid=85831b0c-ac03-4a31-ad4b-6acd383c62ca"},"vehicle_type_id":"4","last_reported":1761365512,"current_range_meters":12400,"station_id":"","pricing_plan_id":"cebpf4jnsgd1na2vs0mg"},{"bike_id":"db538fcf-3842-41b6-a98e-d8b4a6da20a0","system_id":"levelo_inurba_marseille","lat":43.280284,"lon":5.369503,"is_reserved":false,"is_disabled":false,"rental_uris":{"android":"levelo://app?vid=db538fcf-3842-41b6-a98e-d8b4a6da20a0","ios":"levelo://app?vid=db538fcf-3842-41b6-a98e-d8b4a6da20a0"},"vehicle_type_id":"4","last_reported":1761365512,"current_range_meters":12400,"station_id":"ce4bha12rcd13ifvqef0","pricing_plan_id":"cebpf4jnsgd1na2vs0mg"},{"bike_id":"70b890fb-66b4-4468-94d4-91a87de2351c","system_id":"levelo_inurba_marseille","lat":43.30925,"lon":5.4015,"is_reserved":false,"is_disabled":false,"rental_uris":{"android":"levelo://app?vid=70b890fb-66b4-4468-94d4-91a87de2351c","ios":"levelo://app?vid=70b890fb-66b4-4468-94d4-91a87de2351c"},"vehicle_type_id":"4","last_reported":1761365512,"current_range_meters":12800,"station_id":"ce4bgvp2rcd13ifvqct0","pricing_plan_id":"cebpf4jnsgd1na2vs0mg"},{"bike_id":"4b85c1e4-dca2-4165-bced-2e12570a4888","system_id":"levelo_inurba_marseille","lat":43.2872,"lon":5.37416,"is_reserved":false,"is_disabled":false,"rental_uris":{"android":"levelo://app?vid=4b85c1e4-dca2-4165-bced-2e12570a4888","ios":"levelo://app?vid=4b85c1e4-dca2-4165-bced-2e12570a4888"},"vehicle_type_id":"4","last_reported":1761365512,"current_range_meters":12800,"station_id":"ce4bh3p2rcd13ifvqdq0","pricing_plan_id":"cebpf4jnsgd1na2vs0mg"},{"bike_id":"d22e2e90-1054-45fa-ae3b-2f9d35e51907","system_id":"levelo_inurba_marseille","lat":43.30934,"lon":5.40139,"is_reserved":false,"is_disabled":false,"rental_uris":{"android":"levelo://app?vid=d22e2e90-1054-45fa-ae3b-2f9d35e51907","ios":"levelo://app?vid=d22e2e90-1054-45fa-ae3b-2f9d35e51907"},"vehicle_type_id":"4","last_reported":1761365512,"current_range_meters":12800,"station_id":"ce4bgvp2rcd13ifvqct0","pricing_plan_id":"cebpf4jnsgd1na2vs0mg"},{"bike_id":"a7f11d08-358d-4175-ae4c-11718eec7509","system_id":"levelo_inurba_marseille","lat":43.244008,"lon":5.37067,"is_reserved":false,"is_disabled":false,"rental_uris":{"android":"levelo://app?vid=a7f11d08-358d-4175-ae4c-11718eec7509","ios":"levelo://app?vid=a7f11d08-358d-4175-ae4c-11718eec7509"},"vehicle_type_id":"4","last_reported":1761365512,"current_range_meters":13600,"station_id":"ce4bhhh2rcd13ifvqfk0","pricing_plan_id":"cebpf4jnsgd1na2vs0mg"},{"bike_id":"301d2b25-cc39-40bd-8ab2-f142afcdba70","system_id":"levelo_inurba_marseille","lat":43.28413,"lon":5.37545,"is_reserved":false,"is_disabled":false,"rental_uris":{"android":"levelo://app?vid=301d2b25-cc39-40bd-8ab2-f142afcdba70","ios":"levelo://app?vid=301d2b25-cc39-40bd-8ab2-f142afcdba70"},"vehicle_type_id":"4","last_reported":1761365512,"current_range_meters":13600,"station_id":"ce4bh412rcd13ifvqds0","pricing_plan_id":"cebpf4jnsgd1na2vs0mg"},{"bike_id":"5c0e1fad-1092-45f4-930f-73335d46d836","system_id":"levelo_inurba_marseille","lat":43.29786,"lon":5.381042,"is_reserved":false,"is_disabled":true,"rental_uris":{"android":"levelo://app?vid=5c0e1fad-1092-45f4-930f-73335d46d836","ios":"levelo://app?vid=5c0e1fad-1092-45f4-930f-73335d46d836"},"vehicle_type_id":"4","last_reported":1761365512,"current_range_meters":13600,"station_id":"ce4bgip2rcd13ifvqbb0","pricing_plan_id":"cebpf4jnsgd1na2vs0mg"},{"bike_id":"13e34202-181b-430e-bb5d-2ccef7ba1446","system_id":"levelo_inurba_marseille","lat":43.302179,"lon":5.394717,"is_reserved":false,"is_disabled":false,"rental_uris":{"android":"levelo://app?vid=13e34202-181b-430e-bb5d-2ccef7ba1446","ios":"levelo://app?vid=13e34202-181b-430e-bb5d-2ccef7ba1446"},"vehicle_type_id":"4","last_reported":1761365512,"current_range_meters":13600,"station_id":"","pricing_plan_id":"cebpf4jnsgd1na2vs0mg"},{"bike_id":"6861ce85-77a9-4d2e-a905-a525940c7a22","system_id":"levelo_inurba_marseille","lat":43.24675,"lon":5.38183,"is_reserved":false,"is_disabled":false,"rental_uris":{"android":"levelo://app?vid=6861ce85-77a9-4d2e-a905-a525940c7a22","ios":"levelo://app?vid=6861ce85-77a9-4d2e-a905-a525940c7a22"},"vehicle_type_id":"4","last_reported":1761365512,"current_range_meters":13600,"station_id":"ce4bhih2rcd13ifvqfr0","pricing_plan_id":"cebpf4jnsgd1na2vs0mg"},{"bike_id":"81b94419-83df-4ae7-90f3-9dcb9f3cf82e","system_id":"levelo_inurba_marseille","lat":43.28852,"lon":5.35853,"is_reserved":false,"is_disabled":false,"rental_uris":{"android":"levelo://app?vid=81b94419-83df-4ae7-90f3-9dcb9f3cf82e","ios":"levelo://app?vid=81b94419-83df-4ae7-90f3-9dcb9f3cf82e"},"vehicle_type_id":"4","last_reported":1761365512,"current_range_meters":14000,"station_id":"ce4bhb12rcd13ifvqem0","pricing_plan_id":"cebpf4jnsgd1na2vs0mg"},{"bike_id":"75eebb0f-2447-4bf8-b846-45b5b359059b","system_id":"levelo_inurba_marseille","lat":43.33769,"lon":5.37496,"is_reserved":false,"is_disabled":false,"rental_uris":{"android":"levelo://app?vid=75eebb0f-2447-4bf8-b846-45b5b359059b","ios":"levelo://app?vid=75eebb0f-2447-4bf8-b846-45b5b359059b"},"vehicle_type_id":"4","last_reported":1761365512,"current_range_meters":14000,"station_id":"","pricing_plan_id":"cebpf4jnsgd1na2vs0mg"},{"bike_id":"9d964ec4-c537-4f1d-b21c-451d3f46b1bf","system_id":"levelo_inurba_marseille","lat":43.29916,"lon":5.37818,"is_reserved":false,"is_disabled":false,"rental_uris":{"android":"levelo://app?vid=9d964ec4-c537-4f1d-b21c-451d3f46b1bf","ios":"levelo://app?vid=9d964ec4-c537-4f1d-b21c-451d3f46b1bf"},"vehicle_type_id":"4","last_reported":1761365512,"current_range_meters":14000,"station_id":"","pricing_plan_id":"cebpf4jnsgd1na2vs0mg"},{"bike_id":"72595d14-8f84-4de5-a9ab-f8151c131960","system_id":"levelo_inurba_marseille","lat":43.229287,"lon":5.353709,"is_reserved":false,"is_disabled":false,"rental_uris":{"android":"levelo://app?vid=72595d14-8f84-4de5-a9ab-f8151c131960","ios":"levelo://app?vid=72595d14-8f84-4de5-a9ab-f8151c131960"},"vehicle_type_id":"4","last_reported":1761365512,"current_range_meters":14400,"station_id":"cpo3532slgdg3j2ikp40","pricing_plan_id":"cebpf4jnsgd1na2vs0mg"},{"bike_id":"8be6a47c-9542-4fed-8109-f6d91a0f2b3f","system_id":"levelo_inurba_marseille","lat":43.29174,"lon":5.37161,"is_reserved":false,"is_disabled":false,"rental_uris":{"android":"levelo://app?vid=8be6a47c-9542-4fed-8109-f6d91a0f2b3f","ios":"levelo://app?vid=8be6a47c-9542-4fed-8109-f6d91a0f2b3f"},"vehicle_type_id":"4","last_reported":1761365512,"current_range_meters":14400,"station_id":"ce4bha92rcd13ifvqeh0","pricing_plan_id":"cebpf4jnsgd1na2vs0mg"},{"bike_id":"f320fc38-44f2-448c-a191-fce782cdb852","system_id":"levelo_inurba_marseille","lat":43.262226,"lon":5.40455,"is_reserved":false,"is_disabled":false,"rental_uris":{"android":"levelo://app?vid=f320fc38-44f2-448c-a191-fce782cdb852","ios":"levelo://app?vid=f320fc38-44f2-448c-a191-fce782cdb852"},"vehicle_type_id":"4","last_reported":1761365512,"current_range_meters":14400,"station_id":"ce4bhmh2rcd13ifvqgmg","pricing_plan_id":"cebpf4jnsgd1na2vs0mg"},{"bike_id":"a2b7b42c-99ef-4248-b343-c83b4ee2ce18","system_id":"levelo_inurba_marseille","lat":43.32471,"lon":5.3659,"is_reserved":false,"is_disabled":false,"rental_uris":{"android":"levelo://app?vid=a2b7b42c-99ef-4248-b343-c83b4ee2ce18","ios":"levelo://app?vid=a2b7b42c-99ef-4248-b343-c83b4ee2ce18"},"vehicle_type_id":"4","last_reported":1761365512,"current_range_meters":14400,"station_id":"ce4bhs12rcd13ifvqhvg","pricing_plan_id":"cebpf4jnsgd1na2vs0mg"},{"bike_id":"e0d0a98f-800c-47e4-8fdb-4430b581fafc","system_id":"levelo_inurba_marseille","lat":43.302042,"lon":5.38191,"is_reserved":false,"is_disabled":false,"rental_uris":{"android":"levelo://app?vid=e0d0a98f-800c-47e4-8fdb-4430b581fafc","ios":"levelo://app?vid=e0d0a98f-800c-47e4-8fdb-4430b581fafc"},"vehicle_type_id":"4","last_reported":1761365512,"current_range_meters":14400,"station_id":"ce4bgjp2rcd13ifvqbh0","pricing_plan_id":"cebpf4jnsgd1na2vs0mg"},{"bike_id":"8bb9b9b2-ef61-4380-9454-94dba01fa5e4","system_id":"levelo_inurba_marseille","lat":43.30163,"lon":5.38804,"is_reserved":false,"is_disabled":true,"rental_uris":{"android":"levelo://app?vid=8bb9b9b2-ef61-4380-9454-94dba01fa5e4","ios":"levelo://app?vid=8bb9b9b2-ef61-4380-9454-94dba01fa5e4"},"vehicle_type_id":"4","last_reported":1761365512,"current_range_meters":14800,"station_id":"ce4bghh2rcd13ifvqb60","pricing_plan_id":"cebpf4jnsgd1na2vs0mg"},{"bike_id":"cd510e37-9078-40a8-91e5-9a2c8d62ac8a","system_id":"levelo_inurba_marseille","lat":43.29014,"lon":5.38625,"is_reserved":false,"is_disabled":true,"rental_uris":{"android":"levelo://app?vid=cd510e37-9078-40a8-91e5-9a2c8d62ac8a","ios":"levelo://app?vid=cd510e37-9078-40a8-91e5-9a2c8d62ac8a"},"vehicle_type_id":"4","last_reported":1761365512,"current_range_meters":14800,"station_id":"ce4bh4p2rcd13ifvqe0g","pricing_plan_id":"cebpf4jnsgd1na2vs0mg"},{"bike_id":"fef40594-8de0-44aa-a3c1-2116955da244","system_id":"levelo_inurba_marseille","lat":43.261842,"lon":5.417031,"is_reserved":false,"is_disabled":false,"rental_uris":{"android":"levelo://app?vid=fef40594-8de0-44aa-a3c1-2116955da244","ios":"levelo://app?vid=fef40594-8de0-44aa-a3c1-2116955da244"},"vehicle_type_id":"4","last_reported":1761365512,"current_range_meters":14800,"station_id":"","pricing_plan_id":"cebpf4jnsgd1na2vs0mg"},{"bike_id":"3816c2e3-bbcc-4dde-bdaf-c661fb653454","system_id":"levelo_inurba_marseille","lat":43.30092,"lon":5.39084,"is_reserved":false,"is_disabled":false,"rental_uris":{"android":"levelo://app?vid=3816c2e3-bbcc-4dde-bdaf-c661fb653454","ios":"levelo://app?vid=3816c2e3-bbcc-4dde-bdaf-c661fb653454"},"vehicle_type_id":"4","last_reported":1761365512,"current_range_meters":14800,"station_id":"ce4bh192rcd13ifvqdb0","pricing_plan_id":"cebpf4jnsgd1na2vs0mg"},{"bike_id":"4b9ea996-45d6-4c99-b9ff-af19c6118599","system_id":"levelo_inurba_marseille","lat":43.3055,"lon":5.36462,"is_reserved":false,"is_disabled":true,"rental_uris":{"android":"levelo://app?vid=4b9ea996-45d6-4c99-b9ff-af19c6118599","ios":"levelo://app?vid=4b9ea996-45d6-4c99-b9ff-af19c6118599"},"vehicle_type_id":"4","last_reported":1761365512,"current_range_meters":15200,"station_id":"","pricing_plan_id":"cebpf4jnsgd1na2vs0mg"},{"bike_id":"b6559af0-e31e-415b-92a3-0988f7fc43ef","system_id":"levelo_inurba_marseille","lat":43.284141,"lon":5.375172,"is_reserved":false,"is_disabled":true,"rental_uris":{"android":"levelo://app?vid=b6559af0-e31e-415b-92a3-0988f7fc43ef","ios":"levelo://app?vid=b6559af0-e31e-415b-92a3-0988f7fc43ef"},"vehicle_type_id":"4","last_reported":1761365512,"current_range_meters":15200,"station_id":"","pricing_plan_id":"cebpf4jnsgd1na2vs0mg"},{"bike_id":"485e1ddb-2fb3-4abf-bebc-4706d14f7355","system_id":"levelo_inurba_marseille","lat":43.24662,"lon":5.38911,"is_reserved":false,"is_disabled":false,"rental_uris":{"android":"levelo://app?vid=485e1ddb-2fb3-4abf-bebc-4706d14f7355","ios":"levelo://app?vid=485e1ddb-2fb3-4abf-bebc-4706d14f7355"},"vehicle_type_id":"4","last_reported":1761365512,"current_range_meters":15200,"station_id":"ce4bhg12rcd13ifvqf60","pricing_plan_id":"cebpf4jnsgd1na2vs0mg"},{"bike_id":"4f6d245d-0277-4f24-8760-3d192a819e3d","system_id":"levelo_inurba_marseille","lat":43.27226,"lon":5.40968,"is_reserved":false,"is_disabled":false,"rental_uris":{"android":"levelo://app?vid=4f6d245d-0277-4f24-8760-3d192a819e3d","ios":"levelo://app?vid=4f6d245d-0277-4f24-8760-3d192a819e3d"},"vehicle_type_id":"4","last_reported":1761365512,"current_range_meters":15200,"station_id":"ce4bhl12rcd13ifvqgf0","pricing_plan_id":"cebpf4jnsgd1na2vs0mg"},{"bike_id":"913488b5-deaf-4527-b123-c0a73aca1293","system_id":"levelo_inurba_marseille","lat":43.29002,"lon":5.35594,"is_reserved":false,"is_disabled":false,"rental_uris":{"android":"levelo://app?vid=913488b5-deaf-4527-b123-c0a73aca1293","ios":"levelo://app?vid=913488b5-deaf-4527-b123-c0a73aca1293"},"vehicle_type_id":"4","last_reported":1761365512,"current_range_meters":16000,"station_id":"ce4bhb92rcd13ifvqen0","pricing_plan_id":"cebpf4jnsgd1na2vs0mg"},{"bike_id":"386a9c87-6707-4c56-9410-3952ef242f20","system_id":"levelo_inurba_marseille","lat":43.24096,"lon":5.37762,"is_reserved":false,"is_disabled":false,"rental_uris":{"android":"levelo://app?vid=386a9c87-6707-4c56-9410-3952ef242f20","ios":"levelo://app?vid=386a9c87-6707-4c56-9410-3952ef242f20"},"vehicle_type_id":"4","last_reported":1761365512,"current_range_meters":16000,"station_id":"ce4bhnp2rcd13ifvqgvg","pricing_plan_id":"cebpf4jnsgd1na2vs0mg"},{"bike_id":"08c72a6e-0076-4ec0-9646-e87c6c079e62","system_id":"levelo_inurba_marseille","lat":43.28693,"lon":5.38685,"is_reserved":false,"is_disabled":false,"rental_uris":{"android":"levelo://app?vid=08c72a6e-0076-4ec0-9646-e87c6c079e62","ios":"levelo://app?vid=08c72a6e-0076-4ec0-9646-e87c6c079e62"},"vehicle_type_id":"4","last_reported":1761365512,"current_range_meters":16000,"station_id":"ce4bh492rcd13ifvqdug","pricing_plan_id":"cebpf4jnsgd1na2vs0mg"},{"bike_id":"d4f34596-cd96-4004-af96-068144e0795b","system_id":"levelo_inurba_marseille","lat":43.30687,"lon":5.422156,"is_reserved":false,"is_disabled":false,"rental_uris":{"android":"levelo://app?vid=d4f34596-cd96-4004-af96-068144e0795b","ios":"levelo://app?vid=d4f34596-cd96-4004-af96-068144e0795b"},"vehicle_type_id":"4","last_reported":1761365512,"current_range_meters":16000,"station_id":"","pricing_plan_id":"cebpf4jnsgd1na2vs0mg"},{"bike_id":"8e92164c-deff-4fbd-9f4e-43ff81933572","system_id":"levelo_inurba_marseille","lat":43.29843,"lon":5.42043,"is_reserved":false,"is_disabled":false,"rental_uris":{"android":"levelo://app?vid=8e92164c-deff-4fbd-9f4e-43ff81933572","ios":"levelo://app?vid=8e92164c-deff-4fbd-9f4e-43ff81933572"},"vehicle_type_id":"4","last_reported":1761365512,"current_range_meters":16000,"station_id":"","pricing_plan_id":"cebpf4jnsgd1na2vs0mg"},{"bike_id":"86ccf30d-b0d9-4b12-9a3f-af50a6dfc731","system_id":"levelo_inurba_marseille","lat":43.31525,"lon":5.38788,"is_reserved":false,"is_disabled":false,"rental_uris":{"android":"levelo://app?vid=86ccf30d-b0d9-4b12-9a3f-af50a6dfc731","ios":"levelo://app?vid=86ccf30d-b0d9-4b12-9a3f-af50a6dfc731"},"vehicle_type_id":"4","last_reported":1761365512,"current_range_meters":16000,"station_id":"","pricing_plan_id":"cebpf4jnsgd1na2vs0mg"},{"bike_id":"76c00503-65b5-4e88-9b6d-70c827af9cb0","system_id":"levelo_inurba_marseille","lat":43.2927,"lon":5.40919,"is_reserved":false,"is_disabled":false,"rental_uris":{"android":"levelo://app?vid=76c00503-65b5-4e88-9b6d-70c827af9cb0","ios":"levelo://app?vid=76c00503-65b5-4e88-9b6d-70c827af9cb0"},"vehicle_type_id":"4","last_reported":1761365512,"current_range_meters":16000,"station_id":"ce4bh192rcd13ifvqdc0","pricing_plan_id":"cebpf4jnsgd1na2vs0mg"},{"bike_id":"939d2a7d-787e-4d9f-9435-6c2fa9dc0c8e","system_id":"levelo_inurba_marseille","lat":43.295173,"lon":5.390268,"is_reserved":false,"is_disabled":true,"rental_uris":{"android":"levelo://app?vid=939d2a7d-787e-4d9f-9435-6c2fa9dc0c8e","ios":"levelo://app?vid=939d2a7d-787e-4d9f-9435-6c2fa9dc0c8e"},"vehicle_type_id":"4","last_reported":1761365512,"current_range_meters":16400,"station_id":"ce4bh3p2rcd13ifvqdp0","pricing_plan_id":"cebpf4jnsgd1na2vs0mg"},{"bike_id":"865ad4a2-11e8-481e-bcab-fdc1248184cd","system_id":"levelo_inurba_marseille","lat":43.30873,"lon":5.40254,"is_reserved":false,"is_disabled":false,"rental_uris":{"android":"levelo://app?vid=865ad4a2-11e8-481e-bcab-fdc1248184cd","ios":"levelo://app?vid=865ad4a2-11e8-481e-bcab-fdc1248184cd"},"vehicle_type_id":"4","last_reported":1761365512,"current_range_meters":16400,"station_id":"","pricing_plan_id":"cebpf4jnsgd1na2vs0mg"},{"bike_id":"43117888-69d1-4bc6-a73a-697554e4a08e","system_id":"levelo_inurba_marseille","lat":43.25262,"lon":5.37801,"is_reserved":false,"is_disabled":false,"rental_uris":{"android":"levelo://app?vid=43117888-69d1-4bc6-a73a-697554e4a08e","ios":"levelo://app?vid=43117888-69d1-4bc6-a73a-697554e4a08e"},"vehicle_type_id":"4","last_reported":1761365512,"current_range_meters":16400,"station_id":"","pricing_plan_id":"cebpf4jnsgd1na2vs0mg"},{"bike_id":"bfaea6f8-ccc6-44a7-83a6-9d7d9a7e60cc","system_id":"levelo_inurba_marseille","lat":43.26386,"lon":5.39764,"is_reserved":false,"is_disabled":false,"rental_uris":{"android":"levelo://app?vid=bfaea6f8-ccc6-44a7-83a6-9d7d9a7e60cc","ios":"levelo://app?vid=bfaea6f8-ccc6-44a7-83a6-9d7d9a7e60cc"},"vehicle_type_id":"4","last_reported":1761365512,"current_range_meters":16400,"station_id":"","pricing_plan_id":"cebpf4jnsgd1na2vs0mg"},{"bike_id":"5e51b837-4cd9-49b3-b363-642e818f61a9","system_id":"levelo_inurba_marseille","lat":43.29983,"lon":5.38506,"is_reserved":false,"is_disabled":true,"rental_uris":{"android":"levelo://app?vid=5e51b837-4cd9-49b3-b363-642e818f61a9","ios":"levelo://app?vid=5e51b837-4cd9-49b3-b363-642e818f61a9"},"vehicle_type_id":"4","last_reported":1761365512,"current_range_meters":16400,"station_id":"ce4bgj92rcd13ifvqbd0","pricing_plan_id":"cebpf4jnsgd1na2vs0mg"},{"bike_id":"36ef565d-595c-4fe5-832e-9069968fcd08","system_id":"levelo_inurba_marseille","lat":43.32532,"lon":5.41428,"is_reserved":false,"is_disabled":true,"rental_uris":{"android":"levelo://app?vid=36ef565d-595c-4fe5-832e-9069968fcd08","ios":"levelo://app?vid=36ef565d-595c-4fe5-832e-9069968fcd08"},"vehicle_type_id":"4","last_reported":1761365512,"current_range_meters":16800,"station_id":"ce4bhq12rcd13ifvqhhg","pricing_plan_id":"cebpf4jnsgd1na2vs0mg"},{"bike_id":"de4560c0-6f43-49b3-9b02-2b7ef171787b","system_id":"levelo_inurba_marseille","lat":43.27811,"lon":5.39211,"is_reserved":false,"is_disabled":false,"rental_uris":{"android":"levelo://app?vid=de4560c0-6f43-49b3-9b02-2b7ef171787b","ios":"levelo://app?vid=de4560c0-6f43-49b3-9b02-2b7ef171787b"},"vehicle_type_id":"4","last_reported":1761365512,"current_range_meters":16800,"station_id":"ce4bhjp2rcd13ifvqga0","pricing_plan_id":"cebpf4jnsgd1na2vs0mg"},{"bike_id":"fbe50a91-8778-42f9-a045-27c2c88ac2e7","system_id":"levelo_inurba_marseille","lat":43.29722,"lon":5.42796,"is_reserved":false,"is_disabled":false,"rental_uris":{"android":"levelo://app?vid=fbe50a91-8778-42f9-a045-27c2c88ac2e7","ios":"levelo://app?vid=fbe50a91-8778-42f9-a045-27c2c88ac2e7"},"vehicle_type_id":"4","last_reported":1761365512,"current_range_meters":16800,"station_id":"st_d3md5207bmas73dh9klg","pricing_plan_id":"cebpf4jnsgd1na2vs0mg"},{"bike_id":"3cfa595b-cff3-48e4-9ef0-78ef1b9568f9","system_id":"levelo_inurba_marseille","lat":43.2903,"lon":5.38134,"is_reserved":false,"is_disabled":true,"rental_uris":{"android":"levelo://app?vid=3cfa595b-cff3-48e4-9ef0-78ef1b9568f9","ios":"levelo://app?vid=3cfa595b-cff3-48e4-9ef0-78ef1b9568f9"},"vehicle_type_id":"4","last_reported":1761365512,"current_range_meters":16800,"station_id":"ce4bh4p2rcd13ifvqe1g","pricing_plan_id":"cebpf4jnsgd1na2vs0mg"},{"bike_id":"d03f3636-16e3-4275-8b6e-75e5a75cfef1","system_id":"levelo_inurba_marseille","lat":43.265593,"lon":5.372865,"is_reserved":false,"is_disabled":false,"rental_uris":{"android":"levelo://app?vid=d03f3636-16e3-4275-8b6e-75e5a75cfef1","ios":"levelo://app?vid=d03f3636-16e3-4275-8b6e-75e5a75cfef1"},"vehicle_type_id":"4","last_reported":1761365512,"current_range_meters":16800,"station_id":"ce4bhg12rcd13ifvqf70","pricing_plan_id":"cebpf4jnsgd1na2vs0mg"},{"bike_id":"fbc51a66-9f5b-4793-bf47-376ff7c8c289","system_id":"levelo_inurba_marseille","lat":43.21188,"lon":5.35061,"is_reserved":false,"is_disabled":false,"rental_uris":{"android":"levelo://app?vid=fbc51a66-9f5b-4793-bf47-376ff7c8c289","ios":"levelo://app?vid=fbc51a66-9f5b-4793-bf47-376ff7c8c289"},"vehicle_type_id":"4","last_reported":1761365512,"current_range_meters":16800,"station_id":"st_cvj6sg6p6f1abm77japg","pricing_plan_id":"cebpf4jnsgd1na2vs0mg"},{"bike_id":"8c35a7e4-8378-4fdf-b42f-02e88b6199ca","system_id":"levelo_inurba_marseille","lat":43.32112,"lon":5.36817,"is_reserved":false,"is_disabled":false,"rental_uris":{"android":"levelo://app?vid=8c35a7e4-8378-4fdf-b42f-02e88b6199ca","ios":"levelo://app?vid=8c35a7e4-8378-4fdf-b42f-02e88b6199ca"},"vehicle_type_id":"4","last_reported":1761365512,"current_range_meters":16800,"station_id":"ce4bhrh2rcd13ifvqhug","pricing_plan_id":"cebpf4jnsgd1na2vs0mg"},{"bike_id":"1d5c5072-8e34-45fe-bb03-36f2abeddfda","system_id":"levelo_inurba_marseille","lat":43.310718,"lon":5.383525,"is_reserved":false,"is_disabled":false,"rental_uris":{"android":"levelo://app?vid=1d5c5072-8e34-45fe-bb03-36f2abeddfda","ios":"levelo://app?vid=1d5c5072-8e34-45fe-bb03-36f2abeddfda"},"vehicle_type_id":"4","last_reported":1761365512,"current_range_meters":16800,"station_id":"ce4bgv92rcd13ifvqcr0","pricing_plan_id":"cebpf4jnsgd1na2vs0mg"},{"bike_id":"dab36927-4328-48fa-bffb-145a737de07e","system_id":"levelo_inurba_marseille","lat":43.30799,"lon":5.43514,"is_reserved":false,"is_disabled":true,"rental_uris":{"android":"levelo://app?vid=dab36927-4328-48fa-bffb-145a737de07e","ios":"levelo://app?vid=dab36927-4328-48fa-bffb-145a737de07e"},"vehicle_type_id":"4","last_reported":1761365512,"current_range_meters":17200,"station_id":"ce4bhph2rcd13ifvqheg","pricing_plan_id":"cebpf4jnsgd1na2vs0mg"},{"bike_id":"03a694af-c9e5-475f-a774-72c36e1e8160","system_id":"levelo_inurba_marseille","lat":43.2872,"lon":5.39979,"is_reserved":false,"is_disabled":false,"rental_uris":{"android":"levelo://app?vid=03a694af-c9e5-475f-a774-72c36e1e8160","ios":"levelo://app?vid=03a694af-c9e5-475f-a774-72c36e1e8160"},"vehicle_type_id":"4","last_reported":1761365512,"current_range_meters":17200,"station_id":"ce4bho92rcd13ifvqh3g","pricing_plan_id":"cebpf4jnsgd1na2vs0mg"},{"bike_id":"71787e4e-d3cf-499c-936d-7a403f4f2fac","system_id":"levelo_inurba_marseille","lat":43.28436,"lon":5.37532,"is_reserved":false,"is_disabled":false,"rental_uris":{"android":"levelo://app?vid=71787e4e-d3cf-499c-936d-7a403f4f2fac","ios":"levelo://app?vid=71787e4e-d3cf-499c-936d-7a403f4f2fac"},"vehicle_type_id":"4","last_reported":1761365512,"current_range_meters":17200,"station_id":"ce4bh412rcd13ifvqds0","pricing_plan_id":"cebpf4jnsgd1na2vs0mg"},{"bike_id":"2d5419ca-8955-4cc2-bf16-13223323293b","system_id":"levelo_inurba_marseille","lat":43.262071,"lon":5.374528,"is_reserved":false,"is_disabled":true,"rental_uris":{"android":"levelo://app?vid=2d5419ca-8955-4cc2-bf16-13223323293b","ios":"levelo://app?vid=2d5419ca-8955-4cc2-bf16-13223323293b"},"vehicle_type_id":"4","last_reported":1761365512,"current_range_meters":17200,"station_id":"ce4bhgp2rcd13ifvqfc0","pricing_plan_id":"cebpf4jnsgd1na2vs0mg"},{"bike_id":"8c4ade53-28b6-421a-8b0a-4b851571fed4","system_id":"levelo_inurba_marseille","lat":43.253435,"lon":5.421693,"is_reserved":false,"is_disabled":false,"rental_uris":{"android":"levelo://app?vid=8c4ade53-28b6-421a-8b0a-4b851571fed4","ios":"levelo://app?vid=8c4ade53-28b6-421a-8b0a-4b851571fed4"},"vehicle_type_id":"4","last_reported":1761365512,"current_range_meters":17200,"station_id":"st_d2m65c5bi1j21697t3ng","pricing_plan_id":"cebpf4jnsgd1na2vs0mg"},{"bike_id":"7d241f67-998d-4bea-bf2e-da3fc48c2d55","system_id":"levelo_inurba_marseille","lat":43.3089,"lon":5.3965,"is_reserved":false,"is_disabled":false,"rental_uris":{"android":"levelo://app?vid=7d241f67-998d-4bea-bf2e-da3fc48c2d55","ios":"levelo://app?vid=7d241f67-998d-4bea-bf2e-da3fc48c2d55"},"vehicle_type_id":"4","last_reported":1761365512,"current_range_meters":17200,"station_id":"ce4bh012rcd13ifvqcv0","pricing_plan_id":"cebpf4jnsgd1na2vs0mg"},{"bike_id":"8e1001bf-14bf-4add-9e80-532070c873ea","system_id":"levelo_inurba_marseille","lat":43.255739,"lon":5.382475,"is_reserved":false,"is_disabled":false,"rental_uris":{"android":"levelo://app?vid=8e1001bf-14bf-4add-9e80-532070c873ea","ios":"levelo://app?vid=8e1001bf-14bf-4add-9e80-532070c873ea"},"vehicle_type_id":"4","last_reported":1761365512,"current_range_meters":17600,"station_id":"ce4bhih2rcd13ifvqfs0","pricing_plan_id":"cebpf4jnsgd1na2vs0mg"},{"bike_id":"edd2c541-eaf2-4a50-a0de-142f364b01dc","system_id":"levelo_inurba_marseille","lat":43.31273,"lon":5.37739,"is_reserved":false,"is_disabled":false,"rental_uris":{"android":"levelo://app?vid=edd2c541-eaf2-4a50-a0de-142f364b01dc","ios":"levelo://app?vid=edd2c541-eaf2-4a50-a0de-142f364b01dc"},"vehicle_type_id":"4","last_reported":1761365512,"current_range_meters":17600,"station_id":"","pricing_plan_id":"cebpf4jnsgd1na2vs0mg"},{"bike_id":"db19020b-f4c5-4a0b-8bd4-423971868d20","system_id":"levelo_inurba_marseille","lat":43.286905,"lon":5.399686,"is_reserved":false,"is_disabled":false,"rental_uris":{"android":"levelo://app?vid=db19020b-f4c5-4a0b-8bd4-423971868d20","ios":"levelo://app?vid=db19020b-f4c5-4a0b-8bd4-423971868d20"},"vehicle_type_id":"4","last_reported":1761365512,"current_range_meters":17600,"station_id":"ce4bho92rcd13ifvqh3g","pricing_plan_id":"cebpf4jnsgd1na2vs0mg"},{"bike_id":"eea83aba-5f2f-40d4-9307-fa632a8482f7","system_id":"levelo_inurba_marseille","lat":43.274974,"lon":5.424586,"is_reserved":false,"is_disabled":false,"rental_uris":{"android":"levelo://app?vid=eea83aba-5f2f-40d4-9307-fa632a8482f7","ios":"levelo://app?vid=eea83aba-5f2f-40d4-9307-fa632a8482f7"},"vehicle_type_id":"4","last_reported":1761365512,"current_range_meters":17600,"station_id":"ce4bhn92rcd13ifvqgrg","pricing_plan_id":"cebpf4jnsgd1na2vs0mg"},{"bike_id":"6cf2b315-d1ee-4e24-a665-250fae4ab05f","system_id":"levelo_inurba_marseille","lat":43.31316,"lon":5.37544,"is_reserved":false,"is_disabled":true,"rental_uris":{"android":"levelo://app?vid=6cf2b315-d1ee-4e24-a665-250fae4ab05f","ios":"levelo://app?vid=6cf2b315-d1ee-4e24-a665-250fae4ab05f"},"vehicle_type_id":"4","last_reported":1761365512,"current_range_meters":17600,"station_id":"","pricing_plan_id":"cebpf4jnsgd1na2vs0mg"},{"bike_id":"dd65a463-a31b-485b-8670-75393dab59b2","system_id":"levelo_inurba_marseille","lat":43.26576,"lon":5.39068,"is_reserved":false,"is_disabled":false,"rental_uris":{"android":"levelo://app?vid=dd65a463-a31b-485b-8670-75393dab59b2","ios":"levelo://app?vid=dd65a463-a31b-485b-8670-75393dab59b2"},"vehicle_type_id":"4","last_reported":1761365512,"current_range_meters":17600,"station_id":"ce4bhe12rcd13ifvqf30","pricing_plan_id":"cebpf4jnsgd1na2vs0mg"},{"bike_id":"c2615fa8-f906-4e05-937e-772259bb2874","system_id":"levelo_inurba_marseille","lat":43.246315,"lon":5.431508,"is_reserved":false,"is_disabled":false,"rental_uris":{"android":"levelo://app?vid=c2615fa8-f906-4e05-937e-772259bb2874","ios":"levelo://app?vid=c2615fa8-f906-4e05-937e-772259bb2874"},"vehicle_type_id":"4","last_reported":1761365512,"current_range_meters":18000,"station_id":"st_d2m6c4gdas8pm72e190g","pricing_plan_id":"cebpf4jnsgd1na2vs0mg"},{"bike_id":"aab4034a-0d23-4cb3-95b2-dd300fd58a15","system_id":"levelo_inurba_marseille","lat":43.28723,"lon":5.37953,"is_reserved":false,"is_disabled":false,"rental_uris":{"android":"levelo://app?vid=aab4034a-0d23-4cb3-95b2-dd300fd58a15","ios":"levelo://app?vid=aab4034a-0d23-4cb3-95b2-dd300fd58a15"},"vehicle_type_id":"4","last_reported":1761365512,"current_range_meters":18000,"station_id":"ce4bh9p2rcd13ifvqec0","pricing_plan_id":"cebpf4jnsgd1na2vs0mg"},{"bike_id":"51f6b392-8d0d-41b5-9bf6-76a949608beb","system_id":"levelo_inurba_marseille","lat":43.25341,"lon":5.42166,"is_reserved":false,"is_disabled":false,"rental_uris":{"android":"levelo://app?vid=51f6b392-8d0d-41b5-9bf6-76a949608beb","ios":"levelo://app?vid=51f6b392-8d0d-41b5-9bf6-76a949608beb"},"vehicle_type_id":"4","last_reported":1761365512,"current_range_meters":18000,"station_id":"st_d2m65c5bi1j21697t3ng","pricing_plan_id":"cebpf4jnsgd1na2vs0mg"},{"bike_id":"294a3f34-361b-4c46-9333-ce2708bba8b2","system_id":"levelo_inurba_marseille","lat":43.317149,"lon":5.369415,"is_reserved":false,"is_disabled":false,"rental_uris":{"android":"levelo://app?vid=294a3f34-361b-4c46-9333-ce2708bba8b2","ios":"levelo://app?vid=294a3f34-361b-4c46-9333-ce2708bba8b2"},"vehicle_type_id":"4","last_reported":1761365512,"current_range_meters":18000,"station_id":"","pricing_plan_id":"cebpf4jnsgd1na2vs0mg"},{"bike_id":"bc805b80-3097-410f-b503-9e60f016e0de","system_id":"levelo_inurba_marseille","lat":43.27209,"lon":5.39201,"is_reserved":false,"is_disabled":true,"rental_uris":{"android":"levelo://app?vid=bc805b80-3097-410f-b503-9e60f016e0de","ios":"levelo://app?vid=bc805b80-3097-410f-b503-9e60f016e0de"},"vehicle_type_id":"4","last_reported":1761365512,"current_range_meters":18000,"station_id":"ce4bhhp2rcd13ifvqfm0","pricing_plan_id":"cebpf4jnsgd1na2vs0mg"},{"bike_id":"fd46aa96-062c-4cd2-9a1f-20678c2e71e6","system_id":"levelo_inurba_marseille","lat":43.30165,"lon":5.38088,"is_reserved":false,"is_disabled":false,"rental_uris":{"android":"levelo://app?vid=fd46aa96-062c-4cd2-9a1f-20678c2e71e6","ios":"levelo://app?vid=fd46aa96-062c-4cd2-9a1f-20678c2e71e6"},"vehicle_type_id":"4","last_reported":1761365512,"current_range_meters":18000,"station_id":"ce4bgjp2rcd13ifvqbh0","pricing_plan_id":"cebpf4jnsgd1na2vs0mg"},{"bike_id":"4a6de441-8f9b-4688-b114-a3e786dd1355","system_id":"levelo_inurba_marseille","lat":43.302076,"lon":5.388034,"is_reserved":false,"is_disabled":false,"rental_uris":{"android":"levelo://app?vid=4a6de441-8f9b-4688-b114-a3e786dd1355","ios":"levelo://app?vid=4a6de441-8f9b-4688-b114-a3e786dd1355"},"vehicle_type_id":"4","last_reported":1761365512,"current_range_meters":18000,"station_id":"","pricing_plan_id":"cebpf4jnsgd1na2vs0mg"},{"bike_id":"40fed290-3dea-4c73-bf2e-af05de8161fd","system_id":"levelo_inurba_marseille","lat":43.32111,"lon":5.36746,"is_reserved":false,"is_disabled":false,"rental_uris":{"android":"levelo://app?vid=40fed290-3dea-4c73-bf2e-af05de8161fd","ios":"levelo://app?vid=40fed290-3dea-4c73-bf2e-af05de8161fd"},"vehicle_type_id":"4","last_reported":1761365512,"current_range_meters":18800,"station_id":"ce4bhrh2rcd13ifvqhug","pricing_plan_id":"cebpf4jnsgd1na2vs0mg"},{"bike_id":"0144bdf2-84a6-45ad-976a-ea6fd3101d41","system_id":"levelo_inurba_marseille","lat":43.32112,"lon":5.36771,"is_reserved":false,"is_disabled":false,"rental_uris":{"android":"levelo://app?vid=0144bdf2-84a6-45ad-976a-ea6fd3101d41","ios":"levelo://app?vid=0144bdf2-84a6-45ad-976a-ea6fd3101d41"},"vehicle_type_id":"4","last_reported":1761365512,"current_range_meters":18800,"station_id":"ce4bhrh2rcd13ifvqhug","pricing_plan_id":"cebpf4jnsgd1na2vs0mg"},{"bike_id":"1c67937c-475a-4e4e-a691-b63d91404557","system_id":"levelo_inurba_marseille","lat":43.28724,"lon":5.39994,"is_reserved":false,"is_disabled":false,"rental_uris":{"android":"levelo://app?vid=1c67937c-475a-4e4e-a691-b63d91404557","ios":"levelo://app?vid=1c67937c-475a-4e4e-a691-b63d91404557"},"vehicle_type_id":"4","last_reported":1761365512,"current_range_meters":18800,"station_id":"ce4bho92rcd13ifvqh3g","pricing_plan_id":"cebpf4jnsgd1na2vs0mg"},{"bike_id":"de4c9d67-aa03-439a-a821-c7b9a613d790","system_id":"levelo_inurba_marseille","lat":43.211983,"lon":5.350649,"is_reserved":false,"is_disabled":false,"rental_uris":{"android":"levelo://app?vid=de4c9d67-aa03-439a-a821-c7b9a613d790","ios":"levelo://app?vid=de4c9d67-aa03-439a-a821-c7b9a613d790"},"vehicle_type_id":"4","last_reported":1761365512,"current_range_meters":18800,"station_id":"st_cvj6sg6p6f1abm77japg","pricing_plan_id":"cebpf4jnsgd1na2vs0mg"},{"bike_id":"3bb193f6-1cc0-4d09-a3cf-71a5062a4571","system_id":"levelo_inurba_marseille","lat":43.33771,"lon":5.37481,"is_reserved":false,"is_disabled":false,"rental_uris":{"android":"levelo://app?vid=3bb193f6-1cc0-4d09-a3cf-71a5062a4571","ios":"levelo://app?vid=3bb193f6-1cc0-4d09-a3cf-71a5062a4571"},"vehicle_type_id":"4","last_reported":1761365512,"current_range_meters":18800,"station_id":"","pricing_plan_id":"cebpf4jnsgd1na2vs0mg"},{"bike_id":"c293cc0e-0d60-4918-b1f9-ab60d0fcafde","system_id":"levelo_inurba_marseille","lat":43.283448,"lon":5.381023,"is_reserved":false,"is_disabled":true,"rental_uris":{"android":"levelo://app?vid=c293cc0e-0d60-4918-b1f9-ab60d0fcafde","ios":"levelo://app?vid=c293cc0e-0d60-4918-b1f9-ab60d0fcafde"},"vehicle_type_id":"4","last_reported":1761365512,"current_range_meters":18800,"station_id":"ce4bh412rcd13ifvqdr0","pricing_plan_id":"cebpf4jnsgd1na2vs0mg"},{"bike_id":"151681fe-d6da-478a-be81-1ca5e6442b9c","system_id":"levelo_inurba_marseille","lat":43.270575,"lon":5.402691,"is_reserved":false,"is_disabled":true,"rental_uris":{"android":"levelo://app?vid=151681fe-d6da-478a-be81-1ca5e6442b9c","ios":"levelo://app?vid=151681fe-d6da-478a-be81-1ca5e6442b9c"},"vehicle_type_id":"4","last_reported":1761365512,"current_range_meters":18800,"station_id":"ce4bhk92rcd13ifvqgc0","pricing_plan_id":"cebpf4jnsgd1na2vs0mg"},{"bike_id":"1a1f55de-f536-43d2-a5ec-8faa427890f0","system_id":"levelo_inurba_marseille","lat":43.24073,"lon":5.37762,"is_reserved":false,"is_disabled":false,"rental_uris":{"android":"levelo://app?vid=1a1f55de-f536-43d2-a5ec-8faa427890f0","ios":"levelo://app?vid=1a1f55de-f536-43d2-a5ec-8faa427890f0"},"vehicle_type_id":"4","last_reported":1761365512,"current_range_meters":19200,"station_id":"ce4bhnp2rcd13ifvqgvg","pricing_plan_id":"cebpf4jnsgd1na2vs0mg"},{"bike_id":"29b38a45-3e07-40c1-b8b1-5f85b487711f","system_id":"levelo_inurba_marseille","lat":43.312364,"lon":5.404127,"is_reserved":false,"is_disabled":false,"rental_uris":{"android":"levelo://app?vid=29b38a45-3e07-40c1-b8b1-5f85b487711f","ios":"levelo://app?vid=29b38a45-3e07-40c1-b8b1-5f85b487711f"},"vehicle_type_id":"4","last_reported":1761365512,"current_range_meters":19200,"station_id":"","pricing_plan_id":"cebpf4jnsgd1na2vs0mg"},{"bike_id":"ed4ba838-cde1-4942-88b8-455470fe528f","system_id":"levelo_inurba_marseille","lat":43.23973,"lon":5.36641,"is_reserved":false,"is_disabled":false,"rental_uris":{"android":"levelo://app?vid=ed4ba838-cde1-4942-88b8-455470fe528f","ios":"levelo://app?vid=ed4ba838-cde1-4942-88b8-455470fe528f"},"vehicle_type_id":"4","last_reported":1761365512,"current_range_meters":19200,"station_id":"ce4bhi12rcd13ifvqfp0","pricing_plan_id":"cebpf4jnsgd1na2vs0mg"},{"bike_id":"66676914-43b1-410a-bdb0-037adbd6b428","system_id":"levelo_inurba_marseille","lat":43.289353,"lon":5.366319,"is_reserved":false,"is_disabled":false,"rental_uris":{"android":"levelo://app?vid=66676914-43b1-410a-bdb0-037adbd6b428","ios":"levelo://app?vid=66676914-43b1-410a-bdb0-037adbd6b428"},"vehicle_type_id":"4","last_reported":1761365512,"current_range_meters":19200,"station_id":"ce4bhap2rcd13ifvqek0","pricing_plan_id":"cebpf4jnsgd1na2vs0mg"},{"bike_id":"96355da0-b94f-4c40-9a2a-71fb60bf76b8","system_id":"levelo_inurba_marseille","lat":43.295224,"lon":5.394005,"is_reserved":false,"is_disabled":true,"rental_uris":{"android":"levelo://app?vid=96355da0-b94f-4c40-9a2a-71fb60bf76b8","ios":"levelo://app?vid=96355da0-b94f-4c40-9a2a-71fb60bf76b8"},"vehicle_type_id":"4","last_reported":1761365512,"current_range_meters":19200,"station_id":"ce4bh292rcd13ifvqdf0","pricing_plan_id":"cebpf4jnsgd1na2vs0mg"},{"bike_id":"ba8e9b2d-4e18-4155-a9d3-745421a76586","system_id":"levelo_inurba_marseille","lat":43.28007,"lon":5.41251,"is_reserved":false,"is_disabled":false,"rental_uris":{"android":"levelo://app?vid=ba8e9b2d-4e18-4155-a9d3-745421a76586","ios":"levelo://app?vid=ba8e9b2d-4e18-4155-a9d3-745421a76586"},"vehicle_type_id":"4","last_reported":1761365512,"current_range_meters":19200,"station_id":"","pricing_plan_id":"cebpf4jnsgd1na2vs0mg"},{"bike_id":"ab04f3bb-a3d7-42f0-86b5-4d39e2fe3a17","system_id":"levelo_inurba_marseille","lat":43.28672,"lon":5.40012,"is_reserved":false,"is_disabled":false,"rental_uris":{"android":"levelo://app?vid=ab04f3bb-a3d7-42f0-86b5-4d39e2fe3a17","ios":"levelo://app?vid=ab04f3bb-a3d7-42f0-86b5-4d39e2fe3a17"},"vehicle_type_id":"4","last_reported":1761365512,"current_range_meters":19200,"station_id":"ce4bho92rcd13ifvqh3g","pricing_plan_id":"cebpf4jnsgd1na2vs0mg"},{"bike_id":"c9d8e726-8846-4380-8827-611972cb876b","system_id":"levelo_inurba_marseille","lat":43.28843,"lon":5.35853,"is_reserved":false,"is_disabled":false,"rental_uris":{"android":"levelo://app?vid=c9d8e726-8846-4380-8827-611972cb876b","ios":"levelo://app?vid=c9d8e726-8846-4380-8827-611972cb876b"},"vehicle_type_id":"4","last_reported":1761365512,"current_range_meters":19200,"station_id":"ce4bhb12rcd13ifvqem0","pricing_plan_id":"cebpf4jnsgd1na2vs0mg"},{"bike_id":"93b0b2b4-9453-45ff-8b3f-0b52a3fc3b9e","system_id":"levelo_inurba_marseille","lat":43.28381,"lon":5.38619,"is_reserved":false,"is_disabled":false,"rental_uris":{"android":"levelo://app?vid=93b0b2b4-9453-45ff-8b3f-0b52a3fc3b9e","ios":"levelo://app?vid=93b0b2b4-9453-45ff-8b3f-0b52a3fc3b9e"},"vehicle_type_id":"4","last_reported":1761365512,"current_range_meters":19200,"station_id":"ce4bh492rcd13ifvqdvg","pricing_plan_id":"cebpf4jnsgd1na2vs0mg"},{"bike_id":"effc4a6a-9a91-4958-ad6b-7be55c02b098","system_id":"levelo_inurba_marseille","lat":43.278028,"lon":5.376615,"is_reserved":false,"is_disabled":false,"rental_uris":{"android":"levelo://app?vid=effc4a6a-9a91-4958-ad6b-7be55c02b098","ios":"levelo://app?vid=effc4a6a-9a91-4958-ad6b-7be55c02b098"},"vehicle_type_id":"4","last_reported":1761365512,"current_range_meters":19200,"station_id":"","pricing_plan_id":"cebpf4jnsgd1na2vs0mg"},{"bike_id":"896f2a82-1098-47c0-affd-3d2fa4d77465","system_id":"levelo_inurba_marseille","lat":43.26155,"lon":5.40351,"is_reserved":false,"is_disabled":false,"rental_uris":{"android":"levelo://app?vid=896f2a82-1098-47c0-affd-3d2fa4d77465","ios":"levelo://app?vid=896f2a82-1098-47c0-affd-3d2fa4d77465"},"vehicle_type_id":"4","last_reported":1761365512,"current_range_meters":19200,"station_id":"ce4bhmh2rcd13ifvqgmg","pricing_plan_id":"cebpf4jnsgd1na2vs0mg"},{"bike_id":"f5932b0d-b9c0-4973-bd1e-d986d38c6462","system_id":"levelo_inurba_marseille","lat":43.29713,"lon":5.38535,"is_reserved":false,"is_disabled":false,"rental_uris":{"android":"levelo://app?vid=f5932b0d-b9c0-4973-bd1e-d986d38c6462","ios":"levelo://app?vid=f5932b0d-b9c0-4973-bd1e-d986d38c6462"},"vehicle_type_id":"4","last_reported":1761365512,"current_range_meters":19600,"station_id":"","pricing_plan_id":"cebpf4jnsgd1na2vs0mg"},{"bike_id":"c0b81f28-bbba-4247-a74b-c55a34b31846","system_id":"levelo_inurba_marseille","lat":43.33258,"lon":5.41086,"is_reserved":false,"is_disabled":false,"rental_uris":{"android":"levelo://app?vid=c0b81f28-bbba-4247-a74b-c55a34b31846","ios":"levelo://app?vid=c0b81f28-bbba-4247-a74b-c55a34b31846"},"vehicle_type_id":"4","last_reported":1761365512,"current_range_meters":19600,"station_id":"","pricing_plan_id":"cebpf4jnsgd1na2vs0mg"},{"bike_id":"55c9663e-4e1e-46f2-9483-90cad71761ad","system_id":"levelo_inurba_marseille","lat":43.29988,"lon":5.37157,"is_reserved":false,"is_disabled":true,"rental_uris":{"android":"levelo://app?vid=55c9663e-4e1e-46f2-9483-90cad71761ad","ios":"levelo://app?vid=55c9663e-4e1e-46f2-9483-90cad71761ad"},"vehicle_type_id":"4","last_reported":1761365512,"current_range_meters":19600,"station_id":"ce4bgr92rcd13ifvqc7g","pricing_plan_id":"cebpf4jnsgd1na2vs0mg"},{"bike_id":"908af8c0-ab62-4e8c-8850-94d622d2f020","system_id":"levelo_inurba_marseille","lat":43.30817,"lon":5.38149,"is_reserved":false,"is_disabled":false,"rental_uris":{"android":"levelo://app?vid=908af8c0-ab62-4e8c-8850-94d622d2f020","ios":"levelo://app?vid=908af8c0-ab62-4e8c-8850-94d622d2f020"},"vehicle_type_id":"4","last_reported":1761365512,"current_range_meters":19600,"station_id":"ce4bgt12rcd13ifvqce0","pricing_plan_id":"cebpf4jnsgd1na2vs0mg"},{"bike_id":"fc74c03f-6810-4b94-8149-477bae3888a5","system_id":"levelo_inurba_marseille","lat":43.29822,"lon":5.44066,"is_reserved":false,"is_disabled":false,"rental_uris":{"android":"levelo://app?vid=fc74c03f-6810-4b94-8149-477bae3888a5","ios":"levelo://app?vid=fc74c03f-6810-4b94-8149-477bae3888a5"},"vehicle_type_id":"4","last_reported":1761365512,"current_range_meters":19600,"station_id":"st_d3jp68qikq2c7381ktn0","pricing_plan_id":"cebpf4jnsgd1na2vs0mg"},{"bike_id":"a420fe42-d929-4f02-8db6-f1518becc2c4","system_id":"levelo_inurba_marseille","lat":43.23196,"lon":5.35552,"is_reserved":false,"is_disabled":false,"rental_uris":{"android":"levelo://app?vid=a420fe42-d929-4f02-8db6-f1518becc2c4","ios":"levelo://app?vid=a420fe42-d929-4f02-8db6-f1518becc2c4"},"vehicle_type_id":"4","last_reported":1761365512,"current_range_meters":19600,"station_id":"ce4bhu92rcd13ifvqi70","pricing_plan_id":"cebpf4jnsgd1na2vs0mg"},{"bike_id":"2e9e6af8-fc58-4300-bf0a-4bfe1206db5f","system_id":"levelo_inurba_marseille","lat":43.282303,"lon":5.390811,"is_reserved":false,"is_disabled":false,"rental_uris":{"android":"levelo://app?vid=2e9e6af8-fc58-4300-bf0a-4bfe1206db5f","ios":"levelo://app?vid=2e9e6af8-fc58-4300-bf0a-4bfe1206db5f"},"vehicle_type_id":"4","last_reported":1761365512,"current_range_meters":19600,"station_id":"","pricing_plan_id":"cebpf4jnsgd1na2vs0mg"},{"bike_id":"74546168-aafc-4fc6-824e-fd7787db6ac1","system_id":"levelo_inurba_marseille","lat":43.22943,"lon":5.35391,"is_reserved":false,"is_disabled":false,"rental_uris":{"android":"levelo://app?vid=74546168-aafc-4fc6-824e-fd7787db6ac1","ios":"levelo://app?vid=74546168-aafc-4fc6-824e-fd7787db6ac1"},"vehicle_type_id":"4","last_reported":1761365512,"current_range_meters":19600,"station_id":"cpo3532slgdg3j2ikp40","pricing_plan_id":"cebpf4jnsgd1na2vs0mg"},{"bike_id":"5d69f09f-f23a-4cc9-9b0e-7badeab810a8","system_id":"levelo_inurba_marseille","lat":43.29873,"lon":5.38891,"is_reserved":false,"is_disabled":true,"rental_uris":{"android":"levelo://app?vid=5d69f09f-f23a-4cc9-9b0e-7badeab810a8","ios":"levelo://app?vid=5d69f09f-f23a-4cc9-9b0e-7badeab810a8"},"vehicle_type_id":"4","last_reported":1761365512,"current_range_meters":19600,"station_id":"ce4bh392rcd13ifvqdl0","pricing_plan_id":"cebpf4jnsgd1na2vs0mg"},{"bike_id":"e4746a2d-9cd3-46c8-bf0e-3a10fdb16ced","system_id":"levelo_inurba_marseille","lat":43.32371,"lon":5.36767,"is_reserved":false,"is_disabled":false,"rental_uris":{"android":"levelo://app?vid=e4746a2d-9cd3-46c8-bf0e-3a10fdb16ced","ios":"levelo://app?vid=e4746a2d-9cd3-46c8-bf0e-3a10fdb16ced"},"vehicle_type_id":"4","last_reported":1761365512,"current_range_meters":19600,"station_id":"ce4bhsh2rcd13ifvqi2g","pricing_plan_id":"cebpf4jnsgd1na2vs0mg"},{"bike_id":"7fb3971e-84b0-4ac6-82fb-b4ca6cdec2ab","system_id":"levelo_inurba_marseille","lat":43.29488,"lon":5.43307,"is_reserved":false,"is_disabled":false,"rental_uris":{"android":"levelo://app?vid=7fb3971e-84b0-4ac6-82fb-b4ca6cdec2ab","ios":"levelo://app?vid=7fb3971e-84b0-4ac6-82fb-b4ca6cdec2ab"},"vehicle_type_id":"4","last_reported":1761365512,"current_range_meters":19600,"station_id":"st_d3j5ugp08ojc73fj9d10","pricing_plan_id":"cebpf4jnsgd1na2vs0mg"},{"bike_id":"f72a00f1-1fed-4f6c-b4b5-8473dfdb4606","system_id":"levelo_inurba_marseille","lat":43.29677,"lon":5.40372,"is_reserved":false,"is_disabled":false,"rental_uris":{"android":"levelo://app?vid=f72a00f1-1fed-4f6c-b4b5-8473dfdb4606","ios":"levelo://app?vid=f72a00f1-1fed-4f6c-b4b5-8473dfdb4606"},"vehicle_type_id":"4","last_reported":1761365512,"current_range_meters":19600,"station_id":"","pricing_plan_id":"cebpf4jnsgd1na2vs0mg"},{"bike_id":"38a064e1-0c23-4c21-963f-8d817112a18f","system_id":"levelo_inurba_marseille","lat":43.28403,"lon":5.39896,"is_reserved":false,"is_disabled":false,"rental_uris":{"android":"levelo://app?vid=38a064e1-0c23-4c21-963f-8d817112a18f","ios":"levelo://app?vid=38a064e1-0c23-4c21-963f-8d817112a18f"},"vehicle_type_id":"4","last_reported":1761365512,"current_range_meters":19600,"station_id":"","pricing_plan_id":"cebpf4jnsgd1na2vs0mg"},{"bike_id":"ef10ee54-25ea-4d98-9dde-a598e6649151","system_id":"levelo_inurba_marseille","lat":43.30261,"lon":5.40055,"is_reserved":false,"is_disabled":false,"rental_uris":{"android":"levelo://app?vid=ef10ee54-25ea-4d98-9dde-a598e6649151","ios":"levelo://app?vid=ef10ee54-25ea-4d98-9dde-a598e6649151"},"vehicle_type_id":"4","last_reported":1761365512,"current_range_meters":19600,"station_id":"ce4bgvh2rcd13ifvqcs0","pricing_plan_id":"cebpf4jnsgd1na2vs0mg"},{"bike_id":"35ba6624-0b29-4866-9077-fd1a056468fd","system_id":"levelo_inurba_marseille","lat":43.2509,"lon":5.39512,"is_reserved":false,"is_disabled":false,"rental_uris":{"android":"levelo://app?vid=35ba6624-0b29-4866-9077-fd1a056468fd","ios":"levelo://app?vid=35ba6624-0b29-4866-9077-fd1a056468fd"},"vehicle_type_id":"4","last_reported":1761365512,"current_range_meters":19600,"station_id":"ce4bhm12rcd13ifvqgkg","pricing_plan_id":"cebpf4jnsgd1na2vs0mg"},{"bike_id":"e4ccce50-4824-4895-aa8c-033835526f23","system_id":"levelo_inurba_marseille","lat":43.31878,"lon":5.39993,"is_reserved":false,"is_disabled":false,"rental_uris":{"android":"levelo://app?vid=e4ccce50-4824-4895-aa8c-033835526f23","ios":"levelo://app?vid=e4ccce50-4824-4895-aa8c-033835526f23"},"vehicle_type_id":"4","last_reported":1761365512,"current_range_meters":19600,"station_id":"","pricing_plan_id":"cebpf4jnsgd1na2vs0mg"},{"bike_id":"5d1799a8-acfa-42d7-9b22-1a3409500438","system_id":"levelo_inurba_marseille","lat":43.29102,"lon":5.38142,"is_reserved":false,"is_disabled":false,"rental_uris":{"android":"levelo://app?vid=5d1799a8-acfa-42d7-9b22-1a3409500438","ios":"levelo://app?vid=5d1799a8-acfa-42d7-9b22-1a3409500438"},"vehicle_type_id":"4","last_reported":1761365512,"current_range_meters":20000,"station_id":"ce4bh512rcd13ifvqe2g","pricing_plan_id":"cebpf4jnsgd1na2vs0mg"},{"bike_id":"5a59e2a8-2bf8-4ca6-ac7b-01073a97b00e","system_id":"levelo_inurba_marseille","lat":43.30891,"lon":5.3717,"is_reserved":false,"is_disabled":false,"rental_uris":{"android":"levelo://app?vid=5a59e2a8-2bf8-4ca6-ac7b-01073a97b00e","ios":"levelo://app?vid=5a59e2a8-2bf8-4ca6-ac7b-01073a97b00e"},"vehicle_type_id":"4","last_reported":1761365512,"current_range_meters":20000,"station_id":"ce4bguh2rcd13ifvqckg","pricing_plan_id":"cebpf4jnsgd1na2vs0mg"},{"bike_id":"20be5c95-61ce-407d-a7b7-25702e8a2c0e","system_id":"levelo_inurba_marseille","lat":43.310752,"lon":5.383476,"is_reserved":false,"is_disabled":false,"rental_uris":{"android":"levelo://app?vid=20be5c95-61ce-407d-a7b7-25702e8a2c0e","ios":"levelo://app?vid=20be5c95-61ce-407d-a7b7-25702e8a2c0e"},"vehicle_type_id":"4","last_reported":1761365512,"current_range_meters":20000,"station_id":"ce4bgv92rcd13ifvqcr0","pricing_plan_id":"cebpf4jnsgd1na2vs0mg"},{"bike_id":"576a564b-ffb4-42e5-bd9e-64a978c28918","system_id":"levelo_inurba_marseille","lat":43.28701,"lon":5.37418,"is_reserved":false,"is_disabled":false,"rental_uris":{"android":"levelo://app?vid=576a564b-ffb4-42e5-bd9e-64a978c28918","ios":"levelo://app?vid=576a564b-ffb4-42e5-bd9e-64a978c28918"},"vehicle_type_id":"4","last_reported":1761365512,"current_range_meters":20000,"station_id":"ce4bh3p2rcd13ifvqdq0","pricing_plan_id":"cebpf4jnsgd1na2vs0mg"},{"bike_id":"e90ff1ca-a6ac-42e7-9927-ded229b29c6a","system_id":"levelo_inurba_marseille","lat":43.33085,"lon":5.41703,"is_reserved":false,"is_disabled":false,"rental_uris":{"android":"levelo://app?vid=e90ff1ca-a6ac-42e7-9927-ded229b29c6a","ios":"levelo://app?vid=e90ff1ca-a6ac-42e7-9927-ded229b29c6a"},"vehicle_type_id":"4","last_reported":1761365512,"current_range_meters":20000,"station_id":"","pricing_plan_id":"cebpf4jnsgd1na2vs0mg"},{"bike_id":"c566dbb9-1e2d-44b2-9bf5-691aa6a206a2","system_id":"levelo_inurba_marseille","lat":43.2871,"lon":5.37385,"is_reserved":false,"is_disabled":false,"rental_uris":{"android":"levelo://app?vid=c566dbb9-1e2d-44b2-9bf5-691aa6a206a2","ios":"levelo://app?vid=c566dbb9-1e2d-44b2-9bf5-691aa6a206a2"},"vehicle_type_id":"4","last_reported":1761365512,"current_range_meters":20000,"station_id":"ce4bh3p2rcd13ifvqdq0","pricing_plan_id":"cebpf4jnsgd1na2vs0mg"},{"bike_id":"72f75acf-9288-4f5a-8d0d-9a50fd12180a","system_id":"levelo_inurba_marseille","lat":43.28704,"lon":5.37409,"is_reserved":false,"is_disabled":false,"rental_uris":{"android":"levelo://app?vid=72f75acf-9288-4f5a-8d0d-9a50fd12180a","ios":"levelo://app?vid=72f75acf-9288-4f5a-8d0d-9a50fd12180a"},"vehicle_type_id":"4","last_reported":1761365512,"current_range_meters":20400,"station_id":"ce4bh3p2rcd13ifvqdq0","pricing_plan_id":"cebpf4jnsgd1na2vs0mg"},{"bike_id":"91d5c914-2907-4403-b239-a8e651a7b844","system_id":"levelo_inurba_marseille","lat":43.29742,"lon":5.37678,"is_reserved":false,"is_disabled":true,"rental_uris":{"android":"levelo://app?vid=91d5c914-2907-4403-b239-a8e651a7b844","ios":"levelo://app?vid=91d5c914-2907-4403-b239-a8e651a7b844"},"vehicle_type_id":"4","last_reported":1761365512,"current_range_meters":20400,"station_id":"ce4bgkh2rcd13ifvqbl0","pricing_plan_id":"cebpf4jnsgd1na2vs0mg"},{"bike_id":"d4f6cd6f-2e03-4d52-87e2-774301b94d7f","system_id":"levelo_inurba_marseille","lat":43.21196,"lon":5.35071,"is_reserved":false,"is_disabled":false,"rental_uris":{"android":"levelo://app?vid=d4f6cd6f-2e03-4d52-87e2-774301b94d7f","ios":"levelo://app?vid=d4f6cd6f-2e03-4d52-87e2-774301b94d7f"},"vehicle_type_id":"4","last_reported":1761365512,"current_range_meters":20400,"station_id":"st_cvj6sg6p6f1abm77japg","pricing_plan_id":"cebpf4jnsgd1na2vs0mg"},{"bike_id":"7eb022a6-4096-41f8-85cd-5ee0a4d1a3b2","system_id":"levelo_inurba_marseille","lat":43.317228,"lon":5.404561,"is_reserved":false,"is_disabled":true,"rental_uris":{"android":"levelo://app?vid=7eb022a6-4096-41f8-85cd-5ee0a4d1a3b2","ios":"levelo://app?vid=7eb022a6-4096-41f8-85cd-5ee0a4d1a3b2"},"vehicle_type_id":"4","last_reported":1761365512,"current_range_meters":20400,"station_id":"ce4bh012rcd13ifvqd00","pricing_plan_id":"cebpf4jnsgd1na2vs0mg"},{"bike_id":"6775d557-4f3e-44bd-9cde-fbd8a3143346","system_id":"levelo_inurba_marseille","lat":43.3014,"lon":5.38082,"is_reserved":false,"is_disabled":false,"rental_uris":{"android":"levelo://app?vid=6775d557-4f3e-44bd-9cde-fbd8a3143346","ios":"levelo://app?vid=6775d557-4f3e-44bd-9cde-fbd8a3143346"},"vehicle_type_id":"4","last_reported":1761365512,"current_range_meters":20400,"station_id":"ce4bgjp2rcd13ifvqbh0","pricing_plan_id":"cebpf4jnsgd1na2vs0mg"},{"bike_id":"3da36b46-32f0-4723-8f3b-8cba39a84287","system_id":"levelo_inurba_marseille","lat":43.24404,"lon":5.3705,"is_reserved":false,"is_disabled":false,"rental_uris":{"android":"levelo://app?vid=3da36b46-32f0-4723-8f3b-8cba39a84287","ios":"levelo://app?vid=3da36b46-32f0-4723-8f3b-8cba39a84287"},"vehicle_type_id":"4","last_reported":1761365512,"current_range_meters":20400,"station_id":"ce4bhhh2rcd13ifvqfk0","pricing_plan_id":"cebpf4jnsgd1na2vs0mg"},{"bike_id":"8ed78ad5-9947-4fbe-9f35-53b9d4ea27e0","system_id":"levelo_inurba_marseille","lat":43.27835,"lon":5.40716,"is_reserved":false,"is_disabled":false,"rental_uris":{"android":"levelo://app?vid=8ed78ad5-9947-4fbe-9f35-53b9d4ea27e0","ios":"levelo://app?vid=8ed78ad5-9947-4fbe-9f35-53b9d4ea27e0"},"vehicle_type_id":"4","last_reported":1761365512,"current_range_meters":20400,"station_id":"ce4bhnh2rcd13ifvqgtg","pricing_plan_id":"cebpf4jnsgd1na2vs0mg"},{"bike_id":"7a1f0acd-1244-4b4f-acb5-2a9135a9ddc1","system_id":"levelo_inurba_marseille","lat":43.310685,"lon":5.383409,"is_reserved":false,"is_disabled":false,"rental_uris":{"android":"levelo://app?vid=7a1f0acd-1244-4b4f-acb5-2a9135a9ddc1","ios":"levelo://app?vid=7a1f0acd-1244-4b4f-acb5-2a9135a9ddc1"},"vehicle_type_id":"4","last_reported":1761365512,"current_range_meters":20800,"station_id":"ce4bgv92rcd13ifvqcr0","pricing_plan_id":"cebpf4jnsgd1na2vs0mg"},{"bike_id":"82c54f9e-bcd7-4c6d-9b18-44ec0fadd322","system_id":"levelo_inurba_marseille","lat":43.3157,"lon":5.38437,"is_reserved":false,"is_disabled":false,"rental_uris":{"android":"levelo://app?vid=82c54f9e-bcd7-4c6d-9b18-44ec0fadd322","ios":"levelo://app?vid=82c54f9e-bcd7-4c6d-9b18-44ec0fadd322"},"vehicle_type_id":"4","last_reported":1761365512,"current_range_meters":20800,"station_id":"","pricing_plan_id":"cebpf4jnsgd1na2vs0mg"},{"bike_id":"7f50b436-c105-4f89-97b5-1ae0fc1f9990","system_id":"levelo_inurba_marseille","lat":43.29901,"lon":5.39778,"is_reserved":false,"is_disabled":false,"rental_uris":{"android":"levelo://app?vid=7f50b436-c105-4f89-97b5-1ae0fc1f9990","ios":"levelo://app?vid=7f50b436-c105-4f89-97b5-1ae0fc1f9990"},"vehicle_type_id":"4","last_reported":1761365512,"current_range_meters":20800,"station_id":"","pricing_plan_id":"cebpf4jnsgd1na2vs0mg"},{"bike_id":"eb50a63b-d42b-40ff-a7d6-cffb5a5c1555","system_id":"levelo_inurba_marseille","lat":43.29262,"lon":5.384324,"is_reserved":false,"is_disabled":true,"rental_uris":{"android":"levelo://app?vid=eb50a63b-d42b-40ff-a7d6-cffb5a5c1555","ios":"levelo://app?vid=eb50a63b-d42b-40ff-a7d6-cffb5a5c1555"},"vehicle_type_id":"4","last_reported":1761365512,"current_range_meters":20800,"station_id":"ce4bh692rcd13ifvqea0","pricing_plan_id":"cebpf4jnsgd1na2vs0mg"},{"bike_id":"93d2bce5-7bc5-44fa-8c5b-5fbfe8240e32","system_id":"levelo_inurba_marseille","lat":43.301371,"lon":5.387863,"is_reserved":false,"is_disabled":true,"rental_uris":{"android":"levelo://app?vid=93d2bce5-7bc5-44fa-8c5b-5fbfe8240e32","ios":"levelo://app?vid=93d2bce5-7bc5-44fa-8c5b-5fbfe8240e32"},"vehicle_type_id":"4","last_reported":1761365512,"current_range_meters":20800,"station_id":"ce4bghh2rcd13ifvqb60","pricing_plan_id":"cebpf4jnsgd1na2vs0mg"},{"bike_id":"d5dfaebc-363f-4601-b26a-6e9c4f1c2b4b","system_id":"levelo_inurba_marseille","lat":43.211942,"lon":5.350714,"is_reserved":false,"is_disabled":false,"rental_uris":{"android":"levelo://app?vid=d5dfaebc-363f-4601-b26a-6e9c4f1c2b4b","ios":"levelo://app?vid=d5dfaebc-363f-4601-b26a-6e9c4f1c2b4b"},"vehicle_type_id":"4","last_reported":1761365512,"current_range_meters":20800,"station_id":"st_cvj6sg6p6f1abm77japg","pricing_plan_id":"cebpf4jnsgd1na2vs0mg"},{"bike_id":"b4a58be7-078f-4a20-a7d5-be89215205b6","system_id":"levelo_inurba_marseille","lat":43.31287,"lon":5.40164,"is_reserved":false,"is_disabled":false,"rental_uris":{"android":"levelo://app?vid=b4a58be7-078f-4a20-a7d5-be89215205b6","ios":"levelo://app?vid=b4a58be7-078f-4a20-a7d5-be89215205b6"},"vehicle_type_id":"4","last_reported":1761365512,"current_range_meters":20800,"station_id":"ce4bh092rcd13ifvqd30","pricing_plan_id":"cebpf4jnsgd1na2vs0mg"},{"bike_id":"d3cc7656-8e75-4784-83f0-bcb556deaa8f","system_id":"levelo_inurba_marseille","lat":43.301576,"lon":5.380723,"is_reserved":false,"is_disabled":false,"rental_uris":{"android":"levelo://app?vid=d3cc7656-8e75-4784-83f0-bcb556deaa8f","ios":"levelo://app?vid=d3cc7656-8e75-4784-83f0-bcb556deaa8f"},"vehicle_type_id":"4","last_reported":1761365512,"current_range_meters":20800,"station_id":"ce4bgjp2rcd13ifvqbh0","pricing_plan_id":"cebpf4jnsgd1na2vs0mg"},{"bike_id":"df32a8bf-ca8a-481f-a891-94f4bf44442f","system_id":"levelo_inurba_marseille","lat":43.2998,"lon":5.37352,"is_reserved":false,"is_disabled":false,"rental_uris":{"android":"levelo://app?vid=df32a8bf-ca8a-481f-a891-94f4bf44442f","ios":"levelo://app?vid=df32a8bf-ca8a-481f-a891-94f4bf44442f"},"vehicle_type_id":"4","last_reported":1761365512,"current_range_meters":20800,"station_id":"","pricing_plan_id":"cebpf4jnsgd1na2vs0mg"},{"bike_id":"8847af5d-c1ad-4d8d-a5c1-273c3b41c105","system_id":"levelo_inurba_marseille","lat":43.322497,"lon":5.419707,"is_reserved":false,"is_disabled":false,"rental_uris":{"android":"levelo://app?vid=8847af5d-c1ad-4d8d-a5c1-273c3b41c105","ios":"levelo://app?vid=8847af5d-c1ad-4d8d-a5c1-273c3b41c105"},"vehicle_type_id":"4","last_reported":1761365512,"current_range_meters":21600,"station_id":"","pricing_plan_id":"cebpf4jnsgd1na2vs0mg"},{"bike_id":"4523805d-fdbc-4806-b0f4-e33753ead855","system_id":"levelo_inurba_marseille","lat":43.29514,"lon":5.393939,"is_reserved":false,"is_disabled":true,"rental_uris":{"android":"levelo://app?vid=4523805d-fdbc-4806-b0f4-e33753ead855","ios":"levelo://app?vid=4523805d-fdbc-4806-b0f4-e33753ead855"},"vehicle_type_id":"4","last_reported":1761365512,"current_range_meters":21600,"station_id":"ce4bh292rcd13ifvqdf0","pricing_plan_id":"cebpf4jnsgd1na2vs0mg"},{"bike_id":"6b9db57d-809a-425a-99a4-37c9ded5a97f","system_id":"levelo_inurba_marseille","lat":43.30902,"lon":5.3966,"is_reserved":false,"is_disabled":false,"rental_uris":{"android":"levelo://app?vid=6b9db57d-809a-425a-99a4-37c9ded5a97f","ios":"levelo://app?vid=6b9db57d-809a-425a-99a4-37c9ded5a97f"},"vehicle_type_id":"4","last_reported":1761365512,"current_range_meters":21600,"station_id":"ce4bh012rcd13ifvqcv0","pricing_plan_id":"cebpf4jnsgd1na2vs0mg"},{"bike_id":"625c303a-5985-4c01-88ed-6c57959cc4b8","system_id":"levelo_inurba_marseille","lat":43.231781,"lon":5.399829,"is_reserved":false,"is_disabled":false,"rental_uris":{"android":"levelo://app?vid=625c303a-5985-4c01-88ed-6c57959cc4b8","ios":"levelo://app?vid=625c303a-5985-4c01-88ed-6c57959cc4b8"},"vehicle_type_id":"4","last_reported":1761365512,"current_range_meters":21600,"station_id":"ce4bhn12rcd13ifvqgqg","pricing_plan_id":"cebpf4jnsgd1na2vs0mg"},{"bike_id":"d0988aa1-ebb4-4b7d-9c08-2c87493af145","system_id":"levelo_inurba_marseille","lat":43.28441,"lon":5.35894,"is_reserved":false,"is_disabled":false,"rental_uris":{"android":"levelo://app?vid=d0988aa1-ebb4-4b7d-9c08-2c87493af145","ios":"levelo://app?vid=d0988aa1-ebb4-4b7d-9c08-2c87493af145"},"vehicle_type_id":"4","last_reported":1761365512,"current_range_meters":21600,"station_id":"ce4bhah2rcd13ifvqei0","pricing_plan_id":"cebpf4jnsgd1na2vs0mg"},{"bike_id":"8da4a3b5-0e4d-4f98-86c5-ad9fc278755a","system_id":"levelo_inurba_marseille","lat":43.27819,"lon":5.4072,"is_reserved":false,"is_disabled":false,"rental_uris":{"android":"levelo://app?vid=8da4a3b5-0e4d-4f98-86c5-ad9fc278755a","ios":"levelo://app?vid=8da4a3b5-0e4d-4f98-86c5-ad9fc278755a"},"vehicle_type_id":"4","last_reported":1761365512,"current_range_meters":21600,"station_id":"ce4bhnh2rcd13ifvqgtg","pricing_plan_id":"cebpf4jnsgd1na2vs0mg"},{"bike_id":"67f8857f-0853-46d2-b9ef-96c5ce2639bc","system_id":"levelo_inurba_marseille","lat":43.230518,"lon":5.35503,"is_reserved":false,"is_disabled":false,"rental_uris":{"android":"levelo://app?vid=67f8857f-0853-46d2-b9ef-96c5ce2639bc","ios":"levelo://app?vid=67f8857f-0853-46d2-b9ef-96c5ce2639bc"},"vehicle_type_id":"4","last_reported":1761365512,"current_range_meters":21600,"station_id":"cpo3342slgdg3j2ifvpg","pricing_plan_id":"cebpf4jnsgd1na2vs0mg"},{"bike_id":"d048cdd7-7d3e-4595-90cf-c4e4cbdf8a84","system_id":"levelo_inurba_marseille","lat":43.28155,"lon":5.42628,"is_reserved":false,"is_disabled":false,"rental_uris":{"android":"levelo://app?vid=d048cdd7-7d3e-4595-90cf-c4e4cbdf8a84","ios":"levelo://app?vid=d048cdd7-7d3e-4595-90cf-c4e4cbdf8a84"},"vehicle_type_id":"4","last_reported":1761365512,"current_range_meters":21600,"station_id":"ce4bhnh2rcd13ifvqgug","pricing_plan_id":"cebpf4jnsgd1na2vs0mg"},{"bike_id":"1a941277-2e63-4624-8f42-ffde5fbf41f3","system_id":"levelo_inurba_marseille","lat":43.315123,"lon":5.372904,"is_reserved":false,"is_disabled":false,"rental_uris":{"android":"levelo://app?vid=1a941277-2e63-4624-8f42-ffde5fbf41f3","ios":"levelo://app?vid=1a941277-2e63-4624-8f42-ffde5fbf41f3"},"vehicle_type_id":"4","last_reported":1761365512,"current_range_meters":22000,"station_id":"ce4bgt12rcd13ifvqcd0","pricing_plan_id":"cebpf4jnsgd1na2vs0mg"},{"bike_id":"bdf74eea-e435-4c5a-b075-08dd768d73bf","system_id":"levelo_inurba_marseille","lat":43.303265,"lon":5.404474,"is_reserved":false,"is_disabled":false,"rental_uris":{"android":"levelo://app?vid=bdf74eea-e435-4c5a-b075-08dd768d73bf","ios":"levelo://app?vid=bdf74eea-e435-4c5a-b075-08dd768d73bf"},"vehicle_type_id":"4","last_reported":1761365512,"current_range_meters":22000,"station_id":"","pricing_plan_id":"cebpf4jnsgd1na2vs0mg"},{"bike_id":"cb9458d8-02a0-4dea-aece-e20aead1c206","system_id":"levelo_inurba_marseille","lat":43.284548,"lon":5.35883,"is_reserved":false,"is_disabled":false,"rental_uris":{"android":"levelo://app?vid=cb9458d8-02a0-4dea-aece-e20aead1c206","ios":"levelo://app?vid=cb9458d8-02a0-4dea-aece-e20aead1c206"},"vehicle_type_id":"4","last_reported":1761365512,"current_range_meters":22000,"station_id":"ce4bhah2rcd13ifvqei0","pricing_plan_id":"cebpf4jnsgd1na2vs0mg"},{"bike_id":"7b64abc3-f291-4b00-acac-282d2810c9c2","system_id":"levelo_inurba_marseille","lat":43.29973,"lon":5.37037,"is_reserved":false,"is_disabled":false,"rental_uris":{"android":"levelo://app?vid=7b64abc3-f291-4b00-acac-282d2810c9c2","ios":"levelo://app?vid=7b64abc3-f291-4b00-acac-282d2810c9c2"},"vehicle_type_id":"4","last_reported":1761365512,"current_range_meters":22000,"station_id":"","pricing_plan_id":"cebpf4jnsgd1na2vs0mg"},{"bike_id":"0553c493-3a47-4f50-80f9-c7160c8939f8","system_id":"levelo_inurba_marseille","lat":43.31052,"lon":5.38349,"is_reserved":false,"is_disabled":true,"rental_uris":{"android":"levelo://app?vid=0553c493-3a47-4f50-80f9-c7160c8939f8","ios":"levelo://app?vid=0553c493-3a47-4f50-80f9-c7160c8939f8"},"vehicle_type_id":"4","last_reported":1761365512,"current_range_meters":22000,"station_id":"ce4bgv92rcd13ifvqcr0","pricing_plan_id":"cebpf4jnsgd1na2vs0mg"},{"bike_id":"adb7125f-497e-4ea5-8b8e-0e6cd28e9d17","system_id":"levelo_inurba_marseille","lat":43.25343,"lon":5.42176,"is_reserved":false,"is_disabled":false,"rental_uris":{"android":"levelo://app?vid=adb7125f-497e-4ea5-8b8e-0e6cd28e9d17","ios":"levelo://app?vid=adb7125f-497e-4ea5-8b8e-0e6cd28e9d17"},"vehicle_type_id":"4","last_reported":1761365512,"current_range_meters":22000,"station_id":"st_d2m65c5bi1j21697t3ng","pricing_plan_id":"cebpf4jnsgd1na2vs0mg"},{"bike_id":"218c6e0a-6fdf-41f2-9f9c-52da1cbef58a","system_id":"levelo_inurba_marseille","lat":43.323525,"lon":5.367326,"is_reserved":false,"is_disabled":false,"rental_uris":{"android":"levelo://app?vid=218c6e0a-6fdf-41f2-9f9c-52da1cbef58a","ios":"levelo://app?vid=218c6e0a-6fdf-41f2-9f9c-52da1cbef58a"},"vehicle_type_id":"4","last_reported":1761365512,"current_range_meters":22000,"station_id":"ce4bhsh2rcd13ifvqi2g","pricing_plan_id":"cebpf4jnsgd1na2vs0mg"},{"bike_id":"64b75b4a-3497-4861-8cc2-90dd62cd9f5e","system_id":"levelo_inurba_marseille","lat":43.29492,"lon":5.43317,"is_reserved":false,"is_disabled":false,"rental_uris":{"android":"levelo://app?vid=64b75b4a-3497-4861-8cc2-90dd62cd9f5e","ios":"levelo://app?vid=64b75b4a-3497-4861-8cc2-90dd62cd9f5e"},"vehicle_type_id":"4","last_reported":1761365512,"current_range_meters":22000,"station_id":"st_d3j5ugp08ojc73fj9d10","pricing_plan_id":"cebpf4jnsgd1na2vs0mg"},{"bike_id":"2e2b579b-2bf4-4e28-969f-bf817846c248","system_id":"levelo_inurba_marseille","lat":43.270576,"lon":5.383122,"is_reserved":false,"is_disabled":false,"rental_uris":{"android":"levelo://app?vid=2e2b579b-2bf4-4e28-969f-bf817846c248","ios":"levelo://app?vid=2e2b579b-2bf4-4e28-969f-bf817846c248"},"vehicle_type_id":"4","last_reported":1761365512,"current_range_meters":22000,"station_id":"st_d3n2fo6cfp8s73cte1j0","pricing_plan_id":"cebpf4jnsgd1na2vs0mg"},{"bike_id":"89f4f3ce-a685-4501-a7a3-6246ae9cb18d","system_id":"levelo_inurba_marseille","lat":43.279487,"lon":5.41039,"is_reserved":false,"is_disabled":true,"rental_uris":{"android":"levelo://app?vid=89f4f3ce-a685-4501-a7a3-6246ae9cb18d","ios":"levelo://app?vid=89f4f3ce-a685-4501-a7a3-6246ae9cb18d"},"vehicle_type_id":"4","last_reported":1761365512,"current_range_meters":22000,"station_id":"ce4bhnp2rcd13ifvqh0g","pricing_plan_id":"cebpf4jnsgd1na2vs0mg"},{"bike_id":"c124d4a0-9e47-48ec-ad7a-ea36eb6e5d35","system_id":"levelo_inurba_marseille","lat":43.24399,"lon":5.370382,"is_reserved":false,"is_disabled":false,"rental_uris":{"android":"levelo://app?vid=c124d4a0-9e47-48ec-ad7a-ea36eb6e5d35","ios":"levelo://app?vid=c124d4a0-9e47-48ec-ad7a-ea36eb6e5d35"},"vehicle_type_id":"4","last_reported":1761365512,"current_range_meters":22000,"station_id":"ce4bhhh2rcd13ifvqfk0","pricing_plan_id":"cebpf4jnsgd1na2vs0mg"},{"bike_id":"50422f4e-3c9e-4bf3-802a-e3507df47a14","system_id":"levelo_inurba_marseille","lat":43.21197,"lon":5.35072,"is_reserved":false,"is_disabled":false,"rental_uris":{"android":"levelo://app?vid=50422f4e-3c9e-4bf3-802a-e3507df47a14","ios":"levelo://app?vid=50422f4e-3c9e-4bf3-802a-e3507df47a14"},"vehicle_type_id":"4","last_reported":1761365512,"current_range_meters":22400,"station_id":"st_cvj6sg6p6f1abm77japg","pricing_plan_id":"cebpf4jnsgd1na2vs0mg"},{"bike_id":"74caa548-3cc4-428c-abce-673ea7a5e8db","system_id":"levelo_inurba_marseille","lat":43.31123,"lon":5.37764,"is_reserved":false,"is_disabled":false,"rental_uris":{"android":"levelo://app?vid=74caa548-3cc4-428c-abce-673ea7a5e8db","ios":"levelo://app?vid=74caa548-3cc4-428c-abce-673ea7a5e8db"},"vehicle_type_id":"4","last_reported":1761365512,"current_range_meters":22400,"station_id":"ce4bgt92rcd13ifvqcg0","pricing_plan_id":"cebpf4jnsgd1na2vs0mg"},{"bike_id":"1eac0aa7-2b82-4118-bb70-4582cf563475","system_id":"levelo_inurba_marseille","lat":43.284914,"lon":5.483937,"is_reserved":false,"is_disabled":false,"rental_uris":{"android":"levelo://app?vid=1eac0aa7-2b82-4118-bb70-4582cf563475","ios":"levelo://app?vid=1eac0aa7-2b82-4118-bb70-4582cf563475"},"vehicle_type_id":"4","last_reported":1761365512,"current_range_meters":22400,"station_id":"st_d3svhcjqgbts73a3dn0g","pricing_plan_id":"cebpf4jnsgd1na2vs0mg"},{"bike_id":"27f47b43-c417-450a-a918-b35b7cf214f4","system_id":"levelo_inurba_marseille","lat":43.24676,"lon":5.38147,"is_reserved":false,"is_disabled":false,"rental_uris":{"android":"levelo://app?vid=27f47b43-c417-450a-a918-b35b7cf214f4","ios":"levelo://app?vid=27f47b43-c417-450a-a918-b35b7cf214f4"},"vehicle_type_id":"4","last_reported":1761365512,"current_range_meters":22400,"station_id":"ce4bhih2rcd13ifvqfr0","pricing_plan_id":"cebpf4jnsgd1na2vs0mg"},{"bike_id":"73bb1342-5127-475a-af75-2e4f002e97df","system_id":"levelo_inurba_marseille","lat":43.237747,"lon":5.366183,"is_reserved":false,"is_disabled":false,"rental_uris":{"android":"levelo://app?vid=73bb1342-5127-475a-af75-2e4f002e97df","ios":"levelo://app?vid=73bb1342-5127-475a-af75-2e4f002e97df"},"vehicle_type_id":"4","last_reported":1761365512,"current_range_meters":22400,"station_id":"st_d3nk18o9ro0c73en2l3g","pricing_plan_id":"cebpf4jnsgd1na2vs0mg"},{"bike_id":"9438d25a-696a-4f3d-8b88-3dbb46e80b4d","system_id":"levelo_inurba_marseille","lat":43.3148,"lon":5.373065,"is_reserved":false,"is_disabled":false,"rental_uris":{"android":"levelo://app?vid=9438d25a-696a-4f3d-8b88-3dbb46e80b4d","ios":"levelo://app?vid=9438d25a-696a-4f3d-8b88-3dbb46e80b4d"},"vehicle_type_id":"4","last_reported":1761365512,"current_range_meters":22400,"station_id":"ce4bgt12rcd13ifvqcd0","pricing_plan_id":"cebpf4jnsgd1na2vs0mg"},{"bike_id":"f4c18313-2aa8-46ce-8dd3-dc5683173f17","system_id":"levelo_inurba_marseille","lat":43.30332,"lon":5.40457,"is_reserved":false,"is_disabled":false,"rental_uris":{"android":"levelo://app?vid=f4c18313-2aa8-46ce-8dd3-dc5683173f17","ios":"levelo://app?vid=f4c18313-2aa8-46ce-8dd3-dc5683173f17"},"vehicle_type_id":"4","last_reported":1761365512,"current_range_meters":22400,"station_id":"ce4bh012rcd13ifvqd10","pricing_plan_id":"cebpf4jnsgd1na2vs0mg"},{"bike_id":"2183fa59-9c24-4d41-9a64-afd6f6906a61","system_id":"levelo_inurba_marseille","lat":43.292487,"lon":5.409011,"is_reserved":false,"is_disabled":false,"rental_uris":{"android":"levelo://app?vid=2183fa59-9c24-4d41-9a64-afd6f6906a61","ios":"levelo://app?vid=2183fa59-9c24-4d41-9a64-afd6f6906a61"},"vehicle_type_id":"4","last_reported":1761365512,"current_range_meters":22400,"station_id":"ce4bh192rcd13ifvqdc0","pricing_plan_id":"cebpf4jnsgd1na2vs0mg"},{"bike_id":"68230254-d1f7-4d27-8bbf-5b0bf2c99e14","system_id":"levelo_inurba_marseille","lat":43.30359,"lon":5.38641,"is_reserved":false,"is_disabled":false,"rental_uris":{"android":"levelo://app?vid=68230254-d1f7-4d27-8bbf-5b0bf2c99e14","ios":"levelo://app?vid=68230254-d1f7-4d27-8bbf-5b0bf2c99e14"},