{"last_updated":1732558393,"ttl":60,"version":"2.2","data":{"bikes":[{"bike_id":"28d88fa4-3af7-4b3d-8041-0e91653920e6","system_id":"levelo_inurba_marseille","lat":43.324703,"lon":5.419603,"is_reserved":false,"is_disabled":false,"rental_uris":{"android":"levelo://app?vid=28d88fa4-3af7-4b3d-8041-0e91653920e6","ios":"levelo://app?vid=28d88fa4-3af7-4b3d-8041-0e91653920e6"},"vehicle_type_id":"4","last_reported":1732558393,"current_range_meters":22800,"station_id":"","pricing_plan_id":"cebpf4jnsgd1na2vs0mg"},{"bike_id":"ce7ec125-e5e1-4f1c-9ffa-2776a8995d05","system_id":"levelo_inurba_marseille","lat":43.27061,"lon":5.42281,"is_reserved":false,"is_disabled":true,"rental_uris":{"android":"levelo://app?vid=ce7ec125-e5e1-4f1c-9ffa-2776a8995d05","ios":"levelo://app?vid=ce7ec125-e5e1-4f1c-9ffa-2776a8995d05"},"vehicle_type_id":"4","last_reported":1732558393,"current_range_meters":0,"station_id":"ce4bhk92rcd13ifvqgb0","pricing_plan_id":"cebpf4jnsgd1na2vs0mg"},{"bike_id":"fe9e8a33-af9d-4f64-8799-6e7f07dc8759","system_id":"levelo_inurba_marseille","lat":43.30155,"lon":5.39883,"is_reserved":false,"is_disabled":false,"rental_uris":{"android":"levelo://app?vid=fe9e8a33-af9d-4f64-8799-6e7f07dc8759","ios":"levelo://app?vid=fe9e8a33-af9d-4f64-8799-6e7f07dc8759"},"vehicle_type_id":"4","last_reported":1732558393,"current_range_meters":12000,"station_id":"ce4bh0h2rcd13ifvqd40","pricing_plan_id":"cebpf4jnsgd1na2vs0mg"},{"bike_id":"30d0ac3c-50e0-4a75-b335-26d35b457e61","system_id":"levelo_inurba_marseille","lat":43.291877,"lon":5.358122,"is_reserved":false,"is_disabled":false,"rental_uris":{"android":"levelo://app?vid=30d0ac3c-50e0-4a75-b335-26d35b457e61","ios":"levelo://app?vid=30d0ac3c-50e0-4a75-b335-26d35b457e61"},"vehicle_type_id":"4","last_reported":1732558393,"current_range_meters":32400,"station_id":"ce4bhb12rcd13ifvqel0","pricing_plan_id":"cebpf4jnsgd1na2vs0mg"},{"bike_id":"f80f8fe7-d515-4a68-8170-9a1a9b40a51b","system_id":"levelo_inurba_marseille","lat":43.28469,"lon":5.38419,"is_reserved":false,"is_disabled":false,"rental_uris":{"android":"levelo://app?vid=f80f8fe7-d515-4a68-8170-9a1a9b40a51b","ios":"levelo://app?vid=f80f8fe7-d515-4a68-8170-9a1a9b40a51b"},"vehicle_type_id":"4","last_reported":1732558393,"current_range_meters":14000,"station_id":"ce4bh512rcd13ifvqe3g","pricing_plan_id":"cebpf4jnsgd1na2vs0mg"},{"bike_id":"df684e51-aa3f-4e9e-a9c3-f93d8795ee2b","system_id":"levelo_inurba_marseille","lat":43.28728,"lon":5.36466,"is_reserved":false,"is_disabled":false,"rental_uris":{"android":"levelo://app?vid=df684e51-aa3f-4e9e-a9c3-f93d8795ee2b","ios":"levelo://app?vid=df684e51-aa3f-4e9e-a9c3-f93d8795ee2b"},"vehicle_type_id":"4","last_reported":1732558393,"current_range_meters":38800,"station_id":"ce4bhah2rcd13ifvqej0","pricing_plan_id":"cebpf4jnsgd1na2vs0mg"},{"bike_id":"4b50322b-0081-400d-8f4b-303c0724db13","system_id":"levelo_inurba_marseille","lat":43.24822,"lon":5.37451,"is_reserved":false,"is_disabled":false,"rental_uris":{"android":"levelo://app?vid=4b50322b-0081-400d-8f4b-303c0724db13","ios":"levelo://app?vid=4b50322b-0081-400d-8f4b-303c0724db13"},"vehicle_type_id":"4","last_reported":1732558393,"current_range_meters":9200,"station_id":"ce4bhgh2rcd13ifvqfb0","pricing_plan_id":"cebpf4jnsgd1na2vs0mg"},{"bike_id":"aff4222d-4134-4457-90df-b3debcb75bce","system_id":"levelo_inurba_marseille","lat":43.29522,"lon":5.37504,"is_reserved":false,"is_disabled":true,"rental_uris":{"android":"levelo://app?vid=aff4222d-4134-4457-90df-b3debcb75bce","ios":"levelo://app?vid=aff4222d-4134-4457-90df-b3debcb75bce"},"vehicle_type_id":"4","last_reported":1732558393,"current_range_meters":38000,"station_id":"ce4bgkp2rcd13ifvqbmg","pricing_plan_id":"cebpf4jnsgd1na2vs0mg"},{"bike_id":"64051f95-eb83-46dc-b548-20f321a83f34","system_id":"levelo_inurba_marseille","lat":43.30215,"lon":5.39458,"is_reserved":false,"is_disabled":false,"rental_uris":{"android":"levelo://app?vid=64051f95-eb83-46dc-b548-20f321a83f34","ios":"levelo://app?vid=64051f95-eb83-46dc-b548-20f321a83f34"},"vehicle_type_id":"4","last_reported":1732558393,"current_range_meters":20000,"station_id":"ce4bh0p2rcd13ifvqd70","pricing_plan_id":"cebpf4jnsgd1na2vs0mg"},{"bike_id":"61ae9948-e0e5-4ce3-b06a-504522b4bbcc","system_id":"levelo_inurba_marseille","lat":43.32365,"lon":5.38881,"is_reserved":false,"is_disabled":false,"rental_uris":{"android":"levelo://app?vid=61ae9948-e0e5-4ce3-b06a-504522b4bbcc","ios":"levelo://app?vid=61ae9948-e0e5-4ce3-b06a-504522b4bbcc"},"vehicle_type_id":"4","last_reported":1732558393,"current_range_meters":24800,"station_id":"ce4bhqp2rcd13ifvqhog","pricing_plan_id":"cebpf4jnsgd1na2vs0mg"},{"bike_id":"27dab9de-aa91-40b9-b750-f077d2c8fd0e","system_id":"levelo_inurba_marseille","lat":43.29038,"lon":5.39973,"is_reserved":false,"is_disabled":false,"rental_uris":{"android":"levelo://app?vid=27dab9de-aa91-40b9-b750-f077d2c8fd0e","ios":"levelo://app?vid=27dab9de-aa91-40b9-b750-f077d2c8fd0e"},"vehicle_type_id":"4","last_reported":1732558393,"current_range_meters":4400,"station_id":"ce4bh392rcd13ifvqdm0","pricing_plan_id":"cebpf4jnsgd1na2vs0mg"},{"bike_id":"2c523655-0fb4-48b1-8ebe-e68817f5cb10","system_id":"levelo_inurba_marseille","lat":43.23195,"lon":5.35559,"is_reserved":false,"is_disabled":false,"rental_uris":{"android":"levelo://app?vid=2c523655-0fb4-48b1-8ebe-e68817f5cb10","ios":"levelo://app?vid=2c523655-0fb4-48b1-8ebe-e68817f5cb10"},"vehicle_type_id":"4","last_reported":1732558393,"current_range_meters":19600,"station_id":"ce4bhu92rcd13ifvqi70","pricing_plan_id":"cebpf4jnsgd1na2vs0mg"},{"bike_id":"59735367-1cdb-4821-a42a-d45ca06004e9","system_id":"levelo_inurba_marseille","lat":43.27942,"lon":5.41039,"is_reserved":false,"is_disabled":false,"rental_uris":{"android":"levelo://app?vid=59735367-1cdb-4821-a42a-d45ca06004e9","ios":"levelo://app?vid=59735367-1cdb-4821-a42a-d45ca06004e9"},"vehicle_type_id":"4","last_reported":1732558393,"current_range_meters":10800,"station_id":"ce4bhnp2rcd13ifvqh0g","pricing_plan_id":"cebpf4jnsgd1na2vs0mg"},{"bike_id":"a28e761f-9af3-4d3d-97ff-efc091a43c83","system_id":"levelo_inurba_marseille","lat":43.26555,"lon":5.39002,"is_reserved":false,"is_disabled":true,"rental_uris":{"android":"levelo://app?vid=a28e761f-9af3-4d3d-97ff-efc091a43c83","ios":"levelo://app?vid=a28e761f-9af3-4d3d-97ff-efc091a43c83"},"vehicle_type_id":"4","last_reported":1732558393,"current_range_meters":1200,"station_id":"ce4bhe12rcd13ifvqf30","pricing_plan_id":"cebpf4jnsgd1na2vs0mg"},{"bike_id":"9ba7fbc2-67dd-47f3-b9f0-2830fbc63bb7","system_id":"levelo_inurba_marseille","lat":43.28086,"lon":5.39661,"is_reserved":false,"is_disabled":false,"rental_uris":{"android":"levelo://app?vid=9ba7fbc2-67dd-47f3-b9f0-2830fbc63bb7","ios":"levelo://app?vid=9ba7fbc2-67dd-47f3-b9f0-2830fbc63bb7"},"vehicle_type_id":"4","last_reported":1732558393,"current_range_meters":3200,"station_id":"ce4bho12rcd13ifvqh2g","pricing_plan_id":"cebpf4jnsgd1na2vs0mg"},{"bike_id":"38e5dd59-c780-4856-8550-b20273f4e496","system_id":"levelo_inurba_marseille","lat":43.30426,"lon":5.38891,"is_reserved":false,"is_disabled":true,"rental_uris":{"android":"levelo://app?vid=38e5dd59-c780-4856-8550-b20273f4e496","ios":"levelo://app?vid=38e5dd59-c780-4856-8550-b20273f4e496"},"vehicle_type_id":"4","last_reported":1732558393,"current_range_meters":28800,"station_id":"ce4bgk12rcd13ifvqbi0","pricing_plan_id":"cebpf4jnsgd1na2vs0mg"},{"bike_id":"39b11e64-2962-470f-8250-90fe18d4a5f4","system_id":"levelo_inurba_marseille","lat":43.247517,"lon":5.39251,"is_reserved":false,"is_disabled":true,"rental_uris":{"android":"levelo://app?vid=39b11e64-2962-470f-8250-90fe18d4a5f4","ios":"levelo://app?vid=39b11e64-2962-470f-8250-90fe18d4a5f4"},"vehicle_type_id":"4","last_reported":1732558393,"current_range_meters":0,"station_id":"","pricing_plan_id":"cebpf4jnsgd1na2vs0mg"},{"bike_id":"b3f71c98-afb4-4573-ac0d-670917b9a1ab","system_id":"levelo_inurba_marseille","lat":43.255945,"lon":5.382471,"is_reserved":false,"is_disabled":false,"rental_uris":{"android":"levelo://app?vid=b3f71c98-afb4-4573-ac0d-670917b9a1ab","ios":"levelo://app?vid=b3f71c98-afb4-4573-ac0d-670917b9a1ab"},"vehicle_type_id":"4","last_reported":1732558393,"current_range_meters":10000,"station_id":"ce4bhih2rcd13ifvqfs0","pricing_plan_id":"cebpf4jnsgd1na2vs0mg"},{"bike_id":"9dece845-15a7-40e8-a3d7-dd5586a5b0c2","system_id":"levelo_inurba_marseille","lat":43.290913,"lon":5.371786,"is_reserved":false,"is_disabled":false,"rental_uris":{"android":"levelo://app?vid=9dece845-15a7-40e8-a3d7-dd5586a5b0c2","ios":"levelo://app?vid=9dece845-15a7-40e8-a3d7-dd5586a5b0c2"},"vehicle_type_id":"4","last_reported":1732558393,"current_range_meters":20800,"station_id":"ce4bh5p2rcd13ifvqe4g","pricing_plan_id":"cebpf4jnsgd1na2vs0mg"},{"bike_id":"a6a25f36-b0ae-4164-84db-db959750c696","system_id":"levelo_inurba_marseille","lat":43.24524,"lon":5.37349,"is_reserved":false,"is_disabled":true,"rental_uris":{"android":"levelo://app?vid=a6a25f36-b0ae-4164-84db-db959750c696","ios":"levelo://app?vid=a6a25f36-b0ae-4164-84db-db959750c696"},"vehicle_type_id":"4","last_reported":1732558393,"current_range_meters":25600,"station_id":"","pricing_plan_id":"cebpf4jnsgd1na2vs0mg"},{"bike_id":"3920fea2-82c1-4078-b688-c0e28848b94a","system_id":"levelo_inurba_marseille","lat":43.29426,"lon":5.39751,"is_reserved":false,"is_disabled":false,"rental_uris":{"android":"levelo://app?vid=3920fea2-82c1-4078-b688-c0e28848b94a","ios":"levelo://app?vid=3920fea2-82c1-4078-b688-c0e28848b94a"},"vehicle_type_id":"4","last_reported":1732558393,"current_range_meters":29600,"station_id":"ce4bh3h2rcd13ifvqdo0","pricing_plan_id":"cebpf4jnsgd1na2vs0mg"},{"bike_id":"5d27ed93-e83e-4c8a-828a-b308aa3ad553","system_id":"levelo_inurba_marseille","lat":43.27908,"lon":5.39576,"is_reserved":false,"is_disabled":false,"rental_uris":{"android":"levelo://app?vid=5d27ed93-e83e-4c8a-828a-b308aa3ad553","ios":"levelo://app?vid=5d27ed93-e83e-4c8a-828a-b308aa3ad553"},"vehicle_type_id":"4","last_reported":1732558393,"current_range_meters":16800,"station_id":"ce4bhf92rcd13ifvqf40","pricing_plan_id":"cebpf4jnsgd1na2vs0mg"},{"bike_id":"ee06e538-e3ab-4ffa-8ffc-9743a843b96b","system_id":"levelo_inurba_marseille","lat":43.24663,"lon":5.38162,"is_reserved":false,"is_disabled":false,"rental_uris":{"android":"levelo://app?vid=ee06e538-e3ab-4ffa-8ffc-9743a843b96b","ios":"levelo://app?vid=ee06e538-e3ab-4ffa-8ffc-9743a843b96b"},"vehicle_type_id":"4","last_reported":1732558393,"current_range_meters":4000,"station_id":"ce4bhih2rcd13ifvqfr0","pricing_plan_id":"cebpf4jnsgd1na2vs0mg"},{"bike_id":"bdc77a41-df04-43f0-8c70-13f11c6da757","system_id":"levelo_inurba_marseille","lat":43.25843,"lon":5.376125,"is_reserved":false,"is_disabled":false,"rental_uris":{"android":"levelo://app?vid=bdc77a41-df04-43f0-8c70-13f11c6da757","ios":"levelo://app?vid=bdc77a41-df04-43f0-8c70-13f11c6da757"},"vehicle_type_id":"4","last_reported":1732558393,"current_range_meters":20400,"station_id":"","pricing_plan_id":"cebpf4jnsgd1na2vs0mg"},{"bike_id":"6e2f0a91-f335-4437-b97f-9d4d42b7cd7c","system_id":"levelo_inurba_marseille","lat":43.29844,"lon":5.36279,"is_reserved":false,"is_disabled":false,"rental_uris":{"android":"levelo://app?vid=6e2f0a91-f335-4437-b97f-9d4d42b7cd7c","ios":"levelo://app?vid=6e2f0a91-f335-4437-b97f-9d4d42b7cd7c"},"vehicle_type_id":"4","last_reported":1732558393,"current_range_meters":18800,"station_id":"ce4bgpp2rcd13ifvqc3g","pricing_plan_id":"cebpf4jnsgd1na2vs0mg"},{"bike_id":"f42dcf9b-16ab-40c7-9a17-1509929eb3ba","system_id":"levelo_inurba_marseille","lat":43.30301,"lon":5.39711,"is_reserved":false,"is_disabled":false,"rental_uris":{"android":"levelo://app?vid=f42dcf9b-16ab-40c7-9a17-1509929eb3ba","ios":"levelo://app?vid=f42dcf9b-16ab-40c7-9a17-1509929eb3ba"},"vehicle_type_id":"4","last_reported":1732558393,"current_range_meters":6000,"station_id":"","pricing_plan_id":"cebpf4jnsgd1na2vs0mg"},{"bike_id":"26ec1a22-5020-45e4-ab45-512c7f67d5dd","system_id":"levelo_inurba_marseille","lat":43.32073,"lon":5.41548,"is_reserved":false,"is_disabled":true,"rental_uris":{"android":"levelo://app?vid=26ec1a22-5020-45e4-ab45-512c7f67d5dd","ios":"levelo://app?vid=26ec1a22-5020-45e4-ab45-512c7f67d5dd"},"vehicle_type_id":"4","last_reported":1732558393,"current_range_meters":38000,"station_id":"ce4bhq92rcd13ifvqhkg","pricing_plan_id":"cebpf4jnsgd1na2vs0mg"},{"bike_id":"e8e7879f-3b8f-427d-9faa-61e1d5dfcc26","system_id":"levelo_inurba_marseille","lat":43.29265,"lon":5.40909,"is_reserved":false,"is_disabled":false,"rental_uris":{"android":"levelo://app?vid=e8e7879f-3b8f-427d-9faa-61e1d5dfcc26","ios":"levelo://app?vid=e8e7879f-3b8f-427d-9faa-61e1d5dfcc26"},"vehicle_type_id":"4","last_reported":1732558393,"current_range_meters":8800,"station_id":"ce4bh192rcd13ifvqdc0","pricing_plan_id":"cebpf4jnsgd1na2vs0mg"},{"bike_id":"ff30c9b2-e67f-4645-ad05-c5b92b8d6d32","system_id":"levelo_inurba_marseille","lat":43.25868,"lon":5.39895,"is_reserved":false,"is_disabled":false,"rental_uris":{"android":"levelo://app?vid=ff30c9b2-e67f-4645-ad05-c5b92b8d6d32","ios":"levelo://app?vid=ff30c9b2-e67f-4645-ad05-c5b92b8d6d32"},"vehicle_type_id":"4","last_reported":1732558393,"current_range_meters":33600,"station_id":"ce4bhl92rcd13ifvqghg","pricing_plan_id":"cebpf4jnsgd1na2vs0mg"},{"bike_id":"9ce3e3c1-0349-4011-bfbc-e3195ad72626","system_id":"levelo_inurba_marseille","lat":43.32368,"lon":5.38883,"is_reserved":false,"is_disabled":false,"rental_uris":{"android":"levelo://app?vid=9ce3e3c1-0349-4011-bfbc-e3195ad72626","ios":"levelo://app?vid=9ce3e3c1-0349-4011-bfbc-e3195ad72626"},"vehicle_type_id":"4","last_reported":1732558393,"current_range_meters":20000,"station_id":"ce4bhqp2rcd13ifvqhog","pricing_plan_id":"cebpf4jnsgd1na2vs0mg"},{"bike_id":"9f8aea45-6317-46b2-bfdf-12486e5e39e0","system_id":"levelo_inurba_marseille","lat":43.31275,"lon":5.36753,"is_reserved":false,"is_disabled":true,"rental_uris":{"android":"levelo://app?vid=9f8aea45-6317-46b2-bfdf-12486e5e39e0","ios":"levelo://app?vid=9f8aea45-6317-46b2-bfdf-12486e5e39e0"},"vehicle_type_id":"4","last_reported":1732558393,"current_range_meters":0,"station_id":"","pricing_plan_id":"cebpf4jnsgd1na2vs0mg"},{"bike_id":"a6227dc0-d374-4d69-aa97-a37378731c2c","system_id":"levelo_inurba_marseille","lat":43.26943,"lon":5.40256,"is_reserved":false,"is_disabled":false,"rental_uris":{"android":"levelo://app?vid=a6227dc0-d374-4d69-aa97-a37378731c2c","ios":"levelo://app?vid=a6227dc0-d374-4d69-aa97-a37378731c2c"},"vehicle_type_id":"4","last_reported":1732558393,"current_range_meters":16000,"station_id":"cjm6bp8fraef2m0cb0m0","pricing_plan_id":"cebpf4jnsgd1na2vs0mg"},{"bike_id":"cef0cd88-1a7a-4306-a75e-664dfff22614","system_id":"levelo_inurba_marseille","lat":43.30857,"lon":5.3776,"is_reserved":false,"is_disabled":false,"rental_uris":{"android":"levelo://app?vid=cef0cd88-1a7a-4306-a75e-664dfff22614","ios":"levelo://app?vid=cef0cd88-1a7a-4306-a75e-664dfff22614"},"vehicle_type_id":"4","last_reported":1732558393,"current_range_meters":4000,"station_id":"","pricing_plan_id":"cebpf4jnsgd1na2vs0mg"},{"bike_id":"1e126baa-22b4-4cf7-a05e-1c0611873009","system_id":"levelo_inurba_marseille","lat":43.311192,"lon":5.377708,"is_reserved":false,"is_disabled":true,"rental_uris":{"android":"levelo://app?vid=1e126baa-22b4-4cf7-a05e-1c0611873009","ios":"levelo://app?vid=1e126baa-22b4-4cf7-a05e-1c0611873009"},"vehicle_type_id":"4","last_reported":1732558393,"current_range_meters":0,"station_id":"","pricing_plan_id":"cebpf4jnsgd1na2vs0mg"},{"bike_id":"6e67a2c5-4def-4f0b-9511-32a8dc381b4f","system_id":"levelo_inurba_marseille","lat":43.310794,"lon":5.368934,"is_reserved":false,"is_disabled":false,"rental_uris":{"android":"levelo://app?vid=6e67a2c5-4def-4f0b-9511-32a8dc381b4f","ios":"levelo://app?vid=6e67a2c5-4def-4f0b-9511-32a8dc381b4f"},"vehicle_type_id":"4","last_reported":1732558393,"current_range_meters":23200,"station_id":"ce4bgl92rcd13ifvqbq0","pricing_plan_id":"cebpf4jnsgd1na2vs0mg"},{"bike_id":"a066ea11-49cc-4ee6-9ea4-bcee99e3c4c5","system_id":"levelo_inurba_marseille","lat":43.29026,"lon":5.3813,"is_reserved":false,"is_disabled":true,"rental_uris":{"android":"levelo://app?vid=a066ea11-49cc-4ee6-9ea4-bcee99e3c4c5","ios":"levelo://app?vid=a066ea11-49cc-4ee6-9ea4-bcee99e3c4c5"},"vehicle_type_id":"4","last_reported":1732558393,"current_range_meters":38400,"station_id":"ce4bh4p2rcd13ifvqe1g","pricing_plan_id":"cebpf4jnsgd1na2vs0mg"},{"bike_id":"07373730-ba45-4ca8-b6a6-6db65250f6a1","system_id":"levelo_inurba_marseille","lat":43.29854,"lon":5.36282,"is_reserved":false,"is_disabled":true,"rental_uris":{"android":"levelo://app?vid=07373730-ba45-4ca8-b6a6-6db65250f6a1","ios":"levelo://app?vid=07373730-ba45-4ca8-b6a6-6db65250f6a1"},"vehicle_type_id":"4","last_reported":1732558393,"current_range_meters":20000,"station_id":"ce4bgpp2rcd13ifvqc3g","pricing_plan_id":"cebpf4jnsgd1na2vs0mg"},{"bike_id":"1aa157d2-2b13-49ae-a1ca-2010410cc0c1","system_id":"levelo_inurba_marseille","lat":43.24391,"lon":5.37064,"is_reserved":false,"is_disabled":false,"rental_uris":{"android":"levelo://app?vid=1aa157d2-2b13-49ae-a1ca-2010410cc0c1","ios":"levelo://app?vid=1aa157d2-2b13-49ae-a1ca-2010410cc0c1"},"vehicle_type_id":"4","last_reported":1732558393,"current_range_meters":24000,"station_id":"ce4bhhh2rcd13ifvqfk0","pricing_plan_id":"cebpf4jnsgd1na2vs0mg"},{"bike_id":"18924848-7e95-4f49-9d61-9049fb5cdf6f","system_id":"levelo_inurba_marseille","lat":43.28082,"lon":5.39661,"is_reserved":false,"is_disabled":true,"rental_uris":{"android":"levelo://app?vid=18924848-7e95-4f49-9d61-9049fb5cdf6f","ios":"levelo://app?vid=18924848-7e95-4f49-9d61-9049fb5cdf6f"},"vehicle_type_id":"4","last_reported":1732558393,"current_range_meters":0,"station_id":"ce4bho12rcd13ifvqh2g","pricing_plan_id":"cebpf4jnsgd1na2vs0mg"},{"bike_id":"45edf9ef-0529-460f-b73e-94fcf66184ba","system_id":"levelo_inurba_marseille","lat":43.29293,"lon":5.3745,"is_reserved":false,"is_disabled":false,"rental_uris":{"android":"levelo://app?vid=45edf9ef-0529-460f-b73e-94fcf66184ba","ios":"levelo://app?vid=45edf9ef-0529-460f-b73e-94fcf66184ba"},"vehicle_type_id":"4","last_reported":1732558393,"current_range_meters":38800,"station_id":"ce4bgi12rcd13ifvqb70","pricing_plan_id":"cebpf4jnsgd1na2vs0mg"},{"bike_id":"dd08285a-8132-430d-a8bf-2aee58c7534b","system_id":"levelo_inurba_marseille","lat":43.24078,"lon":5.37764,"is_reserved":false,"is_disabled":false,"rental_uris":{"android":"levelo://app?vid=dd08285a-8132-430d-a8bf-2aee58c7534b","ios":"levelo://app?vid=dd08285a-8132-430d-a8bf-2aee58c7534b"},"vehicle_type_id":"4","last_reported":1732558393,"current_range_meters":28000,"station_id":"ce4bhnp2rcd13ifvqgvg","pricing_plan_id":"cebpf4jnsgd1na2vs0mg"},{"bike_id":"a78b6323-1323-4b40-86fd-08cee87d648c","system_id":"levelo_inurba_marseille","lat":43.258473,"lon":5.398959,"is_reserved":false,"is_disabled":false,"rental_uris":{"android":"levelo://app?vid=a78b6323-1323-4b40-86fd-08cee87d648c","ios":"levelo://app?vid=a78b6323-1323-4b40-86fd-08cee87d648c"},"vehicle_type_id":"4","last_reported":1732558393,"current_range_meters":12000,"station_id":"ce4bhl92rcd13ifvqghg","pricing_plan_id":"cebpf4jnsgd1na2vs0mg"},{"bike_id":"4577191c-6762-4d0f-bc13-59405a22af88","system_id":"levelo_inurba_marseille","lat":43.28698,"lon":5.39981,"is_reserved":false,"is_disabled":false,"rental_uris":{"android":"levelo://app?vid=4577191c-6762-4d0f-bc13-59405a22af88","ios":"levelo://app?vid=4577191c-6762-4d0f-bc13-59405a22af88"},"vehicle_type_id":"4","last_reported":1732558393,"current_range_meters":38000,"station_id":"ce4bho92rcd13ifvqh3g","pricing_plan_id":"cebpf4jnsgd1na2vs0mg"},{"bike_id":"f7f7fd06-4983-4658-b605-e86318567bab","system_id":"levelo_inurba_marseille","lat":43.27567,"lon":5.38408,"is_reserved":false,"is_disabled":true,"rental_uris":{"android":"levelo://app?vid=f7f7fd06-4983-4658-b605-e86318567bab","ios":"levelo://app?vid=f7f7fd06-4983-4658-b605-e86318567bab"},"vehicle_type_id":"4","last_reported":1732558393,"current_range_meters":1600,"station_id":"ce4bhh92rcd13ifvqfi0","pricing_plan_id":"cebpf4jnsgd1na2vs0mg"},{"bike_id":"83f442cf-579e-46be-91e9-63bdc8bc05b6","system_id":"levelo_inurba_marseille","lat":43.25932,"lon":5.40915,"is_reserved":false,"is_disabled":true,"rental_uris":{"android":"levelo://app?vid=83f442cf-579e-46be-91e9-63bdc8bc05b6","ios":"levelo://app?vid=83f442cf-579e-46be-91e9-63bdc8bc05b6"},"vehicle_type_id":"4","last_reported":1732558393,"current_range_meters":0,"station_id":"ce4bhm92rcd13ifvqglg","pricing_plan_id":"cebpf4jnsgd1na2vs0mg"},{"bike_id":"363834d2-c2a3-4eb0-8ef7-fd26a62cbe84","system_id":"levelo_inurba_marseille","lat":43.260667,"lon":5.393912,"is_reserved":false,"is_disabled":false,"rental_uris":{"android":"levelo://app?vid=363834d2-c2a3-4eb0-8ef7-fd26a62cbe84","ios":"levelo://app?vid=363834d2-c2a3-4eb0-8ef7-fd26a62cbe84"},"vehicle_type_id":"4","last_reported":1732558393,"current_range_meters":37600,"station_id":"ce4bhh92rcd13ifvqfj0","pricing_plan_id":"cebpf4jnsgd1na2vs0mg"},{"bike_id":"3fa4e95d-6a71-46fd-8d0e-7e533c4493fd","system_id":"levelo_inurba_marseille","lat":43.2808,"lon":5.39657,"is_reserved":false,"is_disabled":false,"rental_uris":{"android":"levelo://app?vid=3fa4e95d-6a71-46fd-8d0e-7e533c4493fd","ios":"levelo://app?vid=3fa4e95d-6a71-46fd-8d0e-7e533c4493fd"},"vehicle_type_id":"4","last_reported":1732558393,"current_range_meters":8400,"station_id":"ce4bho12rcd13ifvqh2g","pricing_plan_id":"cebpf4jnsgd1na2vs0mg"},{"bike_id":"820f12a0-cf28-488c-8a74-3f1b9d2e4db5","system_id":"levelo_inurba_marseille","lat":43.23058,"lon":5.35491,"is_reserved":false,"is_disabled":false,"rental_uris":{"android":"levelo://app?vid=820f12a0-cf28-488c-8a74-3f1b9d2e4db5","ios":"levelo://app?vid=820f12a0-cf28-488c-8a74-3f1b9d2e4db5"},"vehicle_type_id":"4","last_reported":1732558393,"current_range_meters":27600,"station_id":"cpo3342slgdg3j2ifvpg","pricing_plan_id":"cebpf4jnsgd1na2vs0mg"},{"bike_id":"bba47513-8cd8-4bd6-8878-36c89abf96fe","system_id":"levelo_inurba_marseille","lat":43.33727,"lon":5.39182,"is_reserved":false,"is_disabled":false,"rental_uris":{"android":"levelo://app?vid=bba47513-8cd8-4bd6-8878-36c89abf96fe","ios":"levelo://app?vid=bba47513-8cd8-4bd6-8878-36c89abf96fe"},"vehicle_type_id":"4","last_reported":1732558393,"current_range_meters":7200,"station_id":"ce4bhr92rcd13ifvqhsg","pricing_plan_id":"cebpf4jnsgd1na2vs0mg"},{"bike_id":"4d41ba88-8d6e-4a62-86e6-2d9d44bd57c2","system_id":"levelo_inurba_marseille","lat":43.26801,"lon":5.40266,"is_reserved":false,"is_disabled":false,"rental_uris":{"android":"levelo://app?vid=4d41ba88-8d6e-4a62-86e6-2d9d44bd57c2","ios":"levelo://app?vid=4d41ba88-8d6e-4a62-86e6-2d9d44bd57c2"},"vehicle_type_id":"4","last_reported":1732558393,"current_range_meters":14400,"station_id":"ce501612rcd8frsf0b60","pricing_plan_id":"cebpf4jnsgd1na2vs0mg"},{"bike_id":"61c9f856-274e-4859-82f2-24f19a7cb1bc","system_id":"levelo_inurba_marseille","lat":43.29846,"lon":5.3627,"is_reserved":false,"is_disabled":false,"rental_uris":{"android":"levelo://app?vid=61c9f856-274e-4859-82f2-24f19a7cb1bc","ios":"levelo://app?vid=61c9f856-274e-4859-82f2-24f19a7cb1bc"},"vehicle_type_id":"4","last_reported":1732558393,"current_range_meters":21600,"station_id":"ce4bgpp2rcd13ifvqc3g","pricing_plan_id":"cebpf4jnsgd1na2vs0mg"},{"bike_id":"9465545f-af87-4599-bf7e-091832e32b7b","system_id":"levelo_inurba_marseille","lat":43.295317,"lon":5.385509,"is_reserved":false,"is_disabled":true,"rental_uris":{"android":"levelo://app?vid=9465545f-af87-4599-bf7e-091832e32b7b","ios":"levelo://app?vid=9465545f-af87-4599-bf7e-091832e32b7b"},"vehicle_type_id":"4","last_reported":1732558393,"current_range_meters":24400,"station_id":"ce4bgih2rcd13ifvqba0","pricing_plan_id":"cebpf4jnsgd1na2vs0mg"},{"bike_id":"1ea63947-abab-4a62-970d-2e53c115e398","system_id":"levelo_inurba_marseille","lat":43.310815,"lon":5.383701,"is_reserved":false,"is_disabled":false,"rental_uris":{"android":"levelo://app?vid=1ea63947-abab-4a62-970d-2e53c115e398","ios":"levelo://app?vid=1ea63947-abab-4a62-970d-2e53c115e398"},"vehicle_type_id":"4","last_reported":1732558393,"current_range_meters":30400,"station_id":"","pricing_plan_id":"cebpf4jnsgd1na2vs0mg"},{"bike_id":"835b00c2-64c0-4cbe-82bb-c78dd70919e3","system_id":"levelo_inurba_marseille","lat":43.27972,"lon":5.40793,"is_reserved":false,"is_disabled":false,"rental_uris":{"android":"levelo://app?vid=835b00c2-64c0-4cbe-82bb-c78dd70919e3","ios":"levelo://app?vid=835b00c2-64c0-4cbe-82bb-c78dd70919e3"},"vehicle_type_id":"4","last_reported":1732558393,"current_range_meters":6800,"station_id":"","pricing_plan_id":"cebpf4jnsgd1na2vs0mg"},{"bike_id":"6d7e4586-4fd7-4a8f-ae40-5ac995ccea84","system_id":"levelo_inurba_marseille","lat":43.29038,"lon":5.35924,"is_reserved":false,"is_disabled":false,"rental_uris":{"android":"levelo://app?vid=6d7e4586-4fd7-4a8f-ae40-5ac995ccea84","ios":"levelo://app?vid=6d7e4586-4fd7-4a8f-ae40-5ac995ccea84"},"vehicle_type_id":"4","last_reported":1732558393,"current_range_meters":24800,"station_id":"ce4bha92rcd13ifvqeg0","pricing_plan_id":"cebpf4jnsgd1na2vs0mg"},{"bike_id":"9382e0e6-aeec-49e9-b4ac-050f3043c334","system_id":"levelo_inurba_marseille","lat":43.24184,"lon":5.39725,"is_reserved":false,"is_disabled":false,"rental_uris":{"android":"levelo://app?vid=9382e0e6-aeec-49e9-b4ac-050f3043c334","ios":"levelo://app?vid=9382e0e6-aeec-49e9-b4ac-050f3043c334"},"vehicle_type_id":"4","last_reported":1732558393,"current_range_meters":28800,"station_id":"ce4bhn12rcd13ifvqgpg","pricing_plan_id":"cebpf4jnsgd1na2vs0mg"},{"bike_id":"cdea59b3-474c-435a-97c9-7a97db92633d","system_id":"levelo_inurba_marseille","lat":43.30796,"lon":5.43523,"is_reserved":false,"is_disabled":false,"rental_uris":{"android":"levelo://app?vid=cdea59b3-474c-435a-97c9-7a97db92633d","ios":"levelo://app?vid=cdea59b3-474c-435a-97c9-7a97db92633d"},"vehicle_type_id":"4","last_reported":1732558393,"current_range_meters":38800,"station_id":"ce4bhph2rcd13ifvqheg","pricing_plan_id":"cebpf4jnsgd1na2vs0mg"},{"bike_id":"754501a0-613d-4706-8af3-47f1ca670c6e","system_id":"levelo_inurba_marseille","lat":43.31696,"lon":5.37755,"is_reserved":false,"is_disabled":false,"rental_uris":{"android":"levelo://app?vid=754501a0-613d-4706-8af3-47f1ca670c6e","ios":"levelo://app?vid=754501a0-613d-4706-8af3-47f1ca670c6e"},"vehicle_type_id":"4","last_reported":1732558393,"current_range_meters":29600,"station_id":"ce4bgth2rcd13ifvqch0","pricing_plan_id":"cebpf4jnsgd1na2vs0mg"},{"bike_id":"8ae484b1-67d8-4ac8-b753-d3d915250be7","system_id":"levelo_inurba_marseille","lat":43.2957,"lon":5.39961,"is_reserved":false,"is_disabled":false,"rental_uris":{"android":"levelo://app?vid=8ae484b1-67d8-4ac8-b753-d3d915250be7","ios":"levelo://app?vid=8ae484b1-67d8-4ac8-b753-d3d915250be7"},"vehicle_type_id":"4","last_reported":1732558393,"current_range_meters":22400,"station_id":"ce4bh312rcd13ifvqdj0","pricing_plan_id":"cebpf4jnsgd1na2vs0mg"},{"bike_id":"6a3fd39a-c250-4dd4-b686-2d108b9d5664","system_id":"levelo_inurba_marseille","lat":43.31166,"lon":5.38711,"is_reserved":false,"is_disabled":true,"rental_uris":{"android":"levelo://app?vid=6a3fd39a-c250-4dd4-b686-2d108b9d5664","ios":"levelo://app?vid=6a3fd39a-c250-4dd4-b686-2d108b9d5664"},"vehicle_type_id":"4","last_reported":1732558393,"current_range_meters":1200,"station_id":"ce4bgv12rcd13ifvqcp0","pricing_plan_id":"cebpf4jnsgd1na2vs0mg"},{"bike_id":"37d586da-a7a4-40c1-b6cf-fff1e4da8813","system_id":"levelo_inurba_marseille","lat":43.29448,"lon":5.39776,"is_reserved":false,"is_disabled":false,"rental_uris":{"android":"levelo://app?vid=37d586da-a7a4-40c1-b6cf-fff1e4da8813","ios":"levelo://app?vid=37d586da-a7a4-40c1-b6cf-fff1e4da8813"},"vehicle_type_id":"4","last_reported":1732558393,"current_range_meters":28000,"station_id":"ce4bh3h2rcd13ifvqdo0","pricing_plan_id":"cebpf4jnsgd1na2vs0mg"},{"bike_id":"5b8cd3b4-e243-4fba-aaf5-11d686fcd3e4","system_id":"levelo_inurba_marseille","lat":43.29,"lon":5.35601,"is_reserved":false,"is_disabled":true,"rental_uris":{"android":"levelo://app?vid=5b8cd3b4-e243-4fba-aaf5-11d686fcd3e4","ios":"levelo://app?vid=5b8cd3b4-e243-4fba-aaf5-11d686fcd3e4"},"vehicle_type_id":"4","last_reported":1732558393,"current_range_meters":27600,"station_id":"ce4bhb92rcd13ifvqen0","pricing_plan_id":"cebpf4jnsgd1na2vs0mg"},{"bike_id":"1b07003e-cc73-4485-a4bd-21adb5308083","system_id":"levelo_inurba_marseille","lat":43.27423,"lon":5.39409,"is_reserved":false,"is_disabled":true,"rental_uris":{"android":"levelo://app?vid=1b07003e-cc73-4485-a4bd-21adb5308083","ios":"levelo://app?vid=1b07003e-cc73-4485-a4bd-21adb5308083"},"vehicle_type_id":"4","last_reported":1732558393,"current_range_meters":0,"station_id":"ce4bhdp2rcd13ifvqf20","pricing_plan_id":"cebpf4jnsgd1na2vs0mg"},{"bike_id":"4dc2bf73-171b-46a0-b843-12276fc92806","system_id":"levelo_inurba_marseille","lat":43.2971,"lon":5.366,"is_reserved":false,"is_disabled":false,"rental_uris":{"android":"levelo://app?vid=4dc2bf73-171b-46a0-b843-12276fc92806","ios":"levelo://app?vid=4dc2bf73-171b-46a0-b843-12276fc92806"},"vehicle_type_id":"4","last_reported":1732558393,"current_range_meters":18800,"station_id":"ce4bgn12rcd13ifvqbt0","pricing_plan_id":"cebpf4jnsgd1na2vs0mg"},{"bike_id":"4ec4e069-038b-40bd-8b77-f157f9d065e1","system_id":"levelo_inurba_marseille","lat":43.28947,"lon":5.3663,"is_reserved":false,"is_disabled":true,"rental_uris":{"android":"levelo://app?vid=4ec4e069-038b-40bd-8b77-f157f9d065e1","ios":"levelo://app?vid=4ec4e069-038b-40bd-8b77-f157f9d065e1"},"vehicle_type_id":"4","last_reported":1732558393,"current_range_meters":0,"station_id":"ce4bhap2rcd13ifvqek0","pricing_plan_id":"cebpf4jnsgd1na2vs0mg"},{"bike_id":"50c2ccea-ab32-43f5-b2b1-e6696ef880e5","system_id":"levelo_inurba_marseille","lat":43.29443,"lon":5.39762,"is_reserved":false,"is_disabled":false,"rental_uris":{"android":"levelo://app?vid=50c2ccea-ab32-43f5-b2b1-e6696ef880e5","ios":"levelo://app?vid=50c2ccea-ab32-43f5-b2b1-e6696ef880e5"},"vehicle_type_id":"4","last_reported":1732558393,"current_range_meters":30000,"station_id":"ce4bh3h2rcd13ifvqdo0","pricing_plan_id":"cebpf4jnsgd1na2vs0mg"},{"bike_id":"586fa297-99f1-4711-a109-1929198c7d64","system_id":"levelo_inurba_marseille","lat":43.27831,"lon":5.39215,"is_reserved":false,"is_disabled":false,"rental_uris":{"android":"levelo://app?vid=586fa297-99f1-4711-a109-1929198c7d64","ios":"levelo://app?vid=586fa297-99f1-4711-a109-1929198c7d64"},"vehicle_type_id":"4","last_reported":1732558393,"current_range_meters":17600,"station_id":"ce4bhjp2rcd13ifvqga0","pricing_plan_id":"cebpf4jnsgd1na2vs0mg"},{"bike_id":"a8b63411-0564-4241-adb0-eed483ae6edd","system_id":"levelo_inurba_marseille","lat":43.27058,"lon":5.40259,"is_reserved":false,"is_disabled":false,"rental_uris":{"android":"levelo://app?vid=a8b63411-0564-4241-adb0-eed483ae6edd","ios":"levelo://app?vid=a8b63411-0564-4241-adb0-eed483ae6edd"},"vehicle_type_id":"4","last_reported":1732558393,"current_range_meters":19600,"station_id":"ce4bhk92rcd13ifvqgc0","pricing_plan_id":"cebpf4jnsgd1na2vs0mg"},{"bike_id":"4b09fb6a-fdbd-4e8f-a6cf-841a52bf8390","system_id":"levelo_inurba_marseille","lat":43.33724,"lon":5.39183,"is_reserved":false,"is_disabled":false,"rental_uris":{"android":"levelo://app?vid=4b09fb6a-fdbd-4e8f-a6cf-841a52bf8390","ios":"levelo://app?vid=4b09fb6a-fdbd-4e8f-a6cf-841a52bf8390"},"vehicle_type_id":"4","last_reported":1732558393,"current_range_meters":8400,"station_id":"ce4bhr92rcd13ifvqhsg","pricing_plan_id":"cebpf4jnsgd1na2vs0mg"},{"bike_id":"aa26d5c9-7468-4ec6-b800-165f6c258672","system_id":"levelo_inurba_marseille","lat":43.30192,"lon":5.366473,"is_reserved":false,"is_disabled":false,"rental_uris":{"android":"levelo://app?vid=aa26d5c9-7468-4ec6-b800-165f6c258672","ios":"levelo://app?vid=aa26d5c9-7468-4ec6-b800-165f6c258672"},"vehicle_type_id":"4","last_reported":1732558393,"current_range_meters":3600,"station_id":"ce4bgrh2rcd13ifvqc8g","pricing_plan_id":"cebpf4jnsgd1na2vs0mg"},{"bike_id":"8ee2c111-db7d-4ca9-832b-b8283b7937bc","system_id":"levelo_inurba_marseille","lat":43.28155,"lon":5.4264,"is_reserved":false,"is_disabled":true,"rental_uris":{"android":"levelo://app?vid=8ee2c111-db7d-4ca9-832b-b8283b7937bc","ios":"levelo://app?vid=8ee2c111-db7d-4ca9-832b-b8283b7937bc"},"vehicle_type_id":"4","last_reported":1732558393,"current_range_meters":0,"station_id":"ce4bhnh2rcd13ifvqgug","pricing_plan_id":"cebpf4jnsgd1na2vs0mg"},{"bike_id":"653eb4ca-3250-459a-8490-2e0d220f5991","system_id":"levelo_inurba_marseille","lat":43.29623,"lon":5.38093,"is_reserved":false,"is_disabled":true,"rental_uris":{"android":"levelo://app?vid=653eb4ca-3250-459a-8490-2e0d220f5991","ios":"levelo://app?vid=653eb4ca-3250-459a-8490-2e0d220f5991"},"vehicle_type_id":"4","last_reported":1732558393,"current_range_meters":31200,"station_id":"ce4bgl12rcd13ifvqbo0","pricing_plan_id":"cebpf4jnsgd1na2vs0mg"},{"bike_id":"4bcf794d-d73e-4711-9e88-b8b02c611510","system_id":"levelo_inurba_marseille","lat":43.29788,"lon":5.37108,"is_reserved":false,"is_disabled":false,"rental_uris":{"android":"levelo://app?vid=4bcf794d-d73e-4711-9e88-b8b02c611510","ios":"levelo://app?vid=4bcf794d-d73e-4711-9e88-b8b02c611510"},"vehicle_type_id":"4","last_reported":1732558393,"current_range_meters":8800,"station_id":"ce4bgop2rcd13ifvqc1g","pricing_plan_id":"cebpf4jnsgd1na2vs0mg"},{"bike_id":"511bde3c-2812-4591-83db-5db1f033e445","system_id":"levelo_inurba_marseille","lat":43.324465,"lon":5.38806,"is_reserved":false,"is_disabled":false,"rental_uris":{"android":"levelo://app?vid=511bde3c-2812-4591-83db-5db1f033e445","ios":"levelo://app?vid=511bde3c-2812-4591-83db-5db1f033e445"},"vehicle_type_id":"4","last_reported":1732558393,"current_range_meters":24800,"station_id":"ce4bhqp2rcd13ifvqhog","pricing_plan_id":"cebpf4jnsgd1na2vs0mg"},{"bike_id":"4b790b61-7441-40dd-9d44-b01b911d0540","system_id":"levelo_inurba_marseille","lat":43.29841,"lon":5.36279,"is_reserved":false,"is_disabled":false,"rental_uris":{"android":"levelo://app?vid=4b790b61-7441-40dd-9d44-b01b911d0540","ios":"levelo://app?vid=4b790b61-7441-40dd-9d44-b01b911d0540"},"vehicle_type_id":"4","last_reported":1732558393,"current_range_meters":32400,"station_id":"ce4bgpp2rcd13ifvqc3g","pricing_plan_id":"cebpf4jnsgd1na2vs0mg"},{"bike_id":"aa717be1-dcce-416b-90e1-180e376a1e41","system_id":"levelo_inurba_marseille","lat":43.337444,"lon":5.374475,"is_reserved":false,"is_disabled":false,"rental_uris":{"android":"levelo://app?vid=aa717be1-dcce-416b-90e1-180e376a1e41","ios":"levelo://app?vid=aa717be1-dcce-416b-90e1-180e376a1e41"},"vehicle_type_id":"4","last_reported":1732558393,"current_range_meters":36800,"station_id":"","pricing_plan_id":"cebpf4jnsgd1na2vs0mg"},{"bike_id":"2a09209b-9e53-4e93-a4c9-9ab475d29893","system_id":"levelo_inurba_marseille","lat":43.3024,"lon":5.37441,"is_reserved":false,"is_disabled":true,"rental_uris":{"android":"levelo://app?vid=2a09209b-9e53-4e93-a4c9-9ab475d29893","ios":"levelo://app?vid=2a09209b-9e53-4e93-a4c9-9ab475d29893"},"vehicle_type_id":"4","last_reported":1732558393,"current_range_meters":20400,"station_id":"","pricing_plan_id":"cebpf4jnsgd1na2vs0mg"},{"bike_id":"294eeb79-af1b-495a-909f-216801ae6b41","system_id":"levelo_inurba_marseille","lat":43.3374,"lon":5.37449,"is_reserved":false,"is_disabled":false,"rental_uris":{"android":"levelo://app?vid=294eeb79-af1b-495a-909f-216801ae6b41","ios":"levelo://app?vid=294eeb79-af1b-495a-909f-216801ae6b41"},"vehicle_type_id":"4","last_reported":1732558393,"current_range_meters":12400,"station_id":"","pricing_plan_id":"cebpf4jnsgd1na2vs0mg"},{"bike_id":"537560b4-9094-4fb6-af68-76134d66b81a","system_id":"levelo_inurba_marseille","lat":43.29883,"lon":5.3974,"is_reserved":false,"is_disabled":true,"rental_uris":{"android":"levelo://app?vid=537560b4-9094-4fb6-af68-76134d66b81a","ios":"levelo://app?vid=537560b4-9094-4fb6-af68-76134d66b81a"},"vehicle_type_id":"4","last_reported":1732558393,"current_range_meters":32400,"station_id":"ce4bh0h2rcd13ifvqd50","pricing_plan_id":"cebpf4jnsgd1na2vs0mg"},{"bike_id":"d47f5179-a188-4079-8657-63ff1f186bdd","system_id":"levelo_inurba_marseille","lat":43.26947,"lon":5.40249,"is_reserved":false,"is_disabled":true,"rental_uris":{"android":"levelo://app?vid=d47f5179-a188-4079-8657-63ff1f186bdd","ios":"levelo://app?vid=d47f5179-a188-4079-8657-63ff1f186bdd"},"vehicle_type_id":"4","last_reported":1732558393,"current_range_meters":0,"station_id":"cjm6bp8fraef2m0cb0m0","pricing_plan_id":"cebpf4jnsgd1na2vs0mg"},{"bike_id":"e02c369f-dc2e-470a-8090-b6b3f81b123a","system_id":"levelo_inurba_marseille","lat":43.29005,"lon":5.35609,"is_reserved":false,"is_disabled":false,"rental_uris":{"android":"levelo://app?vid=e02c369f-dc2e-470a-8090-b6b3f81b123a","ios":"levelo://app?vid=e02c369f-dc2e-470a-8090-b6b3f81b123a"},"vehicle_type_id":"4","last_reported":1732558393,"current_range_meters":38400,"station_id":"ce4bhb92rcd13ifvqen0","pricing_plan_id":"cebpf4jnsgd1na2vs0mg"},{"bike_id":"03cbc86d-a639-4080-82b5-3aed46c2ff8e","system_id":"levelo_inurba_marseille","lat":43.29009,"lon":5.35617,"is_reserved":false,"is_disabled":false,"rental_uris":{"android":"levelo://app?vid=03cbc86d-a639-4080-82b5-3aed46c2ff8e","ios":"levelo://app?vid=03cbc86d-a639-4080-82b5-3aed46c2ff8e"},"vehicle_type_id":"4","last_reported":1732558393,"current_range_meters":34000,"station_id":"ce4bhb92rcd13ifvqen0","pricing_plan_id":"cebpf4jnsgd1na2vs0mg"},{"bike_id":"3d81fc27-80da-4bfc-887c-c7b93dd71ca1","system_id":"levelo_inurba_marseille","lat":43.26944,"lon":5.40246,"is_reserved":false,"is_disabled":true,"rental_uris":{"android":"levelo://app?vid=3d81fc27-80da-4bfc-887c-c7b93dd71ca1","ios":"levelo://app?vid=3d81fc27-80da-4bfc-887c-c7b93dd71ca1"},"vehicle_type_id":"4","last_reported":1732558393,"current_range_meters":0,"station_id":"cjm6bp8fraef2m0cb0m0","pricing_plan_id":"cebpf4jnsgd1na2vs0mg"},{"bike_id":"777b7fed-d395-4c97-b504-dee7c3479d4f","system_id":"levelo_inurba_marseille","lat":43.29836,"lon":5.3785,"is_reserved":false,"is_disabled":true,"rental_uris":{"android":"levelo://app?vid=777b7fed-d395-4c97-b504-dee7c3479d4f","ios":"levelo://app?vid=777b7fed-d395-4c97-b504-dee7c3479d4f"},"vehicle_type_id":"4","last_reported":1732558393,"current_range_meters":0,"station_id":"","pricing_plan_id":"cebpf4jnsgd1na2vs0mg"},{"bike_id":"cd78312a-142a-42d0-92e1-dbc654bf8bb4","system_id":"levelo_inurba_marseille","lat":43.24184,"lon":5.3972,"is_reserved":false,"is_disabled":true,"rental_uris":{"android":"levelo://app?vid=cd78312a-142a-42d0-92e1-dbc654bf8bb4","ios":"levelo://app?vid=cd78312a-142a-42d0-92e1-dbc654bf8bb4"},"vehicle_type_id":"4","last_reported":1732558393,"current_range_meters":3200,"station_id":"ce4bhn12rcd13ifvqgpg","pricing_plan_id":"cebpf4jnsgd1na2vs0mg"},{"bike_id":"1ba1290c-0e7a-4fa3-a000-f7e576e8cc03","system_id":"levelo_inurba_marseille","lat":43.28355,"lon":5.381,"is_reserved":false,"is_disabled":false,"rental_uris":{"android":"levelo://app?vid=1ba1290c-0e7a-4fa3-a000-f7e576e8cc03","ios":"levelo://app?vid=1ba1290c-0e7a-4fa3-a000-f7e576e8cc03"},"vehicle_type_id":"4","last_reported":1732558393,"current_range_meters":12400,"station_id":"ce4bh412rcd13ifvqdr0","pricing_plan_id":"cebpf4jnsgd1na2vs0mg"},{"bike_id":"d3482130-ac92-46c2-b26c-eb08be21194e","system_id":"levelo_inurba_marseille","lat":43.2816,"lon":5.42645,"is_reserved":false,"is_disabled":true,"rental_uris":{"android":"levelo://app?vid=d3482130-ac92-46c2-b26c-eb08be21194e","ios":"levelo://app?vid=d3482130-ac92-46c2-b26c-eb08be21194e"},"vehicle_type_id":"4","last_reported":1732558393,"current_range_meters":0,"station_id":"ce4bhnh2rcd13ifvqgug","pricing_plan_id":"cebpf4jnsgd1na2vs0mg"},{"bike_id":"8d9b5eca-df1e-45d2-aa96-e86919344716","system_id":"levelo_inurba_marseille","lat":43.24546,"lon":5.39527,"is_reserved":false,"is_disabled":false,"rental_uris":{"android":"levelo://app?vid=8d9b5eca-df1e-45d2-aa96-e86919344716","ios":"levelo://app?vid=8d9b5eca-df1e-45d2-aa96-e86919344716"},"vehicle_type_id":"4","last_reported":1732558393,"current_range_meters":18000,"station_id":"ce4bhlp2rcd13ifvqgjg","pricing_plan_id":"cebpf4jnsgd1na2vs0mg"},{"bike_id":"dd5ab154-647e-4dfa-88f1-0f781c7552f5","system_id":"levelo_inurba_marseille","lat":43.25579,"lon":5.38244,"is_reserved":false,"is_disabled":false,"rental_uris":{"android":"levelo://app?vid=dd5ab154-647e-4dfa-88f1-0f781c7552f5","ios":"levelo://app?vid=dd5ab154-647e-4dfa-88f1-0f781c7552f5"},"vehicle_type_id":"4","last_reported":1732558393,"current_range_meters":20400,"station_id":"ce4bhih2rcd13ifvqfs0","pricing_plan_id":"cebpf4jnsgd1na2vs0mg"},{"bike_id":"f90b5ae0-d91c-4007-bac3-1bc86ce63375","system_id":"levelo_inurba_marseille","lat":43.25825,"lon":5.39431,"is_reserved":false,"is_disabled":false,"rental_uris":{"android":"levelo://app?vid=f90b5ae0-d91c-4007-bac3-1bc86ce63375","ios":"levelo://app?vid=f90b5ae0-d91c-4007-bac3-1bc86ce63375"},"vehicle_type_id":"4","last_reported":1732558393,"current_range_meters":20000,"station_id":"ce4bhip2rcd13ifvqft0","pricing_plan_id":"cebpf4jnsgd1na2vs0mg"},{"bike_id":"39b04c21-6a6a-40a7-a489-741c2b67c9bd","system_id":"levelo_inurba_marseille","lat":43.33728,"lon":5.3919,"is_reserved":false,"is_disabled":false,"rental_uris":{"android":"levelo://app?vid=39b04c21-6a6a-40a7-a489-741c2b67c9bd","ios":"levelo://app?vid=39b04c21-6a6a-40a7-a489-741c2b67c9bd"},"vehicle_type_id":"4","last_reported":1732558393,"current_range_meters":22000,"station_id":"ce4bhr92rcd13ifvqhsg","pricing_plan_id":"cebpf4jnsgd1na2vs0mg"},{"bike_id":"286e3948-07ae-4802-8804-293973ad1f43","system_id":"levelo_inurba_marseille","lat":43.3111,"lon":5.3778,"is_reserved":false,"is_disabled":true,"rental_uris":{"android":"levelo://app?vid=286e3948-07ae-4802-8804-293973ad1f43","ios":"levelo://app?vid=286e3948-07ae-4802-8804-293973ad1f43"},"vehicle_type_id":"4","last_reported":1732558393,"current_range_meters":32000,"station_id":"ce4bgt92rcd13ifvqcg0","pricing_plan_id":"cebpf4jnsgd1na2vs0mg"},{"bike_id":"12b9c446-415b-48f2-a231-271a1342a007","system_id":"levelo_inurba_marseille","lat":43.28677,"lon":5.38663,"is_reserved":false,"is_disabled":false,"rental_uris":{"android":"levelo://app?vid=12b9c446-415b-48f2-a231-271a1342a007","ios":"levelo://app?vid=12b9c446-415b-48f2-a231-271a1342a007"},"vehicle_type_id":"4","last_reported":1732558393,"current_range_meters":33200,"station_id":"ce4bh492rcd13ifvqdug","pricing_plan_id":"cebpf4jnsgd1na2vs0mg"},{"bike_id":"24fc129a-3a98-4f25-9554-234fc3a2dc8d","system_id":"levelo_inurba_marseille","lat":43.30428,"lon":5.41272,"is_reserved":false,"is_disabled":true,"rental_uris":{"android":"levelo://app?vid=24fc129a-3a98-4f25-9554-234fc3a2dc8d","ios":"levelo://app?vid=24fc129a-3a98-4f25-9554-234fc3a2dc8d"},"vehicle_type_id":"4","last_reported":1732558393,"current_range_meters":24400,"station_id":"ce4bhop2rcd13ifvqh8g","pricing_plan_id":"cebpf4jnsgd1na2vs0mg"},{"bike_id":"2ca0ec58-af92-4cf3-8ba9-ed227a42efc4","system_id":"levelo_inurba_marseille","lat":43.24389,"lon":5.3706,"is_reserved":false,"is_disabled":false,"rental_uris":{"android":"levelo://app?vid=2ca0ec58-af92-4cf3-8ba9-ed227a42efc4","ios":"levelo://app?vid=2ca0ec58-af92-4cf3-8ba9-ed227a42efc4"},"vehicle_type_id":"4","last_reported":1732558393,"current_range_meters":9200,"station_id":"ce4bhhh2rcd13ifvqfk0","pricing_plan_id":"cebpf4jnsgd1na2vs0mg"},{"bike_id":"07f55eb1-e7a7-41f5-921e-ee62144bbb7b","system_id":"levelo_inurba_marseille","lat":43.27811,"lon":5.40716,"is_reserved":false,"is_disabled":false,"rental_uris":{"android":"levelo://app?vid=07f55eb1-e7a7-41f5-921e-ee62144bbb7b","ios":"levelo://app?vid=07f55eb1-e7a7-41f5-921e-ee62144bbb7b"},"vehicle_type_id":"4","last_reported":1732558393,"current_range_meters":36000,"station_id":"ce4bhnh2rcd13ifvqgtg","pricing_plan_id":"cebpf4jnsgd1na2vs0mg"},{"bike_id":"fdc90e3c-9b9a-42c7-a1b0-c01755434381","system_id":"levelo_inurba_marseille","lat":43.25597,"lon":5.38236,"is_reserved":false,"is_disabled":false,"rental_uris":{"android":"levelo://app?vid=fdc90e3c-9b9a-42c7-a1b0-c01755434381","ios":"levelo://app?vid=fdc90e3c-9b9a-42c7-a1b0-c01755434381"},"vehicle_type_id":"4","last_reported":1732558393,"current_range_meters":38800,"station_id":"ce4bhih2rcd13ifvqfs0","pricing_plan_id":"cebpf4jnsgd1na2vs0mg"},{"bike_id":"45df81e2-5062-4d6c-8f6a-4bcb4627b44a","system_id":"levelo_inurba_marseille","lat":43.28464,"lon":5.35888,"is_reserved":false,"is_disabled":true,"rental_uris":{"android":"levelo://app?vid=45df81e2-5062-4d6c-8f6a-4bcb4627b44a","ios":"levelo://app?vid=45df81e2-5062-4d6c-8f6a-4bcb4627b44a"},"vehicle_type_id":"4","last_reported":1732558393,"current_range_meters":20400,"station_id":"ce4bhah2rcd13ifvqei0","pricing_plan_id":"cebpf4jnsgd1na2vs0mg"},{"bike_id":"120383cf-2453-4786-bbb8-39853ee211c7","system_id":"levelo_inurba_marseille","lat":43.24066,"lon":5.37763,"is_reserved":false,"is_disabled":true,"rental_uris":{"android":"levelo://app?vid=120383cf-2453-4786-bbb8-39853ee211c7","ios":"levelo://app?vid=120383cf-2453-4786-bbb8-39853ee211c7"},"vehicle_type_id":"4","last_reported":1732558393,"current_range_meters":0,"station_id":"ce4bhnp2rcd13ifvqgvg","pricing_plan_id":"cebpf4jnsgd1na2vs0mg"},{"bike_id":"99a2afdc-f816-4e36-bd15-33e921cb1899","system_id":"levelo_inurba_marseille","lat":43.25812,"lon":5.39429,"is_reserved":false,"is_disabled":false,"rental_uris":{"android":"levelo://app?vid=99a2afdc-f816-4e36-bd15-33e921cb1899","ios":"levelo://app?vid=99a2afdc-f816-4e36-bd15-33e921cb1899"},"vehicle_type_id":"4","last_reported":1732558393,"current_range_meters":17600,"station_id":"ce4bhip2rcd13ifvqft0","pricing_plan_id":"cebpf4jnsgd1na2vs0mg"},{"bike_id":"d8031f18-f805-4d9c-8a3a-31e0b8336e25","system_id":"levelo_inurba_marseille","lat":43.25116,"lon":5.40316,"is_reserved":false,"is_disabled":true,"rental_uris":{"android":"levelo://app?vid=d8031f18-f805-4d9c-8a3a-31e0b8336e25","ios":"levelo://app?vid=d8031f18-f805-4d9c-8a3a-31e0b8336e25"},"vehicle_type_id":"4","last_reported":1732558393,"current_range_meters":0,"station_id":"ce4bhlh2rcd13ifvqgig","pricing_plan_id":"cebpf4jnsgd1na2vs0mg"},{"bike_id":"62bcad95-d3e2-434c-81f4-127757d19c4c","system_id":"levelo_inurba_marseille","lat":43.29217,"lon":5.39596,"is_reserved":false,"is_disabled":true,"rental_uris":{"android":"levelo://app?vid=62bcad95-d3e2-434c-81f4-127757d19c4c","ios":"levelo://app?vid=62bcad95-d3e2-434c-81f4-127757d19c4c"},"vehicle_type_id":"4","last_reported":1732558393,"current_range_meters":0,"station_id":"","pricing_plan_id":"cebpf4jnsgd1na2vs0mg"},{"bike_id":"e0acdd45-da0a-4770-a2d8-6e0fcfd38f9d","system_id":"levelo_inurba_marseille","lat":43.286643,"lon":5.363417,"is_reserved":false,"is_disabled":false,"rental_uris":{"android":"levelo://app?vid=e0acdd45-da0a-4770-a2d8-6e0fcfd38f9d","ios":"levelo://app?vid=e0acdd45-da0a-4770-a2d8-6e0fcfd38f9d"},"vehicle_type_id":"4","last_reported":1732558393,"current_range_meters":38800,"station_id":"ce4bhah2rcd13ifvqej0","pricing_plan_id":"cebpf4jnsgd1na2vs0mg"},{"bike_id":"662a5e3c-14ae-4b0d-b32a-d0fa7b222538","system_id":"levelo_inurba_marseille","lat":43.29854,"lon":5.36287,"is_reserved":false,"is_disabled":false,"rental_uris":{"android":"levelo://app?vid=662a5e3c-14ae-4b0d-b32a-d0fa7b222538","ios":"levelo://app?vid=662a5e3c-14ae-4b0d-b32a-d0fa7b222538"},"vehicle_type_id":"4","last_reported":1732558393,"current_range_meters":4800,"station_id":"ce4bgpp2rcd13ifvqc3g","pricing_plan_id":"cebpf4jnsgd1na2vs0mg"},{"bike_id":"36296f5c-0176-4be0-97c8-7930cda9c369","system_id":"levelo_inurba_marseille","lat":43.32109,"lon":5.36771,"is_reserved":false,"is_disabled":false,"rental_uris":{"android":"levelo://app?vid=36296f5c-0176-4be0-97c8-7930cda9c369","ios":"levelo://app?vid=36296f5c-0176-4be0-97c8-7930cda9c369"},"vehicle_type_id":"4","last_reported":1732558393,"current_range_meters":25600,"station_id":"ce4bhrh2rcd13ifvqhug","pricing_plan_id":"cebpf4jnsgd1na2vs0mg"},{"bike_id":"b9f550e6-10c3-40ac-9b1d-624567266dd8","system_id":"levelo_inurba_marseille","lat":43.32479,"lon":5.36564,"is_reserved":false,"is_disabled":false,"rental_uris":{"android":"levelo://app?vid=b9f550e6-10c3-40ac-9b1d-624567266dd8","ios":"levelo://app?vid=b9f550e6-10c3-40ac-9b1d-624567266dd8"},"vehicle_type_id":"4","last_reported":1732558393,"current_range_meters":24800,"station_id":"ce4bhs12rcd13ifvqhvg","pricing_plan_id":"cebpf4jnsgd1na2vs0mg"},{"bike_id":"87703e69-e2dd-47ca-ac7c-d25cc03900f2","system_id":"levelo_inurba_marseille","lat":43.31064,"lon":5.40079,"is_reserved":false,"is_disabled":false,"rental_uris":{"android":"levelo://app?vid=87703e69-e2dd-47ca-ac7c-d25cc03900f2","ios":"levelo://app?vid=87703e69-e2dd-47ca-ac7c-d25cc03900f2"},"vehicle_type_id":"4","last_reported":1732558393,"current_range_meters":17200,"station_id":"","pricing_plan_id":"cebpf4jnsgd1na2vs0mg"},{"bike_id":"9e19fc27-cd6e-4bc0-9c92-b48e3ff104f9","system_id":"levelo_inurba_marseille","lat":43.23185,"lon":5.39977,"is_reserved":false,"is_disabled":false,"rental_uris":{"android":"levelo://app?vid=9e19fc27-cd6e-4bc0-9c92-b48e3ff104f9","ios":"levelo://app?vid=9e19fc27-cd6e-4bc0-9c92-b48e3ff104f9"},"vehicle_type_id":"4","last_reported":1732558393,"current_range_meters":8400,"station_id":"ce4bhn12rcd13ifvqgqg","pricing_plan_id":"cebpf4jnsgd1na2vs0mg"},{"bike_id":"9d6b0628-f9e8-4472-bd96-4763a04b6a01","system_id":"levelo_inurba_marseille","lat":43.30223,"lon":5.39469,"is_reserved":false,"is_disabled":false,"rental_uris":{"android":"levelo://app?vid=9d6b0628-f9e8-4472-bd96-4763a04b6a01","ios":"levelo://app?vid=9d6b0628-f9e8-4472-bd96-4763a04b6a01"},"vehicle_type_id":"4","last_reported":1732558393,"current_range_meters":38800,"station_id":"ce4bh0p2rcd13ifvqd70","pricing_plan_id":"cebpf4jnsgd1na2vs0mg"},{"bike_id":"17df1acc-b184-4160-8c5c-8b83edc898fb","system_id":"levelo_inurba_marseille","lat":43.2679,"lon":5.39413,"is_reserved":false,"is_disabled":false,"rental_uris":{"android":"levelo://app?vid=17df1acc-b184-4160-8c5c-8b83edc898fb","ios":"levelo://app?vid=17df1acc-b184-4160-8c5c-8b83edc898fb"},"vehicle_type_id":"4","last_reported":1732558393,"current_range_meters":8000,"station_id":"ce4bhh12rcd13ifvqfg0","pricing_plan_id":"cebpf4jnsgd1na2vs0mg"},{"bike_id":"1ebc2642-599e-41e5-89df-308a45bbfcfb","system_id":"levelo_inurba_marseille","lat":43.32101,"lon":5.36778,"is_reserved":false,"is_disabled":false,"rental_uris":{"android":"levelo://app?vid=1ebc2642-599e-41e5-89df-308a45bbfcfb","ios":"levelo://app?vid=1ebc2642-599e-41e5-89df-308a45bbfcfb"},"vehicle_type_id":"4","last_reported":1732558393,"current_range_meters":19200,"station_id":"ce4bhrh2rcd13ifvqhug","pricing_plan_id":"cebpf4jnsgd1na2vs0mg"},{"bike_id":"adb97cdb-ba56-4d4d-bd28-9df392fcde77","system_id":"levelo_inurba_marseille","lat":43.28835,"lon":5.37289,"is_reserved":false,"is_disabled":false,"rental_uris":{"android":"levelo://app?vid=adb97cdb-ba56-4d4d-bd28-9df392fcde77","ios":"levelo://app?vid=adb97cdb-ba56-4d4d-bd28-9df392fcde77"},"vehicle_type_id":"4","last_reported":1732558393,"current_range_meters":37600,"station_id":"ce4bgrh2rcd13ifvqc8g","pricing_plan_id":"cebpf4jnsgd1na2vs0mg"},{"bike_id":"2134fce6-abea-4e3b-93a1-71a390c5050d","system_id":"levelo_inurba_marseille","lat":43.30234,"lon":5.40057,"is_reserved":false,"is_disabled":false,"rental_uris":{"android":"levelo://app?vid=2134fce6-abea-4e3b-93a1-71a390c5050d","ios":"levelo://app?vid=2134fce6-abea-4e3b-93a1-71a390c5050d"},"vehicle_type_id":"4","last_reported":1732558393,"current_range_meters":12400,"station_id":"","pricing_plan_id":"cebpf4jnsgd1na2vs0mg"},{"bike_id":"4bda66df-ca57-4b1d-9f82-654d7b0e75b5","system_id":"levelo_inurba_marseille","lat":43.25087,"lon":5.39515,"is_reserved":false,"is_disabled":false,"rental_uris":{"android":"levelo://app?vid=4bda66df-ca57-4b1d-9f82-654d7b0e75b5","ios":"levelo://app?vid=4bda66df-ca57-4b1d-9f82-654d7b0e75b5"},"vehicle_type_id":"4","last_reported":1732558393,"current_range_meters":29600,"station_id":"ce4bhm12rcd13ifvqgkg","pricing_plan_id":"cebpf4jnsgd1na2vs0mg"},{"bike_id":"3f39a76d-2c9d-4383-b129-d6aff5b5be8e","system_id":"levelo_inurba_marseille","lat":43.29874,"lon":5.39737,"is_reserved":false,"is_disabled":false,"rental_uris":{"android":"levelo://app?vid=3f39a76d-2c9d-4383-b129-d6aff5b5be8e","ios":"levelo://app?vid=3f39a76d-2c9d-4383-b129-d6aff5b5be8e"},"vehicle_type_id":"4","last_reported":1732558393,"current_range_meters":38800,"station_id":"ce4bh0h2rcd13ifvqd50","pricing_plan_id":"cebpf4jnsgd1na2vs0mg"},{"bike_id":"5bf94cec-5d70-4fe6-850b-65fe88c67777","system_id":"levelo_inurba_marseille","lat":43.30536,"lon":5.36546,"is_reserved":false,"is_disabled":true,"rental_uris":{"android":"levelo://app?vid=5bf94cec-5d70-4fe6-850b-65fe88c67777","ios":"levelo://app?vid=5bf94cec-5d70-4fe6-850b-65fe88c67777"},"vehicle_type_id":"4","last_reported":1732558393,"current_range_meters":7200,"station_id":"ce4bgs12rcd13ifvqcag","pricing_plan_id":"cebpf4jnsgd1na2vs0mg"},{"bike_id":"2495b441-39ff-4d05-9add-5c136ffeb4ba","system_id":"levelo_inurba_marseille","lat":43.293,"lon":5.40504,"is_reserved":false,"is_disabled":false,"rental_uris":{"android":"levelo://app?vid=2495b441-39ff-4d05-9add-5c136ffeb4ba","ios":"levelo://app?vid=2495b441-39ff-4d05-9add-5c136ffeb4ba"},"vehicle_type_id":"4","last_reported":1732558393,"current_range_meters":26800,"station_id":"","pricing_plan_id":"cebpf4jnsgd1na2vs0mg"},{"bike_id":"018f100d-f73f-4495-bb02-f0c825321e6b","system_id":"levelo_inurba_marseille","lat":43.30141,"lon":5.39856,"is_reserved":false,"is_disabled":false,"rental_uris":{"android":"levelo://app?vid=018f100d-f73f-4495-bb02-f0c825321e6b","ios":"levelo://app?vid=018f100d-f73f-4495-bb02-f0c825321e6b"},"vehicle_type_id":"4","last_reported":1732558393,"current_range_meters":19600,"station_id":"ce4bh0h2rcd13ifvqd40","pricing_plan_id":"cebpf4jnsgd1na2vs0mg"},{"bike_id":"a2ee9e19-a1f6-4cc2-a658-cf020631f5a9","system_id":"levelo_inurba_marseille","lat":43.29827,"lon":5.364081,"is_reserved":false,"is_disabled":false,"rental_uris":{"android":"levelo://app?vid=a2ee9e19-a1f6-4cc2-a658-cf020631f5a9","ios":"levelo://app?vid=a2ee9e19-a1f6-4cc2-a658-cf020631f5a9"},"vehicle_type_id":"4","last_reported":1732558393,"current_range_meters":34000,"station_id":"ce4bgpp2rcd13ifvqc3g","pricing_plan_id":"cebpf4jnsgd1na2vs0mg"},{"bike_id":"cbc2167d-639d-4b33-b914-3ad6f36f2868","system_id":"levelo_inurba_marseille","lat":43.22931,"lon":5.3538,"is_reserved":false,"is_disabled":false,"rental_uris":{"android":"levelo://app?vid=cbc2167d-639d-4b33-b914-3ad6f36f2868","ios":"levelo://app?vid=cbc2167d-639d-4b33-b914-3ad6f36f2868"},"vehicle_type_id":"4","last_reported":1732558393,"current_range_meters":28800,"station_id":"cpo3532slgdg3j2ikp40","pricing_plan_id":"cebpf4jnsgd1na2vs0mg"},{"bike_id":"8ceee5c3-46b0-480c-9543-032b3c14be7f","system_id":"levelo_inurba_marseille","lat":43.29872,"lon":5.39727,"is_reserved":false,"is_disabled":false,"rental_uris":{"android":"levelo://app?vid=8ceee5c3-46b0-480c-9543-032b3c14be7f","ios":"levelo://app?vid=8ceee5c3-46b0-480c-9543-032b3c14be7f"},"vehicle_type_id":"4","last_reported":1732558393,"current_range_meters":21600,"station_id":"ce4bh0h2rcd13ifvqd50","pricing_plan_id":"cebpf4jnsgd1na2vs0mg"},{"bike_id":"cfbf7fa3-0615-4700-9b2b-aaa13ae7357c","system_id":"levelo_inurba_marseille","lat":43.27828,"lon":5.39193,"is_reserved":false,"is_disabled":true,"rental_uris":{"android":"levelo://app?vid=cfbf7fa3-0615-4700-9b2b-aaa13ae7357c","ios":"levelo://app?vid=cfbf7fa3-0615-4700-9b2b-aaa13ae7357c"},"vehicle_type_id":"4","last_reported":1732558393,"current_range_meters":800,"station_id":"ce4bhjp2rcd13ifvqga0","pricing_plan_id":"cebpf4jnsgd1na2vs0mg"},{"bike_id":"8ff6927a-74d0-4610-b648-3cc754f0f233","system_id":"levelo_inurba_marseille","lat":43.28036,"lon":5.42428,"is_reserved":false,"is_disabled":false,"rental_uris":{"android":"levelo://app?vid=8ff6927a-74d0-4610-b648-3cc754f0f233","ios":"levelo://app?vid=8ff6927a-74d0-4610-b648-3cc754f0f233"},"vehicle_type_id":"4","last_reported":1732558393,"current_range_meters":20800,"station_id":"","pricing_plan_id":"cebpf4jnsgd1na2vs0mg"},{"bike_id":"efa0ed00-6534-4e7c-8d71-07bb629caa92","system_id":"levelo_inurba_marseille","lat":43.2885,"lon":5.35846,"is_reserved":false,"is_disabled":false,"rental_uris":{"android":"levelo://app?vid=efa0ed00-6534-4e7c-8d71-07bb629caa92","ios":"levelo://app?vid=efa0ed00-6534-4e7c-8d71-07bb629caa92"},"vehicle_type_id":"4","last_reported":1732558393,"current_range_meters":36000,"station_id":"ce4bhb12rcd13ifvqem0","pricing_plan_id":"cebpf4jnsgd1na2vs0mg"},{"bike_id":"e8fb822d-9f15-4ece-b92a-a357e6a8f831","system_id":"levelo_inurba_marseille","lat":43.24805,"lon":5.37454,"is_reserved":false,"is_disabled":false,"rental_uris":{"android":"levelo://app?vid=e8fb822d-9f15-4ece-b92a-a357e6a8f831","ios":"levelo://app?vid=e8fb822d-9f15-4ece-b92a-a357e6a8f831"},"vehicle_type_id":"4","last_reported":1732558393,"current_range_meters":28800,"station_id":"ce4bhgh2rcd13ifvqfb0","pricing_plan_id":"cebpf4jnsgd1na2vs0mg"},{"bike_id":"abcc7733-24ca-40e7-bed8-88a154357983","system_id":"levelo_inurba_marseille","lat":43.337444,"lon":5.374475,"is_reserved":false,"is_disabled":false,"rental_uris":{"android":"levelo://app?vid=abcc7733-24ca-40e7-bed8-88a154357983","ios":"levelo://app?vid=abcc7733-24ca-40e7-bed8-88a154357983"},"vehicle_type_id":"4","last_reported":1732558393,"current_range_meters":12000,"station_id":"","pricing_plan_id":"cebpf4jnsgd1na2vs0mg"},{"bike_id":"d0b8d481-6f4e-47a6-8c5b-ee06770e49a6","system_id":"levelo_inurba_marseille","lat":43.3176,"lon":5.39015,"is_reserved":false,"is_disabled":false,"rental_uris":{"android":"levelo://app?vid=d0b8d481-6f4e-47a6-8c5b-ee06770e49a6","ios":"levelo://app?vid=d0b8d481-6f4e-47a6-8c5b-ee06770e49a6"},"vehicle_type_id":"4","last_reported":1732558393,"current_range_meters":38400,"station_id":"ce4bhqp2rcd13ifvqhng","pricing_plan_id":"cebpf4jnsgd1na2vs0mg"},{"bike_id":"27b44e78-fcc8-4770-be0f-2f8210bd5fee","system_id":"levelo_inurba_marseille","lat":43.33018,"lon":5.39038,"is_reserved":false,"is_disabled":false,"rental_uris":{"android":"levelo://app?vid=27b44e78-fcc8-4770-be0f-2f8210bd5fee","ios":"levelo://app?vid=27b44e78-fcc8-4770-be0f-2f8210bd5fee"},"vehicle_type_id":"4","last_reported":1732558393,"current_range_meters":20800,"station_id":"ce4bhr92rcd13ifvqhrg","pricing_plan_id":"cebpf4jnsgd1na2vs0mg"},{"bike_id":"706196de-0e8a-423e-9353-6d21b7d25ec5","system_id":"levelo_inurba_marseille","lat":43.28726,"lon":5.36092,"is_reserved":false,"is_disabled":false,"rental_uris":{"android":"levelo://app?vid=706196de-0e8a-423e-9353-6d21b7d25ec5","ios":"levelo://app?vid=706196de-0e8a-423e-9353-6d21b7d25ec5"},"vehicle_type_id":"4","last_reported":1732558393,"current_range_meters":30000,"station_id":"cki0cbj6b192h4jlfktg","pricing_plan_id":"cebpf4jnsgd1na2vs0mg"},{"bike_id":"0920fd8c-3809-4cef-81d9-980c6d92994d","system_id":"levelo_inurba_marseille","lat":43.23185,"lon":5.39978,"is_reserved":false,"is_disabled":false,"rental_uris":{"android":"levelo://app?vid=0920fd8c-3809-4cef-81d9-980c6d92994d","ios":"levelo://app?vid=0920fd8c-3809-4cef-81d9-980c6d92994d"},"vehicle_type_id":"4","last_reported":1732558393,"current_range_meters":13600,"station_id":"ce4bhn12rcd13ifvqgqg","pricing_plan_id":"cebpf4jnsgd1na2vs0mg"},{"bike_id":"b5fc7f30-fa99-4d5e-8c5b-c1b30a679d91","system_id":"levelo_inurba_marseille","lat":43.286235,"lon":5.36193,"is_reserved":false,"is_disabled":false,"rental_uris":{"android":"levelo://app?vid=b5fc7f30-fa99-4d5e-8c5b-c1b30a679d91","ios":"levelo://app?vid=b5fc7f30-fa99-4d5e-8c5b-c1b30a679d91"},"vehicle_type_id":"4","last_reported":1732558393,"current_range_meters":32800,"station_id":"ce4bhap2rcd13ifvqek0","pricing_plan_id":"cebpf4jnsgd1na2vs0mg"},{"bike_id":"ee30cd3d-5334-4fc1-b8ac-a6fbd9bc84d3","system_id":"levelo_inurba_marseille","lat":43.24653,"lon":5.38901,"is_reserved":false,"is_disabled":true,"rental_uris":{"android":"levelo://app?vid=ee30cd3d-5334-4fc1-b8ac-a6fbd9bc84d3","ios":"levelo://app?vid=ee30cd3d-5334-4fc1-b8ac-a6fbd9bc84d3"},"vehicle_type_id":"4","last_reported":1732558393,"current_range_meters":0,"station_id":"ce4bhg12rcd13ifvqf60","pricing_plan_id":"cebpf4jnsgd1na2vs0mg"},{"bike_id":"bc32efd4-eba9-4643-bcc0-91722bce0a8c","system_id":"levelo_inurba_marseille","lat":43.29047,"lon":5.3998,"is_reserved":false,"is_disabled":false,"rental_uris":{"android":"levelo://app?vid=bc32efd4-eba9-4643-bcc0-91722bce0a8c","ios":"levelo://app?vid=bc32efd4-eba9-4643-bcc0-91722bce0a8c"},"vehicle_type_id":"4","last_reported":1732558393,"current_range_meters":38000,"station_id":"ce4bh392rcd13ifvqdm0","pricing_plan_id":"cebpf4jnsgd1na2vs0mg"},{"bike_id":"ed00ff1c-a428-4ce5-a455-260378e65da7","system_id":"levelo_inurba_marseille","lat":43.28798,"lon":5.40018,"is_reserved":false,"is_disabled":true,"rental_uris":{"android":"levelo://app?vid=ed00ff1c-a428-4ce5-a455-260378e65da7","ios":"levelo://app?vid=ed00ff1c-a428-4ce5-a455-260378e65da7"},"vehicle_type_id":"4","last_reported":1732558393,"current_range_meters":0,"station_id":"","pricing_plan_id":"cebpf4jnsgd1na2vs0mg"},{"bike_id":"9c9cda8c-65de-41ec-a6f6-ab7be57b8d59","system_id":"levelo_inurba_marseille","lat":43.27552,"lon":5.38418,"is_reserved":false,"is_disabled":true,"rental_uris":{"android":"levelo://app?vid=9c9cda8c-65de-41ec-a6f6-ab7be57b8d59","ios":"levelo://app?vid=9c9cda8c-65de-41ec-a6f6-ab7be57b8d59"},"vehicle_type_id":"4","last_reported":1732558393,"current_range_meters":24800,"station_id":"ce4bhh92rcd13ifvqfi0","pricing_plan_id":"cebpf4jnsgd1na2vs0mg"},{"bike_id":"698d9b65-03c7-46b7-a482-044618297a1d","system_id":"levelo_inurba_marseille","lat":43.28568,"lon":5.39481,"is_reserved":false,"is_disabled":false,"rental_uris":{"android":"levelo://app?vid=698d9b65-03c7-46b7-a482-044618297a1d","ios":"levelo://app?vid=698d9b65-03c7-46b7-a482-044618297a1d"},"vehicle_type_id":"4","last_reported":1732558393,"current_range_meters":18000,"station_id":"ce4bh292rcd13ifvqdg0","pricing_plan_id":"cebpf4jnsgd1na2vs0mg"},{"bike_id":"858b65e1-94fc-4151-a71e-8b168cb19dcb","system_id":"levelo_inurba_marseille","lat":43.32249,"lon":5.39241,"is_reserved":false,"is_disabled":true,"rental_uris":{"android":"levelo://app?vid=858b65e1-94fc-4151-a71e-8b168cb19dcb","ios":"levelo://app?vid=858b65e1-94fc-4151-a71e-8b168cb19dcb"},"vehicle_type_id":"4","last_reported":1732558393,"current_range_meters":1200,"station_id":"","pricing_plan_id":"cebpf4jnsgd1na2vs0mg"},{"bike_id":"04b6d0e1-855c-44e7-9f60-cd92e09aef69","system_id":"levelo_inurba_marseille","lat":43.31265,"lon":5.4016,"is_reserved":false,"is_disabled":false,"rental_uris":{"android":"levelo://app?vid=04b6d0e1-855c-44e7-9f60-cd92e09aef69","ios":"levelo://app?vid=04b6d0e1-855c-44e7-9f60-cd92e09aef69"},"vehicle_type_id":"4","last_reported":1732558393,"current_range_meters":32400,"station_id":"ce4bh092rcd13ifvqd30","pricing_plan_id":"cebpf4jnsgd1na2vs0mg"},{"bike_id":"a801a71e-0361-4486-a8b9-f7d85dde6820","system_id":"levelo_inurba_marseille","lat":43.31525,"lon":5.38036,"is_reserved":false,"is_disabled":false,"rental_uris":{"android":"levelo://app?vid=a801a71e-0361-4486-a8b9-f7d85dde6820","ios":"levelo://app?vid=a801a71e-0361-4486-a8b9-f7d85dde6820"},"vehicle_type_id":"4","last_reported":1732558393,"current_range_meters":10000,"station_id":"ce4bhsp2rcd13ifvqi50","pricing_plan_id":"cebpf4jnsgd1na2vs0mg"},{"bike_id":"2b076fd7-7460-4f2e-836d-531982b1a050","system_id":"levelo_inurba_marseille","lat":43.29628,"lon":5.37153,"is_reserved":false,"is_disabled":true,"rental_uris":{"android":"levelo://app?vid=2b076fd7-7460-4f2e-836d-531982b1a050","ios":"levelo://app?vid=2b076fd7-7460-4f2e-836d-531982b1a050"},"vehicle_type_id":"4","last_reported":1732558393,"current_range_meters":36400,"station_id":"ce4bgnh2rcd13ifvqc0g","pricing_plan_id":"cebpf4jnsgd1na2vs0mg"},{"bike_id":"27cd27b8-c4b5-45db-90ae-e48501681e5b","system_id":"levelo_inurba_marseille","lat":43.2945,"lon":5.39746,"is_reserved":false,"is_disabled":false,"rental_uris":{"android":"levelo://app?vid=27cd27b8-c4b5-45db-90ae-e48501681e5b","ios":"levelo://app?vid=27cd27b8-c4b5-45db-90ae-e48501681e5b"},"vehicle_type_id":"4","last_reported":1732558393,"current_range_meters":5600,"station_id":"ce4bh3h2rcd13ifvqdo0","pricing_plan_id":"cebpf4jnsgd1na2vs0mg"},{"bike_id":"760ff560-08c7-4435-8f89-2f5f8ad139c3","system_id":"levelo_inurba_marseille","lat":43.24648,"lon":5.3889,"is_reserved":false,"is_disabled":false,"rental_uris":{"android":"levelo://app?vid=760ff560-08c7-4435-8f89-2f5f8ad139c3","ios":"levelo://app?vid=760ff560-08c7-4435-8f89-2f5f8ad139c3"},"vehicle_type_id":"4","last_reported":1732558393,"current_range_meters":7200,"station_id":"ce4bhg12rcd13ifvqf60","pricing_plan_id":"cebpf4jnsgd1na2vs0mg"},{"bike_id":"1c70e5e6-7fac-4d18-ba75-18652dc12e80","system_id":"levelo_inurba_marseille","lat":43.25515,"lon":5.37658,"is_reserved":false,"is_disabled":false,"rental_uris":{"android":"levelo://app?vid=1c70e5e6-7fac-4d18-ba75-18652dc12e80","ios":"levelo://app?vid=1c70e5e6-7fac-4d18-ba75-18652dc12e80"},"vehicle_type_id":"4","last_reported":1732558393,"current_range_meters":38800,"station_id":"ce4bhh12rcd13ifvqff0","pricing_plan_id":"cebpf4jnsgd1na2vs0mg"},{"bike_id":"f4916991-c85f-4b7f-b703-7d2e6b8efcdf","system_id":"levelo_inurba_marseille","lat":43.33749,"lon":5.37438,"is_reserved":false,"is_disabled":false,"rental_uris":{"android":"levelo://app?vid=f4916991-c85f-4b7f-b703-7d2e6b8efcdf","ios":"levelo://app?vid=f4916991-c85f-4b7f-b703-7d2e6b8efcdf"},"vehicle_type_id":"4","last_reported":1732558393,"current_range_meters":34800,"station_id":"","pricing_plan_id":"cebpf4jnsgd1na2vs0mg"},{"bike_id":"5aae9618-e5fd-4bb0-b0c7-0384b4db5cb9","system_id":"levelo_inurba_marseille","lat":43.31484,"lon":5.37302,"is_reserved":false,"is_disabled":false,"rental_uris":{"android":"levelo://app?vid=5aae9618-e5fd-4bb0-b0c7-0384b4db5cb9","ios":"levelo://app?vid=5aae9618-e5fd-4bb0-b0c7-0384b4db5cb9"},"vehicle_type_id":"4","last_reported":1732558393,"current_range_meters":38800,"station_id":"ce4bgt12rcd13ifvqcd0","pricing_plan_id":"cebpf4jnsgd1na2vs0mg"},{"bike_id":"292c1a26-ae28-4908-a339-5aa23b093de3","system_id":"levelo_inurba_marseille","lat":43.33723,"lon":5.39187,"is_reserved":false,"is_disabled":false,"rental_uris":{"android":"levelo://app?vid=292c1a26-ae28-4908-a339-5aa23b093de3","ios":"levelo://app?vid=292c1a26-ae28-4908-a339-5aa23b093de3"},"vehicle_type_id":"4","last_reported":1732558393,"current_range_meters":8800,"station_id":"ce4bhr92rcd13ifvqhsg","pricing_plan_id":"cebpf4jnsgd1na2vs0mg"},{"bike_id":"1c6e2697-73ad-4e6f-a4f3-c9e2dc9a4210","system_id":"levelo_inurba_marseille","lat":43.28945,"lon":5.36634,"is_reserved":false,"is_disabled":false,"rental_uris":{"android":"levelo://app?vid=1c6e2697-73ad-4e6f-a4f3-c9e2dc9a4210","ios":"levelo://app?vid=1c6e2697-73ad-4e6f-a4f3-c9e2dc9a4210"},"vehicle_type_id":"4","last_reported":1732558393,"current_range_meters":24800,"station_id":"ce4bhap2rcd13ifvqek0","pricing_plan_id":"cebpf4jnsgd1na2vs0mg"},{"bike_id":"f7f3756c-1ec7-4782-9c87-6273f87b6774","system_id":"levelo_inurba_marseille","lat":43.337444,"lon":5.374475,"is_reserved":false,"is_disabled":true,"rental_uris":{"android":"levelo://app?vid=f7f3756c-1ec7-4782-9c87-6273f87b6774","ios":"levelo://app?vid=f7f3756c-1ec7-4782-9c87-6273f87b6774"},"vehicle_type_id":"4","last_reported":1732558393,"current_range_meters":22800,"station_id":"","pricing_plan_id":"cebpf4jnsgd1na2vs0mg"},{"bike_id":"ae78cd95-0524-4346-8c3e-35a78db9a346","system_id":"levelo_inurba_marseille","lat":43.2606,"lon":5.39397,"is_reserved":false,"is_disabled":false,"rental_uris":{"android":"levelo://app?vid=ae78cd95-0524-4346-8c3e-35a78db9a346","ios":"levelo://app?vid=ae78cd95-0524-4346-8c3e-35a78db9a346"},"vehicle_type_id":"4","last_reported":1732558393,"current_range_meters":20400,"station_id":"ce4bhh92rcd13ifvqfj0","pricing_plan_id":"cebpf4jnsgd1na2vs0mg"},{"bike_id":"e104dfd7-39b2-4cca-af37-deeb8168f53b","system_id":"levelo_inurba_marseille","lat":43.31069,"lon":5.38352,"is_reserved":false,"is_disabled":false,"rental_uris":{"android":"levelo://app?vid=e104dfd7-39b2-4cca-af37-deeb8168f53b","ios":"levelo://app?vid=e104dfd7-39b2-4cca-af37-deeb8168f53b"},"vehicle_type_id":"4","last_reported":1732558393,"current_range_meters":26000,"station_id":"ce4bgv92rcd13ifvqcr0","pricing_plan_id":"cebpf4jnsgd1na2vs0mg"},{"bike_id":"a97e4d1b-4f4a-48fc-882e-058099634779","system_id":"levelo_inurba_marseille","lat":43.25491,"lon":5.37651,"is_reserved":false,"is_disabled":true,"rental_uris":{"android":"levelo://app?vid=a97e4d1b-4f4a-48fc-882e-058099634779","ios":"levelo://app?vid=a97e4d1b-4f4a-48fc-882e-058099634779"},"vehicle_type_id":"4","last_reported":1732558393,"current_range_meters":0,"station_id":"ce4bhh12rcd13ifvqff0","pricing_plan_id":"cebpf4jnsgd1na2vs0mg"},{"bike_id":"14f3c269-ea7b-4aeb-9a6e-2af7df033998","system_id":"levelo_inurba_marseille","lat":43.26062,"lon":5.39397,"is_reserved":false,"is_disabled":false,"rental_uris":{"android":"levelo://app?vid=14f3c269-ea7b-4aeb-9a6e-2af7df033998","ios":"levelo://app?vid=14f3c269-ea7b-4aeb-9a6e-2af7df033998"},"vehicle_type_id":"4","last_reported":1732558393,"current_range_meters":26800,"station_id":"ce4bhh92rcd13ifvqfj0","pricing_plan_id":"cebpf4jnsgd1na2vs0mg"},{"bike_id":"08a198d7-556c-4248-9fbd-1c21aaf2dd82","system_id":"levelo_inurba_marseille","lat":43.29274,"lon":5.36837,"is_reserved":false,"is_disabled":true,"rental_uris":{"android":"levelo://app?vid=08a198d7-556c-4248-9fbd-1c21aaf2dd82","ios":"levelo://app?vid=08a198d7-556c-4248-9fbd-1c21aaf2dd82"},"vehicle_type_id":"4","last_reported":1732558393,"current_range_meters":33600,"station_id":"ce4bhbp2rcd13ifvqesg","pricing_plan_id":"cebpf4jnsgd1na2vs0mg"},{"bike_id":"7f89b812-16cb-4135-bc5f-efa2b244ec26","system_id":"levelo_inurba_marseille","lat":43.26548,"lon":5.37289,"is_reserved":false,"is_disabled":true,"rental_uris":{"android":"levelo://app?vid=7f89b812-16cb-4135-bc5f-efa2b244ec26","ios":"levelo://app?vid=7f89b812-16cb-4135-bc5f-efa2b244ec26"},"vehicle_type_id":"4","last_reported":1732558393,"current_range_meters":36000,"station_id":"ce4bhg12rcd13ifvqf70","pricing_plan_id":"cebpf4jnsgd1na2vs0mg"},{"bike_id":"f5658b6b-05db-4270-b5a2-b12a283db2c3","system_id":"levelo_inurba_marseille","lat":43.32286,"lon":5.38269,"is_reserved":false,"is_disabled":false,"rental_uris":{"android":"levelo://app?vid=f5658b6b-05db-4270-b5a2-b12a283db2c3","ios":"levelo://app?vid=f5658b6b-05db-4270-b5a2-b12a283db2c3"},"vehicle_type_id":"4","last_reported":1732558393,"current_range_meters":35600,"station_id":"ce4bhr12rcd13ifvqhqg","pricing_plan_id":"cebpf4jnsgd1na2vs0mg"},{"bike_id":"a5909545-3e09-4859-9fda-9ffe4e6e4883","system_id":"levelo_inurba_marseille","lat":43.23068,"lon":5.3549,"is_reserved":false,"is_disabled":false,"rental_uris":{"android":"levelo://app?vid=a5909545-3e09-4859-9fda-9ffe4e6e4883","ios":"levelo://app?vid=a5909545-3e09-4859-9fda-9ffe4e6e4883"},"vehicle_type_id":"4","last_reported":1732558393,"current_range_meters":36000,"station_id":"cpo3342slgdg3j2ifvpg","pricing_plan_id":"cebpf4jnsgd1na2vs0mg"},{"bike_id":"42a0f646-5c1c-421a-9756-142a5bc2ee32","system_id":"levelo_inurba_marseille","lat":43.30336,"lon":5.40434,"is_reserved":false,"is_disabled":false,"rental_uris":{"android":"levelo://app?vid=42a0f646-5c1c-421a-9756-142a5bc2ee32","ios":"levelo://app?vid=42a0f646-5c1c-421a-9756-142a5bc2ee32"},"vehicle_type_id":"4","last_reported":1732558393,"current_range_meters":6400,"station_id":"ce4bh012rcd13ifvqd10","pricing_plan_id":"cebpf4jnsgd1na2vs0mg"},{"bike_id":"448d0e0e-7032-4aed-bd1f-68d8a1b22a6b","system_id":"levelo_inurba_marseille","lat":43.33602,"lon":5.41029,"is_reserved":false,"is_disabled":false,"rental_uris":{"android":"levelo://app?vid=448d0e0e-7032-4aed-bd1f-68d8a1b22a6b","ios":"levelo://app?vid=448d0e0e-7032-4aed-bd1f-68d8a1b22a6b"},"vehicle_type_id":"4","last_reported":1732558393,"current_range_meters":6000,"station_id":"ce4bhqh2rcd13ifvqhmg","pricing_plan_id":"cebpf4jnsgd1na2vs0mg"},{"bike_id":"0e3841e7-049e-435a-ba83-2b896bfdb681","system_id":"levelo_inurba_marseille","lat":43.27956,"lon":5.41042,"is_reserved":false,"is_disabled":false,"rental_uris":{"android":"levelo://app?vid=0e3841e7-049e-435a-ba83-2b896bfdb681","ios":"levelo://app?vid=0e3841e7-049e-435a-ba83-2b896bfdb681"},"vehicle_type_id":"4","last_reported":1732558393,"current_range_meters":38400,"station_id":"ce4bhnp2rcd13ifvqh0g","pricing_plan_id":"cebpf4jnsgd1na2vs0mg"},{"bike_id":"180ea579-2742-49ec-b146-86e37413e735","system_id":"levelo_inurba_marseille","lat":43.31756,"lon":5.39018,"is_reserved":false,"is_disabled":false,"rental_uris":{"android":"levelo://app?vid=180ea579-2742-49ec-b146-86e37413e735","ios":"levelo://app?vid=180ea579-2742-49ec-b146-86e37413e735"},"vehicle_type_id":"4","last_reported":1732558393,"current_range_meters":36800,"station_id":"ce4bhqp2rcd13ifvqhng","pricing_plan_id":"cebpf4jnsgd1na2vs0mg"},{"bike_id":"d32e419a-46a3-4050-be6a-d2a299ac411f","system_id":"levelo_inurba_marseille","lat":43.29311,"lon":5.37186,"is_reserved":false,"is_disabled":true,"rental_uris":{"android":"levelo://app?vid=d32e419a-46a3-4050-be6a-d2a299ac411f","ios":"levelo://app?vid=d32e419a-46a3-4050-be6a-d2a299ac411f"},"vehicle_type_id":"4","last_reported":1732558393,"current_range_meters":26000,"station_id":"ce4bgh92rcd13ifvqb40","pricing_plan_id":"cebpf4jnsgd1na2vs0mg"},{"bike_id":"e55cb847-ae27-4fbd-b24c-f65df0e27256","system_id":"levelo_inurba_marseille","lat":43.28028,"lon":5.36935,"is_reserved":false,"is_disabled":true,"rental_uris":{"android":"levelo://app?vid=e55cb847-ae27-4fbd-b24c-f65df0e27256","ios":"levelo://app?vid=e55cb847-ae27-4fbd-b24c-f65df0e27256"},"vehicle_type_id":"4","last_reported":1732558393,"current_range_meters":28800,"station_id":"ce4bha12rcd13ifvqef0","pricing_plan_id":"cebpf4jnsgd1na2vs0mg"},{"bike_id":"7506d40e-ace0-4e59-98f4-df0391211c40","system_id":"levelo_inurba_marseille","lat":43.31353,"lon":5.38485,"is_reserved":false,"is_disabled":false,"rental_uris":{"android":"levelo://app?vid=7506d40e-ace0-4e59-98f4-df0391211c40","ios":"levelo://app?vid=7506d40e-ace0-4e59-98f4-df0391211c40"},"vehicle_type_id":"4","last_reported":1732558393,"current_range_meters":16000,"station_id":"ce4bgt92rcd13ifvqcf0","pricing_plan_id":"cebpf4jnsgd1na2vs0mg"},{"bike_id":"e5951ee3-4a5a-4ebb-b469-096c5188dfa3","system_id":"levelo_inurba_marseille","lat":43.23202,"lon":5.35556,"is_reserved":false,"is_disabled":false,"rental_uris":{"android":"levelo://app?vid=e5951ee3-4a5a-4ebb-b469-096c5188dfa3","ios":"levelo://app?vid=e5951ee3-4a5a-4ebb-b469-096c5188dfa3"},"vehicle_type_id":"4","last_reported":1732558393,"current_range_meters":38800,"station_id":"ce4bhu92rcd13ifvqi70","pricing_plan_id":"cebpf4jnsgd1na2vs0mg"},{"bike_id":"7cc15e67-b417-41c4-a7c4-8bc768e18862","system_id":"levelo_inurba_marseille","lat":43.30653,"lon":5.40085,"is_reserved":false,"is_disabled":false,"rental_uris":{"android":"levelo://app?vid=7cc15e67-b417-41c4-a7c4-8bc768e18862","ios":"levelo://app?vid=7cc15e67-b417-41c4-a7c4-8bc768e18862"},"vehicle_type_id":"4","last_reported":1732558393,"current_range_meters":14000,"station_id":"ce4bh112rcd13ifvqda0","pricing_plan_id":"cebpf4jnsgd1na2vs0mg"},{"bike_id":"b9ce57f2-5fe3-4664-8874-c2ae87f9b720","system_id":"levelo_inurba_marseille","lat":43.2928,"lon":5.36846,"is_reserved":false,"is_disabled":false,"rental_uris":{"android":"levelo://app?vid=b9ce57f2-5fe3-4664-8874-c2ae87f9b720","ios":"levelo://app?vid=b9ce57f2-5fe3-4664-8874-c2ae87f9b720"},"vehicle_type_id":"4","last_reported":1732558393,"current_range_meters":34000,"station_id":"ce4bhbp2rcd13ifvqesg","pricing_plan_id":"cebpf4jnsgd1na2vs0mg"},{"bike_id":"789d1ba9-f6cc-4ddf-9747-2ae44e89bfd2","system_id":"levelo_inurba_marseille","lat":43.28699,"lon":5.39974,"is_reserved":false,"is_disabled":false,"rental_uris":{"android":"levelo://app?vid=789d1ba9-f6cc-4ddf-9747-2ae44e89bfd2","ios":"levelo://app?vid=789d1ba9-f6cc-4ddf-9747-2ae44e89bfd2"},"vehicle_type_id":"4","last_reported":1732558393,"current_range_meters":30400,"station_id":"ce4bho92rcd13ifvqh3g","pricing_plan_id":"cebpf4jnsgd1na2vs0mg"},{"bike_id":"66aad5d7-efa9-4543-8e11-bbf0af584fcf","system_id":"levelo_inurba_marseille","lat":43.27821,"lon":5.40711,"is_reserved":false,"is_disabled":true,"rental_uris":{"android":"levelo://app?vid=66aad5d7-efa9-4543-8e11-bbf0af584fcf","ios":"levelo://app?vid=66aad5d7-efa9-4543-8e11-bbf0af584fcf"},"vehicle_type_id":"4","last_reported":1732558393,"current_range_meters":38800,"station_id":"ce4bhnh2rcd13ifvqgtg","pricing_plan_id":"cebpf4jnsgd1na2vs0mg"},{"bike_id":"c5e386b8-99c0-4bae-8da7-e94adb475e39","system_id":"levelo_inurba_marseille","lat":43.30427,"lon":5.41289,"is_reserved":false,"is_disabled":false,"rental_uris":{"android":"levelo://app?vid=c5e386b8-99c0-4bae-8da7-e94adb475e39","ios":"levelo://app?vid=c5e386b8-99c0-4bae-8da7-e94adb475e39"},"vehicle_type_id":"4","last_reported":1732558393,"current_range_meters":31200,"station_id":"ce4bhop2rcd13ifvqh8g","pricing_plan_id":"cebpf4jnsgd1na2vs0mg"},{"bike_id":"6c948e9c-d5b3-4fe5-a918-1bd2f7c83b02","system_id":"levelo_inurba_marseille","lat":43.32114,"lon":5.36775,"is_reserved":false,"is_disabled":false,"rental_uris":{"android":"levelo://app?vid=6c948e9c-d5b3-4fe5-a918-1bd2f7c83b02","ios":"levelo://app?vid=6c948e9c-d5b3-4fe5-a918-1bd2f7c83b02"},"vehicle_type_id":"4","last_reported":1732558393,"current_range_meters":23200,"station_id":"ce4bhrh2rcd13ifvqhug","pricing_plan_id":"cebpf4jnsgd1na2vs0mg"},{"bike_id":"9e620abf-d324-4f99-84fc-d67e71109f2a","system_id":"levelo_inurba_marseille","lat":43.31077,"lon":5.42435,"is_reserved":false,"is_disabled":true,"rental_uris":{"android":"levelo://app?vid=9e620abf-d324-4f99-84fc-d67e71109f2a","ios":"levelo://app?vid=9e620abf-d324-4f99-84fc-d67e71109f2a"},"vehicle_type_id":"4","last_reported":1732558393,"current_range_meters":0,"station_id":"ce4bhp92rcd13ifvqhag","pricing_plan_id":"cebpf4jnsgd1na2vs0mg"},{"bike_id":"de7004a3-b7db-49aa-9067-0b6ed2338314","system_id":"levelo_inurba_marseille","lat":43.31262,"lon":5.36861,"is_reserved":false,"is_disabled":true,"rental_uris":{"android":"levelo://app?vid=de7004a3-b7db-49aa-9067-0b6ed2338314","ios":"levelo://app?vid=de7004a3-b7db-49aa-9067-0b6ed2338314"},"vehicle_type_id":"4","last_reported":1732558393,"current_range_meters":29600,"station_id":"ce4bgl92rcd13ifvqbq0","pricing_plan_id":"cebpf4jnsgd1na2vs0mg"},{"bike_id":"7c91f2ac-1dd3-428c-aafd-49def36e722e","system_id":"levelo_inurba_marseille","lat":43.337444,"lon":5.374475,"is_reserved":false,"is_disabled":false,"rental_uris":{"android":"levelo://app?vid=7c91f2ac-1dd3-428c-aafd-49def36e722e","ios":"levelo://app?vid=7c91f2ac-1dd3-428c-aafd-49def36e722e"},"vehicle_type_id":"4","last_reported":1732558393,"current_range_meters":33200,"station_id":"","pricing_plan_id":"cebpf4jnsgd1na2vs0mg"},{"bike_id":"f0754b1b-2581-469b-867d-b6b48e1c5261","system_id":"levelo_inurba_marseille","lat":43.28086,"lon":5.39673,"is_reserved":false,"is_disabled":false,"rental_uris":{"android":"levelo://app?vid=f0754b1b-2581-469b-867d-b6b48e1c5261","ios":"levelo://app?vid=f0754b1b-2581-469b-867d-b6b48e1c5261"},"vehicle_type_id":"4","last_reported":1732558393,"current_range_meters":39200,"station_id":"ce4bho12rcd13ifvqh2g","pricing_plan_id":"cebpf4jnsgd1na2vs0mg"},{"bike_id":"13d988c3-60ef-4c84-b6c8-785ba41cd034","system_id":"levelo_inurba_marseille","lat":43.32366,"lon":5.38882,"is_reserved":false,"is_disabled":false,"rental_uris":{"android":"levelo://app?vid=13d988c3-60ef-4c84-b6c8-785ba41cd034","ios":"levelo://app?vid=13d988c3-60ef-4c84-b6c8-785ba41cd034"},"vehicle_type_id":"4","last_reported":1732558393,"current_range_meters":31200,"station_id":"ce4bhqp2rcd13ifvqhog","pricing_plan_id":"cebpf4jnsgd1na2vs0mg"},{"bike_id":"f14e9fba-b9bd-4443-896c-9fd7a4fd971d","system_id":"levelo_inurba_marseille","lat":43.298962,"lon":5.436674,"is_reserved":false,"is_disabled":false,"rental_uris":{"android":"levelo://app?vid=f14e9fba-b9bd-4443-896c-9fd7a4fd971d","ios":"levelo://app?vid=f14e9fba-b9bd-4443-896c-9fd7a4fd971d"},"vehicle_type_id":"4","last_reported":1732558393,"current_range_meters":38800,"station_id":"ce4bhpp2rcd13ifvqhfg","pricing_plan_id":"cebpf4jnsgd1na2vs0mg"},{"bike_id":"5c53cfbd-2547-413a-b79a-f8cc3b1ca992","system_id":"levelo_inurba_marseille","lat":43.32112,"lon":5.36775,"is_reserved":false,"is_disabled":false,"rental_uris":{"android":"levelo://app?vid=5c53cfbd-2547-413a-b79a-f8cc3b1ca992","ios":"levelo://app?vid=5c53cfbd-2547-413a-b79a-f8cc3b1ca992"},"vehicle_type_id":"4","last_reported":1732558393,"current_range_meters":36000,"station_id":"ce4bhrh2rcd13ifvqhug","pricing_plan_id":"cebpf4jnsgd1na2vs0mg"},{"bike_id":"d7d9caf6-13cf-4e0c-9b4b-59739a7c4dba","system_id":"levelo_inurba_marseille","lat":43.27175,"lon":5.40998,"is_reserved":false,"is_disabled":true,"rental_uris":{"android":"levelo://app?vid=d7d9caf6-13cf-4e0c-9b4b-59739a7c4dba","ios":"levelo://app?vid=d7d9caf6-13cf-4e0c-9b4b-59739a7c4dba"},"vehicle_type_id":"4","last_reported":1732558393,"current_range_meters":0,"station_id":"ce4bhl12rcd13ifvqgf0","pricing_plan_id":"cebpf4jnsgd1na2vs0mg"},{"bike_id":"315472f7-761b-4e7e-a0db-400c3093d0ae","system_id":"levelo_inurba_marseille","lat":43.31341,"lon":5.3969,"is_reserved":false,"is_disabled":false,"rental_uris":{"android":"levelo://app?vid=315472f7-761b-4e7e-a0db-400c3093d0ae","ios":"levelo://app?vid=315472f7-761b-4e7e-a0db-400c3093d0ae"},"vehicle_type_id":"4","last_reported":1732558393,"current_range_meters":39200,"station_id":"ce4bgvp2rcd13ifvqcu0","pricing_plan_id":"cebpf4jnsgd1na2vs0mg"},{"bike_id":"46ab9ea0-93f3-4971-baa3-e4e411e67035","system_id":"levelo_inurba_marseille","lat":43.30354,"lon":5.41862,"is_reserved":false,"is_disabled":false,"rental_uris":{"android":"levelo://app?vid=46ab9ea0-93f3-4971-baa3-e4e411e67035","ios":"levelo://app?vid=46ab9ea0-93f3-4971-baa3-e4e411e67035"},"vehicle_type_id":"4","last_reported":1732558393,"current_range_meters":14800,"station_id":"ce4bhop2rcd13ifvqh7g","pricing_plan_id":"cebpf4jnsgd1na2vs0mg"},{"bike_id":"921a1cd8-be53-49a1-977d-3070af3bc12f","system_id":"levelo_inurba_marseille","lat":43.29429,"lon":5.39754,"is_reserved":false,"is_disabled":false,"rental_uris":{"android":"levelo://app?vid=921a1cd8-be53-49a1-977d-3070af3bc12f","ios":"levelo://app?vid=921a1cd8-be53-49a1-977d-3070af3bc12f"},"vehicle_type_id":"4","last_reported":1732558393,"current_range_meters":9200,"station_id":"ce4bh3h2rcd13ifvqdo0","pricing_plan_id":"cebpf4jnsgd1na2vs0mg"},{"bike_id":"a39c0154-ebaa-435c-82c7-9a404c246de1","system_id":"levelo_inurba_marseille","lat":43.31999,"lon":5.38164,"is_reserved":false,"is_disabled":false,"rental_uris":{"android":"levelo://app?vid=a39c0154-ebaa-435c-82c7-9a404c246de1","ios":"levelo://app?vid=a39c0154-ebaa-435c-82c7-9a404c246de1"},"vehicle_type_id":"4","last_reported":1732558393,"current_range_meters":32000,"station_id":"ce4bhr12rcd13ifvqhpg","pricing_plan_id":"cebpf4jnsgd1na2vs0mg"},{"bike_id":"40c7ddb8-0e1a-4eb1-9e2f-d3bf1a0f9d1e","system_id":"levelo_inurba_marseille","lat":43.28275,"lon":5.35059,"is_reserved":false,"is_disabled":true,"rental_uris":{"android":"levelo://app?vid=40c7ddb8-0e1a-4eb1-9e2f-d3bf1a0f9d1e","ios":"levelo://app?vid=40c7ddb8-0e1a-4eb1-9e2f-d3bf1a0f9d1e"},"vehicle_type_id":"4","last_reported":1732558393,"current_range_meters":24800,"station_id":"ce4bhbp2rcd13ifvqerg","pricing_plan_id":"cebpf4jnsgd1na2vs0mg"},{"bike_id":"46ac22a8-6f10-4221-98a6-34eba5c97bfb","system_id":"levelo_inurba_marseille","lat":43.29191,"lon":5.37318,"is_reserved":false,"is_disabled":true,"rental_uris":{"android":"levelo://app?vid=46ac22a8-6f10-4221-98a6-34eba5c97bfb","ios":"levelo://app?vid=46ac22a8-6f10-4221-98a6-34eba5c97bfb"},"vehicle_type_id":"4","last_reported":1732558393,"current_range_meters":0,"station_id":"","pricing_plan_id":"cebpf4jnsgd1na2vs0mg"},{"bike_id":"5846e7ee-045c-466d-b02c-9cd3eadc9db6","system_id":"levelo_inurba_marseille","lat":43.29167,"lon":5.35796,"is_reserved":false,"is_disabled":false,"rental_uris":{"android":"levelo://app?vid=5846e7ee-045c-466d-b02c-9cd3eadc9db6","ios":"levelo://app?vid=5846e7ee-045c-466d-b02c-9cd3eadc9db6"},"vehicle_type_id":"4","last_reported":1732558393,"current_range_meters":38400,"station_id":"ce4bhb12rcd13ifvqel0","pricing_plan_id":"cebpf4jnsgd1na2vs0mg"},{"bike_id":"338038b6-0e60-402c-9677-f967483765af","system_id":"levelo_inurba_marseille","lat":43.29878,"lon":5.40387,"is_reserved":false,"is_disabled":false,"rental_uris":{"android":"levelo://app?vid=338038b6-0e60-402c-9677-f967483765af","ios":"levelo://app?vid=338038b6-0e60-402c-9677-f967483765af"},"vehicle_type_id":"4","last_reported":1732558393,"current_range_meters":3200,"station_id":"","pricing_plan_id":"cebpf4jnsgd1na2vs0mg"},{"bike_id":"e3592af7-8a75-4328-8738-0934650d214e","system_id":"levelo_inurba_marseille","lat":43.29852,"lon":5.36277,"is_reserved":false,"is_disabled":false,"rental_uris":{"android":"levelo://app?vid=e3592af7-8a75-4328-8738-0934650d214e","ios":"levelo://app?vid=e3592af7-8a75-4328-8738-0934650d214e"},"vehicle_type_id":"4","last_reported":1732558393,"current_range_meters":32400,"station_id":"ce4bgpp2rcd13ifvqc3g","pricing_plan_id":"cebpf4jnsgd1na2vs0mg"},{"bike_id":"43746d86-8a13-4845-9faf-ae69b548d714","system_id":"levelo_inurba_marseille","lat":43.29444,"lon":5.37921,"is_reserved":false,"is_disabled":true,"rental_uris":{"android":"levelo://app?vid=43746d86-8a13-4845-9faf-ae69b548d714","ios":"levelo://app?vid=43746d86-8a13-4845-9faf-ae69b548d714"},"vehicle_type_id":"4","last_reported":1732558393,"current_range_meters":0,"station_id":"","pricing_plan_id":"cebpf4jnsgd1na2vs0mg"},{"bike_id":"8af40a0e-c622-4552-a572-f0e600b65106","system_id":"levelo_inurba_marseille","lat":43.25928,"lon":5.37587,"is_reserved":false,"is_disabled":false,"rental_uris":{"android":"levelo://app?vid=8af40a0e-c622-4552-a572-f0e600b65106","ios":"levelo://app?vid=8af40a0e-c622-4552-a572-f0e600b65106"},"vehicle_type_id":"4","last_reported":1732558393,"current_range_meters":37600,"station_id":"","pricing_plan_id":"cebpf4jnsgd1na2vs0mg"},{"bike_id":"7317920e-5975-4c67-a891-63736e89f140","system_id":"levelo_inurba_marseille","lat":43.29274,"lon":5.36786,"is_reserved":false,"is_disabled":true,"rental_uris":{"android":"levelo://app?vid=7317920e-5975-4c67-a891-63736e89f140","ios":"levelo://app?vid=7317920e-5975-4c67-a891-63736e89f140"},"vehicle_type_id":"4","last_reported":1732558393,"current_range_meters":22400,"station_id":"","pricing_plan_id":"cebpf4jnsgd1na2vs0mg"},{"bike_id":"e379a956-5754-438c-a6ee-4f17caa89d66","system_id":"levelo_inurba_marseille","lat":43.23962,"lon":5.36632,"is_reserved":false,"is_disabled":false,"rental_uris":{"android":"levelo://app?vid=e379a956-5754-438c-a6ee-4f17caa89d66","ios":"levelo://app?vid=e379a956-5754-438c-a6ee-4f17caa89d66"},"vehicle_type_id":"4","last_reported":1732558393,"current_range_meters":16400,"station_id":"ce4bhi12rcd13ifvqfp0","pricing_plan_id":"cebpf4jnsgd1na2vs0mg"},{"bike_id":"a2b09865-004d-45eb-b301-cf3640220a72","system_id":"levelo_inurba_marseille","lat":43.29605,"lon":5.38105,"is_reserved":false,"is_disabled":true,"rental_uris":{"android":"levelo://app?vid=a2b09865-004d-45eb-b301-cf3640220a72","ios":"levelo://app?vid=a2b09865-004d-45eb-b301-cf3640220a72"},"vehicle_type_id":"4","last_reported":1732558393,"current_range_meters":0,"station_id":"ce4bgl12rcd13ifvqbo0","pricing_plan_id":"cebpf4jnsgd1na2vs0mg"},{"bike_id":"807fcdb5-6b54-4d81-9e81-9353c33b74c3","system_id":"levelo_inurba_marseille","lat":43.31316,"lon":5.39692,"is_reserved":false,"is_disabled":false,"rental_uris":{"android":"levelo://app?vid=807fcdb5-6b54-4d81-9e81-9353c33b74c3","ios":"levelo://app?vid=807fcdb5-6b54-4d81-9e81-9353c33b74c3"},"vehicle_type_id":"4","last_reported":1732558393,"current_range_meters":32400,"station_id":"ce4bgvp2rcd13ifvqcu0","pricing_plan_id":"cebpf4jnsgd1na2vs0mg"},{"bike_id":"f971abee-70f8-43dc-afe4-4050ccc8c3f7","system_id":"levelo_inurba_marseille","lat":43.25872,"lon":5.39906,"is_reserved":false,"is_disabled":true,"rental_uris":{"android":"levelo://app?vid=f971abee-70f8-43dc-afe4-4050ccc8c3f7","ios":"levelo://app?vid=f971abee-70f8-43dc-afe4-4050ccc8c3f7"},"vehicle_type_id":"4","last_reported":1732558393,"current_range_meters":38800,"station_id":"ce4bhl92rcd13ifvqghg","pricing_plan_id":"cebpf4jnsgd1na2vs0mg"},{"bike_id":"fa719603-3f5a-410e-b287-e996ead0be5d","system_id":"levelo_inurba_marseille","lat":43.30171,"lon":5.3802,"is_reserved":false,"is_disabled":false,"rental_uris":{"android":"levelo://app?vid=fa719603-3f5a-410e-b287-e996ead0be5d","ios":"levelo://app?vid=fa719603-3f5a-410e-b287-e996ead0be5d"},"vehicle_type_id":"4","last_reported":1732558393,"current_range_meters":33600,"station_id":"","pricing_plan_id":"cebpf4jnsgd1na2vs0mg"},{"bike_id":"465f7b46-97e5-4ef1-85aa-ab9961714b60","system_id":"levelo_inurba_marseille","lat":43.30262,"lon":5.4008,"is_reserved":false,"is_disabled":true,"rental_uris":{"android":"levelo://app?vid=465f7b46-97e5-4ef1-85aa-ab9961714b60","ios":"levelo://app?vid=465f7b46-97e5-4ef1-85aa-ab9961714b60"},"vehicle_type_id":"4","last_reported":1732558393,"current_range_meters":800,"station_id":"ce4bgvh2rcd13ifvqcs0","pricing_plan_id":"cebpf4jnsgd1na2vs0mg"},{"bike_id":"ee2b6f35-7d1b-4ce9-8a89-ced5ff6ba75e","system_id":"levelo_inurba_marseille","lat":43.24391,"lon":5.3706,"is_reserved":false,"is_disabled":false,"rental_uris":{"android":"levelo://app?vid=ee2b6f35-7d1b-4ce9-8a89-ced5ff6ba75e","ios":"levelo://app?vid=ee2b6f35-7d1b-4ce9-8a89-ced5ff6ba75e"},"vehicle_type_id":"4","last_reported":1732558393,"current_range_meters":38400,"station_id":"ce4bhhh2rcd13ifvqfk0","pricing_plan_id":"cebpf4jnsgd1na2vs0mg"},{"bike_id":"38550461-68ee-4121-af70-868f15775ae6","system_id":"levelo_inurba_marseille","lat":43.3171,"lon":5.43705,"is_reserved":false,"is_disabled":false,"rental_uris":{"android":"levelo://app?vid=38550461-68ee-4121-af70-868f15775ae6","ios":"levelo://app?vid=38550461-68ee-4121-af70-868f15775ae6"},"vehicle_type_id":"4","last_reported":1732558393,"current_range_meters":32800,"station_id":"ce4bhp92rcd13ifvqhcg","pricing_plan_id":"cebpf4jnsgd1na2vs0mg"},{"bike_id":"78922ddc-8c95-470c-86c3-cc659680d91d","system_id":"levelo_inurba_marseille","lat":43.23193,"lon":5.35557,"is_reserved":false,"is_disabled":false,"rental_uris":{"android":"levelo://app?vid=78922ddc-8c95-470c-86c3-cc659680d91d","ios":"levelo://app?vid=78922ddc-8c95-470c-86c3-cc659680d91d"},"vehicle_type_id":"4","last_reported":1732558393,"current_range_meters":28800,"station_id":"ce4bhu92rcd13ifvqi70","pricing_plan_id":"cebpf4jnsgd1na2vs0mg"},{"bike_id":"7f723b0b-cbe8-4f68-b8fe-2ce3d5e983bd","system_id":"levelo_inurba_marseille","lat":43.3276,"lon":5.36726,"is_reserved":false,"is_disabled":true,"rental_uris":{"android":"levelo://app?vid=7f723b0b-cbe8-4f68-b8fe-2ce3d5e983bd","ios":"levelo://app?vid=7f723b0b-cbe8-4f68-b8fe-2ce3d5e983bd"},"vehicle_type_id":"4","last_reported":1732558393,"current_range_meters":23200,"station_id":"","pricing_plan_id":"cebpf4jnsgd1na2vs0mg"},{"bike_id":"77729a2d-9b0f-4a86-b02f-be8032385b57","system_id":"levelo_inurba_marseille","lat":43.29438,"lon":5.39744,"is_reserved":false,"is_disabled":true,"rental_uris":{"android":"levelo://app?vid=77729a2d-9b0f-4a86-b02f-be8032385b57","ios":"levelo://app?vid=77729a2d-9b0f-4a86-b02f-be8032385b57"},"vehicle_type_id":"4","last_reported":1732558393,"current_range_meters":1200,"station_id":"ce4bh3h2rcd13ifvqdo0","pricing_plan_id":"cebpf4jnsgd1na2vs0mg"},{"bike_id":"c4de6fe3-6255-4912-84b3-e0f727f3a600","system_id":"levelo_inurba_marseille","lat":43.26787,"lon":5.39419,"is_reserved":false,"is_disabled":true,"rental_uris":{"android":"levelo://app?vid=c4de6fe3-6255-4912-84b3-e0f727f3a600","ios":"levelo://app?vid=c4de6fe3-6255-4912-84b3-e0f727f3a600"},"vehicle_type_id":"4","last_reported":1732558393,"current_range_meters":0,"station_id":"ce4bhh12rcd13ifvqfg0","pricing_plan_id":"cebpf4jnsgd1na2vs0mg"},{"bike_id":"821bf144-3e04-433b-8fdc-df913ad0749b","system_id":"levelo_inurba_marseille","lat":43.31688,"lon":5.37745,"is_reserved":false,"is_disabled":false,"rental_uris":{"android":"levelo://app?vid=821bf144-3e04-433b-8fdc-df913ad0749b","ios":"levelo://app?vid=821bf144-3e04-433b-8fdc-df913ad0749b"},"vehicle_type_id":"4","last_reported":1732558393,"current_range_meters":33600,"station_id":"ce4bgth2rcd13ifvqch0","pricing_plan_id":"cebpf4jnsgd1na2vs0mg"},{"bike_id":"b5def552-ca3e-49d1-aad1-2b5a2a0d5a37","system_id":"levelo_inurba_marseille","lat":43.28555,"lon":5.39496,"is_reserved":false,"is_disabled":false,"rental_uris":{"android":"levelo://app?vid=b5def552-ca3e-49d1-aad1-2b5a2a0d5a37","ios":"levelo://app?vid=b5def552-ca3e-49d1-aad1-2b5a2a0d5a37"},"vehicle_type_id":"4","last_reported":1732558393,"current_range_meters":2000,"station_id":"ce4bh292rcd13ifvqdg0","pricing_plan_id":"cebpf4jnsgd1na2vs0mg"},{"bike_id":"7e9061cd-5627-407a-8c6f-fcf878e75a40","system_id":"levelo_inurba_marseille","lat":43.27954,"lon":5.41044,"is_reserved":false,"is_disabled":true,"rental_uris":{"android":"levelo://app?vid=7e9061cd-5627-407a-8c6f-fcf878e75a40","ios":"levelo://app?vid=7e9061cd-5627-407a-8c6f-fcf878e75a40"},"vehicle_type_id":"4","last_reported":1732558393,"current_range_meters":4000,"station_id":"ce4bhnp2rcd13ifvqh0g","pricing_plan_id":"cebpf4jnsgd1na2vs0mg"},{"bike_id":"ea4a913c-b59f-4b6e-9430-af7a70d142b0","system_id":"levelo_inurba_marseille","lat":43.28699,"lon":5.39977,"is_reserved":false,"is_disabled":false,"rental_uris":{"android":"levelo://app?vid=ea4a913c-b59f-4b6e-9430-af7a70d142b0","ios":"levelo://app?vid=ea4a913c-b59f-4b6e-9430-af7a70d142b0"},"vehicle_type_id":"4","last_reported":1732558393,"current_range_meters":28800,"station_id":"ce4bho92rcd13ifvqh3g","pricing_plan_id":"cebpf4jnsgd1na2vs0mg"},{"bike_id":"1a7f004d-e73d-45ce-ad9c-b7d79fe5798f","system_id":"levelo_inurba_marseille","lat":43.294295,"lon":5.385839,"is_reserved":false,"is_disabled":false,"rental_uris":{"android":"levelo://app?vid=1a7f004d-e73d-45ce-ad9c-b7d79fe5798f","ios":"levelo://app?vid=1a7f004d-e73d-45ce-ad9c-b7d79fe5798f"},"vehicle_type_id":"4","last_reported":1732558393,"current_range_meters":15200,"station_id":"ce4bh2h2rcd13ifvqdh0","pricing_plan_id":"cebpf4jnsgd1na2vs0mg"},{"bike_id":"dfd9ec79-9c8a-4c4e-9fe4-2b53facaf9fb","system_id":"levelo_inurba_marseille","lat":43.29029,"lon":5.3863,"is_reserved":false,"is_disabled":false,"rental_uris":{"android":"levelo://app?vid=dfd9ec79-9c8a-4c4e-9fe4-2b53facaf9fb","ios":"levelo://app?vid=dfd9ec79-9c8a-4c4e-9fe4-2b53facaf9fb"},"vehicle_type_id":"4","last_reported":1732558393,"current_range_meters":36400,"station_id":"ce4bh4p2rcd13ifvqe0g","pricing_plan_id":"cebpf4jnsgd1na2vs0mg"},{"bike_id":"50d69c74-3bb0-4e9c-8e47-0d5ee9eb7d01","system_id":"levelo_inurba_marseille","lat":43.29524,"lon":5.3939,"is_reserved":false,"is_disabled":false,"rental_uris":{"android":"levelo://app?vid=50d69c74-3bb0-4e9c-8e47-0d5ee9eb7d01","ios":"levelo://app?vid=50d69c74-3bb0-4e9c-8e47-0d5ee9eb7d01"},"vehicle_type_id":"4","last_reported":1732558393,"current_range_meters":36000,"station_id":"ce4bh292rcd13ifvqdf0","pricing_plan_id":"cebpf4jnsgd1na2vs0mg"},{"bike_id":"9c664e11-38eb-465a-af49-32cd508e1644","system_id":"levelo_inurba_marseille","lat":43.25557,"lon":5.38227,"is_reserved":false,"is_disabled":false,"rental_uris":{"android":"levelo://app?vid=9c664e11-38eb-465a-af49-32cd508e1644","ios":"levelo://app?vid=9c664e11-38eb-465a-af49-32cd508e1644"},"vehicle_type_id":"4","last_reported":1732558393,"current_range_meters":10800,"station_id":"ce4bhih2rcd13ifvqfs0","pricing_plan_id":"cebpf4jnsgd1na2vs0mg"},{"bike_id":"4330a526-42c9-428d-b4a7-1fa02b85c883","system_id":"levelo_inurba_marseille","lat":43.28154,"lon":5.42637,"is_reserved":false,"is_disabled":true,"rental_uris":{"android":"levelo://app?vid=4330a526-42c9-428d-b4a7-1fa02b85c883","ios":"levelo://app?vid=4330a526-42c9-428d-b4a7-1fa02b85c883"},"vehicle_type_id":"4","last_reported":1732558393,"current_range_meters":0,"station_id":"ce4bhnh2rcd13ifvqgug","pricing_plan_id":"cebpf4jnsgd1na2vs0mg"},{"bike_id":"e73cb069-2e30-45f4-8520-ef37f2cfbd6d","system_id":"levelo_inurba_marseille","lat":43.27825,"lon":5.39204,"is_reserved":false,"is_disabled":false,"rental_uris":{"android":"levelo://app?vid=e73cb069-2e30-45f4-8520-ef37f2cfbd6d","ios":"levelo://app?vid=e73cb069-2e30-45f4-8520-ef37f2cfbd6d"},"vehicle_type_id":"4","last_reported":1732558393,"current_range_meters":34000,"station_id":"ce4bhjp2rcd13ifvqga0","pricing_plan_id":"cebpf4jnsgd1na2vs0mg"},{"bike_id":"d1ef5aae-b32c-41cf-85ab-735681c16e37","system_id":"levelo_inurba_marseille","lat":43.26493,"lon":5.3954,"is_reserved":false,"is_disabled":false,"rental_uris":{"android":"levelo://app?vid=d1ef5aae-b32c-41cf-85ab-735681c16e37","ios":"levelo://app?vid=d1ef5aae-b32c-41cf-85ab-735681c16e37"},"vehicle_type_id":"4","last_reported":1732558393,"current_range_meters":32400,"station_id":"ce4bhi12rcd13ifvqfq0","pricing_plan_id":"cebpf4jnsgd1na2vs0mg"},{"bike_id":"0b5f7b4e-e065-44c9-9b8b-2118dda16eca","system_id":"levelo_inurba_marseille","lat":43.24823,"lon":5.37447,"is_reserved":false,"is_disabled":false,"rental_uris":{"android":"levelo://app?vid=0b5f7b4e-e065-44c9-9b8b-2118dda16eca","ios":"levelo://app?vid=0b5f7b4e-e065-44c9-9b8b-2118dda16eca"},"vehicle_type_id":"4","last_reported":1732558393,"current_range_meters":38000,"station_id":"ce4bhgh2rcd13ifvqfb0","pricing_plan_id":"cebpf4jnsgd1na2vs0mg"},{"bike_id":"d4db3889-ad73-4890-9923-8c825e6c85fd","system_id":"levelo_inurba_marseille","lat":43.28289,"lon":5.35079,"is_reserved":false,"is_disabled":true,"rental_uris":{"android":"levelo://app?vid=d4db3889-ad73-4890-9923-8c825e6c85fd","ios":"levelo://app?vid=d4db3889-ad73-4890-9923-8c825e6c85fd"},"vehicle_type_id":"4","last_reported":1732558393,"current_range_meters":0,"station_id":"ce4bhbp2rcd13ifvqerg","pricing_plan_id":"cebpf4jnsgd1na2vs0mg"},{"bike_id":"46a1ec91-926b-4369-b0a9-c700a0575abb","system_id":"levelo_inurba_marseille","lat":43.287,"lon":5.39984,"is_reserved":false,"is_disabled":false,"rental_uris":{"android":"levelo://app?vid=46a1ec91-926b-4369-b0a9-c700a0575abb","ios":"levelo://app?vid=46a1ec91-926b-4369-b0a9-c700a0575abb"},"vehicle_type_id":"4","last_reported":1732558393,"current_range_meters":27600,"station_id":"ce4bho92rcd13ifvqh3g","pricing_plan_id":"cebpf4jnsgd1na2vs0mg"},{"bike_id":"13b2de2c-3102-469c-994d-2730f3cc09ef","system_id":"levelo_inurba_marseille","lat":43.29257,"lon":5.40906,"is_reserved":false,"is_disabled":false,"rental_uris":{"android":"levelo://app?vid=13b2de2c-3102-469c-994d-2730f3cc09ef","ios":"levelo://app?vid=13b2de2c-3102-469c-994d-2730f3cc09ef"},"vehicle_type_id":"4","last_reported":1732558393,"current_range_meters":14400,"station_id":"ce4bh192rcd13ifvqdc0","pricing_plan_id":"cebpf4jnsgd1na2vs0mg"},{"bike_id":"59b17720-279e-4577-9b3e-e8772ee40b17","system_id":"levelo_inurba_marseille","lat":43.30418,"lon":5.41286,"is_reserved":false,"is_disabled":false,"rental_uris":{"android":"levelo://app?vid=59b17720-279e-4577-9b3e-e8772ee40b17","ios":"levelo://app?vid=59b17720-279e-4577-9b3e-e8772ee40b17"},"vehicle_type_id":"4","last_reported":1732558393,"current_range_meters":10000,"station_id":"ce4bhop2rcd13ifvqh8g","pricing_plan_id":"cebpf4jnsgd1na2vs0mg"},{"bike_id":"ea39e33b-3d9b-4a9c-8c76-0c341f9d77fc","system_id":"levelo_inurba_marseille","lat":43.31982,"lon":5.38146,"is_reserved":false,"is_disabled":false,"rental_uris":{"android":"levelo://app?vid=ea39e33b-3d9b-4a9c-8c76-0c341f9d77fc","ios":"levelo://app?vid=ea39e33b-3d9b-4a9c-8c76-0c341f9d77fc"},"vehicle_type_id":"4","last_reported":1732558393,"current_range_meters":26000,"station_id":"ce4bhr12rcd13ifvqhpg","pricing_plan_id":"cebpf4jnsgd1na2vs0mg"},{"bike_id":"b7253de9-6ec1-4db5-9737-385abac9855c","system_id":"levelo_inurba_marseille","lat":43.26672,"lon":5.39535,"is_reserved":false,"is_disabled":true,"rental_uris":{"android":"levelo://app?vid=b7253de9-6ec1-4db5-9737-385abac9855c","ios":"levelo://app?vid=b7253de9-6ec1-4db5-9737-385abac9855c"},"vehicle_type_id":"4","last_reported":1732558393,"current_range_meters":0,"station_id":"","pricing_plan_id":"cebpf4jnsgd1na2vs0mg"},