{"last_updated":1729894084,"ttl":60,"version":"2.2","data":{"bikes":[{"bike_id":"e7acb64b-c61f-47b2-a8af-1a312a4d2a8b","system_id":"levelo_inurba_marseille","lat":43.28078,"lon":5.39645,"is_reserved":false,"is_disabled":false,"rental_uris":{"android":"levelo://app?vid=e7acb64b-c61f-47b2-a8af-1a312a4d2a8b","ios":"levelo://app?vid=e7acb64b-c61f-47b2-a8af-1a312a4d2a8b"},"vehicle_type_id":"4","last_reported":1729894084,"current_range_meters":38400,"station_id":"ce4bho12rcd13ifvqh2g","pricing_plan_id":"cebpf4jnsgd1na2vs0mg"},{"bike_id":"842efdc6-7475-4296-acc6-e6bc66651e58","system_id":"levelo_inurba_marseille","lat":43.29066,"lon":5.37162,"is_reserved":false,"is_disabled":false,"rental_uris":{"android":"levelo://app?vid=842efdc6-7475-4296-acc6-e6bc66651e58","ios":"levelo://app?vid=842efdc6-7475-4296-acc6-e6bc66651e58"},"vehicle_type_id":"4","last_reported":1729894084,"current_range_meters":12800,"station_id":"ce4bh5p2rcd13ifvqe4g","pricing_plan_id":"cebpf4jnsgd1na2vs0mg"},{"bike_id":"828cf704-9fec-4c7b-98f1-f6263872db9b","system_id":"levelo_inurba_marseille","lat":43.25577,"lon":5.3824,"is_reserved":false,"is_disabled":false,"rental_uris":{"android":"levelo://app?vid=828cf704-9fec-4c7b-98f1-f6263872db9b","ios":"levelo://app?vid=828cf704-9fec-4c7b-98f1-f6263872db9b"},"vehicle_type_id":"4","last_reported":1729894084,"current_range_meters":28800,"station_id":"ce4bhih2rcd13ifvqfs0","pricing_plan_id":"cebpf4jnsgd1na2vs0mg"},{"bike_id":"256eb09a-9e75-46fb-a441-f70d0ed502e9","system_id":"levelo_inurba_marseille","lat":43.28659,"lon":5.36356,"is_reserved":false,"is_disabled":false,"rental_uris":{"android":"levelo://app?vid=256eb09a-9e75-46fb-a441-f70d0ed502e9","ios":"levelo://app?vid=256eb09a-9e75-46fb-a441-f70d0ed502e9"},"vehicle_type_id":"4","last_reported":1729894084,"current_range_meters":22400,"station_id":"ce4bhah2rcd13ifvqej0","pricing_plan_id":"cebpf4jnsgd1na2vs0mg"},{"bike_id":"ffe5e8e1-28f9-40b5-b590-4d41438bbef5","system_id":"levelo_inurba_marseille","lat":43.31329,"lon":5.39689,"is_reserved":false,"is_disabled":false,"rental_uris":{"android":"levelo://app?vid=ffe5e8e1-28f9-40b5-b590-4d41438bbef5","ios":"levelo://app?vid=ffe5e8e1-28f9-40b5-b590-4d41438bbef5"},"vehicle_type_id":"4","last_reported":1729894084,"current_range_meters":36400,"station_id":"ce4bgvp2rcd13ifvqcu0","pricing_plan_id":"cebpf4jnsgd1na2vs0mg"},{"bike_id":"84524af5-cab8-45d6-a697-cd4124bee7ac","system_id":"levelo_inurba_marseille","lat":43.25122,"lon":5.40317,"is_reserved":false,"is_disabled":false,"rental_uris":{"android":"levelo://app?vid=84524af5-cab8-45d6-a697-cd4124bee7ac","ios":"levelo://app?vid=84524af5-cab8-45d6-a697-cd4124bee7ac"},"vehicle_type_id":"4","last_reported":1729894084,"current_range_meters":38800,"station_id":"ce4bhlh2rcd13ifvqgig","pricing_plan_id":"cebpf4jnsgd1na2vs0mg"},{"bike_id":"7dea3e7e-d097-49d0-a088-22b8f2f11a9f","system_id":"levelo_inurba_marseille","lat":43.2909,"lon":5.38142,"is_reserved":false,"is_disabled":false,"rental_uris":{"android":"levelo://app?vid=7dea3e7e-d097-49d0-a088-22b8f2f11a9f","ios":"levelo://app?vid=7dea3e7e-d097-49d0-a088-22b8f2f11a9f"},"vehicle_type_id":"4","last_reported":1729894084,"current_range_meters":33200,"station_id":"ce4bh512rcd13ifvqe2g","pricing_plan_id":"cebpf4jnsgd1na2vs0mg"},{"bike_id":"43ae09dc-7ab4-4f53-8669-43e00495c46d","system_id":"levelo_inurba_marseille","lat":43.29971,"lon":5.37184,"is_reserved":false,"is_disabled":false,"rental_uris":{"android":"levelo://app?vid=43ae09dc-7ab4-4f53-8669-43e00495c46d","ios":"levelo://app?vid=43ae09dc-7ab4-4f53-8669-43e00495c46d"},"vehicle_type_id":"4","last_reported":1729894084,"current_range_meters":18800,"station_id":"ce4bgr92rcd13ifvqc7g","pricing_plan_id":"cebpf4jnsgd1na2vs0mg"},{"bike_id":"841662d0-f257-4608-a6c6-ca3bef331737","system_id":"levelo_inurba_marseille","lat":43.32658,"lon":5.40997,"is_reserved":false,"is_disabled":false,"rental_uris":{"android":"levelo://app?vid=841662d0-f257-4608-a6c6-ca3bef331737","ios":"levelo://app?vid=841662d0-f257-4608-a6c6-ca3bef331737"},"vehicle_type_id":"4","last_reported":1729894084,"current_range_meters":37600,"station_id":"ce4bhpp2rcd13ifvqhgg","pricing_plan_id":"cebpf4jnsgd1na2vs0mg"},{"bike_id":"a556bc12-2a48-4e3f-8f8d-5d2bfb4698bd","system_id":"levelo_inurba_marseille","lat":43.27374,"lon":5.36257,"is_reserved":false,"is_disabled":false,"rental_uris":{"android":"levelo://app?vid=a556bc12-2a48-4e3f-8f8d-5d2bfb4698bd","ios":"levelo://app?vid=a556bc12-2a48-4e3f-8f8d-5d2bfb4698bd"},"vehicle_type_id":"4","last_reported":1729894084,"current_range_meters":15200,"station_id":"ce4bhbh2rcd13ifvqeo0","pricing_plan_id":"cebpf4jnsgd1na2vs0mg"},{"bike_id":"658bfff3-7447-4dd6-9000-656b6647cd35","system_id":"levelo_inurba_marseille","lat":43.29864,"lon":5.39737,"is_reserved":false,"is_disabled":false,"rental_uris":{"android":"levelo://app?vid=658bfff3-7447-4dd6-9000-656b6647cd35","ios":"levelo://app?vid=658bfff3-7447-4dd6-9000-656b6647cd35"},"vehicle_type_id":"4","last_reported":1729894084,"current_range_meters":19600,"station_id":"ce4bh0h2rcd13ifvqd50","pricing_plan_id":"cebpf4jnsgd1na2vs0mg"},{"bike_id":"ba23ff9b-4577-427e-a1be-4c831a6f0132","system_id":"levelo_inurba_marseille","lat":43.28033,"lon":5.36951,"is_reserved":false,"is_disabled":false,"rental_uris":{"android":"levelo://app?vid=ba23ff9b-4577-427e-a1be-4c831a6f0132","ios":"levelo://app?vid=ba23ff9b-4577-427e-a1be-4c831a6f0132"},"vehicle_type_id":"4","last_reported":1729894084,"current_range_meters":37600,"station_id":"ce4bha12rcd13ifvqef0","pricing_plan_id":"cebpf4jnsgd1na2vs0mg"},{"bike_id":"dbe08cdc-66cd-42cc-b5f4-1983bf8dab4b","system_id":"levelo_inurba_marseille","lat":43.32366,"lon":5.3888,"is_reserved":false,"is_disabled":false,"rental_uris":{"android":"levelo://app?vid=dbe08cdc-66cd-42cc-b5f4-1983bf8dab4b","ios":"levelo://app?vid=dbe08cdc-66cd-42cc-b5f4-1983bf8dab4b"},"vehicle_type_id":"4","last_reported":1729894084,"current_range_meters":24800,"station_id":"ce4bhqp2rcd13ifvqhog","pricing_plan_id":"cebpf4jnsgd1na2vs0mg"},{"bike_id":"9b32293b-81be-45fa-8866-6b871c88cbf7","system_id":"levelo_inurba_marseille","lat":43.29415,"lon":5.38628,"is_reserved":false,"is_disabled":false,"rental_uris":{"android":"levelo://app?vid=9b32293b-81be-45fa-8866-6b871c88cbf7","ios":"levelo://app?vid=9b32293b-81be-45fa-8866-6b871c88cbf7"},"vehicle_type_id":"4","last_reported":1729894084,"current_range_meters":34800,"station_id":"ce4bh2h2rcd13ifvqdh0","pricing_plan_id":"cebpf4jnsgd1na2vs0mg"},{"bike_id":"13925bae-3873-4f22-81bc-e6d3f089048d","system_id":"levelo_inurba_marseille","lat":43.31757,"lon":5.39016,"is_reserved":false,"is_disabled":false,"rental_uris":{"android":"levelo://app?vid=13925bae-3873-4f22-81bc-e6d3f089048d","ios":"levelo://app?vid=13925bae-3873-4f22-81bc-e6d3f089048d"},"vehicle_type_id":"4","last_reported":1729894084,"current_range_meters":8800,"station_id":"ce4bhqp2rcd13ifvqhng","pricing_plan_id":"cebpf4jnsgd1na2vs0mg"},{"bike_id":"e7c6933b-07ec-4ad4-9a74-1ac57bcd8e23","system_id":"levelo_inurba_marseille","lat":43.287,"lon":5.39983,"is_reserved":false,"is_disabled":false,"rental_uris":{"android":"levelo://app?vid=e7c6933b-07ec-4ad4-9a74-1ac57bcd8e23","ios":"levelo://app?vid=e7c6933b-07ec-4ad4-9a74-1ac57bcd8e23"},"vehicle_type_id":"4","last_reported":1729894084,"current_range_meters":37600,"station_id":"ce4bho92rcd13ifvqh3g","pricing_plan_id":"cebpf4jnsgd1na2vs0mg"},{"bike_id":"1542f6de-3dd1-481c-99dc-f28588a5d22a","system_id":"levelo_inurba_marseille","lat":43.31335,"lon":5.39699,"is_reserved":false,"is_disabled":false,"rental_uris":{"android":"levelo://app?vid=1542f6de-3dd1-481c-99dc-f28588a5d22a","ios":"levelo://app?vid=1542f6de-3dd1-481c-99dc-f28588a5d22a"},"vehicle_type_id":"4","last_reported":1729894084,"current_range_meters":14000,"station_id":"ce4bgvp2rcd13ifvqcu0","pricing_plan_id":"cebpf4jnsgd1na2vs0mg"},{"bike_id":"865124a8-5cf8-4f1f-ba5e-7dd42a2c84cc","system_id":"levelo_inurba_marseille","lat":43.28273,"lon":5.3506,"is_reserved":false,"is_disabled":false,"rental_uris":{"android":"levelo://app?vid=865124a8-5cf8-4f1f-ba5e-7dd42a2c84cc","ios":"levelo://app?vid=865124a8-5cf8-4f1f-ba5e-7dd42a2c84cc"},"vehicle_type_id":"4","last_reported":1729894084,"current_range_meters":16800,"station_id":"ce4bhbp2rcd13ifvqerg","pricing_plan_id":"cebpf4jnsgd1na2vs0mg"},{"bike_id":"d5ea47c9-768a-468d-bdf2-2b85271b8d40","system_id":"levelo_inurba_marseille","lat":43.29421,"lon":5.38605,"is_reserved":false,"is_disabled":false,"rental_uris":{"android":"levelo://app?vid=d5ea47c9-768a-468d-bdf2-2b85271b8d40","ios":"levelo://app?vid=d5ea47c9-768a-468d-bdf2-2b85271b8d40"},"vehicle_type_id":"4","last_reported":1729894084,"current_range_meters":20000,"station_id":"ce4bh2h2rcd13ifvqdh0","pricing_plan_id":"cebpf4jnsgd1na2vs0mg"},{"bike_id":"4a95f9b7-e0be-419a-9102-9e5d86753f74","system_id":"levelo_inurba_marseille","lat":43.28668,"lon":5.36352,"is_reserved":false,"is_disabled":false,"rental_uris":{"android":"levelo://app?vid=4a95f9b7-e0be-419a-9102-9e5d86753f74","ios":"levelo://app?vid=4a95f9b7-e0be-419a-9102-9e5d86753f74"},"vehicle_type_id":"4","last_reported":1729894084,"current_range_meters":27200,"station_id":"ce4bhah2rcd13ifvqej0","pricing_plan_id":"cebpf4jnsgd1na2vs0mg"},{"bike_id":"f4526530-9fcc-4329-9755-efd0fbf82cd5","system_id":"levelo_inurba_marseille","lat":43.25002,"lon":5.38916,"is_reserved":false,"is_disabled":false,"rental_uris":{"android":"levelo://app?vid=f4526530-9fcc-4329-9755-efd0fbf82cd5","ios":"levelo://app?vid=f4526530-9fcc-4329-9755-efd0fbf82cd5"},"vehicle_type_id":"4","last_reported":1729894084,"current_range_meters":8400,"station_id":"ce4bhgp2rcd13ifvqfd0","pricing_plan_id":"cebpf4jnsgd1na2vs0mg"},{"bike_id":"25ead7b0-4d09-42c4-80d5-889c619fcbc8","system_id":"levelo_inurba_marseille","lat":43.29032,"lon":5.38642,"is_reserved":false,"is_disabled":false,"rental_uris":{"android":"levelo://app?vid=25ead7b0-4d09-42c4-80d5-889c619fcbc8","ios":"levelo://app?vid=25ead7b0-4d09-42c4-80d5-889c619fcbc8"},"vehicle_type_id":"4","last_reported":1729894084,"current_range_meters":35200,"station_id":"ce4bh4p2rcd13ifvqe0g","pricing_plan_id":"cebpf4jnsgd1na2vs0mg"},{"bike_id":"dbc4ebbc-8717-4660-a6b1-46384f4e6f8b","system_id":"levelo_inurba_marseille","lat":43.254418,"lon":5.376725,"is_reserved":false,"is_disabled":false,"rental_uris":{"android":"levelo://app?vid=dbc4ebbc-8717-4660-a6b1-46384f4e6f8b","ios":"levelo://app?vid=dbc4ebbc-8717-4660-a6b1-46384f4e6f8b"},"vehicle_type_id":"4","last_reported":1729894084,"current_range_meters":34800,"station_id":"ce4bhh12rcd13ifvqff0","pricing_plan_id":"cebpf4jnsgd1na2vs0mg"},{"bike_id":"f7d66ddc-262c-4fe7-beef-1b638e6454d3","system_id":"levelo_inurba_marseille","lat":43.29689,"lon":5.37286,"is_reserved":false,"is_disabled":false,"rental_uris":{"android":"levelo://app?vid=f7d66ddc-262c-4fe7-beef-1b638e6454d3","ios":"levelo://app?vid=f7d66ddc-262c-4fe7-beef-1b638e6454d3"},"vehicle_type_id":"4","last_reported":1729894084,"current_range_meters":38400,"station_id":"ce4bgk12rcd13ifvqbj0","pricing_plan_id":"cebpf4jnsgd1na2vs0mg"},{"bike_id":"a1579f1f-1039-467b-99c0-eff8c469a9f1","system_id":"levelo_inurba_marseille","lat":43.27825,"lon":5.3921,"is_reserved":false,"is_disabled":false,"rental_uris":{"android":"levelo://app?vid=a1579f1f-1039-467b-99c0-eff8c469a9f1","ios":"levelo://app?vid=a1579f1f-1039-467b-99c0-eff8c469a9f1"},"vehicle_type_id":"4","last_reported":1729894084,"current_range_meters":23200,"station_id":"ce4bhjp2rcd13ifvqga0","pricing_plan_id":"cebpf4jnsgd1na2vs0mg"},{"bike_id":"9c79dbec-c005-4abe-8585-6bcaca0d7ae8","system_id":"levelo_inurba_marseille","lat":43.3136,"lon":5.38487,"is_reserved":false,"is_disabled":false,"rental_uris":{"android":"levelo://app?vid=9c79dbec-c005-4abe-8585-6bcaca0d7ae8","ios":"levelo://app?vid=9c79dbec-c005-4abe-8585-6bcaca0d7ae8"},"vehicle_type_id":"4","last_reported":1729894084,"current_range_meters":28400,"station_id":"ce4bgt92rcd13ifvqcf0","pricing_plan_id":"cebpf4jnsgd1na2vs0mg"},{"bike_id":"cbc5287e-dce8-418e-bac7-864a68889123","system_id":"levelo_inurba_marseille","lat":43.2841,"lon":5.349767,"is_reserved":false,"is_disabled":false,"rental_uris":{"android":"levelo://app?vid=cbc5287e-dce8-418e-bac7-864a68889123","ios":"levelo://app?vid=cbc5287e-dce8-418e-bac7-864a68889123"},"vehicle_type_id":"4","last_reported":1729894084,"current_range_meters":8400,"station_id":"ce4bhbh2rcd13ifvqepg","pricing_plan_id":"cebpf4jnsgd1na2vs0mg"},{"bike_id":"11f74dc2-d7f0-4370-95f5-87920a527352","system_id":"levelo_inurba_marseille","lat":43.26492,"lon":5.39544,"is_reserved":false,"is_disabled":false,"rental_uris":{"android":"levelo://app?vid=11f74dc2-d7f0-4370-95f5-87920a527352","ios":"levelo://app?vid=11f74dc2-d7f0-4370-95f5-87920a527352"},"vehicle_type_id":"4","last_reported":1729894084,"current_range_meters":27200,"station_id":"ce4bhi12rcd13ifvqfq0","pricing_plan_id":"cebpf4jnsgd1na2vs0mg"},{"bike_id":"d3ad0654-8b42-424b-9819-4bfe010ac5af","system_id":"levelo_inurba_marseille","lat":43.24545,"lon":5.39523,"is_reserved":false,"is_disabled":false,"rental_uris":{"android":"levelo://app?vid=d3ad0654-8b42-424b-9819-4bfe010ac5af","ios":"levelo://app?vid=d3ad0654-8b42-424b-9819-4bfe010ac5af"},"vehicle_type_id":"4","last_reported":1729894084,"current_range_meters":37600,"station_id":"ce4bhlp2rcd13ifvqgjg","pricing_plan_id":"cebpf4jnsgd1na2vs0mg"},{"bike_id":"00389b76-de35-41c3-b438-3dee90be7135","system_id":"levelo_inurba_marseille","lat":43.28568,"lon":5.39499,"is_reserved":false,"is_disabled":false,"rental_uris":{"android":"levelo://app?vid=00389b76-de35-41c3-b438-3dee90be7135","ios":"levelo://app?vid=00389b76-de35-41c3-b438-3dee90be7135"},"vehicle_type_id":"4","last_reported":1729894084,"current_range_meters":38000,"station_id":"ce4bh292rcd13ifvqdg0","pricing_plan_id":"cebpf4jnsgd1na2vs0mg"},{"bike_id":"acebe514-ccc8-4a56-9993-0513a4c95824","system_id":"levelo_inurba_marseille","lat":43.30242,"lon":5.40057,"is_reserved":false,"is_disabled":false,"rental_uris":{"android":"levelo://app?vid=acebe514-ccc8-4a56-9993-0513a4c95824","ios":"levelo://app?vid=acebe514-ccc8-4a56-9993-0513a4c95824"},"vehicle_type_id":"4","last_reported":1729894084,"current_range_meters":4800,"station_id":"ce4bgvh2rcd13ifvqcs0","pricing_plan_id":"cebpf4jnsgd1na2vs0mg"},{"bike_id":"3a62175b-fb2d-4c7d-be50-c819439e8b3a","system_id":"levelo_inurba_marseille","lat":43.28001,"lon":5.4001,"is_reserved":false,"is_disabled":false,"rental_uris":{"android":"levelo://app?vid=3a62175b-fb2d-4c7d-be50-c819439e8b3a","ios":"levelo://app?vid=3a62175b-fb2d-4c7d-be50-c819439e8b3a"},"vehicle_type_id":"4","last_reported":1729894084,"current_range_meters":14400,"station_id":"ce4bho92rcd13ifvqh4g","pricing_plan_id":"cebpf4jnsgd1na2vs0mg"},{"bike_id":"9edb63cd-88b5-4bca-9781-61823512ecea","system_id":"levelo_inurba_marseille","lat":43.30581,"lon":5.39351,"is_reserved":false,"is_disabled":false,"rental_uris":{"android":"levelo://app?vid=9edb63cd-88b5-4bca-9781-61823512ecea","ios":"levelo://app?vid=9edb63cd-88b5-4bca-9781-61823512ecea"},"vehicle_type_id":"4","last_reported":1729894084,"current_range_meters":32800,"station_id":"ce4bh0p2rcd13ifvqd80","pricing_plan_id":"cebpf4jnsgd1na2vs0mg"},{"bike_id":"16f01b80-c7fb-4fde-83a6-d307c062a13d","system_id":"levelo_inurba_marseille","lat":43.29414,"lon":5.38629,"is_reserved":false,"is_disabled":false,"rental_uris":{"android":"levelo://app?vid=16f01b80-c7fb-4fde-83a6-d307c062a13d","ios":"levelo://app?vid=16f01b80-c7fb-4fde-83a6-d307c062a13d"},"vehicle_type_id":"4","last_reported":1729894084,"current_range_meters":18800,"station_id":"ce4bh2h2rcd13ifvqdh0","pricing_plan_id":"cebpf4jnsgd1na2vs0mg"},{"bike_id":"d0308c9e-a0ab-4c94-8529-194624cd8656","system_id":"levelo_inurba_marseille","lat":43.28704,"lon":5.37407,"is_reserved":false,"is_disabled":false,"rental_uris":{"android":"levelo://app?vid=d0308c9e-a0ab-4c94-8529-194624cd8656","ios":"levelo://app?vid=d0308c9e-a0ab-4c94-8529-194624cd8656"},"vehicle_type_id":"4","last_reported":1729894084,"current_range_meters":36400,"station_id":"ce4bh3p2rcd13ifvqdq0","pricing_plan_id":"cebpf4jnsgd1na2vs0mg"},{"bike_id":"bbbf1317-0cef-47f4-b80a-4dcb1e32720d","system_id":"levelo_inurba_marseille","lat":43.32331,"lon":5.40619,"is_reserved":false,"is_disabled":false,"rental_uris":{"android":"levelo://app?vid=bbbf1317-0cef-47f4-b80a-4dcb1e32720d","ios":"levelo://app?vid=bbbf1317-0cef-47f4-b80a-4dcb1e32720d"},"vehicle_type_id":"4","last_reported":1729894084,"current_range_meters":38800,"station_id":"ce4bhq92rcd13ifvqhjg","pricing_plan_id":"cebpf4jnsgd1na2vs0mg"},{"bike_id":"083266da-d446-4661-99d2-abecf8222b3a","system_id":"levelo_inurba_marseille","lat":43.26941,"lon":5.40254,"is_reserved":false,"is_disabled":false,"rental_uris":{"android":"levelo://app?vid=083266da-d446-4661-99d2-abecf8222b3a","ios":"levelo://app?vid=083266da-d446-4661-99d2-abecf8222b3a"},"vehicle_type_id":"4","last_reported":1729894084,"current_range_meters":33600,"station_id":"cjm6bp8fraef2m0cb0m0","pricing_plan_id":"cebpf4jnsgd1na2vs0mg"},{"bike_id":"83b3be27-6ad2-4931-9c01-b4673c1f65bf","system_id":"levelo_inurba_marseille","lat":43.27811,"lon":5.40705,"is_reserved":false,"is_disabled":false,"rental_uris":{"android":"levelo://app?vid=83b3be27-6ad2-4931-9c01-b4673c1f65bf","ios":"levelo://app?vid=83b3be27-6ad2-4931-9c01-b4673c1f65bf"},"vehicle_type_id":"4","last_reported":1729894084,"current_range_meters":38400,"station_id":"ce4bhnh2rcd13ifvqgtg","pricing_plan_id":"cebpf4jnsgd1na2vs0mg"},{"bike_id":"914671d9-159b-452e-80e3-3092799d2235","system_id":"levelo_inurba_marseille","lat":43.32334,"lon":5.40613,"is_reserved":false,"is_disabled":false,"rental_uris":{"android":"levelo://app?vid=914671d9-159b-452e-80e3-3092799d2235","ios":"levelo://app?vid=914671d9-159b-452e-80e3-3092799d2235"},"vehicle_type_id":"4","last_reported":1729894084,"current_range_meters":26800,"station_id":"ce4bhq92rcd13ifvqhjg","pricing_plan_id":"cebpf4jnsgd1na2vs0mg"},{"bike_id":"5d51a5f7-80c6-41f5-a6a8-0ad9c0f6dce4","system_id":"levelo_inurba_marseille","lat":43.30913,"lon":5.36845,"is_reserved":false,"is_disabled":false,"rental_uris":{"android":"levelo://app?vid=5d51a5f7-80c6-41f5-a6a8-0ad9c0f6dce4","ios":"levelo://app?vid=5d51a5f7-80c6-41f5-a6a8-0ad9c0f6dce4"},"vehicle_type_id":"4","last_reported":1729894084,"current_range_meters":36400,"station_id":"ce4bgn92rcd13ifvqbvg","pricing_plan_id":"cebpf4jnsgd1na2vs0mg"},{"bike_id":"db7f3dcb-7f8d-40dc-8b80-c10b2d2d308b","system_id":"levelo_inurba_marseille","lat":43.27558,"lon":5.38436,"is_reserved":false,"is_disabled":false,"rental_uris":{"android":"levelo://app?vid=db7f3dcb-7f8d-40dc-8b80-c10b2d2d308b","ios":"levelo://app?vid=db7f3dcb-7f8d-40dc-8b80-c10b2d2d308b"},"vehicle_type_id":"4","last_reported":1729894084,"current_range_meters":30800,"station_id":"ce4bhh92rcd13ifvqfi0","pricing_plan_id":"cebpf4jnsgd1na2vs0mg"},{"bike_id":"574321db-1f88-46d0-ae4f-abf349feeaad","system_id":"levelo_inurba_marseille","lat":43.29422,"lon":5.38606,"is_reserved":false,"is_disabled":false,"rental_uris":{"android":"levelo://app?vid=574321db-1f88-46d0-ae4f-abf349feeaad","ios":"levelo://app?vid=574321db-1f88-46d0-ae4f-abf349feeaad"},"vehicle_type_id":"4","last_reported":1729894084,"current_range_meters":6000,"station_id":"ce4bh2h2rcd13ifvqdh0","pricing_plan_id":"cebpf4jnsgd1na2vs0mg"},{"bike_id":"89206673-fdc6-4c61-b767-c66677e18d0b","system_id":"levelo_inurba_marseille","lat":43.22931,"lon":5.35378,"is_reserved":false,"is_disabled":false,"rental_uris":{"android":"levelo://app?vid=89206673-fdc6-4c61-b767-c66677e18d0b","ios":"levelo://app?vid=89206673-fdc6-4c61-b767-c66677e18d0b"},"vehicle_type_id":"4","last_reported":1729894084,"current_range_meters":34800,"station_id":"cpo3532slgdg3j2ikp40","pricing_plan_id":"cebpf4jnsgd1na2vs0mg"},{"bike_id":"dbc5c4d4-4a36-46c8-bc03-6f0e18ca35c8","system_id":"levelo_inurba_marseille","lat":43.29031,"lon":5.3996,"is_reserved":false,"is_disabled":false,"rental_uris":{"android":"levelo://app?vid=dbc5c4d4-4a36-46c8-bc03-6f0e18ca35c8","ios":"levelo://app?vid=dbc5c4d4-4a36-46c8-bc03-6f0e18ca35c8"},"vehicle_type_id":"4","last_reported":1729894084,"current_range_meters":32400,"station_id":"ce4bh392rcd13ifvqdm0","pricing_plan_id":"cebpf4jnsgd1na2vs0mg"},{"bike_id":"9a9134f3-2abe-4dbe-ac22-3c81a5dd96ed","system_id":"levelo_inurba_marseille","lat":43.28353,"lon":5.38106,"is_reserved":false,"is_disabled":false,"rental_uris":{"android":"levelo://app?vid=9a9134f3-2abe-4dbe-ac22-3c81a5dd96ed","ios":"levelo://app?vid=9a9134f3-2abe-4dbe-ac22-3c81a5dd96ed"},"vehicle_type_id":"4","last_reported":1729894084,"current_range_meters":36800,"station_id":"ce4bh412rcd13ifvqdr0","pricing_plan_id":"cebpf4jnsgd1na2vs0mg"},{"bike_id":"56ae24e0-7c5f-4efc-b49c-d9696c9b221e","system_id":"levelo_inurba_marseille","lat":43.29332,"lon":5.45467,"is_reserved":false,"is_disabled":false,"rental_uris":{"android":"levelo://app?vid=56ae24e0-7c5f-4efc-b49c-d9696c9b221e","ios":"levelo://app?vid=56ae24e0-7c5f-4efc-b49c-d9696c9b221e"},"vehicle_type_id":"4","last_reported":1729894084,"current_range_meters":24000,"station_id":"","pricing_plan_id":"cebpf4jnsgd1na2vs0mg"},{"bike_id":"fbda76cf-ad32-44f5-8e46-a16eaabd2829","system_id":"levelo_inurba_marseille","lat":43.22936,"lon":5.35376,"is_reserved":false,"is_disabled":false,"rental_uris":{"android":"levelo://app?vid=fbda76cf-ad32-44f5-8e46-a16eaabd2829","ios":"levelo://app?vid=fbda76cf-ad32-44f5-8e46-a16eaabd2829"},"vehicle_type_id":"4","last_reported":1729894084,"current_range_meters":17200,"station_id":"cpo3532slgdg3j2ikp40","pricing_plan_id":"cebpf4jnsgd1na2vs0mg"},{"bike_id":"bc63bb33-1065-43dc-812a-9ecc49b5234b","system_id":"levelo_inurba_marseille","lat":43.31528,"lon":5.38034,"is_reserved":false,"is_disabled":false,"rental_uris":{"android":"levelo://app?vid=bc63bb33-1065-43dc-812a-9ecc49b5234b","ios":"levelo://app?vid=bc63bb33-1065-43dc-812a-9ecc49b5234b"},"vehicle_type_id":"4","last_reported":1729894084,"current_range_meters":2800,"station_id":"ce4bhsp2rcd13ifvqi50","pricing_plan_id":"cebpf4jnsgd1na2vs0mg"},{"bike_id":"d916e714-9a1c-426b-b0df-8f9ca106fed4","system_id":"levelo_inurba_marseille","lat":43.2953,"lon":5.38529,"is_reserved":false,"is_disabled":false,"rental_uris":{"android":"levelo://app?vid=d916e714-9a1c-426b-b0df-8f9ca106fed4","ios":"levelo://app?vid=d916e714-9a1c-426b-b0df-8f9ca106fed4"},"vehicle_type_id":"4","last_reported":1729894084,"current_range_meters":28400,"station_id":"ce4bgih2rcd13ifvqba0","pricing_plan_id":"cebpf4jnsgd1na2vs0mg"},{"bike_id":"00a362a7-0c45-4caa-8da9-a26eb695a9d7","system_id":"levelo_inurba_marseille","lat":43.26961,"lon":5.39301,"is_reserved":false,"is_disabled":false,"rental_uris":{"android":"levelo://app?vid=00a362a7-0c45-4caa-8da9-a26eb695a9d7","ios":"levelo://app?vid=00a362a7-0c45-4caa-8da9-a26eb695a9d7"},"vehicle_type_id":"4","last_reported":1729894084,"current_range_meters":17600,"station_id":"","pricing_plan_id":"cebpf4jnsgd1na2vs0mg"},{"bike_id":"60919b7d-fc16-4df8-a2bc-50e792d69cc9","system_id":"levelo_inurba_marseille","lat":43.2694,"lon":5.40248,"is_reserved":false,"is_disabled":false,"rental_uris":{"android":"levelo://app?vid=60919b7d-fc16-4df8-a2bc-50e792d69cc9","ios":"levelo://app?vid=60919b7d-fc16-4df8-a2bc-50e792d69cc9"},"vehicle_type_id":"4","last_reported":1729894084,"current_range_meters":22800,"station_id":"cjm6bp8fraef2m0cb0m0","pricing_plan_id":"cebpf4jnsgd1na2vs0mg"},{"bike_id":"422b7f7b-2165-4762-88f3-e0a57173b5c7","system_id":"levelo_inurba_marseille","lat":43.32328,"lon":5.40617,"is_reserved":false,"is_disabled":false,"rental_uris":{"android":"levelo://app?vid=422b7f7b-2165-4762-88f3-e0a57173b5c7","ios":"levelo://app?vid=422b7f7b-2165-4762-88f3-e0a57173b5c7"},"vehicle_type_id":"4","last_reported":1729894084,"current_range_meters":8000,"station_id":"ce4bhq92rcd13ifvqhjg","pricing_plan_id":"cebpf4jnsgd1na2vs0mg"},{"bike_id":"ed9a19b1-d1a1-4d8f-b3ff-571aa37c4a7d","system_id":"levelo_inurba_marseille","lat":43.29519,"lon":5.39394,"is_reserved":false,"is_disabled":false,"rental_uris":{"android":"levelo://app?vid=ed9a19b1-d1a1-4d8f-b3ff-571aa37c4a7d","ios":"levelo://app?vid=ed9a19b1-d1a1-4d8f-b3ff-571aa37c4a7d"},"vehicle_type_id":"4","last_reported":1729894084,"current_range_meters":36400,"station_id":"ce4bh292rcd13ifvqdf0","pricing_plan_id":"cebpf4jnsgd1na2vs0mg"},{"bike_id":"6d801313-4ff2-4469-b8f6-c470239153f6","system_id":"levelo_inurba_marseille","lat":43.30891,"lon":5.37194,"is_reserved":false,"is_disabled":false,"rental_uris":{"android":"levelo://app?vid=6d801313-4ff2-4469-b8f6-c470239153f6","ios":"levelo://app?vid=6d801313-4ff2-4469-b8f6-c470239153f6"},"vehicle_type_id":"4","last_reported":1729894084,"current_range_meters":35200,"station_id":"ce4bguh2rcd13ifvqckg","pricing_plan_id":"cebpf4jnsgd1na2vs0mg"},{"bike_id":"a0adfc83-bd30-4c6f-b267-162145dbd841","system_id":"levelo_inurba_marseille","lat":43.28725,"lon":5.36077,"is_reserved":false,"is_disabled":false,"rental_uris":{"android":"levelo://app?vid=a0adfc83-bd30-4c6f-b267-162145dbd841","ios":"levelo://app?vid=a0adfc83-bd30-4c6f-b267-162145dbd841"},"vehicle_type_id":"4","last_reported":1729894084,"current_range_meters":32000,"station_id":"cki0cbj6b192h4jlfktg","pricing_plan_id":"cebpf4jnsgd1na2vs0mg"},{"bike_id":"8fac51d6-c255-4d52-a52c-3a6892999a9d","system_id":"levelo_inurba_marseille","lat":43.29417,"lon":5.38621,"is_reserved":false,"is_disabled":false,"rental_uris":{"android":"levelo://app?vid=8fac51d6-c255-4d52-a52c-3a6892999a9d","ios":"levelo://app?vid=8fac51d6-c255-4d52-a52c-3a6892999a9d"},"vehicle_type_id":"4","last_reported":1729894084,"current_range_meters":14000,"station_id":"ce4bh2h2rcd13ifvqdh0","pricing_plan_id":"cebpf4jnsgd1na2vs0mg"},{"bike_id":"d410a422-d192-420f-99cb-6334954f7d62","system_id":"levelo_inurba_marseille","lat":43.25817,"lon":5.39428,"is_reserved":false,"is_disabled":false,"rental_uris":{"android":"levelo://app?vid=d410a422-d192-420f-99cb-6334954f7d62","ios":"levelo://app?vid=d410a422-d192-420f-99cb-6334954f7d62"},"vehicle_type_id":"4","last_reported":1729894084,"current_range_meters":38800,"station_id":"ce4bhip2rcd13ifvqft0","pricing_plan_id":"cebpf4jnsgd1na2vs0mg"},{"bike_id":"43c6d84a-65a3-41ba-85e2-f44494d31ff7","system_id":"levelo_inurba_marseille","lat":43.29957,"lon":5.41314,"is_reserved":false,"is_disabled":false,"rental_uris":{"android":"levelo://app?vid=43c6d84a-65a3-41ba-85e2-f44494d31ff7","ios":"levelo://app?vid=43c6d84a-65a3-41ba-85e2-f44494d31ff7"},"vehicle_type_id":"4","last_reported":1729894084,"current_range_meters":26800,"station_id":"ce4bhp12rcd13ifvqh9g","pricing_plan_id":"cebpf4jnsgd1na2vs0mg"},{"bike_id":"904a5ea3-d5dd-4aa3-853f-ea7a93bbc745","system_id":"levelo_inurba_marseille","lat":43.31761,"lon":5.3902,"is_reserved":false,"is_disabled":false,"rental_uris":{"android":"levelo://app?vid=904a5ea3-d5dd-4aa3-853f-ea7a93bbc745","ios":"levelo://app?vid=904a5ea3-d5dd-4aa3-853f-ea7a93bbc745"},"vehicle_type_id":"4","last_reported":1729894084,"current_range_meters":38000,"station_id":"ce4bhqp2rcd13ifvqhng","pricing_plan_id":"cebpf4jnsgd1na2vs0mg"},{"bike_id":"e4b95570-26b3-4888-9328-864fb43f2ed2","system_id":"levelo_inurba_marseille","lat":43.28443,"lon":5.3919,"is_reserved":false,"is_disabled":false,"rental_uris":{"android":"levelo://app?vid=e4b95570-26b3-4888-9328-864fb43f2ed2","ios":"levelo://app?vid=e4b95570-26b3-4888-9328-864fb43f2ed2"},"vehicle_type_id":"4","last_reported":1729894084,"current_range_meters":9600,"station_id":"ce4bhoh2rcd13ifvqh5g","pricing_plan_id":"cebpf4jnsgd1na2vs0mg"},{"bike_id":"bde40782-2920-4539-8da9-36e90758d17d","system_id":"levelo_inurba_marseille","lat":43.28703,"lon":5.39973,"is_reserved":false,"is_disabled":false,"rental_uris":{"android":"levelo://app?vid=bde40782-2920-4539-8da9-36e90758d17d","ios":"levelo://app?vid=bde40782-2920-4539-8da9-36e90758d17d"},"vehicle_type_id":"4","last_reported":1729894084,"current_range_meters":12000,"station_id":"ce4bho92rcd13ifvqh3g","pricing_plan_id":"cebpf4jnsgd1na2vs0mg"},{"bike_id":"7aca0326-a6b2-4863-b88e-c8f41e51600d","system_id":"levelo_inurba_marseille","lat":43.25491,"lon":5.37648,"is_reserved":false,"is_disabled":false,"rental_uris":{"android":"levelo://app?vid=7aca0326-a6b2-4863-b88e-c8f41e51600d","ios":"levelo://app?vid=7aca0326-a6b2-4863-b88e-c8f41e51600d"},"vehicle_type_id":"4","last_reported":1729894084,"current_range_meters":38000,"station_id":"ce4bhh12rcd13ifvqff0","pricing_plan_id":"cebpf4jnsgd1na2vs0mg"},{"bike_id":"a377c508-e273-402f-9064-dab880143860","system_id":"levelo_inurba_marseille","lat":43.28078,"lon":5.39648,"is_reserved":false,"is_disabled":false,"rental_uris":{"android":"levelo://app?vid=a377c508-e273-402f-9064-dab880143860","ios":"levelo://app?vid=a377c508-e273-402f-9064-dab880143860"},"vehicle_type_id":"4","last_reported":1729894084,"current_range_meters":36000,"station_id":"ce4bho12rcd13ifvqh2g","pricing_plan_id":"cebpf4jnsgd1na2vs0mg"},{"bike_id":"a579f22c-42af-4cbb-b1a9-0cf86de7789f","system_id":"levelo_inurba_marseille","lat":43.28021,"lon":5.36955,"is_reserved":false,"is_disabled":false,"rental_uris":{"android":"levelo://app?vid=a579f22c-42af-4cbb-b1a9-0cf86de7789f","ios":"levelo://app?vid=a579f22c-42af-4cbb-b1a9-0cf86de7789f"},"vehicle_type_id":"4","last_reported":1729894084,"current_range_meters":32000,"station_id":"ce4bha12rcd13ifvqef0","pricing_plan_id":"cebpf4jnsgd1na2vs0mg"},{"bike_id":"2babbf0b-5d66-4666-9818-cc5852bca33b","system_id":"levelo_inurba_marseille","lat":43.33725,"lon":5.39173,"is_reserved":false,"is_disabled":false,"rental_uris":{"android":"levelo://app?vid=2babbf0b-5d66-4666-9818-cc5852bca33b","ios":"levelo://app?vid=2babbf0b-5d66-4666-9818-cc5852bca33b"},"vehicle_type_id":"4","last_reported":1729894084,"current_range_meters":25200,"station_id":"ce4bhr92rcd13ifvqhsg","pricing_plan_id":"cebpf4jnsgd1na2vs0mg"},{"bike_id":"e3b5a74b-1e85-40ef-80db-84673b41d132","system_id":"levelo_inurba_marseille","lat":43.336,"lon":5.41037,"is_reserved":false,"is_disabled":false,"rental_uris":{"android":"levelo://app?vid=e3b5a74b-1e85-40ef-80db-84673b41d132","ios":"levelo://app?vid=e3b5a74b-1e85-40ef-80db-84673b41d132"},"vehicle_type_id":"4","last_reported":1729894084,"current_range_meters":25600,"station_id":"ce4bhqh2rcd13ifvqhmg","pricing_plan_id":"cebpf4jnsgd1na2vs0mg"},{"bike_id":"30a58045-5e86-4621-8a97-37f74aea516a","system_id":"levelo_inurba_marseille","lat":43.3295,"lon":5.36673,"is_reserved":false,"is_disabled":false,"rental_uris":{"android":"levelo://app?vid=30a58045-5e86-4621-8a97-37f74aea516a","ios":"levelo://app?vid=30a58045-5e86-4621-8a97-37f74aea516a"},"vehicle_type_id":"4","last_reported":1729894084,"current_range_meters":12400,"station_id":"","pricing_plan_id":"cebpf4jnsgd1na2vs0mg"},{"bike_id":"585bddab-23a5-4e78-9e57-9779c242dddb","system_id":"levelo_inurba_marseille","lat":43.2942,"lon":5.38622,"is_reserved":false,"is_disabled":false,"rental_uris":{"android":"levelo://app?vid=585bddab-23a5-4e78-9e57-9779c242dddb","ios":"levelo://app?vid=585bddab-23a5-4e78-9e57-9779c242dddb"},"vehicle_type_id":"4","last_reported":1729894084,"current_range_meters":38000,"station_id":"ce4bh2h2rcd13ifvqdh0","pricing_plan_id":"cebpf4jnsgd1na2vs0mg"},{"bike_id":"e0b18b6e-ce93-4742-a184-6aa34e85b991","system_id":"levelo_inurba_marseille","lat":43.25924,"lon":5.40904,"is_reserved":false,"is_disabled":false,"rental_uris":{"android":"levelo://app?vid=e0b18b6e-ce93-4742-a184-6aa34e85b991","ios":"levelo://app?vid=e0b18b6e-ce93-4742-a184-6aa34e85b991"},"vehicle_type_id":"4","last_reported":1729894084,"current_range_meters":37600,"station_id":"ce4bhm92rcd13ifvqglg","pricing_plan_id":"cebpf4jnsgd1na2vs0mg"},{"bike_id":"ab2daa8c-0e0d-4562-8a05-b595f8f32529","system_id":"levelo_inurba_marseille","lat":43.31369,"lon":5.38485,"is_reserved":false,"is_disabled":false,"rental_uris":{"android":"levelo://app?vid=ab2daa8c-0e0d-4562-8a05-b595f8f32529","ios":"levelo://app?vid=ab2daa8c-0e0d-4562-8a05-b595f8f32529"},"vehicle_type_id":"4","last_reported":1729894084,"current_range_meters":37600,"station_id":"ce4bgt92rcd13ifvqcf0","pricing_plan_id":"cebpf4jnsgd1na2vs0mg"},{"bike_id":"5cb71e1e-54c7-471d-9b73-2e2ab531ab95","system_id":"levelo_inurba_marseille","lat":43.25501,"lon":5.37651,"is_reserved":false,"is_disabled":false,"rental_uris":{"android":"levelo://app?vid=5cb71e1e-54c7-471d-9b73-2e2ab531ab95","ios":"levelo://app?vid=5cb71e1e-54c7-471d-9b73-2e2ab531ab95"},"vehicle_type_id":"4","last_reported":1729894084,"current_range_meters":5600,"station_id":"ce4bhh12rcd13ifvqff0","pricing_plan_id":"cebpf4jnsgd1na2vs0mg"},{"bike_id":"7fd9032d-6b0f-4d6b-b8e0-23495d7481ec","system_id":"levelo_inurba_marseille","lat":43.29534,"lon":5.38549,"is_reserved":false,"is_disabled":false,"rental_uris":{"android":"levelo://app?vid=7fd9032d-6b0f-4d6b-b8e0-23495d7481ec","ios":"levelo://app?vid=7fd9032d-6b0f-4d6b-b8e0-23495d7481ec"},"vehicle_type_id":"4","last_reported":1729894084,"current_range_meters":14800,"station_id":"ce4bgih2rcd13ifvqba0","pricing_plan_id":"cebpf4jnsgd1na2vs0mg"},{"bike_id":"1b2ea8c6-d146-47c2-b67a-094d72f8d2b0","system_id":"levelo_inurba_marseille","lat":43.2872,"lon":5.36069,"is_reserved":false,"is_disabled":false,"rental_uris":{"android":"levelo://app?vid=1b2ea8c6-d146-47c2-b67a-094d72f8d2b0","ios":"levelo://app?vid=1b2ea8c6-d146-47c2-b67a-094d72f8d2b0"},"vehicle_type_id":"4","last_reported":1729894084,"current_range_meters":24800,"station_id":"cki0cbj6b192h4jlfktg","pricing_plan_id":"cebpf4jnsgd1na2vs0mg"},{"bike_id":"05d3b332-e455-45e4-b83b-804237b0a4c2","system_id":"levelo_inurba_marseille","lat":43.29266,"lon":5.40918,"is_reserved":false,"is_disabled":false,"rental_uris":{"android":"levelo://app?vid=05d3b332-e455-45e4-b83b-804237b0a4c2","ios":"levelo://app?vid=05d3b332-e455-45e4-b83b-804237b0a4c2"},"vehicle_type_id":"4","last_reported":1729894084,"current_range_meters":32000,"station_id":"ce4bh192rcd13ifvqdc0","pricing_plan_id":"cebpf4jnsgd1na2vs0mg"},{"bike_id":"73d744cb-a357-42c8-a7bd-5e6d09de7e73","system_id":"levelo_inurba_marseille","lat":43.29424,"lon":5.38603,"is_reserved":false,"is_disabled":false,"rental_uris":{"android":"levelo://app?vid=73d744cb-a357-42c8-a7bd-5e6d09de7e73","ios":"levelo://app?vid=73d744cb-a357-42c8-a7bd-5e6d09de7e73"},"vehicle_type_id":"4","last_reported":1729894084,"current_range_meters":22400,"station_id":"ce4bh2h2rcd13ifvqdh0","pricing_plan_id":"cebpf4jnsgd1na2vs0mg"},{"bike_id":"4e22b1f2-b744-4471-9588-d46e48170dbb","system_id":"levelo_inurba_marseille","lat":43.2953,"lon":5.38541,"is_reserved":false,"is_disabled":false,"rental_uris":{"android":"levelo://app?vid=4e22b1f2-b744-4471-9588-d46e48170dbb","ios":"levelo://app?vid=4e22b1f2-b744-4471-9588-d46e48170dbb"},"vehicle_type_id":"4","last_reported":1729894084,"current_range_meters":38400,"station_id":"ce4bgih2rcd13ifvqba0","pricing_plan_id":"cebpf4jnsgd1na2vs0mg"},{"bike_id":"ec517bc8-aab9-4441-9a5a-13b6295f2e39","system_id":"levelo_inurba_marseille","lat":43.22933,"lon":5.35376,"is_reserved":false,"is_disabled":false,"rental_uris":{"android":"levelo://app?vid=ec517bc8-aab9-4441-9a5a-13b6295f2e39","ios":"levelo://app?vid=ec517bc8-aab9-4441-9a5a-13b6295f2e39"},"vehicle_type_id":"4","last_reported":1729894084,"current_range_meters":38800,"station_id":"cpo3532slgdg3j2ikp40","pricing_plan_id":"cebpf4jnsgd1na2vs0mg"},{"bike_id":"aa7e778b-c887-460a-a1e9-246263a8857a","system_id":"levelo_inurba_marseille","lat":43.30485,"lon":5.40153,"is_reserved":false,"is_disabled":false,"rental_uris":{"android":"levelo://app?vid=aa7e778b-c887-460a-a1e9-246263a8857a","ios":"levelo://app?vid=aa7e778b-c887-460a-a1e9-246263a8857a"},"vehicle_type_id":"4","last_reported":1729894084,"current_range_meters":6800,"station_id":"ce4bgh92rcd13ifvqb50","pricing_plan_id":"cebpf4jnsgd1na2vs0mg"},{"bike_id":"8b8add28-8e9c-42fb-bae5-96983a7007c6","system_id":"levelo_inurba_marseille","lat":43.23184,"lon":5.39986,"is_reserved":false,"is_disabled":false,"rental_uris":{"android":"levelo://app?vid=8b8add28-8e9c-42fb-bae5-96983a7007c6","ios":"levelo://app?vid=8b8add28-8e9c-42fb-bae5-96983a7007c6"},"vehicle_type_id":"4","last_reported":1729894084,"current_range_meters":29600,"station_id":"ce4bhn12rcd13ifvqgqg","pricing_plan_id":"cebpf4jnsgd1na2vs0mg"},{"bike_id":"94b6cc63-b376-42e2-a4f5-f421dd5b9574","system_id":"levelo_inurba_marseille","lat":43.28033,"lon":5.3693,"is_reserved":false,"is_disabled":false,"rental_uris":{"android":"levelo://app?vid=94b6cc63-b376-42e2-a4f5-f421dd5b9574","ios":"levelo://app?vid=94b6cc63-b376-42e2-a4f5-f421dd5b9574"},"vehicle_type_id":"4","last_reported":1729894084,"current_range_meters":16400,"station_id":"ce4bha12rcd13ifvqef0","pricing_plan_id":"cebpf4jnsgd1na2vs0mg"},{"bike_id":"2b8a0788-9d95-4d15-b8fb-e55d2c5dcadb","system_id":"levelo_inurba_marseille","lat":43.2942,"lon":5.38632,"is_reserved":false,"is_disabled":false,"rental_uris":{"android":"levelo://app?vid=2b8a0788-9d95-4d15-b8fb-e55d2c5dcadb","ios":"levelo://app?vid=2b8a0788-9d95-4d15-b8fb-e55d2c5dcadb"},"vehicle_type_id":"4","last_reported":1729894084,"current_range_meters":22800,"station_id":"ce4bh2h2rcd13ifvqdh0","pricing_plan_id":"cebpf4jnsgd1na2vs0mg"},{"bike_id":"f87934f0-09ac-4d61-82d3-9fbe6add34bb","system_id":"levelo_inurba_marseille","lat":43.24544,"lon":5.39523,"is_reserved":false,"is_disabled":false,"rental_uris":{"android":"levelo://app?vid=f87934f0-09ac-4d61-82d3-9fbe6add34bb","ios":"levelo://app?vid=f87934f0-09ac-4d61-82d3-9fbe6add34bb"},"vehicle_type_id":"4","last_reported":1729894084,"current_range_meters":33200,"station_id":"ce4bhlp2rcd13ifvqgjg","pricing_plan_id":"cebpf4jnsgd1na2vs0mg"},{"bike_id":"860e4963-cc0b-4965-a861-e3b7a58e514c","system_id":"levelo_inurba_marseille","lat":43.31989,"lon":5.38143,"is_reserved":false,"is_disabled":false,"rental_uris":{"android":"levelo://app?vid=860e4963-cc0b-4965-a861-e3b7a58e514c","ios":"levelo://app?vid=860e4963-cc0b-4965-a861-e3b7a58e514c"},"vehicle_type_id":"4","last_reported":1729894084,"current_range_meters":27200,"station_id":"ce4bhr12rcd13ifvqhpg","pricing_plan_id":"cebpf4jnsgd1na2vs0mg"},{"bike_id":"6cb0d09c-4434-41fe-bab7-3f2ab7b0ac84","system_id":"levelo_inurba_marseille","lat":43.23055,"lon":5.35495,"is_reserved":false,"is_disabled":false,"rental_uris":{"android":"levelo://app?vid=6cb0d09c-4434-41fe-bab7-3f2ab7b0ac84","ios":"levelo://app?vid=6cb0d09c-4434-41fe-bab7-3f2ab7b0ac84"},"vehicle_type_id":"4","last_reported":1729894084,"current_range_meters":18800,"station_id":"cpo3342slgdg3j2ifvpg","pricing_plan_id":"cebpf4jnsgd1na2vs0mg"},{"bike_id":"8d1793b9-25cf-4946-9712-cdc60e01ad1e","system_id":"levelo_inurba_marseille","lat":43.32466,"lon":5.36557,"is_reserved":false,"is_disabled":false,"rental_uris":{"android":"levelo://app?vid=8d1793b9-25cf-4946-9712-cdc60e01ad1e","ios":"levelo://app?vid=8d1793b9-25cf-4946-9712-cdc60e01ad1e"},"vehicle_type_id":"4","last_reported":1729894084,"current_range_meters":24000,"station_id":"ce4bhs12rcd13ifvqhvg","pricing_plan_id":"cebpf4jnsgd1na2vs0mg"},{"bike_id":"93d9c1a5-13fa-4234-9322-cf08e4c097b5","system_id":"levelo_inurba_marseille","lat":43.29864,"lon":5.38907,"is_reserved":false,"is_disabled":false,"rental_uris":{"android":"levelo://app?vid=93d9c1a5-13fa-4234-9322-cf08e4c097b5","ios":"levelo://app?vid=93d9c1a5-13fa-4234-9322-cf08e4c097b5"},"vehicle_type_id":"4","last_reported":1729894084,"current_range_meters":32400,"station_id":"ce4bh392rcd13ifvqdl0","pricing_plan_id":"cebpf4jnsgd1na2vs0mg"},{"bike_id":"28714978-4dce-46c8-9c95-88092c7e6a13","system_id":"levelo_inurba_marseille","lat":43.23191,"lon":5.35555,"is_reserved":false,"is_disabled":false,"rental_uris":{"android":"levelo://app?vid=28714978-4dce-46c8-9c95-88092c7e6a13","ios":"levelo://app?vid=28714978-4dce-46c8-9c95-88092c7e6a13"},"vehicle_type_id":"4","last_reported":1729894084,"current_range_meters":22000,"station_id":"ce4bhu92rcd13ifvqi70","pricing_plan_id":"cebpf4jnsgd1na2vs0mg"},{"bike_id":"dc354e0e-538a-4619-afa7-3bd34a2ecb56","system_id":"levelo_inurba_marseille","lat":43.28041,"lon":5.36944,"is_reserved":false,"is_disabled":false,"rental_uris":{"android":"levelo://app?vid=dc354e0e-538a-4619-afa7-3bd34a2ecb56","ios":"levelo://app?vid=dc354e0e-538a-4619-afa7-3bd34a2ecb56"},"vehicle_type_id":"4","last_reported":1729894084,"current_range_meters":6400,"station_id":"ce4bha12rcd13ifvqef0","pricing_plan_id":"cebpf4jnsgd1na2vs0mg"},{"bike_id":"141a7134-5d3b-4d1e-a737-e655eb670a82","system_id":"levelo_inurba_marseille","lat":43.27997,"lon":5.41663,"is_reserved":false,"is_disabled":false,"rental_uris":{"android":"levelo://app?vid=141a7134-5d3b-4d1e-a737-e655eb670a82","ios":"levelo://app?vid=141a7134-5d3b-4d1e-a737-e655eb670a82"},"vehicle_type_id":"4","last_reported":1729894084,"current_range_meters":22000,"station_id":"ce4bho12rcd13ifvqh1g","pricing_plan_id":"cebpf4jnsgd1na2vs0mg"},{"bike_id":"8cb50af5-af34-4721-9e6e-7512a3f7a0ae","system_id":"levelo_inurba_marseille","lat":43.28848,"lon":5.39308,"is_reserved":false,"is_disabled":false,"rental_uris":{"android":"levelo://app?vid=8cb50af5-af34-4721-9e6e-7512a3f7a0ae","ios":"levelo://app?vid=8cb50af5-af34-4721-9e6e-7512a3f7a0ae"},"vehicle_type_id":"4","last_reported":1729894084,"current_range_meters":10800,"station_id":"ce4bh2p2rcd13ifvqdi0","pricing_plan_id":"cebpf4jnsgd1na2vs0mg"},{"bike_id":"cec09577-1228-44c8-99f9-579491daefc0","system_id":"levelo_inurba_marseille","lat":43.29808,"lon":5.40409,"is_reserved":false,"is_disabled":false,"rental_uris":{"android":"levelo://app?vid=cec09577-1228-44c8-99f9-579491daefc0","ios":"levelo://app?vid=cec09577-1228-44c8-99f9-579491daefc0"},"vehicle_type_id":"4","last_reported":1729894084,"current_range_meters":12400,"station_id":"ce4bh112rcd13ifvqd90","pricing_plan_id":"cebpf4jnsgd1na2vs0mg"},{"bike_id":"60a8c89c-c16e-4936-99e9-84693da7653a","system_id":"levelo_inurba_marseille","lat":43.26562,"lon":5.39003,"is_reserved":false,"is_disabled":false,"rental_uris":{"android":"levelo://app?vid=60a8c89c-c16e-4936-99e9-84693da7653a","ios":"levelo://app?vid=60a8c89c-c16e-4936-99e9-84693da7653a"},"vehicle_type_id":"4","last_reported":1729894084,"current_range_meters":38400,"station_id":"ce4bhe12rcd13ifvqf30","pricing_plan_id":"cebpf4jnsgd1na2vs0mg"},{"bike_id":"49c7131b-f92b-4004-a615-c9b33dc98d1e","system_id":"levelo_inurba_marseille","lat":43.29303,"lon":5.37171,"is_reserved":false,"is_disabled":false,"rental_uris":{"android":"levelo://app?vid=49c7131b-f92b-4004-a615-c9b33dc98d1e","ios":"levelo://app?vid=49c7131b-f92b-4004-a615-c9b33dc98d1e"},"vehicle_type_id":"4","last_reported":1729894084,"current_range_meters":28000,"station_id":"ce4bgh92rcd13ifvqb40","pricing_plan_id":"cebpf4jnsgd1na2vs0mg"},{"bike_id":"460bffa1-36db-4939-af4b-776de18d75e7","system_id":"levelo_inurba_marseille","lat":43.28081,"lon":5.39651,"is_reserved":false,"is_disabled":false,"rental_uris":{"android":"levelo://app?vid=460bffa1-36db-4939-af4b-776de18d75e7","ios":"levelo://app?vid=460bffa1-36db-4939-af4b-776de18d75e7"},"vehicle_type_id":"4","last_reported":1729894084,"current_range_meters":21600,"station_id":"ce4bho12rcd13ifvqh2g","pricing_plan_id":"cebpf4jnsgd1na2vs0mg"},{"bike_id":"07d1e332-63a2-467e-88d9-4eaaeb91b8fb","system_id":"levelo_inurba_marseille","lat":43.31727,"lon":5.42404,"is_reserved":false,"is_disabled":false,"rental_uris":{"android":"levelo://app?vid=07d1e332-63a2-467e-88d9-4eaaeb91b8fb","ios":"levelo://app?vid=07d1e332-63a2-467e-88d9-4eaaeb91b8fb"},"vehicle_type_id":"4","last_reported":1729894084,"current_range_meters":37600,"station_id":"ce4bhp92rcd13ifvqhbg","pricing_plan_id":"cebpf4jnsgd1na2vs0mg"},{"bike_id":"be28d9d7-876a-448b-b472-4bf08ccb4b5d","system_id":"levelo_inurba_marseille","lat":43.30183,"lon":5.36618,"is_reserved":false,"is_disabled":false,"rental_uris":{"android":"levelo://app?vid=be28d9d7-876a-448b-b472-4bf08ccb4b5d","ios":"levelo://app?vid=be28d9d7-876a-448b-b472-4bf08ccb4b5d"},"vehicle_type_id":"4","last_reported":1729894084,"current_range_meters":35200,"station_id":"ce4bgrh2rcd13ifvqc8g","pricing_plan_id":"cebpf4jnsgd1na2vs0mg"},{"bike_id":"49c8c9ac-0d23-4ffb-8845-ed7257616396","system_id":"levelo_inurba_marseille","lat":43.27919,"lon":5.39582,"is_reserved":false,"is_disabled":false,"rental_uris":{"android":"levelo://app?vid=49c8c9ac-0d23-4ffb-8845-ed7257616396","ios":"levelo://app?vid=49c8c9ac-0d23-4ffb-8845-ed7257616396"},"vehicle_type_id":"4","last_reported":1729894084,"current_range_meters":27600,"station_id":"ce4bhf92rcd13ifvqf40","pricing_plan_id":"cebpf4jnsgd1na2vs0mg"},{"bike_id":"c4329532-0090-472b-b592-010648eb41e0","system_id":"levelo_inurba_marseille","lat":43.25003,"lon":5.38916,"is_reserved":false,"is_disabled":false,"rental_uris":{"android":"levelo://app?vid=c4329532-0090-472b-b592-010648eb41e0","ios":"levelo://app?vid=c4329532-0090-472b-b592-010648eb41e0"},"vehicle_type_id":"4","last_reported":1729894084,"current_range_meters":38800,"station_id":"ce4bhgp2rcd13ifvqfd0","pricing_plan_id":"cebpf4jnsgd1na2vs0mg"},{"bike_id":"d27cec62-1d00-43c5-a294-6ec7896d59e3","system_id":"levelo_inurba_marseille","lat":43.29254,"lon":5.38429,"is_reserved":false,"is_disabled":false,"rental_uris":{"android":"levelo://app?vid=d27cec62-1d00-43c5-a294-6ec7896d59e3","ios":"levelo://app?vid=d27cec62-1d00-43c5-a294-6ec7896d59e3"},"vehicle_type_id":"4","last_reported":1729894084,"current_range_meters":38800,"station_id":"ce4bh692rcd13ifvqea0","pricing_plan_id":"cebpf4jnsgd1na2vs0mg"},{"bike_id":"8af9a3cc-7638-4c64-9971-b8b24db5a73d","system_id":"levelo_inurba_marseille","lat":43.29527,"lon":5.38522,"is_reserved":false,"is_disabled":false,"rental_uris":{"android":"levelo://app?vid=8af9a3cc-7638-4c64-9971-b8b24db5a73d","ios":"levelo://app?vid=8af9a3cc-7638-4c64-9971-b8b24db5a73d"},"vehicle_type_id":"4","last_reported":1729894084,"current_range_meters":38800,"station_id":"ce4bgih2rcd13ifvqba0","pricing_plan_id":"cebpf4jnsgd1na2vs0mg"},{"bike_id":"6ff8afb5-4784-4247-ad42-fc6d5c3739a9","system_id":"levelo_inurba_marseille","lat":43.29423,"lon":5.38619,"is_reserved":false,"is_disabled":false,"rental_uris":{"android":"levelo://app?vid=6ff8afb5-4784-4247-ad42-fc6d5c3739a9","ios":"levelo://app?vid=6ff8afb5-4784-4247-ad42-fc6d5c3739a9"},"vehicle_type_id":"4","last_reported":1729894084,"current_range_meters":8000,"station_id":"ce4bh2h2rcd13ifvqdh0","pricing_plan_id":"cebpf4jnsgd1na2vs0mg"},{"bike_id":"ac1edf0e-fc15-48a0-9174-5ed1bde4cd07","system_id":"levelo_inurba_marseille","lat":43.30356,"lon":5.41882,"is_reserved":false,"is_disabled":false,"rental_uris":{"android":"levelo://app?vid=ac1edf0e-fc15-48a0-9174-5ed1bde4cd07","ios":"levelo://app?vid=ac1edf0e-fc15-48a0-9174-5ed1bde4cd07"},"vehicle_type_id":"4","last_reported":1729894084,"current_range_meters":19200,"station_id":"ce4bhop2rcd13ifvqh7g","pricing_plan_id":"cebpf4jnsgd1na2vs0mg"},{"bike_id":"0f63b7b6-e848-443e-8837-2bcdfd518641","system_id":"levelo_inurba_marseille","lat":43.2656,"lon":5.37288,"is_reserved":false,"is_disabled":false,"rental_uris":{"android":"levelo://app?vid=0f63b7b6-e848-443e-8837-2bcdfd518641","ios":"levelo://app?vid=0f63b7b6-e848-443e-8837-2bcdfd518641"},"vehicle_type_id":"4","last_reported":1729894084,"current_range_meters":34000,"station_id":"ce4bhg12rcd13ifvqf70","pricing_plan_id":"cebpf4jnsgd1na2vs0mg"},{"bike_id":"25596ccd-8388-452e-9656-2a293e16965b","system_id":"levelo_inurba_marseille","lat":43.2953,"lon":5.38537,"is_reserved":false,"is_disabled":false,"rental_uris":{"android":"levelo://app?vid=25596ccd-8388-452e-9656-2a293e16965b","ios":"levelo://app?vid=25596ccd-8388-452e-9656-2a293e16965b"},"vehicle_type_id":"4","last_reported":1729894084,"current_range_meters":18000,"station_id":"ce4bgih2rcd13ifvqba0","pricing_plan_id":"cebpf4jnsgd1na2vs0mg"},{"bike_id":"5602e2ca-6524-49d7-acee-1364e8d9af55","system_id":"levelo_inurba_marseille","lat":43.28032,"lon":5.36944,"is_reserved":false,"is_disabled":false,"rental_uris":{"android":"levelo://app?vid=5602e2ca-6524-49d7-acee-1364e8d9af55","ios":"levelo://app?vid=5602e2ca-6524-49d7-acee-1364e8d9af55"},"vehicle_type_id":"4","last_reported":1729894084,"current_range_meters":26000,"station_id":"ce4bha12rcd13ifvqef0","pricing_plan_id":"cebpf4jnsgd1na2vs0mg"},{"bike_id":"78f272a1-2c74-4489-8c36-83bc93a6d452","system_id":"levelo_inurba_marseille","lat":43.23969,"lon":5.3662,"is_reserved":false,"is_disabled":false,"rental_uris":{"android":"levelo://app?vid=78f272a1-2c74-4489-8c36-83bc93a6d452","ios":"levelo://app?vid=78f272a1-2c74-4489-8c36-83bc93a6d452"},"vehicle_type_id":"4","last_reported":1729894084,"current_range_meters":18800,"station_id":"ce4bhi12rcd13ifvqfp0","pricing_plan_id":"cebpf4jnsgd1na2vs0mg"},{"bike_id":"c8c2a705-8b27-4242-bed3-7cbeb4ad6ac7","system_id":"levelo_inurba_marseille","lat":43.28659,"lon":5.36352,"is_reserved":false,"is_disabled":false,"rental_uris":{"android":"levelo://app?vid=c8c2a705-8b27-4242-bed3-7cbeb4ad6ac7","ios":"levelo://app?vid=c8c2a705-8b27-4242-bed3-7cbeb4ad6ac7"},"vehicle_type_id":"4","last_reported":1729894084,"current_range_meters":27200,"station_id":"ce4bhah2rcd13ifvqej0","pricing_plan_id":"cebpf4jnsgd1na2vs0mg"},{"bike_id":"f7429168-cb09-4088-a01f-3c2a6518f7d8","system_id":"levelo_inurba_marseille","lat":43.25582,"lon":5.38227,"is_reserved":false,"is_disabled":false,"rental_uris":{"android":"levelo://app?vid=f7429168-cb09-4088-a01f-3c2a6518f7d8","ios":"levelo://app?vid=f7429168-cb09-4088-a01f-3c2a6518f7d8"},"vehicle_type_id":"4","last_reported":1729894084,"current_range_meters":34000,"station_id":"ce4bhih2rcd13ifvqfs0","pricing_plan_id":"cebpf4jnsgd1na2vs0mg"},{"bike_id":"8124fcc2-79bd-45bb-baa8-af058800ef84","system_id":"levelo_inurba_marseille","lat":43.25005,"lon":5.38917,"is_reserved":false,"is_disabled":false,"rental_uris":{"android":"levelo://app?vid=8124fcc2-79bd-45bb-baa8-af058800ef84","ios":"levelo://app?vid=8124fcc2-79bd-45bb-baa8-af058800ef84"},"vehicle_type_id":"4","last_reported":1729894084,"current_range_meters":38800,"station_id":"ce4bhgp2rcd13ifvqfd0","pricing_plan_id":"cebpf4jnsgd1na2vs0mg"},{"bike_id":"ccb07e96-0642-4cd3-9c6b-e6eb51bc1b00","system_id":"levelo_inurba_marseille","lat":43.2762,"lon":5.3611,"is_reserved":false,"is_disabled":false,"rental_uris":{"android":"levelo://app?vid=ccb07e96-0642-4cd3-9c6b-e6eb51bc1b00","ios":"levelo://app?vid=ccb07e96-0642-4cd3-9c6b-e6eb51bc1b00"},"vehicle_type_id":"4","last_reported":1729894084,"current_range_meters":37600,"station_id":"ce4bgj92rcd13ifvqbe0","pricing_plan_id":"cebpf4jnsgd1na2vs0mg"},{"bike_id":"a42b0bdd-1f10-437f-813e-02df169ed0a9","system_id":"levelo_inurba_marseille","lat":43.22933,"lon":5.35386,"is_reserved":false,"is_disabled":false,"rental_uris":{"android":"levelo://app?vid=a42b0bdd-1f10-437f-813e-02df169ed0a9","ios":"levelo://app?vid=a42b0bdd-1f10-437f-813e-02df169ed0a9"},"vehicle_type_id":"4","last_reported":1729894084,"current_range_meters":25600,"station_id":"cpo3532slgdg3j2ikp40","pricing_plan_id":"cebpf4jnsgd1na2vs0mg"},{"bike_id":"278e23d3-fcec-44f9-bccf-4eda1f522bac","system_id":"levelo_inurba_marseille","lat":43.31226,"lon":5.36876,"is_reserved":false,"is_disabled":false,"rental_uris":{"android":"levelo://app?vid=278e23d3-fcec-44f9-bccf-4eda1f522bac","ios":"levelo://app?vid=278e23d3-fcec-44f9-bccf-4eda1f522bac"},"vehicle_type_id":"4","last_reported":1729894084,"current_range_meters":24400,"station_id":"ce4bgl92rcd13ifvqbq0","pricing_plan_id":"cebpf4jnsgd1na2vs0mg"},{"bike_id":"48a67f93-254d-4336-93b9-22f908da2752","system_id":"levelo_inurba_marseille","lat":43.30415,"lon":5.41286,"is_reserved":false,"is_disabled":false,"rental_uris":{"android":"levelo://app?vid=48a67f93-254d-4336-93b9-22f908da2752","ios":"levelo://app?vid=48a67f93-254d-4336-93b9-22f908da2752"},"vehicle_type_id":"4","last_reported":1729894084,"current_range_meters":8400,"station_id":"ce4bhop2rcd13ifvqh8g","pricing_plan_id":"cebpf4jnsgd1na2vs0mg"},{"bike_id":"962deaf2-b047-481c-938f-431320a1284f","system_id":"levelo_inurba_marseille","lat":43.27961,"lon":5.38724,"is_reserved":false,"is_disabled":false,"rental_uris":{"android":"levelo://app?vid=962deaf2-b047-481c-938f-431320a1284f","ios":"levelo://app?vid=962deaf2-b047-481c-938f-431320a1284f"},"vehicle_type_id":"4","last_reported":1729894084,"current_range_meters":28800,"station_id":"ce4bhg12rcd13ifvqf80","pricing_plan_id":"cebpf4jnsgd1na2vs0mg"},{"bike_id":"fc2c990b-f933-41ca-ad84-1dd5d62b98ad","system_id":"levelo_inurba_marseille","lat":43.29639,"lon":5.37923,"is_reserved":false,"is_disabled":false,"rental_uris":{"android":"levelo://app?vid=fc2c990b-f933-41ca-ad84-1dd5d62b98ad","ios":"levelo://app?vid=fc2c990b-f933-41ca-ad84-1dd5d62b98ad"},"vehicle_type_id":"4","last_reported":1729894084,"current_range_meters":33600,"station_id":"","pricing_plan_id":"cebpf4jnsgd1na2vs0mg"},{"bike_id":"f2cdfbe2-4cd1-440e-a72f-1774200198f1","system_id":"levelo_inurba_marseille","lat":43.27489,"lon":5.42447,"is_reserved":false,"is_disabled":false,"rental_uris":{"android":"levelo://app?vid=f2cdfbe2-4cd1-440e-a72f-1774200198f1","ios":"levelo://app?vid=f2cdfbe2-4cd1-440e-a72f-1774200198f1"},"vehicle_type_id":"4","last_reported":1729894084,"current_range_meters":16000,"station_id":"ce4bhn92rcd13ifvqgrg","pricing_plan_id":"cebpf4jnsgd1na2vs0mg"},{"bike_id":"f32ecc23-9f0a-48ac-abe6-73b21a3d4980","system_id":"levelo_inurba_marseille","lat":43.24807,"lon":5.37458,"is_reserved":false,"is_disabled":false,"rental_uris":{"android":"levelo://app?vid=f32ecc23-9f0a-48ac-abe6-73b21a3d4980","ios":"levelo://app?vid=f32ecc23-9f0a-48ac-abe6-73b21a3d4980"},"vehicle_type_id":"4","last_reported":1729894084,"current_range_meters":22800,"station_id":"ce4bhgh2rcd13ifvqfb0","pricing_plan_id":"cebpf4jnsgd1na2vs0mg"},{"bike_id":"cdfde00e-81fa-4a45-8f5d-a8fc19018241","system_id":"levelo_inurba_marseille","lat":43.2694,"lon":5.40253,"is_reserved":false,"is_disabled":false,"rental_uris":{"android":"levelo://app?vid=cdfde00e-81fa-4a45-8f5d-a8fc19018241","ios":"levelo://app?vid=cdfde00e-81fa-4a45-8f5d-a8fc19018241"},"vehicle_type_id":"4","last_reported":1729894084,"current_range_meters":36400,"station_id":"cjm6bp8fraef2m0cb0m0","pricing_plan_id":"cebpf4jnsgd1na2vs0mg"},{"bike_id":"c0e554d9-55fa-422b-a700-8138dfa6e81f","system_id":"levelo_inurba_marseille","lat":43.28108,"lon":5.3784,"is_reserved":false,"is_disabled":false,"rental_uris":{"android":"levelo://app?vid=c0e554d9-55fa-422b-a700-8138dfa6e81f","ios":"levelo://app?vid=c0e554d9-55fa-422b-a700-8138dfa6e81f"},"vehicle_type_id":"4","last_reported":1729894084,"current_range_meters":24800,"station_id":"ce4bha12rcd13ifvqee0","pricing_plan_id":"cebpf4jnsgd1na2vs0mg"},{"bike_id":"3a49133b-c2eb-4904-a05a-e1c486f40d45","system_id":"levelo_inurba_marseille","lat":43.25825,"lon":5.39441,"is_reserved":false,"is_disabled":false,"rental_uris":{"android":"levelo://app?vid=3a49133b-c2eb-4904-a05a-e1c486f40d45","ios":"levelo://app?vid=3a49133b-c2eb-4904-a05a-e1c486f40d45"},"vehicle_type_id":"4","last_reported":1729894084,"current_range_meters":38800,"station_id":"ce4bhip2rcd13ifvqft0","pricing_plan_id":"cebpf4jnsgd1na2vs0mg"},{"bike_id":"14b32013-16c9-4a3a-9b24-38e904708fdb","system_id":"levelo_inurba_marseille","lat":43.28281,"lon":5.35075,"is_reserved":false,"is_disabled":false,"rental_uris":{"android":"levelo://app?vid=14b32013-16c9-4a3a-9b24-38e904708fdb","ios":"levelo://app?vid=14b32013-16c9-4a3a-9b24-38e904708fdb"},"vehicle_type_id":"4","last_reported":1729894084,"current_range_meters":25600,"station_id":"ce4bhbp2rcd13ifvqerg","pricing_plan_id":"cebpf4jnsgd1na2vs0mg"},{"bike_id":"19c3aeb8-d560-4388-9e80-397e00ab5d14","system_id":"levelo_inurba_marseille","lat":43.3041,"lon":5.41299,"is_reserved":false,"is_disabled":false,"rental_uris":{"android":"levelo://app?vid=19c3aeb8-d560-4388-9e80-397e00ab5d14","ios":"levelo://app?vid=19c3aeb8-d560-4388-9e80-397e00ab5d14"},"vehicle_type_id":"4","last_reported":1729894084,"current_range_meters":26800,"station_id":"ce4bhop2rcd13ifvqh8g","pricing_plan_id":"cebpf4jnsgd1na2vs0mg"},{"bike_id":"9250c223-7060-40be-83d3-146dade6eaad","system_id":"levelo_inurba_marseille","lat":43.28079,"lon":5.39652,"is_reserved":false,"is_disabled":false,"rental_uris":{"android":"levelo://app?vid=9250c223-7060-40be-83d3-146dade6eaad","ios":"levelo://app?vid=9250c223-7060-40be-83d3-146dade6eaad"},"vehicle_type_id":"4","last_reported":1729894084,"current_range_meters":39200,"station_id":"ce4bho12rcd13ifvqh2g","pricing_plan_id":"cebpf4jnsgd1na2vs0mg"},{"bike_id":"65a9b72d-368a-4ef4-ad04-636e1b354800","system_id":"levelo_inurba_marseille","lat":43.28635,"lon":5.40771,"is_reserved":false,"is_disabled":false,"rental_uris":{"android":"levelo://app?vid=65a9b72d-368a-4ef4-ad04-636e1b354800","ios":"levelo://app?vid=65a9b72d-368a-4ef4-ad04-636e1b354800"},"vehicle_type_id":"4","last_reported":1729894084,"current_range_meters":19200,"station_id":"","pricing_plan_id":"cebpf4jnsgd1na2vs0mg"},{"bike_id":"353dd1d1-aedf-4e9f-b96e-2d6c13c12501","system_id":"levelo_inurba_marseille","lat":43.25005,"lon":5.38916,"is_reserved":false,"is_disabled":false,"rental_uris":{"android":"levelo://app?vid=353dd1d1-aedf-4e9f-b96e-2d6c13c12501","ios":"levelo://app?vid=353dd1d1-aedf-4e9f-b96e-2d6c13c12501"},"vehicle_type_id":"4","last_reported":1729894084,"current_range_meters":12400,"station_id":"ce4bhgp2rcd13ifvqfd0","pricing_plan_id":"cebpf4jnsgd1na2vs0mg"},{"bike_id":"c280d134-d9f0-4b63-868a-9b65ba385550","system_id":"levelo_inurba_marseille","lat":43.27918,"lon":5.39582,"is_reserved":false,"is_disabled":false,"rental_uris":{"android":"levelo://app?vid=c280d134-d9f0-4b63-868a-9b65ba385550","ios":"levelo://app?vid=c280d134-d9f0-4b63-868a-9b65ba385550"},"vehicle_type_id":"4","last_reported":1729894084,"current_range_meters":20400,"station_id":"ce4bhf92rcd13ifvqf40","pricing_plan_id":"cebpf4jnsgd1na2vs0mg"},{"bike_id":"9547fe9f-7da9-478b-9033-f446ea71bb69","system_id":"levelo_inurba_marseille","lat":43.31082,"lon":5.42434,"is_reserved":false,"is_disabled":false,"rental_uris":{"android":"levelo://app?vid=9547fe9f-7da9-478b-9033-f446ea71bb69","ios":"levelo://app?vid=9547fe9f-7da9-478b-9033-f446ea71bb69"},"vehicle_type_id":"4","last_reported":1729894084,"current_range_meters":36000,"station_id":"ce4bhp92rcd13ifvqhag","pricing_plan_id":"cebpf4jnsgd1na2vs0mg"},{"bike_id":"df68c236-3429-47dc-8d0d-da0fa7924a52","system_id":"levelo_inurba_marseille","lat":43.29422,"lon":5.38618,"is_reserved":false,"is_disabled":false,"rental_uris":{"android":"levelo://app?vid=df68c236-3429-47dc-8d0d-da0fa7924a52","ios":"levelo://app?vid=df68c236-3429-47dc-8d0d-da0fa7924a52"},"vehicle_type_id":"4","last_reported":1729894084,"current_range_meters":39200,"station_id":"ce4bh2h2rcd13ifvqdh0","pricing_plan_id":"cebpf4jnsgd1na2vs0mg"},{"bike_id":"c4c9b703-9880-48fd-8e2e-81054c2f295d","system_id":"levelo_inurba_marseille","lat":43.29977,"lon":5.37168,"is_reserved":false,"is_disabled":false,"rental_uris":{"android":"levelo://app?vid=c4c9b703-9880-48fd-8e2e-81054c2f295d","ios":"levelo://app?vid=c4c9b703-9880-48fd-8e2e-81054c2f295d"},"vehicle_type_id":"4","last_reported":1729894084,"current_range_meters":24000,"station_id":"ce4bgr92rcd13ifvqc7g","pricing_plan_id":"cebpf4jnsgd1na2vs0mg"},{"bike_id":"914712da-9129-49a4-ad21-34c49f788602","system_id":"levelo_inurba_marseille","lat":43.30891,"lon":5.39647,"is_reserved":false,"is_disabled":false,"rental_uris":{"android":"levelo://app?vid=914712da-9129-49a4-ad21-34c49f788602","ios":"levelo://app?vid=914712da-9129-49a4-ad21-34c49f788602"},"vehicle_type_id":"4","last_reported":1729894084,"current_range_meters":36400,"station_id":"ce4bh012rcd13ifvqcv0","pricing_plan_id":"cebpf4jnsgd1na2vs0mg"},{"bike_id":"58afcffd-31ed-44e7-99ff-2fa445db19b3","system_id":"levelo_inurba_marseille","lat":43.2987,"lon":5.39726,"is_reserved":false,"is_disabled":false,"rental_uris":{"android":"levelo://app?vid=58afcffd-31ed-44e7-99ff-2fa445db19b3","ios":"levelo://app?vid=58afcffd-31ed-44e7-99ff-2fa445db19b3"},"vehicle_type_id":"4","last_reported":1729894084,"current_range_meters":22000,"station_id":"ce4bh0h2rcd13ifvqd50","pricing_plan_id":"cebpf4jnsgd1na2vs0mg"},{"bike_id":"866b0d50-2d2d-4bb2-aa91-ede19b59e424","system_id":"levelo_inurba_marseille","lat":43.32365,"lon":5.38878,"is_reserved":false,"is_disabled":false,"rental_uris":{"android":"levelo://app?vid=866b0d50-2d2d-4bb2-aa91-ede19b59e424","ios":"levelo://app?vid=866b0d50-2d2d-4bb2-aa91-ede19b59e424"},"vehicle_type_id":"4","last_reported":1729894084,"current_range_meters":12000,"station_id":"ce4bhqp2rcd13ifvqhog","pricing_plan_id":"cebpf4jnsgd1na2vs0mg"},{"bike_id":"77981a3f-f15c-46b8-b2f0-b838403e485f","system_id":"levelo_inurba_marseille","lat":43.285496,"lon":5.395091,"is_reserved":false,"is_disabled":false,"rental_uris":{"android":"levelo://app?vid=77981a3f-f15c-46b8-b2f0-b838403e485f","ios":"levelo://app?vid=77981a3f-f15c-46b8-b2f0-b838403e485f"},"vehicle_type_id":"4","last_reported":1729894084,"current_range_meters":22000,"station_id":"ce4bh292rcd13ifvqdg0","pricing_plan_id":"cebpf4jnsgd1na2vs0mg"},{"bike_id":"2847cedb-69da-4098-976e-83e7c30bb2c6","system_id":"levelo_inurba_marseille","lat":43.27216,"lon":5.39183,"is_reserved":false,"is_disabled":false,"rental_uris":{"android":"levelo://app?vid=2847cedb-69da-4098-976e-83e7c30bb2c6","ios":"levelo://app?vid=2847cedb-69da-4098-976e-83e7c30bb2c6"},"vehicle_type_id":"4","last_reported":1729894084,"current_range_meters":38800,"station_id":"ce4bhhp2rcd13ifvqfm0","pricing_plan_id":"cebpf4jnsgd1na2vs0mg"},{"bike_id":"31b7db78-d83e-4bcc-a6e2-1a7a1428b1d6","system_id":"levelo_inurba_marseille","lat":43.32396,"lon":5.37007,"is_reserved":false,"is_disabled":false,"rental_uris":{"android":"levelo://app?vid=31b7db78-d83e-4bcc-a6e2-1a7a1428b1d6","ios":"levelo://app?vid=31b7db78-d83e-4bcc-a6e2-1a7a1428b1d6"},"vehicle_type_id":"4","last_reported":1729894084,"current_range_meters":6400,"station_id":"","pricing_plan_id":"cebpf4jnsgd1na2vs0mg"},{"bike_id":"6b002452-a963-4d5c-bddc-c1f8516cd1db","system_id":"levelo_inurba_marseille","lat":43.29567,"lon":5.37511,"is_reserved":false,"is_disabled":false,"rental_uris":{"android":"levelo://app?vid=6b002452-a963-4d5c-bddc-c1f8516cd1db","ios":"levelo://app?vid=6b002452-a963-4d5c-bddc-c1f8516cd1db"},"vehicle_type_id":"4","last_reported":1729894084,"current_range_meters":38000,"station_id":"ce4bgh92rcd13ifvqb50","pricing_plan_id":"cebpf4jnsgd1na2vs0mg"},{"bike_id":"a3eeba97-8d75-45c7-8ce4-166d75a9b74d","system_id":"levelo_inurba_marseille","lat":43.29532,"lon":5.38542,"is_reserved":false,"is_disabled":false,"rental_uris":{"android":"levelo://app?vid=a3eeba97-8d75-45c7-8ce4-166d75a9b74d","ios":"levelo://app?vid=a3eeba97-8d75-45c7-8ce4-166d75a9b74d"},"vehicle_type_id":"4","last_reported":1729894084,"current_range_meters":38800,"station_id":"ce4bgih2rcd13ifvqba0","pricing_plan_id":"cebpf4jnsgd1na2vs0mg"},{"bike_id":"7ed179a5-09db-442c-b1b3-3e5dd21573fb","system_id":"levelo_inurba_marseille","lat":43.29898,"lon":5.437012,"is_reserved":false,"is_disabled":false,"rental_uris":{"android":"levelo://app?vid=7ed179a5-09db-442c-b1b3-3e5dd21573fb","ios":"levelo://app?vid=7ed179a5-09db-442c-b1b3-3e5dd21573fb"},"vehicle_type_id":"4","last_reported":1729894084,"current_range_meters":38800,"station_id":"","pricing_plan_id":"cebpf4jnsgd1na2vs0mg"},{"bike_id":"81bf64e0-fa04-4a2e-907a-c2ef7df0cc84","system_id":"levelo_inurba_marseille","lat":43.24655,"lon":5.38901,"is_reserved":false,"is_disabled":false,"rental_uris":{"android":"levelo://app?vid=81bf64e0-fa04-4a2e-907a-c2ef7df0cc84","ios":"levelo://app?vid=81bf64e0-fa04-4a2e-907a-c2ef7df0cc84"},"vehicle_type_id":"4","last_reported":1729894084,"current_range_meters":23200,"station_id":"ce4bhg12rcd13ifvqf60","pricing_plan_id":"cebpf4jnsgd1na2vs0mg"},{"bike_id":"bd3b2ece-28b7-437d-afd1-bab74b6da77b","system_id":"levelo_inurba_marseille","lat":43.25085,"lon":5.3952,"is_reserved":false,"is_disabled":false,"rental_uris":{"android":"levelo://app?vid=bd3b2ece-28b7-437d-afd1-bab74b6da77b","ios":"levelo://app?vid=bd3b2ece-28b7-437d-afd1-bab74b6da77b"},"vehicle_type_id":"4","last_reported":1729894084,"current_range_meters":22400,"station_id":"ce4bhm12rcd13ifvqgkg","pricing_plan_id":"cebpf4jnsgd1na2vs0mg"},{"bike_id":"7691659f-eea1-4b4d-8db5-2728fcde3a23","system_id":"levelo_inurba_marseille","lat":43.29805,"lon":5.37136,"is_reserved":false,"is_disabled":false,"rental_uris":{"android":"levelo://app?vid=7691659f-eea1-4b4d-8db5-2728fcde3a23","ios":"levelo://app?vid=7691659f-eea1-4b4d-8db5-2728fcde3a23"},"vehicle_type_id":"4","last_reported":1729894084,"current_range_meters":27200,"station_id":"ce4bgop2rcd13ifvqc1g","pricing_plan_id":"cebpf4jnsgd1na2vs0mg"},{"bike_id":"85a1113e-eb3d-4cda-b8f5-a70af6ece885","system_id":"levelo_inurba_marseille","lat":43.28935,"lon":5.36632,"is_reserved":false,"is_disabled":false,"rental_uris":{"android":"levelo://app?vid=85a1113e-eb3d-4cda-b8f5-a70af6ece885","ios":"levelo://app?vid=85a1113e-eb3d-4cda-b8f5-a70af6ece885"},"vehicle_type_id":"4","last_reported":1729894084,"current_range_meters":17600,"station_id":"ce4bhap2rcd13ifvqek0","pricing_plan_id":"cebpf4jnsgd1na2vs0mg"},{"bike_id":"9fc82899-e295-4ad5-964a-0003f9dce9f1","system_id":"levelo_inurba_marseille","lat":43.29067,"lon":5.37166,"is_reserved":false,"is_disabled":false,"rental_uris":{"android":"levelo://app?vid=9fc82899-e295-4ad5-964a-0003f9dce9f1","ios":"levelo://app?vid=9fc82899-e295-4ad5-964a-0003f9dce9f1"},"vehicle_type_id":"4","last_reported":1729894084,"current_range_meters":38800,"station_id":"ce4bh5p2rcd13ifvqe4g","pricing_plan_id":"cebpf4jnsgd1na2vs0mg"},{"bike_id":"7b4cbaf6-40a0-4313-8030-f4e918103d7e","system_id":"levelo_inurba_marseille","lat":43.28418,"lon":5.34992,"is_reserved":false,"is_disabled":false,"rental_uris":{"android":"levelo://app?vid=7b4cbaf6-40a0-4313-8030-f4e918103d7e","ios":"levelo://app?vid=7b4cbaf6-40a0-4313-8030-f4e918103d7e"},"vehicle_type_id":"4","last_reported":1729894084,"current_range_meters":38000,"station_id":"ce4bhbh2rcd13ifvqepg","pricing_plan_id":"cebpf4jnsgd1na2vs0mg"},{"bike_id":"5c9ec451-7ef7-4c86-837b-d01b60cd47ed","system_id":"levelo_inurba_marseille","lat":43.27176,"lon":5.40994,"is_reserved":false,"is_disabled":false,"rental_uris":{"android":"levelo://app?vid=5c9ec451-7ef7-4c86-837b-d01b60cd47ed","ios":"levelo://app?vid=5c9ec451-7ef7-4c86-837b-d01b60cd47ed"},"vehicle_type_id":"4","last_reported":1729894084,"current_range_meters":19200,"station_id":"ce4bhl12rcd13ifvqgf0","pricing_plan_id":"cebpf4jnsgd1na2vs0mg"},{"bike_id":"8e80ab9a-4a73-4938-8f64-3a08fbc41d87","system_id":"levelo_inurba_marseille","lat":43.25868,"lon":5.39892,"is_reserved":false,"is_disabled":false,"rental_uris":{"android":"levelo://app?vid=8e80ab9a-4a73-4938-8f64-3a08fbc41d87","ios":"levelo://app?vid=8e80ab9a-4a73-4938-8f64-3a08fbc41d87"},"vehicle_type_id":"4","last_reported":1729894084,"current_range_meters":36800,"station_id":"ce4bhl92rcd13ifvqghg","pricing_plan_id":"cebpf4jnsgd1na2vs0mg"},{"bike_id":"e10b9637-b7ba-4d70-8fd2-fb3d3ca43edd","system_id":"levelo_inurba_marseille","lat":43.287,"lon":5.39975,"is_reserved":false,"is_disabled":false,"rental_uris":{"android":"levelo://app?vid=e10b9637-b7ba-4d70-8fd2-fb3d3ca43edd","ios":"levelo://app?vid=e10b9637-b7ba-4d70-8fd2-fb3d3ca43edd"},"vehicle_type_id":"4","last_reported":1729894084,"current_range_meters":38000,"station_id":"ce4bho92rcd13ifvqh3g","pricing_plan_id":"cebpf4jnsgd1na2vs0mg"},{"bike_id":"7d05c7dd-aaf6-4b57-a7bd-6f439389043c","system_id":"levelo_inurba_marseille","lat":43.27563,"lon":5.38416,"is_reserved":false,"is_disabled":false,"rental_uris":{"android":"levelo://app?vid=7d05c7dd-aaf6-4b57-a7bd-6f439389043c","ios":"levelo://app?vid=7d05c7dd-aaf6-4b57-a7bd-6f439389043c"},"vehicle_type_id":"4","last_reported":1729894084,"current_range_meters":18000,"station_id":"ce4bhh92rcd13ifvqfi0","pricing_plan_id":"cebpf4jnsgd1na2vs0mg"},{"bike_id":"0bf727e6-dfe0-44c9-ada0-51316eb2797a","system_id":"levelo_inurba_marseille","lat":43.29523,"lon":5.39031,"is_reserved":false,"is_disabled":false,"rental_uris":{"android":"levelo://app?vid=0bf727e6-dfe0-44c9-ada0-51316eb2797a","ios":"levelo://app?vid=0bf727e6-dfe0-44c9-ada0-51316eb2797a"},"vehicle_type_id":"4","last_reported":1729894084,"current_range_meters":28000,"station_id":"ce4bh3p2rcd13ifvqdp0","pricing_plan_id":"cebpf4jnsgd1na2vs0mg"},{"bike_id":"18cd883a-f1cd-4f34-98dc-7580d7e4256d","system_id":"levelo_inurba_marseille","lat":43.24645,"lon":5.38894,"is_reserved":false,"is_disabled":false,"rental_uris":{"android":"levelo://app?vid=18cd883a-f1cd-4f34-98dc-7580d7e4256d","ios":"levelo://app?vid=18cd883a-f1cd-4f34-98dc-7580d7e4256d"},"vehicle_type_id":"4","last_reported":1729894084,"current_range_meters":38800,"station_id":"ce4bhg12rcd13ifvqf60","pricing_plan_id":"cebpf4jnsgd1na2vs0mg"},{"bike_id":"d8498741-0a71-42c9-ad36-7bcf87f9159c","system_id":"levelo_inurba_marseille","lat":43.2512,"lon":5.40323,"is_reserved":false,"is_disabled":false,"rental_uris":{"android":"levelo://app?vid=d8498741-0a71-42c9-ad36-7bcf87f9159c","ios":"levelo://app?vid=d8498741-0a71-42c9-ad36-7bcf87f9159c"},"vehicle_type_id":"4","last_reported":1729894084,"current_range_meters":16800,"station_id":"ce4bhlh2rcd13ifvqgig","pricing_plan_id":"cebpf4jnsgd1na2vs0mg"},{"bike_id":"777c0ff2-ba11-4249-94f5-674478fd9116","system_id":"levelo_inurba_marseille","lat":43.304283,"lon":5.41261,"is_reserved":false,"is_disabled":false,"rental_uris":{"android":"levelo://app?vid=777c0ff2-ba11-4249-94f5-674478fd9116","ios":"levelo://app?vid=777c0ff2-ba11-4249-94f5-674478fd9116"},"vehicle_type_id":"4","last_reported":1729894084,"current_range_meters":38800,"station_id":"ce4bhop2rcd13ifvqh8g","pricing_plan_id":"cebpf4jnsgd1na2vs0mg"},{"bike_id":"d33b1e0a-e23f-432c-9cd3-e6260f4995e5","system_id":"levelo_inurba_marseille","lat":43.29423,"lon":5.38605,"is_reserved":false,"is_disabled":false,"rental_uris":{"android":"levelo://app?vid=d33b1e0a-e23f-432c-9cd3-e6260f4995e5","ios":"levelo://app?vid=d33b1e0a-e23f-432c-9cd3-e6260f4995e5"},"vehicle_type_id":"4","last_reported":1729894084,"current_range_meters":38000,"station_id":"ce4bh2h2rcd13ifvqdh0","pricing_plan_id":"cebpf4jnsgd1na2vs0mg"},{"bike_id":"a8c844bd-ed1a-4b3e-80f1-d03b96aeeaea","system_id":"levelo_inurba_marseille","lat":43.29026,"lon":5.38639,"is_reserved":false,"is_disabled":false,"rental_uris":{"android":"levelo://app?vid=a8c844bd-ed1a-4b3e-80f1-d03b96aeeaea","ios":"levelo://app?vid=a8c844bd-ed1a-4b3e-80f1-d03b96aeeaea"},"vehicle_type_id":"4","last_reported":1729894084,"current_range_meters":20400,"station_id":"ce4bh4p2rcd13ifvqe0g","pricing_plan_id":"cebpf4jnsgd1na2vs0mg"},{"bike_id":"1aac1f7a-a64c-43c7-9fea-28291f50e750","system_id":"levelo_inurba_marseille","lat":43.29536,"lon":5.38542,"is_reserved":false,"is_disabled":false,"rental_uris":{"android":"levelo://app?vid=1aac1f7a-a64c-43c7-9fea-28291f50e750","ios":"levelo://app?vid=1aac1f7a-a64c-43c7-9fea-28291f50e750"},"vehicle_type_id":"4","last_reported":1729894084,"current_range_meters":38800,"station_id":"ce4bgih2rcd13ifvqba0","pricing_plan_id":"cebpf4jnsgd1na2vs0mg"},{"bike_id":"a4916ca8-8cea-41ca-9bd0-83ea66e6f362","system_id":"levelo_inurba_marseille","lat":43.22937,"lon":5.35377,"is_reserved":false,"is_disabled":false,"rental_uris":{"android":"levelo://app?vid=a4916ca8-8cea-41ca-9bd0-83ea66e6f362","ios":"levelo://app?vid=a4916ca8-8cea-41ca-9bd0-83ea66e6f362"},"vehicle_type_id":"4","last_reported":1729894084,"current_range_meters":38800,"station_id":"cpo3532slgdg3j2ikp40","pricing_plan_id":"cebpf4jnsgd1na2vs0mg"},{"bike_id":"2318c90d-dd02-4e4f-b960-e0bcb8922d5d","system_id":"levelo_inurba_marseille","lat":43.27996,"lon":5.41663,"is_reserved":false,"is_disabled":false,"rental_uris":{"android":"levelo://app?vid=2318c90d-dd02-4e4f-b960-e0bcb8922d5d","ios":"levelo://app?vid=2318c90d-dd02-4e4f-b960-e0bcb8922d5d"},"vehicle_type_id":"4","last_reported":1729894084,"current_range_meters":23200,"station_id":"ce4bho12rcd13ifvqh1g","pricing_plan_id":"cebpf4jnsgd1na2vs0mg"},{"bike_id":"35bc0fba-a740-43af-8968-e677af9ffdfb","system_id":"levelo_inurba_marseille","lat":43.295804,"lon":5.375299,"is_reserved":false,"is_disabled":false,"rental_uris":{"android":"levelo://app?vid=35bc0fba-a740-43af-8968-e677af9ffdfb","ios":"levelo://app?vid=35bc0fba-a740-43af-8968-e677af9ffdfb"},"vehicle_type_id":"4","last_reported":1729894084,"current_range_meters":24400,"station_id":"","pricing_plan_id":"cebpf4jnsgd1na2vs0mg"},{"bike_id":"1a9e71c9-e3d7-4334-8b91-0766c8651789","system_id":"levelo_inurba_marseille","lat":43.29533,"lon":5.38533,"is_reserved":false,"is_disabled":false,"rental_uris":{"android":"levelo://app?vid=1a9e71c9-e3d7-4334-8b91-0766c8651789","ios":"levelo://app?vid=1a9e71c9-e3d7-4334-8b91-0766c8651789"},"vehicle_type_id":"4","last_reported":1729894084,"current_range_meters":9200,"station_id":"ce4bgih2rcd13ifvqba0","pricing_plan_id":"cebpf4jnsgd1na2vs0mg"},{"bike_id":"83b85182-573c-4128-9412-fbdb8b899cb9","system_id":"levelo_inurba_marseille","lat":43.29414,"lon":5.38602,"is_reserved":false,"is_disabled":false,"rental_uris":{"android":"levelo://app?vid=83b85182-573c-4128-9412-fbdb8b899cb9","ios":"levelo://app?vid=83b85182-573c-4128-9412-fbdb8b899cb9"},"vehicle_type_id":"4","last_reported":1729894084,"current_range_meters":19200,"station_id":"ce4bh2h2rcd13ifvqdh0","pricing_plan_id":"cebpf4jnsgd1na2vs0mg"},{"bike_id":"a2a92060-b838-4051-b6b8-e444b7827b79","system_id":"levelo_inurba_marseille","lat":43.30645,"lon":5.40087,"is_reserved":false,"is_disabled":false,"rental_uris":{"android":"levelo://app?vid=a2a92060-b838-4051-b6b8-e444b7827b79","ios":"levelo://app?vid=a2a92060-b838-4051-b6b8-e444b7827b79"},"vehicle_type_id":"4","last_reported":1729894084,"current_range_meters":38800,"station_id":"ce4bh112rcd13ifvqda0","pricing_plan_id":"cebpf4jnsgd1na2vs0mg"},{"bike_id":"051b3a66-82cf-432b-9c2d-b8c85ca2da2a","system_id":"levelo_inurba_marseille","lat":43.30137,"lon":5.39866,"is_reserved":false,"is_disabled":false,"rental_uris":{"android":"levelo://app?vid=051b3a66-82cf-432b-9c2d-b8c85ca2da2a","ios":"levelo://app?vid=051b3a66-82cf-432b-9c2d-b8c85ca2da2a"},"vehicle_type_id":"4","last_reported":1729894084,"current_range_meters":11200,"station_id":"ce4bh0h2rcd13ifvqd40","pricing_plan_id":"cebpf4jnsgd1na2vs0mg"},{"bike_id":"19bd8ade-2c53-47ee-9430-afe5409ecd59","system_id":"levelo_inurba_marseille","lat":43.29862,"lon":5.39735,"is_reserved":false,"is_disabled":false,"rental_uris":{"android":"levelo://app?vid=19bd8ade-2c53-47ee-9430-afe5409ecd59","ios":"levelo://app?vid=19bd8ade-2c53-47ee-9430-afe5409ecd59"},"vehicle_type_id":"4","last_reported":1729894084,"current_range_meters":38800,"station_id":"ce4bh0h2rcd13ifvqd50","pricing_plan_id":"cebpf4jnsgd1na2vs0mg"},{"bike_id":"1e217d62-7c58-4dae-8df8-c85c05b2ee50","system_id":"levelo_inurba_marseille","lat":43.27944,"lon":5.41037,"is_reserved":false,"is_disabled":false,"rental_uris":{"android":"levelo://app?vid=1e217d62-7c58-4dae-8df8-c85c05b2ee50","ios":"levelo://app?vid=1e217d62-7c58-4dae-8df8-c85c05b2ee50"},"vehicle_type_id":"4","last_reported":1729894084,"current_range_meters":16000,"station_id":"ce4bhnp2rcd13ifvqh0g","pricing_plan_id":"cebpf4jnsgd1na2vs0mg"},{"bike_id":"1b0eebb3-2806-473b-b5b1-b2307376de86","system_id":"levelo_inurba_marseille","lat":43.303162,"lon":5.369071,"is_reserved":false,"is_disabled":false,"rental_uris":{"android":"levelo://app?vid=1b0eebb3-2806-473b-b5b1-b2307376de86","ios":"levelo://app?vid=1b0eebb3-2806-473b-b5b1-b2307376de86"},"vehicle_type_id":"4","last_reported":1729894084,"current_range_meters":23200,"station_id":"ce4bgqh2rcd13ifvqc5g","pricing_plan_id":"cebpf4jnsgd1na2vs0mg"},{"bike_id":"7578bd62-e617-452a-8a97-bb8b5e759757","system_id":"levelo_inurba_marseille","lat":43.3014,"lon":5.38056,"is_reserved":false,"is_disabled":false,"rental_uris":{"android":"levelo://app?vid=7578bd62-e617-452a-8a97-bb8b5e759757","ios":"levelo://app?vid=7578bd62-e617-452a-8a97-bb8b5e759757"},"vehicle_type_id":"4","last_reported":1729894084,"current_range_meters":33600,"station_id":"ce4bgjp2rcd13ifvqbh0","pricing_plan_id":"cebpf4jnsgd1na2vs0mg"},{"bike_id":"60f5f46d-f0b6-4cc5-a117-12fc09315ce9","system_id":"levelo_inurba_marseille","lat":43.29034,"lon":5.39956,"is_reserved":false,"is_disabled":false,"rental_uris":{"android":"levelo://app?vid=60f5f46d-f0b6-4cc5-a117-12fc09315ce9","ios":"levelo://app?vid=60f5f46d-f0b6-4cc5-a117-12fc09315ce9"},"vehicle_type_id":"4","last_reported":1729894084,"current_range_meters":37600,"station_id":"ce4bh392rcd13ifvqdm0","pricing_plan_id":"cebpf4jnsgd1na2vs0mg"},{"bike_id":"a177cf92-fe46-44a6-8fe0-6df07ad8a3cd","system_id":"levelo_inurba_marseille","lat":43.27072,"lon":5.42279,"is_reserved":false,"is_disabled":false,"rental_uris":{"android":"levelo://app?vid=a177cf92-fe46-44a6-8fe0-6df07ad8a3cd","ios":"levelo://app?vid=a177cf92-fe46-44a6-8fe0-6df07ad8a3cd"},"vehicle_type_id":"4","last_reported":1729894084,"current_range_meters":34000,"station_id":"ce4bhk92rcd13ifvqgb0","pricing_plan_id":"cebpf4jnsgd1na2vs0mg"},{"bike_id":"0e3f35aa-dbea-4e8d-ae62-562a614ef22b","system_id":"levelo_inurba_marseille","lat":43.2572,"lon":5.41116,"is_reserved":false,"is_disabled":false,"rental_uris":{"android":"levelo://app?vid=0e3f35aa-dbea-4e8d-ae62-562a614ef22b","ios":"levelo://app?vid=0e3f35aa-dbea-4e8d-ae62-562a614ef22b"},"vehicle_type_id":"4","last_reported":1729894084,"current_range_meters":3600,"station_id":"ce4bhkp2rcd13ifvqgd0","pricing_plan_id":"cebpf4jnsgd1na2vs0mg"},{"bike_id":"386227b0-44a0-4b31-814a-d6fffe242bfd","system_id":"levelo_inurba_marseille","lat":43.29633,"lon":5.40601,"is_reserved":false,"is_disabled":false,"rental_uris":{"android":"levelo://app?vid=386227b0-44a0-4b31-814a-d6fffe242bfd","ios":"levelo://app?vid=386227b0-44a0-4b31-814a-d6fffe242bfd"},"vehicle_type_id":"4","last_reported":1729894084,"current_range_meters":38800,"station_id":"ce4bh0h2rcd13ifvqd60","pricing_plan_id":"cebpf4jnsgd1na2vs0mg"},{"bike_id":"98c6ec34-5bb8-492a-b7b9-7dc19d96661e","system_id":"levelo_inurba_marseille","lat":43.28947,"lon":5.36393,"is_reserved":false,"is_disabled":false,"rental_uris":{"android":"levelo://app?vid=98c6ec34-5bb8-492a-b7b9-7dc19d96661e","ios":"levelo://app?vid=98c6ec34-5bb8-492a-b7b9-7dc19d96661e"},"vehicle_type_id":"4","last_reported":1729894084,"current_range_meters":36400,"station_id":"ce4bhc92rcd13ifvqetg","pricing_plan_id":"cebpf4jnsgd1na2vs0mg"},{"bike_id":"a1c35a9c-1ce4-45b2-9a6d-c63a2a0bb477","system_id":"levelo_inurba_marseille","lat":43.23157,"lon":5.43704,"is_reserved":false,"is_disabled":false,"rental_uris":{"android":"levelo://app?vid=a1c35a9c-1ce4-45b2-9a6d-c63a2a0bb477","ios":"levelo://app?vid=a1c35a9c-1ce4-45b2-9a6d-c63a2a0bb477"},"vehicle_type_id":"4","last_reported":1729894084,"current_range_meters":38400,"station_id":"ce4bhmp2rcd13ifvqgog","pricing_plan_id":"cebpf4jnsgd1na2vs0mg"},{"bike_id":"a8be9e79-195a-451a-86ec-5c494e9f3ff8","system_id":"levelo_inurba_marseille","lat":43.30884,"lon":5.37187,"is_reserved":false,"is_disabled":false,"rental_uris":{"android":"levelo://app?vid=a8be9e79-195a-451a-86ec-5c494e9f3ff8","ios":"levelo://app?vid=a8be9e79-195a-451a-86ec-5c494e9f3ff8"},"vehicle_type_id":"4","last_reported":1729894084,"current_range_meters":24400,"station_id":"ce4bguh2rcd13ifvqckg","pricing_plan_id":"cebpf4jnsgd1na2vs0mg"},{"bike_id":"0fbbfd84-97e7-45e9-a0b7-414b2df49fec","system_id":"levelo_inurba_marseille","lat":43.32365,"lon":5.38886,"is_reserved":false,"is_disabled":false,"rental_uris":{"android":"levelo://app?vid=0fbbfd84-97e7-45e9-a0b7-414b2df49fec","ios":"levelo://app?vid=0fbbfd84-97e7-45e9-a0b7-414b2df49fec"},"vehicle_type_id":"4","last_reported":1729894084,"current_range_meters":3600,"station_id":"ce4bhqp2rcd13ifvqhog","pricing_plan_id":"cebpf4jnsgd1na2vs0mg"},{"bike_id":"60c1c14c-1ad4-4e3d-b7be-2456448ba067","system_id":"levelo_inurba_marseille","lat":43.24808,"lon":5.37459,"is_reserved":false,"is_disabled":false,"rental_uris":{"android":"levelo://app?vid=60c1c14c-1ad4-4e3d-b7be-2456448ba067","ios":"levelo://app?vid=60c1c14c-1ad4-4e3d-b7be-2456448ba067"},"vehicle_type_id":"4","last_reported":1729894084,"current_range_meters":38000,"station_id":"ce4bhgh2rcd13ifvqfb0","pricing_plan_id":"cebpf4jnsgd1na2vs0mg"},{"bike_id":"8b34db6e-7ac5-421b-8140-e12375d73aa9","system_id":"levelo_inurba_marseille","lat":43.29525,"lon":5.38532,"is_reserved":false,"is_disabled":false,"rental_uris":{"android":"levelo://app?vid=8b34db6e-7ac5-421b-8140-e12375d73aa9","ios":"levelo://app?vid=8b34db6e-7ac5-421b-8140-e12375d73aa9"},"vehicle_type_id":"4","last_reported":1729894084,"current_range_meters":25600,"station_id":"ce4bgih2rcd13ifvqba0","pricing_plan_id":"cebpf4jnsgd1na2vs0mg"},{"bike_id":"191b21fb-5041-45e0-826e-0d2912d8de42","system_id":"levelo_inurba_marseille","lat":43.27836,"lon":5.39205,"is_reserved":false,"is_disabled":false,"rental_uris":{"android":"levelo://app?vid=191b21fb-5041-45e0-826e-0d2912d8de42","ios":"levelo://app?vid=191b21fb-5041-45e0-826e-0d2912d8de42"},"vehicle_type_id":"4","last_reported":1729894084,"current_range_meters":36800,"station_id":"ce4bhjp2rcd13ifvqga0","pricing_plan_id":"cebpf4jnsgd1na2vs0mg"},{"bike_id":"a2c88912-f2d5-4af6-8b93-b4c6a4138c6c","system_id":"levelo_inurba_marseille","lat":43.29273,"lon":5.38448,"is_reserved":false,"is_disabled":false,"rental_uris":{"android":"levelo://app?vid=a2c88912-f2d5-4af6-8b93-b4c6a4138c6c","ios":"levelo://app?vid=a2c88912-f2d5-4af6-8b93-b4c6a4138c6c"},"vehicle_type_id":"4","last_reported":1729894084,"current_range_meters":8400,"station_id":"ce4bh692rcd13ifvqea0","pricing_plan_id":"cebpf4jnsgd1na2vs0mg"},{"bike_id":"ba158428-8477-40d0-af9c-66000ca30e34","system_id":"levelo_inurba_marseille","lat":43.27997,"lon":5.40011,"is_reserved":false,"is_disabled":false,"rental_uris":{"android":"levelo://app?vid=ba158428-8477-40d0-af9c-66000ca30e34","ios":"levelo://app?vid=ba158428-8477-40d0-af9c-66000ca30e34"},"vehicle_type_id":"4","last_reported":1729894084,"current_range_meters":36000,"station_id":"ce4bho92rcd13ifvqh4g","pricing_plan_id":"cebpf4jnsgd1na2vs0mg"},{"bike_id":"d3492285-6b25-445e-a27c-7b234fc7bf90","system_id":"levelo_inurba_marseille","lat":43.30587,"lon":5.39347,"is_reserved":false,"is_disabled":false,"rental_uris":{"android":"levelo://app?vid=d3492285-6b25-445e-a27c-7b234fc7bf90","ios":"levelo://app?vid=d3492285-6b25-445e-a27c-7b234fc7bf90"},"vehicle_type_id":"4","last_reported":1729894084,"current_range_meters":26000,"station_id":"ce4bh0p2rcd13ifvqd80","pricing_plan_id":"cebpf4jnsgd1na2vs0mg"},{"bike_id":"4e51ca8e-7cb5-415e-baf1-d56ed9119c83","system_id":"levelo_inurba_marseille","lat":43.28445,"lon":5.39186,"is_reserved":false,"is_disabled":false,"rental_uris":{"android":"levelo://app?vid=4e51ca8e-7cb5-415e-baf1-d56ed9119c83","ios":"levelo://app?vid=4e51ca8e-7cb5-415e-baf1-d56ed9119c83"},"vehicle_type_id":"4","last_reported":1729894084,"current_range_meters":35600,"station_id":"ce4bhoh2rcd13ifvqh5g","pricing_plan_id":"cebpf4jnsgd1na2vs0mg"},{"bike_id":"70288195-9660-4e89-b2a5-7605fbb408d9","system_id":"levelo_inurba_marseille","lat":43.29533,"lon":5.3853,"is_reserved":false,"is_disabled":false,"rental_uris":{"android":"levelo://app?vid=70288195-9660-4e89-b2a5-7605fbb408d9","ios":"levelo://app?vid=70288195-9660-4e89-b2a5-7605fbb408d9"},"vehicle_type_id":"4","last_reported":1729894084,"current_range_meters":32000,"station_id":"ce4bgih2rcd13ifvqba0","pricing_plan_id":"cebpf4jnsgd1na2vs0mg"},{"bike_id":"1d417ac3-cc66-4f5a-8490-9ee5659fa22e","system_id":"levelo_inurba_marseille","lat":43.28702,"lon":5.37399,"is_reserved":false,"is_disabled":false,"rental_uris":{"android":"levelo://app?vid=1d417ac3-cc66-4f5a-8490-9ee5659fa22e","ios":"levelo://app?vid=1d417ac3-cc66-4f5a-8490-9ee5659fa22e"},"vehicle_type_id":"4","last_reported":1729894084,"current_range_meters":4000,"station_id":"ce4bh3p2rcd13ifvqdq0","pricing_plan_id":"cebpf4jnsgd1na2vs0mg"},{"bike_id":"11f0ba88-01b5-46af-893d-1b1f2b5b2c88","system_id":"levelo_inurba_marseille","lat":43.29023,"lon":5.38641,"is_reserved":false,"is_disabled":false,"rental_uris":{"android":"levelo://app?vid=11f0ba88-01b5-46af-893d-1b1f2b5b2c88","ios":"levelo://app?vid=11f0ba88-01b5-46af-893d-1b1f2b5b2c88"},"vehicle_type_id":"4","last_reported":1729894084,"current_range_meters":38800,"station_id":"ce4bh4p2rcd13ifvqe0g","pricing_plan_id":"cebpf4jnsgd1na2vs0mg"},{"bike_id":"d0a0ed26-3c0f-4416-9ccc-980ede71f40a","system_id":"levelo_inurba_marseille","lat":43.29012,"lon":5.35615,"is_reserved":false,"is_disabled":false,"rental_uris":{"android":"levelo://app?vid=d0a0ed26-3c0f-4416-9ccc-980ede71f40a","ios":"levelo://app?vid=d0a0ed26-3c0f-4416-9ccc-980ede71f40a"},"vehicle_type_id":"4","last_reported":1729894084,"current_range_meters":37600,"station_id":"ce4bhb92rcd13ifvqen0","pricing_plan_id":"cebpf4jnsgd1na2vs0mg"},{"bike_id":"1bc1ec86-1dfc-454c-ac14-34e1a5af2151","system_id":"levelo_inurba_marseille","lat":43.29529,"lon":5.38542,"is_reserved":false,"is_disabled":false,"rental_uris":{"android":"levelo://app?vid=1bc1ec86-1dfc-454c-ac14-34e1a5af2151","ios":"levelo://app?vid=1bc1ec86-1dfc-454c-ac14-34e1a5af2151"},"vehicle_type_id":"4","last_reported":1729894084,"current_range_meters":26800,"station_id":"ce4bgih2rcd13ifvqba0","pricing_plan_id":"cebpf4jnsgd1na2vs0mg"},{"bike_id":"00ff4f5c-e56d-4a78-95ee-1f41a37699d0","system_id":"levelo_inurba_marseille","lat":43.24075,"lon":5.3776,"is_reserved":false,"is_disabled":false,"rental_uris":{"android":"levelo://app?vid=00ff4f5c-e56d-4a78-95ee-1f41a37699d0","ios":"levelo://app?vid=00ff4f5c-e56d-4a78-95ee-1f41a37699d0"},"vehicle_type_id":"4","last_reported":1729894084,"current_range_meters":32000,"station_id":"ce4bhnp2rcd13ifvqgvg","pricing_plan_id":"cebpf4jnsgd1na2vs0mg"},{"bike_id":"e379e4d2-b47d-4aaf-8ebc-226933590102","system_id":"levelo_inurba_marseille","lat":43.29164,"lon":5.37151,"is_reserved":false,"is_disabled":false,"rental_uris":{"android":"levelo://app?vid=e379e4d2-b47d-4aaf-8ebc-226933590102","ios":"levelo://app?vid=e379e4d2-b47d-4aaf-8ebc-226933590102"},"vehicle_type_id":"4","last_reported":1729894084,"current_range_meters":38000,"station_id":"ce4bha92rcd13ifvqeh0","pricing_plan_id":"cebpf4jnsgd1na2vs0mg"},{"bike_id":"42b8ec84-8661-44cd-818d-9295e664044a","system_id":"levelo_inurba_marseille","lat":43.24386,"lon":5.37054,"is_reserved":false,"is_disabled":false,"rental_uris":{"android":"levelo://app?vid=42b8ec84-8661-44cd-818d-9295e664044a","ios":"levelo://app?vid=42b8ec84-8661-44cd-818d-9295e664044a"},"vehicle_type_id":"4","last_reported":1729894084,"current_range_meters":27600,"station_id":"ce4bhhh2rcd13ifvqfk0","pricing_plan_id":"cebpf4jnsgd1na2vs0mg"},{"bike_id":"a9ce88db-306a-467b-a1a9-74d7f629199f","system_id":"levelo_inurba_marseille","lat":43.24546,"lon":5.39532,"is_reserved":false,"is_disabled":false,"rental_uris":{"android":"levelo://app?vid=a9ce88db-306a-467b-a1a9-74d7f629199f","ios":"levelo://app?vid=a9ce88db-306a-467b-a1a9-74d7f629199f"},"vehicle_type_id":"4","last_reported":1729894084,"current_range_meters":8000,"station_id":"ce4bhlp2rcd13ifvqgjg","pricing_plan_id":"cebpf4jnsgd1na2vs0mg"},{"bike_id":"528d4c0e-03aa-4c98-9909-7515be7be69e","system_id":"levelo_inurba_marseille","lat":43.29531,"lon":5.38532,"is_reserved":false,"is_disabled":false,"rental_uris":{"android":"levelo://app?vid=528d4c0e-03aa-4c98-9909-7515be7be69e","ios":"levelo://app?vid=528d4c0e-03aa-4c98-9909-7515be7be69e"},"vehicle_type_id":"4","last_reported":1729894084,"current_range_meters":25600,"station_id":"ce4bgih2rcd13ifvqba0","pricing_plan_id":"cebpf4jnsgd1na2vs0mg"},{"bike_id":"993213e6-6063-466a-bdfd-588dc3c51d3c","system_id":"levelo_inurba_marseille","lat":43.2843,"lon":5.34994,"is_reserved":false,"is_disabled":false,"rental_uris":{"android":"levelo://app?vid=993213e6-6063-466a-bdfd-588dc3c51d3c","ios":"levelo://app?vid=993213e6-6063-466a-bdfd-588dc3c51d3c"},"vehicle_type_id":"4","last_reported":1729894084,"current_range_meters":38800,"station_id":"ce4bhbh2rcd13ifvqepg","pricing_plan_id":"cebpf4jnsgd1na2vs0mg"},{"bike_id":"43e0342e-7c69-4ef3-9959-2e5c770bab9f","system_id":"levelo_inurba_marseille","lat":43.22937,"lon":5.35381,"is_reserved":false,"is_disabled":false,"rental_uris":{"android":"levelo://app?vid=43e0342e-7c69-4ef3-9959-2e5c770bab9f","ios":"levelo://app?vid=43e0342e-7c69-4ef3-9959-2e5c770bab9f"},"vehicle_type_id":"4","last_reported":1729894084,"current_range_meters":16400,"station_id":"cpo3532slgdg3j2ikp40","pricing_plan_id":"cebpf4jnsgd1na2vs0mg"},{"bike_id":"5e4200bd-124d-49d0-9f68-9334d51d6b13","system_id":"levelo_inurba_marseille","lat":43.29677,"lon":5.37289,"is_reserved":false,"is_disabled":false,"rental_uris":{"android":"levelo://app?vid=5e4200bd-124d-49d0-9f68-9334d51d6b13","ios":"levelo://app?vid=5e4200bd-124d-49d0-9f68-9334d51d6b13"},"vehicle_type_id":"4","last_reported":1729894084,"current_range_meters":20400,"station_id":"ce4bgk12rcd13ifvqbj0","pricing_plan_id":"cebpf4jnsgd1na2vs0mg"},{"bike_id":"12eab7e7-f4fe-4359-8aa7-32541bf69683","system_id":"levelo_inurba_marseille","lat":43.28939,"lon":5.36633,"is_reserved":false,"is_disabled":false,"rental_uris":{"android":"levelo://app?vid=12eab7e7-f4fe-4359-8aa7-32541bf69683","ios":"levelo://app?vid=12eab7e7-f4fe-4359-8aa7-32541bf69683"},"vehicle_type_id":"4","last_reported":1729894084,"current_range_meters":16000,"station_id":"ce4bhap2rcd13ifvqek0","pricing_plan_id":"cebpf4jnsgd1na2vs0mg"},{"bike_id":"9e9ce6d5-3884-43ab-8d3b-315287324e2c","system_id":"levelo_inurba_marseille","lat":43.29524,"lon":5.3854,"is_reserved":false,"is_disabled":false,"rental_uris":{"android":"levelo://app?vid=9e9ce6d5-3884-43ab-8d3b-315287324e2c","ios":"levelo://app?vid=9e9ce6d5-3884-43ab-8d3b-315287324e2c"},"vehicle_type_id":"4","last_reported":1729894084,"current_range_meters":16800,"station_id":"ce4bgih2rcd13ifvqba0","pricing_plan_id":"cebpf4jnsgd1na2vs0mg"},{"bike_id":"b92ad983-5ad6-4d8d-b238-742d0d441e2d","system_id":"levelo_inurba_marseille","lat":43.32289,"lon":5.3827,"is_reserved":false,"is_disabled":false,"rental_uris":{"android":"levelo://app?vid=b92ad983-5ad6-4d8d-b238-742d0d441e2d","ios":"levelo://app?vid=b92ad983-5ad6-4d8d-b238-742d0d441e2d"},"vehicle_type_id":"4","last_reported":1729894084,"current_range_meters":36400,"station_id":"ce4bhr12rcd13ifvqhqg","pricing_plan_id":"cebpf4jnsgd1na2vs0mg"},{"bike_id":"ff6ae678-84d1-47a6-828b-0cc66969dae3","system_id":"levelo_inurba_marseille","lat":43.29154,"lon":5.35577,"is_reserved":false,"is_disabled":false,"rental_uris":{"android":"levelo://app?vid=ff6ae678-84d1-47a6-828b-0cc66969dae3","ios":"levelo://app?vid=ff6ae678-84d1-47a6-828b-0cc66969dae3"},"vehicle_type_id":"4","last_reported":1729894084,"current_range_meters":28800,"station_id":"","pricing_plan_id":"cebpf4jnsgd1na2vs0mg"},{"bike_id":"179aa653-ffff-4ed0-b43b-2f493e01dcc2","system_id":"levelo_inurba_marseille","lat":43.27993,"lon":5.40022,"is_reserved":false,"is_disabled":false,"rental_uris":{"android":"levelo://app?vid=179aa653-ffff-4ed0-b43b-2f493e01dcc2","ios":"levelo://app?vid=179aa653-ffff-4ed0-b43b-2f493e01dcc2"},"vehicle_type_id":"4","last_reported":1729894084,"current_range_meters":24000,"station_id":"ce4bho92rcd13ifvqh4g","pricing_plan_id":"cebpf4jnsgd1na2vs0mg"},{"bike_id":"90ced139-6bd8-448a-a9bc-8eca846b1d3f","system_id":"levelo_inurba_marseille","lat":43.24807,"lon":5.37461,"is_reserved":false,"is_disabled":false,"rental_uris":{"android":"levelo://app?vid=90ced139-6bd8-448a-a9bc-8eca846b1d3f","ios":"levelo://app?vid=90ced139-6bd8-448a-a9bc-8eca846b1d3f"},"vehicle_type_id":"4","last_reported":1729894084,"current_range_meters":38800,"station_id":"ce4bhgh2rcd13ifvqfb0","pricing_plan_id":"cebpf4jnsgd1na2vs0mg"},{"bike_id":"365a5e76-e012-4983-b8a9-1a07480bde83","system_id":"levelo_inurba_marseille","lat":43.23189,"lon":5.3555,"is_reserved":false,"is_disabled":false,"rental_uris":{"android":"levelo://app?vid=365a5e76-e012-4983-b8a9-1a07480bde83","ios":"levelo://app?vid=365a5e76-e012-4983-b8a9-1a07480bde83"},"vehicle_type_id":"4","last_reported":1729894084,"current_range_meters":38800,"station_id":"ce4bhu92rcd13ifvqi70","pricing_plan_id":"cebpf4jnsgd1na2vs0mg"},{"bike_id":"51415f0c-2178-478b-9fba-4bd40eccdf40","system_id":"levelo_inurba_marseille","lat":43.30925,"lon":5.40146,"is_reserved":false,"is_disabled":false,"rental_uris":{"android":"levelo://app?vid=51415f0c-2178-478b-9fba-4bd40eccdf40","ios":"levelo://app?vid=51415f0c-2178-478b-9fba-4bd40eccdf40"},"vehicle_type_id":"4","last_reported":1729894084,"current_range_meters":20000,"station_id":"ce4bgvp2rcd13ifvqct0","pricing_plan_id":"cebpf4jnsgd1na2vs0mg"},{"bike_id":"96cdd95e-3482-4a43-addc-7928483a6278","system_id":"levelo_inurba_marseille","lat":43.23193,"lon":5.35561,"is_reserved":false,"is_disabled":false,"rental_uris":{"android":"levelo://app?vid=96cdd95e-3482-4a43-addc-7928483a6278","ios":"levelo://app?vid=96cdd95e-3482-4a43-addc-7928483a6278"},"vehicle_type_id":"4","last_reported":1729894084,"current_range_meters":26800,"station_id":"ce4bhu92rcd13ifvqi70","pricing_plan_id":"cebpf4jnsgd1na2vs0mg"},{"bike_id":"12c608b5-8d08-402f-9740-14c729cb411d","system_id":"levelo_inurba_marseille","lat":43.32636,"lon":5.38878,"is_reserved":false,"is_disabled":false,"rental_uris":{"android":"levelo://app?vid=12c608b5-8d08-402f-9740-14c729cb411d","ios":"levelo://app?vid=12c608b5-8d08-402f-9740-14c729cb411d"},"vehicle_type_id":"4","last_reported":1729894084,"current_range_meters":26800,"station_id":"","pricing_plan_id":"cebpf4jnsgd1na2vs0mg"},{"bike_id":"25b56222-17a5-40f4-b2d7-0f34167f9053","system_id":"levelo_inurba_marseille","lat":43.29533,"lon":5.38538,"is_reserved":false,"is_disabled":false,"rental_uris":{"android":"levelo://app?vid=25b56222-17a5-40f4-b2d7-0f34167f9053","ios":"levelo://app?vid=25b56222-17a5-40f4-b2d7-0f34167f9053"},"vehicle_type_id":"4","last_reported":1729894084,"current_range_meters":19200,"station_id":"ce4bgih2rcd13ifvqba0","pricing_plan_id":"cebpf4jnsgd1na2vs0mg"},{"bike_id":"6f47c84f-52d3-451a-b0a5-2faed3673dc5","system_id":"levelo_inurba_marseille","lat":43.29038,"lon":5.39962,"is_reserved":false,"is_disabled":false,"rental_uris":{"android":"levelo://app?vid=6f47c84f-52d3-451a-b0a5-2faed3673dc5","ios":"levelo://app?vid=6f47c84f-52d3-451a-b0a5-2faed3673dc5"},"vehicle_type_id":"4","last_reported":1729894084,"current_range_meters":2800,"station_id":"ce4bh392rcd13ifvqdm0","pricing_plan_id":"cebpf4jnsgd1na2vs0mg"},{"bike_id":"74d75183-1557-4e7e-98a5-3d92cdb98e67","system_id":"levelo_inurba_marseille","lat":43.25112,"lon":5.40325,"is_reserved":false,"is_disabled":false,"rental_uris":{"android":"levelo://app?vid=74d75183-1557-4e7e-98a5-3d92cdb98e67","ios":"levelo://app?vid=74d75183-1557-4e7e-98a5-3d92cdb98e67"},"vehicle_type_id":"4","last_reported":1729894084,"current_range_meters":39200,"station_id":"ce4bhlh2rcd13ifvqgig","pricing_plan_id":"cebpf4jnsgd1na2vs0mg"},{"bike_id":"7544bc20-fc94-4abd-8b0d-d9d6c0532abf","system_id":"levelo_inurba_marseille","lat":43.27497,"lon":5.42448,"is_reserved":false,"is_disabled":false,"rental_uris":{"android":"levelo://app?vid=7544bc20-fc94-4abd-8b0d-d9d6c0532abf","ios":"levelo://app?vid=7544bc20-fc94-4abd-8b0d-d9d6c0532abf"},"vehicle_type_id":"4","last_reported":1729894084,"current_range_meters":10800,"station_id":"ce4bhn92rcd13ifvqgrg","pricing_plan_id":"cebpf4jnsgd1na2vs0mg"},{"bike_id":"36fb0594-ea6d-4e03-8107-03cf576f3096","system_id":"levelo_inurba_marseille","lat":43.29416,"lon":5.38619,"is_reserved":false,"is_disabled":false,"rental_uris":{"android":"levelo://app?vid=36fb0594-ea6d-4e03-8107-03cf576f3096","ios":"levelo://app?vid=36fb0594-ea6d-4e03-8107-03cf576f3096"},"vehicle_type_id":"4","last_reported":1729894084,"current_range_meters":38800,"station_id":"ce4bh2h2rcd13ifvqdh0","pricing_plan_id":"cebpf4jnsgd1na2vs0mg"},{"bike_id":"c2bcaf77-7fdb-4382-a28f-f300c2cf9e5f","system_id":"levelo_inurba_marseille","lat":43.29167,"lon":5.37164,"is_reserved":false,"is_disabled":false,"rental_uris":{"android":"levelo://app?vid=c2bcaf77-7fdb-4382-a28f-f300c2cf9e5f","ios":"levelo://app?vid=c2bcaf77-7fdb-4382-a28f-f300c2cf9e5f"},"vehicle_type_id":"4","last_reported":1729894084,"current_range_meters":3600,"station_id":"ce4bha92rcd13ifvqeh0","pricing_plan_id":"cebpf4jnsgd1na2vs0mg"},{"bike_id":"5c1d7101-6f5c-4fc2-aaf2-65d306bafb66","system_id":"levelo_inurba_marseille","lat":43.27913,"lon":5.39585,"is_reserved":false,"is_disabled":false,"rental_uris":{"android":"levelo://app?vid=5c1d7101-6f5c-4fc2-aaf2-65d306bafb66","ios":"levelo://app?vid=5c1d7101-6f5c-4fc2-aaf2-65d306bafb66"},"vehicle_type_id":"4","last_reported":1729894084,"current_range_meters":13600,"station_id":"ce4bhf92rcd13ifvqf40","pricing_plan_id":"cebpf4jnsgd1na2vs0mg"},{"bike_id":"0b1f8152-fa24-402f-b2cf-4a0283d5698f","system_id":"levelo_inurba_marseille","lat":43.29422,"lon":5.38623,"is_reserved":false,"is_disabled":false,"rental_uris":{"android":"levelo://app?vid=0b1f8152-fa24-402f-b2cf-4a0283d5698f","ios":"levelo://app?vid=0b1f8152-fa24-402f-b2cf-4a0283d5698f"},"vehicle_type_id":"4","last_reported":1729894084,"current_range_meters":38000,"station_id":"ce4bh2h2rcd13ifvqdh0","pricing_plan_id":"cebpf4jnsgd1na2vs0mg"},{"bike_id":"fd3565e6-8228-423c-aa35-7eb256beac6f","system_id":"levelo_inurba_marseille","lat":43.29267,"lon":5.3844,"is_reserved":false,"is_disabled":false,"rental_uris":{"android":"levelo://app?vid=fd3565e6-8228-423c-aa35-7eb256beac6f","ios":"levelo://app?vid=fd3565e6-8228-423c-aa35-7eb256beac6f"},"vehicle_type_id":"4","last_reported":1729894084,"current_range_meters":9600,"station_id":"ce4bh692rcd13ifvqea0","pricing_plan_id":"cebpf4jnsgd1na2vs0mg"},{"bike_id":"71cda5a0-571c-4b08-8476-48efcbdc28b3","system_id":"levelo_inurba_marseille","lat":43.24663,"lon":5.38163,"is_reserved":false,"is_disabled":false,"rental_uris":{"android":"levelo://app?vid=71cda5a0-571c-4b08-8476-48efcbdc28b3","ios":"levelo://app?vid=71cda5a0-571c-4b08-8476-48efcbdc28b3"},"vehicle_type_id":"4","last_reported":1729894084,"current_range_meters":6400,"station_id":"ce4bhih2rcd13ifvqfr0","pricing_plan_id":"cebpf4jnsgd1na2vs0mg"},{"bike_id":"08a2ab05-3f95-4a71-8a30-9173f725e207","system_id":"levelo_inurba_marseille","lat":43.22931,"lon":5.35375,"is_reserved":false,"is_disabled":false,"rental_uris":{"android":"levelo://app?vid=08a2ab05-3f95-4a71-8a30-9173f725e207","ios":"levelo://app?vid=08a2ab05-3f95-4a71-8a30-9173f725e207"},"vehicle_type_id":"4","last_reported":1729894084,"current_range_meters":16400,"station_id":"cpo3532slgdg3j2ikp40","pricing_plan_id":"cebpf4jnsgd1na2vs0mg"},{"bike_id":"0148dda3-0afd-45ed-bd68-237073a6c03e","system_id":"levelo_inurba_marseille","lat":43.29453,"lon":5.39737,"is_reserved":false,"is_disabled":false,"rental_uris":{"android":"levelo://app?vid=0148dda3-0afd-45ed-bd68-237073a6c03e","ios":"levelo://app?vid=0148dda3-0afd-45ed-bd68-237073a6c03e"},"vehicle_type_id":"4","last_reported":1729894084,"current_range_meters":21600,"station_id":"ce4bh3h2rcd13ifvqdo0","pricing_plan_id":"cebpf4jnsgd1na2vs0mg"},{"bike_id":"8282dbc9-ef98-4f76-bfe9-7b2d373ee239","system_id":"levelo_inurba_marseille","lat":43.24814,"lon":5.3746,"is_reserved":false,"is_disabled":false,"rental_uris":{"android":"levelo://app?vid=8282dbc9-ef98-4f76-bfe9-7b2d373ee239","ios":"levelo://app?vid=8282dbc9-ef98-4f76-bfe9-7b2d373ee239"},"vehicle_type_id":"4","last_reported":1729894084,"current_range_meters":38800,"station_id":"ce4bhgh2rcd13ifvqfb0","pricing_plan_id":"cebpf4jnsgd1na2vs0mg"},{"bike_id":"3b28d9ab-20f6-453f-b5f1-e1629d5fd9f8","system_id":"levelo_inurba_marseille","lat":43.30282,"lon":5.37708,"is_reserved":false,"is_disabled":false,"rental_uris":{"android":"levelo://app?vid=3b28d9ab-20f6-453f-b5f1-e1629d5fd9f8","ios":"levelo://app?vid=3b28d9ab-20f6-453f-b5f1-e1629d5fd9f8"},"vehicle_type_id":"4","last_reported":1729894084,"current_range_meters":9600,"station_id":"ce4bguh2rcd13ifvqcj0","pricing_plan_id":"cebpf4jnsgd1na2vs0mg"},{"bike_id":"4e2f9f2e-8a15-4b89-9b80-fc8e9b8dd977","system_id":"levelo_inurba_marseille","lat":43.23955,"lon":5.36626,"is_reserved":false,"is_disabled":false,"rental_uris":{"android":"levelo://app?vid=4e2f9f2e-8a15-4b89-9b80-fc8e9b8dd977","ios":"levelo://app?vid=4e2f9f2e-8a15-4b89-9b80-fc8e9b8dd977"},"vehicle_type_id":"4","last_reported":1729894084,"current_range_meters":30000,"station_id":"ce4bhi12rcd13ifvqfp0","pricing_plan_id":"cebpf4jnsgd1na2vs0mg"},