{"last_updated":1751040780,"ttl":60,"version":"2.2","data":{"bikes":[{"bike_id":"3da29fb8-fc97-44c6-b9ac-31dd456b2fd4","system_id":"levelo_inurba_marseille","lat":43.33771,"lon":5.37424,"is_reserved":false,"is_disabled":true,"rental_uris":{"android":"levelo://app?vid=3da29fb8-fc97-44c6-b9ac-31dd456b2fd4","ios":"levelo://app?vid=3da29fb8-fc97-44c6-b9ac-31dd456b2fd4"},"vehicle_type_id":"4","last_reported":1751040780,"current_range_meters":0,"station_id":"","pricing_plan_id":"cebpf4jnsgd1na2vs0mg"},{"bike_id":"01861ad8-a8d7-4be6-816e-651927c87584","system_id":"levelo_inurba_marseille","lat":43.33751,"lon":5.37456,"is_reserved":false,"is_disabled":true,"rental_uris":{"android":"levelo://app?vid=01861ad8-a8d7-4be6-816e-651927c87584","ios":"levelo://app?vid=01861ad8-a8d7-4be6-816e-651927c87584"},"vehicle_type_id":"4","last_reported":1751040780,"current_range_meters":0,"station_id":"","pricing_plan_id":"cebpf4jnsgd1na2vs0mg"},{"bike_id":"11477c87-be38-4367-bd66-80d6168f94f5","system_id":"levelo_inurba_marseille","lat":43.3051,"lon":5.36694,"is_reserved":false,"is_disabled":true,"rental_uris":{"android":"levelo://app?vid=11477c87-be38-4367-bd66-80d6168f94f5","ios":"levelo://app?vid=11477c87-be38-4367-bd66-80d6168f94f5"},"vehicle_type_id":"4","last_reported":1751040780,"current_range_meters":0,"station_id":"","pricing_plan_id":"cebpf4jnsgd1na2vs0mg"},{"bike_id":"a147e67d-e0b1-425e-bbda-ae9524df353e","system_id":"levelo_inurba_marseille","lat":43.337541,"lon":5.374577,"is_reserved":false,"is_disabled":true,"rental_uris":{"android":"levelo://app?vid=a147e67d-e0b1-425e-bbda-ae9524df353e","ios":"levelo://app?vid=a147e67d-e0b1-425e-bbda-ae9524df353e"},"vehicle_type_id":"4","last_reported":1751040780,"current_range_meters":0,"station_id":"","pricing_plan_id":"cebpf4jnsgd1na2vs0mg"},{"bike_id":"d7ab0e84-3bbe-4115-b0ab-ab05a5f13dfd","system_id":"levelo_inurba_marseille","lat":43.33038,"lon":5.41029,"is_reserved":false,"is_disabled":true,"rental_uris":{"android":"levelo://app?vid=d7ab0e84-3bbe-4115-b0ab-ab05a5f13dfd","ios":"levelo://app?vid=d7ab0e84-3bbe-4115-b0ab-ab05a5f13dfd"},"vehicle_type_id":"4","last_reported":1751040780,"current_range_meters":0,"station_id":"","pricing_plan_id":"cebpf4jnsgd1na2vs0mg"},{"bike_id":"2c5ab5ef-6e3c-47bf-9405-4e96ff645858","system_id":"levelo_inurba_marseille","lat":43.34034,"lon":5.42904,"is_reserved":false,"is_disabled":true,"rental_uris":{"android":"levelo://app?vid=2c5ab5ef-6e3c-47bf-9405-4e96ff645858","ios":"levelo://app?vid=2c5ab5ef-6e3c-47bf-9405-4e96ff645858"},"vehicle_type_id":"4","last_reported":1751040780,"current_range_meters":0,"station_id":"","pricing_plan_id":"cebpf4jnsgd1na2vs0mg"},{"bike_id":"67a5051a-b32e-408a-8389-c22b54eb81f6","system_id":"levelo_inurba_marseille","lat":43.330343,"lon":5.456095,"is_reserved":false,"is_disabled":true,"rental_uris":{"android":"levelo://app?vid=67a5051a-b32e-408a-8389-c22b54eb81f6","ios":"levelo://app?vid=67a5051a-b32e-408a-8389-c22b54eb81f6"},"vehicle_type_id":"4","last_reported":1751040780,"current_range_meters":0,"station_id":"","pricing_plan_id":"cebpf4jnsgd1na2vs0mg"},{"bike_id":"4d064f95-6dcb-4234-9e98-7c70fbb74351","system_id":"levelo_inurba_marseille","lat":43.337444,"lon":5.374475,"is_reserved":false,"is_disabled":true,"rental_uris":{"android":"levelo://app?vid=4d064f95-6dcb-4234-9e98-7c70fbb74351","ios":"levelo://app?vid=4d064f95-6dcb-4234-9e98-7c70fbb74351"},"vehicle_type_id":"4","last_reported":1751040780,"current_range_meters":0,"station_id":"","pricing_plan_id":"cebpf4jnsgd1na2vs0mg"},{"bike_id":"446c66be-a677-44c2-9116-79a23398a824","system_id":"levelo_inurba_marseille","lat":43.27617,"lon":5.43196,"is_reserved":false,"is_disabled":true,"rental_uris":{"android":"levelo://app?vid=446c66be-a677-44c2-9116-79a23398a824","ios":"levelo://app?vid=446c66be-a677-44c2-9116-79a23398a824"},"vehicle_type_id":"4","last_reported":1751040780,"current_range_meters":0,"station_id":"","pricing_plan_id":"cebpf4jnsgd1na2vs0mg"},{"bike_id":"2315c627-494e-41a8-a12f-403d40de57ef","system_id":"levelo_inurba_marseille","lat":43.301371,"lon":5.40335,"is_reserved":false,"is_disabled":true,"rental_uris":{"android":"levelo://app?vid=2315c627-494e-41a8-a12f-403d40de57ef","ios":"levelo://app?vid=2315c627-494e-41a8-a12f-403d40de57ef"},"vehicle_type_id":"4","last_reported":1751040780,"current_range_meters":0,"station_id":"","pricing_plan_id":"cebpf4jnsgd1na2vs0mg"},{"bike_id":"a1ae4fee-cbeb-43dc-a969-5827f87e448d","system_id":"levelo_inurba_marseille","lat":43.38415,"lon":5.36532,"is_reserved":false,"is_disabled":true,"rental_uris":{"android":"levelo://app?vid=a1ae4fee-cbeb-43dc-a969-5827f87e448d","ios":"levelo://app?vid=a1ae4fee-cbeb-43dc-a969-5827f87e448d"},"vehicle_type_id":"4","last_reported":1751040780,"current_range_meters":0,"station_id":"","pricing_plan_id":"cebpf4jnsgd1na2vs0mg"},{"bike_id":"d6609b4f-333b-43c1-9ebe-8726f5e76e88","system_id":"levelo_inurba_marseille","lat":43.337444,"lon":5.374475,"is_reserved":false,"is_disabled":true,"rental_uris":{"android":"levelo://app?vid=d6609b4f-333b-43c1-9ebe-8726f5e76e88","ios":"levelo://app?vid=d6609b4f-333b-43c1-9ebe-8726f5e76e88"},"vehicle_type_id":"4","last_reported":1751040780,"current_range_meters":0,"station_id":"","pricing_plan_id":"cebpf4jnsgd1na2vs0mg"},{"bike_id":"14903f35-1eaf-4a5d-86c3-23007b361999","system_id":"levelo_inurba_marseille","lat":43.27064,"lon":5.42274,"is_reserved":false,"is_disabled":true,"rental_uris":{"android":"levelo://app?vid=14903f35-1eaf-4a5d-86c3-23007b361999","ios":"levelo://app?vid=14903f35-1eaf-4a5d-86c3-23007b361999"},"vehicle_type_id":"4","last_reported":1751040780,"current_range_meters":0,"station_id":"","pricing_plan_id":"cebpf4jnsgd1na2vs0mg"},{"bike_id":"bf027107-0fe5-47a2-8fef-6473f83bb647","system_id":"levelo_inurba_marseille","lat":43.32945,"lon":5.36406,"is_reserved":false,"is_disabled":true,"rental_uris":{"android":"levelo://app?vid=bf027107-0fe5-47a2-8fef-6473f83bb647","ios":"levelo://app?vid=bf027107-0fe5-47a2-8fef-6473f83bb647"},"vehicle_type_id":"4","last_reported":1751040780,"current_range_meters":0,"station_id":"","pricing_plan_id":"cebpf4jnsgd1na2vs0mg"},{"bike_id":"b17b6606-336a-4606-9b65-af139c49de26","system_id":"levelo_inurba_marseille","lat":43.256673,"lon":5.427086,"is_reserved":false,"is_disabled":true,"rental_uris":{"android":"levelo://app?vid=b17b6606-336a-4606-9b65-af139c49de26","ios":"levelo://app?vid=b17b6606-336a-4606-9b65-af139c49de26"},"vehicle_type_id":"4","last_reported":1751040780,"current_range_meters":0,"station_id":"","pricing_plan_id":"cebpf4jnsgd1na2vs0mg"},{"bike_id":"9d3724b1-0dc8-4689-9d6a-55005a9503cb","system_id":"levelo_inurba_marseille","lat":43.28619,"lon":5.42819,"is_reserved":false,"is_disabled":true,"rental_uris":{"android":"levelo://app?vid=9d3724b1-0dc8-4689-9d6a-55005a9503cb","ios":"levelo://app?vid=9d3724b1-0dc8-4689-9d6a-55005a9503cb"},"vehicle_type_id":"4","last_reported":1751040780,"current_range_meters":0,"station_id":"","pricing_plan_id":"cebpf4jnsgd1na2vs0mg"},{"bike_id":"ce774a04-a4be-4eca-a30f-78eb921955bd","system_id":"levelo_inurba_marseille","lat":43.33874,"lon":5.35554,"is_reserved":false,"is_disabled":true,"rental_uris":{"android":"levelo://app?vid=ce774a04-a4be-4eca-a30f-78eb921955bd","ios":"levelo://app?vid=ce774a04-a4be-4eca-a30f-78eb921955bd"},"vehicle_type_id":"4","last_reported":1751040780,"current_range_meters":0,"station_id":"","pricing_plan_id":"cebpf4jnsgd1na2vs0mg"},{"bike_id":"55d28632-8abc-44b7-9f1e-fcc736f3d92b","system_id":"levelo_inurba_marseille","lat":43.29612,"lon":5.37733,"is_reserved":false,"is_disabled":true,"rental_uris":{"android":"levelo://app?vid=55d28632-8abc-44b7-9f1e-fcc736f3d92b","ios":"levelo://app?vid=55d28632-8abc-44b7-9f1e-fcc736f3d92b"},"vehicle_type_id":"4","last_reported":1751040780,"current_range_meters":0,"station_id":"ce4bgi92rcd13ifvqb90","pricing_plan_id":"cebpf4jnsgd1na2vs0mg"},{"bike_id":"84cbf69b-43a6-44f4-929e-76852821d996","system_id":"levelo_inurba_marseille","lat":43.29792,"lon":5.38085,"is_reserved":false,"is_disabled":true,"rental_uris":{"android":"levelo://app?vid=84cbf69b-43a6-44f4-929e-76852821d996","ios":"levelo://app?vid=84cbf69b-43a6-44f4-929e-76852821d996"},"vehicle_type_id":"4","last_reported":1751040780,"current_range_meters":0,"station_id":"ce4bgip2rcd13ifvqbb0","pricing_plan_id":"cebpf4jnsgd1na2vs0mg"},{"bike_id":"91fe820b-1590-4d27-9bb8-1937a8cfd73d","system_id":"levelo_inurba_marseille","lat":43.31237,"lon":5.36849,"is_reserved":false,"is_disabled":true,"rental_uris":{"android":"levelo://app?vid=91fe820b-1590-4d27-9bb8-1937a8cfd73d","ios":"levelo://app?vid=91fe820b-1590-4d27-9bb8-1937a8cfd73d"},"vehicle_type_id":"4","last_reported":1751040780,"current_range_meters":0,"station_id":"ce4bgl92rcd13ifvqbq0","pricing_plan_id":"cebpf4jnsgd1na2vs0mg"},{"bike_id":"d4c87367-865c-41f7-8124-71350ef672b8","system_id":"levelo_inurba_marseille","lat":43.2984,"lon":5.36266,"is_reserved":false,"is_disabled":true,"rental_uris":{"android":"levelo://app?vid=d4c87367-865c-41f7-8124-71350ef672b8","ios":"levelo://app?vid=d4c87367-865c-41f7-8124-71350ef672b8"},"vehicle_type_id":"4","last_reported":1751040780,"current_range_meters":0,"station_id":"ce4bgpp2rcd13ifvqc3g","pricing_plan_id":"cebpf4jnsgd1na2vs0mg"},{"bike_id":"bf3fffa2-17dc-4566-a08e-0ac25088b4cc","system_id":"levelo_inurba_marseille","lat":43.30307,"lon":5.3692,"is_reserved":false,"is_disabled":true,"rental_uris":{"android":"levelo://app?vid=bf3fffa2-17dc-4566-a08e-0ac25088b4cc","ios":"levelo://app?vid=bf3fffa2-17dc-4566-a08e-0ac25088b4cc"},"vehicle_type_id":"4","last_reported":1751040780,"current_range_meters":0,"station_id":"ce4bgqh2rcd13ifvqc5g","pricing_plan_id":"cebpf4jnsgd1na2vs0mg"},{"bike_id":"5ed96e1b-813a-4283-aa38-ab1d58740b69","system_id":"levelo_inurba_marseille","lat":43.30346,"lon":5.40483,"is_reserved":false,"is_disabled":true,"rental_uris":{"android":"levelo://app?vid=5ed96e1b-813a-4283-aa38-ab1d58740b69","ios":"levelo://app?vid=5ed96e1b-813a-4283-aa38-ab1d58740b69"},"vehicle_type_id":"4","last_reported":1751040780,"current_range_meters":0,"station_id":"ce4bh012rcd13ifvqd10","pricing_plan_id":"cebpf4jnsgd1na2vs0mg"},{"bike_id":"56e31ce3-ac11-416f-92e2-e6d7b62780d2","system_id":"levelo_inurba_marseille","lat":43.30127,"lon":5.39861,"is_reserved":false,"is_disabled":true,"rental_uris":{"android":"levelo://app?vid=56e31ce3-ac11-416f-92e2-e6d7b62780d2","ios":"levelo://app?vid=56e31ce3-ac11-416f-92e2-e6d7b62780d2"},"vehicle_type_id":"4","last_reported":1751040780,"current_range_meters":0,"station_id":"ce4bh0h2rcd13ifvqd40","pricing_plan_id":"cebpf4jnsgd1na2vs0mg"},{"bike_id":"da87be91-9fc4-4c9b-82f2-b36c542ae29f","system_id":"levelo_inurba_marseille","lat":43.30208,"lon":5.39465,"is_reserved":false,"is_disabled":true,"rental_uris":{"android":"levelo://app?vid=da87be91-9fc4-4c9b-82f2-b36c542ae29f","ios":"levelo://app?vid=da87be91-9fc4-4c9b-82f2-b36c542ae29f"},"vehicle_type_id":"4","last_reported":1751040780,"current_range_meters":0,"station_id":"ce4bh0p2rcd13ifvqd70","pricing_plan_id":"cebpf4jnsgd1na2vs0mg"},{"bike_id":"e7a5d6eb-39f0-4d79-8695-bd4a056e5efc","system_id":"levelo_inurba_marseille","lat":43.30666,"lon":5.4008,"is_reserved":false,"is_disabled":true,"rental_uris":{"android":"levelo://app?vid=e7a5d6eb-39f0-4d79-8695-bd4a056e5efc","ios":"levelo://app?vid=e7a5d6eb-39f0-4d79-8695-bd4a056e5efc"},"vehicle_type_id":"4","last_reported":1751040780,"current_range_meters":0,"station_id":"ce4bh112rcd13ifvqda0","pricing_plan_id":"cebpf4jnsgd1na2vs0mg"},{"bike_id":"20637cf6-63c4-4ae9-a6d9-26cd7d3bfb87","system_id":"levelo_inurba_marseille","lat":43.29036,"lon":5.39972,"is_reserved":false,"is_disabled":true,"rental_uris":{"android":"levelo://app?vid=20637cf6-63c4-4ae9-a6d9-26cd7d3bfb87","ios":"levelo://app?vid=20637cf6-63c4-4ae9-a6d9-26cd7d3bfb87"},"vehicle_type_id":"4","last_reported":1751040780,"current_range_meters":0,"station_id":"ce4bh392rcd13ifvqdm0","pricing_plan_id":"cebpf4jnsgd1na2vs0mg"},{"bike_id":"b2c93d05-686b-4137-95ba-37d31dfe024c","system_id":"levelo_inurba_marseille","lat":43.286247,"lon":5.360986,"is_reserved":false,"is_disabled":true,"rental_uris":{"android":"levelo://app?vid=b2c93d05-686b-4137-95ba-37d31dfe024c","ios":"levelo://app?vid=b2c93d05-686b-4137-95ba-37d31dfe024c"},"vehicle_type_id":"4","last_reported":1751040780,"current_range_meters":0,"station_id":"ce4bhah2rcd13ifvqei0","pricing_plan_id":"cebpf4jnsgd1na2vs0mg"},{"bike_id":"0dcc7f93-57c9-4448-8712-33bf9f8c219f","system_id":"levelo_inurba_marseille","lat":43.28931,"lon":5.366333,"is_reserved":false,"is_disabled":true,"rental_uris":{"android":"levelo://app?vid=0dcc7f93-57c9-4448-8712-33bf9f8c219f","ios":"levelo://app?vid=0dcc7f93-57c9-4448-8712-33bf9f8c219f"},"vehicle_type_id":"4","last_reported":1751040780,"current_range_meters":0,"station_id":"ce4bhap2rcd13ifvqek0","pricing_plan_id":"cebpf4jnsgd1na2vs0mg"},{"bike_id":"fd0be2ba-6f32-4486-8cc2-c2cc04c66e2f","system_id":"levelo_inurba_marseille","lat":43.29001,"lon":5.35609,"is_reserved":false,"is_disabled":true,"rental_uris":{"android":"levelo://app?vid=fd0be2ba-6f32-4486-8cc2-c2cc04c66e2f","ios":"levelo://app?vid=fd0be2ba-6f32-4486-8cc2-c2cc04c66e2f"},"vehicle_type_id":"4","last_reported":1751040780,"current_range_meters":0,"station_id":"ce4bhb92rcd13ifvqen0","pricing_plan_id":"cebpf4jnsgd1na2vs0mg"},{"bike_id":"2056a1ef-2c83-41d6-9ad8-4a20d3c61453","system_id":"levelo_inurba_marseille","lat":43.29207,"lon":5.36076,"is_reserved":false,"is_disabled":true,"rental_uris":{"android":"levelo://app?vid=2056a1ef-2c83-41d6-9ad8-4a20d3c61453","ios":"levelo://app?vid=2056a1ef-2c83-41d6-9ad8-4a20d3c61453"},"vehicle_type_id":"4","last_reported":1751040780,"current_range_meters":0,"station_id":"ce4bhbh2rcd13ifvqeqg","pricing_plan_id":"cebpf4jnsgd1na2vs0mg"},{"bike_id":"271a5da5-4035-470a-ba7c-aa58268e9930","system_id":"levelo_inurba_marseille","lat":43.21766,"lon":5.34606,"is_reserved":false,"is_disabled":true,"rental_uris":{"android":"levelo://app?vid=271a5da5-4035-470a-ba7c-aa58268e9930","ios":"levelo://app?vid=271a5da5-4035-470a-ba7c-aa58268e9930"},"vehicle_type_id":"4","last_reported":1751040780,"current_range_meters":0,"station_id":"ce4bhgh2rcd13ifvqfb0","pricing_plan_id":"cebpf4jnsgd1na2vs0mg"},{"bike_id":"fccf844c-68a7-4155-91d8-922233631ae7","system_id":"levelo_inurba_marseille","lat":43.26218,"lon":5.37434,"is_reserved":false,"is_disabled":true,"rental_uris":{"android":"levelo://app?vid=fccf844c-68a7-4155-91d8-922233631ae7","ios":"levelo://app?vid=fccf844c-68a7-4155-91d8-922233631ae7"},"vehicle_type_id":"4","last_reported":1751040780,"current_range_meters":0,"station_id":"ce4bhgp2rcd13ifvqfc0","pricing_plan_id":"cebpf4jnsgd1na2vs0mg"},{"bike_id":"eebe4a8a-31fe-44c3-b6b2-3377bd701f9a","system_id":"levelo_inurba_marseille","lat":43.27312,"lon":5.39118,"is_reserved":false,"is_disabled":true,"rental_uris":{"android":"levelo://app?vid=eebe4a8a-31fe-44c3-b6b2-3377bd701f9a","ios":"levelo://app?vid=eebe4a8a-31fe-44c3-b6b2-3377bd701f9a"},"vehicle_type_id":"4","last_reported":1751040780,"current_range_meters":0,"station_id":"ce4bhgp2rcd13ifvqfe0","pricing_plan_id":"cebpf4jnsgd1na2vs0mg"},{"bike_id":"d80fba5d-e20f-41b9-b600-e31aa6ea5682","system_id":"levelo_inurba_marseille","lat":43.25498,"lon":5.37648,"is_reserved":false,"is_disabled":true,"rental_uris":{"android":"levelo://app?vid=d80fba5d-e20f-41b9-b600-e31aa6ea5682","ios":"levelo://app?vid=d80fba5d-e20f-41b9-b600-e31aa6ea5682"},"vehicle_type_id":"4","last_reported":1751040780,"current_range_meters":0,"station_id":"ce4bhh12rcd13ifvqff0","pricing_plan_id":"cebpf4jnsgd1na2vs0mg"},{"bike_id":"a733617e-eca8-4eb4-a0b5-9b04130bcfc0","system_id":"levelo_inurba_marseille","lat":43.25725,"lon":5.41106,"is_reserved":false,"is_disabled":true,"rental_uris":{"android":"levelo://app?vid=a733617e-eca8-4eb4-a0b5-9b04130bcfc0","ios":"levelo://app?vid=a733617e-eca8-4eb4-a0b5-9b04130bcfc0"},"vehicle_type_id":"4","last_reported":1751040780,"current_range_meters":0,"station_id":"ce4bhkp2rcd13ifvqgd0","pricing_plan_id":"cebpf4jnsgd1na2vs0mg"},{"bike_id":"6afbd1d5-9086-4519-a61f-6b66902ca37f","system_id":"levelo_inurba_marseille","lat":43.25115,"lon":5.40317,"is_reserved":false,"is_disabled":true,"rental_uris":{"android":"levelo://app?vid=6afbd1d5-9086-4519-a61f-6b66902ca37f","ios":"levelo://app?vid=6afbd1d5-9086-4519-a61f-6b66902ca37f"},"vehicle_type_id":"4","last_reported":1751040780,"current_range_meters":0,"station_id":"ce4bhlh2rcd13ifvqgig","pricing_plan_id":"cebpf4jnsgd1na2vs0mg"},{"bike_id":"386cbbce-333f-4d22-bfe5-063a10a272e0","system_id":"levelo_inurba_marseille","lat":43.25105,"lon":5.40333,"is_reserved":false,"is_disabled":true,"rental_uris":{"android":"levelo://app?vid=386cbbce-333f-4d22-bfe5-063a10a272e0","ios":"levelo://app?vid=386cbbce-333f-4d22-bfe5-063a10a272e0"},"vehicle_type_id":"4","last_reported":1751040780,"current_range_meters":0,"station_id":"ce4bhlh2rcd13ifvqgig","pricing_plan_id":"cebpf4jnsgd1na2vs0mg"},{"bike_id":"cd173cfe-3142-4903-84fa-e693e92ac3d0","system_id":"levelo_inurba_marseille","lat":43.25085,"lon":5.3951,"is_reserved":false,"is_disabled":true,"rental_uris":{"android":"levelo://app?vid=cd173cfe-3142-4903-84fa-e693e92ac3d0","ios":"levelo://app?vid=cd173cfe-3142-4903-84fa-e693e92ac3d0"},"vehicle_type_id":"4","last_reported":1751040780,"current_range_meters":0,"station_id":"ce4bhm12rcd13ifvqgkg","pricing_plan_id":"cebpf4jnsgd1na2vs0mg"},{"bike_id":"41d39f23-563a-4b64-b6cf-8fef5d8c0597","system_id":"levelo_inurba_marseille","lat":43.25089,"lon":5.39525,"is_reserved":false,"is_disabled":true,"rental_uris":{"android":"levelo://app?vid=41d39f23-563a-4b64-b6cf-8fef5d8c0597","ios":"levelo://app?vid=41d39f23-563a-4b64-b6cf-8fef5d8c0597"},"vehicle_type_id":"4","last_reported":1751040780,"current_range_meters":0,"station_id":"ce4bhm12rcd13ifvqgkg","pricing_plan_id":"cebpf4jnsgd1na2vs0mg"},{"bike_id":"c7e8c8b3-acfb-45e2-9643-d4922307add2","system_id":"levelo_inurba_marseille","lat":43.2794,"lon":5.41039,"is_reserved":false,"is_disabled":true,"rental_uris":{"android":"levelo://app?vid=c7e8c8b3-acfb-45e2-9643-d4922307add2","ios":"levelo://app?vid=c7e8c8b3-acfb-45e2-9643-d4922307add2"},"vehicle_type_id":"4","last_reported":1751040780,"current_range_meters":0,"station_id":"ce4bhnp2rcd13ifvqh0g","pricing_plan_id":"cebpf4jnsgd1na2vs0mg"},{"bike_id":"61b9faaf-70f4-4463-9888-117ec4b84898","system_id":"levelo_inurba_marseille","lat":43.27995,"lon":5.4166,"is_reserved":false,"is_disabled":true,"rental_uris":{"android":"levelo://app?vid=61b9faaf-70f4-4463-9888-117ec4b84898","ios":"levelo://app?vid=61b9faaf-70f4-4463-9888-117ec4b84898"},"vehicle_type_id":"4","last_reported":1751040780,"current_range_meters":0,"station_id":"ce4bho12rcd13ifvqh1g","pricing_plan_id":"cebpf4jnsgd1na2vs0mg"},{"bike_id":"30bb9d53-7376-4f86-add9-e2335b971f1f","system_id":"levelo_inurba_marseille","lat":43.279984,"lon":5.400097,"is_reserved":false,"is_disabled":true,"rental_uris":{"android":"levelo://app?vid=30bb9d53-7376-4f86-add9-e2335b971f1f","ios":"levelo://app?vid=30bb9d53-7376-4f86-add9-e2335b971f1f"},"vehicle_type_id":"4","last_reported":1751040780,"current_range_meters":0,"station_id":"ce4bho92rcd13ifvqh4g","pricing_plan_id":"cebpf4jnsgd1na2vs0mg"},{"bike_id":"be0eb6d6-7d0b-434b-bfdf-dc812bd192cb","system_id":"levelo_inurba_marseille","lat":43.32353,"lon":5.36717,"is_reserved":false,"is_disabled":true,"rental_uris":{"android":"levelo://app?vid=be0eb6d6-7d0b-434b-bfdf-dc812bd192cb","ios":"levelo://app?vid=be0eb6d6-7d0b-434b-bfdf-dc812bd192cb"},"vehicle_type_id":"4","last_reported":1751040780,"current_range_meters":0,"station_id":"ce4bhsh2rcd13ifvqi2g","pricing_plan_id":"cebpf4jnsgd1na2vs0mg"},{"bike_id":"29ec4185-f87e-45a2-91e6-759a1d934b1c","system_id":"levelo_inurba_marseille","lat":43.21755,"lon":5.34596,"is_reserved":false,"is_disabled":true,"rental_uris":{"android":"levelo://app?vid=29ec4185-f87e-45a2-91e6-759a1d934b1c","ios":"levelo://app?vid=29ec4185-f87e-45a2-91e6-759a1d934b1c"},"vehicle_type_id":"4","last_reported":1751040780,"current_range_meters":0,"station_id":"st_cvj6r9ubvosntc0bgbag","pricing_plan_id":"cebpf4jnsgd1na2vs0mg"},{"bike_id":"a86d2f9f-83d8-4f17-8422-d08e982c4a2a","system_id":"levelo_inurba_marseille","lat":43.29736,"lon":5.44914,"is_reserved":false,"is_disabled":true,"rental_uris":{"android":"levelo://app?vid=a86d2f9f-83d8-4f17-8422-d08e982c4a2a","ios":"levelo://app?vid=a86d2f9f-83d8-4f17-8422-d08e982c4a2a"},"vehicle_type_id":"4","last_reported":1751040780,"current_range_meters":400,"station_id":"","pricing_plan_id":"cebpf4jnsgd1na2vs0mg"},{"bike_id":"3e17bfa4-e244-4618-bca8-e6ff14ecd05b","system_id":"levelo_inurba_marseille","lat":43.30149,"lon":5.39865,"is_reserved":false,"is_disabled":true,"rental_uris":{"android":"levelo://app?vid=3e17bfa4-e244-4618-bca8-e6ff14ecd05b","ios":"levelo://app?vid=3e17bfa4-e244-4618-bca8-e6ff14ecd05b"},"vehicle_type_id":"4","last_reported":1751040780,"current_range_meters":400,"station_id":"ce4bh0h2rcd13ifvqd40","pricing_plan_id":"cebpf4jnsgd1na2vs0mg"},{"bike_id":"a75d4f69-38bf-4039-b046-6f30f16325af","system_id":"levelo_inurba_marseille","lat":43.341403,"lon":5.408986,"is_reserved":false,"is_disabled":true,"rental_uris":{"android":"levelo://app?vid=a75d4f69-38bf-4039-b046-6f30f16325af","ios":"levelo://app?vid=a75d4f69-38bf-4039-b046-6f30f16325af"},"vehicle_type_id":"4","last_reported":1751040780,"current_range_meters":400,"station_id":"ce4bhqh2rcd13ifvqhlg","pricing_plan_id":"cebpf4jnsgd1na2vs0mg"},{"bike_id":"63afe789-9367-440d-8695-6dbe7ac0e77b","system_id":"levelo_inurba_marseille","lat":43.30237,"lon":5.40038,"is_reserved":false,"is_disabled":true,"rental_uris":{"android":"levelo://app?vid=63afe789-9367-440d-8695-6dbe7ac0e77b","ios":"levelo://app?vid=63afe789-9367-440d-8695-6dbe7ac0e77b"},"vehicle_type_id":"4","last_reported":1751040780,"current_range_meters":800,"station_id":"","pricing_plan_id":"cebpf4jnsgd1na2vs0mg"},{"bike_id":"23e4d489-d931-4497-9b6d-18352becaca3","system_id":"levelo_inurba_marseille","lat":43.30903,"lon":5.39664,"is_reserved":false,"is_disabled":true,"rental_uris":{"android":"levelo://app?vid=23e4d489-d931-4497-9b6d-18352becaca3","ios":"levelo://app?vid=23e4d489-d931-4497-9b6d-18352becaca3"},"vehicle_type_id":"4","last_reported":1751040780,"current_range_meters":800,"station_id":"ce4bh012rcd13ifvqcv0","pricing_plan_id":"cebpf4jnsgd1na2vs0mg"},{"bike_id":"0c73648c-a7f2-43b0-9bbf-2176aaea9363","system_id":"levelo_inurba_marseille","lat":43.26788,"lon":5.39406,"is_reserved":false,"is_disabled":true,"rental_uris":{"android":"levelo://app?vid=0c73648c-a7f2-43b0-9bbf-2176aaea9363","ios":"levelo://app?vid=0c73648c-a7f2-43b0-9bbf-2176aaea9363"},"vehicle_type_id":"4","last_reported":1751040780,"current_range_meters":800,"station_id":"ce4bhh12rcd13ifvqfg0","pricing_plan_id":"cebpf4jnsgd1na2vs0mg"},{"bike_id":"a7783f43-fb62-47f3-8ec6-b33e676e2cea","system_id":"levelo_inurba_marseille","lat":43.270558,"lon":5.402632,"is_reserved":false,"is_disabled":true,"rental_uris":{"android":"levelo://app?vid=a7783f43-fb62-47f3-8ec6-b33e676e2cea","ios":"levelo://app?vid=a7783f43-fb62-47f3-8ec6-b33e676e2cea"},"vehicle_type_id":"4","last_reported":1751040780,"current_range_meters":800,"station_id":"ce4bhk92rcd13ifvqgc0","pricing_plan_id":"cebpf4jnsgd1na2vs0mg"},{"bike_id":"fe67ca5f-48dd-43b1-9d13-9c0bc7bf35dd","system_id":"levelo_inurba_marseille","lat":43.25121,"lon":5.40333,"is_reserved":false,"is_disabled":true,"rental_uris":{"android":"levelo://app?vid=fe67ca5f-48dd-43b1-9d13-9c0bc7bf35dd","ios":"levelo://app?vid=fe67ca5f-48dd-43b1-9d13-9c0bc7bf35dd"},"vehicle_type_id":"4","last_reported":1751040780,"current_range_meters":800,"station_id":"ce4bhlh2rcd13ifvqgig","pricing_plan_id":"cebpf4jnsgd1na2vs0mg"},{"bike_id":"eef22fa9-7e15-461d-96e9-3ec4eb807c8a","system_id":"levelo_inurba_marseille","lat":43.2749,"lon":5.4245,"is_reserved":false,"is_disabled":true,"rental_uris":{"android":"levelo://app?vid=eef22fa9-7e15-461d-96e9-3ec4eb807c8a","ios":"levelo://app?vid=eef22fa9-7e15-461d-96e9-3ec4eb807c8a"},"vehicle_type_id":"4","last_reported":1751040780,"current_range_meters":800,"station_id":"ce4bhn92rcd13ifvqgrg","pricing_plan_id":"cebpf4jnsgd1na2vs0mg"},{"bike_id":"6cf18ca1-18ed-46ac-92a7-586450eb6f8f","system_id":"levelo_inurba_marseille","lat":43.32538,"lon":5.41429,"is_reserved":false,"is_disabled":true,"rental_uris":{"android":"levelo://app?vid=6cf18ca1-18ed-46ac-92a7-586450eb6f8f","ios":"levelo://app?vid=6cf18ca1-18ed-46ac-92a7-586450eb6f8f"},"vehicle_type_id":"4","last_reported":1751040780,"current_range_meters":800,"station_id":"ce4bhq12rcd13ifvqhhg","pricing_plan_id":"cebpf4jnsgd1na2vs0mg"},{"bike_id":"894ee238-14d6-49c2-9bc8-80d399770bca","system_id":"levelo_inurba_marseille","lat":43.29711,"lon":5.366,"is_reserved":false,"is_disabled":true,"rental_uris":{"android":"levelo://app?vid=894ee238-14d6-49c2-9bc8-80d399770bca","ios":"levelo://app?vid=894ee238-14d6-49c2-9bc8-80d399770bca"},"vehicle_type_id":"4","last_reported":1751040780,"current_range_meters":1200,"station_id":"ce4bgn12rcd13ifvqbt0","pricing_plan_id":"cebpf4jnsgd1na2vs0mg"},{"bike_id":"f72f9645-b20b-45c5-8055-ec9122cc965b","system_id":"levelo_inurba_marseille","lat":43.30644,"lon":5.4009,"is_reserved":false,"is_disabled":true,"rental_uris":{"android":"levelo://app?vid=f72f9645-b20b-45c5-8055-ec9122cc965b","ios":"levelo://app?vid=f72f9645-b20b-45c5-8055-ec9122cc965b"},"vehicle_type_id":"4","last_reported":1751040780,"current_range_meters":1200,"station_id":"ce4bh112rcd13ifvqda0","pricing_plan_id":"cebpf4jnsgd1na2vs0mg"},{"bike_id":"bfa3469a-b881-46cb-b620-b165fe00f26d","system_id":"levelo_inurba_marseille","lat":43.276023,"lon":5.384158,"is_reserved":false,"is_disabled":true,"rental_uris":{"android":"levelo://app?vid=bfa3469a-b881-46cb-b620-b165fe00f26d","ios":"levelo://app?vid=bfa3469a-b881-46cb-b620-b165fe00f26d"},"vehicle_type_id":"4","last_reported":1751040780,"current_range_meters":1200,"station_id":"ce4bhh92rcd13ifvqfi0","pricing_plan_id":"cebpf4jnsgd1na2vs0mg"},{"bike_id":"c75c9ef5-1553-40d4-919f-cfd915ad704d","system_id":"levelo_inurba_marseille","lat":43.27071,"lon":5.42279,"is_reserved":false,"is_disabled":true,"rental_uris":{"android":"levelo://app?vid=c75c9ef5-1553-40d4-919f-cfd915ad704d","ios":"levelo://app?vid=c75c9ef5-1553-40d4-919f-cfd915ad704d"},"vehicle_type_id":"4","last_reported":1751040780,"current_range_meters":1200,"station_id":"ce4bhk92rcd13ifvqgb0","pricing_plan_id":"cebpf4jnsgd1na2vs0mg"},{"bike_id":"908c9b98-37ae-4c35-b27f-cecb61c5c951","system_id":"levelo_inurba_marseille","lat":43.28561,"lon":5.39517,"is_reserved":false,"is_disabled":true,"rental_uris":{"android":"levelo://app?vid=908c9b98-37ae-4c35-b27f-cecb61c5c951","ios":"levelo://app?vid=908c9b98-37ae-4c35-b27f-cecb61c5c951"},"vehicle_type_id":"4","last_reported":1751040780,"current_range_meters":1600,"station_id":"ce4bh292rcd13ifvqdg0","pricing_plan_id":"cebpf4jnsgd1na2vs0mg"},{"bike_id":"3e5d0ae7-bac3-40ea-95d2-50ef1aae7bc7","system_id":"levelo_inurba_marseille","lat":43.268389,"lon":5.415853,"is_reserved":false,"is_disabled":true,"rental_uris":{"android":"levelo://app?vid=3e5d0ae7-bac3-40ea-95d2-50ef1aae7bc7","ios":"levelo://app?vid=3e5d0ae7-bac3-40ea-95d2-50ef1aae7bc7"},"vehicle_type_id":"4","last_reported":1751040780,"current_range_meters":2000,"station_id":"","pricing_plan_id":"cebpf4jnsgd1na2vs0mg"},{"bike_id":"90f64946-925f-458b-ac0a-c11be8ad4f8c","system_id":"levelo_inurba_marseille","lat":43.2953,"lon":5.38544,"is_reserved":false,"is_disabled":true,"rental_uris":{"android":"levelo://app?vid=90f64946-925f-458b-ac0a-c11be8ad4f8c","ios":"levelo://app?vid=90f64946-925f-458b-ac0a-c11be8ad4f8c"},"vehicle_type_id":"4","last_reported":1751040780,"current_range_meters":2000,"station_id":"ce4bgih2rcd13ifvqba0","pricing_plan_id":"cebpf4jnsgd1na2vs0mg"},{"bike_id":"a1a31915-3fc1-46bf-9ac2-43262b3b0be0","system_id":"levelo_inurba_marseille","lat":43.30208,"lon":5.39467,"is_reserved":false,"is_disabled":true,"rental_uris":{"android":"levelo://app?vid=a1a31915-3fc1-46bf-9ac2-43262b3b0be0","ios":"levelo://app?vid=a1a31915-3fc1-46bf-9ac2-43262b3b0be0"},"vehicle_type_id":"4","last_reported":1751040780,"current_range_meters":2000,"station_id":"ce4bh0p2rcd13ifvqd70","pricing_plan_id":"cebpf4jnsgd1na2vs0mg"},{"bike_id":"4dae0a5c-5a38-4fc6-81f3-74f3ae285a51","system_id":"levelo_inurba_marseille","lat":43.27223,"lon":5.39185,"is_reserved":false,"is_disabled":true,"rental_uris":{"android":"levelo://app?vid=4dae0a5c-5a38-4fc6-81f3-74f3ae285a51","ios":"levelo://app?vid=4dae0a5c-5a38-4fc6-81f3-74f3ae285a51"},"vehicle_type_id":"4","last_reported":1751040780,"current_range_meters":2000,"station_id":"ce4bhhp2rcd13ifvqfm0","pricing_plan_id":"cebpf4jnsgd1na2vs0mg"},{"bike_id":"26a14eba-87a9-47b8-9607-30bd0042d428","system_id":"levelo_inurba_marseille","lat":43.314611,"lon":5.394393,"is_reserved":false,"is_disabled":false,"rental_uris":{"android":"levelo://app?vid=26a14eba-87a9-47b8-9607-30bd0042d428","ios":"levelo://app?vid=26a14eba-87a9-47b8-9607-30bd0042d428"},"vehicle_type_id":"4","last_reported":1751040780,"current_range_meters":2800,"station_id":"","pricing_plan_id":"cebpf4jnsgd1na2vs0mg"},{"bike_id":"af112b62-19de-41d4-b8d7-e14d0172315d","system_id":"levelo_inurba_marseille","lat":43.32674,"lon":5.39266,"is_reserved":false,"is_disabled":false,"rental_uris":{"android":"levelo://app?vid=af112b62-19de-41d4-b8d7-e14d0172315d","ios":"levelo://app?vid=af112b62-19de-41d4-b8d7-e14d0172315d"},"vehicle_type_id":"4","last_reported":1751040780,"current_range_meters":2800,"station_id":"","pricing_plan_id":"cebpf4jnsgd1na2vs0mg"},{"bike_id":"7d5b7f9b-1501-4f7d-bc70-b588d87f91e0","system_id":"levelo_inurba_marseille","lat":43.30721,"lon":5.40327,"is_reserved":false,"is_disabled":false,"rental_uris":{"android":"levelo://app?vid=7d5b7f9b-1501-4f7d-bc70-b588d87f91e0","ios":"levelo://app?vid=7d5b7f9b-1501-4f7d-bc70-b588d87f91e0"},"vehicle_type_id":"4","last_reported":1751040780,"current_range_meters":2800,"station_id":"","pricing_plan_id":"cebpf4jnsgd1na2vs0mg"},{"bike_id":"7972c2b5-a671-4d08-9271-e6e18112b183","system_id":"levelo_inurba_marseille","lat":43.308838,"lon":5.396571,"is_reserved":false,"is_disabled":false,"rental_uris":{"android":"levelo://app?vid=7972c2b5-a671-4d08-9271-e6e18112b183","ios":"levelo://app?vid=7972c2b5-a671-4d08-9271-e6e18112b183"},"vehicle_type_id":"4","last_reported":1751040780,"current_range_meters":2800,"station_id":"ce4bh012rcd13ifvqcv0","pricing_plan_id":"cebpf4jnsgd1na2vs0mg"},{"bike_id":"4d8d5bb9-5819-4b88-9c5b-37d59f80af96","system_id":"levelo_inurba_marseille","lat":43.27204,"lon":5.39173,"is_reserved":false,"is_disabled":false,"rental_uris":{"android":"levelo://app?vid=4d8d5bb9-5819-4b88-9c5b-37d59f80af96","ios":"levelo://app?vid=4d8d5bb9-5819-4b88-9c5b-37d59f80af96"},"vehicle_type_id":"4","last_reported":1751040780,"current_range_meters":2800,"station_id":"ce4bhhp2rcd13ifvqfm0","pricing_plan_id":"cebpf4jnsgd1na2vs0mg"},{"bike_id":"e514f777-a05f-4b15-8975-a824cf2b8d67","system_id":"levelo_inurba_marseille","lat":43.31358,"lon":5.38493,"is_reserved":false,"is_disabled":false,"rental_uris":{"android":"levelo://app?vid=e514f777-a05f-4b15-8975-a824cf2b8d67","ios":"levelo://app?vid=e514f777-a05f-4b15-8975-a824cf2b8d67"},"vehicle_type_id":"4","last_reported":1751040780,"current_range_meters":3200,"station_id":"ce4bgt92rcd13ifvqcf0","pricing_plan_id":"cebpf4jnsgd1na2vs0mg"},{"bike_id":"f5c7cafb-85ec-40c0-a903-cc10068ee16d","system_id":"levelo_inurba_marseille","lat":43.28274,"lon":5.35057,"is_reserved":false,"is_disabled":false,"rental_uris":{"android":"levelo://app?vid=f5c7cafb-85ec-40c0-a903-cc10068ee16d","ios":"levelo://app?vid=f5c7cafb-85ec-40c0-a903-cc10068ee16d"},"vehicle_type_id":"4","last_reported":1751040780,"current_range_meters":3200,"station_id":"ce4bhbp2rcd13ifvqerg","pricing_plan_id":"cebpf4jnsgd1na2vs0mg"},{"bike_id":"9ce852fe-9449-4c16-b29b-642a7abdbbbf","system_id":"levelo_inurba_marseille","lat":43.27401,"lon":5.36182,"is_reserved":false,"is_disabled":false,"rental_uris":{"android":"levelo://app?vid=9ce852fe-9449-4c16-b29b-642a7abdbbbf","ios":"levelo://app?vid=9ce852fe-9449-4c16-b29b-642a7abdbbbf"},"vehicle_type_id":"4","last_reported":1751040780,"current_range_meters":3600,"station_id":"","pricing_plan_id":"cebpf4jnsgd1na2vs0mg"},{"bike_id":"a9985025-f22b-40b0-b1cb-ae19dc609cce","system_id":"levelo_inurba_marseille","lat":43.31358,"lon":5.3849,"is_reserved":false,"is_disabled":false,"rental_uris":{"android":"levelo://app?vid=a9985025-f22b-40b0-b1cb-ae19dc609cce","ios":"levelo://app?vid=a9985025-f22b-40b0-b1cb-ae19dc609cce"},"vehicle_type_id":"4","last_reported":1751040780,"current_range_meters":3600,"station_id":"ce4bgt92rcd13ifvqcf0","pricing_plan_id":"cebpf4jnsgd1na2vs0mg"},{"bike_id":"fc561735-4d1a-4d7f-9043-15ff7d43541a","system_id":"levelo_inurba_marseille","lat":43.2842,"lon":5.34977,"is_reserved":false,"is_disabled":false,"rental_uris":{"android":"levelo://app?vid=fc561735-4d1a-4d7f-9043-15ff7d43541a","ios":"levelo://app?vid=fc561735-4d1a-4d7f-9043-15ff7d43541a"},"vehicle_type_id":"4","last_reported":1751040780,"current_range_meters":3600,"station_id":"ce4bhbh2rcd13ifvqepg","pricing_plan_id":"cebpf4jnsgd1na2vs0mg"},{"bike_id":"cc8304aa-a994-44d2-8e88-e27ababe9e1f","system_id":"levelo_inurba_marseille","lat":43.28154,"lon":5.42648,"is_reserved":false,"is_disabled":false,"rental_uris":{"android":"levelo://app?vid=cc8304aa-a994-44d2-8e88-e27ababe9e1f","ios":"levelo://app?vid=cc8304aa-a994-44d2-8e88-e27ababe9e1f"},"vehicle_type_id":"4","last_reported":1751040780,"current_range_meters":3600,"station_id":"ce4bhnh2rcd13ifvqgug","pricing_plan_id":"cebpf4jnsgd1na2vs0mg"},{"bike_id":"011b0d4e-f32e-4e04-befc-b5e1f4c48fb2","system_id":"levelo_inurba_marseille","lat":43.303695,"lon":5.42487,"is_reserved":false,"is_disabled":false,"rental_uris":{"android":"levelo://app?vid=011b0d4e-f32e-4e04-befc-b5e1f4c48fb2","ios":"levelo://app?vid=011b0d4e-f32e-4e04-befc-b5e1f4c48fb2"},"vehicle_type_id":"4","last_reported":1751040780,"current_range_meters":3600,"station_id":"ce4bhoh2rcd13ifvqh6g","pricing_plan_id":"cebpf4jnsgd1na2vs0mg"},{"bike_id":"d4be0372-bdd9-4297-9947-1cafb8274df1","system_id":"levelo_inurba_marseille","lat":43.21753,"lon":5.34603,"is_reserved":false,"is_disabled":false,"rental_uris":{"android":"levelo://app?vid=d4be0372-bdd9-4297-9947-1cafb8274df1","ios":"levelo://app?vid=d4be0372-bdd9-4297-9947-1cafb8274df1"},"vehicle_type_id":"4","last_reported":1751040780,"current_range_meters":3600,"station_id":"st_cvj6r9ubvosntc0bgbag","pricing_plan_id":"cebpf4jnsgd1na2vs0mg"},{"bike_id":"cae97f6b-d151-466f-8b63-8805239d814c","system_id":"levelo_inurba_marseille","lat":43.2903,"lon":5.35592,"is_reserved":false,"is_disabled":false,"rental_uris":{"android":"levelo://app?vid=cae97f6b-d151-466f-8b63-8805239d814c","ios":"levelo://app?vid=cae97f6b-d151-466f-8b63-8805239d814c"},"vehicle_type_id":"4","last_reported":1751040780,"current_range_meters":4000,"station_id":"ce4bhb92rcd13ifvqen0","pricing_plan_id":"cebpf4jnsgd1na2vs0mg"},{"bike_id":"768c0104-715f-4ae7-8bb0-ad9c0d98e622","system_id":"levelo_inurba_marseille","lat":43.28782,"lon":5.37379,"is_reserved":false,"is_disabled":false,"rental_uris":{"android":"levelo://app?vid=768c0104-715f-4ae7-8bb0-ad9c0d98e622","ios":"levelo://app?vid=768c0104-715f-4ae7-8bb0-ad9c0d98e622"},"vehicle_type_id":"4","last_reported":1751040780,"current_range_meters":4400,"station_id":"","pricing_plan_id":"cebpf4jnsgd1na2vs0mg"},{"bike_id":"e4594e54-d1ce-4b3c-99c0-1bec67a21327","system_id":"levelo_inurba_marseille","lat":43.29898,"lon":5.38482,"is_reserved":false,"is_disabled":false,"rental_uris":{"android":"levelo://app?vid=e4594e54-d1ce-4b3c-99c0-1bec67a21327","ios":"levelo://app?vid=e4594e54-d1ce-4b3c-99c0-1bec67a21327"},"vehicle_type_id":"4","last_reported":1751040780,"current_range_meters":4400,"station_id":"","pricing_plan_id":"cebpf4jnsgd1na2vs0mg"},{"bike_id":"23d45b53-0bbe-4556-b592-31284542acd3","system_id":"levelo_inurba_marseille","lat":43.28423,"lon":5.3499,"is_reserved":false,"is_disabled":false,"rental_uris":{"android":"levelo://app?vid=23d45b53-0bbe-4556-b592-31284542acd3","ios":"levelo://app?vid=23d45b53-0bbe-4556-b592-31284542acd3"},"vehicle_type_id":"4","last_reported":1751040780,"current_range_meters":4400,"station_id":"ce4bhbh2rcd13ifvqepg","pricing_plan_id":"cebpf4jnsgd1na2vs0mg"},{"bike_id":"5506efc0-f288-4316-aa69-8cd7b925dcea","system_id":"levelo_inurba_marseille","lat":43.23202,"lon":5.3997,"is_reserved":false,"is_disabled":false,"rental_uris":{"android":"levelo://app?vid=5506efc0-f288-4316-aa69-8cd7b925dcea","ios":"levelo://app?vid=5506efc0-f288-4316-aa69-8cd7b925dcea"},"vehicle_type_id":"4","last_reported":1751040780,"current_range_meters":4400,"station_id":"ce4bhn12rcd13ifvqgqg","pricing_plan_id":"cebpf4jnsgd1na2vs0mg"},{"bike_id":"c714d5ec-8531-468c-abd5-d59487a84733","system_id":"levelo_inurba_marseille","lat":43.229331,"lon":5.353757,"is_reserved":false,"is_disabled":false,"rental_uris":{"android":"levelo://app?vid=c714d5ec-8531-468c-abd5-d59487a84733","ios":"levelo://app?vid=c714d5ec-8531-468c-abd5-d59487a84733"},"vehicle_type_id":"4","last_reported":1751040780,"current_range_meters":4400,"station_id":"cpo3532slgdg3j2ikp40","pricing_plan_id":"cebpf4jnsgd1na2vs0mg"},{"bike_id":"0e4cb197-f4db-4b6c-b9c3-f77a823e1902","system_id":"levelo_inurba_marseille","lat":43.292694,"lon":5.384521,"is_reserved":false,"is_disabled":false,"rental_uris":{"android":"levelo://app?vid=0e4cb197-f4db-4b6c-b9c3-f77a823e1902","ios":"levelo://app?vid=0e4cb197-f4db-4b6c-b9c3-f77a823e1902"},"vehicle_type_id":"4","last_reported":1751040780,"current_range_meters":4800,"station_id":"ce4bh692rcd13ifvqea0","pricing_plan_id":"cebpf4jnsgd1na2vs0mg"},{"bike_id":"75c0380d-8195-4787-a479-768697c6aff3","system_id":"levelo_inurba_marseille","lat":43.29006,"lon":5.35611,"is_reserved":false,"is_disabled":false,"rental_uris":{"android":"levelo://app?vid=75c0380d-8195-4787-a479-768697c6aff3","ios":"levelo://app?vid=75c0380d-8195-4787-a479-768697c6aff3"},"vehicle_type_id":"4","last_reported":1751040780,"current_range_meters":5600,"station_id":"ce4bhb92rcd13ifvqen0","pricing_plan_id":"cebpf4jnsgd1na2vs0mg"},{"bike_id":"54953316-a09d-4354-80a0-ee05fcd5e79e","system_id":"levelo_inurba_marseille","lat":43.28003,"lon":5.40017,"is_reserved":false,"is_disabled":false,"rental_uris":{"android":"levelo://app?vid=54953316-a09d-4354-80a0-ee05fcd5e79e","ios":"levelo://app?vid=54953316-a09d-4354-80a0-ee05fcd5e79e"},"vehicle_type_id":"4","last_reported":1751040780,"current_range_meters":5600,"station_id":"ce4bho92rcd13ifvqh4g","pricing_plan_id":"cebpf4jnsgd1na2vs0mg"},{"bike_id":"167e2db1-2f1b-4219-9496-e3e7fe18e038","system_id":"levelo_inurba_marseille","lat":43.2917,"lon":5.35627,"is_reserved":false,"is_disabled":false,"rental_uris":{"android":"levelo://app?vid=167e2db1-2f1b-4219-9496-e3e7fe18e038","ios":"levelo://app?vid=167e2db1-2f1b-4219-9496-e3e7fe18e038"},"vehicle_type_id":"4","last_reported":1751040780,"current_range_meters":6000,"station_id":"","pricing_plan_id":"cebpf4jnsgd1na2vs0mg"},{"bike_id":"e2f5b300-4a63-4778-aada-c29a8a0ea1e8","system_id":"levelo_inurba_marseille","lat":43.32798,"lon":5.39205,"is_reserved":false,"is_disabled":false,"rental_uris":{"android":"levelo://app?vid=e2f5b300-4a63-4778-aada-c29a8a0ea1e8","ios":"levelo://app?vid=e2f5b300-4a63-4778-aada-c29a8a0ea1e8"},"vehicle_type_id":"4","last_reported":1751040780,"current_range_meters":6000,"station_id":"","pricing_plan_id":"cebpf4jnsgd1na2vs0mg"},{"bike_id":"a98fd970-88ac-431a-90ba-3731e0931174","system_id":"levelo_inurba_marseille","lat":43.31347,"lon":5.38605,"is_reserved":false,"is_disabled":false,"rental_uris":{"android":"levelo://app?vid=a98fd970-88ac-431a-90ba-3731e0931174","ios":"levelo://app?vid=a98fd970-88ac-431a-90ba-3731e0931174"},"vehicle_type_id":"4","last_reported":1751040780,"current_range_meters":6000,"station_id":"","pricing_plan_id":"cebpf4jnsgd1na2vs0mg"},{"bike_id":"442382a8-48e8-4d3c-95cb-21eb99a1a245","system_id":"levelo_inurba_marseille","lat":43.29569,"lon":5.39989,"is_reserved":false,"is_disabled":false,"rental_uris":{"android":"levelo://app?vid=442382a8-48e8-4d3c-95cb-21eb99a1a245","ios":"levelo://app?vid=442382a8-48e8-4d3c-95cb-21eb99a1a245"},"vehicle_type_id":"4","last_reported":1751040780,"current_range_meters":6000,"station_id":"","pricing_plan_id":"cebpf4jnsgd1na2vs0mg"},{"bike_id":"1c486654-4a1f-41a7-9476-318774a6fc62","system_id":"levelo_inurba_marseille","lat":43.28279,"lon":5.35055,"is_reserved":false,"is_disabled":false,"rental_uris":{"android":"levelo://app?vid=1c486654-4a1f-41a7-9476-318774a6fc62","ios":"levelo://app?vid=1c486654-4a1f-41a7-9476-318774a6fc62"},"vehicle_type_id":"4","last_reported":1751040780,"current_range_meters":6400,"station_id":"ce4bhbp2rcd13ifvqerg","pricing_plan_id":"cebpf4jnsgd1na2vs0mg"},{"bike_id":"2b2f54ce-9f8d-42e4-bafb-dcc24772f04e","system_id":"levelo_inurba_marseille","lat":43.26208,"lon":5.37441,"is_reserved":false,"is_disabled":false,"rental_uris":{"android":"levelo://app?vid=2b2f54ce-9f8d-42e4-bafb-dcc24772f04e","ios":"levelo://app?vid=2b2f54ce-9f8d-42e4-bafb-dcc24772f04e"},"vehicle_type_id":"4","last_reported":1751040780,"current_range_meters":6400,"station_id":"ce4bhgp2rcd13ifvqfc0","pricing_plan_id":"cebpf4jnsgd1na2vs0mg"},{"bike_id":"54f049dc-9502-4350-aaac-2269599e51cc","system_id":"levelo_inurba_marseille","lat":43.23168,"lon":5.43738,"is_reserved":false,"is_disabled":false,"rental_uris":{"android":"levelo://app?vid=54f049dc-9502-4350-aaac-2269599e51cc","ios":"levelo://app?vid=54f049dc-9502-4350-aaac-2269599e51cc"},"vehicle_type_id":"4","last_reported":1751040780,"current_range_meters":6400,"station_id":"ce4bhmp2rcd13ifvqgog","pricing_plan_id":"cebpf4jnsgd1na2vs0mg"},{"bike_id":"a9d25cad-d480-4c75-aec5-3969f1a4e6c7","system_id":"levelo_inurba_marseille","lat":43.32933,"lon":5.39047,"is_reserved":false,"is_disabled":false,"rental_uris":{"android":"levelo://app?vid=a9d25cad-d480-4c75-aec5-3969f1a4e6c7","ios":"levelo://app?vid=a9d25cad-d480-4c75-aec5-3969f1a4e6c7"},"vehicle_type_id":"4","last_reported":1751040780,"current_range_meters":6800,"station_id":"","pricing_plan_id":"cebpf4jnsgd1na2vs0mg"},{"bike_id":"039c659e-fd14-46e9-90ee-e839611512ec","system_id":"levelo_inurba_marseille","lat":43.27495,"lon":5.42463,"is_reserved":false,"is_disabled":false,"rental_uris":{"android":"levelo://app?vid=039c659e-fd14-46e9-90ee-e839611512ec","ios":"levelo://app?vid=039c659e-fd14-46e9-90ee-e839611512ec"},"vehicle_type_id":"4","last_reported":1751040780,"current_range_meters":6800,"station_id":"ce4bhn92rcd13ifvqgrg","pricing_plan_id":"cebpf4jnsgd1na2vs0mg"},{"bike_id":"2a7891d1-8592-4cde-8169-27754f49be45","system_id":"levelo_inurba_marseille","lat":43.27998,"lon":5.41662,"is_reserved":false,"is_disabled":false,"rental_uris":{"android":"levelo://app?vid=2a7891d1-8592-4cde-8169-27754f49be45","ios":"levelo://app?vid=2a7891d1-8592-4cde-8169-27754f49be45"},"vehicle_type_id":"4","last_reported":1751040780,"current_range_meters":6800,"station_id":"ce4bho12rcd13ifvqh1g","pricing_plan_id":"cebpf4jnsgd1na2vs0mg"},{"bike_id":"288cbfac-795e-4879-9bc9-73f5664bee14","system_id":"levelo_inurba_marseille","lat":43.27998,"lon":5.40011,"is_reserved":false,"is_disabled":false,"rental_uris":{"android":"levelo://app?vid=288cbfac-795e-4879-9bc9-73f5664bee14","ios":"levelo://app?vid=288cbfac-795e-4879-9bc9-73f5664bee14"},"vehicle_type_id":"4","last_reported":1751040780,"current_range_meters":6800,"station_id":"ce4bho92rcd13ifvqh4g","pricing_plan_id":"cebpf4jnsgd1na2vs0mg"},{"bike_id":"7ac2d6ad-16d3-463d-9f49-789f3bb8e5d0","system_id":"levelo_inurba_marseille","lat":43.337331,"lon":5.391848,"is_reserved":false,"is_disabled":false,"rental_uris":{"android":"levelo://app?vid=7ac2d6ad-16d3-463d-9f49-789f3bb8e5d0","ios":"levelo://app?vid=7ac2d6ad-16d3-463d-9f49-789f3bb8e5d0"},"vehicle_type_id":"4","last_reported":1751040780,"current_range_meters":6800,"station_id":"ce4bhr92rcd13ifvqhsg","pricing_plan_id":"cebpf4jnsgd1na2vs0mg"},{"bike_id":"ab53a941-efc5-4539-87fa-2badf8c68398","system_id":"levelo_inurba_marseille","lat":43.282689,"lon":5.350627,"is_reserved":false,"is_disabled":false,"rental_uris":{"android":"levelo://app?vid=ab53a941-efc5-4539-87fa-2badf8c68398","ios":"levelo://app?vid=ab53a941-efc5-4539-87fa-2badf8c68398"},"vehicle_type_id":"4","last_reported":1751040780,"current_range_meters":7200,"station_id":"","pricing_plan_id":"cebpf4jnsgd1na2vs0mg"},{"bike_id":"4144f865-f19e-496d-b1d2-d9faa04730f3","system_id":"levelo_inurba_marseille","lat":43.31174,"lon":5.38722,"is_reserved":false,"is_disabled":false,"rental_uris":{"android":"levelo://app?vid=4144f865-f19e-496d-b1d2-d9faa04730f3","ios":"levelo://app?vid=4144f865-f19e-496d-b1d2-d9faa04730f3"},"vehicle_type_id":"4","last_reported":1751040780,"current_range_meters":7200,"station_id":"ce4bgv12rcd13ifvqcp0","pricing_plan_id":"cebpf4jnsgd1na2vs0mg"},{"bike_id":"1ab10199-c42a-47b3-b82a-56ef133694ed","system_id":"levelo_inurba_marseille","lat":43.29882,"lon":5.38895,"is_reserved":false,"is_disabled":false,"rental_uris":{"android":"levelo://app?vid=1ab10199-c42a-47b3-b82a-56ef133694ed","ios":"levelo://app?vid=1ab10199-c42a-47b3-b82a-56ef133694ed"},"vehicle_type_id":"4","last_reported":1751040780,"current_range_meters":7200,"station_id":"ce4bh392rcd13ifvqdl0","pricing_plan_id":"cebpf4jnsgd1na2vs0mg"},{"bike_id":"f6a26d1e-98dc-4996-8dfc-39bb6472be9e","system_id":"levelo_inurba_marseille","lat":43.26207,"lon":5.37446,"is_reserved":false,"is_disabled":false,"rental_uris":{"android":"levelo://app?vid=f6a26d1e-98dc-4996-8dfc-39bb6472be9e","ios":"levelo://app?vid=f6a26d1e-98dc-4996-8dfc-39bb6472be9e"},"vehicle_type_id":"4","last_reported":1751040780,"current_range_meters":7200,"station_id":"ce4bhgp2rcd13ifvqfc0","pricing_plan_id":"cebpf4jnsgd1na2vs0mg"},{"bike_id":"8abda7fd-f395-4ce8-8913-61af41084d40","system_id":"levelo_inurba_marseille","lat":43.31755,"lon":5.39016,"is_reserved":false,"is_disabled":false,"rental_uris":{"android":"levelo://app?vid=8abda7fd-f395-4ce8-8913-61af41084d40","ios":"levelo://app?vid=8abda7fd-f395-4ce8-8913-61af41084d40"},"vehicle_type_id":"4","last_reported":1751040780,"current_range_meters":7200,"station_id":"ce4bhqp2rcd13ifvqhng","pricing_plan_id":"cebpf4jnsgd1na2vs0mg"},{"bike_id":"94e84186-d780-461a-b647-8d1cf3f036ad","system_id":"levelo_inurba_marseille","lat":43.31784,"lon":5.37778,"is_reserved":false,"is_disabled":false,"rental_uris":{"android":"levelo://app?vid=94e84186-d780-461a-b647-8d1cf3f036ad","ios":"levelo://app?vid=94e84186-d780-461a-b647-8d1cf3f036ad"},"vehicle_type_id":"4","last_reported":1751040780,"current_range_meters":8000,"station_id":"","pricing_plan_id":"cebpf4jnsgd1na2vs0mg"},{"bike_id":"1812e87a-1b52-4df9-97e7-b9a9f087f71a","system_id":"levelo_inurba_marseille","lat":43.29519,"lon":5.39411,"is_reserved":false,"is_disabled":false,"rental_uris":{"android":"levelo://app?vid=1812e87a-1b52-4df9-97e7-b9a9f087f71a","ios":"levelo://app?vid=1812e87a-1b52-4df9-97e7-b9a9f087f71a"},"vehicle_type_id":"4","last_reported":1751040780,"current_range_meters":8000,"station_id":"ce4bh292rcd13ifvqdf0","pricing_plan_id":"cebpf4jnsgd1na2vs0mg"},{"bike_id":"b3d9160a-5e54-47c9-9ed9-75814ce81b2d","system_id":"levelo_inurba_marseille","lat":43.31169,"lon":5.38719,"is_reserved":false,"is_disabled":false,"rental_uris":{"android":"levelo://app?vid=b3d9160a-5e54-47c9-9ed9-75814ce81b2d","ios":"levelo://app?vid=b3d9160a-5e54-47c9-9ed9-75814ce81b2d"},"vehicle_type_id":"4","last_reported":1751040780,"current_range_meters":8400,"station_id":"ce4bgv12rcd13ifvqcp0","pricing_plan_id":"cebpf4jnsgd1na2vs0mg"},{"bike_id":"93309bf0-af17-487d-80fc-fd81bf373fb9","system_id":"levelo_inurba_marseille","lat":43.28417,"lon":5.34981,"is_reserved":false,"is_disabled":false,"rental_uris":{"android":"levelo://app?vid=93309bf0-af17-487d-80fc-fd81bf373fb9","ios":"levelo://app?vid=93309bf0-af17-487d-80fc-fd81bf373fb9"},"vehicle_type_id":"4","last_reported":1751040780,"current_range_meters":8400,"station_id":"ce4bhbh2rcd13ifvqepg","pricing_plan_id":"cebpf4jnsgd1na2vs0mg"},{"bike_id":"44b9e0c6-d77d-4cdc-bbe6-db50c0e86a0f","system_id":"levelo_inurba_marseille","lat":43.28417,"lon":5.35005,"is_reserved":false,"is_disabled":false,"rental_uris":{"android":"levelo://app?vid=44b9e0c6-d77d-4cdc-bbe6-db50c0e86a0f","ios":"levelo://app?vid=44b9e0c6-d77d-4cdc-bbe6-db50c0e86a0f"},"vehicle_type_id":"4","last_reported":1751040780,"current_range_meters":8400,"station_id":"ce4bhbh2rcd13ifvqepg","pricing_plan_id":"cebpf4jnsgd1na2vs0mg"},{"bike_id":"47c940d6-75e5-4790-8b2e-a1c22c4bdb77","system_id":"levelo_inurba_marseille","lat":43.27884,"lon":5.38006,"is_reserved":false,"is_disabled":false,"rental_uris":{"android":"levelo://app?vid=47c940d6-75e5-4790-8b2e-a1c22c4bdb77","ios":"levelo://app?vid=47c940d6-75e5-4790-8b2e-a1c22c4bdb77"},"vehicle_type_id":"4","last_reported":1751040780,"current_range_meters":8400,"station_id":"ce4bhf92rcd13ifvqf50","pricing_plan_id":"cebpf4jnsgd1na2vs0mg"},{"bike_id":"63259e90-c09d-49e0-9cbf-8970f95da02b","system_id":"levelo_inurba_marseille","lat":43.30373,"lon":5.42471,"is_reserved":false,"is_disabled":false,"rental_uris":{"android":"levelo://app?vid=63259e90-c09d-49e0-9cbf-8970f95da02b","ios":"levelo://app?vid=63259e90-c09d-49e0-9cbf-8970f95da02b"},"vehicle_type_id":"4","last_reported":1751040780,"current_range_meters":8400,"station_id":"ce4bhoh2rcd13ifvqh6g","pricing_plan_id":"cebpf4jnsgd1na2vs0mg"},{"bike_id":"8ee9a2cc-ac46-4dac-8c26-3929200ed3aa","system_id":"levelo_inurba_marseille","lat":43.26939,"lon":5.40243,"is_reserved":false,"is_disabled":false,"rental_uris":{"android":"levelo://app?vid=8ee9a2cc-ac46-4dac-8c26-3929200ed3aa","ios":"levelo://app?vid=8ee9a2cc-ac46-4dac-8c26-3929200ed3aa"},"vehicle_type_id":"4","last_reported":1751040780,"current_range_meters":8400,"station_id":"cjm6bp8fraef2m0cb0m0","pricing_plan_id":"cebpf4jnsgd1na2vs0mg"},{"bike_id":"f47876d7-9c85-474e-92c5-7a242e08b67c","system_id":"levelo_inurba_marseille","lat":43.305546,"lon":5.375504,"is_reserved":false,"is_disabled":false,"rental_uris":{"android":"levelo://app?vid=f47876d7-9c85-474e-92c5-7a242e08b67c","ios":"levelo://app?vid=f47876d7-9c85-474e-92c5-7a242e08b67c"},"vehicle_type_id":"4","last_reported":1751040780,"current_range_meters":8800,"station_id":"","pricing_plan_id":"cebpf4jnsgd1na2vs0mg"},{"bike_id":"50014d0a-5b5d-4ddc-b62a-a740a2e738e9","system_id":"levelo_inurba_marseille","lat":43.3136,"lon":5.38487,"is_reserved":false,"is_disabled":false,"rental_uris":{"android":"levelo://app?vid=50014d0a-5b5d-4ddc-b62a-a740a2e738e9","ios":"levelo://app?vid=50014d0a-5b5d-4ddc-b62a-a740a2e738e9"},"vehicle_type_id":"4","last_reported":1751040780,"current_range_meters":8800,"station_id":"ce4bgt92rcd13ifvqcf0","pricing_plan_id":"cebpf4jnsgd1na2vs0mg"},{"bike_id":"977eaf11-f294-4edb-b70f-5a2de82d647c","system_id":"levelo_inurba_marseille","lat":43.289275,"lon":5.363995,"is_reserved":false,"is_disabled":false,"rental_uris":{"android":"levelo://app?vid=977eaf11-f294-4edb-b70f-5a2de82d647c","ios":"levelo://app?vid=977eaf11-f294-4edb-b70f-5a2de82d647c"},"vehicle_type_id":"4","last_reported":1751040780,"current_range_meters":8800,"station_id":"ce4bhc92rcd13ifvqetg","pricing_plan_id":"cebpf4jnsgd1na2vs0mg"},{"bike_id":"eb2f8988-d683-4217-b16c-4268e40dc706","system_id":"levelo_inurba_marseille","lat":43.28621,"lon":5.35104,"is_reserved":false,"is_disabled":false,"rental_uris":{"android":"levelo://app?vid=eb2f8988-d683-4217-b16c-4268e40dc706","ios":"levelo://app?vid=eb2f8988-d683-4217-b16c-4268e40dc706"},"vehicle_type_id":"4","last_reported":1751040780,"current_range_meters":8800,"station_id":"ce4bhch2rcd13ifvqeug","pricing_plan_id":"cebpf4jnsgd1na2vs0mg"},{"bike_id":"6d8b55ce-29f8-45ac-aae3-2584357521de","system_id":"levelo_inurba_marseille","lat":43.27811,"lon":5.40711,"is_reserved":false,"is_disabled":false,"rental_uris":{"android":"levelo://app?vid=6d8b55ce-29f8-45ac-aae3-2584357521de","ios":"levelo://app?vid=6d8b55ce-29f8-45ac-aae3-2584357521de"},"vehicle_type_id":"4","last_reported":1751040780,"current_range_meters":8800,"station_id":"ce4bhnh2rcd13ifvqgtg","pricing_plan_id":"cebpf4jnsgd1na2vs0mg"},{"bike_id":"5b7d2ea9-c48e-454f-a056-0f0328eb4a3d","system_id":"levelo_inurba_marseille","lat":43.27938,"lon":5.4104,"is_reserved":false,"is_disabled":false,"rental_uris":{"android":"levelo://app?vid=5b7d2ea9-c48e-454f-a056-0f0328eb4a3d","ios":"levelo://app?vid=5b7d2ea9-c48e-454f-a056-0f0328eb4a3d"},"vehicle_type_id":"4","last_reported":1751040780,"current_range_meters":8800,"station_id":"ce4bhnp2rcd13ifvqh0g","pricing_plan_id":"cebpf4jnsgd1na2vs0mg"},{"bike_id":"4b8da722-ee9e-48a4-a5e5-3a8a10364708","system_id":"levelo_inurba_marseille","lat":43.31225,"lon":5.37822,"is_reserved":false,"is_disabled":false,"rental_uris":{"android":"levelo://app?vid=4b8da722-ee9e-48a4-a5e5-3a8a10364708","ios":"levelo://app?vid=4b8da722-ee9e-48a4-a5e5-3a8a10364708"},"vehicle_type_id":"4","last_reported":1751040780,"current_range_meters":9200,"station_id":"","pricing_plan_id":"cebpf4jnsgd1na2vs0mg"},{"bike_id":"1053adde-6118-4e7b-b9bb-798a7938cd41","system_id":"levelo_inurba_marseille","lat":43.31287,"lon":5.37312,"is_reserved":false,"is_disabled":false,"rental_uris":{"android":"levelo://app?vid=1053adde-6118-4e7b-b9bb-798a7938cd41","ios":"levelo://app?vid=1053adde-6118-4e7b-b9bb-798a7938cd41"},"vehicle_type_id":"4","last_reported":1751040780,"current_range_meters":9200,"station_id":"","pricing_plan_id":"cebpf4jnsgd1na2vs0mg"},{"bike_id":"5c6894ac-c2df-43a9-8667-e5625b4b79c4","system_id":"levelo_inurba_marseille","lat":43.29963,"lon":5.38496,"is_reserved":false,"is_disabled":false,"rental_uris":{"android":"levelo://app?vid=5c6894ac-c2df-43a9-8667-e5625b4b79c4","ios":"levelo://app?vid=5c6894ac-c2df-43a9-8667-e5625b4b79c4"},"vehicle_type_id":"4","last_reported":1751040780,"current_range_meters":9200,"station_id":"ce4bgj92rcd13ifvqbd0","pricing_plan_id":"cebpf4jnsgd1na2vs0mg"},{"bike_id":"6efb05d4-4c20-4ae5-b24f-d34fc9ddaef8","system_id":"levelo_inurba_marseille","lat":43.30645,"lon":5.40113,"is_reserved":false,"is_disabled":false,"rental_uris":{"android":"levelo://app?vid=6efb05d4-4c20-4ae5-b24f-d34fc9ddaef8","ios":"levelo://app?vid=6efb05d4-4c20-4ae5-b24f-d34fc9ddaef8"},"vehicle_type_id":"4","last_reported":1751040780,"current_range_meters":9200,"station_id":"ce4bh112rcd13ifvqda0","pricing_plan_id":"cebpf4jnsgd1na2vs0mg"},{"bike_id":"9878ffd1-9a09-4bed-a8ee-dfef9632d5ad","system_id":"levelo_inurba_marseille","lat":43.29046,"lon":5.37541,"is_reserved":false,"is_disabled":false,"rental_uris":{"android":"levelo://app?vid=9878ffd1-9a09-4bed-a8ee-dfef9632d5ad","ios":"levelo://app?vid=9878ffd1-9a09-4bed-a8ee-dfef9632d5ad"},"vehicle_type_id":"4","last_reported":1751040780,"current_range_meters":9200,"station_id":"ce4bh692rcd13ifvqe90","pricing_plan_id":"cebpf4jnsgd1na2vs0mg"},{"bike_id":"4c994478-d76f-486b-a085-91e08925bb19","system_id":"levelo_inurba_marseille","lat":43.28271,"lon":5.35074,"is_reserved":false,"is_disabled":false,"rental_uris":{"android":"levelo://app?vid=4c994478-d76f-486b-a085-91e08925bb19","ios":"levelo://app?vid=4c994478-d76f-486b-a085-91e08925bb19"},"vehicle_type_id":"4","last_reported":1751040780,"current_range_meters":9200,"station_id":"ce4bhbp2rcd13ifvqerg","pricing_plan_id":"cebpf4jnsgd1na2vs0mg"},{"bike_id":"d4e177ad-79e4-456e-933f-1e1248bff5f2","system_id":"levelo_inurba_marseille","lat":43.270703,"lon":5.422791,"is_reserved":false,"is_disabled":false,"rental_uris":{"android":"levelo://app?vid=d4e177ad-79e4-456e-933f-1e1248bff5f2","ios":"levelo://app?vid=d4e177ad-79e4-456e-933f-1e1248bff5f2"},"vehicle_type_id":"4","last_reported":1751040780,"current_range_meters":9200,"station_id":"ce4bhk92rcd13ifvqgb0","pricing_plan_id":"cebpf4jnsgd1na2vs0mg"},{"bike_id":"fde3085a-b4a9-40a7-99bf-a00b7d5cada1","system_id":"levelo_inurba_marseille","lat":43.27944,"lon":5.41052,"is_reserved":false,"is_disabled":false,"rental_uris":{"android":"levelo://app?vid=fde3085a-b4a9-40a7-99bf-a00b7d5cada1","ios":"levelo://app?vid=fde3085a-b4a9-40a7-99bf-a00b7d5cada1"},"vehicle_type_id":"4","last_reported":1751040780,"current_range_meters":9200,"station_id":"ce4bhnp2rcd13ifvqh0g","pricing_plan_id":"cebpf4jnsgd1na2vs0mg"},{"bike_id":"1bc27684-5eb1-4768-a2d7-0c8e679a124c","system_id":"levelo_inurba_marseille","lat":43.30605,"lon":5.37239,"is_reserved":false,"is_disabled":false,"rental_uris":{"android":"levelo://app?vid=1bc27684-5eb1-4768-a2d7-0c8e679a124c","ios":"levelo://app?vid=1bc27684-5eb1-4768-a2d7-0c8e679a124c"},"vehicle_type_id":"4","last_reported":1751040780,"current_range_meters":9600,"station_id":"ce4bgqh2rcd13ifvqc4g","pricing_plan_id":"cebpf4jnsgd1na2vs0mg"},{"bike_id":"6f8b44d2-2087-4d12-9cc1-1c85b20a514f","system_id":"levelo_inurba_marseille","lat":43.30907,"lon":5.37169,"is_reserved":false,"is_disabled":false,"rental_uris":{"android":"levelo://app?vid=6f8b44d2-2087-4d12-9cc1-1c85b20a514f","ios":"levelo://app?vid=6f8b44d2-2087-4d12-9cc1-1c85b20a514f"},"vehicle_type_id":"4","last_reported":1751040780,"current_range_meters":9600,"station_id":"ce4bguh2rcd13ifvqckg","pricing_plan_id":"cebpf4jnsgd1na2vs0mg"},{"bike_id":"215840b3-a34c-43e4-a88f-51478b439d85","system_id":"levelo_inurba_marseille","lat":43.28617,"lon":5.35102,"is_reserved":false,"is_disabled":false,"rental_uris":{"android":"levelo://app?vid=215840b3-a34c-43e4-a88f-51478b439d85","ios":"levelo://app?vid=215840b3-a34c-43e4-a88f-51478b439d85"},"vehicle_type_id":"4","last_reported":1751040780,"current_range_meters":9600,"station_id":"ce4bhch2rcd13ifvqeug","pricing_plan_id":"cebpf4jnsgd1na2vs0mg"},{"bike_id":"87a8ff72-878a-48aa-98b6-a6d36dae7214","system_id":"levelo_inurba_marseille","lat":43.25499,"lon":5.37643,"is_reserved":false,"is_disabled":false,"rental_uris":{"android":"levelo://app?vid=87a8ff72-878a-48aa-98b6-a6d36dae7214","ios":"levelo://app?vid=87a8ff72-878a-48aa-98b6-a6d36dae7214"},"vehicle_type_id":"4","last_reported":1751040780,"current_range_meters":9600,"station_id":"ce4bhh12rcd13ifvqff0","pricing_plan_id":"cebpf4jnsgd1na2vs0mg"},{"bike_id":"81ef019e-a307-48b3-975e-2a8eff26c968","system_id":"levelo_inurba_marseille","lat":43.28267,"lon":5.35066,"is_reserved":false,"is_disabled":false,"rental_uris":{"android":"levelo://app?vid=81ef019e-a307-48b3-975e-2a8eff26c968","ios":"levelo://app?vid=81ef019e-a307-48b3-975e-2a8eff26c968"},"vehicle_type_id":"4","last_reported":1751040780,"current_range_meters":10000,"station_id":"ce4bhbp2rcd13ifvqerg","pricing_plan_id":"cebpf4jnsgd1na2vs0mg"},{"bike_id":"f6c93510-98c1-4afb-8217-fcacab4153dd","system_id":"levelo_inurba_marseille","lat":43.26024,"lon":5.37548,"is_reserved":false,"is_disabled":false,"rental_uris":{"android":"levelo://app?vid=f6c93510-98c1-4afb-8217-fcacab4153dd","ios":"levelo://app?vid=f6c93510-98c1-4afb-8217-fcacab4153dd"},"vehicle_type_id":"4","last_reported":1751040780,"current_range_meters":10000,"station_id":"ce4bhgh2rcd13ifvqfa0","pricing_plan_id":"cebpf4jnsgd1na2vs0mg"},{"bike_id":"d60113c8-3387-46de-adde-b2b1abf1350a","system_id":"levelo_inurba_marseille","lat":43.29977,"lon":5.41327,"is_reserved":false,"is_disabled":false,"rental_uris":{"android":"levelo://app?vid=d60113c8-3387-46de-adde-b2b1abf1350a","ios":"levelo://app?vid=d60113c8-3387-46de-adde-b2b1abf1350a"},"vehicle_type_id":"4","last_reported":1751040780,"current_range_meters":10000,"station_id":"ce4bhp12rcd13ifvqh9g","pricing_plan_id":"cebpf4jnsgd1na2vs0mg"},{"bike_id":"8a8c6162-7f73-44a8-802b-39081c1709f6","system_id":"levelo_inurba_marseille","lat":43.3302,"lon":5.39044,"is_reserved":false,"is_disabled":false,"rental_uris":{"android":"levelo://app?vid=8a8c6162-7f73-44a8-802b-39081c1709f6","ios":"levelo://app?vid=8a8c6162-7f73-44a8-802b-39081c1709f6"},"vehicle_type_id":"4","last_reported":1751040780,"current_range_meters":10000,"station_id":"ce4bhr92rcd13ifvqhrg","pricing_plan_id":"cebpf4jnsgd1na2vs0mg"},{"bike_id":"b7d0d8a1-c5dd-4278-8b3b-f5786872fe32","system_id":"levelo_inurba_marseille","lat":43.32096,"lon":5.36764,"is_reserved":false,"is_disabled":false,"rental_uris":{"android":"levelo://app?vid=b7d0d8a1-c5dd-4278-8b3b-f5786872fe32","ios":"levelo://app?vid=b7d0d8a1-c5dd-4278-8b3b-f5786872fe32"},"vehicle_type_id":"4","last_reported":1751040780,"current_range_meters":10000,"station_id":"ce4bhrh2rcd13ifvqhug","pricing_plan_id":"cebpf4jnsgd1na2vs0mg"},{"bike_id":"e171f183-d445-45ae-9f78-501390f96fe0","system_id":"levelo_inurba_marseille","lat":43.28658,"lon":5.38691,"is_reserved":false,"is_disabled":false,"rental_uris":{"android":"levelo://app?vid=e171f183-d445-45ae-9f78-501390f96fe0","ios":"levelo://app?vid=e171f183-d445-45ae-9f78-501390f96fe0"},"vehicle_type_id":"4","last_reported":1751040780,"current_range_meters":10800,"station_id":"ce4bh492rcd13ifvqdug","pricing_plan_id":"cebpf4jnsgd1na2vs0mg"},{"bike_id":"f1299479-81e3-4dec-aa8e-bee1f5e5ecc7","system_id":"levelo_inurba_marseille","lat":43.2843,"lon":5.34988,"is_reserved":false,"is_disabled":false,"rental_uris":{"android":"levelo://app?vid=f1299479-81e3-4dec-aa8e-bee1f5e5ecc7","ios":"levelo://app?vid=f1299479-81e3-4dec-aa8e-bee1f5e5ecc7"},"vehicle_type_id":"4","last_reported":1751040780,"current_range_meters":10800,"station_id":"ce4bhbh2rcd13ifvqepg","pricing_plan_id":"cebpf4jnsgd1na2vs0mg"},{"bike_id":"df9d330a-cbd4-4597-b999-ed135ac2cc4e","system_id":"levelo_inurba_marseille","lat":43.28623,"lon":5.350984,"is_reserved":false,"is_disabled":false,"rental_uris":{"android":"levelo://app?vid=df9d330a-cbd4-4597-b999-ed135ac2cc4e","ios":"levelo://app?vid=df9d330a-cbd4-4597-b999-ed135ac2cc4e"},"vehicle_type_id":"4","last_reported":1751040780,"current_range_meters":10800,"station_id":"ce4bhch2rcd13ifvqeug","pricing_plan_id":"cebpf4jnsgd1na2vs0mg"},{"bike_id":"3e6ddd3c-47c9-4057-bede-2b2d10eab3cb","system_id":"levelo_inurba_marseille","lat":43.28632,"lon":5.35095,"is_reserved":false,"is_disabled":false,"rental_uris":{"android":"levelo://app?vid=3e6ddd3c-47c9-4057-bede-2b2d10eab3cb","ios":"levelo://app?vid=3e6ddd3c-47c9-4057-bede-2b2d10eab3cb"},"vehicle_type_id":"4","last_reported":1751040780,"current_range_meters":10800,"station_id":"ce4bhch2rcd13ifvqeug","pricing_plan_id":"cebpf4jnsgd1na2vs0mg"},{"bike_id":"506d9da6-33ba-421b-be10-070c68a3cf99","system_id":"levelo_inurba_marseille","lat":43.2863,"lon":5.3508,"is_reserved":false,"is_disabled":false,"rental_uris":{"android":"levelo://app?vid=506d9da6-33ba-421b-be10-070c68a3cf99","ios":"levelo://app?vid=506d9da6-33ba-421b-be10-070c68a3cf99"},"vehicle_type_id":"4","last_reported":1751040780,"current_range_meters":10800,"station_id":"ce4bhch2rcd13ifvqeug","pricing_plan_id":"cebpf4jnsgd1na2vs0mg"},{"bike_id":"d4b7a7bc-9c84-4cc3-8303-daa462393804","system_id":"levelo_inurba_marseille","lat":43.275705,"lon":5.38421,"is_reserved":false,"is_disabled":false,"rental_uris":{"android":"levelo://app?vid=d4b7a7bc-9c84-4cc3-8303-daa462393804","ios":"levelo://app?vid=d4b7a7bc-9c84-4cc3-8303-daa462393804"},"vehicle_type_id":"4","last_reported":1751040780,"current_range_meters":10800,"station_id":"ce4bhh92rcd13ifvqfi0","pricing_plan_id":"cebpf4jnsgd1na2vs0mg"},{"bike_id":"d93518a7-acea-49d1-8b1d-66917831e25a","system_id":"levelo_inurba_marseille","lat":43.28374,"lon":5.39532,"is_reserved":false,"is_disabled":false,"rental_uris":{"android":"levelo://app?vid=d93518a7-acea-49d1-8b1d-66917831e25a","ios":"levelo://app?vid=d93518a7-acea-49d1-8b1d-66917831e25a"},"vehicle_type_id":"4","last_reported":1751040780,"current_range_meters":11200,"station_id":"","pricing_plan_id":"cebpf4jnsgd1na2vs0mg"},{"bike_id":"65245395-e05e-4513-a484-d8bb7a122e73","system_id":"levelo_inurba_marseille","lat":43.30774,"lon":5.37658,"is_reserved":false,"is_disabled":false,"rental_uris":{"android":"levelo://app?vid=65245395-e05e-4513-a484-d8bb7a122e73","ios":"levelo://app?vid=65245395-e05e-4513-a484-d8bb7a122e73"},"vehicle_type_id":"4","last_reported":1751040780,"current_range_meters":11200,"station_id":"ce4bgv92rcd13ifvqcq0","pricing_plan_id":"cebpf4jnsgd1na2vs0mg"},{"bike_id":"0c29722a-d996-4eaa-9b5e-9d6c3ba0de0d","system_id":"levelo_inurba_marseille","lat":43.29194,"lon":5.35795,"is_reserved":false,"is_disabled":false,"rental_uris":{"android":"levelo://app?vid=0c29722a-d996-4eaa-9b5e-9d6c3ba0de0d","ios":"levelo://app?vid=0c29722a-d996-4eaa-9b5e-9d6c3ba0de0d"},"vehicle_type_id":"4","last_reported":1751040780,"current_range_meters":11200,"station_id":"ce4bhb12rcd13ifvqel0","pricing_plan_id":"cebpf4jnsgd1na2vs0mg"},{"bike_id":"2d7f6ee9-c83b-47f6-bb55-313293547e1b","system_id":"levelo_inurba_marseille","lat":43.27375,"lon":5.3626,"is_reserved":false,"is_disabled":false,"rental_uris":{"android":"levelo://app?vid=2d7f6ee9-c83b-47f6-bb55-313293547e1b","ios":"levelo://app?vid=2d7f6ee9-c83b-47f6-bb55-313293547e1b"},"vehicle_type_id":"4","last_reported":1751040780,"current_range_meters":11200,"station_id":"ce4bhbh2rcd13ifvqeo0","pricing_plan_id":"cebpf4jnsgd1na2vs0mg"},{"bike_id":"38713aca-a01a-4e3f-8c81-05fb56a90f51","system_id":"levelo_inurba_marseille","lat":43.2826,"lon":5.35067,"is_reserved":false,"is_disabled":false,"rental_uris":{"android":"levelo://app?vid=38713aca-a01a-4e3f-8c81-05fb56a90f51","ios":"levelo://app?vid=38713aca-a01a-4e3f-8c81-05fb56a90f51"},"vehicle_type_id":"4","last_reported":1751040780,"current_range_meters":11200,"station_id":"ce4bhbp2rcd13ifvqerg","pricing_plan_id":"cebpf4jnsgd1na2vs0mg"},{"bike_id":"9e1df2dc-d71c-4258-9529-49067dd06bd8","system_id":"levelo_inurba_marseille","lat":43.2798,"lon":5.40015,"is_reserved":false,"is_disabled":false,"rental_uris":{"android":"levelo://app?vid=9e1df2dc-d71c-4258-9529-49067dd06bd8","ios":"levelo://app?vid=9e1df2dc-d71c-4258-9529-49067dd06bd8"},"vehicle_type_id":"4","last_reported":1751040780,"current_range_meters":11200,"station_id":"ce4bho92rcd13ifvqh4g","pricing_plan_id":"cebpf4jnsgd1na2vs0mg"},{"bike_id":"0bb947d4-d709-4bd5-aebe-f34f630b2808","system_id":"levelo_inurba_marseille","lat":43.279935,"lon":5.400162,"is_reserved":false,"is_disabled":false,"rental_uris":{"android":"levelo://app?vid=0bb947d4-d709-4bd5-aebe-f34f630b2808","ios":"levelo://app?vid=0bb947d4-d709-4bd5-aebe-f34f630b2808"},"vehicle_type_id":"4","last_reported":1751040780,"current_range_meters":11200,"station_id":"ce4bho92rcd13ifvqh4g","pricing_plan_id":"cebpf4jnsgd1na2vs0mg"},{"bike_id":"a440f2f6-8cf8-4348-9ba1-e21002a18a07","system_id":"levelo_inurba_marseille","lat":43.32096,"lon":5.36772,"is_reserved":false,"is_disabled":false,"rental_uris":{"android":"levelo://app?vid=a440f2f6-8cf8-4348-9ba1-e21002a18a07","ios":"levelo://app?vid=a440f2f6-8cf8-4348-9ba1-e21002a18a07"},"vehicle_type_id":"4","last_reported":1751040780,"current_range_meters":11200,"station_id":"ce4bhrh2rcd13ifvqhug","pricing_plan_id":"cebpf4jnsgd1na2vs0mg"},{"bike_id":"ba149b91-0069-4455-9184-d53b596fb02f","system_id":"levelo_inurba_marseille","lat":43.27377,"lon":5.36262,"is_reserved":false,"is_disabled":false,"rental_uris":{"android":"levelo://app?vid=ba149b91-0069-4455-9184-d53b596fb02f","ios":"levelo://app?vid=ba149b91-0069-4455-9184-d53b596fb02f"},"vehicle_type_id":"4","last_reported":1751040780,"current_range_meters":11600,"station_id":"ce4bhbh2rcd13ifvqeo0","pricing_plan_id":"cebpf4jnsgd1na2vs0mg"},{"bike_id":"1c8ab180-05fd-405f-9922-b2b2c2d5142f","system_id":"levelo_inurba_marseille","lat":43.32124,"lon":5.36747,"is_reserved":false,"is_disabled":false,"rental_uris":{"android":"levelo://app?vid=1c8ab180-05fd-405f-9922-b2b2c2d5142f","ios":"levelo://app?vid=1c8ab180-05fd-405f-9922-b2b2c2d5142f"},"vehicle_type_id":"4","last_reported":1751040780,"current_range_meters":11600,"station_id":"ce4bhrh2rcd13ifvqhug","pricing_plan_id":"cebpf4jnsgd1na2vs0mg"},{"bike_id":"3f2e5038-cd5f-466d-9578-2783163f088e","system_id":"levelo_inurba_marseille","lat":43.32104,"lon":5.36762,"is_reserved":false,"is_disabled":false,"rental_uris":{"android":"levelo://app?vid=3f2e5038-cd5f-466d-9578-2783163f088e","ios":"levelo://app?vid=3f2e5038-cd5f-466d-9578-2783163f088e"},"vehicle_type_id":"4","last_reported":1751040780,"current_range_meters":11600,"station_id":"ce4bhrh2rcd13ifvqhug","pricing_plan_id":"cebpf4jnsgd1na2vs0mg"},{"bike_id":"3e82f598-9d1d-4257-8afa-a4dc7305de09","system_id":"levelo_inurba_marseille","lat":43.21199,"lon":5.35069,"is_reserved":false,"is_disabled":false,"rental_uris":{"android":"levelo://app?vid=3e82f598-9d1d-4257-8afa-a4dc7305de09","ios":"levelo://app?vid=3e82f598-9d1d-4257-8afa-a4dc7305de09"},"vehicle_type_id":"4","last_reported":1751040780,"current_range_meters":11600,"station_id":"st_cvj6sg6p6f1abm77japg","pricing_plan_id":"cebpf4jnsgd1na2vs0mg"},{"bike_id":"9d21888a-bd2c-4301-9438-7b126778d218","system_id":"levelo_inurba_marseille","lat":43.31224,"lon":5.3684,"is_reserved":false,"is_disabled":false,"rental_uris":{"android":"levelo://app?vid=9d21888a-bd2c-4301-9438-7b126778d218","ios":"levelo://app?vid=9d21888a-bd2c-4301-9438-7b126778d218"},"vehicle_type_id":"4","last_reported":1751040780,"current_range_meters":12000,"station_id":"ce4bgl92rcd13ifvqbq0","pricing_plan_id":"cebpf4jnsgd1na2vs0mg"},{"bike_id":"e2e67432-2c3a-43f0-807b-c10b260bb9a2","system_id":"levelo_inurba_marseille","lat":43.28417,"lon":5.35009,"is_reserved":false,"is_disabled":false,"rental_uris":{"android":"levelo://app?vid=e2e67432-2c3a-43f0-807b-c10b260bb9a2","ios":"levelo://app?vid=e2e67432-2c3a-43f0-807b-c10b260bb9a2"},"vehicle_type_id":"4","last_reported":1751040780,"current_range_meters":12400,"station_id":"ce4bhbh2rcd13ifvqepg","pricing_plan_id":"cebpf4jnsgd1na2vs0mg"},{"bike_id":"51107632-199c-44bc-a49d-b7385437ed03","system_id":"levelo_inurba_marseille","lat":43.261875,"lon":5.374495,"is_reserved":false,"is_disabled":false,"rental_uris":{"android":"levelo://app?vid=51107632-199c-44bc-a49d-b7385437ed03","ios":"levelo://app?vid=51107632-199c-44bc-a49d-b7385437ed03"},"vehicle_type_id":"4","last_reported":1751040780,"current_range_meters":12400,"station_id":"ce4bhgp2rcd13ifvqfc0","pricing_plan_id":"cebpf4jnsgd1na2vs0mg"},{"bike_id":"104d9a39-d4fe-4577-bd3e-dfa2a6c208e7","system_id":"levelo_inurba_marseille","lat":43.271966,"lon":5.410124,"is_reserved":false,"is_disabled":false,"rental_uris":{"android":"levelo://app?vid=104d9a39-d4fe-4577-bd3e-dfa2a6c208e7","ios":"levelo://app?vid=104d9a39-d4fe-4577-bd3e-dfa2a6c208e7"},"vehicle_type_id":"4","last_reported":1751040780,"current_range_meters":12400,"station_id":"ce4bhl12rcd13ifvqgf0","pricing_plan_id":"cebpf4jnsgd1na2vs0mg"},{"bike_id":"5d5e13a4-10cc-485c-a362-06d02242e666","system_id":"levelo_inurba_marseille","lat":43.21188,"lon":5.35075,"is_reserved":false,"is_disabled":false,"rental_uris":{"android":"levelo://app?vid=5d5e13a4-10cc-485c-a362-06d02242e666","ios":"levelo://app?vid=5d5e13a4-10cc-485c-a362-06d02242e666"},"vehicle_type_id":"4","last_reported":1751040780,"current_range_meters":12400,"station_id":"st_cvj6sg6p6f1abm77japg","pricing_plan_id":"cebpf4jnsgd1na2vs0mg"},{"bike_id":"6262cae6-3e7b-42ad-b57b-874ba0326f14","system_id":"levelo_inurba_marseille","lat":43.262118,"lon":5.374378,"is_reserved":false,"is_disabled":false,"rental_uris":{"android":"levelo://app?vid=6262cae6-3e7b-42ad-b57b-874ba0326f14","ios":"levelo://app?vid=6262cae6-3e7b-42ad-b57b-874ba0326f14"},"vehicle_type_id":"4","last_reported":1751040780,"current_range_meters":12800,"station_id":"","pricing_plan_id":"cebpf4jnsgd1na2vs0mg"},{"bike_id":"5a01ae6d-9064-484c-8d77-2d9e141e2313","system_id":"levelo_inurba_marseille","lat":43.244705,"lon":5.39026,"is_reserved":false,"is_disabled":false,"rental_uris":{"android":"levelo://app?vid=5a01ae6d-9064-484c-8d77-2d9e141e2313","ios":"levelo://app?vid=5a01ae6d-9064-484c-8d77-2d9e141e2313"},"vehicle_type_id":"4","last_reported":1751040780,"current_range_meters":12800,"station_id":"","pricing_plan_id":"cebpf4jnsgd1na2vs0mg"},{"bike_id":"8937e58e-5703-49d9-b2d6-6f0a04b19c36","system_id":"levelo_inurba_marseille","lat":43.28625,"lon":5.351,"is_reserved":false,"is_disabled":false,"rental_uris":{"android":"levelo://app?vid=8937e58e-5703-49d9-b2d6-6f0a04b19c36","ios":"levelo://app?vid=8937e58e-5703-49d9-b2d6-6f0a04b19c36"},"vehicle_type_id":"4","last_reported":1751040780,"current_range_meters":12800,"station_id":"ce4bhch2rcd13ifvqeug","pricing_plan_id":"cebpf4jnsgd1na2vs0mg"},{"bike_id":"e5ae1fdd-ad1c-4e69-ac70-f715e6402e6b","system_id":"levelo_inurba_marseille","lat":43.27715,"lon":5.39899,"is_reserved":false,"is_disabled":false,"rental_uris":{"android":"levelo://app?vid=e5ae1fdd-ad1c-4e69-ac70-f715e6402e6b","ios":"levelo://app?vid=e5ae1fdd-ad1c-4e69-ac70-f715e6402e6b"},"vehicle_type_id":"4","last_reported":1751040780,"current_range_meters":13600,"station_id":"","pricing_plan_id":"cebpf4jnsgd1na2vs0mg"},{"bike_id":"2acad291-861f-4452-945f-57047a779aec","system_id":"levelo_inurba_marseille","lat":43.30424,"lon":5.3889,"is_reserved":false,"is_disabled":false,"rental_uris":{"android":"levelo://app?vid=2acad291-861f-4452-945f-57047a779aec","ios":"levelo://app?vid=2acad291-861f-4452-945f-57047a779aec"},"vehicle_type_id":"4","last_reported":1751040780,"current_range_meters":13600,"station_id":"ce4bgk12rcd13ifvqbi0","pricing_plan_id":"cebpf4jnsgd1na2vs0mg"},{"bike_id":"8abd569a-944b-49dc-87a3-54720128b2b1","system_id":"levelo_inurba_marseille","lat":43.29009,"lon":5.35613,"is_reserved":false,"is_disabled":false,"rental_uris":{"android":"levelo://app?vid=8abd569a-944b-49dc-87a3-54720128b2b1","ios":"levelo://app?vid=8abd569a-944b-49dc-87a3-54720128b2b1"},"vehicle_type_id":"4","last_reported":1751040780,"current_range_meters":13600,"station_id":"ce4bhb92rcd13ifvqen0","pricing_plan_id":"cebpf4jnsgd1na2vs0mg"},{"bike_id":"b68f667d-6589-4c00-806a-c74284cd581d","system_id":"levelo_inurba_marseille","lat":43.28256,"lon":5.35053,"is_reserved":false,"is_disabled":false,"rental_uris":{"android":"levelo://app?vid=b68f667d-6589-4c00-806a-c74284cd581d","ios":"levelo://app?vid=b68f667d-6589-4c00-806a-c74284cd581d"},"vehicle_type_id":"4","last_reported":1751040780,"current_range_meters":13600,"station_id":"ce4bhbp2rcd13ifvqerg","pricing_plan_id":"cebpf4jnsgd1na2vs0mg"},{"bike_id":"14429011-4452-4912-8f12-ce754d8aaf7c","system_id":"levelo_inurba_marseille","lat":43.30376,"lon":5.42481,"is_reserved":false,"is_disabled":false,"rental_uris":{"android":"levelo://app?vid=14429011-4452-4912-8f12-ce754d8aaf7c","ios":"levelo://app?vid=14429011-4452-4912-8f12-ce754d8aaf7c"},"vehicle_type_id":"4","last_reported":1751040780,"current_range_meters":13600,"station_id":"ce4bhoh2rcd13ifvqh6g","pricing_plan_id":"cebpf4jnsgd1na2vs0mg"},{"bike_id":"ff6a4ca1-dc78-45e1-8a58-d9a681bbbcf3","system_id":"levelo_inurba_marseille","lat":43.30387,"lon":5.42483,"is_reserved":false,"is_disabled":false,"rental_uris":{"android":"levelo://app?vid=ff6a4ca1-dc78-45e1-8a58-d9a681bbbcf3","ios":"levelo://app?vid=ff6a4ca1-dc78-45e1-8a58-d9a681bbbcf3"},"vehicle_type_id":"4","last_reported":1751040780,"current_range_meters":13600,"station_id":"ce4bhoh2rcd13ifvqh6g","pricing_plan_id":"cebpf4jnsgd1na2vs0mg"},{"bike_id":"5d4164c2-df8c-4cfb-a850-2f8f984d4e42","system_id":"levelo_inurba_marseille","lat":43.31493,"lon":5.37328,"is_reserved":false,"is_disabled":false,"rental_uris":{"android":"levelo://app?vid=5d4164c2-df8c-4cfb-a850-2f8f984d4e42","ios":"levelo://app?vid=5d4164c2-df8c-4cfb-a850-2f8f984d4e42"},"vehicle_type_id":"4","last_reported":1751040780,"current_range_meters":14000,"station_id":"ce4bgt12rcd13ifvqcd0","pricing_plan_id":"cebpf4jnsgd1na2vs0mg"},{"bike_id":"685c9eea-a420-48e4-9eff-3b1217d788ea","system_id":"levelo_inurba_marseille","lat":43.29571,"lon":5.39979,"is_reserved":false,"is_disabled":false,"rental_uris":{"android":"levelo://app?vid=685c9eea-a420-48e4-9eff-3b1217d788ea","ios":"levelo://app?vid=685c9eea-a420-48e4-9eff-3b1217d788ea"},"vehicle_type_id":"4","last_reported":1751040780,"current_range_meters":14000,"station_id":"ce4bh312rcd13ifvqdj0","pricing_plan_id":"cebpf4jnsgd1na2vs0mg"},{"bike_id":"95fcb398-0ae7-4480-bf89-f6df8bd713c1","system_id":"levelo_inurba_marseille","lat":43.286167,"lon":5.351013,"is_reserved":false,"is_disabled":false,"rental_uris":{"android":"levelo://app?vid=95fcb398-0ae7-4480-bf89-f6df8bd713c1","ios":"levelo://app?vid=95fcb398-0ae7-4480-bf89-f6df8bd713c1"},"vehicle_type_id":"4","last_reported":1751040780,"current_range_meters":14000,"station_id":"ce4bhch2rcd13ifvqeug","pricing_plan_id":"cebpf4jnsgd1na2vs0mg"},{"bike_id":"f1ff92a8-5c11-4ada-9288-1fbc0651bc7b","system_id":"levelo_inurba_marseille","lat":43.28155,"lon":5.42649,"is_reserved":false,"is_disabled":false,"rental_uris":{"android":"levelo://app?vid=f1ff92a8-5c11-4ada-9288-1fbc0651bc7b","ios":"levelo://app?vid=f1ff92a8-5c11-4ada-9288-1fbc0651bc7b"},"vehicle_type_id":"4","last_reported":1751040780,"current_range_meters":14000,"station_id":"ce4bhnh2rcd13ifvqgug","pricing_plan_id":"cebpf4jnsgd1na2vs0mg"},{"bike_id":"bab016e1-1bd7-430a-b9c9-5f8eab19761a","system_id":"levelo_inurba_marseille","lat":43.245837,"lon":5.373941,"is_reserved":false,"is_disabled":false,"rental_uris":{"android":"levelo://app?vid=bab016e1-1bd7-430a-b9c9-5f8eab19761a","ios":"levelo://app?vid=bab016e1-1bd7-430a-b9c9-5f8eab19761a"},"vehicle_type_id":"4","last_reported":1751040780,"current_range_meters":14000,"station_id":"cpo36qri1sfpv3e86is0","pricing_plan_id":"cebpf4jnsgd1na2vs0mg"},{"bike_id":"f0057ca2-de2d-4464-8902-068dc3677e00","system_id":"levelo_inurba_marseille","lat":43.21204,"lon":5.35051,"is_reserved":false,"is_disabled":false,"rental_uris":{"android":"levelo://app?vid=f0057ca2-de2d-4464-8902-068dc3677e00","ios":"levelo://app?vid=f0057ca2-de2d-4464-8902-068dc3677e00"},"vehicle_type_id":"4","last_reported":1751040780,"current_range_meters":14000,"station_id":"st_cvj6sg6p6f1abm77japg","pricing_plan_id":"cebpf4jnsgd1na2vs0mg"},{"bike_id":"bb69c1e1-7084-4be7-966a-57a7bcdfcb6c","system_id":"levelo_inurba_marseille","lat":43.24615,"lon":5.41637,"is_reserved":false,"is_disabled":false,"rental_uris":{"android":"levelo://app?vid=bb69c1e1-7084-4be7-966a-57a7bcdfcb6c","ios":"levelo://app?vid=bb69c1e1-7084-4be7-966a-57a7bcdfcb6c"},"vehicle_type_id":"4","last_reported":1751040780,"current_range_meters":14400,"station_id":"","pricing_plan_id":"cebpf4jnsgd1na2vs0mg"},{"bike_id":"37968487-9968-4aeb-b37f-2fbcb770502d","system_id":"levelo_inurba_marseille","lat":43.29041,"lon":5.37558,"is_reserved":false,"is_disabled":false,"rental_uris":{"android":"levelo://app?vid=37968487-9968-4aeb-b37f-2fbcb770502d","ios":"levelo://app?vid=37968487-9968-4aeb-b37f-2fbcb770502d"},"vehicle_type_id":"4","last_reported":1751040780,"current_range_meters":14400,"station_id":"ce4bh692rcd13ifvqe90","pricing_plan_id":"cebpf4jnsgd1na2vs0mg"},{"bike_id":"64019846-8080-474e-8a39-332cd397d908","system_id":"levelo_inurba_marseille","lat":43.2901,"lon":5.35614,"is_reserved":false,"is_disabled":false,"rental_uris":{"android":"levelo://app?vid=64019846-8080-474e-8a39-332cd397d908","ios":"levelo://app?vid=64019846-8080-474e-8a39-332cd397d908"},"vehicle_type_id":"4","last_reported":1751040780,"current_range_meters":14400,"station_id":"ce4bhb92rcd13ifvqen0","pricing_plan_id":"cebpf4jnsgd1na2vs0mg"},{"bike_id":"46fc1da8-b21e-49ec-9f51-bd3892d403d9","system_id":"levelo_inurba_marseille","lat":43.24174,"lon":5.36385,"is_reserved":false,"is_disabled":false,"rental_uris":{"android":"levelo://app?vid=46fc1da8-b21e-49ec-9f51-bd3892d403d9","ios":"levelo://app?vid=46fc1da8-b21e-49ec-9f51-bd3892d403d9"},"vehicle_type_id":"4","last_reported":1751040780,"current_range_meters":14400,"station_id":"cpo36qri1sfpv3e86is0","pricing_plan_id":"cebpf4jnsgd1na2vs0mg"},{"bike_id":"bb3dc383-7a50-4d2a-a57e-8c5948819a7a","system_id":"levelo_inurba_marseille","lat":43.28409,"lon":5.34982,"is_reserved":false,"is_disabled":false,"rental_uris":{"android":"levelo://app?vid=bb3dc383-7a50-4d2a-a57e-8c5948819a7a","ios":"levelo://app?vid=bb3dc383-7a50-4d2a-a57e-8c5948819a7a"},"vehicle_type_id":"4","last_reported":1751040780,"current_range_meters":14800,"station_id":"ce4bhbh2rcd13ifvqepg","pricing_plan_id":"cebpf4jnsgd1na2vs0mg"},{"bike_id":"fb2c5b4a-60db-46bb-800e-2abf8bdea4b9","system_id":"levelo_inurba_marseille","lat":43.28282,"lon":5.35066,"is_reserved":false,"is_disabled":false,"rental_uris":{"android":"levelo://app?vid=fb2c5b4a-60db-46bb-800e-2abf8bdea4b9","ios":"levelo://app?vid=fb2c5b4a-60db-46bb-800e-2abf8bdea4b9"},"vehicle_type_id":"4","last_reported":1751040780,"current_range_meters":14800,"station_id":"ce4bhbp2rcd13ifvqerg","pricing_plan_id":"cebpf4jnsgd1na2vs0mg"},{"bike_id":"97e8e409-31d2-4af5-8886-af9fc20d2e1a","system_id":"levelo_inurba_marseille","lat":43.26229,"lon":5.40448,"is_reserved":false,"is_disabled":false,"rental_uris":{"android":"levelo://app?vid=97e8e409-31d2-4af5-8886-af9fc20d2e1a","ios":"levelo://app?vid=97e8e409-31d2-4af5-8886-af9fc20d2e1a"},"vehicle_type_id":"4","last_reported":1751040780,"current_range_meters":14800,"station_id":"ce4bhmh2rcd13ifvqgmg","pricing_plan_id":"cebpf4jnsgd1na2vs0mg"},{"bike_id":"7dfc5216-abd2-4eb0-aa98-27c7a95c769d","system_id":"levelo_inurba_marseille","lat":43.22929,"lon":5.3538,"is_reserved":false,"is_disabled":false,"rental_uris":{"android":"levelo://app?vid=7dfc5216-abd2-4eb0-aa98-27c7a95c769d","ios":"levelo://app?vid=7dfc5216-abd2-4eb0-aa98-27c7a95c769d"},"vehicle_type_id":"4","last_reported":1751040780,"current_range_meters":14800,"station_id":"cpo3532slgdg3j2ikp40","pricing_plan_id":"cebpf4jnsgd1na2vs0mg"},{"bike_id":"2a9a5366-8dad-42f1-bee6-ffb042c54776","system_id":"levelo_inurba_marseille","lat":43.21189,"lon":5.350737,"is_reserved":false,"is_disabled":false,"rental_uris":{"android":"levelo://app?vid=2a9a5366-8dad-42f1-bee6-ffb042c54776","ios":"levelo://app?vid=2a9a5366-8dad-42f1-bee6-ffb042c54776"},"vehicle_type_id":"4","last_reported":1751040780,"current_range_meters":14800,"station_id":"st_cvj6sg6p6f1abm77japg","pricing_plan_id":"cebpf4jnsgd1na2vs0mg"},{"bike_id":"6596b921-73fe-48ce-bd42-ac6622714c19","system_id":"levelo_inurba_marseille","lat":43.29006,"lon":5.35614,"is_reserved":false,"is_disabled":false,"rental_uris":{"android":"levelo://app?vid=6596b921-73fe-48ce-bd42-ac6622714c19","ios":"levelo://app?vid=6596b921-73fe-48ce-bd42-ac6622714c19"},"vehicle_type_id":"4","last_reported":1751040780,"current_range_meters":15200,"station_id":"ce4bhb92rcd13ifvqen0","pricing_plan_id":"cebpf4jnsgd1na2vs0mg"},{"bike_id":"e6ce70f7-9138-485c-a4db-2c9174614cff","system_id":"levelo_inurba_marseille","lat":43.31818,"lon":5.36853,"is_reserved":false,"is_disabled":false,"rental_uris":{"android":"levelo://app?vid=e6ce70f7-9138-485c-a4db-2c9174614cff","ios":"levelo://app?vid=e6ce70f7-9138-485c-a4db-2c9174614cff"},"vehicle_type_id":"4","last_reported":1751040780,"current_range_meters":16000,"station_id":"","pricing_plan_id":"cebpf4jnsgd1na2vs0mg"},{"bike_id":"b35d2238-e31b-4d5c-919d-6f2bf3cc4108","system_id":"levelo_inurba_marseille","lat":43.27373,"lon":5.36254,"is_reserved":false,"is_disabled":false,"rental_uris":{"android":"levelo://app?vid=b35d2238-e31b-4d5c-919d-6f2bf3cc4108","ios":"levelo://app?vid=b35d2238-e31b-4d5c-919d-6f2bf3cc4108"},"vehicle_type_id":"4","last_reported":1751040780,"current_range_meters":16000,"station_id":"ce4bhbh2rcd13ifvqeo0","pricing_plan_id":"cebpf4jnsgd1na2vs0mg"},{"bike_id":"b70cc62c-b555-4a33-9340-b44faf47de76","system_id":"levelo_inurba_marseille","lat":43.26209,"lon":5.37444,"is_reserved":false,"is_disabled":false,"rental_uris":{"android":"levelo://app?vid=b70cc62c-b555-4a33-9340-b44faf47de76","ios":"levelo://app?vid=b70cc62c-b555-4a33-9340-b44faf47de76"},"vehicle_type_id":"4","last_reported":1751040780,"current_range_meters":16000,"station_id":"ce4bhgp2rcd13ifvqfc0","pricing_plan_id":"cebpf4jnsgd1na2vs0mg"},{"bike_id":"bbc4a376-bee7-4ad5-a49a-1022d27c1489","system_id":"levelo_inurba_marseille","lat":43.32114,"lon":5.36765,"is_reserved":false,"is_disabled":false,"rental_uris":{"android":"levelo://app?vid=bbc4a376-bee7-4ad5-a49a-1022d27c1489","ios":"levelo://app?vid=bbc4a376-bee7-4ad5-a49a-1022d27c1489"},"vehicle_type_id":"4","last_reported":1751040780,"current_range_meters":16000,"station_id":"ce4bhrh2rcd13ifvqhug","pricing_plan_id":"cebpf4jnsgd1na2vs0mg"},{"bike_id":"117b0e1c-ce24-4846-9a73-6752214ba173","system_id":"levelo_inurba_marseille","lat":43.29573,"lon":5.36745,"is_reserved":false,"is_disabled":false,"rental_uris":{"android":"levelo://app?vid=117b0e1c-ce24-4846-9a73-6752214ba173","ios":"levelo://app?vid=117b0e1c-ce24-4846-9a73-6752214ba173"},"vehicle_type_id":"4","last_reported":1751040780,"current_range_meters":16400,"station_id":"ce4bgph2rcd13ifvqc2g","pricing_plan_id":"cebpf4jnsgd1na2vs0mg"},{"bike_id":"e7e455b1-3a2b-4851-aa07-d616f87c8a46","system_id":"levelo_inurba_marseille","lat":43.29958,"lon":5.41317,"is_reserved":false,"is_disabled":false,"rental_uris":{"android":"levelo://app?vid=e7e455b1-3a2b-4851-aa07-d616f87c8a46","ios":"levelo://app?vid=e7e455b1-3a2b-4851-aa07-d616f87c8a46"},"vehicle_type_id":"4","last_reported":1751040780,"current_range_meters":16400,"station_id":"ce4bhp12rcd13ifvqh9g","pricing_plan_id":"cebpf4jnsgd1na2vs0mg"},{"bike_id":"935c8062-ae25-46e0-901d-4b81929b99b7","system_id":"levelo_inurba_marseille","lat":43.21755,"lon":5.346016,"is_reserved":false,"is_disabled":false,"rental_uris":{"android":"levelo://app?vid=935c8062-ae25-46e0-901d-4b81929b99b7","ios":"levelo://app?vid=935c8062-ae25-46e0-901d-4b81929b99b7"},"vehicle_type_id":"4","last_reported":1751040780,"current_range_meters":16400,"station_id":"st_cvj6r9ubvosntc0bgbag","pricing_plan_id":"cebpf4jnsgd1na2vs0mg"},{"bike_id":"815201a7-dbbe-4827-ab77-bd49f80ea5ee","system_id":"levelo_inurba_marseille","lat":43.29697,"lon":5.45941,"is_reserved":false,"is_disabled":false,"rental_uris":{"android":"levelo://app?vid=815201a7-dbbe-4827-ab77-bd49f80ea5ee","ios":"levelo://app?vid=815201a7-dbbe-4827-ab77-bd49f80ea5ee"},"vehicle_type_id":"4","last_reported":1751040780,"current_range_meters":16800,"station_id":"","pricing_plan_id":"cebpf4jnsgd1na2vs0mg"},{"bike_id":"e206304f-7207-4dc3-905a-31c7d1624de5","system_id":"levelo_inurba_marseille","lat":43.29527,"lon":5.39409,"is_reserved":false,"is_disabled":false,"rental_uris":{"android":"levelo://app?vid=e206304f-7207-4dc3-905a-31c7d1624de5","ios":"levelo://app?vid=e206304f-7207-4dc3-905a-31c7d1624de5"},"vehicle_type_id":"4","last_reported":1751040780,"current_range_meters":16800,"station_id":"ce4bh292rcd13ifvqdf0","pricing_plan_id":"cebpf4jnsgd1na2vs0mg"},{"bike_id":"928057a5-150a-4272-b6ad-f4bdff231852","system_id":"levelo_inurba_marseille","lat":43.28263,"lon":5.35058,"is_reserved":false,"is_disabled":false,"rental_uris":{"android":"levelo://app?vid=928057a5-150a-4272-b6ad-f4bdff231852","ios":"levelo://app?vid=928057a5-150a-4272-b6ad-f4bdff231852"},"vehicle_type_id":"4","last_reported":1751040780,"current_range_meters":16800,"station_id":"ce4bhbp2rcd13ifvqerg","pricing_plan_id":"cebpf4jnsgd1na2vs0mg"},{"bike_id":"15d128bd-cfe4-4fde-84e3-861a91e21785","system_id":"levelo_inurba_marseille","lat":43.337344,"lon":5.391859,"is_reserved":false,"is_disabled":false,"rental_uris":{"android":"levelo://app?vid=15d128bd-cfe4-4fde-84e3-861a91e21785","ios":"levelo://app?vid=15d128bd-cfe4-4fde-84e3-861a91e21785"},"vehicle_type_id":"4","last_reported":1751040780,"current_range_meters":16800,"station_id":"ce4bhr92rcd13ifvqhsg","pricing_plan_id":"cebpf4jnsgd1na2vs0mg"},{"bike_id":"9f4d5bab-2162-4efe-b332-684be506e152","system_id":"levelo_inurba_marseille","lat":43.28725,"lon":5.36084,"is_reserved":false,"is_disabled":false,"rental_uris":{"android":"levelo://app?vid=9f4d5bab-2162-4efe-b332-684be506e152","ios":"levelo://app?vid=9f4d5bab-2162-4efe-b332-684be506e152"},"vehicle_type_id":"4","last_reported":1751040780,"current_range_meters":16800,"station_id":"cki0cbj6b192h4jlfktg","pricing_plan_id":"cebpf4jnsgd1na2vs0mg"},{"bike_id":"5132bc78-73df-4613-a7dd-0f8ae2846a9f","system_id":"levelo_inurba_marseille","lat":43.21761,"lon":5.3459,"is_reserved":false,"is_disabled":false,"rental_uris":{"android":"levelo://app?vid=5132bc78-73df-4613-a7dd-0f8ae2846a9f","ios":"levelo://app?vid=5132bc78-73df-4613-a7dd-0f8ae2846a9f"},"vehicle_type_id":"4","last_reported":1751040780,"current_range_meters":16800,"station_id":"st_cvj6r9ubvosntc0bgbag","pricing_plan_id":"cebpf4jnsgd1na2vs0mg"},{"bike_id":"b87e1b9d-2235-4f61-b263-635ae6581835","system_id":"levelo_inurba_marseille","lat":43.29581,"lon":5.36735,"is_reserved":false,"is_disabled":false,"rental_uris":{"android":"levelo://app?vid=b87e1b9d-2235-4f61-b263-635ae6581835","ios":"levelo://app?vid=b87e1b9d-2235-4f61-b263-635ae6581835"},"vehicle_type_id":"4","last_reported":1751040780,"current_range_meters":17200,"station_id":"ce4bgph2rcd13ifvqc2g","pricing_plan_id":"cebpf4jnsgd1na2vs0mg"},{"bike_id":"40ca55c3-eedb-4218-8a14-289fca43a9ac","system_id":"levelo_inurba_marseille","lat":43.29191,"lon":5.35812,"is_reserved":false,"is_disabled":false,"rental_uris":{"android":"levelo://app?vid=40ca55c3-eedb-4218-8a14-289fca43a9ac","ios":"levelo://app?vid=40ca55c3-eedb-4218-8a14-289fca43a9ac"},"vehicle_type_id":"4","last_reported":1751040780,"current_range_meters":17200,"station_id":"ce4bhb12rcd13ifvqel0","pricing_plan_id":"cebpf4jnsgd1na2vs0mg"},{"bike_id":"a5512743-d81b-446e-94b2-36d8539c1580","system_id":"levelo_inurba_marseille","lat":43.26214,"lon":5.37437,"is_reserved":false,"is_disabled":false,"rental_uris":{"android":"levelo://app?vid=a5512743-d81b-446e-94b2-36d8539c1580","ios":"levelo://app?vid=a5512743-d81b-446e-94b2-36d8539c1580"},"vehicle_type_id":"4","last_reported":1751040780,"current_range_meters":17200,"station_id":"ce4bhgp2rcd13ifvqfc0","pricing_plan_id":"cebpf4jnsgd1na2vs0mg"},{"bike_id":"c1021b57-6a88-45de-8265-645c49772019","system_id":"levelo_inurba_marseille","lat":43.26202,"lon":5.37936,"is_reserved":false,"is_disabled":false,"rental_uris":{"android":"levelo://app?vid=c1021b57-6a88-45de-8265-645c49772019","ios":"levelo://app?vid=c1021b57-6a88-45de-8265-645c49772019"},"vehicle_type_id":"4","last_reported":1751040780,"current_range_meters":17200,"station_id":"ce4bhjp2rcd13ifvqg90","pricing_plan_id":"cebpf4jnsgd1na2vs0mg"},{"bike_id":"721165c1-ef6f-40cc-8d33-af3a7999864b","system_id":"levelo_inurba_marseille","lat":43.32715,"lon":5.37993,"is_reserved":false,"is_disabled":false,"rental_uris":{"android":"levelo://app?vid=721165c1-ef6f-40cc-8d33-af3a7999864b","ios":"levelo://app?vid=721165c1-ef6f-40cc-8d33-af3a7999864b"},"vehicle_type_id":"4","last_reported":1751040780,"current_range_meters":17600,"station_id":"","pricing_plan_id":"cebpf4jnsgd1na2vs0mg"},{"bike_id":"53144da0-024d-4d01-ab2e-dbe076060473","system_id":"levelo_inurba_marseille","lat":43.295312,"lon":5.385422,"is_reserved":false,"is_disabled":false,"rental_uris":{"android":"levelo://app?vid=53144da0-024d-4d01-ab2e-dbe076060473","ios":"levelo://app?vid=53144da0-024d-4d01-ab2e-dbe076060473"},"vehicle_type_id":"4","last_reported":1751040780,"current_range_meters":17600,"station_id":"ce4bgih2rcd13ifvqba0","pricing_plan_id":"cebpf4jnsgd1na2vs0mg"},{"bike_id":"0213cc1b-bfa7-4c95-816b-78bcc0eeffbe","system_id":"levelo_inurba_marseille","lat":43.31357,"lon":5.38495,"is_reserved":false,"is_disabled":false,"rental_uris":{"android":"levelo://app?vid=0213cc1b-bfa7-4c95-816b-78bcc0eeffbe","ios":"levelo://app?vid=0213cc1b-bfa7-4c95-816b-78bcc0eeffbe"},"vehicle_type_id":"4","last_reported":1751040780,"current_range_meters":17600,"station_id":"ce4bgt92rcd13ifvqcf0","pricing_plan_id":"cebpf4jnsgd1na2vs0mg"},{"bike_id":"7eb97b7c-0e55-4c91-a60f-303afd8f32e8","system_id":"levelo_inurba_marseille","lat":43.24387,"lon":5.37055,"is_reserved":false,"is_disabled":false,"rental_uris":{"android":"levelo://app?vid=7eb97b7c-0e55-4c91-a60f-303afd8f32e8","ios":"levelo://app?vid=7eb97b7c-0e55-4c91-a60f-303afd8f32e8"},"vehicle_type_id":"4","last_reported":1751040780,"current_range_meters":17600,"station_id":"ce4bhhh2rcd13ifvqfk0","pricing_plan_id":"cebpf4jnsgd1na2vs0mg"},{"bike_id":"81115363-d7ba-42ce-969b-a1d7ad97fa06","system_id":"levelo_inurba_marseille","lat":43.33722,"lon":5.39179,"is_reserved":false,"is_disabled":false,"rental_uris":{"android":"levelo://app?vid=81115363-d7ba-42ce-969b-a1d7ad97fa06","ios":"levelo://app?vid=81115363-d7ba-42ce-969b-a1d7ad97fa06"},"vehicle_type_id":"4","last_reported":1751040780,"current_range_meters":17600,"station_id":"ce4bhr92rcd13ifvqhsg","pricing_plan_id":"cebpf4jnsgd1na2vs0mg"},{"bike_id":"d74d7be5-ba54-4d68-9cdb-a520d677c267","system_id":"levelo_inurba_marseille","lat":43.23192,"lon":5.35553,"is_reserved":false,"is_disabled":false,"rental_uris":{"android":"levelo://app?vid=d74d7be5-ba54-4d68-9cdb-a520d677c267","ios":"levelo://app?vid=d74d7be5-ba54-4d68-9cdb-a520d677c267"},"vehicle_type_id":"4","last_reported":1751040780,"current_range_meters":17600,"station_id":"ce4bhu92rcd13ifvqi70","pricing_plan_id":"cebpf4jnsgd1na2vs0mg"},{"bike_id":"12c7fc9f-7c7b-4185-9b2f-badd0c17e36b","system_id":"levelo_inurba_marseille","lat":43.24735,"lon":5.37435,"is_reserved":false,"is_disabled":false,"rental_uris":{"android":"levelo://app?vid=12c7fc9f-7c7b-4185-9b2f-badd0c17e36b","ios":"levelo://app?vid=12c7fc9f-7c7b-4185-9b2f-badd0c17e36b"},"vehicle_type_id":"4","last_reported":1751040780,"current_range_meters":18000,"station_id":"","pricing_plan_id":"cebpf4jnsgd1na2vs0mg"},{"bike_id":"86d1a824-ad53-4daf-9efe-129195289966","system_id":"levelo_inurba_marseille","lat":43.29578,"lon":5.36745,"is_reserved":false,"is_disabled":false,"rental_uris":{"android":"levelo://app?vid=86d1a824-ad53-4daf-9efe-129195289966","ios":"levelo://app?vid=86d1a824-ad53-4daf-9efe-129195289966"},"vehicle_type_id":"4","last_reported":1751040780,"current_range_meters":18000,"station_id":"ce4bgph2rcd13ifvqc2g","pricing_plan_id":"cebpf4jnsgd1na2vs0mg"},{"bike_id":"b9d502c7-4cce-431a-bce8-985f993421b9","system_id":"levelo_inurba_marseille","lat":43.28422,"lon":5.34972,"is_reserved":false,"is_disabled":false,"rental_uris":{"android":"levelo://app?vid=b9d502c7-4cce-431a-bce8-985f993421b9","ios":"levelo://app?vid=b9d502c7-4cce-431a-bce8-985f993421b9"},"vehicle_type_id":"4","last_reported":1751040780,"current_range_meters":18000,"station_id":"ce4bhbh2rcd13ifvqepg","pricing_plan_id":"cebpf4jnsgd1na2vs0mg"},{"bike_id":"0f8cacae-de93-4327-8d12-f3527018c82d","system_id":"levelo_inurba_marseille","lat":43.28412,"lon":5.35001,"is_reserved":false,"is_disabled":false,"rental_uris":{"android":"levelo://app?vid=0f8cacae-de93-4327-8d12-f3527018c82d","ios":"levelo://app?vid=0f8cacae-de93-4327-8d12-f3527018c82d"},"vehicle_type_id":"4","last_reported":1751040780,"current_range_meters":18000,"station_id":"ce4bhbh2rcd13ifvqepg","pricing_plan_id":"cebpf4jnsgd1na2vs0mg"},{"bike_id":"ff89fb86-2501-4795-be17-01eb9bf44833","system_id":"levelo_inurba_marseille","lat":43.323625,"lon":5.36732,"is_reserved":false,"is_disabled":false,"rental_uris":{"android":"levelo://app?vid=ff89fb86-2501-4795-be17-01eb9bf44833","ios":"levelo://app?vid=ff89fb86-2501-4795-be17-01eb9bf44833"},"vehicle_type_id":"4","last_reported":1751040780,"current_range_meters":18000,"station_id":"ce4bhsh2rcd13ifvqi2g","pricing_plan_id":"cebpf4jnsgd1na2vs0mg"},{"bike_id":"a7883090-0e10-4075-944b-a3cca54bc544","system_id":"levelo_inurba_marseille","lat":43.22524,"lon":5.34771,"is_reserved":false,"is_disabled":false,"rental_uris":{"android":"levelo://app?vid=a7883090-0e10-4075-944b-a3cca54bc544","ios":"levelo://app?vid=a7883090-0e10-4075-944b-a3cca54bc544"},"vehicle_type_id":"4","last_reported":1751040780,"current_range_meters":18000,"station_id":"st_cvj5dfep6f1abm77gieg","pricing_plan_id":"cebpf4jnsgd1na2vs0mg"},{"bike_id":"5a3dab73-c126-4de6-a97f-f9ca71f0b35f","system_id":"levelo_inurba_marseille","lat":43.217534,"lon":5.346134,"is_reserved":false,"is_disabled":false,"rental_uris":{"android":"levelo://app?vid=5a3dab73-c126-4de6-a97f-f9ca71f0b35f","ios":"levelo://app?vid=5a3dab73-c126-4de6-a97f-f9ca71f0b35f"},"vehicle_type_id":"4","last_reported":1751040780,"current_range_meters":18000,"station_id":"st_cvj6r9ubvosntc0bgbag","pricing_plan_id":"cebpf4jnsgd1na2vs0mg"},{"bike_id":"14e8ef37-e834-4d76-9946-e98f7a083a2f","system_id":"levelo_inurba_marseille","lat":43.21198,"lon":5.3507,"is_reserved":false,"is_disabled":false,"rental_uris":{"android":"levelo://app?vid=14e8ef37-e834-4d76-9946-e98f7a083a2f","ios":"levelo://app?vid=14e8ef37-e834-4d76-9946-e98f7a083a2f"},"vehicle_type_id":"4","last_reported":1751040780,"current_range_meters":18000,"station_id":"st_cvj6sg6p6f1abm77japg","pricing_plan_id":"cebpf4jnsgd1na2vs0mg"},{"bike_id":"0c803610-f6e9-41d4-936d-0b433fa62796","system_id":"levelo_inurba_marseille","lat":43.30183,"lon":5.37829,"is_reserved":false,"is_disabled":false,"rental_uris":{"android":"levelo://app?vid=0c803610-f6e9-41d4-936d-0b433fa62796","ios":"levelo://app?vid=0c803610-f6e9-41d4-936d-0b433fa62796"},"vehicle_type_id":"4","last_reported":1751040780,"current_range_meters":18800,"station_id":"","pricing_plan_id":"cebpf4jnsgd1na2vs0mg"},{"bike_id":"a74a4442-f1d2-4033-ae43-a8f838244012","system_id":"levelo_inurba_marseille","lat":43.29976,"lon":5.38488,"is_reserved":false,"is_disabled":false,"rental_uris":{"android":"levelo://app?vid=a74a4442-f1d2-4033-ae43-a8f838244012","ios":"levelo://app?vid=a74a4442-f1d2-4033-ae43-a8f838244012"},"vehicle_type_id":"4","last_reported":1751040780,"current_range_meters":18800,"station_id":"ce4bgj92rcd13ifvqbd0","pricing_plan_id":"cebpf4jnsgd1na2vs0mg"},{"bike_id":"b40a9732-8746-4965-a221-b83b26586e04","system_id":"levelo_inurba_marseille","lat":43.24802,"lon":5.37458,"is_reserved":false,"is_disabled":false,"rental_uris":{"android":"levelo://app?vid=b40a9732-8746-4965-a221-b83b26586e04","ios":"levelo://app?vid=b40a9732-8746-4965-a221-b83b26586e04"},"vehicle_type_id":"4","last_reported":1751040780,"current_range_meters":18800,"station_id":"ce4bhgh2rcd13ifvqfb0","pricing_plan_id":"cebpf4jnsgd1na2vs0mg"},{"bike_id":"68ba553f-21c6-4e54-95b0-38cf227ee3c9","system_id":"levelo_inurba_marseille","lat":43.26262,"lon":5.40186,"is_reserved":false,"is_disabled":false,"rental_uris":{"android":"levelo://app?vid=68ba553f-21c6-4e54-95b0-38cf227ee3c9","ios":"levelo://app?vid=68ba553f-21c6-4e54-95b0-38cf227ee3c9"},"vehicle_type_id":"4","last_reported":1751040780,"current_range_meters":19200,"station_id":"","pricing_plan_id":"cebpf4jnsgd1na2vs0mg"},{"bike_id":"6af79a00-84aa-4908-a347-34425e08c383","system_id":"levelo_inurba_marseille","lat":43.30283,"lon":5.37578,"is_reserved":false,"is_disabled":false,"rental_uris":{"android":"levelo://app?vid=6af79a00-84aa-4908-a347-34425e08c383","ios":"levelo://app?vid=6af79a00-84aa-4908-a347-34425e08c383"},"vehicle_type_id":"4","last_reported":1751040780,"current_range_meters":19200,"station_id":"","pricing_plan_id":"cebpf4jnsgd1na2vs0mg"},{"bike_id":"dd948433-c9dd-44ed-821a-cfc804e79172","system_id":"levelo_inurba_marseille","lat":43.31131,"lon":5.37766,"is_reserved":false,"is_disabled":false,"rental_uris":{"android":"levelo://app?vid=dd948433-c9dd-44ed-821a-cfc804e79172","ios":"levelo://app?vid=dd948433-c9dd-44ed-821a-cfc804e79172"},"vehicle_type_id":"4","last_reported":1751040780,"current_range_meters":19200,"station_id":"ce4bgt92rcd13ifvqcg0","pricing_plan_id":"cebpf4jnsgd1na2vs0mg"},{"bike_id":"4043f5ed-1c71-456d-9c90-de5b8866cdaf","system_id":"levelo_inurba_marseille","lat":43.22934,"lon":5.35364,"is_reserved":false,"is_disabled":false,"rental_uris":{"android":"levelo://app?vid=4043f5ed-1c71-456d-9c90-de5b8866cdaf","ios":"levelo://app?vid=4043f5ed-1c71-456d-9c90-de5b8866cdaf"},"vehicle_type_id":"4","last_reported":1751040780,"current_range_meters":19200,"station_id":"cpo3532slgdg3j2ikp40","pricing_plan_id":"cebpf4jnsgd1na2vs0mg"},{"bike_id":"b13877a6-4825-4d82-b46b-67fa8ad66c5d","system_id":"levelo_inurba_marseille","lat":43.21186,"lon":5.35084,"is_reserved":false,"is_disabled":false,"rental_uris":{"android":"levelo://app?vid=b13877a6-4825-4d82-b46b-67fa8ad66c5d","ios":"levelo://app?vid=b13877a6-4825-4d82-b46b-67fa8ad66c5d"},"vehicle_type_id":"4","last_reported":1751040780,"current_range_meters":19200,"station_id":"st_cvj6sg6p6f1abm77japg","pricing_plan_id":"cebpf4jnsgd1na2vs0mg"},