{"last_updated":1744114778,"ttl":60,"version":"2.2","data":{"bikes":[{"bike_id":"e89b5c3a-b4c2-454e-8d42-f553a67bb2fd","system_id":"levelo_inurba_marseille","lat":43.27947,"lon":5.41052,"is_reserved":false,"is_disabled":false,"rental_uris":{"android":"levelo://app?vid=e89b5c3a-b4c2-454e-8d42-f553a67bb2fd","ios":"levelo://app?vid=e89b5c3a-b4c2-454e-8d42-f553a67bb2fd"},"vehicle_type_id":"4","last_reported":1744114778,"current_range_meters":2800,"station_id":"ce4bhnp2rcd13ifvqh0g","pricing_plan_id":"cebpf4jnsgd1na2vs0mg"},{"bike_id":"81e702f7-3627-4343-b728-a95dcc1b560f","system_id":"levelo_inurba_marseille","lat":43.32481,"lon":5.36568,"is_reserved":false,"is_disabled":false,"rental_uris":{"android":"levelo://app?vid=81e702f7-3627-4343-b728-a95dcc1b560f","ios":"levelo://app?vid=81e702f7-3627-4343-b728-a95dcc1b560f"},"vehicle_type_id":"4","last_reported":1744114778,"current_range_meters":3200,"station_id":"ce4bhs12rcd13ifvqhvg","pricing_plan_id":"cebpf4jnsgd1na2vs0mg"},{"bike_id":"8ec975fe-3df2-4571-aed2-a8fd3471b0e8","system_id":"levelo_inurba_marseille","lat":43.27807,"lon":5.40682,"is_reserved":false,"is_disabled":false,"rental_uris":{"android":"levelo://app?vid=8ec975fe-3df2-4571-aed2-a8fd3471b0e8","ios":"levelo://app?vid=8ec975fe-3df2-4571-aed2-a8fd3471b0e8"},"vehicle_type_id":"4","last_reported":1744114778,"current_range_meters":3600,"station_id":"ce4bhnh2rcd13ifvqgtg","pricing_plan_id":"cebpf4jnsgd1na2vs0mg"},{"bike_id":"294589a8-b6ef-40ee-9b05-140db50ed2c2","system_id":"levelo_inurba_marseille","lat":43.29923,"lon":5.3652,"is_reserved":false,"is_disabled":false,"rental_uris":{"android":"levelo://app?vid=294589a8-b6ef-40ee-9b05-140db50ed2c2","ios":"levelo://app?vid=294589a8-b6ef-40ee-9b05-140db50ed2c2"},"vehicle_type_id":"4","last_reported":1744114778,"current_range_meters":3600,"station_id":"ce4bgm92rcd13ifvqbr0","pricing_plan_id":"cebpf4jnsgd1na2vs0mg"},{"bike_id":"351b921a-1463-4cf6-859d-ca5bd51a6e76","system_id":"levelo_inurba_marseille","lat":43.31725,"lon":5.42409,"is_reserved":false,"is_disabled":false,"rental_uris":{"android":"levelo://app?vid=351b921a-1463-4cf6-859d-ca5bd51a6e76","ios":"levelo://app?vid=351b921a-1463-4cf6-859d-ca5bd51a6e76"},"vehicle_type_id":"4","last_reported":1744114778,"current_range_meters":3600,"station_id":"","pricing_plan_id":"cebpf4jnsgd1na2vs0mg"},{"bike_id":"19224d95-e048-4cbb-8884-43e0e6b3db9b","system_id":"levelo_inurba_marseille","lat":43.298674,"lon":5.397315,"is_reserved":false,"is_disabled":true,"rental_uris":{"android":"levelo://app?vid=19224d95-e048-4cbb-8884-43e0e6b3db9b","ios":"levelo://app?vid=19224d95-e048-4cbb-8884-43e0e6b3db9b"},"vehicle_type_id":"4","last_reported":1744114778,"current_range_meters":3600,"station_id":"ce4bh0h2rcd13ifvqd50","pricing_plan_id":"cebpf4jnsgd1na2vs0mg"},{"bike_id":"f7867dc6-bafa-4be1-8081-e21f9328d7a1","system_id":"levelo_inurba_marseille","lat":43.31117,"lon":5.37765,"is_reserved":false,"is_disabled":false,"rental_uris":{"android":"levelo://app?vid=f7867dc6-bafa-4be1-8081-e21f9328d7a1","ios":"levelo://app?vid=f7867dc6-bafa-4be1-8081-e21f9328d7a1"},"vehicle_type_id":"4","last_reported":1744114778,"current_range_meters":3600,"station_id":"ce4bgt92rcd13ifvqcg0","pricing_plan_id":"cebpf4jnsgd1na2vs0mg"},{"bike_id":"22864835-1390-43d6-ab06-3e5a8e960bc7","system_id":"levelo_inurba_marseille","lat":43.28429,"lon":5.34981,"is_reserved":false,"is_disabled":false,"rental_uris":{"android":"levelo://app?vid=22864835-1390-43d6-ab06-3e5a8e960bc7","ios":"levelo://app?vid=22864835-1390-43d6-ab06-3e5a8e960bc7"},"vehicle_type_id":"4","last_reported":1744114778,"current_range_meters":4000,"station_id":"ce4bhbh2rcd13ifvqepg","pricing_plan_id":"cebpf4jnsgd1na2vs0mg"},{"bike_id":"a959694d-18ce-4d80-917f-23c91ed81065","system_id":"levelo_inurba_marseille","lat":43.29902,"lon":5.436663,"is_reserved":false,"is_disabled":true,"rental_uris":{"android":"levelo://app?vid=a959694d-18ce-4d80-917f-23c91ed81065","ios":"levelo://app?vid=a959694d-18ce-4d80-917f-23c91ed81065"},"vehicle_type_id":"4","last_reported":1744114778,"current_range_meters":4000,"station_id":"ce4bhpp2rcd13ifvqhfg","pricing_plan_id":"cebpf4jnsgd1na2vs0mg"},{"bike_id":"67623b0e-935f-480d-9f6c-1f1324664cd4","system_id":"levelo_inurba_marseille","lat":43.23196,"lon":5.35553,"is_reserved":false,"is_disabled":false,"rental_uris":{"android":"levelo://app?vid=67623b0e-935f-480d-9f6c-1f1324664cd4","ios":"levelo://app?vid=67623b0e-935f-480d-9f6c-1f1324664cd4"},"vehicle_type_id":"4","last_reported":1744114778,"current_range_meters":4000,"station_id":"ce4bhu92rcd13ifvqi70","pricing_plan_id":"cebpf4jnsgd1na2vs0mg"},{"bike_id":"e96f8002-0c07-4594-bcdb-83662d0212d0","system_id":"levelo_inurba_marseille","lat":43.23152,"lon":5.43712,"is_reserved":false,"is_disabled":false,"rental_uris":{"android":"levelo://app?vid=e96f8002-0c07-4594-bcdb-83662d0212d0","ios":"levelo://app?vid=e96f8002-0c07-4594-bcdb-83662d0212d0"},"vehicle_type_id":"4","last_reported":1744114778,"current_range_meters":8800,"station_id":"ce4bhmp2rcd13ifvqgog","pricing_plan_id":"cebpf4jnsgd1na2vs0mg"},{"bike_id":"74eb49a9-025b-42f2-98a9-747a70f6d29c","system_id":"levelo_inurba_marseille","lat":43.31116,"lon":5.37772,"is_reserved":false,"is_disabled":false,"rental_uris":{"android":"levelo://app?vid=74eb49a9-025b-42f2-98a9-747a70f6d29c","ios":"levelo://app?vid=74eb49a9-025b-42f2-98a9-747a70f6d29c"},"vehicle_type_id":"4","last_reported":1744114778,"current_range_meters":4000,"station_id":"ce4bgt92rcd13ifvqcg0","pricing_plan_id":"cebpf4jnsgd1na2vs0mg"},{"bike_id":"25f19322-3940-48f6-9994-30b1cf35b098","system_id":"levelo_inurba_marseille","lat":43.28622,"lon":5.35097,"is_reserved":false,"is_disabled":false,"rental_uris":{"android":"levelo://app?vid=25f19322-3940-48f6-9994-30b1cf35b098","ios":"levelo://app?vid=25f19322-3940-48f6-9994-30b1cf35b098"},"vehicle_type_id":"4","last_reported":1744114778,"current_range_meters":4400,"station_id":"ce4bhch2rcd13ifvqeug","pricing_plan_id":"cebpf4jnsgd1na2vs0mg"},{"bike_id":"92028d89-84bd-4827-9f7a-dc73f0e5fea0","system_id":"levelo_inurba_marseille","lat":43.25935,"lon":5.40897,"is_reserved":false,"is_disabled":false,"rental_uris":{"android":"levelo://app?vid=92028d89-84bd-4827-9f7a-dc73f0e5fea0","ios":"levelo://app?vid=92028d89-84bd-4827-9f7a-dc73f0e5fea0"},"vehicle_type_id":"4","last_reported":1744114778,"current_range_meters":4400,"station_id":"ce4bhm92rcd13ifvqglg","pricing_plan_id":"cebpf4jnsgd1na2vs0mg"},{"bike_id":"66f326ca-f269-4f58-8539-af648b08dde3","system_id":"levelo_inurba_marseille","lat":43.254951,"lon":5.376494,"is_reserved":false,"is_disabled":false,"rental_uris":{"android":"levelo://app?vid=66f326ca-f269-4f58-8539-af648b08dde3","ios":"levelo://app?vid=66f326ca-f269-4f58-8539-af648b08dde3"},"vehicle_type_id":"4","last_reported":1744114778,"current_range_meters":4400,"station_id":"ce4bhh12rcd13ifvqff0","pricing_plan_id":"cebpf4jnsgd1na2vs0mg"},{"bike_id":"8a38320c-a733-4cf5-8c8e-152497fe8f8f","system_id":"levelo_inurba_marseille","lat":43.28148,"lon":5.4262,"is_reserved":false,"is_disabled":false,"rental_uris":{"android":"levelo://app?vid=8a38320c-a733-4cf5-8c8e-152497fe8f8f","ios":"levelo://app?vid=8a38320c-a733-4cf5-8c8e-152497fe8f8f"},"vehicle_type_id":"4","last_reported":1744114778,"current_range_meters":4800,"station_id":"ce4bhnh2rcd13ifvqgug","pricing_plan_id":"cebpf4jnsgd1na2vs0mg"},{"bike_id":"e4a07207-fed0-4e37-8539-48386b90c7e5","system_id":"levelo_inurba_marseille","lat":43.32542,"lon":5.41472,"is_reserved":false,"is_disabled":false,"rental_uris":{"android":"levelo://app?vid=e4a07207-fed0-4e37-8539-48386b90c7e5","ios":"levelo://app?vid=e4a07207-fed0-4e37-8539-48386b90c7e5"},"vehicle_type_id":"4","last_reported":1744114778,"current_range_meters":4800,"station_id":"ce4bhq12rcd13ifvqhhg","pricing_plan_id":"cebpf4jnsgd1na2vs0mg"},{"bike_id":"b1acf667-f399-4240-8547-7fa49a19c4fd","system_id":"levelo_inurba_marseille","lat":43.28415,"lon":5.34983,"is_reserved":false,"is_disabled":false,"rental_uris":{"android":"levelo://app?vid=b1acf667-f399-4240-8547-7fa49a19c4fd","ios":"levelo://app?vid=b1acf667-f399-4240-8547-7fa49a19c4fd"},"vehicle_type_id":"4","last_reported":1744114778,"current_range_meters":5600,"station_id":"ce4bhbh2rcd13ifvqepg","pricing_plan_id":"cebpf4jnsgd1na2vs0mg"},{"bike_id":"f3b83e8a-c65f-4f5d-8899-2b84c089f530","system_id":"levelo_inurba_marseille","lat":43.32108,"lon":5.3679,"is_reserved":false,"is_disabled":false,"rental_uris":{"android":"levelo://app?vid=f3b83e8a-c65f-4f5d-8899-2b84c089f530","ios":"levelo://app?vid=f3b83e8a-c65f-4f5d-8899-2b84c089f530"},"vehicle_type_id":"4","last_reported":1744114778,"current_range_meters":5600,"station_id":"ce4bhrh2rcd13ifvqhug","pricing_plan_id":"cebpf4jnsgd1na2vs0mg"},{"bike_id":"d8751d56-4c45-46a4-a597-4f4195894a6d","system_id":"levelo_inurba_marseille","lat":43.27379,"lon":5.36261,"is_reserved":false,"is_disabled":false,"rental_uris":{"android":"levelo://app?vid=d8751d56-4c45-46a4-a597-4f4195894a6d","ios":"levelo://app?vid=d8751d56-4c45-46a4-a597-4f4195894a6d"},"vehicle_type_id":"4","last_reported":1744114778,"current_range_meters":5600,"station_id":"ce4bhbh2rcd13ifvqeo0","pricing_plan_id":"cebpf4jnsgd1na2vs0mg"},{"bike_id":"ffd30803-8261-40db-9bfc-be1e30350a56","system_id":"levelo_inurba_marseille","lat":43.28106,"lon":5.37847,"is_reserved":false,"is_disabled":false,"rental_uris":{"android":"levelo://app?vid=ffd30803-8261-40db-9bfc-be1e30350a56","ios":"levelo://app?vid=ffd30803-8261-40db-9bfc-be1e30350a56"},"vehicle_type_id":"4","last_reported":1744114778,"current_range_meters":6000,"station_id":"ce4bha12rcd13ifvqee0","pricing_plan_id":"cebpf4jnsgd1na2vs0mg"},{"bike_id":"d1d3d353-b4c0-42d1-a9fa-6dc52075c4c2","system_id":"levelo_inurba_marseille","lat":43.27379,"lon":5.36256,"is_reserved":false,"is_disabled":false,"rental_uris":{"android":"levelo://app?vid=d1d3d353-b4c0-42d1-a9fa-6dc52075c4c2","ios":"levelo://app?vid=d1d3d353-b4c0-42d1-a9fa-6dc52075c4c2"},"vehicle_type_id":"4","last_reported":1744114778,"current_range_meters":6000,"station_id":"ce4bhbh2rcd13ifvqeo0","pricing_plan_id":"cebpf4jnsgd1na2vs0mg"},{"bike_id":"73276e73-379c-4215-bfe8-0a4cdf26f8fb","system_id":"levelo_inurba_marseille","lat":43.27361,"lon":5.36209,"is_reserved":false,"is_disabled":false,"rental_uris":{"android":"levelo://app?vid=73276e73-379c-4215-bfe8-0a4cdf26f8fb","ios":"levelo://app?vid=73276e73-379c-4215-bfe8-0a4cdf26f8fb"},"vehicle_type_id":"4","last_reported":1744114778,"current_range_meters":6000,"station_id":"","pricing_plan_id":"cebpf4jnsgd1na2vs0mg"},{"bike_id":"06d8c071-c15f-4628-bdf9-94c609b910a0","system_id":"levelo_inurba_marseille","lat":43.3361,"lon":5.40994,"is_reserved":false,"is_disabled":false,"rental_uris":{"android":"levelo://app?vid=06d8c071-c15f-4628-bdf9-94c609b910a0","ios":"levelo://app?vid=06d8c071-c15f-4628-bdf9-94c609b910a0"},"vehicle_type_id":"4","last_reported":1744114778,"current_range_meters":6000,"station_id":"ce4bhqh2rcd13ifvqhmg","pricing_plan_id":"cebpf4jnsgd1na2vs0mg"},{"bike_id":"abf828e0-bebc-4654-bc93-1d92f449deee","system_id":"levelo_inurba_marseille","lat":43.32362,"lon":5.36756,"is_reserved":false,"is_disabled":false,"rental_uris":{"android":"levelo://app?vid=abf828e0-bebc-4654-bc93-1d92f449deee","ios":"levelo://app?vid=abf828e0-bebc-4654-bc93-1d92f449deee"},"vehicle_type_id":"4","last_reported":1744114778,"current_range_meters":6400,"station_id":"ce4bhsh2rcd13ifvqi2g","pricing_plan_id":"cebpf4jnsgd1na2vs0mg"},{"bike_id":"7ae1c95c-1e2c-400a-8efd-618212ebe707","system_id":"levelo_inurba_marseille","lat":43.31654,"lon":5.38247,"is_reserved":false,"is_disabled":false,"rental_uris":{"android":"levelo://app?vid=7ae1c95c-1e2c-400a-8efd-618212ebe707","ios":"levelo://app?vid=7ae1c95c-1e2c-400a-8efd-618212ebe707"},"vehicle_type_id":"4","last_reported":1744114778,"current_range_meters":6400,"station_id":"","pricing_plan_id":"cebpf4jnsgd1na2vs0mg"},{"bike_id":"e48460fb-3224-4eac-9e04-d1085ece82da","system_id":"levelo_inurba_marseille","lat":43.29367,"lon":5.37836,"is_reserved":false,"is_disabled":false,"rental_uris":{"android":"levelo://app?vid=e48460fb-3224-4eac-9e04-d1085ece82da","ios":"levelo://app?vid=e48460fb-3224-4eac-9e04-d1085ece82da"},"vehicle_type_id":"4","last_reported":1744114778,"current_range_meters":6400,"station_id":"ce4bgjh2rcd13ifvqbf0","pricing_plan_id":"cebpf4jnsgd1na2vs0mg"},{"bike_id":"5f9e12f0-ba4c-4743-999a-9666a4915415","system_id":"levelo_inurba_marseille","lat":43.281014,"lon":5.378334,"is_reserved":false,"is_disabled":false,"rental_uris":{"android":"levelo://app?vid=5f9e12f0-ba4c-4743-999a-9666a4915415","ios":"levelo://app?vid=5f9e12f0-ba4c-4743-999a-9666a4915415"},"vehicle_type_id":"4","last_reported":1744114778,"current_range_meters":6800,"station_id":"ce4bha12rcd13ifvqee0","pricing_plan_id":"cebpf4jnsgd1na2vs0mg"},{"bike_id":"1ee9267b-f744-446a-8cd4-058aefc00413","system_id":"levelo_inurba_marseille","lat":43.27501,"lon":5.42456,"is_reserved":false,"is_disabled":false,"rental_uris":{"android":"levelo://app?vid=1ee9267b-f744-446a-8cd4-058aefc00413","ios":"levelo://app?vid=1ee9267b-f744-446a-8cd4-058aefc00413"},"vehicle_type_id":"4","last_reported":1744114778,"current_range_meters":6800,"station_id":"ce4bhn92rcd13ifvqgrg","pricing_plan_id":"cebpf4jnsgd1na2vs0mg"},{"bike_id":"159896c7-b7b5-4fb3-94c5-b269b0fa9a1f","system_id":"levelo_inurba_marseille","lat":43.23148,"lon":5.43726,"is_reserved":false,"is_disabled":false,"rental_uris":{"android":"levelo://app?vid=159896c7-b7b5-4fb3-94c5-b269b0fa9a1f","ios":"levelo://app?vid=159896c7-b7b5-4fb3-94c5-b269b0fa9a1f"},"vehicle_type_id":"4","last_reported":1744114778,"current_range_meters":6800,"station_id":"ce4bhmp2rcd13ifvqgog","pricing_plan_id":"cebpf4jnsgd1na2vs0mg"},{"bike_id":"87bda883-ac94-49fc-94c2-3a86e52b4f97","system_id":"levelo_inurba_marseille","lat":43.30734,"lon":5.38346,"is_reserved":false,"is_disabled":false,"rental_uris":{"android":"levelo://app?vid=87bda883-ac94-49fc-94c2-3a86e52b4f97","ios":"levelo://app?vid=87bda883-ac94-49fc-94c2-3a86e52b4f97"},"vehicle_type_id":"4","last_reported":1744114778,"current_range_meters":6800,"station_id":"","pricing_plan_id":"cebpf4jnsgd1na2vs0mg"},{"bike_id":"9f58fe17-7445-4171-ab8a-b7da8864df25","system_id":"levelo_inurba_marseille","lat":43.29897,"lon":5.43669,"is_reserved":false,"is_disabled":false,"rental_uris":{"android":"levelo://app?vid=9f58fe17-7445-4171-ab8a-b7da8864df25","ios":"levelo://app?vid=9f58fe17-7445-4171-ab8a-b7da8864df25"},"vehicle_type_id":"4","last_reported":1744114778,"current_range_meters":6800,"station_id":"ce4bhpp2rcd13ifvqhfg","pricing_plan_id":"cebpf4jnsgd1na2vs0mg"},{"bike_id":"cc057f14-b1e1-4dee-b107-8741c01c5964","system_id":"levelo_inurba_marseille","lat":43.320973,"lon":5.367787,"is_reserved":false,"is_disabled":true,"rental_uris":{"android":"levelo://app?vid=cc057f14-b1e1-4dee-b107-8741c01c5964","ios":"levelo://app?vid=cc057f14-b1e1-4dee-b107-8741c01c5964"},"vehicle_type_id":"4","last_reported":1744114778,"current_range_meters":6800,"station_id":"ce4bhrh2rcd13ifvqhug","pricing_plan_id":"cebpf4jnsgd1na2vs0mg"},{"bike_id":"278a03e2-f017-468a-921a-cf55062a69ca","system_id":"levelo_inurba_marseille","lat":43.309422,"lon":5.390398,"is_reserved":false,"is_disabled":false,"rental_uris":{"android":"levelo://app?vid=278a03e2-f017-468a-921a-cf55062a69ca","ios":"levelo://app?vid=278a03e2-f017-468a-921a-cf55062a69ca"},"vehicle_type_id":"4","last_reported":1744114778,"current_range_meters":7200,"station_id":"ce4bgup2rcd13ifvqco0","pricing_plan_id":"cebpf4jnsgd1na2vs0mg"},{"bike_id":"db77aa95-72db-470c-9c43-5322da612de8","system_id":"levelo_inurba_marseille","lat":43.31841,"lon":5.40198,"is_reserved":false,"is_disabled":false,"rental_uris":{"android":"levelo://app?vid=db77aa95-72db-470c-9c43-5322da612de8","ios":"levelo://app?vid=db77aa95-72db-470c-9c43-5322da612de8"},"vehicle_type_id":"4","last_reported":1744114778,"current_range_meters":7200,"station_id":"","pricing_plan_id":"cebpf4jnsgd1na2vs0mg"},{"bike_id":"a30cd826-ed38-4793-81fc-3a8af4f325de","system_id":"levelo_inurba_marseille","lat":43.2841,"lon":5.3498,"is_reserved":false,"is_disabled":false,"rental_uris":{"android":"levelo://app?vid=a30cd826-ed38-4793-81fc-3a8af4f325de","ios":"levelo://app?vid=a30cd826-ed38-4793-81fc-3a8af4f325de"},"vehicle_type_id":"4","last_reported":1744114778,"current_range_meters":7200,"station_id":"ce4bhbh2rcd13ifvqepg","pricing_plan_id":"cebpf4jnsgd1na2vs0mg"},{"bike_id":"cd577a70-1285-4212-be14-c738c01c14c9","system_id":"levelo_inurba_marseille","lat":43.3373,"lon":5.39181,"is_reserved":false,"is_disabled":false,"rental_uris":{"android":"levelo://app?vid=cd577a70-1285-4212-be14-c738c01c14c9","ios":"levelo://app?vid=cd577a70-1285-4212-be14-c738c01c14c9"},"vehicle_type_id":"4","last_reported":1744114778,"current_range_meters":7200,"station_id":"ce4bhr92rcd13ifvqhsg","pricing_plan_id":"cebpf4jnsgd1na2vs0mg"},{"bike_id":"9972aee6-4470-443a-8e14-c2078bb91c0d","system_id":"levelo_inurba_marseille","lat":43.31226,"lon":5.37093,"is_reserved":false,"is_disabled":false,"rental_uris":{"android":"levelo://app?vid=9972aee6-4470-443a-8e14-c2078bb91c0d","ios":"levelo://app?vid=9972aee6-4470-443a-8e14-c2078bb91c0d"},"vehicle_type_id":"4","last_reported":1744114778,"current_range_meters":7200,"station_id":"","pricing_plan_id":"cebpf4jnsgd1na2vs0mg"},{"bike_id":"e1e3e4d7-821d-4134-a13a-280ec3f9cbaa","system_id":"levelo_inurba_marseille","lat":43.32343,"lon":5.36697,"is_reserved":false,"is_disabled":false,"rental_uris":{"android":"levelo://app?vid=e1e3e4d7-821d-4134-a13a-280ec3f9cbaa","ios":"levelo://app?vid=e1e3e4d7-821d-4134-a13a-280ec3f9cbaa"},"vehicle_type_id":"4","last_reported":1744114778,"current_range_meters":7200,"station_id":"ce4bhsh2rcd13ifvqi2g","pricing_plan_id":"cebpf4jnsgd1na2vs0mg"},{"bike_id":"1beb47fb-f287-4516-a530-277403222a68","system_id":"levelo_inurba_marseille","lat":43.21746,"lon":5.34605,"is_reserved":false,"is_disabled":false,"rental_uris":{"android":"levelo://app?vid=1beb47fb-f287-4516-a530-277403222a68","ios":"levelo://app?vid=1beb47fb-f287-4516-a530-277403222a68"},"vehicle_type_id":"4","last_reported":1744114778,"current_range_meters":7200,"station_id":"","pricing_plan_id":"cebpf4jnsgd1na2vs0mg"},{"bike_id":"618a37e2-f6e2-4c60-b0f8-cd81b37822fc","system_id":"levelo_inurba_marseille","lat":43.29519,"lon":5.37502,"is_reserved":false,"is_disabled":false,"rental_uris":{"android":"levelo://app?vid=618a37e2-f6e2-4c60-b0f8-cd81b37822fc","ios":"levelo://app?vid=618a37e2-f6e2-4c60-b0f8-cd81b37822fc"},"vehicle_type_id":"4","last_reported":1744114778,"current_range_meters":8000,"station_id":"ce4bgkp2rcd13ifvqbmg","pricing_plan_id":"cebpf4jnsgd1na2vs0mg"},{"bike_id":"750bc9c2-8244-4f27-a571-77c62d7d6b92","system_id":"levelo_inurba_marseille","lat":43.31273,"lon":5.37746,"is_reserved":false,"is_disabled":false,"rental_uris":{"android":"levelo://app?vid=750bc9c2-8244-4f27-a571-77c62d7d6b92","ios":"levelo://app?vid=750bc9c2-8244-4f27-a571-77c62d7d6b92"},"vehicle_type_id":"4","last_reported":1744114778,"current_range_meters":8000,"station_id":"","pricing_plan_id":"cebpf4jnsgd1na2vs0mg"},{"bike_id":"7e2bfb3c-422b-4033-ada7-8c5491c48bc9","system_id":"levelo_inurba_marseille","lat":43.25082,"lon":5.39504,"is_reserved":false,"is_disabled":false,"rental_uris":{"android":"levelo://app?vid=7e2bfb3c-422b-4033-ada7-8c5491c48bc9","ios":"levelo://app?vid=7e2bfb3c-422b-4033-ada7-8c5491c48bc9"},"vehicle_type_id":"4","last_reported":1744114778,"current_range_meters":8000,"station_id":"ce4bhm12rcd13ifvqgkg","pricing_plan_id":"cebpf4jnsgd1na2vs0mg"},{"bike_id":"3cbad1fb-d71d-4e4f-90fa-c1465f9f9b65","system_id":"levelo_inurba_marseille","lat":43.211887,"lon":5.350735,"is_reserved":false,"is_disabled":true,"rental_uris":{"android":"levelo://app?vid=3cbad1fb-d71d-4e4f-90fa-c1465f9f9b65","ios":"levelo://app?vid=3cbad1fb-d71d-4e4f-90fa-c1465f9f9b65"},"vehicle_type_id":"4","last_reported":1744114778,"current_range_meters":8000,"station_id":"st_cvj6sg6p6f1abm77japg","pricing_plan_id":"cebpf4jnsgd1na2vs0mg"},{"bike_id":"4fe21798-e4d1-4985-bc15-6a7a89cb6541","system_id":"levelo_inurba_marseille","lat":43.211978,"lon":5.35075,"is_reserved":false,"is_disabled":false,"rental_uris":{"android":"levelo://app?vid=4fe21798-e4d1-4985-bc15-6a7a89cb6541","ios":"levelo://app?vid=4fe21798-e4d1-4985-bc15-6a7a89cb6541"},"vehicle_type_id":"4","last_reported":1744114778,"current_range_meters":8000,"station_id":"st_cvj6sg6p6f1abm77japg","pricing_plan_id":"cebpf4jnsgd1na2vs0mg"},{"bike_id":"88612524-8167-4fa9-ae7c-9dd44def2836","system_id":"levelo_inurba_marseille","lat":43.26067,"lon":5.394045,"is_reserved":false,"is_disabled":false,"rental_uris":{"android":"levelo://app?vid=88612524-8167-4fa9-ae7c-9dd44def2836","ios":"levelo://app?vid=88612524-8167-4fa9-ae7c-9dd44def2836"},"vehicle_type_id":"4","last_reported":1744114778,"current_range_meters":8000,"station_id":"ce4bhh92rcd13ifvqfj0","pricing_plan_id":"cebpf4jnsgd1na2vs0mg"},{"bike_id":"6728d58a-e40f-4e5a-98ea-421c1621acde","system_id":"levelo_inurba_marseille","lat":43.2791,"lon":5.38016,"is_reserved":false,"is_disabled":false,"rental_uris":{"android":"levelo://app?vid=6728d58a-e40f-4e5a-98ea-421c1621acde","ios":"levelo://app?vid=6728d58a-e40f-4e5a-98ea-421c1621acde"},"vehicle_type_id":"4","last_reported":1744114778,"current_range_meters":8000,"station_id":"ce4bhf92rcd13ifvqf50","pricing_plan_id":"cebpf4jnsgd1na2vs0mg"},{"bike_id":"9b46d657-9ae9-4624-89b7-54e0365d94c3","system_id":"levelo_inurba_marseille","lat":43.27376,"lon":5.36254,"is_reserved":false,"is_disabled":false,"rental_uris":{"android":"levelo://app?vid=9b46d657-9ae9-4624-89b7-54e0365d94c3","ios":"levelo://app?vid=9b46d657-9ae9-4624-89b7-54e0365d94c3"},"vehicle_type_id":"4","last_reported":1744114778,"current_range_meters":8000,"station_id":"ce4bhbh2rcd13ifvqeo0","pricing_plan_id":"cebpf4jnsgd1na2vs0mg"},{"bike_id":"687be906-ae2c-481a-9368-b20e1a0a2c3b","system_id":"levelo_inurba_marseille","lat":43.26198,"lon":5.37935,"is_reserved":false,"is_disabled":false,"rental_uris":{"android":"levelo://app?vid=687be906-ae2c-481a-9368-b20e1a0a2c3b","ios":"levelo://app?vid=687be906-ae2c-481a-9368-b20e1a0a2c3b"},"vehicle_type_id":"4","last_reported":1744114778,"current_range_meters":8400,"station_id":"ce4bhjp2rcd13ifvqg90","pricing_plan_id":"cebpf4jnsgd1na2vs0mg"},{"bike_id":"9fd9afcf-8606-4db3-b765-345a62705d71","system_id":"levelo_inurba_marseille","lat":43.27368,"lon":5.36259,"is_reserved":false,"is_disabled":false,"rental_uris":{"android":"levelo://app?vid=9fd9afcf-8606-4db3-b765-345a62705d71","ios":"levelo://app?vid=9fd9afcf-8606-4db3-b765-345a62705d71"},"vehicle_type_id":"4","last_reported":1744114778,"current_range_meters":8400,"station_id":"ce4bhbh2rcd13ifvqeo0","pricing_plan_id":"cebpf4jnsgd1na2vs0mg"},{"bike_id":"43a6e851-c3b6-44f5-a2ca-e63489086d6e","system_id":"levelo_inurba_marseille","lat":43.21745,"lon":5.34605,"is_reserved":false,"is_disabled":false,"rental_uris":{"android":"levelo://app?vid=43a6e851-c3b6-44f5-a2ca-e63489086d6e","ios":"levelo://app?vid=43a6e851-c3b6-44f5-a2ca-e63489086d6e"},"vehicle_type_id":"4","last_reported":1744114778,"current_range_meters":8400,"station_id":"","pricing_plan_id":"cebpf4jnsgd1na2vs0mg"},{"bike_id":"444a5f07-09c5-40f5-8d58-60f1f25c67b9","system_id":"levelo_inurba_marseille","lat":43.31971,"lon":5.38084,"is_reserved":false,"is_disabled":false,"rental_uris":{"android":"levelo://app?vid=444a5f07-09c5-40f5-8d58-60f1f25c67b9","ios":"levelo://app?vid=444a5f07-09c5-40f5-8d58-60f1f25c67b9"},"vehicle_type_id":"4","last_reported":1744114778,"current_range_meters":8400,"station_id":"","pricing_plan_id":"cebpf4jnsgd1na2vs0mg"},{"bike_id":"2cf1d705-ec03-47ac-b4af-04b3da068281","system_id":"levelo_inurba_marseille","lat":43.29519,"lon":5.37517,"is_reserved":false,"is_disabled":false,"rental_uris":{"android":"levelo://app?vid=2cf1d705-ec03-47ac-b4af-04b3da068281","ios":"levelo://app?vid=2cf1d705-ec03-47ac-b4af-04b3da068281"},"vehicle_type_id":"4","last_reported":1744114778,"current_range_meters":8800,"station_id":"ce4bgkp2rcd13ifvqbmg","pricing_plan_id":"cebpf4jnsgd1na2vs0mg"},{"bike_id":"ecef8e9e-03dc-4612-b74e-b978f92e2873","system_id":"levelo_inurba_marseille","lat":43.30096,"lon":5.39084,"is_reserved":false,"is_disabled":true,"rental_uris":{"android":"levelo://app?vid=ecef8e9e-03dc-4612-b74e-b978f92e2873","ios":"levelo://app?vid=ecef8e9e-03dc-4612-b74e-b978f92e2873"},"vehicle_type_id":"4","last_reported":1744114778,"current_range_meters":8800,"station_id":"ce4bh192rcd13ifvqdb0","pricing_plan_id":"cebpf4jnsgd1na2vs0mg"},{"bike_id":"fbe67b37-c354-48d2-992e-ea4e7e0cd273","system_id":"levelo_inurba_marseille","lat":43.24071,"lon":5.37767,"is_reserved":false,"is_disabled":false,"rental_uris":{"android":"levelo://app?vid=fbe67b37-c354-48d2-992e-ea4e7e0cd273","ios":"levelo://app?vid=fbe67b37-c354-48d2-992e-ea4e7e0cd273"},"vehicle_type_id":"4","last_reported":1744114778,"current_range_meters":8800,"station_id":"ce4bhnp2rcd13ifvqgvg","pricing_plan_id":"cebpf4jnsgd1na2vs0mg"},{"bike_id":"cf350222-2d93-4318-a820-870a23d03c0c","system_id":"levelo_inurba_marseille","lat":43.30371,"lon":5.42475,"is_reserved":false,"is_disabled":false,"rental_uris":{"android":"levelo://app?vid=cf350222-2d93-4318-a820-870a23d03c0c","ios":"levelo://app?vid=cf350222-2d93-4318-a820-870a23d03c0c"},"vehicle_type_id":"4","last_reported":1744114778,"current_range_meters":8800,"station_id":"ce4bhoh2rcd13ifvqh6g","pricing_plan_id":"cebpf4jnsgd1na2vs0mg"},{"bike_id":"f39be6f5-2f69-4c37-b021-559d20b299a4","system_id":"levelo_inurba_marseille","lat":43.30028,"lon":5.37659,"is_reserved":false,"is_disabled":false,"rental_uris":{"android":"levelo://app?vid=f39be6f5-2f69-4c37-b021-559d20b299a4","ios":"levelo://app?vid=f39be6f5-2f69-4c37-b021-559d20b299a4"},"vehicle_type_id":"4","last_reported":1744114778,"current_range_meters":8800,"station_id":"","pricing_plan_id":"cebpf4jnsgd1na2vs0mg"},{"bike_id":"f54ed993-fedb-455c-8329-424ac8299963","system_id":"levelo_inurba_marseille","lat":43.32336,"lon":5.36708,"is_reserved":false,"is_disabled":false,"rental_uris":{"android":"levelo://app?vid=f54ed993-fedb-455c-8329-424ac8299963","ios":"levelo://app?vid=f54ed993-fedb-455c-8329-424ac8299963"},"vehicle_type_id":"4","last_reported":1744114778,"current_range_meters":8800,"station_id":"ce4bhsh2rcd13ifvqi2g","pricing_plan_id":"cebpf4jnsgd1na2vs0mg"},{"bike_id":"2e9000dc-6400-4918-a994-dd60039ca96d","system_id":"levelo_inurba_marseille","lat":43.32,"lon":5.38148,"is_reserved":false,"is_disabled":true,"rental_uris":{"android":"levelo://app?vid=2e9000dc-6400-4918-a994-dd60039ca96d","ios":"levelo://app?vid=2e9000dc-6400-4918-a994-dd60039ca96d"},"vehicle_type_id":"4","last_reported":1744114778,"current_range_meters":8800,"station_id":"ce4bhr12rcd13ifvqhpg","pricing_plan_id":"cebpf4jnsgd1na2vs0mg"},{"bike_id":"d97d1148-3f5d-440d-ac71-55eebf29de4a","system_id":"levelo_inurba_marseille","lat":43.28423,"lon":5.3499,"is_reserved":false,"is_disabled":false,"rental_uris":{"android":"levelo://app?vid=d97d1148-3f5d-440d-ac71-55eebf29de4a","ios":"levelo://app?vid=d97d1148-3f5d-440d-ac71-55eebf29de4a"},"vehicle_type_id":"4","last_reported":1744114778,"current_range_meters":9200,"station_id":"ce4bhbh2rcd13ifvqepg","pricing_plan_id":"cebpf4jnsgd1na2vs0mg"},{"bike_id":"d1789c99-5c7c-4e88-9d29-ce771e783c08","system_id":"levelo_inurba_marseille","lat":43.31009,"lon":5.37746,"is_reserved":false,"is_disabled":false,"rental_uris":{"android":"levelo://app?vid=d1789c99-5c7c-4e88-9d29-ce771e783c08","ios":"levelo://app?vid=d1789c99-5c7c-4e88-9d29-ce771e783c08"},"vehicle_type_id":"4","last_reported":1744114778,"current_range_meters":9200,"station_id":"","pricing_plan_id":"cebpf4jnsgd1na2vs0mg"},{"bike_id":"b36be9d4-8e1d-416b-b82c-593a246a17e5","system_id":"levelo_inurba_marseille","lat":43.28717,"lon":5.37937,"is_reserved":false,"is_disabled":false,"rental_uris":{"android":"levelo://app?vid=b36be9d4-8e1d-416b-b82c-593a246a17e5","ios":"levelo://app?vid=b36be9d4-8e1d-416b-b82c-593a246a17e5"},"vehicle_type_id":"4","last_reported":1744114778,"current_range_meters":9200,"station_id":"ce4bh9p2rcd13ifvqec0","pricing_plan_id":"cebpf4jnsgd1na2vs0mg"},{"bike_id":"a6e96eb9-a766-450a-82dd-91071a4300cb","system_id":"levelo_inurba_marseille","lat":43.27377,"lon":5.36256,"is_reserved":false,"is_disabled":false,"rental_uris":{"android":"levelo://app?vid=a6e96eb9-a766-450a-82dd-91071a4300cb","ios":"levelo://app?vid=a6e96eb9-a766-450a-82dd-91071a4300cb"},"vehicle_type_id":"4","last_reported":1744114778,"current_range_meters":9200,"station_id":"ce4bhbh2rcd13ifvqeo0","pricing_plan_id":"cebpf4jnsgd1na2vs0mg"},{"bike_id":"3576b946-70b3-456f-a60a-d98e227f015c","system_id":"levelo_inurba_marseille","lat":43.30107,"lon":5.38217,"is_reserved":false,"is_disabled":false,"rental_uris":{"android":"levelo://app?vid=3576b946-70b3-456f-a60a-d98e227f015c","ios":"levelo://app?vid=3576b946-70b3-456f-a60a-d98e227f015c"},"vehicle_type_id":"4","last_reported":1744114778,"current_range_meters":9200,"station_id":"ce4bgup2rcd13ifvqcn0","pricing_plan_id":"cebpf4jnsgd1na2vs0mg"},{"bike_id":"c710665c-d080-449d-81c3-c6412d52b2fe","system_id":"levelo_inurba_marseille","lat":43.293087,"lon":5.37461,"is_reserved":false,"is_disabled":false,"rental_uris":{"android":"levelo://app?vid=c710665c-d080-449d-81c3-c6412d52b2fe","ios":"levelo://app?vid=c710665c-d080-449d-81c3-c6412d52b2fe"},"vehicle_type_id":"4","last_reported":1744114778,"current_range_meters":9200,"station_id":"ce4bgi12rcd13ifvqb70","pricing_plan_id":"cebpf4jnsgd1na2vs0mg"},{"bike_id":"91af7c49-4122-4f83-a08d-fc084211eb7b","system_id":"levelo_inurba_marseille","lat":43.31319,"lon":5.36753,"is_reserved":false,"is_disabled":false,"rental_uris":{"android":"levelo://app?vid=91af7c49-4122-4f83-a08d-fc084211eb7b","ios":"levelo://app?vid=91af7c49-4122-4f83-a08d-fc084211eb7b"},"vehicle_type_id":"4","last_reported":1744114778,"current_range_meters":9200,"station_id":"ce4bgr92rcd13ifvqc6g","pricing_plan_id":"cebpf4jnsgd1na2vs0mg"},{"bike_id":"dfbb63b7-6161-43fd-b404-c369824b3f62","system_id":"levelo_inurba_marseille","lat":43.24075,"lon":5.37762,"is_reserved":false,"is_disabled":false,"rental_uris":{"android":"levelo://app?vid=dfbb63b7-6161-43fd-b404-c369824b3f62","ios":"levelo://app?vid=dfbb63b7-6161-43fd-b404-c369824b3f62"},"vehicle_type_id":"4","last_reported":1744114778,"current_range_meters":9200,"station_id":"ce4bhnp2rcd13ifvqgvg","pricing_plan_id":"cebpf4jnsgd1na2vs0mg"},{"bike_id":"49e0cbb5-0f11-4cb1-a039-dec692cb761b","system_id":"levelo_inurba_marseille","lat":43.28627,"lon":5.35105,"is_reserved":false,"is_disabled":false,"rental_uris":{"android":"levelo://app?vid=49e0cbb5-0f11-4cb1-a039-dec692cb761b","ios":"levelo://app?vid=49e0cbb5-0f11-4cb1-a039-dec692cb761b"},"vehicle_type_id":"4","last_reported":1744114778,"current_range_meters":9200,"station_id":"ce4bhch2rcd13ifvqeug","pricing_plan_id":"cebpf4jnsgd1na2vs0mg"},{"bike_id":"dff0c398-5457-4c82-99b9-071db8607d47","system_id":"levelo_inurba_marseille","lat":43.25692,"lon":5.41926,"is_reserved":false,"is_disabled":false,"rental_uris":{"android":"levelo://app?vid=dff0c398-5457-4c82-99b9-071db8607d47","ios":"levelo://app?vid=dff0c398-5457-4c82-99b9-071db8607d47"},"vehicle_type_id":"4","last_reported":1744114778,"current_range_meters":9600,"station_id":"","pricing_plan_id":"cebpf4jnsgd1na2vs0mg"},{"bike_id":"f17ce36f-e80a-4732-89e2-7a7dfab19d87","system_id":"levelo_inurba_marseille","lat":43.29906,"lon":5.43688,"is_reserved":false,"is_disabled":false,"rental_uris":{"android":"levelo://app?vid=f17ce36f-e80a-4732-89e2-7a7dfab19d87","ios":"levelo://app?vid=f17ce36f-e80a-4732-89e2-7a7dfab19d87"},"vehicle_type_id":"4","last_reported":1744114778,"current_range_meters":9600,"station_id":"ce4bhpp2rcd13ifvqhfg","pricing_plan_id":"cebpf4jnsgd1na2vs0mg"},{"bike_id":"82f28cf6-556c-431d-a12b-bd3ce5fc2f28","system_id":"levelo_inurba_marseille","lat":43.27518,"lon":5.37758,"is_reserved":false,"is_disabled":false,"rental_uris":{"android":"levelo://app?vid=82f28cf6-556c-431d-a12b-bd3ce5fc2f28","ios":"levelo://app?vid=82f28cf6-556c-431d-a12b-bd3ce5fc2f28"},"vehicle_type_id":"4","last_reported":1744114778,"current_range_meters":9600,"station_id":"","pricing_plan_id":"cebpf4jnsgd1na2vs0mg"},{"bike_id":"bf4fbbc2-4042-4d3d-bb50-6ff46a7108f3","system_id":"levelo_inurba_marseille","lat":43.284154,"lon":5.349848,"is_reserved":false,"is_disabled":false,"rental_uris":{"android":"levelo://app?vid=bf4fbbc2-4042-4d3d-bb50-6ff46a7108f3","ios":"levelo://app?vid=bf4fbbc2-4042-4d3d-bb50-6ff46a7108f3"},"vehicle_type_id":"4","last_reported":1744114778,"current_range_meters":9600,"station_id":"ce4bhbh2rcd13ifvqepg","pricing_plan_id":"cebpf4jnsgd1na2vs0mg"},{"bike_id":"70810d3e-9936-4863-b211-84f880613e88","system_id":"levelo_inurba_marseille","lat":43.31292,"lon":5.37341,"is_reserved":false,"is_disabled":false,"rental_uris":{"android":"levelo://app?vid=70810d3e-9936-4863-b211-84f880613e88","ios":"levelo://app?vid=70810d3e-9936-4863-b211-84f880613e88"},"vehicle_type_id":"4","last_reported":1744114778,"current_range_meters":9600,"station_id":"","pricing_plan_id":"cebpf4jnsgd1na2vs0mg"},{"bike_id":"91280ebd-28ba-47b5-bd60-b9f91a82422d","system_id":"levelo_inurba_marseille","lat":43.3233,"lon":5.36704,"is_reserved":false,"is_disabled":false,"rental_uris":{"android":"levelo://app?vid=91280ebd-28ba-47b5-bd60-b9f91a82422d","ios":"levelo://app?vid=91280ebd-28ba-47b5-bd60-b9f91a82422d"},"vehicle_type_id":"4","last_reported":1744114778,"current_range_meters":9600,"station_id":"ce4bhsh2rcd13ifvqi2g","pricing_plan_id":"cebpf4jnsgd1na2vs0mg"},{"bike_id":"cfbc6b05-fc97-4f6f-bd90-0d6c8921f711","system_id":"levelo_inurba_marseille","lat":43.2668,"lon":5.38272,"is_reserved":false,"is_disabled":false,"rental_uris":{"android":"levelo://app?vid=cfbc6b05-fc97-4f6f-bd90-0d6c8921f711","ios":"levelo://app?vid=cfbc6b05-fc97-4f6f-bd90-0d6c8921f711"},"vehicle_type_id":"4","last_reported":1744114778,"current_range_meters":9600,"station_id":"ce4bhg92rcd13ifvqf90","pricing_plan_id":"cebpf4jnsgd1na2vs0mg"},{"bike_id":"34fb203d-8295-45d8-b8c0-de9760f593ae","system_id":"levelo_inurba_marseille","lat":43.270975,"lon":5.388588,"is_reserved":false,"is_disabled":false,"rental_uris":{"android":"levelo://app?vid=34fb203d-8295-45d8-b8c0-de9760f593ae","ios":"levelo://app?vid=34fb203d-8295-45d8-b8c0-de9760f593ae"},"vehicle_type_id":"4","last_reported":1744114778,"current_range_meters":10000,"station_id":"ce4bhh92rcd13ifvqfh0","pricing_plan_id":"cebpf4jnsgd1na2vs0mg"},{"bike_id":"8707e44c-dd0e-413f-87fc-7b5f1f4409c1","system_id":"levelo_inurba_marseille","lat":43.28851,"lon":5.3587,"is_reserved":false,"is_disabled":false,"rental_uris":{"android":"levelo://app?vid=8707e44c-dd0e-413f-87fc-7b5f1f4409c1","ios":"levelo://app?vid=8707e44c-dd0e-413f-87fc-7b5f1f4409c1"},"vehicle_type_id":"4","last_reported":1744114778,"current_range_meters":10000,"station_id":"ce4bhb12rcd13ifvqem0","pricing_plan_id":"cebpf4jnsgd1na2vs0mg"},{"bike_id":"89771962-fe60-4144-a8a6-39dd0f7b9fb3","system_id":"levelo_inurba_marseille","lat":43.21203,"lon":5.35078,"is_reserved":false,"is_disabled":false,"rental_uris":{"android":"levelo://app?vid=89771962-fe60-4144-a8a6-39dd0f7b9fb3","ios":"levelo://app?vid=89771962-fe60-4144-a8a6-39dd0f7b9fb3"},"vehicle_type_id":"4","last_reported":1744114778,"current_range_meters":10000,"station_id":"st_cvj6sg6p6f1abm77japg","pricing_plan_id":"cebpf4jnsgd1na2vs0mg"},{"bike_id":"42a2a0dd-e073-46d3-a004-33e2e45e3038","system_id":"levelo_inurba_marseille","lat":43.34154,"lon":5.40909,"is_reserved":false,"is_disabled":false,"rental_uris":{"android":"levelo://app?vid=42a2a0dd-e073-46d3-a004-33e2e45e3038","ios":"levelo://app?vid=42a2a0dd-e073-46d3-a004-33e2e45e3038"},"vehicle_type_id":"4","last_reported":1744114778,"current_range_meters":10800,"station_id":"ce4bhqh2rcd13ifvqhlg","pricing_plan_id":"cebpf4jnsgd1na2vs0mg"},{"bike_id":"dbf25181-7087-4d19-b165-a51d187ab120","system_id":"levelo_inurba_marseille","lat":43.30312,"lon":5.36903,"is_reserved":false,"is_disabled":false,"rental_uris":{"android":"levelo://app?vid=dbf25181-7087-4d19-b165-a51d187ab120","ios":"levelo://app?vid=dbf25181-7087-4d19-b165-a51d187ab120"},"vehicle_type_id":"4","last_reported":1744114778,"current_range_meters":10800,"station_id":"ce4bgqh2rcd13ifvqc5g","pricing_plan_id":"cebpf4jnsgd1na2vs0mg"},{"bike_id":"9b8fc28f-7e71-4da9-98e7-a42775d41cd8","system_id":"levelo_inurba_marseille","lat":43.28413,"lon":5.34999,"is_reserved":false,"is_disabled":false,"rental_uris":{"android":"levelo://app?vid=9b8fc28f-7e71-4da9-98e7-a42775d41cd8","ios":"levelo://app?vid=9b8fc28f-7e71-4da9-98e7-a42775d41cd8"},"vehicle_type_id":"4","last_reported":1744114778,"current_range_meters":10800,"station_id":"ce4bhbh2rcd13ifvqepg","pricing_plan_id":"cebpf4jnsgd1na2vs0mg"},{"bike_id":"57c4e6e8-026a-4350-b996-12df6b497807","system_id":"levelo_inurba_marseille","lat":43.29613,"lon":5.37718,"is_reserved":false,"is_disabled":true,"rental_uris":{"android":"levelo://app?vid=57c4e6e8-026a-4350-b996-12df6b497807","ios":"levelo://app?vid=57c4e6e8-026a-4350-b996-12df6b497807"},"vehicle_type_id":"4","last_reported":1744114778,"current_range_meters":10800,"station_id":"ce4bgi92rcd13ifvqb90","pricing_plan_id":"cebpf4jnsgd1na2vs0mg"},{"bike_id":"f2f8031e-8acf-441f-a6b8-4b845409031c","system_id":"levelo_inurba_marseille","lat":43.2737,"lon":5.3625,"is_reserved":false,"is_disabled":false,"rental_uris":{"android":"levelo://app?vid=f2f8031e-8acf-441f-a6b8-4b845409031c","ios":"levelo://app?vid=f2f8031e-8acf-441f-a6b8-4b845409031c"},"vehicle_type_id":"4","last_reported":1744114778,"current_range_meters":10800,"station_id":"ce4bhbh2rcd13ifvqeo0","pricing_plan_id":"cebpf4jnsgd1na2vs0mg"},{"bike_id":"1c16ce55-fc77-44db-8b14-5e0e03e28ace","system_id":"levelo_inurba_marseille","lat":43.284187,"lon":5.349722,"is_reserved":false,"is_disabled":false,"rental_uris":{"android":"levelo://app?vid=1c16ce55-fc77-44db-8b14-5e0e03e28ace","ios":"levelo://app?vid=1c16ce55-fc77-44db-8b14-5e0e03e28ace"},"vehicle_type_id":"4","last_reported":1744114778,"current_range_meters":10800,"station_id":"","pricing_plan_id":"cebpf4jnsgd1na2vs0mg"},{"bike_id":"a6244c43-f289-465a-a70b-bd519fbe945b","system_id":"levelo_inurba_marseille","lat":43.28133,"lon":5.42712,"is_reserved":false,"is_disabled":false,"rental_uris":{"android":"levelo://app?vid=a6244c43-f289-465a-a70b-bd519fbe945b","ios":"levelo://app?vid=a6244c43-f289-465a-a70b-bd519fbe945b"},"vehicle_type_id":"4","last_reported":1744114778,"current_range_meters":10800,"station_id":"","pricing_plan_id":"cebpf4jnsgd1na2vs0mg"},{"bike_id":"14031425-56fe-4d59-8635-56f17d050a85","system_id":"levelo_inurba_marseille","lat":43.21748,"lon":5.34606,"is_reserved":false,"is_disabled":false,"rental_uris":{"android":"levelo://app?vid=14031425-56fe-4d59-8635-56f17d050a85","ios":"levelo://app?vid=14031425-56fe-4d59-8635-56f17d050a85"},"vehicle_type_id":"4","last_reported":1744114778,"current_range_meters":11200,"station_id":"","pricing_plan_id":"cebpf4jnsgd1na2vs0mg"},{"bike_id":"a613de97-0090-4415-bf45-b9a7dfc2a534","system_id":"levelo_inurba_marseille","lat":43.24163,"lon":5.36399,"is_reserved":false,"is_disabled":false,"rental_uris":{"android":"levelo://app?vid=a613de97-0090-4415-bf45-b9a7dfc2a534","ios":"levelo://app?vid=a613de97-0090-4415-bf45-b9a7dfc2a534"},"vehicle_type_id":"4","last_reported":1744114778,"current_range_meters":11200,"station_id":"cpo36qri1sfpv3e86is0","pricing_plan_id":"cebpf4jnsgd1na2vs0mg"},{"bike_id":"68d1cc33-0218-451e-8e10-d32225c21263","system_id":"levelo_inurba_marseille","lat":43.23165,"lon":5.43698,"is_reserved":false,"is_disabled":true,"rental_uris":{"android":"levelo://app?vid=68d1cc33-0218-451e-8e10-d32225c21263","ios":"levelo://app?vid=68d1cc33-0218-451e-8e10-d32225c21263"},"vehicle_type_id":"4","last_reported":1744114778,"current_range_meters":11200,"station_id":"ce4bhmp2rcd13ifvqgog","pricing_plan_id":"cebpf4jnsgd1na2vs0mg"},{"bike_id":"585af01f-3fe2-48b3-8ca5-5688632eceb3","system_id":"levelo_inurba_marseille","lat":43.29966,"lon":5.37184,"is_reserved":false,"is_disabled":false,"rental_uris":{"android":"levelo://app?vid=585af01f-3fe2-48b3-8ca5-5688632eceb3","ios":"levelo://app?vid=585af01f-3fe2-48b3-8ca5-5688632eceb3"},"vehicle_type_id":"4","last_reported":1744114778,"current_range_meters":11200,"station_id":"ce4bgr92rcd13ifvqc7g","pricing_plan_id":"cebpf4jnsgd1na2vs0mg"},{"bike_id":"cf1ff944-6ec6-45c5-ad6f-1a6c9a1154b0","system_id":"levelo_inurba_marseille","lat":43.309,"lon":5.36866,"is_reserved":false,"is_disabled":false,"rental_uris":{"android":"levelo://app?vid=cf1ff944-6ec6-45c5-ad6f-1a6c9a1154b0","ios":"levelo://app?vid=cf1ff944-6ec6-45c5-ad6f-1a6c9a1154b0"},"vehicle_type_id":"4","last_reported":1744114778,"current_range_meters":11200,"station_id":"ce4bgn92rcd13ifvqbvg","pricing_plan_id":"cebpf4jnsgd1na2vs0mg"},{"bike_id":"78c04c2c-a598-4e86-b339-c5a9e8294151","system_id":"levelo_inurba_marseille","lat":43.27971,"lon":5.38743,"is_reserved":false,"is_disabled":false,"rental_uris":{"android":"levelo://app?vid=78c04c2c-a598-4e86-b339-c5a9e8294151","ios":"levelo://app?vid=78c04c2c-a598-4e86-b339-c5a9e8294151"},"vehicle_type_id":"4","last_reported":1744114778,"current_range_meters":9600,"station_id":"ce4bhg12rcd13ifvqf80","pricing_plan_id":"cebpf4jnsgd1na2vs0mg"},{"bike_id":"0748ce16-1dbb-4683-afb9-eabebbdfd5a5","system_id":"levelo_inurba_marseille","lat":43.2922,"lon":5.40043,"is_reserved":false,"is_disabled":false,"rental_uris":{"android":"levelo://app?vid=0748ce16-1dbb-4683-afb9-eabebbdfd5a5","ios":"levelo://app?vid=0748ce16-1dbb-4683-afb9-eabebbdfd5a5"},"vehicle_type_id":"4","last_reported":1744114778,"current_range_meters":11600,"station_id":"","pricing_plan_id":"cebpf4jnsgd1na2vs0mg"},{"bike_id":"ee22328b-554a-4b1a-b84c-e86b9e5143a2","system_id":"levelo_inurba_marseille","lat":43.27373,"lon":5.36248,"is_reserved":false,"is_disabled":false,"rental_uris":{"android":"levelo://app?vid=ee22328b-554a-4b1a-b84c-e86b9e5143a2","ios":"levelo://app?vid=ee22328b-554a-4b1a-b84c-e86b9e5143a2"},"vehicle_type_id":"4","last_reported":1744114778,"current_range_meters":11600,"station_id":"ce4bhbh2rcd13ifvqeo0","pricing_plan_id":"cebpf4jnsgd1na2vs0mg"},{"bike_id":"0aa02c49-cbb3-4907-a588-f754056f3ba8","system_id":"levelo_inurba_marseille","lat":43.30818,"lon":5.38156,"is_reserved":false,"is_disabled":true,"rental_uris":{"android":"levelo://app?vid=0aa02c49-cbb3-4907-a588-f754056f3ba8","ios":"levelo://app?vid=0aa02c49-cbb3-4907-a588-f754056f3ba8"},"vehicle_type_id":"4","last_reported":1744114778,"current_range_meters":11600,"station_id":"ce4bgt12rcd13ifvqce0","pricing_plan_id":"cebpf4jnsgd1na2vs0mg"},{"bike_id":"65fcbb35-f94c-4eda-8aae-880ee014924c","system_id":"levelo_inurba_marseille","lat":43.23132,"lon":5.4375,"is_reserved":false,"is_disabled":false,"rental_uris":{"android":"levelo://app?vid=65fcbb35-f94c-4eda-8aae-880ee014924c","ios":"levelo://app?vid=65fcbb35-f94c-4eda-8aae-880ee014924c"},"vehicle_type_id":"4","last_reported":1744114778,"current_range_meters":11600,"station_id":"","pricing_plan_id":"cebpf4jnsgd1na2vs0mg"},{"bike_id":"d46e5bcc-bebe-4e68-85ae-1b5c7bda16d2","system_id":"levelo_inurba_marseille","lat":43.255,"lon":5.37662,"is_reserved":false,"is_disabled":false,"rental_uris":{"android":"levelo://app?vid=d46e5bcc-bebe-4e68-85ae-1b5c7bda16d2","ios":"levelo://app?vid=d46e5bcc-bebe-4e68-85ae-1b5c7bda16d2"},"vehicle_type_id":"4","last_reported":1744114778,"current_range_meters":11600,"station_id":"ce4bhh12rcd13ifvqff0","pricing_plan_id":"cebpf4jnsgd1na2vs0mg"},{"bike_id":"8d662803-8ed4-47d3-86e1-ce846568914f","system_id":"levelo_inurba_marseille","lat":43.29277,"lon":5.36855,"is_reserved":false,"is_disabled":false,"rental_uris":{"android":"levelo://app?vid=8d662803-8ed4-47d3-86e1-ce846568914f","ios":"levelo://app?vid=8d662803-8ed4-47d3-86e1-ce846568914f"},"vehicle_type_id":"4","last_reported":1744114778,"current_range_meters":11600,"station_id":"ce4bhbp2rcd13ifvqesg","pricing_plan_id":"cebpf4jnsgd1na2vs0mg"},{"bike_id":"4bacdaaa-7fb4-452a-b873-94dd24624c9a","system_id":"levelo_inurba_marseille","lat":43.314054,"lon":5.366847,"is_reserved":false,"is_disabled":false,"rental_uris":{"android":"levelo://app?vid=4bacdaaa-7fb4-452a-b873-94dd24624c9a","ios":"levelo://app?vid=4bacdaaa-7fb4-452a-b873-94dd24624c9a"},"vehicle_type_id":"4","last_reported":1744114778,"current_range_meters":11600,"station_id":"","pricing_plan_id":"cebpf4jnsgd1na2vs0mg"},{"bike_id":"93e3fd92-d65f-4f36-ba40-a3e5476ebc87","system_id":"levelo_inurba_marseille","lat":43.30681,"lon":5.36587,"is_reserved":false,"is_disabled":false,"rental_uris":{"android":"levelo://app?vid=93e3fd92-d65f-4f36-ba40-a3e5476ebc87","ios":"levelo://app?vid=93e3fd92-d65f-4f36-ba40-a3e5476ebc87"},"vehicle_type_id":"4","last_reported":1744114778,"current_range_meters":12000,"station_id":"","pricing_plan_id":"cebpf4jnsgd1na2vs0mg"},{"bike_id":"23792fb4-f68a-4e35-bda7-d8fab30ff0f4","system_id":"levelo_inurba_marseille","lat":43.29046,"lon":5.39968,"is_reserved":false,"is_disabled":false,"rental_uris":{"android":"levelo://app?vid=23792fb4-f68a-4e35-bda7-d8fab30ff0f4","ios":"levelo://app?vid=23792fb4-f68a-4e35-bda7-d8fab30ff0f4"},"vehicle_type_id":"4","last_reported":1744114778,"current_range_meters":12000,"station_id":"ce4bh392rcd13ifvqdm0","pricing_plan_id":"cebpf4jnsgd1na2vs0mg"},{"bike_id":"558e296e-9873-4ef8-b885-457aa4263e86","system_id":"levelo_inurba_marseille","lat":43.30599,"lon":5.37231,"is_reserved":false,"is_disabled":false,"rental_uris":{"android":"levelo://app?vid=558e296e-9873-4ef8-b885-457aa4263e86","ios":"levelo://app?vid=558e296e-9873-4ef8-b885-457aa4263e86"},"vehicle_type_id":"4","last_reported":1744114778,"current_range_meters":12000,"station_id":"ce4bgqh2rcd13ifvqc4g","pricing_plan_id":"cebpf4jnsgd1na2vs0mg"},{"bike_id":"c3630dcc-a388-42c7-afda-1641d68b05bd","system_id":"levelo_inurba_marseille","lat":43.30192,"lon":5.36627,"is_reserved":false,"is_disabled":false,"rental_uris":{"android":"levelo://app?vid=c3630dcc-a388-42c7-afda-1641d68b05bd","ios":"levelo://app?vid=c3630dcc-a388-42c7-afda-1641d68b05bd"},"vehicle_type_id":"4","last_reported":1744114778,"current_range_meters":12000,"station_id":"ce4bgrh2rcd13ifvqc8g","pricing_plan_id":"cebpf4jnsgd1na2vs0mg"},{"bike_id":"583aff7a-d1eb-475d-b0a5-743049ce2944","system_id":"levelo_inurba_marseille","lat":43.29218,"lon":5.35788,"is_reserved":false,"is_disabled":false,"rental_uris":{"android":"levelo://app?vid=583aff7a-d1eb-475d-b0a5-743049ce2944","ios":"levelo://app?vid=583aff7a-d1eb-475d-b0a5-743049ce2944"},"vehicle_type_id":"4","last_reported":1744114778,"current_range_meters":12000,"station_id":"ce4bhb12rcd13ifvqel0","pricing_plan_id":"cebpf4jnsgd1na2vs0mg"},{"bike_id":"8727f6da-5157-4526-8bb9-259e3b5c64d3","system_id":"levelo_inurba_marseille","lat":43.290038,"lon":5.356151,"is_reserved":false,"is_disabled":false,"rental_uris":{"android":"levelo://app?vid=8727f6da-5157-4526-8bb9-259e3b5c64d3","ios":"levelo://app?vid=8727f6da-5157-4526-8bb9-259e3b5c64d3"},"vehicle_type_id":"4","last_reported":1744114778,"current_range_meters":12000,"station_id":"ce4bgjp2rcd13ifvqbh0","pricing_plan_id":"cebpf4jnsgd1na2vs0mg"},{"bike_id":"7f57af42-f188-44b7-9c24-0312efb31d67","system_id":"levelo_inurba_marseille","lat":43.27049,"lon":5.40262,"is_reserved":false,"is_disabled":false,"rental_uris":{"android":"levelo://app?vid=7f57af42-f188-44b7-9c24-0312efb31d67","ios":"levelo://app?vid=7f57af42-f188-44b7-9c24-0312efb31d67"},"vehicle_type_id":"4","last_reported":1744114778,"current_range_meters":12000,"station_id":"ce4bhk92rcd13ifvqgc0","pricing_plan_id":"cebpf4jnsgd1na2vs0mg"},{"bike_id":"7be51339-241c-4884-a225-e90905995c74","system_id":"levelo_inurba_marseille","lat":43.30286,"lon":5.37699,"is_reserved":false,"is_disabled":false,"rental_uris":{"android":"levelo://app?vid=7be51339-241c-4884-a225-e90905995c74","ios":"levelo://app?vid=7be51339-241c-4884-a225-e90905995c74"},"vehicle_type_id":"4","last_reported":1744114778,"current_range_meters":12000,"station_id":"ce4bguh2rcd13ifvqcj0","pricing_plan_id":"cebpf4jnsgd1na2vs0mg"},{"bike_id":"e43bd664-d142-4570-90b5-ca5d996caadf","system_id":"levelo_inurba_marseille","lat":43.309507,"lon":5.390351,"is_reserved":false,"is_disabled":false,"rental_uris":{"android":"levelo://app?vid=e43bd664-d142-4570-90b5-ca5d996caadf","ios":"levelo://app?vid=e43bd664-d142-4570-90b5-ca5d996caadf"},"vehicle_type_id":"4","last_reported":1744114778,"current_range_meters":9600,"station_id":"ce4bgr92rcd13ifvqc7g","pricing_plan_id":"cebpf4jnsgd1na2vs0mg"},{"bike_id":"905c3b0c-516a-4df1-896f-88a5f462ac48","system_id":"levelo_inurba_marseille","lat":43.29202,"lon":5.39328,"is_reserved":false,"is_disabled":false,"rental_uris":{"android":"levelo://app?vid=905c3b0c-516a-4df1-896f-88a5f462ac48","ios":"levelo://app?vid=905c3b0c-516a-4df1-896f-88a5f462ac48"},"vehicle_type_id":"4","last_reported":1744114778,"current_range_meters":12000,"station_id":"ce4bh192rcd13ifvqdd0","pricing_plan_id":"cebpf4jnsgd1na2vs0mg"},{"bike_id":"cdfc5357-eac2-40e6-a72b-ad9a594e2bf3","system_id":"levelo_inurba_marseille","lat":43.27976,"lon":5.387456,"is_reserved":false,"is_disabled":false,"rental_uris":{"android":"levelo://app?vid=cdfc5357-eac2-40e6-a72b-ad9a594e2bf3","ios":"levelo://app?vid=cdfc5357-eac2-40e6-a72b-ad9a594e2bf3"},"vehicle_type_id":"4","last_reported":1744114778,"current_range_meters":12400,"station_id":"ce4bhg12rcd13ifvqf80","pricing_plan_id":"cebpf4jnsgd1na2vs0mg"},{"bike_id":"311ffc55-dc15-4f2b-8075-3136d92a3444","system_id":"levelo_inurba_marseille","lat":43.21203,"lon":5.35078,"is_reserved":false,"is_disabled":false,"rental_uris":{"android":"levelo://app?vid=311ffc55-dc15-4f2b-8075-3136d92a3444","ios":"levelo://app?vid=311ffc55-dc15-4f2b-8075-3136d92a3444"},"vehicle_type_id":"4","last_reported":1744114778,"current_range_meters":12400,"station_id":"st_cvj6sg6p6f1abm77japg","pricing_plan_id":"cebpf4jnsgd1na2vs0mg"},{"bike_id":"1ca7d0c4-b7aa-4350-ad9f-4e24c2ba029a","system_id":"levelo_inurba_marseille","lat":43.30378,"lon":5.42487,"is_reserved":false,"is_disabled":true,"rental_uris":{"android":"levelo://app?vid=1ca7d0c4-b7aa-4350-ad9f-4e24c2ba029a","ios":"levelo://app?vid=1ca7d0c4-b7aa-4350-ad9f-4e24c2ba029a"},"vehicle_type_id":"4","last_reported":1744114778,"current_range_meters":12400,"station_id":"ce4bhoh2rcd13ifvqh6g","pricing_plan_id":"cebpf4jnsgd1na2vs0mg"},{"bike_id":"5b808185-0a5a-48a8-8a34-81f7ce536aa8","system_id":"levelo_inurba_marseille","lat":43.28419,"lon":5.34996,"is_reserved":false,"is_disabled":false,"rental_uris":{"android":"levelo://app?vid=5b808185-0a5a-48a8-8a34-81f7ce536aa8","ios":"levelo://app?vid=5b808185-0a5a-48a8-8a34-81f7ce536aa8"},"vehicle_type_id":"4","last_reported":1744114778,"current_range_meters":12400,"station_id":"ce4bhbh2rcd13ifvqepg","pricing_plan_id":"cebpf4jnsgd1na2vs0mg"},{"bike_id":"08f9c0c8-8b33-4578-8a03-20f44d582241","system_id":"levelo_inurba_marseille","lat":43.30593,"lon":5.37212,"is_reserved":false,"is_disabled":false,"rental_uris":{"android":"levelo://app?vid=08f9c0c8-8b33-4578-8a03-20f44d582241","ios":"levelo://app?vid=08f9c0c8-8b33-4578-8a03-20f44d582241"},"vehicle_type_id":"4","last_reported":1744114778,"current_range_meters":12400,"station_id":"ce4bgqh2rcd13ifvqc4g","pricing_plan_id":"cebpf4jnsgd1na2vs0mg"},{"bike_id":"9a3c4ff8-f5c8-4d8b-ae50-149dbbabf923","system_id":"levelo_inurba_marseille","lat":43.284883,"lon":5.385789,"is_reserved":false,"is_disabled":false,"rental_uris":{"android":"levelo://app?vid=9a3c4ff8-f5c8-4d8b-ae50-149dbbabf923","ios":"levelo://app?vid=9a3c4ff8-f5c8-4d8b-ae50-149dbbabf923"},"vehicle_type_id":"4","last_reported":1744114778,"current_range_meters":12400,"station_id":"ce4bhah2rcd13ifvqej0","pricing_plan_id":"cebpf4jnsgd1na2vs0mg"},{"bike_id":"f143ff2e-721e-493c-bcdc-a7d2cc09ad81","system_id":"levelo_inurba_marseille","lat":43.31011,"lon":5.37756,"is_reserved":false,"is_disabled":true,"rental_uris":{"android":"levelo://app?vid=f143ff2e-721e-493c-bcdc-a7d2cc09ad81","ios":"levelo://app?vid=f143ff2e-721e-493c-bcdc-a7d2cc09ad81"},"vehicle_type_id":"4","last_reported":1744114778,"current_range_meters":12400,"station_id":"","pricing_plan_id":"cebpf4jnsgd1na2vs0mg"},{"bike_id":"79f7c742-7a07-41c2-8d72-e26332499f67","system_id":"levelo_inurba_marseille","lat":43.28421,"lon":5.34989,"is_reserved":false,"is_disabled":false,"rental_uris":{"android":"levelo://app?vid=79f7c742-7a07-41c2-8d72-e26332499f67","ios":"levelo://app?vid=79f7c742-7a07-41c2-8d72-e26332499f67"},"vehicle_type_id":"4","last_reported":1744114778,"current_range_meters":12400,"station_id":"ce4bhbh2rcd13ifvqepg","pricing_plan_id":"cebpf4jnsgd1na2vs0mg"},{"bike_id":"5d05c612-3d10-4f83-8d58-992b2142bc1a","system_id":"levelo_inurba_marseille","lat":43.283504,"lon":5.381083,"is_reserved":false,"is_disabled":false,"rental_uris":{"android":"levelo://app?vid=5d05c612-3d10-4f83-8d58-992b2142bc1a","ios":"levelo://app?vid=5d05c612-3d10-4f83-8d58-992b2142bc1a"},"vehicle_type_id":"4","last_reported":1744114778,"current_range_meters":12800,"station_id":"","pricing_plan_id":"cebpf4jnsgd1na2vs0mg"},{"bike_id":"37956fe4-5744-431d-afa2-d35a2b0e9346","system_id":"levelo_inurba_marseille","lat":43.31364,"lon":5.36713,"is_reserved":false,"is_disabled":false,"rental_uris":{"android":"levelo://app?vid=37956fe4-5744-431d-afa2-d35a2b0e9346","ios":"levelo://app?vid=37956fe4-5744-431d-afa2-d35a2b0e9346"},"vehicle_type_id":"4","last_reported":1744114778,"current_range_meters":12800,"station_id":"ce4bgr92rcd13ifvqc6g","pricing_plan_id":"cebpf4jnsgd1na2vs0mg"},{"bike_id":"f72f75a5-43f0-45ff-942a-fd3cc84b7d49","system_id":"levelo_inurba_marseille","lat":43.27372,"lon":5.3625,"is_reserved":false,"is_disabled":false,"rental_uris":{"android":"levelo://app?vid=f72f75a5-43f0-45ff-942a-fd3cc84b7d49","ios":"levelo://app?vid=f72f75a5-43f0-45ff-942a-fd3cc84b7d49"},"vehicle_type_id":"4","last_reported":1744114778,"current_range_meters":12800,"station_id":"ce4bhbh2rcd13ifvqeo0","pricing_plan_id":"cebpf4jnsgd1na2vs0mg"},{"bike_id":"e01eadc0-c3c2-48f6-8253-f241e5cace41","system_id":"levelo_inurba_marseille","lat":43.24166,"lon":5.36395,"is_reserved":false,"is_disabled":false,"rental_uris":{"android":"levelo://app?vid=e01eadc0-c3c2-48f6-8253-f241e5cace41","ios":"levelo://app?vid=e01eadc0-c3c2-48f6-8253-f241e5cace41"},"vehicle_type_id":"4","last_reported":1744114778,"current_range_meters":12800,"station_id":"cpo36qri1sfpv3e86is0","pricing_plan_id":"cebpf4jnsgd1na2vs0mg"},{"bike_id":"4af48280-972e-4331-a42c-8ad0c9df46e1","system_id":"levelo_inurba_marseille","lat":43.27373,"lon":5.36258,"is_reserved":false,"is_disabled":false,"rental_uris":{"android":"levelo://app?vid=4af48280-972e-4331-a42c-8ad0c9df46e1","ios":"levelo://app?vid=4af48280-972e-4331-a42c-8ad0c9df46e1"},"vehicle_type_id":"4","last_reported":1744114778,"current_range_meters":12800,"station_id":"ce4bhbh2rcd13ifvqeo0","pricing_plan_id":"cebpf4jnsgd1na2vs0mg"},{"bike_id":"3c0bc8e6-e01a-4c86-9548-0adc3597e1cc","system_id":"levelo_inurba_marseille","lat":43.24165,"lon":5.36395,"is_reserved":false,"is_disabled":false,"rental_uris":{"android":"levelo://app?vid=3c0bc8e6-e01a-4c86-9548-0adc3597e1cc","ios":"levelo://app?vid=3c0bc8e6-e01a-4c86-9548-0adc3597e1cc"},"vehicle_type_id":"4","last_reported":1744114778,"current_range_meters":13600,"station_id":"cpo36qri1sfpv3e86is0","pricing_plan_id":"cebpf4jnsgd1na2vs0mg"},{"bike_id":"b397701f-0d3d-44bf-ab3e-3ccc7e74fb2e","system_id":"levelo_inurba_marseille","lat":43.26423,"lon":5.42288,"is_reserved":false,"is_disabled":false,"rental_uris":{"android":"levelo://app?vid=b397701f-0d3d-44bf-ab3e-3ccc7e74fb2e","ios":"levelo://app?vid=b397701f-0d3d-44bf-ab3e-3ccc7e74fb2e"},"vehicle_type_id":"4","last_reported":1744114778,"current_range_meters":13600,"station_id":"","pricing_plan_id":"cebpf4jnsgd1na2vs0mg"},{"bike_id":"67f5402e-84ba-4cca-bae1-1308d8bfce95","system_id":"levelo_inurba_marseille","lat":43.32366,"lon":5.36767,"is_reserved":false,"is_disabled":true,"rental_uris":{"android":"levelo://app?vid=67f5402e-84ba-4cca-bae1-1308d8bfce95","ios":"levelo://app?vid=67f5402e-84ba-4cca-bae1-1308d8bfce95"},"vehicle_type_id":"4","last_reported":1744114778,"current_range_meters":14000,"station_id":"ce4bhsh2rcd13ifvqi2g","pricing_plan_id":"cebpf4jnsgd1na2vs0mg"},{"bike_id":"4f7cc0ea-9568-4e0d-a7b4-648ee7dd97f5","system_id":"levelo_inurba_marseille","lat":43.28662,"lon":5.36333,"is_reserved":false,"is_disabled":false,"rental_uris":{"android":"levelo://app?vid=4f7cc0ea-9568-4e0d-a7b4-648ee7dd97f5","ios":"levelo://app?vid=4f7cc0ea-9568-4e0d-a7b4-648ee7dd97f5"},"vehicle_type_id":"4","last_reported":1744114778,"current_range_meters":16400,"station_id":"ce4bhah2rcd13ifvqej0","pricing_plan_id":"cebpf4jnsgd1na2vs0mg"},{"bike_id":"d2dc3c3e-3aa8-4ed9-b8e2-a365c221c2f8","system_id":"levelo_inurba_marseille","lat":43.2668,"lon":5.38269,"is_reserved":false,"is_disabled":false,"rental_uris":{"android":"levelo://app?vid=d2dc3c3e-3aa8-4ed9-b8e2-a365c221c2f8","ios":"levelo://app?vid=d2dc3c3e-3aa8-4ed9-b8e2-a365c221c2f8"},"vehicle_type_id":"4","last_reported":1744114778,"current_range_meters":14000,"station_id":"ce4bhg92rcd13ifvqf90","pricing_plan_id":"cebpf4jnsgd1na2vs0mg"},{"bike_id":"980b4909-06e8-4961-a7b7-ea7871482c8f","system_id":"levelo_inurba_marseille","lat":43.31385,"lon":5.36695,"is_reserved":false,"is_disabled":false,"rental_uris":{"android":"levelo://app?vid=980b4909-06e8-4961-a7b7-ea7871482c8f","ios":"levelo://app?vid=980b4909-06e8-4961-a7b7-ea7871482c8f"},"vehicle_type_id":"4","last_reported":1744114778,"current_range_meters":14000,"station_id":"","pricing_plan_id":"cebpf4jnsgd1na2vs0mg"},{"bike_id":"45b610f5-7b3b-4c12-9745-65cd2477acdd","system_id":"levelo_inurba_marseille","lat":43.31492,"lon":5.37311,"is_reserved":false,"is_disabled":false,"rental_uris":{"android":"levelo://app?vid=45b610f5-7b3b-4c12-9745-65cd2477acdd","ios":"levelo://app?vid=45b610f5-7b3b-4c12-9745-65cd2477acdd"},"vehicle_type_id":"4","last_reported":1744114778,"current_range_meters":14800,"station_id":"ce4bgt12rcd13ifvqcd0","pricing_plan_id":"cebpf4jnsgd1na2vs0mg"},{"bike_id":"e369bf82-6cc6-437c-90e2-7dde304cbc2f","system_id":"levelo_inurba_marseille","lat":43.2417,"lon":5.36388,"is_reserved":false,"is_disabled":false,"rental_uris":{"android":"levelo://app?vid=e369bf82-6cc6-437c-90e2-7dde304cbc2f","ios":"levelo://app?vid=e369bf82-6cc6-437c-90e2-7dde304cbc2f"},"vehicle_type_id":"4","last_reported":1744114778,"current_range_meters":14400,"station_id":"cpo36qri1sfpv3e86is0","pricing_plan_id":"cebpf4jnsgd1na2vs0mg"},{"bike_id":"1cbd9f7f-2979-44a7-ad92-36256a058183","system_id":"levelo_inurba_marseille","lat":43.28732,"lon":5.36081,"is_reserved":false,"is_disabled":false,"rental_uris":{"android":"levelo://app?vid=1cbd9f7f-2979-44a7-ad92-36256a058183","ios":"levelo://app?vid=1cbd9f7f-2979-44a7-ad92-36256a058183"},"vehicle_type_id":"4","last_reported":1744114778,"current_range_meters":14400,"station_id":"cki0cbj6b192h4jlfktg","pricing_plan_id":"cebpf4jnsgd1na2vs0mg"},{"bike_id":"e170ea4c-a3c8-43a5-845f-ebc8c0eadcfe","system_id":"levelo_inurba_marseille","lat":43.23064,"lon":5.35506,"is_reserved":false,"is_disabled":false,"rental_uris":{"android":"levelo://app?vid=e170ea4c-a3c8-43a5-845f-ebc8c0eadcfe","ios":"levelo://app?vid=e170ea4c-a3c8-43a5-845f-ebc8c0eadcfe"},"vehicle_type_id":"4","last_reported":1744114778,"current_range_meters":14800,"station_id":"","pricing_plan_id":"cebpf4jnsgd1na2vs0mg"},{"bike_id":"d9a00655-9937-4e00-82fd-08f0f84632ce","system_id":"levelo_inurba_marseille","lat":43.28368,"lon":5.38642,"is_reserved":false,"is_disabled":false,"rental_uris":{"android":"levelo://app?vid=d9a00655-9937-4e00-82fd-08f0f84632ce","ios":"levelo://app?vid=d9a00655-9937-4e00-82fd-08f0f84632ce"},"vehicle_type_id":"4","last_reported":1744114778,"current_range_meters":14800,"station_id":"ce4bh492rcd13ifvqdvg","pricing_plan_id":"cebpf4jnsgd1na2vs0mg"},{"bike_id":"f06cc6a2-b760-45e1-b3b5-304a22868541","system_id":"levelo_inurba_marseille","lat":43.30559,"lon":5.36535,"is_reserved":false,"is_disabled":false,"rental_uris":{"android":"levelo://app?vid=f06cc6a2-b760-45e1-b3b5-304a22868541","ios":"levelo://app?vid=f06cc6a2-b760-45e1-b3b5-304a22868541"},"vehicle_type_id":"4","last_reported":1744114778,"current_range_meters":15200,"station_id":"ce4bgs12rcd13ifvqcag","pricing_plan_id":"cebpf4jnsgd1na2vs0mg"},{"bike_id":"852819f8-8577-46de-b1fa-432b264e47e4","system_id":"levelo_inurba_marseille","lat":43.24158,"lon":5.39743,"is_reserved":false,"is_disabled":false,"rental_uris":{"android":"levelo://app?vid=852819f8-8577-46de-b1fa-432b264e47e4","ios":"levelo://app?vid=852819f8-8577-46de-b1fa-432b264e47e4"},"vehicle_type_id":"4","last_reported":1744114778,"current_range_meters":15200,"station_id":"ce4bhn12rcd13ifvqgpg","pricing_plan_id":"cebpf4jnsgd1na2vs0mg"},{"bike_id":"a2905b9f-4c92-4ffe-b595-17e3c8468bc5","system_id":"levelo_inurba_marseille","lat":43.30506,"lon":5.36422,"is_reserved":false,"is_disabled":false,"rental_uris":{"android":"levelo://app?vid=a2905b9f-4c92-4ffe-b595-17e3c8468bc5","ios":"levelo://app?vid=a2905b9f-4c92-4ffe-b595-17e3c8468bc5"},"vehicle_type_id":"4","last_reported":1744114778,"current_range_meters":15200,"station_id":"","pricing_plan_id":"cebpf4jnsgd1na2vs0mg"},{"bike_id":"938af3aa-4626-4b76-ab6f-c46a6f371448","system_id":"levelo_inurba_marseille","lat":43.21192,"lon":5.35074,"is_reserved":false,"is_disabled":false,"rental_uris":{"android":"levelo://app?vid=938af3aa-4626-4b76-ab6f-c46a6f371448","ios":"levelo://app?vid=938af3aa-4626-4b76-ab6f-c46a6f371448"},"vehicle_type_id":"4","last_reported":1744114778,"current_range_meters":15200,"station_id":"st_cvj6sg6p6f1abm77japg","pricing_plan_id":"cebpf4jnsgd1na2vs0mg"},{"bike_id":"bb2cc12d-a04e-4f9d-b52c-dad9ebd3d6bc","system_id":"levelo_inurba_marseille","lat":43.25005,"lon":5.38923,"is_reserved":false,"is_disabled":false,"rental_uris":{"android":"levelo://app?vid=bb2cc12d-a04e-4f9d-b52c-dad9ebd3d6bc","ios":"levelo://app?vid=bb2cc12d-a04e-4f9d-b52c-dad9ebd3d6bc"},"vehicle_type_id":"4","last_reported":1744114778,"current_range_meters":15200,"station_id":"ce4bhgp2rcd13ifvqfd0","pricing_plan_id":"cebpf4jnsgd1na2vs0mg"},{"bike_id":"d361f743-f3da-47a0-bd53-82820e867ed2","system_id":"levelo_inurba_marseille","lat":43.295502,"lon":5.393654,"is_reserved":false,"is_disabled":false,"rental_uris":{"android":"levelo://app?vid=d361f743-f3da-47a0-bd53-82820e867ed2","ios":"levelo://app?vid=d361f743-f3da-47a0-bd53-82820e867ed2"},"vehicle_type_id":"4","last_reported":1744114778,"current_range_meters":16000,"station_id":"ce4bh192rcd13ifvqdc0","pricing_plan_id":"cebpf4jnsgd1na2vs0mg"},{"bike_id":"e24c6fd3-f9cb-40c7-9e57-dd2c20540e9b","system_id":"levelo_inurba_marseille","lat":43.31741,"lon":5.42406,"is_reserved":false,"is_disabled":false,"rental_uris":{"android":"levelo://app?vid=e24c6fd3-f9cb-40c7-9e57-dd2c20540e9b","ios":"levelo://app?vid=e24c6fd3-f9cb-40c7-9e57-dd2c20540e9b"},"vehicle_type_id":"4","last_reported":1744114778,"current_range_meters":16000,"station_id":"","pricing_plan_id":"cebpf4jnsgd1na2vs0mg"},{"bike_id":"601b3f65-9002-4f12-b17f-669dc1b8fba1","system_id":"levelo_inurba_marseille","lat":43.279804,"lon":5.386824,"is_reserved":false,"is_disabled":false,"rental_uris":{"android":"levelo://app?vid=601b3f65-9002-4f12-b17f-669dc1b8fba1","ios":"levelo://app?vid=601b3f65-9002-4f12-b17f-669dc1b8fba1"},"vehicle_type_id":"4","last_reported":1744114778,"current_range_meters":16000,"station_id":"ce4bhg12rcd13ifvqf80","pricing_plan_id":"cebpf4jnsgd1na2vs0mg"},{"bike_id":"2f00b3d6-eadc-463f-916d-9ed0d1045fd0","system_id":"levelo_inurba_marseille","lat":43.30547,"lon":5.3653,"is_reserved":false,"is_disabled":false,"rental_uris":{"android":"levelo://app?vid=2f00b3d6-eadc-463f-916d-9ed0d1045fd0","ios":"levelo://app?vid=2f00b3d6-eadc-463f-916d-9ed0d1045fd0"},"vehicle_type_id":"4","last_reported":1744114778,"current_range_meters":16000,"station_id":"ce4bgs12rcd13ifvqcag","pricing_plan_id":"cebpf4jnsgd1na2vs0mg"},{"bike_id":"ef0a3543-503d-4c84-90a9-997137654be3","system_id":"levelo_inurba_marseille","lat":43.27813,"lon":5.40707,"is_reserved":false,"is_disabled":false,"rental_uris":{"android":"levelo://app?vid=ef0a3543-503d-4c84-90a9-997137654be3","ios":"levelo://app?vid=ef0a3543-503d-4c84-90a9-997137654be3"},"vehicle_type_id":"4","last_reported":1744114778,"current_range_meters":16000,"station_id":"ce4bhnh2rcd13ifvqgtg","pricing_plan_id":"cebpf4jnsgd1na2vs0mg"},{"bike_id":"b3eaef5b-dac9-4f1e-aa7e-dd808d1ba556","system_id":"levelo_inurba_marseille","lat":43.313414,"lon":5.367218,"is_reserved":false,"is_disabled":false,"rental_uris":{"android":"levelo://app?vid=b3eaef5b-dac9-4f1e-aa7e-dd808d1ba556","ios":"levelo://app?vid=b3eaef5b-dac9-4f1e-aa7e-dd808d1ba556"},"vehicle_type_id":"4","last_reported":1744114778,"current_range_meters":16000,"station_id":"ce4bgr92rcd13ifvqc6g","pricing_plan_id":"cebpf4jnsgd1na2vs0mg"},{"bike_id":"f803935a-7a8a-4d2b-826e-9d542705b391","system_id":"levelo_inurba_marseille","lat":43.28405,"lon":5.34997,"is_reserved":false,"is_disabled":false,"rental_uris":{"android":"levelo://app?vid=f803935a-7a8a-4d2b-826e-9d542705b391","ios":"levelo://app?vid=f803935a-7a8a-4d2b-826e-9d542705b391"},"vehicle_type_id":"4","last_reported":1744114778,"current_range_meters":16000,"station_id":"ce4bhbh2rcd13ifvqepg","pricing_plan_id":"cebpf4jnsgd1na2vs0mg"},{"bike_id":"d220da27-bb5e-4ca4-b262-16736cac0246","system_id":"levelo_inurba_marseille","lat":43.28423,"lon":5.34984,"is_reserved":false,"is_disabled":false,"rental_uris":{"android":"levelo://app?vid=d220da27-bb5e-4ca4-b262-16736cac0246","ios":"levelo://app?vid=d220da27-bb5e-4ca4-b262-16736cac0246"},"vehicle_type_id":"4","last_reported":1744114778,"current_range_meters":16400,"station_id":"ce4bhbh2rcd13ifvqepg","pricing_plan_id":"cebpf4jnsgd1na2vs0mg"},{"bike_id":"8dc06958-10fa-45f8-809b-5508915ea9ec","system_id":"levelo_inurba_marseille","lat":43.29581,"lon":5.36743,"is_reserved":false,"is_disabled":false,"rental_uris":{"android":"levelo://app?vid=8dc06958-10fa-45f8-809b-5508915ea9ec","ios":"levelo://app?vid=8dc06958-10fa-45f8-809b-5508915ea9ec"},"vehicle_type_id":"4","last_reported":1744114778,"current_range_meters":16400,"station_id":"ce4bgph2rcd13ifvqc2g","pricing_plan_id":"cebpf4jnsgd1na2vs0mg"},{"bike_id":"ffd23061-d90c-47a4-89fb-f1646bcdff1c","system_id":"levelo_inurba_marseille","lat":43.27068,"lon":5.4228,"is_reserved":false,"is_disabled":false,"rental_uris":{"android":"levelo://app?vid=ffd23061-d90c-47a4-89fb-f1646bcdff1c","ios":"levelo://app?vid=ffd23061-d90c-47a4-89fb-f1646bcdff1c"},"vehicle_type_id":"4","last_reported":1744114778,"current_range_meters":16400,"station_id":"ce4bhk92rcd13ifvqgb0","pricing_plan_id":"cebpf4jnsgd1na2vs0mg"},{"bike_id":"e41e3d45-5795-4963-8a5e-14be782be993","system_id":"levelo_inurba_marseille","lat":43.30527,"lon":5.36507,"is_reserved":false,"is_disabled":false,"rental_uris":{"android":"levelo://app?vid=e41e3d45-5795-4963-8a5e-14be782be993","ios":"levelo://app?vid=e41e3d45-5795-4963-8a5e-14be782be993"},"vehicle_type_id":"4","last_reported":1744114778,"current_range_meters":16400,"station_id":"ce4bgs12rcd13ifvqcag","pricing_plan_id":"cebpf4jnsgd1na2vs0mg"},{"bike_id":"8de911fb-750c-45f4-afe3-d7903f67d759","system_id":"levelo_inurba_marseille","lat":43.28421,"lon":5.34943,"is_reserved":false,"is_disabled":false,"rental_uris":{"android":"levelo://app?vid=8de911fb-750c-45f4-afe3-d7903f67d759","ios":"levelo://app?vid=8de911fb-750c-45f4-afe3-d7903f67d759"},"vehicle_type_id":"4","last_reported":1744114778,"current_range_meters":16400,"station_id":"ce4bhbh2rcd13ifvqepg","pricing_plan_id":"cebpf4jnsgd1na2vs0mg"},{"bike_id":"92c822fe-ff9f-4023-a7a2-fe479a6e58f0","system_id":"levelo_inurba_marseille","lat":43.30537,"lon":5.36546,"is_reserved":false,"is_disabled":false,"rental_uris":{"android":"levelo://app?vid=92c822fe-ff9f-4023-a7a2-fe479a6e58f0","ios":"levelo://app?vid=92c822fe-ff9f-4023-a7a2-fe479a6e58f0"},"vehicle_type_id":"4","last_reported":1744114778,"current_range_meters":16800,"station_id":"ce4bgs12rcd13ifvqcag","pricing_plan_id":"cebpf4jnsgd1na2vs0mg"},{"bike_id":"29df65cb-cb30-41ec-97ca-6b4ef1710992","system_id":"levelo_inurba_marseille","lat":43.29715,"lon":5.37692,"is_reserved":false,"is_disabled":false,"rental_uris":{"android":"levelo://app?vid=29df65cb-cb30-41ec-97ca-6b4ef1710992","ios":"levelo://app?vid=29df65cb-cb30-41ec-97ca-6b4ef1710992"},"vehicle_type_id":"4","last_reported":1744114778,"current_range_meters":16800,"station_id":"ce4bgkh2rcd13ifvqbl0","pricing_plan_id":"cebpf4jnsgd1na2vs0mg"},{"bike_id":"d8113386-14ca-4162-acd1-ee527e101b8a","system_id":"levelo_inurba_marseille","lat":43.25586,"lon":5.3823,"is_reserved":false,"is_disabled":false,"rental_uris":{"android":"levelo://app?vid=d8113386-14ca-4162-acd1-ee527e101b8a","ios":"levelo://app?vid=d8113386-14ca-4162-acd1-ee527e101b8a"},"vehicle_type_id":"4","last_reported":1744114778,"current_range_meters":16800,"station_id":"ce4bhih2rcd13ifvqfs0","pricing_plan_id":"cebpf4jnsgd1na2vs0mg"},{"bike_id":"22e056a8-18ad-4430-bb62-ce0fed444dd0","system_id":"levelo_inurba_marseille","lat":43.30287,"lon":5.37702,"is_reserved":false,"is_disabled":false,"rental_uris":{"android":"levelo://app?vid=22e056a8-18ad-4430-bb62-ce0fed444dd0","ios":"levelo://app?vid=22e056a8-18ad-4430-bb62-ce0fed444dd0"},"vehicle_type_id":"4","last_reported":1744114778,"current_range_meters":16800,"station_id":"ce4bguh2rcd13ifvqcj0","pricing_plan_id":"cebpf4jnsgd1na2vs0mg"},{"bike_id":"ea7e7e0c-2bd5-4f8e-b85a-5aa23bcd9632","system_id":"levelo_inurba_marseille","lat":43.3014,"lon":5.37424,"is_reserved":false,"is_disabled":false,"rental_uris":{"android":"levelo://app?vid=ea7e7e0c-2bd5-4f8e-b85a-5aa23bcd9632","ios":"levelo://app?vid=ea7e7e0c-2bd5-4f8e-b85a-5aa23bcd9632"},"vehicle_type_id":"4","last_reported":1744114778,"current_range_meters":16800,"station_id":"ce4bgs92rcd13ifvqcc0","pricing_plan_id":"cebpf4jnsgd1na2vs0mg"},{"bike_id":"3656c20c-eb1e-4ae4-9294-cf1933f151b7","system_id":"levelo_inurba_marseille","lat":43.2417,"lon":5.39722,"is_reserved":false,"is_disabled":false,"rental_uris":{"android":"levelo://app?vid=3656c20c-eb1e-4ae4-9294-cf1933f151b7","ios":"levelo://app?vid=3656c20c-eb1e-4ae4-9294-cf1933f151b7"},"vehicle_type_id":"4","last_reported":1744114778,"current_range_meters":17200,"station_id":"ce4bhn12rcd13ifvqgpg","pricing_plan_id":"cebpf4jnsgd1na2vs0mg"},{"bike_id":"6457813b-91c8-4881-a63f-4f6ecbd16b2f","system_id":"levelo_inurba_marseille","lat":43.28613,"lon":5.35104,"is_reserved":false,"is_disabled":false,"rental_uris":{"android":"levelo://app?vid=6457813b-91c8-4881-a63f-4f6ecbd16b2f","ios":"levelo://app?vid=6457813b-91c8-4881-a63f-4f6ecbd16b2f"},"vehicle_type_id":"4","last_reported":1744114778,"current_range_meters":17200,"station_id":"ce4bhch2rcd13ifvqeug","pricing_plan_id":"cebpf4jnsgd1na2vs0mg"},{"bike_id":"c72d0a38-9e20-495f-b7a7-40f1d9c9429e","system_id":"levelo_inurba_marseille","lat":43.307916,"lon":5.373744,"is_reserved":false,"is_disabled":false,"rental_uris":{"android":"levelo://app?vid=c72d0a38-9e20-495f-b7a7-40f1d9c9429e","ios":"levelo://app?vid=c72d0a38-9e20-495f-b7a7-40f1d9c9429e"},"vehicle_type_id":"4","last_reported":1744114778,"current_range_meters":17200,"station_id":"ce4bguh2rcd13ifvqckg","pricing_plan_id":"cebpf4jnsgd1na2vs0mg"},{"bike_id":"74ae02cd-6f13-430a-8897-407fdaa15b1b","system_id":"levelo_inurba_marseille","lat":43.29199,"lon":5.35805,"is_reserved":false,"is_disabled":false,"rental_uris":{"android":"levelo://app?vid=74ae02cd-6f13-430a-8897-407fdaa15b1b","ios":"levelo://app?vid=74ae02cd-6f13-430a-8897-407fdaa15b1b"},"vehicle_type_id":"4","last_reported":1744114778,"current_range_meters":17200,"station_id":"ce4bhb12rcd13ifvqel0","pricing_plan_id":"cebpf4jnsgd1na2vs0mg"},{"bike_id":"d5c0918c-4021-4f5a-a2cb-a74b493b3636","system_id":"levelo_inurba_marseille","lat":43.24158,"lon":5.36397,"is_reserved":false,"is_disabled":false,"rental_uris":{"android":"levelo://app?vid=d5c0918c-4021-4f5a-a2cb-a74b493b3636","ios":"levelo://app?vid=d5c0918c-4021-4f5a-a2cb-a74b493b3636"},"vehicle_type_id":"4","last_reported":1744114778,"current_range_meters":17200,"station_id":"cpo36qri1sfpv3e86is0","pricing_plan_id":"cebpf4jnsgd1na2vs0mg"},{"bike_id":"eb33559f-217f-4c57-ae43-fac6ec8ab3fd","system_id":"levelo_inurba_marseille","lat":43.29635,"lon":5.40587,"is_reserved":false,"is_disabled":false,"rental_uris":{"android":"levelo://app?vid=eb33559f-217f-4c57-ae43-fac6ec8ab3fd","ios":"levelo://app?vid=eb33559f-217f-4c57-ae43-fac6ec8ab3fd"},"vehicle_type_id":"4","last_reported":1744114778,"current_range_meters":17200,"station_id":"ce4bh0h2rcd13ifvqd60","pricing_plan_id":"cebpf4jnsgd1na2vs0mg"},{"bike_id":"a39ff9c3-8391-4246-bc08-bfe789d104d3","system_id":"levelo_inurba_marseille","lat":43.3122,"lon":5.36863,"is_reserved":false,"is_disabled":false,"rental_uris":{"android":"levelo://app?vid=a39ff9c3-8391-4246-bc08-bfe789d104d3","ios":"levelo://app?vid=a39ff9c3-8391-4246-bc08-bfe789d104d3"},"vehicle_type_id":"4","last_reported":1744114778,"current_range_meters":17200,"station_id":"ce4bgl92rcd13ifvqbq0","pricing_plan_id":"cebpf4jnsgd1na2vs0mg"},{"bike_id":"5273534c-3473-4abd-9c4b-e677a5c1499a","system_id":"levelo_inurba_marseille","lat":43.2907,"lon":5.36947,"is_reserved":false,"is_disabled":false,"rental_uris":{"android":"levelo://app?vid=5273534c-3473-4abd-9c4b-e677a5c1499a","ios":"levelo://app?vid=5273534c-3473-4abd-9c4b-e677a5c1499a"},"vehicle_type_id":"4","last_reported":1744114778,"current_range_meters":17200,"station_id":"","pricing_plan_id":"cebpf4jnsgd1na2vs0mg"},{"bike_id":"1e099cf5-9456-4ac3-8d36-9153ce8a87f2","system_id":"levelo_inurba_marseille","lat":43.29573,"lon":5.39982,"is_reserved":false,"is_disabled":true,"rental_uris":{"android":"levelo://app?vid=1e099cf5-9456-4ac3-8d36-9153ce8a87f2","ios":"levelo://app?vid=1e099cf5-9456-4ac3-8d36-9153ce8a87f2"},"vehicle_type_id":"4","last_reported":1744114778,"current_range_meters":17600,"station_id":"ce4bh312rcd13ifvqdj0","pricing_plan_id":"cebpf4jnsgd1na2vs0mg"},{"bike_id":"7dd8e149-d2f7-4d25-a319-e094826fc80f","system_id":"levelo_inurba_marseille","lat":43.30946,"lon":5.39027,"is_reserved":false,"is_disabled":false,"rental_uris":{"android":"levelo://app?vid=7dd8e149-d2f7-4d25-a319-e094826fc80f","ios":"levelo://app?vid=7dd8e149-d2f7-4d25-a319-e094826fc80f"},"vehicle_type_id":"4","last_reported":1744114778,"current_range_meters":17600,"station_id":"ce4bgup2rcd13ifvqco0","pricing_plan_id":"cebpf4jnsgd1na2vs0mg"},{"bike_id":"ad0ffa71-34fe-45a7-bf4c-e33cb25ec4af","system_id":"levelo_inurba_marseille","lat":43.30552,"lon":5.36712,"is_reserved":false,"is_disabled":false,"rental_uris":{"android":"levelo://app?vid=ad0ffa71-34fe-45a7-bf4c-e33cb25ec4af","ios":"levelo://app?vid=ad0ffa71-34fe-45a7-bf4c-e33cb25ec4af"},"vehicle_type_id":"4","last_reported":1744114778,"current_range_meters":17600,"station_id":"ce4bgrp2rcd13ifvqc9g","pricing_plan_id":"cebpf4jnsgd1na2vs0mg"},{"bike_id":"346f92cb-751c-42be-aba3-a1d2b76ea7e2","system_id":"levelo_inurba_marseille","lat":43.31713,"lon":5.37741,"is_reserved":false,"is_disabled":false,"rental_uris":{"android":"levelo://app?vid=346f92cb-751c-42be-aba3-a1d2b76ea7e2","ios":"levelo://app?vid=346f92cb-751c-42be-aba3-a1d2b76ea7e2"},"vehicle_type_id":"4","last_reported":1744114778,"current_range_meters":17600,"station_id":"ce4bgth2rcd13ifvqch0","pricing_plan_id":"cebpf4jnsgd1na2vs0mg"},{"bike_id":"dbfa32e4-24da-4d08-a578-195394b3cd2f","system_id":"levelo_inurba_marseille","lat":43.32366,"lon":5.367575,"is_reserved":false,"is_disabled":false,"rental_uris":{"android":"levelo://app?vid=dbfa32e4-24da-4d08-a578-195394b3cd2f","ios":"levelo://app?vid=dbfa32e4-24da-4d08-a578-195394b3cd2f"},"vehicle_type_id":"4","last_reported":1744114778,"current_range_meters":17600,"station_id":"ce4bhsh2rcd13ifvqi2g","pricing_plan_id":"cebpf4jnsgd1na2vs0mg"},{"bike_id":"0dbe92b9-1cab-4ce1-9fc5-0159f65f47f6","system_id":"levelo_inurba_marseille","lat":43.29264,"lon":5.40911,"is_reserved":false,"is_disabled":false,"rental_uris":{"android":"levelo://app?vid=0dbe92b9-1cab-4ce1-9fc5-0159f65f47f6","ios":"levelo://app?vid=0dbe92b9-1cab-4ce1-9fc5-0159f65f47f6"},"vehicle_type_id":"4","last_reported":1744114778,"current_range_meters":18000,"station_id":"ce4bh192rcd13ifvqdc0","pricing_plan_id":"cebpf4jnsgd1na2vs0mg"},{"bike_id":"f619c15e-1941-443d-8ef4-21a7cd257551","system_id":"levelo_inurba_marseille","lat":43.30548,"lon":5.36683,"is_reserved":false,"is_disabled":false,"rental_uris":{"android":"levelo://app?vid=f619c15e-1941-443d-8ef4-21a7cd257551","ios":"levelo://app?vid=f619c15e-1941-443d-8ef4-21a7cd257551"},"vehicle_type_id":"4","last_reported":1744114778,"current_range_meters":18000,"station_id":"ce4bgrp2rcd13ifvqc9g","pricing_plan_id":"cebpf4jnsgd1na2vs0mg"},{"bike_id":"00c027e9-0871-4e50-a692-c6c0bbd52b76","system_id":"levelo_inurba_marseille","lat":43.26212,"lon":5.3744,"is_reserved":false,"is_disabled":false,"rental_uris":{"android":"levelo://app?vid=00c027e9-0871-4e50-a692-c6c0bbd52b76","ios":"levelo://app?vid=00c027e9-0871-4e50-a692-c6c0bbd52b76"},"vehicle_type_id":"4","last_reported":1744114778,"current_range_meters":18000,"station_id":"ce4bhgp2rcd13ifvqfc0","pricing_plan_id":"cebpf4jnsgd1na2vs0mg"},{"bike_id":"2565c1f2-af69-4163-87cb-75bad58a5fbc","system_id":"levelo_inurba_marseille","lat":43.24384,"lon":5.37055,"is_reserved":false,"is_disabled":false,"rental_uris":{"android":"levelo://app?vid=2565c1f2-af69-4163-87cb-75bad58a5fbc","ios":"levelo://app?vid=2565c1f2-af69-4163-87cb-75bad58a5fbc"},"vehicle_type_id":"4","last_reported":1744114778,"current_range_meters":18000,"station_id":"ce4bhhh2rcd13ifvqfk0","pricing_plan_id":"cebpf4jnsgd1na2vs0mg"},{"bike_id":"8da7e182-e861-4dc8-b9db-124368a227c9","system_id":"levelo_inurba_marseille","lat":43.33027,"lon":5.39039,"is_reserved":false,"is_disabled":false,"rental_uris":{"android":"levelo://app?vid=8da7e182-e861-4dc8-b9db-124368a227c9","ios":"levelo://app?vid=8da7e182-e861-4dc8-b9db-124368a227c9"},"vehicle_type_id":"4","last_reported":1744114778,"current_range_meters":18000,"station_id":"ce4bhr92rcd13ifvqhrg","pricing_plan_id":"cebpf4jnsgd1na2vs0mg"},{"bike_id":"5db7346a-8633-4431-a9e9-2fa189f4ebbd","system_id":"levelo_inurba_marseille","lat":43.24389,"lon":5.37063,"is_reserved":false,"is_disabled":false,"rental_uris":{"android":"levelo://app?vid=5db7346a-8633-4431-a9e9-2fa189f4ebbd","ios":"levelo://app?vid=5db7346a-8633-4431-a9e9-2fa189f4ebbd"},"vehicle_type_id":"4","last_reported":1744114778,"current_range_meters":18000,"station_id":"ce4bhhh2rcd13ifvqfk0","pricing_plan_id":"cebpf4jnsgd1na2vs0mg"},{"bike_id":"27768073-dde6-48e9-bf13-e40e2934834a","system_id":"levelo_inurba_marseille","lat":43.24176,"lon":5.39736,"is_reserved":false,"is_disabled":false,"rental_uris":{"android":"levelo://app?vid=27768073-dde6-48e9-bf13-e40e2934834a","ios":"levelo://app?vid=27768073-dde6-48e9-bf13-e40e2934834a"},"vehicle_type_id":"4","last_reported":1744114778,"current_range_meters":18000,"station_id":"ce4bhn12rcd13ifvqgpg","pricing_plan_id":"cebpf4jnsgd1na2vs0mg"},{"bike_id":"a9ce02d2-2081-43e3-b401-9fedc6f7b84a","system_id":"levelo_inurba_marseille","lat":43.28986,"lon":5.35607,"is_reserved":false,"is_disabled":false,"rental_uris":{"android":"levelo://app?vid=a9ce02d2-2081-43e3-b401-9fedc6f7b84a","ios":"levelo://app?vid=a9ce02d2-2081-43e3-b401-9fedc6f7b84a"},"vehicle_type_id":"4","last_reported":1744114778,"current_range_meters":18000,"station_id":"ce4bhb92rcd13ifvqen0","pricing_plan_id":"cebpf4jnsgd1na2vs0mg"},{"bike_id":"52dfef30-eef0-4dd6-a138-a48c8dcc2c3a","system_id":"levelo_inurba_marseille","lat":43.30417,"lon":5.42768,"is_reserved":false,"is_disabled":true,"rental_uris":{"android":"levelo://app?vid=52dfef30-eef0-4dd6-a138-a48c8dcc2c3a","ios":"levelo://app?vid=52dfef30-eef0-4dd6-a138-a48c8dcc2c3a"},"vehicle_type_id":"4","last_reported":1744114778,"current_range_meters":18000,"station_id":"","pricing_plan_id":"cebpf4jnsgd1na2vs0mg"},{"bike_id":"dadb85e9-d4e8-4621-8639-cce31c69f5ad","system_id":"levelo_inurba_marseille","lat":43.2844,"lon":5.39203,"is_reserved":false,"is_disabled":false,"rental_uris":{"android":"levelo://app?vid=dadb85e9-d4e8-4621-8639-cce31c69f5ad","ios":"levelo://app?vid=dadb85e9-d4e8-4621-8639-cce31c69f5ad"},"vehicle_type_id":"4","last_reported":1744114778,"current_range_meters":18000,"station_id":"ce4bhoh2rcd13ifvqh5g","pricing_plan_id":"cebpf4jnsgd1na2vs0mg"},{"bike_id":"95aa57e4-3683-4e42-94c0-b6cbc06237d3","system_id":"levelo_inurba_marseille","lat":43.28943,"lon":5.36644,"is_reserved":false,"is_disabled":false,"rental_uris":{"android":"levelo://app?vid=95aa57e4-3683-4e42-94c0-b6cbc06237d3","ios":"levelo://app?vid=95aa57e4-3683-4e42-94c0-b6cbc06237d3"},"vehicle_type_id":"4","last_reported":1744114778,"current_range_meters":20000,"station_id":"ce4bhap2rcd13ifvqek0","pricing_plan_id":"cebpf4jnsgd1na2vs0mg"},{"bike_id":"9b037c0e-68e8-413d-9e6f-c325a966579e","system_id":"levelo_inurba_marseille","lat":43.30547,"lon":5.36533,"is_reserved":false,"is_disabled":false,"rental_uris":{"android":"levelo://app?vid=9b037c0e-68e8-413d-9e6f-c325a966579e","ios":"levelo://app?vid=9b037c0e-68e8-413d-9e6f-c325a966579e"},"vehicle_type_id":"4","last_reported":1744114778,"current_range_meters":18800,"station_id":"ce4bgs12rcd13ifvqcag","pricing_plan_id":"cebpf4jnsgd1na2vs0mg"},{"bike_id":"73886fa4-f2c6-4d10-9fc9-9049c6845aa7","system_id":"levelo_inurba_marseille","lat":43.25489,"lon":5.3765,"is_reserved":false,"is_disabled":false,"rental_uris":{"android":"levelo://app?vid=73886fa4-f2c6-4d10-9fc9-9049c6845aa7","ios":"levelo://app?vid=73886fa4-f2c6-4d10-9fc9-9049c6845aa7"},"vehicle_type_id":"4","last_reported":1744114778,"current_range_meters":18800,"station_id":"ce4bhh12rcd13ifvqff0","pricing_plan_id":"cebpf4jnsgd1na2vs0mg"},{"bike_id":"6ca84b3a-101b-490e-a460-866c880ef1d9","system_id":"levelo_inurba_marseille","lat":43.27992,"lon":5.42499,"is_reserved":false,"is_disabled":false,"rental_uris":{"android":"levelo://app?vid=6ca84b3a-101b-490e-a460-866c880ef1d9","ios":"levelo://app?vid=6ca84b3a-101b-490e-a460-866c880ef1d9"},"vehicle_type_id":"4","last_reported":1744114778,"current_range_meters":18800,"station_id":"","pricing_plan_id":"cebpf4jnsgd1na2vs0mg"},{"bike_id":"8d7168d9-5749-439f-9b1d-cfb848713f2f","system_id":"levelo_inurba_marseille","lat":43.299251,"lon":5.373986,"is_reserved":false,"is_disabled":false,"rental_uris":{"android":"levelo://app?vid=8d7168d9-5749-439f-9b1d-cfb848713f2f","ios":"levelo://app?vid=8d7168d9-5749-439f-9b1d-cfb848713f2f"},"vehicle_type_id":"4","last_reported":1744114778,"current_range_meters":18800,"station_id":"ce4bgjh2rcd13ifvqbg0","pricing_plan_id":"cebpf4jnsgd1na2vs0mg"},{"bike_id":"b2c36895-c576-4c82-8eb8-6041a085a780","system_id":"levelo_inurba_marseille","lat":43.29785,"lon":5.37115,"is_reserved":false,"is_disabled":false,"rental_uris":{"android":"levelo://app?vid=b2c36895-c576-4c82-8eb8-6041a085a780","ios":"levelo://app?vid=b2c36895-c576-4c82-8eb8-6041a085a780"},"vehicle_type_id":"4","last_reported":1744114778,"current_range_meters":18800,"station_id":"ce4bgop2rcd13ifvqc1g","pricing_plan_id":"cebpf4jnsgd1na2vs0mg"},{"bike_id":"4818a333-e2d7-4f15-b301-c1332126dbfb","system_id":"levelo_inurba_marseille","lat":43.30802,"lon":5.36799,"is_reserved":false,"is_disabled":false,"rental_uris":{"android":"levelo://app?vid=4818a333-e2d7-4f15-b301-c1332126dbfb","ios":"levelo://app?vid=4818a333-e2d7-4f15-b301-c1332126dbfb"},"vehicle_type_id":"4","last_reported":1744114778,"current_range_meters":18800,"station_id":"","pricing_plan_id":"cebpf4jnsgd1na2vs0mg"},{"bike_id":"24a036ec-f3d0-4825-83b3-2d1874033f2c","system_id":"levelo_inurba_marseille","lat":43.298431,"lon":5.362765,"is_reserved":false,"is_disabled":false,"rental_uris":{"android":"levelo://app?vid=24a036ec-f3d0-4825-83b3-2d1874033f2c","ios":"levelo://app?vid=24a036ec-f3d0-4825-83b3-2d1874033f2c"},"vehicle_type_id":"4","last_reported":1744114778,"current_range_meters":18800,"station_id":"ce4bgpp2rcd13ifvqc3g","pricing_plan_id":"cebpf4jnsgd1na2vs0mg"},{"bike_id":"b37944fb-f9c1-4c8e-ac3a-9da227afb433","system_id":"levelo_inurba_marseille","lat":43.30806,"lon":5.38157,"is_reserved":false,"is_disabled":true,"rental_uris":{"android":"levelo://app?vid=b37944fb-f9c1-4c8e-ac3a-9da227afb433","ios":"levelo://app?vid=b37944fb-f9c1-4c8e-ac3a-9da227afb433"},"vehicle_type_id":"4","last_reported":1744114778,"current_range_meters":18800,"station_id":"ce4bgt12rcd13ifvqce0","pricing_plan_id":"cebpf4jnsgd1na2vs0mg"},{"bike_id":"e4a8d2a6-f910-41d5-a93e-84ce6e0e6ee4","system_id":"levelo_inurba_marseille","lat":43.30152,"lon":5.3809,"is_reserved":false,"is_disabled":false,"rental_uris":{"android":"levelo://app?vid=e4a8d2a6-f910-41d5-a93e-84ce6e0e6ee4","ios":"levelo://app?vid=e4a8d2a6-f910-41d5-a93e-84ce6e0e6ee4"},"vehicle_type_id":"4","last_reported":1744114778,"current_range_meters":18800,"station_id":"ce4bgjp2rcd13ifvqbh0","pricing_plan_id":"cebpf4jnsgd1na2vs0mg"},{"bike_id":"1fc5ed7d-d1d4-452f-a4da-9e3758ca47d6","system_id":"levelo_inurba_marseille","lat":43.30528,"lon":5.3843,"is_reserved":false,"is_disabled":false,"rental_uris":{"android":"levelo://app?vid=1fc5ed7d-d1d4-452f-a4da-9e3758ca47d6","ios":"levelo://app?vid=1fc5ed7d-d1d4-452f-a4da-9e3758ca47d6"},"vehicle_type_id":"4","last_reported":1744114778,"current_range_meters":19600,"station_id":"ce4bgg92rcd13ifvqb30","pricing_plan_id":"cebpf4jnsgd1na2vs0mg"},{"bike_id":"01ec9410-e950-4be7-8343-7b0cd2f20568","system_id":"levelo_inurba_marseille","lat":43.2509,"lon":5.39519,"is_reserved":false,"is_disabled":false,"rental_uris":{"android":"levelo://app?vid=01ec9410-e950-4be7-8343-7b0cd2f20568","ios":"levelo://app?vid=01ec9410-e950-4be7-8343-7b0cd2f20568"},"vehicle_type_id":"4","last_reported":1744114778,"current_range_meters":19200,"station_id":"ce4bhm12rcd13ifvqgkg","pricing_plan_id":"cebpf4jnsgd1na2vs0mg"},{"bike_id":"d74c5dfd-1608-4b8b-95a4-21a557673848","system_id":"levelo_inurba_marseille","lat":43.28416,"lon":5.34994,"is_reserved":false,"is_disabled":false,"rental_uris":{"android":"levelo://app?vid=d74c5dfd-1608-4b8b-95a4-21a557673848","ios":"levelo://app?vid=d74c5dfd-1608-4b8b-95a4-21a557673848"},"vehicle_type_id":"4","last_reported":1744114778,"current_range_meters":19200,"station_id":"ce4bhbh2rcd13ifvqepg","pricing_plan_id":"cebpf4jnsgd1na2vs0mg"},{"bike_id":"5d666951-aef9-42ae-93fc-25b14a96582d","system_id":"levelo_inurba_marseille","lat":43.27939,"lon":5.410445,"is_reserved":false,"is_disabled":false,"rental_uris":{"android":"levelo://app?vid=5d666951-aef9-42ae-93fc-25b14a96582d","ios":"levelo://app?vid=5d666951-aef9-42ae-93fc-25b14a96582d"},"vehicle_type_id":"4","last_reported":1744114778,"current_range_meters":19200,"station_id":"ce4bhnp2rcd13ifvqh0g","pricing_plan_id":"cebpf4jnsgd1na2vs0mg"},{"bike_id":"d567963e-7af8-42ea-bedb-693d1d30f349","system_id":"levelo_inurba_marseille","lat":43.27837,"lon":5.39214,"is_reserved":false,"is_disabled":false,"rental_uris":{"android":"levelo://app?vid=d567963e-7af8-42ea-bedb-693d1d30f349","ios":"levelo://app?vid=d567963e-7af8-42ea-bedb-693d1d30f349"},"vehicle_type_id":"4","last_reported":1744114778,"current_range_meters":19200,"station_id":"ce4bhjp2rcd13ifvqga0","pricing_plan_id":"cebpf4jnsgd1na2vs0mg"},{"bike_id":"93a3ce56-c2f8-42a3-aaa3-7195882dadf3","system_id":"levelo_inurba_marseille","lat":43.255042,"lon":5.376369,"is_reserved":false,"is_disabled":false,"rental_uris":{"android":"levelo://app?vid=93a3ce56-c2f8-42a3-aaa3-7195882dadf3","ios":"levelo://app?vid=93a3ce56-c2f8-42a3-aaa3-7195882dadf3"},"vehicle_type_id":"4","last_reported":1744114778,"current_range_meters":19200,"station_id":"ce4bhh12rcd13ifvqff0","pricing_plan_id":"cebpf4jnsgd1na2vs0mg"},{"bike_id":"f461bde2-f1c1-4c22-bbd3-c148681323e8","system_id":"levelo_inurba_marseille","lat":43.22941,"lon":5.35383,"is_reserved":false,"is_disabled":false,"rental_uris":{"android":"levelo://app?vid=f461bde2-f1c1-4c22-bbd3-c148681323e8","ios":"levelo://app?vid=f461bde2-f1c1-4c22-bbd3-c148681323e8"},"vehicle_type_id":"4","last_reported":1744114778,"current_range_meters":19200,"station_id":"cpo3532slgdg3j2ikp40","pricing_plan_id":"cebpf4jnsgd1na2vs0mg"},{"bike_id":"ffa44d8b-2d4b-416a-a68e-6f2cf44e1fea","system_id":"levelo_inurba_marseille","lat":43.27368,"lon":5.36256,"is_reserved":false,"is_disabled":false,"rental_uris":{"android":"levelo://app?vid=ffa44d8b-2d4b-416a-a68e-6f2cf44e1fea","ios":"levelo://app?vid=ffa44d8b-2d4b-416a-a68e-6f2cf44e1fea"},"vehicle_type_id":"4","last_reported":1744114778,"current_range_meters":19200,"station_id":"ce4bhbh2rcd13ifvqeo0","pricing_plan_id":"cebpf4jnsgd1na2vs0mg"},{"bike_id":"d7b2134e-575c-40f1-9b3b-0ad40ab4b220","system_id":"levelo_inurba_marseille","lat":43.29839,"lon":5.43684,"is_reserved":false,"is_disabled":false,"rental_uris":{"android":"levelo://app?vid=d7b2134e-575c-40f1-9b3b-0ad40ab4b220","ios":"levelo://app?vid=d7b2134e-575c-40f1-9b3b-0ad40ab4b220"},"vehicle_type_id":"4","last_reported":1744114778,"current_range_meters":19200,"station_id":"","pricing_plan_id":"cebpf4jnsgd1na2vs0mg"},{"bike_id":"43eb2d79-be0b-4fd0-a988-778df5e44531","system_id":"levelo_inurba_marseille","lat":43.23155,"lon":5.43713,"is_reserved":false,"is_disabled":false,"rental_uris":{"android":"levelo://app?vid=43eb2d79-be0b-4fd0-a988-778df5e44531","ios":"levelo://app?vid=43eb2d79-be0b-4fd0-a988-778df5e44531"},"vehicle_type_id":"4","last_reported":1744114778,"current_range_meters":19200,"station_id":"ce4bhmp2rcd13ifvqgog","pricing_plan_id":"cebpf4jnsgd1na2vs0mg"},{"bike_id":"90a27163-a80f-4d89-b7e3-cd9bb76b9be6","system_id":"levelo_inurba_marseille","lat":43.251106,"lon":5.40322,"is_reserved":false,"is_disabled":false,"rental_uris":{"android":"levelo://app?vid=90a27163-a80f-4d89-b7e3-cd9bb76b9be6","ios":"levelo://app?vid=90a27163-a80f-4d89-b7e3-cd9bb76b9be6"},"vehicle_type_id":"4","last_reported":1744114778,"current_range_meters":19200,"station_id":"ce4bhhp2rcd13ifvqfm0","pricing_plan_id":"cebpf4jnsgd1na2vs0mg"},{"bike_id":"09983ed2-e415-419d-af69-94b3d3f087b0","system_id":"levelo_inurba_marseille","lat":43.24663,"lon":5.3817,"is_reserved":false,"is_disabled":false,"rental_uris":{"android":"levelo://app?vid=09983ed2-e415-419d-af69-94b3d3f087b0","ios":"levelo://app?vid=09983ed2-e415-419d-af69-94b3d3f087b0"},"vehicle_type_id":"4","last_reported":1744114778,"current_range_meters":19200,"station_id":"ce4bhih2rcd13ifvqfr0","pricing_plan_id":"cebpf4jnsgd1na2vs0mg"},{"bike_id":"d1ab4a48-3ebf-4448-991f-741c70a9cfa1","system_id":"levelo_inurba_marseille","lat":43.28432,"lon":5.34988,"is_reserved":false,"is_disabled":false,"rental_uris":{"android":"levelo://app?vid=d1ab4a48-3ebf-4448-991f-741c70a9cfa1","ios":"levelo://app?vid=d1ab4a48-3ebf-4448-991f-741c70a9cfa1"},"vehicle_type_id":"4","last_reported":1744114778,"current_range_meters":19200,"station_id":"ce4bhbh2rcd13ifvqepg","pricing_plan_id":"cebpf4jnsgd1na2vs0mg"},{"bike_id":"6e5ac126-c372-4a39-b836-bcab5ad1f2e7","system_id":"levelo_inurba_marseille","lat":43.2417,"lon":5.36428,"is_reserved":false,"is_disabled":false,"rental_uris":{"android":"levelo://app?vid=6e5ac126-c372-4a39-b836-bcab5ad1f2e7","ios":"levelo://app?vid=6e5ac126-c372-4a39-b836-bcab5ad1f2e7"},"vehicle_type_id":"4","last_reported":1744114778,"current_range_meters":19600,"station_id":"cpo36qri1sfpv3e86is0","pricing_plan_id":"cebpf4jnsgd1na2vs0mg"},{"bike_id":"92c8285a-8ae6-4187-a63f-fea4cbfbbe9e","system_id":"levelo_inurba_marseille","lat":43.29271,"lon":5.38443,"is_reserved":false,"is_disabled":false,"rental_uris":{"android":"levelo://app?vid=92c8285a-8ae6-4187-a63f-fea4cbfbbe9e","ios":"levelo://app?vid=92c8285a-8ae6-4187-a63f-fea4cbfbbe9e"},"vehicle_type_id":"4","last_reported":1744114778,"current_range_meters":19600,"station_id":"ce4bh692rcd13ifvqea0","pricing_plan_id":"cebpf4jnsgd1na2vs0mg"},{"bike_id":"6b68cb44-2214-4363-bbfb-6597cc95cf8e","system_id":"levelo_inurba_marseille","lat":43.27372,"lon":5.36256,"is_reserved":false,"is_disabled":false,"rental_uris":{"android":"levelo://app?vid=6b68cb44-2214-4363-bbfb-6597cc95cf8e","ios":"levelo://app?vid=6b68cb44-2214-4363-bbfb-6597cc95cf8e"},"vehicle_type_id":"4","last_reported":1744114778,"current_range_meters":19600,"station_id":"ce4bhbh2rcd13ifvqeo0","pricing_plan_id":"cebpf4jnsgd1na2vs0mg"},{"bike_id":"541ca2e7-29f9-443d-acd6-33d4ae52a208","system_id":"levelo_inurba_marseille","lat":43.30619,"lon":5.37229,"is_reserved":false,"is_disabled":false,"rental_uris":{"android":"levelo://app?vid=541ca2e7-29f9-443d-acd6-33d4ae52a208","ios":"levelo://app?vid=541ca2e7-29f9-443d-acd6-33d4ae52a208"},"vehicle_type_id":"4","last_reported":1744114778,"current_range_meters":19600,"station_id":"ce4bgqh2rcd13ifvqc4g","pricing_plan_id":"cebpf4jnsgd1na2vs0mg"},{"bike_id":"3b284a3c-10ff-4cfe-aa16-9d480f3f4b51","system_id":"levelo_inurba_marseille","lat":43.30477,"lon":5.37628,"is_reserved":false,"is_disabled":false,"rental_uris":{"android":"levelo://app?vid=3b284a3c-10ff-4cfe-aa16-9d480f3f4b51","ios":"levelo://app?vid=3b284a3c-10ff-4cfe-aa16-9d480f3f4b51"},"vehicle_type_id":"4","last_reported":1744114778,"current_range_meters":19600,"station_id":"","pricing_plan_id":"cebpf4jnsgd1na2vs0mg"},{"bike_id":"41e3cb5b-4166-4817-b060-4d4507919104","system_id":"levelo_inurba_marseille","lat":43.27375,"lon":5.36256,"is_reserved":false,"is_disabled":false,"rental_uris":{"android":"levelo://app?vid=41e3cb5b-4166-4817-b060-4d4507919104","ios":"levelo://app?vid=41e3cb5b-4166-4817-b060-4d4507919104"},"vehicle_type_id":"4","last_reported":1744114778,"current_range_meters":19600,"station_id":"ce4bhbh2rcd13ifvqeo0","pricing_plan_id":"cebpf4jnsgd1na2vs0mg"},{"bike_id":"c1c63035-c83b-4419-8cbf-133778d95125","system_id":"levelo_inurba_marseille","lat":43.298,"lon":5.39346,"is_reserved":false,"is_disabled":true,"rental_uris":{"android":"levelo://app?vid=c1c63035-c83b-4419-8cbf-133778d95125","ios":"levelo://app?vid=c1c63035-c83b-4419-8cbf-133778d95125"},"vehicle_type_id":"4","last_reported":1744114778,"current_range_meters":19600,"station_id":"chh1huq6cuj3fo74tm60","pricing_plan_id":"cebpf4jnsgd1na2vs0mg"},{"bike_id":"6278194a-3064-41bd-8565-b8ff44b1552d","system_id":"levelo_inurba_marseille","lat":43.29537,"lon":5.38552,"is_reserved":false,"is_disabled":true,"rental_uris":{"android":"levelo://app?vid=6278194a-3064-41bd-8565-b8ff44b1552d","ios":"levelo://app?vid=6278194a-3064-41bd-8565-b8ff44b1552d"},"vehicle_type_id":"4","last_reported":1744114778,"current_range_meters":19600,"station_id":"ce4bgih2rcd13ifvqba0","pricing_plan_id":"cebpf4jnsgd1na2vs0mg"},{"bike_id":"fd07d6de-a218-43d3-8caa-eaba2cec3dca","system_id":"levelo_inurba_marseille","lat":43.27958,"lon":5.41042,"is_reserved":false,"is_disabled":true,"rental_uris":{"android":"levelo://app?vid=fd07d6de-a218-43d3-8caa-eaba2cec3dca","ios":"levelo://app?vid=fd07d6de-a218-43d3-8caa-eaba2cec3dca"},"vehicle_type_id":"4","last_reported":1744114778,"current_range_meters":19600,"station_id":"ce4bhnp2rcd13ifvqh0g","pricing_plan_id":"cebpf4jnsgd1na2vs0mg"},{"bike_id":"ea17cff3-d70d-42f8-aa47-a008aa49abda","system_id":"levelo_inurba_marseille","lat":43.28151,"lon":5.42647,"is_reserved":false,"is_disabled":false,"rental_uris":{"android":"levelo://app?vid=ea17cff3-d70d-42f8-aa47-a008aa49abda","ios":"levelo://app?vid=ea17cff3-d70d-42f8-aa47-a008aa49abda"},"vehicle_type_id":"4","last_reported":1744114778,"current_range_meters":20000,"station_id":"ce4bhnh2rcd13ifvqgug","pricing_plan_id":"cebpf4jnsgd1na2vs0mg"},{"bike_id":"5ae552f2-c7e7-4db8-9fdd-1ef98996ee67","system_id":"levelo_inurba_marseille","lat":43.29849,"lon":5.36285,"is_reserved":false,"is_disabled":false,"rental_uris":{"android":"levelo://app?vid=5ae552f2-c7e7-4db8-9fdd-1ef98996ee67","ios":"levelo://app?vid=5ae552f2-c7e7-4db8-9fdd-1ef98996ee67"},"vehicle_type_id":"4","last_reported":1744114778,"current_range_meters":20000,"station_id":"ce4bgpp2rcd13ifvqc3g","pricing_plan_id":"cebpf4jnsgd1na2vs0mg"},{"bike_id":"4e1fdae8-0ff2-49a2-a4b4-79c23ddbe639","system_id":"levelo_inurba_marseille","lat":43.29186,"lon":5.35806,"is_reserved":false,"is_disabled":false,"rental_uris":{"android":"levelo://app?vid=4e1fdae8-0ff2-49a2-a4b4-79c23ddbe639","ios":"levelo://app?vid=4e1fdae8-0ff2-49a2-a4b4-79c23ddbe639"},"vehicle_type_id":"4","last_reported":1744114778,"current_range_meters":20000,"station_id":"ce4bhb12rcd13ifvqel0","pricing_plan_id":"cebpf4jnsgd1na2vs0mg"},{"bike_id":"8d558e02-536d-4f00-87c9-9ac00d581504","system_id":"levelo_inurba_marseille","lat":43.33413,"lon":5.39634,"is_reserved":false,"is_disabled":false,"rental_uris":{"android":"levelo://app?vid=8d558e02-536d-4f00-87c9-9ac00d581504","ios":"levelo://app?vid=8d558e02-536d-4f00-87c9-9ac00d581504"},"vehicle_type_id":"4","last_reported":1744114778,"current_range_meters":20000,"station_id":"","pricing_plan_id":"cebpf4jnsgd1na2vs0mg"},{"bike_id":"655395b5-1460-4952-bf11-be87c4014c2d","system_id":"levelo_inurba_marseille","lat":43.28413,"lon":5.34991,"is_reserved":false,"is_disabled":false,"rental_uris":{"android":"levelo://app?vid=655395b5-1460-4952-bf11-be87c4014c2d","ios":"levelo://app?vid=655395b5-1460-4952-bf11-be87c4014c2d"},"vehicle_type_id":"4","last_reported":1744114778,"current_range_meters":20000,"station_id":"ce4bhbh2rcd13ifvqepg","pricing_plan_id":"cebpf4jnsgd1na2vs0mg"},{"bike_id":"168b3bd3-4d4f-4d90-a7bd-a1d4012eca2c","system_id":"levelo_inurba_marseille","lat":43.28438,"lon":5.34992,"is_reserved":false,"is_disabled":false,"rental_uris":{"android":"levelo://app?vid=168b3bd3-4d4f-4d90-a7bd-a1d4012eca2c","ios":"levelo://app?vid=168b3bd3-4d4f-4d90-a7bd-a1d4012eca2c"},"vehicle_type_id":"4","last_reported":1744114778,"current_range_meters":20000,"station_id":"ce4bhbh2rcd13ifvqepg","pricing_plan_id":"cebpf4jnsgd1na2vs0mg"},{"bike_id":"2fcc8a90-fafc-4661-8ffb-919910f31ef2","system_id":"levelo_inurba_marseille","lat":43.3018,"lon":5.3743,"is_reserved":false,"is_disabled":false,"rental_uris":{"android":"levelo://app?vid=2fcc8a90-fafc-4661-8ffb-919910f31ef2","ios":"levelo://app?vid=2fcc8a90-fafc-4661-8ffb-919910f31ef2"},"vehicle_type_id":"4","last_reported":1744114778,"current_range_meters":20000,"station_id":"ce4bgs92rcd13ifvqcc0","pricing_plan_id":"cebpf4jnsgd1na2vs0mg"},{"bike_id":"3d9f1b4e-29b4-457f-8c42-cf46add9b187","system_id":"levelo_inurba_marseille","lat":43.26146,"lon":5.39743,"is_reserved":false,"is_disabled":false,"rental_uris":{"android":"levelo://app?vid=3d9f1b4e-29b4-457f-8c42-cf46add9b187","ios":"levelo://app?vid=3d9f1b4e-29b4-457f-8c42-cf46add9b187"},"vehicle_type_id":"4","last_reported":1744114778,"current_range_meters":20000,"station_id":"ce4bhlh2rcd13ifvqgig","pricing_plan_id":"cebpf4jnsgd1na2vs0mg"},{"bike_id":"cb893542-575c-485d-9c8f-3b8bfabe759d","system_id":"levelo_inurba_marseille","lat":43.28411,"lon":5.34988,"is_reserved":false,"is_disabled":false,"rental_uris":{"android":"levelo://app?vid=cb893542-575c-485d-9c8f-3b8bfabe759d","ios":"levelo://app?vid=cb893542-575c-485d-9c8f-3b8bfabe759d"},"vehicle_type_id":"4","last_reported":1744114778,"current_range_meters":20000,"station_id":"ce4bhbh2rcd13ifvqepg","pricing_plan_id":"cebpf4jnsgd1na2vs0mg"},{"bike_id":"83d71aae-c276-4581-b045-e01e481a11b6","system_id":"levelo_inurba_marseille","lat":43.21768,"lon":5.34603,"is_reserved":false,"is_disabled":false,"rental_uris":{"android":"levelo://app?vid=83d71aae-c276-4581-b045-e01e481a11b6","ios":"levelo://app?vid=83d71aae-c276-4581-b045-e01e481a11b6"},"vehicle_type_id":"4","last_reported":1744114778,"current_range_meters":20000,"station_id":"st_cvj6r9ubvosntc0bgbag","pricing_plan_id":"cebpf4jnsgd1na2vs0mg"},{"bike_id":"f12efdbb-537e-41f1-a58a-36b44cbcac97","system_id":"levelo_inurba_marseille","lat":43.30937,"lon":5.40139,"is_reserved":false,"is_disabled":false,"rental_uris":{"android":"levelo://app?vid=f12efdbb-537e-41f1-a58a-36b44cbcac97","ios":"levelo://app?vid=f12efdbb-537e-41f1-a58a-36b44cbcac97"},"vehicle_type_id":"4","last_reported":1744114778,"current_range_meters":20000,"station_id":"ce4bgvp2rcd13ifvqct0","pricing_plan_id":"cebpf4jnsgd1na2vs0mg"},