{"last_updated":1744082751,"ttl":60,"version":"2.2","data":{"bikes":[{"bike_id":"8e045a5e-5096-41be-b5b7-6b62ff14ce53","system_id":"levelo_inurba_marseille","lat":43.31771,"lon":5.38798,"is_reserved":false,"is_disabled":false,"rental_uris":{"android":"levelo://app?vid=8e045a5e-5096-41be-b5b7-6b62ff14ce53","ios":"levelo://app?vid=8e045a5e-5096-41be-b5b7-6b62ff14ce53"},"vehicle_type_id":"4","last_reported":1744082751,"current_range_meters":2800,"station_id":"","pricing_plan_id":"cebpf4jnsgd1na2vs0mg"},{"bike_id":"2607cbcb-f01f-4a18-a84e-704e99a9c241","system_id":"levelo_inurba_marseille","lat":43.25084,"lon":5.40348,"is_reserved":false,"is_disabled":false,"rental_uris":{"android":"levelo://app?vid=2607cbcb-f01f-4a18-a84e-704e99a9c241","ios":"levelo://app?vid=2607cbcb-f01f-4a18-a84e-704e99a9c241"},"vehicle_type_id":"4","last_reported":1744082751,"current_range_meters":3200,"station_id":"ce4bhlh2rcd13ifvqgig","pricing_plan_id":"cebpf4jnsgd1na2vs0mg"},{"bike_id":"bda28d1e-0f84-474d-a739-6c6b9ce16d63","system_id":"levelo_inurba_marseille","lat":43.27057,"lon":5.42279,"is_reserved":false,"is_disabled":false,"rental_uris":{"android":"levelo://app?vid=bda28d1e-0f84-474d-a739-6c6b9ce16d63","ios":"levelo://app?vid=bda28d1e-0f84-474d-a739-6c6b9ce16d63"},"vehicle_type_id":"4","last_reported":1744082751,"current_range_meters":3600,"station_id":"ce4bhk92rcd13ifvqgb0","pricing_plan_id":"cebpf4jnsgd1na2vs0mg"},{"bike_id":"f3a82a8f-9c35-45c4-ba4d-a07bdb15f8b5","system_id":"levelo_inurba_marseille","lat":43.33144,"lon":5.41112,"is_reserved":false,"is_disabled":false,"rental_uris":{"android":"levelo://app?vid=f3a82a8f-9c35-45c4-ba4d-a07bdb15f8b5","ios":"levelo://app?vid=f3a82a8f-9c35-45c4-ba4d-a07bdb15f8b5"},"vehicle_type_id":"4","last_reported":1744082751,"current_range_meters":3600,"station_id":"","pricing_plan_id":"cebpf4jnsgd1na2vs0mg"},{"bike_id":"2e2e9e06-8d2b-4e2e-a7fa-ca3dcaea1b0d","system_id":"levelo_inurba_marseille","lat":43.298784,"lon":5.389134,"is_reserved":false,"is_disabled":false,"rental_uris":{"android":"levelo://app?vid=2e2e9e06-8d2b-4e2e-a7fa-ca3dcaea1b0d","ios":"levelo://app?vid=2e2e9e06-8d2b-4e2e-a7fa-ca3dcaea1b0d"},"vehicle_type_id":"4","last_reported":1744082751,"current_range_meters":3600,"station_id":"ce4bh392rcd13ifvqdl0","pricing_plan_id":"cebpf4jnsgd1na2vs0mg"},{"bike_id":"f85929bf-8ce3-4f64-9a38-f6ea21d51d14","system_id":"levelo_inurba_marseille","lat":43.28028,"lon":5.36951,"is_reserved":false,"is_disabled":false,"rental_uris":{"android":"levelo://app?vid=f85929bf-8ce3-4f64-9a38-f6ea21d51d14","ios":"levelo://app?vid=f85929bf-8ce3-4f64-9a38-f6ea21d51d14"},"vehicle_type_id":"4","last_reported":1744082751,"current_range_meters":4000,"station_id":"ce4bha12rcd13ifvqef0","pricing_plan_id":"cebpf4jnsgd1na2vs0mg"},{"bike_id":"b1ed7f6b-c565-4ec0-a8fb-0b310dd53ebb","system_id":"levelo_inurba_marseille","lat":43.2718,"lon":5.41002,"is_reserved":false,"is_disabled":false,"rental_uris":{"android":"levelo://app?vid=b1ed7f6b-c565-4ec0-a8fb-0b310dd53ebb","ios":"levelo://app?vid=b1ed7f6b-c565-4ec0-a8fb-0b310dd53ebb"},"vehicle_type_id":"4","last_reported":1744082751,"current_range_meters":4000,"station_id":"ce4bhl12rcd13ifvqgf0","pricing_plan_id":"cebpf4jnsgd1na2vs0mg"},{"bike_id":"c8ef97cd-47e0-4eb1-94da-70c7475220b7","system_id":"levelo_inurba_marseille","lat":43.311177,"lon":5.37766,"is_reserved":false,"is_disabled":false,"rental_uris":{"android":"levelo://app?vid=c8ef97cd-47e0-4eb1-94da-70c7475220b7","ios":"levelo://app?vid=c8ef97cd-47e0-4eb1-94da-70c7475220b7"},"vehicle_type_id":"4","last_reported":1744082751,"current_range_meters":4000,"station_id":"ce4bgt92rcd13ifvqcg0","pricing_plan_id":"cebpf4jnsgd1na2vs0mg"},{"bike_id":"b29aff3b-6390-4b57-b2d8-2d4f62df2edc","system_id":"levelo_inurba_marseille","lat":43.28146,"lon":5.42658,"is_reserved":false,"is_disabled":false,"rental_uris":{"android":"levelo://app?vid=b29aff3b-6390-4b57-b2d8-2d4f62df2edc","ios":"levelo://app?vid=b29aff3b-6390-4b57-b2d8-2d4f62df2edc"},"vehicle_type_id":"4","last_reported":1744082751,"current_range_meters":4000,"station_id":"ce4bhnh2rcd13ifvqgug","pricing_plan_id":"cebpf4jnsgd1na2vs0mg"},{"bike_id":"136b6e45-ee21-453e-aa22-e07947db9071","system_id":"levelo_inurba_marseille","lat":43.23127,"lon":5.43738,"is_reserved":false,"is_disabled":true,"rental_uris":{"android":"levelo://app?vid=136b6e45-ee21-453e-aa22-e07947db9071","ios":"levelo://app?vid=136b6e45-ee21-453e-aa22-e07947db9071"},"vehicle_type_id":"4","last_reported":1744082751,"current_range_meters":4000,"station_id":"ce4bhmp2rcd13ifvqgog","pricing_plan_id":"cebpf4jnsgd1na2vs0mg"},{"bike_id":"00393ee2-317d-4e98-a30d-fd25773ef49f","system_id":"levelo_inurba_marseille","lat":43.35221,"lon":5.35794,"is_reserved":false,"is_disabled":false,"rental_uris":{"android":"levelo://app?vid=00393ee2-317d-4e98-a30d-fd25773ef49f","ios":"levelo://app?vid=00393ee2-317d-4e98-a30d-fd25773ef49f"},"vehicle_type_id":"4","last_reported":1744082751,"current_range_meters":4400,"station_id":"","pricing_plan_id":"cebpf4jnsgd1na2vs0mg"},{"bike_id":"aba5e844-f429-4fca-8fbd-34616f5265a2","system_id":"levelo_inurba_marseille","lat":43.28156,"lon":5.42635,"is_reserved":false,"is_disabled":false,"rental_uris":{"android":"levelo://app?vid=aba5e844-f429-4fca-8fbd-34616f5265a2","ios":"levelo://app?vid=aba5e844-f429-4fca-8fbd-34616f5265a2"},"vehicle_type_id":"4","last_reported":1744082751,"current_range_meters":4400,"station_id":"ce4bhnh2rcd13ifvqgug","pricing_plan_id":"cebpf4jnsgd1na2vs0mg"},{"bike_id":"30641c38-db5b-435c-abfb-7ef62ecbb550","system_id":"levelo_inurba_marseille","lat":43.305401,"lon":5.384303,"is_reserved":false,"is_disabled":true,"rental_uris":{"android":"levelo://app?vid=30641c38-db5b-435c-abfb-7ef62ecbb550","ios":"levelo://app?vid=30641c38-db5b-435c-abfb-7ef62ecbb550"},"vehicle_type_id":"4","last_reported":1744082751,"current_range_meters":4800,"station_id":"ce4bgg92rcd13ifvqb30","pricing_plan_id":"cebpf4jnsgd1na2vs0mg"},{"bike_id":"00084bf2-d9fe-4ce5-a7df-0e18fbb9a5d0","system_id":"levelo_inurba_marseille","lat":43.30254,"lon":5.40067,"is_reserved":false,"is_disabled":false,"rental_uris":{"android":"levelo://app?vid=00084bf2-d9fe-4ce5-a7df-0e18fbb9a5d0","ios":"levelo://app?vid=00084bf2-d9fe-4ce5-a7df-0e18fbb9a5d0"},"vehicle_type_id":"4","last_reported":1744082751,"current_range_meters":4800,"station_id":"ce4bgvh2rcd13ifvqcs0","pricing_plan_id":"cebpf4jnsgd1na2vs0mg"},{"bike_id":"6708668d-b58a-4a82-94e2-3d32586f4991","system_id":"levelo_inurba_marseille","lat":43.30956,"lon":5.39083,"is_reserved":false,"is_disabled":false,"rental_uris":{"android":"levelo://app?vid=6708668d-b58a-4a82-94e2-3d32586f4991","ios":"levelo://app?vid=6708668d-b58a-4a82-94e2-3d32586f4991"},"vehicle_type_id":"4","last_reported":1744082751,"current_range_meters":5600,"station_id":"ce4bgup2rcd13ifvqco0","pricing_plan_id":"cebpf4jnsgd1na2vs0mg"},{"bike_id":"351b921a-1463-4cf6-859d-ca5bd51a6e76","system_id":"levelo_inurba_marseille","lat":43.31787,"lon":5.36831,"is_reserved":false,"is_disabled":false,"rental_uris":{"android":"levelo://app?vid=351b921a-1463-4cf6-859d-ca5bd51a6e76","ios":"levelo://app?vid=351b921a-1463-4cf6-859d-ca5bd51a6e76"},"vehicle_type_id":"4","last_reported":1744082751,"current_range_meters":5600,"station_id":"","pricing_plan_id":"cebpf4jnsgd1na2vs0mg"},{"bike_id":"4e63bc7f-b907-45ea-bc67-f61c9be2b9d6","system_id":"levelo_inurba_marseille","lat":43.29972,"lon":5.38504,"is_reserved":false,"is_disabled":true,"rental_uris":{"android":"levelo://app?vid=4e63bc7f-b907-45ea-bc67-f61c9be2b9d6","ios":"levelo://app?vid=4e63bc7f-b907-45ea-bc67-f61c9be2b9d6"},"vehicle_type_id":"4","last_reported":1744082751,"current_range_meters":5600,"station_id":"ce4bgj92rcd13ifvqbd0","pricing_plan_id":"cebpf4jnsgd1na2vs0mg"},{"bike_id":"041f93b2-449e-477e-aa21-960efdfb59ac","system_id":"levelo_inurba_marseille","lat":43.2998,"lon":5.38527,"is_reserved":false,"is_disabled":false,"rental_uris":{"android":"levelo://app?vid=041f93b2-449e-477e-aa21-960efdfb59ac","ios":"levelo://app?vid=041f93b2-449e-477e-aa21-960efdfb59ac"},"vehicle_type_id":"4","last_reported":1744082751,"current_range_meters":6000,"station_id":"ce4bgj92rcd13ifvqbd0","pricing_plan_id":"cebpf4jnsgd1na2vs0mg"},{"bike_id":"eb79d1f9-7c91-4ea2-b5f8-796189743e1a","system_id":"levelo_inurba_marseille","lat":43.34271,"lon":5.38148,"is_reserved":false,"is_disabled":false,"rental_uris":{"android":"levelo://app?vid=eb79d1f9-7c91-4ea2-b5f8-796189743e1a","ios":"levelo://app?vid=eb79d1f9-7c91-4ea2-b5f8-796189743e1a"},"vehicle_type_id":"4","last_reported":1744082751,"current_range_meters":6000,"station_id":"","pricing_plan_id":"cebpf4jnsgd1na2vs0mg"},{"bike_id":"c24c2dc1-81db-4df5-8375-4c1f2c251f86","system_id":"levelo_inurba_marseille","lat":43.26209,"lon":5.40466,"is_reserved":false,"is_disabled":false,"rental_uris":{"android":"levelo://app?vid=c24c2dc1-81db-4df5-8375-4c1f2c251f86","ios":"levelo://app?vid=c24c2dc1-81db-4df5-8375-4c1f2c251f86"},"vehicle_type_id":"4","last_reported":1744082751,"current_range_meters":6000,"station_id":"ce4bhmh2rcd13ifvqgmg","pricing_plan_id":"cebpf4jnsgd1na2vs0mg"},{"bike_id":"2fbe95f8-0851-44e4-971f-1fc476136b20","system_id":"levelo_inurba_marseille","lat":43.304332,"lon":5.388933,"is_reserved":false,"is_disabled":false,"rental_uris":{"android":"levelo://app?vid=2fbe95f8-0851-44e4-971f-1fc476136b20","ios":"levelo://app?vid=2fbe95f8-0851-44e4-971f-1fc476136b20"},"vehicle_type_id":"4","last_reported":1744082751,"current_range_meters":6000,"station_id":"ce4bgk12rcd13ifvqbi0","pricing_plan_id":"cebpf4jnsgd1na2vs0mg"},{"bike_id":"79ab7e2b-c8a0-4086-a8e4-f12e17aa0560","system_id":"levelo_inurba_marseille","lat":43.30286,"lon":5.37132,"is_reserved":false,"is_disabled":false,"rental_uris":{"android":"levelo://app?vid=79ab7e2b-c8a0-4086-a8e4-f12e17aa0560","ios":"levelo://app?vid=79ab7e2b-c8a0-4086-a8e4-f12e17aa0560"},"vehicle_type_id":"4","last_reported":1744082751,"current_range_meters":6000,"station_id":"","pricing_plan_id":"cebpf4jnsgd1na2vs0mg"},{"bike_id":"ce17fe04-8862-4ea9-afba-f7bcdbfd1051","system_id":"levelo_inurba_marseille","lat":43.28421,"lon":5.35001,"is_reserved":false,"is_disabled":false,"rental_uris":{"android":"levelo://app?vid=ce17fe04-8862-4ea9-afba-f7bcdbfd1051","ios":"levelo://app?vid=ce17fe04-8862-4ea9-afba-f7bcdbfd1051"},"vehicle_type_id":"4","last_reported":1744082751,"current_range_meters":6000,"station_id":"ce4bhbh2rcd13ifvqepg","pricing_plan_id":"cebpf4jnsgd1na2vs0mg"},{"bike_id":"c74ae530-9670-4460-9e91-da7e134141c6","system_id":"levelo_inurba_marseille","lat":43.30468,"lon":5.38872,"is_reserved":false,"is_disabled":false,"rental_uris":{"android":"levelo://app?vid=c74ae530-9670-4460-9e91-da7e134141c6","ios":"levelo://app?vid=c74ae530-9670-4460-9e91-da7e134141c6"},"vehicle_type_id":"4","last_reported":1744082751,"current_range_meters":6400,"station_id":"ce4bgk12rcd13ifvqbi0","pricing_plan_id":"cebpf4jnsgd1na2vs0mg"},{"bike_id":"d3d54bb5-13e4-4bfd-ae24-b2ab9c99b42e","system_id":"levelo_inurba_marseille","lat":43.3091,"lon":5.37888,"is_reserved":false,"is_disabled":false,"rental_uris":{"android":"levelo://app?vid=d3d54bb5-13e4-4bfd-ae24-b2ab9c99b42e","ios":"levelo://app?vid=d3d54bb5-13e4-4bfd-ae24-b2ab9c99b42e"},"vehicle_type_id":"4","last_reported":1744082751,"current_range_meters":6400,"station_id":"","pricing_plan_id":"cebpf4jnsgd1na2vs0mg"},{"bike_id":"454ad229-ae8c-47df-9402-1bfe4abd3acd","system_id":"levelo_inurba_marseille","lat":43.28155,"lon":5.42631,"is_reserved":false,"is_disabled":false,"rental_uris":{"android":"levelo://app?vid=454ad229-ae8c-47df-9402-1bfe4abd3acd","ios":"levelo://app?vid=454ad229-ae8c-47df-9402-1bfe4abd3acd"},"vehicle_type_id":"4","last_reported":1744082751,"current_range_meters":6400,"station_id":"ce4bhnh2rcd13ifvqgug","pricing_plan_id":"cebpf4jnsgd1na2vs0mg"},{"bike_id":"d3b22430-f2f3-498e-a709-0d9e04280ae5","system_id":"levelo_inurba_marseille","lat":43.309783,"lon":5.379427,"is_reserved":false,"is_disabled":false,"rental_uris":{"android":"levelo://app?vid=d3b22430-f2f3-498e-a709-0d9e04280ae5","ios":"levelo://app?vid=d3b22430-f2f3-498e-a709-0d9e04280ae5"},"vehicle_type_id":"4","last_reported":1744082751,"current_range_meters":6400,"station_id":"","pricing_plan_id":"cebpf4jnsgd1na2vs0mg"},{"bike_id":"badb5974-951d-481c-bbc8-59a201b0f6a8","system_id":"levelo_inurba_marseille","lat":43.28724,"lon":5.36088,"is_reserved":false,"is_disabled":false,"rental_uris":{"android":"levelo://app?vid=badb5974-951d-481c-bbc8-59a201b0f6a8","ios":"levelo://app?vid=badb5974-951d-481c-bbc8-59a201b0f6a8"},"vehicle_type_id":"4","last_reported":1744082751,"current_range_meters":6800,"station_id":"cki0cbj6b192h4jlfktg","pricing_plan_id":"cebpf4jnsgd1na2vs0mg"},{"bike_id":"8a38320c-a733-4cf5-8c8e-152497fe8f8f","system_id":"levelo_inurba_marseille","lat":43.281555,"lon":5.426309,"is_reserved":false,"is_disabled":false,"rental_uris":{"android":"levelo://app?vid=8a38320c-a733-4cf5-8c8e-152497fe8f8f","ios":"levelo://app?vid=8a38320c-a733-4cf5-8c8e-152497fe8f8f"},"vehicle_type_id":"4","last_reported":1744082751,"current_range_meters":6800,"station_id":"ce4bhnh2rcd13ifvqgug","pricing_plan_id":"cebpf4jnsgd1na2vs0mg"},{"bike_id":"6b770536-e0ee-4074-a4d5-7fac1065bae9","system_id":"levelo_inurba_marseille","lat":43.33726,"lon":5.39182,"is_reserved":false,"is_disabled":false,"rental_uris":{"android":"levelo://app?vid=6b770536-e0ee-4074-a4d5-7fac1065bae9","ios":"levelo://app?vid=6b770536-e0ee-4074-a4d5-7fac1065bae9"},"vehicle_type_id":"4","last_reported":1744082751,"current_range_meters":6800,"station_id":"ce4bhr92rcd13ifvqhsg","pricing_plan_id":"cebpf4jnsgd1na2vs0mg"},{"bike_id":"a959694d-18ce-4d80-917f-23c91ed81065","system_id":"levelo_inurba_marseille","lat":43.29896,"lon":5.43675,"is_reserved":false,"is_disabled":false,"rental_uris":{"android":"levelo://app?vid=a959694d-18ce-4d80-917f-23c91ed81065","ios":"levelo://app?vid=a959694d-18ce-4d80-917f-23c91ed81065"},"vehicle_type_id":"4","last_reported":1744082751,"current_range_meters":6800,"station_id":"ce4bhpp2rcd13ifvqhfg","pricing_plan_id":"cebpf4jnsgd1na2vs0mg"},{"bike_id":"c3e6d442-6282-4c88-9f90-93d85aff9e76","system_id":"levelo_inurba_marseille","lat":43.281657,"lon":5.426351,"is_reserved":false,"is_disabled":false,"rental_uris":{"android":"levelo://app?vid=c3e6d442-6282-4c88-9f90-93d85aff9e76","ios":"levelo://app?vid=c3e6d442-6282-4c88-9f90-93d85aff9e76"},"vehicle_type_id":"4","last_reported":1744082751,"current_range_meters":6800,"station_id":"ce4bhnh2rcd13ifvqgug","pricing_plan_id":"cebpf4jnsgd1na2vs0mg"},{"bike_id":"516d1131-8d22-4c00-9743-8f8296b9be79","system_id":"levelo_inurba_marseille","lat":43.25472,"lon":5.37681,"is_reserved":false,"is_disabled":true,"rental_uris":{"android":"levelo://app?vid=516d1131-8d22-4c00-9743-8f8296b9be79","ios":"levelo://app?vid=516d1131-8d22-4c00-9743-8f8296b9be79"},"vehicle_type_id":"4","last_reported":1744082751,"current_range_meters":6800,"station_id":"ce4bhh12rcd13ifvqff0","pricing_plan_id":"cebpf4jnsgd1na2vs0mg"},{"bike_id":"2f09e351-1fd4-46fd-aaf9-3fc007187281","system_id":"levelo_inurba_marseille","lat":43.306481,"lon":5.400646,"is_reserved":false,"is_disabled":false,"rental_uris":{"android":"levelo://app?vid=2f09e351-1fd4-46fd-aaf9-3fc007187281","ios":"levelo://app?vid=2f09e351-1fd4-46fd-aaf9-3fc007187281"},"vehicle_type_id":"4","last_reported":1744082751,"current_range_meters":6800,"station_id":"ce4bh112rcd13ifvqda0","pricing_plan_id":"cebpf4jnsgd1na2vs0mg"},{"bike_id":"6ebe9ec3-b74c-497b-aa8c-e68d0877c617","system_id":"levelo_inurba_marseille","lat":43.25119,"lon":5.40325,"is_reserved":false,"is_disabled":false,"rental_uris":{"android":"levelo://app?vid=6ebe9ec3-b74c-497b-aa8c-e68d0877c617","ios":"levelo://app?vid=6ebe9ec3-b74c-497b-aa8c-e68d0877c617"},"vehicle_type_id":"4","last_reported":1744082751,"current_range_meters":7200,"station_id":"ce4bhlh2rcd13ifvqgig","pricing_plan_id":"cebpf4jnsgd1na2vs0mg"},{"bike_id":"8ad3eac1-7b80-4d2d-a298-edefb7fece52","system_id":"levelo_inurba_marseille","lat":43.32342,"lon":5.36762,"is_reserved":false,"is_disabled":false,"rental_uris":{"android":"levelo://app?vid=8ad3eac1-7b80-4d2d-a298-edefb7fece52","ios":"levelo://app?vid=8ad3eac1-7b80-4d2d-a298-edefb7fece52"},"vehicle_type_id":"4","last_reported":1744082751,"current_range_meters":7200,"station_id":"ce4bhsh2rcd13ifvqi2g","pricing_plan_id":"cebpf4jnsgd1na2vs0mg"},{"bike_id":"ebc84582-195b-4b4a-b4a4-256c36fe0b00","system_id":"levelo_inurba_marseille","lat":43.270702,"lon":5.422668,"is_reserved":false,"is_disabled":false,"rental_uris":{"android":"levelo://app?vid=ebc84582-195b-4b4a-b4a4-256c36fe0b00","ios":"levelo://app?vid=ebc84582-195b-4b4a-b4a4-256c36fe0b00"},"vehicle_type_id":"4","last_reported":1744082751,"current_range_meters":7200,"station_id":"ce4bhk92rcd13ifvqgb0","pricing_plan_id":"cebpf4jnsgd1na2vs0mg"},{"bike_id":"755acd57-59ea-49ed-ad6a-698107bd5c37","system_id":"levelo_inurba_marseille","lat":43.323541,"lon":5.367571,"is_reserved":false,"is_disabled":false,"rental_uris":{"android":"levelo://app?vid=755acd57-59ea-49ed-ad6a-698107bd5c37","ios":"levelo://app?vid=755acd57-59ea-49ed-ad6a-698107bd5c37"},"vehicle_type_id":"4","last_reported":1744082751,"current_range_meters":7200,"station_id":"ce4bhsh2rcd13ifvqi2g","pricing_plan_id":"cebpf4jnsgd1na2vs0mg"},{"bike_id":"f3b83e8a-c65f-4f5d-8899-2b84c089f530","system_id":"levelo_inurba_marseille","lat":43.32124,"lon":5.36769,"is_reserved":false,"is_disabled":false,"rental_uris":{"android":"levelo://app?vid=f3b83e8a-c65f-4f5d-8899-2b84c089f530","ios":"levelo://app?vid=f3b83e8a-c65f-4f5d-8899-2b84c089f530"},"vehicle_type_id":"4","last_reported":1744082751,"current_range_meters":7200,"station_id":"ce4bhrh2rcd13ifvqhug","pricing_plan_id":"cebpf4jnsgd1na2vs0mg"},{"bike_id":"73276e73-379c-4215-bfe8-0a4cdf26f8fb","system_id":"levelo_inurba_marseille","lat":43.2739,"lon":5.36236,"is_reserved":false,"is_disabled":true,"rental_uris":{"android":"levelo://app?vid=73276e73-379c-4215-bfe8-0a4cdf26f8fb","ios":"levelo://app?vid=73276e73-379c-4215-bfe8-0a4cdf26f8fb"},"vehicle_type_id":"4","last_reported":1744082751,"current_range_meters":7200,"station_id":"ce4bhbh2rcd13ifvqeo0","pricing_plan_id":"cebpf4jnsgd1na2vs0mg"},{"bike_id":"24387c00-c894-493a-b556-5f0eeae60447","system_id":"levelo_inurba_marseille","lat":43.29514,"lon":5.390333,"is_reserved":false,"is_disabled":false,"rental_uris":{"android":"levelo://app?vid=24387c00-c894-493a-b556-5f0eeae60447","ios":"levelo://app?vid=24387c00-c894-493a-b556-5f0eeae60447"},"vehicle_type_id":"4","last_reported":1744082751,"current_range_meters":7200,"station_id":"ce4bh3p2rcd13ifvqdp0","pricing_plan_id":"cebpf4jnsgd1na2vs0mg"},{"bike_id":"e223670b-5545-4017-934f-c2adf2f3c08b","system_id":"levelo_inurba_marseille","lat":43.270688,"lon":5.422803,"is_reserved":false,"is_disabled":false,"rental_uris":{"android":"levelo://app?vid=e223670b-5545-4017-934f-c2adf2f3c08b","ios":"levelo://app?vid=e223670b-5545-4017-934f-c2adf2f3c08b"},"vehicle_type_id":"4","last_reported":1744082751,"current_range_meters":7200,"station_id":"ce4bhk92rcd13ifvqgb0","pricing_plan_id":"cebpf4jnsgd1na2vs0mg"},{"bike_id":"a5353134-0495-4e2a-a638-32c608b90f0c","system_id":"levelo_inurba_marseille","lat":43.31331,"lon":5.39691,"is_reserved":false,"is_disabled":false,"rental_uris":{"android":"levelo://app?vid=a5353134-0495-4e2a-a638-32c608b90f0c","ios":"levelo://app?vid=a5353134-0495-4e2a-a638-32c608b90f0c"},"vehicle_type_id":"4","last_reported":1744082751,"current_range_meters":7200,"station_id":"ce4bgvp2rcd13ifvqcu0","pricing_plan_id":"cebpf4jnsgd1na2vs0mg"},{"bike_id":"87bda883-ac94-49fc-94c2-3a86e52b4f97","system_id":"levelo_inurba_marseille","lat":43.30728,"lon":5.38347,"is_reserved":false,"is_disabled":false,"rental_uris":{"android":"levelo://app?vid=87bda883-ac94-49fc-94c2-3a86e52b4f97","ios":"levelo://app?vid=87bda883-ac94-49fc-94c2-3a86e52b4f97"},"vehicle_type_id":"4","last_reported":1744082751,"current_range_meters":8000,"station_id":"","pricing_plan_id":"cebpf4jnsgd1na2vs0mg"},{"bike_id":"6f0c8a80-7e89-4863-a8d6-f84e65c261ef","system_id":"levelo_inurba_marseille","lat":43.27169,"lon":5.40986,"is_reserved":false,"is_disabled":false,"rental_uris":{"android":"levelo://app?vid=6f0c8a80-7e89-4863-a8d6-f84e65c261ef","ios":"levelo://app?vid=6f0c8a80-7e89-4863-a8d6-f84e65c261ef"},"vehicle_type_id":"4","last_reported":1744082751,"current_range_meters":8000,"station_id":"ce4bhl12rcd13ifvqgf0","pricing_plan_id":"cebpf4jnsgd1na2vs0mg"},{"bike_id":"19224d95-e048-4cbb-8884-43e0e6b3db9b","system_id":"levelo_inurba_marseille","lat":43.29879,"lon":5.39771,"is_reserved":false,"is_disabled":true,"rental_uris":{"android":"levelo://app?vid=19224d95-e048-4cbb-8884-43e0e6b3db9b","ios":"levelo://app?vid=19224d95-e048-4cbb-8884-43e0e6b3db9b"},"vehicle_type_id":"4","last_reported":1744082751,"current_range_meters":8000,"station_id":"ce4bh0h2rcd13ifvqd50","pricing_plan_id":"cebpf4jnsgd1na2vs0mg"},{"bike_id":"5ba02e57-e745-47ce-9b93-c851debe9e12","system_id":"levelo_inurba_marseille","lat":43.27162,"lon":5.40997,"is_reserved":false,"is_disabled":false,"rental_uris":{"android":"levelo://app?vid=5ba02e57-e745-47ce-9b93-c851debe9e12","ios":"levelo://app?vid=5ba02e57-e745-47ce-9b93-c851debe9e12"},"vehicle_type_id":"4","last_reported":1744082751,"current_range_meters":8000,"station_id":"ce4bhl12rcd13ifvqgf0","pricing_plan_id":"cebpf4jnsgd1na2vs0mg"},{"bike_id":"7ae1c95c-1e2c-400a-8efd-618212ebe707","system_id":"levelo_inurba_marseille","lat":43.31523,"lon":5.38076,"is_reserved":false,"is_disabled":false,"rental_uris":{"android":"levelo://app?vid=7ae1c95c-1e2c-400a-8efd-618212ebe707","ios":"levelo://app?vid=7ae1c95c-1e2c-400a-8efd-618212ebe707"},"vehicle_type_id":"4","last_reported":1744082751,"current_range_meters":8000,"station_id":"ce4bhsp2rcd13ifvqi50","pricing_plan_id":"cebpf4jnsgd1na2vs0mg"},{"bike_id":"21ad2b20-e326-40c8-a3d6-b2092488dc26","system_id":"levelo_inurba_marseille","lat":43.24381,"lon":5.37012,"is_reserved":false,"is_disabled":false,"rental_uris":{"android":"levelo://app?vid=21ad2b20-e326-40c8-a3d6-b2092488dc26","ios":"levelo://app?vid=21ad2b20-e326-40c8-a3d6-b2092488dc26"},"vehicle_type_id":"4","last_reported":1744082751,"current_range_meters":8000,"station_id":"","pricing_plan_id":"cebpf4jnsgd1na2vs0mg"},{"bike_id":"21465284-4bc0-4c69-8d7f-95731c02f76d","system_id":"levelo_inurba_marseille","lat":43.31362,"lon":5.38508,"is_reserved":false,"is_disabled":false,"rental_uris":{"android":"levelo://app?vid=21465284-4bc0-4c69-8d7f-95731c02f76d","ios":"levelo://app?vid=21465284-4bc0-4c69-8d7f-95731c02f76d"},"vehicle_type_id":"4","last_reported":1744082751,"current_range_meters":8400,"station_id":"ce4bgt92rcd13ifvqcf0","pricing_plan_id":"cebpf4jnsgd1na2vs0mg"},{"bike_id":"d172a948-5b54-446c-9325-17335baba5c1","system_id":"levelo_inurba_marseille","lat":43.29376,"lon":5.37862,"is_reserved":false,"is_disabled":true,"rental_uris":{"android":"levelo://app?vid=d172a948-5b54-446c-9325-17335baba5c1","ios":"levelo://app?vid=d172a948-5b54-446c-9325-17335baba5c1"},"vehicle_type_id":"4","last_reported":1744082751,"current_range_meters":8400,"station_id":"ce4bgjh2rcd13ifvqbf0","pricing_plan_id":"cebpf4jnsgd1na2vs0mg"},{"bike_id":"db77aa95-72db-470c-9c43-5322da612de8","system_id":"levelo_inurba_marseille","lat":43.3182,"lon":5.40196,"is_reserved":false,"is_disabled":false,"rental_uris":{"android":"levelo://app?vid=db77aa95-72db-470c-9c43-5322da612de8","ios":"levelo://app?vid=db77aa95-72db-470c-9c43-5322da612de8"},"vehicle_type_id":"4","last_reported":1744082751,"current_range_meters":8400,"station_id":"","pricing_plan_id":"cebpf4jnsgd1na2vs0mg"},{"bike_id":"bec659b1-2ddb-41bf-9e2d-39084f6c1a4a","system_id":"levelo_inurba_marseille","lat":43.31708,"lon":5.42432,"is_reserved":false,"is_disabled":false,"rental_uris":{"android":"levelo://app?vid=bec659b1-2ddb-41bf-9e2d-39084f6c1a4a","ios":"levelo://app?vid=bec659b1-2ddb-41bf-9e2d-39084f6c1a4a"},"vehicle_type_id":"4","last_reported":1744082751,"current_range_meters":8400,"station_id":"ce4bhp92rcd13ifvqhbg","pricing_plan_id":"cebpf4jnsgd1na2vs0mg"},{"bike_id":"1a58a830-97d6-479c-b929-678336cf052d","system_id":"levelo_inurba_marseille","lat":43.31071,"lon":5.38353,"is_reserved":false,"is_disabled":false,"rental_uris":{"android":"levelo://app?vid=1a58a830-97d6-479c-b929-678336cf052d","ios":"levelo://app?vid=1a58a830-97d6-479c-b929-678336cf052d"},"vehicle_type_id":"4","last_reported":1744082751,"current_range_meters":8400,"station_id":"ce4bgv92rcd13ifvqcr0","pricing_plan_id":"cebpf4jnsgd1na2vs0mg"},{"bike_id":"9972aee6-4470-443a-8e14-c2078bb91c0d","system_id":"levelo_inurba_marseille","lat":43.31227,"lon":5.37078,"is_reserved":false,"is_disabled":false,"rental_uris":{"android":"levelo://app?vid=9972aee6-4470-443a-8e14-c2078bb91c0d","ios":"levelo://app?vid=9972aee6-4470-443a-8e14-c2078bb91c0d"},"vehicle_type_id":"4","last_reported":1744082751,"current_range_meters":8400,"station_id":"","pricing_plan_id":"cebpf4jnsgd1na2vs0mg"},{"bike_id":"cc057f14-b1e1-4dee-b107-8741c01c5964","system_id":"levelo_inurba_marseille","lat":43.320989,"lon":5.367744,"is_reserved":false,"is_disabled":true,"rental_uris":{"android":"levelo://app?vid=cc057f14-b1e1-4dee-b107-8741c01c5964","ios":"levelo://app?vid=cc057f14-b1e1-4dee-b107-8741c01c5964"},"vehicle_type_id":"4","last_reported":1744082751,"current_range_meters":8400,"station_id":"ce4bhrh2rcd13ifvqhug","pricing_plan_id":"cebpf4jnsgd1na2vs0mg"},{"bike_id":"1c24abbf-d842-4df3-9e43-2ef3129819ef","system_id":"levelo_inurba_marseille","lat":43.30872,"lon":5.39652,"is_reserved":false,"is_disabled":false,"rental_uris":{"android":"levelo://app?vid=1c24abbf-d842-4df3-9e43-2ef3129819ef","ios":"levelo://app?vid=1c24abbf-d842-4df3-9e43-2ef3129819ef"},"vehicle_type_id":"4","last_reported":1744082751,"current_range_meters":8400,"station_id":"ce4bh012rcd13ifvqcv0","pricing_plan_id":"cebpf4jnsgd1na2vs0mg"},{"bike_id":"23f348ed-c392-42a5-8d99-4feb7e18e1d2","system_id":"levelo_inurba_marseille","lat":43.28419,"lon":5.349844,"is_reserved":false,"is_disabled":false,"rental_uris":{"android":"levelo://app?vid=23f348ed-c392-42a5-8d99-4feb7e18e1d2","ios":"levelo://app?vid=23f348ed-c392-42a5-8d99-4feb7e18e1d2"},"vehicle_type_id":"4","last_reported":1744082751,"current_range_meters":8400,"station_id":"ce4bhbh2rcd13ifvqepg","pricing_plan_id":"cebpf4jnsgd1na2vs0mg"},{"bike_id":"ff0b2453-2fbb-467c-80b5-41964aa97aa4","system_id":"levelo_inurba_marseille","lat":43.310744,"lon":5.383513,"is_reserved":false,"is_disabled":false,"rental_uris":{"android":"levelo://app?vid=ff0b2453-2fbb-467c-80b5-41964aa97aa4","ios":"levelo://app?vid=ff0b2453-2fbb-467c-80b5-41964aa97aa4"},"vehicle_type_id":"4","last_reported":1744082751,"current_range_meters":8400,"station_id":"ce4bgv92rcd13ifvqcr0","pricing_plan_id":"cebpf4jnsgd1na2vs0mg"},{"bike_id":"472cc903-1990-45bb-855b-95941b9edb84","system_id":"levelo_inurba_marseille","lat":43.24385,"lon":5.37058,"is_reserved":false,"is_disabled":false,"rental_uris":{"android":"levelo://app?vid=472cc903-1990-45bb-855b-95941b9edb84","ios":"levelo://app?vid=472cc903-1990-45bb-855b-95941b9edb84"},"vehicle_type_id":"4","last_reported":1744082751,"current_range_meters":8800,"station_id":"ce4bhhh2rcd13ifvqfk0","pricing_plan_id":"cebpf4jnsgd1na2vs0mg"},{"bike_id":"750bc9c2-8244-4f27-a571-77c62d7d6b92","system_id":"levelo_inurba_marseille","lat":43.31281,"lon":5.37783,"is_reserved":false,"is_disabled":false,"rental_uris":{"android":"levelo://app?vid=750bc9c2-8244-4f27-a571-77c62d7d6b92","ios":"levelo://app?vid=750bc9c2-8244-4f27-a571-77c62d7d6b92"},"vehicle_type_id":"4","last_reported":1744082751,"current_range_meters":8800,"station_id":"","pricing_plan_id":"cebpf4jnsgd1na2vs0mg"},{"bike_id":"1e135bb9-2996-44c8-a5fc-6958b4edfbec","system_id":"levelo_inurba_marseille","lat":43.286995,"lon":5.373881,"is_reserved":false,"is_disabled":false,"rental_uris":{"android":"levelo://app?vid=1e135bb9-2996-44c8-a5fc-6958b4edfbec","ios":"levelo://app?vid=1e135bb9-2996-44c8-a5fc-6958b4edfbec"},"vehicle_type_id":"4","last_reported":1744082751,"current_range_meters":8800,"station_id":"ce4bh3p2rcd13ifvqdq0","pricing_plan_id":"cebpf4jnsgd1na2vs0mg"},{"bike_id":"89a19d3f-b1d3-4f5d-8160-598b05407dcb","system_id":"levelo_inurba_marseille","lat":43.271841,"lon":5.409881,"is_reserved":false,"is_disabled":false,"rental_uris":{"android":"levelo://app?vid=89a19d3f-b1d3-4f5d-8160-598b05407dcb","ios":"levelo://app?vid=89a19d3f-b1d3-4f5d-8160-598b05407dcb"},"vehicle_type_id":"4","last_reported":1744082751,"current_range_meters":8800,"station_id":"ce4bhl12rcd13ifvqgf0","pricing_plan_id":"cebpf4jnsgd1na2vs0mg"},{"bike_id":"5f681a49-975c-472d-b2c6-15a047985b3a","system_id":"levelo_inurba_marseille","lat":43.23967,"lon":5.36636,"is_reserved":false,"is_disabled":false,"rental_uris":{"android":"levelo://app?vid=5f681a49-975c-472d-b2c6-15a047985b3a","ios":"levelo://app?vid=5f681a49-975c-472d-b2c6-15a047985b3a"},"vehicle_type_id":"4","last_reported":1744082751,"current_range_meters":8800,"station_id":"ce4bhi12rcd13ifvqfp0","pricing_plan_id":"cebpf4jnsgd1na2vs0mg"},{"bike_id":"62f09ee9-4a5c-4371-a1a6-0cfab82c7212","system_id":"levelo_inurba_marseille","lat":43.29511,"lon":5.38607,"is_reserved":false,"is_disabled":false,"rental_uris":{"android":"levelo://app?vid=62f09ee9-4a5c-4371-a1a6-0cfab82c7212","ios":"levelo://app?vid=62f09ee9-4a5c-4371-a1a6-0cfab82c7212"},"vehicle_type_id":"4","last_reported":1744082751,"current_range_meters":8800,"station_id":"ce4bgih2rcd13ifvqba0","pricing_plan_id":"cebpf4jnsgd1na2vs0mg"},{"bike_id":"8b497f79-9857-4c2e-ae6e-95b0d6ccbc52","system_id":"levelo_inurba_marseille","lat":43.324877,"lon":5.36584,"is_reserved":false,"is_disabled":true,"rental_uris":{"android":"levelo://app?vid=8b497f79-9857-4c2e-ae6e-95b0d6ccbc52","ios":"levelo://app?vid=8b497f79-9857-4c2e-ae6e-95b0d6ccbc52"},"vehicle_type_id":"4","last_reported":1744082751,"current_range_meters":8800,"station_id":"ce4bhs12rcd13ifvqhvg","pricing_plan_id":"cebpf4jnsgd1na2vs0mg"},{"bike_id":"817f52cf-2cb6-4ea2-a9a3-6b1f29447fc4","system_id":"levelo_inurba_marseille","lat":43.28924,"lon":5.36637,"is_reserved":false,"is_disabled":true,"rental_uris":{"android":"levelo://app?vid=817f52cf-2cb6-4ea2-a9a3-6b1f29447fc4","ios":"levelo://app?vid=817f52cf-2cb6-4ea2-a9a3-6b1f29447fc4"},"vehicle_type_id":"4","last_reported":1744082751,"current_range_meters":8800,"station_id":"ce4bhap2rcd13ifvqek0","pricing_plan_id":"cebpf4jnsgd1na2vs0mg"},{"bike_id":"33eab9e3-83f0-4e14-afd5-e4a95f650b8d","system_id":"levelo_inurba_marseille","lat":43.29784,"lon":5.40416,"is_reserved":false,"is_disabled":false,"rental_uris":{"android":"levelo://app?vid=33eab9e3-83f0-4e14-afd5-e4a95f650b8d","ios":"levelo://app?vid=33eab9e3-83f0-4e14-afd5-e4a95f650b8d"},"vehicle_type_id":"4","last_reported":1744082751,"current_range_meters":8800,"station_id":"ce4bh112rcd13ifvqd90","pricing_plan_id":"cebpf4jnsgd1na2vs0mg"},{"bike_id":"e629f8b3-2659-45d3-9547-6dc134a84892","system_id":"levelo_inurba_marseille","lat":43.27802,"lon":5.40701,"is_reserved":false,"is_disabled":false,"rental_uris":{"android":"levelo://app?vid=e629f8b3-2659-45d3-9547-6dc134a84892","ios":"levelo://app?vid=e629f8b3-2659-45d3-9547-6dc134a84892"},"vehicle_type_id":"4","last_reported":1744082751,"current_range_meters":8800,"station_id":"ce4bhnh2rcd13ifvqgtg","pricing_plan_id":"cebpf4jnsgd1na2vs0mg"},{"bike_id":"70234b52-bc3d-48f7-a795-85c45f7b3313","system_id":"levelo_inurba_marseille","lat":43.30441,"lon":5.38899,"is_reserved":false,"is_disabled":false,"rental_uris":{"android":"levelo://app?vid=70234b52-bc3d-48f7-a795-85c45f7b3313","ios":"levelo://app?vid=70234b52-bc3d-48f7-a795-85c45f7b3313"},"vehicle_type_id":"4","last_reported":1744082751,"current_range_meters":8800,"station_id":"ce4bgk12rcd13ifvqbi0","pricing_plan_id":"cebpf4jnsgd1na2vs0mg"},{"bike_id":"9f58fe17-7445-4171-ab8a-b7da8864df25","system_id":"levelo_inurba_marseille","lat":43.29891,"lon":5.43655,"is_reserved":false,"is_disabled":false,"rental_uris":{"android":"levelo://app?vid=9f58fe17-7445-4171-ab8a-b7da8864df25","ios":"levelo://app?vid=9f58fe17-7445-4171-ab8a-b7da8864df25"},"vehicle_type_id":"4","last_reported":1744082751,"current_range_meters":8800,"station_id":"ce4bhpp2rcd13ifvqhfg","pricing_plan_id":"cebpf4jnsgd1na2vs0mg"},{"bike_id":"3cbad1fb-d71d-4e4f-90fa-c1465f9f9b65","system_id":"levelo_inurba_marseille","lat":43.21164,"lon":5.3512,"is_reserved":false,"is_disabled":false,"rental_uris":{"android":"levelo://app?vid=3cbad1fb-d71d-4e4f-90fa-c1465f9f9b65","ios":"levelo://app?vid=3cbad1fb-d71d-4e4f-90fa-c1465f9f9b65"},"vehicle_type_id":"4","last_reported":1744082751,"current_range_meters":8800,"station_id":"st_cvj6sg6p6f1abm77japg","pricing_plan_id":"cebpf4jnsgd1na2vs0mg"},{"bike_id":"17ae3293-59cd-4be2-9b83-3db3af796493","system_id":"levelo_inurba_marseille","lat":43.304,"lon":5.41304,"is_reserved":false,"is_disabled":false,"rental_uris":{"android":"levelo://app?vid=17ae3293-59cd-4be2-9b83-3db3af796493","ios":"levelo://app?vid=17ae3293-59cd-4be2-9b83-3db3af796493"},"vehicle_type_id":"4","last_reported":1744082751,"current_range_meters":9200,"station_id":"ce4bhop2rcd13ifvqh8g","pricing_plan_id":"cebpf4jnsgd1na2vs0mg"},{"bike_id":"591f7ff7-49c6-474d-b679-0369581a4079","system_id":"levelo_inurba_marseille","lat":43.302,"lon":5.39464,"is_reserved":false,"is_disabled":false,"rental_uris":{"android":"levelo://app?vid=591f7ff7-49c6-474d-b679-0369581a4079","ios":"levelo://app?vid=591f7ff7-49c6-474d-b679-0369581a4079"},"vehicle_type_id":"4","last_reported":1744082751,"current_range_meters":9200,"station_id":"ce4bh0p2rcd13ifvqd70","pricing_plan_id":"cebpf4jnsgd1na2vs0mg"},{"bike_id":"9389f907-78e2-4c8e-b008-de9739faa63f","system_id":"levelo_inurba_marseille","lat":43.330279,"lon":5.394344,"is_reserved":false,"is_disabled":false,"rental_uris":{"android":"levelo://app?vid=9389f907-78e2-4c8e-b008-de9739faa63f","ios":"levelo://app?vid=9389f907-78e2-4c8e-b008-de9739faa63f"},"vehicle_type_id":"4","last_reported":1744082751,"current_range_meters":9200,"station_id":"","pricing_plan_id":"cebpf4jnsgd1na2vs0mg"},{"bike_id":"7b3646e0-cbf2-40de-92a8-c829ec618775","system_id":"levelo_inurba_marseille","lat":43.319915,"lon":5.381496,"is_reserved":false,"is_disabled":true,"rental_uris":{"android":"levelo://app?vid=7b3646e0-cbf2-40de-92a8-c829ec618775","ios":"levelo://app?vid=7b3646e0-cbf2-40de-92a8-c829ec618775"},"vehicle_type_id":"4","last_reported":1744082751,"current_range_meters":9200,"station_id":"ce4bhr12rcd13ifvqhpg","pricing_plan_id":"cebpf4jnsgd1na2vs0mg"},{"bike_id":"d5336e05-c483-42e9-9d22-06117ee9ac14","system_id":"levelo_inurba_marseille","lat":43.286131,"lon":5.351031,"is_reserved":false,"is_disabled":false,"rental_uris":{"android":"levelo://app?vid=d5336e05-c483-42e9-9d22-06117ee9ac14","ios":"levelo://app?vid=d5336e05-c483-42e9-9d22-06117ee9ac14"},"vehicle_type_id":"4","last_reported":1744082751,"current_range_meters":9200,"station_id":"ce4bhch2rcd13ifvqeug","pricing_plan_id":"cebpf4jnsgd1na2vs0mg"},{"bike_id":"9aac2fe2-cdbb-4c6c-a98a-ccac5f4e4d8e","system_id":"levelo_inurba_marseille","lat":43.27903,"lon":5.38028,"is_reserved":false,"is_disabled":false,"rental_uris":{"android":"levelo://app?vid=9aac2fe2-cdbb-4c6c-a98a-ccac5f4e4d8e","ios":"levelo://app?vid=9aac2fe2-cdbb-4c6c-a98a-ccac5f4e4d8e"},"vehicle_type_id":"4","last_reported":1744082751,"current_range_meters":9200,"station_id":"ce4bhf92rcd13ifvqf50","pricing_plan_id":"cebpf4jnsgd1na2vs0mg"},{"bike_id":"444a5f07-09c5-40f5-8d58-60f1f25c67b9","system_id":"levelo_inurba_marseille","lat":43.319917,"lon":5.381517,"is_reserved":false,"is_disabled":false,"rental_uris":{"android":"levelo://app?vid=444a5f07-09c5-40f5-8d58-60f1f25c67b9","ios":"levelo://app?vid=444a5f07-09c5-40f5-8d58-60f1f25c67b9"},"vehicle_type_id":"4","last_reported":1744082751,"current_range_meters":9200,"station_id":"ce4bhr12rcd13ifvqhpg","pricing_plan_id":"cebpf4jnsgd1na2vs0mg"},{"bike_id":"485f24a3-8ba6-4caa-8780-8392668d8f6b","system_id":"levelo_inurba_marseille","lat":43.31692,"lon":5.37784,"is_reserved":false,"is_disabled":false,"rental_uris":{"android":"levelo://app?vid=485f24a3-8ba6-4caa-8780-8392668d8f6b","ios":"levelo://app?vid=485f24a3-8ba6-4caa-8780-8392668d8f6b"},"vehicle_type_id":"4","last_reported":1744082751,"current_range_meters":9600,"station_id":"ce4bgth2rcd13ifvqch0","pricing_plan_id":"cebpf4jnsgd1na2vs0mg"},{"bike_id":"7b879770-1bbd-421d-9c8b-e0235cabedcf","system_id":"levelo_inurba_marseille","lat":43.254033,"lon":5.418975,"is_reserved":false,"is_disabled":false,"rental_uris":{"android":"levelo://app?vid=7b879770-1bbd-421d-9c8b-e0235cabedcf","ios":"levelo://app?vid=7b879770-1bbd-421d-9c8b-e0235cabedcf"},"vehicle_type_id":"4","last_reported":1744082751,"current_range_meters":9600,"station_id":"","pricing_plan_id":"cebpf4jnsgd1na2vs0mg"},{"bike_id":"20ef46eb-3f7b-455c-a8ba-38646f63cf11","system_id":"levelo_inurba_marseille","lat":43.30947,"lon":5.40233,"is_reserved":false,"is_disabled":false,"rental_uris":{"android":"levelo://app?vid=20ef46eb-3f7b-455c-a8ba-38646f63cf11","ios":"levelo://app?vid=20ef46eb-3f7b-455c-a8ba-38646f63cf11"},"vehicle_type_id":"4","last_reported":1744082751,"current_range_meters":9600,"station_id":"","pricing_plan_id":"cebpf4jnsgd1na2vs0mg"},{"bike_id":"ca53f4ce-a20d-441d-88c7-4b3a7e17cae3","system_id":"levelo_inurba_marseille","lat":43.271882,"lon":5.409854,"is_reserved":false,"is_disabled":false,"rental_uris":{"android":"levelo://app?vid=ca53f4ce-a20d-441d-88c7-4b3a7e17cae3","ios":"levelo://app?vid=ca53f4ce-a20d-441d-88c7-4b3a7e17cae3"},"vehicle_type_id":"4","last_reported":1744082751,"current_range_meters":9600,"station_id":"ce4bhl12rcd13ifvqgf0","pricing_plan_id":"cebpf4jnsgd1na2vs0mg"},{"bike_id":"97300505-de07-428c-9e05-3cd53e320821","system_id":"levelo_inurba_marseille","lat":43.30598,"lon":5.39353,"is_reserved":false,"is_disabled":false,"rental_uris":{"android":"levelo://app?vid=97300505-de07-428c-9e05-3cd53e320821","ios":"levelo://app?vid=97300505-de07-428c-9e05-3cd53e320821"},"vehicle_type_id":"4","last_reported":1744082751,"current_range_meters":9600,"station_id":"ce4bh0p2rcd13ifvqd80","pricing_plan_id":"cebpf4jnsgd1na2vs0mg"},{"bike_id":"f39be6f5-2f69-4c37-b021-559d20b299a4","system_id":"levelo_inurba_marseille","lat":43.30009,"lon":5.37658,"is_reserved":false,"is_disabled":false,"rental_uris":{"android":"levelo://app?vid=f39be6f5-2f69-4c37-b021-559d20b299a4","ios":"levelo://app?vid=f39be6f5-2f69-4c37-b021-559d20b299a4"},"vehicle_type_id":"4","last_reported":1744082751,"current_range_meters":9600,"station_id":"","pricing_plan_id":"cebpf4jnsgd1na2vs0mg"},{"bike_id":"1e01d50e-cead-45bb-a3a4-7e0d04b7b063","system_id":"levelo_inurba_marseille","lat":43.29023,"lon":5.38651,"is_reserved":false,"is_disabled":true,"rental_uris":{"android":"levelo://app?vid=1e01d50e-cead-45bb-a3a4-7e0d04b7b063","ios":"levelo://app?vid=1e01d50e-cead-45bb-a3a4-7e0d04b7b063"},"vehicle_type_id":"4","last_reported":1744082751,"current_range_meters":9600,"station_id":"ce4bh4p2rcd13ifvqe0g","pricing_plan_id":"cebpf4jnsgd1na2vs0mg"},{"bike_id":"b97be67a-237b-4810-9f2a-b7321431efc6","system_id":"levelo_inurba_marseille","lat":43.31316,"lon":5.39703,"is_reserved":false,"is_disabled":false,"rental_uris":{"android":"levelo://app?vid=b97be67a-237b-4810-9f2a-b7321431efc6","ios":"levelo://app?vid=b97be67a-237b-4810-9f2a-b7321431efc6"},"vehicle_type_id":"4","last_reported":1744082751,"current_range_meters":9600,"station_id":"ce4bgvp2rcd13ifvqcu0","pricing_plan_id":"cebpf4jnsgd1na2vs0mg"},{"bike_id":"847cff54-9149-4fb3-8217-2338a6e302d9","system_id":"levelo_inurba_marseille","lat":43.28873,"lon":5.35857,"is_reserved":false,"is_disabled":false,"rental_uris":{"android":"levelo://app?vid=847cff54-9149-4fb3-8217-2338a6e302d9","ios":"levelo://app?vid=847cff54-9149-4fb3-8217-2338a6e302d9"},"vehicle_type_id":"4","last_reported":1744082751,"current_range_meters":9600,"station_id":"ce4bhb12rcd13ifvqem0","pricing_plan_id":"cebpf4jnsgd1na2vs0mg"},{"bike_id":"48fccb4f-09f1-4e65-a7d2-a88a68c57483","system_id":"levelo_inurba_marseille","lat":43.3112,"lon":5.37762,"is_reserved":false,"is_disabled":false,"rental_uris":{"android":"levelo://app?vid=48fccb4f-09f1-4e65-a7d2-a88a68c57483","ios":"levelo://app?vid=48fccb4f-09f1-4e65-a7d2-a88a68c57483"},"vehicle_type_id":"4","last_reported":1744082751,"current_range_meters":9600,"station_id":"ce4bgt92rcd13ifvqcg0","pricing_plan_id":"cebpf4jnsgd1na2vs0mg"},{"bike_id":"2e9000dc-6400-4918-a994-dd60039ca96d","system_id":"levelo_inurba_marseille","lat":43.320038,"lon":5.381553,"is_reserved":false,"is_disabled":true,"rental_uris":{"android":"levelo://app?vid=2e9000dc-6400-4918-a994-dd60039ca96d","ios":"levelo://app?vid=2e9000dc-6400-4918-a994-dd60039ca96d"},"vehicle_type_id":"4","last_reported":1744082751,"current_range_meters":9600,"station_id":"ce4bhr12rcd13ifvqhpg","pricing_plan_id":"cebpf4jnsgd1na2vs0mg"},{"bike_id":"d1789c99-5c7c-4e88-9d29-ce771e783c08","system_id":"levelo_inurba_marseille","lat":43.31019,"lon":5.37725,"is_reserved":false,"is_disabled":false,"rental_uris":{"android":"levelo://app?vid=d1789c99-5c7c-4e88-9d29-ce771e783c08","ios":"levelo://app?vid=d1789c99-5c7c-4e88-9d29-ce771e783c08"},"vehicle_type_id":"4","last_reported":1744082751,"current_range_meters":10000,"station_id":"","pricing_plan_id":"cebpf4jnsgd1na2vs0mg"},{"bike_id":"f11deefa-fd09-4262-a77e-35f24c433380","system_id":"levelo_inurba_marseille","lat":43.309531,"lon":5.390323,"is_reserved":false,"is_disabled":false,"rental_uris":{"android":"levelo://app?vid=f11deefa-fd09-4262-a77e-35f24c433380","ios":"levelo://app?vid=f11deefa-fd09-4262-a77e-35f24c433380"},"vehicle_type_id":"4","last_reported":1744082751,"current_range_meters":10000,"station_id":"ce4bgup2rcd13ifvqco0","pricing_plan_id":"cebpf4jnsgd1na2vs0mg"},{"bike_id":"bb27bf37-4989-481b-9324-76c7fb81df3c","system_id":"levelo_inurba_marseille","lat":43.31163,"lon":5.38715,"is_reserved":false,"is_disabled":false,"rental_uris":{"android":"levelo://app?vid=bb27bf37-4989-481b-9324-76c7fb81df3c","ios":"levelo://app?vid=bb27bf37-4989-481b-9324-76c7fb81df3c"},"vehicle_type_id":"4","last_reported":1744082751,"current_range_meters":10000,"station_id":"ce4bgv12rcd13ifvqcp0","pricing_plan_id":"cebpf4jnsgd1na2vs0mg"},{"bike_id":"3576b946-70b3-456f-a60a-d98e227f015c","system_id":"levelo_inurba_marseille","lat":43.30092,"lon":5.38234,"is_reserved":false,"is_disabled":false,"rental_uris":{"android":"levelo://app?vid=3576b946-70b3-456f-a60a-d98e227f015c","ios":"levelo://app?vid=3576b946-70b3-456f-a60a-d98e227f015c"},"vehicle_type_id":"4","last_reported":1744082751,"current_range_meters":10000,"station_id":"ce4bgup2rcd13ifvqcn0","pricing_plan_id":"cebpf4jnsgd1na2vs0mg"},{"bike_id":"180237b6-a2b6-449d-9ae5-9e520f727ee7","system_id":"levelo_inurba_marseille","lat":43.287277,"lon":5.360795,"is_reserved":false,"is_disabled":false,"rental_uris":{"android":"levelo://app?vid=180237b6-a2b6-449d-9ae5-9e520f727ee7","ios":"levelo://app?vid=180237b6-a2b6-449d-9ae5-9e520f727ee7"},"vehicle_type_id":"4","last_reported":1744082751,"current_range_meters":10000,"station_id":"cki0cbj6b192h4jlfktg","pricing_plan_id":"cebpf4jnsgd1na2vs0mg"},{"bike_id":"3164d024-3042-42c3-b471-557460cea48d","system_id":"levelo_inurba_marseille","lat":43.281515,"lon":5.426436,"is_reserved":false,"is_disabled":false,"rental_uris":{"android":"levelo://app?vid=3164d024-3042-42c3-b471-557460cea48d","ios":"levelo://app?vid=3164d024-3042-42c3-b471-557460cea48d"},"vehicle_type_id":"4","last_reported":1744082751,"current_range_meters":10000,"station_id":"ce4bhnh2rcd13ifvqgug","pricing_plan_id":"cebpf4jnsgd1na2vs0mg"},{"bike_id":"89771962-fe60-4144-a8a6-39dd0f7b9fb3","system_id":"levelo_inurba_marseille","lat":43.21196,"lon":5.35111,"is_reserved":false,"is_disabled":false,"rental_uris":{"android":"levelo://app?vid=89771962-fe60-4144-a8a6-39dd0f7b9fb3","ios":"levelo://app?vid=89771962-fe60-4144-a8a6-39dd0f7b9fb3"},"vehicle_type_id":"4","last_reported":1744082751,"current_range_meters":10000,"station_id":"st_cvj6sg6p6f1abm77japg","pricing_plan_id":"cebpf4jnsgd1na2vs0mg"},{"bike_id":"257d1c02-5396-419e-a612-6a8a1704493e","system_id":"levelo_inurba_marseille","lat":43.29009,"lon":5.3754,"is_reserved":false,"is_disabled":true,"rental_uris":{"android":"levelo://app?vid=257d1c02-5396-419e-a612-6a8a1704493e","ios":"levelo://app?vid=257d1c02-5396-419e-a612-6a8a1704493e"},"vehicle_type_id":"4","last_reported":1744082751,"current_range_meters":10000,"station_id":"ce4bh692rcd13ifvqe90","pricing_plan_id":"cebpf4jnsgd1na2vs0mg"},{"bike_id":"1caaf187-7c56-4777-81af-6cb943962ba6","system_id":"levelo_inurba_marseille","lat":43.30311,"lon":5.39218,"is_reserved":false,"is_disabled":true,"rental_uris":{"android":"levelo://app?vid=1caaf187-7c56-4777-81af-6cb943962ba6","ios":"levelo://app?vid=1caaf187-7c56-4777-81af-6cb943962ba6"},"vehicle_type_id":"4","last_reported":1744082751,"current_range_meters":10000,"station_id":"ce4bgkh2rcd13ifvqbk0","pricing_plan_id":"cebpf4jnsgd1na2vs0mg"},{"bike_id":"dff0c398-5457-4c82-99b9-071db8607d47","system_id":"levelo_inurba_marseille","lat":43.256912,"lon":5.419292,"is_reserved":false,"is_disabled":false,"rental_uris":{"android":"levelo://app?vid=dff0c398-5457-4c82-99b9-071db8607d47","ios":"levelo://app?vid=dff0c398-5457-4c82-99b9-071db8607d47"},"vehicle_type_id":"4","last_reported":1744082751,"current_range_meters":10800,"station_id":"","pricing_plan_id":"cebpf4jnsgd1na2vs0mg"},{"bike_id":"b91e6d98-8f8c-47e9-b9cb-3e7a40463731","system_id":"levelo_inurba_marseille","lat":43.30453,"lon":5.38897,"is_reserved":false,"is_disabled":false,"rental_uris":{"android":"levelo://app?vid=b91e6d98-8f8c-47e9-b9cb-3e7a40463731","ios":"levelo://app?vid=b91e6d98-8f8c-47e9-b9cb-3e7a40463731"},"vehicle_type_id":"4","last_reported":1744082751,"current_range_meters":10800,"station_id":"ce4bgk12rcd13ifvqbi0","pricing_plan_id":"cebpf4jnsgd1na2vs0mg"},{"bike_id":"f17ce36f-e80a-4732-89e2-7a7dfab19d87","system_id":"levelo_inurba_marseille","lat":43.299007,"lon":5.436549,"is_reserved":false,"is_disabled":false,"rental_uris":{"android":"levelo://app?vid=f17ce36f-e80a-4732-89e2-7a7dfab19d87","ios":"levelo://app?vid=f17ce36f-e80a-4732-89e2-7a7dfab19d87"},"vehicle_type_id":"4","last_reported":1744082751,"current_range_meters":10800,"station_id":"ce4bhpp2rcd13ifvqhfg","pricing_plan_id":"cebpf4jnsgd1na2vs0mg"},{"bike_id":"fb7a1608-45dc-49fb-b059-ed5163e78863","system_id":"levelo_inurba_marseille","lat":43.317087,"lon":5.437046,"is_reserved":false,"is_disabled":false,"rental_uris":{"android":"levelo://app?vid=fb7a1608-45dc-49fb-b059-ed5163e78863","ios":"levelo://app?vid=fb7a1608-45dc-49fb-b059-ed5163e78863"},"vehicle_type_id":"4","last_reported":1744082751,"current_range_meters":10800,"station_id":"ce4bhp92rcd13ifvqhcg","pricing_plan_id":"cebpf4jnsgd1na2vs0mg"},{"bike_id":"82f28cf6-556c-431d-a12b-bd3ce5fc2f28","system_id":"levelo_inurba_marseille","lat":43.27505,"lon":5.37798,"is_reserved":false,"is_disabled":false,"rental_uris":{"android":"levelo://app?vid=82f28cf6-556c-431d-a12b-bd3ce5fc2f28","ios":"levelo://app?vid=82f28cf6-556c-431d-a12b-bd3ce5fc2f28"},"vehicle_type_id":"4","last_reported":1744082751,"current_range_meters":10800,"station_id":"","pricing_plan_id":"cebpf4jnsgd1na2vs0mg"},{"bike_id":"e42a3a9c-b79c-475c-96dc-e16180b680f3","system_id":"levelo_inurba_marseille","lat":43.33611,"lon":5.41026,"is_reserved":false,"is_disabled":false,"rental_uris":{"android":"levelo://app?vid=e42a3a9c-b79c-475c-96dc-e16180b680f3","ios":"levelo://app?vid=e42a3a9c-b79c-475c-96dc-e16180b680f3"},"vehicle_type_id":"4","last_reported":1744082751,"current_range_meters":10800,"station_id":"ce4bhqh2rcd13ifvqhmg","pricing_plan_id":"cebpf4jnsgd1na2vs0mg"},{"bike_id":"3271a773-81a4-4437-9f2d-ccac69221033","system_id":"levelo_inurba_marseille","lat":43.26569,"lon":5.38992,"is_reserved":false,"is_disabled":false,"rental_uris":{"android":"levelo://app?vid=3271a773-81a4-4437-9f2d-ccac69221033","ios":"levelo://app?vid=3271a773-81a4-4437-9f2d-ccac69221033"},"vehicle_type_id":"4","last_reported":1744082751,"current_range_meters":10800,"station_id":"ce4bhe12rcd13ifvqf30","pricing_plan_id":"cebpf4jnsgd1na2vs0mg"},{"bike_id":"9dfb4532-bf8c-4fd1-a03a-d57492154d55","system_id":"levelo_inurba_marseille","lat":43.30226,"lon":5.3947,"is_reserved":false,"is_disabled":false,"rental_uris":{"android":"levelo://app?vid=9dfb4532-bf8c-4fd1-a03a-d57492154d55","ios":"levelo://app?vid=9dfb4532-bf8c-4fd1-a03a-d57492154d55"},"vehicle_type_id":"4","last_reported":1744082751,"current_range_meters":10800,"station_id":"ce4bh0p2rcd13ifvqd70","pricing_plan_id":"cebpf4jnsgd1na2vs0mg"},{"bike_id":"149d12c1-918e-45ca-96d3-9e3d71a1137b","system_id":"levelo_inurba_marseille","lat":43.29036,"lon":5.40013,"is_reserved":false,"is_disabled":false,"rental_uris":{"android":"levelo://app?vid=149d12c1-918e-45ca-96d3-9e3d71a1137b","ios":"levelo://app?vid=149d12c1-918e-45ca-96d3-9e3d71a1137b"},"vehicle_type_id":"4","last_reported":1744082751,"current_range_meters":10800,"station_id":"","pricing_plan_id":"cebpf4jnsgd1na2vs0mg"},{"bike_id":"4ee272f5-b2c0-449c-8b01-facdb8da4962","system_id":"levelo_inurba_marseille","lat":43.28408,"lon":5.34996,"is_reserved":false,"is_disabled":false,"rental_uris":{"android":"levelo://app?vid=4ee272f5-b2c0-449c-8b01-facdb8da4962","ios":"levelo://app?vid=4ee272f5-b2c0-449c-8b01-facdb8da4962"},"vehicle_type_id":"4","last_reported":1744082751,"current_range_meters":11200,"station_id":"ce4bhbh2rcd13ifvqepg","pricing_plan_id":"cebpf4jnsgd1na2vs0mg"},{"bike_id":"ec7d3251-d53b-4874-b96d-6dae899b6aa1","system_id":"levelo_inurba_marseille","lat":43.272001,"lon":5.39193,"is_reserved":false,"is_disabled":true,"rental_uris":{"android":"levelo://app?vid=ec7d3251-d53b-4874-b96d-6dae899b6aa1","ios":"levelo://app?vid=ec7d3251-d53b-4874-b96d-6dae899b6aa1"},"vehicle_type_id":"4","last_reported":1744082751,"current_range_meters":11200,"station_id":"ce4bhhp2rcd13ifvqfm0","pricing_plan_id":"cebpf4jnsgd1na2vs0mg"},{"bike_id":"b7d15525-0102-4d63-b7d3-eaa2bc4c21c3","system_id":"levelo_inurba_marseille","lat":43.217459,"lon":5.346065,"is_reserved":false,"is_disabled":true,"rental_uris":{"android":"levelo://app?vid=b7d15525-0102-4d63-b7d3-eaa2bc4c21c3","ios":"levelo://app?vid=b7d15525-0102-4d63-b7d3-eaa2bc4c21c3"},"vehicle_type_id":"4","last_reported":1744082751,"current_range_meters":11200,"station_id":"","pricing_plan_id":"cebpf4jnsgd1na2vs0mg"},{"bike_id":"034b881e-44c7-46eb-affa-8c5577be2c99","system_id":"levelo_inurba_marseille","lat":43.27829,"lon":5.40795,"is_reserved":false,"is_disabled":false,"rental_uris":{"android":"levelo://app?vid=034b881e-44c7-46eb-affa-8c5577be2c99","ios":"levelo://app?vid=034b881e-44c7-46eb-affa-8c5577be2c99"},"vehicle_type_id":"4","last_reported":1744082751,"current_range_meters":11200,"station_id":"ce4bhnh2rcd13ifvqgtg","pricing_plan_id":"cebpf4jnsgd1na2vs0mg"},{"bike_id":"4b9dfe05-0e60-423c-af4b-3ef6e8cad4ce","system_id":"levelo_inurba_marseille","lat":43.25086,"lon":5.40371,"is_reserved":false,"is_disabled":true,"rental_uris":{"android":"levelo://app?vid=4b9dfe05-0e60-423c-af4b-3ef6e8cad4ce","ios":"levelo://app?vid=4b9dfe05-0e60-423c-af4b-3ef6e8cad4ce"},"vehicle_type_id":"4","last_reported":1744082751,"current_range_meters":11200,"station_id":"ce4bhlh2rcd13ifvqgig","pricing_plan_id":"cebpf4jnsgd1na2vs0mg"},{"bike_id":"2dbe479e-5dc3-45c8-9353-aebf6a71a122","system_id":"levelo_inurba_marseille","lat":43.303284,"lon":5.378718,"is_reserved":false,"is_disabled":false,"rental_uris":{"android":"levelo://app?vid=2dbe479e-5dc3-45c8-9353-aebf6a71a122","ios":"levelo://app?vid=2dbe479e-5dc3-45c8-9353-aebf6a71a122"},"vehicle_type_id":"4","last_reported":1744082751,"current_range_meters":11200,"station_id":"ce4bguh2rcd13ifvqcj0","pricing_plan_id":"cebpf4jnsgd1na2vs0mg"},{"bike_id":"fb9f6b16-b64d-4eb9-b329-0548a57bc9c5","system_id":"levelo_inurba_marseille","lat":43.30079,"lon":5.39094,"is_reserved":false,"is_disabled":false,"rental_uris":{"android":"levelo://app?vid=fb9f6b16-b64d-4eb9-b329-0548a57bc9c5","ios":"levelo://app?vid=fb9f6b16-b64d-4eb9-b329-0548a57bc9c5"},"vehicle_type_id":"4","last_reported":1744082751,"current_range_meters":11600,"station_id":"ce4bh192rcd13ifvqdb0","pricing_plan_id":"cebpf4jnsgd1na2vs0mg"},{"bike_id":"e53b9e9b-ac51-4f70-ad60-ed3149b8c178","system_id":"levelo_inurba_marseille","lat":43.31456,"lon":5.37217,"is_reserved":false,"is_disabled":false,"rental_uris":{"android":"levelo://app?vid=e53b9e9b-ac51-4f70-ad60-ed3149b8c178","ios":"levelo://app?vid=e53b9e9b-ac51-4f70-ad60-ed3149b8c178"},"vehicle_type_id":"4","last_reported":1744082751,"current_range_meters":11600,"station_id":"","pricing_plan_id":"cebpf4jnsgd1na2vs0mg"},{"bike_id":"85acd6d3-0e9c-4dc3-a1fa-e50853658602","system_id":"levelo_inurba_marseille","lat":43.30892,"lon":5.39633,"is_reserved":false,"is_disabled":false,"rental_uris":{"android":"levelo://app?vid=85acd6d3-0e9c-4dc3-a1fa-e50853658602","ios":"levelo://app?vid=85acd6d3-0e9c-4dc3-a1fa-e50853658602"},"vehicle_type_id":"4","last_reported":1744082751,"current_range_meters":11600,"station_id":"ce4bh012rcd13ifvqcv0","pricing_plan_id":"cebpf4jnsgd1na2vs0mg"},{"bike_id":"4e0de06a-5fb6-425c-864f-446dbfc90cbc","system_id":"levelo_inurba_marseille","lat":43.28457,"lon":5.35889,"is_reserved":false,"is_disabled":false,"rental_uris":{"android":"levelo://app?vid=4e0de06a-5fb6-425c-864f-446dbfc90cbc","ios":"levelo://app?vid=4e0de06a-5fb6-425c-864f-446dbfc90cbc"},"vehicle_type_id":"4","last_reported":1744082751,"current_range_meters":11600,"station_id":"ce4bhah2rcd13ifvqei0","pricing_plan_id":"cebpf4jnsgd1na2vs0mg"},{"bike_id":"727420a5-2a4a-4878-9ca5-955e3d4d8d4d","system_id":"levelo_inurba_marseille","lat":43.30663,"lon":5.40077,"is_reserved":false,"is_disabled":false,"rental_uris":{"android":"levelo://app?vid=727420a5-2a4a-4878-9ca5-955e3d4d8d4d","ios":"levelo://app?vid=727420a5-2a4a-4878-9ca5-955e3d4d8d4d"},"vehicle_type_id":"4","last_reported":1744082751,"current_range_meters":12000,"station_id":"ce4bh112rcd13ifvqda0","pricing_plan_id":"cebpf4jnsgd1na2vs0mg"},{"bike_id":"4f003989-bf72-4690-aae5-605687517780","system_id":"levelo_inurba_marseille","lat":43.284352,"lon":5.391833,"is_reserved":false,"is_disabled":false,"rental_uris":{"android":"levelo://app?vid=4f003989-bf72-4690-aae5-605687517780","ios":"levelo://app?vid=4f003989-bf72-4690-aae5-605687517780"},"vehicle_type_id":"4","last_reported":1744082751,"current_range_meters":12000,"station_id":"ce4bhoh2rcd13ifvqh5g","pricing_plan_id":"cebpf4jnsgd1na2vs0mg"},{"bike_id":"c8351757-3fec-4594-855b-7d7cf1a199dd","system_id":"levelo_inurba_marseille","lat":43.28408,"lon":5.37519,"is_reserved":false,"is_disabled":false,"rental_uris":{"android":"levelo://app?vid=c8351757-3fec-4594-855b-7d7cf1a199dd","ios":"levelo://app?vid=c8351757-3fec-4594-855b-7d7cf1a199dd"},"vehicle_type_id":"4","last_reported":1744082751,"current_range_meters":12000,"station_id":"ce4bh412rcd13ifvqds0","pricing_plan_id":"cebpf4jnsgd1na2vs0mg"},{"bike_id":"0748ce16-1dbb-4683-afb9-eabebbdfd5a5","system_id":"levelo_inurba_marseille","lat":43.292208,"lon":5.400199,"is_reserved":false,"is_disabled":false,"rental_uris":{"android":"levelo://app?vid=0748ce16-1dbb-4683-afb9-eabebbdfd5a5","ios":"levelo://app?vid=0748ce16-1dbb-4683-afb9-eabebbdfd5a5"},"vehicle_type_id":"4","last_reported":1744082751,"current_range_meters":12400,"station_id":"","pricing_plan_id":"cebpf4jnsgd1na2vs0mg"},{"bike_id":"57c4e6e8-026a-4350-b996-12df6b497807","system_id":"levelo_inurba_marseille","lat":43.29592,"lon":5.37699,"is_reserved":false,"is_disabled":true,"rental_uris":{"android":"levelo://app?vid=57c4e6e8-026a-4350-b996-12df6b497807","ios":"levelo://app?vid=57c4e6e8-026a-4350-b996-12df6b497807"},"vehicle_type_id":"4","last_reported":1744082751,"current_range_meters":12400,"station_id":"ce4bgi92rcd13ifvqb90","pricing_plan_id":"cebpf4jnsgd1na2vs0mg"},{"bike_id":"2b321bde-d996-44f1-849a-8b6df8729d2d","system_id":"levelo_inurba_marseille","lat":43.296256,"lon":5.405944,"is_reserved":false,"is_disabled":false,"rental_uris":{"android":"levelo://app?vid=2b321bde-d996-44f1-849a-8b6df8729d2d","ios":"levelo://app?vid=2b321bde-d996-44f1-849a-8b6df8729d2d"},"vehicle_type_id":"4","last_reported":1744082751,"current_range_meters":12400,"station_id":"ce4bh0h2rcd13ifvqd60","pricing_plan_id":"cebpf4jnsgd1na2vs0mg"},{"bike_id":"4c2d3fd7-a1d3-4a8f-b668-55a172b48630","system_id":"levelo_inurba_marseille","lat":43.30451,"lon":5.38917,"is_reserved":false,"is_disabled":false,"rental_uris":{"android":"levelo://app?vid=4c2d3fd7-a1d3-4a8f-b668-55a172b48630","ios":"levelo://app?vid=4c2d3fd7-a1d3-4a8f-b668-55a172b48630"},"vehicle_type_id":"4","last_reported":1744082751,"current_range_meters":12400,"station_id":"ce4bgk12rcd13ifvqbi0","pricing_plan_id":"cebpf4jnsgd1na2vs0mg"},{"bike_id":"bf61ee85-a98a-4de7-9464-757c7368502a","system_id":"levelo_inurba_marseille","lat":43.297951,"lon":5.393449,"is_reserved":false,"is_disabled":false,"rental_uris":{"android":"levelo://app?vid=bf61ee85-a98a-4de7-9464-757c7368502a","ios":"levelo://app?vid=bf61ee85-a98a-4de7-9464-757c7368502a"},"vehicle_type_id":"4","last_reported":1744082751,"current_range_meters":12400,"station_id":"chh1huq6cuj3fo74tm60","pricing_plan_id":"cebpf4jnsgd1na2vs0mg"},{"bike_id":"f9dfa114-9392-45ea-82d5-7f9c22d73bc6","system_id":"levelo_inurba_marseille","lat":43.29992,"lon":5.36391,"is_reserved":false,"is_disabled":false,"rental_uris":{"android":"levelo://app?vid=f9dfa114-9392-45ea-82d5-7f9c22d73bc6","ios":"levelo://app?vid=f9dfa114-9392-45ea-82d5-7f9c22d73bc6"},"vehicle_type_id":"4","last_reported":1744082751,"current_range_meters":12800,"station_id":"","pricing_plan_id":"cebpf4jnsgd1na2vs0mg"},{"bike_id":"0aa02c49-cbb3-4907-a588-f754056f3ba8","system_id":"levelo_inurba_marseille","lat":43.308104,"lon":5.381556,"is_reserved":false,"is_disabled":true,"rental_uris":{"android":"levelo://app?vid=0aa02c49-cbb3-4907-a588-f754056f3ba8","ios":"levelo://app?vid=0aa02c49-cbb3-4907-a588-f754056f3ba8"},"vehicle_type_id":"4","last_reported":1744082751,"current_range_meters":12800,"station_id":"ce4bgt12rcd13ifvqce0","pricing_plan_id":"cebpf4jnsgd1na2vs0mg"},{"bike_id":"3ea5f47c-adf9-4c3d-8172-c88b2742f850","system_id":"levelo_inurba_marseille","lat":43.28456,"lon":5.35881,"is_reserved":false,"is_disabled":false,"rental_uris":{"android":"levelo://app?vid=3ea5f47c-adf9-4c3d-8172-c88b2742f850","ios":"levelo://app?vid=3ea5f47c-adf9-4c3d-8172-c88b2742f850"},"vehicle_type_id":"4","last_reported":1744082751,"current_range_meters":12800,"station_id":"ce4bhah2rcd13ifvqei0","pricing_plan_id":"cebpf4jnsgd1na2vs0mg"},{"bike_id":"c879db94-7700-49a3-8554-1a634dac59d4","system_id":"levelo_inurba_marseille","lat":43.287021,"lon":5.399812,"is_reserved":false,"is_disabled":false,"rental_uris":{"android":"levelo://app?vid=c879db94-7700-49a3-8554-1a634dac59d4","ios":"levelo://app?vid=c879db94-7700-49a3-8554-1a634dac59d4"},"vehicle_type_id":"4","last_reported":1744082751,"current_range_meters":12800,"station_id":"ce4bho92rcd13ifvqh3g","pricing_plan_id":"cebpf4jnsgd1na2vs0mg"},{"bike_id":"68d1cc33-0218-451e-8e10-d32225c21263","system_id":"levelo_inurba_marseille","lat":43.23137,"lon":5.43705,"is_reserved":false,"is_disabled":true,"rental_uris":{"android":"levelo://app?vid=68d1cc33-0218-451e-8e10-d32225c21263","ios":"levelo://app?vid=68d1cc33-0218-451e-8e10-d32225c21263"},"vehicle_type_id":"4","last_reported":1744082751,"current_range_meters":12800,"station_id":"ce4bhmp2rcd13ifvqgog","pricing_plan_id":"cebpf4jnsgd1na2vs0mg"},{"bike_id":"7d03e8c4-09b6-43fd-b688-8fa9a993b909","system_id":"levelo_inurba_marseille","lat":43.30905,"lon":5.36743,"is_reserved":false,"is_disabled":false,"rental_uris":{"android":"levelo://app?vid=7d03e8c4-09b6-43fd-b688-8fa9a993b909","ios":"levelo://app?vid=7d03e8c4-09b6-43fd-b688-8fa9a993b909"},"vehicle_type_id":"4","last_reported":1744082751,"current_range_meters":12800,"station_id":"","pricing_plan_id":"cebpf4jnsgd1na2vs0mg"},{"bike_id":"fe759a54-90fb-4929-9119-af73763358d5","system_id":"levelo_inurba_marseille","lat":43.28709,"lon":5.40019,"is_reserved":false,"is_disabled":false,"rental_uris":{"android":"levelo://app?vid=fe759a54-90fb-4929-9119-af73763358d5","ios":"levelo://app?vid=fe759a54-90fb-4929-9119-af73763358d5"},"vehicle_type_id":"4","last_reported":1744082751,"current_range_meters":13600,"station_id":"ce4bho92rcd13ifvqh3g","pricing_plan_id":"cebpf4jnsgd1na2vs0mg"},{"bike_id":"bb53d251-c2a9-4c03-a6c7-9d1272d728dc","system_id":"levelo_inurba_marseille","lat":43.31364,"lon":5.38503,"is_reserved":false,"is_disabled":false,"rental_uris":{"android":"levelo://app?vid=bb53d251-c2a9-4c03-a6c7-9d1272d728dc","ios":"levelo://app?vid=bb53d251-c2a9-4c03-a6c7-9d1272d728dc"},"vehicle_type_id":"4","last_reported":1744082751,"current_range_meters":13600,"station_id":"ce4bgt92rcd13ifvqcf0","pricing_plan_id":"cebpf4jnsgd1na2vs0mg"},{"bike_id":"48eb4048-1af7-49af-b3cb-6765b6f83818","system_id":"levelo_inurba_marseille","lat":43.30892,"lon":5.40193,"is_reserved":false,"is_disabled":false,"rental_uris":{"android":"levelo://app?vid=48eb4048-1af7-49af-b3cb-6765b6f83818","ios":"levelo://app?vid=48eb4048-1af7-49af-b3cb-6765b6f83818"},"vehicle_type_id":"4","last_reported":1744082751,"current_range_meters":13600,"station_id":"","pricing_plan_id":"cebpf4jnsgd1na2vs0mg"},{"bike_id":"41518c86-5512-450d-8207-a2bc8acc6d42","system_id":"levelo_inurba_marseille","lat":43.30782,"lon":5.37656,"is_reserved":false,"is_disabled":false,"rental_uris":{"android":"levelo://app?vid=41518c86-5512-450d-8207-a2bc8acc6d42","ios":"levelo://app?vid=41518c86-5512-450d-8207-a2bc8acc6d42"},"vehicle_type_id":"4","last_reported":1744082751,"current_range_meters":13600,"station_id":"ce4bgv92rcd13ifvqcq0","pricing_plan_id":"cebpf4jnsgd1na2vs0mg"},{"bike_id":"6ff17da5-9336-4cfd-974e-48be31ce9cbf","system_id":"levelo_inurba_marseille","lat":43.265584,"lon":5.372816,"is_reserved":false,"is_disabled":false,"rental_uris":{"android":"levelo://app?vid=6ff17da5-9336-4cfd-974e-48be31ce9cbf","ios":"levelo://app?vid=6ff17da5-9336-4cfd-974e-48be31ce9cbf"},"vehicle_type_id":"4","last_reported":1744082751,"current_range_meters":13600,"station_id":"ce4bhg12rcd13ifvqf70","pricing_plan_id":"cebpf4jnsgd1na2vs0mg"},{"bike_id":"28106982-b4c2-4a17-a517-f2f6ec8e207f","system_id":"levelo_inurba_marseille","lat":43.31361,"lon":5.38496,"is_reserved":false,"is_disabled":false,"rental_uris":{"android":"levelo://app?vid=28106982-b4c2-4a17-a517-f2f6ec8e207f","ios":"levelo://app?vid=28106982-b4c2-4a17-a517-f2f6ec8e207f"},"vehicle_type_id":"4","last_reported":1744082751,"current_range_meters":13600,"station_id":"ce4bgt92rcd13ifvqcf0","pricing_plan_id":"cebpf4jnsgd1na2vs0mg"},{"bike_id":"a2b55975-55e4-4a3f-8af7-2c27ff45ed68","system_id":"levelo_inurba_marseille","lat":43.281568,"lon":5.42634,"is_reserved":false,"is_disabled":true,"rental_uris":{"android":"levelo://app?vid=a2b55975-55e4-4a3f-8af7-2c27ff45ed68","ios":"levelo://app?vid=a2b55975-55e4-4a3f-8af7-2c27ff45ed68"},"vehicle_type_id":"4","last_reported":1744082751,"current_range_meters":14000,"station_id":"ce4bhnh2rcd13ifvqgug","pricing_plan_id":"cebpf4jnsgd1na2vs0mg"},{"bike_id":"93e3fd92-d65f-4f36-ba40-a3e5476ebc87","system_id":"levelo_inurba_marseille","lat":43.30677,"lon":5.36562,"is_reserved":false,"is_disabled":false,"rental_uris":{"android":"levelo://app?vid=93e3fd92-d65f-4f36-ba40-a3e5476ebc87","ios":"levelo://app?vid=93e3fd92-d65f-4f36-ba40-a3e5476ebc87"},"vehicle_type_id":"4","last_reported":1744082751,"current_range_meters":14000,"station_id":"","pricing_plan_id":"cebpf4jnsgd1na2vs0mg"},{"bike_id":"1ca7d0c4-b7aa-4350-ad9f-4e24c2ba029a","system_id":"levelo_inurba_marseille","lat":43.30366,"lon":5.42486,"is_reserved":false,"is_disabled":true,"rental_uris":{"android":"levelo://app?vid=1ca7d0c4-b7aa-4350-ad9f-4e24c2ba029a","ios":"levelo://app?vid=1ca7d0c4-b7aa-4350-ad9f-4e24c2ba029a"},"vehicle_type_id":"4","last_reported":1744082751,"current_range_meters":14000,"station_id":"ce4bhoh2rcd13ifvqh6g","pricing_plan_id":"cebpf4jnsgd1na2vs0mg"},{"bike_id":"158df057-ca83-4895-ad1d-881f1e1b56e6","system_id":"levelo_inurba_marseille","lat":43.272026,"lon":5.391894,"is_reserved":false,"is_disabled":true,"rental_uris":{"android":"levelo://app?vid=158df057-ca83-4895-ad1d-881f1e1b56e6","ios":"levelo://app?vid=158df057-ca83-4895-ad1d-881f1e1b56e6"},"vehicle_type_id":"4","last_reported":1744082751,"current_range_meters":14000,"station_id":"ce4bhhp2rcd13ifvqfm0","pricing_plan_id":"cebpf4jnsgd1na2vs0mg"},{"bike_id":"4c5ed3bf-cdf5-43ce-9e91-f475551dd826","system_id":"levelo_inurba_marseille","lat":43.31322,"lon":5.39695,"is_reserved":false,"is_disabled":false,"rental_uris":{"android":"levelo://app?vid=4c5ed3bf-cdf5-43ce-9e91-f475551dd826","ios":"levelo://app?vid=4c5ed3bf-cdf5-43ce-9e91-f475551dd826"},"vehicle_type_id":"4","last_reported":1744082751,"current_range_meters":14000,"station_id":"ce4bgvp2rcd13ifvqcu0","pricing_plan_id":"cebpf4jnsgd1na2vs0mg"},{"bike_id":"5aa69766-38fe-4c8e-af06-a6c9608392bf","system_id":"levelo_inurba_marseille","lat":43.295273,"lon":5.378634,"is_reserved":false,"is_disabled":true,"rental_uris":{"android":"levelo://app?vid=5aa69766-38fe-4c8e-af06-a6c9608392bf","ios":"levelo://app?vid=5aa69766-38fe-4c8e-af06-a6c9608392bf"},"vehicle_type_id":"4","last_reported":1744082751,"current_range_meters":14000,"station_id":"","pricing_plan_id":"cebpf4jnsgd1na2vs0mg"},{"bike_id":"61cd41de-07c4-4597-a74e-0c712a9e4d87","system_id":"levelo_inurba_marseille","lat":43.22917,"lon":5.35394,"is_reserved":false,"is_disabled":true,"rental_uris":{"android":"levelo://app?vid=61cd41de-07c4-4597-a74e-0c712a9e4d87","ios":"levelo://app?vid=61cd41de-07c4-4597-a74e-0c712a9e4d87"},"vehicle_type_id":"4","last_reported":1744082751,"current_range_meters":14000,"station_id":"cpo3532slgdg3j2ikp40","pricing_plan_id":"cebpf4jnsgd1na2vs0mg"},{"bike_id":"f143ff2e-721e-493c-bcdc-a7d2cc09ad81","system_id":"levelo_inurba_marseille","lat":43.31015,"lon":5.37733,"is_reserved":false,"is_disabled":false,"rental_uris":{"android":"levelo://app?vid=f143ff2e-721e-493c-bcdc-a7d2cc09ad81","ios":"levelo://app?vid=f143ff2e-721e-493c-bcdc-a7d2cc09ad81"},"vehicle_type_id":"4","last_reported":1744082751,"current_range_meters":14000,"station_id":"","pricing_plan_id":"cebpf4jnsgd1na2vs0mg"},{"bike_id":"e0c712a4-8c41-4e69-a875-50251525a0f6","system_id":"levelo_inurba_marseille","lat":43.2799,"lon":5.4083,"is_reserved":false,"is_disabled":false,"rental_uris":{"android":"levelo://app?vid=e0c712a4-8c41-4e69-a875-50251525a0f6","ios":"levelo://app?vid=e0c712a4-8c41-4e69-a875-50251525a0f6"},"vehicle_type_id":"4","last_reported":1744082751,"current_range_meters":14000,"station_id":"","pricing_plan_id":"cebpf4jnsgd1na2vs0mg"},{"bike_id":"424487f3-4350-40b8-aa7c-dfad0244cdf9","system_id":"levelo_inurba_marseille","lat":43.27817,"lon":5.41782,"is_reserved":false,"is_disabled":false,"rental_uris":{"android":"levelo://app?vid=424487f3-4350-40b8-aa7c-dfad0244cdf9","ios":"levelo://app?vid=424487f3-4350-40b8-aa7c-dfad0244cdf9"},"vehicle_type_id":"4","last_reported":1744082751,"current_range_meters":14400,"station_id":"","pricing_plan_id":"cebpf4jnsgd1na2vs0mg"},{"bike_id":"45d83681-f2eb-4a39-a20c-4022ba893ea0","system_id":"levelo_inurba_marseille","lat":43.339029,"lon":5.392159,"is_reserved":false,"is_disabled":false,"rental_uris":{"android":"levelo://app?vid=45d83681-f2eb-4a39-a20c-4022ba893ea0","ios":"levelo://app?vid=45d83681-f2eb-4a39-a20c-4022ba893ea0"},"vehicle_type_id":"4","last_reported":1744082751,"current_range_meters":14400,"station_id":"","pricing_plan_id":"cebpf4jnsgd1na2vs0mg"},{"bike_id":"f1e2fa16-262f-4907-ad0a-1dffa0dc2ed8","system_id":"levelo_inurba_marseille","lat":43.28731,"lon":5.36087,"is_reserved":false,"is_disabled":false,"rental_uris":{"android":"levelo://app?vid=f1e2fa16-262f-4907-ad0a-1dffa0dc2ed8","ios":"levelo://app?vid=f1e2fa16-262f-4907-ad0a-1dffa0dc2ed8"},"vehicle_type_id":"4","last_reported":1744082751,"current_range_meters":14800,"station_id":"cki0cbj6b192h4jlfktg","pricing_plan_id":"cebpf4jnsgd1na2vs0mg"},{"bike_id":"d2818a82-492e-4cf8-8605-026ac930fd78","system_id":"levelo_inurba_marseille","lat":43.28449,"lon":5.35944,"is_reserved":false,"is_disabled":false,"rental_uris":{"android":"levelo://app?vid=d2818a82-492e-4cf8-8605-026ac930fd78","ios":"levelo://app?vid=d2818a82-492e-4cf8-8605-026ac930fd78"},"vehicle_type_id":"4","last_reported":1744082751,"current_range_meters":14800,"station_id":"","pricing_plan_id":"cebpf4jnsgd1na2vs0mg"},{"bike_id":"1348ebda-69b3-4fab-9110-656bacb9c452","system_id":"levelo_inurba_marseille","lat":43.28657,"lon":5.363554,"is_reserved":false,"is_disabled":false,"rental_uris":{"android":"levelo://app?vid=1348ebda-69b3-4fab-9110-656bacb9c452","ios":"levelo://app?vid=1348ebda-69b3-4fab-9110-656bacb9c452"},"vehicle_type_id":"4","last_reported":1744082751,"current_range_meters":14800,"station_id":"ce4bhah2rcd13ifvqej0","pricing_plan_id":"cebpf4jnsgd1na2vs0mg"},{"bike_id":"92b7ed43-544e-48a7-9211-49c5372e8440","system_id":"levelo_inurba_marseille","lat":43.289438,"lon":5.366277,"is_reserved":false,"is_disabled":false,"rental_uris":{"android":"levelo://app?vid=92b7ed43-544e-48a7-9211-49c5372e8440","ios":"levelo://app?vid=92b7ed43-544e-48a7-9211-49c5372e8440"},"vehicle_type_id":"4","last_reported":1744082751,"current_range_meters":15200,"station_id":"ce4bhap2rcd13ifvqek0","pricing_plan_id":"cebpf4jnsgd1na2vs0mg"},{"bike_id":"4365230e-a3c6-408e-a862-d505e679dc52","system_id":"levelo_inurba_marseille","lat":43.261951,"lon":5.374482,"is_reserved":false,"is_disabled":false,"rental_uris":{"android":"levelo://app?vid=4365230e-a3c6-408e-a862-d505e679dc52","ios":"levelo://app?vid=4365230e-a3c6-408e-a862-d505e679dc52"},"vehicle_type_id":"4","last_reported":1744082751,"current_range_meters":15200,"station_id":"ce4bhgp2rcd13ifvqfc0","pricing_plan_id":"cebpf4jnsgd1na2vs0mg"},{"bike_id":"f0e5f8fc-186f-4f8d-ac1a-a52c8c71269c","system_id":"levelo_inurba_marseille","lat":43.31365,"lon":5.38497,"is_reserved":false,"is_disabled":false,"rental_uris":{"android":"levelo://app?vid=f0e5f8fc-186f-4f8d-ac1a-a52c8c71269c","ios":"levelo://app?vid=f0e5f8fc-186f-4f8d-ac1a-a52c8c71269c"},"vehicle_type_id":"4","last_reported":1744082751,"current_range_meters":15200,"station_id":"ce4bgt92rcd13ifvqcf0","pricing_plan_id":"cebpf4jnsgd1na2vs0mg"},{"bike_id":"7a27bbe8-2753-4075-8ccd-7f573c8d455f","system_id":"levelo_inurba_marseille","lat":43.241762,"lon":5.397246,"is_reserved":false,"is_disabled":false,"rental_uris":{"android":"levelo://app?vid=7a27bbe8-2753-4075-8ccd-7f573c8d455f","ios":"levelo://app?vid=7a27bbe8-2753-4075-8ccd-7f573c8d455f"},"vehicle_type_id":"4","last_reported":1744082751,"current_range_meters":15200,"station_id":"ce4bhn12rcd13ifvqgpg","pricing_plan_id":"cebpf4jnsgd1na2vs0mg"},{"bike_id":"19bb28ca-216b-4255-a4eb-cf63bcca46db","system_id":"levelo_inurba_marseille","lat":43.28464,"lon":5.358817,"is_reserved":false,"is_disabled":false,"rental_uris":{"android":"levelo://app?vid=19bb28ca-216b-4255-a4eb-cf63bcca46db","ios":"levelo://app?vid=19bb28ca-216b-4255-a4eb-cf63bcca46db"},"vehicle_type_id":"4","last_reported":1744082751,"current_range_meters":15200,"station_id":"ce4bhah2rcd13ifvqei0","pricing_plan_id":"cebpf4jnsgd1na2vs0mg"},{"bike_id":"d8421346-201f-4f05-b2e3-be9e14af6fb5","system_id":"levelo_inurba_marseille","lat":43.303027,"lon":5.36884,"is_reserved":false,"is_disabled":false,"rental_uris":{"android":"levelo://app?vid=d8421346-201f-4f05-b2e3-be9e14af6fb5","ios":"levelo://app?vid=d8421346-201f-4f05-b2e3-be9e14af6fb5"},"vehicle_type_id":"4","last_reported":1744082751,"current_range_meters":15200,"station_id":"ce4bgqh2rcd13ifvqc5g","pricing_plan_id":"cebpf4jnsgd1na2vs0mg"},{"bike_id":"b397701f-0d3d-44bf-ab3e-3ccc7e74fb2e","system_id":"levelo_inurba_marseille","lat":43.26406,"lon":5.42279,"is_reserved":false,"is_disabled":false,"rental_uris":{"android":"levelo://app?vid=b397701f-0d3d-44bf-ab3e-3ccc7e74fb2e","ios":"levelo://app?vid=b397701f-0d3d-44bf-ab3e-3ccc7e74fb2e"},"vehicle_type_id":"4","last_reported":1744082751,"current_range_meters":15200,"station_id":"","pricing_plan_id":"cebpf4jnsgd1na2vs0mg"},{"bike_id":"01b7378b-2eb9-4de2-9d50-fb3034d8e0d7","system_id":"levelo_inurba_marseille","lat":43.30326,"lon":5.40446,"is_reserved":false,"is_disabled":false,"rental_uris":{"android":"levelo://app?vid=01b7378b-2eb9-4de2-9d50-fb3034d8e0d7","ios":"levelo://app?vid=01b7378b-2eb9-4de2-9d50-fb3034d8e0d7"},"vehicle_type_id":"4","last_reported":1744082751,"current_range_meters":16000,"station_id":"ce4bh012rcd13ifvqd10","pricing_plan_id":"cebpf4jnsgd1na2vs0mg"},{"bike_id":"6083c5ea-b939-4297-84a0-a1d53b68cd5a","system_id":"levelo_inurba_marseille","lat":43.28409,"lon":5.37531,"is_reserved":false,"is_disabled":false,"rental_uris":{"android":"levelo://app?vid=6083c5ea-b939-4297-84a0-a1d53b68cd5a","ios":"levelo://app?vid=6083c5ea-b939-4297-84a0-a1d53b68cd5a"},"vehicle_type_id":"4","last_reported":1744082751,"current_range_meters":16000,"station_id":"ce4bh412rcd13ifvqds0","pricing_plan_id":"cebpf4jnsgd1na2vs0mg"},{"bike_id":"e054f688-e975-45ab-8945-bcc4f74953b0","system_id":"levelo_inurba_marseille","lat":43.295185,"lon":5.39037,"is_reserved":false,"is_disabled":false,"rental_uris":{"android":"levelo://app?vid=e054f688-e975-45ab-8945-bcc4f74953b0","ios":"levelo://app?vid=e054f688-e975-45ab-8945-bcc4f74953b0"},"vehicle_type_id":"4","last_reported":1744082751,"current_range_meters":16000,"station_id":"ce4bh3p2rcd13ifvqdp0","pricing_plan_id":"cebpf4jnsgd1na2vs0mg"},{"bike_id":"41947e67-a831-4ba3-8cae-2c5603bc9a84","system_id":"levelo_inurba_marseille","lat":43.285668,"lon":5.39497,"is_reserved":false,"is_disabled":false,"rental_uris":{"android":"levelo://app?vid=41947e67-a831-4ba3-8cae-2c5603bc9a84","ios":"levelo://app?vid=41947e67-a831-4ba3-8cae-2c5603bc9a84"},"vehicle_type_id":"4","last_reported":1744082751,"current_range_meters":16000,"station_id":"ce4bh292rcd13ifvqdg0","pricing_plan_id":"cebpf4jnsgd1na2vs0mg"},{"bike_id":"d80533cc-8dc7-4356-8433-af344ad5199e","system_id":"levelo_inurba_marseille","lat":43.287,"lon":5.3998,"is_reserved":false,"is_disabled":false,"rental_uris":{"android":"levelo://app?vid=d80533cc-8dc7-4356-8433-af344ad5199e","ios":"levelo://app?vid=d80533cc-8dc7-4356-8433-af344ad5199e"},"vehicle_type_id":"4","last_reported":1744082751,"current_range_meters":16000,"station_id":"ce4bho92rcd13ifvqh3g","pricing_plan_id":"cebpf4jnsgd1na2vs0mg"},{"bike_id":"67f5402e-84ba-4cca-bae1-1308d8bfce95","system_id":"levelo_inurba_marseille","lat":43.323597,"lon":5.367656,"is_reserved":false,"is_disabled":false,"rental_uris":{"android":"levelo://app?vid=67f5402e-84ba-4cca-bae1-1308d8bfce95","ios":"levelo://app?vid=67f5402e-84ba-4cca-bae1-1308d8bfce95"},"vehicle_type_id":"4","last_reported":1744082751,"current_range_meters":16000,"station_id":"ce4bhsh2rcd13ifvqi2g","pricing_plan_id":"cebpf4jnsgd1na2vs0mg"},{"bike_id":"d41a164c-6af8-4344-bffb-3b3c38a6d184","system_id":"levelo_inurba_marseille","lat":43.30582,"lon":5.36529,"is_reserved":false,"is_disabled":true,"rental_uris":{"android":"levelo://app?vid=d41a164c-6af8-4344-bffb-3b3c38a6d184","ios":"levelo://app?vid=d41a164c-6af8-4344-bffb-3b3c38a6d184"},"vehicle_type_id":"4","last_reported":1744082751,"current_range_meters":16000,"station_id":"ce4bgs12rcd13ifvqcag","pricing_plan_id":"cebpf4jnsgd1na2vs0mg"},{"bike_id":"fbe27213-9351-4c47-8819-a8eeb6a2201b","system_id":"levelo_inurba_marseille","lat":43.28403,"lon":5.37525,"is_reserved":false,"is_disabled":false,"rental_uris":{"android":"levelo://app?vid=fbe27213-9351-4c47-8819-a8eeb6a2201b","ios":"levelo://app?vid=fbe27213-9351-4c47-8819-a8eeb6a2201b"},"vehicle_type_id":"4","last_reported":1744082751,"current_range_meters":16000,"station_id":"ce4bh412rcd13ifvqds0","pricing_plan_id":"cebpf4jnsgd1na2vs0mg"},{"bike_id":"573a7819-566f-4679-9fd5-63a7b34ed5b7","system_id":"levelo_inurba_marseille","lat":43.26212,"lon":5.40468,"is_reserved":false,"is_disabled":false,"rental_uris":{"android":"levelo://app?vid=573a7819-566f-4679-9fd5-63a7b34ed5b7","ios":"levelo://app?vid=573a7819-566f-4679-9fd5-63a7b34ed5b7"},"vehicle_type_id":"4","last_reported":1744082751,"current_range_meters":16400,"station_id":"ce4bhmh2rcd13ifvqgmg","pricing_plan_id":"cebpf4jnsgd1na2vs0mg"},{"bike_id":"3a623142-9aab-435a-98a5-0d62aaa52c1d","system_id":"levelo_inurba_marseille","lat":43.251161,"lon":5.40325,"is_reserved":false,"is_disabled":false,"rental_uris":{"android":"levelo://app?vid=3a623142-9aab-435a-98a5-0d62aaa52c1d","ios":"levelo://app?vid=3a623142-9aab-435a-98a5-0d62aaa52c1d"},"vehicle_type_id":"4","last_reported":1744082751,"current_range_meters":16400,"station_id":"ce4bhlh2rcd13ifvqgig","pricing_plan_id":"cebpf4jnsgd1na2vs0mg"},{"bike_id":"90c56d57-56f3-4b37-a753-872d1a962a8d","system_id":"levelo_inurba_marseille","lat":43.292755,"lon":5.401269,"is_reserved":false,"is_disabled":false,"rental_uris":{"android":"levelo://app?vid=90c56d57-56f3-4b37-a753-872d1a962a8d","ios":"levelo://app?vid=90c56d57-56f3-4b37-a753-872d1a962a8d"},"vehicle_type_id":"4","last_reported":1744082751,"current_range_meters":16400,"station_id":"ce4bh312rcd13ifvqdk0","pricing_plan_id":"cebpf4jnsgd1na2vs0mg"},{"bike_id":"2aff3da0-1529-4960-a86c-d64b02e2b8cd","system_id":"levelo_inurba_marseille","lat":43.23063,"lon":5.3549,"is_reserved":false,"is_disabled":false,"rental_uris":{"android":"levelo://app?vid=2aff3da0-1529-4960-a86c-d64b02e2b8cd","ios":"levelo://app?vid=2aff3da0-1529-4960-a86c-d64b02e2b8cd"},"vehicle_type_id":"4","last_reported":1744082751,"current_range_meters":16400,"station_id":"cpo3342slgdg3j2ifvpg","pricing_plan_id":"cebpf4jnsgd1na2vs0mg"},{"bike_id":"0d137e5e-4aa9-4d4c-b4ca-556b2a058b9d","system_id":"levelo_inurba_marseille","lat":43.24748,"lon":5.394448,"is_reserved":false,"is_disabled":false,"rental_uris":{"android":"levelo://app?vid=0d137e5e-4aa9-4d4c-b4ca-556b2a058b9d","ios":"levelo://app?vid=0d137e5e-4aa9-4d4c-b4ca-556b2a058b9d"},"vehicle_type_id":"4","last_reported":1744082751,"current_range_meters":16400,"station_id":"","pricing_plan_id":"cebpf4jnsgd1na2vs0mg"},{"bike_id":"126febf7-3cef-4d36-b748-32657f4deb1c","system_id":"levelo_inurba_marseille","lat":43.28409,"lon":5.37514,"is_reserved":false,"is_disabled":false,"rental_uris":{"android":"levelo://app?vid=126febf7-3cef-4d36-b748-32657f4deb1c","ios":"levelo://app?vid=126febf7-3cef-4d36-b748-32657f4deb1c"},"vehicle_type_id":"4","last_reported":1744082751,"current_range_meters":16400,"station_id":"ce4bh412rcd13ifvqds0","pricing_plan_id":"cebpf4jnsgd1na2vs0mg"},{"bike_id":"6a9463a6-0650-4e46-9ab3-34331315c861","system_id":"levelo_inurba_marseille","lat":43.284063,"lon":5.375204,"is_reserved":false,"is_disabled":false,"rental_uris":{"android":"levelo://app?vid=6a9463a6-0650-4e46-9ab3-34331315c861","ios":"levelo://app?vid=6a9463a6-0650-4e46-9ab3-34331315c861"},"vehicle_type_id":"4","last_reported":1744082751,"current_range_meters":16400,"station_id":"ce4bh412rcd13ifvqds0","pricing_plan_id":"cebpf4jnsgd1na2vs0mg"},{"bike_id":"a4cd70d8-1d72-48fa-91f5-25356097ab83","system_id":"levelo_inurba_marseille","lat":43.280321,"lon":5.369497,"is_reserved":false,"is_disabled":false,"rental_uris":{"android":"levelo://app?vid=a4cd70d8-1d72-48fa-91f5-25356097ab83","ios":"levelo://app?vid=a4cd70d8-1d72-48fa-91f5-25356097ab83"},"vehicle_type_id":"4","last_reported":1744082751,"current_range_meters":16400,"station_id":"ce4bha12rcd13ifvqef0","pricing_plan_id":"cebpf4jnsgd1na2vs0mg"},{"bike_id":"af24e20d-cd14-47b0-8e42-24aa1cee57db","system_id":"levelo_inurba_marseille","lat":43.274929,"lon":5.424519,"is_reserved":false,"is_disabled":false,"rental_uris":{"android":"levelo://app?vid=af24e20d-cd14-47b0-8e42-24aa1cee57db","ios":"levelo://app?vid=af24e20d-cd14-47b0-8e42-24aa1cee57db"},"vehicle_type_id":"4","last_reported":1744082751,"current_range_meters":16400,"station_id":"ce4bhn92rcd13ifvqgrg","pricing_plan_id":"cebpf4jnsgd1na2vs0mg"},{"bike_id":"852819f8-8577-46de-b1fa-432b264e47e4","system_id":"levelo_inurba_marseille","lat":43.241663,"lon":5.397353,"is_reserved":false,"is_disabled":false,"rental_uris":{"android":"levelo://app?vid=852819f8-8577-46de-b1fa-432b264e47e4","ios":"levelo://app?vid=852819f8-8577-46de-b1fa-432b264e47e4"},"vehicle_type_id":"4","last_reported":1744082751,"current_range_meters":16800,"station_id":"ce4bhn12rcd13ifvqgpg","pricing_plan_id":"cebpf4jnsgd1na2vs0mg"},{"bike_id":"aabb93c4-65dc-483d-9fd8-04828834eee9","system_id":"levelo_inurba_marseille","lat":43.289346,"lon":5.366268,"is_reserved":false,"is_disabled":false,"rental_uris":{"android":"levelo://app?vid=aabb93c4-65dc-483d-9fd8-04828834eee9","ios":"levelo://app?vid=aabb93c4-65dc-483d-9fd8-04828834eee9"},"vehicle_type_id":"4","last_reported":1744082751,"current_range_meters":16800,"station_id":"ce4bhap2rcd13ifvqek0","pricing_plan_id":"cebpf4jnsgd1na2vs0mg"},{"bike_id":"ade956e2-12af-48ee-aef6-a4e64043598a","system_id":"levelo_inurba_marseille","lat":43.287209,"lon":5.379319,"is_reserved":false,"is_disabled":false,"rental_uris":{"android":"levelo://app?vid=ade956e2-12af-48ee-aef6-a4e64043598a","ios":"levelo://app?vid=ade956e2-12af-48ee-aef6-a4e64043598a"},"vehicle_type_id":"4","last_reported":1744082751,"current_range_meters":16800,"station_id":"ce4bh9p2rcd13ifvqec0","pricing_plan_id":"cebpf4jnsgd1na2vs0mg"},{"bike_id":"25addcb4-8c65-4b9f-a107-9a505bc7e1e5","system_id":"levelo_inurba_marseille","lat":43.3146,"lon":5.36829,"is_reserved":false,"is_disabled":false,"rental_uris":{"android":"levelo://app?vid=25addcb4-8c65-4b9f-a107-9a505bc7e1e5","ios":"levelo://app?vid=25addcb4-8c65-4b9f-a107-9a505bc7e1e5"},"vehicle_type_id":"4","last_reported":1744082751,"current_range_meters":16800,"station_id":"","pricing_plan_id":"cebpf4jnsgd1na2vs0mg"},{"bike_id":"ad0d4453-2c58-4258-8e17-aa49c50e1a2a","system_id":"levelo_inurba_marseille","lat":43.3201,"lon":5.38147,"is_reserved":false,"is_disabled":false,"rental_uris":{"android":"levelo://app?vid=ad0d4453-2c58-4258-8e17-aa49c50e1a2a","ios":"levelo://app?vid=ad0d4453-2c58-4258-8e17-aa49c50e1a2a"},"vehicle_type_id":"4","last_reported":1744082751,"current_range_meters":16800,"station_id":"ce4bhr12rcd13ifvqhpg","pricing_plan_id":"cebpf4jnsgd1na2vs0mg"},{"bike_id":"9de631d8-33cc-46a8-9c33-d43cd6133cfd","system_id":"levelo_inurba_marseille","lat":43.30406,"lon":5.41305,"is_reserved":false,"is_disabled":false,"rental_uris":{"android":"levelo://app?vid=9de631d8-33cc-46a8-9c33-d43cd6133cfd","ios":"levelo://app?vid=9de631d8-33cc-46a8-9c33-d43cd6133cfd"},"vehicle_type_id":"4","last_reported":1744082751,"current_range_meters":16800,"station_id":"ce4bhop2rcd13ifvqh8g","pricing_plan_id":"cebpf4jnsgd1na2vs0mg"},{"bike_id":"230b73a5-e986-4f1f-933c-dca4f2cf61af","system_id":"levelo_inurba_marseille","lat":43.34739,"lon":5.34695,"is_reserved":false,"is_disabled":false,"rental_uris":{"android":"levelo://app?vid=230b73a5-e986-4f1f-933c-dca4f2cf61af","ios":"levelo://app?vid=230b73a5-e986-4f1f-933c-dca4f2cf61af"},"vehicle_type_id":"4","last_reported":1744082751,"current_range_meters":17200,"station_id":"","pricing_plan_id":"cebpf4jnsgd1na2vs0mg"},{"bike_id":"302b0c63-344c-4e0d-b6e7-6cb2af7663da","system_id":"levelo_inurba_marseille","lat":43.2695,"lon":5.38615,"is_reserved":false,"is_disabled":true,"rental_uris":{"android":"levelo://app?vid=302b0c63-344c-4e0d-b6e7-6cb2af7663da","ios":"levelo://app?vid=302b0c63-344c-4e0d-b6e7-6cb2af7663da"},"vehicle_type_id":"4","last_reported":1744082751,"current_range_meters":17200,"station_id":"ce4bhh92rcd13ifvqfh0","pricing_plan_id":"cebpf4jnsgd1na2vs0mg"},{"bike_id":"516d4f98-b641-41fd-ba0e-01581b98c430","system_id":"levelo_inurba_marseille","lat":43.2656,"lon":5.37295,"is_reserved":false,"is_disabled":false,"rental_uris":{"android":"levelo://app?vid=516d4f98-b641-41fd-ba0e-01581b98c430","ios":"levelo://app?vid=516d4f98-b641-41fd-ba0e-01581b98c430"},"vehicle_type_id":"4","last_reported":1744082751,"current_range_meters":17200,"station_id":"ce4bhg12rcd13ifvqf70","pricing_plan_id":"cebpf4jnsgd1na2vs0mg"},{"bike_id":"3992552f-8665-4257-82ce-346cf4533fc2","system_id":"levelo_inurba_marseille","lat":43.278051,"lon":5.407162,"is_reserved":false,"is_disabled":false,"rental_uris":{"android":"levelo://app?vid=3992552f-8665-4257-82ce-346cf4533fc2","ios":"levelo://app?vid=3992552f-8665-4257-82ce-346cf4533fc2"},"vehicle_type_id":"4","last_reported":1744082751,"current_range_meters":17200,"station_id":"ce4bhnh2rcd13ifvqgtg","pricing_plan_id":"cebpf4jnsgd1na2vs0mg"},{"bike_id":"e0242f3e-c1d6-442e-9387-9ce899d3c4b8","system_id":"levelo_inurba_marseille","lat":43.29621,"lon":5.40627,"is_reserved":false,"is_disabled":false,"rental_uris":{"android":"levelo://app?vid=e0242f3e-c1d6-442e-9387-9ce899d3c4b8","ios":"levelo://app?vid=e0242f3e-c1d6-442e-9387-9ce899d3c4b8"},"vehicle_type_id":"4","last_reported":1744082751,"current_range_meters":17600,"station_id":"ce4bh0h2rcd13ifvqd60","pricing_plan_id":"cebpf4jnsgd1na2vs0mg"},{"bike_id":"ffd23061-d90c-47a4-89fb-f1646bcdff1c","system_id":"levelo_inurba_marseille","lat":43.270655,"lon":5.422756,"is_reserved":false,"is_disabled":true,"rental_uris":{"android":"levelo://app?vid=ffd23061-d90c-47a4-89fb-f1646bcdff1c","ios":"levelo://app?vid=ffd23061-d90c-47a4-89fb-f1646bcdff1c"},"vehicle_type_id":"4","last_reported":1744082751,"current_range_meters":17600,"station_id":"ce4bhk92rcd13ifvqgb0","pricing_plan_id":"cebpf4jnsgd1na2vs0mg"},{"bike_id":"a70a76a2-6f35-4514-96d1-711d49f1f94f","system_id":"levelo_inurba_marseille","lat":43.29626,"lon":5.40611,"is_reserved":false,"is_disabled":false,"rental_uris":{"android":"levelo://app?vid=a70a76a2-6f35-4514-96d1-711d49f1f94f","ios":"levelo://app?vid=a70a76a2-6f35-4514-96d1-711d49f1f94f"},"vehicle_type_id":"4","last_reported":1744082751,"current_range_meters":17600,"station_id":"ce4bh0h2rcd13ifvqd60","pricing_plan_id":"cebpf4jnsgd1na2vs0mg"},{"bike_id":"b7ea98cd-7ee2-4883-bc42-aca939a5c4d9","system_id":"levelo_inurba_marseille","lat":43.28567,"lon":5.39505,"is_reserved":false,"is_disabled":false,"rental_uris":{"android":"levelo://app?vid=b7ea98cd-7ee2-4883-bc42-aca939a5c4d9","ios":"levelo://app?vid=b7ea98cd-7ee2-4883-bc42-aca939a5c4d9"},"vehicle_type_id":"4","last_reported":1744082751,"current_range_meters":17600,"station_id":"ce4bh292rcd13ifvqdg0","pricing_plan_id":"cebpf4jnsgd1na2vs0mg"},{"bike_id":"c1ab22c3-8480-4c80-a462-a754e71d457d","system_id":"levelo_inurba_marseille","lat":43.31467,"lon":5.37308,"is_reserved":false,"is_disabled":false,"rental_uris":{"android":"levelo://app?vid=c1ab22c3-8480-4c80-a462-a754e71d457d","ios":"levelo://app?vid=c1ab22c3-8480-4c80-a462-a754e71d457d"},"vehicle_type_id":"4","last_reported":1744082751,"current_range_meters":17600,"station_id":"ce4bgt12rcd13ifvqcd0","pricing_plan_id":"cebpf4jnsgd1na2vs0mg"},{"bike_id":"97de4673-cb3d-476d-87f5-c831a74b2710","system_id":"levelo_inurba_marseille","lat":43.27935,"lon":5.41049,"is_reserved":false,"is_disabled":false,"rental_uris":{"android":"levelo://app?vid=97de4673-cb3d-476d-87f5-c831a74b2710","ios":"levelo://app?vid=97de4673-cb3d-476d-87f5-c831a74b2710"},"vehicle_type_id":"4","last_reported":1744082751,"current_range_meters":17600,"station_id":"ce4bhnp2rcd13ifvqh0g","pricing_plan_id":"cebpf4jnsgd1na2vs0mg"},{"bike_id":"17038a20-3c1e-434d-9e28-e3ac14276969","system_id":"levelo_inurba_marseille","lat":43.30854,"lon":5.39679,"is_reserved":false,"is_disabled":false,"rental_uris":{"android":"levelo://app?vid=17038a20-3c1e-434d-9e28-e3ac14276969","ios":"levelo://app?vid=17038a20-3c1e-434d-9e28-e3ac14276969"},"vehicle_type_id":"4","last_reported":1744082751,"current_range_meters":17600,"station_id":"","pricing_plan_id":"cebpf4jnsgd1na2vs0mg"},{"bike_id":"15f74a3a-55d8-4027-ba23-8e12ba4914a9","system_id":"levelo_inurba_marseille","lat":43.31276,"lon":5.4017,"is_reserved":false,"is_disabled":false,"rental_uris":{"android":"levelo://app?vid=15f74a3a-55d8-4027-ba23-8e12ba4914a9","ios":"levelo://app?vid=15f74a3a-55d8-4027-ba23-8e12ba4914a9"},"vehicle_type_id":"4","last_reported":1744082751,"current_range_meters":18000,"station_id":"ce4bh092rcd13ifvqd30","pricing_plan_id":"cebpf4jnsgd1na2vs0mg"},{"bike_id":"c140cac6-8e8a-47f9-b3a2-5663c3fe91b5","system_id":"levelo_inurba_marseille","lat":43.28734,"lon":5.3607,"is_reserved":false,"is_disabled":false,"rental_uris":{"android":"levelo://app?vid=c140cac6-8e8a-47f9-b3a2-5663c3fe91b5","ios":"levelo://app?vid=c140cac6-8e8a-47f9-b3a2-5663c3fe91b5"},"vehicle_type_id":"4","last_reported":1744082751,"current_range_meters":18000,"station_id":"cki0cbj6b192h4jlfktg","pricing_plan_id":"cebpf4jnsgd1na2vs0mg"},{"bike_id":"ee13ef32-bae2-411a-8c04-b9b5062be823","system_id":"levelo_inurba_marseille","lat":43.30327,"lon":5.40422,"is_reserved":false,"is_disabled":false,"rental_uris":{"android":"levelo://app?vid=ee13ef32-bae2-411a-8c04-b9b5062be823","ios":"levelo://app?vid=ee13ef32-bae2-411a-8c04-b9b5062be823"},"vehicle_type_id":"4","last_reported":1744082751,"current_range_meters":18000,"station_id":"ce4bh012rcd13ifvqd10","pricing_plan_id":"cebpf4jnsgd1na2vs0mg"},{"bike_id":"b2e035e7-133c-4668-a748-9af734fdad11","system_id":"levelo_inurba_marseille","lat":43.28172,"lon":5.37692,"is_reserved":false,"is_disabled":false,"rental_uris":{"android":"levelo://app?vid=b2e035e7-133c-4668-a748-9af734fdad11","ios":"levelo://app?vid=b2e035e7-133c-4668-a748-9af734fdad11"},"vehicle_type_id":"4","last_reported":1744082751,"current_range_meters":18000,"station_id":"","pricing_plan_id":"cebpf4jnsgd1na2vs0mg"},{"bike_id":"d81c8687-7566-4a51-9c05-fb2d29ddb3e1","system_id":"levelo_inurba_marseille","lat":43.30306,"lon":5.36911,"is_reserved":false,"is_disabled":true,"rental_uris":{"android":"levelo://app?vid=d81c8687-7566-4a51-9c05-fb2d29ddb3e1","ios":"levelo://app?vid=d81c8687-7566-4a51-9c05-fb2d29ddb3e1"},"vehicle_type_id":"4","last_reported":1744082751,"current_range_meters":18000,"station_id":"ce4bgqh2rcd13ifvqc5g","pricing_plan_id":"cebpf4jnsgd1na2vs0mg"},{"bike_id":"e24c6fd3-f9cb-40c7-9e57-dd2c20540e9b","system_id":"levelo_inurba_marseille","lat":43.330808,"lon":5.408181,"is_reserved":false,"is_disabled":false,"rental_uris":{"android":"levelo://app?vid=e24c6fd3-f9cb-40c7-9e57-dd2c20540e9b","ios":"levelo://app?vid=e24c6fd3-f9cb-40c7-9e57-dd2c20540e9b"},"vehicle_type_id":"4","last_reported":1744082751,"current_range_meters":18000,"station_id":"","pricing_plan_id":"cebpf4jnsgd1na2vs0mg"},{"bike_id":"ce641620-c7c1-4693-8c90-e4348aa1a019","system_id":"levelo_inurba_marseille","lat":43.30365,"lon":5.42513,"is_reserved":false,"is_disabled":false,"rental_uris":{"android":"levelo://app?vid=ce641620-c7c1-4693-8c90-e4348aa1a019","ios":"levelo://app?vid=ce641620-c7c1-4693-8c90-e4348aa1a019"},"vehicle_type_id":"4","last_reported":1744082751,"current_range_meters":18000,"station_id":"ce4bhoh2rcd13ifvqh6g","pricing_plan_id":"cebpf4jnsgd1na2vs0mg"},{"bike_id":"121c1056-dc58-471e-a4ad-11bd99e6bc03","system_id":"levelo_inurba_marseille","lat":43.30211,"lon":5.39478,"is_reserved":false,"is_disabled":false,"rental_uris":{"android":"levelo://app?vid=121c1056-dc58-471e-a4ad-11bd99e6bc03","ios":"levelo://app?vid=121c1056-dc58-471e-a4ad-11bd99e6bc03"},"vehicle_type_id":"4","last_reported":1744082751,"current_range_meters":18000,"station_id":"ce4bh0p2rcd13ifvqd70","pricing_plan_id":"cebpf4jnsgd1na2vs0mg"},{"bike_id":"4fd3afd2-3a01-446b-a437-3eaf01a94b5a","system_id":"levelo_inurba_marseille","lat":43.23161,"lon":5.4371,"is_reserved":false,"is_disabled":false,"rental_uris":{"android":"levelo://app?vid=4fd3afd2-3a01-446b-a437-3eaf01a94b5a","ios":"levelo://app?vid=4fd3afd2-3a01-446b-a437-3eaf01a94b5a"},"vehicle_type_id":"4","last_reported":1744082751,"current_range_meters":18000,"station_id":"ce4bhmp2rcd13ifvqgog","pricing_plan_id":"cebpf4jnsgd1na2vs0mg"},{"bike_id":"27c3e362-a103-4a86-bbe2-a7d7344b27e0","system_id":"levelo_inurba_marseille","lat":43.31365,"lon":5.38507,"is_reserved":false,"is_disabled":false,"rental_uris":{"android":"levelo://app?vid=27c3e362-a103-4a86-bbe2-a7d7344b27e0","ios":"levelo://app?vid=27c3e362-a103-4a86-bbe2-a7d7344b27e0"},"vehicle_type_id":"4","last_reported":1744082751,"current_range_meters":18000,"station_id":"ce4bgt92rcd13ifvqcf0","pricing_plan_id":"cebpf4jnsgd1na2vs0mg"},{"bike_id":"d87231b7-aff6-4409-be5c-a19bac0dbb76","system_id":"levelo_inurba_marseille","lat":43.28622,"lon":5.35119,"is_reserved":false,"is_disabled":false,"rental_uris":{"android":"levelo://app?vid=d87231b7-aff6-4409-be5c-a19bac0dbb76","ios":"levelo://app?vid=d87231b7-aff6-4409-be5c-a19bac0dbb76"},"vehicle_type_id":"4","last_reported":1744082751,"current_range_meters":18000,"station_id":"ce4bhch2rcd13ifvqeug","pricing_plan_id":"cebpf4jnsgd1na2vs0mg"},{"bike_id":"5d5b1a9a-ac99-4a6c-99e1-d2b26a4109e6","system_id":"levelo_inurba_marseille","lat":43.31331,"lon":5.39707,"is_reserved":false,"is_disabled":false,"rental_uris":{"android":"levelo://app?vid=5d5b1a9a-ac99-4a6c-99e1-d2b26a4109e6","ios":"levelo://app?vid=5d5b1a9a-ac99-4a6c-99e1-d2b26a4109e6"},"vehicle_type_id":"4","last_reported":1744082751,"current_range_meters":18800,"station_id":"ce4bgvp2rcd13ifvqcu0","pricing_plan_id":"cebpf4jnsgd1na2vs0mg"},{"bike_id":"af26ad19-9abe-49ff-a248-1cbef9be5ba8","system_id":"levelo_inurba_marseille","lat":43.29618,"lon":5.40627,"is_reserved":false,"is_disabled":false,"rental_uris":{"android":"levelo://app?vid=af26ad19-9abe-49ff-a248-1cbef9be5ba8","ios":"levelo://app?vid=af26ad19-9abe-49ff-a248-1cbef9be5ba8"},"vehicle_type_id":"4","last_reported":1744082751,"current_range_meters":18800,"station_id":"ce4bh0h2rcd13ifvqd60","pricing_plan_id":"cebpf4jnsgd1na2vs0mg"},{"bike_id":"c07089cb-fc37-4213-a93b-fc326f79309b","system_id":"levelo_inurba_marseille","lat":43.31357,"lon":5.38448,"is_reserved":false,"is_disabled":true,"rental_uris":{"android":"levelo://app?vid=c07089cb-fc37-4213-a93b-fc326f79309b","ios":"levelo://app?vid=c07089cb-fc37-4213-a93b-fc326f79309b"},"vehicle_type_id":"4","last_reported":1744082751,"current_range_meters":18800,"station_id":"ce4bgt92rcd13ifvqcf0","pricing_plan_id":"cebpf4jnsgd1na2vs0mg"},{"bike_id":"fc8865af-1b71-4ee0-81f9-cc228523c040","system_id":"levelo_inurba_marseille","lat":43.3034,"lon":5.40458,"is_reserved":false,"is_disabled":false,"rental_uris":{"android":"levelo://app?vid=fc8865af-1b71-4ee0-81f9-cc228523c040","ios":"levelo://app?vid=fc8865af-1b71-4ee0-81f9-cc228523c040"},"vehicle_type_id":"4","last_reported":1744082751,"current_range_meters":18800,"station_id":"ce4bh012rcd13ifvqd10","pricing_plan_id":"cebpf4jnsgd1na2vs0mg"},{"bike_id":"062b7966-1004-44b4-a41b-ccc4903e1341","system_id":"levelo_inurba_marseille","lat":43.30447,"lon":5.38875,"is_reserved":false,"is_disabled":false,"rental_uris":{"android":"levelo://app?vid=062b7966-1004-44b4-a41b-ccc4903e1341","ios":"levelo://app?vid=062b7966-1004-44b4-a41b-ccc4903e1341"},"vehicle_type_id":"4","last_reported":1744082751,"current_range_meters":18800,"station_id":"ce4bgk12rcd13ifvqbi0","pricing_plan_id":"cebpf4jnsgd1na2vs0mg"},{"bike_id":"ff41a0fe-f825-4e7b-ab7a-9d0a61ab471c","system_id":"levelo_inurba_marseille","lat":43.307343,"lon":5.424437,"is_reserved":false,"is_disabled":false,"rental_uris":{"android":"levelo://app?vid=ff41a0fe-f825-4e7b-ab7a-9d0a61ab471c","ios":"levelo://app?vid=ff41a0fe-f825-4e7b-ab7a-9d0a61ab471c"},"vehicle_type_id":"4","last_reported":1744082751,"current_range_meters":18800,"station_id":"st_cvj6ca6bvosntc0bfgr0","pricing_plan_id":"cebpf4jnsgd1na2vs0mg"},{"bike_id":"e2a40092-9e31-4930-a140-c9db9169b22d","system_id":"levelo_inurba_marseille","lat":43.31074,"lon":5.38329,"is_reserved":false,"is_disabled":false,"rental_uris":{"android":"levelo://app?vid=e2a40092-9e31-4930-a140-c9db9169b22d","ios":"levelo://app?vid=e2a40092-9e31-4930-a140-c9db9169b22d"},"vehicle_type_id":"4","last_reported":1744082751,"current_range_meters":18800,"station_id":"ce4bgv92rcd13ifvqcr0","pricing_plan_id":"cebpf4jnsgd1na2vs0mg"},{"bike_id":"e4d1dec5-1111-414d-86fe-fb384d35d55d","system_id":"levelo_inurba_marseille","lat":43.29609,"lon":5.40614,"is_reserved":false,"is_disabled":false,"rental_uris":{"android":"levelo://app?vid=e4d1dec5-1111-414d-86fe-fb384d35d55d","ios":"levelo://app?vid=e4d1dec5-1111-414d-86fe-fb384d35d55d"},"vehicle_type_id":"4","last_reported":1744082751,"current_range_meters":18800,"station_id":"ce4bh0h2rcd13ifvqd60","pricing_plan_id":"cebpf4jnsgd1na2vs0mg"},{"bike_id":"11a6ff8e-c397-45c3-a259-6ad14be198e6","system_id":"levelo_inurba_marseille","lat":43.251098,"lon":5.403214,"is_reserved":false,"is_disabled":false,"rental_uris":{"android":"levelo://app?vid=11a6ff8e-c397-45c3-a259-6ad14be198e6","ios":"levelo://app?vid=11a6ff8e-c397-45c3-a259-6ad14be198e6"},"vehicle_type_id":"4","last_reported":1744082751,"current_range_meters":18800,"station_id":"ce4bhlh2rcd13ifvqgig","pricing_plan_id":"cebpf4jnsgd1na2vs0mg"},{"bike_id":"7c8cd073-d66c-4b67-9299-5a3eb82c408f","system_id":"levelo_inurba_marseille","lat":43.284181,"lon":5.375174,"is_reserved":false,"is_disabled":false,"rental_uris":{"android":"levelo://app?vid=7c8cd073-d66c-4b67-9299-5a3eb82c408f","ios":"levelo://app?vid=7c8cd073-d66c-4b67-9299-5a3eb82c408f"},"vehicle_type_id":"4","last_reported":1744082751,"current_range_meters":18800,"station_id":"ce4bh412rcd13ifvqds0","pricing_plan_id":"cebpf4jnsgd1na2vs0mg"},{"bike_id":"cc660884-f297-4bb0-b7e1-51d0db0ddc0b","system_id":"levelo_inurba_marseille","lat":43.28403,"lon":5.3752,"is_reserved":false,"is_disabled":false,"rental_uris":{"android":"levelo://app?vid=cc660884-f297-4bb0-b7e1-51d0db0ddc0b","ios":"levelo://app?vid=cc660884-f297-4bb0-b7e1-51d0db0ddc0b"},"vehicle_type_id":"4","last_reported":1744082751,"current_range_meters":19200,"station_id":"ce4bh412rcd13ifvqds0","pricing_plan_id":"cebpf4jnsgd1na2vs0mg"},{"bike_id":"52dfef30-eef0-4dd6-a138-a48c8dcc2c3a","system_id":"levelo_inurba_marseille","lat":43.30411,"lon":5.42736,"is_reserved":false,"is_disabled":true,"rental_uris":{"android":"levelo://app?vid=52dfef30-eef0-4dd6-a138-a48c8dcc2c3a","ios":"levelo://app?vid=52dfef30-eef0-4dd6-a138-a48c8dcc2c3a"},"vehicle_type_id":"4","last_reported":1744082751,"current_range_meters":19200,"station_id":"","pricing_plan_id":"cebpf4jnsgd1na2vs0mg"},{"bike_id":"870197ba-8661-4085-a36c-bffec9696405","system_id":"levelo_inurba_marseille","lat":43.2845,"lon":5.35968,"is_reserved":false,"is_disabled":false,"rental_uris":{"android":"levelo://app?vid=870197ba-8661-4085-a36c-bffec9696405","ios":"levelo://app?vid=870197ba-8661-4085-a36c-bffec9696405"},"vehicle_type_id":"4","last_reported":1744082751,"current_range_meters":19200,"station_id":"","pricing_plan_id":"cebpf4jnsgd1na2vs0mg"},{"bike_id":"a75273b0-6be3-4981-945a-c0d8b820c26c","system_id":"levelo_inurba_marseille","lat":43.28701,"lon":5.37447,"is_reserved":false,"is_disabled":false,"rental_uris":{"android":"levelo://app?vid=a75273b0-6be3-4981-945a-c0d8b820c26c","ios":"levelo://app?vid=a75273b0-6be3-4981-945a-c0d8b820c26c"},"vehicle_type_id":"4","last_reported":1744082751,"current_range_meters":19200,"station_id":"","pricing_plan_id":"cebpf4jnsgd1na2vs0mg"},{"bike_id":"0914e419-91e3-4a03-9ab8-157df463dbc7","system_id":"levelo_inurba_marseille","lat":43.26948,"lon":5.38615,"is_reserved":false,"is_disabled":true,"rental_uris":{"android":"levelo://app?vid=0914e419-91e3-4a03-9ab8-157df463dbc7","ios":"levelo://app?vid=0914e419-91e3-4a03-9ab8-157df463dbc7"},"vehicle_type_id":"4","last_reported":1744082751,"current_range_meters":19200,"station_id":"ce4bhh92rcd13ifvqfh0","pricing_plan_id":"cebpf4jnsgd1na2vs0mg"},{"bike_id":"795565f5-ea7c-4b35-b197-8475f7193121","system_id":"levelo_inurba_marseille","lat":43.28726,"lon":5.36142,"is_reserved":false,"is_disabled":false,"rental_uris":{"android":"levelo://app?vid=795565f5-ea7c-4b35-b197-8475f7193121","ios":"levelo://app?vid=795565f5-ea7c-4b35-b197-8475f7193121"},"vehicle_type_id":"4","last_reported":1744082751,"current_range_meters":19200,"station_id":"","pricing_plan_id":"cebpf4jnsgd1na2vs0mg"},{"bike_id":"c5d44bbe-5e41-41a4-ba4d-8ee2c885d249","system_id":"levelo_inurba_marseille","lat":43.26565,"lon":5.390122,"is_reserved":false,"is_disabled":false,"rental_uris":{"android":"levelo://app?vid=c5d44bbe-5e41-41a4-ba4d-8ee2c885d249","ios":"levelo://app?vid=c5d44bbe-5e41-41a4-ba4d-8ee2c885d249"},