{"last_updated":1734192597,"ttl":60,"version":"2.2","data":{"bikes":[{"bike_id":"45c22bfb-3859-46ca-bbdd-b43970628095","system_id":"levelo_inurba_marseille","lat":43.23187,"lon":5.40026,"is_reserved":false,"is_disabled":false,"rental_uris":{"android":"levelo://app?vid=45c22bfb-3859-46ca-bbdd-b43970628095","ios":"levelo://app?vid=45c22bfb-3859-46ca-bbdd-b43970628095"},"vehicle_type_id":"4","last_reported":1734192597,"current_range_meters":21600,"station_id":"ce4bhn12rcd13ifvqgqg","pricing_plan_id":"cebpf4jnsgd1na2vs0mg"},{"bike_id":"f1c69c2b-36e4-4da1-b583-7192530308c9","system_id":"levelo_inurba_marseille","lat":43.24808,"lon":5.37454,"is_reserved":false,"is_disabled":true,"rental_uris":{"android":"levelo://app?vid=f1c69c2b-36e4-4da1-b583-7192530308c9","ios":"levelo://app?vid=f1c69c2b-36e4-4da1-b583-7192530308c9"},"vehicle_type_id":"4","last_reported":1734192597,"current_range_meters":0,"station_id":"ce4bhgh2rcd13ifvqfb0","pricing_plan_id":"cebpf4jnsgd1na2vs0mg"},{"bike_id":"3bbd559a-b2c3-4665-9373-e5fb5a95a297","system_id":"levelo_inurba_marseille","lat":43.23197,"lon":5.35549,"is_reserved":false,"is_disabled":false,"rental_uris":{"android":"levelo://app?vid=3bbd559a-b2c3-4665-9373-e5fb5a95a297","ios":"levelo://app?vid=3bbd559a-b2c3-4665-9373-e5fb5a95a297"},"vehicle_type_id":"4","last_reported":1734192597,"current_range_meters":18800,"station_id":"ce4bhu92rcd13ifvqi70","pricing_plan_id":"cebpf4jnsgd1na2vs0mg"},{"bike_id":"548b71d6-57f8-4fef-ad05-d9f3c9d122d8","system_id":"levelo_inurba_marseille","lat":43.23153,"lon":5.43703,"is_reserved":false,"is_disabled":false,"rental_uris":{"android":"levelo://app?vid=548b71d6-57f8-4fef-ad05-d9f3c9d122d8","ios":"levelo://app?vid=548b71d6-57f8-4fef-ad05-d9f3c9d122d8"},"vehicle_type_id":"4","last_reported":1734192597,"current_range_meters":30400,"station_id":"ce4bhmp2rcd13ifvqgog","pricing_plan_id":"cebpf4jnsgd1na2vs0mg"},{"bike_id":"c789b658-94ae-4ffa-bb8d-68fee2036fb2","system_id":"levelo_inurba_marseille","lat":43.28972,"lon":5.37825,"is_reserved":false,"is_disabled":false,"rental_uris":{"android":"levelo://app?vid=c789b658-94ae-4ffa-bb8d-68fee2036fb2","ios":"levelo://app?vid=c789b658-94ae-4ffa-bb8d-68fee2036fb2"},"vehicle_type_id":"4","last_reported":1734192597,"current_range_meters":37600,"station_id":"ce4bh9p2rcd13ifvqed0","pricing_plan_id":"cebpf4jnsgd1na2vs0mg"},{"bike_id":"35642114-ba9f-4cd0-9d6f-a2edaa6e597b","system_id":"levelo_inurba_marseille","lat":43.30459,"lon":5.37896,"is_reserved":false,"is_disabled":false,"rental_uris":{"android":"levelo://app?vid=35642114-ba9f-4cd0-9d6f-a2edaa6e597b","ios":"levelo://app?vid=35642114-ba9f-4cd0-9d6f-a2edaa6e597b"},"vehicle_type_id":"4","last_reported":1734192597,"current_range_meters":12800,"station_id":"ce4bgup2rcd13ifvqcn0","pricing_plan_id":"cebpf4jnsgd1na2vs0mg"},{"bike_id":"10e5e65b-de24-4341-86b7-fc41ee764229","system_id":"levelo_inurba_marseille","lat":43.2695,"lon":5.40241,"is_reserved":false,"is_disabled":false,"rental_uris":{"android":"levelo://app?vid=10e5e65b-de24-4341-86b7-fc41ee764229","ios":"levelo://app?vid=10e5e65b-de24-4341-86b7-fc41ee764229"},"vehicle_type_id":"4","last_reported":1734192597,"current_range_meters":30000,"station_id":"cjm6bp8fraef2m0cb0m0","pricing_plan_id":"cebpf4jnsgd1na2vs0mg"},{"bike_id":"51753879-9dc9-4edb-a301-998c37afab5a","system_id":"levelo_inurba_marseille","lat":43.27941,"lon":5.41048,"is_reserved":false,"is_disabled":false,"rental_uris":{"android":"levelo://app?vid=51753879-9dc9-4edb-a301-998c37afab5a","ios":"levelo://app?vid=51753879-9dc9-4edb-a301-998c37afab5a"},"vehicle_type_id":"4","last_reported":1734192597,"current_range_meters":38800,"station_id":"ce4bhnp2rcd13ifvqh0g","pricing_plan_id":"cebpf4jnsgd1na2vs0mg"},{"bike_id":"17cc5474-5efd-4873-b673-b95d3573b310","system_id":"levelo_inurba_marseille","lat":43.27315,"lon":5.39085,"is_reserved":false,"is_disabled":false,"rental_uris":{"android":"levelo://app?vid=17cc5474-5efd-4873-b673-b95d3573b310","ios":"levelo://app?vid=17cc5474-5efd-4873-b673-b95d3573b310"},"vehicle_type_id":"4","last_reported":1734192597,"current_range_meters":24800,"station_id":"ce4bhgp2rcd13ifvqfe0","pricing_plan_id":"cebpf4jnsgd1na2vs0mg"},{"bike_id":"212f1b13-d787-4daa-8e7d-ba4b7d8b6e8f","system_id":"levelo_inurba_marseille","lat":43.26943,"lon":5.40255,"is_reserved":false,"is_disabled":true,"rental_uris":{"android":"levelo://app?vid=212f1b13-d787-4daa-8e7d-ba4b7d8b6e8f","ios":"levelo://app?vid=212f1b13-d787-4daa-8e7d-ba4b7d8b6e8f"},"vehicle_type_id":"4","last_reported":1734192597,"current_range_meters":1200,"station_id":"cjm6bp8fraef2m0cb0m0","pricing_plan_id":"cebpf4jnsgd1na2vs0mg"},{"bike_id":"35b6af69-78db-427f-85ff-88f7512e2553","system_id":"levelo_inurba_marseille","lat":43.28621,"lon":5.35104,"is_reserved":false,"is_disabled":false,"rental_uris":{"android":"levelo://app?vid=35b6af69-78db-427f-85ff-88f7512e2553","ios":"levelo://app?vid=35b6af69-78db-427f-85ff-88f7512e2553"},"vehicle_type_id":"4","last_reported":1734192597,"current_range_meters":38800,"station_id":"ce4bhch2rcd13ifvqeug","pricing_plan_id":"cebpf4jnsgd1na2vs0mg"},{"bike_id":"66201c9c-a7d8-4840-ad6c-05c74b675bbe","system_id":"levelo_inurba_marseille","lat":43.27309,"lon":5.39062,"is_reserved":false,"is_disabled":true,"rental_uris":{"android":"levelo://app?vid=66201c9c-a7d8-4840-ad6c-05c74b675bbe","ios":"levelo://app?vid=66201c9c-a7d8-4840-ad6c-05c74b675bbe"},"vehicle_type_id":"4","last_reported":1734192597,"current_range_meters":2000,"station_id":"ce4bhgp2rcd13ifvqfe0","pricing_plan_id":"cebpf4jnsgd1na2vs0mg"},{"bike_id":"0a9c6a57-1ca1-4685-9330-f2cf4d20a4b7","system_id":"levelo_inurba_marseille","lat":43.29259,"lon":5.38449,"is_reserved":false,"is_disabled":true,"rental_uris":{"android":"levelo://app?vid=0a9c6a57-1ca1-4685-9330-f2cf4d20a4b7","ios":"levelo://app?vid=0a9c6a57-1ca1-4685-9330-f2cf4d20a4b7"},"vehicle_type_id":"4","last_reported":1734192597,"current_range_meters":1600,"station_id":"ce4bh692rcd13ifvqea0","pricing_plan_id":"cebpf4jnsgd1na2vs0mg"},{"bike_id":"3595e955-9243-4ebf-a4ff-5df2907e8d74","system_id":"levelo_inurba_marseille","lat":43.32288,"lon":5.38272,"is_reserved":false,"is_disabled":false,"rental_uris":{"android":"levelo://app?vid=3595e955-9243-4ebf-a4ff-5df2907e8d74","ios":"levelo://app?vid=3595e955-9243-4ebf-a4ff-5df2907e8d74"},"vehicle_type_id":"4","last_reported":1734192597,"current_range_meters":39200,"station_id":"ce4bhr12rcd13ifvqhqg","pricing_plan_id":"cebpf4jnsgd1na2vs0mg"},{"bike_id":"ea6d6590-c7f5-4921-85f4-7ef9b3349955","system_id":"levelo_inurba_marseille","lat":43.27321,"lon":5.39073,"is_reserved":false,"is_disabled":false,"rental_uris":{"android":"levelo://app?vid=ea6d6590-c7f5-4921-85f4-7ef9b3349955","ios":"levelo://app?vid=ea6d6590-c7f5-4921-85f4-7ef9b3349955"},"vehicle_type_id":"4","last_reported":1734192597,"current_range_meters":28800,"station_id":"ce4bhgp2rcd13ifvqfe0","pricing_plan_id":"cebpf4jnsgd1na2vs0mg"},{"bike_id":"dabce8f4-764b-4bef-bbcb-646aed6a9a40","system_id":"levelo_inurba_marseille","lat":43.29261,"lon":5.36847,"is_reserved":false,"is_disabled":false,"rental_uris":{"android":"levelo://app?vid=dabce8f4-764b-4bef-bbcb-646aed6a9a40","ios":"levelo://app?vid=dabce8f4-764b-4bef-bbcb-646aed6a9a40"},"vehicle_type_id":"4","last_reported":1734192597,"current_range_meters":19200,"station_id":"ce4bhbp2rcd13ifvqesg","pricing_plan_id":"cebpf4jnsgd1na2vs0mg"},{"bike_id":"80e5c1e3-8d27-43e3-9451-b00f65b301df","system_id":"levelo_inurba_marseille","lat":43.23187,"lon":5.35556,"is_reserved":false,"is_disabled":false,"rental_uris":{"android":"levelo://app?vid=80e5c1e3-8d27-43e3-9451-b00f65b301df","ios":"levelo://app?vid=80e5c1e3-8d27-43e3-9451-b00f65b301df"},"vehicle_type_id":"4","last_reported":1734192597,"current_range_meters":38800,"station_id":"ce4bhu92rcd13ifvqi70","pricing_plan_id":"cebpf4jnsgd1na2vs0mg"},{"bike_id":"496b9119-850a-49b3-bf98-295bb079ca7c","system_id":"levelo_inurba_marseille","lat":43.28185,"lon":5.44594,"is_reserved":false,"is_disabled":false,"rental_uris":{"android":"levelo://app?vid=496b9119-850a-49b3-bf98-295bb079ca7c","ios":"levelo://app?vid=496b9119-850a-49b3-bf98-295bb079ca7c"},"vehicle_type_id":"4","last_reported":1734192597,"current_range_meters":9200,"station_id":"","pricing_plan_id":"cebpf4jnsgd1na2vs0mg"},{"bike_id":"057c20b7-bf34-40df-bd6f-93a11afceebe","system_id":"levelo_inurba_marseille","lat":43.27993,"lon":5.4166,"is_reserved":false,"is_disabled":false,"rental_uris":{"android":"levelo://app?vid=057c20b7-bf34-40df-bd6f-93a11afceebe","ios":"levelo://app?vid=057c20b7-bf34-40df-bd6f-93a11afceebe"},"vehicle_type_id":"4","last_reported":1734192597,"current_range_meters":37600,"station_id":"ce4bho12rcd13ifvqh1g","pricing_plan_id":"cebpf4jnsgd1na2vs0mg"},{"bike_id":"03ff3e32-27a0-4629-8f34-4101ea444023","system_id":"levelo_inurba_marseille","lat":43.28403,"lon":5.37519,"is_reserved":false,"is_disabled":false,"rental_uris":{"android":"levelo://app?vid=03ff3e32-27a0-4629-8f34-4101ea444023","ios":"levelo://app?vid=03ff3e32-27a0-4629-8f34-4101ea444023"},"vehicle_type_id":"4","last_reported":1734192597,"current_range_meters":38800,"station_id":"ce4bh412rcd13ifvqds0","pricing_plan_id":"cebpf4jnsgd1na2vs0mg"},{"bike_id":"88f2033b-7e30-4fec-967e-f2db67085ede","system_id":"levelo_inurba_marseille","lat":43.341449,"lon":5.40914,"is_reserved":false,"is_disabled":false,"rental_uris":{"android":"levelo://app?vid=88f2033b-7e30-4fec-967e-f2db67085ede","ios":"levelo://app?vid=88f2033b-7e30-4fec-967e-f2db67085ede"},"vehicle_type_id":"4","last_reported":1734192597,"current_range_meters":38800,"station_id":"ce4bhqh2rcd13ifvqhlg","pricing_plan_id":"cebpf4jnsgd1na2vs0mg"},{"bike_id":"bdda6ee3-6971-4411-b103-c17244046de0","system_id":"levelo_inurba_marseille","lat":43.27054,"lon":5.40265,"is_reserved":false,"is_disabled":false,"rental_uris":{"android":"levelo://app?vid=bdda6ee3-6971-4411-b103-c17244046de0","ios":"levelo://app?vid=bdda6ee3-6971-4411-b103-c17244046de0"},"vehicle_type_id":"4","last_reported":1734192597,"current_range_meters":6000,"station_id":"ce4bhk92rcd13ifvqgc0","pricing_plan_id":"cebpf4jnsgd1na2vs0mg"},{"bike_id":"d5c89c1f-3bad-4af2-9449-e04c277a4696","system_id":"levelo_inurba_marseille","lat":43.29967,"lon":5.41338,"is_reserved":false,"is_disabled":true,"rental_uris":{"android":"levelo://app?vid=d5c89c1f-3bad-4af2-9449-e04c277a4696","ios":"levelo://app?vid=d5c89c1f-3bad-4af2-9449-e04c277a4696"},"vehicle_type_id":"4","last_reported":1734192597,"current_range_meters":38400,"station_id":"ce4bhp12rcd13ifvqh9g","pricing_plan_id":"cebpf4jnsgd1na2vs0mg"},{"bike_id":"b90e0227-feb8-498e-b037-0ec24aabb997","system_id":"levelo_inurba_marseille","lat":43.30531,"lon":5.36704,"is_reserved":false,"is_disabled":false,"rental_uris":{"android":"levelo://app?vid=b90e0227-feb8-498e-b037-0ec24aabb997","ios":"levelo://app?vid=b90e0227-feb8-498e-b037-0ec24aabb997"},"vehicle_type_id":"4","last_reported":1734192597,"current_range_meters":6400,"station_id":"ce4bgrp2rcd13ifvqc9g","pricing_plan_id":"cebpf4jnsgd1na2vs0mg"},{"bike_id":"42d4d55b-6294-45b2-8848-60cdf232427e","system_id":"levelo_inurba_marseille","lat":43.27217,"lon":5.39201,"is_reserved":false,"is_disabled":false,"rental_uris":{"android":"levelo://app?vid=42d4d55b-6294-45b2-8848-60cdf232427e","ios":"levelo://app?vid=42d4d55b-6294-45b2-8848-60cdf232427e"},"vehicle_type_id":"4","last_reported":1734192597,"current_range_meters":35600,"station_id":"ce4bhhp2rcd13ifvqfm0","pricing_plan_id":"cebpf4jnsgd1na2vs0mg"},{"bike_id":"5dcb142e-3766-4e2c-b1fe-c9ebbc5d3c50","system_id":"levelo_inurba_marseille","lat":43.31989,"lon":5.38155,"is_reserved":false,"is_disabled":false,"rental_uris":{"android":"levelo://app?vid=5dcb142e-3766-4e2c-b1fe-c9ebbc5d3c50","ios":"levelo://app?vid=5dcb142e-3766-4e2c-b1fe-c9ebbc5d3c50"},"vehicle_type_id":"4","last_reported":1734192597,"current_range_meters":38800,"station_id":"ce4bhr12rcd13ifvqhpg","pricing_plan_id":"cebpf4jnsgd1na2vs0mg"},{"bike_id":"a7b8257e-8dd8-4089-b34c-9c18012a63d0","system_id":"levelo_inurba_marseille","lat":43.23133,"lon":5.43722,"is_reserved":false,"is_disabled":false,"rental_uris":{"android":"levelo://app?vid=a7b8257e-8dd8-4089-b34c-9c18012a63d0","ios":"levelo://app?vid=a7b8257e-8dd8-4089-b34c-9c18012a63d0"},"vehicle_type_id":"4","last_reported":1734192597,"current_range_meters":23200,"station_id":"ce4bhmp2rcd13ifvqgog","pricing_plan_id":"cebpf4jnsgd1na2vs0mg"},{"bike_id":"0e20bd65-fe9c-4e25-a630-279355ce55f2","system_id":"levelo_inurba_marseille","lat":43.29708,"lon":5.37706,"is_reserved":false,"is_disabled":true,"rental_uris":{"android":"levelo://app?vid=0e20bd65-fe9c-4e25-a630-279355ce55f2","ios":"levelo://app?vid=0e20bd65-fe9c-4e25-a630-279355ce55f2"},"vehicle_type_id":"4","last_reported":1734192597,"current_range_meters":1200,"station_id":"ce4bgkh2rcd13ifvqbl0","pricing_plan_id":"cebpf4jnsgd1na2vs0mg"},{"bike_id":"ba838ee3-c54d-4ede-b6cd-d1685e40e5d7","system_id":"levelo_inurba_marseille","lat":43.23191,"lon":5.39983,"is_reserved":false,"is_disabled":false,"rental_uris":{"android":"levelo://app?vid=ba838ee3-c54d-4ede-b6cd-d1685e40e5d7","ios":"levelo://app?vid=ba838ee3-c54d-4ede-b6cd-d1685e40e5d7"},"vehicle_type_id":"4","last_reported":1734192597,"current_range_meters":26800,"station_id":"ce4bhn12rcd13ifvqgqg","pricing_plan_id":"cebpf4jnsgd1na2vs0mg"},{"bike_id":"595ce88a-34cb-4990-9769-b15c51d16d43","system_id":"levelo_inurba_marseille","lat":43.29279,"lon":5.36846,"is_reserved":false,"is_disabled":false,"rental_uris":{"android":"levelo://app?vid=595ce88a-34cb-4990-9769-b15c51d16d43","ios":"levelo://app?vid=595ce88a-34cb-4990-9769-b15c51d16d43"},"vehicle_type_id":"4","last_reported":1734192597,"current_range_meters":38800,"station_id":"ce4bhbp2rcd13ifvqesg","pricing_plan_id":"cebpf4jnsgd1na2vs0mg"},{"bike_id":"197dd38e-e221-4df6-b62c-1934e0b286d1","system_id":"levelo_inurba_marseille","lat":43.30552,"lon":5.38394,"is_reserved":false,"is_disabled":false,"rental_uris":{"android":"levelo://app?vid=197dd38e-e221-4df6-b62c-1934e0b286d1","ios":"levelo://app?vid=197dd38e-e221-4df6-b62c-1934e0b286d1"},"vehicle_type_id":"4","last_reported":1734192597,"current_range_meters":30000,"station_id":"ce4bgg92rcd13ifvqb30","pricing_plan_id":"cebpf4jnsgd1na2vs0mg"},{"bike_id":"d73fd242-71d9-4951-a797-6f754b8a00c6","system_id":"levelo_inurba_marseille","lat":43.31337,"lon":5.36741,"is_reserved":false,"is_disabled":false,"rental_uris":{"android":"levelo://app?vid=d73fd242-71d9-4951-a797-6f754b8a00c6","ios":"levelo://app?vid=d73fd242-71d9-4951-a797-6f754b8a00c6"},"vehicle_type_id":"4","last_reported":1734192597,"current_range_meters":38000,"station_id":"ce4bh0p2rcd13ifvqd70","pricing_plan_id":"cebpf4jnsgd1na2vs0mg"},{"bike_id":"8b5e7f08-f016-4ee7-ba55-03ccb46add87","system_id":"levelo_inurba_marseille","lat":43.26783,"lon":5.39417,"is_reserved":false,"is_disabled":false,"rental_uris":{"android":"levelo://app?vid=8b5e7f08-f016-4ee7-ba55-03ccb46add87","ios":"levelo://app?vid=8b5e7f08-f016-4ee7-ba55-03ccb46add87"},"vehicle_type_id":"4","last_reported":1734192597,"current_range_meters":12000,"station_id":"ce4bhh12rcd13ifvqfg0","pricing_plan_id":"cebpf4jnsgd1na2vs0mg"},{"bike_id":"ab605155-3bec-4a31-982c-93a478ab15b1","system_id":"levelo_inurba_marseille","lat":43.284859,"lon":5.385653,"is_reserved":false,"is_disabled":false,"rental_uris":{"android":"levelo://app?vid=ab605155-3bec-4a31-982c-93a478ab15b1","ios":"levelo://app?vid=ab605155-3bec-4a31-982c-93a478ab15b1"},"vehicle_type_id":"4","last_reported":1734192597,"current_range_meters":33600,"station_id":"ce4bh8p2rcd13ifvqeb0","pricing_plan_id":"cebpf4jnsgd1na2vs0mg"},{"bike_id":"83481095-909d-446d-9ecf-b790b0925c05","system_id":"levelo_inurba_marseille","lat":43.29791,"lon":5.38109,"is_reserved":false,"is_disabled":false,"rental_uris":{"android":"levelo://app?vid=83481095-909d-446d-9ecf-b790b0925c05","ios":"levelo://app?vid=83481095-909d-446d-9ecf-b790b0925c05"},"vehicle_type_id":"4","last_reported":1734192597,"current_range_meters":36800,"station_id":"ce4bgip2rcd13ifvqbb0","pricing_plan_id":"cebpf4jnsgd1na2vs0mg"},{"bike_id":"f25a6689-772f-4ee7-acc7-de3ee63fd7cc","system_id":"levelo_inurba_marseille","lat":43.32045,"lon":5.41548,"is_reserved":false,"is_disabled":false,"rental_uris":{"android":"levelo://app?vid=f25a6689-772f-4ee7-acc7-de3ee63fd7cc","ios":"levelo://app?vid=f25a6689-772f-4ee7-acc7-de3ee63fd7cc"},"vehicle_type_id":"4","last_reported":1734192597,"current_range_meters":6400,"station_id":"ce4bhq92rcd13ifvqhkg","pricing_plan_id":"cebpf4jnsgd1na2vs0mg"},{"bike_id":"475b600e-c01b-4306-8973-446125cf0eee","system_id":"levelo_inurba_marseille","lat":43.286,"lon":5.37074,"is_reserved":false,"is_disabled":false,"rental_uris":{"android":"levelo://app?vid=475b600e-c01b-4306-8973-446125cf0eee","ios":"levelo://app?vid=475b600e-c01b-4306-8973-446125cf0eee"},"vehicle_type_id":"4","last_reported":1734192597,"current_range_meters":16800,"station_id":"ce4bht12rcd13ifvqi60","pricing_plan_id":"cebpf4jnsgd1na2vs0mg"},{"bike_id":"edaea664-24e0-4d6c-aa7a-497f5c5f88f6","system_id":"levelo_inurba_marseille","lat":43.27008,"lon":5.39139,"is_reserved":false,"is_disabled":true,"rental_uris":{"android":"levelo://app?vid=edaea664-24e0-4d6c-aa7a-497f5c5f88f6","ios":"levelo://app?vid=edaea664-24e0-4d6c-aa7a-497f5c5f88f6"},"vehicle_type_id":"4","last_reported":1734192597,"current_range_meters":0,"station_id":"","pricing_plan_id":"cebpf4jnsgd1na2vs0mg"},{"bike_id":"637f7e23-be3b-4aa9-87cb-5d394800192c","system_id":"levelo_inurba_marseille","lat":43.3172,"lon":5.43703,"is_reserved":false,"is_disabled":true,"rental_uris":{"android":"levelo://app?vid=637f7e23-be3b-4aa9-87cb-5d394800192c","ios":"levelo://app?vid=637f7e23-be3b-4aa9-87cb-5d394800192c"},"vehicle_type_id":"4","last_reported":1734192597,"current_range_meters":2000,"station_id":"ce4bhp92rcd13ifvqhcg","pricing_plan_id":"cebpf4jnsgd1na2vs0mg"},{"bike_id":"ba8868f4-a03c-4bd1-a1c8-16faa2ec7485","system_id":"levelo_inurba_marseille","lat":43.25721,"lon":5.41116,"is_reserved":false,"is_disabled":false,"rental_uris":{"android":"levelo://app?vid=ba8868f4-a03c-4bd1-a1c8-16faa2ec7485","ios":"levelo://app?vid=ba8868f4-a03c-4bd1-a1c8-16faa2ec7485"},"vehicle_type_id":"4","last_reported":1734192597,"current_range_meters":35600,"station_id":"ce4bhkp2rcd13ifvqgd0","pricing_plan_id":"cebpf4jnsgd1na2vs0mg"},{"bike_id":"e22edf14-1302-4ae9-ab2b-e47a68d9ef58","system_id":"levelo_inurba_marseille","lat":43.28998,"lon":5.37578,"is_reserved":false,"is_disabled":false,"rental_uris":{"android":"levelo://app?vid=e22edf14-1302-4ae9-ab2b-e47a68d9ef58","ios":"levelo://app?vid=e22edf14-1302-4ae9-ab2b-e47a68d9ef58"},"vehicle_type_id":"4","last_reported":1734192597,"current_range_meters":38800,"station_id":"ce4bh692rcd13ifvqe90","pricing_plan_id":"cebpf4jnsgd1na2vs0mg"},{"bike_id":"ecd12866-479d-43ad-b638-14a85f53f08e","system_id":"levelo_inurba_marseille","lat":43.3015,"lon":5.38083,"is_reserved":false,"is_disabled":false,"rental_uris":{"android":"levelo://app?vid=ecd12866-479d-43ad-b638-14a85f53f08e","ios":"levelo://app?vid=ecd12866-479d-43ad-b638-14a85f53f08e"},"vehicle_type_id":"4","last_reported":1734192597,"current_range_meters":38800,"station_id":"ce4bgjp2rcd13ifvqbh0","pricing_plan_id":"cebpf4jnsgd1na2vs0mg"},{"bike_id":"48a2373e-e4fc-4f31-ad4c-6394e9af9b1c","system_id":"levelo_inurba_marseille","lat":43.30359,"lon":5.41889,"is_reserved":false,"is_disabled":true,"rental_uris":{"android":"levelo://app?vid=48a2373e-e4fc-4f31-ad4c-6394e9af9b1c","ios":"levelo://app?vid=48a2373e-e4fc-4f31-ad4c-6394e9af9b1c"},"vehicle_type_id":"4","last_reported":1734192597,"current_range_meters":0,"station_id":"ce4bhop2rcd13ifvqh7g","pricing_plan_id":"cebpf4jnsgd1na2vs0mg"},{"bike_id":"6bfacb51-2580-4ccf-9aa3-c8ac17392142","system_id":"levelo_inurba_marseille","lat":43.33677,"lon":5.40989,"is_reserved":false,"is_disabled":false,"rental_uris":{"android":"levelo://app?vid=6bfacb51-2580-4ccf-9aa3-c8ac17392142","ios":"levelo://app?vid=6bfacb51-2580-4ccf-9aa3-c8ac17392142"},"vehicle_type_id":"4","last_reported":1734192597,"current_range_meters":38800,"station_id":"","pricing_plan_id":"cebpf4jnsgd1na2vs0mg"},{"bike_id":"8409e182-ec6b-4f84-bc9c-53a41afa48e6","system_id":"levelo_inurba_marseille","lat":43.26215,"lon":5.37441,"is_reserved":false,"is_disabled":false,"rental_uris":{"android":"levelo://app?vid=8409e182-ec6b-4f84-bc9c-53a41afa48e6","ios":"levelo://app?vid=8409e182-ec6b-4f84-bc9c-53a41afa48e6"},"vehicle_type_id":"4","last_reported":1734192597,"current_range_meters":4800,"station_id":"ce4bhgp2rcd13ifvqfc0","pricing_plan_id":"cebpf4jnsgd1na2vs0mg"},{"bike_id":"623d3fa7-759b-45ca-83a9-1e272575d5f9","system_id":"levelo_inurba_marseille","lat":43.32496,"lon":5.36558,"is_reserved":false,"is_disabled":false,"rental_uris":{"android":"levelo://app?vid=623d3fa7-759b-45ca-83a9-1e272575d5f9","ios":"levelo://app?vid=623d3fa7-759b-45ca-83a9-1e272575d5f9"},"vehicle_type_id":"4","last_reported":1734192597,"current_range_meters":34800,"station_id":"ce4bhs12rcd13ifvqhvg","pricing_plan_id":"cebpf4jnsgd1na2vs0mg"},{"bike_id":"4fe5b802-6d4a-478f-80f7-e4f6837b7ef9","system_id":"levelo_inurba_marseille","lat":43.26941,"lon":5.40252,"is_reserved":false,"is_disabled":true,"rental_uris":{"android":"levelo://app?vid=4fe5b802-6d4a-478f-80f7-e4f6837b7ef9","ios":"levelo://app?vid=4fe5b802-6d4a-478f-80f7-e4f6837b7ef9"},"vehicle_type_id":"4","last_reported":1734192597,"current_range_meters":0,"station_id":"cjm6bp8fraef2m0cb0m0","pricing_plan_id":"cebpf4jnsgd1na2vs0mg"},{"bike_id":"a956493c-32db-4c5a-800d-e4b87e9ec611","system_id":"levelo_inurba_marseille","lat":43.2695,"lon":5.38925,"is_reserved":false,"is_disabled":false,"rental_uris":{"android":"levelo://app?vid=a956493c-32db-4c5a-800d-e4b87e9ec611","ios":"levelo://app?vid=a956493c-32db-4c5a-800d-e4b87e9ec611"},"vehicle_type_id":"4","last_reported":1734192597,"current_range_meters":38400,"station_id":"ce4bhhh2rcd13ifvqfl0","pricing_plan_id":"cebpf4jnsgd1na2vs0mg"},{"bike_id":"12bd14e1-48d6-4747-bf7f-40711d73e9b0","system_id":"levelo_inurba_marseille","lat":43.31176,"lon":5.38715,"is_reserved":false,"is_disabled":true,"rental_uris":{"android":"levelo://app?vid=12bd14e1-48d6-4747-bf7f-40711d73e9b0","ios":"levelo://app?vid=12bd14e1-48d6-4747-bf7f-40711d73e9b0"},"vehicle_type_id":"4","last_reported":1734192597,"current_range_meters":1600,"station_id":"ce4bgv12rcd13ifvqcp0","pricing_plan_id":"cebpf4jnsgd1na2vs0mg"},{"bike_id":"fd4efec3-03a9-456d-9f3e-04aeb194cc68","system_id":"levelo_inurba_marseille","lat":43.25821,"lon":5.3943,"is_reserved":false,"is_disabled":false,"rental_uris":{"android":"levelo://app?vid=fd4efec3-03a9-456d-9f3e-04aeb194cc68","ios":"levelo://app?vid=fd4efec3-03a9-456d-9f3e-04aeb194cc68"},"vehicle_type_id":"4","last_reported":1734192597,"current_range_meters":34800,"station_id":"ce4bhip2rcd13ifvqft0","pricing_plan_id":"cebpf4jnsgd1na2vs0mg"},{"bike_id":"9e25212c-cbb7-4bbb-b0ef-530024be3d7e","system_id":"levelo_inurba_marseille","lat":43.3249,"lon":5.36561,"is_reserved":false,"is_disabled":false,"rental_uris":{"android":"levelo://app?vid=9e25212c-cbb7-4bbb-b0ef-530024be3d7e","ios":"levelo://app?vid=9e25212c-cbb7-4bbb-b0ef-530024be3d7e"},"vehicle_type_id":"4","last_reported":1734192597,"current_range_meters":38800,"station_id":"ce4bhs12rcd13ifvqhvg","pricing_plan_id":"cebpf4jnsgd1na2vs0mg"},{"bike_id":"db5797bb-dd14-4e17-bd4b-c22f5c9ba963","system_id":"levelo_inurba_marseille","lat":43.30416,"lon":5.41287,"is_reserved":false,"is_disabled":false,"rental_uris":{"android":"levelo://app?vid=db5797bb-dd14-4e17-bd4b-c22f5c9ba963","ios":"levelo://app?vid=db5797bb-dd14-4e17-bd4b-c22f5c9ba963"},"vehicle_type_id":"4","last_reported":1734192597,"current_range_meters":36400,"station_id":"ce4bhop2rcd13ifvqh8g","pricing_plan_id":"cebpf4jnsgd1na2vs0mg"},{"bike_id":"598cd91e-5725-4aa4-92f6-620ea21032c5","system_id":"levelo_inurba_marseille","lat":43.30458,"lon":5.37913,"is_reserved":false,"is_disabled":false,"rental_uris":{"android":"levelo://app?vid=598cd91e-5725-4aa4-92f6-620ea21032c5","ios":"levelo://app?vid=598cd91e-5725-4aa4-92f6-620ea21032c5"},"vehicle_type_id":"4","last_reported":1734192597,"current_range_meters":34000,"station_id":"ce4bgup2rcd13ifvqcn0","pricing_plan_id":"cebpf4jnsgd1na2vs0mg"},{"bike_id":"adc4ecf9-5f4c-49e0-915f-2787f3778b82","system_id":"levelo_inurba_marseille","lat":43.32298,"lon":5.38286,"is_reserved":false,"is_disabled":false,"rental_uris":{"android":"levelo://app?vid=adc4ecf9-5f4c-49e0-915f-2787f3778b82","ios":"levelo://app?vid=adc4ecf9-5f4c-49e0-915f-2787f3778b82"},"vehicle_type_id":"4","last_reported":1734192597,"current_range_meters":39200,"station_id":"ce4bhr12rcd13ifvqhqg","pricing_plan_id":"cebpf4jnsgd1na2vs0mg"},{"bike_id":"0d895078-dc15-4f70-84ce-e09208baeda4","system_id":"levelo_inurba_marseille","lat":43.30139,"lon":5.38785,"is_reserved":false,"is_disabled":true,"rental_uris":{"android":"levelo://app?vid=0d895078-dc15-4f70-84ce-e09208baeda4","ios":"levelo://app?vid=0d895078-dc15-4f70-84ce-e09208baeda4"},"vehicle_type_id":"4","last_reported":1734192597,"current_range_meters":0,"station_id":"ce4bghh2rcd13ifvqb60","pricing_plan_id":"cebpf4jnsgd1na2vs0mg"},{"bike_id":"53b9ce1d-9e74-4f20-a04b-78cf7b56a2ca","system_id":"levelo_inurba_marseille","lat":43.27425,"lon":5.39417,"is_reserved":false,"is_disabled":false,"rental_uris":{"android":"levelo://app?vid=53b9ce1d-9e74-4f20-a04b-78cf7b56a2ca","ios":"levelo://app?vid=53b9ce1d-9e74-4f20-a04b-78cf7b56a2ca"},"vehicle_type_id":"4","last_reported":1734192597,"current_range_meters":6800,"station_id":"ce4bhdp2rcd13ifvqf20","pricing_plan_id":"cebpf4jnsgd1na2vs0mg"},{"bike_id":"d9834bc1-0a12-45ef-b703-48b43f237533","system_id":"levelo_inurba_marseille","lat":43.27058,"lon":5.40267,"is_reserved":false,"is_disabled":false,"rental_uris":{"android":"levelo://app?vid=d9834bc1-0a12-45ef-b703-48b43f237533","ios":"levelo://app?vid=d9834bc1-0a12-45ef-b703-48b43f237533"},"vehicle_type_id":"4","last_reported":1734192597,"current_range_meters":24400,"station_id":"ce4bhk92rcd13ifvqgc0","pricing_plan_id":"cebpf4jnsgd1na2vs0mg"},{"bike_id":"7b9f1d8d-4c60-48fe-939a-b85dca8781a3","system_id":"levelo_inurba_marseille","lat":43.27207,"lon":5.39174,"is_reserved":false,"is_disabled":false,"rental_uris":{"android":"levelo://app?vid=7b9f1d8d-4c60-48fe-939a-b85dca8781a3","ios":"levelo://app?vid=7b9f1d8d-4c60-48fe-939a-b85dca8781a3"},"vehicle_type_id":"4","last_reported":1734192597,"current_range_meters":36400,"station_id":"ce4bhhp2rcd13ifvqfm0","pricing_plan_id":"cebpf4jnsgd1na2vs0mg"},{"bike_id":"70b193b5-4288-4e1e-bf9d-0f98a4dd33e1","system_id":"levelo_inurba_marseille","lat":43.29708,"lon":5.36614,"is_reserved":false,"is_disabled":false,"rental_uris":{"android":"levelo://app?vid=70b193b5-4288-4e1e-bf9d-0f98a4dd33e1","ios":"levelo://app?vid=70b193b5-4288-4e1e-bf9d-0f98a4dd33e1"},"vehicle_type_id":"4","last_reported":1734192597,"current_range_meters":17200,"station_id":"ce4bgn12rcd13ifvqbt0","pricing_plan_id":"cebpf4jnsgd1na2vs0mg"},{"bike_id":"4a705c3b-556f-438b-a6ad-b3b6d507ab16","system_id":"levelo_inurba_marseille","lat":43.23182,"lon":5.39986,"is_reserved":false,"is_disabled":true,"rental_uris":{"android":"levelo://app?vid=4a705c3b-556f-438b-a6ad-b3b6d507ab16","ios":"levelo://app?vid=4a705c3b-556f-438b-a6ad-b3b6d507ab16"},"vehicle_type_id":"4","last_reported":1734192597,"current_range_meters":1600,"station_id":"ce4bhn12rcd13ifvqgqg","pricing_plan_id":"cebpf4jnsgd1na2vs0mg"},{"bike_id":"7e8c3dd9-b489-4e2a-aef8-a8f84bc97ae1","system_id":"levelo_inurba_marseille","lat":43.26952,"lon":5.38638,"is_reserved":false,"is_disabled":false,"rental_uris":{"android":"levelo://app?vid=7e8c3dd9-b489-4e2a-aef8-a8f84bc97ae1","ios":"levelo://app?vid=7e8c3dd9-b489-4e2a-aef8-a8f84bc97ae1"},"vehicle_type_id":"4","last_reported":1734192597,"current_range_meters":38800,"station_id":"ce4bhh92rcd13ifvqfh0","pricing_plan_id":"cebpf4jnsgd1na2vs0mg"},{"bike_id":"ae0bdd7b-187c-409c-b2b3-37aac32d4db3","system_id":"levelo_inurba_marseille","lat":43.32365,"lon":5.36756,"is_reserved":false,"is_disabled":false,"rental_uris":{"android":"levelo://app?vid=ae0bdd7b-187c-409c-b2b3-37aac32d4db3","ios":"levelo://app?vid=ae0bdd7b-187c-409c-b2b3-37aac32d4db3"},"vehicle_type_id":"4","last_reported":1734192597,"current_range_meters":38800,"station_id":"ce4bhsh2rcd13ifvqi2g","pricing_plan_id":"cebpf4jnsgd1na2vs0mg"},{"bike_id":"8cf0d3bd-e310-4319-ad37-50b72dcbcdd4","system_id":"levelo_inurba_marseille","lat":43.30467,"lon":5.379,"is_reserved":false,"is_disabled":false,"rental_uris":{"android":"levelo://app?vid=8cf0d3bd-e310-4319-ad37-50b72dcbcdd4","ios":"levelo://app?vid=8cf0d3bd-e310-4319-ad37-50b72dcbcdd4"},"vehicle_type_id":"4","last_reported":1734192597,"current_range_meters":37600,"station_id":"ce4bgup2rcd13ifvqcn0","pricing_plan_id":"cebpf4jnsgd1na2vs0mg"},{"bike_id":"161e27f4-b5dd-4226-b61d-69958b46863f","system_id":"levelo_inurba_marseille","lat":43.30237,"lon":5.40047,"is_reserved":false,"is_disabled":false,"rental_uris":{"android":"levelo://app?vid=161e27f4-b5dd-4226-b61d-69958b46863f","ios":"levelo://app?vid=161e27f4-b5dd-4226-b61d-69958b46863f"},"vehicle_type_id":"4","last_reported":1734192597,"current_range_meters":12400,"station_id":"ce4bgvh2rcd13ifvqcs0","pricing_plan_id":"cebpf4jnsgd1na2vs0mg"},{"bike_id":"9ad311dd-c450-4f09-933a-ef53d4559dc3","system_id":"levelo_inurba_marseille","lat":43.26993,"lon":5.39862,"is_reserved":false,"is_disabled":false,"rental_uris":{"android":"levelo://app?vid=9ad311dd-c450-4f09-933a-ef53d4559dc3","ios":"levelo://app?vid=9ad311dd-c450-4f09-933a-ef53d4559dc3"},"vehicle_type_id":"4","last_reported":1734192597,"current_range_meters":26000,"station_id":"","pricing_plan_id":"cebpf4jnsgd1na2vs0mg"},{"bike_id":"123e146a-854c-4e79-886f-1db5d5371d0c","system_id":"levelo_inurba_marseille","lat":43.31999,"lon":5.38142,"is_reserved":false,"is_disabled":false,"rental_uris":{"android":"levelo://app?vid=123e146a-854c-4e79-886f-1db5d5371d0c","ios":"levelo://app?vid=123e146a-854c-4e79-886f-1db5d5371d0c"},"vehicle_type_id":"4","last_reported":1734192597,"current_range_meters":38800,"station_id":"ce4bhr12rcd13ifvqhpg","pricing_plan_id":"cebpf4jnsgd1na2vs0mg"},{"bike_id":"3787bba6-8a43-4277-afd7-a70b2fecfb32","system_id":"levelo_inurba_marseille","lat":43.27297,"lon":5.39051,"is_reserved":false,"is_disabled":false,"rental_uris":{"android":"levelo://app?vid=3787bba6-8a43-4277-afd7-a70b2fecfb32","ios":"levelo://app?vid=3787bba6-8a43-4277-afd7-a70b2fecfb32"},"vehicle_type_id":"4","last_reported":1734192597,"current_range_meters":38800,"station_id":"ce4bhgp2rcd13ifvqfe0","pricing_plan_id":"cebpf4jnsgd1na2vs0mg"},{"bike_id":"41f926b2-a436-44a1-9af3-ff12c3760a91","system_id":"levelo_inurba_marseille","lat":43.2679,"lon":5.39415,"is_reserved":false,"is_disabled":false,"rental_uris":{"android":"levelo://app?vid=41f926b2-a436-44a1-9af3-ff12c3760a91","ios":"levelo://app?vid=41f926b2-a436-44a1-9af3-ff12c3760a91"},"vehicle_type_id":"4","last_reported":1734192597,"current_range_meters":32400,"station_id":"ce4bhh12rcd13ifvqfg0","pricing_plan_id":"cebpf4jnsgd1na2vs0mg"},{"bike_id":"af67ac53-ba21-4ff0-8334-95679e9ff2cc","system_id":"levelo_inurba_marseille","lat":43.278805,"lon":5.388003,"is_reserved":false,"is_disabled":true,"rental_uris":{"android":"levelo://app?vid=af67ac53-ba21-4ff0-8334-95679e9ff2cc","ios":"levelo://app?vid=af67ac53-ba21-4ff0-8334-95679e9ff2cc"},"vehicle_type_id":"4","last_reported":1734192597,"current_range_meters":1200,"station_id":"","pricing_plan_id":"cebpf4jnsgd1na2vs0mg"},{"bike_id":"f3ad7038-b799-41a0-93c7-c90920b99c82","system_id":"levelo_inurba_marseille","lat":43.27325,"lon":5.39095,"is_reserved":false,"is_disabled":false,"rental_uris":{"android":"levelo://app?vid=f3ad7038-b799-41a0-93c7-c90920b99c82","ios":"levelo://app?vid=f3ad7038-b799-41a0-93c7-c90920b99c82"},"vehicle_type_id":"4","last_reported":1734192597,"current_range_meters":14800,"station_id":"ce4bhgp2rcd13ifvqfe0","pricing_plan_id":"cebpf4jnsgd1na2vs0mg"},{"bike_id":"7cb6d63f-c9e6-4a3e-bae1-3e4c57ada061","system_id":"levelo_inurba_marseille","lat":43.26802,"lon":5.40266,"is_reserved":false,"is_disabled":true,"rental_uris":{"android":"levelo://app?vid=7cb6d63f-c9e6-4a3e-bae1-3e4c57ada061","ios":"levelo://app?vid=7cb6d63f-c9e6-4a3e-bae1-3e4c57ada061"},"vehicle_type_id":"4","last_reported":1734192597,"current_range_meters":0,"station_id":"ce501612rcd8frsf0b60","pricing_plan_id":"cebpf4jnsgd1na2vs0mg"},{"bike_id":"93d5d217-11dc-4911-bbae-426e6a3346a2","system_id":"levelo_inurba_marseille","lat":43.30416,"lon":5.38887,"is_reserved":false,"is_disabled":false,"rental_uris":{"android":"levelo://app?vid=93d5d217-11dc-4911-bbae-426e6a3346a2","ios":"levelo://app?vid=93d5d217-11dc-4911-bbae-426e6a3346a2"},"vehicle_type_id":"4","last_reported":1734192597,"current_range_meters":28000,"station_id":"ce4bgk12rcd13ifvqbi0","pricing_plan_id":"cebpf4jnsgd1na2vs0mg"},{"bike_id":"0232408d-292c-41d3-b181-663261afd040","system_id":"levelo_inurba_marseille","lat":43.27475,"lon":5.40924,"is_reserved":false,"is_disabled":false,"rental_uris":{"android":"levelo://app?vid=0232408d-292c-41d3-b181-663261afd040","ios":"levelo://app?vid=0232408d-292c-41d3-b181-663261afd040"},"vehicle_type_id":"4","last_reported":1734192597,"current_range_meters":33600,"station_id":"","pricing_plan_id":"cebpf4jnsgd1na2vs0mg"},{"bike_id":"54d1876e-3762-4fa4-be49-be320b0f878a","system_id":"levelo_inurba_marseille","lat":43.28396,"lon":5.37521,"is_reserved":false,"is_disabled":false,"rental_uris":{"android":"levelo://app?vid=54d1876e-3762-4fa4-be49-be320b0f878a","ios":"levelo://app?vid=54d1876e-3762-4fa4-be49-be320b0f878a"},"vehicle_type_id":"4","last_reported":1734192597,"current_range_meters":32800,"station_id":"ce4bh412rcd13ifvqds0","pricing_plan_id":"cebpf4jnsgd1na2vs0mg"},{"bike_id":"b5c7fdbb-0259-453f-b81e-9cf2bdee2258","system_id":"levelo_inurba_marseille","lat":43.26747,"lon":5.39476,"is_reserved":false,"is_disabled":false,"rental_uris":{"android":"levelo://app?vid=b5c7fdbb-0259-453f-b81e-9cf2bdee2258","ios":"levelo://app?vid=b5c7fdbb-0259-453f-b81e-9cf2bdee2258"},"vehicle_type_id":"4","last_reported":1734192597,"current_range_meters":14000,"station_id":"","pricing_plan_id":"cebpf4jnsgd1na2vs0mg"},{"bike_id":"d65fcea9-51ba-41f0-86fd-e798dfdd6f09","system_id":"levelo_inurba_marseille","lat":43.28707,"lon":5.38302,"is_reserved":false,"is_disabled":true,"rental_uris":{"android":"levelo://app?vid=d65fcea9-51ba-41f0-86fd-e798dfdd6f09","ios":"levelo://app?vid=d65fcea9-51ba-41f0-86fd-e798dfdd6f09"},"vehicle_type_id":"4","last_reported":1734192597,"current_range_meters":0,"station_id":"","pricing_plan_id":"cebpf4jnsgd1na2vs0mg"},{"bike_id":"656d8740-9b85-4a93-86ce-9d32a0e761f7","system_id":"levelo_inurba_marseille","lat":43.31064,"lon":5.38352,"is_reserved":false,"is_disabled":true,"rental_uris":{"android":"levelo://app?vid=656d8740-9b85-4a93-86ce-9d32a0e761f7","ios":"levelo://app?vid=656d8740-9b85-4a93-86ce-9d32a0e761f7"},"vehicle_type_id":"4","last_reported":1734192597,"current_range_meters":28400,"station_id":"ce4bgv92rcd13ifvqcr0","pricing_plan_id":"cebpf4jnsgd1na2vs0mg"},{"bike_id":"30b09c14-5db6-4bdd-8ec0-8d8fd355bef3","system_id":"levelo_inurba_marseille","lat":43.29884,"lon":5.39745,"is_reserved":false,"is_disabled":true,"rental_uris":{"android":"levelo://app?vid=30b09c14-5db6-4bdd-8ec0-8d8fd355bef3","ios":"levelo://app?vid=30b09c14-5db6-4bdd-8ec0-8d8fd355bef3"},"vehicle_type_id":"4","last_reported":1734192597,"current_range_meters":36800,"station_id":"ce4bh0h2rcd13ifvqd50","pricing_plan_id":"cebpf4jnsgd1na2vs0mg"},{"bike_id":"f08c808c-af08-40b8-81c3-97739c995b77","system_id":"levelo_inurba_marseille","lat":43.30148,"lon":5.39857,"is_reserved":false,"is_disabled":true,"rental_uris":{"android":"levelo://app?vid=f08c808c-af08-40b8-81c3-97739c995b77","ios":"levelo://app?vid=f08c808c-af08-40b8-81c3-97739c995b77"},"vehicle_type_id":"4","last_reported":1734192597,"current_range_meters":32000,"station_id":"ce4bh0h2rcd13ifvqd40","pricing_plan_id":"cebpf4jnsgd1na2vs0mg"},{"bike_id":"487644c2-f2f6-4590-8bf3-243e39d6bf64","system_id":"levelo_inurba_marseille","lat":43.27207,"lon":5.39194,"is_reserved":false,"is_disabled":false,"rental_uris":{"android":"levelo://app?vid=487644c2-f2f6-4590-8bf3-243e39d6bf64","ios":"levelo://app?vid=487644c2-f2f6-4590-8bf3-243e39d6bf64"},"vehicle_type_id":"4","last_reported":1734192597,"current_range_meters":9600,"station_id":"ce4bhhp2rcd13ifvqfm0","pricing_plan_id":"cebpf4jnsgd1na2vs0mg"},{"bike_id":"3cf252c1-3c82-43c5-a484-4198620b7e05","system_id":"levelo_inurba_marseille","lat":43.26674,"lon":5.38272,"is_reserved":false,"is_disabled":false,"rental_uris":{"android":"levelo://app?vid=3cf252c1-3c82-43c5-a484-4198620b7e05","ios":"levelo://app?vid=3cf252c1-3c82-43c5-a484-4198620b7e05"},"vehicle_type_id":"4","last_reported":1734192597,"current_range_meters":14400,"station_id":"ce4bhg92rcd13ifvqf90","pricing_plan_id":"cebpf4jnsgd1na2vs0mg"},{"bike_id":"64203de9-e72b-4d66-9a84-7a315c7ed37f","system_id":"levelo_inurba_marseille","lat":43.29478,"lon":5.37542,"is_reserved":false,"is_disabled":true,"rental_uris":{"android":"levelo://app?vid=64203de9-e72b-4d66-9a84-7a315c7ed37f","ios":"levelo://app?vid=64203de9-e72b-4d66-9a84-7a315c7ed37f"},"vehicle_type_id":"4","last_reported":1734192597,"current_range_meters":0,"station_id":"","pricing_plan_id":"cebpf4jnsgd1na2vs0mg"},{"bike_id":"71a2c31b-8073-4dfc-b743-2da0815fa2d5","system_id":"levelo_inurba_marseille","lat":43.29979,"lon":5.38489,"is_reserved":false,"is_disabled":false,"rental_uris":{"android":"levelo://app?vid=71a2c31b-8073-4dfc-b743-2da0815fa2d5","ios":"levelo://app?vid=71a2c31b-8073-4dfc-b743-2da0815fa2d5"},"vehicle_type_id":"4","last_reported":1734192597,"current_range_meters":34000,"station_id":"ce4bgj92rcd13ifvqbd0","pricing_plan_id":"cebpf4jnsgd1na2vs0mg"},{"bike_id":"067b6a2b-42af-420a-aaca-6de5e382f970","system_id":"levelo_inurba_marseille","lat":43.26792,"lon":5.39411,"is_reserved":false,"is_disabled":true,"rental_uris":{"android":"levelo://app?vid=067b6a2b-42af-420a-aaca-6de5e382f970","ios":"levelo://app?vid=067b6a2b-42af-420a-aaca-6de5e382f970"},"vehicle_type_id":"4","last_reported":1734192597,"current_range_meters":800,"station_id":"ce4bhh12rcd13ifvqfg0","pricing_plan_id":"cebpf4jnsgd1na2vs0mg"},{"bike_id":"ef311535-8b3d-40de-81a1-67f78cf1efb7","system_id":"levelo_inurba_marseille","lat":43.26937,"lon":5.40261,"is_reserved":false,"is_disabled":false,"rental_uris":{"android":"levelo://app?vid=ef311535-8b3d-40de-81a1-67f78cf1efb7","ios":"levelo://app?vid=ef311535-8b3d-40de-81a1-67f78cf1efb7"},"vehicle_type_id":"4","last_reported":1734192597,"current_range_meters":28000,"station_id":"cjm6bp8fraef2m0cb0m0","pricing_plan_id":"cebpf4jnsgd1na2vs0mg"},{"bike_id":"af4d9c94-5fb1-4a22-9af0-6be552885b53","system_id":"levelo_inurba_marseille","lat":43.2789,"lon":5.42444,"is_reserved":false,"is_disabled":false,"rental_uris":{"android":"levelo://app?vid=af4d9c94-5fb1-4a22-9af0-6be552885b53","ios":"levelo://app?vid=af4d9c94-5fb1-4a22-9af0-6be552885b53"},"vehicle_type_id":"4","last_reported":1734192597,"current_range_meters":6000,"station_id":"","pricing_plan_id":"cebpf4jnsgd1na2vs0mg"},{"bike_id":"bea4a2eb-cb40-4332-8f18-bf6f5c640b77","system_id":"levelo_inurba_marseille","lat":43.291901,"lon":5.358088,"is_reserved":false,"is_disabled":false,"rental_uris":{"android":"levelo://app?vid=bea4a2eb-cb40-4332-8f18-bf6f5c640b77","ios":"levelo://app?vid=bea4a2eb-cb40-4332-8f18-bf6f5c640b77"},"vehicle_type_id":"4","last_reported":1734192597,"current_range_meters":16000,"station_id":"","pricing_plan_id":"cebpf4jnsgd1na2vs0mg"},{"bike_id":"8d6bb968-211a-4680-8176-509681807d1e","system_id":"levelo_inurba_marseille","lat":43.27311,"lon":5.39078,"is_reserved":false,"is_disabled":false,"rental_uris":{"android":"levelo://app?vid=8d6bb968-211a-4680-8176-509681807d1e","ios":"levelo://app?vid=8d6bb968-211a-4680-8176-509681807d1e"},"vehicle_type_id":"4","last_reported":1734192597,"current_range_meters":24000,"station_id":"ce4bhgp2rcd13ifvqfe0","pricing_plan_id":"cebpf4jnsgd1na2vs0mg"},{"bike_id":"62a52038-a778-4bff-95f5-676773847b94","system_id":"levelo_inurba_marseille","lat":43.30433,"lon":5.3889,"is_reserved":false,"is_disabled":false,"rental_uris":{"android":"levelo://app?vid=62a52038-a778-4bff-95f5-676773847b94","ios":"levelo://app?vid=62a52038-a778-4bff-95f5-676773847b94"},"vehicle_type_id":"4","last_reported":1734192597,"current_range_meters":23200,"station_id":"ce4bgk12rcd13ifvqbi0","pricing_plan_id":"cebpf4jnsgd1na2vs0mg"},{"bike_id":"38324b3b-96de-4dfa-961b-690b48422440","system_id":"levelo_inurba_marseille","lat":43.24811,"lon":5.37466,"is_reserved":false,"is_disabled":false,"rental_uris":{"android":"levelo://app?vid=38324b3b-96de-4dfa-961b-690b48422440","ios":"levelo://app?vid=38324b3b-96de-4dfa-961b-690b48422440"},"vehicle_type_id":"4","last_reported":1734192597,"current_range_meters":32000,"station_id":"ce4bhgh2rcd13ifvqfb0","pricing_plan_id":"cebpf4jnsgd1na2vs0mg"},{"bike_id":"1ea9f063-eb7d-4f49-b555-6d2ab0e21a2b","system_id":"levelo_inurba_marseille","lat":43.2872,"lon":5.37928,"is_reserved":false,"is_disabled":false,"rental_uris":{"android":"levelo://app?vid=1ea9f063-eb7d-4f49-b555-6d2ab0e21a2b","ios":"levelo://app?vid=1ea9f063-eb7d-4f49-b555-6d2ab0e21a2b"},"vehicle_type_id":"4","last_reported":1734192597,"current_range_meters":32400,"station_id":"ce4bh9p2rcd13ifvqec0","pricing_plan_id":"cebpf4jnsgd1na2vs0mg"},{"bike_id":"dc18942d-68da-4393-b19c-5a5e4e50d6f7","system_id":"levelo_inurba_marseille","lat":43.3085,"lon":5.39691,"is_reserved":false,"is_disabled":false,"rental_uris":{"android":"levelo://app?vid=dc18942d-68da-4393-b19c-5a5e4e50d6f7","ios":"levelo://app?vid=dc18942d-68da-4393-b19c-5a5e4e50d6f7"},"vehicle_type_id":"4","last_reported":1734192597,"current_range_meters":35600,"station_id":"ce4bgqh2rcd13ifvqc4g","pricing_plan_id":"cebpf4jnsgd1na2vs0mg"},{"bike_id":"c2d4675b-b632-4638-a7a1-92271c1bad83","system_id":"levelo_inurba_marseille","lat":43.26936,"lon":5.40259,"is_reserved":false,"is_disabled":false,"rental_uris":{"android":"levelo://app?vid=c2d4675b-b632-4638-a7a1-92271c1bad83","ios":"levelo://app?vid=c2d4675b-b632-4638-a7a1-92271c1bad83"},"vehicle_type_id":"4","last_reported":1734192597,"current_range_meters":36000,"station_id":"cjm6bp8fraef2m0cb0m0","pricing_plan_id":"cebpf4jnsgd1na2vs0mg"},{"bike_id":"6522a676-a3c6-4cc2-80e8-e7706f976ef6","system_id":"levelo_inurba_marseille","lat":43.29559,"lon":5.37525,"is_reserved":false,"is_disabled":false,"rental_uris":{"android":"levelo://app?vid=6522a676-a3c6-4cc2-80e8-e7706f976ef6","ios":"levelo://app?vid=6522a676-a3c6-4cc2-80e8-e7706f976ef6"},"vehicle_type_id":"4","last_reported":1734192597,"current_range_meters":38800,"station_id":"ce4bgh92rcd13ifvqb50","pricing_plan_id":"cebpf4jnsgd1na2vs0mg"},{"bike_id":"0bbb212f-be39-41f9-b692-d9c5148c5a97","system_id":"levelo_inurba_marseille","lat":43.29894,"lon":5.4367,"is_reserved":false,"is_disabled":false,"rental_uris":{"android":"levelo://app?vid=0bbb212f-be39-41f9-b692-d9c5148c5a97","ios":"levelo://app?vid=0bbb212f-be39-41f9-b692-d9c5148c5a97"},"vehicle_type_id":"4","last_reported":1734192597,"current_range_meters":30400,"station_id":"ce4bhpp2rcd13ifvqhfg","pricing_plan_id":"cebpf4jnsgd1na2vs0mg"},{"bike_id":"cee47e0b-683d-4e61-8f41-f6f65194c574","system_id":"levelo_inurba_marseille","lat":43.27198,"lon":5.39178,"is_reserved":false,"is_disabled":false,"rental_uris":{"android":"levelo://app?vid=cee47e0b-683d-4e61-8f41-f6f65194c574","ios":"levelo://app?vid=cee47e0b-683d-4e61-8f41-f6f65194c574"},"vehicle_type_id":"4","last_reported":1734192597,"current_range_meters":39200,"station_id":"ce4bhhp2rcd13ifvqfm0","pricing_plan_id":"cebpf4jnsgd1na2vs0mg"},{"bike_id":"0acfba6d-9094-4f46-b239-74e57d95c8c1","system_id":"levelo_inurba_marseille","lat":43.2841,"lon":5.34986,"is_reserved":false,"is_disabled":false,"rental_uris":{"android":"levelo://app?vid=0acfba6d-9094-4f46-b239-74e57d95c8c1","ios":"levelo://app?vid=0acfba6d-9094-4f46-b239-74e57d95c8c1"},"vehicle_type_id":"4","last_reported":1734192597,"current_range_meters":25600,"station_id":"ce4bhbh2rcd13ifvqepg","pricing_plan_id":"cebpf4jnsgd1na2vs0mg"},{"bike_id":"07154a6e-1aad-4b6f-8cd5-49a1da2b8e24","system_id":"levelo_inurba_marseille","lat":43.2315,"lon":5.43714,"is_reserved":false,"is_disabled":false,"rental_uris":{"android":"levelo://app?vid=07154a6e-1aad-4b6f-8cd5-49a1da2b8e24","ios":"levelo://app?vid=07154a6e-1aad-4b6f-8cd5-49a1da2b8e24"},"vehicle_type_id":"4","last_reported":1734192597,"current_range_meters":32800,"station_id":"ce4bhmp2rcd13ifvqgog","pricing_plan_id":"cebpf4jnsgd1na2vs0mg"},{"bike_id":"eb90ab7a-52c3-4f9f-a4d9-5650fd790119","system_id":"levelo_inurba_marseille","lat":43.26785,"lon":5.39406,"is_reserved":false,"is_disabled":false,"rental_uris":{"android":"levelo://app?vid=eb90ab7a-52c3-4f9f-a4d9-5650fd790119","ios":"levelo://app?vid=eb90ab7a-52c3-4f9f-a4d9-5650fd790119"},"vehicle_type_id":"4","last_reported":1734192597,"current_range_meters":20400,"station_id":"ce4bhh12rcd13ifvqfg0","pricing_plan_id":"cebpf4jnsgd1na2vs0mg"},{"bike_id":"931e28e0-6e61-4a54-80f1-1057cfef55f9","system_id":"levelo_inurba_marseille","lat":43.31053,"lon":5.3836,"is_reserved":false,"is_disabled":false,"rental_uris":{"android":"levelo://app?vid=931e28e0-6e61-4a54-80f1-1057cfef55f9","ios":"levelo://app?vid=931e28e0-6e61-4a54-80f1-1057cfef55f9"},"vehicle_type_id":"4","last_reported":1734192597,"current_range_meters":20400,"station_id":"ce4bgv92rcd13ifvqcr0","pricing_plan_id":"cebpf4jnsgd1na2vs0mg"},{"bike_id":"a4b0cca7-9fe7-4811-b375-0c655c276716","system_id":"levelo_inurba_marseille","lat":43.31072,"lon":5.38354,"is_reserved":false,"is_disabled":false,"rental_uris":{"android":"levelo://app?vid=a4b0cca7-9fe7-4811-b375-0c655c276716","ios":"levelo://app?vid=a4b0cca7-9fe7-4811-b375-0c655c276716"},"vehicle_type_id":"4","last_reported":1734192597,"current_range_meters":14400,"station_id":"ce4bgv92rcd13ifvqcr0","pricing_plan_id":"cebpf4jnsgd1na2vs0mg"},{"bike_id":"6b10d37b-3846-4f7e-8b9d-57ca79bbb675","system_id":"levelo_inurba_marseille","lat":43.29533,"lon":5.38551,"is_reserved":false,"is_disabled":true,"rental_uris":{"android":"levelo://app?vid=6b10d37b-3846-4f7e-8b9d-57ca79bbb675","ios":"levelo://app?vid=6b10d37b-3846-4f7e-8b9d-57ca79bbb675"},"vehicle_type_id":"4","last_reported":1734192597,"current_range_meters":36800,"station_id":"ce4bgih2rcd13ifvqba0","pricing_plan_id":"cebpf4jnsgd1na2vs0mg"},{"bike_id":"2a9bbe81-c578-430a-a2f2-77cf58fb1d2c","system_id":"levelo_inurba_marseille","lat":43.24176,"lon":5.3973,"is_reserved":false,"is_disabled":false,"rental_uris":{"android":"levelo://app?vid=2a9bbe81-c578-430a-a2f2-77cf58fb1d2c","ios":"levelo://app?vid=2a9bbe81-c578-430a-a2f2-77cf58fb1d2c"},"vehicle_type_id":"4","last_reported":1734192597,"current_range_meters":9200,"station_id":"ce4bhn12rcd13ifvqgpg","pricing_plan_id":"cebpf4jnsgd1na2vs0mg"},{"bike_id":"59aa9d72-27a3-40c5-b3ac-922f34234472","system_id":"levelo_inurba_marseille","lat":43.2743,"lon":5.39414,"is_reserved":false,"is_disabled":false,"rental_uris":{"android":"levelo://app?vid=59aa9d72-27a3-40c5-b3ac-922f34234472","ios":"levelo://app?vid=59aa9d72-27a3-40c5-b3ac-922f34234472"},"vehicle_type_id":"4","last_reported":1734192597,"current_range_meters":3600,"station_id":"ce4bhdp2rcd13ifvqf20","pricing_plan_id":"cebpf4jnsgd1na2vs0mg"},{"bike_id":"635bbeb6-dae5-4a1d-85cd-d9011d38d95c","system_id":"levelo_inurba_marseille","lat":43.27319,"lon":5.39074,"is_reserved":false,"is_disabled":false,"rental_uris":{"android":"levelo://app?vid=635bbeb6-dae5-4a1d-85cd-d9011d38d95c","ios":"levelo://app?vid=635bbeb6-dae5-4a1d-85cd-d9011d38d95c"},"vehicle_type_id":"4","last_reported":1734192597,"current_range_meters":11200,"station_id":"ce4bhgp2rcd13ifvqfe0","pricing_plan_id":"cebpf4jnsgd1na2vs0mg"},{"bike_id":"eb4c5dd5-e294-4009-967c-cea47fb0df83","system_id":"levelo_inurba_marseille","lat":43.29595,"lon":5.38091,"is_reserved":false,"is_disabled":true,"rental_uris":{"android":"levelo://app?vid=eb4c5dd5-e294-4009-967c-cea47fb0df83","ios":"levelo://app?vid=eb4c5dd5-e294-4009-967c-cea47fb0df83"},"vehicle_type_id":"4","last_reported":1734192597,"current_range_meters":0,"station_id":"ce4bgl12rcd13ifvqbo0","pricing_plan_id":"cebpf4jnsgd1na2vs0mg"},{"bike_id":"1ff60327-451c-4661-a673-1472add7d0ec","system_id":"levelo_inurba_marseille","lat":43.26949,"lon":5.40248,"is_reserved":false,"is_disabled":false,"rental_uris":{"android":"levelo://app?vid=1ff60327-451c-4661-a673-1472add7d0ec","ios":"levelo://app?vid=1ff60327-451c-4661-a673-1472add7d0ec"},"vehicle_type_id":"4","last_reported":1734192597,"current_range_meters":8400,"station_id":"cjm6bp8fraef2m0cb0m0","pricing_plan_id":"cebpf4jnsgd1na2vs0mg"},{"bike_id":"68ac001f-d461-4264-ae4c-847d5d8319b3","system_id":"levelo_inurba_marseille","lat":43.26209,"lon":5.37915,"is_reserved":false,"is_disabled":false,"rental_uris":{"android":"levelo://app?vid=68ac001f-d461-4264-ae4c-847d5d8319b3","ios":"levelo://app?vid=68ac001f-d461-4264-ae4c-847d5d8319b3"},"vehicle_type_id":"4","last_reported":1734192597,"current_range_meters":33600,"station_id":"ce4bhjp2rcd13ifvqg90","pricing_plan_id":"cebpf4jnsgd1na2vs0mg"},{"bike_id":"91bc6f38-f0e5-4266-96b0-b5a862348a34","system_id":"levelo_inurba_marseille","lat":43.26953,"lon":5.38891,"is_reserved":false,"is_disabled":false,"rental_uris":{"android":"levelo://app?vid=91bc6f38-f0e5-4266-96b0-b5a862348a34","ios":"levelo://app?vid=91bc6f38-f0e5-4266-96b0-b5a862348a34"},"vehicle_type_id":"4","last_reported":1734192597,"current_range_meters":38800,"station_id":"ce4bhhh2rcd13ifvqfl0","pricing_plan_id":"cebpf4jnsgd1na2vs0mg"},{"bike_id":"040396cb-a3c9-460e-aeff-66de3ccbfada","system_id":"levelo_inurba_marseille","lat":43.30148,"lon":5.3742,"is_reserved":false,"is_disabled":false,"rental_uris":{"android":"levelo://app?vid=040396cb-a3c9-460e-aeff-66de3ccbfada","ios":"levelo://app?vid=040396cb-a3c9-460e-aeff-66de3ccbfada"},"vehicle_type_id":"4","last_reported":1734192597,"current_range_meters":35600,"station_id":"ce4bgs92rcd13ifvqcc0","pricing_plan_id":"cebpf4jnsgd1na2vs0mg"},{"bike_id":"605ce9bb-d413-4ab8-b4d3-57f594b00fd4","system_id":"levelo_inurba_marseille","lat":43.27319,"lon":5.39085,"is_reserved":false,"is_disabled":false,"rental_uris":{"android":"levelo://app?vid=605ce9bb-d413-4ab8-b4d3-57f594b00fd4","ios":"levelo://app?vid=605ce9bb-d413-4ab8-b4d3-57f594b00fd4"},"vehicle_type_id":"4","last_reported":1734192597,"current_range_meters":37600,"station_id":"ce4bhgp2rcd13ifvqfe0","pricing_plan_id":"cebpf4jnsgd1na2vs0mg"},{"bike_id":"0c31dbd6-3da4-4306-81b9-67c4d7304fe5","system_id":"levelo_inurba_marseille","lat":43.29556,"lon":5.37538,"is_reserved":false,"is_disabled":false,"rental_uris":{"android":"levelo://app?vid=0c31dbd6-3da4-4306-81b9-67c4d7304fe5","ios":"levelo://app?vid=0c31dbd6-3da4-4306-81b9-67c4d7304fe5"},"vehicle_type_id":"4","last_reported":1734192597,"current_range_meters":23200,"station_id":"ce4bgkp2rcd13ifvqbmg","pricing_plan_id":"cebpf4jnsgd1na2vs0mg"},{"bike_id":"7dd294ea-068e-492b-a3ce-2cf5fcaaac95","system_id":"levelo_inurba_marseille","lat":43.27209,"lon":5.39177,"is_reserved":false,"is_disabled":false,"rental_uris":{"android":"levelo://app?vid=7dd294ea-068e-492b-a3ce-2cf5fcaaac95","ios":"levelo://app?vid=7dd294ea-068e-492b-a3ce-2cf5fcaaac95"},"vehicle_type_id":"4","last_reported":1734192597,"current_range_meters":24000,"station_id":"ce4bhhp2rcd13ifvqfm0","pricing_plan_id":"cebpf4jnsgd1na2vs0mg"},{"bike_id":"422a4e2a-f44e-4349-9346-2099143f971e","system_id":"levelo_inurba_marseille","lat":43.27214,"lon":5.39189,"is_reserved":false,"is_disabled":false,"rental_uris":{"android":"levelo://app?vid=422a4e2a-f44e-4349-9346-2099143f971e","ios":"levelo://app?vid=422a4e2a-f44e-4349-9346-2099143f971e"},"vehicle_type_id":"4","last_reported":1734192597,"current_range_meters":21600,"station_id":"ce4bhhp2rcd13ifvqfm0","pricing_plan_id":"cebpf4jnsgd1na2vs0mg"},{"bike_id":"6e7f8132-61da-4d19-aac5-ad7b510c5bfc","system_id":"levelo_inurba_marseille","lat":43.276187,"lon":5.389233,"is_reserved":false,"is_disabled":false,"rental_uris":{"android":"levelo://app?vid=6e7f8132-61da-4d19-aac5-ad7b510c5bfc","ios":"levelo://app?vid=6e7f8132-61da-4d19-aac5-ad7b510c5bfc"},"vehicle_type_id":"4","last_reported":1734192597,"current_range_meters":38800,"station_id":"","pricing_plan_id":"cebpf4jnsgd1na2vs0mg"},{"bike_id":"6aadc0dd-d854-4c08-9c03-8083806fe54c","system_id":"levelo_inurba_marseille","lat":43.27367,"lon":5.36261,"is_reserved":true,"is_disabled":false,"rental_uris":{"android":"levelo://app?vid=6aadc0dd-d854-4c08-9c03-8083806fe54c","ios":"levelo://app?vid=6aadc0dd-d854-4c08-9c03-8083806fe54c"},"vehicle_type_id":"4","last_reported":1734192597,"current_range_meters":39200,"station_id":"ce4bhbh2rcd13ifvqeo0","pricing_plan_id":"cebpf4jnsgd1na2vs0mg"},{"bike_id":"eb1496f4-67ed-47fd-8660-60023378367f","system_id":"levelo_inurba_marseille","lat":43.294212,"lon":5.374322,"is_reserved":false,"is_disabled":true,"rental_uris":{"android":"levelo://app?vid=eb1496f4-67ed-47fd-8660-60023378367f","ios":"levelo://app?vid=eb1496f4-67ed-47fd-8660-60023378367f"},"vehicle_type_id":"4","last_reported":1734192597,"current_range_meters":0,"station_id":"","pricing_plan_id":"cebpf4jnsgd1na2vs0mg"},{"bike_id":"31c7c931-55e2-482c-9ee5-63e523f58659","system_id":"levelo_inurba_marseille","lat":43.3,"lon":5.37185,"is_reserved":false,"is_disabled":false,"rental_uris":{"android":"levelo://app?vid=31c7c931-55e2-482c-9ee5-63e523f58659","ios":"levelo://app?vid=31c7c931-55e2-482c-9ee5-63e523f58659"},"vehicle_type_id":"4","last_reported":1734192597,"current_range_meters":38400,"station_id":"ce4bgr92rcd13ifvqc7g","pricing_plan_id":"cebpf4jnsgd1na2vs0mg"},{"bike_id":"faf7cbfc-5a3b-4c27-83a7-aaa310de447c","system_id":"levelo_inurba_marseille","lat":43.27209,"lon":5.39183,"is_reserved":false,"is_disabled":false,"rental_uris":{"android":"levelo://app?vid=faf7cbfc-5a3b-4c27-83a7-aaa310de447c","ios":"levelo://app?vid=faf7cbfc-5a3b-4c27-83a7-aaa310de447c"},"vehicle_type_id":"4","last_reported":1734192597,"current_range_meters":37600,"station_id":"ce4bhhp2rcd13ifvqfm0","pricing_plan_id":"cebpf4jnsgd1na2vs0mg"},{"bike_id":"a5754fbb-2369-4ca9-ba0a-964bbf483bd3","system_id":"levelo_inurba_marseille","lat":43.23201,"lon":5.35552,"is_reserved":false,"is_disabled":false,"rental_uris":{"android":"levelo://app?vid=a5754fbb-2369-4ca9-ba0a-964bbf483bd3","ios":"levelo://app?vid=a5754fbb-2369-4ca9-ba0a-964bbf483bd3"},"vehicle_type_id":"4","last_reported":1734192597,"current_range_meters":38800,"station_id":"ce4bhu92rcd13ifvqi70","pricing_plan_id":"cebpf4jnsgd1na2vs0mg"},{"bike_id":"ebe7e098-c66a-4b77-8b3a-608e65f76688","system_id":"levelo_inurba_marseille","lat":43.2732,"lon":5.39092,"is_reserved":false,"is_disabled":false,"rental_uris":{"android":"levelo://app?vid=ebe7e098-c66a-4b77-8b3a-608e65f76688","ios":"levelo://app?vid=ebe7e098-c66a-4b77-8b3a-608e65f76688"},"vehicle_type_id":"4","last_reported":1734192597,"current_range_meters":10000,"station_id":"ce4bhgp2rcd13ifvqfe0","pricing_plan_id":"cebpf4jnsgd1na2vs0mg"},{"bike_id":"d9c9bbf1-dbc3-4738-965a-8631569de90e","system_id":"levelo_inurba_marseille","lat":43.26781,"lon":5.39421,"is_reserved":false,"is_disabled":true,"rental_uris":{"android":"levelo://app?vid=d9c9bbf1-dbc3-4738-965a-8631569de90e","ios":"levelo://app?vid=d9c9bbf1-dbc3-4738-965a-8631569de90e"},"vehicle_type_id":"4","last_reported":1734192597,"current_range_meters":400,"station_id":"ce4bhh12rcd13ifvqfg0","pricing_plan_id":"cebpf4jnsgd1na2vs0mg"},{"bike_id":"e171553a-d499-40c6-b158-4c1c9a0d09dc","system_id":"levelo_inurba_marseille","lat":43.27243,"lon":5.40965,"is_reserved":false,"is_disabled":false,"rental_uris":{"android":"levelo://app?vid=e171553a-d499-40c6-b158-4c1c9a0d09dc","ios":"levelo://app?vid=e171553a-d499-40c6-b158-4c1c9a0d09dc"},"vehicle_type_id":"4","last_reported":1734192597,"current_range_meters":38800,"station_id":"ce4bhl12rcd13ifvqgf0","pricing_plan_id":"cebpf4jnsgd1na2vs0mg"},{"bike_id":"d0f616d3-4e1b-4801-b6b7-5762445f0e8a","system_id":"levelo_inurba_marseille","lat":43.25856,"lon":5.39911,"is_reserved":false,"is_disabled":false,"rental_uris":{"android":"levelo://app?vid=d0f616d3-4e1b-4801-b6b7-5762445f0e8a","ios":"levelo://app?vid=d0f616d3-4e1b-4801-b6b7-5762445f0e8a"},"vehicle_type_id":"4","last_reported":1734192597,"current_range_meters":6800,"station_id":"ce4bhl92rcd13ifvqghg","pricing_plan_id":"cebpf4jnsgd1na2vs0mg"},{"bike_id":"a02bce7c-288c-46c0-a9fd-8aa8e0178c35","system_id":"levelo_inurba_marseille","lat":43.2319,"lon":5.35548,"is_reserved":false,"is_disabled":false,"rental_uris":{"android":"levelo://app?vid=a02bce7c-288c-46c0-a9fd-8aa8e0178c35","ios":"levelo://app?vid=a02bce7c-288c-46c0-a9fd-8aa8e0178c35"},"vehicle_type_id":"4","last_reported":1734192597,"current_range_meters":24000,"station_id":"ce4bhu92rcd13ifvqi70","pricing_plan_id":"cebpf4jnsgd1na2vs0mg"},{"bike_id":"f1a06ee4-1d14-4634-9311-99ca126b78ec","system_id":"levelo_inurba_marseille","lat":43.23962,"lon":5.36638,"is_reserved":false,"is_disabled":false,"rental_uris":{"android":"levelo://app?vid=f1a06ee4-1d14-4634-9311-99ca126b78ec","ios":"levelo://app?vid=f1a06ee4-1d14-4634-9311-99ca126b78ec"},"vehicle_type_id":"4","last_reported":1734192597,"current_range_meters":38800,"station_id":"ce4bhi12rcd13ifvqfp0","pricing_plan_id":"cebpf4jnsgd1na2vs0mg"},{"bike_id":"af335707-f603-46ad-9ef2-27a37be6dc32","system_id":"levelo_inurba_marseille","lat":43.3046,"lon":5.37907,"is_reserved":false,"is_disabled":false,"rental_uris":{"android":"levelo://app?vid=af335707-f603-46ad-9ef2-27a37be6dc32","ios":"levelo://app?vid=af335707-f603-46ad-9ef2-27a37be6dc32"},"vehicle_type_id":"4","last_reported":1734192597,"current_range_meters":39200,"station_id":"ce4bgup2rcd13ifvqcn0","pricing_plan_id":"cebpf4jnsgd1na2vs0mg"},{"bike_id":"862c590a-65d4-4e63-ad5b-e757d0023f89","system_id":"levelo_inurba_marseille","lat":43.29721,"lon":5.37694,"is_reserved":false,"is_disabled":false,"rental_uris":{"android":"levelo://app?vid=862c590a-65d4-4e63-ad5b-e757d0023f89","ios":"levelo://app?vid=862c590a-65d4-4e63-ad5b-e757d0023f89"},"vehicle_type_id":"4","last_reported":1734192597,"current_range_meters":37600,"station_id":"ce4bgkh2rcd13ifvqbl0","pricing_plan_id":"cebpf4jnsgd1na2vs0mg"},{"bike_id":"84e92161-5f19-4723-b030-327d870e7672","system_id":"levelo_inurba_marseille","lat":43.29773,"lon":5.37028,"is_reserved":false,"is_disabled":false,"rental_uris":{"android":"levelo://app?vid=84e92161-5f19-4723-b030-327d870e7672","ios":"levelo://app?vid=84e92161-5f19-4723-b030-327d870e7672"},"vehicle_type_id":"4","last_reported":1734192597,"current_range_meters":28400,"station_id":"","pricing_plan_id":"cebpf4jnsgd1na2vs0mg"},{"bike_id":"733af5c0-91e1-4562-b998-afd138a9037b","system_id":"levelo_inurba_marseille","lat":43.30528,"lon":5.36724,"is_reserved":false,"is_disabled":false,"rental_uris":{"android":"levelo://app?vid=733af5c0-91e1-4562-b998-afd138a9037b","ios":"levelo://app?vid=733af5c0-91e1-4562-b998-afd138a9037b"},"vehicle_type_id":"4","last_reported":1734192597,"current_range_meters":38800,"station_id":"ce4bgrp2rcd13ifvqc9g","pricing_plan_id":"cebpf4jnsgd1na2vs0mg"},{"bike_id":"0d5b1b0c-54d0-463e-8e32-441120da14e0","system_id":"levelo_inurba_marseille","lat":43.26952,"lon":5.40244,"is_reserved":false,"is_disabled":false,"rental_uris":{"android":"levelo://app?vid=0d5b1b0c-54d0-463e-8e32-441120da14e0","ios":"levelo://app?vid=0d5b1b0c-54d0-463e-8e32-441120da14e0"},"vehicle_type_id":"4","last_reported":1734192597,"current_range_meters":24800,"station_id":"cjm6bp8fraef2m0cb0m0","pricing_plan_id":"cebpf4jnsgd1na2vs0mg"},{"bike_id":"b89cd02a-44c8-4fbb-83be-fee20ca926ec","system_id":"levelo_inurba_marseille","lat":43.25119,"lon":5.40318,"is_reserved":false,"is_disabled":false,"rental_uris":{"android":"levelo://app?vid=b89cd02a-44c8-4fbb-83be-fee20ca926ec","ios":"levelo://app?vid=b89cd02a-44c8-4fbb-83be-fee20ca926ec"},"vehicle_type_id":"4","last_reported":1734192597,"current_range_meters":6000,"station_id":"ce4bhlh2rcd13ifvqgig","pricing_plan_id":"cebpf4jnsgd1na2vs0mg"},{"bike_id":"7691eeb5-458b-415d-8b8b-0369bf8ed1f5","system_id":"levelo_inurba_marseille","lat":43.27371,"lon":5.36259,"is_reserved":false,"is_disabled":false,"rental_uris":{"android":"levelo://app?vid=7691eeb5-458b-415d-8b8b-0369bf8ed1f5","ios":"levelo://app?vid=7691eeb5-458b-415d-8b8b-0369bf8ed1f5"},"vehicle_type_id":"4","last_reported":1734192597,"current_range_meters":39200,"station_id":"ce4bhbh2rcd13ifvqeo0","pricing_plan_id":"cebpf4jnsgd1na2vs0mg"},{"bike_id":"6347dac2-3384-4d85-977c-86b023f83fa8","system_id":"levelo_inurba_marseille","lat":43.31069,"lon":5.40093,"is_reserved":false,"is_disabled":false,"rental_uris":{"android":"levelo://app?vid=6347dac2-3384-4d85-977c-86b023f83fa8","ios":"levelo://app?vid=6347dac2-3384-4d85-977c-86b023f83fa8"},"vehicle_type_id":"4","last_reported":1734192597,"current_range_meters":34800,"station_id":"","pricing_plan_id":"cebpf4jnsgd1na2vs0mg"},{"bike_id":"c78779cc-c5b9-463e-a529-4d68efb7db1b","system_id":"levelo_inurba_marseille","lat":43.26944,"lon":5.40259,"is_reserved":false,"is_disabled":false,"rental_uris":{"android":"levelo://app?vid=c78779cc-c5b9-463e-a529-4d68efb7db1b","ios":"levelo://app?vid=c78779cc-c5b9-463e-a529-4d68efb7db1b"},"vehicle_type_id":"4","last_reported":1734192597,"current_range_meters":36800,"station_id":"cjm6bp8fraef2m0cb0m0","pricing_plan_id":"cebpf4jnsgd1na2vs0mg"},{"bike_id":"c51154b5-1034-4fc0-8fac-d1d2e91dba39","system_id":"levelo_inurba_marseille","lat":43.23057,"lon":5.35494,"is_reserved":false,"is_disabled":false,"rental_uris":{"android":"levelo://app?vid=c51154b5-1034-4fc0-8fac-d1d2e91dba39","ios":"levelo://app?vid=c51154b5-1034-4fc0-8fac-d1d2e91dba39"},"vehicle_type_id":"4","last_reported":1734192597,"current_range_meters":10000,"station_id":"cpo3342slgdg3j2ifvpg","pricing_plan_id":"cebpf4jnsgd1na2vs0mg"},{"bike_id":"a4787828-f21a-4f65-9395-0d1b00e6c5c0","system_id":"levelo_inurba_marseille","lat":43.27312,"lon":5.391,"is_reserved":false,"is_disabled":false,"rental_uris":{"android":"levelo://app?vid=a4787828-f21a-4f65-9395-0d1b00e6c5c0","ios":"levelo://app?vid=a4787828-f21a-4f65-9395-0d1b00e6c5c0"},"vehicle_type_id":"4","last_reported":1734192597,"current_range_meters":25200,"station_id":"ce4bhgp2rcd13ifvqfe0","pricing_plan_id":"cebpf4jnsgd1na2vs0mg"},{"bike_id":"30ddb5ac-f519-47ee-a279-5bd9e2086877","system_id":"levelo_inurba_marseille","lat":43.30466,"lon":5.37906,"is_reserved":false,"is_disabled":false,"rental_uris":{"android":"levelo://app?vid=30ddb5ac-f519-47ee-a279-5bd9e2086877","ios":"levelo://app?vid=30ddb5ac-f519-47ee-a279-5bd9e2086877"},"vehicle_type_id":"4","last_reported":1734192597,"current_range_meters":8400,"station_id":"ce4bgup2rcd13ifvqcn0","pricing_plan_id":"cebpf4jnsgd1na2vs0mg"},{"bike_id":"9898497d-08a8-4f3f-896d-f939d7b3fae3","system_id":"levelo_inurba_marseille","lat":43.29719,"lon":5.37689,"is_reserved":false,"is_disabled":false,"rental_uris":{"android":"levelo://app?vid=9898497d-08a8-4f3f-896d-f939d7b3fae3","ios":"levelo://app?vid=9898497d-08a8-4f3f-896d-f939d7b3fae3"},"vehicle_type_id":"4","last_reported":1734192597,"current_range_meters":27200,"station_id":"ce4bgkh2rcd13ifvqbl0","pricing_plan_id":"cebpf4jnsgd1na2vs0mg"},{"bike_id":"4c12d0cc-4fd0-4b87-a890-2d875a10d1db","system_id":"levelo_inurba_marseille","lat":43.25107,"lon":5.40324,"is_reserved":false,"is_disabled":false,"rental_uris":{"android":"levelo://app?vid=4c12d0cc-4fd0-4b87-a890-2d875a10d1db","ios":"levelo://app?vid=4c12d0cc-4fd0-4b87-a890-2d875a10d1db"},"vehicle_type_id":"4","last_reported":1734192597,"current_range_meters":39200,"station_id":"ce4bhlh2rcd13ifvqgig","pricing_plan_id":"cebpf4jnsgd1na2vs0mg"},{"bike_id":"abe250a1-3d26-47a1-bae8-73bf3354b17a","system_id":"levelo_inurba_marseille","lat":43.27199,"lon":5.4099,"is_reserved":false,"is_disabled":false,"rental_uris":{"android":"levelo://app?vid=abe250a1-3d26-47a1-bae8-73bf3354b17a","ios":"levelo://app?vid=abe250a1-3d26-47a1-bae8-73bf3354b17a"},"vehicle_type_id":"4","last_reported":1734192597,"current_range_meters":10000,"station_id":"ce4bhl12rcd13ifvqgf0","pricing_plan_id":"cebpf4jnsgd1na2vs0mg"},{"bike_id":"e92f647d-887b-495e-9940-6dae59a4eeff","system_id":"levelo_inurba_marseille","lat":43.26951,"lon":5.38629,"is_reserved":false,"is_disabled":false,"rental_uris":{"android":"levelo://app?vid=e92f647d-887b-495e-9940-6dae59a4eeff","ios":"levelo://app?vid=e92f647d-887b-495e-9940-6dae59a4eeff"},"vehicle_type_id":"4","last_reported":1734192597,"current_range_meters":36400,"station_id":"ce4bhh92rcd13ifvqfh0","pricing_plan_id":"cebpf4jnsgd1na2vs0mg"},{"bike_id":"23208aee-ef1c-43eb-bfd7-65beada6760f","system_id":"levelo_inurba_marseille","lat":43.27204,"lon":5.39199,"is_reserved":false,"is_disabled":false,"rental_uris":{"android":"levelo://app?vid=23208aee-ef1c-43eb-bfd7-65beada6760f","ios":"levelo://app?vid=23208aee-ef1c-43eb-bfd7-65beada6760f"},"vehicle_type_id":"4","last_reported":1734192597,"current_range_meters":16000,"station_id":"ce4bhhp2rcd13ifvqfm0","pricing_plan_id":"cebpf4jnsgd1na2vs0mg"},{"bike_id":"d5ad4ccd-0d12-4849-9382-4ec94afd7b79","system_id":"levelo_inurba_marseille","lat":43.26939,"lon":5.40248,"is_reserved":false,"is_disabled":false,"rental_uris":{"android":"levelo://app?vid=d5ad4ccd-0d12-4849-9382-4ec94afd7b79","ios":"levelo://app?vid=d5ad4ccd-0d12-4849-9382-4ec94afd7b79"},"vehicle_type_id":"4","last_reported":1734192597,"current_range_meters":38800,"station_id":"cjm6bp8fraef2m0cb0m0","pricing_plan_id":"cebpf4jnsgd1na2vs0mg"},{"bike_id":"167ec91b-3271-4201-be22-ac9b6351ad63","system_id":"levelo_inurba_marseille","lat":43.27944,"lon":5.41043,"is_reserved":false,"is_disabled":false,"rental_uris":{"android":"levelo://app?vid=167ec91b-3271-4201-be22-ac9b6351ad63","ios":"levelo://app?vid=167ec91b-3271-4201-be22-ac9b6351ad63"},"vehicle_type_id":"4","last_reported":1734192597,"current_range_meters":27600,"station_id":"ce4bhnp2rcd13ifvqh0g","pricing_plan_id":"cebpf4jnsgd1na2vs0mg"},{"bike_id":"99dd0b01-1504-4286-9d63-b785ac1602ce","system_id":"levelo_inurba_marseille","lat":43.24816,"lon":5.37455,"is_reserved":false,"is_disabled":false,"rental_uris":{"android":"levelo://app?vid=99dd0b01-1504-4286-9d63-b785ac1602ce","ios":"levelo://app?vid=99dd0b01-1504-4286-9d63-b785ac1602ce"},"vehicle_type_id":"4","last_reported":1734192597,"current_range_meters":36800,"station_id":"ce4bhgh2rcd13ifvqfb0","pricing_plan_id":"cebpf4jnsgd1na2vs0mg"},{"bike_id":"b9fd8210-1762-40eb-87aa-8f4b603c6aad","system_id":"levelo_inurba_marseille","lat":43.260336,"lon":5.37545,"is_reserved":false,"is_disabled":false,"rental_uris":{"android":"levelo://app?vid=b9fd8210-1762-40eb-87aa-8f4b603c6aad","ios":"levelo://app?vid=b9fd8210-1762-40eb-87aa-8f4b603c6aad"},"vehicle_type_id":"4","last_reported":1734192597,"current_range_meters":38800,"station_id":"ce4bhgh2rcd13ifvqfa0","pricing_plan_id":"cebpf4jnsgd1na2vs0mg"},{"bike_id":"fcc466ca-f4fd-41b0-80ee-2011176e1445","system_id":"levelo_inurba_marseille","lat":43.27218,"lon":5.3919,"is_reserved":false,"is_disabled":false,"rental_uris":{"android":"levelo://app?vid=fcc466ca-f4fd-41b0-80ee-2011176e1445","ios":"levelo://app?vid=fcc466ca-f4fd-41b0-80ee-2011176e1445"},"vehicle_type_id":"4","last_reported":1734192597,"current_range_meters":36800,"station_id":"ce4bhhp2rcd13ifvqfm0","pricing_plan_id":"cebpf4jnsgd1na2vs0mg"},{"bike_id":"af5005fc-d058-4152-a2f0-a599ec2fe143","system_id":"levelo_inurba_marseille","lat":43.32299,"lon":5.38262,"is_reserved":false,"is_disabled":false,"rental_uris":{"android":"levelo://app?vid=af5005fc-d058-4152-a2f0-a599ec2fe143","ios":"levelo://app?vid=af5005fc-d058-4152-a2f0-a599ec2fe143"},"vehicle_type_id":"4","last_reported":1734192597,"current_range_meters":39200,"station_id":"ce4bhr12rcd13ifvqhqg","pricing_plan_id":"cebpf4jnsgd1na2vs0mg"},{"bike_id":"3650d84c-d2fd-4728-abeb-b9accdfa7210","system_id":"levelo_inurba_marseille","lat":43.30248,"lon":5.4006,"is_reserved":false,"is_disabled":true,"rental_uris":{"android":"levelo://app?vid=3650d84c-d2fd-4728-abeb-b9accdfa7210","ios":"levelo://app?vid=3650d84c-d2fd-4728-abeb-b9accdfa7210"},"vehicle_type_id":"4","last_reported":1734192597,"current_range_meters":26800,"station_id":"ce4bgvh2rcd13ifvqcs0","pricing_plan_id":"cebpf4jnsgd1na2vs0mg"},{"bike_id":"8646b031-0d36-4e94-baac-67ee566033ba","system_id":"levelo_inurba_marseille","lat":43.31071,"lon":5.38366,"is_reserved":false,"is_disabled":false,"rental_uris":{"android":"levelo://app?vid=8646b031-0d36-4e94-baac-67ee566033ba","ios":"levelo://app?vid=8646b031-0d36-4e94-baac-67ee566033ba"},"vehicle_type_id":"4","last_reported":1734192597,"current_range_meters":28000,"station_id":"ce4bgv92rcd13ifvqcr0","pricing_plan_id":"cebpf4jnsgd1na2vs0mg"},{"bike_id":"a7ee124d-4541-4cd9-add8-e2fe1a373383","system_id":"levelo_inurba_marseille","lat":43.27208,"lon":5.39172,"is_reserved":false,"is_disabled":false,"rental_uris":{"android":"levelo://app?vid=a7ee124d-4541-4cd9-add8-e2fe1a373383","ios":"levelo://app?vid=a7ee124d-4541-4cd9-add8-e2fe1a373383"},"vehicle_type_id":"4","last_reported":1734192597,"current_range_meters":8400,"station_id":"ce4bhhp2rcd13ifvqfm0","pricing_plan_id":"cebpf4jnsgd1na2vs0mg"},{"bike_id":"bbc5d163-c981-4505-a431-eec8bc300a1e","system_id":"levelo_inurba_marseille","lat":43.30421,"lon":5.38896,"is_reserved":false,"is_disabled":true,"rental_uris":{"android":"levelo://app?vid=bbc5d163-c981-4505-a431-eec8bc300a1e","ios":"levelo://app?vid=bbc5d163-c981-4505-a431-eec8bc300a1e"},"vehicle_type_id":"4","last_reported":1734192597,"current_range_meters":0,"station_id":"ce4bgk12rcd13ifvqbi0","pricing_plan_id":"cebpf4jnsgd1na2vs0mg"},{"bike_id":"ab5c0b8b-1e60-424c-9881-b6c2af8578b6","system_id":"levelo_inurba_marseille","lat":43.32046,"lon":5.41561,"is_reserved":false,"is_disabled":false,"rental_uris":{"android":"levelo://app?vid=ab5c0b8b-1e60-424c-9881-b6c2af8578b6","ios":"levelo://app?vid=ab5c0b8b-1e60-424c-9881-b6c2af8578b6"},"vehicle_type_id":"4","last_reported":1734192597,"current_range_meters":10800,"station_id":"ce4bhq92rcd13ifvqhkg","pricing_plan_id":"cebpf4jnsgd1na2vs0mg"},{"bike_id":"4aca466f-18cd-4854-8368-f671117d734c","system_id":"levelo_inurba_marseille","lat":43.26928,"lon":5.38914,"is_reserved":false,"is_disabled":false,"rental_uris":{"android":"levelo://app?vid=4aca466f-18cd-4854-8368-f671117d734c","ios":"levelo://app?vid=4aca466f-18cd-4854-8368-f671117d734c"},"vehicle_type_id":"4","last_reported":1734192597,"current_range_meters":39200,"station_id":"ce4bhhh2rcd13ifvqfl0","pricing_plan_id":"cebpf4jnsgd1na2vs0mg"},{"bike_id":"b29f42b8-a4e2-4697-9574-a7d985aefa64","system_id":"levelo_inurba_marseille","lat":43.3091,"lon":5.4017,"is_reserved":false,"is_disabled":false,"rental_uris":{"android":"levelo://app?vid=b29f42b8-a4e2-4697-9574-a7d985aefa64","ios":"levelo://app?vid=b29f42b8-a4e2-4697-9574-a7d985aefa64"},"vehicle_type_id":"4","last_reported":1734192597,"current_range_meters":30800,"station_id":"ce4bgvp2rcd13ifvqct0","pricing_plan_id":"cebpf4jnsgd1na2vs0mg"},{"bike_id":"6cb5f94f-eade-4b7c-b995-84c805be74f9","system_id":"levelo_inurba_marseille","lat":43.33779,"lon":5.37414,"is_reserved":false,"is_disabled":false,"rental_uris":{"android":"levelo://app?vid=6cb5f94f-eade-4b7c-b995-84c805be74f9","ios":"levelo://app?vid=6cb5f94f-eade-4b7c-b995-84c805be74f9"},"vehicle_type_id":"4","last_reported":1734192597,"current_range_meters":38800,"station_id":"","pricing_plan_id":"cebpf4jnsgd1na2vs0mg"},{"bike_id":"380c9a62-9355-46ea-aba6-5d39cd47ad4b","system_id":"levelo_inurba_marseille","lat":43.31375,"lon":5.40618,"is_reserved":false,"is_disabled":true,"rental_uris":{"android":"levelo://app?vid=380c9a62-9355-46ea-aba6-5d39cd47ad4b","ios":"levelo://app?vid=380c9a62-9355-46ea-aba6-5d39cd47ad4b"},"vehicle_type_id":"4","last_reported":1734192597,"current_range_meters":0,"station_id":"","pricing_plan_id":"cebpf4jnsgd1na2vs0mg"},{"bike_id":"dc382634-aed8-493e-8590-bf7f7a19747b","system_id":"levelo_inurba_marseille","lat":43.27314,"lon":5.39094,"is_reserved":false,"is_disabled":false,"rental_uris":{"android":"levelo://app?vid=dc382634-aed8-493e-8590-bf7f7a19747b","ios":"levelo://app?vid=dc382634-aed8-493e-8590-bf7f7a19747b"},"vehicle_type_id":"4","last_reported":1734192597,"current_range_meters":37600,"station_id":"ce4bhgp2rcd13ifvqfe0","pricing_plan_id":"cebpf4jnsgd1na2vs0mg"},{"bike_id":"c6c1ca25-9d20-4592-8665-5e2613c6ef34","system_id":"levelo_inurba_marseille","lat":43.32484,"lon":5.36581,"is_reserved":false,"is_disabled":false,"rental_uris":{"android":"levelo://app?vid=c6c1ca25-9d20-4592-8665-5e2613c6ef34","ios":"levelo://app?vid=c6c1ca25-9d20-4592-8665-5e2613c6ef34"},"vehicle_type_id":"4","last_reported":1734192597,"current_range_meters":39200,"station_id":"ce4bhs12rcd13ifvqhvg","pricing_plan_id":"cebpf4jnsgd1na2vs0mg"},{"bike_id":"27524b8d-9acb-4c02-bc9e-4b8bb31c2a6d","system_id":"levelo_inurba_marseille","lat":43.26479,"lon":5.39552,"is_reserved":false,"is_disabled":false,"rental_uris":{"android":"levelo://app?vid=27524b8d-9acb-4c02-bc9e-4b8bb31c2a6d","ios":"levelo://app?vid=27524b8d-9acb-4c02-bc9e-4b8bb31c2a6d"},"vehicle_type_id":"4","last_reported":1734192597,"current_range_meters":28000,"station_id":"ce4bhi12rcd13ifvqfq0","pricing_plan_id":"cebpf4jnsgd1na2vs0mg"},{"bike_id":"ca59d865-1951-4846-a717-a349b9e50e7c","system_id":"levelo_inurba_marseille","lat":43.27618,"lon":5.36105,"is_reserved":false,"is_disabled":true,"rental_uris":{"android":"levelo://app?vid=ca59d865-1951-4846-a717-a349b9e50e7c","ios":"levelo://app?vid=ca59d865-1951-4846-a717-a349b9e50e7c"},"vehicle_type_id":"4","last_reported":1734192597,"current_range_meters":36400,"station_id":"ce4bgj92rcd13ifvqbe0","pricing_plan_id":"cebpf4jnsgd1na2vs0mg"},{"bike_id":"bd42838f-97de-4366-ac15-bed82afa7174","system_id":"levelo_inurba_marseille","lat":43.22818,"lon":5.352916,"is_reserved":false,"is_disabled":false,"rental_uris":{"android":"levelo://app?vid=bd42838f-97de-4366-ac15-bed82afa7174","ios":"levelo://app?vid=bd42838f-97de-4366-ac15-bed82afa7174"},"vehicle_type_id":"4","last_reported":1734192597,"current_range_meters":36800,"station_id":"cpo3532slgdg3j2ikp40","pricing_plan_id":"cebpf4jnsgd1na2vs0mg"},{"bike_id":"18be673a-b259-4e40-8a7c-3a4ca5892e9f","system_id":"levelo_inurba_marseille","lat":43.24077,"lon":5.37756,"is_reserved":false,"is_disabled":false,"rental_uris":{"android":"levelo://app?vid=18be673a-b259-4e40-8a7c-3a4ca5892e9f","ios":"levelo://app?vid=18be673a-b259-4e40-8a7c-3a4ca5892e9f"},"vehicle_type_id":"4","last_reported":1734192597,"current_range_meters":20400,"station_id":"ce4bhm12rcd13ifvqgkg","pricing_plan_id":"cebpf4jnsgd1na2vs0mg"},{"bike_id":"283ec910-2b59-4ffd-bbff-9867d116f826","system_id":"levelo_inurba_marseille","lat":43.337444,"lon":5.374475,"is_reserved":false,"is_disabled":true,"rental_uris":{"android":"levelo://app?vid=283ec910-2b59-4ffd-bbff-9867d116f826","ios":"levelo://app?vid=283ec910-2b59-4ffd-bbff-9867d116f826"},"vehicle_type_id":"4","last_reported":1734192597,"current_range_meters":0,"station_id":"","pricing_plan_id":"cebpf4jnsgd1na2vs0mg"},{"bike_id":"44bb1ee1-6608-426b-ad9e-5efdc1a7eac0","system_id":"levelo_inurba_marseille","lat":43.3377,"lon":5.37435,"is_reserved":false,"is_disabled":false,"rental_uris":{"android":"levelo://app?vid=44bb1ee1-6608-426b-ad9e-5efdc1a7eac0","ios":"levelo://app?vid=44bb1ee1-6608-426b-ad9e-5efdc1a7eac0"},"vehicle_type_id":"4","last_reported":1734192597,"current_range_meters":26800,"station_id":"","pricing_plan_id":"cebpf4jnsgd1na2vs0mg"},{"bike_id":"272be809-a4f0-498f-b78a-caae745f648b","system_id":"levelo_inurba_marseille","lat":43.2915,"lon":5.37156,"is_reserved":false,"is_disabled":false,"rental_uris":{"android":"levelo://app?vid=272be809-a4f0-498f-b78a-caae745f648b","ios":"levelo://app?vid=272be809-a4f0-498f-b78a-caae745f648b"},"vehicle_type_id":"4","last_reported":1734192597,"current_range_meters":10000,"station_id":"ce4bha92rcd13ifvqeh0","pricing_plan_id":"cebpf4jnsgd1na2vs0mg"},{"bike_id":"c6234abb-f24f-4e51-8203-a434dd5a5cf7","system_id":"levelo_inurba_marseille","lat":43.27208,"lon":5.40982,"is_reserved":false,"is_disabled":false,"rental_uris":{"android":"levelo://app?vid=c6234abb-f24f-4e51-8203-a434dd5a5cf7","ios":"levelo://app?vid=c6234abb-f24f-4e51-8203-a434dd5a5cf7"},"vehicle_type_id":"4","last_reported":1734192597,"current_range_meters":37600,"station_id":"ce4bhl12rcd13ifvqgf0","pricing_plan_id":"cebpf4jnsgd1na2vs0mg"},{"bike_id":"6e6a004b-462d-4b03-aeaa-2611256f0d89","system_id":"levelo_inurba_marseille","lat":43.28113,"lon":5.38934,"is_reserved":false,"is_disabled":true,"rental_uris":{"android":"levelo://app?vid=6e6a004b-462d-4b03-aeaa-2611256f0d89","ios":"levelo://app?vid=6e6a004b-462d-4b03-aeaa-2611256f0d89"},"vehicle_type_id":"4","last_reported":1734192597,"current_range_meters":0,"station_id":"","pricing_plan_id":"cebpf4jnsgd1na2vs0mg"},{"bike_id":"8d50806a-0e21-4afa-9b0d-4348cd7b11ee","system_id":"levelo_inurba_marseille","lat":43.27207,"lon":5.39189,"is_reserved":false,"is_disabled":false,"rental_uris":{"android":"levelo://app?vid=8d50806a-0e21-4afa-9b0d-4348cd7b11ee","ios":"levelo://app?vid=8d50806a-0e21-4afa-9b0d-4348cd7b11ee"},"vehicle_type_id":"4","last_reported":1734192597,"current_range_meters":14000,"station_id":"ce4bhhp2rcd13ifvqfm0","pricing_plan_id":"cebpf4jnsgd1na2vs0mg"},{"bike_id":"c8727f36-6d82-45d4-8a0c-bd58abd6552f","system_id":"levelo_inurba_marseille","lat":43.28604,"lon":5.37052,"is_reserved":false,"is_disabled":false,"rental_uris":{"android":"levelo://app?vid=c8727f36-6d82-45d4-8a0c-bd58abd6552f","ios":"levelo://app?vid=c8727f36-6d82-45d4-8a0c-bd58abd6552f"},"vehicle_type_id":"4","last_reported":1734192597,"current_range_meters":39200,"station_id":"ce4bht12rcd13ifvqi60","pricing_plan_id":"cebpf4jnsgd1na2vs0mg"},{"bike_id":"78add740-1587-4905-bbbd-44b739c02b99","system_id":"levelo_inurba_marseille","lat":43.27056,"lon":5.40263,"is_reserved":false,"is_disabled":false,"rental_uris":{"android":"levelo://app?vid=78add740-1587-4905-bbbd-44b739c02b99","ios":"levelo://app?vid=78add740-1587-4905-bbbd-44b739c02b99"},"vehicle_type_id":"4","last_reported":1734192597,"current_range_meters":16000,"station_id":"ce4bhk92rcd13ifvqgc0","pricing_plan_id":"cebpf4jnsgd1na2vs0mg"},{"bike_id":"f5c6ad5c-23ff-4c93-9cb4-fd3c16bd171c","system_id":"levelo_inurba_marseille","lat":43.2501,"lon":5.38919,"is_reserved":false,"is_disabled":true,"rental_uris":{"android":"levelo://app?vid=f5c6ad5c-23ff-4c93-9cb4-fd3c16bd171c","ios":"levelo://app?vid=f5c6ad5c-23ff-4c93-9cb4-fd3c16bd171c"},"vehicle_type_id":"4","last_reported":1734192597,"current_range_meters":0,"station_id":"ce4bhgp2rcd13ifvqfd0","pricing_plan_id":"cebpf4jnsgd1na2vs0mg"},{"bike_id":"702fe746-2950-4d83-96ad-da74f787e42f","system_id":"levelo_inurba_marseille","lat":43.25862,"lon":5.39902,"is_reserved":false,"is_disabled":false,"rental_uris":{"android":"levelo://app?vid=702fe746-2950-4d83-96ad-da74f787e42f","ios":"levelo://app?vid=702fe746-2950-4d83-96ad-da74f787e42f"},"vehicle_type_id":"4","last_reported":1734192597,"current_range_meters":36400,"station_id":"ce4bhl92rcd13ifvqghg","pricing_plan_id":"cebpf4jnsgd1na2vs0mg"},{"bike_id":"28f4710e-ebe3-4f22-a392-a12670dedcf8","system_id":"levelo_inurba_marseille","lat":43.2721,"lon":5.39172,"is_reserved":false,"is_disabled":false,"rental_uris":{"android":"levelo://app?vid=28f4710e-ebe3-4f22-a392-a12670dedcf8","ios":"levelo://app?vid=28f4710e-ebe3-4f22-a392-a12670dedcf8"},"vehicle_type_id":"4","last_reported":1734192597,"current_range_meters":30400,"station_id":"ce4bhhp2rcd13ifvqfm0","pricing_plan_id":"cebpf4jnsgd1na2vs0mg"},{"bike_id":"7965bd8b-65b9-4460-9e65-36f253ebc53b","system_id":"levelo_inurba_marseille","lat":43.320486,"lon":5.415275,"is_reserved":false,"is_disabled":false,"rental_uris":{"android":"levelo://app?vid=7965bd8b-65b9-4460-9e65-36f253ebc53b","ios":"levelo://app?vid=7965bd8b-65b9-4460-9e65-36f253ebc53b"},"vehicle_type_id":"4","last_reported":1734192597,"current_range_meters":19200,"station_id":"ce4bhq92rcd13ifvqhkg","pricing_plan_id":"cebpf4jnsgd1na2vs0mg"},{"bike_id":"e0a6086f-41c2-4a33-8393-42d290b44ed5","system_id":"levelo_inurba_marseille","lat":43.30146,"lon":5.38078,"is_reserved":false,"is_disabled":false,"rental_uris":{"android":"levelo://app?vid=e0a6086f-41c2-4a33-8393-42d290b44ed5","ios":"levelo://app?vid=e0a6086f-41c2-4a33-8393-42d290b44ed5"},"vehicle_type_id":"4","last_reported":1734192597,"current_range_meters":9600,"station_id":"ce4bgjp2rcd13ifvqbh0","pricing_plan_id":"cebpf4jnsgd1na2vs0mg"},{"bike_id":"f1995053-ee41-49b9-8111-b9c9c7cb9669","system_id":"levelo_inurba_marseille","lat":43.26942,"lon":5.4026,"is_reserved":false,"is_disabled":false,"rental_uris":{"android":"levelo://app?vid=f1995053-ee41-49b9-8111-b9c9c7cb9669","ios":"levelo://app?vid=f1995053-ee41-49b9-8111-b9c9c7cb9669"},"vehicle_type_id":"4","last_reported":1734192597,"current_range_meters":7200,"station_id":"cjm6bp8fraef2m0cb0m0","pricing_plan_id":"cebpf4jnsgd1na2vs0mg"},{"bike_id":"e5192aff-1008-4e7e-b82a-23b5df79d920","system_id":"levelo_inurba_marseille","lat":43.29567,"lon":5.42293,"is_reserved":false,"is_disabled":false,"rental_uris":{"android":"levelo://app?vid=e5192aff-1008-4e7e-b82a-23b5df79d920","ios":"levelo://app?vid=e5192aff-1008-4e7e-b82a-23b5df79d920"},"vehicle_type_id":"4","last_reported":1734192597,"current_range_meters":37600,"station_id":"ce4bhph2rcd13ifvqhdg","pricing_plan_id":"cebpf4jnsgd1na2vs0mg"},{"bike_id":"f71b5ff2-5c30-4f3b-944d-bf61881958d6","system_id":"levelo_inurba_marseille","lat":43.27048,"lon":5.40265,"is_reserved":false,"is_disabled":false,"rental_uris":{"android":"levelo://app?vid=f71b5ff2-5c30-4f3b-944d-bf61881958d6","ios":"levelo://app?vid=f71b5ff2-5c30-4f3b-944d-bf61881958d6"},"vehicle_type_id":"4","last_reported":1734192597,"current_range_meters":32000,"station_id":"ce4bhk92rcd13ifvqgc0","pricing_plan_id":"cebpf4jnsgd1na2vs0mg"},{"bike_id":"b0fed497-bc31-465b-9a7e-3c0094dc6dcf","system_id":"levelo_inurba_marseille","lat":43.27322,"lon":5.39066,"is_reserved":false,"is_disabled":false,"rental_uris":{"android":"levelo://app?vid=b0fed497-bc31-465b-9a7e-3c0094dc6dcf","ios":"levelo://app?vid=b0fed497-bc31-465b-9a7e-3c0094dc6dcf"},"vehicle_type_id":"4","last_reported":1734192597,"current_range_meters":18000,"station_id":"ce4bhgp2rcd13ifvqfe0","pricing_plan_id":"cebpf4jnsgd1na2vs0mg"},{"bike_id":"07aaffff-6c5a-4390-a6e5-b91a437396ec","system_id":"levelo_inurba_marseille","lat":43.24148,"lon":5.36419,"is_reserved":false,"is_disabled":false,"rental_uris":{"android":"levelo://app?vid=07aaffff-6c5a-4390-a6e5-b91a437396ec","ios":"levelo://app?vid=07aaffff-6c5a-4390-a6e5-b91a437396ec"},"vehicle_type_id":"4","last_reported":1734192597,"current_range_meters":10000,"station_id":"cpo36qri1sfpv3e86is0","pricing_plan_id":"cebpf4jnsgd1na2vs0mg"},{"bike_id":"bcf18b7a-47bd-4e6d-8bdb-76f72db521fe","system_id":"levelo_inurba_marseille","lat":43.29566,"lon":5.39983,"is_reserved":false,"is_disabled":false,"rental_uris":{"android":"levelo://app?vid=bcf18b7a-47bd-4e6d-8bdb-76f72db521fe","ios":"levelo://app?vid=bcf18b7a-47bd-4e6d-8bdb-76f72db521fe"},"vehicle_type_id":"4","last_reported":1734192597,"current_range_meters":6800,"station_id":"ce4bh312rcd13ifvqdj0","pricing_plan_id":"cebpf4jnsgd1na2vs0mg"},{"bike_id":"c6a326df-8e61-4750-8661-4c047e3d5ba6","system_id":"levelo_inurba_marseille","lat":43.23959,"lon":5.36637,"is_reserved":false,"is_disabled":false,"rental_uris":{"android":"levelo://app?vid=c6a326df-8e61-4750-8661-4c047e3d5ba6","ios":"levelo://app?vid=c6a326df-8e61-4750-8661-4c047e3d5ba6"},"vehicle_type_id":"4","last_reported":1734192597,"current_range_meters":27600,"station_id":"ce4bhi12rcd13ifvqfp0","pricing_plan_id":"cebpf4jnsgd1na2vs0mg"},{"bike_id":"a1acc031-48d1-48e2-b872-2d2bf15b18f5","system_id":"levelo_inurba_marseille","lat":43.32042,"lon":5.41572,"is_reserved":false,"is_disabled":false,"rental_uris":{"android":"levelo://app?vid=a1acc031-48d1-48e2-b872-2d2bf15b18f5","ios":"levelo://app?vid=a1acc031-48d1-48e2-b872-2d2bf15b18f5"},"vehicle_type_id":"4","last_reported":1734192597,"current_range_meters":38800,"station_id":"ce4bhq92rcd13ifvqhkg","pricing_plan_id":"cebpf4jnsgd1na2vs0mg"},{"bike_id":"e8c8745f-8e0d-4ce9-8cc3-92cb96b2b19a","system_id":"levelo_inurba_marseille","lat":43.261946,"lon":5.379312,"is_reserved":false,"is_disabled":false,"rental_uris":{"android":"levelo://app?vid=e8c8745f-8e0d-4ce9-8cc3-92cb96b2b19a","ios":"levelo://app?vid=e8c8745f-8e0d-4ce9-8cc3-92cb96b2b19a"},"vehicle_type_id":"4","last_reported":1734192597,"current_range_meters":12800,"station_id":"ce4bhjp2rcd13ifvqg90","pricing_plan_id":"cebpf4jnsgd1na2vs0mg"},{"bike_id":"03855734-fbef-47bb-a528-1ffa6247890e","system_id":"levelo_inurba_marseille","lat":43.3047,"lon":5.3791,"is_reserved":false,"is_disabled":false,"rental_uris":{"android":"levelo://app?vid=03855734-fbef-47bb-a528-1ffa6247890e","ios":"levelo://app?vid=03855734-fbef-47bb-a528-1ffa6247890e"},"vehicle_type_id":"4","last_reported":1734192597,"current_range_meters":36800,"station_id":"ce4bgup2rcd13ifvqcn0","pricing_plan_id":"cebpf4jnsgd1na2vs0mg"},{"bike_id":"1fd137ec-b2df-45ff-8b23-50f37290448d","system_id":"levelo_inurba_marseille","lat":43.2731,"lon":5.39075,"is_reserved":false,"is_disabled":true,"rental_uris":{"android":"levelo://app?vid=1fd137ec-b2df-45ff-8b23-50f37290448d","ios":"levelo://app?vid=1fd137ec-b2df-45ff-8b23-50f37290448d"},"vehicle_type_id":"4","last_reported":1734192597,"current_range_meters":0,"station_id":"ce4bhgp2rcd13ifvqfe0","pricing_plan_id":"cebpf4jnsgd1na2vs0mg"},{"bike_id":"a8f0de7b-1973-4f72-99a5-213e7b2f08d7","system_id":"levelo_inurba_marseille","lat":43.27367,"lon":5.3626,"is_reserved":false,"is_disabled":false,"rental_uris":{"android":"levelo://app?vid=a8f0de7b-1973-4f72-99a5-213e7b2f08d7","ios":"levelo://app?vid=a8f0de7b-1973-4f72-99a5-213e7b2f08d7"},"vehicle_type_id":"4","last_reported":1734192597,"current_range_meters":39200,"station_id":"ce4bhbh2rcd13ifvqeo0","pricing_plan_id":"cebpf4jnsgd1na2vs0mg"},{"bike_id":"dd49a983-2577-4e6b-868c-63a9b34b146c","system_id":"levelo_inurba_marseille","lat":43.23198,"lon":5.35552,"is_reserved":false,"is_disabled":false,"rental_uris":{"android":"levelo://app?vid=dd49a983-2577-4e6b-868c-63a9b34b146c","ios":"levelo://app?vid=dd49a983-2577-4e6b-868c-63a9b34b146c"},"vehicle_type_id":"4","last_reported":1734192597,"current_range_meters":38800,"station_id":"ce4bhu92rcd13ifvqi70","pricing_plan_id":"cebpf4jnsgd1na2vs0mg"},{"bike_id":"d187580b-68ea-4e8d-80cf-1e9c8892794c","system_id":"levelo_inurba_marseille","lat":43.268,"lon":5.40269,"is_reserved":false,"is_disabled":false,"rental_uris":{"android":"levelo://app?vid=d187580b-68ea-4e8d-80cf-1e9c8892794c","ios":"levelo://app?vid=d187580b-68ea-4e8d-80cf-1e9c8892794c"},"vehicle_type_id":"4","last_reported":1734192597,"current_range_meters":6800,"station_id":"ce501612rcd8frsf0b60","pricing_plan_id":"cebpf4jnsgd1na2vs0mg"},{"bike_id":"0f4eef30-7e29-408b-8ee3-419dc1a14b44","system_id":"levelo_inurba_marseille","lat":43.26786,"lon":5.39416,"is_reserved":false,"is_disabled":false,"rental_uris":{"android":"levelo://app?vid=0f4eef30-7e29-408b-8ee3-419dc1a14b44","ios":"levelo://app?vid=0f4eef30-7e29-408b-8ee3-419dc1a14b44"},"vehicle_type_id":"4","last_reported":1734192597,"current_range_meters":24000,"station_id":"ce4bhh12rcd13ifvqfg0","pricing_plan_id":"cebpf4jnsgd1na2vs0mg"},{"bike_id":"7f8c885e-55c7-41c4-9c31-ee8840deb37a","system_id":"levelo_inurba_marseille","lat":43.2603,"lon":5.37551,"is_reserved":false,"is_disabled":false,"rental_uris":{"android":"levelo://app?vid=7f8c885e-55c7-41c4-9c31-ee8840deb37a","ios":"levelo://app?vid=7f8c885e-55c7-41c4-9c31-ee8840deb37a"},"vehicle_type_id":"4","last_reported":1734192597,"current_range_meters":31200,"station_id":"ce4bhgh2rcd13ifvqfa0","pricing_plan_id":"cebpf4jnsgd1na2vs0mg"},{"bike_id":"ca3bf6a0-806c-4046-b219-bbea4c2ba646","system_id":"levelo_inurba_marseille","lat":43.23194,"lon":5.35548,"is_reserved":false,"is_disabled":false,"rental_uris":{"android":"levelo://app?vid=ca3bf6a0-806c-4046-b219-bbea4c2ba646","ios":"levelo://app?vid=ca3bf6a0-806c-4046-b219-bbea4c2ba646"},"vehicle_type_id":"4","last_reported":1734192597,"current_range_meters":38800,"station_id":"ce4bhu92rcd13ifvqi70","pricing_plan_id":"cebpf4jnsgd1na2vs0mg"},{"bike_id":"166ac817-001a-4993-9d7c-99ef7f3463aa","system_id":"levelo_inurba_marseille","lat":43.29259,"lon":5.38431,"is_reserved":false,"is_disabled":true,"rental_uris":{"android":"levelo://app?vid=166ac817-001a-4993-9d7c-99ef7f3463aa","ios":"levelo://app?vid=166ac817-001a-4993-9d7c-99ef7f3463aa"},"vehicle_type_id":"4","last_reported":1734192597,"current_range_meters":23200,"station_id":"ce4bh692rcd13ifvqea0","pricing_plan_id":"cebpf4jnsgd1na2vs0mg"},{"bike_id":"f899fe25-c462-4e5f-90d6-dc9402b06a1d","system_id":"levelo_inurba_marseille","lat":43.23976,"lon":5.36616,"is_reserved":false,"is_disabled":true,"rental_uris":{"android":"levelo://app?vid=f899fe25-c462-4e5f-90d6-dc9402b06a1d","ios":"levelo://app?vid=f899fe25-c462-4e5f-90d6-dc9402b06a1d"},"vehicle_type_id":"4","last_reported":1734192597,"current_range_meters":1600,"station_id":"ce4bhi12rcd13ifvqfp0","pricing_plan_id":"cebpf4jnsgd1na2vs0mg"},{"bike_id":"46b2fdec-0870-4ae2-84dc-b1f57512351e","system_id":"levelo_inurba_marseille","lat":43.337444,"lon":5.374475,"is_reserved":false,"is_disabled":true,"rental_uris":{"android":"levelo://app?vid=46b2fdec-0870-4ae2-84dc-b1f57512351e","ios":"levelo://app?vid=46b2fdec-0870-4ae2-84dc-b1f57512351e"},"vehicle_type_id":"4","last_reported":1734192597,"current_range_meters":0,"station_id":"","pricing_plan_id":"cebpf4jnsgd1na2vs0mg"},{"bike_id":"e07f8927-8121-4133-911c-f4fdbcb240cf","system_id":"levelo_inurba_marseille","lat":43.3377,"lon":5.37432,"is_reserved":false,"is_disabled":true,"rental_uris":{"android":"levelo://app?vid=e07f8927-8121-4133-911c-f4fdbcb240cf","ios":"levelo://app?vid=e07f8927-8121-4133-911c-f4fdbcb240cf"},"vehicle_type_id":"4","last_reported":1734192597,"current_range_meters":30400,"station_id":"","pricing_plan_id":"cebpf4jnsgd1na2vs0mg"},{"bike_id":"2d1621ab-e817-4a31-b19b-22c30129ac2e","system_id":"levelo_inurba_marseille","lat":43.27989,"lon":5.41659,"is_reserved":false,"is_disabled":false,"rental_uris":{"android":"levelo://app?vid=2d1621ab-e817-4a31-b19b-22c30129ac2e","ios":"levelo://app?vid=2d1621ab-e817-4a31-b19b-22c30129ac2e"},"vehicle_type_id":"4","last_reported":1734192597,"current_range_meters":16000,"station_id":"ce4bho12rcd13ifvqh1g","pricing_plan_id":"cebpf4jnsgd1na2vs0mg"},{"bike_id":"9d601bde-4f09-48e9-ac25-26eb16f97072","system_id":"levelo_inurba_marseille","lat":43.27217,"lon":5.39185,"is_reserved":false,"is_disabled":false,"rental_uris":{"android":"levelo://app?vid=9d601bde-4f09-48e9-ac25-26eb16f97072","ios":"levelo://app?vid=9d601bde-4f09-48e9-ac25-26eb16f97072"},"vehicle_type_id":"4","last_reported":1734192597,"current_range_meters":34800,"station_id":"ce4bhhp2rcd13ifvqfm0","pricing_plan_id":"cebpf4jnsgd1na2vs0mg"},{"bike_id":"61eec3d3-5654-46e2-846b-27a09c737df9","system_id":"levelo_inurba_marseille","lat":43.27203,"lon":5.3918,"is_reserved":false,"is_disabled":false,"rental_uris":{"android":"levelo://app?vid=61eec3d3-5654-46e2-846b-27a09c737df9","ios":"levelo://app?vid=61eec3d3-5654-46e2-846b-27a09c737df9"},"vehicle_type_id":"4","last_reported":1734192597,"current_range_meters":18000,"station_id":"ce4bhhp2rcd13ifvqfm0","pricing_plan_id":"cebpf4jnsgd1na2vs0mg"},{"bike_id":"bb8557f0-b234-401f-bb98-c62ac0278a86","system_id":"levelo_inurba_marseille","lat":43.26947,"lon":5.40249,"is_reserved":false,"is_disabled":false,"rental_uris":{"android":"levelo://app?vid=bb8557f0-b234-401f-bb98-c62ac0278a86","ios":"levelo://app?vid=bb8557f0-b234-401f-bb98-c62ac0278a86"},"vehicle_type_id":"4","last_reported":1734192597,"current_range_meters":38400,"station_id":"cjm6bp8fraef2m0cb0m0","pricing_plan_id":"cebpf4jnsgd1na2vs0mg"},{"bike_id":"5f11fdd9-45f0-4d70-8224-eef136d43616","system_id":"levelo_inurba_marseille","lat":43.27198,"lon":5.40996,"is_reserved":false,"is_disabled":false,"rental_uris":{"android":"levelo://app?vid=5f11fdd9-45f0-4d70-8224-eef136d43616","ios":"levelo://app?vid=5f11fdd9-45f0-4d70-8224-eef136d43616"},"vehicle_type_id":"4","last_reported":1734192597,"current_range_meters":33200,"station_id":"ce4bhl12rcd13ifvqgf0","pricing_plan_id":"cebpf4jnsgd1na2vs0mg"},{"bike_id":"0e7799bf-b3f4-4748-a553-10a881d636ec","system_id":"levelo_inurba_marseille","lat":43.27944,"lon":5.41048,"is_reserved":false,"is_disabled":true,"rental_uris":{"android":"levelo://app?vid=0e7799bf-b3f4-4748-a553-10a881d636ec","ios":"levelo://app?vid=0e7799bf-b3f4-4748-a553-10a881d636ec"},"vehicle_type_id":"4","last_reported":1734192597,"current_range_meters":0,"station_id":"ce4bhnp2rcd13ifvqh0g","pricing_plan_id":"cebpf4jnsgd1na2vs0mg"},{"bike_id":"2448f112-093b-44a4-8c49-c482af2ba024","system_id":"levelo_inurba_marseille","lat":43.2306,"lon":5.35479,"is_reserved":false,"is_disabled":false,"rental_uris":{"android":"levelo://app?vid=2448f112-093b-44a4-8c49-c482af2ba024","ios":"levelo://app?vid=2448f112-093b-44a4-8c49-c482af2ba024"},"vehicle_type_id":"4","last_reported":1734192597,"current_range_meters":21600,"station_id":"cpo3342slgdg3j2ifvpg","pricing_plan_id":"cebpf4jnsgd1na2vs0mg"},{"bike_id":"427b2592-df49-48d2-a3e0-d14d0e37316e","system_id":"levelo_inurba_marseille","lat":43.33609,"lon":5.41027,"is_reserved":false,"is_disabled":false,"rental_uris":{"android":"levelo://app?vid=427b2592-df49-48d2-a3e0-d14d0e37316e","ios":"levelo://app?vid=427b2592-df49-48d2-a3e0-d14d0e37316e"},"vehicle_type_id":"4","last_reported":1734192597,"current_range_meters":24400,"station_id":"ce4bhqh2rcd13ifvqhmg","pricing_plan_id":"cebpf4jnsgd1na2vs0mg"},{"bike_id":"d214c25f-242c-440b-993d-cd644c655be6","system_id":"levelo_inurba_marseille","lat":43.23062,"lon":5.35521,"is_reserved":false,"is_disabled":false,"rental_uris":{"android":"levelo://app?vid=d214c25f-242c-440b-993d-cd644c655be6","ios":"levelo://app?vid=d214c25f-242c-440b-993d-cd644c655be6"},"vehicle_type_id":"4","last_reported":1734192597,"current_range_meters":28800,"station_id":"cpo3342slgdg3j2ifvpg","pricing_plan_id":"cebpf4jnsgd1na2vs0mg"},{"bike_id":"56507b90-3fc2-4a31-8b06-2733830cfd4a","system_id":"levelo_inurba_marseille","lat":43.2694,"lon":5.40248,"is_reserved":false,"is_disabled":true,"rental_uris":{"android":"levelo://app?vid=56507b90-3fc2-4a31-8b06-2733830cfd4a","ios":"levelo://app?vid=56507b90-3fc2-4a31-8b06-2733830cfd4a"},"vehicle_type_id":"4","last_reported":1734192597,"current_range_meters":0,"station_id":"cjm6bp8fraef2m0cb0m0","pricing_plan_id":"cebpf4jnsgd1na2vs0mg"},{"bike_id":"6d05f7ba-808a-4403-b1f3-f8483fec843c","system_id":"levelo_inurba_marseille","lat":43.23188,"lon":5.35561,"is_reserved":false,"is_disabled":false,"rental_uris":{"android":"levelo://app?vid=6d05f7ba-808a-4403-b1f3-f8483fec843c","ios":"levelo://app?vid=6d05f7ba-808a-4403-b1f3-f8483fec843c"},"vehicle_type_id":"4","last_reported":1734192597,"current_range_meters":22000,"station_id":"ce4bhu92rcd13ifvqi70","pricing_plan_id":"cebpf4jnsgd1na2vs0mg"},{"bike_id":"a0b89159-70a1-4f4a-b88f-d6f74fb0338c","system_id":"levelo_inurba_marseille","lat":43.3046,"lon":5.37905,"is_reserved":false,"is_disabled":false,"rental_uris":{"android":"levelo://app?vid=a0b89159-70a1-4f4a-b88f-d6f74fb0338c","ios":"levelo://app?vid=a0b89159-70a1-4f4a-b88f-d6f74fb0338c"},"vehicle_type_id":"4","last_reported":1734192597,"current_range_meters":24400,"station_id":"ce4bgup2rcd13ifvqcn0","pricing_plan_id":"cebpf4jnsgd1na2vs0mg"},{"bike_id":"9ca96f94-8ddd-4b5c-ba9f-a861706f8775","system_id":"levelo_inurba_marseille","lat":43.29032,"lon":5.39975,"is_reserved":false,"is_disabled":false,"rental_uris":{"android":"levelo://app?vid=9ca96f94-8ddd-4b5c-ba9f-a861706f8775","ios":"levelo://app?vid=9ca96f94-8ddd-4b5c-ba9f-a861706f8775"},"vehicle_type_id":"4","last_reported":1734192597,"current_range_meters":11200,"station_id":"ce4bh392rcd13ifvqdm0","pricing_plan_id":"cebpf4jnsgd1na2vs0mg"},{"bike_id":"bf49b0fe-3e5d-47ba-91ea-90696956dd1e","system_id":"levelo_inurba_marseille","lat":43.25867,"lon":5.39901,"is_reserved":false,"is_disabled":false,"rental_uris":{"android":"levelo://app?vid=bf49b0fe-3e5d-47ba-91ea-90696956dd1e","ios":"levelo://app?vid=bf49b0fe-3e5d-47ba-91ea-90696956dd1e"},"vehicle_type_id":"4","last_reported":1734192597,"current_range_meters":34800,"station_id":"ce4bhl92rcd13ifvqghg","pricing_plan_id":"cebpf4jnsgd1na2vs0mg"},{"bike_id":"a5397efa-629d-4917-8594-0532aea74fe2","system_id":"levelo_inurba_marseille","lat":43.28452,"lon":5.35905,"is_reserved":false,"is_disabled":true,"rental_uris":{"android":"levelo://app?vid=a5397efa-629d-4917-8594-0532aea74fe2","ios":"levelo://app?vid=a5397efa-629d-4917-8594-0532aea74fe2"},"vehicle_type_id":"4","last_reported":1734192597,"current_range_meters":11600,"station_id":"ce4bhah2rcd13ifvqei0","pricing_plan_id":"cebpf4jnsgd1na2vs0mg"},{"bike_id":"ab9f72be-575f-4e0e-91e3-20bc2165ff10","system_id":"levelo_inurba_marseille","lat":43.30123,"lon":5.38795,"is_reserved":false,"is_disabled":true,"rental_uris":{"android":"levelo://app?vid=ab9f72be-575f-4e0e-91e3-20bc2165ff10","ios":"levelo://app?vid=ab9f72be-575f-4e0e-91e3-20bc2165ff10"},"vehicle_type_id":"4","last_reported":1734192597,"current_range_meters":0,"station_id":"ce4bhoh2rcd13ifvqh6g","pricing_plan_id":"cebpf4jnsgd1na2vs0mg"},{"bike_id":"8dc6ba3b-eadd-4bf8-84a4-63fd959b82ac","system_id":"levelo_inurba_marseille","lat":43.27317,"lon":5.39095,"is_reserved":false,"is_disabled":false,"rental_uris":{"android":"levelo://app?vid=8dc6ba3b-eadd-4bf8-84a4-63fd959b82ac","ios":"levelo://app?vid=8dc6ba3b-eadd-4bf8-84a4-63fd959b82ac"},"vehicle_type_id":"4","last_reported":1734192597,"current_range_meters":27200,"station_id":"ce4bhgp2rcd13ifvqfe0","pricing_plan_id":"cebpf4jnsgd1na2vs0mg"},{"bike_id":"b8c45ce9-6dee-4fcf-86a3-860523310ea8","system_id":"levelo_inurba_marseille","lat":43.29371,"lon":5.37851,"is_reserved":false,"is_disabled":true,"rental_uris":{"android":"levelo://app?vid=b8c45ce9-6dee-4fcf-86a3-860523310ea8","ios":"levelo://app?vid=b8c45ce9-6dee-4fcf-86a3-860523310ea8"},"vehicle_type_id":"4","last_reported":1734192597,"current_range_meters":0,"station_id":"ce4bgjh2rcd13ifvqbf0","pricing_plan_id":"cebpf4jnsgd1na2vs0mg"},{"bike_id":"9c8c1480-9ffa-4086-913c-c2125a6eb848","system_id":"levelo_inurba_marseille","lat":43.22933,"lon":5.35377,"is_reserved":false,"is_disabled":false,"rental_uris":{"android":"levelo://app?vid=9c8c1480-9ffa-4086-913c-c2125a6eb848","ios":"levelo://app?vid=9c8c1480-9ffa-4086-913c-c2125a6eb848"},"vehicle_type_id":"4","last_reported":1734192597,"current_range_meters":27600,"station_id":"cpo3532slgdg3j2ikp40","pricing_plan_id":"cebpf4jnsgd1na2vs0mg"},{"bike_id":"bcf74671-8c62-40b9-aa07-77db84144656","system_id":"levelo_inurba_marseille","lat":43.22928,"lon":5.35375,"is_reserved":false,"is_disabled":false,"rental_uris":{"android":"levelo://app?vid=bcf74671-8c62-40b9-aa07-77db84144656","ios":"levelo://app?vid=bcf74671-8c62-40b9-aa07-77db84144656"},"vehicle_type_id":"4","last_reported":1734192597,"current_range_meters":38000,"station_id":"cpo3532slgdg3j2ikp40","pricing_plan_id":"cebpf4jnsgd1na2vs0mg"},{"bike_id":"14602c3d-16d1-4ac5-9b1a-b4cc9021416f","system_id":"levelo_inurba_marseille","lat":43.30596,"lon":5.37232,"is_reserved":false,"is_disabled":false,"rental_uris":{"android":"levelo://app?vid=14602c3d-16d1-4ac5-9b1a-b4cc9021416f","ios":"levelo://app?vid=14602c3d-16d1-4ac5-9b1a-b4cc9021416f"},"vehicle_type_id":"4","last_reported":1734192597,"current_range_meters":5600,"station_id":"ce4bgqh2rcd13ifvqc4g","pricing_plan_id":"cebpf4jnsgd1na2vs0mg"},{"bike_id":"427c1ed1-765b-4f41-8d71-e7f5e97c7770","system_id":"levelo_inurba_marseille","lat":43.30939,"lon":5.39054,"is_reserved":false,"is_disabled":false,"rental_uris":{"android":"levelo://app?vid=427c1ed1-765b-4f41-8d71-e7f5e97c7770","ios":"levelo://app?vid=427c1ed1-765b-4f41-8d71-e7f5e97c7770"},"vehicle_type_id":"4","last_reported":1734192597,"current_range_meters":30800,"station_id":"ce4bgup2rcd13ifvqco0","pricing_plan_id":"cebpf4jnsgd1na2vs0mg"},