{"last_updated":1781528428,"ttl":60,"version":"2.2","data":{"bikes":[{"bike_id":"ec12d144-24c8-4071-abf6-197e520eae96","system_id":"levelo_inurba_marseille","lat":43.337444,"lon":5.374475,"is_reserved":false,"is_disabled":false,"rental_uris":{"android":"levelo://app?vid=ec12d144-24c8-4071-abf6-197e520eae96","ios":"levelo://app?vid=ec12d144-24c8-4071-abf6-197e520eae96"},"vehicle_type_id":"4","last_reported":1781528430,"current_range_meters":0,"station_id":"","pricing_plan_id":"cebpf4jnsgd1na2vs0mg"},{"bike_id":"a3dce523-25c0-4577-ae56-7c77f087e49a","system_id":"levelo_inurba_marseille","lat":43.28858,"lon":5.42513,"is_reserved":false,"is_disabled":false,"rental_uris":{"android":"levelo://app?vid=a3dce523-25c0-4577-ae56-7c77f087e49a","ios":"levelo://app?vid=a3dce523-25c0-4577-ae56-7c77f087e49a"},"vehicle_type_id":"4","last_reported":1781528430,"current_range_meters":2800,"station_id":"st_d3b462108ojc7389ooeg","pricing_plan_id":"cebpf4jnsgd1na2vs0mg"},{"bike_id":"5b4f846c-5fb3-4e32-9d60-22d255131c55","system_id":"levelo_inurba_marseille","lat":43.302524,"lon":5.400192,"is_reserved":false,"is_disabled":false,"rental_uris":{"android":"levelo://app?vid=5b4f846c-5fb3-4e32-9d60-22d255131c55","ios":"levelo://app?vid=5b4f846c-5fb3-4e32-9d60-22d255131c55"},"vehicle_type_id":"4","last_reported":1781528430,"current_range_meters":2800,"station_id":"ce4bgvh2rcd13ifvqcs0","pricing_plan_id":"cebpf4jnsgd1na2vs0mg"},{"bike_id":"b12e8485-ed28-4a8f-90a1-52538f8c996f","system_id":"levelo_inurba_marseille","lat":43.29512,"lon":5.3902,"is_reserved":false,"is_disabled":true,"rental_uris":{"android":"levelo://app?vid=b12e8485-ed28-4a8f-90a1-52538f8c996f","ios":"levelo://app?vid=b12e8485-ed28-4a8f-90a1-52538f8c996f"},"vehicle_type_id":"4","last_reported":1781528430,"current_range_meters":2800,"station_id":"ce4bh3p2rcd13ifvqdp0","pricing_plan_id":"cebpf4jnsgd1na2vs0mg"},{"bike_id":"73a74d7a-2063-4233-833c-175c81f6c8a2","system_id":"levelo_inurba_marseille","lat":43.27373,"lon":5.36255,"is_reserved":false,"is_disabled":false,"rental_uris":{"android":"levelo://app?vid=73a74d7a-2063-4233-833c-175c81f6c8a2","ios":"levelo://app?vid=73a74d7a-2063-4233-833c-175c81f6c8a2"},"vehicle_type_id":"4","last_reported":1781528430,"current_range_meters":2800,"station_id":"ce4bhbh2rcd13ifvqeo0","pricing_plan_id":"cebpf4jnsgd1na2vs0mg"},{"bike_id":"333f976b-8b94-4e77-8fe8-133d43f32e35","system_id":"levelo_inurba_marseille","lat":43.29053,"lon":5.39202,"is_reserved":false,"is_disabled":false,"rental_uris":{"android":"levelo://app?vid=333f976b-8b94-4e77-8fe8-133d43f32e35","ios":"levelo://app?vid=333f976b-8b94-4e77-8fe8-133d43f32e35"},"vehicle_type_id":"4","last_reported":1781528430,"current_range_meters":2800,"station_id":"","pricing_plan_id":"cebpf4jnsgd1na2vs0mg"},{"bike_id":"ce059822-03c1-4578-b9e3-bb0b69a47db9","system_id":"levelo_inurba_marseille","lat":43.25,"lon":5.38942,"is_reserved":false,"is_disabled":false,"rental_uris":{"android":"levelo://app?vid=ce059822-03c1-4578-b9e3-bb0b69a47db9","ios":"levelo://app?vid=ce059822-03c1-4578-b9e3-bb0b69a47db9"},"vehicle_type_id":"4","last_reported":1781528430,"current_range_meters":2800,"station_id":"ce4bhgp2rcd13ifvqfd0","pricing_plan_id":"cebpf4jnsgd1na2vs0mg"},{"bike_id":"6b162031-511c-426a-8e5d-f4ec3b0910af","system_id":"levelo_inurba_marseille","lat":43.30559,"lon":5.3654,"is_reserved":false,"is_disabled":false,"rental_uris":{"android":"levelo://app?vid=6b162031-511c-426a-8e5d-f4ec3b0910af","ios":"levelo://app?vid=6b162031-511c-426a-8e5d-f4ec3b0910af"},"vehicle_type_id":"4","last_reported":1781528430,"current_range_meters":2800,"station_id":"ce4bgs12rcd13ifvqcag","pricing_plan_id":"cebpf4jnsgd1na2vs0mg"},{"bike_id":"8dc7d146-6b6b-4ff1-99bd-ae3bddb3b1b9","system_id":"levelo_inurba_marseille","lat":43.21205,"lon":5.35111,"is_reserved":false,"is_disabled":false,"rental_uris":{"android":"levelo://app?vid=8dc7d146-6b6b-4ff1-99bd-ae3bddb3b1b9","ios":"levelo://app?vid=8dc7d146-6b6b-4ff1-99bd-ae3bddb3b1b9"},"vehicle_type_id":"4","last_reported":1781528430,"current_range_meters":2800,"station_id":"st_cvj6sg6p6f1abm77japg","pricing_plan_id":"cebpf4jnsgd1na2vs0mg"},{"bike_id":"4051d561-610e-4286-9549-59b251837163","system_id":"levelo_inurba_marseille","lat":43.341365,"lon":5.40904,"is_reserved":false,"is_disabled":false,"rental_uris":{"android":"levelo://app?vid=4051d561-610e-4286-9549-59b251837163","ios":"levelo://app?vid=4051d561-610e-4286-9549-59b251837163"},"vehicle_type_id":"4","last_reported":1781528430,"current_range_meters":2800,"station_id":"ce4bhqh2rcd13ifvqhlg","pricing_plan_id":"cebpf4jnsgd1na2vs0mg"},{"bike_id":"b321c585-73ab-4c4d-a9e5-129a5ae438a6","system_id":"levelo_inurba_marseille","lat":43.33537,"lon":5.37469,"is_reserved":false,"is_disabled":false,"rental_uris":{"android":"levelo://app?vid=b321c585-73ab-4c4d-a9e5-129a5ae438a6","ios":"levelo://app?vid=b321c585-73ab-4c4d-a9e5-129a5ae438a6"},"vehicle_type_id":"4","last_reported":1781528430,"current_range_meters":2800,"station_id":"st_d46tts09ee8s73dlu43g","pricing_plan_id":"cebpf4jnsgd1na2vs0mg"},{"bike_id":"a50af965-b87b-4f91-9b9a-3e26dc71f7c1","system_id":"levelo_inurba_marseille","lat":43.29031,"lon":5.44019,"is_reserved":false,"is_disabled":false,"rental_uris":{"android":"levelo://app?vid=a50af965-b87b-4f91-9b9a-3e26dc71f7c1","ios":"levelo://app?vid=a50af965-b87b-4f91-9b9a-3e26dc71f7c1"},"vehicle_type_id":"4","last_reported":1781528430,"current_range_meters":2800,"station_id":"","pricing_plan_id":"cebpf4jnsgd1na2vs0mg"},{"bike_id":"8a1794c6-a1a3-4a86-9349-6867ffc571bb","system_id":"levelo_inurba_marseille","lat":43.24165,"lon":5.36393,"is_reserved":false,"is_disabled":false,"rental_uris":{"android":"levelo://app?vid=8a1794c6-a1a3-4a86-9349-6867ffc571bb","ios":"levelo://app?vid=8a1794c6-a1a3-4a86-9349-6867ffc571bb"},"vehicle_type_id":"4","last_reported":1781528430,"current_range_meters":2800,"station_id":"cpo36qri1sfpv3e86is0","pricing_plan_id":"cebpf4jnsgd1na2vs0mg"},{"bike_id":"f672f465-d8d1-4b4c-9076-157383923c31","system_id":"levelo_inurba_marseille","lat":43.235073,"lon":5.411143,"is_reserved":false,"is_disabled":false,"rental_uris":{"android":"levelo://app?vid=f672f465-d8d1-4b4c-9076-157383923c31","ios":"levelo://app?vid=f672f465-d8d1-4b4c-9076-157383923c31"},"vehicle_type_id":"4","last_reported":1781528430,"current_range_meters":2800,"station_id":"","pricing_plan_id":"cebpf4jnsgd1na2vs0mg"},{"bike_id":"419a051d-ce49-4cac-a57a-09f9acd2b2f4","system_id":"levelo_inurba_marseille","lat":43.30001,"lon":5.38906,"is_reserved":false,"is_disabled":false,"rental_uris":{"android":"levelo://app?vid=419a051d-ce49-4cac-a57a-09f9acd2b2f4","ios":"levelo://app?vid=419a051d-ce49-4cac-a57a-09f9acd2b2f4"},"vehicle_type_id":"4","last_reported":1781528430,"current_range_meters":2800,"station_id":"","pricing_plan_id":"cebpf4jnsgd1na2vs0mg"},{"bike_id":"d729573f-a86b-41d2-bc51-bd23c133868d","system_id":"levelo_inurba_marseille","lat":43.31503,"lon":5.38404,"is_reserved":false,"is_disabled":false,"rental_uris":{"android":"levelo://app?vid=d729573f-a86b-41d2-bc51-bd23c133868d","ios":"levelo://app?vid=d729573f-a86b-41d2-bc51-bd23c133868d"},"vehicle_type_id":"4","last_reported":1781528430,"current_range_meters":2800,"station_id":"","pricing_plan_id":"cebpf4jnsgd1na2vs0mg"},{"bike_id":"b7fcbe22-cc5d-4590-9e55-93f35d6afd48","system_id":"levelo_inurba_marseille","lat":43.33732,"lon":5.3919,"is_reserved":false,"is_disabled":false,"rental_uris":{"android":"levelo://app?vid=b7fcbe22-cc5d-4590-9e55-93f35d6afd48","ios":"levelo://app?vid=b7fcbe22-cc5d-4590-9e55-93f35d6afd48"},"vehicle_type_id":"4","last_reported":1781528430,"current_range_meters":2800,"station_id":"ce4bhr92rcd13ifvqhsg","pricing_plan_id":"cebpf4jnsgd1na2vs0mg"},{"bike_id":"3218e180-a757-407d-8b1a-71cc1f6752de","system_id":"levelo_inurba_marseille","lat":43.29165,"lon":5.36605,"is_reserved":false,"is_disabled":false,"rental_uris":{"android":"levelo://app?vid=3218e180-a757-407d-8b1a-71cc1f6752de","ios":"levelo://app?vid=3218e180-a757-407d-8b1a-71cc1f6752de"},"vehicle_type_id":"4","last_reported":1781528430,"current_range_meters":3200,"station_id":"","pricing_plan_id":"cebpf4jnsgd1na2vs0mg"},{"bike_id":"f8cad1ac-280a-4ecf-8406-52438c843066","system_id":"levelo_inurba_marseille","lat":43.27835,"lon":5.35469,"is_reserved":false,"is_disabled":false,"rental_uris":{"android":"levelo://app?vid=f8cad1ac-280a-4ecf-8406-52438c843066","ios":"levelo://app?vid=f8cad1ac-280a-4ecf-8406-52438c843066"},"vehicle_type_id":"4","last_reported":1781528430,"current_range_meters":3200,"station_id":"","pricing_plan_id":"cebpf4jnsgd1na2vs0mg"},{"bike_id":"a4c67dde-0cda-4b45-a3f9-a96f3aebcdb2","system_id":"levelo_inurba_marseille","lat":43.24523,"lon":5.41156,"is_reserved":false,"is_disabled":true,"rental_uris":{"android":"levelo://app?vid=a4c67dde-0cda-4b45-a3f9-a96f3aebcdb2","ios":"levelo://app?vid=a4c67dde-0cda-4b45-a3f9-a96f3aebcdb2"},"vehicle_type_id":"4","last_reported":1781528430,"current_range_meters":3200,"station_id":"","pricing_plan_id":"cebpf4jnsgd1na2vs0mg"},{"bike_id":"8fea25ca-fb48-4384-9778-a8089f84f9ac","system_id":"levelo_inurba_marseille","lat":43.29725,"lon":5.38047,"is_reserved":false,"is_disabled":false,"rental_uris":{"android":"levelo://app?vid=8fea25ca-fb48-4384-9778-a8089f84f9ac","ios":"levelo://app?vid=8fea25ca-fb48-4384-9778-a8089f84f9ac"},"vehicle_type_id":"4","last_reported":1781528430,"current_range_meters":3200,"station_id":"","pricing_plan_id":"cebpf4jnsgd1na2vs0mg"},{"bike_id":"79784559-9f7b-422b-bd1a-784e46b44f54","system_id":"levelo_inurba_marseille","lat":43.26235,"lon":5.38994,"is_reserved":false,"is_disabled":false,"rental_uris":{"android":"levelo://app?vid=79784559-9f7b-422b-bd1a-784e46b44f54","ios":"levelo://app?vid=79784559-9f7b-422b-bd1a-784e46b44f54"},"vehicle_type_id":"4","last_reported":1781528430,"current_range_meters":3200,"station_id":"","pricing_plan_id":"cebpf4jnsgd1na2vs0mg"},{"bike_id":"31a5c23d-40d4-417f-98b3-4241d25cf95b","system_id":"levelo_inurba_marseille","lat":43.33378,"lon":5.39315,"is_reserved":false,"is_disabled":false,"rental_uris":{"android":"levelo://app?vid=31a5c23d-40d4-417f-98b3-4241d25cf95b","ios":"levelo://app?vid=31a5c23d-40d4-417f-98b3-4241d25cf95b"},"vehicle_type_id":"4","last_reported":1781528430,"current_range_meters":3200,"station_id":"","pricing_plan_id":"cebpf4jnsgd1na2vs0mg"},{"bike_id":"e6eda01b-4746-4a1b-b8bd-bc2e29bf1778","system_id":"levelo_inurba_marseille","lat":43.2847,"lon":5.48401,"is_reserved":false,"is_disabled":false,"rental_uris":{"android":"levelo://app?vid=e6eda01b-4746-4a1b-b8bd-bc2e29bf1778","ios":"levelo://app?vid=e6eda01b-4746-4a1b-b8bd-bc2e29bf1778"},"vehicle_type_id":"4","last_reported":1781528430,"current_range_meters":3200,"station_id":"st_d3svhcjqgbts73a3dn0g","pricing_plan_id":"cebpf4jnsgd1na2vs0mg"},{"bike_id":"eb0c1c7f-47b8-4a10-8001-0064309e6c74","system_id":"levelo_inurba_marseille","lat":43.22535,"lon":5.34828,"is_reserved":false,"is_disabled":false,"rental_uris":{"android":"levelo://app?vid=eb0c1c7f-47b8-4a10-8001-0064309e6c74","ios":"levelo://app?vid=eb0c1c7f-47b8-4a10-8001-0064309e6c74"},"vehicle_type_id":"4","last_reported":1781528430,"current_range_meters":3200,"station_id":"st_cvj5dfep6f1abm77gieg","pricing_plan_id":"cebpf4jnsgd1na2vs0mg"},{"bike_id":"c01f6dec-89dd-472c-9d53-44f20e2f469d","system_id":"levelo_inurba_marseille","lat":43.28057,"lon":5.34789,"is_reserved":false,"is_disabled":false,"rental_uris":{"android":"levelo://app?vid=c01f6dec-89dd-472c-9d53-44f20e2f469d","ios":"levelo://app?vid=c01f6dec-89dd-472c-9d53-44f20e2f469d"},"vehicle_type_id":"4","last_reported":1781528430,"current_range_meters":3200,"station_id":"","pricing_plan_id":"cebpf4jnsgd1na2vs0mg"},{"bike_id":"8716f0e5-dc5e-4773-b9fb-ff42d0a1e556","system_id":"levelo_inurba_marseille","lat":43.22552,"lon":5.41644,"is_reserved":false,"is_disabled":false,"rental_uris":{"android":"levelo://app?vid=8716f0e5-dc5e-4773-b9fb-ff42d0a1e556","ios":"levelo://app?vid=8716f0e5-dc5e-4773-b9fb-ff42d0a1e556"},"vehicle_type_id":"4","last_reported":1781528430,"current_range_meters":3200,"station_id":"st_d2o4gvlbi1j2169b742g","pricing_plan_id":"cebpf4jnsgd1na2vs0mg"},{"bike_id":"66c1332a-404e-47de-9487-a9cc5a2c26d9","system_id":"levelo_inurba_marseille","lat":43.28614,"lon":5.35107,"is_reserved":false,"is_disabled":false,"rental_uris":{"android":"levelo://app?vid=66c1332a-404e-47de-9487-a9cc5a2c26d9","ios":"levelo://app?vid=66c1332a-404e-47de-9487-a9cc5a2c26d9"},"vehicle_type_id":"4","last_reported":1781528430,"current_range_meters":3200,"station_id":"ce4bhch2rcd13ifvqeug","pricing_plan_id":"cebpf4jnsgd1na2vs0mg"},{"bike_id":"cdcb8969-0072-4967-b055-315939c1179a","system_id":"levelo_inurba_marseille","lat":43.23788,"lon":5.36618,"is_reserved":false,"is_disabled":false,"rental_uris":{"android":"levelo://app?vid=cdcb8969-0072-4967-b055-315939c1179a","ios":"levelo://app?vid=cdcb8969-0072-4967-b055-315939c1179a"},"vehicle_type_id":"4","last_reported":1781528430,"current_range_meters":3600,"station_id":"st_d3nk18o9ro0c73en2l3g","pricing_plan_id":"cebpf4jnsgd1na2vs0mg"},{"bike_id":"45c9d776-496d-41b3-8780-e725e6bb5f5c","system_id":"levelo_inurba_marseille","lat":43.28291,"lon":5.35105,"is_reserved":false,"is_disabled":false,"rental_uris":{"android":"levelo://app?vid=45c9d776-496d-41b3-8780-e725e6bb5f5c","ios":"levelo://app?vid=45c9d776-496d-41b3-8780-e725e6bb5f5c"},"vehicle_type_id":"4","last_reported":1781528430,"current_range_meters":3600,"station_id":"ce4bhbp2rcd13ifvqerg","pricing_plan_id":"cebpf4jnsgd1na2vs0mg"},{"bike_id":"c05ef07b-aa69-4e91-aea6-b50d5a9f066c","system_id":"levelo_inurba_marseille","lat":43.30795,"lon":5.38145,"is_reserved":false,"is_disabled":false,"rental_uris":{"android":"levelo://app?vid=c05ef07b-aa69-4e91-aea6-b50d5a9f066c","ios":"levelo://app?vid=c05ef07b-aa69-4e91-aea6-b50d5a9f066c"},"vehicle_type_id":"4","last_reported":1781528430,"current_range_meters":3600,"station_id":"ce4bgt12rcd13ifvqce0","pricing_plan_id":"cebpf4jnsgd1na2vs0mg"},{"bike_id":"54410e0e-88fe-44cb-9cd3-c20ab067986a","system_id":"levelo_inurba_marseille","lat":43.28241,"lon":5.34849,"is_reserved":false,"is_disabled":false,"rental_uris":{"android":"levelo://app?vid=54410e0e-88fe-44cb-9cd3-c20ab067986a","ios":"levelo://app?vid=54410e0e-88fe-44cb-9cd3-c20ab067986a"},"vehicle_type_id":"4","last_reported":1781528430,"current_range_meters":3600,"station_id":"","pricing_plan_id":"cebpf4jnsgd1na2vs0mg"},{"bike_id":"64d1def8-2a5b-48eb-8ec4-f02e72a31395","system_id":"levelo_inurba_marseille","lat":43.28673,"lon":5.46666,"is_reserved":false,"is_disabled":false,"rental_uris":{"android":"levelo://app?vid=64d1def8-2a5b-48eb-8ec4-f02e72a31395","ios":"levelo://app?vid=64d1def8-2a5b-48eb-8ec4-f02e72a31395"},"vehicle_type_id":"4","last_reported":1781528430,"current_range_meters":3600,"station_id":"st_d6tc3vkotcvc738tfjhg","pricing_plan_id":"cebpf4jnsgd1na2vs0mg"},{"bike_id":"f30add76-2196-4464-9e0c-25db66bf5665","system_id":"levelo_inurba_marseille","lat":43.27384,"lon":5.36261,"is_reserved":false,"is_disabled":false,"rental_uris":{"android":"levelo://app?vid=f30add76-2196-4464-9e0c-25db66bf5665","ios":"levelo://app?vid=f30add76-2196-4464-9e0c-25db66bf5665"},"vehicle_type_id":"4","last_reported":1781528430,"current_range_meters":3600,"station_id":"ce4bhbh2rcd13ifvqeo0","pricing_plan_id":"cebpf4jnsgd1na2vs0mg"},{"bike_id":"5e28ac20-e09b-4d66-b728-523877a48875","system_id":"levelo_inurba_marseille","lat":43.25855,"lon":5.39881,"is_reserved":false,"is_disabled":false,"rental_uris":{"android":"levelo://app?vid=5e28ac20-e09b-4d66-b728-523877a48875","ios":"levelo://app?vid=5e28ac20-e09b-4d66-b728-523877a48875"},"vehicle_type_id":"4","last_reported":1781528430,"current_range_meters":3600,"station_id":"ce4bhl92rcd13ifvqghg","pricing_plan_id":"cebpf4jnsgd1na2vs0mg"},{"bike_id":"7e410c08-7ac0-427f-bb7b-18ca93f503e7","system_id":"levelo_inurba_marseille","lat":43.21743,"lon":5.34607,"is_reserved":false,"is_disabled":false,"rental_uris":{"android":"levelo://app?vid=7e410c08-7ac0-427f-bb7b-18ca93f503e7","ios":"levelo://app?vid=7e410c08-7ac0-427f-bb7b-18ca93f503e7"},"vehicle_type_id":"4","last_reported":1781528430,"current_range_meters":3600,"station_id":"st_cvj6r9ubvosntc0bgbag","pricing_plan_id":"cebpf4jnsgd1na2vs0mg"},{"bike_id":"c5c7c7c9-8875-40ea-aed0-2fedafcdab44","system_id":"levelo_inurba_marseille","lat":43.31197,"lon":5.369,"is_reserved":false,"is_disabled":false,"rental_uris":{"android":"levelo://app?vid=c5c7c7c9-8875-40ea-aed0-2fedafcdab44","ios":"levelo://app?vid=c5c7c7c9-8875-40ea-aed0-2fedafcdab44"},"vehicle_type_id":"4","last_reported":1781528430,"current_range_meters":3600,"station_id":"ce4bgl92rcd13ifvqbq0","pricing_plan_id":"cebpf4jnsgd1na2vs0mg"},{"bike_id":"0176cc34-06a6-4a30-a902-77ef92e387c1","system_id":"levelo_inurba_marseille","lat":43.28462,"lon":5.358875,"is_reserved":false,"is_disabled":false,"rental_uris":{"android":"levelo://app?vid=0176cc34-06a6-4a30-a902-77ef92e387c1","ios":"levelo://app?vid=0176cc34-06a6-4a30-a902-77ef92e387c1"},"vehicle_type_id":"4","last_reported":1781528430,"current_range_meters":3600,"station_id":"ce4bhah2rcd13ifvqei0","pricing_plan_id":"cebpf4jnsgd1na2vs0mg"},{"bike_id":"261f09ba-9b6a-4fea-8aef-dff94f408488","system_id":"levelo_inurba_marseille","lat":43.24732,"lon":5.393,"is_reserved":false,"is_disabled":false,"rental_uris":{"android":"levelo://app?vid=261f09ba-9b6a-4fea-8aef-dff94f408488","ios":"levelo://app?vid=261f09ba-9b6a-4fea-8aef-dff94f408488"},"vehicle_type_id":"4","last_reported":1781528430,"current_range_meters":3600,"station_id":"","pricing_plan_id":"cebpf4jnsgd1na2vs0mg"},{"bike_id":"bc9bb278-9a3f-444c-9ee4-086e46a06286","system_id":"levelo_inurba_marseille","lat":43.22273,"lon":5.4049,"is_reserved":false,"is_disabled":false,"rental_uris":{"android":"levelo://app?vid=bc9bb278-9a3f-444c-9ee4-086e46a06286","ios":"levelo://app?vid=bc9bb278-9a3f-444c-9ee4-086e46a06286"},"vehicle_type_id":"4","last_reported":1781528430,"current_range_meters":3600,"station_id":"","pricing_plan_id":"cebpf4jnsgd1na2vs0mg"},{"bike_id":"8a01116d-ff03-4c95-9fb6-ae1544ed03d6","system_id":"levelo_inurba_marseille","lat":43.2747,"lon":5.43949,"is_reserved":false,"is_disabled":false,"rental_uris":{"android":"levelo://app?vid=8a01116d-ff03-4c95-9fb6-ae1544ed03d6","ios":"levelo://app?vid=8a01116d-ff03-4c95-9fb6-ae1544ed03d6"},"vehicle_type_id":"4","last_reported":1781528430,"current_range_meters":3600,"station_id":"","pricing_plan_id":"cebpf4jnsgd1na2vs0mg"},{"bike_id":"a0967682-704e-4097-9142-482a1f2d36c9","system_id":"levelo_inurba_marseille","lat":43.27176,"lon":5.40997,"is_reserved":false,"is_disabled":true,"rental_uris":{"android":"levelo://app?vid=a0967682-704e-4097-9142-482a1f2d36c9","ios":"levelo://app?vid=a0967682-704e-4097-9142-482a1f2d36c9"},"vehicle_type_id":"4","last_reported":1781528430,"current_range_meters":3600,"station_id":"ce4bhl12rcd13ifvqgf0","pricing_plan_id":"cebpf4jnsgd1na2vs0mg"},{"bike_id":"20b49a50-ff99-457f-bb4e-80463605c7d0","system_id":"levelo_inurba_marseille","lat":43.26953,"lon":5.38631,"is_reserved":false,"is_disabled":false,"rental_uris":{"android":"levelo://app?vid=20b49a50-ff99-457f-bb4e-80463605c7d0","ios":"levelo://app?vid=20b49a50-ff99-457f-bb4e-80463605c7d0"},"vehicle_type_id":"4","last_reported":1781528430,"current_range_meters":4000,"station_id":"ce4bhh92rcd13ifvqfh0","pricing_plan_id":"cebpf4jnsgd1na2vs0mg"},{"bike_id":"3a178be9-377a-4a25-b16e-746e76e3b7b2","system_id":"levelo_inurba_marseille","lat":43.2623,"lon":5.38861,"is_reserved":false,"is_disabled":false,"rental_uris":{"android":"levelo://app?vid=3a178be9-377a-4a25-b16e-746e76e3b7b2","ios":"levelo://app?vid=3a178be9-377a-4a25-b16e-746e76e3b7b2"},"vehicle_type_id":"4","last_reported":1781528430,"current_range_meters":4000,"station_id":"","pricing_plan_id":"cebpf4jnsgd1na2vs0mg"},{"bike_id":"7142d5c8-5d9a-4262-9275-62a797fe665f","system_id":"levelo_inurba_marseille","lat":43.26983,"lon":5.39281,"is_reserved":false,"is_disabled":false,"rental_uris":{"android":"levelo://app?vid=7142d5c8-5d9a-4262-9275-62a797fe665f","ios":"levelo://app?vid=7142d5c8-5d9a-4262-9275-62a797fe665f"},"vehicle_type_id":"4","last_reported":1781528430,"current_range_meters":4000,"station_id":"","pricing_plan_id":"cebpf4jnsgd1na2vs0mg"},{"bike_id":"520e7007-685d-436d-8d38-db025ae27a9c","system_id":"levelo_inurba_marseille","lat":43.33738,"lon":5.39188,"is_reserved":false,"is_disabled":false,"rental_uris":{"android":"levelo://app?vid=520e7007-685d-436d-8d38-db025ae27a9c","ios":"levelo://app?vid=520e7007-685d-436d-8d38-db025ae27a9c"},"vehicle_type_id":"4","last_reported":1781528430,"current_range_meters":4000,"station_id":"ce4bhr92rcd13ifvqhsg","pricing_plan_id":"cebpf4jnsgd1na2vs0mg"},{"bike_id":"6a7d6dc0-849a-4964-aebb-863a5b36d79a","system_id":"levelo_inurba_marseille","lat":43.321024,"lon":5.367575,"is_reserved":false,"is_disabled":false,"rental_uris":{"android":"levelo://app?vid=6a7d6dc0-849a-4964-aebb-863a5b36d79a","ios":"levelo://app?vid=6a7d6dc0-849a-4964-aebb-863a5b36d79a"},"vehicle_type_id":"4","last_reported":1781528430,"current_range_meters":4000,"station_id":"ce4bhrh2rcd13ifvqhug","pricing_plan_id":"cebpf4jnsgd1na2vs0mg"},{"bike_id":"65d9dd6a-f996-46b8-ace0-77611327209b","system_id":"levelo_inurba_marseille","lat":43.22538,"lon":5.34831,"is_reserved":false,"is_disabled":false,"rental_uris":{"android":"levelo://app?vid=65d9dd6a-f996-46b8-ace0-77611327209b","ios":"levelo://app?vid=65d9dd6a-f996-46b8-ace0-77611327209b"},"vehicle_type_id":"4","last_reported":1781528430,"current_range_meters":4000,"station_id":"st_cvj5dfep6f1abm77gieg","pricing_plan_id":"cebpf4jnsgd1na2vs0mg"},{"bike_id":"8b3ccc27-371e-4897-b5d7-7688acb22644","system_id":"levelo_inurba_marseille","lat":43.25338,"lon":5.42172,"is_reserved":false,"is_disabled":true,"rental_uris":{"android":"levelo://app?vid=8b3ccc27-371e-4897-b5d7-7688acb22644","ios":"levelo://app?vid=8b3ccc27-371e-4897-b5d7-7688acb22644"},"vehicle_type_id":"4","last_reported":1781528430,"current_range_meters":4000,"station_id":"st_d2m65c5bi1j21697t3ng","pricing_plan_id":"cebpf4jnsgd1na2vs0mg"},{"bike_id":"04eac50f-fa0b-4e24-8f0f-a7dd6b34ef9e","system_id":"levelo_inurba_marseille","lat":43.25085,"lon":5.39509,"is_reserved":false,"is_disabled":false,"rental_uris":{"android":"levelo://app?vid=04eac50f-fa0b-4e24-8f0f-a7dd6b34ef9e","ios":"levelo://app?vid=04eac50f-fa0b-4e24-8f0f-a7dd6b34ef9e"},"vehicle_type_id":"4","last_reported":1781528430,"current_range_meters":4000,"station_id":"ce4bhm12rcd13ifvqgkg","pricing_plan_id":"cebpf4jnsgd1na2vs0mg"},{"bike_id":"0ec4a162-2f0e-4927-b72d-c5a9a87d0a44","system_id":"levelo_inurba_marseille","lat":43.29266,"lon":5.3685,"is_reserved":false,"is_disabled":false,"rental_uris":{"android":"levelo://app?vid=0ec4a162-2f0e-4927-b72d-c5a9a87d0a44","ios":"levelo://app?vid=0ec4a162-2f0e-4927-b72d-c5a9a87d0a44"},"vehicle_type_id":"4","last_reported":1781528430,"current_range_meters":4000,"station_id":"ce4bhbp2rcd13ifvqesg","pricing_plan_id":"cebpf4jnsgd1na2vs0mg"},{"bike_id":"29d24c14-4210-41d6-8f11-e1e7bb655652","system_id":"levelo_inurba_marseille","lat":43.26682,"lon":5.38275,"is_reserved":false,"is_disabled":true,"rental_uris":{"android":"levelo://app?vid=29d24c14-4210-41d6-8f11-e1e7bb655652","ios":"levelo://app?vid=29d24c14-4210-41d6-8f11-e1e7bb655652"},"vehicle_type_id":"4","last_reported":1781528430,"current_range_meters":4000,"station_id":"ce4bhg92rcd13ifvqf90","pricing_plan_id":"cebpf4jnsgd1na2vs0mg"},{"bike_id":"6890820c-5514-4bfa-8871-bf212de15d88","system_id":"levelo_inurba_marseille","lat":43.28263,"lon":5.35075,"is_reserved":false,"is_disabled":false,"rental_uris":{"android":"levelo://app?vid=6890820c-5514-4bfa-8871-bf212de15d88","ios":"levelo://app?vid=6890820c-5514-4bfa-8871-bf212de15d88"},"vehicle_type_id":"4","last_reported":1781528430,"current_range_meters":4000,"station_id":"ce4bhbp2rcd13ifvqerg","pricing_plan_id":"cebpf4jnsgd1na2vs0mg"},{"bike_id":"0386b519-34c5-47b6-a794-8642622c7113","system_id":"levelo_inurba_marseille","lat":43.28403,"lon":5.34992,"is_reserved":false,"is_disabled":false,"rental_uris":{"android":"levelo://app?vid=0386b519-34c5-47b6-a794-8642622c7113","ios":"levelo://app?vid=0386b519-34c5-47b6-a794-8642622c7113"},"vehicle_type_id":"4","last_reported":1781528430,"current_range_meters":4000,"station_id":"ce4bhbh2rcd13ifvqepg","pricing_plan_id":"cebpf4jnsgd1na2vs0mg"},{"bike_id":"59bc3817-c8b6-433b-bfbb-a735514030fe","system_id":"levelo_inurba_marseille","lat":43.29926,"lon":5.37476,"is_reserved":false,"is_disabled":false,"rental_uris":{"android":"levelo://app?vid=59bc3817-c8b6-433b-bfbb-a735514030fe","ios":"levelo://app?vid=59bc3817-c8b6-433b-bfbb-a735514030fe"},"vehicle_type_id":"4","last_reported":1781528430,"current_range_meters":4000,"station_id":"ce4bgjh2rcd13ifvqbg0","pricing_plan_id":"cebpf4jnsgd1na2vs0mg"},{"bike_id":"7b07d44f-4326-4e9c-9494-645ee0cc4e53","system_id":"levelo_inurba_marseille","lat":43.24475,"lon":5.42577,"is_reserved":false,"is_disabled":false,"rental_uris":{"android":"levelo://app?vid=7b07d44f-4326-4e9c-9494-645ee0cc4e53","ios":"levelo://app?vid=7b07d44f-4326-4e9c-9494-645ee0cc4e53"},"vehicle_type_id":"4","last_reported":1781528430,"current_range_meters":4000,"station_id":"st_d4a3vfp97mjs738cd8kg","pricing_plan_id":"cebpf4jnsgd1na2vs0mg"},{"bike_id":"fcf4d312-9968-4443-82f2-b045268fd358","system_id":"levelo_inurba_marseille","lat":43.29927,"lon":5.40985,"is_reserved":false,"is_disabled":false,"rental_uris":{"android":"levelo://app?vid=fcf4d312-9968-4443-82f2-b045268fd358","ios":"levelo://app?vid=fcf4d312-9968-4443-82f2-b045268fd358"},"vehicle_type_id":"4","last_reported":1781528430,"current_range_meters":4000,"station_id":"","pricing_plan_id":"cebpf4jnsgd1na2vs0mg"},{"bike_id":"03ed8b7e-6ec2-427b-b2db-ccf6d113a779","system_id":"levelo_inurba_marseille","lat":43.253377,"lon":5.421821,"is_reserved":false,"is_disabled":false,"rental_uris":{"android":"levelo://app?vid=03ed8b7e-6ec2-427b-b2db-ccf6d113a779","ios":"levelo://app?vid=03ed8b7e-6ec2-427b-b2db-ccf6d113a779"},"vehicle_type_id":"4","last_reported":1781528430,"current_range_meters":4000,"station_id":"st_d2m65c5bi1j21697t3ng","pricing_plan_id":"cebpf4jnsgd1na2vs0mg"},{"bike_id":"4080d9cf-0683-4f94-8bcb-44021a814d98","system_id":"levelo_inurba_marseille","lat":43.31051,"lon":5.37166,"is_reserved":false,"is_disabled":false,"rental_uris":{"android":"levelo://app?vid=4080d9cf-0683-4f94-8bcb-44021a814d98","ios":"levelo://app?vid=4080d9cf-0683-4f94-8bcb-44021a814d98"},"vehicle_type_id":"4","last_reported":1781528430,"current_range_meters":4400,"station_id":"st_d4kl2rp97mjs73e7tdfg","pricing_plan_id":"cebpf4jnsgd1na2vs0mg"},{"bike_id":"83da615f-1562-4a35-a0af-fd9fc9c800b5","system_id":"levelo_inurba_marseille","lat":43.29985,"lon":5.37569,"is_reserved":false,"is_disabled":false,"rental_uris":{"android":"levelo://app?vid=83da615f-1562-4a35-a0af-fd9fc9c800b5","ios":"levelo://app?vid=83da615f-1562-4a35-a0af-fd9fc9c800b5"},"vehicle_type_id":"4","last_reported":1781528430,"current_range_meters":4400,"station_id":"","pricing_plan_id":"cebpf4jnsgd1na2vs0mg"},{"bike_id":"a7ea5fc1-d7ea-492f-b5e6-b66a7c7151fd","system_id":"levelo_inurba_marseille","lat":43.28273,"lon":5.35077,"is_reserved":false,"is_disabled":false,"rental_uris":{"android":"levelo://app?vid=a7ea5fc1-d7ea-492f-b5e6-b66a7c7151fd","ios":"levelo://app?vid=a7ea5fc1-d7ea-492f-b5e6-b66a7c7151fd"},"vehicle_type_id":"4","last_reported":1781528430,"current_range_meters":4400,"station_id":"ce4bhbp2rcd13ifvqerg","pricing_plan_id":"cebpf4jnsgd1na2vs0mg"},{"bike_id":"a7b2be37-8ae6-4b17-a7d0-f8b3e6e250c6","system_id":"levelo_inurba_marseille","lat":43.29311,"lon":5.37005,"is_reserved":false,"is_disabled":false,"rental_uris":{"android":"levelo://app?vid=a7b2be37-8ae6-4b17-a7d0-f8b3e6e250c6","ios":"levelo://app?vid=a7b2be37-8ae6-4b17-a7d0-f8b3e6e250c6"},"vehicle_type_id":"4","last_reported":1781528430,"current_range_meters":4400,"station_id":"","pricing_plan_id":"cebpf4jnsgd1na2vs0mg"},{"bike_id":"e16e8528-382e-47ec-8569-6b7649be6c61","system_id":"levelo_inurba_marseille","lat":43.24167,"lon":5.36396,"is_reserved":false,"is_disabled":false,"rental_uris":{"android":"levelo://app?vid=e16e8528-382e-47ec-8569-6b7649be6c61","ios":"levelo://app?vid=e16e8528-382e-47ec-8569-6b7649be6c61"},"vehicle_type_id":"4","last_reported":1781528430,"current_range_meters":4400,"station_id":"cpo36qri1sfpv3e86is0","pricing_plan_id":"cebpf4jnsgd1na2vs0mg"},{"bike_id":"22f2822c-33af-44b1-8c02-b2765a8f4057","system_id":"levelo_inurba_marseille","lat":43.254949,"lon":5.376397,"is_reserved":false,"is_disabled":false,"rental_uris":{"android":"levelo://app?vid=22f2822c-33af-44b1-8c02-b2765a8f4057","ios":"levelo://app?vid=22f2822c-33af-44b1-8c02-b2765a8f4057"},"vehicle_type_id":"4","last_reported":1781528430,"current_range_meters":4400,"station_id":"ce4bhh12rcd13ifvqff0","pricing_plan_id":"cebpf4jnsgd1na2vs0mg"},{"bike_id":"33025414-c4ab-47a9-8aa5-6f842cf88a8c","system_id":"levelo_inurba_marseille","lat":43.23172,"lon":5.40489,"is_reserved":false,"is_disabled":false,"rental_uris":{"android":"levelo://app?vid=33025414-c4ab-47a9-8aa5-6f842cf88a8c","ios":"levelo://app?vid=33025414-c4ab-47a9-8aa5-6f842cf88a8c"},"vehicle_type_id":"4","last_reported":1781528430,"current_range_meters":4400,"station_id":"","pricing_plan_id":"cebpf4jnsgd1na2vs0mg"},{"bike_id":"106f0fdb-a564-4efc-ac17-872f8836227c","system_id":"levelo_inurba_marseille","lat":43.2606,"lon":5.39389,"is_reserved":false,"is_disabled":false,"rental_uris":{"android":"levelo://app?vid=106f0fdb-a564-4efc-ac17-872f8836227c","ios":"levelo://app?vid=106f0fdb-a564-4efc-ac17-872f8836227c"},"vehicle_type_id":"4","last_reported":1781528430,"current_range_meters":4800,"station_id":"ce4bhh92rcd13ifvqfj0","pricing_plan_id":"cebpf4jnsgd1na2vs0mg"},{"bike_id":"bb2b8605-01de-4068-976a-c32a5cbafae1","system_id":"levelo_inurba_marseille","lat":43.28505,"lon":5.48411,"is_reserved":false,"is_disabled":false,"rental_uris":{"android":"levelo://app?vid=bb2b8605-01de-4068-976a-c32a5cbafae1","ios":"levelo://app?vid=bb2b8605-01de-4068-976a-c32a5cbafae1"},"vehicle_type_id":"4","last_reported":1781528430,"current_range_meters":4800,"station_id":"st_d3svhcjqgbts73a3dn0g","pricing_plan_id":"cebpf4jnsgd1na2vs0mg"},{"bike_id":"7947b07c-4324-464c-9788-fa25277c430b","system_id":"levelo_inurba_marseille","lat":43.28614,"lon":5.35074,"is_reserved":false,"is_disabled":false,"rental_uris":{"android":"levelo://app?vid=7947b07c-4324-464c-9788-fa25277c430b","ios":"levelo://app?vid=7947b07c-4324-464c-9788-fa25277c430b"},"vehicle_type_id":"4","last_reported":1781528430,"current_range_meters":4800,"station_id":"","pricing_plan_id":"cebpf4jnsgd1na2vs0mg"},{"bike_id":"55364ed2-ff93-4ed0-9734-eaec60c2c3ee","system_id":"levelo_inurba_marseille","lat":43.26196,"lon":5.37418,"is_reserved":false,"is_disabled":false,"rental_uris":{"android":"levelo://app?vid=55364ed2-ff93-4ed0-9734-eaec60c2c3ee","ios":"levelo://app?vid=55364ed2-ff93-4ed0-9734-eaec60c2c3ee"},"vehicle_type_id":"4","last_reported":1781528430,"current_range_meters":4800,"station_id":"ce4bhgp2rcd13ifvqfc0","pricing_plan_id":"cebpf4jnsgd1na2vs0mg"},{"bike_id":"3f79f6bd-6890-498c-9016-7fee5e242811","system_id":"levelo_inurba_marseille","lat":43.23193,"lon":5.35546,"is_reserved":false,"is_disabled":false,"rental_uris":{"android":"levelo://app?vid=3f79f6bd-6890-498c-9016-7fee5e242811","ios":"levelo://app?vid=3f79f6bd-6890-498c-9016-7fee5e242811"},"vehicle_type_id":"4","last_reported":1781528430,"current_range_meters":4800,"station_id":"ce4bhu92rcd13ifvqi70","pricing_plan_id":"cebpf4jnsgd1na2vs0mg"},{"bike_id":"21adc2d5-b0f2-4a40-bb03-cf3eb484e314","system_id":"levelo_inurba_marseille","lat":43.32477,"lon":5.36568,"is_reserved":false,"is_disabled":false,"rental_uris":{"android":"levelo://app?vid=21adc2d5-b0f2-4a40-bb03-cf3eb484e314","ios":"levelo://app?vid=21adc2d5-b0f2-4a40-bb03-cf3eb484e314"},"vehicle_type_id":"4","last_reported":1781528430,"current_range_meters":4800,"station_id":"ce4bhs12rcd13ifvqhvg","pricing_plan_id":"cebpf4jnsgd1na2vs0mg"},{"bike_id":"f2a69cd0-c2ec-4d89-9634-2ed9908cb596","system_id":"levelo_inurba_marseille","lat":43.29613,"lon":5.39076,"is_reserved":false,"is_disabled":false,"rental_uris":{"android":"levelo://app?vid=f2a69cd0-c2ec-4d89-9634-2ed9908cb596","ios":"levelo://app?vid=f2a69cd0-c2ec-4d89-9634-2ed9908cb596"},"vehicle_type_id":"4","last_reported":1781528430,"current_range_meters":4800,"station_id":"","pricing_plan_id":"cebpf4jnsgd1na2vs0mg"},{"bike_id":"6d82eb1a-b9da-41a5-b270-3b676a5af25f","system_id":"levelo_inurba_marseille","lat":43.28256,"lon":5.35088,"is_reserved":false,"is_disabled":false,"rental_uris":{"android":"levelo://app?vid=6d82eb1a-b9da-41a5-b270-3b676a5af25f","ios":"levelo://app?vid=6d82eb1a-b9da-41a5-b270-3b676a5af25f"},"vehicle_type_id":"4","last_reported":1781528430,"current_range_meters":4800,"station_id":"ce4bhbp2rcd13ifvqerg","pricing_plan_id":"cebpf4jnsgd1na2vs0mg"},{"bike_id":"4056262d-7466-479c-917b-03024a192833","system_id":"levelo_inurba_marseille","lat":43.301464,"lon":5.38065,"is_reserved":false,"is_disabled":false,"rental_uris":{"android":"levelo://app?vid=4056262d-7466-479c-917b-03024a192833","ios":"levelo://app?vid=4056262d-7466-479c-917b-03024a192833"},"vehicle_type_id":"4","last_reported":1781528430,"current_range_meters":4800,"station_id":"ce4bgjp2rcd13ifvqbh0","pricing_plan_id":"cebpf4jnsgd1na2vs0mg"},{"bike_id":"a04fcf34-c29d-4e73-8f0f-34af65586646","system_id":"levelo_inurba_marseille","lat":43.29907,"lon":5.38183,"is_reserved":false,"is_disabled":false,"rental_uris":{"android":"levelo://app?vid=a04fcf34-c29d-4e73-8f0f-34af65586646","ios":"levelo://app?vid=a04fcf34-c29d-4e73-8f0f-34af65586646"},"vehicle_type_id":"4","last_reported":1781528430,"current_range_meters":4800,"station_id":"ce4bgj12rcd13ifvqbc0","pricing_plan_id":"cebpf4jnsgd1na2vs0mg"},{"bike_id":"617b4109-ac17-4aab-aa21-1961a3d15ef8","system_id":"levelo_inurba_marseille","lat":43.29718,"lon":5.36622,"is_reserved":false,"is_disabled":true,"rental_uris":{"android":"levelo://app?vid=617b4109-ac17-4aab-aa21-1961a3d15ef8","ios":"levelo://app?vid=617b4109-ac17-4aab-aa21-1961a3d15ef8"},"vehicle_type_id":"4","last_reported":1781528430,"current_range_meters":4800,"station_id":"ce4bgn12rcd13ifvqbt0","pricing_plan_id":"cebpf4jnsgd1na2vs0mg"},{"bike_id":"f273c05d-0186-47df-9ee6-9b92fd8fa8ce","system_id":"levelo_inurba_marseille","lat":43.286085,"lon":5.398848,"is_reserved":false,"is_disabled":false,"rental_uris":{"android":"levelo://app?vid=f273c05d-0186-47df-9ee6-9b92fd8fa8ce","ios":"levelo://app?vid=f273c05d-0186-47df-9ee6-9b92fd8fa8ce"},"vehicle_type_id":"4","last_reported":1781528430,"current_range_meters":4800,"station_id":"ce4bho92rcd13ifvqh3g","pricing_plan_id":"cebpf4jnsgd1na2vs0mg"},{"bike_id":"423f6182-a443-4c34-a818-81a8277ac3c4","system_id":"levelo_inurba_marseille","lat":43.2253,"lon":5.34838,"is_reserved":false,"is_disabled":false,"rental_uris":{"android":"levelo://app?vid=423f6182-a443-4c34-a818-81a8277ac3c4","ios":"levelo://app?vid=423f6182-a443-4c34-a818-81a8277ac3c4"},"vehicle_type_id":"4","last_reported":1781528430,"current_range_meters":4800,"station_id":"st_cvj5dfep6f1abm77gieg","pricing_plan_id":"cebpf4jnsgd1na2vs0mg"},{"bike_id":"182d1bf5-086e-469e-a37a-df64c4d0603f","system_id":"levelo_inurba_marseille","lat":43.31484,"lon":5.38581,"is_reserved":false,"is_disabled":false,"rental_uris":{"android":"levelo://app?vid=182d1bf5-086e-469e-a37a-df64c4d0603f","ios":"levelo://app?vid=182d1bf5-086e-469e-a37a-df64c4d0603f"},"vehicle_type_id":"4","last_reported":1781528430,"current_range_meters":5600,"station_id":"","pricing_plan_id":"cebpf4jnsgd1na2vs0mg"},{"bike_id":"28df32e4-81dd-4edd-976c-9edb80e3012f","system_id":"levelo_inurba_marseille","lat":43.24167,"lon":5.36401,"is_reserved":false,"is_disabled":false,"rental_uris":{"android":"levelo://app?vid=28df32e4-81dd-4edd-976c-9edb80e3012f","ios":"levelo://app?vid=28df32e4-81dd-4edd-976c-9edb80e3012f"},"vehicle_type_id":"4","last_reported":1781528430,"current_range_meters":5600,"station_id":"cpo36qri1sfpv3e86is0","pricing_plan_id":"cebpf4jnsgd1na2vs0mg"},{"bike_id":"136e1bc7-203c-4dc9-a9d1-84b538e9c802","system_id":"levelo_inurba_marseille","lat":43.28253,"lon":5.35075,"is_reserved":false,"is_disabled":false,"rental_uris":{"android":"levelo://app?vid=136e1bc7-203c-4dc9-a9d1-84b538e9c802","ios":"levelo://app?vid=136e1bc7-203c-4dc9-a9d1-84b538e9c802"},"vehicle_type_id":"4","last_reported":1781528430,"current_range_meters":5600,"station_id":"ce4bhbp2rcd13ifvqerg","pricing_plan_id":"cebpf4jnsgd1na2vs0mg"},{"bike_id":"d02e5f84-94fe-4c7a-901b-47c3f5f28fe9","system_id":"levelo_inurba_marseille","lat":43.31913,"lon":5.36855,"is_reserved":false,"is_disabled":false,"rental_uris":{"android":"levelo://app?vid=d02e5f84-94fe-4c7a-901b-47c3f5f28fe9","ios":"levelo://app?vid=d02e5f84-94fe-4c7a-901b-47c3f5f28fe9"},"vehicle_type_id":"4","last_reported":1781528430,"current_range_meters":5600,"station_id":"st_d6o2h0d0559c73evc1b0","pricing_plan_id":"cebpf4jnsgd1na2vs0mg"},{"bike_id":"e48e42a5-6947-4d8f-ab0b-88e040eceb3d","system_id":"levelo_inurba_marseille","lat":43.29911,"lon":5.36498,"is_reserved":false,"is_disabled":false,"rental_uris":{"android":"levelo://app?vid=e48e42a5-6947-4d8f-ab0b-88e040eceb3d","ios":"levelo://app?vid=e48e42a5-6947-4d8f-ab0b-88e040eceb3d"},"vehicle_type_id":"4","last_reported":1781528430,"current_range_meters":5600,"station_id":"ce4bgm92rcd13ifvqbr0","pricing_plan_id":"cebpf4jnsgd1na2vs0mg"},{"bike_id":"c1b158b5-fdc9-4eb0-8418-c97cbe8616d7","system_id":"levelo_inurba_marseille","lat":43.3144,"lon":5.3739,"is_reserved":false,"is_disabled":false,"rental_uris":{"android":"levelo://app?vid=c1b158b5-fdc9-4eb0-8418-c97cbe8616d7","ios":"levelo://app?vid=c1b158b5-fdc9-4eb0-8418-c97cbe8616d7"},"vehicle_type_id":"4","last_reported":1781528430,"current_range_meters":5600,"station_id":"","pricing_plan_id":"cebpf4jnsgd1na2vs0mg"},{"bike_id":"16eff849-602a-4847-9edd-579240b08c01","system_id":"levelo_inurba_marseille","lat":43.25006,"lon":5.38937,"is_reserved":false,"is_disabled":false,"rental_uris":{"android":"levelo://app?vid=16eff849-602a-4847-9edd-579240b08c01","ios":"levelo://app?vid=16eff849-602a-4847-9edd-579240b08c01"},"vehicle_type_id":"4","last_reported":1781528430,"current_range_meters":5600,"station_id":"ce4bhgp2rcd13ifvqfd0","pricing_plan_id":"cebpf4jnsgd1na2vs0mg"},{"bike_id":"73708b21-a9f4-452b-a9e7-fd288d63f1e4","system_id":"levelo_inurba_marseille","lat":43.26218,"lon":5.38768,"is_reserved":false,"is_disabled":false,"rental_uris":{"android":"levelo://app?vid=73708b21-a9f4-452b-a9e7-fd288d63f1e4","ios":"levelo://app?vid=73708b21-a9f4-452b-a9e7-fd288d63f1e4"},"vehicle_type_id":"4","last_reported":1781528430,"current_range_meters":5600,"station_id":"st_d8gjfg747rts73coq3b0","pricing_plan_id":"cebpf4jnsgd1na2vs0mg"},{"bike_id":"cd3c32d8-c396-4750-af84-f7673f6b6e95","system_id":"levelo_inurba_marseille","lat":43.303128,"lon":5.369038,"is_reserved":false,"is_disabled":true,"rental_uris":{"android":"levelo://app?vid=cd3c32d8-c396-4750-af84-f7673f6b6e95","ios":"levelo://app?vid=cd3c32d8-c396-4750-af84-f7673f6b6e95"},"vehicle_type_id":"4","last_reported":1781528430,"current_range_meters":5600,"station_id":"ce4bhgh2rcd13ifvqfb0","pricing_plan_id":"cebpf4jnsgd1na2vs0mg"},{"bike_id":"16f8a068-9d81-4610-8913-ca06f017e658","system_id":"levelo_inurba_marseille","lat":43.30897,"lon":5.37187,"is_reserved":false,"is_disabled":false,"rental_uris":{"android":"levelo://app?vid=16f8a068-9d81-4610-8913-ca06f017e658","ios":"levelo://app?vid=16f8a068-9d81-4610-8913-ca06f017e658"},"vehicle_type_id":"4","last_reported":1781528430,"current_range_meters":5600,"station_id":"ce4bguh2rcd13ifvqckg","pricing_plan_id":"cebpf4jnsgd1na2vs0mg"},{"bike_id":"daef7b72-f42d-4414-915e-cb21086dd2e4","system_id":"levelo_inurba_marseille","lat":43.26789,"lon":5.39425,"is_reserved":false,"is_disabled":false,"rental_uris":{"android":"levelo://app?vid=daef7b72-f42d-4414-915e-cb21086dd2e4","ios":"levelo://app?vid=daef7b72-f42d-4414-915e-cb21086dd2e4"},"vehicle_type_id":"4","last_reported":1781528430,"current_range_meters":5600,"station_id":"ce4bhh12rcd13ifvqfg0","pricing_plan_id":"cebpf4jnsgd1na2vs0mg"},{"bike_id":"b9a631f6-31d5-4d27-bafd-e878670d1674","system_id":"levelo_inurba_marseille","lat":43.24164,"lon":5.36443,"is_reserved":false,"is_disabled":false,"rental_uris":{"android":"levelo://app?vid=b9a631f6-31d5-4d27-bafd-e878670d1674","ios":"levelo://app?vid=b9a631f6-31d5-4d27-bafd-e878670d1674"},"vehicle_type_id":"4","last_reported":1781528430,"current_range_meters":5600,"station_id":"cpo36qri1sfpv3e86is0","pricing_plan_id":"cebpf4jnsgd1na2vs0mg"},{"bike_id":"9dd4f3a8-39d5-43f7-9f51-1797629b3584","system_id":"levelo_inurba_marseille","lat":43.22537,"lon":5.34835,"is_reserved":false,"is_disabled":false,"rental_uris":{"android":"levelo://app?vid=9dd4f3a8-39d5-43f7-9f51-1797629b3584","ios":"levelo://app?vid=9dd4f3a8-39d5-43f7-9f51-1797629b3584"},"vehicle_type_id":"4","last_reported":1781528430,"current_range_meters":5600,"station_id":"st_cvj5dfep6f1abm77gieg","pricing_plan_id":"cebpf4jnsgd1na2vs0mg"},{"bike_id":"25692fdd-8735-4ac1-befa-97e9aba2ff71","system_id":"levelo_inurba_marseille","lat":43.22536,"lon":5.3482,"is_reserved":false,"is_disabled":false,"rental_uris":{"android":"levelo://app?vid=25692fdd-8735-4ac1-befa-97e9aba2ff71","ios":"levelo://app?vid=25692fdd-8735-4ac1-befa-97e9aba2ff71"},"vehicle_type_id":"4","last_reported":1781528430,"current_range_meters":5600,"station_id":"st_cvj5dfep6f1abm77gieg","pricing_plan_id":"cebpf4jnsgd1na2vs0mg"},{"bike_id":"40f9fd1b-628e-484e-8a21-e0687f6fd82d","system_id":"levelo_inurba_marseille","lat":43.25178,"lon":5.3747,"is_reserved":false,"is_disabled":false,"rental_uris":{"android":"levelo://app?vid=40f9fd1b-628e-484e-8a21-e0687f6fd82d","ios":"levelo://app?vid=40f9fd1b-628e-484e-8a21-e0687f6fd82d"},"vehicle_type_id":"4","last_reported":1781528430,"current_range_meters":5600,"station_id":"","pricing_plan_id":"cebpf4jnsgd1na2vs0mg"},{"bike_id":"f5fd0032-2843-4b35-890a-e41b45d7a66a","system_id":"levelo_inurba_marseille","lat":43.23876,"lon":5.3748,"is_reserved":false,"is_disabled":false,"rental_uris":{"android":"levelo://app?vid=f5fd0032-2843-4b35-890a-e41b45d7a66a","ios":"levelo://app?vid=f5fd0032-2843-4b35-890a-e41b45d7a66a"},"vehicle_type_id":"4","last_reported":1781528430,"current_range_meters":5600,"station_id":"st_d6sm7csbq4hs73f8fpjg","pricing_plan_id":"cebpf4jnsgd1na2vs0mg"},{"bike_id":"f95233da-068b-40c9-877e-4183c393e9fd","system_id":"levelo_inurba_marseille","lat":43.2826,"lon":5.35071,"is_reserved":false,"is_disabled":false,"rental_uris":{"android":"levelo://app?vid=f95233da-068b-40c9-877e-4183c393e9fd","ios":"levelo://app?vid=f95233da-068b-40c9-877e-4183c393e9fd"},"vehicle_type_id":"4","last_reported":1781528430,"current_range_meters":6000,"station_id":"ce4bhbp2rcd13ifvqerg","pricing_plan_id":"cebpf4jnsgd1na2vs0mg"},{"bike_id":"aeff7385-4ae1-466a-a74c-4e347d7753be","system_id":"levelo_inurba_marseille","lat":43.24165,"lon":5.36394,"is_reserved":false,"is_disabled":false,"rental_uris":{"android":"levelo://app?vid=aeff7385-4ae1-466a-a74c-4e347d7753be","ios":"levelo://app?vid=aeff7385-4ae1-466a-a74c-4e347d7753be"},"vehicle_type_id":"4","last_reported":1781528430,"current_range_meters":6000,"station_id":"cpo36qri1sfpv3e86is0","pricing_plan_id":"cebpf4jnsgd1na2vs0mg"},{"bike_id":"2d5036af-f9df-45c6-97e4-648868345309","system_id":"levelo_inurba_marseille","lat":43.32557,"lon":5.38792,"is_reserved":false,"is_disabled":false,"rental_uris":{"android":"levelo://app?vid=2d5036af-f9df-45c6-97e4-648868345309","ios":"levelo://app?vid=2d5036af-f9df-45c6-97e4-648868345309"},"vehicle_type_id":"4","last_reported":1781528430,"current_range_meters":6000,"station_id":"","pricing_plan_id":"cebpf4jnsgd1na2vs0mg"},{"bike_id":"1fed5617-a0ec-423a-9a18-b9dca8c1221b","system_id":"levelo_inurba_marseille","lat":43.23189,"lon":5.35561,"is_reserved":false,"is_disabled":false,"rental_uris":{"android":"levelo://app?vid=1fed5617-a0ec-423a-9a18-b9dca8c1221b","ios":"levelo://app?vid=1fed5617-a0ec-423a-9a18-b9dca8c1221b"},"vehicle_type_id":"4","last_reported":1781528430,"current_range_meters":6000,"station_id":"ce4bhu92rcd13ifvqi70","pricing_plan_id":"cebpf4jnsgd1na2vs0mg"},{"bike_id":"d8c7b01f-b800-4aad-abc0-82e31b1f3cf0","system_id":"levelo_inurba_marseille","lat":43.26683,"lon":5.38277,"is_reserved":false,"is_disabled":false,"rental_uris":{"android":"levelo://app?vid=d8c7b01f-b800-4aad-abc0-82e31b1f3cf0","ios":"levelo://app?vid=d8c7b01f-b800-4aad-abc0-82e31b1f3cf0"},"vehicle_type_id":"4","last_reported":1781528430,"current_range_meters":6000,"station_id":"ce4bhg92rcd13ifvqf90","pricing_plan_id":"cebpf4jnsgd1na2vs0mg"},{"bike_id":"33256d2c-5c01-45fe-af55-4a654f52e42a","system_id":"levelo_inurba_marseille","lat":43.23892,"lon":5.36538,"is_reserved":false,"is_disabled":false,"rental_uris":{"android":"levelo://app?vid=33256d2c-5c01-45fe-af55-4a654f52e42a","ios":"levelo://app?vid=33256d2c-5c01-45fe-af55-4a654f52e42a"},"vehicle_type_id":"4","last_reported":1781528430,"current_range_meters":6000,"station_id":"","pricing_plan_id":"cebpf4jnsgd1na2vs0mg"},{"bike_id":"f8cb73ac-3d9d-44c2-a350-75fbcb9e7e8a","system_id":"levelo_inurba_marseille","lat":43.26224,"lon":5.38766,"is_reserved":false,"is_disabled":false,"rental_uris":{"android":"levelo://app?vid=f8cb73ac-3d9d-44c2-a350-75fbcb9e7e8a","ios":"levelo://app?vid=f8cb73ac-3d9d-44c2-a350-75fbcb9e7e8a"},"vehicle_type_id":"4","last_reported":1781528430,"current_range_meters":6000,"station_id":"st_d8gjfg747rts73coq3b0","pricing_plan_id":"cebpf4jnsgd1na2vs0mg"},{"bike_id":"abc01caa-7e82-486b-ad5a-e31151d2d0fc","system_id":"levelo_inurba_marseille","lat":43.27702,"lon":5.39557,"is_reserved":false,"is_disabled":false,"rental_uris":{"android":"levelo://app?vid=abc01caa-7e82-486b-ad5a-e31151d2d0fc","ios":"levelo://app?vid=abc01caa-7e82-486b-ad5a-e31151d2d0fc"},"vehicle_type_id":"4","last_reported":1781528430,"current_range_meters":6000,"station_id":"","pricing_plan_id":"cebpf4jnsgd1na2vs0mg"},{"bike_id":"137290fc-5542-43e8-a35e-2be9448afbe2","system_id":"levelo_inurba_marseille","lat":43.28662,"lon":5.36328,"is_reserved":false,"is_disabled":false,"rental_uris":{"android":"levelo://app?vid=137290fc-5542-43e8-a35e-2be9448afbe2","ios":"levelo://app?vid=137290fc-5542-43e8-a35e-2be9448afbe2"},"vehicle_type_id":"4","last_reported":1781528430,"current_range_meters":6000,"station_id":"ce4bhah2rcd13ifvqej0","pricing_plan_id":"cebpf4jnsgd1na2vs0mg"},{"bike_id":"e5bfe637-f34a-41fe-a9de-e72f63a7b3db","system_id":"levelo_inurba_marseille","lat":43.2511,"lon":5.40317,"is_reserved":false,"is_disabled":false,"rental_uris":{"android":"levelo://app?vid=e5bfe637-f34a-41fe-a9de-e72f63a7b3db","ios":"levelo://app?vid=e5bfe637-f34a-41fe-a9de-e72f63a7b3db"},"vehicle_type_id":"4","last_reported":1781528430,"current_range_meters":6000,"station_id":"ce4bhlh2rcd13ifvqgig","pricing_plan_id":"cebpf4jnsgd1na2vs0mg"},{"bike_id":"119ee3e3-8912-41dc-9351-0ade13455b09","system_id":"levelo_inurba_marseille","lat":43.29551,"lon":5.42309,"is_reserved":false,"is_disabled":false,"rental_uris":{"android":"levelo://app?vid=119ee3e3-8912-41dc-9351-0ade13455b09","ios":"levelo://app?vid=119ee3e3-8912-41dc-9351-0ade13455b09"},"vehicle_type_id":"4","last_reported":1781528430,"current_range_meters":6000,"station_id":"ce4bhph2rcd13ifvqhdg","pricing_plan_id":"cebpf4jnsgd1na2vs0mg"},{"bike_id":"7dc7970f-bf15-475f-942d-b3a42053a11a","system_id":"levelo_inurba_marseille","lat":43.21749,"lon":5.34615,"is_reserved":false,"is_disabled":false,"rental_uris":{"android":"levelo://app?vid=7dc7970f-bf15-475f-942d-b3a42053a11a","ios":"levelo://app?vid=7dc7970f-bf15-475f-942d-b3a42053a11a"},"vehicle_type_id":"4","last_reported":1781528430,"current_range_meters":6000,"station_id":"st_cvj6r9ubvosntc0bgbag","pricing_plan_id":"cebpf4jnsgd1na2vs0mg"},{"bike_id":"dc4680c2-1ea2-481b-a68a-507adb9e5b07","system_id":"levelo_inurba_marseille","lat":43.26537,"lon":5.36945,"is_reserved":false,"is_disabled":false,"rental_uris":{"android":"levelo://app?vid=dc4680c2-1ea2-481b-a68a-507adb9e5b07","ios":"levelo://app?vid=dc4680c2-1ea2-481b-a68a-507adb9e5b07"},"vehicle_type_id":"4","last_reported":1781528430,"current_range_meters":6000,"station_id":"","pricing_plan_id":"cebpf4jnsgd1na2vs0mg"},{"bike_id":"c2f6d29a-7f59-4c12-86d0-15e003420098","system_id":"levelo_inurba_marseille","lat":43.27617,"lon":5.36105,"is_reserved":false,"is_disabled":false,"rental_uris":{"android":"levelo://app?vid=c2f6d29a-7f59-4c12-86d0-15e003420098","ios":"levelo://app?vid=c2f6d29a-7f59-4c12-86d0-15e003420098"},"vehicle_type_id":"4","last_reported":1781528430,"current_range_meters":6000,"station_id":"ce4bgj92rcd13ifvqbe0","pricing_plan_id":"cebpf4jnsgd1na2vs0mg"},{"bike_id":"422e0eb8-fff1-479a-82dd-8ce442143c6d","system_id":"levelo_inurba_marseille","lat":43.23176,"lon":5.39979,"is_reserved":false,"is_disabled":false,"rental_uris":{"android":"levelo://app?vid=422e0eb8-fff1-479a-82dd-8ce442143c6d","ios":"levelo://app?vid=422e0eb8-fff1-479a-82dd-8ce442143c6d"},"vehicle_type_id":"4","last_reported":1781528430,"current_range_meters":6000,"station_id":"ce4bhn12rcd13ifvqgqg","pricing_plan_id":"cebpf4jnsgd1na2vs0mg"},{"bike_id":"f713d576-ae23-470f-a959-64ab11c74941","system_id":"levelo_inurba_marseille","lat":43.28414,"lon":5.3501,"is_reserved":false,"is_disabled":false,"rental_uris":{"android":"levelo://app?vid=f713d576-ae23-470f-a959-64ab11c74941","ios":"levelo://app?vid=f713d576-ae23-470f-a959-64ab11c74941"},"vehicle_type_id":"4","last_reported":1781528430,"current_range_meters":6000,"station_id":"ce4bhbh2rcd13ifvqepg","pricing_plan_id":"cebpf4jnsgd1na2vs0mg"},{"bike_id":"a54b4add-f315-432b-8449-89ac6e424c81","system_id":"levelo_inurba_marseille","lat":43.29954,"lon":5.41315,"is_reserved":false,"is_disabled":false,"rental_uris":{"android":"levelo://app?vid=a54b4add-f315-432b-8449-89ac6e424c81","ios":"levelo://app?vid=a54b4add-f315-432b-8449-89ac6e424c81"},"vehicle_type_id":"4","last_reported":1781528430,"current_range_meters":6000,"station_id":"ce4bhp12rcd13ifvqh9g","pricing_plan_id":"cebpf4jnsgd1na2vs0mg"},{"bike_id":"196e8be9-44a9-4c11-9d03-a5c4bd456dbf","system_id":"levelo_inurba_marseille","lat":43.31688,"lon":5.40467,"is_reserved":false,"is_disabled":false,"rental_uris":{"android":"levelo://app?vid=196e8be9-44a9-4c11-9d03-a5c4bd456dbf","ios":"levelo://app?vid=196e8be9-44a9-4c11-9d03-a5c4bd456dbf"},"vehicle_type_id":"4","last_reported":1781528430,"current_range_meters":6000,"station_id":"ce4bh012rcd13ifvqd00","pricing_plan_id":"cebpf4jnsgd1na2vs0mg"},{"bike_id":"ea537db9-cc35-430d-8d31-f82a0f25ddc6","system_id":"levelo_inurba_marseille","lat":43.28613,"lon":5.35121,"is_reserved":false,"is_disabled":false,"rental_uris":{"android":"levelo://app?vid=ea537db9-cc35-430d-8d31-f82a0f25ddc6","ios":"levelo://app?vid=ea537db9-cc35-430d-8d31-f82a0f25ddc6"},"vehicle_type_id":"4","last_reported":1781528430,"current_range_meters":6000,"station_id":"ce4bhch2rcd13ifvqeug","pricing_plan_id":"cebpf4jnsgd1na2vs0mg"},{"bike_id":"f494da23-aa5a-423b-accc-e18961ad421e","system_id":"levelo_inurba_marseille","lat":43.28924,"lon":5.35894,"is_reserved":false,"is_disabled":false,"rental_uris":{"android":"levelo://app?vid=f494da23-aa5a-423b-accc-e18961ad421e","ios":"levelo://app?vid=f494da23-aa5a-423b-accc-e18961ad421e"},"vehicle_type_id":"4","last_reported":1781528430,"current_range_meters":6000,"station_id":"ce4bhb12rcd13ifvqem0","pricing_plan_id":"cebpf4jnsgd1na2vs0mg"},{"bike_id":"eecbdf4a-1256-4cd3-894b-717ff2614a24","system_id":"levelo_inurba_marseille","lat":43.23774,"lon":5.37804,"is_reserved":false,"is_disabled":false,"rental_uris":{"android":"levelo://app?vid=eecbdf4a-1256-4cd3-894b-717ff2614a24","ios":"levelo://app?vid=eecbdf4a-1256-4cd3-894b-717ff2614a24"},"vehicle_type_id":"4","last_reported":1781528430,"current_range_meters":6400,"station_id":"","pricing_plan_id":"cebpf4jnsgd1na2vs0mg"},{"bike_id":"c37d397e-b2f6-442e-acb6-1796657e2ba6","system_id":"levelo_inurba_marseille","lat":43.22568,"lon":5.41628,"is_reserved":false,"is_disabled":false,"rental_uris":{"android":"levelo://app?vid=c37d397e-b2f6-442e-acb6-1796657e2ba6","ios":"levelo://app?vid=c37d397e-b2f6-442e-acb6-1796657e2ba6"},"vehicle_type_id":"4","last_reported":1781528430,"current_range_meters":6400,"station_id":"st_d2o4gvlbi1j2169b742g","pricing_plan_id":"cebpf4jnsgd1na2vs0mg"},{"bike_id":"5fae12ed-6653-4f35-a3a5-715a06cf2e33","system_id":"levelo_inurba_marseille","lat":43.22932,"lon":5.35379,"is_reserved":false,"is_disabled":false,"rental_uris":{"android":"levelo://app?vid=5fae12ed-6653-4f35-a3a5-715a06cf2e33","ios":"levelo://app?vid=5fae12ed-6653-4f35-a3a5-715a06cf2e33"},"vehicle_type_id":"4","last_reported":1781528430,"current_range_meters":6400,"station_id":"cpo3532slgdg3j2ikp40","pricing_plan_id":"cebpf4jnsgd1na2vs0mg"},{"bike_id":"0a50d037-7b57-45ff-afe8-b41cb5c8a836","system_id":"levelo_inurba_marseille","lat":43.28696,"lon":5.37412,"is_reserved":false,"is_disabled":false,"rental_uris":{"android":"levelo://app?vid=0a50d037-7b57-45ff-afe8-b41cb5c8a836","ios":"levelo://app?vid=0a50d037-7b57-45ff-afe8-b41cb5c8a836"},"vehicle_type_id":"4","last_reported":1781528430,"current_range_meters":6400,"station_id":"ce4bh3p2rcd13ifvqdq0","pricing_plan_id":"cebpf4jnsgd1na2vs0mg"},{"bike_id":"97d81de3-0985-4474-9b7d-387000037e76","system_id":"levelo_inurba_marseille","lat":43.25894,"lon":5.40964,"is_reserved":false,"is_disabled":false,"rental_uris":{"android":"levelo://app?vid=97d81de3-0985-4474-9b7d-387000037e76","ios":"levelo://app?vid=97d81de3-0985-4474-9b7d-387000037e76"},"vehicle_type_id":"4","last_reported":1781528430,"current_range_meters":6400,"station_id":"","pricing_plan_id":"cebpf4jnsgd1na2vs0mg"},{"bike_id":"79af4283-c1d5-4033-a3a7-48e50ad05d77","system_id":"levelo_inurba_marseille","lat":43.296177,"lon":5.380267,"is_reserved":false,"is_disabled":false,"rental_uris":{"android":"levelo://app?vid=79af4283-c1d5-4033-a3a7-48e50ad05d77","ios":"levelo://app?vid=79af4283-c1d5-4033-a3a7-48e50ad05d77"},"vehicle_type_id":"4","last_reported":1781528430,"current_range_meters":6400,"station_id":"","pricing_plan_id":"cebpf4jnsgd1na2vs0mg"},{"bike_id":"6d353a02-c0ef-47b6-887d-eae21d4b5810","system_id":"levelo_inurba_marseille","lat":43.24989,"lon":5.38939,"is_reserved":false,"is_disabled":true,"rental_uris":{"android":"levelo://app?vid=6d353a02-c0ef-47b6-887d-eae21d4b5810","ios":"levelo://app?vid=6d353a02-c0ef-47b6-887d-eae21d4b5810"},"vehicle_type_id":"4","last_reported":1781528430,"current_range_meters":6400,"station_id":"ce4bhgp2rcd13ifvqfd0","pricing_plan_id":"cebpf4jnsgd1na2vs0mg"},{"bike_id":"08d02424-2e76-42f2-a88a-b857ba22671f","system_id":"levelo_inurba_marseille","lat":43.24067,"lon":5.37752,"is_reserved":false,"is_disabled":false,"rental_uris":{"android":"levelo://app?vid=08d02424-2e76-42f2-a88a-b857ba22671f","ios":"levelo://app?vid=08d02424-2e76-42f2-a88a-b857ba22671f"},"vehicle_type_id":"4","last_reported":1781528430,"current_range_meters":6400,"station_id":"ce4bhnp2rcd13ifvqgvg","pricing_plan_id":"cebpf4jnsgd1na2vs0mg"},{"bike_id":"b4b85ace-3117-48c3-bdef-3dd6ed7ef981","system_id":"levelo_inurba_marseille","lat":43.2825,"lon":5.35062,"is_reserved":false,"is_disabled":false,"rental_uris":{"android":"levelo://app?vid=b4b85ace-3117-48c3-bdef-3dd6ed7ef981","ios":"levelo://app?vid=b4b85ace-3117-48c3-bdef-3dd6ed7ef981"},"vehicle_type_id":"4","last_reported":1781528430,"current_range_meters":6400,"station_id":"ce4bhbp2rcd13ifvqerg","pricing_plan_id":"cebpf4jnsgd1na2vs0mg"},{"bike_id":"ac44d26d-7666-48eb-8155-52fda757d87f","system_id":"levelo_inurba_marseille","lat":43.31863,"lon":5.39992,"is_reserved":false,"is_disabled":false,"rental_uris":{"android":"levelo://app?vid=ac44d26d-7666-48eb-8155-52fda757d87f","ios":"levelo://app?vid=ac44d26d-7666-48eb-8155-52fda757d87f"},"vehicle_type_id":"4","last_reported":1781528430,"current_range_meters":6400,"station_id":"","pricing_plan_id":"cebpf4jnsgd1na2vs0mg"},{"bike_id":"baa61126-ff46-43b8-abbc-2f202954cf05","system_id":"levelo_inurba_marseille","lat":43.341392,"lon":5.408975,"is_reserved":false,"is_disabled":false,"rental_uris":{"android":"levelo://app?vid=baa61126-ff46-43b8-abbc-2f202954cf05","ios":"levelo://app?vid=baa61126-ff46-43b8-abbc-2f202954cf05"},"vehicle_type_id":"4","last_reported":1781528430,"current_range_meters":6400,"station_id":"ce4bhqh2rcd13ifvqhlg","pricing_plan_id":"cebpf4jnsgd1na2vs0mg"},{"bike_id":"7cd33ba9-b665-4501-9b11-d8c031283fa9","system_id":"levelo_inurba_marseille","lat":43.305321,"lon":5.384232,"is_reserved":false,"is_disabled":false,"rental_uris":{"android":"levelo://app?vid=7cd33ba9-b665-4501-9b11-d8c031283fa9","ios":"levelo://app?vid=7cd33ba9-b665-4501-9b11-d8c031283fa9"},"vehicle_type_id":"4","last_reported":1781528430,"current_range_meters":6400,"station_id":"ce4bgg92rcd13ifvqb30","pricing_plan_id":"cebpf4jnsgd1na2vs0mg"},{"bike_id":"7bd5aaf9-56b6-48f6-8197-e33e2bf67f68","system_id":"levelo_inurba_marseille","lat":43.2254,"lon":5.3484,"is_reserved":false,"is_disabled":false,"rental_uris":{"android":"levelo://app?vid=7bd5aaf9-56b6-48f6-8197-e33e2bf67f68","ios":"levelo://app?vid=7bd5aaf9-56b6-48f6-8197-e33e2bf67f68"},"vehicle_type_id":"4","last_reported":1781528430,"current_range_meters":6400,"station_id":"st_cvj5dfep6f1abm77gieg","pricing_plan_id":"cebpf4jnsgd1na2vs0mg"},{"bike_id":"fbe522e0-cfa3-4f3d-abd6-62fbfaf6bf11","system_id":"levelo_inurba_marseille","lat":43.31485,"lon":5.37308,"is_reserved":false,"is_disabled":false,"rental_uris":{"android":"levelo://app?vid=fbe522e0-cfa3-4f3d-abd6-62fbfaf6bf11","ios":"levelo://app?vid=fbe522e0-cfa3-4f3d-abd6-62fbfaf6bf11"},"vehicle_type_id":"4","last_reported":1781528430,"current_range_meters":6400,"station_id":"ce4bgt12rcd13ifvqcd0","pricing_plan_id":"cebpf4jnsgd1na2vs0mg"},{"bike_id":"5ee0969a-4f8a-4bf0-b924-b38d5c5f9939","system_id":"levelo_inurba_marseille","lat":43.24069,"lon":5.37752,"is_reserved":false,"is_disabled":false,"rental_uris":{"android":"levelo://app?vid=5ee0969a-4f8a-4bf0-b924-b38d5c5f9939","ios":"levelo://app?vid=5ee0969a-4f8a-4bf0-b924-b38d5c5f9939"},"vehicle_type_id":"4","last_reported":1781528430,"current_range_meters":6800,"station_id":"ce4bhnp2rcd13ifvqgvg","pricing_plan_id":"cebpf4jnsgd1na2vs0mg"},{"bike_id":"dd1cbec0-f67a-421f-b858-57b726d7e466","system_id":"levelo_inurba_marseille","lat":43.301474,"lon":5.380845,"is_reserved":false,"is_disabled":false,"rental_uris":{"android":"levelo://app?vid=dd1cbec0-f67a-421f-b858-57b726d7e466","ios":"levelo://app?vid=dd1cbec0-f67a-421f-b858-57b726d7e466"},"vehicle_type_id":"4","last_reported":1781528430,"current_range_meters":6800,"station_id":"ce4bgjp2rcd13ifvqbh0","pricing_plan_id":"cebpf4jnsgd1na2vs0mg"},{"bike_id":"f2ba73c5-fc69-4601-a3f3-cbbbb5b9b11d","system_id":"levelo_inurba_marseille","lat":43.28372,"lon":5.38649,"is_reserved":false,"is_disabled":false,"rental_uris":{"android":"levelo://app?vid=f2ba73c5-fc69-4601-a3f3-cbbbb5b9b11d","ios":"levelo://app?vid=f2ba73c5-fc69-4601-a3f3-cbbbb5b9b11d"},"vehicle_type_id":"4","last_reported":1781528430,"current_range_meters":6800,"station_id":"ce4bh492rcd13ifvqdvg","pricing_plan_id":"cebpf4jnsgd1na2vs0mg"},{"bike_id":"0dec50ff-0d8d-4f80-9c96-eac32b437dba","system_id":"levelo_inurba_marseille","lat":43.282644,"lon":5.350603,"is_reserved":false,"is_disabled":false,"rental_uris":{"android":"levelo://app?vid=0dec50ff-0d8d-4f80-9c96-eac32b437dba","ios":"levelo://app?vid=0dec50ff-0d8d-4f80-9c96-eac32b437dba"},"vehicle_type_id":"4","last_reported":1781528430,"current_range_meters":6800,"station_id":"","pricing_plan_id":"cebpf4jnsgd1na2vs0mg"},{"bike_id":"ca3c430a-c3ae-4878-b52f-8dd5fbed1646","system_id":"levelo_inurba_marseille","lat":43.32343,"lon":5.36715,"is_reserved":false,"is_disabled":false,"rental_uris":{"android":"levelo://app?vid=ca3c430a-c3ae-4878-b52f-8dd5fbed1646","ios":"levelo://app?vid=ca3c430a-c3ae-4878-b52f-8dd5fbed1646"},"vehicle_type_id":"4","last_reported":1781528430,"current_range_meters":6800,"station_id":"ce4bhsh2rcd13ifvqi2g","pricing_plan_id":"cebpf4jnsgd1na2vs0mg"},{"bike_id":"df428291-2abc-42e3-9b06-57cec6630114","system_id":"levelo_inurba_marseille","lat":43.262213,"lon":5.404577,"is_reserved":false,"is_disabled":false,"rental_uris":{"android":"levelo://app?vid=df428291-2abc-42e3-9b06-57cec6630114","ios":"levelo://app?vid=df428291-2abc-42e3-9b06-57cec6630114"},"vehicle_type_id":"4","last_reported":1781528430,"current_range_meters":6800,"station_id":"ce4bhmp2rcd13ifvqgng","pricing_plan_id":"cebpf4jnsgd1na2vs0mg"},{"bike_id":"df47431a-acca-4d99-92ba-3ae6dacab32b","system_id":"levelo_inurba_marseille","lat":43.29227,"lon":5.36074,"is_reserved":false,"is_disabled":false,"rental_uris":{"android":"levelo://app?vid=df47431a-acca-4d99-92ba-3ae6dacab32b","ios":"levelo://app?vid=df47431a-acca-4d99-92ba-3ae6dacab32b"},"vehicle_type_id":"4","last_reported":1781528430,"current_range_meters":6800,"station_id":"ce4bhbh2rcd13ifvqeqg","pricing_plan_id":"cebpf4jnsgd1na2vs0mg"},{"bike_id":"52f53646-a8c6-467b-a085-982495434fda","system_id":"levelo_inurba_marseille","lat":43.24467,"lon":5.42541,"is_reserved":false,"is_disabled":true,"rental_uris":{"android":"levelo://app?vid=52f53646-a8c6-467b-a085-982495434fda","ios":"levelo://app?vid=52f53646-a8c6-467b-a085-982495434fda"},"vehicle_type_id":"4","last_reported":1781528430,"current_range_meters":6800,"station_id":"st_d4a3vfp97mjs738cd8kg","pricing_plan_id":"cebpf4jnsgd1na2vs0mg"},{"bike_id":"1370c72d-0d38-4ba0-8c91-73de0a66efcb","system_id":"levelo_inurba_marseille","lat":43.26775,"lon":5.39422,"is_reserved":false,"is_disabled":false,"rental_uris":{"android":"levelo://app?vid=1370c72d-0d38-4ba0-8c91-73de0a66efcb","ios":"levelo://app?vid=1370c72d-0d38-4ba0-8c91-73de0a66efcb"},"vehicle_type_id":"4","last_reported":1781528430,"current_range_meters":6800,"station_id":"ce4bhh12rcd13ifvqfg0","pricing_plan_id":"cebpf4jnsgd1na2vs0mg"},{"bike_id":"c9aabddb-8b5c-4663-930f-1f9cf614b6ce","system_id":"levelo_inurba_marseille","lat":43.21728,"lon":5.34602,"is_reserved":false,"is_disabled":true,"rental_uris":{"android":"levelo://app?vid=c9aabddb-8b5c-4663-930f-1f9cf614b6ce","ios":"levelo://app?vid=c9aabddb-8b5c-4663-930f-1f9cf614b6ce"},"vehicle_type_id":"4","last_reported":1781528430,"current_range_meters":6800,"station_id":"st_cvj6r9ubvosntc0bgbag","pricing_plan_id":"cebpf4jnsgd1na2vs0mg"},{"bike_id":"ee2e94d4-e3c8-4db1-8466-816956f5798a","system_id":"levelo_inurba_marseille","lat":43.23892,"lon":5.37465,"is_reserved":false,"is_disabled":false,"rental_uris":{"android":"levelo://app?vid=ee2e94d4-e3c8-4db1-8466-816956f5798a","ios":"levelo://app?vid=ee2e94d4-e3c8-4db1-8466-816956f5798a"},"vehicle_type_id":"4","last_reported":1781528430,"current_range_meters":6800,"station_id":"st_d6sm7csbq4hs73f8fpjg","pricing_plan_id":"cebpf4jnsgd1na2vs0mg"},{"bike_id":"779b0c9e-62ac-4125-a90f-6d6c0fbfa260","system_id":"levelo_inurba_marseille","lat":43.27214,"lon":5.39193,"is_reserved":false,"is_disabled":false,"rental_uris":{"android":"levelo://app?vid=779b0c9e-62ac-4125-a90f-6d6c0fbfa260","ios":"levelo://app?vid=779b0c9e-62ac-4125-a90f-6d6c0fbfa260"},"vehicle_type_id":"4","last_reported":1781528430,"current_range_meters":6800,"station_id":"ce4bhhp2rcd13ifvqfm0","pricing_plan_id":"cebpf4jnsgd1na2vs0mg"},{"bike_id":"a5cf2c1c-04b4-47f7-9978-0ad956934cfb","system_id":"levelo_inurba_marseille","lat":43.29674,"lon":5.36589,"is_reserved":false,"is_disabled":true,"rental_uris":{"android":"levelo://app?vid=a5cf2c1c-04b4-47f7-9978-0ad956934cfb","ios":"levelo://app?vid=a5cf2c1c-04b4-47f7-9978-0ad956934cfb"},"vehicle_type_id":"4","last_reported":1781528430,"current_range_meters":6800,"station_id":"ce4bgn12rcd13ifvqbt0","pricing_plan_id":"cebpf4jnsgd1na2vs0mg"},{"bike_id":"c16cdcac-699b-47aa-8209-5973f3d36847","system_id":"levelo_inurba_marseille","lat":43.21734,"lon":5.34596,"is_reserved":false,"is_disabled":false,"rental_uris":{"android":"levelo://app?vid=c16cdcac-699b-47aa-8209-5973f3d36847","ios":"levelo://app?vid=c16cdcac-699b-47aa-8209-5973f3d36847"},"vehicle_type_id":"4","last_reported":1781528430,"current_range_meters":6800,"station_id":"st_cvj6r9ubvosntc0bgbag","pricing_plan_id":"cebpf4jnsgd1na2vs0mg"},{"bike_id":"bd3727eb-7c12-4366-9972-be7b68a65c0d","system_id":"levelo_inurba_marseille","lat":43.2938,"lon":5.37844,"is_reserved":false,"is_disabled":true,"rental_uris":{"android":"levelo://app?vid=bd3727eb-7c12-4366-9972-be7b68a65c0d","ios":"levelo://app?vid=bd3727eb-7c12-4366-9972-be7b68a65c0d"},"vehicle_type_id":"4","last_reported":1781528430,"current_range_meters":6800,"station_id":"ce4bgjh2rcd13ifvqbf0","pricing_plan_id":"cebpf4jnsgd1na2vs0mg"},{"bike_id":"ce943fe4-d968-4861-9a45-74ff54c7dfc7","system_id":"levelo_inurba_marseille","lat":43.31065,"lon":5.37188,"is_reserved":false,"is_disabled":false,"rental_uris":{"android":"levelo://app?vid=ce943fe4-d968-4861-9a45-74ff54c7dfc7","ios":"levelo://app?vid=ce943fe4-d968-4861-9a45-74ff54c7dfc7"},"vehicle_type_id":"4","last_reported":1781528430,"current_range_meters":6800,"station_id":"st_d4kl2rp97mjs73e7tdfg","pricing_plan_id":"cebpf4jnsgd1na2vs0mg"},{"bike_id":"752186fd-5eac-4e0c-bf14-a9de49fcf982","system_id":"levelo_inurba_marseille","lat":43.28608,"lon":5.39922,"is_reserved":false,"is_disabled":true,"rental_uris":{"android":"levelo://app?vid=752186fd-5eac-4e0c-bf14-a9de49fcf982","ios":"levelo://app?vid=752186fd-5eac-4e0c-bf14-a9de49fcf982"},"vehicle_type_id":"4","last_reported":1781528430,"current_range_meters":6800,"station_id":"ce4bho92rcd13ifvqh3g","pricing_plan_id":"cebpf4jnsgd1na2vs0mg"},{"bike_id":"9990f1f1-17f2-4ca8-9888-62cb20f5b6c3","system_id":"levelo_inurba_marseille","lat":43.3248,"lon":5.36567,"is_reserved":false,"is_disabled":false,"rental_uris":{"android":"levelo://app?vid=9990f1f1-17f2-4ca8-9888-62cb20f5b6c3","ios":"levelo://app?vid=9990f1f1-17f2-4ca8-9888-62cb20f5b6c3"},"vehicle_type_id":"4","last_reported":1781528430,"current_range_meters":6800,"station_id":"ce4bhs12rcd13ifvqhvg","pricing_plan_id":"cebpf4jnsgd1na2vs0mg"},{"bike_id":"0284034b-da83-44a5-89e8-3385e95d5194","system_id":"levelo_inurba_marseille","lat":43.322,"lon":5.44027,"is_reserved":false,"is_disabled":false,"rental_uris":{"android":"levelo://app?vid=0284034b-da83-44a5-89e8-3385e95d5194","ios":"levelo://app?vid=0284034b-da83-44a5-89e8-3385e95d5194"},"vehicle_type_id":"4","last_reported":1781528430,"current_range_meters":6800,"station_id":"","pricing_plan_id":"cebpf4jnsgd1na2vs0mg"},{"bike_id":"aa9ba65e-6c41-472c-9b2d-49507544dbb3","system_id":"levelo_inurba_marseille","lat":43.30943,"lon":5.39048,"is_reserved":false,"is_disabled":false,"rental_uris":{"android":"levelo://app?vid=aa9ba65e-6c41-472c-9b2d-49507544dbb3","ios":"levelo://app?vid=aa9ba65e-6c41-472c-9b2d-49507544dbb3"},"vehicle_type_id":"4","last_reported":1781528430,"current_range_meters":6800,"station_id":"ce4bgup2rcd13ifvqco0","pricing_plan_id":"cebpf4jnsgd1na2vs0mg"},{"bike_id":"ebe5e08f-87d6-46f3-85dc-b77a5bb53d29","system_id":"levelo_inurba_marseille","lat":43.24464,"lon":5.42538,"is_reserved":false,"is_disabled":false,"rental_uris":{"android":"levelo://app?vid=ebe5e08f-87d6-46f3-85dc-b77a5bb53d29","ios":"levelo://app?vid=ebe5e08f-87d6-46f3-85dc-b77a5bb53d29"},"vehicle_type_id":"4","last_reported":1781528430,"current_range_meters":6800,"station_id":"st_d4a3vfp97mjs738cd8kg","pricing_plan_id":"cebpf4jnsgd1na2vs0mg"},{"bike_id":"1b000e12-08b8-419e-a0f4-003191389199","system_id":"levelo_inurba_marseille","lat":43.298,"lon":5.37107,"is_reserved":false,"is_disabled":false,"rental_uris":{"android":"levelo://app?vid=1b000e12-08b8-419e-a0f4-003191389199","ios":"levelo://app?vid=1b000e12-08b8-419e-a0f4-003191389199"},"vehicle_type_id":"4","last_reported":1781528430,"current_range_meters":6800,"station_id":"ce4bgop2rcd13ifvqc1g","pricing_plan_id":"cebpf4jnsgd1na2vs0mg"},{"bike_id":"c232ba90-6dc5-4542-83ad-7e1ab7f6d5f9","system_id":"levelo_inurba_marseille","lat":43.27611,"lon":5.36103,"is_reserved":false,"is_disabled":false,"rental_uris":{"android":"levelo://app?vid=c232ba90-6dc5-4542-83ad-7e1ab7f6d5f9","ios":"levelo://app?vid=c232ba90-6dc5-4542-83ad-7e1ab7f6d5f9"},"vehicle_type_id":"4","last_reported":1781528430,"current_range_meters":6800,"station_id":"ce4bgj92rcd13ifvqbe0","pricing_plan_id":"cebpf4jnsgd1na2vs0mg"},{"bike_id":"d13781fd-bf3b-4afd-8dde-d01cb5a8e3a0","system_id":"levelo_inurba_marseille","lat":43.29269,"lon":5.38055,"is_reserved":false,"is_disabled":false,"rental_uris":{"android":"levelo://app?vid=d13781fd-bf3b-4afd-8dde-d01cb5a8e3a0","ios":"levelo://app?vid=d13781fd-bf3b-4afd-8dde-d01cb5a8e3a0"},"vehicle_type_id":"4","last_reported":1781528430,"current_range_meters":6800,"station_id":"","pricing_plan_id":"cebpf4jnsgd1na2vs0mg"},{"bike_id":"487add9d-06fb-43e0-8176-38973d0343de","system_id":"levelo_inurba_marseille","lat":43.28276,"lon":5.35297,"is_reserved":false,"is_disabled":false,"rental_uris":{"android":"levelo://app?vid=487add9d-06fb-43e0-8176-38973d0343de","ios":"levelo://app?vid=487add9d-06fb-43e0-8176-38973d0343de"},"vehicle_type_id":"4","last_reported":1781528430,"current_range_meters":6800,"station_id":"","pricing_plan_id":"cebpf4jnsgd1na2vs0mg"},{"bike_id":"471f8b05-e6ae-4918-a8bf-ee0baeadf97c","system_id":"levelo_inurba_marseille","lat":43.27429,"lon":5.39413,"is_reserved":false,"is_disabled":true,"rental_uris":{"android":"levelo://app?vid=471f8b05-e6ae-4918-a8bf-ee0baeadf97c","ios":"levelo://app?vid=471f8b05-e6ae-4918-a8bf-ee0baeadf97c"},"vehicle_type_id":"4","last_reported":1781528430,"current_range_meters":7200,"station_id":"ce4bhdp2rcd13ifvqf20","pricing_plan_id":"cebpf4jnsgd1na2vs0mg"},{"bike_id":"d6438a25-6e61-4cce-8393-97f82f5f8c1d","system_id":"levelo_inurba_marseille","lat":43.25103,"lon":5.40324,"is_reserved":false,"is_disabled":true,"rental_uris":{"android":"levelo://app?vid=d6438a25-6e61-4cce-8393-97f82f5f8c1d","ios":"levelo://app?vid=d6438a25-6e61-4cce-8393-97f82f5f8c1d"},"vehicle_type_id":"4","last_reported":1781528430,"current_range_meters":7200,"station_id":"ce4bhlh2rcd13ifvqgig","pricing_plan_id":"cebpf4jnsgd1na2vs0mg"},{"bike_id":"429db7a1-f3aa-4785-94c5-5bf97e571cbf","system_id":"levelo_inurba_marseille","lat":43.24633,"lon":5.43164,"is_reserved":false,"is_disabled":false,"rental_uris":{"android":"levelo://app?vid=429db7a1-f3aa-4785-94c5-5bf97e571cbf","ios":"levelo://app?vid=429db7a1-f3aa-4785-94c5-5bf97e571cbf"},"vehicle_type_id":"4","last_reported":1781528430,"current_range_meters":7200,"station_id":"st_d2m6c4gdas8pm72e190g","pricing_plan_id":"cebpf4jnsgd1na2vs0mg"},{"bike_id":"907029a1-4653-4ed0-9adb-fb8fe93c713e","system_id":"levelo_inurba_marseille","lat":43.3203,"lon":5.41563,"is_reserved":false,"is_disabled":false,"rental_uris":{"android":"levelo://app?vid=907029a1-4653-4ed0-9adb-fb8fe93c713e","ios":"levelo://app?vid=907029a1-4653-4ed0-9adb-fb8fe93c713e"},"vehicle_type_id":"4","last_reported":1781528430,"current_range_meters":7200,"station_id":"ce4bhq92rcd13ifvqhkg","pricing_plan_id":"cebpf4jnsgd1na2vs0mg"},{"bike_id":"621736fd-fbc8-438b-9a73-c41e9988723d","system_id":"levelo_inurba_marseille","lat":43.21743,"lon":5.34607,"is_reserved":false,"is_disabled":false,"rental_uris":{"android":"levelo://app?vid=621736fd-fbc8-438b-9a73-c41e9988723d","ios":"levelo://app?vid=621736fd-fbc8-438b-9a73-c41e9988723d"},"vehicle_type_id":"4","last_reported":1781528430,"current_range_meters":7200,"station_id":"st_cvj6r9ubvosntc0bgbag","pricing_plan_id":"cebpf4jnsgd1na2vs0mg"},{"bike_id":"8707b913-0728-4d01-9d47-588e7fd474f2","system_id":"levelo_inurba_marseille","lat":43.33157,"lon":5.37702,"is_reserved":false,"is_disabled":false,"rental_uris":{"android":"levelo://app?vid=8707b913-0728-4d01-9d47-588e7fd474f2","ios":"levelo://app?vid=8707b913-0728-4d01-9d47-588e7fd474f2"},"vehicle_type_id":"4","last_reported":1781528430,"current_range_meters":7200,"station_id":"st_d46cu089ee8s73dldbu0","pricing_plan_id":"cebpf4jnsgd1na2vs0mg"},{"bike_id":"0d3ee69d-3dda-40fb-9e91-1a515c1050cc","system_id":"levelo_inurba_marseille","lat":43.28484,"lon":5.48401,"is_reserved":false,"is_disabled":false,"rental_uris":{"android":"levelo://app?vid=0d3ee69d-3dda-40fb-9e91-1a515c1050cc","ios":"levelo://app?vid=0d3ee69d-3dda-40fb-9e91-1a515c1050cc"},"vehicle_type_id":"4","last_reported":1781528430,"current_range_meters":7200,"station_id":"st_d3svhcjqgbts73a3dn0g","pricing_plan_id":"cebpf4jnsgd1na2vs0mg"},{"bike_id":"9e182199-f765-40fe-bb69-2b137246d529","system_id":"levelo_inurba_marseille","lat":43.28247,"lon":5.35079,"is_reserved":false,"is_disabled":false,"rental_uris":{"android":"levelo://app?vid=9e182199-f765-40fe-bb69-2b137246d529","ios":"levelo://app?vid=9e182199-f765-40fe-bb69-2b137246d529"},"vehicle_type_id":"4","last_reported":1781528430,"current_range_meters":7200,"station_id":"ce4bhbp2rcd13ifvqerg","pricing_plan_id":"cebpf4jnsgd1na2vs0mg"},{"bike_id":"39dfa545-12db-4745-82c2-2724c73b5c4a","system_id":"levelo_inurba_marseille","lat":43.26008,"lon":5.37572,"is_reserved":false,"is_disabled":true,"rental_uris":{"android":"levelo://app?vid=39dfa545-12db-4745-82c2-2724c73b5c4a","ios":"levelo://app?vid=39dfa545-12db-4745-82c2-2724c73b5c4a"},"vehicle_type_id":"4","last_reported":1781528430,"current_range_meters":7200,"station_id":"ce4bhgh2rcd13ifvqfa0","pricing_plan_id":"cebpf4jnsgd1na2vs0mg"},{"bike_id":"035cd80f-c63b-44c7-9fa7-211fc8e2fbd5","system_id":"levelo_inurba_marseille","lat":43.30202,"lon":5.41779,"is_reserved":false,"is_disabled":false,"rental_uris":{"android":"levelo://app?vid=035cd80f-c63b-44c7-9fa7-211fc8e2fbd5","ios":"levelo://app?vid=035cd80f-c63b-44c7-9fa7-211fc8e2fbd5"},"vehicle_type_id":"4","last_reported":1781528430,"current_range_meters":7200,"station_id":"","pricing_plan_id":"cebpf4jnsgd1na2vs0mg"},{"bike_id":"abaa735e-7023-410e-9076-b29dee2a6285","system_id":"levelo_inurba_marseille","lat":43.30182,"lon":5.36623,"is_reserved":false,"is_disabled":false,"rental_uris":{"android":"levelo://app?vid=abaa735e-7023-410e-9076-b29dee2a6285","ios":"levelo://app?vid=abaa735e-7023-410e-9076-b29dee2a6285"},"vehicle_type_id":"4","last_reported":1781528430,"current_range_meters":7200,"station_id":"ce4bgrh2rcd13ifvqc8g","pricing_plan_id":"cebpf4jnsgd1na2vs0mg"},{"bike_id":"c874ea4d-2fb2-4c7f-bca9-d82bd6523ad5","system_id":"levelo_inurba_marseille","lat":43.29253,"lon":5.3824,"is_reserved":false,"is_disabled":false,"rental_uris":{"android":"levelo://app?vid=c874ea4d-2fb2-4c7f-bca9-d82bd6523ad5","ios":"levelo://app?vid=c874ea4d-2fb2-4c7f-bca9-d82bd6523ad5"},"vehicle_type_id":"4","last_reported":1781528430,"current_range_meters":7200,"station_id":"","pricing_plan_id":"cebpf4jnsgd1na2vs0mg"},{"bike_id":"025ae3e9-1183-4ffc-95ca-b8ce6f7c95d7","system_id":"levelo_inurba_marseille","lat":43.27957,"lon":5.38708,"is_reserved":false,"is_disabled":true,"rental_uris":{"android":"levelo://app?vid=025ae3e9-1183-4ffc-95ca-b8ce6f7c95d7","ios":"levelo://app?vid=025ae3e9-1183-4ffc-95ca-b8ce6f7c95d7"},"vehicle_type_id":"4","last_reported":1781528430,"current_range_meters":7200,"station_id":"ce4bhg12rcd13ifvqf80","pricing_plan_id":"cebpf4jnsgd1na2vs0mg"},{"bike_id":"1f2d1b7b-7fdf-4b71-90f8-83d9585c1d76","system_id":"levelo_inurba_marseille","lat":43.26218,"lon":5.37917,"is_reserved":false,"is_disabled":false,"rental_uris":{"android":"levelo://app?vid=1f2d1b7b-7fdf-4b71-90f8-83d9585c1d76","ios":"levelo://app?vid=1f2d1b7b-7fdf-4b71-90f8-83d9585c1d76"},"vehicle_type_id":"4","last_reported":1781528430,"current_range_meters":7200,"station_id":"ce4bhjp2rcd13ifvqg90","pricing_plan_id":"cebpf4jnsgd1na2vs0mg"},{"bike_id":"565b36b0-024c-4aaf-bc3d-1b82df85045d","system_id":"levelo_inurba_marseille","lat":43.28274,"lon":5.35082,"is_reserved":false,"is_disabled":false,"rental_uris":{"android":"levelo://app?vid=565b36b0-024c-4aaf-bc3d-1b82df85045d","ios":"levelo://app?vid=565b36b0-024c-4aaf-bc3d-1b82df85045d"},"vehicle_type_id":"4","last_reported":1781528430,"current_range_meters":7200,"station_id":"ce4bhbp2rcd13ifvqerg","pricing_plan_id":"cebpf4jnsgd1na2vs0mg"},{"bike_id":"b315e9a4-0e77-429d-95ba-8291c5405ffe","system_id":"levelo_inurba_marseille","lat":43.25818,"lon":5.39423,"is_reserved":false,"is_disabled":false,"rental_uris":{"android":"levelo://app?vid=b315e9a4-0e77-429d-95ba-8291c5405ffe","ios":"levelo://app?vid=b315e9a4-0e77-429d-95ba-8291c5405ffe"},"vehicle_type_id":"4","last_reported":1781528430,"current_range_meters":7200,"station_id":"ce4bhip2rcd13ifvqft0","pricing_plan_id":"cebpf4jnsgd1na2vs0mg"},{"bike_id":"2110c946-a6f9-4fb7-9f84-4f886dc3a318","system_id":"levelo_inurba_marseille","lat":43.2869,"lon":5.46897,"is_reserved":false,"is_disabled":false,"rental_uris":{"android":"levelo://app?vid=2110c946-a6f9-4fb7-9f84-4f886dc3a318","ios":"levelo://app?vid=2110c946-a6f9-4fb7-9f84-4f886dc3a318"},"vehicle_type_id":"4","last_reported":1781528430,"current_range_meters":7200,"station_id":"","pricing_plan_id":"cebpf4jnsgd1na2vs0mg"},{"bike_id":"dd293bc6-b379-4dd5-9aa3-0b618446b7d3","system_id":"levelo_inurba_marseille","lat":43.22535,"lon":5.34859,"is_reserved":false,"is_disabled":false,"rental_uris":{"android":"levelo://app?vid=dd293bc6-b379-4dd5-9aa3-0b618446b7d3","ios":"levelo://app?vid=dd293bc6-b379-4dd5-9aa3-0b618446b7d3"},"vehicle_type_id":"4","last_reported":1781528430,"current_range_meters":7200,"station_id":"st_cvj5dfep6f1abm77gieg","pricing_plan_id":"cebpf4jnsgd1na2vs0mg"},{"bike_id":"a36b8576-0dff-42e1-bd5a-6023743a4938","system_id":"levelo_inurba_marseille","lat":43.301587,"lon":5.380744,"is_reserved":false,"is_disabled":false,"rental_uris":{"android":"levelo://app?vid=a36b8576-0dff-42e1-bd5a-6023743a4938","ios":"levelo://app?vid=a36b8576-0dff-42e1-bd5a-6023743a4938"},"vehicle_type_id":"4","last_reported":1781528430,"current_range_meters":7200,"station_id":"ce4bgjp2rcd13ifvqbh0","pricing_plan_id":"cebpf4jnsgd1na2vs0mg"},{"bike_id":"50d8e7f5-5189-4366-9ea0-cc2e43c01420","system_id":"levelo_inurba_marseille","lat":43.26574,"lon":5.39026,"is_reserved":false,"is_disabled":false,"rental_uris":{"android":"levelo://app?vid=50d8e7f5-5189-4366-9ea0-cc2e43c01420","ios":"levelo://app?vid=50d8e7f5-5189-4366-9ea0-cc2e43c01420"},"vehicle_type_id":"4","last_reported":1781528430,"current_range_meters":8000,"station_id":"ce4bhe12rcd13ifvqf30","pricing_plan_id":"cebpf4jnsgd1na2vs0mg"},{"bike_id":"b6d10b6e-a6f2-4f56-82a0-04edaca94641","system_id":"levelo_inurba_marseille","lat":43.23792,"lon":5.36632,"is_reserved":false,"is_disabled":false,"rental_uris":{"android":"levelo://app?vid=b6d10b6e-a6f2-4f56-82a0-04edaca94641","ios":"levelo://app?vid=b6d10b6e-a6f2-4f56-82a0-04edaca94641"},"vehicle_type_id":"4","last_reported":1781528430,"current_range_meters":8000,"station_id":"st_d3nk18o9ro0c73en2l3g","pricing_plan_id":"cebpf4jnsgd1na2vs0mg"},{"bike_id":"cf69bffe-2e45-4f42-8160-df5739db363b","system_id":"levelo_inurba_marseille","lat":43.337533,"lon":5.374474,"is_reserved":false,"is_disabled":false,"rental_uris":{"android":"levelo://app?vid=cf69bffe-2e45-4f42-8160-df5739db363b","ios":"levelo://app?vid=cf69bffe-2e45-4f42-8160-df5739db363b"},"vehicle_type_id":"4","last_reported":1781528430,"current_range_meters":8000,"station_id":"","pricing_plan_id":"cebpf4jnsgd1na2vs0mg"},{"bike_id":"4bcf9b62-6782-417e-99e7-c243a16b2f79","system_id":"levelo_inurba_marseille","lat":43.29662,"lon":5.36264,"is_reserved":false,"is_disabled":false,"rental_uris":{"android":"levelo://app?vid=4bcf9b62-6782-417e-99e7-c243a16b2f79","ios":"levelo://app?vid=4bcf9b62-6782-417e-99e7-c243a16b2f79"},"vehicle_type_id":"4","last_reported":1781528430,"current_range_meters":8000,"station_id":"","pricing_plan_id":"cebpf4jnsgd1na2vs0mg"},{"bike_id":"77bcd9cf-91ef-4c12-ba05-410cff163248","system_id":"levelo_inurba_marseille","lat":43.3126,"lon":5.36913,"is_reserved":false,"is_disabled":false,"rental_uris":{"android":"levelo://app?vid=77bcd9cf-91ef-4c12-ba05-410cff163248","ios":"levelo://app?vid=77bcd9cf-91ef-4c12-ba05-410cff163248"},"vehicle_type_id":"4","last_reported":1781528430,"current_range_meters":8000,"station_id":"","pricing_plan_id":"cebpf4jnsgd1na2vs0mg"},{"bike_id":"523b824f-7e45-4002-adee-cac9a0faafa3","system_id":"levelo_inurba_marseille","lat":43.33151,"lon":5.37689,"is_reserved":false,"is_disabled":false,"rental_uris":{"android":"levelo://app?vid=523b824f-7e45-4002-adee-cac9a0faafa3","ios":"levelo://app?vid=523b824f-7e45-4002-adee-cac9a0faafa3"},"vehicle_type_id":"4","last_reported":1781528430,"current_range_meters":8000,"station_id":"st_d46cu089ee8s73dldbu0","pricing_plan_id":"cebpf4jnsgd1na2vs0mg"},{"bike_id":"872471a4-180b-41ee-ae2f-9d962867884a","system_id":"levelo_inurba_marseille","lat":43.24191,"lon":5.39745,"is_reserved":false,"is_disabled":false,"rental_uris":{"android":"levelo://app?vid=872471a4-180b-41ee-ae2f-9d962867884a","ios":"levelo://app?vid=872471a4-180b-41ee-ae2f-9d962867884a"},"vehicle_type_id":"4","last_reported":1781528430,"current_range_meters":8000,"station_id":"ce4bhn12rcd13ifvqgpg","pricing_plan_id":"cebpf4jnsgd1na2vs0mg"},{"bike_id":"15ffef95-1cba-45ca-b629-91da96784ca3","system_id":"levelo_inurba_marseille","lat":43.26227,"lon":5.38762,"is_reserved":false,"is_disabled":false,"rental_uris":{"android":"levelo://app?vid=15ffef95-1cba-45ca-b629-91da96784ca3","ios":"levelo://app?vid=15ffef95-1cba-45ca-b629-91da96784ca3"},"vehicle_type_id":"4","last_reported":1781528430,"current_range_meters":8000,"station_id":"st_d8gjfg747rts73coq3b0","pricing_plan_id":"cebpf4jnsgd1na2vs0mg"},{"bike_id":"53551954-a377-4364-8146-88cc22452dba","system_id":"levelo_inurba_marseille","lat":43.27988,"lon":5.41671,"is_reserved":false,"is_disabled":false,"rental_uris":{"android":"levelo://app?vid=53551954-a377-4364-8146-88cc22452dba","ios":"levelo://app?vid=53551954-a377-4364-8146-88cc22452dba"},"vehicle_type_id":"4","last_reported":1781528430,"current_range_meters":8000,"station_id":"ce4bho12rcd13ifvqh1g","pricing_plan_id":"cebpf4jnsgd1na2vs0mg"},{"bike_id":"8e8d4ce9-0438-4fa0-b1b3-ddbb5c24049e","system_id":"levelo_inurba_marseille","lat":43.33096,"lon":5.43754,"is_reserved":false,"is_disabled":false,"rental_uris":{"android":"levelo://app?vid=8e8d4ce9-0438-4fa0-b1b3-ddbb5c24049e","ios":"levelo://app?vid=8e8d4ce9-0438-4fa0-b1b3-ddbb5c24049e"},"vehicle_type_id":"4","last_reported":1781528430,"current_range_meters":8000,"station_id":"","pricing_plan_id":"cebpf4jnsgd1na2vs0mg"},{"bike_id":"fca740e4-c135-4da8-b2bd-08bce8b78a1e","system_id":"levelo_inurba_marseille","lat":43.31199,"lon":5.36837,"is_reserved":false,"is_disabled":false,"rental_uris":{"android":"levelo://app?vid=fca740e4-c135-4da8-b2bd-08bce8b78a1e","ios":"levelo://app?vid=fca740e4-c135-4da8-b2bd-08bce8b78a1e"},"vehicle_type_id":"4","last_reported":1781528430,"current_range_meters":8000,"station_id":"ce4bgl92rcd13ifvqbq0","pricing_plan_id":"cebpf4jnsgd1na2vs0mg"},{"bike_id":"e63e5e63-39cf-4438-ab6d-ddb1255543c3","system_id":"levelo_inurba_marseille","lat":43.30148,"lon":5.37435,"is_reserved":false,"is_disabled":false,"rental_uris":{"android":"levelo://app?vid=e63e5e63-39cf-4438-ab6d-ddb1255543c3","ios":"levelo://app?vid=e63e5e63-39cf-4438-ab6d-ddb1255543c3"},"vehicle_type_id":"4","last_reported":1781528430,"current_range_meters":8000,"station_id":"ce4bgs92rcd13ifvqcc0","pricing_plan_id":"cebpf4jnsgd1na2vs0mg"},{"bike_id":"0956daa5-681a-4326-929a-0e7393b328e2","system_id":"levelo_inurba_marseille","lat":43.23074,"lon":5.35513,"is_reserved":false,"is_disabled":false,"rental_uris":{"android":"levelo://app?vid=0956daa5-681a-4326-929a-0e7393b328e2","ios":"levelo://app?vid=0956daa5-681a-4326-929a-0e7393b328e2"},"vehicle_type_id":"4","last_reported":1781528430,"current_range_meters":8000,"station_id":"cpo3342slgdg3j2ifvpg","pricing_plan_id":"cebpf4jnsgd1na2vs0mg"},{"bike_id":"6fba197f-9491-487a-b677-bbf09fd91e2a","system_id":"levelo_inurba_marseille","lat":43.28399,"lon":5.45961,"is_reserved":false,"is_disabled":false,"rental_uris":{"android":"levelo://app?vid=6fba197f-9491-487a-b677-bbf09fd91e2a","ios":"levelo://app?vid=6fba197f-9491-487a-b677-bbf09fd91e2a"},"vehicle_type_id":"4","last_reported":1781528430,"current_range_meters":8000,"station_id":"","pricing_plan_id":"cebpf4jnsgd1na2vs0mg"},{"bike_id":"82e0334c-08a2-4409-a0de-5ccc34e48e9a","system_id":"levelo_inurba_marseille","lat":43.31193,"lon":5.3691,"is_reserved":false,"is_disabled":true,"rental_uris":{"android":"levelo://app?vid=82e0334c-08a2-4409-a0de-5ccc34e48e9a","ios":"levelo://app?vid=82e0334c-08a2-4409-a0de-5ccc34e48e9a"},"vehicle_type_id":"4","last_reported":1781528430,"current_range_meters":8000,"station_id":"ce4bgl92rcd13ifvqbq0","pricing_plan_id":"cebpf4jnsgd1na2vs0mg"},{"bike_id":"0903e8df-8e3f-463e-95cc-c2e49bce1a7e","system_id":"levelo_inurba_marseille","lat":43.29595,"lon":5.38123,"is_reserved":false,"is_disabled":true,"rental_uris":{"android":"levelo://app?vid=0903e8df-8e3f-463e-95cc-c2e49bce1a7e","ios":"levelo://app?vid=0903e8df-8e3f-463e-95cc-c2e49bce1a7e"},"vehicle_type_id":"4","last_reported":1781528430,"current_range_meters":8000,"station_id":"ce4bgl12rcd13ifvqbo0","pricing_plan_id":"cebpf4jnsgd1na2vs0mg"},{"bike_id":"e386d0c8-e4b4-44d0-b548-8a70c615d57c","system_id":"levelo_inurba_marseille","lat":43.2706,"lon":5.40273,"is_reserved":false,"is_disabled":false,"rental_uris":{"android":"levelo://app?vid=e386d0c8-e4b4-44d0-b548-8a70c615d57c","ios":"levelo://app?vid=e386d0c8-e4b4-44d0-b548-8a70c615d57c"},"vehicle_type_id":"4","last_reported":1781528430,"current_range_meters":8400,"station_id":"ce4bhk92rcd13ifvqgc0","pricing_plan_id":"cebpf4jnsgd1na2vs0mg"},{"bike_id":"b8dc7b41-abbd-47a1-8ef6-6364ff9756e0","system_id":"levelo_inurba_marseille","lat":43.30536,"lon":5.36703,"is_reserved":false,"is_disabled":false,"rental_uris":{"android":"levelo://app?vid=b8dc7b41-abbd-47a1-8ef6-6364ff9756e0","ios":"levelo://app?vid=b8dc7b41-abbd-47a1-8ef6-6364ff9756e0"},"vehicle_type_id":"4","last_reported":1781528430,"current_range_meters":8400,"station_id":"ce4bgrp2rcd13ifvqc9g","pricing_plan_id":"cebpf4jnsgd1na2vs0mg"},{"bike_id":"0d2ce4bb-4aea-4f2f-87dc-16a1279c4290","system_id":"levelo_inurba_marseille","lat":43.28417,"lon":5.34989,"is_reserved":false,"is_disabled":false,"rental_uris":{"android":"levelo://app?vid=0d2ce4bb-4aea-4f2f-87dc-16a1279c4290","ios":"levelo://app?vid=0d2ce4bb-4aea-4f2f-87dc-16a1279c4290"},"vehicle_type_id":"4","last_reported":1781528430,"current_range_meters":8400,"station_id":"ce4bhbh2rcd13ifvqepg","pricing_plan_id":"cebpf4jnsgd1na2vs0mg"},{"bike_id":"18b6d8fc-ed4c-47c8-94a5-7880adc3399d","system_id":"levelo_inurba_marseille","lat":43.21735,"lon":5.34613,"is_reserved":false,"is_disabled":false,"rental_uris":{"android":"levelo://app?vid=18b6d8fc-ed4c-47c8-94a5-7880adc3399d","ios":"levelo://app?vid=18b6d8fc-ed4c-47c8-94a5-7880adc3399d"},"vehicle_type_id":"4","last_reported":1781528430,"current_range_meters":8400,"station_id":"st_cvj6r9ubvosntc0bgbag","pricing_plan_id":"cebpf4jnsgd1na2vs0mg"},{"bike_id":"60dfa685-eb14-4e52-b0ed-8695211583ce","system_id":"levelo_inurba_marseille","lat":43.24598,"lon":5.43182,"is_reserved":false,"is_disabled":false,"rental_uris":{"android":"levelo://app?vid=60dfa685-eb14-4e52-b0ed-8695211583ce","ios":"levelo://app?vid=60dfa685-eb14-4e52-b0ed-8695211583ce"},"vehicle_type_id":"4","last_reported":1781528430,"current_range_meters":8400,"station_id":"st_d2m6c4gdas8pm72e190g","pricing_plan_id":"cebpf4jnsgd1na2vs0mg"},{"bike_id":"d1bc1a7a-307c-44ae-a7b8-0e494df81b1e","system_id":"levelo_inurba_marseille","lat":43.24394,"lon":5.37067,"is_reserved":false,"is_disabled":false,"rental_uris":{"android":"levelo://app?vid=d1bc1a7a-307c-44ae-a7b8-0e494df81b1e","ios":"levelo://app?vid=d1bc1a7a-307c-44ae-a7b8-0e494df81b1e"},"vehicle_type_id":"4","last_reported":1781528430,"current_range_meters":8400,"station_id":"ce4bhhh2rcd13ifvqfk0","pricing_plan_id":"cebpf4jnsgd1na2vs0mg"},{"bike_id":"c773a28c-7f59-40bf-89bc-8cfd9237d156","system_id":"levelo_inurba_marseille","lat":43.24725,"lon":5.39485,"is_reserved":false,"is_disabled":false,"rental_uris":{"android":"levelo://app?vid=c773a28c-7f59-40bf-89bc-8cfd9237d156","ios":"levelo://app?vid=c773a28c-7f59-40bf-89bc-8cfd9237d156"},"vehicle_type_id":"4","last_reported":1781528430,"current_range_meters":8400,"station_id":"","pricing_plan_id":"cebpf4jnsgd1na2vs0mg"},{"bike_id":"fa2e5c04-d6c1-4cfb-892a-52d44006f288","system_id":"levelo_inurba_marseille","lat":43.27219,"lon":5.39211,"is_reserved":false,"is_disabled":true,"rental_uris":{"android":"levelo://app?vid=fa2e5c04-d6c1-4cfb-892a-52d44006f288","ios":"levelo://app?vid=fa2e5c04-d6c1-4cfb-892a-52d44006f288"},"vehicle_type_id":"4","last_reported":1781528430,"current_range_meters":8400,"station_id":"ce4bhhp2rcd13ifvqfm0","pricing_plan_id":"cebpf4jnsgd1na2vs0mg"},{"bike_id":"31179630-f483-4227-8b89-1765f7b4232e","system_id":"levelo_inurba_marseille","lat":43.28439,"lon":5.37163,"is_reserved":false,"is_disabled":true,"rental_uris":{"android":"levelo://app?vid=31179630-f483-4227-8b89-1765f7b4232e","ios":"levelo://app?vid=31179630-f483-4227-8b89-1765f7b4232e"},"vehicle_type_id":"4","last_reported":1781528430,"current_range_meters":8400,"station_id":"","pricing_plan_id":"cebpf4jnsgd1na2vs0mg"},{"bike_id":"e035cc80-3015-44c8-bc4f-1d4da2e38d11","system_id":"levelo_inurba_marseille","lat":43.29909,"lon":5.37465,"is_reserved":false,"is_disabled":false,"rental_uris":{"android":"levelo://app?vid=e035cc80-3015-44c8-bc4f-1d4da2e38d11","ios":"levelo://app?vid=e035cc80-3015-44c8-bc4f-1d4da2e38d11"},"vehicle_type_id":"4","last_reported":1781528430,"current_range_meters":8400,"station_id":"ce4bgjh2rcd13ifvqbg0","pricing_plan_id":"cebpf4jnsgd1na2vs0mg"},{"bike_id":"3a46db05-b0c2-4f97-a67f-99de5d51e18c","system_id":"levelo_inurba_marseille","lat":43.33158,"lon":5.37716,"is_reserved":false,"is_disabled":false,"rental_uris":{"android":"levelo://app?vid=3a46db05-b0c2-4f97-a67f-99de5d51e18c","ios":"levelo://app?vid=3a46db05-b0c2-4f97-a67f-99de5d51e18c"},"vehicle_type_id":"4","last_reported":1781528430,"current_range_meters":8400,"station_id":"st_d46cu089ee8s73dldbu0","pricing_plan_id":"cebpf4jnsgd1na2vs0mg"},{"bike_id":"c295b4e3-3d55-4f51-a7be-6c3ca387f3ad","system_id":"levelo_inurba_marseille","lat":43.27607,"lon":5.43428,"is_reserved":false,"is_disabled":false,"rental_uris":{"android":"levelo://app?vid=c295b4e3-3d55-4f51-a7be-6c3ca387f3ad","ios":"levelo://app?vid=c295b4e3-3d55-4f51-a7be-6c3ca387f3ad"},"vehicle_type_id":"4","last_reported":1781528430,"current_range_meters":8400,"station_id":"","pricing_plan_id":"cebpf4jnsgd1na2vs0mg"},{"bike_id":"21e9b6dc-5983-4010-8701-8f21410b46ab","system_id":"levelo_inurba_marseille","lat":43.28052,"lon":5.35321,"is_reserved":false,"is_disabled":true,"rental_uris":{"android":"levelo://app?vid=21e9b6dc-5983-4010-8701-8f21410b46ab","ios":"levelo://app?vid=21e9b6dc-5983-4010-8701-8f21410b46ab"},"vehicle_type_id":"4","last_reported":1781528430,"current_range_meters":8400,"station_id":"","pricing_plan_id":"cebpf4jnsgd1na2vs0mg"},{"bike_id":"78e44fe7-5222-45cd-966d-0d6ef32c1f96","system_id":"levelo_inurba_marseille","lat":43.32484,"lon":5.36569,"is_reserved":false,"is_disabled":false,"rental_uris":{"android":"levelo://app?vid=78e44fe7-5222-45cd-966d-0d6ef32c1f96","ios":"levelo://app?vid=78e44fe7-5222-45cd-966d-0d6ef32c1f96"},"vehicle_type_id":"4","last_reported":1781528430,"current_range_meters":8400,"station_id":"ce4bhs12rcd13ifvqhvg","pricing_plan_id":"cebpf4jnsgd1na2vs0mg"},{"bike_id":"1685a571-c831-4661-b8b3-ed557698e18c","system_id":"levelo_inurba_marseille","lat":43.24411,"lon":5.43939,"is_reserved":false,"is_disabled":false,"rental_uris":{"android":"levelo://app?vid=1685a571-c831-4661-b8b3-ed557698e18c","ios":"levelo://app?vid=1685a571-c831-4661-b8b3-ed557698e18c"},"vehicle_type_id":"4","last_reported":1781528430,"current_range_meters":8400,"station_id":"","pricing_plan_id":"cebpf4jnsgd1na2vs0mg"},{"bike_id":"53282265-7064-4951-963b-2430970568c4","system_id":"levelo_inurba_marseille","lat":43.29716,"lon":5.37655,"is_reserved":false,"is_disabled":true,"rental_uris":{"android":"levelo://app?vid=53282265-7064-4951-963b-2430970568c4","ios":"levelo://app?vid=53282265-7064-4951-963b-2430970568c4"},"vehicle_type_id":"4","last_reported":1781528430,"current_range_meters":8400,"station_id":"ce4bgkh2rcd13ifvqbl0","pricing_plan_id":"cebpf4jnsgd1na2vs0mg"},{"bike_id":"7948ec17-09f9-4822-a76e-99b0665246b3","system_id":"levelo_inurba_marseille","lat":43.26782,"lon":5.39416,"is_reserved":false,"is_disabled":false,"rental_uris":{"android":"levelo://app?vid=7948ec17-09f9-4822-a76e-99b0665246b3","ios":"levelo://app?vid=7948ec17-09f9-4822-a76e-99b0665246b3"},"vehicle_type_id":"4","last_reported":1781528430,"current_range_meters":8400,"station_id":"ce4bhh12rcd13ifvqfg0","pricing_plan_id":"cebpf4jnsgd1na2vs0mg"},{"bike_id":"eb968d49-4c9c-40dc-9230-c14323d9f5d3","system_id":"levelo_inurba_marseille","lat":43.31174,"lon":5.36842,"is_reserved":false,"is_disabled":false,"rental_uris":{"android":"levelo://app?vid=eb968d49-4c9c-40dc-9230-c14323d9f5d3","ios":"levelo://app?vid=eb968d49-4c9c-40dc-9230-c14323d9f5d3"},"vehicle_type_id":"4","last_reported":1781528430,"current_range_meters":8400,"station_id":"","pricing_plan_id":"cebpf4jnsgd1na2vs0mg"},{"bike_id":"977645b6-217a-47a2-ba96-95fbbff84dac","system_id":"levelo_inurba_marseille","lat":43.25021,"lon":5.38938,"is_reserved":false,"is_disabled":false,"rental_uris":{"android":"levelo://app?vid=977645b6-217a-47a2-ba96-95fbbff84dac","ios":"levelo://app?vid=977645b6-217a-47a2-ba96-95fbbff84dac"},"vehicle_type_id":"4","last_reported":1781528430,"current_range_meters":8400,"station_id":"ce4bhgp2rcd13ifvqfd0","pricing_plan_id":"cebpf4jnsgd1na2vs0mg"},{"bike_id":"b500ebed-ef4d-4ac5-8746-716a3c2e995a","system_id":"levelo_inurba_marseille","lat":43.26615,"lon":5.39041,"is_reserved":false,"is_disabled":false,"rental_uris":{"android":"levelo://app?vid=b500ebed-ef4d-4ac5-8746-716a3c2e995a","ios":"levelo://app?vid=b500ebed-ef4d-4ac5-8746-716a3c2e995a"},"vehicle_type_id":"4","last_reported":1781528430,"current_range_meters":8400,"station_id":"","pricing_plan_id":"cebpf4jnsgd1na2vs0mg"},{"bike_id":"0bef8233-151f-4067-b544-c1c8843fe13f","system_id":"levelo_inurba_marseille","lat":43.28627,"lon":5.35087,"is_reserved":false,"is_disabled":false,"rental_uris":{"android":"levelo://app?vid=0bef8233-151f-4067-b544-c1c8843fe13f","ios":"levelo://app?vid=0bef8233-151f-4067-b544-c1c8843fe13f"},"vehicle_type_id":"4","last_reported":1781528430,"current_range_meters":8400,"station_id":"ce4bhch2rcd13ifvqeug","pricing_plan_id":"cebpf4jnsgd1na2vs0mg"},{"bike_id":"40312c6c-6798-45ef-aa16-01e7a1654a8c","system_id":"levelo_inurba_marseille","lat":43.28402,"lon":5.34986,"is_reserved":false,"is_disabled":false,"rental_uris":{"android":"levelo://app?vid=40312c6c-6798-45ef-aa16-01e7a1654a8c","ios":"levelo://app?vid=40312c6c-6798-45ef-aa16-01e7a1654a8c"},"vehicle_type_id":"4","last_reported":1781528430,"current_range_meters":8800,"station_id":"ce4bhbh2rcd13ifvqepg","pricing_plan_id":"cebpf4jnsgd1na2vs0mg"},{"bike_id":"0686decd-719a-457c-b9b1-22cdbe9bffac","system_id":"levelo_inurba_marseille","lat":43.34138,"lon":5.409134,"is_reserved":false,"is_disabled":false,"rental_uris":{"android":"levelo://app?vid=0686decd-719a-457c-b9b1-22cdbe9bffac","ios":"levelo://app?vid=0686decd-719a-457c-b9b1-22cdbe9bffac"},"vehicle_type_id":"4","last_reported":1781528430,"current_range_meters":8800,"station_id":"ce4bhqh2rcd13ifvqhlg","pricing_plan_id":"cebpf4jnsgd1na2vs0mg"},{"bike_id":"3303cdbb-f72a-4b15-867d-27edc3be47e6","system_id":"levelo_inurba_marseille","lat":43.30164,"lon":5.38084,"is_reserved":false,"is_disabled":false,"rental_uris":{"android":"levelo://app?vid=3303cdbb-f72a-4b15-867d-27edc3be47e6","ios":"levelo://app?vid=3303cdbb-f72a-4b15-867d-27edc3be47e6"},"vehicle_type_id":"4","last_reported":1781528430,"current_range_meters":8800,"station_id":"ce4bgjp2rcd13ifvqbh0","pricing_plan_id":"cebpf4jnsgd1na2vs0mg"},{"bike_id":"ee54a747-e42f-496f-a7b7-58c82fb5b689","system_id":"levelo_inurba_marseille","lat":43.31138,"lon":5.36851,"is_reserved":false,"is_disabled":false,"rental_uris":{"android":"levelo://app?vid=ee54a747-e42f-496f-a7b7-58c82fb5b689","ios":"levelo://app?vid=ee54a747-e42f-496f-a7b7-58c82fb5b689"},"vehicle_type_id":"4","last_reported":1781528430,"current_range_meters":8800,"station_id":"ce4bgl92rcd13ifvqbq0","pricing_plan_id":"cebpf4jnsgd1na2vs0mg"},{"bike_id":"4c3ac9b6-fffe-47ed-b422-075b414e3c4f","system_id":"levelo_inurba_marseille","lat":43.28461,"lon":5.48387,"is_reserved":false,"is_disabled":false,"rental_uris":{"android":"levelo://app?vid=4c3ac9b6-fffe-47ed-b422-075b414e3c4f","ios":"levelo://app?vid=4c3ac9b6-fffe-47ed-b422-075b414e3c4f"},"vehicle_type_id":"4","last_reported":1781528430,"current_range_meters":8800,"station_id":"st_d3svhcjqgbts73a3dn0g","pricing_plan_id":"cebpf4jnsgd1na2vs0mg"},{"bike_id":"1465974c-c134-494f-bb70-36b5a942876e","system_id":"levelo_inurba_marseille","lat":43.29183,"lon":5.35818,"is_reserved":false,"is_disabled":false,"rental_uris":{"android":"levelo://app?vid=1465974c-c134-494f-bb70-36b5a942876e","ios":"levelo://app?vid=1465974c-c134-494f-bb70-36b5a942876e"},"vehicle_type_id":"4","last_reported":1781528430,"current_range_meters":8800,"station_id":"ce4bhb12rcd13ifvqel0","pricing_plan_id":"cebpf4jnsgd1na2vs0mg"},{"bike_id":"e63d5e95-1b9f-4e39-b6cf-96343fa191ab","system_id":"levelo_inurba_marseille","lat":43.22553,"lon":5.41664,"is_reserved":false,"is_disabled":false,"rental_uris":{"android":"levelo://app?vid=e63d5e95-1b9f-4e39-b6cf-96343fa191ab","ios":"levelo://app?vid=e63d5e95-1b9f-4e39-b6cf-96343fa191ab"},"vehicle_type_id":"4","last_reported":1781528430,"current_range_meters":8800,"station_id":"st_d2o4gvlbi1j2169b742g","pricing_plan_id":"cebpf4jnsgd1na2vs0mg"},{"bike_id":"9f085004-c84e-4fe8-90b8-286d51a92be5","system_id":"levelo_inurba_marseille","lat":43.32139,"lon":5.36802,"is_reserved":false,"is_disabled":false,"rental_uris":{"android":"levelo://app?vid=9f085004-c84e-4fe8-90b8-286d51a92be5","ios":"levelo://app?vid=9f085004-c84e-4fe8-90b8-286d51a92be5"},"vehicle_type_id":"4","last_reported":1781528430,"current_range_meters":8800,"station_id":"","pricing_plan_id":"cebpf4jnsgd1na2vs0mg"},{"bike_id":"eda1677e-51f2-4755-b328-95c6eb361795","system_id":"levelo_inurba_marseille","lat":43.28999,"lon":5.35611,"is_reserved":false,"is_disabled":false,"rental_uris":{"android":"levelo://app?vid=eda1677e-51f2-4755-b328-95c6eb361795","ios":"levelo://app?vid=eda1677e-51f2-4755-b328-95c6eb361795"},"vehicle_type_id":"4","last_reported":1781528430,"current_range_meters":8800,"station_id":"ce4bhb92rcd13ifvqen0","pricing_plan_id":"cebpf4jnsgd1na2vs0mg"},{"bike_id":"50c351cd-cb44-4acf-bb6e-cb0a434857f7","system_id":"levelo_inurba_marseille","lat":43.28939,"lon":5.36402,"is_reserved":false,"is_disabled":true,"rental_uris":{"android":"levelo://app?vid=50c351cd-cb44-4acf-bb6e-cb0a434857f7","ios":"levelo://app?vid=50c351cd-cb44-4acf-bb6e-cb0a434857f7"},"vehicle_type_id":"4","last_reported":1781528430,"current_range_meters":8800,"station_id":"ce4bhc92rcd13ifvqetg","pricing_plan_id":"cebpf4jnsgd1na2vs0mg"},{"bike_id":"6921070b-bb89-4366-8ecf-691634e931f8","system_id":"levelo_inurba_marseille","lat":43.32,"lon":5.38149,"is_reserved":false,"is_disabled":false,"rental_uris":{"android":"levelo://app?vid=6921070b-bb89-4366-8ecf-691634e931f8","ios":"levelo://app?vid=6921070b-bb89-4366-8ecf-691634e931f8"},"vehicle_type_id":"4","last_reported":1781528430,"current_range_meters":8800,"station_id":"ce4bhr12rcd13ifvqhpg","pricing_plan_id":"cebpf4jnsgd1na2vs0mg"},{"bike_id":"8b57c0f1-2ff6-4e74-b506-66054b373054","system_id":"levelo_inurba_marseille","lat":43.30456,"lon":5.37906,"is_reserved":false,"is_disabled":false,"rental_uris":{"android":"levelo://app?vid=8b57c0f1-2ff6-4e74-b506-66054b373054","ios":"levelo://app?vid=8b57c0f1-2ff6-4e74-b506-66054b373054"},"vehicle_type_id":"4","last_reported":1781528430,"current_range_meters":8800,"station_id":"ce4bgup2rcd13ifvqcn0","pricing_plan_id":"cebpf4jnsgd1na2vs0mg"},