{"last_updated":1734019925,"ttl":60,"version":"2.2","data":{"bikes":[{"bike_id":"a06d90d2-bd4f-47ff-b2e4-11bc41d6b89f","system_id":"levelo_inurba_marseille","lat":43.29863,"lon":5.39751,"is_reserved":false,"is_disabled":false,"rental_uris":{"android":"levelo://app?vid=a06d90d2-bd4f-47ff-b2e4-11bc41d6b89f","ios":"levelo://app?vid=a06d90d2-bd4f-47ff-b2e4-11bc41d6b89f"},"vehicle_type_id":"4","last_reported":1734019925,"current_range_meters":22800,"station_id":"ce4bh312rcd13ifvqdj0","pricing_plan_id":"cebpf4jnsgd1na2vs0mg"},{"bike_id":"907fec12-a848-4864-ae30-c2b590a6dd5f","system_id":"levelo_inurba_marseille","lat":43.26235,"lon":5.37428,"is_reserved":false,"is_disabled":true,"rental_uris":{"android":"levelo://app?vid=907fec12-a848-4864-ae30-c2b590a6dd5f","ios":"levelo://app?vid=907fec12-a848-4864-ae30-c2b590a6dd5f"},"vehicle_type_id":"4","last_reported":1734019925,"current_range_meters":800,"station_id":"","pricing_plan_id":"cebpf4jnsgd1na2vs0mg"},{"bike_id":"60e9ed68-c2d5-4fcc-b1fe-df98992a2ea5","system_id":"levelo_inurba_marseille","lat":43.30764,"lon":5.36837,"is_reserved":false,"is_disabled":true,"rental_uris":{"android":"levelo://app?vid=60e9ed68-c2d5-4fcc-b1fe-df98992a2ea5","ios":"levelo://app?vid=60e9ed68-c2d5-4fcc-b1fe-df98992a2ea5"},"vehicle_type_id":"4","last_reported":1734019925,"current_range_meters":0,"station_id":"","pricing_plan_id":"cebpf4jnsgd1na2vs0mg"},{"bike_id":"70264841-f3db-4034-846f-0a3a10327c9a","system_id":"levelo_inurba_marseille","lat":43.25557,"lon":5.38227,"is_reserved":false,"is_disabled":false,"rental_uris":{"android":"levelo://app?vid=70264841-f3db-4034-846f-0a3a10327c9a","ios":"levelo://app?vid=70264841-f3db-4034-846f-0a3a10327c9a"},"vehicle_type_id":"4","last_reported":1734019925,"current_range_meters":16800,"station_id":"ce4bhih2rcd13ifvqfs0","pricing_plan_id":"cebpf4jnsgd1na2vs0mg"},{"bike_id":"46be3b8e-d7f9-47cb-9a03-2992870ad06d","system_id":"levelo_inurba_marseille","lat":43.27992,"lon":5.40024,"is_reserved":false,"is_disabled":false,"rental_uris":{"android":"levelo://app?vid=46be3b8e-d7f9-47cb-9a03-2992870ad06d","ios":"levelo://app?vid=46be3b8e-d7f9-47cb-9a03-2992870ad06d"},"vehicle_type_id":"4","last_reported":1734019925,"current_range_meters":36400,"station_id":"ce4bho92rcd13ifvqh4g","pricing_plan_id":"cebpf4jnsgd1na2vs0mg"},{"bike_id":"b10cb830-a23f-4995-89fc-bf25ecf89b39","system_id":"levelo_inurba_marseille","lat":43.24649,"lon":5.38167,"is_reserved":false,"is_disabled":false,"rental_uris":{"android":"levelo://app?vid=b10cb830-a23f-4995-89fc-bf25ecf89b39","ios":"levelo://app?vid=b10cb830-a23f-4995-89fc-bf25ecf89b39"},"vehicle_type_id":"4","last_reported":1734019925,"current_range_meters":7200,"station_id":"ce4bhih2rcd13ifvqfr0","pricing_plan_id":"cebpf4jnsgd1na2vs0mg"},{"bike_id":"cec2c9b7-31d1-4743-9c0d-7321776bf0f4","system_id":"levelo_inurba_marseille","lat":43.32655,"lon":5.41001,"is_reserved":false,"is_disabled":false,"rental_uris":{"android":"levelo://app?vid=cec2c9b7-31d1-4743-9c0d-7321776bf0f4","ios":"levelo://app?vid=cec2c9b7-31d1-4743-9c0d-7321776bf0f4"},"vehicle_type_id":"4","last_reported":1734019925,"current_range_meters":10800,"station_id":"ce4bhpp2rcd13ifvqhgg","pricing_plan_id":"cebpf4jnsgd1na2vs0mg"},{"bike_id":"980f96eb-32c9-4906-98f6-c44dbf4c84a1","system_id":"levelo_inurba_marseille","lat":43.27455,"lon":5.40073,"is_reserved":false,"is_disabled":true,"rental_uris":{"android":"levelo://app?vid=980f96eb-32c9-4906-98f6-c44dbf4c84a1","ios":"levelo://app?vid=980f96eb-32c9-4906-98f6-c44dbf4c84a1"},"vehicle_type_id":"4","last_reported":1734019925,"current_range_meters":0,"station_id":"","pricing_plan_id":"cebpf4jnsgd1na2vs0mg"},{"bike_id":"4059b443-9c0d-43c9-8d35-79449a7d9a76","system_id":"levelo_inurba_marseille","lat":43.30542,"lon":5.36527,"is_reserved":false,"is_disabled":false,"rental_uris":{"android":"levelo://app?vid=4059b443-9c0d-43c9-8d35-79449a7d9a76","ios":"levelo://app?vid=4059b443-9c0d-43c9-8d35-79449a7d9a76"},"vehicle_type_id":"4","last_reported":1734019925,"current_range_meters":6400,"station_id":"ce4bgs12rcd13ifvqcag","pricing_plan_id":"cebpf4jnsgd1na2vs0mg"},{"bike_id":"8eb40f25-fc14-4288-9dd7-aae13b0a9b04","system_id":"levelo_inurba_marseille","lat":43.26938,"lon":5.40248,"is_reserved":false,"is_disabled":true,"rental_uris":{"android":"levelo://app?vid=8eb40f25-fc14-4288-9dd7-aae13b0a9b04","ios":"levelo://app?vid=8eb40f25-fc14-4288-9dd7-aae13b0a9b04"},"vehicle_type_id":"4","last_reported":1734019925,"current_range_meters":34800,"station_id":"cjm6bp8fraef2m0cb0m0","pricing_plan_id":"cebpf4jnsgd1na2vs0mg"},{"bike_id":"9a37956d-9edb-4a6c-a60b-73a57a4af8d4","system_id":"levelo_inurba_marseille","lat":43.29269,"lon":5.40908,"is_reserved":false,"is_disabled":false,"rental_uris":{"android":"levelo://app?vid=9a37956d-9edb-4a6c-a60b-73a57a4af8d4","ios":"levelo://app?vid=9a37956d-9edb-4a6c-a60b-73a57a4af8d4"},"vehicle_type_id":"4","last_reported":1734019925,"current_range_meters":7200,"station_id":"ce4bh192rcd13ifvqdc0","pricing_plan_id":"cebpf4jnsgd1na2vs0mg"},{"bike_id":"c9c6b6b2-50fd-4528-9688-7194d77ddf3c","system_id":"levelo_inurba_marseille","lat":43.30539,"lon":5.36527,"is_reserved":false,"is_disabled":false,"rental_uris":{"android":"levelo://app?vid=c9c6b6b2-50fd-4528-9688-7194d77ddf3c","ios":"levelo://app?vid=c9c6b6b2-50fd-4528-9688-7194d77ddf3c"},"vehicle_type_id":"4","last_reported":1734019925,"current_range_meters":36000,"station_id":"ce4bgs12rcd13ifvqcag","pricing_plan_id":"cebpf4jnsgd1na2vs0mg"},{"bike_id":"65b51269-0190-4c94-b535-f98c4ee083ff","system_id":"levelo_inurba_marseille","lat":43.2582,"lon":5.39432,"is_reserved":false,"is_disabled":false,"rental_uris":{"android":"levelo://app?vid=65b51269-0190-4c94-b535-f98c4ee083ff","ios":"levelo://app?vid=65b51269-0190-4c94-b535-f98c4ee083ff"},"vehicle_type_id":"4","last_reported":1734019925,"current_range_meters":19200,"station_id":"ce4bhip2rcd13ifvqft0","pricing_plan_id":"cebpf4jnsgd1na2vs0mg"},{"bike_id":"62c1474a-61f3-4dca-9592-618e79e1d0f8","system_id":"levelo_inurba_marseille","lat":43.28615,"lon":5.351,"is_reserved":false,"is_disabled":false,"rental_uris":{"android":"levelo://app?vid=62c1474a-61f3-4dca-9592-618e79e1d0f8","ios":"levelo://app?vid=62c1474a-61f3-4dca-9592-618e79e1d0f8"},"vehicle_type_id":"4","last_reported":1734019925,"current_range_meters":38800,"station_id":"ce4bhch2rcd13ifvqeug","pricing_plan_id":"cebpf4jnsgd1na2vs0mg"},{"bike_id":"976e1536-7249-425f-8cfa-22b5b9a9e0e3","system_id":"levelo_inurba_marseille","lat":43.28078,"lon":5.39657,"is_reserved":false,"is_disabled":true,"rental_uris":{"android":"levelo://app?vid=976e1536-7249-425f-8cfa-22b5b9a9e0e3","ios":"levelo://app?vid=976e1536-7249-425f-8cfa-22b5b9a9e0e3"},"vehicle_type_id":"4","last_reported":1734019925,"current_range_meters":1200,"station_id":"ce4bho12rcd13ifvqh2g","pricing_plan_id":"cebpf4jnsgd1na2vs0mg"},{"bike_id":"fe87f8f2-6e97-4611-93da-1318a830eb3c","system_id":"levelo_inurba_marseille","lat":43.27993,"lon":5.41661,"is_reserved":false,"is_disabled":true,"rental_uris":{"android":"levelo://app?vid=fe87f8f2-6e97-4611-93da-1318a830eb3c","ios":"levelo://app?vid=fe87f8f2-6e97-4611-93da-1318a830eb3c"},"vehicle_type_id":"4","last_reported":1734019925,"current_range_meters":38800,"station_id":"ce4bho12rcd13ifvqh1g","pricing_plan_id":"cebpf4jnsgd1na2vs0mg"},{"bike_id":"a118724e-099d-4517-9529-bc6e47cefa3a","system_id":"levelo_inurba_marseille","lat":43.30962,"lon":5.37931,"is_reserved":false,"is_disabled":false,"rental_uris":{"android":"levelo://app?vid=a118724e-099d-4517-9529-bc6e47cefa3a","ios":"levelo://app?vid=a118724e-099d-4517-9529-bc6e47cefa3a"},"vehicle_type_id":"4","last_reported":1734019925,"current_range_meters":24000,"station_id":"","pricing_plan_id":"cebpf4jnsgd1na2vs0mg"},{"bike_id":"b678928e-7b0c-4004-b029-1c221cb8e086","system_id":"levelo_inurba_marseille","lat":43.29263,"lon":5.40909,"is_reserved":false,"is_disabled":false,"rental_uris":{"android":"levelo://app?vid=b678928e-7b0c-4004-b029-1c221cb8e086","ios":"levelo://app?vid=b678928e-7b0c-4004-b029-1c221cb8e086"},"vehicle_type_id":"4","last_reported":1734019925,"current_range_meters":22800,"station_id":"ce4bh192rcd13ifvqdc0","pricing_plan_id":"cebpf4jnsgd1na2vs0mg"},{"bike_id":"25f8d5ad-ebc3-41f1-8807-e746d9c46c37","system_id":"levelo_inurba_marseille","lat":43.28935,"lon":5.36415,"is_reserved":false,"is_disabled":false,"rental_uris":{"android":"levelo://app?vid=25f8d5ad-ebc3-41f1-8807-e746d9c46c37","ios":"levelo://app?vid=25f8d5ad-ebc3-41f1-8807-e746d9c46c37"},"vehicle_type_id":"4","last_reported":1734019925,"current_range_meters":23200,"station_id":"ce4bhc92rcd13ifvqetg","pricing_plan_id":"cebpf4jnsgd1na2vs0mg"},{"bike_id":"664c9696-737d-49bf-8130-42ead64e83d8","system_id":"levelo_inurba_marseille","lat":43.2985,"lon":5.36287,"is_reserved":false,"is_disabled":false,"rental_uris":{"android":"levelo://app?vid=664c9696-737d-49bf-8130-42ead64e83d8","ios":"levelo://app?vid=664c9696-737d-49bf-8130-42ead64e83d8"},"vehicle_type_id":"4","last_reported":1734019925,"current_range_meters":8400,"station_id":"ce4bgpp2rcd13ifvqc3g","pricing_plan_id":"cebpf4jnsgd1na2vs0mg"},{"bike_id":"0c3dd50b-c3e5-4af5-9cb3-0d200d12a110","system_id":"levelo_inurba_marseille","lat":43.2317,"lon":5.39992,"is_reserved":false,"is_disabled":false,"rental_uris":{"android":"levelo://app?vid=0c3dd50b-c3e5-4af5-9cb3-0d200d12a110","ios":"levelo://app?vid=0c3dd50b-c3e5-4af5-9cb3-0d200d12a110"},"vehicle_type_id":"4","last_reported":1734019925,"current_range_meters":20800,"station_id":"ce4bhn12rcd13ifvqgqg","pricing_plan_id":"cebpf4jnsgd1na2vs0mg"},{"bike_id":"987443a5-0b08-4d32-83cb-6e5082219184","system_id":"levelo_inurba_marseille","lat":43.31366,"lon":5.38492,"is_reserved":false,"is_disabled":false,"rental_uris":{"android":"levelo://app?vid=987443a5-0b08-4d32-83cb-6e5082219184","ios":"levelo://app?vid=987443a5-0b08-4d32-83cb-6e5082219184"},"vehicle_type_id":"4","last_reported":1734019925,"current_range_meters":29600,"station_id":"ce4bgt92rcd13ifvqcf0","pricing_plan_id":"cebpf4jnsgd1na2vs0mg"},{"bike_id":"80f66b82-54aa-4843-b64e-91d3afce4948","system_id":"levelo_inurba_marseille","lat":43.30803,"lon":5.373577,"is_reserved":false,"is_disabled":true,"rental_uris":{"android":"levelo://app?vid=80f66b82-54aa-4843-b64e-91d3afce4948","ios":"levelo://app?vid=80f66b82-54aa-4843-b64e-91d3afce4948"},"vehicle_type_id":"4","last_reported":1734019925,"current_range_meters":26800,"station_id":"","pricing_plan_id":"cebpf4jnsgd1na2vs0mg"},{"bike_id":"a63958b5-e1f7-4b1a-9554-85840167b0f7","system_id":"levelo_inurba_marseille","lat":43.2318,"lon":5.39988,"is_reserved":false,"is_disabled":true,"rental_uris":{"android":"levelo://app?vid=a63958b5-e1f7-4b1a-9554-85840167b0f7","ios":"levelo://app?vid=a63958b5-e1f7-4b1a-9554-85840167b0f7"},"vehicle_type_id":"4","last_reported":1734019925,"current_range_meters":0,"station_id":"ce4bhn12rcd13ifvqgqg","pricing_plan_id":"cebpf4jnsgd1na2vs0mg"},{"bike_id":"87fce182-3296-4aa0-bc7c-a2decdf4c36c","system_id":"levelo_inurba_marseille","lat":43.28418,"lon":5.37515,"is_reserved":false,"is_disabled":false,"rental_uris":{"android":"levelo://app?vid=87fce182-3296-4aa0-bc7c-a2decdf4c36c","ios":"levelo://app?vid=87fce182-3296-4aa0-bc7c-a2decdf4c36c"},"vehicle_type_id":"4","last_reported":1734019925,"current_range_meters":16400,"station_id":"ce4bh412rcd13ifvqds0","pricing_plan_id":"cebpf4jnsgd1na2vs0mg"},{"bike_id":"3a56946e-b571-4f0a-89c3-228266a44430","system_id":"levelo_inurba_marseille","lat":43.26597,"lon":5.38971,"is_reserved":false,"is_disabled":true,"rental_uris":{"android":"levelo://app?vid=3a56946e-b571-4f0a-89c3-228266a44430","ios":"levelo://app?vid=3a56946e-b571-4f0a-89c3-228266a44430"},"vehicle_type_id":"4","last_reported":1734019925,"current_range_meters":2800,"station_id":"","pricing_plan_id":"cebpf4jnsgd1na2vs0mg"},{"bike_id":"302a636a-220e-491f-8470-6489b58f1fd5","system_id":"levelo_inurba_marseille","lat":43.3055,"lon":5.36704,"is_reserved":false,"is_disabled":false,"rental_uris":{"android":"levelo://app?vid=302a636a-220e-491f-8470-6489b58f1fd5","ios":"levelo://app?vid=302a636a-220e-491f-8470-6489b58f1fd5"},"vehicle_type_id":"4","last_reported":1734019925,"current_range_meters":5600,"station_id":"ce4bgrp2rcd13ifvqc9g","pricing_plan_id":"cebpf4jnsgd1na2vs0mg"},{"bike_id":"5e08cce4-2c93-4f4e-8ac2-f9eadcce8bb3","system_id":"levelo_inurba_marseille","lat":43.291984,"lon":5.39327,"is_reserved":false,"is_disabled":false,"rental_uris":{"android":"levelo://app?vid=5e08cce4-2c93-4f4e-8ac2-f9eadcce8bb3","ios":"levelo://app?vid=5e08cce4-2c93-4f4e-8ac2-f9eadcce8bb3"},"vehicle_type_id":"4","last_reported":1734019925,"current_range_meters":16000,"station_id":"ce4bh492rcd13ifvqdvg","pricing_plan_id":"cebpf4jnsgd1na2vs0mg"},{"bike_id":"99857054-2dd5-4452-8d52-9f670b5101cd","system_id":"levelo_inurba_marseille","lat":43.29914,"lon":5.37467,"is_reserved":false,"is_disabled":false,"rental_uris":{"android":"levelo://app?vid=99857054-2dd5-4452-8d52-9f670b5101cd","ios":"levelo://app?vid=99857054-2dd5-4452-8d52-9f670b5101cd"},"vehicle_type_id":"4","last_reported":1734019925,"current_range_meters":10000,"station_id":"ce4bgjh2rcd13ifvqbg0","pricing_plan_id":"cebpf4jnsgd1na2vs0mg"},{"bike_id":"ee096f1c-edb7-4277-9dd8-7d6d9f503cd6","system_id":"levelo_inurba_marseille","lat":43.31113,"lon":5.37775,"is_reserved":false,"is_disabled":false,"rental_uris":{"android":"levelo://app?vid=ee096f1c-edb7-4277-9dd8-7d6d9f503cd6","ios":"levelo://app?vid=ee096f1c-edb7-4277-9dd8-7d6d9f503cd6"},"vehicle_type_id":"4","last_reported":1734019925,"current_range_meters":30000,"station_id":"ce4bgt92rcd13ifvqcg0","pricing_plan_id":"cebpf4jnsgd1na2vs0mg"},{"bike_id":"a26c0977-afbe-417a-bd99-0ae3d92576ba","system_id":"levelo_inurba_marseille","lat":43.27184,"lon":5.40992,"is_reserved":false,"is_disabled":false,"rental_uris":{"android":"levelo://app?vid=a26c0977-afbe-417a-bd99-0ae3d92576ba","ios":"levelo://app?vid=a26c0977-afbe-417a-bd99-0ae3d92576ba"},"vehicle_type_id":"4","last_reported":1734019925,"current_range_meters":3600,"station_id":"ce4bhl12rcd13ifvqgf0","pricing_plan_id":"cebpf4jnsgd1na2vs0mg"},{"bike_id":"b13f7988-892d-489e-89d4-b900be8b8ffb","system_id":"levelo_inurba_marseille","lat":43.29687,"lon":5.37309,"is_reserved":false,"is_disabled":true,"rental_uris":{"android":"levelo://app?vid=b13f7988-892d-489e-89d4-b900be8b8ffb","ios":"levelo://app?vid=b13f7988-892d-489e-89d4-b900be8b8ffb"},"vehicle_type_id":"4","last_reported":1734019925,"current_range_meters":38800,"station_id":"ce4bgk12rcd13ifvqbj0","pricing_plan_id":"cebpf4jnsgd1na2vs0mg"},{"bike_id":"ed750745-6276-4978-b0a2-53df5acd6813","system_id":"levelo_inurba_marseille","lat":43.29513,"lon":5.394,"is_reserved":false,"is_disabled":false,"rental_uris":{"android":"levelo://app?vid=ed750745-6276-4978-b0a2-53df5acd6813","ios":"levelo://app?vid=ed750745-6276-4978-b0a2-53df5acd6813"},"vehicle_type_id":"4","last_reported":1734019925,"current_range_meters":26800,"station_id":"ce4bh292rcd13ifvqdf0","pricing_plan_id":"cebpf4jnsgd1na2vs0mg"},{"bike_id":"6a21ae99-c9f0-40b0-9b68-5f20cf6387fe","system_id":"levelo_inurba_marseille","lat":43.29518,"lon":5.39041,"is_reserved":false,"is_disabled":false,"rental_uris":{"android":"levelo://app?vid=6a21ae99-c9f0-40b0-9b68-5f20cf6387fe","ios":"levelo://app?vid=6a21ae99-c9f0-40b0-9b68-5f20cf6387fe"},"vehicle_type_id":"4","last_reported":1734019925,"current_range_meters":35200,"station_id":"ce4bh3p2rcd13ifvqdp0","pricing_plan_id":"cebpf4jnsgd1na2vs0mg"},{"bike_id":"fcaa85c8-310d-4f7f-90a2-f4e86135f1e9","system_id":"levelo_inurba_marseille","lat":43.26492,"lon":5.39546,"is_reserved":false,"is_disabled":false,"rental_uris":{"android":"levelo://app?vid=fcaa85c8-310d-4f7f-90a2-f4e86135f1e9","ios":"levelo://app?vid=fcaa85c8-310d-4f7f-90a2-f4e86135f1e9"},"vehicle_type_id":"4","last_reported":1734019925,"current_range_meters":36800,"station_id":"ce4bhi12rcd13ifvqfq0","pricing_plan_id":"cebpf4jnsgd1na2vs0mg"},{"bike_id":"4552534d-00b9-4142-9baa-7b817acd308f","system_id":"levelo_inurba_marseille","lat":43.3248,"lon":5.36577,"is_reserved":false,"is_disabled":false,"rental_uris":{"android":"levelo://app?vid=4552534d-00b9-4142-9baa-7b817acd308f","ios":"levelo://app?vid=4552534d-00b9-4142-9baa-7b817acd308f"},"vehicle_type_id":"4","last_reported":1734019925,"current_range_meters":28000,"station_id":"ce4bhs12rcd13ifvqhvg","pricing_plan_id":"cebpf4jnsgd1na2vs0mg"},{"bike_id":"11933e04-d81a-4d25-aa83-cc295172b3a1","system_id":"levelo_inurba_marseille","lat":43.25417,"lon":5.38274,"is_reserved":false,"is_disabled":true,"rental_uris":{"android":"levelo://app?vid=11933e04-d81a-4d25-aa83-cc295172b3a1","ios":"levelo://app?vid=11933e04-d81a-4d25-aa83-cc295172b3a1"},"vehicle_type_id":"4","last_reported":1734019925,"current_range_meters":29600,"station_id":"","pricing_plan_id":"cebpf4jnsgd1na2vs0mg"},{"bike_id":"97c5cdf1-5409-48ef-b0e2-df7f208e5c46","system_id":"levelo_inurba_marseille","lat":43.27065,"lon":5.40262,"is_reserved":false,"is_disabled":false,"rental_uris":{"android":"levelo://app?vid=97c5cdf1-5409-48ef-b0e2-df7f208e5c46","ios":"levelo://app?vid=97c5cdf1-5409-48ef-b0e2-df7f208e5c46"},"vehicle_type_id":"4","last_reported":1734019925,"current_range_meters":27600,"station_id":"ce4bhk92rcd13ifvqgc0","pricing_plan_id":"cebpf4jnsgd1na2vs0mg"},{"bike_id":"c4412eb7-fc32-4912-a812-6e15b96bb2e2","system_id":"levelo_inurba_marseille","lat":43.278984,"lon":5.380162,"is_reserved":false,"is_disabled":false,"rental_uris":{"android":"levelo://app?vid=c4412eb7-fc32-4912-a812-6e15b96bb2e2","ios":"levelo://app?vid=c4412eb7-fc32-4912-a812-6e15b96bb2e2"},"vehicle_type_id":"4","last_reported":1734019925,"current_range_meters":38800,"station_id":"ce4bhf92rcd13ifvqf50","pricing_plan_id":"cebpf4jnsgd1na2vs0mg"},{"bike_id":"ea48dfc4-d7d7-4dd1-ba71-0180d51b08d7","system_id":"levelo_inurba_marseille","lat":43.27618,"lon":5.36114,"is_reserved":false,"is_disabled":false,"rental_uris":{"android":"levelo://app?vid=ea48dfc4-d7d7-4dd1-ba71-0180d51b08d7","ios":"levelo://app?vid=ea48dfc4-d7d7-4dd1-ba71-0180d51b08d7"},"vehicle_type_id":"4","last_reported":1734019925,"current_range_meters":38000,"station_id":"ce4bgj92rcd13ifvqbe0","pricing_plan_id":"cebpf4jnsgd1na2vs0mg"},{"bike_id":"30b7f7b0-cffb-44e8-9e23-86428fe1183d","system_id":"levelo_inurba_marseille","lat":43.23066,"lon":5.35491,"is_reserved":false,"is_disabled":false,"rental_uris":{"android":"levelo://app?vid=30b7f7b0-cffb-44e8-9e23-86428fe1183d","ios":"levelo://app?vid=30b7f7b0-cffb-44e8-9e23-86428fe1183d"},"vehicle_type_id":"4","last_reported":1734019925,"current_range_meters":7200,"station_id":"cpo3342slgdg3j2ifvpg","pricing_plan_id":"cebpf4jnsgd1na2vs0mg"},{"bike_id":"baae4540-1fb0-422e-923f-d65050f3b86f","system_id":"levelo_inurba_marseille","lat":43.30145,"lon":5.38068,"is_reserved":false,"is_disabled":false,"rental_uris":{"android":"levelo://app?vid=baae4540-1fb0-422e-923f-d65050f3b86f","ios":"levelo://app?vid=baae4540-1fb0-422e-923f-d65050f3b86f"},"vehicle_type_id":"4","last_reported":1734019925,"current_range_meters":27200,"station_id":"ce4bgjp2rcd13ifvqbh0","pricing_plan_id":"cebpf4jnsgd1na2vs0mg"},{"bike_id":"f7f130f1-b97c-4b8e-b4cf-bf01c2789165","system_id":"levelo_inurba_marseille","lat":43.25725,"lon":5.41105,"is_reserved":false,"is_disabled":false,"rental_uris":{"android":"levelo://app?vid=f7f130f1-b97c-4b8e-b4cf-bf01c2789165","ios":"levelo://app?vid=f7f130f1-b97c-4b8e-b4cf-bf01c2789165"},"vehicle_type_id":"4","last_reported":1734019925,"current_range_meters":17600,"station_id":"ce4bhkp2rcd13ifvqgd0","pricing_plan_id":"cebpf4jnsgd1na2vs0mg"},{"bike_id":"c962957d-ec10-4997-96e1-a869343f922e","system_id":"levelo_inurba_marseille","lat":43.32674,"lon":5.36083,"is_reserved":false,"is_disabled":false,"rental_uris":{"android":"levelo://app?vid=c962957d-ec10-4997-96e1-a869343f922e","ios":"levelo://app?vid=c962957d-ec10-4997-96e1-a869343f922e"},"vehicle_type_id":"4","last_reported":1734019925,"current_range_meters":9200,"station_id":"","pricing_plan_id":"cebpf4jnsgd1na2vs0mg"},{"bike_id":"de8a29ec-927d-4344-b072-779700f97fd0","system_id":"levelo_inurba_marseille","lat":43.32363,"lon":5.389,"is_reserved":false,"is_disabled":false,"rental_uris":{"android":"levelo://app?vid=de8a29ec-927d-4344-b072-779700f97fd0","ios":"levelo://app?vid=de8a29ec-927d-4344-b072-779700f97fd0"},"vehicle_type_id":"4","last_reported":1734019925,"current_range_meters":28400,"station_id":"ce4bhqp2rcd13ifvqhog","pricing_plan_id":"cebpf4jnsgd1na2vs0mg"},{"bike_id":"b3578bf6-9848-4132-a4c4-aa3029f69f38","system_id":"levelo_inurba_marseille","lat":43.25091,"lon":5.39526,"is_reserved":false,"is_disabled":false,"rental_uris":{"android":"levelo://app?vid=b3578bf6-9848-4132-a4c4-aa3029f69f38","ios":"levelo://app?vid=b3578bf6-9848-4132-a4c4-aa3029f69f38"},"vehicle_type_id":"4","last_reported":1734019925,"current_range_meters":38800,"station_id":"ce4bhm12rcd13ifvqgkg","pricing_plan_id":"cebpf4jnsgd1na2vs0mg"},{"bike_id":"39f5010f-c57e-403e-bb91-25facbc3bc6a","system_id":"levelo_inurba_marseille","lat":43.29722,"lon":5.366,"is_reserved":false,"is_disabled":false,"rental_uris":{"android":"levelo://app?vid=39f5010f-c57e-403e-bb91-25facbc3bc6a","ios":"levelo://app?vid=39f5010f-c57e-403e-bb91-25facbc3bc6a"},"vehicle_type_id":"4","last_reported":1734019925,"current_range_meters":29600,"station_id":"ce4bgn12rcd13ifvqbt0","pricing_plan_id":"cebpf4jnsgd1na2vs0mg"},{"bike_id":"80e7d90a-8050-4fc6-8802-63867dac5ff2","system_id":"levelo_inurba_marseille","lat":43.28708,"lon":5.37384,"is_reserved":false,"is_disabled":true,"rental_uris":{"android":"levelo://app?vid=80e7d90a-8050-4fc6-8802-63867dac5ff2","ios":"levelo://app?vid=80e7d90a-8050-4fc6-8802-63867dac5ff2"},"vehicle_type_id":"4","last_reported":1734019925,"current_range_meters":36800,"station_id":"ce4bh3p2rcd13ifvqdq0","pricing_plan_id":"cebpf4jnsgd1na2vs0mg"},{"bike_id":"dd28bc87-aedf-45fd-b982-6aee62487677","system_id":"levelo_inurba_marseille","lat":43.26563,"lon":5.37282,"is_reserved":false,"is_disabled":false,"rental_uris":{"android":"levelo://app?vid=dd28bc87-aedf-45fd-b982-6aee62487677","ios":"levelo://app?vid=dd28bc87-aedf-45fd-b982-6aee62487677"},"vehicle_type_id":"4","last_reported":1734019925,"current_range_meters":9200,"station_id":"ce4bhg12rcd13ifvqf70","pricing_plan_id":"cebpf4jnsgd1na2vs0mg"},{"bike_id":"002dd6ac-49f4-4d46-91bc-8a83a2b0e4a3","system_id":"levelo_inurba_marseille","lat":43.27376,"lon":5.36257,"is_reserved":false,"is_disabled":false,"rental_uris":{"android":"levelo://app?vid=002dd6ac-49f4-4d46-91bc-8a83a2b0e4a3","ios":"levelo://app?vid=002dd6ac-49f4-4d46-91bc-8a83a2b0e4a3"},"vehicle_type_id":"4","last_reported":1734019925,"current_range_meters":7200,"station_id":"ce4bhbh2rcd13ifvqeo0","pricing_plan_id":"cebpf4jnsgd1na2vs0mg"},{"bike_id":"3cc49aec-0146-4bd6-8ced-13dc2b354f47","system_id":"levelo_inurba_marseille","lat":43.23181,"lon":5.39984,"is_reserved":false,"is_disabled":true,"rental_uris":{"android":"levelo://app?vid=3cc49aec-0146-4bd6-8ced-13dc2b354f47","ios":"levelo://app?vid=3cc49aec-0146-4bd6-8ced-13dc2b354f47"},"vehicle_type_id":"4","last_reported":1734019925,"current_range_meters":1600,"station_id":"ce4bhn12rcd13ifvqgqg","pricing_plan_id":"cebpf4jnsgd1na2vs0mg"},{"bike_id":"4cc534b3-3210-4d32-b7fe-98cb81a7f45c","system_id":"levelo_inurba_marseille","lat":43.29892,"lon":5.38151,"is_reserved":false,"is_disabled":false,"rental_uris":{"android":"levelo://app?vid=4cc534b3-3210-4d32-b7fe-98cb81a7f45c","ios":"levelo://app?vid=4cc534b3-3210-4d32-b7fe-98cb81a7f45c"},"vehicle_type_id":"4","last_reported":1734019925,"current_range_meters":14000,"station_id":"ce4bgj12rcd13ifvqbc0","pricing_plan_id":"cebpf4jnsgd1na2vs0mg"},{"bike_id":"233bcb0e-527f-471c-8a5b-cff4cc0533fb","system_id":"levelo_inurba_marseille","lat":43.27898,"lon":5.38008,"is_reserved":false,"is_disabled":false,"rental_uris":{"android":"levelo://app?vid=233bcb0e-527f-471c-8a5b-cff4cc0533fb","ios":"levelo://app?vid=233bcb0e-527f-471c-8a5b-cff4cc0533fb"},"vehicle_type_id":"4","last_reported":1734019925,"current_range_meters":34000,"station_id":"ce4bhf92rcd13ifvqf50","pricing_plan_id":"cebpf4jnsgd1na2vs0mg"},{"bike_id":"08847a3c-7a55-4ad2-bab4-04d000d405ee","system_id":"levelo_inurba_marseille","lat":43.28483,"lon":5.38559,"is_reserved":false,"is_disabled":false,"rental_uris":{"android":"levelo://app?vid=08847a3c-7a55-4ad2-bab4-04d000d405ee","ios":"levelo://app?vid=08847a3c-7a55-4ad2-bab4-04d000d405ee"},"vehicle_type_id":"4","last_reported":1734019925,"current_range_meters":27600,"station_id":"ce4bh8p2rcd13ifvqeb0","pricing_plan_id":"cebpf4jnsgd1na2vs0mg"},{"bike_id":"1a529c68-ed7c-4901-9fbd-b7a7247ae5d3","system_id":"levelo_inurba_marseille","lat":43.28512,"lon":5.3855,"is_reserved":false,"is_disabled":false,"rental_uris":{"android":"levelo://app?vid=1a529c68-ed7c-4901-9fbd-b7a7247ae5d3","ios":"levelo://app?vid=1a529c68-ed7c-4901-9fbd-b7a7247ae5d3"},"vehicle_type_id":"4","last_reported":1734019925,"current_range_meters":38800,"station_id":"ce4bh8p2rcd13ifvqeb0","pricing_plan_id":"cebpf4jnsgd1na2vs0mg"},{"bike_id":"4c9a48f7-763e-4e96-a176-c382227dbe96","system_id":"levelo_inurba_marseille","lat":43.29092,"lon":5.38136,"is_reserved":false,"is_disabled":true,"rental_uris":{"android":"levelo://app?vid=4c9a48f7-763e-4e96-a176-c382227dbe96","ios":"levelo://app?vid=4c9a48f7-763e-4e96-a176-c382227dbe96"},"vehicle_type_id":"4","last_reported":1734019925,"current_range_meters":0,"station_id":"ce4bh512rcd13ifvqe2g","pricing_plan_id":"cebpf4jnsgd1na2vs0mg"},{"bike_id":"272c2d2a-06b8-4db1-8117-380ae3afde1d","system_id":"levelo_inurba_marseille","lat":43.27615,"lon":5.36107,"is_reserved":false,"is_disabled":false,"rental_uris":{"android":"levelo://app?vid=272c2d2a-06b8-4db1-8117-380ae3afde1d","ios":"levelo://app?vid=272c2d2a-06b8-4db1-8117-380ae3afde1d"},"vehicle_type_id":"4","last_reported":1734019925,"current_range_meters":14000,"station_id":"ce4bgj92rcd13ifvqbe0","pricing_plan_id":"cebpf4jnsgd1na2vs0mg"},{"bike_id":"6b7da9da-7ed8-4376-8377-8274a75ba481","system_id":"levelo_inurba_marseille","lat":43.2703,"lon":5.40284,"is_reserved":false,"is_disabled":true,"rental_uris":{"android":"levelo://app?vid=6b7da9da-7ed8-4376-8377-8274a75ba481","ios":"levelo://app?vid=6b7da9da-7ed8-4376-8377-8274a75ba481"},"vehicle_type_id":"4","last_reported":1734019925,"current_range_meters":36400,"station_id":"ce4bhk92rcd13ifvqgc0","pricing_plan_id":"cebpf4jnsgd1na2vs0mg"},{"bike_id":"d2a98a1f-64a2-40e5-aa0b-ffab91cc3d62","system_id":"levelo_inurba_marseille","lat":43.29026,"lon":5.38128,"is_reserved":false,"is_disabled":true,"rental_uris":{"android":"levelo://app?vid=d2a98a1f-64a2-40e5-aa0b-ffab91cc3d62","ios":"levelo://app?vid=d2a98a1f-64a2-40e5-aa0b-ffab91cc3d62"},"vehicle_type_id":"4","last_reported":1734019925,"current_range_meters":25200,"station_id":"ce4bh4p2rcd13ifvqe1g","pricing_plan_id":"cebpf4jnsgd1na2vs0mg"},{"bike_id":"af67ac53-ba21-4ff0-8334-95679e9ff2cc","system_id":"levelo_inurba_marseille","lat":43.278805,"lon":5.388003,"is_reserved":false,"is_disabled":true,"rental_uris":{"android":"levelo://app?vid=af67ac53-ba21-4ff0-8334-95679e9ff2cc","ios":"levelo://app?vid=af67ac53-ba21-4ff0-8334-95679e9ff2cc"},"vehicle_type_id":"4","last_reported":1734019925,"current_range_meters":0,"station_id":"","pricing_plan_id":"cebpf4jnsgd1na2vs0mg"},{"bike_id":"71d61762-1784-47f7-9985-cbf8777d5545","system_id":"levelo_inurba_marseille","lat":43.24656,"lon":5.38893,"is_reserved":false,"is_disabled":false,"rental_uris":{"android":"levelo://app?vid=71d61762-1784-47f7-9985-cbf8777d5545","ios":"levelo://app?vid=71d61762-1784-47f7-9985-cbf8777d5545"},"vehicle_type_id":"4","last_reported":1734019925,"current_range_meters":18800,"station_id":"ce4bhg12rcd13ifvqf60","pricing_plan_id":"cebpf4jnsgd1na2vs0mg"},{"bike_id":"e49f36f0-b8f8-46ae-9200-56edbd010e9a","system_id":"levelo_inurba_marseille","lat":43.31115,"lon":5.37764,"is_reserved":false,"is_disabled":false,"rental_uris":{"android":"levelo://app?vid=e49f36f0-b8f8-46ae-9200-56edbd010e9a","ios":"levelo://app?vid=e49f36f0-b8f8-46ae-9200-56edbd010e9a"},"vehicle_type_id":"4","last_reported":1734019925,"current_range_meters":9600,"station_id":"ce4bgt92rcd13ifvqcg0","pricing_plan_id":"cebpf4jnsgd1na2vs0mg"},{"bike_id":"a8952a43-ed45-4b45-98c8-1bb60ae3ae5a","system_id":"levelo_inurba_marseille","lat":43.30773,"lon":5.37659,"is_reserved":false,"is_disabled":true,"rental_uris":{"android":"levelo://app?vid=a8952a43-ed45-4b45-98c8-1bb60ae3ae5a","ios":"levelo://app?vid=a8952a43-ed45-4b45-98c8-1bb60ae3ae5a"},"vehicle_type_id":"4","last_reported":1734019925,"current_range_meters":3200,"station_id":"ce4bgv92rcd13ifvqcq0","pricing_plan_id":"cebpf4jnsgd1na2vs0mg"},{"bike_id":"ad7d64f8-f7b1-4da7-b2c2-e5248d71ad17","system_id":"levelo_inurba_marseille","lat":43.32336,"lon":5.40624,"is_reserved":false,"is_disabled":false,"rental_uris":{"android":"levelo://app?vid=ad7d64f8-f7b1-4da7-b2c2-e5248d71ad17","ios":"levelo://app?vid=ad7d64f8-f7b1-4da7-b2c2-e5248d71ad17"},"vehicle_type_id":"4","last_reported":1734019925,"current_range_meters":33200,"station_id":"ce4bhq92rcd13ifvqhjg","pricing_plan_id":"cebpf4jnsgd1na2vs0mg"},{"bike_id":"abdad7a6-d1a1-4f59-bd9b-76a6123e96f0","system_id":"levelo_inurba_marseille","lat":43.33025,"lon":5.39038,"is_reserved":false,"is_disabled":false,"rental_uris":{"android":"levelo://app?vid=abdad7a6-d1a1-4f59-bd9b-76a6123e96f0","ios":"levelo://app?vid=abdad7a6-d1a1-4f59-bd9b-76a6123e96f0"},"vehicle_type_id":"4","last_reported":1734019925,"current_range_meters":37600,"station_id":"ce4bhr92rcd13ifvqhrg","pricing_plan_id":"cebpf4jnsgd1na2vs0mg"},{"bike_id":"0d51207a-6766-4ca1-9792-bef311c83567","system_id":"levelo_inurba_marseille","lat":43.29636,"lon":5.40592,"is_reserved":false,"is_disabled":false,"rental_uris":{"android":"levelo://app?vid=0d51207a-6766-4ca1-9792-bef311c83567","ios":"levelo://app?vid=0d51207a-6766-4ca1-9792-bef311c83567"},"vehicle_type_id":"4","last_reported":1734019925,"current_range_meters":2800,"station_id":"ce4bh0h2rcd13ifvqd60","pricing_plan_id":"cebpf4jnsgd1na2vs0mg"},{"bike_id":"812146ef-5497-4746-b4ff-5d5d828fb6ac","system_id":"levelo_inurba_marseille","lat":43.31718,"lon":5.42409,"is_reserved":false,"is_disabled":true,"rental_uris":{"android":"levelo://app?vid=812146ef-5497-4746-b4ff-5d5d828fb6ac","ios":"levelo://app?vid=812146ef-5497-4746-b4ff-5d5d828fb6ac"},"vehicle_type_id":"4","last_reported":1734019925,"current_range_meters":1200,"station_id":"ce4bhp92rcd13ifvqhbg","pricing_plan_id":"cebpf4jnsgd1na2vs0mg"},{"bike_id":"870e6636-b21e-471c-863d-86dd369d4305","system_id":"levelo_inurba_marseille","lat":43.26945,"lon":5.40248,"is_reserved":false,"is_disabled":false,"rental_uris":{"android":"levelo://app?vid=870e6636-b21e-471c-863d-86dd369d4305","ios":"levelo://app?vid=870e6636-b21e-471c-863d-86dd369d4305"},"vehicle_type_id":"4","last_reported":1734019925,"current_range_meters":39200,"station_id":"cjm6bp8fraef2m0cb0m0","pricing_plan_id":"cebpf4jnsgd1na2vs0mg"},{"bike_id":"4873c46e-cb28-4a7f-a38b-62bd40ae6e70","system_id":"levelo_inurba_marseille","lat":43.27913,"lon":5.39581,"is_reserved":false,"is_disabled":true,"rental_uris":{"android":"levelo://app?vid=4873c46e-cb28-4a7f-a38b-62bd40ae6e70","ios":"levelo://app?vid=4873c46e-cb28-4a7f-a38b-62bd40ae6e70"},"vehicle_type_id":"4","last_reported":1734019925,"current_range_meters":30800,"station_id":"ce4bhf92rcd13ifvqf40","pricing_plan_id":"cebpf4jnsgd1na2vs0mg"},{"bike_id":"eff73534-f22b-4a1a-82a2-ca18a15687bb","system_id":"levelo_inurba_marseille","lat":43.28372,"lon":5.38627,"is_reserved":false,"is_disabled":false,"rental_uris":{"android":"levelo://app?vid=eff73534-f22b-4a1a-82a2-ca18a15687bb","ios":"levelo://app?vid=eff73534-f22b-4a1a-82a2-ca18a15687bb"},"vehicle_type_id":"4","last_reported":1734019925,"current_range_meters":20800,"station_id":"ce4bh492rcd13ifvqdvg","pricing_plan_id":"cebpf4jnsgd1na2vs0mg"},{"bike_id":"c2ca0bfa-8a63-4d2c-bace-c910b45652dc","system_id":"levelo_inurba_marseille","lat":43.2868,"lon":5.38685,"is_reserved":false,"is_disabled":false,"rental_uris":{"android":"levelo://app?vid=c2ca0bfa-8a63-4d2c-bace-c910b45652dc","ios":"levelo://app?vid=c2ca0bfa-8a63-4d2c-bace-c910b45652dc"},"vehicle_type_id":"4","last_reported":1734019925,"current_range_meters":3200,"station_id":"ce4bh492rcd13ifvqdug","pricing_plan_id":"cebpf4jnsgd1na2vs0mg"},{"bike_id":"43e01d4c-1523-4020-83af-9009220e6e46","system_id":"levelo_inurba_marseille","lat":43.29259,"lon":5.3844,"is_reserved":false,"is_disabled":true,"rental_uris":{"android":"levelo://app?vid=43e01d4c-1523-4020-83af-9009220e6e46","ios":"levelo://app?vid=43e01d4c-1523-4020-83af-9009220e6e46"},"vehicle_type_id":"4","last_reported":1734019925,"current_range_meters":0,"station_id":"ce4bh692rcd13ifvqea0","pricing_plan_id":"cebpf4jnsgd1na2vs0mg"},{"bike_id":"e1c4092d-7afb-447e-904a-caf651e36ce2","system_id":"levelo_inurba_marseille","lat":43.31265,"lon":5.37415,"is_reserved":false,"is_disabled":true,"rental_uris":{"android":"levelo://app?vid=e1c4092d-7afb-447e-904a-caf651e36ce2","ios":"levelo://app?vid=e1c4092d-7afb-447e-904a-caf651e36ce2"},"vehicle_type_id":"4","last_reported":1734019925,"current_range_meters":2000,"station_id":"","pricing_plan_id":"cebpf4jnsgd1na2vs0mg"},{"bike_id":"88fd6081-e8a1-4b8c-a88f-ce6e40a6b4bf","system_id":"levelo_inurba_marseille","lat":43.26809,"lon":5.40275,"is_reserved":false,"is_disabled":true,"rental_uris":{"android":"levelo://app?vid=88fd6081-e8a1-4b8c-a88f-ce6e40a6b4bf","ios":"levelo://app?vid=88fd6081-e8a1-4b8c-a88f-ce6e40a6b4bf"},"vehicle_type_id":"4","last_reported":1734019925,"current_range_meters":0,"station_id":"ce501612rcd8frsf0b60","pricing_plan_id":"cebpf4jnsgd1na2vs0mg"},{"bike_id":"3532d72c-cf55-4947-a726-bb4cce046dc7","system_id":"levelo_inurba_marseille","lat":43.31998,"lon":5.38169,"is_reserved":false,"is_disabled":false,"rental_uris":{"android":"levelo://app?vid=3532d72c-cf55-4947-a726-bb4cce046dc7","ios":"levelo://app?vid=3532d72c-cf55-4947-a726-bb4cce046dc7"},"vehicle_type_id":"4","last_reported":1734019925,"current_range_meters":2800,"station_id":"ce4bhr12rcd13ifvqhpg","pricing_plan_id":"cebpf4jnsgd1na2vs0mg"},{"bike_id":"0fad1fa1-4b40-42cb-873a-c0e41b1edfbd","system_id":"levelo_inurba_marseille","lat":43.262116,"lon":5.374437,"is_reserved":false,"is_disabled":false,"rental_uris":{"android":"levelo://app?vid=0fad1fa1-4b40-42cb-873a-c0e41b1edfbd","ios":"levelo://app?vid=0fad1fa1-4b40-42cb-873a-c0e41b1edfbd"},"vehicle_type_id":"4","last_reported":1734019925,"current_range_meters":17600,"station_id":"ce4bhgp2rcd13ifvqfc0","pricing_plan_id":"cebpf4jnsgd1na2vs0mg"},{"bike_id":"899865a6-c669-4d89-bf17-a5ebea184b38","system_id":"levelo_inurba_marseille","lat":43.28454,"lon":5.35885,"is_reserved":false,"is_disabled":false,"rental_uris":{"android":"levelo://app?vid=899865a6-c669-4d89-bf17-a5ebea184b38","ios":"levelo://app?vid=899865a6-c669-4d89-bf17-a5ebea184b38"},"vehicle_type_id":"4","last_reported":1734019925,"current_range_meters":1600,"station_id":"ce4bhah2rcd13ifvqei0","pricing_plan_id":"cebpf4jnsgd1na2vs0mg"},{"bike_id":"18449eca-7cd4-4637-aad8-d740a9109818","system_id":"levelo_inurba_marseille","lat":43.26808,"lon":5.40281,"is_reserved":false,"is_disabled":false,"rental_uris":{"android":"levelo://app?vid=18449eca-7cd4-4637-aad8-d740a9109818","ios":"levelo://app?vid=18449eca-7cd4-4637-aad8-d740a9109818"},"vehicle_type_id":"4","last_reported":1734019925,"current_range_meters":38400,"station_id":"ce501612rcd8frsf0b60","pricing_plan_id":"cebpf4jnsgd1na2vs0mg"},{"bike_id":"36a0f318-ffb4-458a-894f-e9900d7ffdd6","system_id":"levelo_inurba_marseille","lat":43.26556,"lon":5.37285,"is_reserved":false,"is_disabled":false,"rental_uris":{"android":"levelo://app?vid=36a0f318-ffb4-458a-894f-e9900d7ffdd6","ios":"levelo://app?vid=36a0f318-ffb4-458a-894f-e9900d7ffdd6"},"vehicle_type_id":"4","last_reported":1734019925,"current_range_meters":38800,"station_id":"ce4bhg12rcd13ifvqf70","pricing_plan_id":"cebpf4jnsgd1na2vs0mg"},{"bike_id":"71b910f6-f352-49bc-9af4-0c37e0b104d8","system_id":"levelo_inurba_marseille","lat":43.33719,"lon":5.39187,"is_reserved":false,"is_disabled":false,"rental_uris":{"android":"levelo://app?vid=71b910f6-f352-49bc-9af4-0c37e0b104d8","ios":"levelo://app?vid=71b910f6-f352-49bc-9af4-0c37e0b104d8"},"vehicle_type_id":"4","last_reported":1734019925,"current_range_meters":38000,"station_id":"ce4bhr92rcd13ifvqhsg","pricing_plan_id":"cebpf4jnsgd1na2vs0mg"},{"bike_id":"3d91e3c5-7cef-4a6b-b72c-1f72f9823e2d","system_id":"levelo_inurba_marseille","lat":43.29745,"lon":5.36156,"is_reserved":false,"is_disabled":true,"rental_uris":{"android":"levelo://app?vid=3d91e3c5-7cef-4a6b-b72c-1f72f9823e2d","ios":"levelo://app?vid=3d91e3c5-7cef-4a6b-b72c-1f72f9823e2d"},"vehicle_type_id":"4","last_reported":1734019925,"current_range_meters":800,"station_id":"","pricing_plan_id":"cebpf4jnsgd1na2vs0mg"},{"bike_id":"828b3ca8-5877-4dd8-98c0-ea68515e229b","system_id":"levelo_inurba_marseille","lat":43.2509,"lon":5.39524,"is_reserved":false,"is_disabled":false,"rental_uris":{"android":"levelo://app?vid=828b3ca8-5877-4dd8-98c0-ea68515e229b","ios":"levelo://app?vid=828b3ca8-5877-4dd8-98c0-ea68515e229b"},"vehicle_type_id":"4","last_reported":1734019925,"current_range_meters":6000,"station_id":"ce4bhm12rcd13ifvqgkg","pricing_plan_id":"cebpf4jnsgd1na2vs0mg"},{"bike_id":"53e14b4a-061d-47e0-9d41-ff9b1a6d0a08","system_id":"levelo_inurba_marseille","lat":43.29821,"lon":5.3629,"is_reserved":false,"is_disabled":false,"rental_uris":{"android":"levelo://app?vid=53e14b4a-061d-47e0-9d41-ff9b1a6d0a08","ios":"levelo://app?vid=53e14b4a-061d-47e0-9d41-ff9b1a6d0a08"},"vehicle_type_id":"4","last_reported":1734019925,"current_range_meters":26800,"station_id":"ce4bgpp2rcd13ifvqc3g","pricing_plan_id":"cebpf4jnsgd1na2vs0mg"},{"bike_id":"88537ece-01c1-4f95-ad65-8b80a72fa620","system_id":"levelo_inurba_marseille","lat":43.30154,"lon":5.37408,"is_reserved":false,"is_disabled":false,"rental_uris":{"android":"levelo://app?vid=88537ece-01c1-4f95-ad65-8b80a72fa620","ios":"levelo://app?vid=88537ece-01c1-4f95-ad65-8b80a72fa620"},"vehicle_type_id":"4","last_reported":1734019925,"current_range_meters":32400,"station_id":"ce4bgs92rcd13ifvqcc0","pricing_plan_id":"cebpf4jnsgd1na2vs0mg"},{"bike_id":"12b58895-583b-440d-9a04-15e6f74fb87c","system_id":"levelo_inurba_marseille","lat":43.28374,"lon":5.38623,"is_reserved":false,"is_disabled":false,"rental_uris":{"android":"levelo://app?vid=12b58895-583b-440d-9a04-15e6f74fb87c","ios":"levelo://app?vid=12b58895-583b-440d-9a04-15e6f74fb87c"},"vehicle_type_id":"4","last_reported":1734019925,"current_range_meters":36800,"station_id":"ce4bh492rcd13ifvqdvg","pricing_plan_id":"cebpf4jnsgd1na2vs0mg"},{"bike_id":"15096c66-0fb3-44dd-8b6e-c5fa03751204","system_id":"levelo_inurba_marseille","lat":43.26216,"lon":5.3744,"is_reserved":false,"is_disabled":false,"rental_uris":{"android":"levelo://app?vid=15096c66-0fb3-44dd-8b6e-c5fa03751204","ios":"levelo://app?vid=15096c66-0fb3-44dd-8b6e-c5fa03751204"},"vehicle_type_id":"4","last_reported":1734019925,"current_range_meters":38800,"station_id":"ce4bhgp2rcd13ifvqfc0","pricing_plan_id":"cebpf4jnsgd1na2vs0mg"},{"bike_id":"f22a5966-0dda-4f92-b79e-ca8860313f38","system_id":"levelo_inurba_marseille","lat":43.27314,"lon":5.39075,"is_reserved":false,"is_disabled":false,"rental_uris":{"android":"levelo://app?vid=f22a5966-0dda-4f92-b79e-ca8860313f38","ios":"levelo://app?vid=f22a5966-0dda-4f92-b79e-ca8860313f38"},"vehicle_type_id":"4","last_reported":1734019925,"current_range_meters":29600,"station_id":"ce4bhgp2rcd13ifvqfe0","pricing_plan_id":"cebpf4jnsgd1na2vs0mg"},{"bike_id":"5713cdfe-6cfc-45fb-8129-00aa87471564","system_id":"levelo_inurba_marseille","lat":43.32485,"lon":5.36575,"is_reserved":false,"is_disabled":false,"rental_uris":{"android":"levelo://app?vid=5713cdfe-6cfc-45fb-8129-00aa87471564","ios":"levelo://app?vid=5713cdfe-6cfc-45fb-8129-00aa87471564"},"vehicle_type_id":"4","last_reported":1734019925,"current_range_meters":8400,"station_id":"ce4bhs12rcd13ifvqhvg","pricing_plan_id":"cebpf4jnsgd1na2vs0mg"},{"bike_id":"fcea60ef-5fcb-4c66-ba5c-346d7dafd09d","system_id":"levelo_inurba_marseille","lat":43.25572,"lon":5.38232,"is_reserved":false,"is_disabled":false,"rental_uris":{"android":"levelo://app?vid=fcea60ef-5fcb-4c66-ba5c-346d7dafd09d","ios":"levelo://app?vid=fcea60ef-5fcb-4c66-ba5c-346d7dafd09d"},"vehicle_type_id":"4","last_reported":1734019925,"current_range_meters":16800,"station_id":"ce4bhih2rcd13ifvqfs0","pricing_plan_id":"cebpf4jnsgd1na2vs0mg"},{"bike_id":"85fc7ebc-e1ee-4e0e-81f6-502ecea0cb12","system_id":"levelo_inurba_marseille","lat":43.3303,"lon":5.39043,"is_reserved":false,"is_disabled":false,"rental_uris":{"android":"levelo://app?vid=85fc7ebc-e1ee-4e0e-81f6-502ecea0cb12","ios":"levelo://app?vid=85fc7ebc-e1ee-4e0e-81f6-502ecea0cb12"},"vehicle_type_id":"4","last_reported":1734019925,"current_range_meters":38800,"station_id":"ce4bhr92rcd13ifvqhrg","pricing_plan_id":"cebpf4jnsgd1na2vs0mg"},{"bike_id":"760cb20f-aaf0-4dec-9aa2-36084c171e5f","system_id":"levelo_inurba_marseille","lat":43.30412,"lon":5.41274,"is_reserved":false,"is_disabled":false,"rental_uris":{"android":"levelo://app?vid=760cb20f-aaf0-4dec-9aa2-36084c171e5f","ios":"levelo://app?vid=760cb20f-aaf0-4dec-9aa2-36084c171e5f"},"vehicle_type_id":"4","last_reported":1734019925,"current_range_meters":3600,"station_id":"ce4bhop2rcd13ifvqh8g","pricing_plan_id":"cebpf4jnsgd1na2vs0mg"},{"bike_id":"08f6dfd2-5a55-4565-9eb0-3f7235020a27","system_id":"levelo_inurba_marseille","lat":43.24534,"lon":5.39509,"is_reserved":false,"is_disabled":false,"rental_uris":{"android":"levelo://app?vid=08f6dfd2-5a55-4565-9eb0-3f7235020a27","ios":"levelo://app?vid=08f6dfd2-5a55-4565-9eb0-3f7235020a27"},"vehicle_type_id":"4","last_reported":1734019925,"current_range_meters":25600,"station_id":"ce4bhlp2rcd13ifvqgjg","pricing_plan_id":"cebpf4jnsgd1na2vs0mg"},{"bike_id":"6bc7401a-ad66-4e4d-bfd6-a954bc5b40c0","system_id":"levelo_inurba_marseille","lat":43.337527,"lon":5.37441,"is_reserved":false,"is_disabled":false,"rental_uris":{"android":"levelo://app?vid=6bc7401a-ad66-4e4d-bfd6-a954bc5b40c0","ios":"levelo://app?vid=6bc7401a-ad66-4e4d-bfd6-a954bc5b40c0"},"vehicle_type_id":"4","last_reported":1734019925,"current_range_meters":34000,"station_id":"","pricing_plan_id":"cebpf4jnsgd1na2vs0mg"},{"bike_id":"a44b44b5-dff9-4d83-af15-7f6039be45f2","system_id":"levelo_inurba_marseille","lat":43.288737,"lon":5.359445,"is_reserved":false,"is_disabled":false,"rental_uris":{"android":"levelo://app?vid=a44b44b5-dff9-4d83-af15-7f6039be45f2","ios":"levelo://app?vid=a44b44b5-dff9-4d83-af15-7f6039be45f2"},"vehicle_type_id":"4","last_reported":1734019925,"current_range_meters":35200,"station_id":"ce4bhb12rcd13ifvqem0","pricing_plan_id":"cebpf4jnsgd1na2vs0mg"},{"bike_id":"f0a4f587-2333-4a7a-8819-09121e495e1b","system_id":"levelo_inurba_marseille","lat":43.2293,"lon":5.35367,"is_reserved":false,"is_disabled":false,"rental_uris":{"android":"levelo://app?vid=f0a4f587-2333-4a7a-8819-09121e495e1b","ios":"levelo://app?vid=f0a4f587-2333-4a7a-8819-09121e495e1b"},"vehicle_type_id":"4","last_reported":1734019925,"current_range_meters":8400,"station_id":"cpo3532slgdg3j2ikp40","pricing_plan_id":"cebpf4jnsgd1na2vs0mg"},{"bike_id":"3a7faa98-146d-404e-b8c1-c3741a056dbf","system_id":"levelo_inurba_marseille","lat":43.29033,"lon":5.39963,"is_reserved":false,"is_disabled":false,"rental_uris":{"android":"levelo://app?vid=3a7faa98-146d-404e-b8c1-c3741a056dbf","ios":"levelo://app?vid=3a7faa98-146d-404e-b8c1-c3741a056dbf"},"vehicle_type_id":"4","last_reported":1734019925,"current_range_meters":21600,"station_id":"ce4bh392rcd13ifvqdm0","pricing_plan_id":"cebpf4jnsgd1na2vs0mg"},{"bike_id":"89aa5a57-e353-4b15-a90c-5e477fa4d751","system_id":"levelo_inurba_marseille","lat":43.295033,"lon":5.394019,"is_reserved":false,"is_disabled":false,"rental_uris":{"android":"levelo://app?vid=89aa5a57-e353-4b15-a90c-5e477fa4d751","ios":"levelo://app?vid=89aa5a57-e353-4b15-a90c-5e477fa4d751"},"vehicle_type_id":"4","last_reported":1734019925,"current_range_meters":38800,"station_id":"ce4bh292rcd13ifvqdf0","pricing_plan_id":"cebpf4jnsgd1na2vs0mg"},{"bike_id":"e2b090ff-7c7f-4d4a-8f5b-c317e750043e","system_id":"levelo_inurba_marseille","lat":43.270663,"lon":5.42276,"is_reserved":false,"is_disabled":true,"rental_uris":{"android":"levelo://app?vid=e2b090ff-7c7f-4d4a-8f5b-c317e750043e","ios":"levelo://app?vid=e2b090ff-7c7f-4d4a-8f5b-c317e750043e"},"vehicle_type_id":"4","last_reported":1734019925,"current_range_meters":0,"station_id":"ce4bhk92rcd13ifvqgb0","pricing_plan_id":"cebpf4jnsgd1na2vs0mg"},{"bike_id":"1802c294-deb8-4890-b7ca-3e995fd26543","system_id":"levelo_inurba_marseille","lat":43.27075,"lon":5.42279,"is_reserved":false,"is_disabled":false,"rental_uris":{"android":"levelo://app?vid=1802c294-deb8-4890-b7ca-3e995fd26543","ios":"levelo://app?vid=1802c294-deb8-4890-b7ca-3e995fd26543"},"vehicle_type_id":"4","last_reported":1734019925,"current_range_meters":30400,"station_id":"ce4bhk92rcd13ifvqgb0","pricing_plan_id":"cebpf4jnsgd1na2vs0mg"},{"bike_id":"a5764ceb-b4e6-4ce6-9bd3-7eb89e8bca41","system_id":"levelo_inurba_marseille","lat":43.29708,"lon":5.36615,"is_reserved":false,"is_disabled":false,"rental_uris":{"android":"levelo://app?vid=a5764ceb-b4e6-4ce6-9bd3-7eb89e8bca41","ios":"levelo://app?vid=a5764ceb-b4e6-4ce6-9bd3-7eb89e8bca41"},"vehicle_type_id":"4","last_reported":1734019925,"current_range_meters":6400,"station_id":"ce4bgn12rcd13ifvqbt0","pricing_plan_id":"cebpf4jnsgd1na2vs0mg"},{"bike_id":"6c528e39-5f1c-4f40-9822-d6bb02aaa39b","system_id":"levelo_inurba_marseille","lat":43.29039,"lon":5.39965,"is_reserved":false,"is_disabled":false,"rental_uris":{"android":"levelo://app?vid=6c528e39-5f1c-4f40-9822-d6bb02aaa39b","ios":"levelo://app?vid=6c528e39-5f1c-4f40-9822-d6bb02aaa39b"},"vehicle_type_id":"4","last_reported":1734019925,"current_range_meters":20400,"station_id":"ce4bh392rcd13ifvqdm0","pricing_plan_id":"cebpf4jnsgd1na2vs0mg"},{"bike_id":"097a41bf-6635-41a6-b7a7-1173cae29ada","system_id":"levelo_inurba_marseille","lat":43.22928,"lon":5.35379,"is_reserved":false,"is_disabled":false,"rental_uris":{"android":"levelo://app?vid=097a41bf-6635-41a6-b7a7-1173cae29ada","ios":"levelo://app?vid=097a41bf-6635-41a6-b7a7-1173cae29ada"},"vehicle_type_id":"4","last_reported":1734019925,"current_range_meters":38800,"station_id":"cpo3532slgdg3j2ikp40","pricing_plan_id":"cebpf4jnsgd1na2vs0mg"},{"bike_id":"4d5881bc-1b66-4424-9cca-37b7d62f3c7f","system_id":"levelo_inurba_marseille","lat":43.29942,"lon":5.38489,"is_reserved":false,"is_disabled":false,"rental_uris":{"android":"levelo://app?vid=4d5881bc-1b66-4424-9cca-37b7d62f3c7f","ios":"levelo://app?vid=4d5881bc-1b66-4424-9cca-37b7d62f3c7f"},"vehicle_type_id":"4","last_reported":1734019925,"current_range_meters":37600,"station_id":"ce4bgj92rcd13ifvqbd0","pricing_plan_id":"cebpf4jnsgd1na2vs0mg"},{"bike_id":"4e0756c0-5241-4d68-9d01-31de591c658f","system_id":"levelo_inurba_marseille","lat":43.26788,"lon":5.39415,"is_reserved":false,"is_disabled":false,"rental_uris":{"android":"levelo://app?vid=4e0756c0-5241-4d68-9d01-31de591c658f","ios":"levelo://app?vid=4e0756c0-5241-4d68-9d01-31de591c658f"},"vehicle_type_id":"4","last_reported":1734019925,"current_range_meters":9600,"station_id":"ce4bhh12rcd13ifvqfg0","pricing_plan_id":"cebpf4jnsgd1na2vs0mg"},{"bike_id":"73c649f1-573c-4ef2-b7fd-0a6363ea8204","system_id":"levelo_inurba_marseille","lat":43.25083,"lon":5.39515,"is_reserved":false,"is_disabled":false,"rental_uris":{"android":"levelo://app?vid=73c649f1-573c-4ef2-b7fd-0a6363ea8204","ios":"levelo://app?vid=73c649f1-573c-4ef2-b7fd-0a6363ea8204"},"vehicle_type_id":"4","last_reported":1734019925,"current_range_meters":27600,"station_id":"ce4bhm12rcd13ifvqgkg","pricing_plan_id":"cebpf4jnsgd1na2vs0mg"},{"bike_id":"0b65f5f2-21e1-4541-a54b-6243f08d3edb","system_id":"levelo_inurba_marseille","lat":43.31123,"lon":5.37773,"is_reserved":false,"is_disabled":false,"rental_uris":{"android":"levelo://app?vid=0b65f5f2-21e1-4541-a54b-6243f08d3edb","ios":"levelo://app?vid=0b65f5f2-21e1-4541-a54b-6243f08d3edb"},"vehicle_type_id":"4","last_reported":1734019925,"current_range_meters":6400,"station_id":"ce4bgt92rcd13ifvqcg0","pricing_plan_id":"cebpf4jnsgd1na2vs0mg"},{"bike_id":"2531e02f-8c0a-455e-85b0-7cbb12c5d291","system_id":"levelo_inurba_marseille","lat":43.29905,"lon":5.38143,"is_reserved":false,"is_disabled":false,"rental_uris":{"android":"levelo://app?vid=2531e02f-8c0a-455e-85b0-7cbb12c5d291","ios":"levelo://app?vid=2531e02f-8c0a-455e-85b0-7cbb12c5d291"},"vehicle_type_id":"4","last_reported":1734019925,"current_range_meters":36000,"station_id":"ce4bgj12rcd13ifvqbc0","pricing_plan_id":"cebpf4jnsgd1na2vs0mg"},{"bike_id":"3479dd04-bc32-4cb2-a183-a6c5f3269d54","system_id":"levelo_inurba_marseille","lat":43.25703,"lon":5.41108,"is_reserved":false,"is_disabled":false,"rental_uris":{"android":"levelo://app?vid=3479dd04-bc32-4cb2-a183-a6c5f3269d54","ios":"levelo://app?vid=3479dd04-bc32-4cb2-a183-a6c5f3269d54"},"vehicle_type_id":"4","last_reported":1734019925,"current_range_meters":10800,"station_id":"ce4bhkp2rcd13ifvqgd0","pricing_plan_id":"cebpf4jnsgd1na2vs0mg"},{"bike_id":"dbf212a4-5c61-42a2-9fb0-64e326737fba","system_id":"levelo_inurba_marseille","lat":43.25583,"lon":5.38237,"is_reserved":false,"is_disabled":false,"rental_uris":{"android":"levelo://app?vid=dbf212a4-5c61-42a2-9fb0-64e326737fba","ios":"levelo://app?vid=dbf212a4-5c61-42a2-9fb0-64e326737fba"},"vehicle_type_id":"4","last_reported":1734019925,"current_range_meters":33600,"station_id":"ce4bhih2rcd13ifvqfs0","pricing_plan_id":"cebpf4jnsgd1na2vs0mg"},{"bike_id":"477804f5-d8f7-435e-9d3a-9ce31793b638","system_id":"levelo_inurba_marseille","lat":43.25574,"lon":5.38247,"is_reserved":false,"is_disabled":false,"rental_uris":{"android":"levelo://app?vid=477804f5-d8f7-435e-9d3a-9ce31793b638","ios":"levelo://app?vid=477804f5-d8f7-435e-9d3a-9ce31793b638"},"vehicle_type_id":"4","last_reported":1734019925,"current_range_meters":16000,"station_id":"ce4bhih2rcd13ifvqfs0","pricing_plan_id":"cebpf4jnsgd1na2vs0mg"},{"bike_id":"fe218123-8a4a-42eb-883f-f2564a296efb","system_id":"levelo_inurba_marseille","lat":43.28038,"lon":5.36945,"is_reserved":false,"is_disabled":false,"rental_uris":{"android":"levelo://app?vid=fe218123-8a4a-42eb-883f-f2564a296efb","ios":"levelo://app?vid=fe218123-8a4a-42eb-883f-f2564a296efb"},"vehicle_type_id":"4","last_reported":1734019925,"current_range_meters":33200,"station_id":"ce4bha12rcd13ifvqef0","pricing_plan_id":"cebpf4jnsgd1na2vs0mg"},{"bike_id":"1d4b063a-25a2-4caf-bbb3-a15c0972fbee","system_id":"levelo_inurba_marseille","lat":43.28457,"lon":5.35887,"is_reserved":false,"is_disabled":false,"rental_uris":{"android":"levelo://app?vid=1d4b063a-25a2-4caf-bbb3-a15c0972fbee","ios":"levelo://app?vid=1d4b063a-25a2-4caf-bbb3-a15c0972fbee"},"vehicle_type_id":"4","last_reported":1734019925,"current_range_meters":28800,"station_id":"ce4bhah2rcd13ifvqei0","pricing_plan_id":"cebpf4jnsgd1na2vs0mg"},{"bike_id":"3c7252c8-8c88-441c-8ae6-135b06848823","system_id":"levelo_inurba_marseille","lat":43.24074,"lon":5.37762,"is_reserved":false,"is_disabled":false,"rental_uris":{"android":"levelo://app?vid=3c7252c8-8c88-441c-8ae6-135b06848823","ios":"levelo://app?vid=3c7252c8-8c88-441c-8ae6-135b06848823"},"vehicle_type_id":"4","last_reported":1734019925,"current_range_meters":30000,"station_id":"ce4bhnp2rcd13ifvqgvg","pricing_plan_id":"cebpf4jnsgd1na2vs0mg"},{"bike_id":"4c8cd4cd-b24f-46cf-a913-7efdfdc627fb","system_id":"levelo_inurba_marseille","lat":43.28487,"lon":5.38539,"is_reserved":false,"is_disabled":true,"rental_uris":{"android":"levelo://app?vid=4c8cd4cd-b24f-46cf-a913-7efdfdc627fb","ios":"levelo://app?vid=4c8cd4cd-b24f-46cf-a913-7efdfdc627fb"},"vehicle_type_id":"4","last_reported":1734019925,"current_range_meters":400,"station_id":"ce4bh8p2rcd13ifvqeb0","pricing_plan_id":"cebpf4jnsgd1na2vs0mg"},{"bike_id":"1d8f97de-1ed1-440e-b824-e114484609aa","system_id":"levelo_inurba_marseille","lat":43.28615,"lon":5.35106,"is_reserved":false,"is_disabled":false,"rental_uris":{"android":"levelo://app?vid=1d8f97de-1ed1-440e-b824-e114484609aa","ios":"levelo://app?vid=1d8f97de-1ed1-440e-b824-e114484609aa"},"vehicle_type_id":"4","last_reported":1734019925,"current_range_meters":21600,"station_id":"ce4bhch2rcd13ifvqeug","pricing_plan_id":"cebpf4jnsgd1na2vs0mg"},{"bike_id":"ee42ce73-e76d-4cef-bb8d-7a7c184ac093","system_id":"levelo_inurba_marseille","lat":43.30433,"lon":5.389083,"is_reserved":false,"is_disabled":false,"rental_uris":{"android":"levelo://app?vid=ee42ce73-e76d-4cef-bb8d-7a7c184ac093","ios":"levelo://app?vid=ee42ce73-e76d-4cef-bb8d-7a7c184ac093"},"vehicle_type_id":"4","last_reported":1734019925,"current_range_meters":36400,"station_id":"ce4bgk12rcd13ifvqbi0","pricing_plan_id":"cebpf4jnsgd1na2vs0mg"},{"bike_id":"36aafc34-8146-43a0-a38b-a54250609eee","system_id":"levelo_inurba_marseille","lat":43.31761,"lon":5.39015,"is_reserved":false,"is_disabled":false,"rental_uris":{"android":"levelo://app?vid=36aafc34-8146-43a0-a38b-a54250609eee","ios":"levelo://app?vid=36aafc34-8146-43a0-a38b-a54250609eee"},"vehicle_type_id":"4","last_reported":1734019925,"current_range_meters":33200,"station_id":"ce4bhqp2rcd13ifvqhng","pricing_plan_id":"cebpf4jnsgd1na2vs0mg"},{"bike_id":"7c11a115-e8c4-4306-ae78-4244d47aabf0","system_id":"levelo_inurba_marseille","lat":43.29802,"lon":5.38093,"is_reserved":false,"is_disabled":true,"rental_uris":{"android":"levelo://app?vid=7c11a115-e8c4-4306-ae78-4244d47aabf0","ios":"levelo://app?vid=7c11a115-e8c4-4306-ae78-4244d47aabf0"},"vehicle_type_id":"4","last_reported":1734019925,"current_range_meters":1200,"station_id":"ce4bgip2rcd13ifvqbb0","pricing_plan_id":"cebpf4jnsgd1na2vs0mg"},{"bike_id":"e0aa9369-ce20-45b2-add4-b40f90d37b22","system_id":"levelo_inurba_marseille","lat":43.25732,"lon":5.41108,"is_reserved":false,"is_disabled":false,"rental_uris":{"android":"levelo://app?vid=e0aa9369-ce20-45b2-add4-b40f90d37b22","ios":"levelo://app?vid=e0aa9369-ce20-45b2-add4-b40f90d37b22"},"vehicle_type_id":"4","last_reported":1734019925,"current_range_meters":4400,"station_id":"ce4bhkp2rcd13ifvqgd0","pricing_plan_id":"cebpf4jnsgd1na2vs0mg"},{"bike_id":"a66c4b95-337e-4b9a-950c-e8c8d8e7a3a1","system_id":"levelo_inurba_marseille","lat":43.324799,"lon":5.365716,"is_reserved":false,"is_disabled":true,"rental_uris":{"android":"levelo://app?vid=a66c4b95-337e-4b9a-950c-e8c8d8e7a3a1","ios":"levelo://app?vid=a66c4b95-337e-4b9a-950c-e8c8d8e7a3a1"},"vehicle_type_id":"4","last_reported":1734019925,"current_range_meters":0,"station_id":"","pricing_plan_id":"cebpf4jnsgd1na2vs0mg"},{"bike_id":"3aa675bf-e140-4eb0-a03c-90dc1dbcecc3","system_id":"levelo_inurba_marseille","lat":43.31324,"lon":5.39691,"is_reserved":false,"is_disabled":false,"rental_uris":{"android":"levelo://app?vid=3aa675bf-e140-4eb0-a03c-90dc1dbcecc3","ios":"levelo://app?vid=3aa675bf-e140-4eb0-a03c-90dc1dbcecc3"},"vehicle_type_id":"4","last_reported":1734019925,"current_range_meters":39200,"station_id":"ce4bgvp2rcd13ifvqcu0","pricing_plan_id":"cebpf4jnsgd1na2vs0mg"},{"bike_id":"beb328f0-5dd2-44ce-bd36-34fd98e4ce4a","system_id":"levelo_inurba_marseille","lat":43.24813,"lon":5.37448,"is_reserved":false,"is_disabled":false,"rental_uris":{"android":"levelo://app?vid=beb328f0-5dd2-44ce-bd36-34fd98e4ce4a","ios":"levelo://app?vid=beb328f0-5dd2-44ce-bd36-34fd98e4ce4a"},"vehicle_type_id":"4","last_reported":1734019925,"current_range_meters":38800,"station_id":"ce4bhgh2rcd13ifvqfb0","pricing_plan_id":"cebpf4jnsgd1na2vs0mg"},{"bike_id":"87edc2fd-a0d7-4ef2-b491-3b98ec0c6cc3","system_id":"levelo_inurba_marseille","lat":43.28616,"lon":5.35111,"is_reserved":false,"is_disabled":false,"rental_uris":{"android":"levelo://app?vid=87edc2fd-a0d7-4ef2-b491-3b98ec0c6cc3","ios":"levelo://app?vid=87edc2fd-a0d7-4ef2-b491-3b98ec0c6cc3"},"vehicle_type_id":"4","last_reported":1734019925,"current_range_meters":38800,"station_id":"ce4bhch2rcd13ifvqeug","pricing_plan_id":"cebpf4jnsgd1na2vs0mg"},{"bike_id":"ca27f90d-04a5-455e-bfff-ce4a3e392a8b","system_id":"levelo_inurba_marseille","lat":43.30408,"lon":5.36789,"is_reserved":false,"is_disabled":false,"rental_uris":{"android":"levelo://app?vid=ca27f90d-04a5-455e-bfff-ce4a3e392a8b","ios":"levelo://app?vid=ca27f90d-04a5-455e-bfff-ce4a3e392a8b"},"vehicle_type_id":"4","last_reported":1734019925,"current_range_meters":36800,"station_id":"","pricing_plan_id":"cebpf4jnsgd1na2vs0mg"},{"bike_id":"1e09aea1-6592-4606-838e-01c5295332d1","system_id":"levelo_inurba_marseille","lat":43.32662,"lon":5.40984,"is_reserved":false,"is_disabled":true,"rental_uris":{"android":"levelo://app?vid=1e09aea1-6592-4606-838e-01c5295332d1","ios":"levelo://app?vid=1e09aea1-6592-4606-838e-01c5295332d1"},"vehicle_type_id":"4","last_reported":1734019925,"current_range_meters":36000,"station_id":"ce4bhpp2rcd13ifvqhgg","pricing_plan_id":"cebpf4jnsgd1na2vs0mg"},{"bike_id":"d71241ea-c6fd-4294-838d-0e0ceab7d48f","system_id":"levelo_inurba_marseille","lat":43.28852,"lon":5.39308,"is_reserved":false,"is_disabled":false,"rental_uris":{"android":"levelo://app?vid=d71241ea-c6fd-4294-838d-0e0ceab7d48f","ios":"levelo://app?vid=d71241ea-c6fd-4294-838d-0e0ceab7d48f"},"vehicle_type_id":"4","last_reported":1734019925,"current_range_meters":20400,"station_id":"ce4bh2p2rcd13ifvqdi0","pricing_plan_id":"cebpf4jnsgd1na2vs0mg"},{"bike_id":"cc66f151-2460-4bd1-9c55-81df03cdad0d","system_id":"levelo_inurba_marseille","lat":43.30519,"lon":5.36879,"is_reserved":false,"is_disabled":true,"rental_uris":{"android":"levelo://app?vid=cc66f151-2460-4bd1-9c55-81df03cdad0d","ios":"levelo://app?vid=cc66f151-2460-4bd1-9c55-81df03cdad0d"},"vehicle_type_id":"4","last_reported":1734019925,"current_range_meters":800,"station_id":"","pricing_plan_id":"cebpf4jnsgd1na2vs0mg"},{"bike_id":"3687636d-3062-4f46-9932-75621dd7ec4a","system_id":"levelo_inurba_marseille","lat":43.25494,"lon":5.37647,"is_reserved":false,"is_disabled":false,"rental_uris":{"android":"levelo://app?vid=3687636d-3062-4f46-9932-75621dd7ec4a","ios":"levelo://app?vid=3687636d-3062-4f46-9932-75621dd7ec4a"},"vehicle_type_id":"4","last_reported":1734019925,"current_range_meters":36000,"station_id":"ce4bhh12rcd13ifvqff0","pricing_plan_id":"cebpf4jnsgd1na2vs0mg"},{"bike_id":"d3148480-0118-4460-90b5-07f095843da8","system_id":"levelo_inurba_marseille","lat":43.24693,"lon":5.38141,"is_reserved":false,"is_disabled":false,"rental_uris":{"android":"levelo://app?vid=d3148480-0118-4460-90b5-07f095843da8","ios":"levelo://app?vid=d3148480-0118-4460-90b5-07f095843da8"},"vehicle_type_id":"4","last_reported":1734019925,"current_range_meters":38800,"station_id":"ce4bhih2rcd13ifvqfr0","pricing_plan_id":"cebpf4jnsgd1na2vs0mg"},{"bike_id":"097fe2fa-eb33-4bf4-a2bb-15e88a353de8","system_id":"levelo_inurba_marseille","lat":43.23963,"lon":5.36638,"is_reserved":false,"is_disabled":false,"rental_uris":{"android":"levelo://app?vid=097fe2fa-eb33-4bf4-a2bb-15e88a353de8","ios":"levelo://app?vid=097fe2fa-eb33-4bf4-a2bb-15e88a353de8"},"vehicle_type_id":"4","last_reported":1734019925,"current_range_meters":33200,"station_id":"ce4bhi12rcd13ifvqfp0","pricing_plan_id":"cebpf4jnsgd1na2vs0mg"},{"bike_id":"78ecb650-dbf6-4d55-8ed7-73b04e0d1176","system_id":"levelo_inurba_marseille","lat":43.26782,"lon":5.39411,"is_reserved":false,"is_disabled":false,"rental_uris":{"android":"levelo://app?vid=78ecb650-dbf6-4d55-8ed7-73b04e0d1176","ios":"levelo://app?vid=78ecb650-dbf6-4d55-8ed7-73b04e0d1176"},"vehicle_type_id":"4","last_reported":1734019925,"current_range_meters":38000,"station_id":"ce4bhh12rcd13ifvqfg0","pricing_plan_id":"cebpf4jnsgd1na2vs0mg"},{"bike_id":"3b5a2490-91a8-4930-bdb7-53407ec2f1ac","system_id":"levelo_inurba_marseille","lat":43.29841,"lon":5.37404,"is_reserved":false,"is_disabled":false,"rental_uris":{"android":"levelo://app?vid=3b5a2490-91a8-4930-bdb7-53407ec2f1ac","ios":"levelo://app?vid=3b5a2490-91a8-4930-bdb7-53407ec2f1ac"},"vehicle_type_id":"4","last_reported":1734019925,"current_range_meters":25600,"station_id":"","pricing_plan_id":"cebpf4jnsgd1na2vs0mg"},{"bike_id":"c7d60411-682a-4c3d-8aea-0c0b8fc638f1","system_id":"levelo_inurba_marseille","lat":43.32464,"lon":5.36564,"is_reserved":false,"is_disabled":false,"rental_uris":{"android":"levelo://app?vid=c7d60411-682a-4c3d-8aea-0c0b8fc638f1","ios":"levelo://app?vid=c7d60411-682a-4c3d-8aea-0c0b8fc638f1"},"vehicle_type_id":"4","last_reported":1734019925,"current_range_meters":8400,"station_id":"ce4bhs12rcd13ifvqhvg","pricing_plan_id":"cebpf4jnsgd1na2vs0mg"},{"bike_id":"b71c7d33-5527-4840-884a-0c9831e49b85","system_id":"levelo_inurba_marseille","lat":43.2893,"lon":5.38394,"is_reserved":false,"is_disabled":false,"rental_uris":{"android":"levelo://app?vid=b71c7d33-5527-4840-884a-0c9831e49b85","ios":"levelo://app?vid=b71c7d33-5527-4840-884a-0c9831e49b85"},"vehicle_type_id":"4","last_reported":1734019925,"current_range_meters":27200,"station_id":"ce4bh612rcd13ifvqe6g","pricing_plan_id":"cebpf4jnsgd1na2vs0mg"},{"bike_id":"9332f19c-96e3-47ac-8807-c5c2384614c0","system_id":"levelo_inurba_marseille","lat":43.2306,"lon":5.35497,"is_reserved":false,"is_disabled":false,"rental_uris":{"android":"levelo://app?vid=9332f19c-96e3-47ac-8807-c5c2384614c0","ios":"levelo://app?vid=9332f19c-96e3-47ac-8807-c5c2384614c0"},"vehicle_type_id":"4","last_reported":1734019925,"current_range_meters":10800,"station_id":"cpo3342slgdg3j2ifvpg","pricing_plan_id":"cebpf4jnsgd1na2vs0mg"},{"bike_id":"797ab029-48a7-413b-96da-25691c662e7b","system_id":"levelo_inurba_marseille","lat":43.30594,"lon":5.39349,"is_reserved":false,"is_disabled":true,"rental_uris":{"android":"levelo://app?vid=797ab029-48a7-413b-96da-25691c662e7b","ios":"levelo://app?vid=797ab029-48a7-413b-96da-25691c662e7b"},"vehicle_type_id":"4","last_reported":1734019925,"current_range_meters":16800,"station_id":"ce4bh0p2rcd13ifvqd80","pricing_plan_id":"cebpf4jnsgd1na2vs0mg"},{"bike_id":"7df37d8b-9ce3-4558-aed4-547326e14da5","system_id":"levelo_inurba_marseille","lat":43.3064,"lon":5.40079,"is_reserved":false,"is_disabled":false,"rental_uris":{"android":"levelo://app?vid=7df37d8b-9ce3-4558-aed4-547326e14da5","ios":"levelo://app?vid=7df37d8b-9ce3-4558-aed4-547326e14da5"},"vehicle_type_id":"4","last_reported":1734019925,"current_range_meters":28000,"station_id":"ce4bh112rcd13ifvqda0","pricing_plan_id":"cebpf4jnsgd1na2vs0mg"},{"bike_id":"bbd8fa05-a068-4ba3-9ee1-d409945460ae","system_id":"levelo_inurba_marseille","lat":43.31757,"lon":5.39014,"is_reserved":false,"is_disabled":false,"rental_uris":{"android":"levelo://app?vid=bbd8fa05-a068-4ba3-9ee1-d409945460ae","ios":"levelo://app?vid=bbd8fa05-a068-4ba3-9ee1-d409945460ae"},"vehicle_type_id":"4","last_reported":1734019925,"current_range_meters":39200,"station_id":"ce4bhqp2rcd13ifvqhng","pricing_plan_id":"cebpf4jnsgd1na2vs0mg"},{"bike_id":"a8942e43-f3d6-46fd-8576-2cc6b2787f3e","system_id":"levelo_inurba_marseille","lat":43.33022,"lon":5.39041,"is_reserved":false,"is_disabled":false,"rental_uris":{"android":"levelo://app?vid=a8942e43-f3d6-46fd-8576-2cc6b2787f3e","ios":"levelo://app?vid=a8942e43-f3d6-46fd-8576-2cc6b2787f3e"},"vehicle_type_id":"4","last_reported":1734019925,"current_range_meters":24400,"station_id":"ce4bhr92rcd13ifvqhrg","pricing_plan_id":"cebpf4jnsgd1na2vs0mg"},{"bike_id":"fcbe1a45-62ef-4798-a96a-86068998a082","system_id":"levelo_inurba_marseille","lat":43.24538,"lon":5.39526,"is_reserved":false,"is_disabled":false,"rental_uris":{"android":"levelo://app?vid=fcbe1a45-62ef-4798-a96a-86068998a082","ios":"levelo://app?vid=fcbe1a45-62ef-4798-a96a-86068998a082"},"vehicle_type_id":"4","last_reported":1734019925,"current_range_meters":30000,"station_id":"ce4bhlp2rcd13ifvqgjg","pricing_plan_id":"cebpf4jnsgd1na2vs0mg"},{"bike_id":"709de94f-85ff-4be2-8986-c5f0594615ae","system_id":"levelo_inurba_marseille","lat":43.30786,"lon":5.37645,"is_reserved":false,"is_disabled":false,"rental_uris":{"android":"levelo://app?vid=709de94f-85ff-4be2-8986-c5f0594615ae","ios":"levelo://app?vid=709de94f-85ff-4be2-8986-c5f0594615ae"},"vehicle_type_id":"4","last_reported":1734019925,"current_range_meters":16400,"station_id":"ce4bgv92rcd13ifvqcq0","pricing_plan_id":"cebpf4jnsgd1na2vs0mg"},{"bike_id":"8e0e9cc0-dc62-4daa-afa9-0ba48792271e","system_id":"levelo_inurba_marseille","lat":43.30609,"lon":5.37223,"is_reserved":false,"is_disabled":true,"rental_uris":{"android":"levelo://app?vid=8e0e9cc0-dc62-4daa-afa9-0ba48792271e","ios":"levelo://app?vid=8e0e9cc0-dc62-4daa-afa9-0ba48792271e"},"vehicle_type_id":"4","last_reported":1734019925,"current_range_meters":800,"station_id":"ce4bgqh2rcd13ifvqc4g","pricing_plan_id":"cebpf4jnsgd1na2vs0mg"},{"bike_id":"547ee225-3bb9-4420-a73c-bc355b21e705","system_id":"levelo_inurba_marseille","lat":43.31329,"lon":5.39699,"is_reserved":false,"is_disabled":false,"rental_uris":{"android":"levelo://app?vid=547ee225-3bb9-4420-a73c-bc355b21e705","ios":"levelo://app?vid=547ee225-3bb9-4420-a73c-bc355b21e705"},"vehicle_type_id":"4","last_reported":1734019925,"current_range_meters":39200,"station_id":"ce4bgvp2rcd13ifvqcu0","pricing_plan_id":"cebpf4jnsgd1na2vs0mg"},{"bike_id":"354c236b-7cf9-4151-8f12-acabe55641f2","system_id":"levelo_inurba_marseille","lat":43.28451,"lon":5.39183,"is_reserved":false,"is_disabled":false,"rental_uris":{"android":"levelo://app?vid=354c236b-7cf9-4151-8f12-acabe55641f2","ios":"levelo://app?vid=354c236b-7cf9-4151-8f12-acabe55641f2"},"vehicle_type_id":"4","last_reported":1734019925,"current_range_meters":32000,"station_id":"ce4bhoh2rcd13ifvqh5g","pricing_plan_id":"cebpf4jnsgd1na2vs0mg"},{"bike_id":"2550e924-6d29-4077-b6a3-b6486420d3ac","system_id":"levelo_inurba_marseille","lat":43.26956,"lon":5.38634,"is_reserved":false,"is_disabled":true,"rental_uris":{"android":"levelo://app?vid=2550e924-6d29-4077-b6a3-b6486420d3ac","ios":"levelo://app?vid=2550e924-6d29-4077-b6a3-b6486420d3ac"},"vehicle_type_id":"4","last_reported":1734019925,"current_range_meters":0,"station_id":"ce4bhh92rcd13ifvqfh0","pricing_plan_id":"cebpf4jnsgd1na2vs0mg"},{"bike_id":"24872be5-0ca2-4f60-b6af-e917a18757c3","system_id":"levelo_inurba_marseille","lat":43.29516,"lon":5.39405,"is_reserved":false,"is_disabled":false,"rental_uris":{"android":"levelo://app?vid=24872be5-0ca2-4f60-b6af-e917a18757c3","ios":"levelo://app?vid=24872be5-0ca2-4f60-b6af-e917a18757c3"},"vehicle_type_id":"4","last_reported":1734019925,"current_range_meters":22800,"station_id":"ce4bh292rcd13ifvqdf0","pricing_plan_id":"cebpf4jnsgd1na2vs0mg"},{"bike_id":"06f66dfc-67e3-46bb-8e23-90ef22aa2f49","system_id":"levelo_inurba_marseille","lat":43.33021,"lon":5.39052,"is_reserved":false,"is_disabled":false,"rental_uris":{"android":"levelo://app?vid=06f66dfc-67e3-46bb-8e23-90ef22aa2f49","ios":"levelo://app?vid=06f66dfc-67e3-46bb-8e23-90ef22aa2f49"},"vehicle_type_id":"4","last_reported":1734019925,"current_range_meters":28000,"station_id":"ce4bhr92rcd13ifvqhrg","pricing_plan_id":"cebpf4jnsgd1na2vs0mg"},{"bike_id":"011f752a-1a6f-4a81-bef9-dc57be253340","system_id":"levelo_inurba_marseille","lat":43.27374,"lon":5.36257,"is_reserved":false,"is_disabled":false,"rental_uris":{"android":"levelo://app?vid=011f752a-1a6f-4a81-bef9-dc57be253340","ios":"levelo://app?vid=011f752a-1a6f-4a81-bef9-dc57be253340"},"vehicle_type_id":"4","last_reported":1734019925,"current_range_meters":38000,"station_id":"ce4bhbh2rcd13ifvqeo0","pricing_plan_id":"cebpf4jnsgd1na2vs0mg"},{"bike_id":"4d3a41f5-959c-4dbb-9d11-8fbbf2d6345c","system_id":"levelo_inurba_marseille","lat":43.2693,"lon":5.38919,"is_reserved":false,"is_disabled":false,"rental_uris":{"android":"levelo://app?vid=4d3a41f5-959c-4dbb-9d11-8fbbf2d6345c","ios":"levelo://app?vid=4d3a41f5-959c-4dbb-9d11-8fbbf2d6345c"},"vehicle_type_id":"4","last_reported":1734019925,"current_range_meters":26800,"station_id":"ce4bhhh2rcd13ifvqfl0","pricing_plan_id":"cebpf4jnsgd1na2vs0mg"},{"bike_id":"da053608-29c4-4d90-a35a-7fedea7902a2","system_id":"levelo_inurba_marseille","lat":43.31485,"lon":5.37407,"is_reserved":false,"is_disabled":false,"rental_uris":{"android":"levelo://app?vid=da053608-29c4-4d90-a35a-7fedea7902a2","ios":"levelo://app?vid=da053608-29c4-4d90-a35a-7fedea7902a2"},"vehicle_type_id":"4","last_reported":1734019925,"current_range_meters":25200,"station_id":"","pricing_plan_id":"cebpf4jnsgd1na2vs0mg"},{"bike_id":"14845a8f-c0c8-4311-843d-ef820014914a","system_id":"levelo_inurba_marseille","lat":43.26809,"lon":5.4027,"is_reserved":false,"is_disabled":true,"rental_uris":{"android":"levelo://app?vid=14845a8f-c0c8-4311-843d-ef820014914a","ios":"levelo://app?vid=14845a8f-c0c8-4311-843d-ef820014914a"},"vehicle_type_id":"4","last_reported":1734019925,"current_range_meters":0,"station_id":"ce501612rcd8frsf0b60","pricing_plan_id":"cebpf4jnsgd1na2vs0mg"},{"bike_id":"a648cb11-d201-472f-985c-1caebce50f76","system_id":"levelo_inurba_marseille","lat":43.29364,"lon":5.3783,"is_reserved":false,"is_disabled":true,"rental_uris":{"android":"levelo://app?vid=a648cb11-d201-472f-985c-1caebce50f76","ios":"levelo://app?vid=a648cb11-d201-472f-985c-1caebce50f76"},"vehicle_type_id":"4","last_reported":1734019925,"current_range_meters":0,"station_id":"ce4bgjh2rcd13ifvqbf0","pricing_plan_id":"cebpf4jnsgd1na2vs0mg"},{"bike_id":"dd643bc6-5b37-42ec-9cd1-25f6f7772e52","system_id":"levelo_inurba_marseille","lat":43.31752,"lon":5.39025,"is_reserved":false,"is_disabled":true,"rental_uris":{"android":"levelo://app?vid=dd643bc6-5b37-42ec-9cd1-25f6f7772e52","ios":"levelo://app?vid=dd643bc6-5b37-42ec-9cd1-25f6f7772e52"},"vehicle_type_id":"4","last_reported":1734019925,"current_range_meters":36800,"station_id":"ce4bhqp2rcd13ifvqhng","pricing_plan_id":"cebpf4jnsgd1na2vs0mg"},{"bike_id":"f5a328d6-5258-4762-bac6-bf1eb3656810","system_id":"levelo_inurba_marseille","lat":43.26041,"lon":5.37548,"is_reserved":false,"is_disabled":false,"rental_uris":{"android":"levelo://app?vid=f5a328d6-5258-4762-bac6-bf1eb3656810","ios":"levelo://app?vid=f5a328d6-5258-4762-bac6-bf1eb3656810"},"vehicle_type_id":"4","last_reported":1734019925,"current_range_meters":38800,"station_id":"ce4bhgh2rcd13ifvqfa0","pricing_plan_id":"cebpf4jnsgd1na2vs0mg"},{"bike_id":"1cde6f49-7d04-4473-9a46-96baf38f12cb","system_id":"levelo_inurba_marseille","lat":43.2603,"lon":5.37552,"is_reserved":false,"is_disabled":false,"rental_uris":{"android":"levelo://app?vid=1cde6f49-7d04-4473-9a46-96baf38f12cb","ios":"levelo://app?vid=1cde6f49-7d04-4473-9a46-96baf38f12cb"},"vehicle_type_id":"4","last_reported":1734019925,"current_range_meters":38800,"station_id":"ce4bhgh2rcd13ifvqfa0","pricing_plan_id":"cebpf4jnsgd1na2vs0mg"},{"bike_id":"e738fcc8-c725-46f1-b7fe-8f522bd56ad4","system_id":"levelo_inurba_marseille","lat":43.22933,"lon":5.35375,"is_reserved":false,"is_disabled":false,"rental_uris":{"android":"levelo://app?vid=e738fcc8-c725-46f1-b7fe-8f522bd56ad4","ios":"levelo://app?vid=e738fcc8-c725-46f1-b7fe-8f522bd56ad4"},"vehicle_type_id":"4","last_reported":1734019925,"current_range_meters":9200,"station_id":"cpo3532slgdg3j2ikp40","pricing_plan_id":"cebpf4jnsgd1na2vs0mg"},{"bike_id":"1269a8e6-d447-4412-8f92-0af5ddcc1b4b","system_id":"levelo_inurba_marseille","lat":43.27054,"lon":5.40262,"is_reserved":false,"is_disabled":false,"rental_uris":{"android":"levelo://app?vid=1269a8e6-d447-4412-8f92-0af5ddcc1b4b","ios":"levelo://app?vid=1269a8e6-d447-4412-8f92-0af5ddcc1b4b"},"vehicle_type_id":"4","last_reported":1734019925,"current_range_meters":37600,"station_id":"ce4bhk92rcd13ifvqgc0","pricing_plan_id":"cebpf4jnsgd1na2vs0mg"},{"bike_id":"7965bd8b-65b9-4460-9e65-36f253ebc53b","system_id":"levelo_inurba_marseille","lat":43.320485,"lon":5.415113,"is_reserved":false,"is_disabled":false,"rental_uris":{"android":"levelo://app?vid=7965bd8b-65b9-4460-9e65-36f253ebc53b","ios":"levelo://app?vid=7965bd8b-65b9-4460-9e65-36f253ebc53b"},"vehicle_type_id":"4","last_reported":1734019925,"current_range_meters":27200,"station_id":"ce4bhq92rcd13ifvqhkg","pricing_plan_id":"cebpf4jnsgd1na2vs0mg"},{"bike_id":"8a939789-b594-464c-87bc-cdbd1182be3b","system_id":"levelo_inurba_marseille","lat":43.2454,"lon":5.3954,"is_reserved":false,"is_disabled":false,"rental_uris":{"android":"levelo://app?vid=8a939789-b594-464c-87bc-cdbd1182be3b","ios":"levelo://app?vid=8a939789-b594-464c-87bc-cdbd1182be3b"},"vehicle_type_id":"4","last_reported":1734019925,"current_range_meters":14400,"station_id":"ce4bhlp2rcd13ifvqgjg","pricing_plan_id":"cebpf4jnsgd1na2vs0mg"},{"bike_id":"69d9b3ee-2e39-40a2-8237-c0a4126b69be","system_id":"levelo_inurba_marseille","lat":43.28275,"lon":5.35071,"is_reserved":false,"is_disabled":false,"rental_uris":{"android":"levelo://app?vid=69d9b3ee-2e39-40a2-8237-c0a4126b69be","ios":"levelo://app?vid=69d9b3ee-2e39-40a2-8237-c0a4126b69be"},"vehicle_type_id":"4","last_reported":1734019925,"current_range_meters":23200,"station_id":"ce4bhbp2rcd13ifvqerg","pricing_plan_id":"cebpf4jnsgd1na2vs0mg"},{"bike_id":"467a8ed9-8f9d-4f9c-a7a2-b2a4bc21bd4a","system_id":"levelo_inurba_marseille","lat":43.24665,"lon":5.38891,"is_reserved":false,"is_disabled":false,"rental_uris":{"android":"levelo://app?vid=467a8ed9-8f9d-4f9c-a7a2-b2a4bc21bd4a","ios":"levelo://app?vid=467a8ed9-8f9d-4f9c-a7a2-b2a4bc21bd4a"},"vehicle_type_id":"4","last_reported":1734019925,"current_range_meters":35600,"station_id":"ce4bhg12rcd13ifvqf60","pricing_plan_id":"cebpf4jnsgd1na2vs0mg"},{"bike_id":"3f376398-b9b7-4419-aed9-9595c8c18ff6","system_id":"levelo_inurba_marseille","lat":43.29553,"lon":5.42282,"is_reserved":false,"is_disabled":false,"rental_uris":{"android":"levelo://app?vid=3f376398-b9b7-4419-aed9-9595c8c18ff6","ios":"levelo://app?vid=3f376398-b9b7-4419-aed9-9595c8c18ff6"},"vehicle_type_id":"4","last_reported":1734019925,"current_range_meters":38800,"station_id":"ce4bhph2rcd13ifvqhdg","pricing_plan_id":"cebpf4jnsgd1na2vs0mg"},{"bike_id":"b3efb9e6-7c78-49e9-8953-2b580fb6d57e","system_id":"levelo_inurba_marseille","lat":43.27595,"lon":5.36132,"is_reserved":false,"is_disabled":false,"rental_uris":{"android":"levelo://app?vid=b3efb9e6-7c78-49e9-8953-2b580fb6d57e","ios":"levelo://app?vid=b3efb9e6-7c78-49e9-8953-2b580fb6d57e"},"vehicle_type_id":"4","last_reported":1734019925,"current_range_meters":39200,"station_id":"ce4bgj92rcd13ifvqbe0","pricing_plan_id":"cebpf4jnsgd1na2vs0mg"},{"bike_id":"a5589391-a7e4-412b-9a87-f917b2322580","system_id":"levelo_inurba_marseille","lat":43.2306,"lon":5.3549,"is_reserved":false,"is_disabled":false,"rental_uris":{"android":"levelo://app?vid=a5589391-a7e4-412b-9a87-f917b2322580","ios":"levelo://app?vid=a5589391-a7e4-412b-9a87-f917b2322580"},"vehicle_type_id":"4","last_reported":1734019925,"current_range_meters":12800,"station_id":"cpo3342slgdg3j2ifvpg","pricing_plan_id":"cebpf4jnsgd1na2vs0mg"},{"bike_id":"aa60642f-40b0-4281-8adc-f4984940a0e2","system_id":"levelo_inurba_marseille","lat":43.29048,"lon":5.39956,"is_reserved":false,"is_disabled":true,"rental_uris":{"android":"levelo://app?vid=aa60642f-40b0-4281-8adc-f4984940a0e2","ios":"levelo://app?vid=aa60642f-40b0-4281-8adc-f4984940a0e2"},"vehicle_type_id":"4","last_reported":1734019925,"current_range_meters":0,"station_id":"ce4bh392rcd13ifvqdm0","pricing_plan_id":"cebpf4jnsgd1na2vs0mg"},{"bike_id":"2df61507-a3ef-4d4b-a61f-8ce75f8c82e0","system_id":"levelo_inurba_marseille","lat":43.32443,"lon":5.36547,"is_reserved":false,"is_disabled":false,"rental_uris":{"android":"levelo://app?vid=2df61507-a3ef-4d4b-a61f-8ce75f8c82e0","ios":"levelo://app?vid=2df61507-a3ef-4d4b-a61f-8ce75f8c82e0"},"vehicle_type_id":"4","last_reported":1734019925,"current_range_meters":38800,"station_id":"ce4bhs12rcd13ifvqhvg","pricing_plan_id":"cebpf4jnsgd1na2vs0mg"},{"bike_id":"7f218b15-e3fc-43c4-8703-acd68250579b","system_id":"levelo_inurba_marseille","lat":43.337444,"lon":5.374475,"is_reserved":false,"is_disabled":false,"rental_uris":{"android":"levelo://app?vid=7f218b15-e3fc-43c4-8703-acd68250579b","ios":"levelo://app?vid=7f218b15-e3fc-43c4-8703-acd68250579b"},"vehicle_type_id":"4","last_reported":1734019925,"current_range_meters":33200,"station_id":"","pricing_plan_id":"cebpf4jnsgd1na2vs0mg"},{"bike_id":"5cd0227d-828f-4635-a4e6-90752f4b4e94","system_id":"levelo_inurba_marseille","lat":43.29203,"lon":5.35786,"is_reserved":false,"is_disabled":true,"rental_uris":{"android":"levelo://app?vid=5cd0227d-828f-4635-a4e6-90752f4b4e94","ios":"levelo://app?vid=5cd0227d-828f-4635-a4e6-90752f4b4e94"},"vehicle_type_id":"4","last_reported":1734019925,"current_range_meters":38800,"station_id":"ce4bhb12rcd13ifvqel0","pricing_plan_id":"cebpf4jnsgd1na2vs0mg"},{"bike_id":"bf26ba67-e67a-47f2-aeb5-22efb7770553","system_id":"levelo_inurba_marseille","lat":43.28613,"lon":5.35098,"is_reserved":false,"is_disabled":true,"rental_uris":{"android":"levelo://app?vid=bf26ba67-e67a-47f2-aeb5-22efb7770553","ios":"levelo://app?vid=bf26ba67-e67a-47f2-aeb5-22efb7770553"},"vehicle_type_id":"4","last_reported":1734019925,"current_range_meters":33200,"station_id":"ce4bhch2rcd13ifvqeug","pricing_plan_id":"cebpf4jnsgd1na2vs0mg"},{"bike_id":"1edcb435-be97-41f8-aa8c-4a20808cef7c","system_id":"levelo_inurba_marseille","lat":43.26738,"lon":5.40145,"is_reserved":false,"is_disabled":false,"rental_uris":{"android":"levelo://app?vid=1edcb435-be97-41f8-aa8c-4a20808cef7c","ios":"levelo://app?vid=1edcb435-be97-41f8-aa8c-4a20808cef7c"},"vehicle_type_id":"4","last_reported":1734019925,"current_range_meters":8400,"station_id":"","pricing_plan_id":"cebpf4jnsgd1na2vs0mg"},{"bike_id":"b9730f47-b015-4da1-b7b7-738d3f4b9f44","system_id":"levelo_inurba_marseille","lat":43.2845,"lon":5.35898,"is_reserved":false,"is_disabled":false,"rental_uris":{"android":"levelo://app?vid=b9730f47-b015-4da1-b7b7-738d3f4b9f44","ios":"levelo://app?vid=b9730f47-b015-4da1-b7b7-738d3f4b9f44"},"vehicle_type_id":"4","last_reported":1734019925,"current_range_meters":39200,"station_id":"ce4bhah2rcd13ifvqei0","pricing_plan_id":"cebpf4jnsgd1na2vs0mg"},{"bike_id":"79efbb5a-a5a0-4710-a47a-ff1244106665","system_id":"levelo_inurba_marseille","lat":43.29532,"lon":5.38548,"is_reserved":false,"is_disabled":true,"rental_uris":{"android":"levelo://app?vid=79efbb5a-a5a0-4710-a47a-ff1244106665","ios":"levelo://app?vid=79efbb5a-a5a0-4710-a47a-ff1244106665"},"vehicle_type_id":"4","last_reported":1734019925,"current_range_meters":800,"station_id":"ce4bgih2rcd13ifvqba0","pricing_plan_id":"cebpf4jnsgd1na2vs0mg"},{"bike_id":"61df4582-7c9f-489e-b7da-d6a0cfdcd7c7","system_id":"levelo_inurba_marseille","lat":43.28653,"lon":5.3635,"is_reserved":false,"is_disabled":true,"rental_uris":{"android":"levelo://app?vid=61df4582-7c9f-489e-b7da-d6a0cfdcd7c7","ios":"levelo://app?vid=61df4582-7c9f-489e-b7da-d6a0cfdcd7c7"},"vehicle_type_id":"4","last_reported":1734019925,"current_range_meters":0,"station_id":"ce4bhah2rcd13ifvqej0","pricing_plan_id":"cebpf4jnsgd1na2vs0mg"},{"bike_id":"4a39f1c2-bcb8-473d-9d85-e92fee839d7f","system_id":"levelo_inurba_marseille","lat":43.3237,"lon":5.38886,"is_reserved":false,"is_disabled":false,"rental_uris":{"android":"levelo://app?vid=4a39f1c2-bcb8-473d-9d85-e92fee839d7f","ios":"levelo://app?vid=4a39f1c2-bcb8-473d-9d85-e92fee839d7f"},"vehicle_type_id":"4","last_reported":1734019925,"current_range_meters":3600,"station_id":"ce4bhqp2rcd13ifvqhog","pricing_plan_id":"cebpf4jnsgd1na2vs0mg"},{"bike_id":"664e7b8e-c78e-43d3-9f90-25223d611113","system_id":"levelo_inurba_marseille","lat":43.30078,"lon":5.39089,"is_reserved":false,"is_disabled":false,"rental_uris":{"android":"levelo://app?vid=664e7b8e-c78e-43d3-9f90-25223d611113","ios":"levelo://app?vid=664e7b8e-c78e-43d3-9f90-25223d611113"},"vehicle_type_id":"4","last_reported":1734019925,"current_range_meters":16800,"station_id":"ce4bh192rcd13ifvqdb0","pricing_plan_id":"cebpf4jnsgd1na2vs0mg"},{"bike_id":"babfa40e-b3b2-4d9b-93af-d3fc04b2be2c","system_id":"levelo_inurba_marseille","lat":43.2985,"lon":5.36282,"is_reserved":false,"is_disabled":false,"rental_uris":{"android":"levelo://app?vid=babfa40e-b3b2-4d9b-93af-d3fc04b2be2c","ios":"levelo://app?vid=babfa40e-b3b2-4d9b-93af-d3fc04b2be2c"},"vehicle_type_id":"4","last_reported":1734019925,"current_range_meters":38800,"station_id":"ce4bgpp2rcd13ifvqc3g","pricing_plan_id":"cebpf4jnsgd1na2vs0mg"},{"bike_id":"ca3bf6a0-806c-4046-b219-bbea4c2ba646","system_id":"levelo_inurba_marseille","lat":43.23192,"lon":5.35549,"is_reserved":false,"is_disabled":false,"rental_uris":{"android":"levelo://app?vid=ca3bf6a0-806c-4046-b219-bbea4c2ba646","ios":"levelo://app?vid=ca3bf6a0-806c-4046-b219-bbea4c2ba646"},"vehicle_type_id":"4","last_reported":1734019925,"current_range_meters":38800,"station_id":"ce4bhu92rcd13ifvqi70","pricing_plan_id":"cebpf4jnsgd1na2vs0mg"},{"bike_id":"68eba3cf-a59b-44c7-b5f7-69152b212857","system_id":"levelo_inurba_marseille","lat":43.24658,"lon":5.38892,"is_reserved":false,"is_disabled":false,"rental_uris":{"android":"levelo://app?vid=68eba3cf-a59b-44c7-b5f7-69152b212857","ios":"levelo://app?vid=68eba3cf-a59b-44c7-b5f7-69152b212857"},"vehicle_type_id":"4","last_reported":1734019925,"current_range_meters":13600,"station_id":"ce4bhg12rcd13ifvqf60","pricing_plan_id":"cebpf4jnsgd1na2vs0mg"},{"bike_id":"1f277ebb-f111-4aee-b1f9-58f954622ef8","system_id":"levelo_inurba_marseille","lat":43.27216,"lon":5.3919,"is_reserved":false,"is_disabled":false,"rental_uris":{"android":"levelo://app?vid=1f277ebb-f111-4aee-b1f9-58f954622ef8","ios":"levelo://app?vid=1f277ebb-f111-4aee-b1f9-58f954622ef8"},"vehicle_type_id":"4","last_reported":1734019925,"current_range_meters":8000,"station_id":"ce4bhhp2rcd13ifvqfm0","pricing_plan_id":"cebpf4jnsgd1na2vs0mg"},{"bike_id":"46b2fdec-0870-4ae2-84dc-b1f57512351e","system_id":"levelo_inurba_marseille","lat":43.337444,"lon":5.374475,"is_reserved":false,"is_disabled":true,"rental_uris":{"android":"levelo://app?vid=46b2fdec-0870-4ae2-84dc-b1f57512351e","ios":"levelo://app?vid=46b2fdec-0870-4ae2-84dc-b1f57512351e"},"vehicle_type_id":"4","last_reported":1734019925,"current_range_meters":0,"station_id":"","pricing_plan_id":"cebpf4jnsgd1na2vs0mg"},{"bike_id":"ad8a8566-76f1-486f-a5c3-1b919241c9cc","system_id":"levelo_inurba_marseille","lat":43.30798,"lon":5.43523,"is_reserved":false,"is_disabled":true,"rental_uris":{"android":"levelo://app?vid=ad8a8566-76f1-486f-a5c3-1b919241c9cc","ios":"levelo://app?vid=ad8a8566-76f1-486f-a5c3-1b919241c9cc"},"vehicle_type_id":"4","last_reported":1734019925,"current_range_meters":1200,"station_id":"ce4bhph2rcd13ifvqheg","pricing_plan_id":"cebpf4jnsgd1na2vs0mg"},{"bike_id":"c477561f-a4bf-41f1-82f8-246fb2e9fd43","system_id":"levelo_inurba_marseille","lat":43.29714,"lon":5.36569,"is_reserved":false,"is_disabled":false,"rental_uris":{"android":"levelo://app?vid=c477561f-a4bf-41f1-82f8-246fb2e9fd43","ios":"levelo://app?vid=c477561f-a4bf-41f1-82f8-246fb2e9fd43"},"vehicle_type_id":"4","last_reported":1734019925,"current_range_meters":24400,"station_id":"ce4bgn12rcd13ifvqbt0","pricing_plan_id":"cebpf4jnsgd1na2vs0mg"},{"bike_id":"ecf2be5e-1ccd-4595-8b48-deb0a4ad0510","system_id":"levelo_inurba_marseille","lat":43.25586,"lon":5.38232,"is_reserved":false,"is_disabled":true,"rental_uris":{"android":"levelo://app?vid=ecf2be5e-1ccd-4595-8b48-deb0a4ad0510","ios":"levelo://app?vid=ecf2be5e-1ccd-4595-8b48-deb0a4ad0510"},"vehicle_type_id":"4","last_reported":1734019925,"current_range_meters":1200,"station_id":"ce4bhih2rcd13ifvqfs0","pricing_plan_id":"cebpf4jnsgd1na2vs0mg"},{"bike_id":"ddb38a6a-af9c-4dc5-a009-e15827cfad5e","system_id":"levelo_inurba_marseille","lat":43.29577,"lon":5.37506,"is_reserved":false,"is_disabled":true,"rental_uris":{"android":"levelo://app?vid=ddb38a6a-af9c-4dc5-a009-e15827cfad5e","ios":"levelo://app?vid=ddb38a6a-af9c-4dc5-a009-e15827cfad5e"},"vehicle_type_id":"4","last_reported":1734019925,"current_range_meters":1200,"station_id":"ce4bgh92rcd13ifvqb50","pricing_plan_id":"cebpf4jnsgd1na2vs0mg"},{"bike_id":"f3192379-2793-4fbb-a524-8e87d8d08a29","system_id":"levelo_inurba_marseille","lat":43.27949,"lon":5.41049,"is_reserved":false,"is_disabled":true,"rental_uris":{"android":"levelo://app?vid=f3192379-2793-4fbb-a524-8e87d8d08a29","ios":"levelo://app?vid=f3192379-2793-4fbb-a524-8e87d8d08a29"},"vehicle_type_id":"4","last_reported":1734019925,"current_range_meters":1200,"station_id":"ce4bhnp2rcd13ifvqh0g","pricing_plan_id":"cebpf4jnsgd1na2vs0mg"},{"bike_id":"11c066b1-7848-4092-b568-71979f7a1dc0","system_id":"levelo_inurba_marseille","lat":43.2931,"lon":5.3745,"is_reserved":false,"is_disabled":false,"rental_uris":{"android":"levelo://app?vid=11c066b1-7848-4092-b568-71979f7a1dc0","ios":"levelo://app?vid=11c066b1-7848-4092-b568-71979f7a1dc0"},"vehicle_type_id":"4","last_reported":1734019925,"current_range_meters":11600,"station_id":"ce4bgi12rcd13ifvqb70","pricing_plan_id":"cebpf4jnsgd1na2vs0mg"},{"bike_id":"2448f112-093b-44a4-8c49-c482af2ba024","system_id":"levelo_inurba_marseille","lat":43.23066,"lon":5.35488,"is_reserved":false,"is_disabled":false,"rental_uris":{"android":"levelo://app?vid=2448f112-093b-44a4-8c49-c482af2ba024","ios":"levelo://app?vid=2448f112-093b-44a4-8c49-c482af2ba024"},"vehicle_type_id":"4","last_reported":1734019925,"current_range_meters":30000,"station_id":"cpo3342slgdg3j2ifvpg","pricing_plan_id":"cebpf4jnsgd1na2vs0mg"},{"bike_id":"dedcfdb0-6537-4a9d-bc26-22b9e221661e","system_id":"levelo_inurba_marseille","lat":43.3014,"lon":5.3742,"is_reserved":false,"is_disabled":true,"rental_uris":{"android":"levelo://app?vid=dedcfdb0-6537-4a9d-bc26-22b9e221661e","ios":"levelo://app?vid=dedcfdb0-6537-4a9d-bc26-22b9e221661e"},"vehicle_type_id":"4","last_reported":1734019925,"current_range_meters":26800,"station_id":"ce4bgs92rcd13ifvqcc0","pricing_plan_id":"cebpf4jnsgd1na2vs0mg"},{"bike_id":"9817938c-cefc-4014-a26a-00e34d801ee5","system_id":"levelo_inurba_marseille","lat":43.28929,"lon":5.38386,"is_reserved":false,"is_disabled":false,"rental_uris":{"android":"levelo://app?vid=9817938c-cefc-4014-a26a-00e34d801ee5","ios":"levelo://app?vid=9817938c-cefc-4014-a26a-00e34d801ee5"},"vehicle_type_id":"4","last_reported":1734019925,"current_range_meters":6400,"station_id":"ce4bh612rcd13ifvqe6g","pricing_plan_id":"cebpf4jnsgd1na2vs0mg"},{"bike_id":"489ca354-9b79-4366-8398-0f3d41e32067","system_id":"levelo_inurba_marseille","lat":43.260604,"lon":5.393988,"is_reserved":false,"is_disabled":true,"rental_uris":{"android":"levelo://app?vid=489ca354-9b79-4366-8398-0f3d41e32067","ios":"levelo://app?vid=489ca354-9b79-4366-8398-0f3d41e32067"},"vehicle_type_id":"4","last_reported":1734019925,"current_range_meters":0,"station_id":"ce4bhh92rcd13ifvqfj0","pricing_plan_id":"cebpf4jnsgd1na2vs0mg"},{"bike_id":"6d05f7ba-808a-4403-b1f3-f8483fec843c","system_id":"levelo_inurba_marseille","lat":43.23194,"lon":5.3556,"is_reserved":false,"is_disabled":false,"rental_uris":{"android":"levelo://app?vid=6d05f7ba-808a-4403-b1f3-f8483fec843c","ios":"levelo://app?vid=6d05f7ba-808a-4403-b1f3-f8483fec843c"},"vehicle_type_id":"4","last_reported":1734019925,"current_range_meters":30800,"station_id":"ce4bhu92rcd13ifvqi70","pricing_plan_id":"cebpf4jnsgd1na2vs0mg"},{"bike_id":"e85a6112-16a4-4d38-b5ff-c2b7987545bc","system_id":"levelo_inurba_marseille","lat":43.32103,"lon":5.3678,"is_reserved":false,"is_disabled":false,"rental_uris":{"android":"levelo://app?vid=e85a6112-16a4-4d38-b5ff-c2b7987545bc","ios":"levelo://app?vid=e85a6112-16a4-4d38-b5ff-c2b7987545bc"},"vehicle_type_id":"4","last_reported":1734019925,"current_range_meters":30800,"station_id":"ce4bhrh2rcd13ifvqhug","pricing_plan_id":"cebpf4jnsgd1na2vs0mg"},{"bike_id":"5b216ce0-5fe7-4327-a32a-feac1a44ddf5","system_id":"levelo_inurba_marseille","lat":43.27992,"lon":5.38683,"is_reserved":false,"is_disabled":true,"rental_uris":{"android":"levelo://app?vid=5b216ce0-5fe7-4327-a32a-feac1a44ddf5","ios":"levelo://app?vid=5b216ce0-5fe7-4327-a32a-feac1a44ddf5"},"vehicle_type_id":"4","last_reported":1734019925,"current_range_meters":27200,"station_id":"","pricing_plan_id":"cebpf4jnsgd1na2vs0mg"},{"bike_id":"975c8998-8848-43f9-ab61-fd825e1d3481","system_id":"levelo_inurba_marseille","lat":43.2418,"lon":5.39719,"is_reserved":false,"is_disabled":false,"rental_uris":{"android":"levelo://app?vid=975c8998-8848-43f9-ab61-fd825e1d3481","ios":"levelo://app?vid=975c8998-8848-43f9-ab61-fd825e1d3481"},"vehicle_type_id":"4","last_reported":1734019925,"current_range_meters":22800,"station_id":"ce4bhn12rcd13ifvqgpg","pricing_plan_id":"cebpf4jnsgd1na2vs0mg"},{"bike_id":"f6958f6f-9e1b-466b-aae9-3a58d2f343c0","system_id":"levelo_inurba_marseille","lat":43.27974,"lon":5.38745,"is_reserved":false,"is_disabled":true,"rental_uris":{"android":"levelo://app?vid=f6958f6f-9e1b-466b-aae9-3a58d2f343c0","ios":"levelo://app?vid=f6958f6f-9e1b-466b-aae9-3a58d2f343c0"},"vehicle_type_id":"4","last_reported":1734019925,"current_range_meters":2000,"station_id":"ce4bhg12rcd13ifvqf80","pricing_plan_id":"cebpf4jnsgd1na2vs0mg"},{"bike_id":"9c8c1480-9ffa-4086-913c-c2125a6eb848","system_id":"levelo_inurba_marseille","lat":43.22933,"lon":5.35378,"is_reserved":false,"is_disabled":false,"rental_uris":{"android":"levelo://app?vid=9c8c1480-9ffa-4086-913c-c2125a6eb848","ios":"levelo://app?vid=9c8c1480-9ffa-4086-913c-c2125a6eb848"},"vehicle_type_id":"4","last_reported":1734019925,"current_range_meters":36400,"station_id":"cpo3532slgdg3j2ikp40","pricing_plan_id":"cebpf4jnsgd1na2vs0mg"},{"bike_id":"ffd070af-ab63-42ad-b7b7-6dc51f77c7f6","system_id":"levelo_inurba_marseille","lat":43.32544,"lon":5.4143,"is_reserved":false,"is_disabled":true,"rental_uris":{"android":"levelo://app?vid=ffd070af-ab63-42ad-b7b7-6dc51f77c7f6","ios":"levelo://app?vid=ffd070af-ab63-42ad-b7b7-6dc51f77c7f6"},"vehicle_type_id":"4","last_reported":1734019925,"current_range_meters":0,"station_id":"ce4bhq12rcd13ifvqhhg","pricing_plan_id":"cebpf4jnsgd1na2vs0mg"},{"bike_id":"d99747d8-26ac-47d9-af9f-66b021fd63ac","system_id":"levelo_inurba_marseille","lat":43.30553,"lon":5.36532,"is_reserved":false,"is_disabled":false,"rental_uris":{"android":"levelo://app?vid=d99747d8-26ac-47d9-af9f-66b021fd63ac","ios":"levelo://app?vid=d99747d8-26ac-47d9-af9f-66b021fd63ac"},"vehicle_type_id":"4","last_reported":1734019925,"current_range_meters":27600,"station_id":"ce4bgs12rcd13ifvqcag","pricing_plan_id":"cebpf4jnsgd1na2vs0mg"},{"bike_id":"85325483-63fa-426e-9574-c99cc6d9d356","system_id":"levelo_inurba_marseille","lat":43.29038,"lon":5.37561,"is_reserved":false,"is_disabled":false,"rental_uris":{"android":"levelo://app?vid=85325483-63fa-426e-9574-c99cc6d9d356","ios":"levelo://app?vid=85325483-63fa-426e-9574-c99cc6d9d356"},"vehicle_type_id":"4","last_reported":1734019925,"current_range_meters":36400,"station_id":"ce4bh692rcd13ifvqe90","pricing_plan_id":"cebpf4jnsgd1na2vs0mg"},{"bike_id":"9ac7fa6e-2578-4832-8168-ade341fdc585","system_id":"levelo_inurba_marseille","lat":43.2841,"lon":5.428961,"is_reserved":false,"is_disabled":true,"rental_uris":{"android":"levelo://app?vid=9ac7fa6e-2578-4832-8168-ade341fdc585","ios":"levelo://app?vid=9ac7fa6e-2578-4832-8168-ade341fdc585"},"vehicle_type_id":"4","last_reported":1734019925,"current_range_meters":0,"station_id":"","pricing_plan_id":"cebpf4jnsgd1na2vs0mg"},{"bike_id":"b8b1d1a8-0671-4e0e-a7d1-8c289c5d6f35","system_id":"levelo_inurba_marseille","lat":43.295786,"lon":5.375097,"is_reserved":false,"is_disabled":false,"rental_uris":{"android":"levelo://app?vid=b8b1d1a8-0671-4e0e-a7d1-8c289c5d6f35","ios":"levelo://app?vid=b8b1d1a8-0671-4e0e-a7d1-8c289c5d6f35"},"vehicle_type_id":"4","last_reported":1734019925,"current_range_meters":36800,"station_id":"ce4bgh92rcd13ifvqb50","pricing_plan_id":"cebpf4jnsgd1na2vs0mg"},{"bike_id":"6b735e2e-56f4-4ce3-be99-ef51dc320159","system_id":"levelo_inurba_marseille","lat":43.29557,"lon":5.42293,"is_reserved":false,"is_disabled":false,"rental_uris":{"android":"levelo://app?vid=6b735e2e-56f4-4ce3-be99-ef51dc320159","ios":"levelo://app?vid=6b735e2e-56f4-4ce3-be99-ef51dc320159"},"vehicle_type_id":"4","last_reported":1734019925,"current_range_meters":24800,"station_id":"ce4bhph2rcd13ifvqhdg","pricing_plan_id":"cebpf4jnsgd1na2vs0mg"},{"bike_id":"09a461ce-089a-45fd-90de-3744ad83c28a","system_id":"levelo_inurba_marseille","lat":43.30786,"lon":5.37649,"is_reserved":false,"is_disabled":false,"rental_uris":{"android":"levelo://app?vid=09a461ce-089a-45fd-90de-3744ad83c28a","ios":"levelo://app?vid=09a461ce-089a-45fd-90de-3744ad83c28a"},"vehicle_type_id":"4","last_reported":1734019925,"current_range_meters":17600,"station_id":"ce4bgv92rcd13ifvqcq0","pricing_plan_id":"cebpf4jnsgd1na2vs0mg"},{"bike_id":"45235d88-818e-477d-abe2-ec0a5202da70","system_id":"levelo_inurba_marseille","lat":43.30152,"lon":5.37403,"is_reserved":false,"is_disabled":true,"rental_uris":{"android":"levelo://app?vid=45235d88-818e-477d-abe2-ec0a5202da70","ios":"levelo://app?vid=45235d88-818e-477d-abe2-ec0a5202da70"},"vehicle_type_id":"4","last_reported":1734019925,"current_range_meters":6800,"station_id":"ce4bgs92rcd13ifvqcc0","pricing_plan_id":"cebpf4jnsgd1na2vs0mg"},{"bike_id":"36b54e38-66b1-4a1b-9ccc-3404aa007415","system_id":"levelo_inurba_marseille","lat":43.23199,"lon":5.35556,"is_reserved":false,"is_disabled":false,"rental_uris":{"android":"levelo://app?vid=36b54e38-66b1-4a1b-9ccc-3404aa007415","ios":"levelo://app?vid=36b54e38-66b1-4a1b-9ccc-3404aa007415"},"vehicle_type_id":"4","last_reported":1734019925,"current_range_meters":6000,"station_id":"ce4bhu92rcd13ifvqi70","pricing_plan_id":"cebpf4jnsgd1na2vs0mg"},{"bike_id":"1ab34c15-2f35-461f-a0a3-4f1efe4e8ee9","system_id":"levelo_inurba_marseille","lat":43.3044,"lon":5.373262,"is_reserved":false,"is_disabled":true,"rental_uris":{"android":"levelo://app?vid=1ab34c15-2f35-461f-a0a3-4f1efe4e8ee9","ios":"levelo://app?vid=1ab34c15-2f35-461f-a0a3-4f1efe4e8ee9"},"vehicle_type_id":"4","last_reported":1734019925,"current_range_meters":0,"station_id":"","pricing_plan_id":"cebpf4jnsgd1na2vs0mg"},{"bike_id":"1e14d606-62a2-4dbf-bf02-f4a56f3741cf","system_id":"levelo_inurba_marseille","lat":43.30877,"lon":5.37189,"is_reserved":false,"is_disabled":false,"rental_uris":{"android":"levelo://app?vid=1e14d606-62a2-4dbf-bf02-f4a56f3741cf","ios":"levelo://app?vid=1e14d606-62a2-4dbf-bf02-f4a56f3741cf"},"vehicle_type_id":"4","last_reported":1734019925,"current_range_meters":6800,"station_id":"ce4bguh2rcd13ifvqckg","pricing_plan_id":"cebpf4jnsgd1na2vs0mg"},{"bike_id":"a2825956-833a-4d4f-affd-6a9c54e32c32","system_id":"levelo_inurba_marseille","lat":43.28604,"lon":5.37066,"is_reserved":false,"is_disabled":false,"rental_uris":{"android":"levelo://app?vid=a2825956-833a-4d4f-affd-6a9c54e32c32","ios":"levelo://app?vid=a2825956-833a-4d4f-affd-6a9c54e32c32"},"vehicle_type_id":"4","last_reported":1734019925,"current_range_meters":39200,"station_id":"ce4bht12rcd13ifvqi60","pricing_plan_id":"cebpf4jnsgd1na2vs0mg"},{"bike_id":"be73fbfd-4e43-4804-995a-f1daf24afffa","system_id":"levelo_inurba_marseille","lat":43.26685,"lon":5.38259,"is_reserved":false,"is_disabled":true,"rental_uris":{"android":"levelo://app?vid=be73fbfd-4e43-4804-995a-f1daf24afffa","ios":"levelo://app?vid=be73fbfd-4e43-4804-995a-f1daf24afffa"},"vehicle_type_id":"4","last_reported":1734019925,"current_range_meters":2000,"station_id":"ce4bhg92rcd13ifvqf90","pricing_plan_id":"cebpf4jnsgd1na2vs0mg"},{"bike_id":"4a8837af-9886-44f1-9c28-a559e33b0b3d","system_id":"levelo_inurba_marseille","lat":43.29577,"lon":5.37505,"is_reserved":false,"is_disabled":true,"rental_uris":{"android":"levelo://app?vid=4a8837af-9886-44f1-9c28-a559e33b0b3d","ios":"levelo://app?vid=4a8837af-9886-44f1-9c28-a559e33b0b3d"},"vehicle_type_id":"4","last_reported":1734019925,"current_range_meters":10000,"station_id":"ce4bgh92rcd13ifvqb50","pricing_plan_id":"cebpf4jnsgd1na2vs0mg"},{"bike_id":"0aab37ae-eae4-4ce6-beb4-1c9e1d54c703","system_id":"levelo_inurba_marseille","lat":43.27061,"lon":5.40263,"is_reserved":false,"is_disabled":false,"rental_uris":{"android":"levelo://app?vid=0aab37ae-eae4-4ce6-beb4-1c9e1d54c703","ios":"levelo://app?vid=0aab37ae-eae4-4ce6-beb4-1c9e1d54c703"},"vehicle_type_id":"4","last_reported":1734019925,"current_range_meters":27600,"station_id":"ce4bhk92rcd13ifvqgc0","pricing_plan_id":"cebpf4jnsgd1na2vs0mg"},{"bike_id":"6d02cafb-3a31-4351-a01b-819940d7c901","system_id":"levelo_inurba_marseille","lat":43.2465,"lon":5.38902,"is_reserved":false,"is_disabled":false,"rental_uris":{"android":"levelo://app?vid=6d02cafb-3a31-4351-a01b-819940d7c901","ios":"levelo://app?vid=6d02cafb-3a31-4351-a01b-819940d7c901"},"vehicle_type_id":"4","last_reported":1734019925,"current_range_meters":34000,"station_id":"ce4bhg12rcd13ifvqf60","pricing_plan_id":"cebpf4jnsgd1na2vs0mg"},{"bike_id":"7357c66a-c17d-46e5-9dc8-8bf2b8833f1f","system_id":"levelo_inurba_marseille","lat":43.32348,"lon":5.40628,"is_reserved":false,"is_disabled":false,"rental_uris":{"android":"levelo://app?vid=7357c66a-c17d-46e5-9dc8-8bf2b8833f1f","ios":"levelo://app?vid=7357c66a-c17d-46e5-9dc8-8bf2b8833f1f"},"vehicle_type_id":"4","last_reported":1734019925,"current_range_meters":28800,"station_id":"ce4bhq92rcd13ifvqhjg","pricing_plan_id":"cebpf4jnsgd1na2vs0mg"},{"bike_id":"1981fe83-6482-4ca1-bba1-7ddded8b3806","system_id":"levelo_inurba_marseille","lat":43.24652,"lon":5.38894,"is_reserved":false,"is_disabled":false,"rental_uris":{"android":"levelo://app?vid=1981fe83-6482-4ca1-bba1-7ddded8b3806","ios":"levelo://app?vid=1981fe83-6482-4ca1-bba1-7ddded8b3806"},"vehicle_type_id":"4","last_reported":1734019925,"current_range_meters":15200,"station_id":"ce4bhg12rcd13ifvqf60","pricing_plan_id":"cebpf4jnsgd1na2vs0mg"},{"bike_id":"f3b2a015-1104-4e88-9e11-c2a3e5bb4f41","system_id":"levelo_inurba_marseille","lat":43.28456,"lon":5.35883,"is_reserved":false,"is_disabled":false,"rental_uris":{"android":"levelo://app?vid=f3b2a015-1104-4e88-9e11-c2a3e5bb4f41","ios":"levelo://app?vid=f3b2a015-1104-4e88-9e11-c2a3e5bb4f41"},"vehicle_type_id":"4","last_reported":1734019925,"current_range_meters":12400,"station_id":"ce4bhah2rcd13ifvqei0","pricing_plan_id":"cebpf4jnsgd1na2vs0mg"},{"bike_id":"77eaaab5-b63b-410e-b9b7-dc9c50e6160c","system_id":"levelo_inurba_marseille","lat":43.2587,"lon":5.39907,"is_reserved":false,"is_disabled":false,"rental_uris":{"android":"levelo://app?vid=77eaaab5-b63b-410e-b9b7-dc9c50e6160c","ios":"levelo://app?vid=77eaaab5-b63b-410e-b9b7-dc9c50e6160c"},"vehicle_type_id":"4","last_reported":1734019925,"current_range_meters":14800,"station_id":"ce4bhl92rcd13ifvqghg","pricing_plan_id":"cebpf4jnsgd1na2vs0mg"},{"bike_id":"78ee6cdd-0e07-4105-b226-d5739990a6ab","system_id":"levelo_inurba_marseille","lat":43.30419,"lon":5.41282,"is_reserved":false,"is_disabled":false,"rental_uris":{"android":"levelo://app?vid=78ee6cdd-0e07-4105-b226-d5739990a6ab","ios":"levelo://app?vid=78ee6cdd-0e07-4105-b226-d5739990a6ab"},"vehicle_type_id":"4","last_reported":1734019925,"current_range_meters":6000,"station_id":"ce4bhop2rcd13ifvqh8g","pricing_plan_id":"cebpf4jnsgd1na2vs0mg"},{"bike_id":"e56a222c-1be4-4dfa-b72c-a42868cbe905","system_id":"levelo_inurba_marseille","lat":43.26815,"lon":5.4027,"is_reserved":false,"is_disabled":false,"rental_uris":{"android":"levelo://app?vid=e56a222c-1be4-4dfa-b72c-a42868cbe905","ios":"levelo://app?vid=e56a222c-1be4-4dfa-b72c-a42868cbe905"},"vehicle_type_id":"4","last_reported":1734019925,"current_range_meters":39200,"station_id":"ce501612rcd8frsf0b60","pricing_plan_id":"cebpf4jnsgd1na2vs0mg"},{"bike_id":"30070c91-5afc-43a4-a055-9da57e44d631","system_id":"levelo_inurba_marseille","lat":43.299111,"lon":5.374591,"is_reserved":false,"is_disabled":false,"rental_uris":{"android":"levelo://app?vid=30070c91-5afc-43a4-a055-9da57e44d631","ios":"levelo://app?vid=30070c91-5afc-43a4-a055-9da57e44d631"},"vehicle_type_id":"4","last_reported":1734019925,"current_range_meters":38400,"station_id":"ce4bgjh2rcd13ifvqbg0","pricing_plan_id":"cebpf4jnsgd1na2vs0mg"},{"bike_id":"47ea8943-94cc-4be8-aaa6-b4492e705c5c","system_id":"levelo_inurba_marseille","lat":43.31711,"lon":5.43705,"is_reserved":false,"is_disabled":false,"rental_uris":{"android":"levelo://app?vid=47ea8943-94cc-4be8-aaa6-b4492e705c5c","ios":"levelo://app?vid=47ea8943-94cc-4be8-aaa6-b4492e705c5c"},"vehicle_type_id":"4","last_reported":1734019925,"current_range_meters":31200,"station_id":"ce4bhp92rcd13ifvqhcg","pricing_plan_id":"cebpf4jnsgd1na2vs0mg"},