{"last_updated":1706562352,"ttl":30,"version":"2.2","data":{"bikes":[{"bike_id":"c1bda3ae-fbd3-4604-9da6-15403ac2caf7","system_id":"levelo_inurba_marseille","lat":43.314811,"lon":5.373103,"is_reserved":false,"is_disabled":false,"rental_uris":{"android":"levelo://app?vid=c1bda3ae-fbd3-4604-9da6-15403ac2caf7","ios":"levelo://app?vid=c1bda3ae-fbd3-4604-9da6-15403ac2caf7"},"vehicle_type_id":"4","last_reported":1706562352,"current_range_meters":0,"station_id":"ce4bgt12rcd13ifvqcd0","pricing_plan_id":"free"},{"bike_id":"917a0197-d7ec-4ed7-985f-ac00a7528599","system_id":"levelo_inurba_marseille","lat":43.305368,"lon":5.367343,"is_reserved":false,"is_disabled":false,"rental_uris":{"android":"levelo://app?vid=917a0197-d7ec-4ed7-985f-ac00a7528599","ios":"levelo://app?vid=917a0197-d7ec-4ed7-985f-ac00a7528599"},"vehicle_type_id":"4","last_reported":1706562352,"current_range_meters":0,"station_id":"ce4bgrp2rcd13ifvqc9g","pricing_plan_id":"free"},{"bike_id":"12b67795-e658-4fa1-8c61-6dc7a65f0425","system_id":"levelo_inurba_marseille","lat":43.305989,"lon":5.37225,"is_reserved":false,"is_disabled":false,"rental_uris":{"android":"levelo://app?vid=12b67795-e658-4fa1-8c61-6dc7a65f0425","ios":"levelo://app?vid=12b67795-e658-4fa1-8c61-6dc7a65f0425"},"vehicle_type_id":"4","last_reported":1706562352,"current_range_meters":22000,"station_id":"ce4bgqh2rcd13ifvqc4g","pricing_plan_id":"free"},{"bike_id":"02da4e10-15d5-4aac-b37d-d7200c112f76","system_id":"levelo_inurba_marseille","lat":43.305989,"lon":5.37225,"is_reserved":false,"is_disabled":false,"rental_uris":{"android":"levelo://app?vid=02da4e10-15d5-4aac-b37d-d7200c112f76","ios":"levelo://app?vid=02da4e10-15d5-4aac-b37d-d7200c112f76"},"vehicle_type_id":"4","last_reported":1706562352,"current_range_meters":18000,"station_id":"ce4bgqh2rcd13ifvqc4g","pricing_plan_id":"free"},{"bike_id":"67729521-91ce-482e-89d2-f1b57d900451","system_id":"levelo_inurba_marseille","lat":43.30588,"lon":5.372259,"is_reserved":false,"is_disabled":false,"rental_uris":{"android":"levelo://app?vid=67729521-91ce-482e-89d2-f1b57d900451","ios":"levelo://app?vid=67729521-91ce-482e-89d2-f1b57d900451"},"vehicle_type_id":"4","last_reported":1706562352,"current_range_meters":0,"station_id":"ce4bgqh2rcd13ifvqc4g","pricing_plan_id":"free"},{"bike_id":"d3f31ab8-054b-4b16-9d12-a2cea84be87d","system_id":"levelo_inurba_marseille","lat":43.31133,"lon":5.37762,"is_reserved":false,"is_disabled":false,"rental_uris":{"android":"levelo://app?vid=d3f31ab8-054b-4b16-9d12-a2cea84be87d","ios":"levelo://app?vid=d3f31ab8-054b-4b16-9d12-a2cea84be87d"},"vehicle_type_id":"4","last_reported":1706562352,"current_range_meters":14400,"station_id":"ce4bgt92rcd13ifvqcg0","pricing_plan_id":"free"},{"bike_id":"8c5ac694-eff1-404d-b152-34324e267510","system_id":"levelo_inurba_marseille","lat":43.311131,"lon":5.377651,"is_reserved":false,"is_disabled":false,"rental_uris":{"android":"levelo://app?vid=8c5ac694-eff1-404d-b152-34324e267510","ios":"levelo://app?vid=8c5ac694-eff1-404d-b152-34324e267510"},"vehicle_type_id":"4","last_reported":1706562352,"current_range_meters":12400,"station_id":"ce4bgt92rcd13ifvqcg0","pricing_plan_id":"free"},{"bike_id":"3e7143e6-9bb8-48ee-a4d3-ecd334eb6c36","system_id":"levelo_inurba_marseille","lat":43.31115,"lon":5.377687,"is_reserved":false,"is_disabled":false,"rental_uris":{"android":"levelo://app?vid=3e7143e6-9bb8-48ee-a4d3-ecd334eb6c36","ios":"levelo://app?vid=3e7143e6-9bb8-48ee-a4d3-ecd334eb6c36"},"vehicle_type_id":"4","last_reported":1706562352,"current_range_meters":0,"station_id":"ce4bgt92rcd13ifvqcg0","pricing_plan_id":"free"},{"bike_id":"3e5026b4-885b-4cc9-8430-4c2842426399","system_id":"levelo_inurba_marseille","lat":43.311131,"lon":5.377651,"is_reserved":false,"is_disabled":false,"rental_uris":{"android":"levelo://app?vid=3e5026b4-885b-4cc9-8430-4c2842426399","ios":"levelo://app?vid=3e5026b4-885b-4cc9-8430-4c2842426399"},"vehicle_type_id":"4","last_reported":1706562352,"current_range_meters":4000,"station_id":"ce4bgt92rcd13ifvqcg0","pricing_plan_id":"free"},{"bike_id":"01967f21-c536-4b6f-86d5-73214529ea28","system_id":"levelo_inurba_marseille","lat":43.311125,"lon":5.377624,"is_reserved":false,"is_disabled":false,"rental_uris":{"android":"levelo://app?vid=01967f21-c536-4b6f-86d5-73214529ea28","ios":"levelo://app?vid=01967f21-c536-4b6f-86d5-73214529ea28"},"vehicle_type_id":"4","last_reported":1706562352,"current_range_meters":26400,"station_id":"ce4bgt92rcd13ifvqcg0","pricing_plan_id":"free"},{"bike_id":"1b11d15c-b8e9-4001-b846-93af21c26777","system_id":"levelo_inurba_marseille","lat":43.311125,"lon":5.377624,"is_reserved":false,"is_disabled":false,"rental_uris":{"android":"levelo://app?vid=1b11d15c-b8e9-4001-b846-93af21c26777","ios":"levelo://app?vid=1b11d15c-b8e9-4001-b846-93af21c26777"},"vehicle_type_id":"4","last_reported":1706562352,"current_range_meters":17600,"station_id":"ce4bgt92rcd13ifvqcg0","pricing_plan_id":"free"},{"bike_id":"21f50ad6-5d41-42c7-a19c-f234cdf83216","system_id":"levelo_inurba_marseille","lat":43.303046,"lon":5.368981,"is_reserved":false,"is_disabled":false,"rental_uris":{"android":"levelo://app?vid=21f50ad6-5d41-42c7-a19c-f234cdf83216","ios":"levelo://app?vid=21f50ad6-5d41-42c7-a19c-f234cdf83216"},"vehicle_type_id":"4","last_reported":1706562352,"current_range_meters":30400,"station_id":"ce4bgqh2rcd13ifvqc5g","pricing_plan_id":"free"},{"bike_id":"b83daeb9-a39c-4884-86e2-16a37c651f7f","system_id":"levelo_inurba_marseille","lat":43.319967,"lon":5.376189,"is_reserved":false,"is_disabled":false,"rental_uris":{"android":"levelo://app?vid=b83daeb9-a39c-4884-86e2-16a37c651f7f","ios":"levelo://app?vid=b83daeb9-a39c-4884-86e2-16a37c651f7f"},"vehicle_type_id":"4","last_reported":1706562352,"current_range_meters":0,"station_id":"","pricing_plan_id":"free"},{"bike_id":"78331664-9b25-472a-85e9-f61051304054","system_id":"levelo_inurba_marseille","lat":43.315293,"lon":5.380349,"is_reserved":false,"is_disabled":false,"rental_uris":{"android":"levelo://app?vid=78331664-9b25-472a-85e9-f61051304054","ios":"levelo://app?vid=78331664-9b25-472a-85e9-f61051304054"},"vehicle_type_id":"4","last_reported":1706562352,"current_range_meters":4800,"station_id":"ce4bhsp2rcd13ifvqi50","pricing_plan_id":"free"},{"bike_id":"dd11690c-1bdc-496d-8c2b-becd0f85a4b6","system_id":"levelo_inurba_marseille","lat":43.315293,"lon":5.380349,"is_reserved":false,"is_disabled":false,"rental_uris":{"android":"levelo://app?vid=dd11690c-1bdc-496d-8c2b-becd0f85a4b6","ios":"levelo://app?vid=dd11690c-1bdc-496d-8c2b-becd0f85a4b6"},"vehicle_type_id":"4","last_reported":1706562352,"current_range_meters":12400,"station_id":"ce4bhsp2rcd13ifvqi50","pricing_plan_id":"free"},{"bike_id":"f5f86896-c6fa-4bd1-a85e-342682cd06d2","system_id":"levelo_inurba_marseille","lat":43.301939,"lon":5.366286,"is_reserved":false,"is_disabled":false,"rental_uris":{"android":"levelo://app?vid=f5f86896-c6fa-4bd1-a85e-342682cd06d2","ios":"levelo://app?vid=f5f86896-c6fa-4bd1-a85e-342682cd06d2"},"vehicle_type_id":"4","last_reported":1706562352,"current_range_meters":18000,"station_id":"ce4bgrh2rcd13ifvqc8g","pricing_plan_id":"free"},{"bike_id":"996b049f-569b-4c36-b239-4f51a804fac7","system_id":"levelo_inurba_marseille","lat":43.308012,"lon":5.381511,"is_reserved":false,"is_disabled":false,"rental_uris":{"android":"levelo://app?vid=996b049f-569b-4c36-b239-4f51a804fac7","ios":"levelo://app?vid=996b049f-569b-4c36-b239-4f51a804fac7"},"vehicle_type_id":"4","last_reported":1706562352,"current_range_meters":4400,"station_id":"ce4bgt12rcd13ifvqce0","pricing_plan_id":"free"},{"bike_id":"5680fefe-55fe-4d31-83e3-786b0756d539","system_id":"levelo_inurba_marseille","lat":43.304606,"lon":5.379026,"is_reserved":false,"is_disabled":false,"rental_uris":{"android":"levelo://app?vid=5680fefe-55fe-4d31-83e3-786b0756d539","ios":"levelo://app?vid=5680fefe-55fe-4d31-83e3-786b0756d539"},"vehicle_type_id":"4","last_reported":1706562352,"current_range_meters":17200,"station_id":"ce4bgup2rcd13ifvqcn0","pricing_plan_id":"free"},{"bike_id":"2d40c143-6cb5-4df6-a200-396289dcd0f5","system_id":"levelo_inurba_marseille","lat":43.324771,"lon":5.36557,"is_reserved":false,"is_disabled":false,"rental_uris":{"android":"levelo://app?vid=2d40c143-6cb5-4df6-a200-396289dcd0f5","ios":"levelo://app?vid=2d40c143-6cb5-4df6-a200-396289dcd0f5"},"vehicle_type_id":"4","last_reported":1706562352,"current_range_meters":2400,"station_id":"ce4bhs12rcd13ifvqhvg","pricing_plan_id":"free"},{"bike_id":"13bd44b9-8ecb-46da-981f-fe222ffce708","system_id":"levelo_inurba_marseille","lat":43.324771,"lon":5.36557,"is_reserved":false,"is_disabled":false,"rental_uris":{"android":"levelo://app?vid=13bd44b9-8ecb-46da-981f-fe222ffce708","ios":"levelo://app?vid=13bd44b9-8ecb-46da-981f-fe222ffce708"},"vehicle_type_id":"4","last_reported":1706562352,"current_range_meters":12400,"station_id":"ce4bhs12rcd13ifvqhvg","pricing_plan_id":"free"},{"bike_id":"96bada0b-1fa9-4706-87e9-8f67e261e440","system_id":"levelo_inurba_marseille","lat":43.324771,"lon":5.36557,"is_reserved":false,"is_disabled":false,"rental_uris":{"android":"levelo://app?vid=96bada0b-1fa9-4706-87e9-8f67e261e440","ios":"levelo://app?vid=96bada0b-1fa9-4706-87e9-8f67e261e440"},"vehicle_type_id":"4","last_reported":1706562352,"current_range_meters":23600,"station_id":"ce4bhs12rcd13ifvqhvg","pricing_plan_id":"free"},{"bike_id":"11c30585-a193-4157-8eb9-d99a32e94516","system_id":"levelo_inurba_marseille","lat":43.324771,"lon":5.36557,"is_reserved":false,"is_disabled":false,"rental_uris":{"android":"levelo://app?vid=11c30585-a193-4157-8eb9-d99a32e94516","ios":"levelo://app?vid=11c30585-a193-4157-8eb9-d99a32e94516"},"vehicle_type_id":"4","last_reported":1706562352,"current_range_meters":19200,"station_id":"ce4bhs12rcd13ifvqhvg","pricing_plan_id":"free"},{"bike_id":"dc00bdf8-dc57-4b02-8d44-8ea4906debe3","system_id":"levelo_inurba_marseille","lat":43.324771,"lon":5.36557,"is_reserved":false,"is_disabled":false,"rental_uris":{"android":"levelo://app?vid=dc00bdf8-dc57-4b02-8d44-8ea4906debe3","ios":"levelo://app?vid=dc00bdf8-dc57-4b02-8d44-8ea4906debe3"},"vehicle_type_id":"4","last_reported":1706562352,"current_range_meters":12000,"station_id":"ce4bhs12rcd13ifvqhvg","pricing_plan_id":"free"},{"bike_id":"239ee371-bbc7-4a37-b9ca-502133e1a4cd","system_id":"levelo_inurba_marseille","lat":43.324771,"lon":5.36557,"is_reserved":false,"is_disabled":false,"rental_uris":{"android":"levelo://app?vid=239ee371-bbc7-4a37-b9ca-502133e1a4cd","ios":"levelo://app?vid=239ee371-bbc7-4a37-b9ca-502133e1a4cd"},"vehicle_type_id":"4","last_reported":1706562352,"current_range_meters":28000,"station_id":"ce4bhs12rcd13ifvqhvg","pricing_plan_id":"free"},{"bike_id":"4c1d912b-8425-4b28-bcd4-0691a1724560","system_id":"levelo_inurba_marseille","lat":43.324863,"lon":5.365783,"is_reserved":false,"is_disabled":false,"rental_uris":{"android":"levelo://app?vid=4c1d912b-8425-4b28-bcd4-0691a1724560","ios":"levelo://app?vid=4c1d912b-8425-4b28-bcd4-0691a1724560"},"vehicle_type_id":"4","last_reported":1706562352,"current_range_meters":27200,"station_id":"ce4bhs12rcd13ifvqhvg","pricing_plan_id":"free"},{"bike_id":"07c6f0c6-295d-4c73-8fcd-3ef91502f7e9","system_id":"levelo_inurba_marseille","lat":43.30143,"lon":5.37413,"is_reserved":false,"is_disabled":false,"rental_uris":{"android":"levelo://app?vid=07c6f0c6-295d-4c73-8fcd-3ef91502f7e9","ios":"levelo://app?vid=07c6f0c6-295d-4c73-8fcd-3ef91502f7e9"},"vehicle_type_id":"4","last_reported":1706562352,"current_range_meters":20400,"station_id":"ce4bgs92rcd13ifvqcc0","pricing_plan_id":"free"},{"bike_id":"dd6b7008-c30f-4316-8921-b5028f9d3f38","system_id":"levelo_inurba_marseille","lat":43.319935,"lon":5.381699,"is_reserved":false,"is_disabled":false,"rental_uris":{"android":"levelo://app?vid=dd6b7008-c30f-4316-8921-b5028f9d3f38","ios":"levelo://app?vid=dd6b7008-c30f-4316-8921-b5028f9d3f38"},"vehicle_type_id":"4","last_reported":1706562352,"current_range_meters":20800,"station_id":"ce4bhr12rcd13ifvqhpg","pricing_plan_id":"free"},{"bike_id":"0ca84510-6630-47d1-867a-145dbc99d2a1","system_id":"levelo_inurba_marseille","lat":43.319935,"lon":5.381699,"is_reserved":false,"is_disabled":false,"rental_uris":{"android":"levelo://app?vid=0ca84510-6630-47d1-867a-145dbc99d2a1","ios":"levelo://app?vid=0ca84510-6630-47d1-867a-145dbc99d2a1"},"vehicle_type_id":"4","last_reported":1706562352,"current_range_meters":20800,"station_id":"ce4bhr12rcd13ifvqhpg","pricing_plan_id":"free"},{"bike_id":"bb929bd9-481f-47ef-b3a2-06363540c0cc","system_id":"levelo_inurba_marseille","lat":43.319935,"lon":5.381699,"is_reserved":false,"is_disabled":false,"rental_uris":{"android":"levelo://app?vid=bb929bd9-481f-47ef-b3a2-06363540c0cc","ios":"levelo://app?vid=bb929bd9-481f-47ef-b3a2-06363540c0cc"},"vehicle_type_id":"4","last_reported":1706562352,"current_range_meters":5200,"station_id":"ce4bhr12rcd13ifvqhpg","pricing_plan_id":"free"},{"bike_id":"a6345780-30db-47f2-acfb-6adc1facc2d6","system_id":"levelo_inurba_marseille","lat":43.319935,"lon":5.381699,"is_reserved":false,"is_disabled":false,"rental_uris":{"android":"levelo://app?vid=a6345780-30db-47f2-acfb-6adc1facc2d6","ios":"levelo://app?vid=a6345780-30db-47f2-acfb-6adc1facc2d6"},"vehicle_type_id":"4","last_reported":1706562352,"current_range_meters":1600,"station_id":"ce4bhr12rcd13ifvqhpg","pricing_plan_id":"free"},{"bike_id":"db221131-c386-47ca-b2fd-68cdd3449415","system_id":"levelo_inurba_marseille","lat":43.319935,"lon":5.381699,"is_reserved":false,"is_disabled":false,"rental_uris":{"android":"levelo://app?vid=db221131-c386-47ca-b2fd-68cdd3449415","ios":"levelo://app?vid=db221131-c386-47ca-b2fd-68cdd3449415"},"vehicle_type_id":"4","last_reported":1706562352,"current_range_meters":5600,"station_id":"ce4bhr12rcd13ifvqhpg","pricing_plan_id":"free"},{"bike_id":"62359dd4-e5a2-43d3-8c03-a9073c8bb30e","system_id":"levelo_inurba_marseille","lat":43.314811,"lon":5.373103,"is_reserved":false,"is_disabled":false,"rental_uris":{"android":"levelo://app?vid=62359dd4-e5a2-43d3-8c03-a9073c8bb30e","ios":"levelo://app?vid=62359dd4-e5a2-43d3-8c03-a9073c8bb30e"},"vehicle_type_id":"4","last_reported":1706562352,"current_range_meters":16800,"station_id":"ce4bgt12rcd13ifvqcd0","pricing_plan_id":"free"},{"bike_id":"e163d0f3-cac3-48a6-9514-1f57ae24562b","system_id":"levelo_inurba_marseille","lat":43.319935,"lon":5.381699,"is_reserved":false,"is_disabled":false,"rental_uris":{"android":"levelo://app?vid=e163d0f3-cac3-48a6-9514-1f57ae24562b","ios":"levelo://app?vid=e163d0f3-cac3-48a6-9514-1f57ae24562b"},"vehicle_type_id":"4","last_reported":1706562352,"current_range_meters":19200,"station_id":"ce4bhr12rcd13ifvqhpg","pricing_plan_id":"free"},{"bike_id":"a0a55396-692c-4805-bb09-fd3a79d9db74","system_id":"levelo_inurba_marseille","lat":43.31366,"lon":5.38492,"is_reserved":false,"is_disabled":false,"rental_uris":{"android":"levelo://app?vid=a0a55396-692c-4805-bb09-fd3a79d9db74","ios":"levelo://app?vid=a0a55396-692c-4805-bb09-fd3a79d9db74"},"vehicle_type_id":"4","last_reported":1706562352,"current_range_meters":13200,"station_id":"ce4bgt92rcd13ifvqcf0","pricing_plan_id":"free"},{"bike_id":"89c84ddc-d0f7-4fa9-b5fb-cf3c79c1de46","system_id":"levelo_inurba_marseille","lat":43.31367,"lon":5.38492,"is_reserved":false,"is_disabled":false,"rental_uris":{"android":"levelo://app?vid=89c84ddc-d0f7-4fa9-b5fb-cf3c79c1de46","ios":"levelo://app?vid=89c84ddc-d0f7-4fa9-b5fb-cf3c79c1de46"},"vehicle_type_id":"4","last_reported":1706562352,"current_range_meters":0,"station_id":"ce4bgt92rcd13ifvqcf0","pricing_plan_id":"free"},{"bike_id":"a5a18d65-e430-48ad-afa0-784b5cd11fce","system_id":"levelo_inurba_marseille","lat":43.31361,"lon":5.38499,"is_reserved":false,"is_disabled":false,"rental_uris":{"android":"levelo://app?vid=a5a18d65-e430-48ad-afa0-784b5cd11fce","ios":"levelo://app?vid=a5a18d65-e430-48ad-afa0-784b5cd11fce"},"vehicle_type_id":"4","last_reported":1706562352,"current_range_meters":20400,"station_id":"ce4bgt92rcd13ifvqcf0","pricing_plan_id":"free"},{"bike_id":"54f14b72-7316-4675-b530-07bfba60ee63","system_id":"levelo_inurba_marseille","lat":43.299222,"lon":5.365554,"is_reserved":false,"is_disabled":false,"rental_uris":{"android":"levelo://app?vid=54f14b72-7316-4675-b530-07bfba60ee63","ios":"levelo://app?vid=54f14b72-7316-4675-b530-07bfba60ee63"},"vehicle_type_id":"4","last_reported":1706562352,"current_range_meters":4000,"station_id":"ce4bgm92rcd13ifvqbr0","pricing_plan_id":"free"},{"bike_id":"94eb4399-c3d0-4b5e-a464-6c7d3780ccff","system_id":"levelo_inurba_marseille","lat":43.299724,"lon":5.371829,"is_reserved":false,"is_disabled":false,"rental_uris":{"android":"levelo://app?vid=94eb4399-c3d0-4b5e-a464-6c7d3780ccff","ios":"levelo://app?vid=94eb4399-c3d0-4b5e-a464-6c7d3780ccff"},"vehicle_type_id":"4","last_reported":1706562352,"current_range_meters":21600,"station_id":"ce4bgr92rcd13ifvqc7g","pricing_plan_id":"free"},{"bike_id":"a913d053-372c-4a4e-a0c3-ba513a7d66f2","system_id":"levelo_inurba_marseille","lat":43.305364,"lon":5.384119,"is_reserved":false,"is_disabled":false,"rental_uris":{"android":"levelo://app?vid=a913d053-372c-4a4e-a0c3-ba513a7d66f2","ios":"levelo://app?vid=a913d053-372c-4a4e-a0c3-ba513a7d66f2"},"vehicle_type_id":"4","last_reported":1706562352,"current_range_meters":1600,"station_id":"ce4bgg92rcd13ifvqb30","pricing_plan_id":"free"},{"bike_id":"eb1982e9-45d5-4723-bfc6-955d7547f834","system_id":"levelo_inurba_marseille","lat":43.305364,"lon":5.384119,"is_reserved":false,"is_disabled":false,"rental_uris":{"android":"levelo://app?vid=eb1982e9-45d5-4723-bfc6-955d7547f834","ios":"levelo://app?vid=eb1982e9-45d5-4723-bfc6-955d7547f834"},"vehicle_type_id":"4","last_reported":1706562352,"current_range_meters":19600,"station_id":"ce4bgg92rcd13ifvqb30","pricing_plan_id":"free"},{"bike_id":"0a4fe8a6-2a06-4cab-b638-e0937ae317a8","system_id":"levelo_inurba_marseille","lat":43.31181,"lon":5.38704,"is_reserved":false,"is_disabled":false,"rental_uris":{"android":"levelo://app?vid=0a4fe8a6-2a06-4cab-b638-e0937ae317a8","ios":"levelo://app?vid=0a4fe8a6-2a06-4cab-b638-e0937ae317a8"},"vehicle_type_id":"4","last_reported":1706562352,"current_range_meters":2400,"station_id":"ce4bgv12rcd13ifvqcp0","pricing_plan_id":"free"},{"bike_id":"07eb0e91-5e76-46ec-b30a-c7c39d10b169","system_id":"levelo_inurba_marseille","lat":43.299243,"lon":5.374807,"is_reserved":false,"is_disabled":false,"rental_uris":{"android":"levelo://app?vid=07eb0e91-5e76-46ec-b30a-c7c39d10b169","ios":"levelo://app?vid=07eb0e91-5e76-46ec-b30a-c7c39d10b169"},"vehicle_type_id":"4","last_reported":1706562352,"current_range_meters":6000,"station_id":"ce4bgjh2rcd13ifvqbg0","pricing_plan_id":"free"},{"bike_id":"284b9475-c25a-42a1-a880-056f23495685","system_id":"levelo_inurba_marseille","lat":43.3117,"lon":5.38714,"is_reserved":false,"is_disabled":false,"rental_uris":{"android":"levelo://app?vid=284b9475-c25a-42a1-a880-056f23495685","ios":"levelo://app?vid=284b9475-c25a-42a1-a880-056f23495685"},"vehicle_type_id":"4","last_reported":1706562352,"current_range_meters":11600,"station_id":"ce4bgv12rcd13ifvqcp0","pricing_plan_id":"free"},{"bike_id":"52c0ddbb-c50b-44be-820a-25591618067a","system_id":"levelo_inurba_marseille","lat":43.311674,"lon":5.38714,"is_reserved":false,"is_disabled":false,"rental_uris":{"android":"levelo://app?vid=52c0ddbb-c50b-44be-820a-25591618067a","ios":"levelo://app?vid=52c0ddbb-c50b-44be-820a-25591618067a"},"vehicle_type_id":"4","last_reported":1706562352,"current_range_meters":0,"station_id":"ce4bgv12rcd13ifvqcp0","pricing_plan_id":"free"},{"bike_id":"a87cff3b-3d67-4115-897b-d8c5cdb26af8","system_id":"levelo_inurba_marseille","lat":43.311722,"lon":5.387247,"is_reserved":false,"is_disabled":false,"rental_uris":{"android":"levelo://app?vid=a87cff3b-3d67-4115-897b-d8c5cdb26af8","ios":"levelo://app?vid=a87cff3b-3d67-4115-897b-d8c5cdb26af8"},"vehicle_type_id":"4","last_reported":1706562352,"current_range_meters":4000,"station_id":"ce4bgv12rcd13ifvqcp0","pricing_plan_id":"free"},{"bike_id":"bbfd2fe8-5ab8-4046-a597-96677d792067","system_id":"levelo_inurba_marseille","lat":43.311696,"lon":5.387168,"is_reserved":false,"is_disabled":false,"rental_uris":{"android":"levelo://app?vid=bbfd2fe8-5ab8-4046-a597-96677d792067","ios":"levelo://app?vid=bbfd2fe8-5ab8-4046-a597-96677d792067"},"vehicle_type_id":"4","last_reported":1706562352,"current_range_meters":30400,"station_id":"ce4bgv12rcd13ifvqcp0","pricing_plan_id":"free"},{"bike_id":"bf6d7d92-c6fb-483b-962e-c72bfff71072","system_id":"levelo_inurba_marseille","lat":43.3117,"lon":5.38717,"is_reserved":false,"is_disabled":false,"rental_uris":{"android":"levelo://app?vid=bf6d7d92-c6fb-483b-962e-c72bfff71072","ios":"levelo://app?vid=bf6d7d92-c6fb-483b-962e-c72bfff71072"},"vehicle_type_id":"4","last_reported":1706562352,"current_range_meters":16800,"station_id":"ce4bgv12rcd13ifvqcp0","pricing_plan_id":"free"},{"bike_id":"0f204089-8036-41aa-8154-73e73ef85fae","system_id":"levelo_inurba_marseille","lat":43.311651,"lon":5.387176,"is_reserved":false,"is_disabled":false,"rental_uris":{"android":"levelo://app?vid=0f204089-8036-41aa-8154-73e73ef85fae","ios":"levelo://app?vid=0f204089-8036-41aa-8154-73e73ef85fae"},"vehicle_type_id":"4","last_reported":1706562352,"current_range_meters":0,"station_id":"ce4bgv12rcd13ifvqcp0","pricing_plan_id":"free"},{"bike_id":"7a3928fa-6b7a-4170-bb54-1e67555b930f","system_id":"levelo_inurba_marseille","lat":43.311722,"lon":5.387247,"is_reserved":false,"is_disabled":false,"rental_uris":{"android":"levelo://app?vid=7a3928fa-6b7a-4170-bb54-1e67555b930f","ios":"levelo://app?vid=7a3928fa-6b7a-4170-bb54-1e67555b930f"},"vehicle_type_id":"4","last_reported":1706562352,"current_range_meters":14400,"station_id":"ce4bgv12rcd13ifvqcp0","pricing_plan_id":"free"},{"bike_id":"11276585-f17b-4b0c-9778-7880d29226f1","system_id":"levelo_inurba_marseille","lat":43.3117,"lon":5.38722,"is_reserved":false,"is_disabled":false,"rental_uris":{"android":"levelo://app?vid=11276585-f17b-4b0c-9778-7880d29226f1","ios":"levelo://app?vid=11276585-f17b-4b0c-9778-7880d29226f1"},"vehicle_type_id":"4","last_reported":1706562352,"current_range_meters":24000,"station_id":"ce4bgv12rcd13ifvqcp0","pricing_plan_id":"free"},{"bike_id":"5e11a168-7500-43b1-a22e-bd851f6d95c3","system_id":"levelo_inurba_marseille","lat":43.299243,"lon":5.37481,"is_reserved":false,"is_disabled":false,"rental_uris":{"android":"levelo://app?vid=5e11a168-7500-43b1-a22e-bd851f6d95c3","ios":"levelo://app?vid=5e11a168-7500-43b1-a22e-bd851f6d95c3"},"vehicle_type_id":"4","last_reported":1706562352,"current_range_meters":15600,"station_id":"ce4bgjh2rcd13ifvqbg0","pricing_plan_id":"free"},{"bike_id":"ecc16a4e-aa68-43b2-a249-41326e74d1fd","system_id":"levelo_inurba_marseille","lat":43.311722,"lon":5.387247,"is_reserved":false,"is_disabled":false,"rental_uris":{"android":"levelo://app?vid=ecc16a4e-aa68-43b2-a249-41326e74d1fd","ios":"levelo://app?vid=ecc16a4e-aa68-43b2-a249-41326e74d1fd"},"vehicle_type_id":"4","last_reported":1706562352,"current_range_meters":29200,"station_id":"ce4bgv12rcd13ifvqcp0","pricing_plan_id":"free"},{"bike_id":"b1f20554-a69e-4b47-8cbd-a32dbe8662f3","system_id":"levelo_inurba_marseille","lat":43.311722,"lon":5.387247,"is_reserved":false,"is_disabled":false,"rental_uris":{"android":"levelo://app?vid=b1f20554-a69e-4b47-8cbd-a32dbe8662f3","ios":"levelo://app?vid=b1f20554-a69e-4b47-8cbd-a32dbe8662f3"},"vehicle_type_id":"4","last_reported":1706562352,"current_range_meters":4000,"station_id":"ce4bgv12rcd13ifvqcp0","pricing_plan_id":"free"},{"bike_id":"d2e36d01-c0a4-487d-8c98-6bcd2161b928","system_id":"levelo_inurba_marseille","lat":43.299222,"lon":5.365554,"is_reserved":false,"is_disabled":false,"rental_uris":{"android":"levelo://app?vid=d2e36d01-c0a4-487d-8c98-6bcd2161b928","ios":"levelo://app?vid=d2e36d01-c0a4-487d-8c98-6bcd2161b928"},"vehicle_type_id":"4","last_reported":1706562352,"current_range_meters":8000,"station_id":"ce4bgm92rcd13ifvqbr0","pricing_plan_id":"free"},{"bike_id":"e1539f0d-02e3-46ca-8fd2-b115fd55a782","system_id":"levelo_inurba_marseille","lat":43.3229,"lon":5.382605,"is_reserved":false,"is_disabled":false,"rental_uris":{"android":"levelo://app?vid=e1539f0d-02e3-46ca-8fd2-b115fd55a782","ios":"levelo://app?vid=e1539f0d-02e3-46ca-8fd2-b115fd55a782"},"vehicle_type_id":"4","last_reported":1706562352,"current_range_meters":18800,"station_id":"ce4bhr12rcd13ifvqhqg","pricing_plan_id":"free"},{"bike_id":"792c74ed-b81a-4b41-8359-1eefda119ec3","system_id":"levelo_inurba_marseille","lat":43.322872,"lon":5.382756,"is_reserved":false,"is_disabled":false,"rental_uris":{"android":"levelo://app?vid=792c74ed-b81a-4b41-8359-1eefda119ec3","ios":"levelo://app?vid=792c74ed-b81a-4b41-8359-1eefda119ec3"},"vehicle_type_id":"4","last_reported":1706562352,"current_range_meters":25600,"station_id":"ce4bhr12rcd13ifvqhqg","pricing_plan_id":"free"},{"bike_id":"4c76a369-40e2-427c-bdd2-4ff8a4634e1e","system_id":"levelo_inurba_marseille","lat":43.322872,"lon":5.382756,"is_reserved":false,"is_disabled":false,"rental_uris":{"android":"levelo://app?vid=4c76a369-40e2-427c-bdd2-4ff8a4634e1e","ios":"levelo://app?vid=4c76a369-40e2-427c-bdd2-4ff8a4634e1e"},"vehicle_type_id":"4","last_reported":1706562352,"current_range_meters":27200,"station_id":"ce4bhr12rcd13ifvqhqg","pricing_plan_id":"free"},{"bike_id":"b393d938-03e9-4493-bb59-0ad2df777920","system_id":"levelo_inurba_marseille","lat":43.322872,"lon":5.382756,"is_reserved":false,"is_disabled":false,"rental_uris":{"android":"levelo://app?vid=b393d938-03e9-4493-bb59-0ad2df777920","ios":"levelo://app?vid=b393d938-03e9-4493-bb59-0ad2df777920"},"vehicle_type_id":"4","last_reported":1706562352,"current_range_meters":24400,"station_id":"ce4bhr12rcd13ifvqhqg","pricing_plan_id":"free"},{"bike_id":"09ec5261-6dc4-4f45-a640-bac2ae33bdc0","system_id":"levelo_inurba_marseille","lat":43.322872,"lon":5.382756,"is_reserved":false,"is_disabled":false,"rental_uris":{"android":"levelo://app?vid=09ec5261-6dc4-4f45-a640-bac2ae33bdc0","ios":"levelo://app?vid=09ec5261-6dc4-4f45-a640-bac2ae33bdc0"},"vehicle_type_id":"4","last_reported":1706562352,"current_range_meters":21200,"station_id":"ce4bhr12rcd13ifvqhqg","pricing_plan_id":"free"},{"bike_id":"889580a8-390b-425d-ba86-1d259400af7d","system_id":"levelo_inurba_marseille","lat":43.322872,"lon":5.382756,"is_reserved":false,"is_disabled":false,"rental_uris":{"android":"levelo://app?vid=889580a8-390b-425d-ba86-1d259400af7d","ios":"levelo://app?vid=889580a8-390b-425d-ba86-1d259400af7d"},"vehicle_type_id":"4","last_reported":1706562352,"current_range_meters":30400,"station_id":"ce4bhr12rcd13ifvqhqg","pricing_plan_id":"free"},{"bike_id":"1c9d37d0-9c22-419e-afa7-1697cb75aab3","system_id":"levelo_inurba_marseille","lat":43.32825,"lon":5.36687,"is_reserved":false,"is_disabled":false,"rental_uris":{"android":"levelo://app?vid=1c9d37d0-9c22-419e-afa7-1697cb75aab3","ios":"levelo://app?vid=1c9d37d0-9c22-419e-afa7-1697cb75aab3"},"vehicle_type_id":"4","last_reported":1706562352,"current_range_meters":17200,"station_id":"ce4bhs92rcd13ifvqi0g","pricing_plan_id":"free"},{"bike_id":"12d7300c-7281-4d65-b928-1f4a31310a0c","system_id":"levelo_inurba_marseille","lat":43.32833,"lon":5.366863,"is_reserved":false,"is_disabled":false,"rental_uris":{"android":"levelo://app?vid=12d7300c-7281-4d65-b928-1f4a31310a0c","ios":"levelo://app?vid=12d7300c-7281-4d65-b928-1f4a31310a0c"},"vehicle_type_id":"4","last_reported":1706562352,"current_range_meters":19600,"station_id":"ce4bhs92rcd13ifvqi0g","pricing_plan_id":"free"},{"bike_id":"8b120c8b-1ecf-47eb-bfec-8c5b904aeb13","system_id":"levelo_inurba_marseille","lat":43.29713,"lon":5.36614,"is_reserved":false,"is_disabled":false,"rental_uris":{"android":"levelo://app?vid=8b120c8b-1ecf-47eb-bfec-8c5b904aeb13","ios":"levelo://app?vid=8b120c8b-1ecf-47eb-bfec-8c5b904aeb13"},"vehicle_type_id":"4","last_reported":1706562352,"current_range_meters":16800,"station_id":"","pricing_plan_id":"free"},{"bike_id":"9cc30769-75e2-40a7-b116-b561ec6b360f","system_id":"levelo_inurba_marseille","lat":43.32837,"lon":5.36683,"is_reserved":false,"is_disabled":false,"rental_uris":{"android":"levelo://app?vid=9cc30769-75e2-40a7-b116-b561ec6b360f","ios":"levelo://app?vid=9cc30769-75e2-40a7-b116-b561ec6b360f"},"vehicle_type_id":"4","last_reported":1706562352,"current_range_meters":2000,"station_id":"ce4bhs92rcd13ifvqi0g","pricing_plan_id":"free"},{"bike_id":"b52a5566-49cd-48e5-8c6a-2d13c5d4a7e8","system_id":"levelo_inurba_marseille","lat":43.299028,"lon":5.381509,"is_reserved":false,"is_disabled":false,"rental_uris":{"android":"levelo://app?vid=b52a5566-49cd-48e5-8c6a-2d13c5d4a7e8","ios":"levelo://app?vid=b52a5566-49cd-48e5-8c6a-2d13c5d4a7e8"},"vehicle_type_id":"4","last_reported":1706562352,"current_range_meters":6800,"station_id":"ce4bgj12rcd13ifvqbc0","pricing_plan_id":"free"},{"bike_id":"8938590c-7441-4a15-ad01-91110a0c6ffc","system_id":"levelo_inurba_marseille","lat":43.296921,"lon":5.376579,"is_reserved":false,"is_disabled":false,"rental_uris":{"android":"levelo://app?vid=8938590c-7441-4a15-ad01-91110a0c6ffc","ios":"levelo://app?vid=8938590c-7441-4a15-ad01-91110a0c6ffc"},"vehicle_type_id":"4","last_reported":1706562352,"current_range_meters":18400,"station_id":"ce4bgkh2rcd13ifvqbl0","pricing_plan_id":"free"},{"bike_id":"1b625247-661e-4fa2-89c2-2f24bbeac8e6","system_id":"levelo_inurba_marseille","lat":43.299028,"lon":5.381509,"is_reserved":false,"is_disabled":false,"rental_uris":{"android":"levelo://app?vid=1b625247-661e-4fa2-89c2-2f24bbeac8e6","ios":"levelo://app?vid=1b625247-661e-4fa2-89c2-2f24bbeac8e6"},"vehicle_type_id":"4","last_reported":1706562352,"current_range_meters":12000,"station_id":"ce4bgj12rcd13ifvqbc0","pricing_plan_id":"free"},{"bike_id":"48881964-140d-44f7-924b-b1de481d78ae","system_id":"levelo_inurba_marseille","lat":43.309589,"lon":5.390258,"is_reserved":false,"is_disabled":false,"rental_uris":{"android":"levelo://app?vid=48881964-140d-44f7-924b-b1de481d78ae","ios":"levelo://app?vid=48881964-140d-44f7-924b-b1de481d78ae"},"vehicle_type_id":"4","last_reported":1706562352,"current_range_meters":24400,"station_id":"ce4bgup2rcd13ifvqco0","pricing_plan_id":"free"},{"bike_id":"792ca53d-a85b-4708-a86b-198a6178534c","system_id":"levelo_inurba_marseille","lat":43.317557,"lon":5.390173,"is_reserved":false,"is_disabled":false,"rental_uris":{"android":"levelo://app?vid=792ca53d-a85b-4708-a86b-198a6178534c","ios":"levelo://app?vid=792ca53d-a85b-4708-a86b-198a6178534c"},"vehicle_type_id":"4","last_reported":1706562352,"current_range_meters":27200,"station_id":"ce4bhqp2rcd13ifvqhng","pricing_plan_id":"free"},{"bike_id":"e089453b-319c-4b50-8352-cfa6bbc27328","system_id":"levelo_inurba_marseille","lat":43.317557,"lon":5.390173,"is_reserved":false,"is_disabled":false,"rental_uris":{"android":"levelo://app?vid=e089453b-319c-4b50-8352-cfa6bbc27328","ios":"levelo://app?vid=e089453b-319c-4b50-8352-cfa6bbc27328"},"vehicle_type_id":"4","last_reported":1706562352,"current_range_meters":26800,"station_id":"ce4bhqp2rcd13ifvqhng","pricing_plan_id":"free"},{"bike_id":"fb36bf10-06e0-47da-8793-500b296d3495","system_id":"levelo_inurba_marseille","lat":43.298037,"lon":5.381066,"is_reserved":false,"is_disabled":false,"rental_uris":{"android":"levelo://app?vid=fb36bf10-06e0-47da-8793-500b296d3495","ios":"levelo://app?vid=fb36bf10-06e0-47da-8793-500b296d3495"},"vehicle_type_id":"4","last_reported":1706562352,"current_range_meters":4400,"station_id":"ce4bgip2rcd13ifvqbb0","pricing_plan_id":"free"},{"bike_id":"ded7536c-00fa-4e96-b556-e8160d6a554a","system_id":"levelo_inurba_marseille","lat":43.298037,"lon":5.381066,"is_reserved":false,"is_disabled":false,"rental_uris":{"android":"levelo://app?vid=ded7536c-00fa-4e96-b556-e8160d6a554a","ios":"levelo://app?vid=ded7536c-00fa-4e96-b556-e8160d6a554a"},"vehicle_type_id":"4","last_reported":1706562352,"current_range_meters":11200,"station_id":"ce4bgip2rcd13ifvqbb0","pricing_plan_id":"free"},{"bike_id":"eb6597b7-c6f4-466b-b914-a3b3dd6c15fe","system_id":"levelo_inurba_marseille","lat":43.298037,"lon":5.381066,"is_reserved":false,"is_disabled":false,"rental_uris":{"android":"levelo://app?vid=eb6597b7-c6f4-466b-b914-a3b3dd6c15fe","ios":"levelo://app?vid=eb6597b7-c6f4-466b-b914-a3b3dd6c15fe"},"vehicle_type_id":"4","last_reported":1706562352,"current_range_meters":10800,"station_id":"ce4bgip2rcd13ifvqbb0","pricing_plan_id":"free"},{"bike_id":"11774811-71ac-4a3b-90a1-50bda41dfa74","system_id":"levelo_inurba_marseille","lat":43.297887,"lon":5.381244,"is_reserved":false,"is_disabled":false,"rental_uris":{"android":"levelo://app?vid=11774811-71ac-4a3b-90a1-50bda41dfa74","ios":"levelo://app?vid=11774811-71ac-4a3b-90a1-50bda41dfa74"},"vehicle_type_id":"4","last_reported":1706562352,"current_range_meters":0,"station_id":"ce4bgip2rcd13ifvqbb0","pricing_plan_id":"free"},{"bike_id":"bb958374-3dfd-476b-9391-9e6320c5150e","system_id":"levelo_inurba_marseille","lat":43.295279,"lon":5.375048,"is_reserved":false,"is_disabled":false,"rental_uris":{"android":"levelo://app?vid=bb958374-3dfd-476b-9391-9e6320c5150e","ios":"levelo://app?vid=bb958374-3dfd-476b-9391-9e6320c5150e"},"vehicle_type_id":"4","last_reported":1706562352,"current_range_meters":4800,"station_id":"ce4bgkp2rcd13ifvqbmg","pricing_plan_id":"free"},{"bike_id":"a138f966-dfce-4e2d-bf81-7ebdb5a157eb","system_id":"levelo_inurba_marseille","lat":43.295279,"lon":5.375048,"is_reserved":false,"is_disabled":false,"rental_uris":{"android":"levelo://app?vid=a138f966-dfce-4e2d-bf81-7ebdb5a157eb","ios":"levelo://app?vid=a138f966-dfce-4e2d-bf81-7ebdb5a157eb"},"vehicle_type_id":"4","last_reported":1706562352,"current_range_meters":13200,"station_id":"ce4bgkp2rcd13ifvqbmg","pricing_plan_id":"free"},{"bike_id":"61721387-bdd8-4012-a03c-2325cc0ad25a","system_id":"levelo_inurba_marseille","lat":43.29744,"lon":5.38222,"is_reserved":false,"is_disabled":false,"rental_uris":{"android":"levelo://app?vid=61721387-bdd8-4012-a03c-2325cc0ad25a","ios":"levelo://app?vid=61721387-bdd8-4012-a03c-2325cc0ad25a"},"vehicle_type_id":"4","last_reported":1706562352,"current_range_meters":400,"station_id":"","pricing_plan_id":"free"},{"bike_id":"de25d637-84ec-4203-b892-3e1c2d7c4ddb","system_id":"levelo_inurba_marseille","lat":43.33174,"lon":5.36449,"is_reserved":false,"is_disabled":false,"rental_uris":{"android":"levelo://app?vid=de25d637-84ec-4203-b892-3e1c2d7c4ddb","ios":"levelo://app?vid=de25d637-84ec-4203-b892-3e1c2d7c4ddb"},"vehicle_type_id":"4","last_reported":1706562352,"current_range_meters":15600,"station_id":"","pricing_plan_id":"free"},{"bike_id":"5e24362a-9442-421e-8be6-bf257b82cf68","system_id":"levelo_inurba_marseille","lat":43.32367,"lon":5.388836,"is_reserved":false,"is_disabled":false,"rental_uris":{"android":"levelo://app?vid=5e24362a-9442-421e-8be6-bf257b82cf68","ios":"levelo://app?vid=5e24362a-9442-421e-8be6-bf257b82cf68"},"vehicle_type_id":"4","last_reported":1706562352,"current_range_meters":27600,"station_id":"ce4bhqp2rcd13ifvqhog","pricing_plan_id":"free"},{"bike_id":"47d90bf9-c566-4da0-b978-4e662f0528ea","system_id":"levelo_inurba_marseille","lat":43.32367,"lon":5.388836,"is_reserved":false,"is_disabled":false,"rental_uris":{"android":"levelo://app?vid=47d90bf9-c566-4da0-b978-4e662f0528ea","ios":"levelo://app?vid=47d90bf9-c566-4da0-b978-4e662f0528ea"},"vehicle_type_id":"4","last_reported":1706562352,"current_range_meters":4800,"station_id":"ce4bhqp2rcd13ifvqhog","pricing_plan_id":"free"},{"bike_id":"6bc7d758-ad97-44b7-a60b-14ec6ef9f58c","system_id":"levelo_inurba_marseille","lat":43.29601,"lon":5.381084,"is_reserved":false,"is_disabled":false,"rental_uris":{"android":"levelo://app?vid=6bc7d758-ad97-44b7-a60b-14ec6ef9f58c","ios":"levelo://app?vid=6bc7d758-ad97-44b7-a60b-14ec6ef9f58c"},"vehicle_type_id":"4","last_reported":1706562352,"current_range_meters":11600,"station_id":"ce4bgl12rcd13ifvqbo0","pricing_plan_id":"free"},{"bike_id":"cd27dc0c-632d-4b4e-9fdb-c324f23429d7","system_id":"levelo_inurba_marseille","lat":43.29601,"lon":5.381084,"is_reserved":false,"is_disabled":false,"rental_uris":{"android":"levelo://app?vid=cd27dc0c-632d-4b4e-9fdb-c324f23429d7","ios":"levelo://app?vid=cd27dc0c-632d-4b4e-9fdb-c324f23429d7"},"vehicle_type_id":"4","last_reported":1706562352,"current_range_meters":21600,"station_id":"ce4bgl12rcd13ifvqbo0","pricing_plan_id":"free"},{"bike_id":"1a274319-ac36-4b48-90df-5711cd4c304c","system_id":"levelo_inurba_marseille","lat":43.292749,"lon":5.368402,"is_reserved":false,"is_disabled":false,"rental_uris":{"android":"levelo://app?vid=1a274319-ac36-4b48-90df-5711cd4c304c","ios":"levelo://app?vid=1a274319-ac36-4b48-90df-5711cd4c304c"},"vehicle_type_id":"4","last_reported":1706562352,"current_range_meters":21600,"station_id":"ce4bhbp2rcd13ifvqesg","pricing_plan_id":"free"},{"bike_id":"fab76313-9d4c-4be7-89be-9228e441bd9f","system_id":"levelo_inurba_marseille","lat":43.305994,"lon":5.393687,"is_reserved":false,"is_disabled":false,"rental_uris":{"android":"levelo://app?vid=fab76313-9d4c-4be7-89be-9228e441bd9f","ios":"levelo://app?vid=fab76313-9d4c-4be7-89be-9228e441bd9f"},"vehicle_type_id":"4","last_reported":1706562352,"current_range_meters":1200,"station_id":"ce4bh0p2rcd13ifvqd80","pricing_plan_id":"free"},{"bike_id":"5e06e23e-11df-475e-ada2-84ce20c8bc33","system_id":"levelo_inurba_marseille","lat":43.30603,"lon":5.39363,"is_reserved":false,"is_disabled":false,"rental_uris":{"android":"levelo://app?vid=5e06e23e-11df-475e-ada2-84ce20c8bc33","ios":"levelo://app?vid=5e06e23e-11df-475e-ada2-84ce20c8bc33"},"vehicle_type_id":"4","last_reported":1706562352,"current_range_meters":0,"station_id":"ce4bh0p2rcd13ifvqd80","pricing_plan_id":"free"},{"bike_id":"464b72b2-cb9a-451b-b7e7-a229d1b46fab","system_id":"levelo_inurba_marseille","lat":43.305994,"lon":5.393687,"is_reserved":false,"is_disabled":false,"rental_uris":{"android":"levelo://app?vid=464b72b2-cb9a-451b-b7e7-a229d1b46fab","ios":"levelo://app?vid=464b72b2-cb9a-451b-b7e7-a229d1b46fab"},"vehicle_type_id":"4","last_reported":1706562352,"current_range_meters":6400,"station_id":"ce4bh0p2rcd13ifvqd80","pricing_plan_id":"free"},{"bike_id":"03fd6a4f-6bac-43c0-9dcb-8aa62aa26913","system_id":"levelo_inurba_marseille","lat":43.303002,"lon":5.392142,"is_reserved":false,"is_disabled":false,"rental_uris":{"android":"levelo://app?vid=03fd6a4f-6bac-43c0-9dcb-8aa62aa26913","ios":"levelo://app?vid=03fd6a4f-6bac-43c0-9dcb-8aa62aa26913"},"vehicle_type_id":"4","last_reported":1706562352,"current_range_meters":20400,"station_id":"ce4bgkh2rcd13ifvqbk0","pricing_plan_id":"free"},{"bike_id":"3764c221-dc5a-4c4c-a456-07c28cea824f","system_id":"levelo_inurba_marseille","lat":43.300852,"lon":5.390859,"is_reserved":false,"is_disabled":false,"rental_uris":{"android":"levelo://app?vid=3764c221-dc5a-4c4c-a456-07c28cea824f","ios":"levelo://app?vid=3764c221-dc5a-4c4c-a456-07c28cea824f"},"vehicle_type_id":"4","last_reported":1706562352,"current_range_meters":22000,"station_id":"ce4bh192rcd13ifvqdb0","pricing_plan_id":"free"},{"bike_id":"45aba4b7-edf6-4f55-83fa-9caa1c4a5129","system_id":"levelo_inurba_marseille","lat":43.30085,"lon":5.390856,"is_reserved":false,"is_disabled":false,"rental_uris":{"android":"levelo://app?vid=45aba4b7-edf6-4f55-83fa-9caa1c4a5129","ios":"levelo://app?vid=45aba4b7-edf6-4f55-83fa-9caa1c4a5129"},"vehicle_type_id":"4","last_reported":1706562352,"current_range_meters":17200,"station_id":"ce4bh192rcd13ifvqdb0","pricing_plan_id":"free"},{"bike_id":"d7aeea54-9bc9-4610-b71a-13bcd461159d","system_id":"levelo_inurba_marseille","lat":43.300852,"lon":5.390859,"is_reserved":false,"is_disabled":false,"rental_uris":{"android":"levelo://app?vid=d7aeea54-9bc9-4610-b71a-13bcd461159d","ios":"levelo://app?vid=d7aeea54-9bc9-4610-b71a-13bcd461159d"},"vehicle_type_id":"4","last_reported":1706562352,"current_range_meters":27200,"station_id":"ce4bh192rcd13ifvqdb0","pricing_plan_id":"free"},{"bike_id":"15e03da3-5982-40da-8c5e-5e4b5f590042","system_id":"levelo_inurba_marseille","lat":43.298764,"lon":5.388973,"is_reserved":false,"is_disabled":false,"rental_uris":{"android":"levelo://app?vid=15e03da3-5982-40da-8c5e-5e4b5f590042","ios":"levelo://app?vid=15e03da3-5982-40da-8c5e-5e4b5f590042"},"vehicle_type_id":"4","last_reported":1706562352,"current_range_meters":20000,"station_id":"ce4bh392rcd13ifvqdl0","pricing_plan_id":"free"},{"bike_id":"42752d60-ce5a-4aba-bb4d-6befb053704d","system_id":"levelo_inurba_marseille","lat":43.298786,"lon":5.3891,"is_reserved":false,"is_disabled":false,"rental_uris":{"android":"levelo://app?vid=42752d60-ce5a-4aba-bb4d-6befb053704d","ios":"levelo://app?vid=42752d60-ce5a-4aba-bb4d-6befb053704d"},"vehicle_type_id":"4","last_reported":1706562352,"current_range_meters":30400,"station_id":"","pricing_plan_id":"free"},{"bike_id":"4300ea46-dbf4-4781-89a1-149cc340c8bd","system_id":"levelo_inurba_marseille","lat":43.298764,"lon":5.388973,"is_reserved":false,"is_disabled":false,"rental_uris":{"android":"levelo://app?vid=4300ea46-dbf4-4781-89a1-149cc340c8bd","ios":"levelo://app?vid=4300ea46-dbf4-4781-89a1-149cc340c8bd"},"vehicle_type_id":"4","last_reported":1706562352,"current_range_meters":6400,"station_id":"ce4bh392rcd13ifvqdl0","pricing_plan_id":"free"},{"bike_id":"f48ae292-23a2-4e41-bfa5-847a89ffd6e5","system_id":"levelo_inurba_marseille","lat":43.291994,"lon":5.357886,"is_reserved":false,"is_disabled":false,"rental_uris":{"android":"levelo://app?vid=f48ae292-23a2-4e41-bfa5-847a89ffd6e5","ios":"levelo://app?vid=f48ae292-23a2-4e41-bfa5-847a89ffd6e5"},"vehicle_type_id":"4","last_reported":1706562352,"current_range_meters":4400,"station_id":"ce4bhb12rcd13ifvqel0","pricing_plan_id":"free"},{"bike_id":"c07daf04-e21b-4f24-a83e-49b9ec655b9c","system_id":"levelo_inurba_marseille","lat":43.309038,"lon":5.396546,"is_reserved":false,"is_disabled":false,"rental_uris":{"android":"levelo://app?vid=c07daf04-e21b-4f24-a83e-49b9ec655b9c","ios":"levelo://app?vid=c07daf04-e21b-4f24-a83e-49b9ec655b9c"},"vehicle_type_id":"4","last_reported":1706562352,"current_range_meters":32000,"station_id":"ce4bh012rcd13ifvqcv0","pricing_plan_id":"free"},{"bike_id":"501f33e0-d3d6-4ec9-a581-afb47d0e8dcb","system_id":"levelo_inurba_marseille","lat":43.309038,"lon":5.396546,"is_reserved":false,"is_disabled":false,"rental_uris":{"android":"levelo://app?vid=501f33e0-d3d6-4ec9-a581-afb47d0e8dcb","ios":"levelo://app?vid=501f33e0-d3d6-4ec9-a581-afb47d0e8dcb"},"vehicle_type_id":"4","last_reported":1706562352,"current_range_meters":0,"station_id":"ce4bh012rcd13ifvqcv0","pricing_plan_id":"free"},{"bike_id":"92e84b73-e47c-4621-bdf8-c017630d7642","system_id":"levelo_inurba_marseille","lat":43.309038,"lon":5.396546,"is_reserved":false,"is_disabled":false,"rental_uris":{"android":"levelo://app?vid=92e84b73-e47c-4621-bdf8-c017630d7642","ios":"levelo://app?vid=92e84b73-e47c-4621-bdf8-c017630d7642"},"vehicle_type_id":"4","last_reported":1706562352,"current_range_meters":12400,"station_id":"ce4bh012rcd13ifvqcv0","pricing_plan_id":"free"},{"bike_id":"b36fd92c-f2dc-4b9f-b79f-68b10cd4ccd8","system_id":"levelo_inurba_marseille","lat":43.31325,"lon":5.39694,"is_reserved":false,"is_disabled":false,"rental_uris":{"android":"levelo://app?vid=b36fd92c-f2dc-4b9f-b79f-68b10cd4ccd8","ios":"levelo://app?vid=b36fd92c-f2dc-4b9f-b79f-68b10cd4ccd8"},"vehicle_type_id":"4","last_reported":1706562352,"current_range_meters":14400,"station_id":"ce4bgvp2rcd13ifvqcu0","pricing_plan_id":"free"},{"bike_id":"f5e7ae9a-d3e2-40d7-b6a6-13962af8917f","system_id":"levelo_inurba_marseille","lat":43.31329,"lon":5.39694,"is_reserved":false,"is_disabled":false,"rental_uris":{"android":"levelo://app?vid=f5e7ae9a-d3e2-40d7-b6a6-13962af8917f","ios":"levelo://app?vid=f5e7ae9a-d3e2-40d7-b6a6-13962af8917f"},"vehicle_type_id":"4","last_reported":1706562352,"current_range_meters":27600,"station_id":"ce4bgvp2rcd13ifvqcu0","pricing_plan_id":"free"},{"bike_id":"ea8ae95c-4655-4202-ab1c-dc5ad19c7faf","system_id":"levelo_inurba_marseille","lat":43.309047,"lon":5.396551,"is_reserved":false,"is_disabled":false,"rental_uris":{"android":"levelo://app?vid=ea8ae95c-4655-4202-ab1c-dc5ad19c7faf","ios":"levelo://app?vid=ea8ae95c-4655-4202-ab1c-dc5ad19c7faf"},"vehicle_type_id":"4","last_reported":1706562352,"current_range_meters":2000,"station_id":"ce4bh012rcd13ifvqcv0","pricing_plan_id":"free"},{"bike_id":"94694735-b0a7-4a13-b8d0-373bbc9655a0","system_id":"levelo_inurba_marseille","lat":43.313291,"lon":5.396838,"is_reserved":false,"is_disabled":false,"rental_uris":{"android":"levelo://app?vid=94694735-b0a7-4a13-b8d0-373bbc9655a0","ios":"levelo://app?vid=94694735-b0a7-4a13-b8d0-373bbc9655a0"},"vehicle_type_id":"4","last_reported":1706562352,"current_range_meters":4000,"station_id":"ce4bgvp2rcd13ifvqcu0","pricing_plan_id":"free"},{"bike_id":"067a3f54-cdb1-4351-888c-7235aaac275f","system_id":"levelo_inurba_marseille","lat":43.313291,"lon":5.396838,"is_reserved":false,"is_disabled":false,"rental_uris":{"android":"levelo://app?vid=067a3f54-cdb1-4351-888c-7235aaac275f","ios":"levelo://app?vid=067a3f54-cdb1-4351-888c-7235aaac275f"},"vehicle_type_id":"4","last_reported":1706562352,"current_range_meters":10000,"station_id":"ce4bgvp2rcd13ifvqcu0","pricing_plan_id":"free"},{"bike_id":"4b35d7e7-56c0-4104-8559-b43c8174454c","system_id":"levelo_inurba_marseille","lat":43.309038,"lon":5.396546,"is_reserved":false,"is_disabled":false,"rental_uris":{"android":"levelo://app?vid=4b35d7e7-56c0-4104-8559-b43c8174454c","ios":"levelo://app?vid=4b35d7e7-56c0-4104-8559-b43c8174454c"},"vehicle_type_id":"4","last_reported":1706562352,"current_range_meters":4400,"station_id":"ce4bh012rcd13ifvqcv0","pricing_plan_id":"free"},{"bike_id":"82d14565-9ce5-48c6-889c-ad4a6e64384d","system_id":"levelo_inurba_marseille","lat":43.309038,"lon":5.396546,"is_reserved":false,"is_disabled":false,"rental_uris":{"android":"levelo://app?vid=82d14565-9ce5-48c6-889c-ad4a6e64384d","ios":"levelo://app?vid=82d14565-9ce5-48c6-889c-ad4a6e64384d"},"vehicle_type_id":"4","last_reported":1706562352,"current_range_meters":10800,"station_id":"ce4bh012rcd13ifvqcv0","pricing_plan_id":"free"},{"bike_id":"aa5f2382-8921-4a1f-a1de-1ef8869aed4d","system_id":"levelo_inurba_marseille","lat":43.313291,"lon":5.396838,"is_reserved":false,"is_disabled":false,"rental_uris":{"android":"levelo://app?vid=aa5f2382-8921-4a1f-a1de-1ef8869aed4d","ios":"levelo://app?vid=aa5f2382-8921-4a1f-a1de-1ef8869aed4d"},"vehicle_type_id":"4","last_reported":1706562352,"current_range_meters":16400,"station_id":"ce4bgvp2rcd13ifvqcu0","pricing_plan_id":"free"},{"bike_id":"6e9cf4c7-3d24-498c-a9a1-1081e91d920c","system_id":"levelo_inurba_marseille","lat":43.309047,"lon":5.396551,"is_reserved":false,"is_disabled":false,"rental_uris":{"android":"levelo://app?vid=6e9cf4c7-3d24-498c-a9a1-1081e91d920c","ios":"levelo://app?vid=6e9cf4c7-3d24-498c-a9a1-1081e91d920c"},"vehicle_type_id":"4","last_reported":1706562352,"current_range_meters":17600,"station_id":"ce4bh012rcd13ifvqcv0","pricing_plan_id":"free"},{"bike_id":"c1e1a74c-7564-415a-8abc-0fcbeb7ef317","system_id":"levelo_inurba_marseille","lat":43.309047,"lon":5.396551,"is_reserved":false,"is_disabled":false,"rental_uris":{"android":"levelo://app?vid=c1e1a74c-7564-415a-8abc-0fcbeb7ef317","ios":"levelo://app?vid=c1e1a74c-7564-415a-8abc-0fcbeb7ef317"},"vehicle_type_id":"4","last_reported":1706562352,"current_range_meters":22400,"station_id":"ce4bh012rcd13ifvqcv0","pricing_plan_id":"free"},{"bike_id":"c158d75a-efe0-4ff4-8c01-a3bab86b73f2","system_id":"levelo_inurba_marseille","lat":43.309038,"lon":5.396546,"is_reserved":false,"is_disabled":false,"rental_uris":{"android":"levelo://app?vid=c158d75a-efe0-4ff4-8c01-a3bab86b73f2","ios":"levelo://app?vid=c158d75a-efe0-4ff4-8c01-a3bab86b73f2"},"vehicle_type_id":"4","last_reported":1706562352,"current_range_meters":16400,"station_id":"ce4bh012rcd13ifvqcv0","pricing_plan_id":"free"},{"bike_id":"f53485f9-f98f-46e0-b0ca-bab93f000b79","system_id":"levelo_inurba_marseille","lat":43.3133,"lon":5.39702,"is_reserved":false,"is_disabled":false,"rental_uris":{"android":"levelo://app?vid=f53485f9-f98f-46e0-b0ca-bab93f000b79","ios":"levelo://app?vid=f53485f9-f98f-46e0-b0ca-bab93f000b79"},"vehicle_type_id":"4","last_reported":1706562352,"current_range_meters":19600,"station_id":"ce4bgvp2rcd13ifvqcu0","pricing_plan_id":"free"},{"bike_id":"60d917f5-4d65-481e-ba20-ebcaf446e790","system_id":"levelo_inurba_marseille","lat":43.309038,"lon":5.396546,"is_reserved":false,"is_disabled":false,"rental_uris":{"android":"levelo://app?vid=60d917f5-4d65-481e-ba20-ebcaf446e790","ios":"levelo://app?vid=60d917f5-4d65-481e-ba20-ebcaf446e790"},"vehicle_type_id":"4","last_reported":1706562352,"current_range_meters":32000,"station_id":"ce4bh012rcd13ifvqcv0","pricing_plan_id":"free"},{"bike_id":"afa168ee-e828-4eee-a74e-6270da90788d","system_id":"levelo_inurba_marseille","lat":43.309047,"lon":5.396551,"is_reserved":false,"is_disabled":false,"rental_uris":{"android":"levelo://app?vid=afa168ee-e828-4eee-a74e-6270da90788d","ios":"levelo://app?vid=afa168ee-e828-4eee-a74e-6270da90788d"},"vehicle_type_id":"4","last_reported":1706562352,"current_range_meters":4800,"station_id":"ce4bh012rcd13ifvqcv0","pricing_plan_id":"free"},{"bike_id":"b61e3b4c-03e1-4dd4-9173-aded730ff6f2","system_id":"levelo_inurba_marseille","lat":43.309047,"lon":5.396551,"is_reserved":false,"is_disabled":false,"rental_uris":{"android":"levelo://app?vid=b61e3b4c-03e1-4dd4-9173-aded730ff6f2","ios":"levelo://app?vid=b61e3b4c-03e1-4dd4-9173-aded730ff6f2"},"vehicle_type_id":"4","last_reported":1706562352,"current_range_meters":14000,"station_id":"ce4bh012rcd13ifvqcv0","pricing_plan_id":"free"},{"bike_id":"64681a53-470d-4f05-826d-d693647d8d27","system_id":"levelo_inurba_marseille","lat":43.313291,"lon":5.396838,"is_reserved":false,"is_disabled":false,"rental_uris":{"android":"levelo://app?vid=64681a53-470d-4f05-826d-d693647d8d27","ios":"levelo://app?vid=64681a53-470d-4f05-826d-d693647d8d27"},"vehicle_type_id":"4","last_reported":1706562352,"current_range_meters":0,"station_id":"ce4bgvp2rcd13ifvqcu0","pricing_plan_id":"free"},{"bike_id":"16c40ca0-6dbf-454f-a817-153200af8c56","system_id":"levelo_inurba_marseille","lat":43.29529,"lon":5.385581,"is_reserved":false,"is_disabled":false,"rental_uris":{"android":"levelo://app?vid=16c40ca0-6dbf-454f-a817-153200af8c56","ios":"levelo://app?vid=16c40ca0-6dbf-454f-a817-153200af8c56"},"vehicle_type_id":"4","last_reported":1706562352,"current_range_meters":7600,"station_id":"ce4bgih2rcd13ifvqba0","pricing_plan_id":"free"},{"bike_id":"fc8b8d21-4734-4a17-bed8-8eda69992522","system_id":"levelo_inurba_marseille","lat":43.29529,"lon":5.385581,"is_reserved":false,"is_disabled":false,"rental_uris":{"android":"levelo://app?vid=fc8b8d21-4734-4a17-bed8-8eda69992522","ios":"levelo://app?vid=fc8b8d21-4734-4a17-bed8-8eda69992522"},"vehicle_type_id":"4","last_reported":1706562352,"current_range_meters":26800,"station_id":"ce4bgih2rcd13ifvqba0","pricing_plan_id":"free"},{"bike_id":"3cbb31ed-3822-4085-a4ef-bbbd315fc6b4","system_id":"levelo_inurba_marseille","lat":43.29529,"lon":5.385581,"is_reserved":false,"is_disabled":false,"rental_uris":{"android":"levelo://app?vid=3cbb31ed-3822-4085-a4ef-bbbd315fc6b4","ios":"levelo://app?vid=3cbb31ed-3822-4085-a4ef-bbbd315fc6b4"},"vehicle_type_id":"4","last_reported":1706562352,"current_range_meters":14800,"station_id":"ce4bgih2rcd13ifvqba0","pricing_plan_id":"free"},{"bike_id":"04b167fc-65ac-443a-ac45-bbf9f18b5adc","system_id":"levelo_inurba_marseille","lat":43.29529,"lon":5.385581,"is_reserved":false,"is_disabled":false,"rental_uris":{"android":"levelo://app?vid=04b167fc-65ac-443a-ac45-bbf9f18b5adc","ios":"levelo://app?vid=04b167fc-65ac-443a-ac45-bbf9f18b5adc"},"vehicle_type_id":"4","last_reported":1706562352,"current_range_meters":1200,"station_id":"ce4bgih2rcd13ifvqba0","pricing_plan_id":"free"},{"bike_id":"9de43cd8-5f7d-4ba5-8307-bfc6f409e491","system_id":"levelo_inurba_marseille","lat":43.29529,"lon":5.385581,"is_reserved":false,"is_disabled":false,"rental_uris":{"android":"levelo://app?vid=9de43cd8-5f7d-4ba5-8307-bfc6f409e491","ios":"levelo://app?vid=9de43cd8-5f7d-4ba5-8307-bfc6f409e491"},"vehicle_type_id":"4","last_reported":1706562352,"current_range_meters":5600,"station_id":"ce4bgih2rcd13ifvqba0","pricing_plan_id":"free"},{"bike_id":"562eaa91-9a04-49df-bb49-2a84abd4b30e","system_id":"levelo_inurba_marseille","lat":43.294964,"lon":5.385937,"is_reserved":false,"is_disabled":false,"rental_uris":{"android":"levelo://app?vid=562eaa91-9a04-49df-bb49-2a84abd4b30e","ios":"levelo://app?vid=562eaa91-9a04-49df-bb49-2a84abd4b30e"},"vehicle_type_id":"4","last_reported":1706562352,"current_range_meters":0,"station_id":"","pricing_plan_id":"free"},{"bike_id":"2c1e47ad-3478-424c-8c66-23a600b1f0dc","system_id":"levelo_inurba_marseille","lat":43.290441,"lon":5.359123,"is_reserved":false,"is_disabled":false,"rental_uris":{"android":"levelo://app?vid=2c1e47ad-3478-424c-8c66-23a600b1f0dc","ios":"levelo://app?vid=2c1e47ad-3478-424c-8c66-23a600b1f0dc"},"vehicle_type_id":"4","last_reported":1706562352,"current_range_meters":20400,"station_id":"","pricing_plan_id":"free"},{"bike_id":"f454b6ee-7b00-46e8-9190-972000ad44cf","system_id":"levelo_inurba_marseille","lat":43.290631,"lon":5.359244,"is_reserved":false,"is_disabled":false,"rental_uris":{"android":"levelo://app?vid=f454b6ee-7b00-46e8-9190-972000ad44cf","ios":"levelo://app?vid=f454b6ee-7b00-46e8-9190-972000ad44cf"},"vehicle_type_id":"4","last_reported":1706562352,"current_range_meters":10000,"station_id":"ce4bha92rcd13ifvqeg0","pricing_plan_id":"free"},{"bike_id":"3232283e-e3ef-4ec2-92e0-a15a247a09ae","system_id":"levelo_inurba_marseille","lat":43.29424,"lon":5.38623,"is_reserved":false,"is_disabled":false,"rental_uris":{"android":"levelo://app?vid=3232283e-e3ef-4ec2-92e0-a15a247a09ae","ios":"levelo://app?vid=3232283e-e3ef-4ec2-92e0-a15a247a09ae"},"vehicle_type_id":"4","last_reported":1706562352,"current_range_meters":26000,"station_id":"ce4bh2h2rcd13ifvqdh0","pricing_plan_id":"free"},{"bike_id":"6f4d5050-577c-4264-aae4-96f2ffb92de7","system_id":"levelo_inurba_marseille","lat":43.29421,"lon":5.3862,"is_reserved":false,"is_disabled":false,"rental_uris":{"android":"levelo://app?vid=6f4d5050-577c-4264-aae4-96f2ffb92de7","ios":"levelo://app?vid=6f4d5050-577c-4264-aae4-96f2ffb92de7"},"vehicle_type_id":"4","last_reported":1706562352,"current_range_meters":5200,"station_id":"ce4bh2h2rcd13ifvqdh0","pricing_plan_id":"free"},{"bike_id":"4ebfa64c-2cd6-4614-a4f4-ea0a7fd46830","system_id":"levelo_inurba_marseille","lat":43.29421,"lon":5.38625,"is_reserved":false,"is_disabled":false,"rental_uris":{"android":"levelo://app?vid=4ebfa64c-2cd6-4614-a4f4-ea0a7fd46830","ios":"levelo://app?vid=4ebfa64c-2cd6-4614-a4f4-ea0a7fd46830"},"vehicle_type_id":"4","last_reported":1706562352,"current_range_meters":0,"station_id":"ce4bh2h2rcd13ifvqdh0","pricing_plan_id":"free"},{"bike_id":"a34727ba-1b14-4630-b0b0-90339d599169","system_id":"levelo_inurba_marseille","lat":43.29421,"lon":5.38627,"is_reserved":false,"is_disabled":false,"rental_uris":{"android":"levelo://app?vid=a34727ba-1b14-4630-b0b0-90339d599169","ios":"levelo://app?vid=a34727ba-1b14-4630-b0b0-90339d599169"},"vehicle_type_id":"4","last_reported":1706562352,"current_range_meters":4400,"station_id":"ce4bh2h2rcd13ifvqdh0","pricing_plan_id":"free"},{"bike_id":"d0dc1499-0c07-42eb-b26a-58fe94417f5b","system_id":"levelo_inurba_marseille","lat":43.29421,"lon":5.38632,"is_reserved":false,"is_disabled":false,"rental_uris":{"android":"levelo://app?vid=d0dc1499-0c07-42eb-b26a-58fe94417f5b","ios":"levelo://app?vid=d0dc1499-0c07-42eb-b26a-58fe94417f5b"},"vehicle_type_id":"4","last_reported":1706562352,"current_range_meters":17600,"station_id":"ce4bh2h2rcd13ifvqdh0","pricing_plan_id":"free"},{"bike_id":"4d10671b-0feb-4feb-ba60-cceda73a4a14","system_id":"levelo_inurba_marseille","lat":43.294153,"lon":5.386305,"is_reserved":false,"is_disabled":false,"rental_uris":{"android":"levelo://app?vid=4d10671b-0feb-4feb-ba60-cceda73a4a14","ios":"levelo://app?vid=4d10671b-0feb-4feb-ba60-cceda73a4a14"},"vehicle_type_id":"4","last_reported":1706562352,"current_range_meters":30400,"station_id":"ce4bh2h2rcd13ifvqdh0","pricing_plan_id":"free"},{"bike_id":"b41d9036-6638-44a7-b9ac-3d6828395e7b","system_id":"levelo_inurba_marseille","lat":43.294153,"lon":5.386305,"is_reserved":false,"is_disabled":false,"rental_uris":{"android":"levelo://app?vid=b41d9036-6638-44a7-b9ac-3d6828395e7b","ios":"levelo://app?vid=b41d9036-6638-44a7-b9ac-3d6828395e7b"},"vehicle_type_id":"4","last_reported":1706562352,"current_range_meters":7600,"station_id":"ce4bh2h2rcd13ifvqdh0","pricing_plan_id":"free"},{"bike_id":"177c6148-7087-4a37-b934-4f8182d8990c","system_id":"levelo_inurba_marseille","lat":43.289184,"lon":5.366408,"is_reserved":false,"is_disabled":false,"rental_uris":{"android":"levelo://app?vid=177c6148-7087-4a37-b934-4f8182d8990c","ios":"levelo://app?vid=177c6148-7087-4a37-b934-4f8182d8990c"},"vehicle_type_id":"4","last_reported":1706562352,"current_range_meters":12400,"station_id":"ce4bhap2rcd13ifvqek0","pricing_plan_id":"free"},{"bike_id":"fbd8e25e-aff8-4758-b0f9-4448f12361ea","system_id":"levelo_inurba_marseille","lat":43.28943,"lon":5.36623,"is_reserved":false,"is_disabled":false,"rental_uris":{"android":"levelo://app?vid=fbd8e25e-aff8-4758-b0f9-4448f12361ea","ios":"levelo://app?vid=fbd8e25e-aff8-4758-b0f9-4448f12361ea"},"vehicle_type_id":"4","last_reported":1706562352,"current_range_meters":7200,"station_id":"ce4bhap2rcd13ifvqek0","pricing_plan_id":"free"},{"bike_id":"16d589da-d935-40a8-adce-34bbbff47be4","system_id":"levelo_inurba_marseille","lat":43.29418,"lon":5.38634,"is_reserved":false,"is_disabled":false,"rental_uris":{"android":"levelo://app?vid=16d589da-d935-40a8-adce-34bbbff47be4","ios":"levelo://app?vid=16d589da-d935-40a8-adce-34bbbff47be4"},"vehicle_type_id":"4","last_reported":1706562352,"current_range_meters":29200,"station_id":"ce4bh2h2rcd13ifvqdh0","pricing_plan_id":"free"},{"bike_id":"dd88e1bd-44ff-47c8-be6d-2a0d498073c1","system_id":"levelo_inurba_marseille","lat":43.294153,"lon":5.386305,"is_reserved":false,"is_disabled":false,"rental_uris":{"android":"levelo://app?vid=dd88e1bd-44ff-47c8-be6d-2a0d498073c1","ios":"levelo://app?vid=dd88e1bd-44ff-47c8-be6d-2a0d498073c1"},"vehicle_type_id":"4","last_reported":1706562352,"current_range_meters":3200,"station_id":"ce4bh2h2rcd13ifvqdh0","pricing_plan_id":"free"},{"bike_id":"2bccb6e7-0d6b-4977-8fe0-e8b85c06f0e3","system_id":"levelo_inurba_marseille","lat":43.289184,"lon":5.366408,"is_reserved":false,"is_disabled":false,"rental_uris":{"android":"levelo://app?vid=2bccb6e7-0d6b-4977-8fe0-e8b85c06f0e3","ios":"levelo://app?vid=2bccb6e7-0d6b-4977-8fe0-e8b85c06f0e3"},"vehicle_type_id":"4","last_reported":1706562352,"current_range_meters":20400,"station_id":"ce4bhap2rcd13ifvqek0","pricing_plan_id":"free"},{"bike_id":"e727dfd3-6e41-4d83-ac06-8a9c97e4cb0f","system_id":"levelo_inurba_marseille","lat":43.289184,"lon":5.366408,"is_reserved":false,"is_disabled":false,"rental_uris":{"android":"levelo://app?vid=e727dfd3-6e41-4d83-ac06-8a9c97e4cb0f","ios":"levelo://app?vid=e727dfd3-6e41-4d83-ac06-8a9c97e4cb0f"},"vehicle_type_id":"4","last_reported":1706562352,"current_range_meters":15600,"station_id":"ce4bhap2rcd13ifvqek0","pricing_plan_id":"free"},{"bike_id":"1b865d7c-e8db-4e76-b301-a6ee3e1f0f46","system_id":"levelo_inurba_marseille","lat":43.289184,"lon":5.366408,"is_reserved":false,"is_disabled":false,"rental_uris":{"android":"levelo://app?vid=1b865d7c-e8db-4e76-b301-a6ee3e1f0f46","ios":"levelo://app?vid=1b865d7c-e8db-4e76-b301-a6ee3e1f0f46"},"vehicle_type_id":"4","last_reported":1706562352,"current_range_meters":8400,"station_id":"ce4bhap2rcd13ifvqek0","pricing_plan_id":"free"},{"bike_id":"fbb33163-4eda-46c1-b5ee-6042cb7e3646","system_id":"levelo_inurba_marseille","lat":43.289468,"lon":5.363719,"is_reserved":false,"is_disabled":false,"rental_uris":{"android":"levelo://app?vid=fbb33163-4eda-46c1-b5ee-6042cb7e3646","ios":"levelo://app?vid=fbb33163-4eda-46c1-b5ee-6042cb7e3646"},"vehicle_type_id":"4","last_reported":1706562352,"current_range_meters":23600,"station_id":"ce4bhc92rcd13ifvqetg","pricing_plan_id":"free"},{"bike_id":"947059b3-9f18-4094-95ea-9e84b5f296f6","system_id":"levelo_inurba_marseille","lat":43.289468,"lon":5.363719,"is_reserved":false,"is_disabled":false,"rental_uris":{"android":"levelo://app?vid=947059b3-9f18-4094-95ea-9e84b5f296f6","ios":"levelo://app?vid=947059b3-9f18-4094-95ea-9e84b5f296f6"},"vehicle_type_id":"4","last_reported":1706562352,"current_range_meters":0,"station_id":"ce4bhc92rcd13ifvqetg","pricing_plan_id":"free"},{"bike_id":"19f6ccb3-dc7b-42e1-aaca-4bef102930bf","system_id":"levelo_inurba_marseille","lat":43.304296,"lon":5.397513,"is_reserved":false,"is_disabled":false,"rental_uris":{"android":"levelo://app?vid=19f6ccb3-dc7b-42e1-aaca-4bef102930bf","ios":"levelo://app?vid=19f6ccb3-dc7b-42e1-aaca-4bef102930bf"},"vehicle_type_id":"4","last_reported":1706562352,"current_range_meters":2400,"station_id":"ce4bh092rcd13ifvqd20","pricing_plan_id":"free"},{"bike_id":"d26f5bdf-3c12-49a2-b03b-eb4fca799f15","system_id":"levelo_inurba_marseille","lat":43.289468,"lon":5.363719,"is_reserved":false,"is_disabled":false,"rental_uris":{"android":"levelo://app?vid=d26f5bdf-3c12-49a2-b03b-eb4fca799f15","ios":"levelo://app?vid=d26f5bdf-3c12-49a2-b03b-eb4fca799f15"},"vehicle_type_id":"4","last_reported":1706562352,"current_range_meters":28800,"station_id":"ce4bhc92rcd13ifvqetg","pricing_plan_id":"free"},{"bike_id":"20b0dc59-29f1-411b-a905-93feddc9676b","system_id":"levelo_inurba_marseille","lat":43.289184,"lon":5.366408,"is_reserved":false,"is_disabled":false,"rental_uris":{"android":"levelo://app?vid=20b0dc59-29f1-411b-a905-93feddc9676b","ios":"levelo://app?vid=20b0dc59-29f1-411b-a905-93feddc9676b"},"vehicle_type_id":"4","last_reported":1706562352,"current_range_meters":1200,"station_id":"ce4bhap2rcd13ifvqek0","pricing_plan_id":"free"},{"bike_id":"ca0d2cae-01bc-4782-afdd-22b5b6274e6a","system_id":"levelo_inurba_marseille","lat":43.292571,"lon":5.409107,"is_reserved":false,"is_disabled":false,"rental_uris":{"android":"levelo://app?vid=ca0d2cae-01bc-4782-afdd-22b5b6274e6a","ios":"levelo://app?vid=ca0d2cae-01bc-4782-afdd-22b5b6274e6a"},"vehicle_type_id":"4","last_reported":1706562352,"current_range_meters":20800,"station_id":"ce4bh192rcd13ifvqdc0","pricing_plan_id":"free"},{"bike_id":"2857e10e-86c6-4147-8bf1-2b8777925806","system_id":"levelo_inurba_marseille","lat":43.292644,"lon":5.384257,"is_reserved":false,"is_disabled":false,"rental_uris":{"android":"levelo://app?vid=2857e10e-86c6-4147-8bf1-2b8777925806","ios":"levelo://app?vid=2857e10e-86c6-4147-8bf1-2b8777925806"},"vehicle_type_id":"4","last_reported":1706562352,"current_range_meters":0,"station_id":"ce4bh692rcd13ifvqea0","pricing_plan_id":"free"},{"bike_id":"4f2ed9e1-e587-4f9f-a826-74284f7401f3","system_id":"levelo_inurba_marseille","lat":43.304274,"lon":5.397513,"is_reserved":false,"is_disabled":false,"rental_uris":{"android":"levelo://app?vid=4f2ed9e1-e587-4f9f-a826-74284f7401f3","ios":"levelo://app?vid=4f2ed9e1-e587-4f9f-a826-74284f7401f3"},"vehicle_type_id":"4","last_reported":1706562352,"current_range_meters":11200,"station_id":"ce4bh092rcd13ifvqd20","pricing_plan_id":"free"},{"bike_id":"9d53e92d-e055-4146-ac7e-5fed90d077bc","system_id":"levelo_inurba_marseille","lat":43.292642,"lon":5.384254,"is_reserved":false,"is_disabled":false,"rental_uris":{"android":"levelo://app?vid=9d53e92d-e055-4146-ac7e-5fed90d077bc","ios":"levelo://app?vid=9d53e92d-e055-4146-ac7e-5fed90d077bc"},"vehicle_type_id":"4","last_reported":1706562352,"current_range_meters":4000,"station_id":"ce4bh692rcd13ifvqea0","pricing_plan_id":"free"},{"bike_id":"9bbfc14a-ac8c-4a2a-bbff-4f18477b35ca","system_id":"levelo_inurba_marseille","lat":43.29258,"lon":5.38441,"is_reserved":false,"is_disabled":false,"rental_uris":{"android":"levelo://app?vid=9bbfc14a-ac8c-4a2a-bbff-4f18477b35ca","ios":"levelo://app?vid=9bbfc14a-ac8c-4a2a-bbff-4f18477b35ca"},"vehicle_type_id":"4","last_reported":1706562352,"current_range_meters":3600,"station_id":"ce4bh692rcd13ifvqea0","pricing_plan_id":"free"},{"bike_id":"aae36409-5ae0-431d-b5ee-d4cd468c772a","system_id":"levelo_inurba_marseille","lat":43.304274,"lon":5.397513,"is_reserved":false,"is_disabled":false,"rental_uris":{"android":"levelo://app?vid=aae36409-5ae0-431d-b5ee-d4cd468c772a","ios":"levelo://app?vid=aae36409-5ae0-431d-b5ee-d4cd468c772a"},"vehicle_type_id":"4","last_reported":1706562352,"current_range_meters":6800,"station_id":"ce4bh092rcd13ifvqd20","pricing_plan_id":"free"},{"bike_id":"ac6a2787-333b-42bb-9af1-21e5c99bc940","system_id":"levelo_inurba_marseille","lat":43.290104,"lon":5.356111,"is_reserved":false,"is_disabled":false,"rental_uris":{"android":"levelo://app?vid=ac6a2787-333b-42bb-9af1-21e5c99bc940","ios":"levelo://app?vid=ac6a2787-333b-42bb-9af1-21e5c99bc940"},"vehicle_type_id":"4","last_reported":1706562352,"current_range_meters":4400,"station_id":"ce4bhb92rcd13ifvqen0","pricing_plan_id":"free"},{"bike_id":"62453514-b8e8-4208-b008-6b7eb866169d","system_id":"levelo_inurba_marseille","lat":43.290995,"lon":5.381361,"is_reserved":false,"is_disabled":false,"rental_uris":{"android":"levelo://app?vid=62453514-b8e8-4208-b008-6b7eb866169d","ios":"levelo://app?vid=62453514-b8e8-4208-b008-6b7eb866169d"},"vehicle_type_id":"4","last_reported":1706562352,"current_range_meters":10000,"station_id":"ce4bh512rcd13ifvqe2g","pricing_plan_id":"free"},{"bike_id":"8476a004-82e9-4452-8afb-b12590fcfd55","system_id":"levelo_inurba_marseille","lat":43.290995,"lon":5.381361,"is_reserved":false,"is_disabled":false,"rental_uris":{"android":"levelo://app?vid=8476a004-82e9-4452-8afb-b12590fcfd55","ios":"levelo://app?vid=8476a004-82e9-4452-8afb-b12590fcfd55"},"vehicle_type_id":"4","last_reported":1706562352,"current_range_meters":23600,"station_id":"ce4bh512rcd13ifvqe2g","pricing_plan_id":"free"},{"bike_id":"5939e54a-96f4-4bb1-a4df-14106d929914","system_id":"levelo_inurba_marseille","lat":43.28874,"lon":5.36332,"is_reserved":false,"is_disabled":false,"rental_uris":{"android":"levelo://app?vid=5939e54a-96f4-4bb1-a4df-14106d929914","ios":"levelo://app?vid=5939e54a-96f4-4bb1-a4df-14106d929914"},"vehicle_type_id":"4","last_reported":1706562352,"current_range_meters":18800,"station_id":"ce4bhah2rcd13ifvqej0","pricing_plan_id":"free"},{"bike_id":"8add903e-4a77-4a7a-b89a-7edd523512c0","system_id":"levelo_inurba_marseille","lat":43.29792,"lon":5.39339,"is_reserved":false,"is_disabled":false,"rental_uris":{"android":"levelo://app?vid=8add903e-4a77-4a7a-b89a-7edd523512c0","ios":"levelo://app?vid=8add903e-4a77-4a7a-b89a-7edd523512c0"},"vehicle_type_id":"4","last_reported":1706562352,"current_range_meters":29200,"station_id":"chh1huq6cuj3fo74tm60","pricing_plan_id":"free"},{"bike_id":"2c35eee9-0a73-4a36-80a9-96c0004dabf1","system_id":"levelo_inurba_marseille","lat":43.330442,"lon":5.389148,"is_reserved":false,"is_disabled":false,"rental_uris":{"android":"levelo://app?vid=2c35eee9-0a73-4a36-80a9-96c0004dabf1","ios":"levelo://app?vid=2c35eee9-0a73-4a36-80a9-96c0004dabf1"},"vehicle_type_id":"4","last_reported":1706562352,"current_range_meters":30000,"station_id":"ce4bhr92rcd13ifvqhrg","pricing_plan_id":"free"},{"bike_id":"4b76ab56-8606-49cb-bb97-7421c3f9b6e5","system_id":"levelo_inurba_marseille","lat":43.297815,"lon":5.393548,"is_reserved":false,"is_disabled":false,"rental_uris":{"android":"levelo://app?vid=4b76ab56-8606-49cb-bb97-7421c3f9b6e5","ios":"levelo://app?vid=4b76ab56-8606-49cb-bb97-7421c3f9b6e5"},"vehicle_type_id":"4","last_reported":1706562352,"current_range_meters":10400,"station_id":"chh1huq6cuj3fo74tm60","pricing_plan_id":"free"},{"bike_id":"d51b1970-66e9-4745-a2d3-9782ad9b9410","system_id":"levelo_inurba_marseille","lat":43.297815,"lon":5.393548,"is_reserved":false,"is_disabled":false,"rental_uris":{"android":"levelo://app?vid=d51b1970-66e9-4745-a2d3-9782ad9b9410","ios":"levelo://app?vid=d51b1970-66e9-4745-a2d3-9782ad9b9410"},"vehicle_type_id":"4","last_reported":1706562352,"current_range_meters":30800,"station_id":"chh1huq6cuj3fo74tm60","pricing_plan_id":"free"},{"bike_id":"8f7e4864-ee4d-4fc3-9d7d-1dd6b4489e99","system_id":"levelo_inurba_marseille","lat":43.295169,"lon":5.390426,"is_reserved":false,"is_disabled":false,"rental_uris":{"android":"levelo://app?vid=8f7e4864-ee4d-4fc3-9d7d-1dd6b4489e99","ios":"levelo://app?vid=8f7e4864-ee4d-4fc3-9d7d-1dd6b4489e99"},"vehicle_type_id":"4","last_reported":1706562352,"current_range_meters":13600,"station_id":"ce4bh3p2rcd13ifvqdp0","pricing_plan_id":"free"},{"bike_id":"560df544-b0a0-46e5-bc31-37959c9ad887","system_id":"levelo_inurba_marseille","lat":43.297815,"lon":5.393548,"is_reserved":false,"is_disabled":false,"rental_uris":{"android":"levelo://app?vid=560df544-b0a0-46e5-bc31-37959c9ad887","ios":"levelo://app?vid=560df544-b0a0-46e5-bc31-37959c9ad887"},"vehicle_type_id":"4","last_reported":1706562352,"current_range_meters":31600,"station_id":"chh1huq6cuj3fo74tm60","pricing_plan_id":"free"},{"bike_id":"e3773d17-b3ff-4c6d-a9e3-b9f663b101b1","system_id":"levelo_inurba_marseille","lat":43.29782,"lon":5.39346,"is_reserved":false,"is_disabled":false,"rental_uris":{"android":"levelo://app?vid=e3773d17-b3ff-4c6d-a9e3-b9f663b101b1","ios":"levelo://app?vid=e3773d17-b3ff-4c6d-a9e3-b9f663b101b1"},"vehicle_type_id":"4","last_reported":1706562352,"current_range_meters":4400,"station_id":"chh1huq6cuj3fo74tm60","pricing_plan_id":"free"},{"bike_id":"536d2704-3927-4957-837a-b2b86a24d827","system_id":"levelo_inurba_marseille","lat":43.330442,"lon":5.389148,"is_reserved":false,"is_disabled":false,"rental_uris":{"android":"levelo://app?vid=536d2704-3927-4957-837a-b2b86a24d827","ios":"levelo://app?vid=536d2704-3927-4957-837a-b2b86a24d827"},"vehicle_type_id":"4","last_reported":1706562352,"current_range_meters":17600,"station_id":"ce4bhr92rcd13ifvqhrg","pricing_plan_id":"free"},{"bike_id":"ca0d8e53-0e04-4cb7-a2a9-e398803487ef","system_id":"levelo_inurba_marseille","lat":43.330442,"lon":5.389148,"is_reserved":false,"is_disabled":false,"rental_uris":{"android":"levelo://app?vid=ca0d8e53-0e04-4cb7-a2a9-e398803487ef","ios":"levelo://app?vid=ca0d8e53-0e04-4cb7-a2a9-e398803487ef"},"vehicle_type_id":"4","last_reported":1706562352,"current_range_meters":30400,"station_id":"ce4bhr92rcd13ifvqhrg","pricing_plan_id":"free"},{"bike_id":"b7e9febd-67eb-4972-9aa9-ea8a8f06e051","system_id":"levelo_inurba_marseille","lat":43.330442,"lon":5.389148,"is_reserved":false,"is_disabled":false,"rental_uris":{"android":"levelo://app?vid=b7e9febd-67eb-4972-9aa9-ea8a8f06e051","ios":"levelo://app?vid=b7e9febd-67eb-4972-9aa9-ea8a8f06e051"},"vehicle_type_id":"4","last_reported":1706562352,"current_range_meters":16400,"station_id":"ce4bhr92rcd13ifvqhrg","pricing_plan_id":"free"},{"bike_id":"35eddc24-9dcb-42c6-b231-8a2b31a8bdca","system_id":"levelo_inurba_marseille","lat":43.295169,"lon":5.390426,"is_reserved":false,"is_disabled":false,"rental_uris":{"android":"levelo://app?vid=35eddc24-9dcb-42c6-b231-8a2b31a8bdca","ios":"levelo://app?vid=35eddc24-9dcb-42c6-b231-8a2b31a8bdca"},"vehicle_type_id":"4","last_reported":1706562352,"current_range_meters":10400,"station_id":"ce4bh3p2rcd13ifvqdp0","pricing_plan_id":"free"},{"bike_id":"d63b2dfe-736b-417f-b8bf-416dcfe32c7f","system_id":"levelo_inurba_marseille","lat":43.295169,"lon":5.390426,"is_reserved":false,"is_disabled":false,"rental_uris":{"android":"levelo://app?vid=d63b2dfe-736b-417f-b8bf-416dcfe32c7f","ios":"levelo://app?vid=d63b2dfe-736b-417f-b8bf-416dcfe32c7f"},"vehicle_type_id":"4","last_reported":1706562352,"current_range_meters":17200,"station_id":"ce4bh3p2rcd13ifvqdp0","pricing_plan_id":"free"},{"bike_id":"caf29e2c-47d7-41d2-87b1-3b170622b80e","system_id":"levelo_inurba_marseille","lat":43.295169,"lon":5.390426,"is_reserved":false,"is_disabled":false,"rental_uris":{"android":"levelo://app?vid=caf29e2c-47d7-41d2-87b1-3b170622b80e","ios":"levelo://app?vid=caf29e2c-47d7-41d2-87b1-3b170622b80e"},"vehicle_type_id":"4","last_reported":1706562352,"current_range_meters":12000,"station_id":"ce4bh3p2rcd13ifvqdp0","pricing_plan_id":"free"},{"bike_id":"c2a5b50e-a73f-4643-a70b-14fbe9da9b8c","system_id":"levelo_inurba_marseille","lat":43.295169,"lon":5.390426,"is_reserved":false,"is_disabled":false,"rental_uris":{"android":"levelo://app?vid=c2a5b50e-a73f-4643-a70b-14fbe9da9b8c","ios":"levelo://app?vid=c2a5b50e-a73f-4643-a70b-14fbe9da9b8c"},"vehicle_type_id":"4","last_reported":1706562352,"current_range_meters":2000,"station_id":"ce4bh3p2rcd13ifvqdp0","pricing_plan_id":"free"},{"bike_id":"bcb4a93d-67d3-41e9-bff5-adfd3537a796","system_id":"levelo_inurba_marseille","lat":43.28856,"lon":5.358371,"is_reserved":false,"is_disabled":false,"rental_uris":{"android":"levelo://app?vid=bcb4a93d-67d3-41e9-bff5-adfd3537a796","ios":"levelo://app?vid=bcb4a93d-67d3-41e9-bff5-adfd3537a796"},"vehicle_type_id":"4","last_reported":1706562352,"current_range_meters":24400,"station_id":"ce4bhb12rcd13ifvqem0","pricing_plan_id":"free"},{"bike_id":"1390820a-21ee-4be8-9142-26d4fe7aab03","system_id":"levelo_inurba_marseille","lat":43.2901,"lon":5.381269,"is_reserved":false,"is_disabled":false,"rental_uris":{"android":"levelo://app?vid=1390820a-21ee-4be8-9142-26d4fe7aab03","ios":"levelo://app?vid=1390820a-21ee-4be8-9142-26d4fe7aab03"},"vehicle_type_id":"4","last_reported":1706562352,"current_range_meters":0,"station_id":"ce4bh4p2rcd13ifvqe1g","pricing_plan_id":"free"},{"bike_id":"12061fc2-a3c1-4ba0-a8e0-f4d3e3001fa5","system_id":"levelo_inurba_marseille","lat":43.28856,"lon":5.358371,"is_reserved":false,"is_disabled":false,"rental_uris":{"android":"levelo://app?vid=12061fc2-a3c1-4ba0-a8e0-f4d3e3001fa5","ios":"levelo://app?vid=12061fc2-a3c1-4ba0-a8e0-f4d3e3001fa5"},"vehicle_type_id":"4","last_reported":1706562352,"current_range_meters":11600,"station_id":"ce4bhb12rcd13ifvqem0","pricing_plan_id":"free"},{"bike_id":"d745797d-d48b-41a2-a87a-e95b1ea7a4eb","system_id":"levelo_inurba_marseille","lat":43.28856,"lon":5.358371,"is_reserved":false,"is_disabled":false,"rental_uris":{"android":"levelo://app?vid=d745797d-d48b-41a2-a87a-e95b1ea7a4eb","ios":"levelo://app?vid=d745797d-d48b-41a2-a87a-e95b1ea7a4eb"},"vehicle_type_id":"4","last_reported":1706562352,"current_range_meters":17200,"station_id":"ce4bhb12rcd13ifvqem0","pricing_plan_id":"free"},{"bike_id":"dc0cb5b0-1098-450d-af84-8fb9ff29bf5f","system_id":"levelo_inurba_marseille","lat":43.28856,"lon":5.358371,"is_reserved":false,"is_disabled":false,"rental_uris":{"android":"levelo://app?vid=dc0cb5b0-1098-450d-af84-8fb9ff29bf5f","ios":"levelo://app?vid=dc0cb5b0-1098-450d-af84-8fb9ff29bf5f"},"vehicle_type_id":"4","last_reported":1706562352,"current_range_meters":14400,"station_id":"ce4bhb12rcd13ifvqem0","pricing_plan_id":"free"},{"bike_id":"4729c0d4-9a73-419c-919f-11172d77f3d4","system_id":"levelo_inurba_marseille","lat":43.28856,"lon":5.358371,"is_reserved":false,"is_disabled":false,"rental_uris":{"android":"levelo://app?vid=4729c0d4-9a73-419c-919f-11172d77f3d4","ios":"levelo://app?vid=4729c0d4-9a73-419c-919f-11172d77f3d4"},"vehicle_type_id":"4","last_reported":1706562352,"current_range_meters":4400,"station_id":"ce4bhb12rcd13ifvqem0","pricing_plan_id":"free"},{"bike_id":"aa7aa871-37b1-4ba0-9e45-abce3106479d","system_id":"levelo_inurba_marseille","lat":43.28856,"lon":5.358371,"is_reserved":false,"is_disabled":false,"rental_uris":{"android":"levelo://app?vid=aa7aa871-37b1-4ba0-9e45-abce3106479d","ios":"levelo://app?vid=aa7aa871-37b1-4ba0-9e45-abce3106479d"},"vehicle_type_id":"4","last_reported":1706562352,"current_range_meters":4000,"station_id":"ce4bhb12rcd13ifvqem0","pricing_plan_id":"free"},{"bike_id":"e67ad8e5-85aa-4d7a-90f4-b82221c09c32","system_id":"levelo_inurba_marseille","lat":43.28847,"lon":5.35861,"is_reserved":false,"is_disabled":false,"rental_uris":{"android":"levelo://app?vid=e67ad8e5-85aa-4d7a-90f4-b82221c09c32","ios":"levelo://app?vid=e67ad8e5-85aa-4d7a-90f4-b82221c09c32"},"vehicle_type_id":"4","last_reported":1706562352,"current_range_meters":1200,"station_id":"ce4bhb12rcd13ifvqem0","pricing_plan_id":"free"},{"bike_id":"996874ac-4858-428d-9bcb-6194a257f641","system_id":"levelo_inurba_marseille","lat":43.28856,"lon":5.358371,"is_reserved":false,"is_disabled":false,"rental_uris":{"android":"levelo://app?vid=996874ac-4858-428d-9bcb-6194a257f641","ios":"levelo://app?vid=996874ac-4858-428d-9bcb-6194a257f641"},"vehicle_type_id":"4","last_reported":1706562352,"current_range_meters":8800,"station_id":"ce4bhb12rcd13ifvqem0","pricing_plan_id":"free"},{"bike_id":"19d845b1-c4bc-4a73-bede-d83139644ee9","system_id":"levelo_inurba_marseille","lat":43.3127,"lon":5.40165,"is_reserved":false,"is_disabled":false,"rental_uris":{"android":"levelo://app?vid=19d845b1-c4bc-4a73-bede-d83139644ee9","ios":"levelo://app?vid=19d845b1-c4bc-4a73-bede-d83139644ee9"},"vehicle_type_id":"4","last_reported":1706562352,"current_range_meters":14400,"station_id":"ce4bh092rcd13ifvqd30","pricing_plan_id":"free"},{"bike_id":"d09c1d21-a58f-43ac-b40e-5e7c7921070e","system_id":"levelo_inurba_marseille","lat":43.31269,"lon":5.40179,"is_reserved":false,"is_disabled":false,"rental_uris":{"android":"levelo://app?vid=d09c1d21-a58f-43ac-b40e-5e7c7921070e","ios":"levelo://app?vid=d09c1d21-a58f-43ac-b40e-5e7c7921070e"},"vehicle_type_id":"4","last_reported":1706562352,"current_range_meters":400,"station_id":"ce4bh092rcd13ifvqd30","pricing_plan_id":"free"},{"bike_id":"a563cdbf-78b8-441c-8dce-8da1c3325b92","system_id":"levelo_inurba_marseille","lat":43.337502,"lon":5.374518,"is_reserved":false,"is_disabled":false,"rental_uris":{"android":"levelo://app?vid=a563cdbf-78b8-441c-8dce-8da1c3325b92","ios":"levelo://app?vid=a563cdbf-78b8-441c-8dce-8da1c3325b92"},"vehicle_type_id":"4","last_reported":1706562352,"current_range_meters":19600,"station_id":"","pricing_plan_id":"free"},{"bike_id":"48c909f2-6537-449f-988c-e08eb535f069","system_id":"levelo_inurba_marseille","lat":43.30924,"lon":5.40148,"is_reserved":false,"is_disabled":false,"rental_uris":{"android":"levelo://app?vid=48c909f2-6537-449f-988c-e08eb535f069","ios":"levelo://app?vid=48c909f2-6537-449f-988c-e08eb535f069"},"vehicle_type_id":"4","last_reported":1706562352,"current_range_meters":0,"station_id":"ce4bgvp2rcd13ifvqct0","pricing_plan_id":"free"},{"bike_id":"b7f12eab-e0a6-499e-87ec-2b4381c4602a","system_id":"levelo_inurba_marseille","lat":43.337544,"lon":5.374554,"is_reserved":false,"is_disabled":false,"rental_uris":{"android":"levelo://app?vid=b7f12eab-e0a6-499e-87ec-2b4381c4602a","ios":"levelo://app?vid=b7f12eab-e0a6-499e-87ec-2b4381c4602a"},"vehicle_type_id":"4","last_reported":1706562352,"current_range_meters":21200,"station_id":"","pricing_plan_id":"free"},{"bike_id":"7eac3962-a690-4207-8c72-c5ed1bdc896e","system_id":"levelo_inurba_marseille","lat":43.30655,"lon":5.40082,"is_reserved":false,"is_disabled":false,"rental_uris":{"android":"levelo://app?vid=7eac3962-a690-4207-8c72-c5ed1bdc896e","ios":"levelo://app?vid=7eac3962-a690-4207-8c72-c5ed1bdc896e"},"vehicle_type_id":"4","last_reported":1706562352,"current_range_meters":4800,"station_id":"ce4bh112rcd13ifvqda0","pricing_plan_id":"free"},{"bike_id":"663b4048-76fd-43f1-8346-64e09c2c7288","system_id":"levelo_inurba_marseille","lat":43.337579,"lon":5.374576,"is_reserved":false,"is_disabled":false,"rental_uris":{"android":"levelo://app?vid=663b4048-76fd-43f1-8346-64e09c2c7288","ios":"levelo://app?vid=663b4048-76fd-43f1-8346-64e09c2c7288"},"vehicle_type_id":"4","last_reported":1706562352,"current_range_meters":17600,"station_id":"","pricing_plan_id":"free"},{"bike_id":"91b6ff85-6ee5-4dda-afcf-7e77437e0e9c","system_id":"levelo_inurba_marseille","lat":43.337616,"lon":5.374374,"is_reserved":false,"is_disabled":false,"rental_uris":{"android":"levelo://app?vid=91b6ff85-6ee5-4dda-afcf-7e77437e0e9c","ios":"levelo://app?vid=91b6ff85-6ee5-4dda-afcf-7e77437e0e9c"},"vehicle_type_id":"4","last_reported":1706562352,"current_range_meters":21600,"station_id":"","pricing_plan_id":"free"},{"bike_id":"2fe24097-b1c2-4583-ba1f-cf8501171a4c","system_id":"levelo_inurba_marseille","lat":43.337546,"lon":5.374897,"is_reserved":false,"is_disabled":false,"rental_uris":{"android":"levelo://app?vid=2fe24097-b1c2-4583-ba1f-cf8501171a4c","ios":"levelo://app?vid=2fe24097-b1c2-4583-ba1f-cf8501171a4c"},"vehicle_type_id":"4","last_reported":1706562352,"current_range_meters":5600,"station_id":"","pricing_plan_id":"free"},{"bike_id":"22f2ddad-3b54-4c31-8db7-750ed6b09aaa","system_id":"levelo_inurba_marseille","lat":43.299514,"lon":5.396862,"is_reserved":false,"is_disabled":false,"rental_uris":{"android":"levelo://app?vid=22f2ddad-3b54-4c31-8db7-750ed6b09aaa","ios":"levelo://app?vid=22f2ddad-3b54-4c31-8db7-750ed6b09aaa"},"vehicle_type_id":"4","last_reported":1706562352,"current_range_meters":13600,"station_id":"","pricing_plan_id":"free"},{"bike_id":"b7d3b81d-d85a-44b5-a0c7-8f9c9f74639e","system_id":"levelo_inurba_marseille","lat":43.337652,"lon":5.374317,"is_reserved":false,"is_disabled":false,"rental_uris":{"android":"levelo://app?vid=b7d3b81d-d85a-44b5-a0c7-8f9c9f74639e","ios":"levelo://app?vid=b7d3b81d-d85a-44b5-a0c7-8f9c9f74639e"},"vehicle_type_id":"4","last_reported":1706562352,"current_range_meters":25200,"station_id":"","pricing_plan_id":"free"},{"bike_id":"1facbbf3-baac-42f8-85eb-cb1e36f3e4b9","system_id":"levelo_inurba_marseille","lat":43.337575,"lon":5.374947,"is_reserved":false,"is_disabled":false,"rental_uris":{"android":"levelo://app?vid=1facbbf3-baac-42f8-85eb-cb1e36f3e4b9","ios":"levelo://app?vid=1facbbf3-baac-42f8-85eb-cb1e36f3e4b9"},"vehicle_type_id":"4","last_reported":1706562352,"current_range_meters":7600,"station_id":"","pricing_plan_id":"free"},{"bike_id":"5e376d82-02f7-48a7-8d07-a0a0b87931ab","system_id":"levelo_inurba_marseille","lat":43.30642,"lon":5.401031,"is_reserved":false,"is_disabled":false,"rental_uris":{"android":"levelo://app?vid=5e376d82-02f7-48a7-8d07-a0a0b87931ab","ios":"levelo://app?vid=5e376d82-02f7-48a7-8d07-a0a0b87931ab"},"vehicle_type_id":"4","last_reported":1706562352,"current_range_meters":16400,"station_id":"ce4bh112rcd13ifvqda0","pricing_plan_id":"free"},{"bike_id":"065d08ad-90d7-46fe-b7d2-c4ce2b2f7cb4","system_id":"levelo_inurba_marseille","lat":43.292644,"lon":5.384257,"is_reserved":false,"is_disabled":false,"rental_uris":{"android":"levelo://app?vid=065d08ad-90d7-46fe-b7d2-c4ce2b2f7cb4","ios":"levelo://app?vid=065d08ad-90d7-46fe-b7d2-c4ce2b2f7cb4"},"vehicle_type_id":"4","last_reported":1706562352,"current_range_meters":12800,"station_id":"ce4bh692rcd13ifvqea0","pricing_plan_id":"free"},{"bike_id":"12568932-a9a7-4d52-8b2c-668683b75358","system_id":"levelo_inurba_marseille","lat":43.337639,"lon":5.374881,"is_reserved":false,"is_disabled":false,"rental_uris":{"android":"levelo://app?vid=12568932-a9a7-4d52-8b2c-668683b75358","ios":"levelo://app?vid=12568932-a9a7-4d52-8b2c-668683b75358"},"vehicle_type_id":"4","last_reported":1706562352,"current_range_meters":17600,"station_id":"","pricing_plan_id":"free"},{"bike_id":"4de42a6d-6ff7-4086-8e14-68118f2f0153","system_id":"levelo_inurba_marseille","lat":43.301117,"lon":5.398795,"is_reserved":false,"is_disabled":false,"rental_uris":{"android":"levelo://app?vid=4de42a6d-6ff7-4086-8e14-68118f2f0153","ios":"levelo://app?vid=4de42a6d-6ff7-4086-8e14-68118f2f0153"},"vehicle_type_id":"4","last_reported":1706562352,"current_range_meters":4800,"station_id":"ce4bh0h2rcd13ifvqd40","pricing_plan_id":"free"},{"bike_id":"a0d14aa4-691d-4a5a-a6a0-c8806d747844","system_id":"levelo_inurba_marseille","lat":43.301117,"lon":5.398795,"is_reserved":false,"is_disabled":false,"rental_uris":{"android":"levelo://app?vid=a0d14aa4-691d-4a5a-a6a0-c8806d747844","ios":"levelo://app?vid=a0d14aa4-691d-4a5a-a6a0-c8806d747844"},"vehicle_type_id":"4","last_reported":1706562352,"current_range_meters":0,"station_id":"ce4bh0h2rcd13ifvqd40","pricing_plan_id":"free"},{"bike_id":"da7f7019-6d39-47c0-8c23-89755134d362","system_id":"levelo_inurba_marseille","lat":43.30144,"lon":5.39873,"is_reserved":false,"is_disabled":false,"rental_uris":{"android":"levelo://app?vid=da7f7019-6d39-47c0-8c23-89755134d362","ios":"levelo://app?vid=da7f7019-6d39-47c0-8c23-89755134d362"},"vehicle_type_id":"4","last_reported":1706562352,"current_range_meters":0,"station_id":"ce4bh0h2rcd13ifvqd40","pricing_plan_id":"free"},{"bike_id":"3c082ef8-998e-4b68-a29d-6b97c12f9805","system_id":"levelo_inurba_marseille","lat":43.304687,"lon":5.400653,"is_reserved":false,"is_disabled":false,"rental_uris":{"android":"levelo://app?vid=3c082ef8-998e-4b68-a29d-6b97c12f9805","ios":"levelo://app?vid=3c082ef8-998e-4b68-a29d-6b97c12f9805"},"vehicle_type_id":"4","last_reported":1706562352,"current_range_meters":24800,"station_id":"","pricing_plan_id":"free"},{"bike_id":"20f711a4-eda4-4eda-b334-5c240c836205","system_id":"levelo_inurba_marseille","lat":43.28727,"lon":5.36078,"is_reserved":false,"is_disabled":false,"rental_uris":{"android":"levelo://app?vid=20f711a4-eda4-4eda-b334-5c240c836205","ios":"levelo://app?vid=20f711a4-eda4-4eda-b334-5c240c836205"},"vehicle_type_id":"4","last_reported":1706562352,"current_range_meters":24800,"station_id":"cki0cbj6b192h4jlfktg","pricing_plan_id":"free"},{"bike_id":"ac4fa579-edec-4e5c-bd47-d17552f58267","system_id":"levelo_inurba_marseille","lat":43.28727,"lon":5.36078,"is_reserved":false,"is_disabled":false,"rental_uris":{"android":"levelo://app?vid=ac4fa579-edec-4e5c-bd47-d17552f58267","ios":"levelo://app?vid=ac4fa579-edec-4e5c-bd47-d17552f58267"},"vehicle_type_id":"4","last_reported":1706562352,"current_range_meters":21200,"station_id":"cki0cbj6b192h4jlfktg","pricing_plan_id":"free"},{"bike_id":"917f423e-d6b9-44e5-aad6-e9a19dfe6294","system_id":"levelo_inurba_marseille","lat":43.28727,"lon":5.36078,"is_reserved":false,"is_disabled":false,"rental_uris":{"android":"levelo://app?vid=917f423e-d6b9-44e5-aad6-e9a19dfe6294","ios":"levelo://app?vid=917f423e-d6b9-44e5-aad6-e9a19dfe6294"},"vehicle_type_id":"4","last_reported":1706562352,"current_range_meters":2400,"station_id":"cki0cbj6b192h4jlfktg","pricing_plan_id":"free"},{"bike_id":"888fe018-6135-4210-94ff-19cc4fe60be8","system_id":"levelo_inurba_marseille","lat":43.28727,"lon":5.36078,"is_reserved":false,"is_disabled":false,"rental_uris":{"android":"levelo://app?vid=888fe018-6135-4210-94ff-19cc4fe60be8","ios":"levelo://app?vid=888fe018-6135-4210-94ff-19cc4fe60be8"},"vehicle_type_id":"4","last_reported":1706562352,"current_range_meters":2400,"station_id":"cki0cbj6b192h4jlfktg","pricing_plan_id":"free"},{"bike_id":"c77238a3-22c2-4cc0-978c-c10c0a714161","system_id":"levelo_inurba_marseille","lat":43.28727,"lon":5.36078,"is_reserved":false,"is_disabled":false,"rental_uris":{"android":"levelo://app?vid=c77238a3-22c2-4cc0-978c-c10c0a714161","ios":"levelo://app?vid=c77238a3-22c2-4cc0-978c-c10c0a714161"},"vehicle_type_id":"4","last_reported":1706562352,"current_range_meters":5600,"station_id":"cki0cbj6b192h4jlfktg","pricing_plan_id":"free"},{"bike_id":"fccd36d9-d6c4-400e-958b-9dcab1fe1fd6","system_id":"levelo_inurba_marseille","lat":43.286961,"lon":5.373785,"is_reserved":false,"is_disabled":false,"rental_uris":{"android":"levelo://app?vid=fccd36d9-d6c4-400e-958b-9dcab1fe1fd6","ios":"levelo://app?vid=fccd36d9-d6c4-400e-958b-9dcab1fe1fd6"},"vehicle_type_id":"4","last_reported":1706562352,"current_range_meters":17600,"station_id":"ce4bh3p2rcd13ifvqdq0","pricing_plan_id":"free"},{"bike_id":"ceed7712-7f74-49b9-98f5-0c410889e5e3","system_id":"levelo_inurba_marseille","lat":43.286961,"lon":5.373785,"is_reserved":false,"is_disabled":false,"rental_uris":{"android":"levelo://app?vid=ceed7712-7f74-49b9-98f5-0c410889e5e3","ios":"levelo://app?vid=ceed7712-7f74-49b9-98f5-0c410889e5e3"},"vehicle_type_id":"4","last_reported":1706562352,"current_range_meters":6800,"station_id":"ce4bh3p2rcd13ifvqdq0","pricing_plan_id":"free"},{"bike_id":"6159cc09-4c68-4f17-8639-e57b6b5b655e","system_id":"levelo_inurba_marseille","lat":43.28671,"lon":5.36351,"is_reserved":false,"is_disabled":false,"rental_uris":{"android":"levelo://app?vid=6159cc09-4c68-4f17-8639-e57b6b5b655e","ios":"levelo://app?vid=6159cc09-4c68-4f17-8639-e57b6b5b655e"},"vehicle_type_id":"4","last_reported":1706562352,"current_range_meters":8800,"station_id":"ce4bhah2rcd13ifvqej0","pricing_plan_id":"free"},{"bike_id":"9dc00ff7-ba5d-4354-9486-56278cd0763b","system_id":"levelo_inurba_marseille","lat":43.298804,"lon":5.397397,"is_reserved":false,"is_disabled":false,"rental_uris":{"android":"levelo://app?vid=9dc00ff7-ba5d-4354-9486-56278cd0763b","ios":"levelo://app?vid=9dc00ff7-ba5d-4354-9486-56278cd0763b"},"vehicle_type_id":"4","last_reported":1706562352,"current_range_meters":0,"station_id":"ce4bh0h2rcd13ifvqd50","pricing_plan_id":"free"},{"bike_id":"847f360b-67db-4bde-8ce1-4a399094222c","system_id":"levelo_inurba_marseille","lat":43.286961,"lon":5.373785,"is_reserved":false,"is_disabled":false,"rental_uris":{"android":"levelo://app?vid=847f360b-67db-4bde-8ce1-4a399094222c","ios":"levelo://app?vid=847f360b-67db-4bde-8ce1-4a399094222c"},"vehicle_type_id":"4","last_reported":1706562352,"current_range_meters":10400,"station_id":"ce4bh3p2rcd13ifvqdq0","pricing_plan_id":"free"},{"bike_id":"28418eec-5ce0-49a6-b5da-9d2d4edc4160","system_id":"levelo_inurba_marseille","lat":43.298681,"lon":5.397225,"is_reserved":false,"is_disabled":false,"rental_uris":{"android":"levelo://app?vid=28418eec-5ce0-49a6-b5da-9d2d4edc4160","ios":"levelo://app?vid=28418eec-5ce0-49a6-b5da-9d2d4edc4160"},"vehicle_type_id":"4","last_reported":1706562352,"current_range_meters":30400,"station_id":"ce4bh0h2rcd13ifvqd50","pricing_plan_id":"free"},{"bike_id":"54c7e8bc-34b9-4735-9532-d5fc6184a089","system_id":"levelo_inurba_marseille","lat":43.286663,"lon":5.363462,"is_reserved":false,"is_disabled":false,"rental_uris":{"android":"levelo://app?vid=54c7e8bc-34b9-4735-9532-d5fc6184a089","ios":"levelo://app?vid=54c7e8bc-34b9-4735-9532-d5fc6184a089"},"vehicle_type_id":"4","last_reported":1706562352,"current_range_meters":15200,"station_id":"","pricing_plan_id":"free"},{"bike_id":"d1a0cf21-936d-4400-9e6f-64e581b84fbd","system_id":"levelo_inurba_marseille","lat":43.298681,"lon":5.397225,"is_reserved":false,"is_disabled":false,"rental_uris":{"android":"levelo://app?vid=d1a0cf21-936d-4400-9e6f-64e581b84fbd","ios":"levelo://app?vid=d1a0cf21-936d-4400-9e6f-64e581b84fbd"},"vehicle_type_id":"4","last_reported":1706562352,"current_range_meters":10400,"station_id":"ce4bh0h2rcd13ifvqd50","pricing_plan_id":"free"},{"bike_id":"1b1fb395-0bd7-4d4a-8dc5-30cc98791e6f","system_id":"levelo_inurba_marseille","lat":43.298681,"lon":5.397225,"is_reserved":false,"is_disabled":false,"rental_uris":{"android":"levelo://app?vid=1b1fb395-0bd7-4d4a-8dc5-30cc98791e6f","ios":"levelo://app?vid=1b1fb395-0bd7-4d4a-8dc5-30cc98791e6f"},"vehicle_type_id":"4","last_reported":1706562352,"current_range_meters":31600,"station_id":"ce4bh0h2rcd13ifvqd50","pricing_plan_id":"free"},{"bike_id":"035e8b1d-38ee-4a2a-9c48-56623716c567","system_id":"levelo_inurba_marseille","lat":43.298681,"lon":5.397225,"is_reserved":false,"is_disabled":false,"rental_uris":{"android":"levelo://app?vid=035e8b1d-38ee-4a2a-9c48-56623716c567","ios":"levelo://app?vid=035e8b1d-38ee-4a2a-9c48-56623716c567"},"vehicle_type_id":"4","last_reported":1706562352,"current_range_meters":16000,"station_id":"ce4bh0h2rcd13ifvqd50","pricing_plan_id":"free"},{"bike_id":"2f05243e-7104-4610-b155-12e5c5453ac9","system_id":"levelo_inurba_marseille","lat":43.298681,"lon":5.397225,"is_reserved":false,"is_disabled":false,"rental_uris":{"android":"levelo://app?vid=2f05243e-7104-4610-b155-12e5c5453ac9","ios":"levelo://app?vid=2f05243e-7104-4610-b155-12e5c5453ac9"},"vehicle_type_id":"4","last_reported":1706562352,"current_range_meters":19200,"station_id":"ce4bh0h2rcd13ifvqd50","pricing_plan_id":"free"},{"bike_id":"bf7ee3d7-60c7-495d-8389-848bce99b53b","system_id":"levelo_inurba_marseille","lat":43.28655,"lon":5.36359,"is_reserved":false,"is_disabled":false,"rental_uris":{"android":"levelo://app?vid=bf7ee3d7-60c7-495d-8389-848bce99b53b","ios":"levelo://app?vid=bf7ee3d7-60c7-495d-8389-848bce99b53b"},"vehicle_type_id":"4","last_reported":1706562352,"current_range_meters":24800,"station_id":"ce4bhah2rcd13ifvqej0","pricing_plan_id":"free"},{"bike_id":"0c1e6420-981b-4038-9f31-257c0eed4e7d","system_id":"levelo_inurba_marseille","lat":43.286952,"lon":5.374065,"is_reserved":false,"is_disabled":false,"rental_uris":{"android":"levelo://app?vid=0c1e6420-981b-4038-9f31-257c0eed4e7d","ios":"levelo://app?vid=0c1e6420-981b-4038-9f31-257c0eed4e7d"},"vehicle_type_id":"4","last_reported":1706562352,"current_range_meters":400,"station_id":"ce4bh3p2rcd13ifvqdq0","pricing_plan_id":"free"},{"bike_id":"8048f061-361d-46aa-b6c7-1a07e6561be1","system_id":"levelo_inurba_marseille","lat":43.298681,"lon":5.397225,"is_reserved":false,"is_disabled":false,"rental_uris":{"android":"levelo://app?vid=8048f061-361d-46aa-b6c7-1a07e6561be1","ios":"levelo://app?vid=8048f061-361d-46aa-b6c7-1a07e6561be1"},"vehicle_type_id":"4","last_reported":1706562352,"current_range_meters":19600,"station_id":"ce4bh0h2rcd13ifvqd50","pricing_plan_id":"free"},{"bike_id":"21da4170-fa06-489b-99bf-434d8c710ff3","system_id":"levelo_inurba_marseille","lat":43.295196,"lon":5.39397,"is_reserved":false,"is_disabled":false,"rental_uris":{"android":"levelo://app?vid=21da4170-fa06-489b-99bf-434d8c710ff3","ios":"levelo://app?vid=21da4170-fa06-489b-99bf-434d8c710ff3"},"vehicle_type_id":"4","last_reported":1706562352,"current_range_meters":21200,"station_id":"ce4bh292rcd13ifvqdf0","pricing_plan_id":"free"},{"bike_id":"24abb9b3-76ae-40f1-a84a-4281315fbeb1","system_id":"levelo_inurba_marseille","lat":43.30412,"lon":5.40115,"is_reserved":false,"is_disabled":false,"rental_uris":{"android":"levelo://app?vid=24abb9b3-76ae-40f1-a84a-4281315fbeb1","ios":"levelo://app?vid=24abb9b3-76ae-40f1-a84a-4281315fbeb1"},"vehicle_type_id":"4","last_reported":1706562352,"current_range_meters":0,"station_id":"","pricing_plan_id":"free"},{"bike_id":"1fd652c2-e937-4b11-92c8-116e7dab50c5","system_id":"levelo_inurba_marseille","lat":43.298681,"lon":5.397225,"is_reserved":false,"is_disabled":false,"rental_uris":{"android":"levelo://app?vid=1fd652c2-e937-4b11-92c8-116e7dab50c5","ios":"levelo://app?vid=1fd652c2-e937-4b11-92c8-116e7dab50c5"},"vehicle_type_id":"4","last_reported":1706562352,"current_range_meters":10400,"station_id":"ce4bh0h2rcd13ifvqd50","pricing_plan_id":"free"},{"bike_id":"22d63103-7c75-44ed-b455-c84de0a0c5a9","system_id":"levelo_inurba_marseille","lat":43.30246,"lon":5.40057,"is_reserved":false,"is_disabled":false,"rental_uris":{"android":"levelo://app?vid=22d63103-7c75-44ed-b455-c84de0a0c5a9","ios":"levelo://app?vid=22d63103-7c75-44ed-b455-c84de0a0c5a9"},"vehicle_type_id":"4","last_reported":1706562352,"current_range_meters":5200,"station_id":"","pricing_plan_id":"free"},{"bike_id":"4df5fa14-62f6-480d-9253-0d8c1eeddcf7","system_id":"levelo_inurba_marseille","lat":43.290345,"lon":5.38646,"is_reserved":false,"is_disabled":false,"rental_uris":{"android":"levelo://app?vid=4df5fa14-62f6-480d-9253-0d8c1eeddcf7","ios":"levelo://app?vid=4df5fa14-62f6-480d-9253-0d8c1eeddcf7"},"vehicle_type_id":"4","last_reported":1706562352,"current_range_meters":14000,"station_id":"ce4bh4p2rcd13ifvqe0g","pricing_plan_id":"free"},{"bike_id":"18e26d70-496b-4383-b832-d51300f634b8","system_id":"levelo_inurba_marseille","lat":43.30246,"lon":5.40068,"is_reserved":false,"is_disabled":false,"rental_uris":{"android":"levelo://app?vid=18e26d70-496b-4383-b832-d51300f634b8","ios":"levelo://app?vid=18e26d70-496b-4383-b832-d51300f634b8"},"vehicle_type_id":"4","last_reported":1706562352,"current_range_meters":10800,"station_id":"ce4bgvh2rcd13ifvqcs0","pricing_plan_id":"free"},{"bike_id":"0626904b-9525-455d-b4da-fc1463ef0c28","system_id":"levelo_inurba_marseille","lat":43.302759,"lon":5.400793,"is_reserved":false,"is_disabled":false,"rental_uris":{"android":"levelo://app?vid=0626904b-9525-455d-b4da-fc1463ef0c28","ios":"levelo://app?vid=0626904b-9525-455d-b4da-fc1463ef0c28"},"vehicle_type_id":"4","last_reported":1706562352,"current_range_meters":12800,"station_id":"ce4bgvh2rcd13ifvqcs0","pricing_plan_id":"free"},{"bike_id":"6b64c911-421e-4e62-b9d9-ef908fcdb5bb","system_id":"levelo_inurba_marseille","lat":43.3025,"lon":5.40081,"is_reserved":false,"is_disabled":false,"rental_uris":{"android":"levelo://app?vid=6b64c911-421e-4e62-b9d9-ef908fcdb5bb","ios":"levelo://app?vid=6b64c911-421e-4e62-b9d9-ef908fcdb5bb"},"vehicle_type_id":"4","last_reported":1706562352,"current_range_meters":8000,"station_id":"ce4bgvh2rcd13ifvqcs0","pricing_plan_id":"free"},{"bike_id":"e10a55ce-f0d9-44de-bc90-21101b32ee27","system_id":"levelo_inurba_marseille","lat":43.289307,"lon":5.38406,"is_reserved":false,"is_disabled":false,"rental_uris":{"android":"levelo://app?vid=e10a55ce-f0d9-44de-bc90-21101b32ee27","ios":"levelo://app?vid=e10a55ce-f0d9-44de-bc90-21101b32ee27"},"vehicle_type_id":"4","last_reported":1706562352,"current_range_meters":2400,"station_id":"ce4bh612rcd13ifvqe6g","pricing_plan_id":"free"},{"bike_id":"807665df-a4a0-4d1f-93e9-1a9c1f652134","system_id":"levelo_inurba_marseille","lat":43.286083,"lon":5.370662,"is_reserved":false,"is_disabled":false,"rental_uris":{"android":"levelo://app?vid=807665df-a4a0-4d1f-93e9-1a9c1f652134","ios":"levelo://app?vid=807665df-a4a0-4d1f-93e9-1a9c1f652134"},"vehicle_type_id":"4","last_reported":1706562352,"current_range_meters":2400,"station_id":"ce4bht12rcd13ifvqi60","pricing_plan_id":"free"},{"bike_id":"b0a81108-6938-414d-abd4-0220f16756ca","system_id":"levelo_inurba_marseille","lat":43.28604,"lon":5.37069,"is_reserved":false,"is_disabled":false,"rental_uris":{"android":"levelo://app?vid=b0a81108-6938-414d-abd4-0220f16756ca","ios":"levelo://app?vid=b0a81108-6938-414d-abd4-0220f16756ca"},"vehicle_type_id":"4","last_reported":1706562352,"current_range_meters":5200,"station_id":"ce4bht12rcd13ifvqi60","pricing_plan_id":"free"},{"bike_id":"6ce619be-8a62-43be-807a-3380f3e29298","system_id":"levelo_inurba_marseille","lat":43.287184,"lon":5.37937,"is_reserved":false,"is_disabled":false,"rental_uris":{"android":"levelo://app?vid=6ce619be-8a62-43be-807a-3380f3e29298","ios":"levelo://app?vid=6ce619be-8a62-43be-807a-3380f3e29298"},"vehicle_type_id":"4","last_reported":1706562352,"current_range_meters":6400,"station_id":"ce4bh9p2rcd13ifvqec0","pricing_plan_id":"free"},{"bike_id":"0c5fef2e-eb56-4852-b6f9-7c726985c388","system_id":"levelo_inurba_marseille","lat":43.287185,"lon":5.379373,"is_reserved":false,"is_disabled":false,"rental_uris":{"android":"levelo://app?vid=0c5fef2e-eb56-4852-b6f9-7c726985c388","ios":"levelo://app?vid=0c5fef2e-eb56-4852-b6f9-7c726985c388"},"vehicle_type_id":"4","last_reported":1706562352,"current_range_meters":6800,"station_id":"ce4bh9p2rcd13ifvqec0","pricing_plan_id":"free"},{"bike_id":"67952daa-9e2d-4d76-90ea-c3fb8b06acae","system_id":"levelo_inurba_marseille","lat":43.287184,"lon":5.37937,"is_reserved":false,"is_disabled":false,"rental_uris":{"android":"levelo://app?vid=67952daa-9e2d-4d76-90ea-c3fb8b06acae","ios":"levelo://app?vid=67952daa-9e2d-4d76-90ea-c3fb8b06acae"},"vehicle_type_id":"4","last_reported":1706562352,"current_range_meters":12400,"station_id":"ce4bh9p2rcd13ifvqec0","pricing_plan_id":"free"},{"bike_id":"b7452e26-86bb-4cc9-b0ed-9dcada914a9e","system_id":"levelo_inurba_marseille","lat":43.287184,"lon":5.37937,"is_reserved":false,"is_disabled":false,"rental_uris":{"android":"levelo://app?vid=b7452e26-86bb-4cc9-b0ed-9dcada914a9e","ios":"levelo://app?vid=b7452e26-86bb-4cc9-b0ed-9dcada914a9e"},"vehicle_type_id":"4","last_reported":1706562352,"current_range_meters":2400,"station_id":"ce4bh9p2rcd13ifvqec0","pricing_plan_id":"free"},{"bike_id":"4e4f6581-0877-4bf9-a5d6-3e09359cb613","system_id":"levelo_inurba_marseille","lat":43.287185,"lon":5.379373,"is_reserved":false,"is_disabled":false,"rental_uris":{"android":"levelo://app?vid=4e4f6581-0877-4bf9-a5d6-3e09359cb613","ios":"levelo://app?vid=4e4f6581-0877-4bf9-a5d6-3e09359cb613"},"vehicle_type_id":"4","last_reported":1706562352,"current_range_meters":29600,"station_id":"ce4bh9p2rcd13ifvqec0","pricing_plan_id":"free"},