{"last_updated":1749759107,"ttl":60,"version":"2.2","data":{"bikes":[{"bike_id":"b31f0139-170f-4194-984f-4386218a1e9d","system_id":"levelo_inurba_marseille","lat":43.33771,"lon":5.37424,"is_reserved":false,"is_disabled":true,"rental_uris":{"android":"levelo://app?vid=b31f0139-170f-4194-984f-4386218a1e9d","ios":"levelo://app?vid=b31f0139-170f-4194-984f-4386218a1e9d"},"vehicle_type_id":"4","last_reported":1749759107,"current_range_meters":0,"station_id":"","pricing_plan_id":"cebpf4jnsgd1na2vs0mg"},{"bike_id":"1acfb620-cad7-48c0-8901-d7a5b74a5b65","system_id":"levelo_inurba_marseille","lat":43.33751,"lon":5.37456,"is_reserved":false,"is_disabled":false,"rental_uris":{"android":"levelo://app?vid=1acfb620-cad7-48c0-8901-d7a5b74a5b65","ios":"levelo://app?vid=1acfb620-cad7-48c0-8901-d7a5b74a5b65"},"vehicle_type_id":"4","last_reported":1749759107,"current_range_meters":6800,"station_id":"","pricing_plan_id":"cebpf4jnsgd1na2vs0mg"},{"bike_id":"94318c46-7440-4b99-b14f-b14e148f17c3","system_id":"levelo_inurba_marseille","lat":43.33148,"lon":5.38176,"is_reserved":false,"is_disabled":true,"rental_uris":{"android":"levelo://app?vid=94318c46-7440-4b99-b14f-b14e148f17c3","ios":"levelo://app?vid=94318c46-7440-4b99-b14f-b14e148f17c3"},"vehicle_type_id":"4","last_reported":1749759107,"current_range_meters":0,"station_id":"","pricing_plan_id":"cebpf4jnsgd1na2vs0mg"},{"bike_id":"bf89d78c-eb96-40d5-beb0-f402ef102cc1","system_id":"levelo_inurba_marseille","lat":43.337444,"lon":5.374475,"is_reserved":false,"is_disabled":true,"rental_uris":{"android":"levelo://app?vid=bf89d78c-eb96-40d5-beb0-f402ef102cc1","ios":"levelo://app?vid=bf89d78c-eb96-40d5-beb0-f402ef102cc1"},"vehicle_type_id":"4","last_reported":1749759107,"current_range_meters":0,"station_id":"","pricing_plan_id":"cebpf4jnsgd1na2vs0mg"},{"bike_id":"0f8596cb-25ec-4c64-b1d4-3f9c1bb52814","system_id":"levelo_inurba_marseille","lat":43.295843,"lon":5.375707,"is_reserved":false,"is_disabled":true,"rental_uris":{"android":"levelo://app?vid=0f8596cb-25ec-4c64-b1d4-3f9c1bb52814","ios":"levelo://app?vid=0f8596cb-25ec-4c64-b1d4-3f9c1bb52814"},"vehicle_type_id":"4","last_reported":1749759107,"current_range_meters":0,"station_id":"","pricing_plan_id":"cebpf4jnsgd1na2vs0mg"},{"bike_id":"7c6a9c32-3bbe-4d4c-8294-1969d0688a87","system_id":"levelo_inurba_marseille","lat":43.28499,"lon":5.42292,"is_reserved":false,"is_disabled":true,"rental_uris":{"android":"levelo://app?vid=7c6a9c32-3bbe-4d4c-8294-1969d0688a87","ios":"levelo://app?vid=7c6a9c32-3bbe-4d4c-8294-1969d0688a87"},"vehicle_type_id":"4","last_reported":1749759107,"current_range_meters":0,"station_id":"","pricing_plan_id":"cebpf4jnsgd1na2vs0mg"},{"bike_id":"cc6342fe-1062-4d93-9c27-0529122084bd","system_id":"levelo_inurba_marseille","lat":43.28597,"lon":5.35807,"is_reserved":false,"is_disabled":true,"rental_uris":{"android":"levelo://app?vid=cc6342fe-1062-4d93-9c27-0529122084bd","ios":"levelo://app?vid=cc6342fe-1062-4d93-9c27-0529122084bd"},"vehicle_type_id":"4","last_reported":1749759107,"current_range_meters":0,"station_id":"","pricing_plan_id":"cebpf4jnsgd1na2vs0mg"},{"bike_id":"492f4bbd-1190-4ef2-b66a-479ffe91b09b","system_id":"levelo_inurba_marseille","lat":43.337444,"lon":5.374475,"is_reserved":false,"is_disabled":true,"rental_uris":{"android":"levelo://app?vid=492f4bbd-1190-4ef2-b66a-479ffe91b09b","ios":"levelo://app?vid=492f4bbd-1190-4ef2-b66a-479ffe91b09b"},"vehicle_type_id":"4","last_reported":1749759107,"current_range_meters":0,"station_id":"","pricing_plan_id":"cebpf4jnsgd1na2vs0mg"},{"bike_id":"ce526313-e4c7-47eb-856f-183916936663","system_id":"levelo_inurba_marseille","lat":43.262226,"lon":5.395746,"is_reserved":false,"is_disabled":true,"rental_uris":{"android":"levelo://app?vid=ce526313-e4c7-47eb-856f-183916936663","ios":"levelo://app?vid=ce526313-e4c7-47eb-856f-183916936663"},"vehicle_type_id":"4","last_reported":1749759107,"current_range_meters":0,"station_id":"","pricing_plan_id":"cebpf4jnsgd1na2vs0mg"},{"bike_id":"e21d40d2-df73-4a90-aa76-d46c94353a1e","system_id":"levelo_inurba_marseille","lat":43.30307,"lon":5.368938,"is_reserved":false,"is_disabled":false,"rental_uris":{"android":"levelo://app?vid=e21d40d2-df73-4a90-aa76-d46c94353a1e","ios":"levelo://app?vid=e21d40d2-df73-4a90-aa76-d46c94353a1e"},"vehicle_type_id":"4","last_reported":1749759107,"current_range_meters":0,"station_id":"ce4bgqh2rcd13ifvqc5g","pricing_plan_id":"cebpf4jnsgd1na2vs0mg"},{"bike_id":"45a4aa8b-d1da-485e-8841-b4f89573186a","system_id":"levelo_inurba_marseille","lat":43.30095,"lon":5.39076,"is_reserved":false,"is_disabled":true,"rental_uris":{"android":"levelo://app?vid=45a4aa8b-d1da-485e-8841-b4f89573186a","ios":"levelo://app?vid=45a4aa8b-d1da-485e-8841-b4f89573186a"},"vehicle_type_id":"4","last_reported":1749759107,"current_range_meters":0,"station_id":"ce4bh192rcd13ifvqdb0","pricing_plan_id":"cebpf4jnsgd1na2vs0mg"},{"bike_id":"5c139bb4-a53d-4376-9e50-c2ce9f65bef9","system_id":"levelo_inurba_marseille","lat":43.29277,"lon":5.40114,"is_reserved":false,"is_disabled":true,"rental_uris":{"android":"levelo://app?vid=5c139bb4-a53d-4376-9e50-c2ce9f65bef9","ios":"levelo://app?vid=5c139bb4-a53d-4376-9e50-c2ce9f65bef9"},"vehicle_type_id":"4","last_reported":1749759107,"current_range_meters":0,"station_id":"ce4bh312rcd13ifvqdk0","pricing_plan_id":"cebpf4jnsgd1na2vs0mg"},{"bike_id":"23e437de-7a13-4a5d-a70f-cc807dc14710","system_id":"levelo_inurba_marseille","lat":43.29042,"lon":5.35919,"is_reserved":false,"is_disabled":true,"rental_uris":{"android":"levelo://app?vid=23e437de-7a13-4a5d-a70f-cc807dc14710","ios":"levelo://app?vid=23e437de-7a13-4a5d-a70f-cc807dc14710"},"vehicle_type_id":"4","last_reported":1749759107,"current_range_meters":0,"station_id":"ce4bha92rcd13ifvqeg0","pricing_plan_id":"cebpf4jnsgd1na2vs0mg"},{"bike_id":"3a95650e-3b7f-4eec-b29c-edc0f4501c80","system_id":"levelo_inurba_marseille","lat":43.27515,"lon":5.4243,"is_reserved":false,"is_disabled":true,"rental_uris":{"android":"levelo://app?vid=3a95650e-3b7f-4eec-b29c-edc0f4501c80","ios":"levelo://app?vid=3a95650e-3b7f-4eec-b29c-edc0f4501c80"},"vehicle_type_id":"4","last_reported":1749759107,"current_range_meters":0,"station_id":"ce4bhn92rcd13ifvqgrg","pricing_plan_id":"cebpf4jnsgd1na2vs0mg"},{"bike_id":"b18ce1ce-bbed-467d-b219-56823a682e66","system_id":"levelo_inurba_marseille","lat":43.3272,"lon":5.42356,"is_reserved":false,"is_disabled":true,"rental_uris":{"android":"levelo://app?vid=b18ce1ce-bbed-467d-b219-56823a682e66","ios":"levelo://app?vid=b18ce1ce-bbed-467d-b219-56823a682e66"},"vehicle_type_id":"4","last_reported":1749759107,"current_range_meters":0,"station_id":"ce4bhp92rcd13ifvqhcg","pricing_plan_id":"cebpf4jnsgd1na2vs0mg"},{"bike_id":"2dc64c9a-2328-48a9-a94b-e8496e3de0bb","system_id":"levelo_inurba_marseille","lat":43.31533,"lon":5.38031,"is_reserved":false,"is_disabled":true,"rental_uris":{"android":"levelo://app?vid=2dc64c9a-2328-48a9-a94b-e8496e3de0bb","ios":"levelo://app?vid=2dc64c9a-2328-48a9-a94b-e8496e3de0bb"},"vehicle_type_id":"4","last_reported":1749759107,"current_range_meters":0,"station_id":"ce4bhsp2rcd13ifvqi50","pricing_plan_id":"cebpf4jnsgd1na2vs0mg"},{"bike_id":"a9b6bf99-4070-4437-bb20-72962ae30b90","system_id":"levelo_inurba_marseille","lat":43.27475,"lon":5.3639,"is_reserved":false,"is_disabled":true,"rental_uris":{"android":"levelo://app?vid=a9b6bf99-4070-4437-bb20-72962ae30b90","ios":"levelo://app?vid=a9b6bf99-4070-4437-bb20-72962ae30b90"},"vehicle_type_id":"4","last_reported":1749759107,"current_range_meters":400,"station_id":"","pricing_plan_id":"cebpf4jnsgd1na2vs0mg"},{"bike_id":"fc9bb96e-f9af-447c-8c48-41fd648ff61d","system_id":"levelo_inurba_marseille","lat":43.29518,"lon":5.38598,"is_reserved":false,"is_disabled":true,"rental_uris":{"android":"levelo://app?vid=fc9bb96e-f9af-447c-8c48-41fd648ff61d","ios":"levelo://app?vid=fc9bb96e-f9af-447c-8c48-41fd648ff61d"},"vehicle_type_id":"4","last_reported":1749759107,"current_range_meters":400,"station_id":"ce4bgih2rcd13ifvqba0","pricing_plan_id":"cebpf4jnsgd1na2vs0mg"},{"bike_id":"49ecdb34-5270-41f3-8bb0-a926716b04be","system_id":"levelo_inurba_marseille","lat":43.29206,"lon":5.39345,"is_reserved":false,"is_disabled":true,"rental_uris":{"android":"levelo://app?vid=49ecdb34-5270-41f3-8bb0-a926716b04be","ios":"levelo://app?vid=49ecdb34-5270-41f3-8bb0-a926716b04be"},"vehicle_type_id":"4","last_reported":1749759107,"current_range_meters":400,"station_id":"ce4bh192rcd13ifvqdd0","pricing_plan_id":"cebpf4jnsgd1na2vs0mg"},{"bike_id":"57e53f3d-694b-4384-acfd-564d1db11ac1","system_id":"levelo_inurba_marseille","lat":43.24767,"lon":5.40648,"is_reserved":false,"is_disabled":true,"rental_uris":{"android":"levelo://app?vid=57e53f3d-694b-4384-acfd-564d1db11ac1","ios":"levelo://app?vid=57e53f3d-694b-4384-acfd-564d1db11ac1"},"vehicle_type_id":"4","last_reported":1749759107,"current_range_meters":800,"station_id":"","pricing_plan_id":"cebpf4jnsgd1na2vs0mg"},{"bike_id":"3589a205-671f-4e20-a149-145bef043099","system_id":"levelo_inurba_marseille","lat":43.2925,"lon":5.36429,"is_reserved":false,"is_disabled":true,"rental_uris":{"android":"levelo://app?vid=3589a205-671f-4e20-a149-145bef043099","ios":"levelo://app?vid=3589a205-671f-4e20-a149-145bef043099"},"vehicle_type_id":"4","last_reported":1749759107,"current_range_meters":800,"station_id":"","pricing_plan_id":"cebpf4jnsgd1na2vs0mg"},{"bike_id":"3d2b3a50-e398-4321-87d1-b21555c86fc0","system_id":"levelo_inurba_marseille","lat":43.31484,"lon":5.37317,"is_reserved":false,"is_disabled":true,"rental_uris":{"android":"levelo://app?vid=3d2b3a50-e398-4321-87d1-b21555c86fc0","ios":"levelo://app?vid=3d2b3a50-e398-4321-87d1-b21555c86fc0"},"vehicle_type_id":"4","last_reported":1749759107,"current_range_meters":800,"station_id":"ce4bgt12rcd13ifvqcd0","pricing_plan_id":"cebpf4jnsgd1na2vs0mg"},{"bike_id":"4111fd20-827c-4bf2-af25-9292fd99ab9a","system_id":"levelo_inurba_marseille","lat":43.24543,"lon":5.3953,"is_reserved":false,"is_disabled":true,"rental_uris":{"android":"levelo://app?vid=4111fd20-827c-4bf2-af25-9292fd99ab9a","ios":"levelo://app?vid=4111fd20-827c-4bf2-af25-9292fd99ab9a"},"vehicle_type_id":"4","last_reported":1749759107,"current_range_meters":800,"station_id":"ce4bhlp2rcd13ifvqgjg","pricing_plan_id":"cebpf4jnsgd1na2vs0mg"},{"bike_id":"ed38e697-cb68-456b-bc29-998b3b4709d3","system_id":"levelo_inurba_marseille","lat":43.29484,"lon":5.37937,"is_reserved":false,"is_disabled":true,"rental_uris":{"android":"levelo://app?vid=ed38e697-cb68-456b-bc29-998b3b4709d3","ios":"levelo://app?vid=ed38e697-cb68-456b-bc29-998b3b4709d3"},"vehicle_type_id":"4","last_reported":1749759107,"current_range_meters":1200,"station_id":"","pricing_plan_id":"cebpf4jnsgd1na2vs0mg"},{"bike_id":"fe638d48-eb25-4bc6-8c2b-5d3542083658","system_id":"levelo_inurba_marseille","lat":43.28971,"lon":5.37853,"is_reserved":false,"is_disabled":true,"rental_uris":{"android":"levelo://app?vid=fe638d48-eb25-4bc6-8c2b-5d3542083658","ios":"levelo://app?vid=fe638d48-eb25-4bc6-8c2b-5d3542083658"},"vehicle_type_id":"4","last_reported":1749759107,"current_range_meters":1200,"station_id":"ce4bh9p2rcd13ifvqed0","pricing_plan_id":"cebpf4jnsgd1na2vs0mg"},{"bike_id":"4a1b5b45-5332-4b3f-9bee-d997f9d724a7","system_id":"levelo_inurba_marseille","lat":43.24811,"lon":5.37438,"is_reserved":false,"is_disabled":true,"rental_uris":{"android":"levelo://app?vid=4a1b5b45-5332-4b3f-9bee-d997f9d724a7","ios":"levelo://app?vid=4a1b5b45-5332-4b3f-9bee-d997f9d724a7"},"vehicle_type_id":"4","last_reported":1749759107,"current_range_meters":1200,"station_id":"ce4bhgh2rcd13ifvqfb0","pricing_plan_id":"cebpf4jnsgd1na2vs0mg"},{"bike_id":"f2f68cb1-3aed-42ec-9461-aab0e0fee4bf","system_id":"levelo_inurba_marseille","lat":43.295288,"lon":5.385588,"is_reserved":false,"is_disabled":true,"rental_uris":{"android":"levelo://app?vid=f2f68cb1-3aed-42ec-9461-aab0e0fee4bf","ios":"levelo://app?vid=f2f68cb1-3aed-42ec-9461-aab0e0fee4bf"},"vehicle_type_id":"4","last_reported":1749759107,"current_range_meters":1600,"station_id":"","pricing_plan_id":"cebpf4jnsgd1na2vs0mg"},{"bike_id":"66b1cbfb-c132-4ef4-922c-0beab9b5a350","system_id":"levelo_inurba_marseille","lat":43.29761,"lon":5.45982,"is_reserved":false,"is_disabled":true,"rental_uris":{"android":"levelo://app?vid=66b1cbfb-c132-4ef4-922c-0beab9b5a350","ios":"levelo://app?vid=66b1cbfb-c132-4ef4-922c-0beab9b5a350"},"vehicle_type_id":"4","last_reported":1749759107,"current_range_meters":1600,"station_id":"","pricing_plan_id":"cebpf4jnsgd1na2vs0mg"},{"bike_id":"ae7ebfd9-2a6b-4da3-b3b0-222bd855aaf4","system_id":"levelo_inurba_marseille","lat":43.29996,"lon":5.3851,"is_reserved":false,"is_disabled":true,"rental_uris":{"android":"levelo://app?vid=ae7ebfd9-2a6b-4da3-b3b0-222bd855aaf4","ios":"levelo://app?vid=ae7ebfd9-2a6b-4da3-b3b0-222bd855aaf4"},"vehicle_type_id":"4","last_reported":1749759107,"current_range_meters":1600,"station_id":"ce4bgj92rcd13ifvqbd0","pricing_plan_id":"cebpf4jnsgd1na2vs0mg"},{"bike_id":"5b9964a4-e94d-47b8-8ea6-67b3d358bb78","system_id":"levelo_inurba_marseille","lat":43.30885,"lon":5.3963,"is_reserved":false,"is_disabled":true,"rental_uris":{"android":"levelo://app?vid=5b9964a4-e94d-47b8-8ea6-67b3d358bb78","ios":"levelo://app?vid=5b9964a4-e94d-47b8-8ea6-67b3d358bb78"},"vehicle_type_id":"4","last_reported":1749759107,"current_range_meters":1600,"station_id":"ce4bh012rcd13ifvqcv0","pricing_plan_id":"cebpf4jnsgd1na2vs0mg"},{"bike_id":"c85e4d71-ca97-4d8c-aac2-8c24b392104e","system_id":"levelo_inurba_marseille","lat":43.24073,"lon":5.37762,"is_reserved":false,"is_disabled":true,"rental_uris":{"android":"levelo://app?vid=c85e4d71-ca97-4d8c-aac2-8c24b392104e","ios":"levelo://app?vid=c85e4d71-ca97-4d8c-aac2-8c24b392104e"},"vehicle_type_id":"4","last_reported":1749759107,"current_range_meters":1600,"station_id":"ce4bhnp2rcd13ifvqgvg","pricing_plan_id":"cebpf4jnsgd1na2vs0mg"},{"bike_id":"bdc5c892-bc23-4f61-8485-73d9a99066d9","system_id":"levelo_inurba_marseille","lat":43.32292,"lon":5.38276,"is_reserved":false,"is_disabled":true,"rental_uris":{"android":"levelo://app?vid=bdc5c892-bc23-4f61-8485-73d9a99066d9","ios":"levelo://app?vid=bdc5c892-bc23-4f61-8485-73d9a99066d9"},"vehicle_type_id":"4","last_reported":1749759107,"current_range_meters":1600,"station_id":"ce4bhr12rcd13ifvqhqg","pricing_plan_id":"cebpf4jnsgd1na2vs0mg"},{"bike_id":"ccfa62c2-60b2-4904-b71f-6987c38ce76b","system_id":"levelo_inurba_marseille","lat":43.229279,"lon":5.353805,"is_reserved":false,"is_disabled":true,"rental_uris":{"android":"levelo://app?vid=ccfa62c2-60b2-4904-b71f-6987c38ce76b","ios":"levelo://app?vid=ccfa62c2-60b2-4904-b71f-6987c38ce76b"},"vehicle_type_id":"4","last_reported":1749759107,"current_range_meters":1600,"station_id":"cpo3532slgdg3j2ikp40","pricing_plan_id":"cebpf4jnsgd1na2vs0mg"},{"bike_id":"66533b80-cc71-40e8-8ac8-a74667eb0995","system_id":"levelo_inurba_marseille","lat":43.29254,"lon":5.409,"is_reserved":false,"is_disabled":true,"rental_uris":{"android":"levelo://app?vid=66533b80-cc71-40e8-8ac8-a74667eb0995","ios":"levelo://app?vid=66533b80-cc71-40e8-8ac8-a74667eb0995"},"vehicle_type_id":"4","last_reported":1749759107,"current_range_meters":2000,"station_id":"ce4bh192rcd13ifvqdc0","pricing_plan_id":"cebpf4jnsgd1na2vs0mg"},{"bike_id":"79e4e036-a5eb-4d11-a695-4d4a21ebe3d8","system_id":"levelo_inurba_marseille","lat":43.254954,"lon":5.37646,"is_reserved":false,"is_disabled":true,"rental_uris":{"android":"levelo://app?vid=79e4e036-a5eb-4d11-a695-4d4a21ebe3d8","ios":"levelo://app?vid=79e4e036-a5eb-4d11-a695-4d4a21ebe3d8"},"vehicle_type_id":"4","last_reported":1749759107,"current_range_meters":2000,"station_id":"ce4bhh12rcd13ifvqff0","pricing_plan_id":"cebpf4jnsgd1na2vs0mg"},{"bike_id":"e7b0cce2-498d-4a7d-b92b-b3abff3d52ef","system_id":"levelo_inurba_marseille","lat":43.2978,"lon":5.39331,"is_reserved":false,"is_disabled":true,"rental_uris":{"android":"levelo://app?vid=e7b0cce2-498d-4a7d-b92b-b3abff3d52ef","ios":"levelo://app?vid=e7b0cce2-498d-4a7d-b92b-b3abff3d52ef"},"vehicle_type_id":"4","last_reported":1749759107,"current_range_meters":2000,"station_id":"chh1huq6cuj3fo74tm60","pricing_plan_id":"cebpf4jnsgd1na2vs0mg"},{"bike_id":"853e9d90-8fb4-4c17-a762-9923b9fb02f0","system_id":"levelo_inurba_marseille","lat":43.254298,"lon":5.381118,"is_reserved":false,"is_disabled":false,"rental_uris":{"android":"levelo://app?vid=853e9d90-8fb4-4c17-a762-9923b9fb02f0","ios":"levelo://app?vid=853e9d90-8fb4-4c17-a762-9923b9fb02f0"},"vehicle_type_id":"4","last_reported":1749759107,"current_range_meters":2800,"station_id":"","pricing_plan_id":"cebpf4jnsgd1na2vs0mg"},{"bike_id":"ff6c2cb2-44a5-4337-8f15-e8f743a247ea","system_id":"levelo_inurba_marseille","lat":43.29718,"lon":5.37694,"is_reserved":false,"is_disabled":false,"rental_uris":{"android":"levelo://app?vid=ff6c2cb2-44a5-4337-8f15-e8f743a247ea","ios":"levelo://app?vid=ff6c2cb2-44a5-4337-8f15-e8f743a247ea"},"vehicle_type_id":"4","last_reported":1749759107,"current_range_meters":2800,"station_id":"ce4bgkh2rcd13ifvqbl0","pricing_plan_id":"cebpf4jnsgd1na2vs0mg"},{"bike_id":"faa189cb-be1b-4a53-9cae-a054af82e193","system_id":"levelo_inurba_marseille","lat":43.286683,"lon":5.386608,"is_reserved":false,"is_disabled":false,"rental_uris":{"android":"levelo://app?vid=faa189cb-be1b-4a53-9cae-a054af82e193","ios":"levelo://app?vid=faa189cb-be1b-4a53-9cae-a054af82e193"},"vehicle_type_id":"4","last_reported":1749759107,"current_range_meters":2800,"station_id":"ce4bh492rcd13ifvqdug","pricing_plan_id":"cebpf4jnsgd1na2vs0mg"},{"bike_id":"5077581b-cebb-46fc-ba69-4fa8272d4810","system_id":"levelo_inurba_marseille","lat":43.213639,"lon":5.355312,"is_reserved":false,"is_disabled":false,"rental_uris":{"android":"levelo://app?vid=5077581b-cebb-46fc-ba69-4fa8272d4810","ios":"levelo://app?vid=5077581b-cebb-46fc-ba69-4fa8272d4810"},"vehicle_type_id":"4","last_reported":1749759107,"current_range_meters":3200,"station_id":"","pricing_plan_id":"cebpf4jnsgd1na2vs0mg"},{"bike_id":"4b46de49-fc9e-423b-b68b-7bdf05a00e45","system_id":"levelo_inurba_marseille","lat":43.25301,"lon":5.39357,"is_reserved":false,"is_disabled":false,"rental_uris":{"android":"levelo://app?vid=4b46de49-fc9e-423b-b68b-7bdf05a00e45","ios":"levelo://app?vid=4b46de49-fc9e-423b-b68b-7bdf05a00e45"},"vehicle_type_id":"4","last_reported":1749759107,"current_range_meters":3200,"station_id":"","pricing_plan_id":"cebpf4jnsgd1na2vs0mg"},{"bike_id":"165a6ce2-f806-45b2-bf82-39d7bdd011fc","system_id":"levelo_inurba_marseille","lat":43.293853,"lon":5.385293,"is_reserved":false,"is_disabled":false,"rental_uris":{"android":"levelo://app?vid=165a6ce2-f806-45b2-bf82-39d7bdd011fc","ios":"levelo://app?vid=165a6ce2-f806-45b2-bf82-39d7bdd011fc"},"vehicle_type_id":"4","last_reported":1749759107,"current_range_meters":3200,"station_id":"","pricing_plan_id":"cebpf4jnsgd1na2vs0mg"},{"bike_id":"b773f2e3-6fea-4934-aa74-f279b92eeba2","system_id":"levelo_inurba_marseille","lat":43.29617,"lon":5.37713,"is_reserved":false,"is_disabled":false,"rental_uris":{"android":"levelo://app?vid=b773f2e3-6fea-4934-aa74-f279b92eeba2","ios":"levelo://app?vid=b773f2e3-6fea-4934-aa74-f279b92eeba2"},"vehicle_type_id":"4","last_reported":1749759107,"current_range_meters":3200,"station_id":"ce4bgi92rcd13ifvqb90","pricing_plan_id":"cebpf4jnsgd1na2vs0mg"},{"bike_id":"22483b00-2439-490f-8e49-db15d266f91a","system_id":"levelo_inurba_marseille","lat":43.31321,"lon":5.39719,"is_reserved":false,"is_disabled":false,"rental_uris":{"android":"levelo://app?vid=22483b00-2439-490f-8e49-db15d266f91a","ios":"levelo://app?vid=22483b00-2439-490f-8e49-db15d266f91a"},"vehicle_type_id":"4","last_reported":1749759107,"current_range_meters":3200,"station_id":"ce4bgvp2rcd13ifvqcu0","pricing_plan_id":"cebpf4jnsgd1na2vs0mg"},{"bike_id":"394934eb-1cb0-4b06-b4ea-498349f2e854","system_id":"levelo_inurba_marseille","lat":43.30896,"lon":5.39616,"is_reserved":false,"is_disabled":false,"rental_uris":{"android":"levelo://app?vid=394934eb-1cb0-4b06-b4ea-498349f2e854","ios":"levelo://app?vid=394934eb-1cb0-4b06-b4ea-498349f2e854"},"vehicle_type_id":"4","last_reported":1749759107,"current_range_meters":3200,"station_id":"ce4bh012rcd13ifvqcv0","pricing_plan_id":"cebpf4jnsgd1na2vs0mg"},{"bike_id":"ab25749e-2744-4e4e-8776-e199bfa793c4","system_id":"levelo_inurba_marseille","lat":43.28703,"lon":5.39984,"is_reserved":false,"is_disabled":false,"rental_uris":{"android":"levelo://app?vid=ab25749e-2744-4e4e-8776-e199bfa793c4","ios":"levelo://app?vid=ab25749e-2744-4e4e-8776-e199bfa793c4"},"vehicle_type_id":"4","last_reported":1749759107,"current_range_meters":3200,"station_id":"ce4bho92rcd13ifvqh3g","pricing_plan_id":"cebpf4jnsgd1na2vs0mg"},{"bike_id":"c52730a9-3656-48ad-9292-1e200a0566a1","system_id":"levelo_inurba_marseille","lat":43.29419,"lon":5.38627,"is_reserved":false,"is_disabled":false,"rental_uris":{"android":"levelo://app?vid=c52730a9-3656-48ad-9292-1e200a0566a1","ios":"levelo://app?vid=c52730a9-3656-48ad-9292-1e200a0566a1"},"vehicle_type_id":"4","last_reported":1749759107,"current_range_meters":3600,"station_id":"ce4bh2h2rcd13ifvqdh0","pricing_plan_id":"cebpf4jnsgd1na2vs0mg"},{"bike_id":"b8bdf705-7675-4cb9-97bb-09a1d045a1b0","system_id":"levelo_inurba_marseille","lat":43.301153,"lon":5.398507,"is_reserved":false,"is_disabled":false,"rental_uris":{"android":"levelo://app?vid=b8bdf705-7675-4cb9-97bb-09a1d045a1b0","ios":"levelo://app?vid=b8bdf705-7675-4cb9-97bb-09a1d045a1b0"},"vehicle_type_id":"4","last_reported":1749759107,"current_range_meters":4000,"station_id":"ce4bh0h2rcd13ifvqd40","pricing_plan_id":"cebpf4jnsgd1na2vs0mg"},{"bike_id":"a65610d2-25bc-44d0-bbd3-3e69717b1aca","system_id":"levelo_inurba_marseille","lat":43.30717,"lon":5.40183,"is_reserved":false,"is_disabled":false,"rental_uris":{"android":"levelo://app?vid=a65610d2-25bc-44d0-bbd3-3e69717b1aca","ios":"levelo://app?vid=a65610d2-25bc-44d0-bbd3-3e69717b1aca"},"vehicle_type_id":"4","last_reported":1749759107,"current_range_meters":4400,"station_id":"","pricing_plan_id":"cebpf4jnsgd1na2vs0mg"},{"bike_id":"bde60259-da66-4261-b477-e356cbc83ed7","system_id":"levelo_inurba_marseille","lat":43.29627,"lon":5.40593,"is_reserved":false,"is_disabled":false,"rental_uris":{"android":"levelo://app?vid=bde60259-da66-4261-b477-e356cbc83ed7","ios":"levelo://app?vid=bde60259-da66-4261-b477-e356cbc83ed7"},"vehicle_type_id":"4","last_reported":1749759107,"current_range_meters":4400,"station_id":"ce4bh0h2rcd13ifvqd60","pricing_plan_id":"cebpf4jnsgd1na2vs0mg"},{"bike_id":"a26d11e2-cdf9-4ba7-9d13-993b5272a1da","system_id":"levelo_inurba_marseille","lat":43.29038,"lon":5.39964,"is_reserved":false,"is_disabled":false,"rental_uris":{"android":"levelo://app?vid=a26d11e2-cdf9-4ba7-9d13-993b5272a1da","ios":"levelo://app?vid=a26d11e2-cdf9-4ba7-9d13-993b5272a1da"},"vehicle_type_id":"4","last_reported":1749759107,"current_range_meters":4400,"station_id":"ce4bh392rcd13ifvqdm0","pricing_plan_id":"cebpf4jnsgd1na2vs0mg"},{"bike_id":"81ff0260-06a9-4812-81da-8a2b44369de0","system_id":"levelo_inurba_marseille","lat":43.29193,"lon":5.35797,"is_reserved":false,"is_disabled":false,"rental_uris":{"android":"levelo://app?vid=81ff0260-06a9-4812-81da-8a2b44369de0","ios":"levelo://app?vid=81ff0260-06a9-4812-81da-8a2b44369de0"},"vehicle_type_id":"4","last_reported":1749759107,"current_range_meters":4400,"station_id":"ce4bhb12rcd13ifvqel0","pricing_plan_id":"cebpf4jnsgd1na2vs0mg"},{"bike_id":"8a8cce2b-e7e8-4dcf-82b7-8b5b4354324d","system_id":"levelo_inurba_marseille","lat":43.28934,"lon":5.36412,"is_reserved":false,"is_disabled":false,"rental_uris":{"android":"levelo://app?vid=8a8cce2b-e7e8-4dcf-82b7-8b5b4354324d","ios":"levelo://app?vid=8a8cce2b-e7e8-4dcf-82b7-8b5b4354324d"},"vehicle_type_id":"4","last_reported":1749759107,"current_range_meters":4400,"station_id":"ce4bhc92rcd13ifvqetg","pricing_plan_id":"cebpf4jnsgd1na2vs0mg"},{"bike_id":"543ae042-548d-459c-9bf9-84a2ef008637","system_id":"levelo_inurba_marseille","lat":43.28936,"lon":5.366452,"is_reserved":false,"is_disabled":false,"rental_uris":{"android":"levelo://app?vid=543ae042-548d-459c-9bf9-84a2ef008637","ios":"levelo://app?vid=543ae042-548d-459c-9bf9-84a2ef008637"},"vehicle_type_id":"4","last_reported":1749759107,"current_range_meters":4800,"station_id":"ce4bhc92rcd13ifvqetg","pricing_plan_id":"cebpf4jnsgd1na2vs0mg"},{"bike_id":"cdf14ced-e13b-4d0d-9027-e5bf5c9866d4","system_id":"levelo_inurba_marseille","lat":43.24654,"lon":5.38896,"is_reserved":false,"is_disabled":false,"rental_uris":{"android":"levelo://app?vid=cdf14ced-e13b-4d0d-9027-e5bf5c9866d4","ios":"levelo://app?vid=cdf14ced-e13b-4d0d-9027-e5bf5c9866d4"},"vehicle_type_id":"4","last_reported":1749759107,"current_range_meters":4800,"station_id":"ce4bhg12rcd13ifvqf60","pricing_plan_id":"cebpf4jnsgd1na2vs0mg"},{"bike_id":"4fa1e0af-3c8a-49d2-8de6-3257a30d9ff3","system_id":"levelo_inurba_marseille","lat":43.23233,"lon":5.4361,"is_reserved":false,"is_disabled":false,"rental_uris":{"android":"levelo://app?vid=4fa1e0af-3c8a-49d2-8de6-3257a30d9ff3","ios":"levelo://app?vid=4fa1e0af-3c8a-49d2-8de6-3257a30d9ff3"},"vehicle_type_id":"4","last_reported":1749759107,"current_range_meters":4800,"station_id":"ce4bhmp2rcd13ifvqgog","pricing_plan_id":"cebpf4jnsgd1na2vs0mg"},{"bike_id":"cc75948a-4cf0-4592-babe-3fb3b8670bdd","system_id":"levelo_inurba_marseille","lat":43.279487,"lon":5.410466,"is_reserved":false,"is_disabled":false,"rental_uris":{"android":"levelo://app?vid=cc75948a-4cf0-4592-babe-3fb3b8670bdd","ios":"levelo://app?vid=cc75948a-4cf0-4592-babe-3fb3b8670bdd"},"vehicle_type_id":"4","last_reported":1749759107,"current_range_meters":4800,"station_id":"ce4bhnp2rcd13ifvqh0g","pricing_plan_id":"cebpf4jnsgd1na2vs0mg"},{"bike_id":"66314ca9-30a7-4c0a-8507-6f89f4c9b4e1","system_id":"levelo_inurba_marseille","lat":43.26178,"lon":5.37051,"is_reserved":false,"is_disabled":false,"rental_uris":{"android":"levelo://app?vid=66314ca9-30a7-4c0a-8507-6f89f4c9b4e1","ios":"levelo://app?vid=66314ca9-30a7-4c0a-8507-6f89f4c9b4e1"},"vehicle_type_id":"4","last_reported":1749759107,"current_range_meters":5600,"station_id":"","pricing_plan_id":"cebpf4jnsgd1na2vs0mg"},{"bike_id":"6fec8452-9159-4284-a3cc-a0393f729100","system_id":"levelo_inurba_marseille","lat":43.21762,"lon":5.34605,"is_reserved":false,"is_disabled":false,"rental_uris":{"android":"levelo://app?vid=6fec8452-9159-4284-a3cc-a0393f729100","ios":"levelo://app?vid=6fec8452-9159-4284-a3cc-a0393f729100"},"vehicle_type_id":"4","last_reported":1749759107,"current_range_meters":5600,"station_id":"","pricing_plan_id":"cebpf4jnsgd1na2vs0mg"},{"bike_id":"f28ac209-4ada-4b57-b006-bca5a188a4b9","system_id":"levelo_inurba_marseille","lat":43.31073,"lon":5.383465,"is_reserved":false,"is_disabled":false,"rental_uris":{"android":"levelo://app?vid=f28ac209-4ada-4b57-b006-bca5a188a4b9","ios":"levelo://app?vid=f28ac209-4ada-4b57-b006-bca5a188a4b9"},"vehicle_type_id":"4","last_reported":1749759107,"current_range_meters":5600,"station_id":"ce4bgv92rcd13ifvqcr0","pricing_plan_id":"cebpf4jnsgd1na2vs0mg"},{"bike_id":"f8e539a2-3d55-4433-9bee-076742b9bc88","system_id":"levelo_inurba_marseille","lat":43.30594,"lon":5.39361,"is_reserved":false,"is_disabled":false,"rental_uris":{"android":"levelo://app?vid=f8e539a2-3d55-4433-9bee-076742b9bc88","ios":"levelo://app?vid=f8e539a2-3d55-4433-9bee-076742b9bc88"},"vehicle_type_id":"4","last_reported":1749759107,"current_range_meters":5600,"station_id":"ce4bh0p2rcd13ifvqd80","pricing_plan_id":"cebpf4jnsgd1na2vs0mg"},{"bike_id":"5705386c-93a8-445a-8994-251671c75847","system_id":"levelo_inurba_marseille","lat":43.26208,"lon":5.37445,"is_reserved":false,"is_disabled":false,"rental_uris":{"android":"levelo://app?vid=5705386c-93a8-445a-8994-251671c75847","ios":"levelo://app?vid=5705386c-93a8-445a-8994-251671c75847"},"vehicle_type_id":"4","last_reported":1749759107,"current_range_meters":6000,"station_id":"ce4bhgp2rcd13ifvqfc0","pricing_plan_id":"cebpf4jnsgd1na2vs0mg"},{"bike_id":"9ebf6d7d-3c5f-40f6-85c5-14fe442b4b5f","system_id":"levelo_inurba_marseille","lat":43.26499,"lon":5.39536,"is_reserved":false,"is_disabled":false,"rental_uris":{"android":"levelo://app?vid=9ebf6d7d-3c5f-40f6-85c5-14fe442b4b5f","ios":"levelo://app?vid=9ebf6d7d-3c5f-40f6-85c5-14fe442b4b5f"},"vehicle_type_id":"4","last_reported":1749759107,"current_range_meters":6000,"station_id":"ce4bhi12rcd13ifvqfq0","pricing_plan_id":"cebpf4jnsgd1na2vs0mg"},{"bike_id":"19559602-bd98-437b-ab7c-a84f7cccb0ca","system_id":"levelo_inurba_marseille","lat":43.25869,"lon":5.39895,"is_reserved":false,"is_disabled":false,"rental_uris":{"android":"levelo://app?vid=19559602-bd98-437b-ab7c-a84f7cccb0ca","ios":"levelo://app?vid=19559602-bd98-437b-ab7c-a84f7cccb0ca"},"vehicle_type_id":"4","last_reported":1749759107,"current_range_meters":6000,"station_id":"ce4bhl92rcd13ifvqghg","pricing_plan_id":"cebpf4jnsgd1na2vs0mg"},{"bike_id":"8e108a83-e2bf-43e0-9b41-3765b051abd1","system_id":"levelo_inurba_marseille","lat":43.2804,"lon":5.349517,"is_reserved":false,"is_disabled":false,"rental_uris":{"android":"levelo://app?vid=8e108a83-e2bf-43e0-9b41-3765b051abd1","ios":"levelo://app?vid=8e108a83-e2bf-43e0-9b41-3765b051abd1"},"vehicle_type_id":"4","last_reported":1749759107,"current_range_meters":6400,"station_id":"","pricing_plan_id":"cebpf4jnsgd1na2vs0mg"},{"bike_id":"dc2ffc5b-f591-49e9-87e8-1424c33f4e4c","system_id":"levelo_inurba_marseille","lat":43.29521,"lon":5.3941,"is_reserved":false,"is_disabled":false,"rental_uris":{"android":"levelo://app?vid=dc2ffc5b-f591-49e9-87e8-1424c33f4e4c","ios":"levelo://app?vid=dc2ffc5b-f591-49e9-87e8-1424c33f4e4c"},"vehicle_type_id":"4","last_reported":1749759107,"current_range_meters":6400,"station_id":"ce4bh292rcd13ifvqdf0","pricing_plan_id":"cebpf4jnsgd1na2vs0mg"},{"bike_id":"38773600-d7e3-402d-85a0-0fff60e03ce0","system_id":"levelo_inurba_marseille","lat":43.29043,"lon":5.37551,"is_reserved":false,"is_disabled":false,"rental_uris":{"android":"levelo://app?vid=38773600-d7e3-402d-85a0-0fff60e03ce0","ios":"levelo://app?vid=38773600-d7e3-402d-85a0-0fff60e03ce0"},"vehicle_type_id":"4","last_reported":1749759107,"current_range_meters":6400,"station_id":"ce4bh692rcd13ifvqe90","pricing_plan_id":"cebpf4jnsgd1na2vs0mg"},{"bike_id":"4be38dc6-d3af-4606-903e-7bf53c505331","system_id":"levelo_inurba_marseille","lat":43.28461,"lon":5.3589,"is_reserved":false,"is_disabled":false,"rental_uris":{"android":"levelo://app?vid=4be38dc6-d3af-4606-903e-7bf53c505331","ios":"levelo://app?vid=4be38dc6-d3af-4606-903e-7bf53c505331"},"vehicle_type_id":"4","last_reported":1749759107,"current_range_meters":6400,"station_id":"ce4bhah2rcd13ifvqei0","pricing_plan_id":"cebpf4jnsgd1na2vs0mg"},{"bike_id":"6bf563f3-6a3e-4286-b02f-50d444dc80b7","system_id":"levelo_inurba_marseille","lat":43.27543,"lon":5.38389,"is_reserved":false,"is_disabled":false,"rental_uris":{"android":"levelo://app?vid=6bf563f3-6a3e-4286-b02f-50d444dc80b7","ios":"levelo://app?vid=6bf563f3-6a3e-4286-b02f-50d444dc80b7"},"vehicle_type_id":"4","last_reported":1749759107,"current_range_meters":6400,"station_id":"ce4bhh92rcd13ifvqfi0","pricing_plan_id":"cebpf4jnsgd1na2vs0mg"},{"bike_id":"019918e0-4e86-4aba-bd91-859c91c44435","system_id":"levelo_inurba_marseille","lat":43.25871,"lon":5.39896,"is_reserved":false,"is_disabled":false,"rental_uris":{"android":"levelo://app?vid=019918e0-4e86-4aba-bd91-859c91c44435","ios":"levelo://app?vid=019918e0-4e86-4aba-bd91-859c91c44435"},"vehicle_type_id":"4","last_reported":1749759107,"current_range_meters":6400,"station_id":"ce4bhl92rcd13ifvqghg","pricing_plan_id":"cebpf4jnsgd1na2vs0mg"},{"bike_id":"b4f71bc9-8c06-460d-a216-ed2597603152","system_id":"levelo_inurba_marseille","lat":43.31882,"lon":5.40736,"is_reserved":false,"is_disabled":false,"rental_uris":{"android":"levelo://app?vid=b4f71bc9-8c06-460d-a216-ed2597603152","ios":"levelo://app?vid=b4f71bc9-8c06-460d-a216-ed2597603152"},"vehicle_type_id":"4","last_reported":1749759107,"current_range_meters":6400,"station_id":"ce4bhq12rcd13ifvqhig","pricing_plan_id":"cebpf4jnsgd1na2vs0mg"},{"bike_id":"8bf3584b-7b91-451f-88e8-cded71fa9fb6","system_id":"levelo_inurba_marseille","lat":43.31325,"lon":5.39683,"is_reserved":false,"is_disabled":false,"rental_uris":{"android":"levelo://app?vid=8bf3584b-7b91-451f-88e8-cded71fa9fb6","ios":"levelo://app?vid=8bf3584b-7b91-451f-88e8-cded71fa9fb6"},"vehicle_type_id":"4","last_reported":1749759107,"current_range_meters":6800,"station_id":"ce4bgvp2rcd13ifvqcu0","pricing_plan_id":"cebpf4jnsgd1na2vs0mg"},{"bike_id":"e7b051b2-00cc-4b8f-bace-486fc4da541b","system_id":"levelo_inurba_marseille","lat":43.29872,"lon":5.39726,"is_reserved":false,"is_disabled":false,"rental_uris":{"android":"levelo://app?vid=e7b051b2-00cc-4b8f-bace-486fc4da541b","ios":"levelo://app?vid=e7b051b2-00cc-4b8f-bace-486fc4da541b"},"vehicle_type_id":"4","last_reported":1749759107,"current_range_meters":6800,"station_id":"ce4bh0h2rcd13ifvqd50","pricing_plan_id":"cebpf4jnsgd1na2vs0mg"},{"bike_id":"6722f8f8-860f-4bdc-a327-fd5a75315728","system_id":"levelo_inurba_marseille","lat":43.302166,"lon":5.394665,"is_reserved":false,"is_disabled":false,"rental_uris":{"android":"levelo://app?vid=6722f8f8-860f-4bdc-a327-fd5a75315728","ios":"levelo://app?vid=6722f8f8-860f-4bdc-a327-fd5a75315728"},"vehicle_type_id":"4","last_reported":1749759107,"current_range_meters":6800,"station_id":"ce4bh0p2rcd13ifvqd70","pricing_plan_id":"cebpf4jnsgd1na2vs0mg"},{"bike_id":"72ab3f62-9ed5-4b3f-9414-c1931a91b7f0","system_id":"levelo_inurba_marseille","lat":43.27498,"lon":5.42446,"is_reserved":false,"is_disabled":false,"rental_uris":{"android":"levelo://app?vid=72ab3f62-9ed5-4b3f-9414-c1931a91b7f0","ios":"levelo://app?vid=72ab3f62-9ed5-4b3f-9414-c1931a91b7f0"},"vehicle_type_id":"4","last_reported":1749759107,"current_range_meters":6800,"station_id":"ce4bhn92rcd13ifvqgrg","pricing_plan_id":"cebpf4jnsgd1na2vs0mg"},{"bike_id":"8105426e-eb6c-4b79-bfaa-254c1b037d55","system_id":"levelo_inurba_marseille","lat":43.323701,"lon":5.367597,"is_reserved":false,"is_disabled":false,"rental_uris":{"android":"levelo://app?vid=8105426e-eb6c-4b79-bfaa-254c1b037d55","ios":"levelo://app?vid=8105426e-eb6c-4b79-bfaa-254c1b037d55"},"vehicle_type_id":"4","last_reported":1749759107,"current_range_meters":6800,"station_id":"ce4bhsh2rcd13ifvqi2g","pricing_plan_id":"cebpf4jnsgd1na2vs0mg"},{"bike_id":"2efdada7-4314-4063-820a-1b58d581b542","system_id":"levelo_inurba_marseille","lat":43.28798,"lon":5.36046,"is_reserved":false,"is_disabled":false,"rental_uris":{"android":"levelo://app?vid=2efdada7-4314-4063-820a-1b58d581b542","ios":"levelo://app?vid=2efdada7-4314-4063-820a-1b58d581b542"},"vehicle_type_id":"4","last_reported":1749759107,"current_range_meters":6800,"station_id":"cki0cbj6b192h4jlfktg","pricing_plan_id":"cebpf4jnsgd1na2vs0mg"},{"bike_id":"48d34ad3-2644-46dd-82a0-47e5ff24cebe","system_id":"levelo_inurba_marseille","lat":43.30446,"lon":5.389047,"is_reserved":false,"is_disabled":false,"rental_uris":{"android":"levelo://app?vid=48d34ad3-2644-46dd-82a0-47e5ff24cebe","ios":"levelo://app?vid=48d34ad3-2644-46dd-82a0-47e5ff24cebe"},"vehicle_type_id":"4","last_reported":1749759107,"current_range_meters":7200,"station_id":"ce4bgk12rcd13ifvqbi0","pricing_plan_id":"cebpf4jnsgd1na2vs0mg"},{"bike_id":"d7476e66-3e65-4cb3-ada2-12f94f2c48a1","system_id":"levelo_inurba_marseille","lat":43.31121,"lon":5.37769,"is_reserved":false,"is_disabled":false,"rental_uris":{"android":"levelo://app?vid=d7476e66-3e65-4cb3-ada2-12f94f2c48a1","ios":"levelo://app?vid=d7476e66-3e65-4cb3-ada2-12f94f2c48a1"},"vehicle_type_id":"4","last_reported":1749759107,"current_range_meters":7200,"station_id":"ce4bgt92rcd13ifvqcg0","pricing_plan_id":"cebpf4jnsgd1na2vs0mg"},{"bike_id":"82c9e919-8d69-45aa-aca9-b0b4926160ea","system_id":"levelo_inurba_marseille","lat":43.31173,"lon":5.38719,"is_reserved":false,"is_disabled":false,"rental_uris":{"android":"levelo://app?vid=82c9e919-8d69-45aa-aca9-b0b4926160ea","ios":"levelo://app?vid=82c9e919-8d69-45aa-aca9-b0b4926160ea"},"vehicle_type_id":"4","last_reported":1749759107,"current_range_meters":7200,"station_id":"ce4bgv12rcd13ifvqcp0","pricing_plan_id":"cebpf4jnsgd1na2vs0mg"},{"bike_id":"3b8a2cfc-a854-416b-81e5-86e947e517ab","system_id":"levelo_inurba_marseille","lat":43.33609,"lon":5.41036,"is_reserved":false,"is_disabled":false,"rental_uris":{"android":"levelo://app?vid=3b8a2cfc-a854-416b-81e5-86e947e517ab","ios":"levelo://app?vid=3b8a2cfc-a854-416b-81e5-86e947e517ab"},"vehicle_type_id":"4","last_reported":1749759107,"current_range_meters":7200,"station_id":"ce4bhqh2rcd13ifvqhmg","pricing_plan_id":"cebpf4jnsgd1na2vs0mg"},{"bike_id":"efd0d2c5-864e-4ce1-a11f-28d56a5df136","system_id":"levelo_inurba_marseille","lat":43.29528,"lon":5.38541,"is_reserved":false,"is_disabled":false,"rental_uris":{"android":"levelo://app?vid=efd0d2c5-864e-4ce1-a11f-28d56a5df136","ios":"levelo://app?vid=efd0d2c5-864e-4ce1-a11f-28d56a5df136"},"vehicle_type_id":"4","last_reported":1749759107,"current_range_meters":8000,"station_id":"ce4bgih2rcd13ifvqba0","pricing_plan_id":"cebpf4jnsgd1na2vs0mg"},{"bike_id":"73c885e2-372f-4e2b-8866-e32f5a41e4a4","system_id":"levelo_inurba_marseille","lat":43.31173,"lon":5.38718,"is_reserved":false,"is_disabled":false,"rental_uris":{"android":"levelo://app?vid=73c885e2-372f-4e2b-8866-e32f5a41e4a4","ios":"levelo://app?vid=73c885e2-372f-4e2b-8866-e32f5a41e4a4"},"vehicle_type_id":"4","last_reported":1749759107,"current_range_meters":8000,"station_id":"ce4bgv12rcd13ifvqcp0","pricing_plan_id":"cebpf4jnsgd1na2vs0mg"},{"bike_id":"115903ee-a11e-401b-a369-b566b69b3709","system_id":"levelo_inurba_marseille","lat":43.311,"lon":5.38348,"is_reserved":false,"is_disabled":false,"rental_uris":{"android":"levelo://app?vid=115903ee-a11e-401b-a369-b566b69b3709","ios":"levelo://app?vid=115903ee-a11e-401b-a369-b566b69b3709"},"vehicle_type_id":"4","last_reported":1749759107,"current_range_meters":8000,"station_id":"ce4bgv92rcd13ifvqcr0","pricing_plan_id":"cebpf4jnsgd1na2vs0mg"},{"bike_id":"c39eabf5-0213-4741-ab85-bd72b475b515","system_id":"levelo_inurba_marseille","lat":43.29263,"lon":5.38428,"is_reserved":false,"is_disabled":false,"rental_uris":{"android":"levelo://app?vid=c39eabf5-0213-4741-ab85-bd72b475b515","ios":"levelo://app?vid=c39eabf5-0213-4741-ab85-bd72b475b515"},"vehicle_type_id":"4","last_reported":1749759107,"current_range_meters":8000,"station_id":"ce4bh692rcd13ifvqea0","pricing_plan_id":"cebpf4jnsgd1na2vs0mg"},{"bike_id":"a409f4b7-4e83-41d0-a597-2481cef07922","system_id":"levelo_inurba_marseille","lat":43.29201,"lon":5.3579,"is_reserved":false,"is_disabled":false,"rental_uris":{"android":"levelo://app?vid=a409f4b7-4e83-41d0-a597-2481cef07922","ios":"levelo://app?vid=a409f4b7-4e83-41d0-a597-2481cef07922"},"vehicle_type_id":"4","last_reported":1749759107,"current_range_meters":8000,"station_id":"ce4bhb12rcd13ifvqel0","pricing_plan_id":"cebpf4jnsgd1na2vs0mg"},{"bike_id":"e5ff82fd-cc37-4e1f-aade-050998fb0f61","system_id":"levelo_inurba_marseille","lat":43.26263,"lon":5.37101,"is_reserved":false,"is_disabled":false,"rental_uris":{"android":"levelo://app?vid=e5ff82fd-cc37-4e1f-aade-050998fb0f61","ios":"levelo://app?vid=e5ff82fd-cc37-4e1f-aade-050998fb0f61"},"vehicle_type_id":"4","last_reported":1749759107,"current_range_meters":8400,"station_id":"","pricing_plan_id":"cebpf4jnsgd1na2vs0mg"},{"bike_id":"308cbf69-b866-4a48-b377-e4f7d5e7c70b","system_id":"levelo_inurba_marseille","lat":43.329203,"lon":5.390353,"is_reserved":false,"is_disabled":false,"rental_uris":{"android":"levelo://app?vid=308cbf69-b866-4a48-b377-e4f7d5e7c70b","ios":"levelo://app?vid=308cbf69-b866-4a48-b377-e4f7d5e7c70b"},"vehicle_type_id":"4","last_reported":1749759107,"current_range_meters":8400,"station_id":"","pricing_plan_id":"cebpf4jnsgd1na2vs0mg"},{"bike_id":"dd69c70b-2eac-43e7-9cf3-39391afc723b","system_id":"levelo_inurba_marseille","lat":43.31326,"lon":5.39713,"is_reserved":false,"is_disabled":false,"rental_uris":{"android":"levelo://app?vid=dd69c70b-2eac-43e7-9cf3-39391afc723b","ios":"levelo://app?vid=dd69c70b-2eac-43e7-9cf3-39391afc723b"},"vehicle_type_id":"4","last_reported":1749759107,"current_range_meters":8400,"station_id":"ce4bgvp2rcd13ifvqcu0","pricing_plan_id":"cebpf4jnsgd1na2vs0mg"},{"bike_id":"94f65fc7-c495-4fc3-bd53-b2d2bfbe5284","system_id":"levelo_inurba_marseille","lat":43.28849,"lon":5.39328,"is_reserved":false,"is_disabled":false,"rental_uris":{"android":"levelo://app?vid=94f65fc7-c495-4fc3-bd53-b2d2bfbe5284","ios":"levelo://app?vid=94f65fc7-c495-4fc3-bd53-b2d2bfbe5284"},"vehicle_type_id":"4","last_reported":1749759107,"current_range_meters":8400,"station_id":"ce4bh2p2rcd13ifvqdi0","pricing_plan_id":"cebpf4jnsgd1na2vs0mg"},{"bike_id":"db290275-4e2a-4a78-988a-4985a4429640","system_id":"levelo_inurba_marseille","lat":43.28397,"lon":5.3752,"is_reserved":false,"is_disabled":false,"rental_uris":{"android":"levelo://app?vid=db290275-4e2a-4a78-988a-4985a4429640","ios":"levelo://app?vid=db290275-4e2a-4a78-988a-4985a4429640"},"vehicle_type_id":"4","last_reported":1749759107,"current_range_meters":8400,"station_id":"ce4bh412rcd13ifvqds0","pricing_plan_id":"cebpf4jnsgd1na2vs0mg"},{"bike_id":"fd5c0873-d8ef-4cc8-a1f7-cd7dc19f4832","system_id":"levelo_inurba_marseille","lat":43.28109,"lon":5.37842,"is_reserved":false,"is_disabled":false,"rental_uris":{"android":"levelo://app?vid=fd5c0873-d8ef-4cc8-a1f7-cd7dc19f4832","ios":"levelo://app?vid=fd5c0873-d8ef-4cc8-a1f7-cd7dc19f4832"},"vehicle_type_id":"4","last_reported":1749759107,"current_range_meters":8400,"station_id":"ce4bha12rcd13ifvqee0","pricing_plan_id":"cebpf4jnsgd1na2vs0mg"},{"bike_id":"8dc568bf-ed0e-41ce-b717-40001c1a5f94","system_id":"levelo_inurba_marseille","lat":43.289287,"lon":5.363737,"is_reserved":false,"is_disabled":false,"rental_uris":{"android":"levelo://app?vid=8dc568bf-ed0e-41ce-b717-40001c1a5f94","ios":"levelo://app?vid=8dc568bf-ed0e-41ce-b717-40001c1a5f94"},"vehicle_type_id":"4","last_reported":1749759107,"current_range_meters":8400,"station_id":"ce4bhc92rcd13ifvqetg","pricing_plan_id":"cebpf4jnsgd1na2vs0mg"},{"bike_id":"1ca03a23-0dd2-4641-8d13-3aeb37030bca","system_id":"levelo_inurba_marseille","lat":43.29416,"lon":5.38631,"is_reserved":false,"is_disabled":false,"rental_uris":{"android":"levelo://app?vid=1ca03a23-0dd2-4641-8d13-3aeb37030bca","ios":"levelo://app?vid=1ca03a23-0dd2-4641-8d13-3aeb37030bca"},"vehicle_type_id":"4","last_reported":1749759107,"current_range_meters":8800,"station_id":"ce4bh2h2rcd13ifvqdh0","pricing_plan_id":"cebpf4jnsgd1na2vs0mg"},{"bike_id":"aeee8cc6-0347-4ee5-b11f-280308eb5bfe","system_id":"levelo_inurba_marseille","lat":43.29525,"lon":5.39035,"is_reserved":false,"is_disabled":false,"rental_uris":{"android":"levelo://app?vid=aeee8cc6-0347-4ee5-b11f-280308eb5bfe","ios":"levelo://app?vid=aeee8cc6-0347-4ee5-b11f-280308eb5bfe"},"vehicle_type_id":"4","last_reported":1749759107,"current_range_meters":8800,"station_id":"ce4bh3p2rcd13ifvqdp0","pricing_plan_id":"cebpf4jnsgd1na2vs0mg"},{"bike_id":"df4f9738-8900-4dc7-9acb-416f14e50803","system_id":"levelo_inurba_marseille","lat":43.23959,"lon":5.366553,"is_reserved":false,"is_disabled":false,"rental_uris":{"android":"levelo://app?vid=df4f9738-8900-4dc7-9acb-416f14e50803","ios":"levelo://app?vid=df4f9738-8900-4dc7-9acb-416f14e50803"},"vehicle_type_id":"4","last_reported":1749759107,"current_range_meters":8800,"station_id":"ce4bhi12rcd13ifvqfp0","pricing_plan_id":"cebpf4jnsgd1na2vs0mg"},{"bike_id":"007cfdd5-2938-4dd4-b638-4880014b617a","system_id":"levelo_inurba_marseille","lat":43.2694,"lon":5.40256,"is_reserved":false,"is_disabled":false,"rental_uris":{"android":"levelo://app?vid=007cfdd5-2938-4dd4-b638-4880014b617a","ios":"levelo://app?vid=007cfdd5-2938-4dd4-b638-4880014b617a"},"vehicle_type_id":"4","last_reported":1749759107,"current_range_meters":8800,"station_id":"cjm6bp8fraef2m0cb0m0","pricing_plan_id":"cebpf4jnsgd1na2vs0mg"},{"bike_id":"1726c7ff-36c7-4d38-aebc-a232ebb02c81","system_id":"levelo_inurba_marseille","lat":43.29592,"lon":5.38101,"is_reserved":false,"is_disabled":false,"rental_uris":{"android":"levelo://app?vid=1726c7ff-36c7-4d38-aebc-a232ebb02c81","ios":"levelo://app?vid=1726c7ff-36c7-4d38-aebc-a232ebb02c81"},"vehicle_type_id":"4","last_reported":1749759107,"current_range_meters":9200,"station_id":"ce4bgl12rcd13ifvqbo0","pricing_plan_id":"cebpf4jnsgd1na2vs0mg"},{"bike_id":"e2e27818-bf4a-4e1a-8cb4-28f487746ad8","system_id":"levelo_inurba_marseille","lat":43.283593,"lon":5.381007,"is_reserved":false,"is_disabled":false,"rental_uris":{"android":"levelo://app?vid=e2e27818-bf4a-4e1a-8cb4-28f487746ad8","ios":"levelo://app?vid=e2e27818-bf4a-4e1a-8cb4-28f487746ad8"},"vehicle_type_id":"4","last_reported":1749759107,"current_range_meters":9200,"station_id":"ce4bh412rcd13ifvqdr0","pricing_plan_id":"cebpf4jnsgd1na2vs0mg"},{"bike_id":"4d71417b-a043-4e06-aa6b-d57c378d602b","system_id":"levelo_inurba_marseille","lat":43.28956,"lon":5.36392,"is_reserved":false,"is_disabled":false,"rental_uris":{"android":"levelo://app?vid=4d71417b-a043-4e06-aa6b-d57c378d602b","ios":"levelo://app?vid=4d71417b-a043-4e06-aa6b-d57c378d602b"},"vehicle_type_id":"4","last_reported":1749759107,"current_range_meters":9200,"station_id":"ce4bhc92rcd13ifvqetg","pricing_plan_id":"cebpf4jnsgd1na2vs0mg"},{"bike_id":"8f02a946-d966-4ee0-8d92-8bceccde6c04","system_id":"levelo_inurba_marseille","lat":43.24807,"lon":5.3745,"is_reserved":false,"is_disabled":false,"rental_uris":{"android":"levelo://app?vid=8f02a946-d966-4ee0-8d92-8bceccde6c04","ios":"levelo://app?vid=8f02a946-d966-4ee0-8d92-8bceccde6c04"},"vehicle_type_id":"4","last_reported":1749759107,"current_range_meters":9200,"station_id":"ce4bhgh2rcd13ifvqfb0","pricing_plan_id":"cebpf4jnsgd1na2vs0mg"},{"bike_id":"a2421370-e442-436f-a98a-844d44299694","system_id":"levelo_inurba_marseille","lat":43.323648,"lon":5.367641,"is_reserved":false,"is_disabled":false,"rental_uris":{"android":"levelo://app?vid=a2421370-e442-436f-a98a-844d44299694","ios":"levelo://app?vid=a2421370-e442-436f-a98a-844d44299694"},"vehicle_type_id":"4","last_reported":1749759107,"current_range_meters":9200,"station_id":"ce4bhsh2rcd13ifvqi2g","pricing_plan_id":"cebpf4jnsgd1na2vs0mg"},{"bike_id":"538be204-294c-44d3-be2e-ddd41840eef1","system_id":"levelo_inurba_marseille","lat":43.21759,"lon":5.34599,"is_reserved":false,"is_disabled":false,"rental_uris":{"android":"levelo://app?vid=538be204-294c-44d3-be2e-ddd41840eef1","ios":"levelo://app?vid=538be204-294c-44d3-be2e-ddd41840eef1"},"vehicle_type_id":"4","last_reported":1749759107,"current_range_meters":9200,"station_id":"st_cvj6r9ubvosntc0bgbag","pricing_plan_id":"cebpf4jnsgd1na2vs0mg"},{"bike_id":"a25b84b4-c252-4eda-97fb-1a1f22303c5d","system_id":"levelo_inurba_marseille","lat":43.31411,"lon":5.37446,"is_reserved":false,"is_disabled":false,"rental_uris":{"android":"levelo://app?vid=a25b84b4-c252-4eda-97fb-1a1f22303c5d","ios":"levelo://app?vid=a25b84b4-c252-4eda-97fb-1a1f22303c5d"},"vehicle_type_id":"4","last_reported":1749759107,"current_range_meters":9600,"station_id":"","pricing_plan_id":"cebpf4jnsgd1na2vs0mg"},{"bike_id":"2f59928c-22fc-436c-a221-6b94c46af074","system_id":"levelo_inurba_marseille","lat":43.29267,"lon":5.38437,"is_reserved":false,"is_disabled":false,"rental_uris":{"android":"levelo://app?vid=2f59928c-22fc-436c-a221-6b94c46af074","ios":"levelo://app?vid=2f59928c-22fc-436c-a221-6b94c46af074"},"vehicle_type_id":"4","last_reported":1749759107,"current_range_meters":9600,"station_id":"","pricing_plan_id":"cebpf4jnsgd1na2vs0mg"},{"bike_id":"6ca74a3b-9c95-43cd-a8ac-52a163d2c54b","system_id":"levelo_inurba_marseille","lat":43.30143,"lon":5.38772,"is_reserved":false,"is_disabled":false,"rental_uris":{"android":"levelo://app?vid=6ca74a3b-9c95-43cd-a8ac-52a163d2c54b","ios":"levelo://app?vid=6ca74a3b-9c95-43cd-a8ac-52a163d2c54b"},"vehicle_type_id":"4","last_reported":1749759107,"current_range_meters":9600,"station_id":"ce4bghh2rcd13ifvqb60","pricing_plan_id":"cebpf4jnsgd1na2vs0mg"},{"bike_id":"4410865e-be0d-4aae-bffb-13b30691eab5","system_id":"levelo_inurba_marseille","lat":43.29532,"lon":5.38541,"is_reserved":false,"is_disabled":false,"rental_uris":{"android":"levelo://app?vid=4410865e-be0d-4aae-bffb-13b30691eab5","ios":"levelo://app?vid=4410865e-be0d-4aae-bffb-13b30691eab5"},"vehicle_type_id":"4","last_reported":1749759107,"current_range_meters":9600,"station_id":"ce4bgih2rcd13ifvqba0","pricing_plan_id":"cebpf4jnsgd1na2vs0mg"},{"bike_id":"a43680a5-205e-46ae-b7ec-5e1e17090b97","system_id":"levelo_inurba_marseille","lat":43.2971,"lon":5.36608,"is_reserved":false,"is_disabled":false,"rental_uris":{"android":"levelo://app?vid=a43680a5-205e-46ae-b7ec-5e1e17090b97","ios":"levelo://app?vid=a43680a5-205e-46ae-b7ec-5e1e17090b97"},"vehicle_type_id":"4","last_reported":1749759107,"current_range_meters":9600,"station_id":"ce4bgn12rcd13ifvqbt0","pricing_plan_id":"cebpf4jnsgd1na2vs0mg"},{"bike_id":"a2e29d6a-c3b9-419c-bb20-6ddf2e0fae88","system_id":"levelo_inurba_marseille","lat":43.30423,"lon":5.3974,"is_reserved":false,"is_disabled":false,"rental_uris":{"android":"levelo://app?vid=a2e29d6a-c3b9-419c-bb20-6ddf2e0fae88","ios":"levelo://app?vid=a2e29d6a-c3b9-419c-bb20-6ddf2e0fae88"},"vehicle_type_id":"4","last_reported":1749759107,"current_range_meters":9600,"station_id":"ce4bh092rcd13ifvqd20","pricing_plan_id":"cebpf4jnsgd1na2vs0mg"},{"bike_id":"f1edda5d-3610-4d8b-b28d-3be3ce3fcf97","system_id":"levelo_inurba_marseille","lat":43.291931,"lon":5.393222,"is_reserved":false,"is_disabled":false,"rental_uris":{"android":"levelo://app?vid=f1edda5d-3610-4d8b-b28d-3be3ce3fcf97","ios":"levelo://app?vid=f1edda5d-3610-4d8b-b28d-3be3ce3fcf97"},"vehicle_type_id":"4","last_reported":1749759107,"current_range_meters":9600,"station_id":"ce4bh192rcd13ifvqdd0","pricing_plan_id":"cebpf4jnsgd1na2vs0mg"},{"bike_id":"547a9344-e00f-4af0-bd3e-4c1691d42ca1","system_id":"levelo_inurba_marseille","lat":43.29074,"lon":5.3717,"is_reserved":false,"is_disabled":false,"rental_uris":{"android":"levelo://app?vid=547a9344-e00f-4af0-bd3e-4c1691d42ca1","ios":"levelo://app?vid=547a9344-e00f-4af0-bd3e-4c1691d42ca1"},"vehicle_type_id":"4","last_reported":1749759107,"current_range_meters":9600,"station_id":"ce4bh5p2rcd13ifvqe4g","pricing_plan_id":"cebpf4jnsgd1na2vs0mg"},{"bike_id":"822e52a0-bbe4-4007-a8c5-6bf00c8f3eff","system_id":"levelo_inurba_marseille","lat":43.3018,"lon":5.36605,"is_reserved":false,"is_disabled":false,"rental_uris":{"android":"levelo://app?vid=822e52a0-bbe4-4007-a8c5-6bf00c8f3eff","ios":"levelo://app?vid=822e52a0-bbe4-4007-a8c5-6bf00c8f3eff"},"vehicle_type_id":"4","last_reported":1749759107,"current_range_meters":10000,"station_id":"ce4bgrh2rcd13ifvqc8g","pricing_plan_id":"cebpf4jnsgd1na2vs0mg"},{"bike_id":"73f6caa4-7622-4165-bedd-7503a9fba542","system_id":"levelo_inurba_marseille","lat":43.29801,"lon":5.40398,"is_reserved":false,"is_disabled":false,"rental_uris":{"android":"levelo://app?vid=73f6caa4-7622-4165-bedd-7503a9fba542","ios":"levelo://app?vid=73f6caa4-7622-4165-bedd-7503a9fba542"},"vehicle_type_id":"4","last_reported":1749759107,"current_range_meters":10000,"station_id":"ce4bh112rcd13ifvqd90","pricing_plan_id":"cebpf4jnsgd1na2vs0mg"},{"bike_id":"737bf404-6486-46f6-a7af-76c3f8ace47d","system_id":"levelo_inurba_marseille","lat":43.28342,"lon":5.38101,"is_reserved":false,"is_disabled":false,"rental_uris":{"android":"levelo://app?vid=737bf404-6486-46f6-a7af-76c3f8ace47d","ios":"levelo://app?vid=737bf404-6486-46f6-a7af-76c3f8ace47d"},"vehicle_type_id":"4","last_reported":1749759107,"current_range_meters":10000,"station_id":"ce4bh412rcd13ifvqdr0","pricing_plan_id":"cebpf4jnsgd1na2vs0mg"},{"bike_id":"680de6a0-642c-485b-8349-3bfed0ae404b","system_id":"levelo_inurba_marseille","lat":43.27828,"lon":5.39205,"is_reserved":false,"is_disabled":false,"rental_uris":{"android":"levelo://app?vid=680de6a0-642c-485b-8349-3bfed0ae404b","ios":"levelo://app?vid=680de6a0-642c-485b-8349-3bfed0ae404b"},"vehicle_type_id":"4","last_reported":1749759107,"current_range_meters":10000,"station_id":"ce4bhjp2rcd13ifvqga0","pricing_plan_id":"cebpf4jnsgd1na2vs0mg"},{"bike_id":"500320f2-e4bb-4906-a414-ca67470055ab","system_id":"levelo_inurba_marseille","lat":43.2564,"lon":5.38624,"is_reserved":false,"is_disabled":false,"rental_uris":{"android":"levelo://app?vid=500320f2-e4bb-4906-a414-ca67470055ab","ios":"levelo://app?vid=500320f2-e4bb-4906-a414-ca67470055ab"},"vehicle_type_id":"4","last_reported":1749759107,"current_range_meters":10800,"station_id":"","pricing_plan_id":"cebpf4jnsgd1na2vs0mg"},{"bike_id":"501fe5cc-ec9f-4031-8e12-9c9a87dfd25d","system_id":"levelo_inurba_marseille","lat":43.3178,"lon":5.40646,"is_reserved":false,"is_disabled":false,"rental_uris":{"android":"levelo://app?vid=501fe5cc-ec9f-4031-8e12-9c9a87dfd25d","ios":"levelo://app?vid=501fe5cc-ec9f-4031-8e12-9c9a87dfd25d"},"vehicle_type_id":"4","last_reported":1749759107,"current_range_meters":10800,"station_id":"","pricing_plan_id":"cebpf4jnsgd1na2vs0mg"},{"bike_id":"f1e56c07-52b8-4d05-b5ab-d5645af4a172","system_id":"levelo_inurba_marseille","lat":43.29308,"lon":5.37172,"is_reserved":false,"is_disabled":false,"rental_uris":{"android":"levelo://app?vid=f1e56c07-52b8-4d05-b5ab-d5645af4a172","ios":"levelo://app?vid=f1e56c07-52b8-4d05-b5ab-d5645af4a172"},"vehicle_type_id":"4","last_reported":1749759107,"current_range_meters":10800,"station_id":"ce4bgh92rcd13ifvqb40","pricing_plan_id":"cebpf4jnsgd1na2vs0mg"},{"bike_id":"f33059a4-b69e-4b6d-b02e-75377a3ffb07","system_id":"levelo_inurba_marseille","lat":43.29031,"lon":5.37558,"is_reserved":false,"is_disabled":false,"rental_uris":{"android":"levelo://app?vid=f33059a4-b69e-4b6d-b02e-75377a3ffb07","ios":"levelo://app?vid=f33059a4-b69e-4b6d-b02e-75377a3ffb07"},"vehicle_type_id":"4","last_reported":1749759107,"current_range_meters":10800,"station_id":"ce4bh692rcd13ifvqe90","pricing_plan_id":"cebpf4jnsgd1na2vs0mg"},{"bike_id":"a312c383-e5ec-4430-8ceb-f3b84035f698","system_id":"levelo_inurba_marseille","lat":43.28468,"lon":5.35899,"is_reserved":false,"is_disabled":false,"rental_uris":{"android":"levelo://app?vid=a312c383-e5ec-4430-8ceb-f3b84035f698","ios":"levelo://app?vid=a312c383-e5ec-4430-8ceb-f3b84035f698"},"vehicle_type_id":"4","last_reported":1749759107,"current_range_meters":10800,"station_id":"ce4bhah2rcd13ifvqei0","pricing_plan_id":"cebpf4jnsgd1na2vs0mg"},{"bike_id":"a3546dd7-67cb-4959-bbd5-06d4906941c3","system_id":"levelo_inurba_marseille","lat":43.29224,"lon":5.36068,"is_reserved":false,"is_disabled":false,"rental_uris":{"android":"levelo://app?vid=a3546dd7-67cb-4959-bbd5-06d4906941c3","ios":"levelo://app?vid=a3546dd7-67cb-4959-bbd5-06d4906941c3"},"vehicle_type_id":"4","last_reported":1749759107,"current_range_meters":10800,"station_id":"ce4bhbh2rcd13ifvqeqg","pricing_plan_id":"cebpf4jnsgd1na2vs0mg"},{"bike_id":"591adc0a-d672-42ad-b6ee-b90fed42abf3","system_id":"levelo_inurba_marseille","lat":43.2512,"lon":5.4033,"is_reserved":false,"is_disabled":false,"rental_uris":{"android":"levelo://app?vid=591adc0a-d672-42ad-b6ee-b90fed42abf3","ios":"levelo://app?vid=591adc0a-d672-42ad-b6ee-b90fed42abf3"},"vehicle_type_id":"4","last_reported":1749759107,"current_range_meters":10800,"station_id":"ce4bhlh2rcd13ifvqgig","pricing_plan_id":"cebpf4jnsgd1na2vs0mg"},{"bike_id":"292c8c32-2af2-446a-b403-7f3a0877e2fa","system_id":"levelo_inurba_marseille","lat":43.29273,"lon":5.3844,"is_reserved":false,"is_disabled":false,"rental_uris":{"android":"levelo://app?vid=292c8c32-2af2-446a-b403-7f3a0877e2fa","ios":"levelo://app?vid=292c8c32-2af2-446a-b403-7f3a0877e2fa"},"vehicle_type_id":"4","last_reported":1749759107,"current_range_meters":11200,"station_id":"ce4bh692rcd13ifvqea0","pricing_plan_id":"cebpf4jnsgd1na2vs0mg"},{"bike_id":"ce599661-b917-43fc-88bc-2c84e8a3aa11","system_id":"levelo_inurba_marseille","lat":43.29201,"lon":5.36082,"is_reserved":false,"is_disabled":false,"rental_uris":{"android":"levelo://app?vid=ce599661-b917-43fc-88bc-2c84e8a3aa11","ios":"levelo://app?vid=ce599661-b917-43fc-88bc-2c84e8a3aa11"},"vehicle_type_id":"4","last_reported":1749759107,"current_range_meters":11200,"station_id":"ce4bhbh2rcd13ifvqeqg","pricing_plan_id":"cebpf4jnsgd1na2vs0mg"},{"bike_id":"97421c04-2630-4fc1-9da9-b17d88602c5f","system_id":"levelo_inurba_marseille","lat":43.337687,"lon":5.37437,"is_reserved":false,"is_disabled":false,"rental_uris":{"android":"levelo://app?vid=97421c04-2630-4fc1-9da9-b17d88602c5f","ios":"levelo://app?vid=97421c04-2630-4fc1-9da9-b17d88602c5f"},"vehicle_type_id":"4","last_reported":1749759107,"current_range_meters":11600,"station_id":"","pricing_plan_id":"cebpf4jnsgd1na2vs0mg"},{"bike_id":"ee050184-0220-42a8-8c16-af56c478a845","system_id":"levelo_inurba_marseille","lat":43.29539,"lon":5.38538,"is_reserved":false,"is_disabled":false,"rental_uris":{"android":"levelo://app?vid=ee050184-0220-42a8-8c16-af56c478a845","ios":"levelo://app?vid=ee050184-0220-42a8-8c16-af56c478a845"},"vehicle_type_id":"4","last_reported":1749759107,"current_range_meters":11600,"station_id":"ce4bgih2rcd13ifvqba0","pricing_plan_id":"cebpf4jnsgd1na2vs0mg"},{"bike_id":"8260bd26-766e-4c32-9ea2-ef8811e324d2","system_id":"levelo_inurba_marseille","lat":43.2885,"lon":5.3931,"is_reserved":false,"is_disabled":false,"rental_uris":{"android":"levelo://app?vid=8260bd26-766e-4c32-9ea2-ef8811e324d2","ios":"levelo://app?vid=8260bd26-766e-4c32-9ea2-ef8811e324d2"},"vehicle_type_id":"4","last_reported":1749759107,"current_range_meters":11600,"station_id":"ce4bh2p2rcd13ifvqdi0","pricing_plan_id":"cebpf4jnsgd1na2vs0mg"},{"bike_id":"70546086-ba4e-41f2-b47d-cf6da2cb1120","system_id":"levelo_inurba_marseille","lat":43.29261,"lon":5.38441,"is_reserved":false,"is_disabled":false,"rental_uris":{"android":"levelo://app?vid=70546086-ba4e-41f2-b47d-cf6da2cb1120","ios":"levelo://app?vid=70546086-ba4e-41f2-b47d-cf6da2cb1120"},"vehicle_type_id":"4","last_reported":1749759107,"current_range_meters":11600,"station_id":"ce4bh692rcd13ifvqea0","pricing_plan_id":"cebpf4jnsgd1na2vs0mg"},{"bike_id":"bbfe53f6-0e76-4f8d-a0e5-c4f4a7102c7d","system_id":"levelo_inurba_marseille","lat":43.24188,"lon":5.3973,"is_reserved":false,"is_disabled":false,"rental_uris":{"android":"levelo://app?vid=bbfe53f6-0e76-4f8d-a0e5-c4f4a7102c7d","ios":"levelo://app?vid=bbfe53f6-0e76-4f8d-a0e5-c4f4a7102c7d"},"vehicle_type_id":"4","last_reported":1749759107,"current_range_meters":11600,"station_id":"ce4bhn12rcd13ifvqgpg","pricing_plan_id":"cebpf4jnsgd1na2vs0mg"},{"bike_id":"040bd027-fa7d-42c9-807f-e534b24621e0","system_id":"levelo_inurba_marseille","lat":43.32352,"lon":5.40615,"is_reserved":false,"is_disabled":false,"rental_uris":{"android":"levelo://app?vid=040bd027-fa7d-42c9-807f-e534b24621e0","ios":"levelo://app?vid=040bd027-fa7d-42c9-807f-e534b24621e0"},"vehicle_type_id":"4","last_reported":1749759107,"current_range_meters":11600,"station_id":"ce4bhq92rcd13ifvqhjg","pricing_plan_id":"cebpf4jnsgd1na2vs0mg"},{"bike_id":"8d60347d-541c-40fb-90ca-203bf6bd520a","system_id":"levelo_inurba_marseille","lat":43.27129,"lon":5.36397,"is_reserved":false,"is_disabled":false,"rental_uris":{"android":"levelo://app?vid=8d60347d-541c-40fb-90ca-203bf6bd520a","ios":"levelo://app?vid=8d60347d-541c-40fb-90ca-203bf6bd520a"},"vehicle_type_id":"4","last_reported":1749759107,"current_range_meters":12000,"station_id":"","pricing_plan_id":"cebpf4jnsgd1na2vs0mg"},{"bike_id":"44538e2f-943c-4b31-8383-a380b1aa7857","system_id":"levelo_inurba_marseille","lat":43.29537,"lon":5.37504,"is_reserved":false,"is_disabled":false,"rental_uris":{"android":"levelo://app?vid=44538e2f-943c-4b31-8383-a380b1aa7857","ios":"levelo://app?vid=44538e2f-943c-4b31-8383-a380b1aa7857"},"vehicle_type_id":"4","last_reported":1749759107,"current_range_meters":12000,"station_id":"ce4bgkp2rcd13ifvqbmg","pricing_plan_id":"cebpf4jnsgd1na2vs0mg"},{"bike_id":"e0c3d771-6cca-4afc-a344-703674251dc2","system_id":"levelo_inurba_marseille","lat":43.31694,"lon":5.40476,"is_reserved":false,"is_disabled":false,"rental_uris":{"android":"levelo://app?vid=e0c3d771-6cca-4afc-a344-703674251dc2","ios":"levelo://app?vid=e0c3d771-6cca-4afc-a344-703674251dc2"},"vehicle_type_id":"4","last_reported":1749759107,"current_range_meters":12000,"station_id":"ce4bh012rcd13ifvqd00","pricing_plan_id":"cebpf4jnsgd1na2vs0mg"},{"bike_id":"b9976ba6-16e5-4fca-8a0c-40eee7440a39","system_id":"levelo_inurba_marseille","lat":43.28946,"lon":5.364,"is_reserved":false,"is_disabled":false,"rental_uris":{"android":"levelo://app?vid=b9976ba6-16e5-4fca-8a0c-40eee7440a39","ios":"levelo://app?vid=b9976ba6-16e5-4fca-8a0c-40eee7440a39"},"vehicle_type_id":"4","last_reported":1749759107,"current_range_meters":12000,"station_id":"ce4bhc92rcd13ifvqetg","pricing_plan_id":"cebpf4jnsgd1na2vs0mg"},{"bike_id":"4f5d4f7f-82eb-4b6d-a9fa-d9a19a3749ec","system_id":"levelo_inurba_marseille","lat":43.262,"lon":5.37453,"is_reserved":false,"is_disabled":false,"rental_uris":{"android":"levelo://app?vid=4f5d4f7f-82eb-4b6d-a9fa-d9a19a3749ec","ios":"levelo://app?vid=4f5d4f7f-82eb-4b6d-a9fa-d9a19a3749ec"},"vehicle_type_id":"4","last_reported":1749759107,"current_range_meters":12000,"station_id":"ce4bhgp2rcd13ifvqfc0","pricing_plan_id":"cebpf4jnsgd1na2vs0mg"},{"bike_id":"ae6f4f8e-e109-4f06-8e1d-b876f3a0edae","system_id":"levelo_inurba_marseille","lat":43.29532,"lon":5.38542,"is_reserved":false,"is_disabled":false,"rental_uris":{"android":"levelo://app?vid=ae6f4f8e-e109-4f06-8e1d-b876f3a0edae","ios":"levelo://app?vid=ae6f4f8e-e109-4f06-8e1d-b876f3a0edae"},"vehicle_type_id":"4","last_reported":1749759107,"current_range_meters":12400,"station_id":"ce4bgih2rcd13ifvqba0","pricing_plan_id":"cebpf4jnsgd1na2vs0mg"},{"bike_id":"aa15e3ea-1472-4d8a-b406-5ecf63f6723e","system_id":"levelo_inurba_marseille","lat":43.29605,"lon":5.38095,"is_reserved":false,"is_disabled":false,"rental_uris":{"android":"levelo://app?vid=aa15e3ea-1472-4d8a-b406-5ecf63f6723e","ios":"levelo://app?vid=aa15e3ea-1472-4d8a-b406-5ecf63f6723e"},"vehicle_type_id":"4","last_reported":1749759107,"current_range_meters":12400,"station_id":"ce4bgl12rcd13ifvqbo0","pricing_plan_id":"cebpf4jnsgd1na2vs0mg"},{"bike_id":"7deb89be-b397-4671-97ae-b5c430e1002c","system_id":"levelo_inurba_marseille","lat":43.31173,"lon":5.38725,"is_reserved":false,"is_disabled":false,"rental_uris":{"android":"levelo://app?vid=7deb89be-b397-4671-97ae-b5c430e1002c","ios":"levelo://app?vid=7deb89be-b397-4671-97ae-b5c430e1002c"},"vehicle_type_id":"4","last_reported":1749759107,"current_range_meters":12400,"station_id":"ce4bgv12rcd13ifvqcp0","pricing_plan_id":"cebpf4jnsgd1na2vs0mg"},{"bike_id":"4bf5fabf-7315-4951-8dd2-61f9f5660907","system_id":"levelo_inurba_marseille","lat":43.302627,"lon":5.400848,"is_reserved":false,"is_disabled":false,"rental_uris":{"android":"levelo://app?vid=4bf5fabf-7315-4951-8dd2-61f9f5660907","ios":"levelo://app?vid=4bf5fabf-7315-4951-8dd2-61f9f5660907"},"vehicle_type_id":"4","last_reported":1749759107,"current_range_meters":12400,"station_id":"ce4bgvh2rcd13ifvqcs0","pricing_plan_id":"cebpf4jnsgd1na2vs0mg"},{"bike_id":"812a7d1f-fdb4-4f0d-83d5-abeb697c7fd2","system_id":"levelo_inurba_marseille","lat":43.30884,"lon":5.39631,"is_reserved":false,"is_disabled":false,"rental_uris":{"android":"levelo://app?vid=812a7d1f-fdb4-4f0d-83d5-abeb697c7fd2","ios":"levelo://app?vid=812a7d1f-fdb4-4f0d-83d5-abeb697c7fd2"},"vehicle_type_id":"4","last_reported":1749759107,"current_range_meters":12400,"station_id":"ce4bh012rcd13ifvqcv0","pricing_plan_id":"cebpf4jnsgd1na2vs0mg"},{"bike_id":"c7d7a8c4-175e-447d-bca4-253f4209f18a","system_id":"levelo_inurba_marseille","lat":43.29027,"lon":5.38647,"is_reserved":false,"is_disabled":false,"rental_uris":{"android":"levelo://app?vid=c7d7a8c4-175e-447d-bca4-253f4209f18a","ios":"levelo://app?vid=c7d7a8c4-175e-447d-bca4-253f4209f18a"},"vehicle_type_id":"4","last_reported":1749759107,"current_range_meters":12400,"station_id":"ce4bh4p2rcd13ifvqe0g","pricing_plan_id":"cebpf4jnsgd1na2vs0mg"},{"bike_id":"7a536e2a-99dd-406f-bd2b-c0922df6e732","system_id":"levelo_inurba_marseille","lat":43.29022,"lon":5.38136,"is_reserved":false,"is_disabled":false,"rental_uris":{"android":"levelo://app?vid=7a536e2a-99dd-406f-bd2b-c0922df6e732","ios":"levelo://app?vid=7a536e2a-99dd-406f-bd2b-c0922df6e732"},"vehicle_type_id":"4","last_reported":1749759107,"current_range_meters":12400,"station_id":"ce4bh4p2rcd13ifvqe1g","pricing_plan_id":"cebpf4jnsgd1na2vs0mg"},{"bike_id":"5ccde6fa-e988-44d4-8c54-3536d97da616","system_id":"levelo_inurba_marseille","lat":43.29278,"lon":5.38433,"is_reserved":false,"is_disabled":false,"rental_uris":{"android":"levelo://app?vid=5ccde6fa-e988-44d4-8c54-3536d97da616","ios":"levelo://app?vid=5ccde6fa-e988-44d4-8c54-3536d97da616"},"vehicle_type_id":"4","last_reported":1749759107,"current_range_meters":12400,"station_id":"ce4bh692rcd13ifvqea0","pricing_plan_id":"cebpf4jnsgd1na2vs0mg"},{"bike_id":"075ad5b3-1645-4567-8339-eb3b8886e4c4","system_id":"levelo_inurba_marseille","lat":43.28665,"lon":5.36353,"is_reserved":false,"is_disabled":false,"rental_uris":{"android":"levelo://app?vid=075ad5b3-1645-4567-8339-eb3b8886e4c4","ios":"levelo://app?vid=075ad5b3-1645-4567-8339-eb3b8886e4c4"},"vehicle_type_id":"4","last_reported":1749759107,"current_range_meters":12400,"station_id":"ce4bhah2rcd13ifvqej0","pricing_plan_id":"cebpf4jnsgd1na2vs0mg"},{"bike_id":"79abdf50-6e10-46c7-bacb-4818247a47bf","system_id":"levelo_inurba_marseille","lat":43.28855,"lon":5.35838,"is_reserved":false,"is_disabled":false,"rental_uris":{"android":"levelo://app?vid=79abdf50-6e10-46c7-bacb-4818247a47bf","ios":"levelo://app?vid=79abdf50-6e10-46c7-bacb-4818247a47bf"},"vehicle_type_id":"4","last_reported":1749759107,"current_range_meters":12400,"station_id":"ce4bhb12rcd13ifvqem0","pricing_plan_id":"cebpf4jnsgd1na2vs0mg"},{"bike_id":"3b4afae8-f078-4dc3-a2fa-4eb3ce6fc41a","system_id":"levelo_inurba_marseille","lat":43.26553,"lon":5.37287,"is_reserved":false,"is_disabled":false,"rental_uris":{"android":"levelo://app?vid=3b4afae8-f078-4dc3-a2fa-4eb3ce6fc41a","ios":"levelo://app?vid=3b4afae8-f078-4dc3-a2fa-4eb3ce6fc41a"},"vehicle_type_id":"4","last_reported":1749759107,"current_range_meters":12400,"station_id":"ce4bhg12rcd13ifvqf70","pricing_plan_id":"cebpf4jnsgd1na2vs0mg"},{"bike_id":"05bcb17b-86b0-4b9e-a175-1f6ff0e886dc","system_id":"levelo_inurba_marseille","lat":43.26064,"lon":5.39398,"is_reserved":false,"is_disabled":false,"rental_uris":{"android":"levelo://app?vid=05bcb17b-86b0-4b9e-a175-1f6ff0e886dc","ios":"levelo://app?vid=05bcb17b-86b0-4b9e-a175-1f6ff0e886dc"},"vehicle_type_id":"4","last_reported":1749759107,"current_range_meters":12400,"station_id":"ce4bhh92rcd13ifvqfj0","pricing_plan_id":"cebpf4jnsgd1na2vs0mg"},{"bike_id":"297dff13-ffea-4a49-a59a-d8bec270441e","system_id":"levelo_inurba_marseille","lat":43.28153,"lon":5.426385,"is_reserved":false,"is_disabled":false,"rental_uris":{"android":"levelo://app?vid=297dff13-ffea-4a49-a59a-d8bec270441e","ios":"levelo://app?vid=297dff13-ffea-4a49-a59a-d8bec270441e"},"vehicle_type_id":"4","last_reported":1749759107,"current_range_meters":12400,"station_id":"ce4bhnh2rcd13ifvqgug","pricing_plan_id":"cebpf4jnsgd1na2vs0mg"},{"bike_id":"abd0d78f-a5d4-4339-93f7-6b3fc51d77c5","system_id":"levelo_inurba_marseille","lat":43.36626,"lon":5.35554,"is_reserved":false,"is_disabled":false,"rental_uris":{"android":"levelo://app?vid=abd0d78f-a5d4-4339-93f7-6b3fc51d77c5","ios":"levelo://app?vid=abd0d78f-a5d4-4339-93f7-6b3fc51d77c5"},"vehicle_type_id":"4","last_reported":1749759107,"current_range_meters":12800,"station_id":"","pricing_plan_id":"cebpf4jnsgd1na2vs0mg"},{"bike_id":"1268e070-f02d-4537-93df-0bfd5c4daa05","system_id":"levelo_inurba_marseille","lat":43.32711,"lon":5.37655,"is_reserved":false,"is_disabled":false,"rental_uris":{"android":"levelo://app?vid=1268e070-f02d-4537-93df-0bfd5c4daa05","ios":"levelo://app?vid=1268e070-f02d-4537-93df-0bfd5c4daa05"},"vehicle_type_id":"4","last_reported":1749759107,"current_range_meters":12800,"station_id":"","pricing_plan_id":"cebpf4jnsgd1na2vs0mg"},{"bike_id":"15284ff4-ce88-4a17-a687-f43278dc7eda","system_id":"levelo_inurba_marseille","lat":43.29541,"lon":5.38541,"is_reserved":false,"is_disabled":false,"rental_uris":{"android":"levelo://app?vid=15284ff4-ce88-4a17-a687-f43278dc7eda","ios":"levelo://app?vid=15284ff4-ce88-4a17-a687-f43278dc7eda"},"vehicle_type_id":"4","last_reported":1749759107,"current_range_meters":12800,"station_id":"ce4bgih2rcd13ifvqba0","pricing_plan_id":"cebpf4jnsgd1na2vs0mg"},{"bike_id":"af5fdbde-261b-4294-bc62-34f559defe49","system_id":"levelo_inurba_marseille","lat":43.33591,"lon":5.41003,"is_reserved":false,"is_disabled":false,"rental_uris":{"android":"levelo://app?vid=af5fdbde-261b-4294-bc62-34f559defe49","ios":"levelo://app?vid=af5fdbde-261b-4294-bc62-34f559defe49"},"vehicle_type_id":"4","last_reported":1749759107,"current_range_meters":12800,"station_id":"ce4bhqh2rcd13ifvqhmg","pricing_plan_id":"cebpf4jnsgd1na2vs0mg"},{"bike_id":"2bcbef13-a603-4ae9-8cf8-218fb0233a1f","system_id":"levelo_inurba_marseille","lat":43.29637,"lon":5.387,"is_reserved":false,"is_disabled":false,"rental_uris":{"android":"levelo://app?vid=2bcbef13-a603-4ae9-8cf8-218fb0233a1f","ios":"levelo://app?vid=2bcbef13-a603-4ae9-8cf8-218fb0233a1f"},"vehicle_type_id":"4","last_reported":1749759107,"current_range_meters":13600,"station_id":"","pricing_plan_id":"cebpf4jnsgd1na2vs0mg"},{"bike_id":"83ad8241-60c4-42de-b76a-fbfc2eb5a88b","system_id":"levelo_inurba_marseille","lat":43.298792,"lon":5.36435,"is_reserved":false,"is_disabled":false,"rental_uris":{"android":"levelo://app?vid=83ad8241-60c4-42de-b76a-fbfc2eb5a88b","ios":"levelo://app?vid=83ad8241-60c4-42de-b76a-fbfc2eb5a88b"},"vehicle_type_id":"4","last_reported":1749759107,"current_range_meters":13600,"station_id":"","pricing_plan_id":"cebpf4jnsgd1na2vs0mg"},{"bike_id":"6e464720-93b0-4699-80fe-881649eb71cd","system_id":"levelo_inurba_marseille","lat":43.232704,"lon":5.355869,"is_reserved":false,"is_disabled":false,"rental_uris":{"android":"levelo://app?vid=6e464720-93b0-4699-80fe-881649eb71cd","ios":"levelo://app?vid=6e464720-93b0-4699-80fe-881649eb71cd"},"vehicle_type_id":"4","last_reported":1749759107,"current_range_meters":13600,"station_id":"","pricing_plan_id":"cebpf4jnsgd1na2vs0mg"},{"bike_id":"e5ef7447-82af-477b-846f-d44631249354","system_id":"levelo_inurba_marseille","lat":43.324803,"lon":5.388233,"is_reserved":false,"is_disabled":false,"rental_uris":{"android":"levelo://app?vid=e5ef7447-82af-477b-846f-d44631249354","ios":"levelo://app?vid=e5ef7447-82af-477b-846f-d44631249354"},"vehicle_type_id":"4","last_reported":1749759107,"current_range_meters":13600,"station_id":"","pricing_plan_id":"cebpf4jnsgd1na2vs0mg"},{"bike_id":"bfcbdb30-f9ac-46b6-9a81-cfbf7f0884d2","system_id":"levelo_inurba_marseille","lat":43.3014,"lon":5.38784,"is_reserved":false,"is_disabled":false,"rental_uris":{"android":"levelo://app?vid=bfcbdb30-f9ac-46b6-9a81-cfbf7f0884d2","ios":"levelo://app?vid=bfcbdb30-f9ac-46b6-9a81-cfbf7f0884d2"},"vehicle_type_id":"4","last_reported":1749759107,"current_range_meters":13600,"station_id":"ce4bghh2rcd13ifvqb60","pricing_plan_id":"cebpf4jnsgd1na2vs0mg"},{"bike_id":"9f90a87d-1238-4eb8-aa94-0ecc62cf4a40","system_id":"levelo_inurba_marseille","lat":43.29525,"lon":5.38542,"is_reserved":false,"is_disabled":false,"rental_uris":{"android":"levelo://app?vid=9f90a87d-1238-4eb8-aa94-0ecc62cf4a40","ios":"levelo://app?vid=9f90a87d-1238-4eb8-aa94-0ecc62cf4a40"},"vehicle_type_id":"4","last_reported":1749759107,"current_range_meters":13600,"station_id":"ce4bgih2rcd13ifvqba0","pricing_plan_id":"cebpf4jnsgd1na2vs0mg"},{"bike_id":"30e2f880-6424-46ab-9bdf-7748737ce05e","system_id":"levelo_inurba_marseille","lat":43.2978,"lon":5.3809,"is_reserved":false,"is_disabled":false,"rental_uris":{"android":"levelo://app?vid=30e2f880-6424-46ab-9bdf-7748737ce05e","ios":"levelo://app?vid=30e2f880-6424-46ab-9bdf-7748737ce05e"},"vehicle_type_id":"4","last_reported":1749759107,"current_range_meters":13600,"station_id":"ce4bgip2rcd13ifvqbb0","pricing_plan_id":"cebpf4jnsgd1na2vs0mg"},{"bike_id":"3662a17e-52f3-4178-98d2-45ee37c510cb","system_id":"levelo_inurba_marseille","lat":43.30949,"lon":5.39036,"is_reserved":false,"is_disabled":false,"rental_uris":{"android":"levelo://app?vid=3662a17e-52f3-4178-98d2-45ee37c510cb","ios":"levelo://app?vid=3662a17e-52f3-4178-98d2-45ee37c510cb"},"vehicle_type_id":"4","last_reported":1749759107,"current_range_meters":13600,"station_id":"ce4bgup2rcd13ifvqco0","pricing_plan_id":"cebpf4jnsgd1na2vs0mg"},{"bike_id":"3a10e1a5-9a95-408a-8475-eda475dfdb64","system_id":"levelo_inurba_marseille","lat":43.28701,"lon":5.37387,"is_reserved":false,"is_disabled":false,"rental_uris":{"android":"levelo://app?vid=3a10e1a5-9a95-408a-8475-eda475dfdb64","ios":"levelo://app?vid=3a10e1a5-9a95-408a-8475-eda475dfdb64"},"vehicle_type_id":"4","last_reported":1749759107,"current_range_meters":13600,"station_id":"ce4bh3p2rcd13ifvqdq0","pricing_plan_id":"cebpf4jnsgd1na2vs0mg"},{"bike_id":"e2d73edd-ab09-4323-8ecb-853ebc0a86d1","system_id":"levelo_inurba_marseille","lat":43.29269,"lon":5.38436,"is_reserved":false,"is_disabled":false,"rental_uris":{"android":"levelo://app?vid=e2d73edd-ab09-4323-8ecb-853ebc0a86d1","ios":"levelo://app?vid=e2d73edd-ab09-4323-8ecb-853ebc0a86d1"},"vehicle_type_id":"4","last_reported":1749759107,"current_range_meters":13600,"station_id":"ce4bh692rcd13ifvqea0","pricing_plan_id":"cebpf4jnsgd1na2vs0mg"},{"bike_id":"13854aae-692a-4482-9374-b05fbfd7fcb6","system_id":"levelo_inurba_marseille","lat":43.26935,"lon":5.38911,"is_reserved":false,"is_disabled":false,"rental_uris":{"android":"levelo://app?vid=13854aae-692a-4482-9374-b05fbfd7fcb6","ios":"levelo://app?vid=13854aae-692a-4482-9374-b05fbfd7fcb6"},"vehicle_type_id":"4","last_reported":1749759107,"current_range_meters":13600,"station_id":"ce4bhhh2rcd13ifvqfl0","pricing_plan_id":"cebpf4jnsgd1na2vs0mg"},{"bike_id":"522ca7cb-d915-4da2-b80c-0a1b365e7399","system_id":"levelo_inurba_marseille","lat":43.23198,"lon":5.35553,"is_reserved":false,"is_disabled":false,"rental_uris":{"android":"levelo://app?vid=522ca7cb-d915-4da2-b80c-0a1b365e7399","ios":"levelo://app?vid=522ca7cb-d915-4da2-b80c-0a1b365e7399"},"vehicle_type_id":"4","last_reported":1749759107,"current_range_meters":13600,"station_id":"ce4bhu92rcd13ifvqi70","pricing_plan_id":"cebpf4jnsgd1na2vs0mg"},{"bike_id":"059edbc4-e610-41eb-bb60-80e716055028","system_id":"levelo_inurba_marseille","lat":43.24168,"lon":5.36396,"is_reserved":false,"is_disabled":false,"rental_uris":{"android":"levelo://app?vid=059edbc4-e610-41eb-bb60-80e716055028","ios":"levelo://app?vid=059edbc4-e610-41eb-bb60-80e716055028"},"vehicle_type_id":"4","last_reported":1749759107,"current_range_meters":13600,"station_id":"cpo36qri1sfpv3e86is0","pricing_plan_id":"cebpf4jnsgd1na2vs0mg"},{"bike_id":"0fd2a8b3-45a1-4909-a7a5-195f9cdf2de3","system_id":"levelo_inurba_marseille","lat":43.30593,"lon":5.39359,"is_reserved":false,"is_disabled":false,"rental_uris":{"android":"levelo://app?vid=0fd2a8b3-45a1-4909-a7a5-195f9cdf2de3","ios":"levelo://app?vid=0fd2a8b3-45a1-4909-a7a5-195f9cdf2de3"},"vehicle_type_id":"4","last_reported":1749759107,"current_range_meters":14000,"station_id":"ce4bh0p2rcd13ifvqd80","pricing_plan_id":"cebpf4jnsgd1na2vs0mg"},{"bike_id":"1fbe2f05-d538-4f8c-9c9a-b3770d078200","system_id":"levelo_inurba_marseille","lat":43.28716,"lon":5.37938,"is_reserved":false,"is_disabled":false,"rental_uris":{"android":"levelo://app?vid=1fbe2f05-d538-4f8c-9c9a-b3770d078200","ios":"levelo://app?vid=1fbe2f05-d538-4f8c-9c9a-b3770d078200"},"vehicle_type_id":"4","last_reported":1749759107,"current_range_meters":14000,"station_id":"ce4bh9p2rcd13ifvqec0","pricing_plan_id":"cebpf4jnsgd1na2vs0mg"},{"bike_id":"01b42acd-eaf3-4d20-af71-0c67eed7eb9d","system_id":"levelo_inurba_marseille","lat":43.28866,"lon":5.35871,"is_reserved":false,"is_disabled":false,"rental_uris":{"android":"levelo://app?vid=01b42acd-eaf3-4d20-af71-0c67eed7eb9d","ios":"levelo://app?vid=01b42acd-eaf3-4d20-af71-0c67eed7eb9d"},"vehicle_type_id":"4","last_reported":1749759107,"current_range_meters":14000,"station_id":"ce4bhb12rcd13ifvqem0","pricing_plan_id":"cebpf4jnsgd1na2vs0mg"},{"bike_id":"f333da0e-50fd-499c-a139-78697c5b3bc4","system_id":"levelo_inurba_marseille","lat":43.25719,"lon":5.411146,"is_reserved":false,"is_disabled":false,"rental_uris":{"android":"levelo://app?vid=f333da0e-50fd-499c-a139-78697c5b3bc4","ios":"levelo://app?vid=f333da0e-50fd-499c-a139-78697c5b3bc4"},"vehicle_type_id":"4","last_reported":1749759107,"current_range_meters":14000,"station_id":"ce4bhkp2rcd13ifvqgd0","pricing_plan_id":"cebpf4jnsgd1na2vs0mg"},{"bike_id":"5c165908-908a-4264-98b6-c68c45e9cddd","system_id":"levelo_inurba_marseille","lat":43.28079,"lon":5.39667,"is_reserved":false,"is_disabled":false,"rental_uris":{"android":"levelo://app?vid=5c165908-908a-4264-98b6-c68c45e9cddd","ios":"levelo://app?vid=5c165908-908a-4264-98b6-c68c45e9cddd"},"vehicle_type_id":"4","last_reported":1749759107,"current_range_meters":14000,"station_id":"ce4bho12rcd13ifvqh2g","pricing_plan_id":"cebpf4jnsgd1na2vs0mg"},{"bike_id":"c2171501-2427-4b50-86ea-5d046d0abc84","system_id":"levelo_inurba_marseille","lat":43.29414,"lon":5.38625,"is_reserved":false,"is_disabled":false,"rental_uris":{"android":"levelo://app?vid=c2171501-2427-4b50-86ea-5d046d0abc84","ios":"levelo://app?vid=c2171501-2427-4b50-86ea-5d046d0abc84"},"vehicle_type_id":"4","last_reported":1749759107,"current_range_meters":14400,"station_id":"ce4bh2h2rcd13ifvqdh0","pricing_plan_id":"cebpf4jnsgd1na2vs0mg"},{"bike_id":"2b3487c0-6d03-4c54-801f-a27aa1820b7e","system_id":"levelo_inurba_marseille","lat":43.26559,"lon":5.37286,"is_reserved":false,"is_disabled":false,"rental_uris":{"android":"levelo://app?vid=2b3487c0-6d03-4c54-801f-a27aa1820b7e","ios":"levelo://app?vid=2b3487c0-6d03-4c54-801f-a27aa1820b7e"},"vehicle_type_id":"4","last_reported":1749759107,"current_range_meters":14800,"station_id":"ce4bhg12rcd13ifvqf70","pricing_plan_id":"cebpf4jnsgd1na2vs0mg"},{"bike_id":"7e5ccfc0-88b8-4248-9d6e-c317d1435257","system_id":"levelo_inurba_marseille","lat":43.27814,"lon":5.40708,"is_reserved":false,"is_disabled":false,"rental_uris":{"android":"levelo://app?vid=7e5ccfc0-88b8-4248-9d6e-c317d1435257","ios":"levelo://app?vid=7e5ccfc0-88b8-4248-9d6e-c317d1435257"},"vehicle_type_id":"4","last_reported":1749759107,"current_range_meters":14800,"station_id":"ce4bhnh2rcd13ifvqgtg","pricing_plan_id":"cebpf4jnsgd1na2vs0mg"},{"bike_id":"8cf4650b-bc59-44df-9b96-39bdf8d3fd37","system_id":"levelo_inurba_marseille","lat":43.31994,"lon":5.38143,"is_reserved":false,"is_disabled":false,"rental_uris":{"android":"levelo://app?vid=8cf4650b-bc59-44df-9b96-39bdf8d3fd37","ios":"levelo://app?vid=8cf4650b-bc59-44df-9b96-39bdf8d3fd37"},"vehicle_type_id":"4","last_reported":1749759107,"current_range_meters":14800,"station_id":"ce4bhr12rcd13ifvqhpg","pricing_plan_id":"cebpf4jnsgd1na2vs0mg"},{"bike_id":"78e4331f-c67f-4812-a1cf-4af0acc5e2d6","system_id":"levelo_inurba_marseille","lat":43.32375,"lon":5.367427,"is_reserved":false,"is_disabled":false,"rental_uris":{"android":"levelo://app?vid=78e4331f-c67f-4812-a1cf-4af0acc5e2d6","ios":"levelo://app?vid=78e4331f-c67f-4812-a1cf-4af0acc5e2d6"},"vehicle_type_id":"4","last_reported":1749759107,"current_range_meters":14800,"station_id":"ce4bhsh2rcd13ifvqi2g","pricing_plan_id":"cebpf4jnsgd1na2vs0mg"},{"bike_id":"c0bd4251-d527-48a7-9378-e4e80c1c274f","system_id":"levelo_inurba_marseille","lat":43.3187,"lon":5.37383,"is_reserved":false,"is_disabled":false,"rental_uris":{"android":"levelo://app?vid=c0bd4251-d527-48a7-9378-e4e80c1c274f","ios":"levelo://app?vid=c0bd4251-d527-48a7-9378-e4e80c1c274f"},"vehicle_type_id":"4","last_reported":1749759107,"current_range_meters":15200,"station_id":"","pricing_plan_id":"cebpf4jnsgd1na2vs0mg"},{"bike_id":"62c0da7f-aff9-4ffa-86b8-6966d8f0e555","system_id":"levelo_inurba_marseille","lat":43.211938,"lon":5.350721,"is_reserved":false,"is_disabled":false,"rental_uris":{"android":"levelo://app?vid=62c0da7f-aff9-4ffa-86b8-6966d8f0e555","ios":"levelo://app?vid=62c0da7f-aff9-4ffa-86b8-6966d8f0e555"},"vehicle_type_id":"4","last_reported":1749759107,"current_range_meters":15200,"station_id":"","pricing_plan_id":"cebpf4jnsgd1na2vs0mg"},{"bike_id":"5741638c-f076-45dc-ae4d-2a3c07d07312","system_id":"levelo_inurba_marseille","lat":43.29705,"lon":5.36599,"is_reserved":false,"is_disabled":false,"rental_uris":{"android":"levelo://app?vid=5741638c-f076-45dc-ae4d-2a3c07d07312","ios":"levelo://app?vid=5741638c-f076-45dc-ae4d-2a3c07d07312"},"vehicle_type_id":"4","last_reported":1749759107,"current_range_meters":15200,"station_id":"","pricing_plan_id":"cebpf4jnsgd1na2vs0mg"},{"bike_id":"80cbf186-06cf-42d6-8536-e3acdb1b3ed4","system_id":"levelo_inurba_marseille","lat":43.29068,"lon":5.37157,"is_reserved":false,"is_disabled":false,"rental_uris":{"android":"levelo://app?vid=80cbf186-06cf-42d6-8536-e3acdb1b3ed4","ios":"levelo://app?vid=80cbf186-06cf-42d6-8536-e3acdb1b3ed4"},"vehicle_type_id":"4","last_reported":1749759107,"current_range_meters":15200,"station_id":"ce4bh5p2rcd13ifvqe4g","pricing_plan_id":"cebpf4jnsgd1na2vs0mg"},{"bike_id":"bcc36335-30bf-427e-bc24-5acde7748b29","system_id":"levelo_inurba_marseille","lat":43.28942,"lon":5.36624,"is_reserved":false,"is_disabled":false,"rental_uris":{"android":"levelo://app?vid=bcc36335-30bf-427e-bc24-5acde7748b29","ios":"levelo://app?vid=bcc36335-30bf-427e-bc24-5acde7748b29"},"vehicle_type_id":"4","last_reported":1749759107,"current_range_meters":15200,"station_id":"ce4bhap2rcd13ifvqek0","pricing_plan_id":"cebpf4jnsgd1na2vs0mg"},{"bike_id":"566c7291-85cb-414c-ace7-f588a8181d84","system_id":"levelo_inurba_marseille","lat":43.2406,"lon":5.37752,"is_reserved":false,"is_disabled":false,"rental_uris":{"android":"levelo://app?vid=566c7291-85cb-414c-ace7-f588a8181d84","ios":"levelo://app?vid=566c7291-85cb-414c-ace7-f588a8181d84"},"vehicle_type_id":"4","last_reported":1749759107,"current_range_meters":15200,"station_id":"ce4bhnp2rcd13ifvqgvg","pricing_plan_id":"cebpf4jnsgd1na2vs0mg"},{"bike_id":"41902e46-3363-402b-89a9-77321257c96b","system_id":"levelo_inurba_marseille","lat":43.32356,"lon":5.36721,"is_reserved":false,"is_disabled":false,"rental_uris":{"android":"levelo://app?vid=41902e46-3363-402b-89a9-77321257c96b","ios":"levelo://app?vid=41902e46-3363-402b-89a9-77321257c96b"},"vehicle_type_id":"4","last_reported":1749759107,"current_range_meters":15200,"station_id":"ce4bhsh2rcd13ifvqi2g","pricing_plan_id":"cebpf4jnsgd1na2vs0mg"},{"bike_id":"346f3f80-6b15-4406-b905-bb78596f5bac","system_id":"levelo_inurba_marseille","lat":43.32375,"lon":5.3676,"is_reserved":false,"is_disabled":false,"rental_uris":{"android":"levelo://app?vid=346f3f80-6b15-4406-b905-bb78596f5bac","ios":"levelo://app?vid=346f3f80-6b15-4406-b905-bb78596f5bac"},"vehicle_type_id":"4","last_reported":1749759107,"current_range_meters":15200,"station_id":"ce4bhsh2rcd13ifvqi2g","pricing_plan_id":"cebpf4jnsgd1na2vs0mg"},{"bike_id":"e0b035df-615f-4bab-9596-39da68e53fd2","system_id":"levelo_inurba_marseille","lat":43.26183,"lon":5.42072,"is_reserved":false,"is_disabled":false,"rental_uris":{"android":"levelo://app?vid=e0b035df-615f-4bab-9596-39da68e53fd2","ios":"levelo://app?vid=e0b035df-615f-4bab-9596-39da68e53fd2"},"vehicle_type_id":"4","last_reported":1749759107,"current_range_meters":16000,"station_id":"","pricing_plan_id":"cebpf4jnsgd1na2vs0mg"},{"bike_id":"25c21661-3e60-4b25-9764-5e44dcc6cef1","system_id":"levelo_inurba_marseille","lat":43.29426,"lon":5.38624,"is_reserved":false,"is_disabled":false,"rental_uris":{"android":"levelo://app?vid=25c21661-3e60-4b25-9764-5e44dcc6cef1","ios":"levelo://app?vid=25c21661-3e60-4b25-9764-5e44dcc6cef1"},"vehicle_type_id":"4","last_reported":1749759107,"current_range_meters":16000,"station_id":"ce4bh2h2rcd13ifvqdh0","pricing_plan_id":"cebpf4jnsgd1na2vs0mg"},{"bike_id":"cf11042a-9112-4c8e-9735-87ee1743f3d3","system_id":"levelo_inurba_marseille","lat":43.27843,"lon":5.3921,"is_reserved":false,"is_disabled":false,"rental_uris":{"android":"levelo://app?vid=cf11042a-9112-4c8e-9735-87ee1743f3d3","ios":"levelo://app?vid=cf11042a-9112-4c8e-9735-87ee1743f3d3"},"vehicle_type_id":"4","last_reported":1749759107,"current_range_meters":16000,"station_id":"ce4bhjp2rcd13ifvqga0","pricing_plan_id":"cebpf4jnsgd1na2vs0mg"},{"bike_id":"de1186ff-a9c5-4109-b90c-6ffd77d1b169","system_id":"levelo_inurba_marseille","lat":43.30731,"lon":5.4245,"is_reserved":false,"is_disabled":false,"rental_uris":{"android":"levelo://app?vid=de1186ff-a9c5-4109-b90c-6ffd77d1b169","ios":"levelo://app?vid=de1186ff-a9c5-4109-b90c-6ffd77d1b169"},"vehicle_type_id":"4","last_reported":1749759107,"current_range_meters":16000,"station_id":"st_cvj6ca6bvosntc0bfgr0","pricing_plan_id":"cebpf4jnsgd1na2vs0mg"},{"bike_id":"600da287-0374-4ee0-bea4-ba6902340b5e","system_id":"levelo_inurba_marseille","lat":43.27474,"lon":5.36005,"is_reserved":false,"is_disabled":false,"rental_uris":{"android":"levelo://app?vid=600da287-0374-4ee0-bea4-ba6902340b5e","ios":"levelo://app?vid=600da287-0374-4ee0-bea4-ba6902340b5e"},"vehicle_type_id":"4","last_reported":1749759107,"current_range_meters":16400,"station_id":"","pricing_plan_id":"cebpf4jnsgd1na2vs0mg"},{"bike_id":"66209e3e-3f6c-4ab4-9316-864c06dd9c63","system_id":"levelo_inurba_marseille","lat":43.29206,"lon":5.3827,"is_reserved":false,"is_disabled":false,"rental_uris":{"android":"levelo://app?vid=66209e3e-3f6c-4ab4-9316-864c06dd9c63","ios":"levelo://app?vid=66209e3e-3f6c-4ab4-9316-864c06dd9c63"},"vehicle_type_id":"4","last_reported":1749759107,"current_range_meters":16400,"station_id":"","pricing_plan_id":"cebpf4jnsgd1na2vs0mg"},{"bike_id":"0e496414-0a37-42cd-a276-30509f7961c2","system_id":"levelo_inurba_marseille","lat":43.29464,"lon":5.386543,"is_reserved":false,"is_disabled":false,"rental_uris":{"android":"levelo://app?vid=0e496414-0a37-42cd-a276-30509f7961c2","ios":"levelo://app?vid=0e496414-0a37-42cd-a276-30509f7961c2"},"vehicle_type_id":"4","last_reported":1749759107,"current_range_meters":16400,"station_id":"","pricing_plan_id":"cebpf4jnsgd1na2vs0mg"},{"bike_id":"f979f8c5-2f58-4571-b086-8b1beef1e214","system_id":"levelo_inurba_marseille","lat":43.29586,"lon":5.38114,"is_reserved":false,"is_disabled":false,"rental_uris":{"android":"levelo://app?vid=f979f8c5-2f58-4571-b086-8b1beef1e214","ios":"levelo://app?vid=f979f8c5-2f58-4571-b086-8b1beef1e214"},"vehicle_type_id":"4","last_reported":1749759107,"current_range_meters":16400,"station_id":"ce4bgl12rcd13ifvqbo0","pricing_plan_id":"cebpf4jnsgd1na2vs0mg"},{"bike_id":"b09c5743-ef93-43e1-bf67-94b8f1293da4","system_id":"levelo_inurba_marseille","lat":43.29209,"lon":5.39325,"is_reserved":false,"is_disabled":false,"rental_uris":{"android":"levelo://app?vid=b09c5743-ef93-43e1-bf67-94b8f1293da4","ios":"levelo://app?vid=b09c5743-ef93-43e1-bf67-94b8f1293da4"},"vehicle_type_id":"4","last_reported":1749759107,"current_range_meters":16400,"station_id":"ce4bh192rcd13ifvqdd0","pricing_plan_id":"cebpf4jnsgd1na2vs0mg"},{"bike_id":"3182494d-6536-4d99-9dc5-4847a91482ec","system_id":"levelo_inurba_marseille","lat":43.29528,"lon":5.39053,"is_reserved":false,"is_disabled":false,"rental_uris":{"android":"levelo://app?vid=3182494d-6536-4d99-9dc5-4847a91482ec","ios":"levelo://app?vid=3182494d-6536-4d99-9dc5-4847a91482ec"},"vehicle_type_id":"4","last_reported":1749759107,"current_range_meters":16400,"station_id":"ce4bh3p2rcd13ifvqdp0","pricing_plan_id":"cebpf4jnsgd1na2vs0mg"},{"bike_id":"6c80c3da-e113-4651-8579-ae4d211fc1f3","system_id":"levelo_inurba_marseille","lat":43.29262,"lon":5.3844,"is_reserved":false,"is_disabled":false,"rental_uris":{"android":"levelo://app?vid=6c80c3da-e113-4651-8579-ae4d211fc1f3","ios":"levelo://app?vid=6c80c3da-e113-4651-8579-ae4d211fc1f3"},"vehicle_type_id":"4","last_reported":1749759107,"current_range_meters":16400,"station_id":"ce4bh692rcd13ifvqea0","pricing_plan_id":"cebpf4jnsgd1na2vs0mg"},{"bike_id":"4025683b-34de-4b03-81b1-a48a79f14040","system_id":"levelo_inurba_marseille","lat":43.28877,"lon":5.35841,"is_reserved":false,"is_disabled":false,"rental_uris":{"android":"levelo://app?vid=4025683b-34de-4b03-81b1-a48a79f14040","ios":"levelo://app?vid=4025683b-34de-4b03-81b1-a48a79f14040"},"vehicle_type_id":"4","last_reported":1749759107,"current_range_meters":16400,"station_id":"ce4bhb12rcd13ifvqem0","pricing_plan_id":"cebpf4jnsgd1na2vs0mg"},{"bike_id":"dc8d791b-973d-4f6b-9b6b-43529331e2de","system_id":"levelo_inurba_marseille","lat":43.265607,"lon":5.372826,"is_reserved":false,"is_disabled":false,"rental_uris":{"android":"levelo://app?vid=dc8d791b-973d-4f6b-9b6b-43529331e2de","ios":"levelo://app?vid=dc8d791b-973d-4f6b-9b6b-43529331e2de"},"vehicle_type_id":"4","last_reported":1749759107,"current_range_meters":16400,"station_id":"ce4bhg12rcd13ifvqf70","pricing_plan_id":"cebpf4jnsgd1na2vs0mg"},{"bike_id":"ddd24836-fee7-4433-9c37-e123706c0a54","system_id":"levelo_inurba_marseille","lat":43.30753,"lon":5.37375,"is_reserved":false,"is_disabled":false,"rental_uris":{"android":"levelo://app?vid=ddd24836-fee7-4433-9c37-e123706c0a54","ios":"levelo://app?vid=ddd24836-fee7-4433-9c37-e123706c0a54"},"vehicle_type_id":"4","last_reported":1749759107,"current_range_meters":16800,"station_id":"","pricing_plan_id":"cebpf4jnsgd1na2vs0mg"},{"bike_id":"6facbc0d-f1b5-4dc3-86d4-5c1204834925","system_id":"levelo_inurba_marseille","lat":43.280474,"lon":5.348129,"is_reserved":false,"is_disabled":false,"rental_uris":{"android":"levelo://app?vid=6facbc0d-f1b5-4dc3-86d4-5c1204834925","ios":"levelo://app?vid=6facbc0d-f1b5-4dc3-86d4-5c1204834925"},"vehicle_type_id":"4","last_reported":1749759107,"current_range_meters":16800,"station_id":"","pricing_plan_id":"cebpf4jnsgd1na2vs0mg"},{"bike_id":"7f182874-e4df-447d-bd7b-723adf99e55a","system_id":"levelo_inurba_marseille","lat":43.292,"lon":5.39317,"is_reserved":false,"is_disabled":false,"rental_uris":{"android":"levelo://app?vid=7f182874-e4df-447d-bd7b-723adf99e55a","ios":"levelo://app?vid=7f182874-e4df-447d-bd7b-723adf99e55a"},"vehicle_type_id":"4","last_reported":1749759107,"current_range_meters":16800,"station_id":"ce4bh192rcd13ifvqdd0","pricing_plan_id":"cebpf4jnsgd1na2vs0mg"},{"bike_id":"37a64c8b-230f-4d36-94de-7db209419664","system_id":"levelo_inurba_marseille","lat":43.29292,"lon":5.40118,"is_reserved":false,"is_disabled":false,"rental_uris":{"android":"levelo://app?vid=37a64c8b-230f-4d36-94de-7db209419664","ios":"levelo://app?vid=37a64c8b-230f-4d36-94de-7db209419664"},"vehicle_type_id":"4","last_reported":1749759107,"current_range_meters":16800,"station_id":"ce4bh312rcd13ifvqdk0","pricing_plan_id":"cebpf4jnsgd1na2vs0mg"},{"bike_id":"7fc62f94-376d-46a8-adc6-0a257400108e","system_id":"levelo_inurba_marseille","lat":43.29099,"lon":5.38115,"is_reserved":false,"is_disabled":false,"rental_uris":{"android":"levelo://app?vid=7fc62f94-376d-46a8-adc6-0a257400108e","ios":"levelo://app?vid=7fc62f94-376d-46a8-adc6-0a257400108e"},"vehicle_type_id":"4","last_reported":1749759107,"current_range_meters":16800,"station_id":"ce4bh512rcd13ifvqe2g","pricing_plan_id":"cebpf4jnsgd1na2vs0mg"},{"bike_id":"348a2936-196d-4718-a204-85529389b2c8","system_id":"levelo_inurba_marseille","lat":43.27897,"lon":5.39614,"is_reserved":false,"is_disabled":false,"rental_uris":{"android":"levelo://app?vid=348a2936-196d-4718-a204-85529389b2c8","ios":"levelo://app?vid=348a2936-196d-4718-a204-85529389b2c8"},"vehicle_type_id":"4","last_reported":1749759107,"current_range_meters":16800,"station_id":"ce4bhf92rcd13ifvqf40","pricing_plan_id":"cebpf4jnsgd1na2vs0mg"},{"bike_id":"c2a4f56b-8da0-4770-923f-b3d620b42530","system_id":"levelo_inurba_marseille","lat":43.307319,"lon":5.424459,"is_reserved":false,"is_disabled":false,"rental_uris":{"android":"levelo://app?vid=c2a4f56b-8da0-4770-923f-b3d620b42530","ios":"levelo://app?vid=c2a4f56b-8da0-4770-923f-b3d620b42530"},"vehicle_type_id":"4","last_reported":1749759107,"current_range_meters":16800,"station_id":"st_cvj6ca6bvosntc0bfgr0","pricing_plan_id":"cebpf4jnsgd1na2vs0mg"},{"bike_id":"422e5856-8d19-43a7-9106-47af646adcc2","system_id":"levelo_inurba_marseille","lat":43.2954,"lon":5.38543,"is_reserved":false,"is_disabled":false,"rental_uris":{"android":"levelo://app?vid=422e5856-8d19-43a7-9106-47af646adcc2","ios":"levelo://app?vid=422e5856-8d19-43a7-9106-47af646adcc2"},"vehicle_type_id":"4","last_reported":1749759107,"current_range_meters":17200,"station_id":"ce4bgih2rcd13ifvqba0","pricing_plan_id":"cebpf4jnsgd1na2vs0mg"},{"bike_id":"c9a7ba37-f032-4c82-8df3-1caf5495af25","system_id":"levelo_inurba_marseille","lat":43.29795,"lon":5.38094,"is_reserved":false,"is_disabled":false,"rental_uris":{"android":"levelo://app?vid=c9a7ba37-f032-4c82-8df3-1caf5495af25","ios":"levelo://app?vid=c9a7ba37-f032-4c82-8df3-1caf5495af25"},"vehicle_type_id":"4","last_reported":1749759107,"current_range_meters":17200,"station_id":"ce4bgip2rcd13ifvqbb0","pricing_plan_id":"cebpf4jnsgd1na2vs0mg"},{"bike_id":"4338f212-3ede-4b5c-adb3-43b04c42a7b4","system_id":"levelo_inurba_marseille","lat":43.30663,"lon":5.40089,"is_reserved":false,"is_disabled":false,"rental_uris":{"android":"levelo://app?vid=4338f212-3ede-4b5c-adb3-43b04c42a7b4","ios":"levelo://app?vid=4338f212-3ede-4b5c-adb3-43b04c42a7b4"},"vehicle_type_id":"4","last_reported":1749759107,"current_range_meters":17200,"station_id":"ce4bh112rcd13ifvqda0","pricing_plan_id":"cebpf4jnsgd1na2vs0mg"},{"bike_id":"3b56422e-35ae-4c09-9e6c-96d239c11e88","system_id":"levelo_inurba_marseille","lat":43.28485,"lon":5.38423,"is_reserved":false,"is_disabled":false,"rental_uris":{"android":"levelo://app?vid=3b56422e-35ae-4c09-9e6c-96d239c11e88","ios":"levelo://app?vid=3b56422e-35ae-4c09-9e6c-96d239c11e88"},"vehicle_type_id":"4","last_reported":1749759107,"current_range_meters":17200,"station_id":"ce4bh512rcd13ifvqe3g","pricing_plan_id":"cebpf4jnsgd1na2vs0mg"},{"bike_id":"f26261ff-7dbe-488f-91f6-1e98f01bcfe8","system_id":"levelo_inurba_marseille","lat":43.29044,"lon":5.35914,"is_reserved":false,"is_disabled":false,"rental_uris":{"android":"levelo://app?vid=f26261ff-7dbe-488f-91f6-1e98f01bcfe8","ios":"levelo://app?vid=f26261ff-7dbe-488f-91f6-1e98f01bcfe8"},"vehicle_type_id":"4","last_reported":1749759107,"current_range_meters":17200,"station_id":"ce4bha92rcd13ifvqeg0","pricing_plan_id":"cebpf4jnsgd1na2vs0mg"},{"bike_id":"6b79aff3-ad90-4f5b-9241-faa0b1190b0e","system_id":"levelo_inurba_marseille","lat":43.26933,"lon":5.38922,"is_reserved":false,"is_disabled":false,"rental_uris":{"android":"levelo://app?vid=6b79aff3-ad90-4f5b-9241-faa0b1190b0e","ios":"levelo://app?vid=6b79aff3-ad90-4f5b-9241-faa0b1190b0e"},"vehicle_type_id":"4","last_reported":1749759107,"current_range_meters":17200,"station_id":"ce4bhhh2rcd13ifvqfl0","pricing_plan_id":"cebpf4jnsgd1na2vs0mg"},{"bike_id":"326cc913-bdbc-48c2-9a88-414846f09512","system_id":"levelo_inurba_marseille","lat":43.32361,"lon":5.36739,"is_reserved":false,"is_disabled":false,"rental_uris":{"android":"levelo://app?vid=326cc913-bdbc-48c2-9a88-414846f09512","ios":"levelo://app?vid=326cc913-bdbc-48c2-9a88-414846f09512"},"vehicle_type_id":"4","last_reported":1749759107,"current_range_meters":17200,"station_id":"ce4bhsh2rcd13ifvqi2g","pricing_plan_id":"cebpf4jnsgd1na2vs0mg"},{"bike_id":"27b3db84-0737-42f1-9f98-7f5cb27a1b2a","system_id":"levelo_inurba_marseille","lat":43.30728,"lon":5.42448,"is_reserved":false,"is_disabled":false,"rental_uris":{"android":"levelo://app?vid=27b3db84-0737-42f1-9f98-7f5cb27a1b2a","ios":"levelo://app?vid=27b3db84-0737-42f1-9f98-7f5cb27a1b2a"},"vehicle_type_id":"4","last_reported":1749759107,"current_range_meters":17200,"station_id":"st_cvj6ca6bvosntc0bfgr0","pricing_plan_id":"cebpf4jnsgd1na2vs0mg"},{"bike_id":"075c05ec-b3c9-44c3-b57f-1083abf2ca61","system_id":"levelo_inurba_marseille","lat":43.271233,"lon":5.426208,"is_reserved":false,"is_disabled":false,"rental_uris":{"android":"levelo://app?vid=075c05ec-b3c9-44c3-b57f-1083abf2ca61","ios":"levelo://app?vid=075c05ec-b3c9-44c3-b57f-1083abf2ca61"},"vehicle_type_id":"4","last_reported":1749759107,"current_range_meters":17600,"station_id":"","pricing_plan_id":"cebpf4jnsgd1na2vs0mg"},{"bike_id":"3073188d-082e-46e4-8436-3c3817f82cfc","system_id":"levelo_inurba_marseille","lat":43.30625,"lon":5.4006,"is_reserved":false,"is_disabled":false,"rental_uris":{"android":"levelo://app?vid=3073188d-082e-46e4-8436-3c3817f82cfc","ios":"levelo://app?vid=3073188d-082e-46e4-8436-3c3817f82cfc"},"vehicle_type_id":"4","last_reported":1749759107,"current_range_meters":17600,"station_id":"ce4bh112rcd13ifvqda0","pricing_plan_id":"cebpf4jnsgd1na2vs0mg"},{"bike_id":"238c9c1d-9a15-405c-a5a2-812094de7916","system_id":"levelo_inurba_marseille","lat":43.292647,"lon":5.384267,"is_reserved":false,"is_disabled":false,"rental_uris":{"android":"levelo://app?vid=238c9c1d-9a15-405c-a5a2-812094de7916","ios":"levelo://app?vid=238c9c1d-9a15-405c-a5a2-812094de7916"},"vehicle_type_id":"4","last_reported":1749759107,"current_range_meters":17600,"station_id":"ce4bh692rcd13ifvqea0","pricing_plan_id":"cebpf4jnsgd1na2vs0mg"},{"bike_id":"e8ee677b-84b3-443f-8426-e11200431908","system_id":"levelo_inurba_marseille","lat":43.24805,"lon":5.374572,"is_reserved":false,"is_disabled":false,"rental_uris":{"android":"levelo://app?vid=e8ee677b-84b3-443f-8426-e11200431908","ios":"levelo://app?vid=e8ee677b-84b3-443f-8426-e11200431908"},"vehicle_type_id":"4","last_reported":1749759107,"current_range_meters":17600,"station_id":"ce4bhgh2rcd13ifvqfb0","pricing_plan_id":"cebpf4jnsgd1na2vs0mg"},{"bike_id":"e8639d85-2d2a-429d-bcfe-f3a304f2fccb","system_id":"levelo_inurba_marseille","lat":43.337387,"lon":5.374899,"is_reserved":false,"is_disabled":false,"rental_uris":{"android":"levelo://app?vid=e8639d85-2d2a-429d-bcfe-f3a304f2fccb","ios":"levelo://app?vid=e8639d85-2d2a-429d-bcfe-f3a304f2fccb"},"vehicle_type_id":"4","last_reported":1749759107,"current_range_meters":18000,"station_id":"","pricing_plan_id":"cebpf4jnsgd1na2vs0mg"},{"bike_id":"48fa8fac-c0a7-4454-bddf-6013ba9b1315","system_id":"levelo_inurba_marseille","lat":43.29254,"lon":5.40912,"is_reserved":false,"is_disabled":false,"rental_uris":{"android":"levelo://app?vid=48fa8fac-c0a7-4454-bddf-6013ba9b1315","ios":"levelo://app?vid=48fa8fac-c0a7-4454-bddf-6013ba9b1315"},"vehicle_type_id":"4","last_reported":1749759107,"current_range_meters":18000,"station_id":"ce4bh192rcd13ifvqdc0","pricing_plan_id":"cebpf4jnsgd1na2vs0mg"},{"bike_id":"936ac6dc-53d6-439c-8942-f3382502e33f","system_id":"levelo_inurba_marseille","lat":43.265616,"lon":5.372839,"is_reserved":false,"is_disabled":false,"rental_uris":{"android":"levelo://app?vid=936ac6dc-53d6-439c-8942-f3382502e33f","ios":"levelo://app?vid=936ac6dc-53d6-439c-8942-f3382502e33f"},"vehicle_type_id":"4","last_reported":1749759107,"current_range_meters":18000,"station_id":"ce4bhg12rcd13ifvqf70","pricing_plan_id":"cebpf4jnsgd1na2vs0mg"},{"bike_id":"070c3c55-512c-448f-b3c0-a1391eb4f713","system_id":"levelo_inurba_marseille","lat":43.26209,"lon":5.37443,"is_reserved":false,"is_disabled":false,"rental_uris":{"android":"levelo://app?vid=070c3c55-512c-448f-b3c0-a1391eb4f713","ios":"levelo://app?vid=070c3c55-512c-448f-b3c0-a1391eb4f713"},"vehicle_type_id":"4","last_reported":1749759107,"current_range_meters":18000,"station_id":"ce4bhgp2rcd13ifvqfc0","pricing_plan_id":"cebpf4jnsgd1na2vs0mg"},{"bike_id":"cd04c907-a216-4a29-a7cc-7ee808a74a6c","system_id":"levelo_inurba_marseille","lat":43.25082,"lon":5.39502,"is_reserved":false,"is_disabled":false,"rental_uris":{"android":"levelo://app?vid=cd04c907-a216-4a29-a7cc-7ee808a74a6c","ios":"levelo://app?vid=cd04c907-a216-4a29-a7cc-7ee808a74a6c"},"vehicle_type_id":"4","last_reported":1749759107,"current_range_meters":18000,"station_id":"ce4bhm12rcd13ifvqgkg","pricing_plan_id":"cebpf4jnsgd1na2vs0mg"},{"bike_id":"8ca66808-6021-4371-98ac-4084e35746ca","system_id":"levelo_inurba_marseille","lat":43.23196,"lon":5.35551,"is_reserved":false,"is_disabled":false,"rental_uris":{"android":"levelo://app?vid=8ca66808-6021-4371-98ac-4084e35746ca","ios":"levelo://app?vid=8ca66808-6021-4371-98ac-4084e35746ca"},"vehicle_type_id":"4","last_reported":1749759107,"current_range_meters":18000,"station_id":"ce4bhu92rcd13ifvqi70","pricing_plan_id":"cebpf4jnsgd1na2vs0mg"},