{"last_updated":1730048815,"ttl":60,"version":"2.2","data":{"bikes":[{"bike_id":"46ca7a5a-b63f-4a23-af18-d368d3c3861e","system_id":"levelo_inurba_marseille","lat":43.27321,"lon":5.39104,"is_reserved":false,"is_disabled":false,"rental_uris":{"android":"levelo://app?vid=46ca7a5a-b63f-4a23-af18-d368d3c3861e","ios":"levelo://app?vid=46ca7a5a-b63f-4a23-af18-d368d3c3861e"},"vehicle_type_id":"4","last_reported":1730048815,"current_range_meters":32000,"station_id":"ce4bhgp2rcd13ifvqfe0","pricing_plan_id":"cebpf4jnsgd1na2vs0mg"},{"bike_id":"69f4165a-13a2-4bd8-b4d6-abfa25614867","system_id":"levelo_inurba_marseille","lat":43.26805,"lon":5.40265,"is_reserved":false,"is_disabled":false,"rental_uris":{"android":"levelo://app?vid=69f4165a-13a2-4bd8-b4d6-abfa25614867","ios":"levelo://app?vid=69f4165a-13a2-4bd8-b4d6-abfa25614867"},"vehicle_type_id":"4","last_reported":1730048815,"current_range_meters":38800,"station_id":"ce501612rcd8frsf0b60","pricing_plan_id":"cebpf4jnsgd1na2vs0mg"},{"bike_id":"d577d6b2-2657-42a1-a1b0-33999f0c7116","system_id":"levelo_inurba_marseille","lat":43.27061,"lon":5.40257,"is_reserved":false,"is_disabled":false,"rental_uris":{"android":"levelo://app?vid=d577d6b2-2657-42a1-a1b0-33999f0c7116","ios":"levelo://app?vid=d577d6b2-2657-42a1-a1b0-33999f0c7116"},"vehicle_type_id":"4","last_reported":1730048815,"current_range_meters":16000,"station_id":"ce4bhk92rcd13ifvqgc0","pricing_plan_id":"cebpf4jnsgd1na2vs0mg"},{"bike_id":"48660d12-eacc-4f93-a06c-04c2aa9e37e4","system_id":"levelo_inurba_marseille","lat":43.26802,"lon":5.40264,"is_reserved":false,"is_disabled":false,"rental_uris":{"android":"levelo://app?vid=48660d12-eacc-4f93-a06c-04c2aa9e37e4","ios":"levelo://app?vid=48660d12-eacc-4f93-a06c-04c2aa9e37e4"},"vehicle_type_id":"4","last_reported":1730048815,"current_range_meters":17600,"station_id":"ce501612rcd8frsf0b60","pricing_plan_id":"cebpf4jnsgd1na2vs0mg"},{"bike_id":"26bba784-e2e8-4a8f-9a75-9ef9f5b4930b","system_id":"levelo_inurba_marseille","lat":43.27809,"lon":5.4072,"is_reserved":false,"is_disabled":false,"rental_uris":{"android":"levelo://app?vid=26bba784-e2e8-4a8f-9a75-9ef9f5b4930b","ios":"levelo://app?vid=26bba784-e2e8-4a8f-9a75-9ef9f5b4930b"},"vehicle_type_id":"4","last_reported":1730048815,"current_range_meters":20800,"station_id":"ce4bhnh2rcd13ifvqgtg","pricing_plan_id":"cebpf4jnsgd1na2vs0mg"},{"bike_id":"f3d5c86c-ab11-4ca3-aa72-c97ea732ed17","system_id":"levelo_inurba_marseille","lat":43.27319,"lon":5.39093,"is_reserved":false,"is_disabled":false,"rental_uris":{"android":"levelo://app?vid=f3d5c86c-ab11-4ca3-aa72-c97ea732ed17","ios":"levelo://app?vid=f3d5c86c-ab11-4ca3-aa72-c97ea732ed17"},"vehicle_type_id":"4","last_reported":1730048815,"current_range_meters":28400,"station_id":"ce4bhgp2rcd13ifvqfe0","pricing_plan_id":"cebpf4jnsgd1na2vs0mg"},{"bike_id":"9fb636e5-62cf-4512-aed6-0c2da0e74711","system_id":"levelo_inurba_marseille","lat":43.29418,"lon":5.38626,"is_reserved":false,"is_disabled":false,"rental_uris":{"android":"levelo://app?vid=9fb636e5-62cf-4512-aed6-0c2da0e74711","ios":"levelo://app?vid=9fb636e5-62cf-4512-aed6-0c2da0e74711"},"vehicle_type_id":"4","last_reported":1730048815,"current_range_meters":2800,"station_id":"ce4bh2h2rcd13ifvqdh0","pricing_plan_id":"cebpf4jnsgd1na2vs0mg"},{"bike_id":"9acd5798-9c81-491b-af42-53793c41ed04","system_id":"levelo_inurba_marseille","lat":43.311684,"lon":5.387247,"is_reserved":false,"is_disabled":false,"rental_uris":{"android":"levelo://app?vid=9acd5798-9c81-491b-af42-53793c41ed04","ios":"levelo://app?vid=9acd5798-9c81-491b-af42-53793c41ed04"},"vehicle_type_id":"4","last_reported":1730048815,"current_range_meters":4800,"station_id":"ce4bhph2rcd13ifvqhdg","pricing_plan_id":"cebpf4jnsgd1na2vs0mg"},{"bike_id":"824474e9-a52b-4afe-84eb-7057bd74fff2","system_id":"levelo_inurba_marseille","lat":43.29623,"lon":5.37174,"is_reserved":false,"is_disabled":false,"rental_uris":{"android":"levelo://app?vid=824474e9-a52b-4afe-84eb-7057bd74fff2","ios":"levelo://app?vid=824474e9-a52b-4afe-84eb-7057bd74fff2"},"vehicle_type_id":"4","last_reported":1730048815,"current_range_meters":7200,"station_id":"ce4bgnh2rcd13ifvqc0g","pricing_plan_id":"cebpf4jnsgd1na2vs0mg"},{"bike_id":"20f92aeb-c52c-4d5a-bc3f-684369c288eb","system_id":"levelo_inurba_marseille","lat":43.32286,"lon":5.38285,"is_reserved":false,"is_disabled":false,"rental_uris":{"android":"levelo://app?vid=20f92aeb-c52c-4d5a-bc3f-684369c288eb","ios":"levelo://app?vid=20f92aeb-c52c-4d5a-bc3f-684369c288eb"},"vehicle_type_id":"4","last_reported":1730048815,"current_range_meters":9600,"station_id":"ce4bhr12rcd13ifvqhqg","pricing_plan_id":"cebpf4jnsgd1na2vs0mg"},{"bike_id":"96e8a04e-eaaa-4c54-b7b2-d27222ec8868","system_id":"levelo_inurba_marseille","lat":43.25006,"lon":5.38917,"is_reserved":false,"is_disabled":false,"rental_uris":{"android":"levelo://app?vid=96e8a04e-eaaa-4c54-b7b2-d27222ec8868","ios":"levelo://app?vid=96e8a04e-eaaa-4c54-b7b2-d27222ec8868"},"vehicle_type_id":"4","last_reported":1730048815,"current_range_meters":8400,"station_id":"ce4bhgp2rcd13ifvqfd0","pricing_plan_id":"cebpf4jnsgd1na2vs0mg"},{"bike_id":"7310f942-0d93-4b41-a667-c5fdd0d381ea","system_id":"levelo_inurba_marseille","lat":43.26563,"lon":5.39042,"is_reserved":false,"is_disabled":false,"rental_uris":{"android":"levelo://app?vid=7310f942-0d93-4b41-a667-c5fdd0d381ea","ios":"levelo://app?vid=7310f942-0d93-4b41-a667-c5fdd0d381ea"},"vehicle_type_id":"4","last_reported":1730048815,"current_range_meters":35600,"station_id":"ce4bhe12rcd13ifvqf30","pricing_plan_id":"cebpf4jnsgd1na2vs0mg"},{"bike_id":"a327309f-fe6d-4565-a57f-cd5999b50052","system_id":"levelo_inurba_marseille","lat":43.244924,"lon":5.4272,"is_reserved":false,"is_disabled":false,"rental_uris":{"android":"levelo://app?vid=a327309f-fe6d-4565-a57f-cd5999b50052","ios":"levelo://app?vid=a327309f-fe6d-4565-a57f-cd5999b50052"},"vehicle_type_id":"4","last_reported":1730048815,"current_range_meters":3600,"station_id":"","pricing_plan_id":"cebpf4jnsgd1na2vs0mg"},{"bike_id":"499f749d-0824-4de2-8c73-99704dbfe0eb","system_id":"levelo_inurba_marseille","lat":43.299781,"lon":5.37183,"is_reserved":false,"is_disabled":false,"rental_uris":{"android":"levelo://app?vid=499f749d-0824-4de2-8c73-99704dbfe0eb","ios":"levelo://app?vid=499f749d-0824-4de2-8c73-99704dbfe0eb"},"vehicle_type_id":"4","last_reported":1730048815,"current_range_meters":8800,"station_id":"ce4bgr92rcd13ifvqc7g","pricing_plan_id":"cebpf4jnsgd1na2vs0mg"},{"bike_id":"3b6c4cb4-4c4e-46d0-a1c3-b8c965e6727d","system_id":"levelo_inurba_marseille","lat":43.308807,"lon":5.396609,"is_reserved":false,"is_disabled":false,"rental_uris":{"android":"levelo://app?vid=3b6c4cb4-4c4e-46d0-a1c3-b8c965e6727d","ios":"levelo://app?vid=3b6c4cb4-4c4e-46d0-a1c3-b8c965e6727d"},"vehicle_type_id":"4","last_reported":1730048815,"current_range_meters":20400,"station_id":"ce4bh012rcd13ifvqcv0","pricing_plan_id":"cebpf4jnsgd1na2vs0mg"},{"bike_id":"336aa9ef-ddda-4b9d-97f0-097a574c9eb7","system_id":"levelo_inurba_marseille","lat":43.31498,"lon":5.37317,"is_reserved":false,"is_disabled":false,"rental_uris":{"android":"levelo://app?vid=336aa9ef-ddda-4b9d-97f0-097a574c9eb7","ios":"levelo://app?vid=336aa9ef-ddda-4b9d-97f0-097a574c9eb7"},"vehicle_type_id":"4","last_reported":1730048815,"current_range_meters":38800,"station_id":"ce4bgt12rcd13ifvqcd0","pricing_plan_id":"cebpf4jnsgd1na2vs0mg"},{"bike_id":"18021f66-44f1-42a9-b04b-611e0a7cca43","system_id":"levelo_inurba_marseille","lat":43.31336,"lon":5.39696,"is_reserved":false,"is_disabled":false,"rental_uris":{"android":"levelo://app?vid=18021f66-44f1-42a9-b04b-611e0a7cca43","ios":"levelo://app?vid=18021f66-44f1-42a9-b04b-611e0a7cca43"},"vehicle_type_id":"4","last_reported":1730048815,"current_range_meters":24800,"station_id":"ce4bgvp2rcd13ifvqcu0","pricing_plan_id":"cebpf4jnsgd1na2vs0mg"},{"bike_id":"8a02104b-665f-4590-b4d2-290c16610f5e","system_id":"levelo_inurba_marseille","lat":43.287034,"lon":5.399911,"is_reserved":false,"is_disabled":false,"rental_uris":{"android":"levelo://app?vid=8a02104b-665f-4590-b4d2-290c16610f5e","ios":"levelo://app?vid=8a02104b-665f-4590-b4d2-290c16610f5e"},"vehicle_type_id":"4","last_reported":1730048815,"current_range_meters":33600,"station_id":"ce4bho92rcd13ifvqh3g","pricing_plan_id":"cebpf4jnsgd1na2vs0mg"},{"bike_id":"9ebc5364-49f3-4b23-9bc9-d70771cc0eb7","system_id":"levelo_inurba_marseille","lat":43.31876,"lon":5.40767,"is_reserved":false,"is_disabled":false,"rental_uris":{"android":"levelo://app?vid=9ebc5364-49f3-4b23-9bc9-d70771cc0eb7","ios":"levelo://app?vid=9ebc5364-49f3-4b23-9bc9-d70771cc0eb7"},"vehicle_type_id":"4","last_reported":1730048815,"current_range_meters":32000,"station_id":"ce4bhq12rcd13ifvqhig","pricing_plan_id":"cebpf4jnsgd1na2vs0mg"},{"bike_id":"c4ca335a-e6d1-40b5-8b65-a45ca3aa325a","system_id":"levelo_inurba_marseille","lat":43.28857,"lon":5.35837,"is_reserved":false,"is_disabled":false,"rental_uris":{"android":"levelo://app?vid=c4ca335a-e6d1-40b5-8b65-a45ca3aa325a","ios":"levelo://app?vid=c4ca335a-e6d1-40b5-8b65-a45ca3aa325a"},"vehicle_type_id":"4","last_reported":1730048815,"current_range_meters":20800,"station_id":"ce4bhb12rcd13ifvqem0","pricing_plan_id":"cebpf4jnsgd1na2vs0mg"},{"bike_id":"857f1755-36c9-4d6f-8874-c6c84ecbd876","system_id":"levelo_inurba_marseille","lat":43.29703,"lon":5.36599,"is_reserved":false,"is_disabled":false,"rental_uris":{"android":"levelo://app?vid=857f1755-36c9-4d6f-8874-c6c84ecbd876","ios":"levelo://app?vid=857f1755-36c9-4d6f-8874-c6c84ecbd876"},"vehicle_type_id":"4","last_reported":1730048815,"current_range_meters":8000,"station_id":"ce4bgn12rcd13ifvqbt0","pricing_plan_id":"cebpf4jnsgd1na2vs0mg"},{"bike_id":"1bb83822-da95-47af-8840-1773e35b51e3","system_id":"levelo_inurba_marseille","lat":43.27209,"lon":5.39182,"is_reserved":false,"is_disabled":false,"rental_uris":{"android":"levelo://app?vid=1bb83822-da95-47af-8840-1773e35b51e3","ios":"levelo://app?vid=1bb83822-da95-47af-8840-1773e35b51e3"},"vehicle_type_id":"4","last_reported":1730048815,"current_range_meters":8000,"station_id":"ce4bhhp2rcd13ifvqfm0","pricing_plan_id":"cebpf4jnsgd1na2vs0mg"},{"bike_id":"ff081f0c-ea21-431a-8d61-ad48db65fd3a","system_id":"levelo_inurba_marseille","lat":43.30353,"lon":5.41885,"is_reserved":false,"is_disabled":false,"rental_uris":{"android":"levelo://app?vid=ff081f0c-ea21-431a-8d61-ad48db65fd3a","ios":"levelo://app?vid=ff081f0c-ea21-431a-8d61-ad48db65fd3a"},"vehicle_type_id":"4","last_reported":1730048815,"current_range_meters":28400,"station_id":"ce4bhop2rcd13ifvqh7g","pricing_plan_id":"cebpf4jnsgd1na2vs0mg"},{"bike_id":"8ed0e600-52f7-4841-aa09-f2be0f0fd557","system_id":"levelo_inurba_marseille","lat":43.26805,"lon":5.40274,"is_reserved":false,"is_disabled":false,"rental_uris":{"android":"levelo://app?vid=8ed0e600-52f7-4841-aa09-f2be0f0fd557","ios":"levelo://app?vid=8ed0e600-52f7-4841-aa09-f2be0f0fd557"},"vehicle_type_id":"4","last_reported":1730048815,"current_range_meters":38800,"station_id":"ce501612rcd8frsf0b60","pricing_plan_id":"cebpf4jnsgd1na2vs0mg"},{"bike_id":"e7a39374-01bb-46ae-a0b2-6cf5091f2094","system_id":"levelo_inurba_marseille","lat":43.24163,"lon":5.36394,"is_reserved":false,"is_disabled":false,"rental_uris":{"android":"levelo://app?vid=e7a39374-01bb-46ae-a0b2-6cf5091f2094","ios":"levelo://app?vid=e7a39374-01bb-46ae-a0b2-6cf5091f2094"},"vehicle_type_id":"4","last_reported":1730048815,"current_range_meters":32400,"station_id":"cpo36qri1sfpv3e86is0","pricing_plan_id":"cebpf4jnsgd1na2vs0mg"},{"bike_id":"1f4d93ba-c0f6-4f10-8ed7-ffd573942afb","system_id":"levelo_inurba_marseille","lat":43.29783,"lon":5.38115,"is_reserved":false,"is_disabled":false,"rental_uris":{"android":"levelo://app?vid=1f4d93ba-c0f6-4f10-8ed7-ffd573942afb","ios":"levelo://app?vid=1f4d93ba-c0f6-4f10-8ed7-ffd573942afb"},"vehicle_type_id":"4","last_reported":1730048815,"current_range_meters":38400,"station_id":"ce4bgip2rcd13ifvqbb0","pricing_plan_id":"cebpf4jnsgd1na2vs0mg"},{"bike_id":"5b844605-7340-459a-b9a5-322a50a6d07d","system_id":"levelo_inurba_marseille","lat":43.23961,"lon":5.3664,"is_reserved":false,"is_disabled":false,"rental_uris":{"android":"levelo://app?vid=5b844605-7340-459a-b9a5-322a50a6d07d","ios":"levelo://app?vid=5b844605-7340-459a-b9a5-322a50a6d07d"},"vehicle_type_id":"4","last_reported":1730048815,"current_range_meters":29600,"station_id":"ce4bhi12rcd13ifvqfp0","pricing_plan_id":"cebpf4jnsgd1na2vs0mg"},{"bike_id":"27f39214-437b-402f-ba70-e8fd46f4e41b","system_id":"levelo_inurba_marseille","lat":43.28499,"lon":5.36938,"is_reserved":false,"is_disabled":false,"rental_uris":{"android":"levelo://app?vid=27f39214-437b-402f-ba70-e8fd46f4e41b","ios":"levelo://app?vid=27f39214-437b-402f-ba70-e8fd46f4e41b"},"vehicle_type_id":"4","last_reported":1730048815,"current_range_meters":18000,"station_id":"","pricing_plan_id":"cebpf4jnsgd1na2vs0mg"},{"bike_id":"5ed72901-e44e-460e-9669-5f1f8a6d2f53","system_id":"levelo_inurba_marseille","lat":43.28655,"lon":5.44477,"is_reserved":false,"is_disabled":false,"rental_uris":{"android":"levelo://app?vid=5ed72901-e44e-460e-9669-5f1f8a6d2f53","ios":"levelo://app?vid=5ed72901-e44e-460e-9669-5f1f8a6d2f53"},"vehicle_type_id":"4","last_reported":1730048815,"current_range_meters":8800,"station_id":"","pricing_plan_id":"cebpf4jnsgd1na2vs0mg"},{"bike_id":"e7360508-6978-487a-a79b-5e2dad5d0ea3","system_id":"levelo_inurba_marseille","lat":43.22932,"lon":5.35374,"is_reserved":false,"is_disabled":false,"rental_uris":{"android":"levelo://app?vid=e7360508-6978-487a-a79b-5e2dad5d0ea3","ios":"levelo://app?vid=e7360508-6978-487a-a79b-5e2dad5d0ea3"},"vehicle_type_id":"4","last_reported":1730048815,"current_range_meters":24400,"station_id":"cpo3532slgdg3j2ikp40","pricing_plan_id":"cebpf4jnsgd1na2vs0mg"},{"bike_id":"540b1268-662b-483a-a88b-c79092eddc85","system_id":"levelo_inurba_marseille","lat":43.26801,"lon":5.40267,"is_reserved":false,"is_disabled":false,"rental_uris":{"android":"levelo://app?vid=540b1268-662b-483a-a88b-c79092eddc85","ios":"levelo://app?vid=540b1268-662b-483a-a88b-c79092eddc85"},"vehicle_type_id":"4","last_reported":1730048815,"current_range_meters":32000,"station_id":"ce501612rcd8frsf0b60","pricing_plan_id":"cebpf4jnsgd1na2vs0mg"},{"bike_id":"8c8b5cea-f304-4d77-b13c-b869fd08cc22","system_id":"levelo_inurba_marseille","lat":43.25491,"lon":5.37649,"is_reserved":false,"is_disabled":false,"rental_uris":{"android":"levelo://app?vid=8c8b5cea-f304-4d77-b13c-b869fd08cc22","ios":"levelo://app?vid=8c8b5cea-f304-4d77-b13c-b869fd08cc22"},"vehicle_type_id":"4","last_reported":1730048815,"current_range_meters":8800,"station_id":"ce4bhh12rcd13ifvqff0","pricing_plan_id":"cebpf4jnsgd1na2vs0mg"},{"bike_id":"0a3dc7e9-6bad-48d8-b30e-153901a855fe","system_id":"levelo_inurba_marseille","lat":43.29421,"lon":5.38624,"is_reserved":false,"is_disabled":false,"rental_uris":{"android":"levelo://app?vid=0a3dc7e9-6bad-48d8-b30e-153901a855fe","ios":"levelo://app?vid=0a3dc7e9-6bad-48d8-b30e-153901a855fe"},"vehicle_type_id":"4","last_reported":1730048815,"current_range_meters":28800,"station_id":"ce4bh2h2rcd13ifvqdh0","pricing_plan_id":"cebpf4jnsgd1na2vs0mg"},{"bike_id":"afb2bf35-8b5e-4247-805a-fe0c1b6fb966","system_id":"levelo_inurba_marseille","lat":43.26946,"lon":5.40255,"is_reserved":false,"is_disabled":false,"rental_uris":{"android":"levelo://app?vid=afb2bf35-8b5e-4247-805a-fe0c1b6fb966","ios":"levelo://app?vid=afb2bf35-8b5e-4247-805a-fe0c1b6fb966"},"vehicle_type_id":"4","last_reported":1730048815,"current_range_meters":8400,"station_id":"cjm6bp8fraef2m0cb0m0","pricing_plan_id":"cebpf4jnsgd1na2vs0mg"},{"bike_id":"34c0b19e-e327-425b-bf09-25bec92dd9c4","system_id":"levelo_inurba_marseille","lat":43.29345,"lon":5.45485,"is_reserved":false,"is_disabled":false,"rental_uris":{"android":"levelo://app?vid=34c0b19e-e327-425b-bf09-25bec92dd9c4","ios":"levelo://app?vid=34c0b19e-e327-425b-bf09-25bec92dd9c4"},"vehicle_type_id":"4","last_reported":1730048815,"current_range_meters":2800,"station_id":"","pricing_plan_id":"cebpf4jnsgd1na2vs0mg"},{"bike_id":"f2ff8a81-9e19-49f6-8092-173e8fe59ec8","system_id":"levelo_inurba_marseille","lat":43.25942,"lon":5.40905,"is_reserved":false,"is_disabled":false,"rental_uris":{"android":"levelo://app?vid=f2ff8a81-9e19-49f6-8092-173e8fe59ec8","ios":"levelo://app?vid=f2ff8a81-9e19-49f6-8092-173e8fe59ec8"},"vehicle_type_id":"4","last_reported":1730048815,"current_range_meters":38800,"station_id":"ce4bhm92rcd13ifvqglg","pricing_plan_id":"cebpf4jnsgd1na2vs0mg"},{"bike_id":"c4cdd2c2-bb5d-4330-a93d-7b3ad2c255a4","system_id":"levelo_inurba_marseille","lat":43.280711,"lon":5.36891,"is_reserved":false,"is_disabled":false,"rental_uris":{"android":"levelo://app?vid=c4cdd2c2-bb5d-4330-a93d-7b3ad2c255a4","ios":"levelo://app?vid=c4cdd2c2-bb5d-4330-a93d-7b3ad2c255a4"},"vehicle_type_id":"4","last_reported":1730048815,"current_range_meters":18800,"station_id":"ce4bha12rcd13ifvqef0","pricing_plan_id":"cebpf4jnsgd1na2vs0mg"},{"bike_id":"7ad4bad7-4582-4569-8131-dcdf037b5a3f","system_id":"levelo_inurba_marseille","lat":43.29259,"lon":5.38443,"is_reserved":false,"is_disabled":false,"rental_uris":{"android":"levelo://app?vid=7ad4bad7-4582-4569-8131-dcdf037b5a3f","ios":"levelo://app?vid=7ad4bad7-4582-4569-8131-dcdf037b5a3f"},"vehicle_type_id":"4","last_reported":1730048815,"current_range_meters":38800,"station_id":"ce4bh692rcd13ifvqea0","pricing_plan_id":"cebpf4jnsgd1na2vs0mg"},{"bike_id":"49352713-1e0a-4ced-97e8-bcf223b2d702","system_id":"levelo_inurba_marseille","lat":43.27073,"lon":5.42284,"is_reserved":false,"is_disabled":false,"rental_uris":{"android":"levelo://app?vid=49352713-1e0a-4ced-97e8-bcf223b2d702","ios":"levelo://app?vid=49352713-1e0a-4ced-97e8-bcf223b2d702"},"vehicle_type_id":"4","last_reported":1730048815,"current_range_meters":4800,"station_id":"ce4bhk92rcd13ifvqgb0","pricing_plan_id":"cebpf4jnsgd1na2vs0mg"},{"bike_id":"e16ba0fb-c8f9-4074-a1c8-ad626ad5602f","system_id":"levelo_inurba_marseille","lat":43.26941,"lon":5.40258,"is_reserved":false,"is_disabled":false,"rental_uris":{"android":"levelo://app?vid=e16ba0fb-c8f9-4074-a1c8-ad626ad5602f","ios":"levelo://app?vid=e16ba0fb-c8f9-4074-a1c8-ad626ad5602f"},"vehicle_type_id":"4","last_reported":1730048815,"current_range_meters":38000,"station_id":"cjm6bp8fraef2m0cb0m0","pricing_plan_id":"cebpf4jnsgd1na2vs0mg"},{"bike_id":"d801271d-ae4e-4090-9aaa-11a199b8a490","system_id":"levelo_inurba_marseille","lat":43.293107,"lon":5.371782,"is_reserved":false,"is_disabled":false,"rental_uris":{"android":"levelo://app?vid=d801271d-ae4e-4090-9aaa-11a199b8a490","ios":"levelo://app?vid=d801271d-ae4e-4090-9aaa-11a199b8a490"},"vehicle_type_id":"4","last_reported":1730048815,"current_range_meters":18800,"station_id":"ce4bhh92rcd13ifvqfh0","pricing_plan_id":"cebpf4jnsgd1na2vs0mg"},{"bike_id":"2ffb89c6-02e2-4033-a277-3998cabd33ce","system_id":"levelo_inurba_marseille","lat":43.27177,"lon":5.40997,"is_reserved":false,"is_disabled":false,"rental_uris":{"android":"levelo://app?vid=2ffb89c6-02e2-4033-a277-3998cabd33ce","ios":"levelo://app?vid=2ffb89c6-02e2-4033-a277-3998cabd33ce"},"vehicle_type_id":"4","last_reported":1730048815,"current_range_meters":8800,"station_id":"ce4bhl12rcd13ifvqgf0","pricing_plan_id":"cebpf4jnsgd1na2vs0mg"},{"bike_id":"6875a1a6-32b9-4783-93f5-84a3a0c85f67","system_id":"levelo_inurba_marseille","lat":43.23069,"lon":5.35489,"is_reserved":false,"is_disabled":false,"rental_uris":{"android":"levelo://app?vid=6875a1a6-32b9-4783-93f5-84a3a0c85f67","ios":"levelo://app?vid=6875a1a6-32b9-4783-93f5-84a3a0c85f67"},"vehicle_type_id":"4","last_reported":1730048815,"current_range_meters":24800,"station_id":"cpo3342slgdg3j2ifvpg","pricing_plan_id":"cebpf4jnsgd1na2vs0mg"},{"bike_id":"afe4dfc8-9581-4151-b71b-ec2d0e3c582a","system_id":"levelo_inurba_marseille","lat":43.28695,"lon":5.37403,"is_reserved":false,"is_disabled":false,"rental_uris":{"android":"levelo://app?vid=afe4dfc8-9581-4151-b71b-ec2d0e3c582a","ios":"levelo://app?vid=afe4dfc8-9581-4151-b71b-ec2d0e3c582a"},"vehicle_type_id":"4","last_reported":1730048815,"current_range_meters":17600,"station_id":"ce4bh3p2rcd13ifvqdq0","pricing_plan_id":"cebpf4jnsgd1na2vs0mg"},{"bike_id":"9cc31232-a7f4-4c07-9aa2-445f3fbc8431","system_id":"levelo_inurba_marseille","lat":43.29561,"lon":5.37532,"is_reserved":false,"is_disabled":false,"rental_uris":{"android":"levelo://app?vid=9cc31232-a7f4-4c07-9aa2-445f3fbc8431","ios":"levelo://app?vid=9cc31232-a7f4-4c07-9aa2-445f3fbc8431"},"vehicle_type_id":"4","last_reported":1730048815,"current_range_meters":38000,"station_id":"ce4bgh92rcd13ifvqb50","pricing_plan_id":"cebpf4jnsgd1na2vs0mg"},{"bike_id":"d464c49d-bc40-4fe1-bdbe-eb5c2433c7e8","system_id":"levelo_inurba_marseille","lat":43.27327,"lon":5.39089,"is_reserved":false,"is_disabled":false,"rental_uris":{"android":"levelo://app?vid=d464c49d-bc40-4fe1-bdbe-eb5c2433c7e8","ios":"levelo://app?vid=d464c49d-bc40-4fe1-bdbe-eb5c2433c7e8"},"vehicle_type_id":"4","last_reported":1730048815,"current_range_meters":39200,"station_id":"ce4bhgp2rcd13ifvqfe0","pricing_plan_id":"cebpf4jnsgd1na2vs0mg"},{"bike_id":"272108ab-c66d-4277-b942-346fbf20d819","system_id":"levelo_inurba_marseille","lat":43.30347,"lon":5.41883,"is_reserved":false,"is_disabled":false,"rental_uris":{"android":"levelo://app?vid=272108ab-c66d-4277-b942-346fbf20d819","ios":"levelo://app?vid=272108ab-c66d-4277-b942-346fbf20d819"},"vehicle_type_id":"4","last_reported":1730048815,"current_range_meters":7200,"station_id":"ce4bhop2rcd13ifvqh7g","pricing_plan_id":"cebpf4jnsgd1na2vs0mg"},{"bike_id":"d6148389-6ba1-4569-84cd-dbddbf1d48b8","system_id":"levelo_inurba_marseille","lat":43.2916,"lon":5.3717,"is_reserved":false,"is_disabled":false,"rental_uris":{"android":"levelo://app?vid=d6148389-6ba1-4569-84cd-dbddbf1d48b8","ios":"levelo://app?vid=d6148389-6ba1-4569-84cd-dbddbf1d48b8"},"vehicle_type_id":"4","last_reported":1730048815,"current_range_meters":24000,"station_id":"ce4bha92rcd13ifvqeh0","pricing_plan_id":"cebpf4jnsgd1na2vs0mg"},{"bike_id":"8fbb3d87-cdca-4c4a-859f-e70dea3485a5","system_id":"levelo_inurba_marseille","lat":43.27493,"lon":5.42457,"is_reserved":false,"is_disabled":false,"rental_uris":{"android":"levelo://app?vid=8fbb3d87-cdca-4c4a-859f-e70dea3485a5","ios":"levelo://app?vid=8fbb3d87-cdca-4c4a-859f-e70dea3485a5"},"vehicle_type_id":"4","last_reported":1730048815,"current_range_meters":32400,"station_id":"ce4bhn92rcd13ifvqgrg","pricing_plan_id":"cebpf4jnsgd1na2vs0mg"},{"bike_id":"70a29bb5-5087-4624-8423-080af632fc21","system_id":"levelo_inurba_marseille","lat":43.29786,"lon":5.38106,"is_reserved":false,"is_disabled":false,"rental_uris":{"android":"levelo://app?vid=70a29bb5-5087-4624-8423-080af632fc21","ios":"levelo://app?vid=70a29bb5-5087-4624-8423-080af632fc21"},"vehicle_type_id":"4","last_reported":1730048815,"current_range_meters":6000,"station_id":"ce4bgip2rcd13ifvqbb0","pricing_plan_id":"cebpf4jnsgd1na2vs0mg"},{"bike_id":"17e22301-02cb-4e82-9beb-8646192a13b6","system_id":"levelo_inurba_marseille","lat":43.31065,"lon":5.38356,"is_reserved":false,"is_disabled":false,"rental_uris":{"android":"levelo://app?vid=17e22301-02cb-4e82-9beb-8646192a13b6","ios":"levelo://app?vid=17e22301-02cb-4e82-9beb-8646192a13b6"},"vehicle_type_id":"4","last_reported":1730048815,"current_range_meters":9600,"station_id":"ce4bgv92rcd13ifvqcr0","pricing_plan_id":"cebpf4jnsgd1na2vs0mg"},{"bike_id":"aff15b89-3d55-4512-ac59-79b8390e5060","system_id":"levelo_inurba_marseille","lat":43.26945,"lon":5.40249,"is_reserved":false,"is_disabled":false,"rental_uris":{"android":"levelo://app?vid=aff15b89-3d55-4512-ac59-79b8390e5060","ios":"levelo://app?vid=aff15b89-3d55-4512-ac59-79b8390e5060"},"vehicle_type_id":"4","last_reported":1730048815,"current_range_meters":26800,"station_id":"cjm6bp8fraef2m0cb0m0","pricing_plan_id":"cebpf4jnsgd1na2vs0mg"},{"bike_id":"ca58f700-e4c9-4ba6-afa9-7ba521f63d93","system_id":"levelo_inurba_marseille","lat":43.27679,"lon":5.38916,"is_reserved":false,"is_disabled":false,"rental_uris":{"android":"levelo://app?vid=ca58f700-e4c9-4ba6-afa9-7ba521f63d93","ios":"levelo://app?vid=ca58f700-e4c9-4ba6-afa9-7ba521f63d93"},"vehicle_type_id":"4","last_reported":1730048815,"current_range_meters":12400,"station_id":"ce4bhi12rcd13ifvqfo0","pricing_plan_id":"cebpf4jnsgd1na2vs0mg"},{"bike_id":"d8f8d62c-901d-484e-b1ed-6e9f86fc3aaa","system_id":"levelo_inurba_marseille","lat":43.26948,"lon":5.40247,"is_reserved":false,"is_disabled":false,"rental_uris":{"android":"levelo://app?vid=d8f8d62c-901d-484e-b1ed-6e9f86fc3aaa","ios":"levelo://app?vid=d8f8d62c-901d-484e-b1ed-6e9f86fc3aaa"},"vehicle_type_id":"4","last_reported":1730048815,"current_range_meters":14400,"station_id":"cjm6bp8fraef2m0cb0m0","pricing_plan_id":"cebpf4jnsgd1na2vs0mg"},{"bike_id":"cd8988cf-34e0-4cd8-92c1-67d3cd8c964e","system_id":"levelo_inurba_marseille","lat":43.23959,"lon":5.3663,"is_reserved":false,"is_disabled":false,"rental_uris":{"android":"levelo://app?vid=cd8988cf-34e0-4cd8-92c1-67d3cd8c964e","ios":"levelo://app?vid=cd8988cf-34e0-4cd8-92c1-67d3cd8c964e"},"vehicle_type_id":"4","last_reported":1730048815,"current_range_meters":16000,"station_id":"ce4bhi12rcd13ifvqfp0","pricing_plan_id":"cebpf4jnsgd1na2vs0mg"},{"bike_id":"3990bf75-a959-4b0c-9cad-1fa0b6fbbdbb","system_id":"levelo_inurba_marseille","lat":43.31713,"lon":5.43711,"is_reserved":false,"is_disabled":false,"rental_uris":{"android":"levelo://app?vid=3990bf75-a959-4b0c-9cad-1fa0b6fbbdbb","ios":"levelo://app?vid=3990bf75-a959-4b0c-9cad-1fa0b6fbbdbb"},"vehicle_type_id":"4","last_reported":1730048815,"current_range_meters":11600,"station_id":"ce4bhp92rcd13ifvqhcg","pricing_plan_id":"cebpf4jnsgd1na2vs0mg"},{"bike_id":"f41f78ee-4116-4dbe-ba22-39e5d9ba34e4","system_id":"levelo_inurba_marseille","lat":43.24659,"lon":5.38166,"is_reserved":false,"is_disabled":false,"rental_uris":{"android":"levelo://app?vid=f41f78ee-4116-4dbe-ba22-39e5d9ba34e4","ios":"levelo://app?vid=f41f78ee-4116-4dbe-ba22-39e5d9ba34e4"},"vehicle_type_id":"4","last_reported":1730048815,"current_range_meters":36400,"station_id":"ce4bhih2rcd13ifvqfr0","pricing_plan_id":"cebpf4jnsgd1na2vs0mg"},{"bike_id":"9311a7b5-53ed-4578-85b3-610812c2354e","system_id":"levelo_inurba_marseille","lat":43.29973,"lon":5.38511,"is_reserved":false,"is_disabled":false,"rental_uris":{"android":"levelo://app?vid=9311a7b5-53ed-4578-85b3-610812c2354e","ios":"levelo://app?vid=9311a7b5-53ed-4578-85b3-610812c2354e"},"vehicle_type_id":"4","last_reported":1730048815,"current_range_meters":1600,"station_id":"ce4bgj92rcd13ifvqbd0","pricing_plan_id":"cebpf4jnsgd1na2vs0mg"},{"bike_id":"9488ca84-aa5e-4311-bde9-38d634703444","system_id":"levelo_inurba_marseille","lat":43.32481,"lon":5.36561,"is_reserved":false,"is_disabled":false,"rental_uris":{"android":"levelo://app?vid=9488ca84-aa5e-4311-bde9-38d634703444","ios":"levelo://app?vid=9488ca84-aa5e-4311-bde9-38d634703444"},"vehicle_type_id":"4","last_reported":1730048815,"current_range_meters":38000,"station_id":"ce4bhs12rcd13ifvqhvg","pricing_plan_id":"cebpf4jnsgd1na2vs0mg"},{"bike_id":"d6a9d248-6b62-4154-9e2c-5afeb4a6aed6","system_id":"levelo_inurba_marseille","lat":43.27305,"lon":5.39073,"is_reserved":false,"is_disabled":false,"rental_uris":{"android":"levelo://app?vid=d6a9d248-6b62-4154-9e2c-5afeb4a6aed6","ios":"levelo://app?vid=d6a9d248-6b62-4154-9e2c-5afeb4a6aed6"},"vehicle_type_id":"4","last_reported":1730048815,"current_range_meters":22000,"station_id":"ce4bhgp2rcd13ifvqfe0","pricing_plan_id":"cebpf4jnsgd1na2vs0mg"},{"bike_id":"e2c6950e-f786-4800-a9ba-b25f13f4e7af","system_id":"levelo_inurba_marseille","lat":43.259918,"lon":5.398278,"is_reserved":false,"is_disabled":false,"rental_uris":{"android":"levelo://app?vid=e2c6950e-f786-4800-a9ba-b25f13f4e7af","ios":"levelo://app?vid=e2c6950e-f786-4800-a9ba-b25f13f4e7af"},"vehicle_type_id":"4","last_reported":1730048815,"current_range_meters":10000,"station_id":"ce4bhl92rcd13ifvqghg","pricing_plan_id":"cebpf4jnsgd1na2vs0mg"},{"bike_id":"7bcfad72-37e2-4973-ac2c-4f1bcdcd200a","system_id":"levelo_inurba_marseille","lat":43.28665,"lon":5.3636,"is_reserved":false,"is_disabled":false,"rental_uris":{"android":"levelo://app?vid=7bcfad72-37e2-4973-ac2c-4f1bcdcd200a","ios":"levelo://app?vid=7bcfad72-37e2-4973-ac2c-4f1bcdcd200a"},"vehicle_type_id":"4","last_reported":1730048815,"current_range_meters":30800,"station_id":"ce4bhah2rcd13ifvqej0","pricing_plan_id":"cebpf4jnsgd1na2vs0mg"},{"bike_id":"601916c5-3274-4e01-863c-d96df39ce3b1","system_id":"levelo_inurba_marseille","lat":43.26566,"lon":5.39024,"is_reserved":false,"is_disabled":false,"rental_uris":{"android":"levelo://app?vid=601916c5-3274-4e01-863c-d96df39ce3b1","ios":"levelo://app?vid=601916c5-3274-4e01-863c-d96df39ce3b1"},"vehicle_type_id":"4","last_reported":1730048815,"current_range_meters":36000,"station_id":"ce4bhe12rcd13ifvqf30","pricing_plan_id":"cebpf4jnsgd1na2vs0mg"},{"bike_id":"e5977be1-bac2-449f-ac1b-471dc9d23099","system_id":"levelo_inurba_marseille","lat":43.2959,"lon":5.37507,"is_reserved":false,"is_disabled":false,"rental_uris":{"android":"levelo://app?vid=e5977be1-bac2-449f-ac1b-471dc9d23099","ios":"levelo://app?vid=e5977be1-bac2-449f-ac1b-471dc9d23099"},"vehicle_type_id":"4","last_reported":1730048815,"current_range_meters":38800,"station_id":"ce4bgh92rcd13ifvqb50","pricing_plan_id":"cebpf4jnsgd1na2vs0mg"},{"bike_id":"1fafbe93-2ba4-4077-bfcf-7b3992b30a25","system_id":"levelo_inurba_marseille","lat":43.29552,"lon":5.42283,"is_reserved":false,"is_disabled":false,"rental_uris":{"android":"levelo://app?vid=1fafbe93-2ba4-4077-bfcf-7b3992b30a25","ios":"levelo://app?vid=1fafbe93-2ba4-4077-bfcf-7b3992b30a25"},"vehicle_type_id":"4","last_reported":1730048815,"current_range_meters":39200,"station_id":"ce4bhph2rcd13ifvqhdg","pricing_plan_id":"cebpf4jnsgd1na2vs0mg"},{"bike_id":"a25f4e6f-5d95-4e82-bc57-aeb9c3174454","system_id":"levelo_inurba_marseille","lat":43.26941,"lon":5.40257,"is_reserved":false,"is_disabled":false,"rental_uris":{"android":"levelo://app?vid=a25f4e6f-5d95-4e82-bc57-aeb9c3174454","ios":"levelo://app?vid=a25f4e6f-5d95-4e82-bc57-aeb9c3174454"},"vehicle_type_id":"4","last_reported":1730048815,"current_range_meters":36000,"station_id":"cjm6bp8fraef2m0cb0m0","pricing_plan_id":"cebpf4jnsgd1na2vs0mg"},{"bike_id":"6a98d306-cc03-49b8-981d-14ed77e1e7db","system_id":"levelo_inurba_marseille","lat":43.28414,"lon":5.37522,"is_reserved":false,"is_disabled":false,"rental_uris":{"android":"levelo://app?vid=6a98d306-cc03-49b8-981d-14ed77e1e7db","ios":"levelo://app?vid=6a98d306-cc03-49b8-981d-14ed77e1e7db"},"vehicle_type_id":"4","last_reported":1730048815,"current_range_meters":24800,"station_id":"ce4bh412rcd13ifvqds0","pricing_plan_id":"cebpf4jnsgd1na2vs0mg"},{"bike_id":"e113f747-4daa-44f7-a218-9e030daa2565","system_id":"levelo_inurba_marseille","lat":43.32105,"lon":5.36773,"is_reserved":false,"is_disabled":false,"rental_uris":{"android":"levelo://app?vid=e113f747-4daa-44f7-a218-9e030daa2565","ios":"levelo://app?vid=e113f747-4daa-44f7-a218-9e030daa2565"},"vehicle_type_id":"4","last_reported":1730048815,"current_range_meters":25200,"station_id":"ce4bhrh2rcd13ifvqhug","pricing_plan_id":"cebpf4jnsgd1na2vs0mg"},{"bike_id":"9fd56fad-5f3d-42b4-b491-7b57b76bc0cf","system_id":"levelo_inurba_marseille","lat":43.27823,"lon":5.40725,"is_reserved":false,"is_disabled":false,"rental_uris":{"android":"levelo://app?vid=9fd56fad-5f3d-42b4-b491-7b57b76bc0cf","ios":"levelo://app?vid=9fd56fad-5f3d-42b4-b491-7b57b76bc0cf"},"vehicle_type_id":"4","last_reported":1730048815,"current_range_meters":22400,"station_id":"ce4bhnh2rcd13ifvqgtg","pricing_plan_id":"cebpf4jnsgd1na2vs0mg"},{"bike_id":"8f7598b6-5b51-490b-b360-57ebb98d1331","system_id":"levelo_inurba_marseille","lat":43.2939,"lon":5.41262,"is_reserved":false,"is_disabled":false,"rental_uris":{"android":"levelo://app?vid=8f7598b6-5b51-490b-b360-57ebb98d1331","ios":"levelo://app?vid=8f7598b6-5b51-490b-b360-57ebb98d1331"},"vehicle_type_id":"4","last_reported":1730048815,"current_range_meters":18800,"station_id":"","pricing_plan_id":"cebpf4jnsgd1na2vs0mg"},{"bike_id":"1e89e11a-d877-42e6-9f9a-8f93d3303580","system_id":"levelo_inurba_marseille","lat":43.26564,"lon":5.39008,"is_reserved":false,"is_disabled":false,"rental_uris":{"android":"levelo://app?vid=1e89e11a-d877-42e6-9f9a-8f93d3303580","ios":"levelo://app?vid=1e89e11a-d877-42e6-9f9a-8f93d3303580"},"vehicle_type_id":"4","last_reported":1730048815,"current_range_meters":4400,"station_id":"ce4bhe12rcd13ifvqf30","pricing_plan_id":"cebpf4jnsgd1na2vs0mg"},{"bike_id":"b779d3ec-2246-4148-b549-9d0053c94e7b","system_id":"levelo_inurba_marseille","lat":43.29964,"lon":5.41327,"is_reserved":false,"is_disabled":false,"rental_uris":{"android":"levelo://app?vid=b779d3ec-2246-4148-b549-9d0053c94e7b","ios":"levelo://app?vid=b779d3ec-2246-4148-b549-9d0053c94e7b"},"vehicle_type_id":"4","last_reported":1730048815,"current_range_meters":30000,"station_id":"ce4bhp12rcd13ifvqh9g","pricing_plan_id":"cebpf4jnsgd1na2vs0mg"},{"bike_id":"a36f9567-2082-4e61-85ce-5bf928d1099b","system_id":"levelo_inurba_marseille","lat":43.261992,"lon":5.379385,"is_reserved":false,"is_disabled":false,"rental_uris":{"android":"levelo://app?vid=a36f9567-2082-4e61-85ce-5bf928d1099b","ios":"levelo://app?vid=a36f9567-2082-4e61-85ce-5bf928d1099b"},"vehicle_type_id":"4","last_reported":1730048815,"current_range_meters":30000,"station_id":"ce4bhjp2rcd13ifvqg90","pricing_plan_id":"cebpf4jnsgd1na2vs0mg"},{"bike_id":"d7ff7165-6d5c-4f76-865c-b2ea1a2a3c7a","system_id":"levelo_inurba_marseille","lat":43.27503,"lon":5.42457,"is_reserved":false,"is_disabled":false,"rental_uris":{"android":"levelo://app?vid=d7ff7165-6d5c-4f76-865c-b2ea1a2a3c7a","ios":"levelo://app?vid=d7ff7165-6d5c-4f76-865c-b2ea1a2a3c7a"},"vehicle_type_id":"4","last_reported":1730048815,"current_range_meters":38800,"station_id":"ce4bhn92rcd13ifvqgrg","pricing_plan_id":"cebpf4jnsgd1na2vs0mg"},{"bike_id":"ed63078d-eeda-480d-aa9c-c63b8aa104d4","system_id":"levelo_inurba_marseille","lat":43.29094,"lon":5.38137,"is_reserved":false,"is_disabled":false,"rental_uris":{"android":"levelo://app?vid=ed63078d-eeda-480d-aa9c-c63b8aa104d4","ios":"levelo://app?vid=ed63078d-eeda-480d-aa9c-c63b8aa104d4"},"vehicle_type_id":"4","last_reported":1730048815,"current_range_meters":11600,"station_id":"ce4bh512rcd13ifvqe2g","pricing_plan_id":"cebpf4jnsgd1na2vs0mg"},{"bike_id":"02efff61-5b53-42f0-8deb-59befd730dce","system_id":"levelo_inurba_marseille","lat":43.29895,"lon":5.43671,"is_reserved":false,"is_disabled":false,"rental_uris":{"android":"levelo://app?vid=02efff61-5b53-42f0-8deb-59befd730dce","ios":"levelo://app?vid=02efff61-5b53-42f0-8deb-59befd730dce"},"vehicle_type_id":"4","last_reported":1730048815,"current_range_meters":33200,"station_id":"ce4bhpp2rcd13ifvqhfg","pricing_plan_id":"cebpf4jnsgd1na2vs0mg"},{"bike_id":"b8199a3a-a79b-449e-9a5f-c4f97c829179","system_id":"levelo_inurba_marseille","lat":43.29255,"lon":5.38447,"is_reserved":false,"is_disabled":false,"rental_uris":{"android":"levelo://app?vid=b8199a3a-a79b-449e-9a5f-c4f97c829179","ios":"levelo://app?vid=b8199a3a-a79b-449e-9a5f-c4f97c829179"},"vehicle_type_id":"4","last_reported":1730048815,"current_range_meters":28400,"station_id":"ce4bh692rcd13ifvqea0","pricing_plan_id":"cebpf4jnsgd1na2vs0mg"},{"bike_id":"3d346dad-5c79-4980-af5e-5f62ddbf0cdf","system_id":"levelo_inurba_marseille","lat":43.290243,"lon":5.381246,"is_reserved":false,"is_disabled":false,"rental_uris":{"android":"levelo://app?vid=3d346dad-5c79-4980-af5e-5f62ddbf0cdf","ios":"levelo://app?vid=3d346dad-5c79-4980-af5e-5f62ddbf0cdf"},"vehicle_type_id":"4","last_reported":1730048815,"current_range_meters":32000,"station_id":"ce4bh4p2rcd13ifvqe1g","pricing_plan_id":"cebpf4jnsgd1na2vs0mg"},{"bike_id":"43cb6264-0d10-4168-8397-1cf9967a9e72","system_id":"levelo_inurba_marseille","lat":43.29524,"lon":5.39409,"is_reserved":false,"is_disabled":false,"rental_uris":{"android":"levelo://app?vid=43cb6264-0d10-4168-8397-1cf9967a9e72","ios":"levelo://app?vid=43cb6264-0d10-4168-8397-1cf9967a9e72"},"vehicle_type_id":"4","last_reported":1730048815,"current_range_meters":22800,"station_id":"ce4bh292rcd13ifvqdf0","pricing_plan_id":"cebpf4jnsgd1na2vs0mg"},{"bike_id":"263f93c9-144a-4508-b60e-cbaf71ba2571","system_id":"levelo_inurba_marseille","lat":43.2418,"lon":5.39722,"is_reserved":false,"is_disabled":false,"rental_uris":{"android":"levelo://app?vid=263f93c9-144a-4508-b60e-cbaf71ba2571","ios":"levelo://app?vid=263f93c9-144a-4508-b60e-cbaf71ba2571"},"vehicle_type_id":"4","last_reported":1730048815,"current_range_meters":36800,"station_id":"ce4bhn12rcd13ifvqgpg","pricing_plan_id":"cebpf4jnsgd1na2vs0mg"},{"bike_id":"6bfb5719-3b43-4cba-b289-81bc66dde240","system_id":"levelo_inurba_marseille","lat":43.29226,"lon":5.36051,"is_reserved":false,"is_disabled":false,"rental_uris":{"android":"levelo://app?vid=6bfb5719-3b43-4cba-b289-81bc66dde240","ios":"levelo://app?vid=6bfb5719-3b43-4cba-b289-81bc66dde240"},"vehicle_type_id":"4","last_reported":1730048815,"current_range_meters":24800,"station_id":"ce4bhbh2rcd13ifvqeqg","pricing_plan_id":"cebpf4jnsgd1na2vs0mg"},{"bike_id":"7a5afbf7-d63f-4e3b-bf50-1a8cc5f1048f","system_id":"levelo_inurba_marseille","lat":43.28484,"lon":5.38422,"is_reserved":false,"is_disabled":false,"rental_uris":{"android":"levelo://app?vid=7a5afbf7-d63f-4e3b-bf50-1a8cc5f1048f","ios":"levelo://app?vid=7a5afbf7-d63f-4e3b-bf50-1a8cc5f1048f"},"vehicle_type_id":"4","last_reported":1730048815,"current_range_meters":30000,"station_id":"ce4bh512rcd13ifvqe3g","pricing_plan_id":"cebpf4jnsgd1na2vs0mg"},{"bike_id":"4d49d52d-785d-411e-b344-5872062c1849","system_id":"levelo_inurba_marseille","lat":43.23054,"lon":5.35491,"is_reserved":false,"is_disabled":false,"rental_uris":{"android":"levelo://app?vid=4d49d52d-785d-411e-b344-5872062c1849","ios":"levelo://app?vid=4d49d52d-785d-411e-b344-5872062c1849"},"vehicle_type_id":"4","last_reported":1730048815,"current_range_meters":6800,"station_id":"cpo3342slgdg3j2ifvpg","pricing_plan_id":"cebpf4jnsgd1na2vs0mg"},{"bike_id":"b1860cce-4d16-40bb-aa21-1b8ac043fee3","system_id":"levelo_inurba_marseille","lat":43.31715,"lon":5.3774,"is_reserved":false,"is_disabled":false,"rental_uris":{"android":"levelo://app?vid=b1860cce-4d16-40bb-aa21-1b8ac043fee3","ios":"levelo://app?vid=b1860cce-4d16-40bb-aa21-1b8ac043fee3"},"vehicle_type_id":"4","last_reported":1730048815,"current_range_meters":20800,"station_id":"ce4bgth2rcd13ifvqch0","pricing_plan_id":"cebpf4jnsgd1na2vs0mg"},{"bike_id":"8f342bf0-1d77-4a2d-b784-94775eee24da","system_id":"levelo_inurba_marseille","lat":43.31358,"lon":5.38489,"is_reserved":false,"is_disabled":false,"rental_uris":{"android":"levelo://app?vid=8f342bf0-1d77-4a2d-b784-94775eee24da","ios":"levelo://app?vid=8f342bf0-1d77-4a2d-b784-94775eee24da"},"vehicle_type_id":"4","last_reported":1730048815,"current_range_meters":19200,"station_id":"ce4bgt92rcd13ifvqcf0","pricing_plan_id":"cebpf4jnsgd1na2vs0mg"},{"bike_id":"37b4af7a-a8f6-4c94-9081-4a992deef500","system_id":"levelo_inurba_marseille","lat":43.28861,"lon":5.35876,"is_reserved":false,"is_disabled":false,"rental_uris":{"android":"levelo://app?vid=37b4af7a-a8f6-4c94-9081-4a992deef500","ios":"levelo://app?vid=37b4af7a-a8f6-4c94-9081-4a992deef500"},"vehicle_type_id":"4","last_reported":1730048815,"current_range_meters":39200,"station_id":"ce4bhb12rcd13ifvqem0","pricing_plan_id":"cebpf4jnsgd1na2vs0mg"},{"bike_id":"2af0357b-0b54-4de4-84ca-424bad4ad85a","system_id":"levelo_inurba_marseille","lat":43.29259,"lon":5.38446,"is_reserved":false,"is_disabled":false,"rental_uris":{"android":"levelo://app?vid=2af0357b-0b54-4de4-84ca-424bad4ad85a","ios":"levelo://app?vid=2af0357b-0b54-4de4-84ca-424bad4ad85a"},"vehicle_type_id":"4","last_reported":1730048815,"current_range_meters":38800,"station_id":"ce4bh692rcd13ifvqea0","pricing_plan_id":"cebpf4jnsgd1na2vs0mg"},{"bike_id":"48353595-6d69-4320-8652-568b04db3dbc","system_id":"levelo_inurba_marseille","lat":43.26951,"lon":5.38628,"is_reserved":false,"is_disabled":false,"rental_uris":{"android":"levelo://app?vid=48353595-6d69-4320-8652-568b04db3dbc","ios":"levelo://app?vid=48353595-6d69-4320-8652-568b04db3dbc"},"vehicle_type_id":"4","last_reported":1730048815,"current_range_meters":36400,"station_id":"ce4bhh92rcd13ifvqfh0","pricing_plan_id":"cebpf4jnsgd1na2vs0mg"},{"bike_id":"b7593b9f-bec6-480e-834f-c0321bab379e","system_id":"levelo_inurba_marseille","lat":43.27302,"lon":5.39107,"is_reserved":false,"is_disabled":false,"rental_uris":{"android":"levelo://app?vid=b7593b9f-bec6-480e-834f-c0321bab379e","ios":"levelo://app?vid=b7593b9f-bec6-480e-834f-c0321bab379e"},"vehicle_type_id":"4","last_reported":1730048815,"current_range_meters":22000,"station_id":"ce4bhgp2rcd13ifvqfe0","pricing_plan_id":"cebpf4jnsgd1na2vs0mg"},{"bike_id":"aa0499ad-4a8f-40b0-9752-c56681c8a993","system_id":"levelo_inurba_marseille","lat":43.29906,"lon":5.38148,"is_reserved":false,"is_disabled":false,"rental_uris":{"android":"levelo://app?vid=aa0499ad-4a8f-40b0-9752-c56681c8a993","ios":"levelo://app?vid=aa0499ad-4a8f-40b0-9752-c56681c8a993"},"vehicle_type_id":"4","last_reported":1730048815,"current_range_meters":36800,"station_id":"ce4bgj12rcd13ifvqbc0","pricing_plan_id":"cebpf4jnsgd1na2vs0mg"},{"bike_id":"f5cad699-dd85-4b9d-98df-445062806ae9","system_id":"levelo_inurba_marseille","lat":43.28697,"lon":5.37409,"is_reserved":false,"is_disabled":false,"rental_uris":{"android":"levelo://app?vid=f5cad699-dd85-4b9d-98df-445062806ae9","ios":"levelo://app?vid=f5cad699-dd85-4b9d-98df-445062806ae9"},"vehicle_type_id":"4","last_reported":1730048815,"current_range_meters":12800,"station_id":"ce4bh3p2rcd13ifvqdq0","pricing_plan_id":"cebpf4jnsgd1na2vs0mg"},{"bike_id":"8d1224ea-8c67-414f-8e8e-8dff85dd0343","system_id":"levelo_inurba_marseille","lat":43.25007,"lon":5.38935,"is_reserved":false,"is_disabled":false,"rental_uris":{"android":"levelo://app?vid=8d1224ea-8c67-414f-8e8e-8dff85dd0343","ios":"levelo://app?vid=8d1224ea-8c67-414f-8e8e-8dff85dd0343"},"vehicle_type_id":"4","last_reported":1730048815,"current_range_meters":36400,"station_id":"ce4bhgp2rcd13ifvqfd0","pricing_plan_id":"cebpf4jnsgd1na2vs0mg"},{"bike_id":"9befed88-9f8c-464c-b07b-093bd97066bb","system_id":"levelo_inurba_marseille","lat":43.29805,"lon":5.37136,"is_reserved":false,"is_disabled":false,"rental_uris":{"android":"levelo://app?vid=9befed88-9f8c-464c-b07b-093bd97066bb","ios":"levelo://app?vid=9befed88-9f8c-464c-b07b-093bd97066bb"},"vehicle_type_id":"4","last_reported":1730048815,"current_range_meters":19200,"station_id":"","pricing_plan_id":"cebpf4jnsgd1na2vs0mg"},{"bike_id":"f37e3b02-a49c-4c4e-b112-f9c8c24edf90","system_id":"levelo_inurba_marseille","lat":43.2319,"lon":5.35552,"is_reserved":false,"is_disabled":false,"rental_uris":{"android":"levelo://app?vid=f37e3b02-a49c-4c4e-b112-f9c8c24edf90","ios":"levelo://app?vid=f37e3b02-a49c-4c4e-b112-f9c8c24edf90"},"vehicle_type_id":"4","last_reported":1730048815,"current_range_meters":16000,"station_id":"ce4bhu92rcd13ifvqi70","pricing_plan_id":"cebpf4jnsgd1na2vs0mg"},{"bike_id":"a01c8168-7e4a-447a-8b47-eb32e0f76f73","system_id":"levelo_inurba_marseille","lat":43.29784,"lon":5.37099,"is_reserved":false,"is_disabled":false,"rental_uris":{"android":"levelo://app?vid=a01c8168-7e4a-447a-8b47-eb32e0f76f73","ios":"levelo://app?vid=a01c8168-7e4a-447a-8b47-eb32e0f76f73"},"vehicle_type_id":"4","last_reported":1730048815,"current_range_meters":38800,"station_id":"ce4bgop2rcd13ifvqc1g","pricing_plan_id":"cebpf4jnsgd1na2vs0mg"},{"bike_id":"da353f6f-a946-4f5c-acd2-bc156e7db5b0","system_id":"levelo_inurba_marseille","lat":43.29192,"lon":5.35809,"is_reserved":false,"is_disabled":false,"rental_uris":{"android":"levelo://app?vid=da353f6f-a946-4f5c-acd2-bc156e7db5b0","ios":"levelo://app?vid=da353f6f-a946-4f5c-acd2-bc156e7db5b0"},"vehicle_type_id":"4","last_reported":1730048815,"current_range_meters":35200,"station_id":"ce4bhb12rcd13ifvqel0","pricing_plan_id":"cebpf4jnsgd1na2vs0mg"},{"bike_id":"00326d57-4737-428d-9d28-a999b73162cd","system_id":"levelo_inurba_marseille","lat":43.29623,"lon":5.37169,"is_reserved":false,"is_disabled":false,"rental_uris":{"android":"levelo://app?vid=00326d57-4737-428d-9d28-a999b73162cd","ios":"levelo://app?vid=00326d57-4737-428d-9d28-a999b73162cd"},"vehicle_type_id":"4","last_reported":1730048815,"current_range_meters":29600,"station_id":"","pricing_plan_id":"cebpf4jnsgd1na2vs0mg"},{"bike_id":"7c415667-afd5-4e51-88b5-a0f16e35d58c","system_id":"levelo_inurba_marseille","lat":43.27497,"lon":5.42459,"is_reserved":false,"is_disabled":false,"rental_uris":{"android":"levelo://app?vid=7c415667-afd5-4e51-88b5-a0f16e35d58c","ios":"levelo://app?vid=7c415667-afd5-4e51-88b5-a0f16e35d58c"},"vehicle_type_id":"4","last_reported":1730048815,"current_range_meters":26000,"station_id":"ce4bhn92rcd13ifvqgrg","pricing_plan_id":"cebpf4jnsgd1na2vs0mg"},{"bike_id":"cc6aff77-2050-447b-aa85-1faa5ad4d2cc","system_id":"levelo_inurba_marseille","lat":43.29715,"lon":5.36603,"is_reserved":false,"is_disabled":false,"rental_uris":{"android":"levelo://app?vid=cc6aff77-2050-447b-aa85-1faa5ad4d2cc","ios":"levelo://app?vid=cc6aff77-2050-447b-aa85-1faa5ad4d2cc"},"vehicle_type_id":"4","last_reported":1730048815,"current_range_meters":10800,"station_id":"ce4bgn12rcd13ifvqbt0","pricing_plan_id":"cebpf4jnsgd1na2vs0mg"},{"bike_id":"19804416-aaac-4caf-b6be-6a92b17ca2e1","system_id":"levelo_inurba_marseille","lat":43.27205,"lon":5.39188,"is_reserved":false,"is_disabled":false,"rental_uris":{"android":"levelo://app?vid=19804416-aaac-4caf-b6be-6a92b17ca2e1","ios":"levelo://app?vid=19804416-aaac-4caf-b6be-6a92b17ca2e1"},"vehicle_type_id":"4","last_reported":1730048815,"current_range_meters":32000,"station_id":"ce4bhhp2rcd13ifvqfm0","pricing_plan_id":"cebpf4jnsgd1na2vs0mg"},{"bike_id":"e39645c5-87ac-4e87-90ca-e4c6f3ff67ce","system_id":"levelo_inurba_marseille","lat":43.29938,"lon":5.36561,"is_reserved":false,"is_disabled":false,"rental_uris":{"android":"levelo://app?vid=e39645c5-87ac-4e87-90ca-e4c6f3ff67ce","ios":"levelo://app?vid=e39645c5-87ac-4e87-90ca-e4c6f3ff67ce"},"vehicle_type_id":"4","last_reported":1730048815,"current_range_meters":35200,"station_id":"ce4bgm92rcd13ifvqbr0","pricing_plan_id":"cebpf4jnsgd1na2vs0mg"},{"bike_id":"76062caa-077f-43f3-99bb-d065d1b403a8","system_id":"levelo_inurba_marseille","lat":43.24807,"lon":5.37463,"is_reserved":false,"is_disabled":false,"rental_uris":{"android":"levelo://app?vid=76062caa-077f-43f3-99bb-d065d1b403a8","ios":"levelo://app?vid=76062caa-077f-43f3-99bb-d065d1b403a8"},"vehicle_type_id":"4","last_reported":1730048815,"current_range_meters":16000,"station_id":"ce4bhgh2rcd13ifvqfb0","pricing_plan_id":"cebpf4jnsgd1na2vs0mg"},{"bike_id":"ee393d85-39b2-4dab-ac33-c77838257964","system_id":"levelo_inurba_marseille","lat":43.29029,"lon":5.38131,"is_reserved":false,"is_disabled":false,"rental_uris":{"android":"levelo://app?vid=ee393d85-39b2-4dab-ac33-c77838257964","ios":"levelo://app?vid=ee393d85-39b2-4dab-ac33-c77838257964"},"vehicle_type_id":"4","last_reported":1730048815,"current_range_meters":38000,"station_id":"ce4bh4p2rcd13ifvqe1g","pricing_plan_id":"cebpf4jnsgd1na2vs0mg"},{"bike_id":"70ef1d30-3989-47f1-a56f-dfe0f32825ab","system_id":"levelo_inurba_marseille","lat":43.2695,"lon":5.38645,"is_reserved":false,"is_disabled":false,"rental_uris":{"android":"levelo://app?vid=70ef1d30-3989-47f1-a56f-dfe0f32825ab","ios":"levelo://app?vid=70ef1d30-3989-47f1-a56f-dfe0f32825ab"},"vehicle_type_id":"4","last_reported":1730048815,"current_range_meters":30400,"station_id":"ce4bhh92rcd13ifvqfh0","pricing_plan_id":"cebpf4jnsgd1na2vs0mg"},{"bike_id":"3d729504-3198-4bd2-a0c7-ff4fc02f56e0","system_id":"levelo_inurba_marseille","lat":43.31669,"lon":5.37467,"is_reserved":false,"is_disabled":false,"rental_uris":{"android":"levelo://app?vid=3d729504-3198-4bd2-a0c7-ff4fc02f56e0","ios":"levelo://app?vid=3d729504-3198-4bd2-a0c7-ff4fc02f56e0"},"vehicle_type_id":"4","last_reported":1730048815,"current_range_meters":16800,"station_id":"ce4bgt12rcd13ifvqcd0","pricing_plan_id":"cebpf4jnsgd1na2vs0mg"},{"bike_id":"4b53140f-4e16-4a6c-8434-d2341cbea115","system_id":"levelo_inurba_marseille","lat":43.26789,"lon":5.39421,"is_reserved":false,"is_disabled":false,"rental_uris":{"android":"levelo://app?vid=4b53140f-4e16-4a6c-8434-d2341cbea115","ios":"levelo://app?vid=4b53140f-4e16-4a6c-8434-d2341cbea115"},"vehicle_type_id":"4","last_reported":1730048815,"current_range_meters":14000,"station_id":"ce4bhh12rcd13ifvqfg0","pricing_plan_id":"cebpf4jnsgd1na2vs0mg"},{"bike_id":"2b91129f-dad4-4c8a-b494-51b08305baee","system_id":"levelo_inurba_marseille","lat":43.31493,"lon":5.37307,"is_reserved":false,"is_disabled":false,"rental_uris":{"android":"levelo://app?vid=2b91129f-dad4-4c8a-b494-51b08305baee","ios":"levelo://app?vid=2b91129f-dad4-4c8a-b494-51b08305baee"},"vehicle_type_id":"4","last_reported":1730048815,"current_range_meters":25600,"station_id":"ce4bgt12rcd13ifvqcd0","pricing_plan_id":"cebpf4jnsgd1na2vs0mg"},{"bike_id":"b2236c56-addd-4741-aae1-bdc8c2af621f","system_id":"levelo_inurba_marseille","lat":43.30387,"lon":5.39724,"is_reserved":false,"is_disabled":false,"rental_uris":{"android":"levelo://app?vid=b2236c56-addd-4741-aae1-bdc8c2af621f","ios":"levelo://app?vid=b2236c56-addd-4741-aae1-bdc8c2af621f"},"vehicle_type_id":"4","last_reported":1730048815,"current_range_meters":30400,"station_id":"","pricing_plan_id":"cebpf4jnsgd1na2vs0mg"},{"bike_id":"6509200a-ac87-46af-a74b-1a5fd2948855","system_id":"levelo_inurba_marseille","lat":43.27986,"lon":5.40037,"is_reserved":false,"is_disabled":false,"rental_uris":{"android":"levelo://app?vid=6509200a-ac87-46af-a74b-1a5fd2948855","ios":"levelo://app?vid=6509200a-ac87-46af-a74b-1a5fd2948855"},"vehicle_type_id":"4","last_reported":1730048815,"current_range_meters":38000,"station_id":"ce4bho92rcd13ifvqh4g","pricing_plan_id":"cebpf4jnsgd1na2vs0mg"},{"bike_id":"a3fe6a0c-94da-4d45-a382-16aa858dca1b","system_id":"levelo_inurba_marseille","lat":43.29535,"lon":5.37511,"is_reserved":false,"is_disabled":false,"rental_uris":{"android":"levelo://app?vid=a3fe6a0c-94da-4d45-a382-16aa858dca1b","ios":"levelo://app?vid=a3fe6a0c-94da-4d45-a382-16aa858dca1b"},"vehicle_type_id":"4","last_reported":1730048815,"current_range_meters":9200,"station_id":"ce4bgkp2rcd13ifvqbmg","pricing_plan_id":"cebpf4jnsgd1na2vs0mg"},{"bike_id":"926c586f-1ab3-49a6-9c58-bb964989970a","system_id":"levelo_inurba_marseille","lat":43.29621,"lon":5.37172,"is_reserved":false,"is_disabled":false,"rental_uris":{"android":"levelo://app?vid=926c586f-1ab3-49a6-9c58-bb964989970a","ios":"levelo://app?vid=926c586f-1ab3-49a6-9c58-bb964989970a"},"vehicle_type_id":"4","last_reported":1730048815,"current_range_meters":30800,"station_id":"ce4bgnh2rcd13ifvqc0g","pricing_plan_id":"cebpf4jnsgd1na2vs0mg"},{"bike_id":"fc54002c-c5a8-498b-8033-305979afe3a2","system_id":"levelo_inurba_marseille","lat":43.26944,"lon":5.40251,"is_reserved":false,"is_disabled":false,"rental_uris":{"android":"levelo://app?vid=fc54002c-c5a8-498b-8033-305979afe3a2","ios":"levelo://app?vid=fc54002c-c5a8-498b-8033-305979afe3a2"},"vehicle_type_id":"4","last_reported":1730048815,"current_range_meters":7200,"station_id":"cjm6bp8fraef2m0cb0m0","pricing_plan_id":"cebpf4jnsgd1na2vs0mg"},{"bike_id":"96dd5c7d-5cb8-49ee-a97b-29e867f14c52","system_id":"levelo_inurba_marseille","lat":43.29515,"lon":5.39412,"is_reserved":false,"is_disabled":false,"rental_uris":{"android":"levelo://app?vid=96dd5c7d-5cb8-49ee-a97b-29e867f14c52","ios":"levelo://app?vid=96dd5c7d-5cb8-49ee-a97b-29e867f14c52"},"vehicle_type_id":"4","last_reported":1730048815,"current_range_meters":22000,"station_id":"ce4bh292rcd13ifvqdf0","pricing_plan_id":"cebpf4jnsgd1na2vs0mg"},{"bike_id":"b8d999f4-b9d9-4927-a0aa-1a2e31ee3ae9","system_id":"levelo_inurba_marseille","lat":43.30349,"lon":5.41891,"is_reserved":false,"is_disabled":false,"rental_uris":{"android":"levelo://app?vid=b8d999f4-b9d9-4927-a0aa-1a2e31ee3ae9","ios":"levelo://app?vid=b8d999f4-b9d9-4927-a0aa-1a2e31ee3ae9"},"vehicle_type_id":"4","last_reported":1730048815,"current_range_meters":40000,"station_id":"ce4bhop2rcd13ifvqh7g","pricing_plan_id":"cebpf4jnsgd1na2vs0mg"},{"bike_id":"b201b8c1-b0e9-499d-984f-3c39ebec1b9d","system_id":"levelo_inurba_marseille","lat":43.2396,"lon":5.36628,"is_reserved":false,"is_disabled":false,"rental_uris":{"android":"levelo://app?vid=b201b8c1-b0e9-499d-984f-3c39ebec1b9d","ios":"levelo://app?vid=b201b8c1-b0e9-499d-984f-3c39ebec1b9d"},"vehicle_type_id":"4","last_reported":1730048815,"current_range_meters":5600,"station_id":"ce4bhi12rcd13ifvqfp0","pricing_plan_id":"cebpf4jnsgd1na2vs0mg"},{"bike_id":"76588601-f0de-444c-8708-6d6ae74a37db","system_id":"levelo_inurba_marseille","lat":43.23963,"lon":5.36647,"is_reserved":false,"is_disabled":false,"rental_uris":{"android":"levelo://app?vid=76588601-f0de-444c-8708-6d6ae74a37db","ios":"levelo://app?vid=76588601-f0de-444c-8708-6d6ae74a37db"},"vehicle_type_id":"4","last_reported":1730048815,"current_range_meters":37600,"station_id":"ce4bhi12rcd13ifvqfp0","pricing_plan_id":"cebpf4jnsgd1na2vs0mg"},{"bike_id":"7cdd88d2-5824-40fa-8faf-90ef733261c2","system_id":"levelo_inurba_marseille","lat":43.23961,"lon":5.36644,"is_reserved":false,"is_disabled":false,"rental_uris":{"android":"levelo://app?vid=7cdd88d2-5824-40fa-8faf-90ef733261c2","ios":"levelo://app?vid=7cdd88d2-5824-40fa-8faf-90ef733261c2"},"vehicle_type_id":"4","last_reported":1730048815,"current_range_meters":16000,"station_id":"ce4bhi12rcd13ifvqfp0","pricing_plan_id":"cebpf4jnsgd1na2vs0mg"},{"bike_id":"d93f5d66-5801-405e-8177-d8044aa5543d","system_id":"levelo_inurba_marseille","lat":43.28158,"lon":5.42642,"is_reserved":false,"is_disabled":false,"rental_uris":{"android":"levelo://app?vid=d93f5d66-5801-405e-8177-d8044aa5543d","ios":"levelo://app?vid=d93f5d66-5801-405e-8177-d8044aa5543d"},"vehicle_type_id":"4","last_reported":1730048815,"current_range_meters":5600,"station_id":"ce4bhnh2rcd13ifvqgug","pricing_plan_id":"cebpf4jnsgd1na2vs0mg"},{"bike_id":"8a7ea3b3-7c19-4f13-a31a-07202c98e2c3","system_id":"levelo_inurba_marseille","lat":43.32476,"lon":5.36559,"is_reserved":false,"is_disabled":false,"rental_uris":{"android":"levelo://app?vid=8a7ea3b3-7c19-4f13-a31a-07202c98e2c3","ios":"levelo://app?vid=8a7ea3b3-7c19-4f13-a31a-07202c98e2c3"},"vehicle_type_id":"4","last_reported":1730048815,"current_range_meters":20000,"station_id":"ce4bhs12rcd13ifvqhvg","pricing_plan_id":"cebpf4jnsgd1na2vs0mg"},{"bike_id":"72ccf0e8-e5f1-47b6-bf3c-74fcfeb87b9b","system_id":"levelo_inurba_marseille","lat":43.28459,"lon":5.35902,"is_reserved":false,"is_disabled":false,"rental_uris":{"android":"levelo://app?vid=72ccf0e8-e5f1-47b6-bf3c-74fcfeb87b9b","ios":"levelo://app?vid=72ccf0e8-e5f1-47b6-bf3c-74fcfeb87b9b"},"vehicle_type_id":"4","last_reported":1730048815,"current_range_meters":18000,"station_id":"ce4bhah2rcd13ifvqei0","pricing_plan_id":"cebpf4jnsgd1na2vs0mg"},{"bike_id":"4d5d1a61-2d95-46a5-90d7-17d152732de7","system_id":"levelo_inurba_marseille","lat":43.23964,"lon":5.36632,"is_reserved":false,"is_disabled":false,"rental_uris":{"android":"levelo://app?vid=4d5d1a61-2d95-46a5-90d7-17d152732de7","ios":"levelo://app?vid=4d5d1a61-2d95-46a5-90d7-17d152732de7"},"vehicle_type_id":"4","last_reported":1730048815,"current_range_meters":6000,"station_id":"ce4bhi12rcd13ifvqfp0","pricing_plan_id":"cebpf4jnsgd1na2vs0mg"},{"bike_id":"76a99072-dc6b-47f6-b201-f47b8acc386a","system_id":"levelo_inurba_marseille","lat":43.29904,"lon":5.38152,"is_reserved":false,"is_disabled":false,"rental_uris":{"android":"levelo://app?vid=76a99072-dc6b-47f6-b201-f47b8acc386a","ios":"levelo://app?vid=76a99072-dc6b-47f6-b201-f47b8acc386a"},"vehicle_type_id":"4","last_reported":1730048815,"current_range_meters":38800,"station_id":"ce4bgj12rcd13ifvqbc0","pricing_plan_id":"cebpf4jnsgd1na2vs0mg"},{"bike_id":"92af658e-262a-4260-9be5-6e9969822a1d","system_id":"levelo_inurba_marseille","lat":43.30179,"lon":5.36631,"is_reserved":false,"is_disabled":false,"rental_uris":{"android":"levelo://app?vid=92af658e-262a-4260-9be5-6e9969822a1d","ios":"levelo://app?vid=92af658e-262a-4260-9be5-6e9969822a1d"},"vehicle_type_id":"4","last_reported":1730048815,"current_range_meters":20000,"station_id":"ce4bgrh2rcd13ifvqc8g","pricing_plan_id":"cebpf4jnsgd1na2vs0mg"},{"bike_id":"bd998f17-00bd-495a-b9fb-e99a3793875c","system_id":"levelo_inurba_marseille","lat":43.29417,"lon":5.3863,"is_reserved":false,"is_disabled":false,"rental_uris":{"android":"levelo://app?vid=bd998f17-00bd-495a-b9fb-e99a3793875c","ios":"levelo://app?vid=bd998f17-00bd-495a-b9fb-e99a3793875c"},"vehicle_type_id":"4","last_reported":1730048815,"current_range_meters":35200,"station_id":"ce4bh2h2rcd13ifvqdh0","pricing_plan_id":"cebpf4jnsgd1na2vs0mg"},{"bike_id":"6a1480b1-c02c-4e9a-9870-2f43997e28ba","system_id":"levelo_inurba_marseille","lat":43.27817,"lon":5.40716,"is_reserved":false,"is_disabled":false,"rental_uris":{"android":"levelo://app?vid=6a1480b1-c02c-4e9a-9870-2f43997e28ba","ios":"levelo://app?vid=6a1480b1-c02c-4e9a-9870-2f43997e28ba"},"vehicle_type_id":"4","last_reported":1730048815,"current_range_meters":32000,"station_id":"ce4bhnh2rcd13ifvqgtg","pricing_plan_id":"cebpf4jnsgd1na2vs0mg"},{"bike_id":"90326538-3425-40ee-b0fb-cf6c32f15af4","system_id":"levelo_inurba_marseille","lat":43.2731,"lon":5.39099,"is_reserved":false,"is_disabled":false,"rental_uris":{"android":"levelo://app?vid=90326538-3425-40ee-b0fb-cf6c32f15af4","ios":"levelo://app?vid=90326538-3425-40ee-b0fb-cf6c32f15af4"},"vehicle_type_id":"4","last_reported":1730048815,"current_range_meters":27600,"station_id":"ce4bhgp2rcd13ifvqfe0","pricing_plan_id":"cebpf4jnsgd1na2vs0mg"},{"bike_id":"bdc1c5dd-9209-4667-8066-ed6f2c9813a6","system_id":"levelo_inurba_marseille","lat":43.27056,"lon":5.40266,"is_reserved":false,"is_disabled":false,"rental_uris":{"android":"levelo://app?vid=bdc1c5dd-9209-4667-8066-ed6f2c9813a6","ios":"levelo://app?vid=bdc1c5dd-9209-4667-8066-ed6f2c9813a6"},"vehicle_type_id":"4","last_reported":1730048815,"current_range_meters":38800,"station_id":"ce4bhk92rcd13ifvqgc0","pricing_plan_id":"cebpf4jnsgd1na2vs0mg"},{"bike_id":"9902eb33-770a-45c3-9dbf-1cb0b8e4c2f1","system_id":"levelo_inurba_marseille","lat":43.25005,"lon":5.38916,"is_reserved":false,"is_disabled":false,"rental_uris":{"android":"levelo://app?vid=9902eb33-770a-45c3-9dbf-1cb0b8e4c2f1","ios":"levelo://app?vid=9902eb33-770a-45c3-9dbf-1cb0b8e4c2f1"},"vehicle_type_id":"4","last_reported":1730048815,"current_range_meters":18000,"station_id":"ce4bhgp2rcd13ifvqfd0","pricing_plan_id":"cebpf4jnsgd1na2vs0mg"},{"bike_id":"3d700e3f-487d-447b-b321-fa48c827b98e","system_id":"levelo_inurba_marseille","lat":43.28037,"lon":5.36947,"is_reserved":false,"is_disabled":false,"rental_uris":{"android":"levelo://app?vid=3d700e3f-487d-447b-b321-fa48c827b98e","ios":"levelo://app?vid=3d700e3f-487d-447b-b321-fa48c827b98e"},"vehicle_type_id":"4","last_reported":1730048815,"current_range_meters":12400,"station_id":"ce4bha12rcd13ifvqef0","pricing_plan_id":"cebpf4jnsgd1na2vs0mg"},{"bike_id":"51c38699-d51e-4a0a-a4e6-fbbad62f6b05","system_id":"levelo_inurba_marseille","lat":43.27815,"lon":5.40714,"is_reserved":false,"is_disabled":false,"rental_uris":{"android":"levelo://app?vid=51c38699-d51e-4a0a-a4e6-fbbad62f6b05","ios":"levelo://app?vid=51c38699-d51e-4a0a-a4e6-fbbad62f6b05"},"vehicle_type_id":"4","last_reported":1730048815,"current_range_meters":24400,"station_id":"ce4bhnh2rcd13ifvqgtg","pricing_plan_id":"cebpf4jnsgd1na2vs0mg"},{"bike_id":"6e45bd55-8d3d-47a0-ae26-852c24ebcb13","system_id":"levelo_inurba_marseille","lat":43.27813,"lon":5.40716,"is_reserved":false,"is_disabled":false,"rental_uris":{"android":"levelo://app?vid=6e45bd55-8d3d-47a0-ae26-852c24ebcb13","ios":"levelo://app?vid=6e45bd55-8d3d-47a0-ae26-852c24ebcb13"},"vehicle_type_id":"4","last_reported":1730048815,"current_range_meters":39200,"station_id":"ce4bhnh2rcd13ifvqgtg","pricing_plan_id":"cebpf4jnsgd1na2vs0mg"},{"bike_id":"a38e5e52-58c8-480c-806f-933cfc95bb71","system_id":"levelo_inurba_marseille","lat":43.28154,"lon":5.42644,"is_reserved":false,"is_disabled":false,"rental_uris":{"android":"levelo://app?vid=a38e5e52-58c8-480c-806f-933cfc95bb71","ios":"levelo://app?vid=a38e5e52-58c8-480c-806f-933cfc95bb71"},"vehicle_type_id":"4","last_reported":1730048815,"current_range_meters":14000,"station_id":"ce4bhnh2rcd13ifvqgug","pricing_plan_id":"cebpf4jnsgd1na2vs0mg"},{"bike_id":"e89316dc-a19a-469f-a9cd-dc00b495757e","system_id":"levelo_inurba_marseille","lat":43.2743,"lon":5.40655,"is_reserved":false,"is_disabled":false,"rental_uris":{"android":"levelo://app?vid=e89316dc-a19a-469f-a9cd-dc00b495757e","ios":"levelo://app?vid=e89316dc-a19a-469f-a9cd-dc00b495757e"},"vehicle_type_id":"4","last_reported":1730048815,"current_range_meters":8800,"station_id":"","pricing_plan_id":"cebpf4jnsgd1na2vs0mg"},{"bike_id":"d9c57ec9-c09e-4f42-92ef-c7b8a173429b","system_id":"levelo_inurba_marseille","lat":43.29583,"lon":5.37715,"is_reserved":false,"is_disabled":false,"rental_uris":{"android":"levelo://app?vid=d9c57ec9-c09e-4f42-92ef-c7b8a173429b","ios":"levelo://app?vid=d9c57ec9-c09e-4f42-92ef-c7b8a173429b"},"vehicle_type_id":"4","last_reported":1730048815,"current_range_meters":2800,"station_id":"ce4bgi92rcd13ifvqb90","pricing_plan_id":"cebpf4jnsgd1na2vs0mg"},{"bike_id":"44ecac53-e2d5-4730-96e0-ba76290d5a54","system_id":"levelo_inurba_marseille","lat":43.2694,"lon":5.40261,"is_reserved":false,"is_disabled":false,"rental_uris":{"android":"levelo://app?vid=44ecac53-e2d5-4730-96e0-ba76290d5a54","ios":"levelo://app?vid=44ecac53-e2d5-4730-96e0-ba76290d5a54"},"vehicle_type_id":"4","last_reported":1730048815,"current_range_meters":26000,"station_id":"cjm6bp8fraef2m0cb0m0","pricing_plan_id":"cebpf4jnsgd1na2vs0mg"},{"bike_id":"81e500be-3ff6-45b1-af40-237783c8efb0","system_id":"levelo_inurba_marseille","lat":43.27827,"lon":5.40718,"is_reserved":false,"is_disabled":false,"rental_uris":{"android":"levelo://app?vid=81e500be-3ff6-45b1-af40-237783c8efb0","ios":"levelo://app?vid=81e500be-3ff6-45b1-af40-237783c8efb0"},"vehicle_type_id":"4","last_reported":1730048815,"current_range_meters":12800,"station_id":"ce4bhnh2rcd13ifvqgtg","pricing_plan_id":"cebpf4jnsgd1na2vs0mg"},{"bike_id":"d2d849a7-8234-4080-ad56-c1dfd4d50ef0","system_id":"levelo_inurba_marseille","lat":43.30804,"lon":5.38158,"is_reserved":false,"is_disabled":false,"rental_uris":{"android":"levelo://app?vid=d2d849a7-8234-4080-ad56-c1dfd4d50ef0","ios":"levelo://app?vid=d2d849a7-8234-4080-ad56-c1dfd4d50ef0"},"vehicle_type_id":"4","last_reported":1730048815,"current_range_meters":6000,"station_id":"ce4bgt12rcd13ifvqce0","pricing_plan_id":"cebpf4jnsgd1na2vs0mg"},{"bike_id":"36909662-59f3-4cb5-948f-f6d174baf278","system_id":"levelo_inurba_marseille","lat":43.24652,"lon":5.38895,"is_reserved":false,"is_disabled":false,"rental_uris":{"android":"levelo://app?vid=36909662-59f3-4cb5-948f-f6d174baf278","ios":"levelo://app?vid=36909662-59f3-4cb5-948f-f6d174baf278"},"vehicle_type_id":"4","last_reported":1730048815,"current_range_meters":8800,"station_id":"ce4bhg12rcd13ifvqf60","pricing_plan_id":"cebpf4jnsgd1na2vs0mg"},{"bike_id":"794d2dfb-b5fd-4bcd-9f10-ec082e90bb21","system_id":"levelo_inurba_marseille","lat":43.26842,"lon":5.4129,"is_reserved":false,"is_disabled":false,"rental_uris":{"android":"levelo://app?vid=794d2dfb-b5fd-4bcd-9f10-ec082e90bb21","ios":"levelo://app?vid=794d2dfb-b5fd-4bcd-9f10-ec082e90bb21"},"vehicle_type_id":"4","last_reported":1730048815,"current_range_meters":7200,"station_id":"","pricing_plan_id":"cebpf4jnsgd1na2vs0mg"},{"bike_id":"3b387351-1cc5-4e72-82b4-eab405f52146","system_id":"levelo_inurba_marseille","lat":43.262054,"lon":5.379334,"is_reserved":false,"is_disabled":false,"rental_uris":{"android":"levelo://app?vid=3b387351-1cc5-4e72-82b4-eab405f52146","ios":"levelo://app?vid=3b387351-1cc5-4e72-82b4-eab405f52146"},"vehicle_type_id":"4","last_reported":1730048815,"current_range_meters":38800,"station_id":"ce4bhjp2rcd13ifvqg90","pricing_plan_id":"cebpf4jnsgd1na2vs0mg"},{"bike_id":"4f40e012-ea5b-4575-9527-1f943967bef1","system_id":"levelo_inurba_marseille","lat":43.23959,"lon":5.36651,"is_reserved":false,"is_disabled":false,"rental_uris":{"android":"levelo://app?vid=4f40e012-ea5b-4575-9527-1f943967bef1","ios":"levelo://app?vid=4f40e012-ea5b-4575-9527-1f943967bef1"},"vehicle_type_id":"4","last_reported":1730048815,"current_range_meters":9600,"station_id":"ce4bhi12rcd13ifvqfp0","pricing_plan_id":"cebpf4jnsgd1na2vs0mg"},{"bike_id":"4d18fdf7-40fd-43b3-89ca-7d0f38bd83c5","system_id":"levelo_inurba_marseille","lat":43.324819,"lon":5.365535,"is_reserved":false,"is_disabled":false,"rental_uris":{"android":"levelo://app?vid=4d18fdf7-40fd-43b3-89ca-7d0f38bd83c5","ios":"levelo://app?vid=4d18fdf7-40fd-43b3-89ca-7d0f38bd83c5"},"vehicle_type_id":"4","last_reported":1730048815,"current_range_meters":20800,"station_id":"ce4bhs12rcd13ifvqhvg","pricing_plan_id":"cebpf4jnsgd1na2vs0mg"},{"bike_id":"8d4c28a9-9805-49a4-bcbf-0f96ce223f5b","system_id":"levelo_inurba_marseille","lat":43.29038,"lon":5.38645,"is_reserved":false,"is_disabled":false,"rental_uris":{"android":"levelo://app?vid=8d4c28a9-9805-49a4-bcbf-0f96ce223f5b","ios":"levelo://app?vid=8d4c28a9-9805-49a4-bcbf-0f96ce223f5b"},"vehicle_type_id":"4","last_reported":1730048815,"current_range_meters":23200,"station_id":"ce4bh4p2rcd13ifvqe0g","pricing_plan_id":"cebpf4jnsgd1na2vs0mg"},{"bike_id":"6b10aa57-a20f-4a52-8be5-7f69bd4f0e4a","system_id":"levelo_inurba_marseille","lat":43.24648,"lon":5.38887,"is_reserved":false,"is_disabled":false,"rental_uris":{"android":"levelo://app?vid=6b10aa57-a20f-4a52-8be5-7f69bd4f0e4a","ios":"levelo://app?vid=6b10aa57-a20f-4a52-8be5-7f69bd4f0e4a"},"vehicle_type_id":"4","last_reported":1730048815,"current_range_meters":36000,"station_id":"ce4bhg12rcd13ifvqf60","pricing_plan_id":"cebpf4jnsgd1na2vs0mg"},{"bike_id":"43b828d8-4273-48b4-8801-c0283d138fe5","system_id":"levelo_inurba_marseille","lat":43.29302,"lon":5.37465,"is_reserved":false,"is_disabled":false,"rental_uris":{"android":"levelo://app?vid=43b828d8-4273-48b4-8801-c0283d138fe5","ios":"levelo://app?vid=43b828d8-4273-48b4-8801-c0283d138fe5"},"vehicle_type_id":"4","last_reported":1730048815,"current_range_meters":6800,"station_id":"ce4bgi12rcd13ifvqb70","pricing_plan_id":"cebpf4jnsgd1na2vs0mg"},{"bike_id":"a106a2d9-7a84-43c9-aacc-6e8dddb39881","system_id":"levelo_inurba_marseille","lat":43.31222,"lon":5.36864,"is_reserved":false,"is_disabled":false,"rental_uris":{"android":"levelo://app?vid=a106a2d9-7a84-43c9-aacc-6e8dddb39881","ios":"levelo://app?vid=a106a2d9-7a84-43c9-aacc-6e8dddb39881"},"vehicle_type_id":"4","last_reported":1730048815,"current_range_meters":3600,"station_id":"ce4bgl92rcd13ifvqbq0","pricing_plan_id":"cebpf4jnsgd1na2vs0mg"},{"bike_id":"78b29335-80f1-499c-abd7-612cd60d1c2a","system_id":"levelo_inurba_marseille","lat":43.2731,"lon":5.39086,"is_reserved":false,"is_disabled":false,"rental_uris":{"android":"levelo://app?vid=78b29335-80f1-499c-abd7-612cd60d1c2a","ios":"levelo://app?vid=78b29335-80f1-499c-abd7-612cd60d1c2a"},"vehicle_type_id":"4","last_reported":1730048815,"current_range_meters":11600,"station_id":"ce4bhgp2rcd13ifvqfe0","pricing_plan_id":"cebpf4jnsgd1na2vs0mg"},{"bike_id":"a64c9bae-96b6-4749-b19c-ac41d1700858","system_id":"levelo_inurba_marseille","lat":43.27495,"lon":5.42462,"is_reserved":false,"is_disabled":false,"rental_uris":{"android":"levelo://app?vid=a64c9bae-96b6-4749-b19c-ac41d1700858","ios":"levelo://app?vid=a64c9bae-96b6-4749-b19c-ac41d1700858"},"vehicle_type_id":"4","last_reported":1730048815,"current_range_meters":28800,"station_id":"ce4bhn92rcd13ifvqgrg","pricing_plan_id":"cebpf4jnsgd1na2vs0mg"},{"bike_id":"79dc0d49-2d1b-4d6c-ba1c-3e4fcd71610d","system_id":"levelo_inurba_marseille","lat":43.32477,"lon":5.36576,"is_reserved":false,"is_disabled":false,"rental_uris":{"android":"levelo://app?vid=79dc0d49-2d1b-4d6c-ba1c-3e4fcd71610d","ios":"levelo://app?vid=79dc0d49-2d1b-4d6c-ba1c-3e4fcd71610d"},"vehicle_type_id":"4","last_reported":1730048815,"current_range_meters":6000,"station_id":"ce4bhs12rcd13ifvqhvg","pricing_plan_id":"cebpf4jnsgd1na2vs0mg"},{"bike_id":"a637ddb5-b9e8-4510-912c-1884ad257272","system_id":"levelo_inurba_marseille","lat":43.26804,"lon":5.40276,"is_reserved":false,"is_disabled":false,"rental_uris":{"android":"levelo://app?vid=a637ddb5-b9e8-4510-912c-1884ad257272","ios":"levelo://app?vid=a637ddb5-b9e8-4510-912c-1884ad257272"},"vehicle_type_id":"4","last_reported":1730048815,"current_range_meters":33200,"station_id":"ce501612rcd8frsf0b60","pricing_plan_id":"cebpf4jnsgd1na2vs0mg"},{"bike_id":"0f947821-2634-430b-825d-5ea8730c67f9","system_id":"levelo_inurba_marseille","lat":43.28405,"lon":5.37513,"is_reserved":false,"is_disabled":false,"rental_uris":{"android":"levelo://app?vid=0f947821-2634-430b-825d-5ea8730c67f9","ios":"levelo://app?vid=0f947821-2634-430b-825d-5ea8730c67f9"},"vehicle_type_id":"4","last_reported":1730048815,"current_range_meters":28400,"station_id":"ce4bh412rcd13ifvqds0","pricing_plan_id":"cebpf4jnsgd1na2vs0mg"},{"bike_id":"aa9b100c-1f0b-4003-9e0a-799949e2703b","system_id":"levelo_inurba_marseille","lat":43.28665,"lon":5.36369,"is_reserved":false,"is_disabled":false,"rental_uris":{"android":"levelo://app?vid=aa9b100c-1f0b-4003-9e0a-799949e2703b","ios":"levelo://app?vid=aa9b100c-1f0b-4003-9e0a-799949e2703b"},"vehicle_type_id":"4","last_reported":1730048815,"current_range_meters":8000,"station_id":"ce4bhah2rcd13ifvqej0","pricing_plan_id":"cebpf4jnsgd1na2vs0mg"},{"bike_id":"fdd1a80b-93d2-4a8d-aad7-e20c279862c6","system_id":"levelo_inurba_marseille","lat":43.29016,"lon":5.3813,"is_reserved":false,"is_disabled":false,"rental_uris":{"android":"levelo://app?vid=fdd1a80b-93d2-4a8d-aad7-e20c279862c6","ios":"levelo://app?vid=fdd1a80b-93d2-4a8d-aad7-e20c279862c6"},"vehicle_type_id":"4","last_reported":1730048815,"current_range_meters":2800,"station_id":"ce4bh4p2rcd13ifvqe1g","pricing_plan_id":"cebpf4jnsgd1na2vs0mg"},{"bike_id":"972a4e70-6e48-4020-a433-365c78e826ca","system_id":"levelo_inurba_marseille","lat":43.24813,"lon":5.37462,"is_reserved":false,"is_disabled":false,"rental_uris":{"android":"levelo://app?vid=972a4e70-6e48-4020-a433-365c78e826ca","ios":"levelo://app?vid=972a4e70-6e48-4020-a433-365c78e826ca"},"vehicle_type_id":"4","last_reported":1730048815,"current_range_meters":13600,"station_id":"ce4bhgh2rcd13ifvqfb0","pricing_plan_id":"cebpf4jnsgd1na2vs0mg"},{"bike_id":"49753b2e-47cf-4217-8149-fc8f71fdfc89","system_id":"levelo_inurba_marseille","lat":43.31224,"lon":5.36838,"is_reserved":false,"is_disabled":false,"rental_uris":{"android":"levelo://app?vid=49753b2e-47cf-4217-8149-fc8f71fdfc89","ios":"levelo://app?vid=49753b2e-47cf-4217-8149-fc8f71fdfc89"},"vehicle_type_id":"4","last_reported":1730048815,"current_range_meters":6400,"station_id":"ce4bgl92rcd13ifvqbq0","pricing_plan_id":"cebpf4jnsgd1na2vs0mg"},{"bike_id":"14472b51-4b61-4664-a5ba-119f640c961f","system_id":"levelo_inurba_marseille","lat":43.24547,"lon":5.39519,"is_reserved":false,"is_disabled":false,"rental_uris":{"android":"levelo://app?vid=14472b51-4b61-4664-a5ba-119f640c961f","ios":"levelo://app?vid=14472b51-4b61-4664-a5ba-119f640c961f"},"vehicle_type_id":"4","last_reported":1730048815,"current_range_meters":24400,"station_id":"ce4bhlp2rcd13ifvqgjg","pricing_plan_id":"cebpf4jnsgd1na2vs0mg"},{"bike_id":"852d1d21-17ba-48b6-bbd0-3913b6e57f9f","system_id":"levelo_inurba_marseille","lat":43.29713,"lon":5.36611,"is_reserved":false,"is_disabled":false,"rental_uris":{"android":"levelo://app?vid=852d1d21-17ba-48b6-bbd0-3913b6e57f9f","ios":"levelo://app?vid=852d1d21-17ba-48b6-bbd0-3913b6e57f9f"},"vehicle_type_id":"4","last_reported":1730048815,"current_range_meters":38800,"station_id":"ce4bgn12rcd13ifvqbt0","pricing_plan_id":"cebpf4jnsgd1na2vs0mg"},{"bike_id":"eaa595f1-e715-4e24-b49d-414d18cb2906","system_id":"levelo_inurba_marseille","lat":43.30593,"lon":5.39357,"is_reserved":false,"is_disabled":false,"rental_uris":{"android":"levelo://app?vid=eaa595f1-e715-4e24-b49d-414d18cb2906","ios":"levelo://app?vid=eaa595f1-e715-4e24-b49d-414d18cb2906"},"vehicle_type_id":"4","last_reported":1730048815,"current_range_meters":28400,"station_id":"ce4bh0p2rcd13ifvqd80","pricing_plan_id":"cebpf4jnsgd1na2vs0mg"},{"bike_id":"726c41b7-0612-492f-8ed2-37123ff1474f","system_id":"levelo_inurba_marseille","lat":43.31063,"lon":5.40108,"is_reserved":false,"is_disabled":false,"rental_uris":{"android":"levelo://app?vid=726c41b7-0612-492f-8ed2-37123ff1474f","ios":"levelo://app?vid=726c41b7-0612-492f-8ed2-37123ff1474f"},"vehicle_type_id":"4","last_reported":1730048815,"current_range_meters":9600,"station_id":"","pricing_plan_id":"cebpf4jnsgd1na2vs0mg"},{"bike_id":"e2732363-8e1b-45e7-a618-8dda5d1a4482","system_id":"levelo_inurba_marseille","lat":43.266384,"lon":5.381797,"is_reserved":false,"is_disabled":false,"rental_uris":{"android":"levelo://app?vid=e2732363-8e1b-45e7-a618-8dda5d1a4482","ios":"levelo://app?vid=e2732363-8e1b-45e7-a618-8dda5d1a4482"},"vehicle_type_id":"4","last_reported":1730048815,"current_range_meters":9600,"station_id":"","pricing_plan_id":"cebpf4jnsgd1na2vs0mg"},{"bike_id":"4bd55ce5-dbcc-4590-88f2-cc22411c2e9d","system_id":"levelo_inurba_marseille","lat":43.28697,"lon":5.37395,"is_reserved":false,"is_disabled":false,"rental_uris":{"android":"levelo://app?vid=4bd55ce5-dbcc-4590-88f2-cc22411c2e9d","ios":"levelo://app?vid=4bd55ce5-dbcc-4590-88f2-cc22411c2e9d"},"vehicle_type_id":"4","last_reported":1730048815,"current_range_meters":36000,"station_id":"ce4bh3p2rcd13ifvqdq0","pricing_plan_id":"cebpf4jnsgd1na2vs0mg"},{"bike_id":"e255a10d-9d36-4272-a63f-86a4ea3292d5","system_id":"levelo_inurba_marseille","lat":43.22921,"lon":5.35372,"is_reserved":false,"is_disabled":false,"rental_uris":{"android":"levelo://app?vid=e255a10d-9d36-4272-a63f-86a4ea3292d5","ios":"levelo://app?vid=e255a10d-9d36-4272-a63f-86a4ea3292d5"},"vehicle_type_id":"4","last_reported":1730048815,"current_range_meters":10800,"station_id":"cpo3532slgdg3j2ikp40","pricing_plan_id":"cebpf4jnsgd1na2vs0mg"},{"bike_id":"660f154c-b03a-48be-a4f0-092308e8d237","system_id":"levelo_inurba_marseille","lat":43.2892,"lon":5.38404,"is_reserved":false,"is_disabled":false,"rental_uris":{"android":"levelo://app?vid=660f154c-b03a-48be-a4f0-092308e8d237","ios":"levelo://app?vid=660f154c-b03a-48be-a4f0-092308e8d237"},"vehicle_type_id":"4","last_reported":1730048815,"current_range_meters":31200,"station_id":"ce4bh612rcd13ifvqe6g","pricing_plan_id":"cebpf4jnsgd1na2vs0mg"},{"bike_id":"5ae86afc-df22-4887-b264-4a50bd169bc9","system_id":"levelo_inurba_marseille","lat":43.2816,"lon":5.4264,"is_reserved":false,"is_disabled":false,"rental_uris":{"android":"levelo://app?vid=5ae86afc-df22-4887-b264-4a50bd169bc9","ios":"levelo://app?vid=5ae86afc-df22-4887-b264-4a50bd169bc9"},"vehicle_type_id":"4","last_reported":1730048815,"current_range_meters":28000,"station_id":"ce4bhnh2rcd13ifvqgug","pricing_plan_id":"cebpf4jnsgd1na2vs0mg"},{"bike_id":"bd796a44-fec1-44b9-be70-ff63d346e0e7","system_id":"levelo_inurba_marseille","lat":43.26783,"lon":5.39415,"is_reserved":false,"is_disabled":false,"rental_uris":{"android":"levelo://app?vid=bd796a44-fec1-44b9-be70-ff63d346e0e7","ios":"levelo://app?vid=bd796a44-fec1-44b9-be70-ff63d346e0e7"},"vehicle_type_id":"4","last_reported":1730048815,"current_range_meters":32800,"station_id":"ce4bhh12rcd13ifvqfg0","pricing_plan_id":"cebpf4jnsgd1na2vs0mg"},{"bike_id":"4c387455-2cb2-4987-b1d0-7de15d95e5ef","system_id":"levelo_inurba_marseille","lat":43.2721,"lon":5.39184,"is_reserved":false,"is_disabled":false,"rental_uris":{"android":"levelo://app?vid=4c387455-2cb2-4987-b1d0-7de15d95e5ef","ios":"levelo://app?vid=4c387455-2cb2-4987-b1d0-7de15d95e5ef"},"vehicle_type_id":"4","last_reported":1730048815,"current_range_meters":4400,"station_id":"ce4bhhp2rcd13ifvqfm0","pricing_plan_id":"cebpf4jnsgd1na2vs0mg"},{"bike_id":"13d0d843-77d7-462d-87b4-44a56e4e6f32","system_id":"levelo_inurba_marseille","lat":43.22936,"lon":5.35384,"is_reserved":false,"is_disabled":false,"rental_uris":{"android":"levelo://app?vid=13d0d843-77d7-462d-87b4-44a56e4e6f32","ios":"levelo://app?vid=13d0d843-77d7-462d-87b4-44a56e4e6f32"},"vehicle_type_id":"4","last_reported":1730048815,"current_range_meters":18800,"station_id":"cpo3532slgdg3j2ikp40","pricing_plan_id":"cebpf4jnsgd1na2vs0mg"},{"bike_id":"ea2d58f1-e3cf-4a68-9a30-d530ea1d4f8a","system_id":"levelo_inurba_marseille","lat":43.28604,"lon":5.36103,"is_reserved":false,"is_disabled":false,"rental_uris":{"android":"levelo://app?vid=ea2d58f1-e3cf-4a68-9a30-d530ea1d4f8a","ios":"levelo://app?vid=ea2d58f1-e3cf-4a68-9a30-d530ea1d4f8a"},"vehicle_type_id":"4","last_reported":1730048815,"current_range_meters":36800,"station_id":"ce4bgjh2rcd13ifvqbf0","pricing_plan_id":"cebpf4jnsgd1na2vs0mg"},{"bike_id":"e49103e6-4dc1-498f-8c5c-9341215d0efa","system_id":"levelo_inurba_marseille","lat":43.26936,"lon":5.38922,"is_reserved":false,"is_disabled":false,"rental_uris":{"android":"levelo://app?vid=e49103e6-4dc1-498f-8c5c-9341215d0efa","ios":"levelo://app?vid=e49103e6-4dc1-498f-8c5c-9341215d0efa"},"vehicle_type_id":"4","last_reported":1730048815,"current_range_meters":19200,"station_id":"ce4bhhh2rcd13ifvqfl0","pricing_plan_id":"cebpf4jnsgd1na2vs0mg"},{"bike_id":"c9eb749b-627f-4321-b6c5-4885d0ce6d28","system_id":"levelo_inurba_marseille","lat":43.27316,"lon":5.39092,"is_reserved":false,"is_disabled":false,"rental_uris":{"android":"levelo://app?vid=c9eb749b-627f-4321-b6c5-4885d0ce6d28","ios":"levelo://app?vid=c9eb749b-627f-4321-b6c5-4885d0ce6d28"},"vehicle_type_id":"4","last_reported":1730048815,"current_range_meters":7200,"station_id":"ce4bhgp2rcd13ifvqfe0","pricing_plan_id":"cebpf4jnsgd1na2vs0mg"},{"bike_id":"9877db47-11ad-4462-a59e-8ce20a819eef","system_id":"levelo_inurba_marseille","lat":43.2669,"lon":5.38284,"is_reserved":false,"is_disabled":false,"rental_uris":{"android":"levelo://app?vid=9877db47-11ad-4462-a59e-8ce20a819eef","ios":"levelo://app?vid=9877db47-11ad-4462-a59e-8ce20a819eef"},"vehicle_type_id":"4","last_reported":1730048815,"current_range_meters":6400,"station_id":"ce4bhg92rcd13ifvqf90","pricing_plan_id":"cebpf4jnsgd1na2vs0mg"},{"bike_id":"aea18959-def8-4c0c-bca6-5d2d92845fa4","system_id":"levelo_inurba_marseille","lat":43.2694,"lon":5.40261,"is_reserved":false,"is_disabled":false,"rental_uris":{"android":"levelo://app?vid=aea18959-def8-4c0c-bca6-5d2d92845fa4","ios":"levelo://app?vid=aea18959-def8-4c0c-bca6-5d2d92845fa4"},"vehicle_type_id":"4","last_reported":1730048815,"current_range_meters":8800,"station_id":"cjm6bp8fraef2m0cb0m0","pricing_plan_id":"cebpf4jnsgd1na2vs0mg"},{"bike_id":"685f6726-cfed-4315-a16c-49a1b0b6aa30","system_id":"levelo_inurba_marseille","lat":43.33029,"lon":5.39054,"is_reserved":false,"is_disabled":false,"rental_uris":{"android":"levelo://app?vid=685f6726-cfed-4315-a16c-49a1b0b6aa30","ios":"levelo://app?vid=685f6726-cfed-4315-a16c-49a1b0b6aa30"},"vehicle_type_id":"4","last_reported":1730048815,"current_range_meters":12800,"station_id":"ce4bhr92rcd13ifvqhrg","pricing_plan_id":"cebpf4jnsgd1na2vs0mg"},{"bike_id":"1038e9a3-c91c-4116-bb97-2e59525110fc","system_id":"levelo_inurba_marseille","lat":43.24802,"lon":5.37456,"is_reserved":false,"is_disabled":false,"rental_uris":{"android":"levelo://app?vid=1038e9a3-c91c-4116-bb97-2e59525110fc","ios":"levelo://app?vid=1038e9a3-c91c-4116-bb97-2e59525110fc"},"vehicle_type_id":"4","last_reported":1730048815,"current_range_meters":38800,"station_id":"ce4bhgh2rcd13ifvqfb0","pricing_plan_id":"cebpf4jnsgd1na2vs0mg"},{"bike_id":"9bf8c915-580c-4b90-b514-71f0a62806b4","system_id":"levelo_inurba_marseille","lat":43.29967,"lon":5.38503,"is_reserved":false,"is_disabled":false,"rental_uris":{"android":"levelo://app?vid=9bf8c915-580c-4b90-b514-71f0a62806b4","ios":"levelo://app?vid=9bf8c915-580c-4b90-b514-71f0a62806b4"},"vehicle_type_id":"4","last_reported":1730048815,"current_range_meters":38800,"station_id":"ce4bgj92rcd13ifvqbd0","pricing_plan_id":"cebpf4jnsgd1na2vs0mg"},{"bike_id":"e812a2d8-17db-406e-992c-b2453567005b","system_id":"levelo_inurba_marseille","lat":43.29707,"lon":5.36609,"is_reserved":false,"is_disabled":false,"rental_uris":{"android":"levelo://app?vid=e812a2d8-17db-406e-992c-b2453567005b","ios":"levelo://app?vid=e812a2d8-17db-406e-992c-b2453567005b"},"vehicle_type_id":"4","last_reported":1730048815,"current_range_meters":38800,"station_id":"ce4bgn12rcd13ifvqbt0","pricing_plan_id":"cebpf4jnsgd1na2vs0mg"},{"bike_id":"5cd4cb87-6e6e-4e58-a5d8-95e11d88d8c9","system_id":"levelo_inurba_marseille","lat":43.29166,"lon":5.37162,"is_reserved":false,"is_disabled":false,"rental_uris":{"android":"levelo://app?vid=5cd4cb87-6e6e-4e58-a5d8-95e11d88d8c9","ios":"levelo://app?vid=5cd4cb87-6e6e-4e58-a5d8-95e11d88d8c9"},"vehicle_type_id":"4","last_reported":1730048815,"current_range_meters":12800,"station_id":"ce4bha92rcd13ifvqeh0","pricing_plan_id":"cebpf4jnsgd1na2vs0mg"},{"bike_id":"e9fdb513-f417-42c5-953a-a44140c0ab7a","system_id":"levelo_inurba_marseille","lat":43.27814,"lon":5.40713,"is_reserved":false,"is_disabled":false,"rental_uris":{"android":"levelo://app?vid=e9fdb513-f417-42c5-953a-a44140c0ab7a","ios":"levelo://app?vid=e9fdb513-f417-42c5-953a-a44140c0ab7a"},"vehicle_type_id":"4","last_reported":1730048815,"current_range_meters":36800,"station_id":"ce4bhnh2rcd13ifvqgtg","pricing_plan_id":"cebpf4jnsgd1na2vs0mg"},{"bike_id":"4077784f-372a-49fa-b8bd-b7d23d11cffd","system_id":"levelo_inurba_marseille","lat":43.31355,"lon":5.36718,"is_reserved":false,"is_disabled":false,"rental_uris":{"android":"levelo://app?vid=4077784f-372a-49fa-b8bd-b7d23d11cffd","ios":"levelo://app?vid=4077784f-372a-49fa-b8bd-b7d23d11cffd"},"vehicle_type_id":"4","last_reported":1730048815,"current_range_meters":38400,"station_id":"ce4bgr92rcd13ifvqc6g","pricing_plan_id":"cebpf4jnsgd1na2vs0mg"},{"bike_id":"8f45e056-5d5e-49d0-b203-075732211fe4","system_id":"levelo_inurba_marseille","lat":43.24549,"lon":5.39525,"is_reserved":false,"is_disabled":false,"rental_uris":{"android":"levelo://app?vid=8f45e056-5d5e-49d0-b203-075732211fe4","ios":"levelo://app?vid=8f45e056-5d5e-49d0-b203-075732211fe4"},"vehicle_type_id":"4","last_reported":1730048815,"current_range_meters":36400,"station_id":"ce4bhlp2rcd13ifvqgjg","pricing_plan_id":"cebpf4jnsgd1na2vs0mg"},{"bike_id":"3c447e9e-f665-4c94-b4f7-b1a1adbf746d","system_id":"levelo_inurba_marseille","lat":43.24736,"lon":5.38024,"is_reserved":false,"is_disabled":false,"rental_uris":{"android":"levelo://app?vid=3c447e9e-f665-4c94-b4f7-b1a1adbf746d","ios":"levelo://app?vid=3c447e9e-f665-4c94-b4f7-b1a1adbf746d"},"vehicle_type_id":"4","last_reported":1730048815,"current_range_meters":6800,"station_id":"","pricing_plan_id":"cebpf4jnsgd1na2vs0mg"},{"bike_id":"e43482ed-8e76-4b5c-a5ac-c2fcf3df8f29","system_id":"levelo_inurba_marseille","lat":43.31483,"lon":5.37307,"is_reserved":false,"is_disabled":false,"rental_uris":{"android":"levelo://app?vid=e43482ed-8e76-4b5c-a5ac-c2fcf3df8f29","ios":"levelo://app?vid=e43482ed-8e76-4b5c-a5ac-c2fcf3df8f29"},"vehicle_type_id":"4","last_reported":1730048815,"current_range_meters":38000,"station_id":"ce4bgt12rcd13ifvqcd0","pricing_plan_id":"cebpf4jnsgd1na2vs0mg"},{"bike_id":"2610c218-6347-4e13-8950-e7252acca766","system_id":"levelo_inurba_marseille","lat":43.31283,"lon":5.38342,"is_reserved":false,"is_disabled":false,"rental_uris":{"android":"levelo://app?vid=2610c218-6347-4e13-8950-e7252acca766","ios":"levelo://app?vid=2610c218-6347-4e13-8950-e7252acca766"},"vehicle_type_id":"4","last_reported":1730048815,"current_range_meters":8800,"station_id":"ce4bgvp2rcd13ifvqcu0","pricing_plan_id":"cebpf4jnsgd1na2vs0mg"},{"bike_id":"30b42f71-1916-4870-b7c2-6451c9c3ced3","system_id":"levelo_inurba_marseille","lat":43.2866,"lon":5.36351,"is_reserved":false,"is_disabled":false,"rental_uris":{"android":"levelo://app?vid=30b42f71-1916-4870-b7c2-6451c9c3ced3","ios":"levelo://app?vid=30b42f71-1916-4870-b7c2-6451c9c3ced3"},"vehicle_type_id":"4","last_reported":1730048815,"current_range_meters":18800,"station_id":"ce4bhah2rcd13ifvqej0","pricing_plan_id":"cebpf4jnsgd1na2vs0mg"},{"bike_id":"9205e825-7547-47be-bdec-3b6b41065b4f","system_id":"levelo_inurba_marseille","lat":43.28344,"lon":5.38119,"is_reserved":false,"is_disabled":false,"rental_uris":{"android":"levelo://app?vid=9205e825-7547-47be-bdec-3b6b41065b4f","ios":"levelo://app?vid=9205e825-7547-47be-bdec-3b6b41065b4f"},"vehicle_type_id":"4","last_reported":1730048815,"current_range_meters":38800,"station_id":"ce4bh412rcd13ifvqdr0","pricing_plan_id":"cebpf4jnsgd1na2vs0mg"},{"bike_id":"4b0f9ffc-effd-41e4-aea9-9d6cd4732824","system_id":"levelo_inurba_marseille","lat":43.27428,"lon":5.39423,"is_reserved":false,"is_disabled":false,"rental_uris":{"android":"levelo://app?vid=4b0f9ffc-effd-41e4-aea9-9d6cd4732824","ios":"levelo://app?vid=4b0f9ffc-effd-41e4-aea9-9d6cd4732824"},"vehicle_type_id":"4","last_reported":1730048815,"current_range_meters":38000,"station_id":"ce4bhdp2rcd13ifvqf20","pricing_plan_id":"cebpf4jnsgd1na2vs0mg"},{"bike_id":"cfdfd6c3-62c5-466a-95a1-ce12a9a963ab","system_id":"levelo_inurba_marseille","lat":43.2886,"lon":5.3933,"is_reserved":false,"is_disabled":false,"rental_uris":{"android":"levelo://app?vid=cfdfd6c3-62c5-466a-95a1-ce12a9a963ab","ios":"levelo://app?vid=cfdfd6c3-62c5-466a-95a1-ce12a9a963ab"},"vehicle_type_id":"4","last_reported":1730048815,"current_range_meters":38800,"station_id":"ce4bh2p2rcd13ifvqdi0","pricing_plan_id":"cebpf4jnsgd1na2vs0mg"},{"bike_id":"44ec234b-c516-4d5b-be12-a6c48111be86","system_id":"levelo_inurba_marseille","lat":43.29624,"lon":5.3717,"is_reserved":false,"is_disabled":false,"rental_uris":{"android":"levelo://app?vid=44ec234b-c516-4d5b-be12-a6c48111be86","ios":"levelo://app?vid=44ec234b-c516-4d5b-be12-a6c48111be86"},"vehicle_type_id":"4","last_reported":1730048815,"current_range_meters":6800,"station_id":"ce4bgnh2rcd13ifvqc0g","pricing_plan_id":"cebpf4jnsgd1na2vs0mg"},{"bike_id":"3ddb3653-a6d0-4568-bded-f3cc78699042","system_id":"levelo_inurba_marseille","lat":43.25938,"lon":5.40902,"is_reserved":false,"is_disabled":false,"rental_uris":{"android":"levelo://app?vid=3ddb3653-a6d0-4568-bded-f3cc78699042","ios":"levelo://app?vid=3ddb3653-a6d0-4568-bded-f3cc78699042"},"vehicle_type_id":"4","last_reported":1730048815,"current_range_meters":38800,"station_id":"ce4bhm92rcd13ifvqglg","pricing_plan_id":"cebpf4jnsgd1na2vs0mg"},{"bike_id":"ddc73c40-5fda-4166-9894-2c12bc47834c","system_id":"levelo_inurba_marseille","lat":43.32346,"lon":5.38977,"is_reserved":false,"is_disabled":false,"rental_uris":{"android":"levelo://app?vid=ddc73c40-5fda-4166-9894-2c12bc47834c","ios":"levelo://app?vid=ddc73c40-5fda-4166-9894-2c12bc47834c"},"vehicle_type_id":"4","last_reported":1730048815,"current_range_meters":25600,"station_id":"","pricing_plan_id":"cebpf4jnsgd1na2vs0mg"},{"bike_id":"fd0f7cc6-0b22-4640-8013-42d5234a6b87","system_id":"levelo_inurba_marseille","lat":43.29408,"lon":5.43071,"is_reserved":false,"is_disabled":false,"rental_uris":{"android":"levelo://app?vid=fd0f7cc6-0b22-4640-8013-42d5234a6b87","ios":"levelo://app?vid=fd0f7cc6-0b22-4640-8013-42d5234a6b87"},"vehicle_type_id":"4","last_reported":1730048815,"current_range_meters":24000,"station_id":"ce4bh192rcd13ifvqdc0","pricing_plan_id":"cebpf4jnsgd1na2vs0mg"},{"bike_id":"f9e77992-807e-49b0-8273-b164e77c8d9c","system_id":"levelo_inurba_marseille","lat":43.31991,"lon":5.38158,"is_reserved":false,"is_disabled":false,"rental_uris":{"android":"levelo://app?vid=f9e77992-807e-49b0-8273-b164e77c8d9c","ios":"levelo://app?vid=f9e77992-807e-49b0-8273-b164e77c8d9c"},"vehicle_type_id":"4","last_reported":1730048815,"current_range_meters":30800,"station_id":"ce4bhr12rcd13ifvqhpg","pricing_plan_id":"cebpf4jnsgd1na2vs0mg"},{"bike_id":"e09f8030-be69-46c6-84b0-e8b01e6c089a","system_id":"levelo_inurba_marseille","lat":43.22934,"lon":5.35377,"is_reserved":false,"is_disabled":false,"rental_uris":{"android":"levelo://app?vid=e09f8030-be69-46c6-84b0-e8b01e6c089a","ios":"levelo://app?vid=e09f8030-be69-46c6-84b0-e8b01e6c089a"},"vehicle_type_id":"4","last_reported":1730048815,"current_range_meters":36800,"station_id":"cpo3532slgdg3j2ikp40","pricing_plan_id":"cebpf4jnsgd1na2vs0mg"},{"bike_id":"26ae6576-b49b-4a09-a9b1-35b30fa80c37","system_id":"levelo_inurba_marseille","lat":43.25001,"lon":5.3893,"is_reserved":false,"is_disabled":false,"rental_uris":{"android":"levelo://app?vid=26ae6576-b49b-4a09-a9b1-35b30fa80c37","ios":"levelo://app?vid=26ae6576-b49b-4a09-a9b1-35b30fa80c37"},"vehicle_type_id":"4","last_reported":1730048815,"current_range_meters":8800,"station_id":"ce4bhgp2rcd13ifvqfd0","pricing_plan_id":"cebpf4jnsgd1na2vs0mg"},{"bike_id":"fafc5429-dcb6-4612-b18b-dd77682875f5","system_id":"levelo_inurba_marseille","lat":43.24166,"lon":5.36399,"is_reserved":false,"is_disabled":false,"rental_uris":{"android":"levelo://app?vid=fafc5429-dcb6-4612-b18b-dd77682875f5","ios":"levelo://app?vid=fafc5429-dcb6-4612-b18b-dd77682875f5"},"vehicle_type_id":"4","last_reported":1730048815,"current_range_meters":16000,"station_id":"cpo36qri1sfpv3e86is0","pricing_plan_id":"cebpf4jnsgd1na2vs0mg"},{"bike_id":"4c9d0b50-b4cf-4991-8c81-3e10eae1c2a3","system_id":"levelo_inurba_marseille","lat":43.31087,"lon":5.42433,"is_reserved":false,"is_disabled":false,"rental_uris":{"android":"levelo://app?vid=4c9d0b50-b4cf-4991-8c81-3e10eae1c2a3","ios":"levelo://app?vid=4c9d0b50-b4cf-4991-8c81-3e10eae1c2a3"},"vehicle_type_id":"4","last_reported":1730048815,"current_range_meters":38800,"station_id":"ce4bhp92rcd13ifvqhag","pricing_plan_id":"cebpf4jnsgd1na2vs0mg"},{"bike_id":"da3e38ca-ea18-4642-b0bf-686ae3123dd7","system_id":"levelo_inurba_marseille","lat":43.27553,"lon":5.38428,"is_reserved":false,"is_disabled":false,"rental_uris":{"android":"levelo://app?vid=da3e38ca-ea18-4642-b0bf-686ae3123dd7","ios":"levelo://app?vid=da3e38ca-ea18-4642-b0bf-686ae3123dd7"},"vehicle_type_id":"4","last_reported":1730048815,"current_range_meters":36400,"station_id":"ce4bhh92rcd13ifvqfi0","pricing_plan_id":"cebpf4jnsgd1na2vs0mg"},{"bike_id":"7e52dd24-4187-4b41-b128-0fa109f85a3b","system_id":"levelo_inurba_marseille","lat":43.29792,"lon":5.38114,"is_reserved":false,"is_disabled":false,"rental_uris":{"android":"levelo://app?vid=7e52dd24-4187-4b41-b128-0fa109f85a3b","ios":"levelo://app?vid=7e52dd24-4187-4b41-b128-0fa109f85a3b"},"vehicle_type_id":"4","last_reported":1730048815,"current_range_meters":25200,"station_id":"ce4bgip2rcd13ifvqbb0","pricing_plan_id":"cebpf4jnsgd1na2vs0mg"},{"bike_id":"aace9f84-e0d1-4cca-a773-b33c8e89d5ff","system_id":"levelo_inurba_marseille","lat":43.27318,"lon":5.39092,"is_reserved":false,"is_disabled":false,"rental_uris":{"android":"levelo://app?vid=aace9f84-e0d1-4cca-a773-b33c8e89d5ff","ios":"levelo://app?vid=aace9f84-e0d1-4cca-a773-b33c8e89d5ff"},"vehicle_type_id":"4","last_reported":1730048815,"current_range_meters":38000,"station_id":"ce4bhgp2rcd13ifvqfe0","pricing_plan_id":"cebpf4jnsgd1na2vs0mg"},{"bike_id":"9f43f0f7-16ee-48c9-b419-a7dc3969b944","system_id":"levelo_inurba_marseille","lat":43.29731,"lon":5.37681,"is_reserved":false,"is_disabled":false,"rental_uris":{"android":"levelo://app?vid=9f43f0f7-16ee-48c9-b419-a7dc3969b944","ios":"levelo://app?vid=9f43f0f7-16ee-48c9-b419-a7dc3969b944"},"vehicle_type_id":"4","last_reported":1730048815,"current_range_meters":37600,"station_id":"ce4bgkh2rcd13ifvqbl0","pricing_plan_id":"cebpf4jnsgd1na2vs0mg"},{"bike_id":"266575d8-09f9-4cd7-833a-204d10e502df","system_id":"levelo_inurba_marseille","lat":43.32104,"lon":5.3677,"is_reserved":false,"is_disabled":false,"rental_uris":{"android":"levelo://app?vid=266575d8-09f9-4cd7-833a-204d10e502df","ios":"levelo://app?vid=266575d8-09f9-4cd7-833a-204d10e502df"},"vehicle_type_id":"4","last_reported":1730048815,"current_range_meters":34000,"station_id":"ce4bhrh2rcd13ifvqhug","pricing_plan_id":"cebpf4jnsgd1na2vs0mg"},{"bike_id":"a8f33c27-133b-4749-9075-4fe030211627","system_id":"levelo_inurba_marseille","lat":43.27204,"lon":5.39193,"is_reserved":false,"is_disabled":false,"rental_uris":{"android":"levelo://app?vid=a8f33c27-133b-4749-9075-4fe030211627","ios":"levelo://app?vid=a8f33c27-133b-4749-9075-4fe030211627"},"vehicle_type_id":"4","last_reported":1730048815,"current_range_meters":32000,"station_id":"ce4bhhp2rcd13ifvqfm0","pricing_plan_id":"cebpf4jnsgd1na2vs0mg"},{"bike_id":"66ba0e4c-5d89-45c1-8aea-5c01290908b4","system_id":"levelo_inurba_marseille","lat":43.31682,"lon":5.40476,"is_reserved":false,"is_disabled":false,"rental_uris":{"android":"levelo://app?vid=66ba0e4c-5d89-45c1-8aea-5c01290908b4","ios":"levelo://app?vid=66ba0e4c-5d89-45c1-8aea-5c01290908b4"},"vehicle_type_id":"4","last_reported":1730048815,"current_range_meters":2800,"station_id":"","pricing_plan_id":"cebpf4jnsgd1na2vs0mg"},{"bike_id":"aa2f5233-6bf9-43b1-8ddd-2bf6f6630412","system_id":"levelo_inurba_marseille","lat":43.29035,"lon":5.35926,"is_reserved":false,"is_disabled":false,"rental_uris":{"android":"levelo://app?vid=aa2f5233-6bf9-43b1-8ddd-2bf6f6630412","ios":"levelo://app?vid=aa2f5233-6bf9-43b1-8ddd-2bf6f6630412"},"vehicle_type_id":"4","last_reported":1730048815,"current_range_meters":38800,"station_id":"ce4bha92rcd13ifvqeg0","pricing_plan_id":"cebpf4jnsgd1na2vs0mg"},{"bike_id":"d5893136-9cd4-4d49-8215-1f64c4481077","system_id":"levelo_inurba_marseille","lat":43.29622,"lon":5.37727,"is_reserved":false,"is_disabled":false,"rental_uris":{"android":"levelo://app?vid=d5893136-9cd4-4d49-8215-1f64c4481077","ios":"levelo://app?vid=d5893136-9cd4-4d49-8215-1f64c4481077"},"vehicle_type_id":"4","last_reported":1730048815,"current_range_meters":18000,"station_id":"ce4bgi92rcd13ifvqb90","pricing_plan_id":"cebpf4jnsgd1na2vs0mg"},{"bike_id":"c1f609f2-4f3e-409f-9ed2-69d0abd2b6b8","system_id":"levelo_inurba_marseille","lat":43.29194,"lon":5.39317,"is_reserved":false,"is_disabled":false,"rental_uris":{"android":"levelo://app?vid=c1f609f2-4f3e-409f-9ed2-69d0abd2b6b8","ios":"levelo://app?vid=c1f609f2-4f3e-409f-9ed2-69d0abd2b6b8"},"vehicle_type_id":"4","last_reported":1730048815,"current_range_meters":4000,"station_id":"ce4bh192rcd13ifvqdd0","pricing_plan_id":"cebpf4jnsgd1na2vs0mg"},{"bike_id":"06ba2485-31ab-427e-9b7e-6732acabebe7","system_id":"levelo_inurba_marseille","lat":43.29322,"lon":5.41157,"is_reserved":false,"is_disabled":false,"rental_uris":{"android":"levelo://app?vid=06ba2485-31ab-427e-9b7e-6732acabebe7","ios":"levelo://app?vid=06ba2485-31ab-427e-9b7e-6732acabebe7"},"vehicle_type_id":"4","last_reported":1730048815,"current_range_meters":4800,"station_id":"","pricing_plan_id":"cebpf4jnsgd1na2vs0mg"},{"bike_id":"7540bef7-6886-49bb-ba85-2073cb621b66","system_id":"levelo_inurba_marseille","lat":43.27493,"lon":5.42459,"is_reserved":false,"is_disabled":false,"rental_uris":{"android":"levelo://app?vid=7540bef7-6886-49bb-ba85-2073cb621b66","ios":"levelo://app?vid=7540bef7-6886-49bb-ba85-2073cb621b66"},"vehicle_type_id":"4","last_reported":1730048815,"current_range_meters":11200,"station_id":"ce4bhn92rcd13ifvqgrg","pricing_plan_id":"cebpf4jnsgd1na2vs0mg"},{"bike_id":"5177ea33-965f-40ed-ad84-2ed1286d9820","system_id":"levelo_inurba_marseille","lat":43.27673,"lon":5.38882,"is_reserved":false,"is_disabled":false,"rental_uris":{"android":"levelo://app?vid=5177ea33-965f-40ed-ad84-2ed1286d9820","ios":"levelo://app?vid=5177ea33-965f-40ed-ad84-2ed1286d9820"},"vehicle_type_id":"4","last_reported":1730048815,"current_range_meters":12800,"station_id":"ce4bhi12rcd13ifvqfo0","pricing_plan_id":"cebpf4jnsgd1na2vs0mg"},{"bike_id":"996951c4-e759-4ed6-bfb2-7bfd7c70286f","system_id":"levelo_inurba_marseille","lat":43.23058,"lon":5.35497,"is_reserved":false,"is_disabled":false,"rental_uris":{"android":"levelo://app?vid=996951c4-e759-4ed6-bfb2-7bfd7c70286f","ios":"levelo://app?vid=996951c4-e759-4ed6-bfb2-7bfd7c70286f"},"vehicle_type_id":"4","last_reported":1730048815,"current_range_meters":26000,"station_id":"cpo3342slgdg3j2ifvpg","pricing_plan_id":"cebpf4jnsgd1na2vs0mg"},{"bike_id":"f84b486c-e3ba-4ab1-b945-3c310df7d6a4","system_id":"levelo_inurba_marseille","lat":43.2732,"lon":5.39084,"is_reserved":false,"is_disabled":false,"rental_uris":{"android":"levelo://app?vid=f84b486c-e3ba-4ab1-b945-3c310df7d6a4","ios":"levelo://app?vid=f84b486c-e3ba-4ab1-b945-3c310df7d6a4"},"vehicle_type_id":"4","last_reported":1730048815,"current_range_meters":5600,"station_id":"ce4bhgp2rcd13ifvqfe0","pricing_plan_id":"cebpf4jnsgd1na2vs0mg"},{"bike_id":"bfcad535-ef54-447e-85f7-14f022c7fbfa","system_id":"levelo_inurba_marseille","lat":43.31463,"lon":5.39222,"is_reserved":false,"is_disabled":false,"rental_uris":{"android":"levelo://app?vid=bfcad535-ef54-447e-85f7-14f022c7fbfa","ios":"levelo://app?vid=bfcad535-ef54-447e-85f7-14f022c7fbfa"},"vehicle_type_id":"4","last_reported":1730048815,"current_range_meters":10000,"station_id":"ce4bgvp2rcd13ifvqcu0","pricing_plan_id":"cebpf4jnsgd1na2vs0mg"},{"bike_id":"f0ff66a7-113b-4f28-9637-9a309329252d","system_id":"levelo_inurba_marseille","lat":43.24165,"lon":5.36408,"is_reserved":false,"is_disabled":false,"rental_uris":{"android":"levelo://app?vid=f0ff66a7-113b-4f28-9637-9a309329252d","ios":"levelo://app?vid=f0ff66a7-113b-4f28-9637-9a309329252d"},"vehicle_type_id":"4","last_reported":1730048815,"current_range_meters":30400,"station_id":"cpo36qri1sfpv3e86is0","pricing_plan_id":"cebpf4jnsgd1na2vs0mg"},{"bike_id":"dc60dfd5-952c-42aa-9364-4c2cb1ebe0f8","system_id":"levelo_inurba_marseille","lat":43.23152,"lon":5.43711,"is_reserved":false,"is_disabled":false,"rental_uris":{"android":"levelo://app?vid=dc60dfd5-952c-42aa-9364-4c2cb1ebe0f8","ios":"levelo://app?vid=dc60dfd5-952c-42aa-9364-4c2cb1ebe0f8"},"vehicle_type_id":"4","last_reported":1730048815,"current_range_meters":38800,"station_id":"ce4bhmp2rcd13ifvqgog","pricing_plan_id":"cebpf4jnsgd1na2vs0mg"},{"bike_id":"f8563c9d-9a64-465d-9820-50c0ff5274f0","system_id":"levelo_inurba_marseille","lat":43.29907,"lon":5.37479,"is_reserved":false,"is_disabled":false,"rental_uris":{"android":"levelo://app?vid=f8563c9d-9a64-465d-9820-50c0ff5274f0","ios":"levelo://app?vid=f8563c9d-9a64-465d-9820-50c0ff5274f0"},"vehicle_type_id":"4","last_reported":1730048815,"current_range_meters":4800,"station_id":"ce4bgjh2rcd13ifvqbg0","pricing_plan_id":"cebpf4jnsgd1na2vs0mg"},{"bike_id":"c282ac55-b4b2-4f9e-9b4b-42ee7ca7c6f5","system_id":"levelo_inurba_marseille","lat":43.23054,"lon":5.35496,"is_reserved":false,"is_disabled":false,"rental_uris":{"android":"levelo://app?vid=c282ac55-b4b2-4f9e-9b4b-42ee7ca7c6f5","ios":"levelo://app?vid=c282ac55-b4b2-4f9e-9b4b-42ee7ca7c6f5"},"vehicle_type_id":"4","last_reported":1730048815,"current_range_meters":28800,"station_id":"cpo3342slgdg3j2ifvpg","pricing_plan_id":"cebpf4jnsgd1na2vs0mg"},{"bike_id":"de8ad111-2362-47fb-a3e2-c52ed15d48f9","system_id":"levelo_inurba_marseille","lat":43.313697,"lon":5.384965,"is_reserved":false,"is_disabled":false,"rental_uris":{"android":"levelo://app?vid=de8ad111-2362-47fb-a3e2-c52ed15d48f9","ios":"levelo://app?vid=de8ad111-2362-47fb-a3e2-c52ed15d48f9"},"vehicle_type_id":"4","last_reported":1730048815,"current_range_meters":38800,"station_id":"ce4bgt92rcd13ifvqcf0","pricing_plan_id":"cebpf4jnsgd1na2vs0mg"},{"bike_id":"d6c7f710-f321-49aa-9021-7a8242e1d9ee","system_id":"levelo_inurba_marseille","lat":43.30791,"lon":5.38166,"is_reserved":false,"is_disabled":false,"rental_uris":{"android":"levelo://app?vid=d6c7f710-f321-49aa-9021-7a8242e1d9ee","ios":"levelo://app?vid=d6c7f710-f321-49aa-9021-7a8242e1d9ee"},"vehicle_type_id":"4","last_reported":1730048815,"current_range_meters":26000,"station_id":"ce4bgt12rcd13ifvqce0","pricing_plan_id":"cebpf4jnsgd1na2vs0mg"},{"bike_id":"01999799-e6bf-46b5-a637-de4392e44c0b","system_id":"levelo_inurba_marseille","lat":43.29712,"lon":5.366082,"is_reserved":false,"is_disabled":false,"rental_uris":{"android":"levelo://app?vid=01999799-e6bf-46b5-a637-de4392e44c0b","ios":"levelo://app?vid=01999799-e6bf-46b5-a637-de4392e44c0b"},"vehicle_type_id":"4","last_reported":1730048815,"current_range_meters":28000,"station_id":"ce4bgn12rcd13ifvqbt0","pricing_plan_id":"cebpf4jnsgd1na2vs0mg"},