{"last_updated":1738649620,"ttl":60,"version":"2.2","data":{"bikes":[{"bike_id":"a6accd57-54cf-4d44-87f9-766d1013e2f7","system_id":"levelo_inurba_marseille","lat":43.2601,"lon":5.37556,"is_reserved":false,"is_disabled":false,"rental_uris":{"android":"levelo://app?vid=a6accd57-54cf-4d44-87f9-766d1013e2f7","ios":"levelo://app?vid=a6accd57-54cf-4d44-87f9-766d1013e2f7"},"vehicle_type_id":"4","last_reported":1738649620,"current_range_meters":37600,"station_id":"ce4bhgh2rcd13ifvqfa0","pricing_plan_id":"cebpf4jnsgd1na2vs0mg"},{"bike_id":"51c51056-c14e-414d-b8da-6e0805d9f9a6","system_id":"levelo_inurba_marseille","lat":43.24552,"lon":5.39543,"is_reserved":false,"is_disabled":false,"rental_uris":{"android":"levelo://app?vid=51c51056-c14e-414d-b8da-6e0805d9f9a6","ios":"levelo://app?vid=51c51056-c14e-414d-b8da-6e0805d9f9a6"},"vehicle_type_id":"4","last_reported":1738649620,"current_range_meters":37600,"station_id":"ce4bhlp2rcd13ifvqgjg","pricing_plan_id":"cebpf4jnsgd1na2vs0mg"},{"bike_id":"413369fc-9b33-421a-85e2-c7c35ca3c496","system_id":"levelo_inurba_marseille","lat":43.30418,"lon":5.41289,"is_reserved":false,"is_disabled":false,"rental_uris":{"android":"levelo://app?vid=413369fc-9b33-421a-85e2-c7c35ca3c496","ios":"levelo://app?vid=413369fc-9b33-421a-85e2-c7c35ca3c496"},"vehicle_type_id":"4","last_reported":1738649620,"current_range_meters":38400,"station_id":"ce4bhop2rcd13ifvqh8g","pricing_plan_id":"cebpf4jnsgd1na2vs0mg"},{"bike_id":"59c830b9-d6f0-49df-91e9-084aeda66649","system_id":"levelo_inurba_marseille","lat":43.291929,"lon":5.358116,"is_reserved":false,"is_disabled":false,"rental_uris":{"android":"levelo://app?vid=59c830b9-d6f0-49df-91e9-084aeda66649","ios":"levelo://app?vid=59c830b9-d6f0-49df-91e9-084aeda66649"},"vehicle_type_id":"4","last_reported":1738649620,"current_range_meters":28400,"station_id":"ce4bhb12rcd13ifvqel0","pricing_plan_id":"cebpf4jnsgd1na2vs0mg"},{"bike_id":"8cf73cc3-5792-493b-b453-af5e49989385","system_id":"levelo_inurba_marseille","lat":43.243899,"lon":5.370571,"is_reserved":false,"is_disabled":false,"rental_uris":{"android":"levelo://app?vid=8cf73cc3-5792-493b-b453-af5e49989385","ios":"levelo://app?vid=8cf73cc3-5792-493b-b453-af5e49989385"},"vehicle_type_id":"4","last_reported":1738649620,"current_range_meters":38000,"station_id":"ce4bhhh2rcd13ifvqfk0","pricing_plan_id":"cebpf4jnsgd1na2vs0mg"},{"bike_id":"176cb06f-f5e2-40ce-a5f0-b94c8af2011d","system_id":"levelo_inurba_marseille","lat":43.30895,"lon":5.36857,"is_reserved":false,"is_disabled":true,"rental_uris":{"android":"levelo://app?vid=176cb06f-f5e2-40ce-a5f0-b94c8af2011d","ios":"levelo://app?vid=176cb06f-f5e2-40ce-a5f0-b94c8af2011d"},"vehicle_type_id":"4","last_reported":1738649620,"current_range_meters":27200,"station_id":"ce4bgn92rcd13ifvqbvg","pricing_plan_id":"cebpf4jnsgd1na2vs0mg"},{"bike_id":"3623d7c5-0c4c-487e-8771-ef60e9a137c4","system_id":"levelo_inurba_marseille","lat":43.28416,"lon":5.37524,"is_reserved":false,"is_disabled":false,"rental_uris":{"android":"levelo://app?vid=3623d7c5-0c4c-487e-8771-ef60e9a137c4","ios":"levelo://app?vid=3623d7c5-0c4c-487e-8771-ef60e9a137c4"},"vehicle_type_id":"4","last_reported":1738649620,"current_range_meters":33600,"station_id":"ce4bh412rcd13ifvqds0","pricing_plan_id":"cebpf4jnsgd1na2vs0mg"},{"bike_id":"51141bc4-8209-4ad3-9875-3290bd48084f","system_id":"levelo_inurba_marseille","lat":43.30435,"lon":5.38879,"is_reserved":false,"is_disabled":false,"rental_uris":{"android":"levelo://app?vid=51141bc4-8209-4ad3-9875-3290bd48084f","ios":"levelo://app?vid=51141bc4-8209-4ad3-9875-3290bd48084f"},"vehicle_type_id":"4","last_reported":1738649620,"current_range_meters":22400,"station_id":"ce4bgk12rcd13ifvqbi0","pricing_plan_id":"cebpf4jnsgd1na2vs0mg"},{"bike_id":"97ef53a4-c790-4c65-8638-26840152d973","system_id":"levelo_inurba_marseille","lat":43.31531,"lon":5.38029,"is_reserved":false,"is_disabled":false,"rental_uris":{"android":"levelo://app?vid=97ef53a4-c790-4c65-8638-26840152d973","ios":"levelo://app?vid=97ef53a4-c790-4c65-8638-26840152d973"},"vehicle_type_id":"4","last_reported":1738649620,"current_range_meters":11600,"station_id":"ce4bhsp2rcd13ifvqi50","pricing_plan_id":"cebpf4jnsgd1na2vs0mg"},{"bike_id":"77f2e318-16c9-494c-a50b-534985e1faed","system_id":"levelo_inurba_marseille","lat":43.27208,"lon":5.39188,"is_reserved":false,"is_disabled":false,"rental_uris":{"android":"levelo://app?vid=77f2e318-16c9-494c-a50b-534985e1faed","ios":"levelo://app?vid=77f2e318-16c9-494c-a50b-534985e1faed"},"vehicle_type_id":"4","last_reported":1738649620,"current_range_meters":37600,"station_id":"ce4bhhp2rcd13ifvqfm0","pricing_plan_id":"cebpf4jnsgd1na2vs0mg"},{"bike_id":"0b593fea-7699-4daf-95f5-8bf1b27d334d","system_id":"levelo_inurba_marseille","lat":43.28702,"lon":5.37396,"is_reserved":false,"is_disabled":false,"rental_uris":{"android":"levelo://app?vid=0b593fea-7699-4daf-95f5-8bf1b27d334d","ios":"levelo://app?vid=0b593fea-7699-4daf-95f5-8bf1b27d334d"},"vehicle_type_id":"4","last_reported":1738649620,"current_range_meters":30000,"station_id":"ce4bh3p2rcd13ifvqdq0","pricing_plan_id":"cebpf4jnsgd1na2vs0mg"},{"bike_id":"26050afd-b0a5-477d-84eb-5b4b37ed4a13","system_id":"levelo_inurba_marseille","lat":43.28448,"lon":5.35876,"is_reserved":false,"is_disabled":false,"rental_uris":{"android":"levelo://app?vid=26050afd-b0a5-477d-84eb-5b4b37ed4a13","ios":"levelo://app?vid=26050afd-b0a5-477d-84eb-5b4b37ed4a13"},"vehicle_type_id":"4","last_reported":1738649620,"current_range_meters":18000,"station_id":"ce4bhah2rcd13ifvqei0","pricing_plan_id":"cebpf4jnsgd1na2vs0mg"},{"bike_id":"7ad543c6-fb45-451c-add8-0b23712390bd","system_id":"levelo_inurba_marseille","lat":43.26932,"lon":5.40274,"is_reserved":false,"is_disabled":false,"rental_uris":{"android":"levelo://app?vid=7ad543c6-fb45-451c-add8-0b23712390bd","ios":"levelo://app?vid=7ad543c6-fb45-451c-add8-0b23712390bd"},"vehicle_type_id":"4","last_reported":1738649620,"current_range_meters":18000,"station_id":"cjm6bp8fraef2m0cb0m0","pricing_plan_id":"cebpf4jnsgd1na2vs0mg"},{"bike_id":"1eec825f-1d98-4c8e-820e-ef0a58e8d525","system_id":"levelo_inurba_marseille","lat":43.28929,"lon":5.38448,"is_reserved":false,"is_disabled":false,"rental_uris":{"android":"levelo://app?vid=1eec825f-1d98-4c8e-820e-ef0a58e8d525","ios":"levelo://app?vid=1eec825f-1d98-4c8e-820e-ef0a58e8d525"},"vehicle_type_id":"4","last_reported":1738649620,"current_range_meters":6000,"station_id":"ce4bh4p2rcd13ifvqe0g","pricing_plan_id":"cebpf4jnsgd1na2vs0mg"},{"bike_id":"ddd34311-b0c1-4f2e-809b-9f4052e5e440","system_id":"levelo_inurba_marseille","lat":43.24065,"lon":5.37762,"is_reserved":false,"is_disabled":false,"rental_uris":{"android":"levelo://app?vid=ddd34311-b0c1-4f2e-809b-9f4052e5e440","ios":"levelo://app?vid=ddd34311-b0c1-4f2e-809b-9f4052e5e440"},"vehicle_type_id":"4","last_reported":1738649620,"current_range_meters":16000,"station_id":"ce4bhnp2rcd13ifvqgvg","pricing_plan_id":"cebpf4jnsgd1na2vs0mg"},{"bike_id":"b6726b54-a179-49a6-8559-169864f252fd","system_id":"levelo_inurba_marseille","lat":43.3016,"lon":5.38085,"is_reserved":false,"is_disabled":false,"rental_uris":{"android":"levelo://app?vid=b6726b54-a179-49a6-8559-169864f252fd","ios":"levelo://app?vid=b6726b54-a179-49a6-8559-169864f252fd"},"vehicle_type_id":"4","last_reported":1738649620,"current_range_meters":35200,"station_id":"ce4bgjp2rcd13ifvqbh0","pricing_plan_id":"cebpf4jnsgd1na2vs0mg"},{"bike_id":"81fc2b49-7d41-4bc4-9c6c-fc4ded896c4f","system_id":"levelo_inurba_marseille","lat":43.299202,"lon":5.374494,"is_reserved":false,"is_disabled":true,"rental_uris":{"android":"levelo://app?vid=81fc2b49-7d41-4bc4-9c6c-fc4ded896c4f","ios":"levelo://app?vid=81fc2b49-7d41-4bc4-9c6c-fc4ded896c4f"},"vehicle_type_id":"4","last_reported":1738649620,"current_range_meters":34800,"station_id":"ce4bgjh2rcd13ifvqbg0","pricing_plan_id":"cebpf4jnsgd1na2vs0mg"},{"bike_id":"b2f5ad0b-e859-4a5a-afe6-19f2444b14ba","system_id":"levelo_inurba_marseille","lat":43.31995,"lon":5.38151,"is_reserved":false,"is_disabled":false,"rental_uris":{"android":"levelo://app?vid=b2f5ad0b-e859-4a5a-afe6-19f2444b14ba","ios":"levelo://app?vid=b2f5ad0b-e859-4a5a-afe6-19f2444b14ba"},"vehicle_type_id":"4","last_reported":1738649620,"current_range_meters":38000,"station_id":"ce4bhr12rcd13ifvqhpg","pricing_plan_id":"cebpf4jnsgd1na2vs0mg"},{"bike_id":"84e53465-926b-43ef-956d-fb0614e2633b","system_id":"levelo_inurba_marseille","lat":43.30414,"lon":5.41286,"is_reserved":false,"is_disabled":false,"rental_uris":{"android":"levelo://app?vid=84e53465-926b-43ef-956d-fb0614e2633b","ios":"levelo://app?vid=84e53465-926b-43ef-956d-fb0614e2633b"},"vehicle_type_id":"4","last_reported":1738649620,"current_range_meters":36400,"station_id":"ce4bhop2rcd13ifvqh8g","pricing_plan_id":"cebpf4jnsgd1na2vs0mg"},{"bike_id":"f3bc6157-d3f0-49f7-ae4e-bc39e46470c3","system_id":"levelo_inurba_marseille","lat":43.27815,"lon":5.40705,"is_reserved":false,"is_disabled":false,"rental_uris":{"android":"levelo://app?vid=f3bc6157-d3f0-49f7-ae4e-bc39e46470c3","ios":"levelo://app?vid=f3bc6157-d3f0-49f7-ae4e-bc39e46470c3"},"vehicle_type_id":"4","last_reported":1738649620,"current_range_meters":24000,"station_id":"ce4bhnh2rcd13ifvqgtg","pricing_plan_id":"cebpf4jnsgd1na2vs0mg"},{"bike_id":"b04af40c-403c-4407-9e42-e0557c0b9076","system_id":"levelo_inurba_marseille","lat":43.30892,"lon":5.3968,"is_reserved":false,"is_disabled":false,"rental_uris":{"android":"levelo://app?vid=b04af40c-403c-4407-9e42-e0557c0b9076","ios":"levelo://app?vid=b04af40c-403c-4407-9e42-e0557c0b9076"},"vehicle_type_id":"4","last_reported":1738649620,"current_range_meters":32000,"station_id":"ce4bh012rcd13ifvqcv0","pricing_plan_id":"cebpf4jnsgd1na2vs0mg"},{"bike_id":"517d12c7-022b-4f83-801f-8815a8a13e19","system_id":"levelo_inurba_marseille","lat":43.30889,"lon":5.39636,"is_reserved":false,"is_disabled":false,"rental_uris":{"android":"levelo://app?vid=517d12c7-022b-4f83-801f-8815a8a13e19","ios":"levelo://app?vid=517d12c7-022b-4f83-801f-8815a8a13e19"},"vehicle_type_id":"4","last_reported":1738649620,"current_range_meters":20000,"station_id":"ce4bh012rcd13ifvqcv0","pricing_plan_id":"cebpf4jnsgd1na2vs0mg"},{"bike_id":"a96afd49-2183-4402-b4cb-2b9e2b2fa8b9","system_id":"levelo_inurba_marseille","lat":43.26685,"lon":5.38306,"is_reserved":false,"is_disabled":false,"rental_uris":{"android":"levelo://app?vid=a96afd49-2183-4402-b4cb-2b9e2b2fa8b9","ios":"levelo://app?vid=a96afd49-2183-4402-b4cb-2b9e2b2fa8b9"},"vehicle_type_id":"4","last_reported":1738649620,"current_range_meters":38800,"station_id":"ce4bhg92rcd13ifvqf90","pricing_plan_id":"cebpf4jnsgd1na2vs0mg"},{"bike_id":"eaad052b-6bc0-464a-8b9d-a306e57017ed","system_id":"levelo_inurba_marseille","lat":43.28721,"lon":5.36096,"is_reserved":false,"is_disabled":false,"rental_uris":{"android":"levelo://app?vid=eaad052b-6bc0-464a-8b9d-a306e57017ed","ios":"levelo://app?vid=eaad052b-6bc0-464a-8b9d-a306e57017ed"},"vehicle_type_id":"4","last_reported":1738649620,"current_range_meters":16800,"station_id":"cki0cbj6b192h4jlfktg","pricing_plan_id":"cebpf4jnsgd1na2vs0mg"},{"bike_id":"25af2dbd-e713-4060-b452-b9ff6588332c","system_id":"levelo_inurba_marseille","lat":43.25705,"lon":5.41093,"is_reserved":false,"is_disabled":false,"rental_uris":{"android":"levelo://app?vid=25af2dbd-e713-4060-b452-b9ff6588332c","ios":"levelo://app?vid=25af2dbd-e713-4060-b452-b9ff6588332c"},"vehicle_type_id":"4","last_reported":1738649620,"current_range_meters":36800,"station_id":"ce4bhkp2rcd13ifvqgd0","pricing_plan_id":"cebpf4jnsgd1na2vs0mg"},{"bike_id":"c92d27b3-011a-4b9b-85d3-c7a68cdf0054","system_id":"levelo_inurba_marseille","lat":43.324777,"lon":5.365669,"is_reserved":false,"is_disabled":false,"rental_uris":{"android":"levelo://app?vid=c92d27b3-011a-4b9b-85d3-c7a68cdf0054","ios":"levelo://app?vid=c92d27b3-011a-4b9b-85d3-c7a68cdf0054"},"vehicle_type_id":"4","last_reported":1738649620,"current_range_meters":18000,"station_id":"","pricing_plan_id":"cebpf4jnsgd1na2vs0mg"},{"bike_id":"3e574816-3754-460d-8072-f6ebe3757ea0","system_id":"levelo_inurba_marseille","lat":43.32359,"lon":5.36755,"is_reserved":false,"is_disabled":false,"rental_uris":{"android":"levelo://app?vid=3e574816-3754-460d-8072-f6ebe3757ea0","ios":"levelo://app?vid=3e574816-3754-460d-8072-f6ebe3757ea0"},"vehicle_type_id":"4","last_reported":1738649620,"current_range_meters":18800,"station_id":"ce4bhsh2rcd13ifvqi2g","pricing_plan_id":"cebpf4jnsgd1na2vs0mg"},{"bike_id":"253bad3d-1d06-498d-a971-050a267cb4fa","system_id":"levelo_inurba_marseille","lat":43.30168,"lon":5.38071,"is_reserved":false,"is_disabled":false,"rental_uris":{"android":"levelo://app?vid=253bad3d-1d06-498d-a971-050a267cb4fa","ios":"levelo://app?vid=253bad3d-1d06-498d-a971-050a267cb4fa"},"vehicle_type_id":"4","last_reported":1738649620,"current_range_meters":32400,"station_id":"ce4bgjp2rcd13ifvqbh0","pricing_plan_id":"cebpf4jnsgd1na2vs0mg"},{"bike_id":"1e5df189-32d9-4e7e-be9b-9c9544abb450","system_id":"levelo_inurba_marseille","lat":43.29624,"lon":5.40597,"is_reserved":false,"is_disabled":false,"rental_uris":{"android":"levelo://app?vid=1e5df189-32d9-4e7e-be9b-9c9544abb450","ios":"levelo://app?vid=1e5df189-32d9-4e7e-be9b-9c9544abb450"},"vehicle_type_id":"4","last_reported":1738649620,"current_range_meters":36000,"station_id":"ce4bh0h2rcd13ifvqd60","pricing_plan_id":"cebpf4jnsgd1na2vs0mg"},{"bike_id":"a1a7079b-68b5-45ca-9af8-b6bc9f7cd559","system_id":"levelo_inurba_marseille","lat":43.22931,"lon":5.35384,"is_reserved":false,"is_disabled":false,"rental_uris":{"android":"levelo://app?vid=a1a7079b-68b5-45ca-9af8-b6bc9f7cd559","ios":"levelo://app?vid=a1a7079b-68b5-45ca-9af8-b6bc9f7cd559"},"vehicle_type_id":"4","last_reported":1738649620,"current_range_meters":38800,"station_id":"cpo3532slgdg3j2ikp40","pricing_plan_id":"cebpf4jnsgd1na2vs0mg"},{"bike_id":"391156ab-23e6-4087-9fff-4d00554806c8","system_id":"levelo_inurba_marseille","lat":43.27584,"lon":5.38423,"is_reserved":false,"is_disabled":false,"rental_uris":{"android":"levelo://app?vid=391156ab-23e6-4087-9fff-4d00554806c8","ios":"levelo://app?vid=391156ab-23e6-4087-9fff-4d00554806c8"},"vehicle_type_id":"4","last_reported":1738649620,"current_range_meters":34800,"station_id":"ce4bhh92rcd13ifvqfi0","pricing_plan_id":"cebpf4jnsgd1na2vs0mg"},{"bike_id":"2858eea7-6ac3-464c-97ad-2ed0418e0461","system_id":"levelo_inurba_marseille","lat":43.31724,"lon":5.42401,"is_reserved":false,"is_disabled":false,"rental_uris":{"android":"levelo://app?vid=2858eea7-6ac3-464c-97ad-2ed0418e0461","ios":"levelo://app?vid=2858eea7-6ac3-464c-97ad-2ed0418e0461"},"vehicle_type_id":"4","last_reported":1738649620,"current_range_meters":20800,"station_id":"ce4bhp92rcd13ifvqhbg","pricing_plan_id":"cebpf4jnsgd1na2vs0mg"},{"bike_id":"6e515a09-e648-4841-950c-80b44d7756c6","system_id":"levelo_inurba_marseille","lat":43.291946,"lon":5.393265,"is_reserved":false,"is_disabled":false,"rental_uris":{"android":"levelo://app?vid=6e515a09-e648-4841-950c-80b44d7756c6","ios":"levelo://app?vid=6e515a09-e648-4841-950c-80b44d7756c6"},"vehicle_type_id":"4","last_reported":1738649620,"current_range_meters":38800,"station_id":"ce4bh192rcd13ifvqdd0","pricing_plan_id":"cebpf4jnsgd1na2vs0mg"},{"bike_id":"03c58b86-6f9e-4876-a067-63e726c4181d","system_id":"levelo_inurba_marseille","lat":43.29778,"lon":5.39349,"is_reserved":false,"is_disabled":false,"rental_uris":{"android":"levelo://app?vid=03c58b86-6f9e-4876-a067-63e726c4181d","ios":"levelo://app?vid=03c58b86-6f9e-4876-a067-63e726c4181d"},"vehicle_type_id":"4","last_reported":1738649620,"current_range_meters":38000,"station_id":"chh1huq6cuj3fo74tm60","pricing_plan_id":"cebpf4jnsgd1na2vs0mg"},{"bike_id":"8b7cdb48-c19b-44dd-8859-dc2aba3e48ea","system_id":"levelo_inurba_marseille","lat":43.25577,"lon":5.38232,"is_reserved":false,"is_disabled":false,"rental_uris":{"android":"levelo://app?vid=8b7cdb48-c19b-44dd-8859-dc2aba3e48ea","ios":"levelo://app?vid=8b7cdb48-c19b-44dd-8859-dc2aba3e48ea"},"vehicle_type_id":"4","last_reported":1738649620,"current_range_meters":8400,"station_id":"ce4bhih2rcd13ifvqfs0","pricing_plan_id":"cebpf4jnsgd1na2vs0mg"},{"bike_id":"1e80229c-3730-4f6a-ad92-db35f7d75e3d","system_id":"levelo_inurba_marseille","lat":43.27176,"lon":5.4099,"is_reserved":false,"is_disabled":false,"rental_uris":{"android":"levelo://app?vid=1e80229c-3730-4f6a-ad92-db35f7d75e3d","ios":"levelo://app?vid=1e80229c-3730-4f6a-ad92-db35f7d75e3d"},"vehicle_type_id":"4","last_reported":1738649620,"current_range_meters":38400,"station_id":"ce4bhl12rcd13ifvqgf0","pricing_plan_id":"cebpf4jnsgd1na2vs0mg"},{"bike_id":"f738eb8f-3268-4a0f-af5c-e51042433d2c","system_id":"levelo_inurba_marseille","lat":43.302829,"lon":5.398815,"is_reserved":false,"is_disabled":false,"rental_uris":{"android":"levelo://app?vid=f738eb8f-3268-4a0f-af5c-e51042433d2c","ios":"levelo://app?vid=f738eb8f-3268-4a0f-af5c-e51042433d2c"},"vehicle_type_id":"4","last_reported":1738649620,"current_range_meters":23200,"station_id":"","pricing_plan_id":"cebpf4jnsgd1na2vs0mg"},{"bike_id":"b2a6436f-4c95-46dd-a3bd-6af91e9591d2","system_id":"levelo_inurba_marseille","lat":43.255801,"lon":5.382221,"is_reserved":false,"is_disabled":false,"rental_uris":{"android":"levelo://app?vid=b2a6436f-4c95-46dd-a3bd-6af91e9591d2","ios":"levelo://app?vid=b2a6436f-4c95-46dd-a3bd-6af91e9591d2"},"vehicle_type_id":"4","last_reported":1738649620,"current_range_meters":20000,"station_id":"ce4bhih2rcd13ifvqfs0","pricing_plan_id":"cebpf4jnsgd1na2vs0mg"},{"bike_id":"17040f9e-e33b-4447-b83e-1e0cf0ca2432","system_id":"levelo_inurba_marseille","lat":43.29896,"lon":5.39713,"is_reserved":false,"is_disabled":false,"rental_uris":{"android":"levelo://app?vid=17040f9e-e33b-4447-b83e-1e0cf0ca2432","ios":"levelo://app?vid=17040f9e-e33b-4447-b83e-1e0cf0ca2432"},"vehicle_type_id":"4","last_reported":1738649620,"current_range_meters":28800,"station_id":"ce4bh0h2rcd13ifvqd50","pricing_plan_id":"cebpf4jnsgd1na2vs0mg"},{"bike_id":"b089039a-2028-4558-adde-35e974e6b260","system_id":"levelo_inurba_marseille","lat":43.270513,"lon":5.402767,"is_reserved":false,"is_disabled":false,"rental_uris":{"android":"levelo://app?vid=b089039a-2028-4558-adde-35e974e6b260","ios":"levelo://app?vid=b089039a-2028-4558-adde-35e974e6b260"},"vehicle_type_id":"4","last_reported":1738649620,"current_range_meters":32000,"station_id":"ce4bhk92rcd13ifvqgc0","pricing_plan_id":"cebpf4jnsgd1na2vs0mg"},{"bike_id":"0ded5e0f-fa22-4c94-8cea-93dd5234c044","system_id":"levelo_inurba_marseille","lat":43.26228,"lon":5.40459,"is_reserved":false,"is_disabled":false,"rental_uris":{"android":"levelo://app?vid=0ded5e0f-fa22-4c94-8cea-93dd5234c044","ios":"levelo://app?vid=0ded5e0f-fa22-4c94-8cea-93dd5234c044"},"vehicle_type_id":"4","last_reported":1738649620,"current_range_meters":38400,"station_id":"ce4bhmh2rcd13ifvqgmg","pricing_plan_id":"cebpf4jnsgd1na2vs0mg"},{"bike_id":"f9828797-7b54-4307-a075-30c9ff328a13","system_id":"levelo_inurba_marseille","lat":43.30248,"lon":5.40038,"is_reserved":false,"is_disabled":false,"rental_uris":{"android":"levelo://app?vid=f9828797-7b54-4307-a075-30c9ff328a13","ios":"levelo://app?vid=f9828797-7b54-4307-a075-30c9ff328a13"},"vehicle_type_id":"4","last_reported":1738649620,"current_range_meters":11600,"station_id":"ce4bgvh2rcd13ifvqcs0","pricing_plan_id":"cebpf4jnsgd1na2vs0mg"},{"bike_id":"1a794636-1de8-48ff-a1bf-f41557cb147d","system_id":"levelo_inurba_marseille","lat":43.34609,"lon":5.38094,"is_reserved":false,"is_disabled":false,"rental_uris":{"android":"levelo://app?vid=1a794636-1de8-48ff-a1bf-f41557cb147d","ios":"levelo://app?vid=1a794636-1de8-48ff-a1bf-f41557cb147d"},"vehicle_type_id":"4","last_reported":1738649620,"current_range_meters":14800,"station_id":"","pricing_plan_id":"cebpf4jnsgd1na2vs0mg"},{"bike_id":"3c8e5445-cf86-469e-9c11-4a5caaef9b7e","system_id":"levelo_inurba_marseille","lat":43.24651,"lon":5.38888,"is_reserved":false,"is_disabled":false,"rental_uris":{"android":"levelo://app?vid=3c8e5445-cf86-469e-9c11-4a5caaef9b7e","ios":"levelo://app?vid=3c8e5445-cf86-469e-9c11-4a5caaef9b7e"},"vehicle_type_id":"4","last_reported":1738649620,"current_range_meters":38800,"station_id":"ce4bhg12rcd13ifvqf60","pricing_plan_id":"cebpf4jnsgd1na2vs0mg"},{"bike_id":"2c0d1c77-cb06-4a8e-a889-1fef62eb7cf3","system_id":"levelo_inurba_marseille","lat":43.29086,"lon":5.38121,"is_reserved":false,"is_disabled":false,"rental_uris":{"android":"levelo://app?vid=2c0d1c77-cb06-4a8e-a889-1fef62eb7cf3","ios":"levelo://app?vid=2c0d1c77-cb06-4a8e-a889-1fef62eb7cf3"},"vehicle_type_id":"4","last_reported":1738649620,"current_range_meters":36800,"station_id":"ce4bh512rcd13ifvqe2g","pricing_plan_id":"cebpf4jnsgd1na2vs0mg"},{"bike_id":"a3d934d8-f52f-4a18-87f9-50ef83776b43","system_id":"levelo_inurba_marseille","lat":43.24401,"lon":5.37041,"is_reserved":false,"is_disabled":false,"rental_uris":{"android":"levelo://app?vid=a3d934d8-f52f-4a18-87f9-50ef83776b43","ios":"levelo://app?vid=a3d934d8-f52f-4a18-87f9-50ef83776b43"},"vehicle_type_id":"4","last_reported":1738649620,"current_range_meters":38000,"station_id":"ce4bhhh2rcd13ifvqfk0","pricing_plan_id":"cebpf4jnsgd1na2vs0mg"},{"bike_id":"b5c33a9c-c01d-40bd-90ff-5f08f6cbcff8","system_id":"levelo_inurba_marseille","lat":43.30149,"lon":5.38074,"is_reserved":false,"is_disabled":false,"rental_uris":{"android":"levelo://app?vid=b5c33a9c-c01d-40bd-90ff-5f08f6cbcff8","ios":"levelo://app?vid=b5c33a9c-c01d-40bd-90ff-5f08f6cbcff8"},"vehicle_type_id":"4","last_reported":1738649620,"current_range_meters":22000,"station_id":"ce4bgjp2rcd13ifvqbh0","pricing_plan_id":"cebpf4jnsgd1na2vs0mg"},{"bike_id":"0580b22c-e37b-43ae-9129-b4938c90022d","system_id":"levelo_inurba_marseille","lat":43.31488,"lon":5.3728,"is_reserved":false,"is_disabled":false,"rental_uris":{"android":"levelo://app?vid=0580b22c-e37b-43ae-9129-b4938c90022d","ios":"levelo://app?vid=0580b22c-e37b-43ae-9129-b4938c90022d"},"vehicle_type_id":"4","last_reported":1738649620,"current_range_meters":30400,"station_id":"ce4bgt12rcd13ifvqcd0","pricing_plan_id":"cebpf4jnsgd1na2vs0mg"},{"bike_id":"d8702c1a-b32e-4028-8d0d-067c836903f9","system_id":"levelo_inurba_marseille","lat":43.28486,"lon":5.38567,"is_reserved":false,"is_disabled":false,"rental_uris":{"android":"levelo://app?vid=d8702c1a-b32e-4028-8d0d-067c836903f9","ios":"levelo://app?vid=d8702c1a-b32e-4028-8d0d-067c836903f9"},"vehicle_type_id":"4","last_reported":1738649620,"current_range_meters":31200,"station_id":"ce4bh8p2rcd13ifvqeb0","pricing_plan_id":"cebpf4jnsgd1na2vs0mg"},{"bike_id":"30d68ac6-7ba6-4749-8154-bf914e372a6a","system_id":"levelo_inurba_marseille","lat":43.32365,"lon":5.388839,"is_reserved":false,"is_disabled":false,"rental_uris":{"android":"levelo://app?vid=30d68ac6-7ba6-4749-8154-bf914e372a6a","ios":"levelo://app?vid=30d68ac6-7ba6-4749-8154-bf914e372a6a"},"vehicle_type_id":"4","last_reported":1738649620,"current_range_meters":38000,"station_id":"ce4bhqp2rcd13ifvqhog","pricing_plan_id":"cebpf4jnsgd1na2vs0mg"},{"bike_id":"70db77fa-5101-4cc3-b5ef-7ecd27e20697","system_id":"levelo_inurba_marseille","lat":43.23056,"lon":5.35502,"is_reserved":false,"is_disabled":false,"rental_uris":{"android":"levelo://app?vid=70db77fa-5101-4cc3-b5ef-7ecd27e20697","ios":"levelo://app?vid=70db77fa-5101-4cc3-b5ef-7ecd27e20697"},"vehicle_type_id":"4","last_reported":1738649620,"current_range_meters":25200,"station_id":"cpo3342slgdg3j2ifvpg","pricing_plan_id":"cebpf4jnsgd1na2vs0mg"},{"bike_id":"f6dacf6b-80aa-4ed3-b60f-a447a5860aff","system_id":"levelo_inurba_marseille","lat":43.29217,"lon":5.36067,"is_reserved":false,"is_disabled":false,"rental_uris":{"android":"levelo://app?vid=f6dacf6b-80aa-4ed3-b60f-a447a5860aff","ios":"levelo://app?vid=f6dacf6b-80aa-4ed3-b60f-a447a5860aff"},"vehicle_type_id":"4","last_reported":1738649620,"current_range_meters":14800,"station_id":"ce4bhbh2rcd13ifvqeqg","pricing_plan_id":"cebpf4jnsgd1na2vs0mg"},{"bike_id":"e33c097b-83d0-40ec-9fbf-364e5b0a9ef8","system_id":"levelo_inurba_marseille","lat":43.23191,"lon":5.35552,"is_reserved":false,"is_disabled":false,"rental_uris":{"android":"levelo://app?vid=e33c097b-83d0-40ec-9fbf-364e5b0a9ef8","ios":"levelo://app?vid=e33c097b-83d0-40ec-9fbf-364e5b0a9ef8"},"vehicle_type_id":"4","last_reported":1738649620,"current_range_meters":38800,"station_id":"ce4bhu92rcd13ifvqi70","pricing_plan_id":"cebpf4jnsgd1na2vs0mg"},{"bike_id":"9afb4483-fe2c-4b50-8f83-506cf0628eaa","system_id":"levelo_inurba_marseille","lat":43.28659,"lon":5.36349,"is_reserved":false,"is_disabled":false,"rental_uris":{"android":"levelo://app?vid=9afb4483-fe2c-4b50-8f83-506cf0628eaa","ios":"levelo://app?vid=9afb4483-fe2c-4b50-8f83-506cf0628eaa"},"vehicle_type_id":"4","last_reported":1738649620,"current_range_meters":26800,"station_id":"ce4bhah2rcd13ifvqej0","pricing_plan_id":"cebpf4jnsgd1na2vs0mg"},{"bike_id":"1c76b995-c945-44fc-a497-fc47eb597fd6","system_id":"levelo_inurba_marseille","lat":43.28847,"lon":5.35856,"is_reserved":false,"is_disabled":false,"rental_uris":{"android":"levelo://app?vid=1c76b995-c945-44fc-a497-fc47eb597fd6","ios":"levelo://app?vid=1c76b995-c945-44fc-a497-fc47eb597fd6"},"vehicle_type_id":"4","last_reported":1738649620,"current_range_meters":36800,"station_id":"ce4bhb12rcd13ifvqem0","pricing_plan_id":"cebpf4jnsgd1na2vs0mg"},{"bike_id":"272a6181-bfe1-4f12-b3df-d057573256ce","system_id":"levelo_inurba_marseille","lat":43.28461,"lon":5.35874,"is_reserved":false,"is_disabled":false,"rental_uris":{"android":"levelo://app?vid=272a6181-bfe1-4f12-b3df-d057573256ce","ios":"levelo://app?vid=272a6181-bfe1-4f12-b3df-d057573256ce"},"vehicle_type_id":"4","last_reported":1738649620,"current_range_meters":38000,"station_id":"ce4bhah2rcd13ifvqei0","pricing_plan_id":"cebpf4jnsgd1na2vs0mg"},{"bike_id":"8c6b7a51-ddd8-424b-ae4e-3239e83554e1","system_id":"levelo_inurba_marseille","lat":43.30485,"lon":5.37906,"is_reserved":false,"is_disabled":false,"rental_uris":{"android":"levelo://app?vid=8c6b7a51-ddd8-424b-ae4e-3239e83554e1","ios":"levelo://app?vid=8c6b7a51-ddd8-424b-ae4e-3239e83554e1"},"vehicle_type_id":"4","last_reported":1738649620,"current_range_meters":28000,"station_id":"ce4bgup2rcd13ifvqcn0","pricing_plan_id":"cebpf4jnsgd1na2vs0mg"},{"bike_id":"74e38673-59cf-412f-b2bf-faca5f349f67","system_id":"levelo_inurba_marseille","lat":43.258626,"lon":5.39907,"is_reserved":false,"is_disabled":false,"rental_uris":{"android":"levelo://app?vid=74e38673-59cf-412f-b2bf-faca5f349f67","ios":"levelo://app?vid=74e38673-59cf-412f-b2bf-faca5f349f67"},"vehicle_type_id":"4","last_reported":1738649620,"current_range_meters":38800,"station_id":"ce4bhl92rcd13ifvqghg","pricing_plan_id":"cebpf4jnsgd1na2vs0mg"},{"bike_id":"d95125c6-c745-4f2f-8a65-9fe0ea75ec43","system_id":"levelo_inurba_marseille","lat":43.28447,"lon":5.35886,"is_reserved":false,"is_disabled":false,"rental_uris":{"android":"levelo://app?vid=d95125c6-c745-4f2f-8a65-9fe0ea75ec43","ios":"levelo://app?vid=d95125c6-c745-4f2f-8a65-9fe0ea75ec43"},"vehicle_type_id":"4","last_reported":1738649620,"current_range_meters":30000,"station_id":"ce4bhah2rcd13ifvqei0","pricing_plan_id":"cebpf4jnsgd1na2vs0mg"},{"bike_id":"89e0fb27-5f26-4cfe-9f61-e8651117733f","system_id":"levelo_inurba_marseille","lat":43.22922,"lon":5.35374,"is_reserved":false,"is_disabled":false,"rental_uris":{"android":"levelo://app?vid=89e0fb27-5f26-4cfe-9f61-e8651117733f","ios":"levelo://app?vid=89e0fb27-5f26-4cfe-9f61-e8651117733f"},"vehicle_type_id":"4","last_reported":1738649620,"current_range_meters":38000,"station_id":"cpo3532slgdg3j2ikp40","pricing_plan_id":"cebpf4jnsgd1na2vs0mg"},{"bike_id":"3bb3b37a-9802-41d5-894a-e5e76ec7972f","system_id":"levelo_inurba_marseille","lat":43.28996,"lon":5.35611,"is_reserved":false,"is_disabled":false,"rental_uris":{"android":"levelo://app?vid=3bb3b37a-9802-41d5-894a-e5e76ec7972f","ios":"levelo://app?vid=3bb3b37a-9802-41d5-894a-e5e76ec7972f"},"vehicle_type_id":"4","last_reported":1738649620,"current_range_meters":38800,"station_id":"ce4bhb92rcd13ifvqen0","pricing_plan_id":"cebpf4jnsgd1na2vs0mg"},{"bike_id":"cfdf0950-ea3c-4b92-804b-57a6b13d3e7a","system_id":"levelo_inurba_marseille","lat":43.274942,"lon":5.424576,"is_reserved":false,"is_disabled":false,"rental_uris":{"android":"levelo://app?vid=cfdf0950-ea3c-4b92-804b-57a6b13d3e7a","ios":"levelo://app?vid=cfdf0950-ea3c-4b92-804b-57a6b13d3e7a"},"vehicle_type_id":"4","last_reported":1738649620,"current_range_meters":34800,"station_id":"ce4bhn92rcd13ifvqgrg","pricing_plan_id":"cebpf4jnsgd1na2vs0mg"},{"bike_id":"d9a0037b-ea73-422f-86c2-72b990424241","system_id":"levelo_inurba_marseille","lat":43.23963,"lon":5.36636,"is_reserved":false,"is_disabled":false,"rental_uris":{"android":"levelo://app?vid=d9a0037b-ea73-422f-86c2-72b990424241","ios":"levelo://app?vid=d9a0037b-ea73-422f-86c2-72b990424241"},"vehicle_type_id":"4","last_reported":1738649620,"current_range_meters":16800,"station_id":"ce4bhi12rcd13ifvqfp0","pricing_plan_id":"cebpf4jnsgd1na2vs0mg"},{"bike_id":"de27dfc9-f2fb-4778-8226-69a993c0eb2e","system_id":"levelo_inurba_marseille","lat":43.24545,"lon":5.39517,"is_reserved":false,"is_disabled":false,"rental_uris":{"android":"levelo://app?vid=de27dfc9-f2fb-4778-8226-69a993c0eb2e","ios":"levelo://app?vid=de27dfc9-f2fb-4778-8226-69a993c0eb2e"},"vehicle_type_id":"4","last_reported":1738649620,"current_range_meters":37600,"station_id":"ce4bhlp2rcd13ifvqgjg","pricing_plan_id":"cebpf4jnsgd1na2vs0mg"},{"bike_id":"bbacedf1-5d29-49eb-aad8-970862565212","system_id":"levelo_inurba_marseille","lat":43.31116,"lon":5.37771,"is_reserved":false,"is_disabled":false,"rental_uris":{"android":"levelo://app?vid=bbacedf1-5d29-49eb-aad8-970862565212","ios":"levelo://app?vid=bbacedf1-5d29-49eb-aad8-970862565212"},"vehicle_type_id":"4","last_reported":1738649620,"current_range_meters":38800,"station_id":"ce4bgt92rcd13ifvqcg0","pricing_plan_id":"cebpf4jnsgd1na2vs0mg"},{"bike_id":"8b4643de-8d66-4ef9-a182-264baeb716f4","system_id":"levelo_inurba_marseille","lat":43.28713,"lon":5.37962,"is_reserved":false,"is_disabled":false,"rental_uris":{"android":"levelo://app?vid=8b4643de-8d66-4ef9-a182-264baeb716f4","ios":"levelo://app?vid=8b4643de-8d66-4ef9-a182-264baeb716f4"},"vehicle_type_id":"4","last_reported":1738649620,"current_range_meters":26800,"station_id":"ce4bh9p2rcd13ifvqec0","pricing_plan_id":"cebpf4jnsgd1na2vs0mg"},{"bike_id":"8800dd5a-d74f-4ee5-bc96-f6630250f422","system_id":"levelo_inurba_marseille","lat":43.23955,"lon":5.36655,"is_reserved":false,"is_disabled":false,"rental_uris":{"android":"levelo://app?vid=8800dd5a-d74f-4ee5-bc96-f6630250f422","ios":"levelo://app?vid=8800dd5a-d74f-4ee5-bc96-f6630250f422"},"vehicle_type_id":"4","last_reported":1738649620,"current_range_meters":34000,"station_id":"ce4bhi12rcd13ifvqfp0","pricing_plan_id":"cebpf4jnsgd1na2vs0mg"},{"bike_id":"8270da70-a2d5-49f3-9df0-efc0215a4d15","system_id":"levelo_inurba_marseille","lat":43.323363,"lon":5.406136,"is_reserved":false,"is_disabled":false,"rental_uris":{"android":"levelo://app?vid=8270da70-a2d5-49f3-9df0-efc0215a4d15","ios":"levelo://app?vid=8270da70-a2d5-49f3-9df0-efc0215a4d15"},"vehicle_type_id":"4","last_reported":1738649620,"current_range_meters":38800,"station_id":"ce4bhq92rcd13ifvqhjg","pricing_plan_id":"cebpf4jnsgd1na2vs0mg"},{"bike_id":"f793b0f1-dc3d-4665-8119-792bda6e89e8","system_id":"levelo_inurba_marseille","lat":43.231812,"lon":5.399897,"is_reserved":false,"is_disabled":false,"rental_uris":{"android":"levelo://app?vid=f793b0f1-dc3d-4665-8119-792bda6e89e8","ios":"levelo://app?vid=f793b0f1-dc3d-4665-8119-792bda6e89e8"},"vehicle_type_id":"4","last_reported":1738649620,"current_range_meters":3600,"station_id":"ce4bhn12rcd13ifvqgqg","pricing_plan_id":"cebpf4jnsgd1na2vs0mg"},{"bike_id":"9a246337-8b93-40ac-8041-a37c41945aaf","system_id":"levelo_inurba_marseille","lat":43.269384,"lon":5.402532,"is_reserved":false,"is_disabled":false,"rental_uris":{"android":"levelo://app?vid=9a246337-8b93-40ac-8041-a37c41945aaf","ios":"levelo://app?vid=9a246337-8b93-40ac-8041-a37c41945aaf"},"vehicle_type_id":"4","last_reported":1738649620,"current_range_meters":8000,"station_id":"cjm6bp8fraef2m0cb0m0","pricing_plan_id":"cebpf4jnsgd1na2vs0mg"},{"bike_id":"3bee43d5-e27e-4692-8630-5bfa4bfc3f39","system_id":"levelo_inurba_marseille","lat":43.3231,"lon":5.38279,"is_reserved":false,"is_disabled":false,"rental_uris":{"android":"levelo://app?vid=3bee43d5-e27e-4692-8630-5bfa4bfc3f39","ios":"levelo://app?vid=3bee43d5-e27e-4692-8630-5bfa4bfc3f39"},"vehicle_type_id":"4","last_reported":1738649620,"current_range_meters":26000,"station_id":"ce4bhr12rcd13ifvqhqg","pricing_plan_id":"cebpf4jnsgd1na2vs0mg"},{"bike_id":"dff19049-5568-464f-8195-da5ffd56d6e5","system_id":"levelo_inurba_marseille","lat":43.297174,"lon":5.366192,"is_reserved":false,"is_disabled":false,"rental_uris":{"android":"levelo://app?vid=dff19049-5568-464f-8195-da5ffd56d6e5","ios":"levelo://app?vid=dff19049-5568-464f-8195-da5ffd56d6e5"},"vehicle_type_id":"4","last_reported":1738649620,"current_range_meters":38800,"station_id":"ce4bgn12rcd13ifvqbt0","pricing_plan_id":"cebpf4jnsgd1na2vs0mg"},{"bike_id":"cb9e092a-81a9-4536-b645-1d1f9d6be896","system_id":"levelo_inurba_marseille","lat":43.284206,"lon":5.375231,"is_reserved":false,"is_disabled":false,"rental_uris":{"android":"levelo://app?vid=cb9e092a-81a9-4536-b645-1d1f9d6be896","ios":"levelo://app?vid=cb9e092a-81a9-4536-b645-1d1f9d6be896"},"vehicle_type_id":"4","last_reported":1738649620,"current_range_meters":11600,"station_id":"ce4bh412rcd13ifvqds0","pricing_plan_id":"cebpf4jnsgd1na2vs0mg"},{"bike_id":"706c6195-eb74-41bc-add5-7abef4d5033c","system_id":"levelo_inurba_marseille","lat":43.312851,"lon":5.401666,"is_reserved":false,"is_disabled":false,"rental_uris":{"android":"levelo://app?vid=706c6195-eb74-41bc-add5-7abef4d5033c","ios":"levelo://app?vid=706c6195-eb74-41bc-add5-7abef4d5033c"},"vehicle_type_id":"4","last_reported":1738649620,"current_range_meters":6400,"station_id":"ce4bh092rcd13ifvqd30","pricing_plan_id":"cebpf4jnsgd1na2vs0mg"},{"bike_id":"190f01fd-2b34-4b4c-90cd-f2f9af442a24","system_id":"levelo_inurba_marseille","lat":43.30644,"lon":5.40081,"is_reserved":false,"is_disabled":false,"rental_uris":{"android":"levelo://app?vid=190f01fd-2b34-4b4c-90cd-f2f9af442a24","ios":"levelo://app?vid=190f01fd-2b34-4b4c-90cd-f2f9af442a24"},"vehicle_type_id":"4","last_reported":1738649620,"current_range_meters":26000,"station_id":"ce4bh112rcd13ifvqda0","pricing_plan_id":"cebpf4jnsgd1na2vs0mg"},{"bike_id":"3ab0ceb6-cd89-477f-8038-1be761eb4bda","system_id":"levelo_inurba_marseille","lat":43.29217,"lon":5.36059,"is_reserved":false,"is_disabled":false,"rental_uris":{"android":"levelo://app?vid=3ab0ceb6-cd89-477f-8038-1be761eb4bda","ios":"levelo://app?vid=3ab0ceb6-cd89-477f-8038-1be761eb4bda"},"vehicle_type_id":"4","last_reported":1738649620,"current_range_meters":14800,"station_id":"ce4bhbh2rcd13ifvqeqg","pricing_plan_id":"cebpf4jnsgd1na2vs0mg"},{"bike_id":"8e367088-52d8-4cc0-b329-31afa3683a7d","system_id":"levelo_inurba_marseille","lat":43.25722,"lon":5.41055,"is_reserved":false,"is_disabled":false,"rental_uris":{"android":"levelo://app?vid=8e367088-52d8-4cc0-b329-31afa3683a7d","ios":"levelo://app?vid=8e367088-52d8-4cc0-b329-31afa3683a7d"},"vehicle_type_id":"4","last_reported":1738649620,"current_range_meters":37600,"station_id":"ce4bhkp2rcd13ifvqgd0","pricing_plan_id":"cebpf4jnsgd1na2vs0mg"},{"bike_id":"8e599b88-5a17-40c8-a99e-aa5dfac0c156","system_id":"levelo_inurba_marseille","lat":43.248123,"lon":5.374562,"is_reserved":false,"is_disabled":false,"rental_uris":{"android":"levelo://app?vid=8e599b88-5a17-40c8-a99e-aa5dfac0c156","ios":"levelo://app?vid=8e599b88-5a17-40c8-a99e-aa5dfac0c156"},"vehicle_type_id":"4","last_reported":1738649620,"current_range_meters":27600,"station_id":"ce4bhgh2rcd13ifvqfb0","pricing_plan_id":"cebpf4jnsgd1na2vs0mg"},{"bike_id":"48a197a0-4298-4bad-a5d2-5346b8b8d122","system_id":"levelo_inurba_marseille","lat":43.30148,"lon":5.3808,"is_reserved":false,"is_disabled":false,"rental_uris":{"android":"levelo://app?vid=48a197a0-4298-4bad-a5d2-5346b8b8d122","ios":"levelo://app?vid=48a197a0-4298-4bad-a5d2-5346b8b8d122"},"vehicle_type_id":"4","last_reported":1738649620,"current_range_meters":10800,"station_id":"ce4bgjp2rcd13ifvqbh0","pricing_plan_id":"cebpf4jnsgd1na2vs0mg"},{"bike_id":"a7707bf1-29c6-4f48-976f-2880303742fc","system_id":"levelo_inurba_marseille","lat":43.29515,"lon":5.39028,"is_reserved":false,"is_disabled":true,"rental_uris":{"android":"levelo://app?vid=a7707bf1-29c6-4f48-976f-2880303742fc","ios":"levelo://app?vid=a7707bf1-29c6-4f48-976f-2880303742fc"},"vehicle_type_id":"4","last_reported":1738649620,"current_range_meters":15200,"station_id":"ce4bh3p2rcd13ifvqdp0","pricing_plan_id":"cebpf4jnsgd1na2vs0mg"},{"bike_id":"14093a1f-103e-4dfd-886e-e2bf40e444e7","system_id":"levelo_inurba_marseille","lat":43.304198,"lon":5.397506,"is_reserved":false,"is_disabled":false,"rental_uris":{"android":"levelo://app?vid=14093a1f-103e-4dfd-886e-e2bf40e444e7","ios":"levelo://app?vid=14093a1f-103e-4dfd-886e-e2bf40e444e7"},"vehicle_type_id":"4","last_reported":1738649620,"current_range_meters":38400,"station_id":"ce4bh092rcd13ifvqd20","pricing_plan_id":"cebpf4jnsgd1na2vs0mg"},{"bike_id":"8f90a6e5-1a23-4f9a-9bbf-6ce47a906637","system_id":"levelo_inurba_marseille","lat":43.30923,"lon":5.40149,"is_reserved":false,"is_disabled":false,"rental_uris":{"android":"levelo://app?vid=8f90a6e5-1a23-4f9a-9bbf-6ce47a906637","ios":"levelo://app?vid=8f90a6e5-1a23-4f9a-9bbf-6ce47a906637"},"vehicle_type_id":"4","last_reported":1738649620,"current_range_meters":32000,"station_id":"ce4bgvp2rcd13ifvqct0","pricing_plan_id":"cebpf4jnsgd1na2vs0mg"},{"bike_id":"b9687930-f2fe-4cdc-aefe-cf832adcf3ee","system_id":"levelo_inurba_marseille","lat":43.25582,"lon":5.38234,"is_reserved":false,"is_disabled":false,"rental_uris":{"android":"levelo://app?vid=b9687930-f2fe-4cdc-aefe-cf832adcf3ee","ios":"levelo://app?vid=b9687930-f2fe-4cdc-aefe-cf832adcf3ee"},"vehicle_type_id":"4","last_reported":1738649620,"current_range_meters":7200,"station_id":"ce4bhih2rcd13ifvqfs0","pricing_plan_id":"cebpf4jnsgd1na2vs0mg"},{"bike_id":"ef0b827a-3bfd-40d9-b97f-011d633ca06b","system_id":"levelo_inurba_marseille","lat":43.30252,"lon":5.4008,"is_reserved":false,"is_disabled":false,"rental_uris":{"android":"levelo://app?vid=ef0b827a-3bfd-40d9-b97f-011d633ca06b","ios":"levelo://app?vid=ef0b827a-3bfd-40d9-b97f-011d633ca06b"},"vehicle_type_id":"4","last_reported":1738649620,"current_range_meters":22400,"station_id":"ce4bgvh2rcd13ifvqcs0","pricing_plan_id":"cebpf4jnsgd1na2vs0mg"},{"bike_id":"c4ccbd91-10c0-46e2-9c4f-4adbb7e59886","system_id":"levelo_inurba_marseille","lat":43.320517,"lon":5.415376,"is_reserved":false,"is_disabled":false,"rental_uris":{"android":"levelo://app?vid=c4ccbd91-10c0-46e2-9c4f-4adbb7e59886","ios":"levelo://app?vid=c4ccbd91-10c0-46e2-9c4f-4adbb7e59886"},"vehicle_type_id":"4","last_reported":1738649620,"current_range_meters":20800,"station_id":"ce4bhq92rcd13ifvqhkg","pricing_plan_id":"cebpf4jnsgd1na2vs0mg"},{"bike_id":"ea0afcf9-5132-45fb-99e4-e388ec64503c","system_id":"levelo_inurba_marseille","lat":43.25587,"lon":5.3823,"is_reserved":false,"is_disabled":false,"rental_uris":{"android":"levelo://app?vid=ea0afcf9-5132-45fb-99e4-e388ec64503c","ios":"levelo://app?vid=ea0afcf9-5132-45fb-99e4-e388ec64503c"},"vehicle_type_id":"4","last_reported":1738649620,"current_range_meters":36400,"station_id":"ce4bhih2rcd13ifvqfs0","pricing_plan_id":"cebpf4jnsgd1na2vs0mg"},{"bike_id":"70369681-e619-4b48-b459-3a84c7ba413d","system_id":"levelo_inurba_marseille","lat":43.29615,"lon":5.37161,"is_reserved":false,"is_disabled":false,"rental_uris":{"android":"levelo://app?vid=70369681-e619-4b48-b459-3a84c7ba413d","ios":"levelo://app?vid=70369681-e619-4b48-b459-3a84c7ba413d"},"vehicle_type_id":"4","last_reported":1738649620,"current_range_meters":32000,"station_id":"ce4bgnh2rcd13ifvqc0g","pricing_plan_id":"cebpf4jnsgd1na2vs0mg"},{"bike_id":"7dd68174-1d38-48a0-87e4-e5911f1e11f7","system_id":"levelo_inurba_marseille","lat":43.28863,"lon":5.3586,"is_reserved":false,"is_disabled":false,"rental_uris":{"android":"levelo://app?vid=7dd68174-1d38-48a0-87e4-e5911f1e11f7","ios":"levelo://app?vid=7dd68174-1d38-48a0-87e4-e5911f1e11f7"},"vehicle_type_id":"4","last_reported":1738649620,"current_range_meters":38800,"station_id":"ce4bhb12rcd13ifvqem0","pricing_plan_id":"cebpf4jnsgd1na2vs0mg"},{"bike_id":"61245831-2a5b-499b-a7bd-326ecf7b0019","system_id":"levelo_inurba_marseille","lat":43.28378,"lon":5.37486,"is_reserved":false,"is_disabled":false,"rental_uris":{"android":"levelo://app?vid=61245831-2a5b-499b-a7bd-326ecf7b0019","ios":"levelo://app?vid=61245831-2a5b-499b-a7bd-326ecf7b0019"},"vehicle_type_id":"4","last_reported":1738649620,"current_range_meters":22000,"station_id":"ce4bh412rcd13ifvqds0","pricing_plan_id":"cebpf4jnsgd1na2vs0mg"},{"bike_id":"f99c2d6a-f6bd-43c9-9b5e-96aec13e4155","system_id":"levelo_inurba_marseille","lat":43.31364,"lon":5.36684,"is_reserved":false,"is_disabled":false,"rental_uris":{"android":"levelo://app?vid=f99c2d6a-f6bd-43c9-9b5e-96aec13e4155","ios":"levelo://app?vid=f99c2d6a-f6bd-43c9-9b5e-96aec13e4155"},"vehicle_type_id":"4","last_reported":1738649620,"current_range_meters":39200,"station_id":"ce4bgr92rcd13ifvqc6g","pricing_plan_id":"cebpf4jnsgd1na2vs0mg"},{"bike_id":"aae712cf-8cb4-45da-8af3-b5aa8fba9acb","system_id":"levelo_inurba_marseille","lat":43.309592,"lon":5.389865,"is_reserved":false,"is_disabled":false,"rental_uris":{"android":"levelo://app?vid=aae712cf-8cb4-45da-8af3-b5aa8fba9acb","ios":"levelo://app?vid=aae712cf-8cb4-45da-8af3-b5aa8fba9acb"},"vehicle_type_id":"4","last_reported":1738649620,"current_range_meters":33600,"station_id":"ce4bgup2rcd13ifvqco0","pricing_plan_id":"cebpf4jnsgd1na2vs0mg"},{"bike_id":"20bca8e8-37e6-4d29-982c-68d2be9250be","system_id":"levelo_inurba_marseille","lat":43.28569,"lon":5.39493,"is_reserved":false,"is_disabled":false,"rental_uris":{"android":"levelo://app?vid=20bca8e8-37e6-4d29-982c-68d2be9250be","ios":"levelo://app?vid=20bca8e8-37e6-4d29-982c-68d2be9250be"},"vehicle_type_id":"4","last_reported":1738649620,"current_range_meters":26800,"station_id":"ce4bh292rcd13ifvqdg0","pricing_plan_id":"cebpf4jnsgd1na2vs0mg"},{"bike_id":"0416cf78-7863-4eec-b5e5-3557e2310ee1","system_id":"levelo_inurba_marseille","lat":43.267785,"lon":5.394309,"is_reserved":false,"is_disabled":true,"rental_uris":{"android":"levelo://app?vid=0416cf78-7863-4eec-b5e5-3557e2310ee1","ios":"levelo://app?vid=0416cf78-7863-4eec-b5e5-3557e2310ee1"},"vehicle_type_id":"4","last_reported":1738649620,"current_range_meters":0,"station_id":"ce4bhh12rcd13ifvqfg0","pricing_plan_id":"cebpf4jnsgd1na2vs0mg"},{"bike_id":"d060d8ab-73a2-439f-9533-ec94ac1e83b9","system_id":"levelo_inurba_marseille","lat":43.27951,"lon":5.41035,"is_reserved":false,"is_disabled":false,"rental_uris":{"android":"levelo://app?vid=d060d8ab-73a2-439f-9533-ec94ac1e83b9","ios":"levelo://app?vid=d060d8ab-73a2-439f-9533-ec94ac1e83b9"},"vehicle_type_id":"4","last_reported":1738649620,"current_range_meters":36800,"station_id":"ce4bhnp2rcd13ifvqh0g","pricing_plan_id":"cebpf4jnsgd1na2vs0mg"},{"bike_id":"d956c0fa-8e81-4a5c-a819-66560ebeacd2","system_id":"levelo_inurba_marseille","lat":43.28155,"lon":5.42644,"is_reserved":false,"is_disabled":false,"rental_uris":{"android":"levelo://app?vid=d956c0fa-8e81-4a5c-a819-66560ebeacd2","ios":"levelo://app?vid=d956c0fa-8e81-4a5c-a819-66560ebeacd2"},"vehicle_type_id":"4","last_reported":1738649620,"current_range_meters":8000,"station_id":"ce4bhnh2rcd13ifvqgug","pricing_plan_id":"cebpf4jnsgd1na2vs0mg"},{"bike_id":"da34d4f8-fcc3-4716-a4b5-ebb5e90aeefc","system_id":"levelo_inurba_marseille","lat":43.31333,"lon":5.39701,"is_reserved":false,"is_disabled":false,"rental_uris":{"android":"levelo://app?vid=da34d4f8-fcc3-4716-a4b5-ebb5e90aeefc","ios":"levelo://app?vid=da34d4f8-fcc3-4716-a4b5-ebb5e90aeefc"},"vehicle_type_id":"4","last_reported":1738649620,"current_range_meters":38800,"station_id":"ce4bgvp2rcd13ifvqcu0","pricing_plan_id":"cebpf4jnsgd1na2vs0mg"},{"bike_id":"21c89297-c791-4464-9214-e643c17f7aa6","system_id":"levelo_inurba_marseille","lat":43.31319,"lon":5.3969,"is_reserved":false,"is_disabled":false,"rental_uris":{"android":"levelo://app?vid=21c89297-c791-4464-9214-e643c17f7aa6","ios":"levelo://app?vid=21c89297-c791-4464-9214-e643c17f7aa6"},"vehicle_type_id":"4","last_reported":1738649620,"current_range_meters":37600,"station_id":"ce4bgvp2rcd13ifvqcu0","pricing_plan_id":"cebpf4jnsgd1na2vs0mg"},{"bike_id":"d3f767b3-28c7-4c7d-9ffa-3a59559dd085","system_id":"levelo_inurba_marseille","lat":43.27068,"lon":5.42269,"is_reserved":false,"is_disabled":false,"rental_uris":{"android":"levelo://app?vid=d3f767b3-28c7-4c7d-9ffa-3a59559dd085","ios":"levelo://app?vid=d3f767b3-28c7-4c7d-9ffa-3a59559dd085"},"vehicle_type_id":"4","last_reported":1738649620,"current_range_meters":8000,"station_id":"ce4bhk92rcd13ifvqgb0","pricing_plan_id":"cebpf4jnsgd1na2vs0mg"},{"bike_id":"98682d30-e93c-49a6-a226-9bd09ce46180","system_id":"levelo_inurba_marseille","lat":43.260653,"lon":5.393922,"is_reserved":false,"is_disabled":false,"rental_uris":{"android":"levelo://app?vid=98682d30-e93c-49a6-a226-9bd09ce46180","ios":"levelo://app?vid=98682d30-e93c-49a6-a226-9bd09ce46180"},"vehicle_type_id":"4","last_reported":1738649620,"current_range_meters":38800,"station_id":"ce4bhh92rcd13ifvqfj0","pricing_plan_id":"cebpf4jnsgd1na2vs0mg"},{"bike_id":"35e900ce-d69f-464a-bbd5-cee92e0449da","system_id":"levelo_inurba_marseille","lat":43.31367,"lon":5.38487,"is_reserved":false,"is_disabled":false,"rental_uris":{"android":"levelo://app?vid=35e900ce-d69f-464a-bbd5-cee92e0449da","ios":"levelo://app?vid=35e900ce-d69f-464a-bbd5-cee92e0449da"},"vehicle_type_id":"4","last_reported":1738649620,"current_range_meters":32000,"station_id":"ce4bgt92rcd13ifvqcf0","pricing_plan_id":"cebpf4jnsgd1na2vs0mg"},{"bike_id":"71ec8193-f671-4e06-9ff4-9da8f309a0bc","system_id":"levelo_inurba_marseille","lat":43.28482,"lon":5.38431,"is_reserved":false,"is_disabled":true,"rental_uris":{"android":"levelo://app?vid=71ec8193-f671-4e06-9ff4-9da8f309a0bc","ios":"levelo://app?vid=71ec8193-f671-4e06-9ff4-9da8f309a0bc"},"vehicle_type_id":"4","last_reported":1738649620,"current_range_meters":20000,"station_id":"ce4bh512rcd13ifvqe3g","pricing_plan_id":"cebpf4jnsgd1na2vs0mg"},{"bike_id":"9a153ca3-9d91-4203-b42e-9c96ff5dd69d","system_id":"levelo_inurba_marseille","lat":43.2894,"lon":5.36392,"is_reserved":false,"is_disabled":false,"rental_uris":{"android":"levelo://app?vid=9a153ca3-9d91-4203-b42e-9c96ff5dd69d","ios":"levelo://app?vid=9a153ca3-9d91-4203-b42e-9c96ff5dd69d"},"vehicle_type_id":"4","last_reported":1738649620,"current_range_meters":38800,"station_id":"ce4bhc92rcd13ifvqetg","pricing_plan_id":"cebpf4jnsgd1na2vs0mg"},{"bike_id":"31370946-063b-4a9b-8fe9-7d03c9ed266a","system_id":"levelo_inurba_marseille","lat":43.25115,"lon":5.40347,"is_reserved":false,"is_disabled":false,"rental_uris":{"android":"levelo://app?vid=31370946-063b-4a9b-8fe9-7d03c9ed266a","ios":"levelo://app?vid=31370946-063b-4a9b-8fe9-7d03c9ed266a"},"vehicle_type_id":"4","last_reported":1738649620,"current_range_meters":38800,"station_id":"ce4bhlh2rcd13ifvqgig","pricing_plan_id":"cebpf4jnsgd1na2vs0mg"},{"bike_id":"af6afeaf-502f-42e9-9f5e-56ed1c47c923","system_id":"levelo_inurba_marseille","lat":43.28353,"lon":5.38109,"is_reserved":false,"is_disabled":false,"rental_uris":{"android":"levelo://app?vid=af6afeaf-502f-42e9-9f5e-56ed1c47c923","ios":"levelo://app?vid=af6afeaf-502f-42e9-9f5e-56ed1c47c923"},"vehicle_type_id":"4","last_reported":1738649620,"current_range_meters":32000,"station_id":"ce4bh412rcd13ifvqdr0","pricing_plan_id":"cebpf4jnsgd1na2vs0mg"},{"bike_id":"fba2d570-63f1-46ed-9880-2d27e601a924","system_id":"levelo_inurba_marseille","lat":43.28568,"lon":5.39501,"is_reserved":false,"is_disabled":false,"rental_uris":{"android":"levelo://app?vid=fba2d570-63f1-46ed-9880-2d27e601a924","ios":"levelo://app?vid=fba2d570-63f1-46ed-9880-2d27e601a924"},"vehicle_type_id":"4","last_reported":1738649620,"current_range_meters":12800,"station_id":"ce4bh292rcd13ifvqdg0","pricing_plan_id":"cebpf4jnsgd1na2vs0mg"},{"bike_id":"0a733b1d-f13b-444e-9e43-e39fc35c314a","system_id":"levelo_inurba_marseille","lat":43.28269,"lon":5.35099,"is_reserved":false,"is_disabled":false,"rental_uris":{"android":"levelo://app?vid=0a733b1d-f13b-444e-9e43-e39fc35c314a","ios":"levelo://app?vid=0a733b1d-f13b-444e-9e43-e39fc35c314a"},"vehicle_type_id":"4","last_reported":1738649620,"current_range_meters":8000,"station_id":"ce4bhbp2rcd13ifvqerg","pricing_plan_id":"cebpf4jnsgd1na2vs0mg"},{"bike_id":"88f6ec14-1047-428a-bfc8-ed7564b679d3","system_id":"levelo_inurba_marseille","lat":43.24393,"lon":5.37062,"is_reserved":false,"is_disabled":false,"rental_uris":{"android":"levelo://app?vid=88f6ec14-1047-428a-bfc8-ed7564b679d3","ios":"levelo://app?vid=88f6ec14-1047-428a-bfc8-ed7564b679d3"},"vehicle_type_id":"4","last_reported":1738649620,"current_range_meters":6000,"station_id":"ce4bhhh2rcd13ifvqfk0","pricing_plan_id":"cebpf4jnsgd1na2vs0mg"},{"bike_id":"da9b0aad-a8c7-4e7d-bbf2-c2a206fb8436","system_id":"levelo_inurba_marseille","lat":43.30929,"lon":5.40145,"is_reserved":false,"is_disabled":false,"rental_uris":{"android":"levelo://app?vid=da9b0aad-a8c7-4e7d-bbf2-c2a206fb8436","ios":"levelo://app?vid=da9b0aad-a8c7-4e7d-bbf2-c2a206fb8436"},"vehicle_type_id":"4","last_reported":1738649620,"current_range_meters":38800,"station_id":"ce4bgvp2rcd13ifvqct0","pricing_plan_id":"cebpf4jnsgd1na2vs0mg"},{"bike_id":"fad26299-4859-48d9-af16-461be31a4018","system_id":"levelo_inurba_marseille","lat":43.2319,"lon":5.40001,"is_reserved":false,"is_disabled":true,"rental_uris":{"android":"levelo://app?vid=fad26299-4859-48d9-af16-461be31a4018","ios":"levelo://app?vid=fad26299-4859-48d9-af16-461be31a4018"},"vehicle_type_id":"4","last_reported":1738649620,"current_range_meters":0,"station_id":"ce4bhn12rcd13ifvqgqg","pricing_plan_id":"cebpf4jnsgd1na2vs0mg"},{"bike_id":"e2bd0d25-b4ff-4b60-8ee6-03f051b283e1","system_id":"levelo_inurba_marseille","lat":43.30449,"lon":5.38891,"is_reserved":false,"is_disabled":false,"rental_uris":{"android":"levelo://app?vid=e2bd0d25-b4ff-4b60-8ee6-03f051b283e1","ios":"levelo://app?vid=e2bd0d25-b4ff-4b60-8ee6-03f051b283e1"},"vehicle_type_id":"4","last_reported":1738649620,"current_range_meters":38000,"station_id":"ce4bgk12rcd13ifvqbi0","pricing_plan_id":"cebpf4jnsgd1na2vs0mg"},{"bike_id":"865e7d8b-8981-4f25-879f-2ffa78f4edfd","system_id":"levelo_inurba_marseille","lat":43.2396,"lon":5.36635,"is_reserved":false,"is_disabled":false,"rental_uris":{"android":"levelo://app?vid=865e7d8b-8981-4f25-879f-2ffa78f4edfd","ios":"levelo://app?vid=865e7d8b-8981-4f25-879f-2ffa78f4edfd"},"vehicle_type_id":"4","last_reported":1738649620,"current_range_meters":4800,"station_id":"ce4bhi12rcd13ifvqfp0","pricing_plan_id":"cebpf4jnsgd1na2vs0mg"},{"bike_id":"4c1bcbda-b2a7-4910-8e6c-50ca691bf170","system_id":"levelo_inurba_marseille","lat":43.33728,"lon":5.39176,"is_reserved":false,"is_disabled":false,"rental_uris":{"android":"levelo://app?vid=4c1bcbda-b2a7-4910-8e6c-50ca691bf170","ios":"levelo://app?vid=4c1bcbda-b2a7-4910-8e6c-50ca691bf170"},"vehicle_type_id":"4","last_reported":1738649620,"current_range_meters":38800,"station_id":"ce4bhr92rcd13ifvqhsg","pricing_plan_id":"cebpf4jnsgd1na2vs0mg"},{"bike_id":"03215b30-aa65-4b10-b451-ed50967ec88e","system_id":"levelo_inurba_marseille","lat":43.34436,"lon":5.35952,"is_reserved":false,"is_disabled":true,"rental_uris":{"android":"levelo://app?vid=03215b30-aa65-4b10-b451-ed50967ec88e","ios":"levelo://app?vid=03215b30-aa65-4b10-b451-ed50967ec88e"},"vehicle_type_id":"4","last_reported":1738649620,"current_range_meters":0,"station_id":"","pricing_plan_id":"cebpf4jnsgd1na2vs0mg"},{"bike_id":"59b90432-c14b-4d08-9f6a-6406881d0496","system_id":"levelo_inurba_marseille","lat":43.26944,"lon":5.40258,"is_reserved":false,"is_disabled":false,"rental_uris":{"android":"levelo://app?vid=59b90432-c14b-4d08-9f6a-6406881d0496","ios":"levelo://app?vid=59b90432-c14b-4d08-9f6a-6406881d0496"},"vehicle_type_id":"4","last_reported":1738649620,"current_range_meters":28000,"station_id":"cjm6bp8fraef2m0cb0m0","pricing_plan_id":"cebpf4jnsgd1na2vs0mg"},{"bike_id":"2adfaedc-761e-491f-92ad-a68e10122b3c","system_id":"levelo_inurba_marseille","lat":43.24651,"lon":5.38159,"is_reserved":false,"is_disabled":false,"rental_uris":{"android":"levelo://app?vid=2adfaedc-761e-491f-92ad-a68e10122b3c","ios":"levelo://app?vid=2adfaedc-761e-491f-92ad-a68e10122b3c"},"vehicle_type_id":"4","last_reported":1738649620,"current_range_meters":8000,"station_id":"ce4bhih2rcd13ifvqfr0","pricing_plan_id":"cebpf4jnsgd1na2vs0mg"},{"bike_id":"2509f9f2-7eec-4e24-bb35-90e3c0fac945","system_id":"levelo_inurba_marseille","lat":43.28459,"lon":5.35886,"is_reserved":false,"is_disabled":false,"rental_uris":{"android":"levelo://app?vid=2509f9f2-7eec-4e24-bb35-90e3c0fac945","ios":"levelo://app?vid=2509f9f2-7eec-4e24-bb35-90e3c0fac945"},"vehicle_type_id":"4","last_reported":1738649620,"current_range_meters":15200,"station_id":"ce4bhah2rcd13ifvqei0","pricing_plan_id":"cebpf4jnsgd1na2vs0mg"},{"bike_id":"d1d51ec2-e1ab-4b92-9a4b-f935b04ef436","system_id":"levelo_inurba_marseille","lat":43.249968,"lon":5.389269,"is_reserved":false,"is_disabled":false,"rental_uris":{"android":"levelo://app?vid=d1d51ec2-e1ab-4b92-9a4b-f935b04ef436","ios":"levelo://app?vid=d1d51ec2-e1ab-4b92-9a4b-f935b04ef436"},"vehicle_type_id":"4","last_reported":1738649620,"current_range_meters":25200,"station_id":"ce4bhgp2rcd13ifvqfd0","pricing_plan_id":"cebpf4jnsgd1na2vs0mg"},{"bike_id":"30e962a5-ed17-4781-966d-335d338660e0","system_id":"levelo_inurba_marseille","lat":43.32339,"lon":5.38903,"is_reserved":false,"is_disabled":false,"rental_uris":{"android":"levelo://app?vid=30e962a5-ed17-4781-966d-335d338660e0","ios":"levelo://app?vid=30e962a5-ed17-4781-966d-335d338660e0"},"vehicle_type_id":"4","last_reported":1738649620,"current_range_meters":12800,"station_id":"ce4bhqp2rcd13ifvqhog","pricing_plan_id":"cebpf4jnsgd1na2vs0mg"},{"bike_id":"7a2080c9-d44a-471c-9acd-526428e8e5dc","system_id":"levelo_inurba_marseille","lat":43.2293,"lon":5.35395,"is_reserved":false,"is_disabled":false,"rental_uris":{"android":"levelo://app?vid=7a2080c9-d44a-471c-9acd-526428e8e5dc","ios":"levelo://app?vid=7a2080c9-d44a-471c-9acd-526428e8e5dc"},"vehicle_type_id":"4","last_reported":1738649620,"current_range_meters":38000,"station_id":"cpo3532slgdg3j2ikp40","pricing_plan_id":"cebpf4jnsgd1na2vs0mg"},{"bike_id":"448fb59f-ac91-4d62-b7f5-feccdad90e45","system_id":"levelo_inurba_marseille","lat":43.30953,"lon":5.39049,"is_reserved":false,"is_disabled":false,"rental_uris":{"android":"levelo://app?vid=448fb59f-ac91-4d62-b7f5-feccdad90e45","ios":"levelo://app?vid=448fb59f-ac91-4d62-b7f5-feccdad90e45"},"vehicle_type_id":"4","last_reported":1738649620,"current_range_meters":38800,"station_id":"ce4bgup2rcd13ifvqco0","pricing_plan_id":"cebpf4jnsgd1na2vs0mg"},{"bike_id":"c7ffedac-349c-4fc0-8875-a3ceaf85f7b5","system_id":"levelo_inurba_marseille","lat":43.2416,"lon":5.36405,"is_reserved":false,"is_disabled":false,"rental_uris":{"android":"levelo://app?vid=c7ffedac-349c-4fc0-8875-a3ceaf85f7b5","ios":"levelo://app?vid=c7ffedac-349c-4fc0-8875-a3ceaf85f7b5"},"vehicle_type_id":"4","last_reported":1738649620,"current_range_meters":4000,"station_id":"cpo36qri1sfpv3e86is0","pricing_plan_id":"cebpf4jnsgd1na2vs0mg"},{"bike_id":"b3aedbd9-a4d0-4784-b54b-46a16f8371c0","system_id":"levelo_inurba_marseille","lat":43.2954,"lon":5.42268,"is_reserved":false,"is_disabled":false,"rental_uris":{"android":"levelo://app?vid=b3aedbd9-a4d0-4784-b54b-46a16f8371c0","ios":"levelo://app?vid=b3aedbd9-a4d0-4784-b54b-46a16f8371c0"},"vehicle_type_id":"4","last_reported":1738649620,"current_range_meters":36800,"station_id":"ce4bhph2rcd13ifvqhdg","pricing_plan_id":"cebpf4jnsgd1na2vs0mg"},{"bike_id":"227d1457-7acb-444d-bf95-2cc0d4b33a5a","system_id":"levelo_inurba_marseille","lat":43.26569,"lon":5.38997,"is_reserved":false,"is_disabled":false,"rental_uris":{"android":"levelo://app?vid=227d1457-7acb-444d-bf95-2cc0d4b33a5a","ios":"levelo://app?vid=227d1457-7acb-444d-bf95-2cc0d4b33a5a"},"vehicle_type_id":"4","last_reported":1738649620,"current_range_meters":20400,"station_id":"ce4bhe12rcd13ifvqf30","pricing_plan_id":"cebpf4jnsgd1na2vs0mg"},{"bike_id":"556b9b10-c973-42c5-85a9-ca6a27ee9171","system_id":"levelo_inurba_marseille","lat":43.29224,"lon":5.36065,"is_reserved":false,"is_disabled":false,"rental_uris":{"android":"levelo://app?vid=556b9b10-c973-42c5-85a9-ca6a27ee9171","ios":"levelo://app?vid=556b9b10-c973-42c5-85a9-ca6a27ee9171"},"vehicle_type_id":"4","last_reported":1738649620,"current_range_meters":8400,"station_id":"ce4bhbh2rcd13ifvqeqg","pricing_plan_id":"cebpf4jnsgd1na2vs0mg"},{"bike_id":"0bb638d0-2838-47fa-8a2d-f175e9aec41a","system_id":"levelo_inurba_marseille","lat":43.239585,"lon":5.366429,"is_reserved":false,"is_disabled":false,"rental_uris":{"android":"levelo://app?vid=0bb638d0-2838-47fa-8a2d-f175e9aec41a","ios":"levelo://app?vid=0bb638d0-2838-47fa-8a2d-f175e9aec41a"},"vehicle_type_id":"4","last_reported":1738649620,"current_range_meters":16000,"station_id":"ce4bhi12rcd13ifvqfp0","pricing_plan_id":"cebpf4jnsgd1na2vs0mg"},{"bike_id":"2cbd5193-ddde-4715-a2bf-e1cb8bb201c9","system_id":"levelo_inurba_marseille","lat":43.2849,"lon":5.38432,"is_reserved":false,"is_disabled":true,"rental_uris":{"android":"levelo://app?vid=2cbd5193-ddde-4715-a2bf-e1cb8bb201c9","ios":"levelo://app?vid=2cbd5193-ddde-4715-a2bf-e1cb8bb201c9"},"vehicle_type_id":"4","last_reported":1738649620,"current_range_meters":0,"station_id":"ce4bh512rcd13ifvqe3g","pricing_plan_id":"cebpf4jnsgd1na2vs0mg"},{"bike_id":"2addaff5-7407-44d0-ad72-5edc95733e9d","system_id":"levelo_inurba_marseille","lat":43.3112,"lon":5.37771,"is_reserved":false,"is_disabled":false,"rental_uris":{"android":"levelo://app?vid=2addaff5-7407-44d0-ad72-5edc95733e9d","ios":"levelo://app?vid=2addaff5-7407-44d0-ad72-5edc95733e9d"},"vehicle_type_id":"4","last_reported":1738649620,"current_range_meters":18000,"station_id":"ce4bgt92rcd13ifvqcg0","pricing_plan_id":"cebpf4jnsgd1na2vs0mg"},{"bike_id":"4a18fa25-a72b-4cad-ab40-77dc9d93d71e","system_id":"levelo_inurba_marseille","lat":43.28419,"lon":5.37499,"is_reserved":false,"is_disabled":true,"rental_uris":{"android":"levelo://app?vid=4a18fa25-a72b-4cad-ab40-77dc9d93d71e","ios":"levelo://app?vid=4a18fa25-a72b-4cad-ab40-77dc9d93d71e"},"vehicle_type_id":"4","last_reported":1738649620,"current_range_meters":0,"station_id":"ce4bh412rcd13ifvqds0","pricing_plan_id":"cebpf4jnsgd1na2vs0mg"},{"bike_id":"2fed9ba3-3909-423b-8e60-69abd9978d73","system_id":"levelo_inurba_marseille","lat":43.26805,"lon":5.402597,"is_reserved":false,"is_disabled":false,"rental_uris":{"android":"levelo://app?vid=2fed9ba3-3909-423b-8e60-69abd9978d73","ios":"levelo://app?vid=2fed9ba3-3909-423b-8e60-69abd9978d73"},"vehicle_type_id":"4","last_reported":1738649620,"current_range_meters":39200,"station_id":"ce501612rcd8frsf0b60","pricing_plan_id":"cebpf4jnsgd1na2vs0mg"},{"bike_id":"0ef78f64-634e-45d3-b852-265271aaa948","system_id":"levelo_inurba_marseille","lat":43.313604,"lon":5.385006,"is_reserved":false,"is_disabled":false,"rental_uris":{"android":"levelo://app?vid=0ef78f64-634e-45d3-b852-265271aaa948","ios":"levelo://app?vid=0ef78f64-634e-45d3-b852-265271aaa948"},"vehicle_type_id":"4","last_reported":1738649620,"current_range_meters":36800,"station_id":"ce4bgt92rcd13ifvqcf0","pricing_plan_id":"cebpf4jnsgd1na2vs0mg"},{"bike_id":"98709c99-b7fd-450f-bb98-395cad9c7ffe","system_id":"levelo_inurba_marseille","lat":43.28741,"lon":5.36073,"is_reserved":false,"is_disabled":false,"rental_uris":{"android":"levelo://app?vid=98709c99-b7fd-450f-bb98-395cad9c7ffe","ios":"levelo://app?vid=98709c99-b7fd-450f-bb98-395cad9c7ffe"},"vehicle_type_id":"4","last_reported":1738649620,"current_range_meters":7200,"station_id":"cki0cbj6b192h4jlfktg","pricing_plan_id":"cebpf4jnsgd1na2vs0mg"},{"bike_id":"c9a53036-fdd2-406b-9e70-c17f21e2eb93","system_id":"levelo_inurba_marseille","lat":43.28411,"lon":5.37518,"is_reserved":false,"is_disabled":false,"rental_uris":{"android":"levelo://app?vid=c9a53036-fdd2-406b-9e70-c17f21e2eb93","ios":"levelo://app?vid=c9a53036-fdd2-406b-9e70-c17f21e2eb93"},"vehicle_type_id":"4","last_reported":1738649620,"current_range_meters":14400,"station_id":"ce4bh412rcd13ifvqds0","pricing_plan_id":"cebpf4jnsgd1na2vs0mg"},{"bike_id":"f000e45e-9693-4019-a0c1-ec14f32c1f35","system_id":"levelo_inurba_marseille","lat":43.33024,"lon":5.39043,"is_reserved":false,"is_disabled":false,"rental_uris":{"android":"levelo://app?vid=f000e45e-9693-4019-a0c1-ec14f32c1f35","ios":"levelo://app?vid=f000e45e-9693-4019-a0c1-ec14f32c1f35"},"vehicle_type_id":"4","last_reported":1738649620,"current_range_meters":38000,"station_id":"ce4bhr92rcd13ifvqhrg","pricing_plan_id":"cebpf4jnsgd1na2vs0mg"},{"bike_id":"6b4ad843-2c33-4528-9b7d-c58d8abd0594","system_id":"levelo_inurba_marseille","lat":43.28613,"lon":5.35104,"is_reserved":false,"is_disabled":false,"rental_uris":{"android":"levelo://app?vid=6b4ad843-2c33-4528-9b7d-c58d8abd0594","ios":"levelo://app?vid=6b4ad843-2c33-4528-9b7d-c58d8abd0594"},"vehicle_type_id":"4","last_reported":1738649620,"current_range_meters":27200,"station_id":"ce4bhch2rcd13ifvqeug","pricing_plan_id":"cebpf4jnsgd1na2vs0mg"},{"bike_id":"1b46daa4-ff22-40c1-96e0-6e19e1bb0d1f","system_id":"levelo_inurba_marseille","lat":43.248025,"lon":5.374511,"is_reserved":false,"is_disabled":false,"rental_uris":{"android":"levelo://app?vid=1b46daa4-ff22-40c1-96e0-6e19e1bb0d1f","ios":"levelo://app?vid=1b46daa4-ff22-40c1-96e0-6e19e1bb0d1f"},"vehicle_type_id":"4","last_reported":1738649620,"current_range_meters":38800,"station_id":"ce4bhgh2rcd13ifvqfb0","pricing_plan_id":"cebpf4jnsgd1na2vs0mg"},{"bike_id":"ec2c929a-5340-4193-8255-391498354d2c","system_id":"levelo_inurba_marseille","lat":43.26226,"lon":5.40501,"is_reserved":false,"is_disabled":false,"rental_uris":{"android":"levelo://app?vid=ec2c929a-5340-4193-8255-391498354d2c","ios":"levelo://app?vid=ec2c929a-5340-4193-8255-391498354d2c"},"vehicle_type_id":"4","last_reported":1738649620,"current_range_meters":28400,"station_id":"ce4bhmh2rcd13ifvqgmg","pricing_plan_id":"cebpf4jnsgd1na2vs0mg"},{"bike_id":"9bd6d962-0ee2-42f8-98b3-edaae254c627","system_id":"levelo_inurba_marseille","lat":43.24803,"lon":5.37456,"is_reserved":false,"is_disabled":false,"rental_uris":{"android":"levelo://app?vid=9bd6d962-0ee2-42f8-98b3-edaae254c627","ios":"levelo://app?vid=9bd6d962-0ee2-42f8-98b3-edaae254c627"},"vehicle_type_id":"4","last_reported":1738649620,"current_range_meters":38000,"station_id":"ce4bhgh2rcd13ifvqfb0","pricing_plan_id":"cebpf4jnsgd1na2vs0mg"},{"bike_id":"5875daa5-2b51-4890-86b6-114703e4a4f2","system_id":"levelo_inurba_marseille","lat":43.31102,"lon":5.38017,"is_reserved":false,"is_disabled":false,"rental_uris":{"android":"levelo://app?vid=5875daa5-2b51-4890-86b6-114703e4a4f2","ios":"levelo://app?vid=5875daa5-2b51-4890-86b6-114703e4a4f2"},"vehicle_type_id":"4","last_reported":1738649620,"current_range_meters":11600,"station_id":"","pricing_plan_id":"cebpf4jnsgd1na2vs0mg"},{"bike_id":"9b98043e-4286-48e6-a324-f85ed04494ec","system_id":"levelo_inurba_marseille","lat":43.28101,"lon":5.37847,"is_reserved":false,"is_disabled":false,"rental_uris":{"android":"levelo://app?vid=9b98043e-4286-48e6-a324-f85ed04494ec","ios":"levelo://app?vid=9b98043e-4286-48e6-a324-f85ed04494ec"},"vehicle_type_id":"4","last_reported":1738649620,"current_range_meters":35200,"station_id":"ce4bha12rcd13ifvqee0","pricing_plan_id":"cebpf4jnsgd1na2vs0mg"},{"bike_id":"99630b4f-d397-4cd1-b643-a51d074b76bb","system_id":"levelo_inurba_marseille","lat":43.28458,"lon":5.3589,"is_reserved":false,"is_disabled":false,"rental_uris":{"android":"levelo://app?vid=99630b4f-d397-4cd1-b643-a51d074b76bb","ios":"levelo://app?vid=99630b4f-d397-4cd1-b643-a51d074b76bb"},"vehicle_type_id":"4","last_reported":1738649620,"current_range_meters":38000,"station_id":"ce4bhah2rcd13ifvqei0","pricing_plan_id":"cebpf4jnsgd1na2vs0mg"},{"bike_id":"8287c050-ed39-4c6c-ab1a-058823500666","system_id":"levelo_inurba_marseille","lat":43.24636,"lon":5.38915,"is_reserved":false,"is_disabled":false,"rental_uris":{"android":"levelo://app?vid=8287c050-ed39-4c6c-ab1a-058823500666","ios":"levelo://app?vid=8287c050-ed39-4c6c-ab1a-058823500666"},"vehicle_type_id":"4","last_reported":1738649620,"current_range_meters":38000,"station_id":"ce4bhg12rcd13ifvqf60","pricing_plan_id":"cebpf4jnsgd1na2vs0mg"},{"bike_id":"67461486-f190-4d49-a585-b42010d723a2","system_id":"levelo_inurba_marseille","lat":43.30602,"lon":5.39351,"is_reserved":false,"is_disabled":false,"rental_uris":{"android":"levelo://app?vid=67461486-f190-4d49-a585-b42010d723a2","ios":"levelo://app?vid=67461486-f190-4d49-a585-b42010d723a2"},"vehicle_type_id":"4","last_reported":1738649620,"current_range_meters":31200,"station_id":"ce4bh0p2rcd13ifvqd80","pricing_plan_id":"cebpf4jnsgd1na2vs0mg"},{"bike_id":"49dfd201-9c9e-4c2d-9035-d7194487066e","system_id":"levelo_inurba_marseille","lat":43.30461,"lon":5.37896,"is_reserved":false,"is_disabled":false,"rental_uris":{"android":"levelo://app?vid=49dfd201-9c9e-4c2d-9035-d7194487066e","ios":"levelo://app?vid=49dfd201-9c9e-4c2d-9035-d7194487066e"},"vehicle_type_id":"4","last_reported":1738649620,"current_range_meters":39200,"station_id":"ce4bgup2rcd13ifvqcn0","pricing_plan_id":"cebpf4jnsgd1na2vs0mg"},{"bike_id":"01880eef-5db8-4553-af30-5892cf4de2d3","system_id":"levelo_inurba_marseille","lat":43.295366,"lon":5.385336,"is_reserved":false,"is_disabled":false,"rental_uris":{"android":"levelo://app?vid=01880eef-5db8-4553-af30-5892cf4de2d3","ios":"levelo://app?vid=01880eef-5db8-4553-af30-5892cf4de2d3"},"vehicle_type_id":"4","last_reported":1738649620,"current_range_meters":3200,"station_id":"ce4bgih2rcd13ifvqba0","pricing_plan_id":"cebpf4jnsgd1na2vs0mg"},{"bike_id":"ca0fde3e-2534-47ba-b253-a7a4579f28b3","system_id":"levelo_inurba_marseille","lat":43.30423,"lon":5.41285,"is_reserved":false,"is_disabled":false,"rental_uris":{"android":"levelo://app?vid=ca0fde3e-2534-47ba-b253-a7a4579f28b3","ios":"levelo://app?vid=ca0fde3e-2534-47ba-b253-a7a4579f28b3"},"vehicle_type_id":"4","last_reported":1738649620,"current_range_meters":38800,"station_id":"ce4bhop2rcd13ifvqh8g","pricing_plan_id":"cebpf4jnsgd1na2vs0mg"},{"bike_id":"d992c199-35ce-45f9-be6c-bc82fb359710","system_id":"levelo_inurba_marseille","lat":43.2306,"lon":5.35499,"is_reserved":false,"is_disabled":false,"rental_uris":{"android":"levelo://app?vid=d992c199-35ce-45f9-be6c-bc82fb359710","ios":"levelo://app?vid=d992c199-35ce-45f9-be6c-bc82fb359710"},"vehicle_type_id":"4","last_reported":1738649620,"current_range_meters":38800,"station_id":"cpo3342slgdg3j2ifvpg","pricing_plan_id":"cebpf4jnsgd1na2vs0mg"},{"bike_id":"df721def-598a-4e24-a89a-4771bf19c6fb","system_id":"levelo_inurba_marseille","lat":43.27812,"lon":5.40705,"is_reserved":false,"is_disabled":false,"rental_uris":{"android":"levelo://app?vid=df721def-598a-4e24-a89a-4771bf19c6fb","ios":"levelo://app?vid=df721def-598a-4e24-a89a-4771bf19c6fb"},"vehicle_type_id":"4","last_reported":1738649620,"current_range_meters":38800,"station_id":"ce4bhnh2rcd13ifvqgtg","pricing_plan_id":"cebpf4jnsgd1na2vs0mg"},{"bike_id":"0361bc85-ece7-4601-8d14-a232acc000f4","system_id":"levelo_inurba_marseille","lat":43.27571,"lon":5.38399,"is_reserved":false,"is_disabled":false,"rental_uris":{"android":"levelo://app?vid=0361bc85-ece7-4601-8d14-a232acc000f4","ios":"levelo://app?vid=0361bc85-ece7-4601-8d14-a232acc000f4"},"vehicle_type_id":"4","last_reported":1738649620,"current_range_meters":6800,"station_id":"ce4bhh92rcd13ifvqfi0","pricing_plan_id":"cebpf4jnsgd1na2vs0mg"},{"bike_id":"905522ef-d4d4-4a33-8994-defbf52775ca","system_id":"levelo_inurba_marseille","lat":43.26177,"lon":5.40459,"is_reserved":false,"is_disabled":false,"rental_uris":{"android":"levelo://app?vid=905522ef-d4d4-4a33-8994-defbf52775ca","ios":"levelo://app?vid=905522ef-d4d4-4a33-8994-defbf52775ca"},"vehicle_type_id":"4","last_reported":1738649620,"current_range_meters":38800,"station_id":"ce4bhmh2rcd13ifvqgmg","pricing_plan_id":"cebpf4jnsgd1na2vs0mg"},{"bike_id":"5df9bf08-43fe-4acc-898a-9db2002f38bc","system_id":"levelo_inurba_marseille","lat":43.25868,"lon":5.3991,"is_reserved":false,"is_disabled":false,"rental_uris":{"android":"levelo://app?vid=5df9bf08-43fe-4acc-898a-9db2002f38bc","ios":"levelo://app?vid=5df9bf08-43fe-4acc-898a-9db2002f38bc"},"vehicle_type_id":"4","last_reported":1738649620,"current_range_meters":16800,"station_id":"ce4bhl92rcd13ifvqghg","pricing_plan_id":"cebpf4jnsgd1na2vs0mg"},{"bike_id":"d9c614f7-8968-45e8-82a0-4ae06e41b32a","system_id":"levelo_inurba_marseille","lat":43.29217,"lon":5.36055,"is_reserved":false,"is_disabled":false,"rental_uris":{"android":"levelo://app?vid=d9c614f7-8968-45e8-82a0-4ae06e41b32a","ios":"levelo://app?vid=d9c614f7-8968-45e8-82a0-4ae06e41b32a"},"vehicle_type_id":"4","last_reported":1738649620,"current_range_meters":9600,"station_id":"ce4bhbh2rcd13ifvqeqg","pricing_plan_id":"cebpf4jnsgd1na2vs0mg"},{"bike_id":"3034d64e-f78e-468c-b4d6-2520a053438f","system_id":"levelo_inurba_marseille","lat":43.231878,"lon":5.399926,"is_reserved":false,"is_disabled":true,"rental_uris":{"android":"levelo://app?vid=3034d64e-f78e-468c-b4d6-2520a053438f","ios":"levelo://app?vid=3034d64e-f78e-468c-b4d6-2520a053438f"},"vehicle_type_id":"4","last_reported":1738649620,"current_range_meters":10800,"station_id":"ce4bhn12rcd13ifvqgqg","pricing_plan_id":"cebpf4jnsgd1na2vs0mg"},{"bike_id":"4d56843c-838b-4099-80e1-081325709750","system_id":"levelo_inurba_marseille","lat":43.29201,"lon":5.35791,"is_reserved":false,"is_disabled":false,"rental_uris":{"android":"levelo://app?vid=4d56843c-838b-4099-80e1-081325709750","ios":"levelo://app?vid=4d56843c-838b-4099-80e1-081325709750"},"vehicle_type_id":"4","last_reported":1738649620,"current_range_meters":38400,"station_id":"ce4bhb12rcd13ifvqel0","pricing_plan_id":"cebpf4jnsgd1na2vs0mg"},{"bike_id":"7f87d5fc-9445-41df-bd3e-5287cb6adb70","system_id":"levelo_inurba_marseille","lat":43.268089,"lon":5.402643,"is_reserved":false,"is_disabled":false,"rental_uris":{"android":"levelo://app?vid=7f87d5fc-9445-41df-bd3e-5287cb6adb70","ios":"levelo://app?vid=7f87d5fc-9445-41df-bd3e-5287cb6adb70"},"vehicle_type_id":"4","last_reported":1738649620,"current_range_meters":10800,"station_id":"ce501612rcd8frsf0b60","pricing_plan_id":"cebpf4jnsgd1na2vs0mg"},{"bike_id":"9e768907-2758-4663-849c-1bfedc158f31","system_id":"levelo_inurba_marseille","lat":43.279114,"lon":5.395864,"is_reserved":false,"is_disabled":true,"rental_uris":{"android":"levelo://app?vid=9e768907-2758-4663-849c-1bfedc158f31","ios":"levelo://app?vid=9e768907-2758-4663-849c-1bfedc158f31"},"vehicle_type_id":"4","last_reported":1738649620,"current_range_meters":0,"station_id":"ce4bhf92rcd13ifvqf40","pricing_plan_id":"cebpf4jnsgd1na2vs0mg"},{"bike_id":"9da2e432-4f65-47d9-bc81-2fec1d9802eb","system_id":"levelo_inurba_marseille","lat":43.24649,"lon":5.38892,"is_reserved":false,"is_disabled":false,"rental_uris":{"android":"levelo://app?vid=9da2e432-4f65-47d9-bc81-2fec1d9802eb","ios":"levelo://app?vid=9da2e432-4f65-47d9-bc81-2fec1d9802eb"},"vehicle_type_id":"4","last_reported":1738649620,"current_range_meters":30800,"station_id":"ce4bhg12rcd13ifvqf60","pricing_plan_id":"cebpf4jnsgd1na2vs0mg"},{"bike_id":"9462e712-389b-45c0-bbe9-f9c9ae7509c3","system_id":"levelo_inurba_marseille","lat":43.28295,"lon":5.35131,"is_reserved":false,"is_disabled":false,"rental_uris":{"android":"levelo://app?vid=9462e712-389b-45c0-bbe9-f9c9ae7509c3","ios":"levelo://app?vid=9462e712-389b-45c0-bbe9-f9c9ae7509c3"},"vehicle_type_id":"4","last_reported":1738649620,"current_range_meters":35600,"station_id":"","pricing_plan_id":"cebpf4jnsgd1na2vs0mg"},{"bike_id":"d37751ab-cc21-4a2c-8c36-fb109c15b551","system_id":"levelo_inurba_marseille","lat":43.2921,"lon":5.36074,"is_reserved":false,"is_disabled":false,"rental_uris":{"android":"levelo://app?vid=d37751ab-cc21-4a2c-8c36-fb109c15b551","ios":"levelo://app?vid=d37751ab-cc21-4a2c-8c36-fb109c15b551"},"vehicle_type_id":"4","last_reported":1738649620,"current_range_meters":38000,"station_id":"ce4bhbh2rcd13ifvqeqg","pricing_plan_id":"cebpf4jnsgd1na2vs0mg"},{"bike_id":"942ee348-f601-4816-a32c-40a8d55d3f6b","system_id":"levelo_inurba_marseille","lat":43.337444,"lon":5.374475,"is_reserved":false,"is_disabled":true,"rental_uris":{"android":"levelo://app?vid=942ee348-f601-4816-a32c-40a8d55d3f6b","ios":"levelo://app?vid=942ee348-f601-4816-a32c-40a8d55d3f6b"},"vehicle_type_id":"4","last_reported":1738649620,"current_range_meters":0,"station_id":"","pricing_plan_id":"cebpf4jnsgd1na2vs0mg"},{"bike_id":"a7dc0848-081a-4438-bce6-7e161a91f066","system_id":"levelo_inurba_marseille","lat":43.28157,"lon":5.42644,"is_reserved":false,"is_disabled":false,"rental_uris":{"android":"levelo://app?vid=a7dc0848-081a-4438-bce6-7e161a91f066","ios":"levelo://app?vid=a7dc0848-081a-4438-bce6-7e161a91f066"},"vehicle_type_id":"4","last_reported":1738649620,"current_range_meters":36000,"station_id":"ce4bhnh2rcd13ifvqgug","pricing_plan_id":"cebpf4jnsgd1na2vs0mg"},{"bike_id":"d5d6e7f4-4e55-4592-b55b-2e87bf63c2f6","system_id":"levelo_inurba_marseille","lat":43.285671,"lon":5.395011,"is_reserved":false,"is_disabled":false,"rental_uris":{"android":"levelo://app?vid=d5d6e7f4-4e55-4592-b55b-2e87bf63c2f6","ios":"levelo://app?vid=d5d6e7f4-4e55-4592-b55b-2e87bf63c2f6"},"vehicle_type_id":"4","last_reported":1738649620,"current_range_meters":38800,"station_id":"ce4bh292rcd13ifvqdg0","pricing_plan_id":"cebpf4jnsgd1na2vs0mg"},{"bike_id":"30df857a-40b7-41f9-9118-4949b7deb54a","system_id":"levelo_inurba_marseille","lat":43.31328,"lon":5.39701,"is_reserved":false,"is_disabled":false,"rental_uris":{"android":"levelo://app?vid=30df857a-40b7-41f9-9118-4949b7deb54a","ios":"levelo://app?vid=30df857a-40b7-41f9-9118-4949b7deb54a"},"vehicle_type_id":"4","last_reported":1738649620,"current_range_meters":27600,"station_id":"ce4bgvp2rcd13ifvqcu0","pricing_plan_id":"cebpf4jnsgd1na2vs0mg"},{"bike_id":"f0b53076-d51d-4c78-be73-c20056d1b4ad","system_id":"levelo_inurba_marseille","lat":43.29942,"lon":5.38519,"is_reserved":false,"is_disabled":true,"rental_uris":{"android":"levelo://app?vid=f0b53076-d51d-4c78-be73-c20056d1b4ad","ios":"levelo://app?vid=f0b53076-d51d-4c78-be73-c20056d1b4ad"},"vehicle_type_id":"4","last_reported":1738649620,"current_range_meters":36800,"station_id":"ce4bgj92rcd13ifvqbd0","pricing_plan_id":"cebpf4jnsgd1na2vs0mg"},{"bike_id":"f1036684-3f76-415a-927d-13a1ba4fe70a","system_id":"levelo_inurba_marseille","lat":43.28728,"lon":5.36082,"is_reserved":false,"is_disabled":false,"rental_uris":{"android":"levelo://app?vid=f1036684-3f76-415a-927d-13a1ba4fe70a","ios":"levelo://app?vid=f1036684-3f76-415a-927d-13a1ba4fe70a"},"vehicle_type_id":"4","last_reported":1738649620,"current_range_meters":18000,"station_id":"cki0cbj6b192h4jlfktg","pricing_plan_id":"cebpf4jnsgd1na2vs0mg"},{"bike_id":"c8bd1d84-2291-473f-ab82-361f165fe1db","system_id":"levelo_inurba_marseille","lat":43.241636,"lon":5.364013,"is_reserved":false,"is_disabled":false,"rental_uris":{"android":"levelo://app?vid=c8bd1d84-2291-473f-ab82-361f165fe1db","ios":"levelo://app?vid=c8bd1d84-2291-473f-ab82-361f165fe1db"},"vehicle_type_id":"4","last_reported":1738649620,"current_range_meters":17200,"station_id":"cpo36qri1sfpv3e86is0","pricing_plan_id":"cebpf4jnsgd1na2vs0mg"},{"bike_id":"da05f112-ffb2-4f41-a3cb-99544f3f7f0e","system_id":"levelo_inurba_marseille","lat":43.30538,"lon":5.3668,"is_reserved":false,"is_disabled":false,"rental_uris":{"android":"levelo://app?vid=da05f112-ffb2-4f41-a3cb-99544f3f7f0e","ios":"levelo://app?vid=da05f112-ffb2-4f41-a3cb-99544f3f7f0e"},"vehicle_type_id":"4","last_reported":1738649620,"current_range_meters":34800,"station_id":"ce4bgrp2rcd13ifvqc9g","pricing_plan_id":"cebpf4jnsgd1na2vs0mg"},{"bike_id":"c76e5035-ca9a-4e01-9735-9f138bfde875","system_id":"levelo_inurba_marseille","lat":43.282666,"lon":5.350608,"is_reserved":false,"is_disabled":false,"rental_uris":{"android":"levelo://app?vid=c76e5035-ca9a-4e01-9735-9f138bfde875","ios":"levelo://app?vid=c76e5035-ca9a-4e01-9735-9f138bfde875"},"vehicle_type_id":"4","last_reported":1738649620,"current_range_meters":38800,"station_id":"ce4bhbp2rcd13ifvqerg","pricing_plan_id":"cebpf4jnsgd1na2vs0mg"},{"bike_id":"bb846df9-2969-480a-aed6-edbcf9c326fb","system_id":"levelo_inurba_marseille","lat":43.24814,"lon":5.3744,"is_reserved":false,"is_disabled":false,"rental_uris":{"android":"levelo://app?vid=bb846df9-2969-480a-aed6-edbcf9c326fb","ios":"levelo://app?vid=bb846df9-2969-480a-aed6-edbcf9c326fb"},"vehicle_type_id":"4","last_reported":1738649620,"current_range_meters":26800,"station_id":"ce4bhgh2rcd13ifvqfb0","pricing_plan_id":"cebpf4jnsgd1na2vs0mg"},{"bike_id":"48ebfd2e-3b3a-4da2-a76d-11ff63396ffb","system_id":"levelo_inurba_marseille","lat":43.27989,"lon":5.40014,"is_reserved":false,"is_disabled":true,"rental_uris":{"android":"levelo://app?vid=48ebfd2e-3b3a-4da2-a76d-11ff63396ffb","ios":"levelo://app?vid=48ebfd2e-3b3a-4da2-a76d-11ff63396ffb"},"vehicle_type_id":"4","last_reported":1738649620,"current_range_meters":17200,"station_id":"ce4bho92rcd13ifvqh4g","pricing_plan_id":"cebpf4jnsgd1na2vs0mg"},{"bike_id":"85e0a930-26fd-4edc-a536-795827c6b8db","system_id":"levelo_inurba_marseille","lat":43.286974,"lon":5.374001,"is_reserved":false,"is_disabled":false,"rental_uris":{"android":"levelo://app?vid=85e0a930-26fd-4edc-a536-795827c6b8db","ios":"levelo://app?vid=85e0a930-26fd-4edc-a536-795827c6b8db"},"vehicle_type_id":"4","last_reported":1738649620,"current_range_meters":14800,"station_id":"ce4bh3p2rcd13ifvqdq0","pricing_plan_id":"cebpf4jnsgd1na2vs0mg"},{"bike_id":"cd07e062-2af1-406e-bcb9-5f1ec4730937","system_id":"levelo_inurba_marseille","lat":43.2306,"lon":5.35489,"is_reserved":false,"is_disabled":false,"rental_uris":{"android":"levelo://app?vid=cd07e062-2af1-406e-bcb9-5f1ec4730937","ios":"levelo://app?vid=cd07e062-2af1-406e-bcb9-5f1ec4730937"},"vehicle_type_id":"4","last_reported":1738649620,"current_range_meters":9600,"station_id":"cpo3342slgdg3j2ifvpg","pricing_plan_id":"cebpf4jnsgd1na2vs0mg"},{"bike_id":"5e426997-79e1-4ead-88e8-3a6309340c72","system_id":"levelo_inurba_marseille","lat":43.33724,"lon":5.391827,"is_reserved":false,"is_disabled":false,"rental_uris":{"android":"levelo://app?vid=5e426997-79e1-4ead-88e8-3a6309340c72","ios":"levelo://app?vid=5e426997-79e1-4ead-88e8-3a6309340c72"},"vehicle_type_id":"4","last_reported":1738649620,"current_range_meters":37600,"station_id":"ce4bhr92rcd13ifvqhsg","pricing_plan_id":"cebpf4jnsgd1na2vs0mg"},{"bike_id":"a8076933-c95d-42fa-81fc-98f523ccd12c","system_id":"levelo_inurba_marseille","lat":43.284039,"lon":5.375118,"is_reserved":false,"is_disabled":false,"rental_uris":{"android":"levelo://app?vid=a8076933-c95d-42fa-81fc-98f523ccd12c","ios":"levelo://app?vid=a8076933-c95d-42fa-81fc-98f523ccd12c"},"vehicle_type_id":"4","last_reported":1738649620,"current_range_meters":30800,"station_id":"ce4bh412rcd13ifvqds0","pricing_plan_id":"cebpf4jnsgd1na2vs0mg"},{"bike_id":"03d4e594-109a-4c54-9f3a-237df28779be","system_id":"levelo_inurba_marseille","lat":43.279441,"lon":5.410443,"is_reserved":false,"is_disabled":false,"rental_uris":{"android":"levelo://app?vid=03d4e594-109a-4c54-9f3a-237df28779be","ios":"levelo://app?vid=03d4e594-109a-4c54-9f3a-237df28779be"},"vehicle_type_id":"4","last_reported":1738649620,"current_range_meters":8400,"station_id":"ce4bhnp2rcd13ifvqh0g","pricing_plan_id":"cebpf4jnsgd1na2vs0mg"},{"bike_id":"516f2549-79cf-4297-a0ad-3d3f06a71f80","system_id":"levelo_inurba_marseille","lat":43.31706,"lon":5.424,"is_reserved":false,"is_disabled":true,"rental_uris":{"android":"levelo://app?vid=516f2549-79cf-4297-a0ad-3d3f06a71f80","ios":"levelo://app?vid=516f2549-79cf-4297-a0ad-3d3f06a71f80"},"vehicle_type_id":"4","last_reported":1738649620,"current_range_meters":4400,"station_id":"ce4bhp92rcd13ifvqhbg","pricing_plan_id":"cebpf4jnsgd1na2vs0mg"},{"bike_id":"2560298a-7b73-4b42-b024-41069cd9db21","system_id":"levelo_inurba_marseille","lat":43.27058,"lon":5.40264,"is_reserved":false,"is_disabled":false,"rental_uris":{"android":"levelo://app?vid=2560298a-7b73-4b42-b024-41069cd9db21","ios":"levelo://app?vid=2560298a-7b73-4b42-b024-41069cd9db21"},"vehicle_type_id":"4","last_reported":1738649620,"current_range_meters":38800,"station_id":"ce4bhk92rcd13ifvqgc0","pricing_plan_id":"cebpf4jnsgd1na2vs0mg"},{"bike_id":"98c8136a-16ae-47fa-a564-d42e7b4dc97e","system_id":"levelo_inurba_marseille","lat":43.30895,"lon":5.39625,"is_reserved":false,"is_disabled":true,"rental_uris":{"android":"levelo://app?vid=98c8136a-16ae-47fa-a564-d42e7b4dc97e","ios":"levelo://app?vid=98c8136a-16ae-47fa-a564-d42e7b4dc97e"},"vehicle_type_id":"4","last_reported":1738649620,"current_range_meters":34000,"station_id":"ce4bh012rcd13ifvqcv0","pricing_plan_id":"cebpf4jnsgd1na2vs0mg"},{"bike_id":"d62917d6-de1c-4e5f-b17a-22296467c6ba","system_id":"levelo_inurba_marseille","lat":43.30143,"lon":5.39877,"is_reserved":false,"is_disabled":false,"rental_uris":{"android":"levelo://app?vid=d62917d6-de1c-4e5f-b17a-22296467c6ba","ios":"levelo://app?vid=d62917d6-de1c-4e5f-b17a-22296467c6ba"},"vehicle_type_id":"4","last_reported":1738649620,"current_range_meters":38400,"station_id":"ce4bh0h2rcd13ifvqd40","pricing_plan_id":"cebpf4jnsgd1na2vs0mg"},{"bike_id":"2e000050-3e54-4f5a-9a94-7b366c1367e2","system_id":"levelo_inurba_marseille","lat":43.28426,"lon":5.37539,"is_reserved":false,"is_disabled":false,"rental_uris":{"android":"levelo://app?vid=2e000050-3e54-4f5a-9a94-7b366c1367e2","ios":"levelo://app?vid=2e000050-3e54-4f5a-9a94-7b366c1367e2"},"vehicle_type_id":"4","last_reported":1738649620,"current_range_meters":24400,"station_id":"ce4bh412rcd13ifvqds0","pricing_plan_id":"cebpf4jnsgd1na2vs0mg"},{"bike_id":"82b96249-9f3e-451b-ae28-0614063677c1","system_id":"levelo_inurba_marseille","lat":43.23191,"lon":5.39965,"is_reserved":false,"is_disabled":false,"rental_uris":{"android":"levelo://app?vid=82b96249-9f3e-451b-ae28-0614063677c1","ios":"levelo://app?vid=82b96249-9f3e-451b-ae28-0614063677c1"},"vehicle_type_id":"4","last_reported":1738649620,"current_range_meters":22000,"station_id":"ce4bhn12rcd13ifvqgqg","pricing_plan_id":"cebpf4jnsgd1na2vs0mg"},{"bike_id":"604a996f-7004-4049-9846-b02e4e25c73c","system_id":"levelo_inurba_marseille","lat":43.315324,"lon":5.380371,"is_reserved":false,"is_disabled":false,"rental_uris":{"android":"levelo://app?vid=604a996f-7004-4049-9846-b02e4e25c73c","ios":"levelo://app?vid=604a996f-7004-4049-9846-b02e4e25c73c"},"vehicle_type_id":"4","last_reported":1738649620,"current_range_meters":26000,"station_id":"ce4bhsp2rcd13ifvqi50","pricing_plan_id":"cebpf4jnsgd1na2vs0mg"},{"bike_id":"92e853dc-07be-4af7-b1f3-3330ea5bb99c","system_id":"levelo_inurba_marseille","lat":43.29874,"lon":5.39731,"is_reserved":false,"is_disabled":false,"rental_uris":{"android":"levelo://app?vid=92e853dc-07be-4af7-b1f3-3330ea5bb99c","ios":"levelo://app?vid=92e853dc-07be-4af7-b1f3-3330ea5bb99c"},"vehicle_type_id":"4","last_reported":1738649620,"current_range_meters":30400,"station_id":"ce4bh0h2rcd13ifvqd50","pricing_plan_id":"cebpf4jnsgd1na2vs0mg"},{"bike_id":"ce02cf18-55c8-4fda-86d0-e3c92f1cac17","system_id":"levelo_inurba_marseille","lat":43.29178,"lon":5.40384,"is_reserved":false,"is_disabled":false,"rental_uris":{"android":"levelo://app?vid=ce02cf18-55c8-4fda-86d0-e3c92f1cac17","ios":"levelo://app?vid=ce02cf18-55c8-4fda-86d0-e3c92f1cac17"},"vehicle_type_id":"4","last_reported":1738649620,"current_range_meters":38000,"station_id":"ce4bh312rcd13ifvqdk0","pricing_plan_id":"cebpf4jnsgd1na2vs0mg"},{"bike_id":"15d71be6-8b1a-441b-9454-3cf209c983a6","system_id":"levelo_inurba_marseille","lat":43.25109,"lon":5.403252,"is_reserved":false,"is_disabled":false,"rental_uris":{"android":"levelo://app?vid=15d71be6-8b1a-441b-9454-3cf209c983a6","ios":"levelo://app?vid=15d71be6-8b1a-441b-9454-3cf209c983a6"},"vehicle_type_id":"4","last_reported":1738649620,"current_range_meters":36400,"station_id":"ce4bhlh2rcd13ifvqgig","pricing_plan_id":"cebpf4jnsgd1na2vs0mg"},{"bike_id":"8ec883eb-b186-42b1-a898-c67e51940610","system_id":"levelo_inurba_marseille","lat":43.3117,"lon":5.38716,"is_reserved":false,"is_disabled":false,"rental_uris":{"android":"levelo://app?vid=8ec883eb-b186-42b1-a898-c67e51940610","ios":"levelo://app?vid=8ec883eb-b186-42b1-a898-c67e51940610"},"vehicle_type_id":"4","last_reported":1738649620,"current_range_meters":38800,"station_id":"ce4bgv12rcd13ifvqcp0","pricing_plan_id":"cebpf4jnsgd1na2vs0mg"},{"bike_id":"3eeff02b-8268-4022-b26d-26bab769f3f5","system_id":"levelo_inurba_marseille","lat":43.28408,"lon":5.37518,"is_reserved":false,"is_disabled":false,"rental_uris":{"android":"levelo://app?vid=3eeff02b-8268-4022-b26d-26bab769f3f5","ios":"levelo://app?vid=3eeff02b-8268-4022-b26d-26bab769f3f5"},"vehicle_type_id":"4","last_reported":1738649620,"current_range_meters":24800,"station_id":"ce4bh412rcd13ifvqds0","pricing_plan_id":"cebpf4jnsgd1na2vs0mg"},{"bike_id":"a659468e-92fb-408c-b224-7b187ed486c6","system_id":"levelo_inurba_marseille","lat":43.24071,"lon":5.37755,"is_reserved":false,"is_disabled":false,"rental_uris":{"android":"levelo://app?vid=a659468e-92fb-408c-b224-7b187ed486c6","ios":"levelo://app?vid=a659468e-92fb-408c-b224-7b187ed486c6"},"vehicle_type_id":"4","last_reported":1738649620,"current_range_meters":38800,"station_id":"ce4bhnp2rcd13ifvqgvg","pricing_plan_id":"cebpf4jnsgd1na2vs0mg"},{"bike_id":"d66e453c-790d-4acf-8c9a-357dedb5a756","system_id":"levelo_inurba_marseille","lat":43.29163,"lon":5.37163,"is_reserved":false,"is_disabled":false,"rental_uris":{"android":"levelo://app?vid=d66e453c-790d-4acf-8c9a-357dedb5a756","ios":"levelo://app?vid=d66e453c-790d-4acf-8c9a-357dedb5a756"},"vehicle_type_id":"4","last_reported":1738649620,"current_range_meters":32800,"station_id":"ce4bha92rcd13ifvqeh0","pricing_plan_id":"cebpf4jnsgd1na2vs0mg"},{"bike_id":"35798297-b936-47d1-8a98-bfdb50e14c75","system_id":"levelo_inurba_marseille","lat":43.320946,"lon":5.433115,"is_reserved":false,"is_disabled":false,"rental_uris":{"android":"levelo://app?vid=35798297-b936-47d1-8a98-bfdb50e14c75","ios":"levelo://app?vid=35798297-b936-47d1-8a98-bfdb50e14c75"},"vehicle_type_id":"4","last_reported":1738649620,"current_range_meters":38000,"station_id":"","pricing_plan_id":"cebpf4jnsgd1na2vs0mg"},{"bike_id":"c3066916-eed2-4635-b496-6709235f4164","system_id":"levelo_inurba_marseille","lat":43.24993,"lon":5.3894,"is_reserved":false,"is_disabled":false,"rental_uris":{"android":"levelo://app?vid=c3066916-eed2-4635-b496-6709235f4164","ios":"levelo://app?vid=c3066916-eed2-4635-b496-6709235f4164"},"vehicle_type_id":"4","last_reported":1738649620,"current_range_meters":14800,"station_id":"ce4bhgp2rcd13ifvqfd0","pricing_plan_id":"cebpf4jnsgd1na2vs0mg"},{"bike_id":"e6dc612f-7f56-4634-8aac-2cfefb7b3910","system_id":"levelo_inurba_marseille","lat":43.28273,"lon":5.35068,"is_reserved":false,"is_disabled":true,"rental_uris":{"android":"levelo://app?vid=e6dc612f-7f56-4634-8aac-2cfefb7b3910","ios":"levelo://app?vid=e6dc612f-7f56-4634-8aac-2cfefb7b3910"},"vehicle_type_id":"4","last_reported":1738649620,"current_range_meters":32800,"station_id":"ce4bhbp2rcd13ifvqerg","pricing_plan_id":"cebpf4jnsgd1na2vs0mg"},{"bike_id":"fa48af50-f7f8-463b-8073-011bea7848cf","system_id":"levelo_inurba_marseille","lat":43.26944,"lon":5.40231,"is_reserved":false,"is_disabled":false,"rental_uris":{"android":"levelo://app?vid=fa48af50-f7f8-463b-8073-011bea7848cf","ios":"levelo://app?vid=fa48af50-f7f8-463b-8073-011bea7848cf"},"vehicle_type_id":"4","last_reported":1738649620,"current_range_meters":33200,"station_id":"cjm6bp8fraef2m0cb0m0","pricing_plan_id":"cebpf4jnsgd1na2vs0mg"},{"bike_id":"350e05a0-dd4f-42d2-bcda-4f78eefeedf8","system_id":"levelo_inurba_marseille","lat":43.298868,"lon":5.397364,"is_reserved":false,"is_disabled":false,"rental_uris":{"android":"levelo://app?vid=350e05a0-dd4f-42d2-bcda-4f78eefeedf8","ios":"levelo://app?vid=350e05a0-dd4f-42d2-bcda-4f78eefeedf8"},"vehicle_type_id":"4","last_reported":1738649620,"current_range_meters":38800,"station_id":"ce4bh0h2rcd13ifvqd50","pricing_plan_id":"cebpf4jnsgd1na2vs0mg"},{"bike_id":"83d0b710-3e02-4d17-97dd-bd4bcd42d4f9","system_id":"levelo_inurba_marseille","lat":43.26944,"lon":5.40261,"is_reserved":false,"is_disabled":false,"rental_uris":{"android":"levelo://app?vid=83d0b710-3e02-4d17-97dd-bd4bcd42d4f9","ios":"levelo://app?vid=83d0b710-3e02-4d17-97dd-bd4bcd42d4f9"},"vehicle_type_id":"4","last_reported":1738649620,"current_range_meters":11200,"station_id":"cjm6bp8fraef2m0cb0m0","pricing_plan_id":"cebpf4jnsgd1na2vs0mg"},{"bike_id":"bab749bb-d933-48a9-82cb-07f6f36a39e1","system_id":"levelo_inurba_marseille","lat":43.29222,"lon":5.36075,"is_reserved":false,"is_disabled":false,"rental_uris":{"android":"levelo://app?vid=bab749bb-d933-48a9-82cb-07f6f36a39e1","ios":"levelo://app?vid=bab749bb-d933-48a9-82cb-07f6f36a39e1"},"vehicle_type_id":"4","last_reported":1738649620,"current_range_meters":8400,"station_id":"ce4bhbh2rcd13ifvqeqg","pricing_plan_id":"cebpf4jnsgd1na2vs0mg"},{"bike_id":"7bbd1ca9-5cb4-4750-a3f0-60560373cbff","system_id":"levelo_inurba_marseille","lat":43.25487,"lon":5.37669,"is_reserved":false,"is_disabled":false,"rental_uris":{"android":"levelo://app?vid=7bbd1ca9-5cb4-4750-a3f0-60560373cbff","ios":"levelo://app?vid=7bbd1ca9-5cb4-4750-a3f0-60560373cbff"},"vehicle_type_id":"4","last_reported":1738649620,"current_range_meters":38000,"station_id":"ce4bhh12rcd13ifvqff0","pricing_plan_id":"cebpf4jnsgd1na2vs0mg"},{"bike_id":"e30f81a1-0332-4908-a5b7-e29f3605e076","system_id":"levelo_inurba_marseille","lat":43.31679,"lon":5.37789,"is_reserved":false,"is_disabled":false,"rental_uris":{"android":"levelo://app?vid=e30f81a1-0332-4908-a5b7-e29f3605e076","ios":"levelo://app?vid=e30f81a1-0332-4908-a5b7-e29f3605e076"},"vehicle_type_id":"4","last_reported":1738649620,"current_range_meters":8800,"station_id":"ce4bgth2rcd13ifvqch0","pricing_plan_id":"cebpf4jnsgd1na2vs0mg"},{"bike_id":"142fa3db-2f40-4d2f-82fa-8e26205170b7","system_id":"levelo_inurba_marseille","lat":43.28135,"lon":5.42646,"is_reserved":false,"is_disabled":false,"rental_uris":{"android":"levelo://app?vid=142fa3db-2f40-4d2f-82fa-8e26205170b7","ios":"levelo://app?vid=142fa3db-2f40-4d2f-82fa-8e26205170b7"},"vehicle_type_id":"4","last_reported":1738649620,"current_range_meters":9600,"station_id":"ce4bhnh2rcd13ifvqgug","pricing_plan_id":"cebpf4jnsgd1na2vs0mg"},{"bike_id":"506a5841-1d0a-4e9a-bf75-c549116e09f0","system_id":"levelo_inurba_marseille","lat":43.27809,"lon":5.40737,"is_reserved":false,"is_disabled":false,"rental_uris":{"android":"levelo://app?vid=506a5841-1d0a-4e9a-bf75-c549116e09f0","ios":"levelo://app?vid=506a5841-1d0a-4e9a-bf75-c549116e09f0"},"vehicle_type_id":"4","last_reported":1738649620,"current_range_meters":30400,"station_id":"ce4bhnh2rcd13ifvqgtg","pricing_plan_id":"cebpf4jnsgd1na2vs0mg"},{"bike_id":"9a4e5fc8-5f26-4a03-b357-42599deeb9da","system_id":"levelo_inurba_marseille","lat":43.28669,"lon":5.38662,"is_reserved":false,"is_disabled":false,"rental_uris":{"android":"levelo://app?vid=9a4e5fc8-5f26-4a03-b357-42599deeb9da","ios":"levelo://app?vid=9a4e5fc8-5f26-4a03-b357-42599deeb9da"},"vehicle_type_id":"4","last_reported":1738649620,"current_range_meters":37600,"station_id":"ce4bh492rcd13ifvqdug","pricing_plan_id":"cebpf4jnsgd1na2vs0mg"},{"bike_id":"dd46f1bc-9af9-4edc-9f8c-bb448f9fbea2","system_id":"levelo_inurba_marseille","lat":43.26565,"lon":5.39009,"is_reserved":false,"is_disabled":false,"rental_uris":{"android":"levelo://app?vid=dd46f1bc-9af9-4edc-9f8c-bb448f9fbea2","ios":"levelo://app?vid=dd46f1bc-9af9-4edc-9f8c-bb448f9fbea2"},"vehicle_type_id":"4","last_reported":1738649620,"current_range_meters":38800,"station_id":"ce4bhe12rcd13ifvqf30","pricing_plan_id":"cebpf4jnsgd1na2vs0mg"},{"bike_id":"ae50caec-5ecb-4a77-8148-ffb9866043e3","system_id":"levelo_inurba_marseille","lat":43.323619,"lon":5.388902,"is_reserved":false,"is_disabled":false,"rental_uris":{"android":"levelo://app?vid=ae50caec-5ecb-4a77-8148-ffb9866043e3","ios":"levelo://app?vid=ae50caec-5ecb-4a77-8148-ffb9866043e3"},"vehicle_type_id":"4","last_reported":1738649620,"current_range_meters":26000,"station_id":"ce4bhqp2rcd13ifvqhog","pricing_plan_id":"cebpf4jnsgd1na2vs0mg"},{"bike_id":"6bb18b6b-35db-4080-8375-2a2e83c6fc4b","system_id":"levelo_inurba_marseille","lat":43.23153,"lon":5.43714,"is_reserved":false,"is_disabled":true,"rental_uris":{"android":"levelo://app?vid=6bb18b6b-35db-4080-8375-2a2e83c6fc4b","ios":"levelo://app?vid=6bb18b6b-35db-4080-8375-2a2e83c6fc4b"},"vehicle_type_id":"4","last_reported":1738649620,"current_range_meters":38400,"station_id":"ce4bhmp2rcd13ifvqgog","pricing_plan_id":"cebpf4jnsgd1na2vs0mg"},{"bike_id":"9941cd6a-34cf-406a-8e90-7a8373d985f3","system_id":"levelo_inurba_marseille","lat":43.2558,"lon":5.38258,"is_reserved":false,"is_disabled":false,"rental_uris":{"android":"levelo://app?vid=9941cd6a-34cf-406a-8e90-7a8373d985f3","ios":"levelo://app?vid=9941cd6a-34cf-406a-8e90-7a8373d985f3"},"vehicle_type_id":"4","last_reported":1738649620,"current_range_meters":28000,"station_id":"ce4bhih2rcd13ifvqfs0","pricing_plan_id":"cebpf4jnsgd1na2vs0mg"},{"bike_id":"88e03995-1e8a-42c2-ba8b-afc971252108","system_id":"levelo_inurba_marseille","lat":43.30428,"lon":5.39738,"is_reserved":false,"is_disabled":false,"rental_uris":{"android":"levelo://app?vid=88e03995-1e8a-42c2-ba8b-afc971252108","ios":"levelo://app?vid=88e03995-1e8a-42c2-ba8b-afc971252108"},"vehicle_type_id":"4","last_reported":1738649620,"current_range_meters":32400,"station_id":"ce4bh092rcd13ifvqd20","pricing_plan_id":"cebpf4jnsgd1na2vs0mg"},{"bike_id":"787b7837-f258-4886-bbf5-841ee39c0166","system_id":"levelo_inurba_marseille","lat":43.28275,"lon":5.35074,"is_reserved":false,"is_disabled":true,"rental_uris":{"android":"levelo://app?vid=787b7837-f258-4886-bbf5-841ee39c0166","ios":"levelo://app?vid=787b7837-f258-4886-bbf5-841ee39c0166"},"vehicle_type_id":"4","last_reported":1738649620,"current_range_meters":38000,"station_id":"ce4bhbp2rcd13ifvqerg","pricing_plan_id":"cebpf4jnsgd1na2vs0mg"},{"bike_id":"35e9be92-813b-4a24-804a-34341a2b466d","system_id":"levelo_inurba_marseille","lat":43.26485,"lon":5.39546,"is_reserved":false,"is_disabled":false,"rental_uris":{"android":"levelo://app?vid=35e9be92-813b-4a24-804a-34341a2b466d","ios":"levelo://app?vid=35e9be92-813b-4a24-804a-34341a2b466d"},"vehicle_type_id":"4","last_reported":1738649620,"current_range_meters":9200,"station_id":"ce4bhi12rcd13ifvqfq0","pricing_plan_id":"cebpf4jnsgd1na2vs0mg"},{"bike_id":"f1d332be-033d-4862-b729-550aef6f2edc","system_id":"levelo_inurba_marseille","lat":43.2507,"lon":5.39538,"is_reserved":false,"is_disabled":false,"rental_uris":{"android":"levelo://app?vid=f1d332be-033d-4862-b729-550aef6f2edc","ios":"levelo://app?vid=f1d332be-033d-4862-b729-550aef6f2edc"},"vehicle_type_id":"4","last_reported":1738649620,"current_range_meters":18800,"station_id":"ce4bhm12rcd13ifvqgkg","pricing_plan_id":"cebpf4jnsgd1na2vs0mg"},{"bike_id":"1c60721d-66cc-4b26-a3e7-285be6d19c38","system_id":"levelo_inurba_marseille","lat":43.28355,"lon":5.38104,"is_reserved":false,"is_disabled":false,"rental_uris":{"android":"levelo://app?vid=1c60721d-66cc-4b26-a3e7-285be6d19c38","ios":"levelo://app?vid=1c60721d-66cc-4b26-a3e7-285be6d19c38"},"vehicle_type_id":"4","last_reported":1738649620,"current_range_meters":38800,"station_id":"ce4bh412rcd13ifvqdr0","pricing_plan_id":"cebpf4jnsgd1na2vs0mg"},{"bike_id":"56081159-df62-42ae-b364-bd5d318e4fb2","system_id":"levelo_inurba_marseille","lat":43.30891,"lon":5.37202,"is_reserved":false,"is_disabled":false,"rental_uris":{"android":"levelo://app?vid=56081159-df62-42ae-b364-bd5d318e4fb2","ios":"levelo://app?vid=56081159-df62-42ae-b364-bd5d318e4fb2"},"vehicle_type_id":"4","last_reported":1738649620,"current_range_meters":32800,"station_id":"ce4bguh2rcd13ifvqckg","pricing_plan_id":"cebpf4jnsgd1na2vs0mg"},{"bike_id":"7d17c2ea-93c1-4b27-b7bc-57ccea4f34fb","system_id":"levelo_inurba_marseille","lat":43.31276,"lon":5.40154,"is_reserved":false,"is_disabled":false,"rental_uris":{"android":"levelo://app?vid=7d17c2ea-93c1-4b27-b7bc-57ccea4f34fb","ios":"levelo://app?vid=7d17c2ea-93c1-4b27-b7bc-57ccea4f34fb"},"vehicle_type_id":"4","last_reported":1738649620,"current_range_meters":38400,"station_id":"ce4bh092rcd13ifvqd30","pricing_plan_id":"cebpf4jnsgd1na2vs0mg"},{"bike_id":"83350cfc-0836-4fbd-88e8-731d525020a3","system_id":"levelo_inurba_marseille","lat":43.29036,"lon":5.3758,"is_reserved":false,"is_disabled":false,"rental_uris":{"android":"levelo://app?vid=83350cfc-0836-4fbd-88e8-731d525020a3","ios":"levelo://app?vid=83350cfc-0836-4fbd-88e8-731d525020a3"},"vehicle_type_id":"4","last_reported":1738649620,"current_range_meters":36400,"station_id":"ce4bh692rcd13ifvqe90","pricing_plan_id":"cebpf4jnsgd1na2vs0mg"},{"bike_id":"eac8e106-76e0-4f1b-81af-4eaefecd2501","system_id":"levelo_inurba_marseille","lat":43.25011,"lon":5.38923,"is_reserved":false,"is_disabled":false,"rental_uris":{"android":"levelo://app?vid=eac8e106-76e0-4f1b-81af-4eaefecd2501","ios":"levelo://app?vid=eac8e106-76e0-4f1b-81af-4eaefecd2501"},"vehicle_type_id":"4","last_reported":1738649620,"current_range_meters":17200,"station_id":"ce4bhgp2rcd13ifvqfd0","pricing_plan_id":"cebpf4jnsgd1na2vs0mg"},{"bike_id":"1d30fa21-89d7-4c87-9053-caff1675f981","system_id":"levelo_inurba_marseille","lat":43.30931,"lon":5.40151,"is_reserved":false,"is_disabled":false,"rental_uris":{"android":"levelo://app?vid=1d30fa21-89d7-4c87-9053-caff1675f981","ios":"levelo://app?vid=1d30fa21-89d7-4c87-9053-caff1675f981"},"vehicle_type_id":"4","last_reported":1738649620,"current_range_meters":38000,"station_id":"ce4bgvp2rcd13ifvqct0","pricing_plan_id":"cebpf4jnsgd1na2vs0mg"},{"bike_id":"8654b126-eecc-48d2-96fd-5d032bef9699","system_id":"levelo_inurba_marseille","lat":43.29939,"lon":5.365343,"is_reserved":false,"is_disabled":false,"rental_uris":{"android":"levelo://app?vid=8654b126-eecc-48d2-96fd-5d032bef9699","ios":"levelo://app?vid=8654b126-eecc-48d2-96fd-5d032bef9699"},"vehicle_type_id":"4","last_reported":1738649620,"current_range_meters":28400,"station_id":"ce4bgm92rcd13ifvqbr0","pricing_plan_id":"cebpf4jnsgd1na2vs0mg"},{"bike_id":"fe17d549-c68a-4c68-8652-263788d853da","system_id":"levelo_inurba_marseille","lat":43.27811,"lon":5.4071,"is_reserved":false,"is_disabled":false,"rental_uris":{"android":"levelo://app?vid=fe17d549-c68a-4c68-8652-263788d853da","ios":"levelo://app?vid=fe17d549-c68a-4c68-8652-263788d853da"},"vehicle_type_id":"4","last_reported":1738649620,"current_range_meters":4400,"station_id":"ce4bhnh2rcd13ifvqgtg","pricing_plan_id":"cebpf4jnsgd1na2vs0mg"},{"bike_id":"ada7d818-3a13-4da2-bbbd-d69d4195ddc3","system_id":"levelo_inurba_marseille","lat":43.29195,"lon":5.35802,"is_reserved":false,"is_disabled":false,"rental_uris":{"android":"levelo://app?vid=ada7d818-3a13-4da2-bbbd-d69d4195ddc3","ios":"levelo://app?vid=ada7d818-3a13-4da2-bbbd-d69d4195ddc3"},"vehicle_type_id":"4","last_reported":1738649620,"current_range_meters":38400,"station_id":"ce4bhb12rcd13ifvqel0","pricing_plan_id":"cebpf4jnsgd1na2vs0mg"},{"bike_id":"609b42cd-2a7a-423f-a26f-9c685221c000","system_id":"levelo_inurba_marseille","lat":43.28269,"lon":5.35071,"is_reserved":false,"is_disabled":false,"rental_uris":{"android":"levelo://app?vid=609b42cd-2a7a-423f-a26f-9c685221c000","ios":"levelo://app?vid=609b42cd-2a7a-423f-a26f-9c685221c000"},"vehicle_type_id":"4","last_reported":1738649620,"current_range_meters":36800,"station_id":"ce4bhbp2rcd13ifvqerg","pricing_plan_id":"cebpf4jnsgd1na2vs0mg"},{"bike_id":"1cc5c7cf-a5e4-4eeb-9817-62319d6f1a55","system_id":"levelo_inurba_marseille","lat":43.313818,"lon":5.385046,"is_reserved":false,"is_disabled":false,"rental_uris":{"android":"levelo://app?vid=1cc5c7cf-a5e4-4eeb-9817-62319d6f1a55","ios":"levelo://app?vid=1cc5c7cf-a5e4-4eeb-9817-62319d6f1a55"},"vehicle_type_id":"4","last_reported":1738649620,"current_range_meters":28000,"station_id":"ce4bgt92rcd13ifvqcf0","pricing_plan_id":"cebpf4jnsgd1na2vs0mg"},