{"last_updated":1722272845,"ttl":30,"version":"2.2","data":{"bikes":[{"bike_id":"def5710e-d266-4f5d-9f1f-fd3103fccbef","system_id":"levelo_inurba_marseille","lat":43.31243,"lon":5.36825,"is_reserved":false,"is_disabled":false,"rental_uris":{"android":"levelo://app?vid=def5710e-d266-4f5d-9f1f-fd3103fccbef","ios":"levelo://app?vid=def5710e-d266-4f5d-9f1f-fd3103fccbef"},"vehicle_type_id":"4","last_reported":1722272846,"current_range_meters":2400,"station_id":"","pricing_plan_id":"cebpf4jnsgd1na2vs0mg"},{"bike_id":"139f5a58-9e52-429f-94d5-1bd9d6a02939","system_id":"levelo_inurba_marseille","lat":43.312239,"lon":5.368562,"is_reserved":false,"is_disabled":false,"rental_uris":{"android":"levelo://app?vid=139f5a58-9e52-429f-94d5-1bd9d6a02939","ios":"levelo://app?vid=139f5a58-9e52-429f-94d5-1bd9d6a02939"},"vehicle_type_id":"4","last_reported":1722272846,"current_range_meters":11600,"station_id":"ce4bgl92rcd13ifvqbq0","pricing_plan_id":"cebpf4jnsgd1na2vs0mg"},{"bike_id":"c30d4600-d72a-4d63-90b3-90250db87478","system_id":"levelo_inurba_marseille","lat":43.312239,"lon":5.368562,"is_reserved":false,"is_disabled":false,"rental_uris":{"android":"levelo://app?vid=c30d4600-d72a-4d63-90b3-90250db87478","ios":"levelo://app?vid=c30d4600-d72a-4d63-90b3-90250db87478"},"vehicle_type_id":"4","last_reported":1722272846,"current_range_meters":3600,"station_id":"ce4bgl92rcd13ifvqbq0","pricing_plan_id":"cebpf4jnsgd1na2vs0mg"},{"bike_id":"439713a4-4d69-44e9-8283-db33ee05ba57","system_id":"levelo_inurba_marseille","lat":43.314811,"lon":5.373104,"is_reserved":false,"is_disabled":false,"rental_uris":{"android":"levelo://app?vid=439713a4-4d69-44e9-8283-db33ee05ba57","ios":"levelo://app?vid=439713a4-4d69-44e9-8283-db33ee05ba57"},"vehicle_type_id":"4","last_reported":1722272846,"current_range_meters":4000,"station_id":"ce4bgt12rcd13ifvqcd0","pricing_plan_id":"cebpf4jnsgd1na2vs0mg"},{"bike_id":"8f44b5c3-0268-4357-b6d3-77434ec5b4a3","system_id":"levelo_inurba_marseille","lat":43.305714,"lon":5.365633,"is_reserved":false,"is_disabled":false,"rental_uris":{"android":"levelo://app?vid=8f44b5c3-0268-4357-b6d3-77434ec5b4a3","ios":"levelo://app?vid=8f44b5c3-0268-4357-b6d3-77434ec5b4a3"},"vehicle_type_id":"4","last_reported":1722272846,"current_range_meters":0,"station_id":"ce4bgs12rcd13ifvqcag","pricing_plan_id":"cebpf4jnsgd1na2vs0mg"},{"bike_id":"dd0c037f-1878-433d-a3d4-c976c87af073","system_id":"levelo_inurba_marseille","lat":43.31116,"lon":5.37761,"is_reserved":false,"is_disabled":false,"rental_uris":{"android":"levelo://app?vid=dd0c037f-1878-433d-a3d4-c976c87af073","ios":"levelo://app?vid=dd0c037f-1878-433d-a3d4-c976c87af073"},"vehicle_type_id":"4","last_reported":1722272846,"current_range_meters":0,"station_id":"ce4bgt92rcd13ifvqcg0","pricing_plan_id":"cebpf4jnsgd1na2vs0mg"},{"bike_id":"60309161-19d8-4dab-910c-311ce55e4f71","system_id":"levelo_inurba_marseille","lat":43.308531,"lon":5.376224,"is_reserved":false,"is_disabled":false,"rental_uris":{"android":"levelo://app?vid=60309161-19d8-4dab-910c-311ce55e4f71","ios":"levelo://app?vid=60309161-19d8-4dab-910c-311ce55e4f71"},"vehicle_type_id":"4","last_reported":1722272846,"current_range_meters":13600,"station_id":"","pricing_plan_id":"cebpf4jnsgd1na2vs0mg"},{"bike_id":"680df276-ddee-497b-88cb-19abcb201c0f","system_id":"levelo_inurba_marseille","lat":43.307945,"lon":5.376487,"is_reserved":false,"is_disabled":false,"rental_uris":{"android":"levelo://app?vid=680df276-ddee-497b-88cb-19abcb201c0f","ios":"levelo://app?vid=680df276-ddee-497b-88cb-19abcb201c0f"},"vehicle_type_id":"4","last_reported":1722272846,"current_range_meters":7600,"station_id":"ce4bgv92rcd13ifvqcq0","pricing_plan_id":"cebpf4jnsgd1na2vs0mg"},{"bike_id":"58f06291-2f43-4744-a454-88833c452475","system_id":"levelo_inurba_marseille","lat":43.30304,"lon":5.368987,"is_reserved":false,"is_disabled":false,"rental_uris":{"android":"levelo://app?vid=58f06291-2f43-4744-a454-88833c452475","ios":"levelo://app?vid=58f06291-2f43-4744-a454-88833c452475"},"vehicle_type_id":"4","last_reported":1722272846,"current_range_meters":0,"station_id":"ce4bgqh2rcd13ifvqc5g","pricing_plan_id":"cebpf4jnsgd1na2vs0mg"},{"bike_id":"1e871472-114c-4560-90fa-b6ba7f9ad44c","system_id":"levelo_inurba_marseille","lat":43.31534,"lon":5.38026,"is_reserved":false,"is_disabled":false,"rental_uris":{"android":"levelo://app?vid=1e871472-114c-4560-90fa-b6ba7f9ad44c","ios":"levelo://app?vid=1e871472-114c-4560-90fa-b6ba7f9ad44c"},"vehicle_type_id":"4","last_reported":1722272846,"current_range_meters":0,"station_id":"ce4bhsp2rcd13ifvqi50","pricing_plan_id":"cebpf4jnsgd1na2vs0mg"},{"bike_id":"aa4b0e1e-8348-46fa-9c42-d55ef9530288","system_id":"levelo_inurba_marseille","lat":43.315289,"lon":5.380349,"is_reserved":false,"is_disabled":false,"rental_uris":{"android":"levelo://app?vid=aa4b0e1e-8348-46fa-9c42-d55ef9530288","ios":"levelo://app?vid=aa4b0e1e-8348-46fa-9c42-d55ef9530288"},"vehicle_type_id":"4","last_reported":1722272846,"current_range_meters":23600,"station_id":"ce4bhsp2rcd13ifvqi50","pricing_plan_id":"cebpf4jnsgd1na2vs0mg"},{"bike_id":"021fa522-d7f0-43a4-a16c-cf5f4df323c0","system_id":"levelo_inurba_marseille","lat":43.315289,"lon":5.380349,"is_reserved":false,"is_disabled":false,"rental_uris":{"android":"levelo://app?vid=021fa522-d7f0-43a4-a16c-cf5f4df323c0","ios":"levelo://app?vid=021fa522-d7f0-43a4-a16c-cf5f4df323c0"},"vehicle_type_id":"4","last_reported":1722272846,"current_range_meters":400,"station_id":"ce4bhsp2rcd13ifvqi50","pricing_plan_id":"cebpf4jnsgd1na2vs0mg"},{"bike_id":"8cd6cef1-70d7-4fe0-8d7e-b4a3e1fced95","system_id":"levelo_inurba_marseille","lat":43.315289,"lon":5.380349,"is_reserved":false,"is_disabled":false,"rental_uris":{"android":"levelo://app?vid=8cd6cef1-70d7-4fe0-8d7e-b4a3e1fced95","ios":"levelo://app?vid=8cd6cef1-70d7-4fe0-8d7e-b4a3e1fced95"},"vehicle_type_id":"4","last_reported":1722272846,"current_range_meters":2000,"station_id":"ce4bhsp2rcd13ifvqi50","pricing_plan_id":"cebpf4jnsgd1na2vs0mg"},{"bike_id":"11337172-1a4d-4988-9bbe-cc581a9cae76","system_id":"levelo_inurba_marseille","lat":43.308012,"lon":5.381511,"is_reserved":false,"is_disabled":false,"rental_uris":{"android":"levelo://app?vid=11337172-1a4d-4988-9bbe-cc581a9cae76","ios":"levelo://app?vid=11337172-1a4d-4988-9bbe-cc581a9cae76"},"vehicle_type_id":"4","last_reported":1722272846,"current_range_meters":13200,"station_id":"ce4bgt12rcd13ifvqce0","pricing_plan_id":"cebpf4jnsgd1na2vs0mg"},{"bike_id":"b860bb5f-523b-4242-a573-d5de8d277743","system_id":"levelo_inurba_marseille","lat":43.30688,"lon":5.38093,"is_reserved":false,"is_disabled":false,"rental_uris":{"android":"levelo://app?vid=b860bb5f-523b-4242-a573-d5de8d277743","ios":"levelo://app?vid=b860bb5f-523b-4242-a573-d5de8d277743"},"vehicle_type_id":"4","last_reported":1722272846,"current_range_meters":1200,"station_id":"","pricing_plan_id":"cebpf4jnsgd1na2vs0mg"},{"bike_id":"a6356a0b-9dac-4420-9796-463d053f1038","system_id":"levelo_inurba_marseille","lat":43.30465,"lon":5.37901,"is_reserved":false,"is_disabled":false,"rental_uris":{"android":"levelo://app?vid=a6356a0b-9dac-4420-9796-463d053f1038","ios":"levelo://app?vid=a6356a0b-9dac-4420-9796-463d053f1038"},"vehicle_type_id":"4","last_reported":1722272846,"current_range_meters":0,"station_id":"ce4bgup2rcd13ifvqcn0","pricing_plan_id":"cebpf4jnsgd1na2vs0mg"},{"bike_id":"0f01d98b-803b-43db-af06-c36591caa052","system_id":"levelo_inurba_marseille","lat":43.304606,"lon":5.379026,"is_reserved":false,"is_disabled":false,"rental_uris":{"android":"levelo://app?vid=0f01d98b-803b-43db-af06-c36591caa052","ios":"levelo://app?vid=0f01d98b-803b-43db-af06-c36591caa052"},"vehicle_type_id":"4","last_reported":1722272846,"current_range_meters":0,"station_id":"ce4bgup2rcd13ifvqcn0","pricing_plan_id":"cebpf4jnsgd1na2vs0mg"},{"bike_id":"c69c982b-b000-4201-b839-fc0277f9f51e","system_id":"levelo_inurba_marseille","lat":43.304606,"lon":5.379026,"is_reserved":false,"is_disabled":false,"rental_uris":{"android":"levelo://app?vid=c69c982b-b000-4201-b839-fc0277f9f51e","ios":"levelo://app?vid=c69c982b-b000-4201-b839-fc0277f9f51e"},"vehicle_type_id":"4","last_reported":1722272846,"current_range_meters":5600,"station_id":"ce4bgup2rcd13ifvqcn0","pricing_plan_id":"cebpf4jnsgd1na2vs0mg"},{"bike_id":"bbc4a081-5d44-4c70-aca6-ba0be4373e40","system_id":"levelo_inurba_marseille","lat":43.324771,"lon":5.36557,"is_reserved":false,"is_disabled":false,"rental_uris":{"android":"levelo://app?vid=bbc4a081-5d44-4c70-aca6-ba0be4373e40","ios":"levelo://app?vid=bbc4a081-5d44-4c70-aca6-ba0be4373e40"},"vehicle_type_id":"4","last_reported":1722272846,"current_range_meters":27600,"station_id":"ce4bhs12rcd13ifvqhvg","pricing_plan_id":"cebpf4jnsgd1na2vs0mg"},{"bike_id":"655fc802-d0e6-4b06-ab06-21a145e6698f","system_id":"levelo_inurba_marseille","lat":43.324771,"lon":5.36557,"is_reserved":false,"is_disabled":false,"rental_uris":{"android":"levelo://app?vid=655fc802-d0e6-4b06-ab06-21a145e6698f","ios":"levelo://app?vid=655fc802-d0e6-4b06-ab06-21a145e6698f"},"vehicle_type_id":"4","last_reported":1722272846,"current_range_meters":31200,"station_id":"ce4bhs12rcd13ifvqhvg","pricing_plan_id":"cebpf4jnsgd1na2vs0mg"},{"bike_id":"cc299a00-967f-4730-9e52-33f4589166b6","system_id":"levelo_inurba_marseille","lat":43.324771,"lon":5.36557,"is_reserved":false,"is_disabled":false,"rental_uris":{"android":"levelo://app?vid=cc299a00-967f-4730-9e52-33f4589166b6","ios":"levelo://app?vid=cc299a00-967f-4730-9e52-33f4589166b6"},"vehicle_type_id":"4","last_reported":1722272846,"current_range_meters":4000,"station_id":"ce4bhs12rcd13ifvqhvg","pricing_plan_id":"cebpf4jnsgd1na2vs0mg"},{"bike_id":"740834ff-8a46-4400-9950-04801028ca0c","system_id":"levelo_inurba_marseille","lat":43.32481,"lon":5.36564,"is_reserved":false,"is_disabled":false,"rental_uris":{"android":"levelo://app?vid=740834ff-8a46-4400-9950-04801028ca0c","ios":"levelo://app?vid=740834ff-8a46-4400-9950-04801028ca0c"},"vehicle_type_id":"4","last_reported":1722272846,"current_range_meters":18400,"station_id":"ce4bhs12rcd13ifvqhvg","pricing_plan_id":"cebpf4jnsgd1na2vs0mg"},{"bike_id":"40ee0094-b220-4bf6-8263-fbc75a01aa8a","system_id":"levelo_inurba_marseille","lat":43.32483,"lon":5.36577,"is_reserved":false,"is_disabled":false,"rental_uris":{"android":"levelo://app?vid=40ee0094-b220-4bf6-8263-fbc75a01aa8a","ios":"levelo://app?vid=40ee0094-b220-4bf6-8263-fbc75a01aa8a"},"vehicle_type_id":"4","last_reported":1722272846,"current_range_meters":23600,"station_id":"ce4bhs12rcd13ifvqhvg","pricing_plan_id":"cebpf4jnsgd1na2vs0mg"},{"bike_id":"38b017ec-053e-4e70-a8ba-873be27e4790","system_id":"levelo_inurba_marseille","lat":43.324771,"lon":5.36557,"is_reserved":false,"is_disabled":false,"rental_uris":{"android":"levelo://app?vid=38b017ec-053e-4e70-a8ba-873be27e4790","ios":"levelo://app?vid=38b017ec-053e-4e70-a8ba-873be27e4790"},"vehicle_type_id":"4","last_reported":1722272846,"current_range_meters":31200,"station_id":"ce4bhs12rcd13ifvqhvg","pricing_plan_id":"cebpf4jnsgd1na2vs0mg"},{"bike_id":"cf2295fe-e9a5-4fa3-992d-424feac9b7ac","system_id":"levelo_inurba_marseille","lat":43.324771,"lon":5.36557,"is_reserved":false,"is_disabled":false,"rental_uris":{"android":"levelo://app?vid=cf2295fe-e9a5-4fa3-992d-424feac9b7ac","ios":"levelo://app?vid=cf2295fe-e9a5-4fa3-992d-424feac9b7ac"},"vehicle_type_id":"4","last_reported":1722272846,"current_range_meters":6800,"station_id":"ce4bhs12rcd13ifvqhvg","pricing_plan_id":"cebpf4jnsgd1na2vs0mg"},{"bike_id":"4cd13202-5828-428f-bd38-506b10ebda82","system_id":"levelo_inurba_marseille","lat":43.301429,"lon":5.37413,"is_reserved":false,"is_disabled":false,"rental_uris":{"android":"levelo://app?vid=4cd13202-5828-428f-bd38-506b10ebda82","ios":"levelo://app?vid=4cd13202-5828-428f-bd38-506b10ebda82"},"vehicle_type_id":"4","last_reported":1722272846,"current_range_meters":1200,"station_id":"ce4bgs92rcd13ifvqcc0","pricing_plan_id":"cebpf4jnsgd1na2vs0mg"},{"bike_id":"239caefd-5d61-4634-85e1-4ba52ff2d8b1","system_id":"levelo_inurba_marseille","lat":43.302784,"lon":5.377158,"is_reserved":false,"is_disabled":false,"rental_uris":{"android":"levelo://app?vid=239caefd-5d61-4634-85e1-4ba52ff2d8b1","ios":"levelo://app?vid=239caefd-5d61-4634-85e1-4ba52ff2d8b1"},"vehicle_type_id":"4","last_reported":1722272846,"current_range_meters":20000,"station_id":"ce4bguh2rcd13ifvqcj0","pricing_plan_id":"cebpf4jnsgd1na2vs0mg"},{"bike_id":"ba51bcde-8add-4ec1-8a90-e5c3ea82f24b","system_id":"levelo_inurba_marseille","lat":43.30143,"lon":5.37413,"is_reserved":false,"is_disabled":false,"rental_uris":{"android":"levelo://app?vid=ba51bcde-8add-4ec1-8a90-e5c3ea82f24b","ios":"levelo://app?vid=ba51bcde-8add-4ec1-8a90-e5c3ea82f24b"},"vehicle_type_id":"4","last_reported":1722272846,"current_range_meters":0,"station_id":"ce4bgs92rcd13ifvqcc0","pricing_plan_id":"cebpf4jnsgd1na2vs0mg"},{"bike_id":"ff07c9bb-386f-4df5-a935-f3fe3d87b068","system_id":"levelo_inurba_marseille","lat":43.319935,"lon":5.381699,"is_reserved":false,"is_disabled":false,"rental_uris":{"android":"levelo://app?vid=ff07c9bb-386f-4df5-a935-f3fe3d87b068","ios":"levelo://app?vid=ff07c9bb-386f-4df5-a935-f3fe3d87b068"},"vehicle_type_id":"4","last_reported":1722272846,"current_range_meters":6400,"station_id":"ce4bhr12rcd13ifvqhpg","pricing_plan_id":"cebpf4jnsgd1na2vs0mg"},{"bike_id":"2e2c85c0-374b-41a1-ae6b-093830b6472b","system_id":"levelo_inurba_marseille","lat":43.319935,"lon":5.381699,"is_reserved":false,"is_disabled":false,"rental_uris":{"android":"levelo://app?vid=2e2c85c0-374b-41a1-ae6b-093830b6472b","ios":"levelo://app?vid=2e2c85c0-374b-41a1-ae6b-093830b6472b"},"vehicle_type_id":"4","last_reported":1722272846,"current_range_meters":11200,"station_id":"ce4bhr12rcd13ifvqhpg","pricing_plan_id":"cebpf4jnsgd1na2vs0mg"},{"bike_id":"8efb49f5-767f-44ae-bbf2-a32d379401c8","system_id":"levelo_inurba_marseille","lat":43.319935,"lon":5.381699,"is_reserved":false,"is_disabled":false,"rental_uris":{"android":"levelo://app?vid=8efb49f5-767f-44ae-bbf2-a32d379401c8","ios":"levelo://app?vid=8efb49f5-767f-44ae-bbf2-a32d379401c8"},"vehicle_type_id":"4","last_reported":1722272846,"current_range_meters":16400,"station_id":"ce4bhr12rcd13ifvqhpg","pricing_plan_id":"cebpf4jnsgd1na2vs0mg"},{"bike_id":"b576c3ca-0cac-4a4c-a2a7-bc63cf9781a6","system_id":"levelo_inurba_marseille","lat":43.313571,"lon":5.384829,"is_reserved":false,"is_disabled":false,"rental_uris":{"android":"levelo://app?vid=b576c3ca-0cac-4a4c-a2a7-bc63cf9781a6","ios":"levelo://app?vid=b576c3ca-0cac-4a4c-a2a7-bc63cf9781a6"},"vehicle_type_id":"4","last_reported":1722272846,"current_range_meters":400,"station_id":"ce4bgt92rcd13ifvqcf0","pricing_plan_id":"cebpf4jnsgd1na2vs0mg"},{"bike_id":"694442e2-f8e1-49e1-bccf-28e635fe61fd","system_id":"levelo_inurba_marseille","lat":43.29939,"lon":5.36547,"is_reserved":false,"is_disabled":false,"rental_uris":{"android":"levelo://app?vid=694442e2-f8e1-49e1-bccf-28e635fe61fd","ios":"levelo://app?vid=694442e2-f8e1-49e1-bccf-28e635fe61fd"},"vehicle_type_id":"4","last_reported":1722272846,"current_range_meters":0,"station_id":"ce4bgm92rcd13ifvqbr0","pricing_plan_id":"cebpf4jnsgd1na2vs0mg"},{"bike_id":"bf5a93ec-13ea-46b6-8b54-31d9a1f5facf","system_id":"levelo_inurba_marseille","lat":43.299724,"lon":5.371829,"is_reserved":false,"is_disabled":false,"rental_uris":{"android":"levelo://app?vid=bf5a93ec-13ea-46b6-8b54-31d9a1f5facf","ios":"levelo://app?vid=bf5a93ec-13ea-46b6-8b54-31d9a1f5facf"},"vehicle_type_id":"4","last_reported":1722272846,"current_range_meters":0,"station_id":"ce4bgr92rcd13ifvqc7g","pricing_plan_id":"cebpf4jnsgd1na2vs0mg"},{"bike_id":"2ac6b4d6-a1b4-4adc-8321-3fe49db21497","system_id":"levelo_inurba_marseille","lat":43.299724,"lon":5.371829,"is_reserved":false,"is_disabled":false,"rental_uris":{"android":"levelo://app?vid=2ac6b4d6-a1b4-4adc-8321-3fe49db21497","ios":"levelo://app?vid=2ac6b4d6-a1b4-4adc-8321-3fe49db21497"},"vehicle_type_id":"4","last_reported":1722272846,"current_range_meters":12000,"station_id":"ce4bgr92rcd13ifvqc7g","pricing_plan_id":"cebpf4jnsgd1na2vs0mg"},{"bike_id":"8babb68f-7625-411f-83ac-a10f29f60f1e","system_id":"levelo_inurba_marseille","lat":43.30203,"lon":5.37956,"is_reserved":false,"is_disabled":false,"rental_uris":{"android":"levelo://app?vid=8babb68f-7625-411f-83ac-a10f29f60f1e","ios":"levelo://app?vid=8babb68f-7625-411f-83ac-a10f29f60f1e"},"vehicle_type_id":"4","last_reported":1722272846,"current_range_meters":16800,"station_id":"","pricing_plan_id":"cebpf4jnsgd1na2vs0mg"},{"bike_id":"b4470ea4-8872-45e2-bcc8-19058d387b60","system_id":"levelo_inurba_marseille","lat":43.31167,"lon":5.3871,"is_reserved":false,"is_disabled":false,"rental_uris":{"android":"levelo://app?vid=b4470ea4-8872-45e2-bcc8-19058d387b60","ios":"levelo://app?vid=b4470ea4-8872-45e2-bcc8-19058d387b60"},"vehicle_type_id":"4","last_reported":1722272846,"current_range_meters":0,"station_id":"ce4bgv12rcd13ifvqcp0","pricing_plan_id":"cebpf4jnsgd1na2vs0mg"},{"bike_id":"7d7586c7-763b-4d53-a067-11829ea63aeb","system_id":"levelo_inurba_marseille","lat":43.311722,"lon":5.387247,"is_reserved":false,"is_disabled":false,"rental_uris":{"android":"levelo://app?vid=7d7586c7-763b-4d53-a067-11829ea63aeb","ios":"levelo://app?vid=7d7586c7-763b-4d53-a067-11829ea63aeb"},"vehicle_type_id":"4","last_reported":1722272846,"current_range_meters":400,"station_id":"ce4bgv12rcd13ifvqcp0","pricing_plan_id":"cebpf4jnsgd1na2vs0mg"},{"bike_id":"17215c54-1531-4caa-b8be-d52f1f4158d2","system_id":"levelo_inurba_marseille","lat":43.311722,"lon":5.387247,"is_reserved":false,"is_disabled":false,"rental_uris":{"android":"levelo://app?vid=17215c54-1531-4caa-b8be-d52f1f4158d2","ios":"levelo://app?vid=17215c54-1531-4caa-b8be-d52f1f4158d2"},"vehicle_type_id":"4","last_reported":1722272846,"current_range_meters":12400,"station_id":"ce4bgv12rcd13ifvqcp0","pricing_plan_id":"cebpf4jnsgd1na2vs0mg"},{"bike_id":"e3d4abda-e912-44fa-b7b4-2c2ade2228ae","system_id":"levelo_inurba_marseille","lat":43.298433,"lon":5.362774,"is_reserved":false,"is_disabled":false,"rental_uris":{"android":"levelo://app?vid=e3d4abda-e912-44fa-b7b4-2c2ade2228ae","ios":"levelo://app?vid=e3d4abda-e912-44fa-b7b4-2c2ade2228ae"},"vehicle_type_id":"4","last_reported":1722272846,"current_range_meters":16800,"station_id":"ce4bgpp2rcd13ifvqc3g","pricing_plan_id":"cebpf4jnsgd1na2vs0mg"},{"bike_id":"265fdc0a-b67e-4d78-afac-934fa8d79f7e","system_id":"levelo_inurba_marseille","lat":43.298433,"lon":5.362774,"is_reserved":false,"is_disabled":false,"rental_uris":{"android":"levelo://app?vid=265fdc0a-b67e-4d78-afac-934fa8d79f7e","ios":"levelo://app?vid=265fdc0a-b67e-4d78-afac-934fa8d79f7e"},"vehicle_type_id":"4","last_reported":1722272846,"current_range_meters":18800,"station_id":"ce4bgpp2rcd13ifvqc3g","pricing_plan_id":"cebpf4jnsgd1na2vs0mg"},{"bike_id":"2b8435d3-2a96-4e20-b541-268eb9a6d68e","system_id":"levelo_inurba_marseille","lat":43.30157,"lon":5.38094,"is_reserved":false,"is_disabled":false,"rental_uris":{"android":"levelo://app?vid=2b8435d3-2a96-4e20-b541-268eb9a6d68e","ios":"levelo://app?vid=2b8435d3-2a96-4e20-b541-268eb9a6d68e"},"vehicle_type_id":"4","last_reported":1722272846,"current_range_meters":0,"station_id":"","pricing_plan_id":"cebpf4jnsgd1na2vs0mg"},{"bike_id":"7b81a626-f2f9-4612-ad70-7118fc386087","system_id":"levelo_inurba_marseille","lat":43.30147,"lon":5.38093,"is_reserved":false,"is_disabled":false,"rental_uris":{"android":"levelo://app?vid=7b81a626-f2f9-4612-ad70-7118fc386087","ios":"levelo://app?vid=7b81a626-f2f9-4612-ad70-7118fc386087"},"vehicle_type_id":"4","last_reported":1722272846,"current_range_meters":0,"station_id":"","pricing_plan_id":"cebpf4jnsgd1na2vs0mg"},{"bike_id":"a050c743-6a0c-4f93-a3e7-cb8f2744e709","system_id":"levelo_inurba_marseille","lat":43.29784,"lon":5.37103,"is_reserved":false,"is_disabled":false,"rental_uris":{"android":"levelo://app?vid=a050c743-6a0c-4f93-a3e7-cb8f2744e709","ios":"levelo://app?vid=a050c743-6a0c-4f93-a3e7-cb8f2744e709"},"vehicle_type_id":"4","last_reported":1722272846,"current_range_meters":0,"station_id":"ce4bgop2rcd13ifvqc1g","pricing_plan_id":"cebpf4jnsgd1na2vs0mg"},{"bike_id":"0800458f-47ad-430d-b4d8-4c2731416e49","system_id":"levelo_inurba_marseille","lat":43.297794,"lon":5.370888,"is_reserved":false,"is_disabled":false,"rental_uris":{"android":"levelo://app?vid=0800458f-47ad-430d-b4d8-4c2731416e49","ios":"levelo://app?vid=0800458f-47ad-430d-b4d8-4c2731416e49"},"vehicle_type_id":"4","last_reported":1722272846,"current_range_meters":30400,"station_id":"ce4bgop2rcd13ifvqc1g","pricing_plan_id":"cebpf4jnsgd1na2vs0mg"},{"bike_id":"9d1f21de-decb-49ac-a7eb-ad8874b0bada","system_id":"levelo_inurba_marseille","lat":43.32291,"lon":5.38275,"is_reserved":false,"is_disabled":false,"rental_uris":{"android":"levelo://app?vid=9d1f21de-decb-49ac-a7eb-ad8874b0bada","ios":"levelo://app?vid=9d1f21de-decb-49ac-a7eb-ad8874b0bada"},"vehicle_type_id":"4","last_reported":1722272846,"current_range_meters":5200,"station_id":"ce4bhr12rcd13ifvqhqg","pricing_plan_id":"cebpf4jnsgd1na2vs0mg"},{"bike_id":"8c5aede6-9063-4e03-8a52-9d4778b6a672","system_id":"levelo_inurba_marseille","lat":43.322872,"lon":5.382756,"is_reserved":false,"is_disabled":false,"rental_uris":{"android":"levelo://app?vid=8c5aede6-9063-4e03-8a52-9d4778b6a672","ios":"levelo://app?vid=8c5aede6-9063-4e03-8a52-9d4778b6a672"},"vehicle_type_id":"4","last_reported":1722272846,"current_range_meters":29200,"station_id":"ce4bhr12rcd13ifvqhqg","pricing_plan_id":"cebpf4jnsgd1na2vs0mg"},{"bike_id":"31c3c3dc-6f55-40e1-bf6d-d5a8f9e04d08","system_id":"levelo_inurba_marseille","lat":43.322872,"lon":5.382756,"is_reserved":false,"is_disabled":false,"rental_uris":{"android":"levelo://app?vid=31c3c3dc-6f55-40e1-bf6d-d5a8f9e04d08","ios":"levelo://app?vid=31c3c3dc-6f55-40e1-bf6d-d5a8f9e04d08"},"vehicle_type_id":"4","last_reported":1722272846,"current_range_meters":14800,"station_id":"ce4bhr12rcd13ifvqhqg","pricing_plan_id":"cebpf4jnsgd1na2vs0mg"},{"bike_id":"3da92aff-bef4-4019-bc42-45b864948d65","system_id":"levelo_inurba_marseille","lat":43.29707,"lon":5.36622,"is_reserved":false,"is_disabled":false,"rental_uris":{"android":"levelo://app?vid=3da92aff-bef4-4019-bc42-45b864948d65","ios":"levelo://app?vid=3da92aff-bef4-4019-bc42-45b864948d65"},"vehicle_type_id":"4","last_reported":1722272846,"current_range_meters":10800,"station_id":"ce4bgn12rcd13ifvqbt0","pricing_plan_id":"cebpf4jnsgd1na2vs0mg"},{"bike_id":"a9f2b209-bc91-4f50-89d4-e127fdad2d30","system_id":"levelo_inurba_marseille","lat":43.29706,"lon":5.36619,"is_reserved":false,"is_disabled":false,"rental_uris":{"android":"levelo://app?vid=a9f2b209-bc91-4f50-89d4-e127fdad2d30","ios":"levelo://app?vid=a9f2b209-bc91-4f50-89d4-e127fdad2d30"},"vehicle_type_id":"4","last_reported":1722272846,"current_range_meters":0,"station_id":"ce4bgn12rcd13ifvqbt0","pricing_plan_id":"cebpf4jnsgd1na2vs0mg"},{"bike_id":"9266143a-9546-4c26-9e06-b1ecc4abae8a","system_id":"levelo_inurba_marseille","lat":43.30075,"lon":5.38124,"is_reserved":false,"is_disabled":false,"rental_uris":{"android":"levelo://app?vid=9266143a-9546-4c26-9e06-b1ecc4abae8a","ios":"levelo://app?vid=9266143a-9546-4c26-9e06-b1ecc4abae8a"},"vehicle_type_id":"4","last_reported":1722272846,"current_range_meters":10000,"station_id":"","pricing_plan_id":"cebpf4jnsgd1na2vs0mg"},{"bike_id":"2b03c609-7a5a-4795-8af6-776b4637882a","system_id":"levelo_inurba_marseille","lat":43.2968,"lon":5.36863,"is_reserved":false,"is_disabled":false,"rental_uris":{"android":"levelo://app?vid=2b03c609-7a5a-4795-8af6-776b4637882a","ios":"levelo://app?vid=2b03c609-7a5a-4795-8af6-776b4637882a"},"vehicle_type_id":"4","last_reported":1722272846,"current_range_meters":0,"station_id":"","pricing_plan_id":"cebpf4jnsgd1na2vs0mg"},{"bike_id":"fb6712f6-e3d2-4e70-9a10-260796e0336d","system_id":"levelo_inurba_marseille","lat":43.325941,"lon":5.379713,"is_reserved":false,"is_disabled":false,"rental_uris":{"android":"levelo://app?vid=fb6712f6-e3d2-4e70-9a10-260796e0336d","ios":"levelo://app?vid=fb6712f6-e3d2-4e70-9a10-260796e0336d"},"vehicle_type_id":"4","last_reported":1722272846,"current_range_meters":11600,"station_id":"","pricing_plan_id":"cebpf4jnsgd1na2vs0mg"},{"bike_id":"b7f7ce92-e28e-476d-b316-a0afdb25bead","system_id":"levelo_inurba_marseille","lat":43.296131,"lon":5.370791,"is_reserved":false,"is_disabled":false,"rental_uris":{"android":"levelo://app?vid=b7f7ce92-e28e-476d-b316-a0afdb25bead","ios":"levelo://app?vid=b7f7ce92-e28e-476d-b316-a0afdb25bead"},"vehicle_type_id":"4","last_reported":1722272846,"current_range_meters":0,"station_id":"ce4bgnh2rcd13ifvqc0g","pricing_plan_id":"cebpf4jnsgd1na2vs0mg"},{"bike_id":"ff64a74b-71cb-498c-a897-779002228d83","system_id":"levelo_inurba_marseille","lat":43.29573,"lon":5.367355,"is_reserved":false,"is_disabled":false,"rental_uris":{"android":"levelo://app?vid=ff64a74b-71cb-498c-a897-779002228d83","ios":"levelo://app?vid=ff64a74b-71cb-498c-a897-779002228d83"},"vehicle_type_id":"4","last_reported":1722272846,"current_range_meters":13200,"station_id":"ce4bgph2rcd13ifvqc2g","pricing_plan_id":"cebpf4jnsgd1na2vs0mg"},{"bike_id":"1314413b-3ad3-4297-ac4d-6f94e9ff76ef","system_id":"levelo_inurba_marseille","lat":43.29573,"lon":5.367355,"is_reserved":false,"is_disabled":false,"rental_uris":{"android":"levelo://app?vid=1314413b-3ad3-4297-ac4d-6f94e9ff76ef","ios":"levelo://app?vid=1314413b-3ad3-4297-ac4d-6f94e9ff76ef"},"vehicle_type_id":"4","last_reported":1722272846,"current_range_meters":800,"station_id":"ce4bgph2rcd13ifvqc2g","pricing_plan_id":"cebpf4jnsgd1na2vs0mg"},{"bike_id":"f816c07a-6e8f-4e40-9c39-86c8a39f2806","system_id":"levelo_inurba_marseille","lat":43.296921,"lon":5.376579,"is_reserved":false,"is_disabled":false,"rental_uris":{"android":"levelo://app?vid=f816c07a-6e8f-4e40-9c39-86c8a39f2806","ios":"levelo://app?vid=f816c07a-6e8f-4e40-9c39-86c8a39f2806"},"vehicle_type_id":"4","last_reported":1722272846,"current_range_meters":0,"station_id":"ce4bgkh2rcd13ifvqbl0","pricing_plan_id":"cebpf4jnsgd1na2vs0mg"},{"bike_id":"49e0714d-5023-415d-9ac3-acef5193d6e0","system_id":"levelo_inurba_marseille","lat":43.309589,"lon":5.390258,"is_reserved":false,"is_disabled":false,"rental_uris":{"android":"levelo://app?vid=49e0714d-5023-415d-9ac3-acef5193d6e0","ios":"levelo://app?vid=49e0714d-5023-415d-9ac3-acef5193d6e0"},"vehicle_type_id":"4","last_reported":1722272846,"current_range_meters":18400,"station_id":"ce4bgup2rcd13ifvqco0","pricing_plan_id":"cebpf4jnsgd1na2vs0mg"},{"bike_id":"9d757b96-8f75-428b-9754-642bf238b0d2","system_id":"levelo_inurba_marseille","lat":43.299028,"lon":5.381509,"is_reserved":false,"is_disabled":false,"rental_uris":{"android":"levelo://app?vid=9d757b96-8f75-428b-9754-642bf238b0d2","ios":"levelo://app?vid=9d757b96-8f75-428b-9754-642bf238b0d2"},"vehicle_type_id":"4","last_reported":1722272846,"current_range_meters":28400,"station_id":"ce4bgj12rcd13ifvqbc0","pricing_plan_id":"cebpf4jnsgd1na2vs0mg"},{"bike_id":"0ad36631-75bb-480d-be92-2477fc4d99ff","system_id":"levelo_inurba_marseille","lat":43.317557,"lon":5.390173,"is_reserved":false,"is_disabled":false,"rental_uris":{"android":"levelo://app?vid=0ad36631-75bb-480d-be92-2477fc4d99ff","ios":"levelo://app?vid=0ad36631-75bb-480d-be92-2477fc4d99ff"},"vehicle_type_id":"4","last_reported":1722272846,"current_range_meters":0,"station_id":"ce4bhqp2rcd13ifvqhng","pricing_plan_id":"cebpf4jnsgd1na2vs0mg"},{"bike_id":"529833aa-560d-4e1e-9510-e1e4a6968e05","system_id":"levelo_inurba_marseille","lat":43.29605,"lon":5.37482,"is_reserved":false,"is_disabled":false,"rental_uris":{"android":"levelo://app?vid=529833aa-560d-4e1e-9510-e1e4a6968e05","ios":"levelo://app?vid=529833aa-560d-4e1e-9510-e1e4a6968e05"},"vehicle_type_id":"4","last_reported":1722272846,"current_range_meters":1200,"station_id":"ce4bgh92rcd13ifvqb50","pricing_plan_id":"cebpf4jnsgd1na2vs0mg"},{"bike_id":"13167ac3-d330-4ad8-ace0-1b8ab43930c2","system_id":"levelo_inurba_marseille","lat":43.304274,"lon":5.388873,"is_reserved":false,"is_disabled":false,"rental_uris":{"android":"levelo://app?vid=13167ac3-d330-4ad8-ace0-1b8ab43930c2","ios":"levelo://app?vid=13167ac3-d330-4ad8-ace0-1b8ab43930c2"},"vehicle_type_id":"4","last_reported":1722272846,"current_range_meters":0,"station_id":"ce4bgk12rcd13ifvqbi0","pricing_plan_id":"cebpf4jnsgd1na2vs0mg"},{"bike_id":"c0e053e3-22c8-42b2-9b92-2d0e84600ce0","system_id":"levelo_inurba_marseille","lat":43.304278,"lon":5.388868,"is_reserved":false,"is_disabled":false,"rental_uris":{"android":"levelo://app?vid=c0e053e3-22c8-42b2-9b92-2d0e84600ce0","ios":"levelo://app?vid=c0e053e3-22c8-42b2-9b92-2d0e84600ce0"},"vehicle_type_id":"4","last_reported":1722272846,"current_range_meters":3200,"station_id":"ce4bgk12rcd13ifvqbi0","pricing_plan_id":"cebpf4jnsgd1na2vs0mg"},{"bike_id":"433600bc-90ba-4ce6-a8f8-92355a2e1103","system_id":"levelo_inurba_marseille","lat":43.304405,"lon":5.388955,"is_reserved":false,"is_disabled":false,"rental_uris":{"android":"levelo://app?vid=433600bc-90ba-4ce6-a8f8-92355a2e1103","ios":"levelo://app?vid=433600bc-90ba-4ce6-a8f8-92355a2e1103"},"vehicle_type_id":"4","last_reported":1722272846,"current_range_meters":4000,"station_id":"ce4bgk12rcd13ifvqbi0","pricing_plan_id":"cebpf4jnsgd1na2vs0mg"},{"bike_id":"de7aa306-0ff7-4c00-91fd-9867266d494c","system_id":"levelo_inurba_marseille","lat":43.292642,"lon":5.384254,"is_reserved":false,"is_disabled":false,"rental_uris":{"android":"levelo://app?vid=de7aa306-0ff7-4c00-91fd-9867266d494c","ios":"levelo://app?vid=de7aa306-0ff7-4c00-91fd-9867266d494c"},"vehicle_type_id":"4","last_reported":1722272846,"current_range_meters":3200,"station_id":"ce4bh692rcd13ifvqea0","pricing_plan_id":"cebpf4jnsgd1na2vs0mg"},{"bike_id":"fa16093e-cd2b-4163-a79e-c50b54f36f2b","system_id":"levelo_inurba_marseille","lat":43.304278,"lon":5.388868,"is_reserved":false,"is_disabled":false,"rental_uris":{"android":"levelo://app?vid=fa16093e-cd2b-4163-a79e-c50b54f36f2b","ios":"levelo://app?vid=fa16093e-cd2b-4163-a79e-c50b54f36f2b"},"vehicle_type_id":"4","last_reported":1722272846,"current_range_meters":5600,"station_id":"ce4bgk12rcd13ifvqbi0","pricing_plan_id":"cebpf4jnsgd1na2vs0mg"},{"bike_id":"bc30eabd-4edc-44c9-a087-2dc0fd6f20d9","system_id":"levelo_inurba_marseille","lat":43.29972,"lon":5.38489,"is_reserved":false,"is_disabled":false,"rental_uris":{"android":"levelo://app?vid=bc30eabd-4edc-44c9-a087-2dc0fd6f20d9","ios":"levelo://app?vid=bc30eabd-4edc-44c9-a087-2dc0fd6f20d9"},"vehicle_type_id":"4","last_reported":1722272846,"current_range_meters":0,"station_id":"ce4bgj92rcd13ifvqbd0","pricing_plan_id":"cebpf4jnsgd1na2vs0mg"},{"bike_id":"bd3c2002-a39d-4968-a5d9-58b578021ffb","system_id":"levelo_inurba_marseille","lat":43.299717,"lon":5.384845,"is_reserved":false,"is_disabled":false,"rental_uris":{"android":"levelo://app?vid=bd3c2002-a39d-4968-a5d9-58b578021ffb","ios":"levelo://app?vid=bd3c2002-a39d-4968-a5d9-58b578021ffb"},"vehicle_type_id":"4","last_reported":1722272846,"current_range_meters":24000,"station_id":"ce4bgj92rcd13ifvqbd0","pricing_plan_id":"cebpf4jnsgd1na2vs0mg"},{"bike_id":"05524180-ff97-4ffd-8f44-aa61fb89df71","system_id":"levelo_inurba_marseille","lat":43.299724,"lon":5.384848,"is_reserved":false,"is_disabled":false,"rental_uris":{"android":"levelo://app?vid=05524180-ff97-4ffd-8f44-aa61fb89df71","ios":"levelo://app?vid=05524180-ff97-4ffd-8f44-aa61fb89df71"},"vehicle_type_id":"4","last_reported":1722272846,"current_range_meters":800,"station_id":"ce4bgj92rcd13ifvqbd0","pricing_plan_id":"cebpf4jnsgd1na2vs0mg"},{"bike_id":"909dd852-5c35-4428-9c1b-2083bd16be26","system_id":"levelo_inurba_marseille","lat":43.301396,"lon":5.387812,"is_reserved":false,"is_disabled":false,"rental_uris":{"android":"levelo://app?vid=909dd852-5c35-4428-9c1b-2083bd16be26","ios":"levelo://app?vid=909dd852-5c35-4428-9c1b-2083bd16be26"},"vehicle_type_id":"4","last_reported":1722272846,"current_range_meters":28000,"station_id":"ce4bghh2rcd13ifvqb60","pricing_plan_id":"cebpf4jnsgd1na2vs0mg"},{"bike_id":"38acb9dd-7003-4332-aaa2-d79b045d4db4","system_id":"levelo_inurba_marseille","lat":43.32367,"lon":5.388836,"is_reserved":false,"is_disabled":false,"rental_uris":{"android":"levelo://app?vid=38acb9dd-7003-4332-aaa2-d79b045d4db4","ios":"levelo://app?vid=38acb9dd-7003-4332-aaa2-d79b045d4db4"},"vehicle_type_id":"4","last_reported":1722272846,"current_range_meters":17600,"station_id":"ce4bhqp2rcd13ifvqhog","pricing_plan_id":"cebpf4jnsgd1na2vs0mg"},{"bike_id":"4c9b2a69-157c-4d96-9abb-2a7226d78bd9","system_id":"levelo_inurba_marseille","lat":43.32313,"lon":5.38931,"is_reserved":false,"is_disabled":false,"rental_uris":{"android":"levelo://app?vid=4c9b2a69-157c-4d96-9abb-2a7226d78bd9","ios":"levelo://app?vid=4c9b2a69-157c-4d96-9abb-2a7226d78bd9"},"vehicle_type_id":"4","last_reported":1722272846,"current_range_meters":12400,"station_id":"","pricing_plan_id":"cebpf4jnsgd1na2vs0mg"},{"bike_id":"30043d94-5ad9-4980-b929-f8ac124dfa71","system_id":"levelo_inurba_marseille","lat":43.32367,"lon":5.388836,"is_reserved":false,"is_disabled":false,"rental_uris":{"android":"levelo://app?vid=30043d94-5ad9-4980-b929-f8ac124dfa71","ios":"levelo://app?vid=30043d94-5ad9-4980-b929-f8ac124dfa71"},"vehicle_type_id":"4","last_reported":1722272846,"current_range_meters":20800,"station_id":"ce4bhqp2rcd13ifvqhog","pricing_plan_id":"cebpf4jnsgd1na2vs0mg"},{"bike_id":"6f0a2f86-0f3c-49e9-9fbc-1422a5f42ad0","system_id":"levelo_inurba_marseille","lat":43.29602,"lon":5.381084,"is_reserved":false,"is_disabled":false,"rental_uris":{"android":"levelo://app?vid=6f0a2f86-0f3c-49e9-9fbc-1422a5f42ad0","ios":"levelo://app?vid=6f0a2f86-0f3c-49e9-9fbc-1422a5f42ad0"},"vehicle_type_id":"4","last_reported":1722272846,"current_range_meters":2800,"station_id":"ce4bgl12rcd13ifvqbo0","pricing_plan_id":"cebpf4jnsgd1na2vs0mg"},{"bike_id":"571d34e4-487c-4e7b-be4e-474ee5c9ae48","system_id":"levelo_inurba_marseille","lat":43.29603,"lon":5.38106,"is_reserved":false,"is_disabled":false,"rental_uris":{"android":"levelo://app?vid=571d34e4-487c-4e7b-be4e-474ee5c9ae48","ios":"levelo://app?vid=571d34e4-487c-4e7b-be4e-474ee5c9ae48"},"vehicle_type_id":"4","last_reported":1722272846,"current_range_meters":4800,"station_id":"ce4bgl12rcd13ifvqbo0","pricing_plan_id":"cebpf4jnsgd1na2vs0mg"},{"bike_id":"41d707a4-a183-4fdd-b5ec-72f567a3d0ec","system_id":"levelo_inurba_marseille","lat":43.292749,"lon":5.368402,"is_reserved":false,"is_disabled":false,"rental_uris":{"android":"levelo://app?vid=41d707a4-a183-4fdd-b5ec-72f567a3d0ec","ios":"levelo://app?vid=41d707a4-a183-4fdd-b5ec-72f567a3d0ec"},"vehicle_type_id":"4","last_reported":1722272846,"current_range_meters":1600,"station_id":"ce4bhbp2rcd13ifvqesg","pricing_plan_id":"cebpf4jnsgd1na2vs0mg"},{"bike_id":"1a461864-9abd-4deb-9bf3-23c5fa5c6265","system_id":"levelo_inurba_marseille","lat":43.29302,"lon":5.3718,"is_reserved":false,"is_disabled":false,"rental_uris":{"android":"levelo://app?vid=1a461864-9abd-4deb-9bf3-23c5fa5c6265","ios":"levelo://app?vid=1a461864-9abd-4deb-9bf3-23c5fa5c6265"},"vehicle_type_id":"4","last_reported":1722272846,"current_range_meters":0,"station_id":"ce4bgh92rcd13ifvqb40","pricing_plan_id":"cebpf4jnsgd1na2vs0mg"},{"bike_id":"c9c594ed-3f27-42fc-91ba-37c8ad072575","system_id":"levelo_inurba_marseille","lat":43.293009,"lon":5.374584,"is_reserved":false,"is_disabled":false,"rental_uris":{"android":"levelo://app?vid=c9c594ed-3f27-42fc-91ba-37c8ad072575","ios":"levelo://app?vid=c9c594ed-3f27-42fc-91ba-37c8ad072575"},"vehicle_type_id":"4","last_reported":1722272846,"current_range_meters":7200,"station_id":"ce4bgi12rcd13ifvqb70","pricing_plan_id":"cebpf4jnsgd1na2vs0mg"},{"bike_id":"a3fab137-1d30-4da5-b2e2-657b45baeaae","system_id":"levelo_inurba_marseille","lat":43.2936,"lon":5.37835,"is_reserved":false,"is_disabled":false,"rental_uris":{"android":"levelo://app?vid=a3fab137-1d30-4da5-b2e2-657b45baeaae","ios":"levelo://app?vid=a3fab137-1d30-4da5-b2e2-657b45baeaae"},"vehicle_type_id":"4","last_reported":1722272846,"current_range_meters":0,"station_id":"ce4bgjh2rcd13ifvqbf0","pricing_plan_id":"cebpf4jnsgd1na2vs0mg"},{"bike_id":"827ef02c-1fc1-4550-9d61-1054fd73326e","system_id":"levelo_inurba_marseille","lat":43.30085,"lon":5.390856,"is_reserved":false,"is_disabled":false,"rental_uris":{"android":"levelo://app?vid=827ef02c-1fc1-4550-9d61-1054fd73326e","ios":"levelo://app?vid=827ef02c-1fc1-4550-9d61-1054fd73326e"},"vehicle_type_id":"4","last_reported":1722272846,"current_range_meters":10400,"station_id":"ce4bh192rcd13ifvqdb0","pricing_plan_id":"cebpf4jnsgd1na2vs0mg"},{"bike_id":"afba2300-aaf5-408c-8fc9-98587c342fb5","system_id":"levelo_inurba_marseille","lat":43.30085,"lon":5.390856,"is_reserved":false,"is_disabled":false,"rental_uris":{"android":"levelo://app?vid=afba2300-aaf5-408c-8fc9-98587c342fb5","ios":"levelo://app?vid=afba2300-aaf5-408c-8fc9-98587c342fb5"},"vehicle_type_id":"4","last_reported":1722272846,"current_range_meters":14800,"station_id":"ce4bh192rcd13ifvqdb0","pricing_plan_id":"cebpf4jnsgd1na2vs0mg"},{"bike_id":"63e6861c-e58f-42be-bcf9-51e7b54082cf","system_id":"levelo_inurba_marseille","lat":43.29257,"lon":5.37614,"is_reserved":false,"is_disabled":false,"rental_uris":{"android":"levelo://app?vid=63e6861c-e58f-42be-bcf9-51e7b54082cf","ios":"levelo://app?vid=63e6861c-e58f-42be-bcf9-51e7b54082cf"},"vehicle_type_id":"4","last_reported":1722272846,"current_range_meters":1600,"station_id":"ce4bgi12rcd13ifvqb80","pricing_plan_id":"cebpf4jnsgd1na2vs0mg"},{"bike_id":"262470d1-65fd-447b-bd64-7b42cf9f928f","system_id":"levelo_inurba_marseille","lat":43.291675,"lon":5.371583,"is_reserved":false,"is_disabled":false,"rental_uris":{"android":"levelo://app?vid=262470d1-65fd-447b-bd64-7b42cf9f928f","ios":"levelo://app?vid=262470d1-65fd-447b-bd64-7b42cf9f928f"},"vehicle_type_id":"4","last_reported":1722272846,"current_range_meters":1200,"station_id":"ce4bha92rcd13ifvqeh0","pricing_plan_id":"cebpf4jnsgd1na2vs0mg"},{"bike_id":"14d8d4f8-8ed1-45b7-ae29-67121a125c23","system_id":"levelo_inurba_marseille","lat":43.29256,"lon":5.37618,"is_reserved":false,"is_disabled":false,"rental_uris":{"android":"levelo://app?vid=14d8d4f8-8ed1-45b7-ae29-67121a125c23","ios":"levelo://app?vid=14d8d4f8-8ed1-45b7-ae29-67121a125c23"},"vehicle_type_id":"4","last_reported":1722272846,"current_range_meters":15600,"station_id":"ce4bgi12rcd13ifvqb80","pricing_plan_id":"cebpf4jnsgd1na2vs0mg"},{"bike_id":"ca3f76b5-d5d9-4685-ba41-8e75c2b9035e","system_id":"levelo_inurba_marseille","lat":43.292005,"lon":5.357875,"is_reserved":false,"is_disabled":false,"rental_uris":{"android":"levelo://app?vid=ca3f76b5-d5d9-4685-ba41-8e75c2b9035e","ios":"levelo://app?vid=ca3f76b5-d5d9-4685-ba41-8e75c2b9035e"},"vehicle_type_id":"4","last_reported":1722272846,"current_range_meters":1600,"station_id":"ce4bhb12rcd13ifvqel0","pricing_plan_id":"cebpf4jnsgd1na2vs0mg"},{"bike_id":"99d43598-9dfd-4875-89fe-70c6cb300a7f","system_id":"levelo_inurba_marseille","lat":43.291994,"lon":5.357886,"is_reserved":false,"is_disabled":false,"rental_uris":{"android":"levelo://app?vid=99d43598-9dfd-4875-89fe-70c6cb300a7f","ios":"levelo://app?vid=99d43598-9dfd-4875-89fe-70c6cb300a7f"},"vehicle_type_id":"4","last_reported":1722272846,"current_range_meters":17200,"station_id":"ce4bhb12rcd13ifvqel0","pricing_plan_id":"cebpf4jnsgd1na2vs0mg"},{"bike_id":"329a0d09-6a4e-483f-bd43-044dcddd0ab8","system_id":"levelo_inurba_marseille","lat":43.291994,"lon":5.357886,"is_reserved":false,"is_disabled":false,"rental_uris":{"android":"levelo://app?vid=329a0d09-6a4e-483f-bd43-044dcddd0ab8","ios":"levelo://app?vid=329a0d09-6a4e-483f-bd43-044dcddd0ab8"},"vehicle_type_id":"4","last_reported":1722272846,"current_range_meters":400,"station_id":"ce4bhb12rcd13ifvqel0","pricing_plan_id":"cebpf4jnsgd1na2vs0mg"},{"bike_id":"a496d660-2414-45de-926a-e1556a853404","system_id":"levelo_inurba_marseille","lat":43.313291,"lon":5.396838,"is_reserved":false,"is_disabled":false,"rental_uris":{"android":"levelo://app?vid=a496d660-2414-45de-926a-e1556a853404","ios":"levelo://app?vid=a496d660-2414-45de-926a-e1556a853404"},"vehicle_type_id":"4","last_reported":1722272846,"current_range_meters":7200,"station_id":"ce4bgvp2rcd13ifvqcu0","pricing_plan_id":"cebpf4jnsgd1na2vs0mg"},{"bike_id":"e897df29-4fe5-46aa-8e64-3edb49a2f03d","system_id":"levelo_inurba_marseille","lat":43.29529,"lon":5.385581,"is_reserved":false,"is_disabled":false,"rental_uris":{"android":"levelo://app?vid=e897df29-4fe5-46aa-8e64-3edb49a2f03d","ios":"levelo://app?vid=e897df29-4fe5-46aa-8e64-3edb49a2f03d"},"vehicle_type_id":"4","last_reported":1722272846,"current_range_meters":0,"station_id":"ce4bgih2rcd13ifvqba0","pricing_plan_id":"cebpf4jnsgd1na2vs0mg"},{"bike_id":"70a16474-4409-4110-a97f-4cc3730a034b","system_id":"levelo_inurba_marseille","lat":43.290779,"lon":5.371482,"is_reserved":false,"is_disabled":false,"rental_uris":{"android":"levelo://app?vid=70a16474-4409-4110-a97f-4cc3730a034b","ios":"levelo://app?vid=70a16474-4409-4110-a97f-4cc3730a034b"},"vehicle_type_id":"4","last_reported":1722272846,"current_range_meters":1600,"station_id":"ce4bh5p2rcd13ifvqe4g","pricing_plan_id":"cebpf4jnsgd1na2vs0mg"},{"bike_id":"05af3ea1-49e7-464a-ac07-992741483972","system_id":"levelo_inurba_marseille","lat":43.29065,"lon":5.37168,"is_reserved":false,"is_disabled":false,"rental_uris":{"android":"levelo://app?vid=05af3ea1-49e7-464a-ac07-992741483972","ios":"levelo://app?vid=05af3ea1-49e7-464a-ac07-992741483972"},"vehicle_type_id":"4","last_reported":1722272846,"current_range_meters":4400,"station_id":"ce4bh5p2rcd13ifvqe4g","pricing_plan_id":"cebpf4jnsgd1na2vs0mg"},{"bike_id":"b0d9181a-abc5-46a4-8c45-c5e5e1d296e5","system_id":"levelo_inurba_marseille","lat":43.302008,"lon":5.394694,"is_reserved":false,"is_disabled":false,"rental_uris":{"android":"levelo://app?vid=b0d9181a-abc5-46a4-8c45-c5e5e1d296e5","ios":"levelo://app?vid=b0d9181a-abc5-46a4-8c45-c5e5e1d296e5"},"vehicle_type_id":"4","last_reported":1722272846,"current_range_meters":10000,"station_id":"ce4bh0p2rcd13ifvqd70","pricing_plan_id":"cebpf4jnsgd1na2vs0mg"},{"bike_id":"938bd52f-0326-4109-a3bf-febbf98233bd","system_id":"levelo_inurba_marseille","lat":43.30215,"lon":5.3947,"is_reserved":false,"is_disabled":false,"rental_uris":{"android":"levelo://app?vid=938bd52f-0326-4109-a3bf-febbf98233bd","ios":"levelo://app?vid=938bd52f-0326-4109-a3bf-febbf98233bd"},"vehicle_type_id":"4","last_reported":1722272846,"current_range_meters":31600,"station_id":"ce4bh0p2rcd13ifvqd70","pricing_plan_id":"cebpf4jnsgd1na2vs0mg"},{"bike_id":"5785428e-2a09-4fd4-8aa2-2715b471fc85","system_id":"levelo_inurba_marseille","lat":43.29119,"lon":5.35582,"is_reserved":false,"is_disabled":false,"rental_uris":{"android":"levelo://app?vid=5785428e-2a09-4fd4-8aa2-2715b471fc85","ios":"levelo://app?vid=5785428e-2a09-4fd4-8aa2-2715b471fc85"},"vehicle_type_id":"4","last_reported":1722272846,"current_range_meters":14000,"station_id":"","pricing_plan_id":"cebpf4jnsgd1na2vs0mg"},{"bike_id":"f9b2320f-4bd3-46f6-9b2d-e2df8ef6c82d","system_id":"levelo_inurba_marseille","lat":43.290319,"lon":5.375732,"is_reserved":false,"is_disabled":false,"rental_uris":{"android":"levelo://app?vid=f9b2320f-4bd3-46f6-9b2d-e2df8ef6c82d","ios":"levelo://app?vid=f9b2320f-4bd3-46f6-9b2d-e2df8ef6c82d"},"vehicle_type_id":"4","last_reported":1722272846,"current_range_meters":6400,"station_id":"ce4bh692rcd13ifvqe90","pricing_plan_id":"cebpf4jnsgd1na2vs0mg"},{"bike_id":"29e1ce91-8c04-45db-b70c-793cbe6cc86d","system_id":"levelo_inurba_marseille","lat":43.290327,"lon":5.375711,"is_reserved":false,"is_disabled":false,"rental_uris":{"android":"levelo://app?vid=29e1ce91-8c04-45db-b70c-793cbe6cc86d","ios":"levelo://app?vid=29e1ce91-8c04-45db-b70c-793cbe6cc86d"},"vehicle_type_id":"4","last_reported":1722272846,"current_range_meters":0,"station_id":"ce4bh692rcd13ifvqe90","pricing_plan_id":"cebpf4jnsgd1na2vs0mg"},{"bike_id":"1b40aa53-06bc-482c-8424-9399310d79fe","system_id":"levelo_inurba_marseille","lat":43.289184,"lon":5.366408,"is_reserved":false,"is_disabled":false,"rental_uris":{"android":"levelo://app?vid=1b40aa53-06bc-482c-8424-9399310d79fe","ios":"levelo://app?vid=1b40aa53-06bc-482c-8424-9399310d79fe"},"vehicle_type_id":"4","last_reported":1722272846,"current_range_meters":6800,"station_id":"ce4bhap2rcd13ifvqek0","pricing_plan_id":"cebpf4jnsgd1na2vs0mg"},{"bike_id":"29cafbaf-1acd-4ec2-bf72-de82d388a67d","system_id":"levelo_inurba_marseille","lat":43.290227,"lon":5.375593,"is_reserved":false,"is_disabled":false,"rental_uris":{"android":"levelo://app?vid=29cafbaf-1acd-4ec2-bf72-de82d388a67d","ios":"levelo://app?vid=29cafbaf-1acd-4ec2-bf72-de82d388a67d"},"vehicle_type_id":"4","last_reported":1722272846,"current_range_meters":0,"station_id":"ce4bh692rcd13ifvqe90","pricing_plan_id":"cebpf4jnsgd1na2vs0mg"},{"bike_id":"7a140db9-9bd5-47fb-a432-f0ad83f26f2f","system_id":"levelo_inurba_marseille","lat":43.289184,"lon":5.366408,"is_reserved":false,"is_disabled":false,"rental_uris":{"android":"levelo://app?vid=7a140db9-9bd5-47fb-a432-f0ad83f26f2f","ios":"levelo://app?vid=7a140db9-9bd5-47fb-a432-f0ad83f26f2f"},"vehicle_type_id":"4","last_reported":1722272846,"current_range_meters":20800,"station_id":"ce4bhap2rcd13ifvqek0","pricing_plan_id":"cebpf4jnsgd1na2vs0mg"},{"bike_id":"38cd22b2-1fc1-437f-847b-eb51b40962bb","system_id":"levelo_inurba_marseille","lat":43.289468,"lon":5.363719,"is_reserved":false,"is_disabled":false,"rental_uris":{"android":"levelo://app?vid=38cd22b2-1fc1-437f-847b-eb51b40962bb","ios":"levelo://app?vid=38cd22b2-1fc1-437f-847b-eb51b40962bb"},"vehicle_type_id":"4","last_reported":1722272846,"current_range_meters":5600,"station_id":"ce4bhc92rcd13ifvqetg","pricing_plan_id":"cebpf4jnsgd1na2vs0mg"},{"bike_id":"a4179394-8e7e-4669-94e4-9ea825c4ec06","system_id":"levelo_inurba_marseille","lat":43.304296,"lon":5.397513,"is_reserved":false,"is_disabled":false,"rental_uris":{"android":"levelo://app?vid=a4179394-8e7e-4669-94e4-9ea825c4ec06","ios":"levelo://app?vid=a4179394-8e7e-4669-94e4-9ea825c4ec06"},"vehicle_type_id":"4","last_reported":1722272846,"current_range_meters":8400,"station_id":"ce4bh092rcd13ifvqd20","pricing_plan_id":"cebpf4jnsgd1na2vs0mg"},{"bike_id":"edf1bd04-025a-4bc8-bca3-9660d5971460","system_id":"levelo_inurba_marseille","lat":43.29269,"lon":5.3845,"is_reserved":false,"is_disabled":false,"rental_uris":{"android":"levelo://app?vid=edf1bd04-025a-4bc8-bca3-9660d5971460","ios":"levelo://app?vid=edf1bd04-025a-4bc8-bca3-9660d5971460"},"vehicle_type_id":"4","last_reported":1722272846,"current_range_meters":0,"station_id":"ce4bh692rcd13ifvqea0","pricing_plan_id":"cebpf4jnsgd1na2vs0mg"},{"bike_id":"51f90dc5-9ccb-4bcd-a711-53fda347d31d","system_id":"levelo_inurba_marseille","lat":43.290104,"lon":5.356111,"is_reserved":false,"is_disabled":false,"rental_uris":{"android":"levelo://app?vid=51f90dc5-9ccb-4bcd-a711-53fda347d31d","ios":"levelo://app?vid=51f90dc5-9ccb-4bcd-a711-53fda347d31d"},"vehicle_type_id":"4","last_reported":1722272846,"current_range_meters":0,"station_id":"ce4bhb92rcd13ifvqen0","pricing_plan_id":"cebpf4jnsgd1na2vs0mg"},{"bike_id":"ddb8967b-43da-4d65-a59a-bda003b667ba","system_id":"levelo_inurba_marseille","lat":43.290104,"lon":5.356111,"is_reserved":false,"is_disabled":false,"rental_uris":{"android":"levelo://app?vid=ddb8967b-43da-4d65-a59a-bda003b667ba","ios":"levelo://app?vid=ddb8967b-43da-4d65-a59a-bda003b667ba"},"vehicle_type_id":"4","last_reported":1722272846,"current_range_meters":2000,"station_id":"ce4bhb92rcd13ifvqen0","pricing_plan_id":"cebpf4jnsgd1na2vs0mg"},{"bike_id":"6b2ce00b-9210-4e95-8f7e-c1bf6939f8dc","system_id":"levelo_inurba_marseille","lat":43.29002,"lon":5.35609,"is_reserved":false,"is_disabled":false,"rental_uris":{"android":"levelo://app?vid=6b2ce00b-9210-4e95-8f7e-c1bf6939f8dc","ios":"levelo://app?vid=6b2ce00b-9210-4e95-8f7e-c1bf6939f8dc"},"vehicle_type_id":"4","last_reported":1722272846,"current_range_meters":0,"station_id":"ce4bhb92rcd13ifvqen0","pricing_plan_id":"cebpf4jnsgd1na2vs0mg"},{"bike_id":"73611fd0-e748-4bd5-ac5e-d848bf98efd1","system_id":"levelo_inurba_marseille","lat":43.297807,"lon":5.393533,"is_reserved":false,"is_disabled":false,"rental_uris":{"android":"levelo://app?vid=73611fd0-e748-4bd5-ac5e-d848bf98efd1","ios":"levelo://app?vid=73611fd0-e748-4bd5-ac5e-d848bf98efd1"},"vehicle_type_id":"4","last_reported":1722272846,"current_range_meters":27200,"station_id":"chh1huq6cuj3fo74tm60","pricing_plan_id":"cebpf4jnsgd1na2vs0mg"},{"bike_id":"51a8aa13-44d3-4752-9a2b-bd1108bf38a4","system_id":"levelo_inurba_marseille","lat":43.297815,"lon":5.393548,"is_reserved":false,"is_disabled":false,"rental_uris":{"android":"levelo://app?vid=51a8aa13-44d3-4752-9a2b-bd1108bf38a4","ios":"levelo://app?vid=51a8aa13-44d3-4752-9a2b-bd1108bf38a4"},"vehicle_type_id":"4","last_reported":1722272846,"current_range_meters":10800,"station_id":"chh1huq6cuj3fo74tm60","pricing_plan_id":"cebpf4jnsgd1na2vs0mg"},{"bike_id":"8258c607-468d-44f8-86a3-414e1f00383b","system_id":"levelo_inurba_marseille","lat":43.297815,"lon":5.393548,"is_reserved":false,"is_disabled":false,"rental_uris":{"android":"levelo://app?vid=8258c607-468d-44f8-86a3-414e1f00383b","ios":"levelo://app?vid=8258c607-468d-44f8-86a3-414e1f00383b"},"vehicle_type_id":"4","last_reported":1722272846,"current_range_meters":12000,"station_id":"chh1huq6cuj3fo74tm60","pricing_plan_id":"cebpf4jnsgd1na2vs0mg"},{"bike_id":"825431fe-38ea-4caa-81cc-565289ddfd5f","system_id":"levelo_inurba_marseille","lat":43.295196,"lon":5.390202,"is_reserved":false,"is_disabled":false,"rental_uris":{"android":"levelo://app?vid=825431fe-38ea-4caa-81cc-565289ddfd5f","ios":"levelo://app?vid=825431fe-38ea-4caa-81cc-565289ddfd5f"},"vehicle_type_id":"4","last_reported":1722272846,"current_range_meters":0,"station_id":"ce4bh692rcd13ifvqe90","pricing_plan_id":"cebpf4jnsgd1na2vs0mg"},{"bike_id":"3bf2de60-3e0a-491a-ac6c-9c48e1add48d","system_id":"levelo_inurba_marseille","lat":43.330442,"lon":5.389148,"is_reserved":false,"is_disabled":false,"rental_uris":{"android":"levelo://app?vid=3bf2de60-3e0a-491a-ac6c-9c48e1add48d","ios":"levelo://app?vid=3bf2de60-3e0a-491a-ac6c-9c48e1add48d"},"vehicle_type_id":"4","last_reported":1722272846,"current_range_meters":30800,"station_id":"ce4bhr92rcd13ifvqhrg","pricing_plan_id":"cebpf4jnsgd1na2vs0mg"},{"bike_id":"d9df49f6-6d59-46a2-829e-5c8007ee01f1","system_id":"levelo_inurba_marseille","lat":43.330442,"lon":5.389148,"is_reserved":false,"is_disabled":false,"rental_uris":{"android":"levelo://app?vid=d9df49f6-6d59-46a2-829e-5c8007ee01f1","ios":"levelo://app?vid=d9df49f6-6d59-46a2-829e-5c8007ee01f1"},"vehicle_type_id":"4","last_reported":1722272846,"current_range_meters":1200,"station_id":"ce4bhr92rcd13ifvqhrg","pricing_plan_id":"cebpf4jnsgd1na2vs0mg"},{"bike_id":"dcd705d4-f090-410d-a3d5-6d8904b7179b","system_id":"levelo_inurba_marseille","lat":43.330442,"lon":5.389148,"is_reserved":false,"is_disabled":false,"rental_uris":{"android":"levelo://app?vid=dcd705d4-f090-410d-a3d5-6d8904b7179b","ios":"levelo://app?vid=dcd705d4-f090-410d-a3d5-6d8904b7179b"},"vehicle_type_id":"4","last_reported":1722272846,"current_range_meters":8400,"station_id":"ce4bhr92rcd13ifvqhrg","pricing_plan_id":"cebpf4jnsgd1na2vs0mg"},{"bike_id":"77a2f277-2711-4d9c-9feb-7b90cd304c9f","system_id":"levelo_inurba_marseille","lat":43.2901,"lon":5.381269,"is_reserved":false,"is_disabled":false,"rental_uris":{"android":"levelo://app?vid=77a2f277-2711-4d9c-9feb-7b90cd304c9f","ios":"levelo://app?vid=77a2f277-2711-4d9c-9feb-7b90cd304c9f"},"vehicle_type_id":"4","last_reported":1722272846,"current_range_meters":30400,"station_id":"ce4bh4p2rcd13ifvqe1g","pricing_plan_id":"cebpf4jnsgd1na2vs0mg"},{"bike_id":"e34c57fe-b098-409b-80db-9f02646d6c44","system_id":"levelo_inurba_marseille","lat":43.301825,"lon":5.397545,"is_reserved":false,"is_disabled":false,"rental_uris":{"android":"levelo://app?vid=e34c57fe-b098-409b-80db-9f02646d6c44","ios":"levelo://app?vid=e34c57fe-b098-409b-80db-9f02646d6c44"},"vehicle_type_id":"4","last_reported":1722272846,"current_range_meters":24800,"station_id":"","pricing_plan_id":"cebpf4jnsgd1na2vs0mg"},{"bike_id":"f4cdf6f8-59cc-4926-bbd3-bf830cd7e7b6","system_id":"levelo_inurba_marseille","lat":43.29026,"lon":5.38138,"is_reserved":false,"is_disabled":false,"rental_uris":{"android":"levelo://app?vid=f4cdf6f8-59cc-4926-bbd3-bf830cd7e7b6","ios":"levelo://app?vid=f4cdf6f8-59cc-4926-bbd3-bf830cd7e7b6"},"vehicle_type_id":"4","last_reported":1722272846,"current_range_meters":26000,"station_id":"ce4bh4p2rcd13ifvqe1g","pricing_plan_id":"cebpf4jnsgd1na2vs0mg"},{"bike_id":"ac642936-790c-4a29-991e-b3f30941409d","system_id":"levelo_inurba_marseille","lat":43.290094,"lon":5.381264,"is_reserved":false,"is_disabled":false,"rental_uris":{"android":"levelo://app?vid=ac642936-790c-4a29-991e-b3f30941409d","ios":"levelo://app?vid=ac642936-790c-4a29-991e-b3f30941409d"},"vehicle_type_id":"4","last_reported":1722272846,"current_range_meters":0,"station_id":"ce4bh4p2rcd13ifvqe1g","pricing_plan_id":"cebpf4jnsgd1na2vs0mg"},{"bike_id":"d50539f3-81de-42f0-af06-26bb64534932","system_id":"levelo_inurba_marseille","lat":43.28856,"lon":5.358371,"is_reserved":false,"is_disabled":false,"rental_uris":{"android":"levelo://app?vid=d50539f3-81de-42f0-af06-26bb64534932","ios":"levelo://app?vid=d50539f3-81de-42f0-af06-26bb64534932"},"vehicle_type_id":"4","last_reported":1722272846,"current_range_meters":30800,"station_id":"ce4bhb12rcd13ifvqem0","pricing_plan_id":"cebpf4jnsgd1na2vs0mg"},{"bike_id":"042c3232-505f-40cc-90e1-f98042c2c186","system_id":"levelo_inurba_marseille","lat":43.28844,"lon":5.358516,"is_reserved":false,"is_disabled":false,"rental_uris":{"android":"levelo://app?vid=042c3232-505f-40cc-90e1-f98042c2c186","ios":"levelo://app?vid=042c3232-505f-40cc-90e1-f98042c2c186"},"vehicle_type_id":"4","last_reported":1722272846,"current_range_meters":0,"station_id":"ce4bhb12rcd13ifvqem0","pricing_plan_id":"cebpf4jnsgd1na2vs0mg"},{"bike_id":"3a031b0c-bc56-43bb-b312-b03539475294","system_id":"levelo_inurba_marseille","lat":43.309371,"lon":5.401449,"is_reserved":false,"is_disabled":false,"rental_uris":{"android":"levelo://app?vid=3a031b0c-bc56-43bb-b312-b03539475294","ios":"levelo://app?vid=3a031b0c-bc56-43bb-b312-b03539475294"},"vehicle_type_id":"4","last_reported":1722272846,"current_range_meters":0,"station_id":"ce4bgvp2rcd13ifvqct0","pricing_plan_id":"cebpf4jnsgd1na2vs0mg"},{"bike_id":"0947d520-5902-43d2-9e61-47bf12ff75f9","system_id":"levelo_inurba_marseille","lat":43.337553,"lon":5.374554,"is_reserved":false,"is_disabled":false,"rental_uris":{"android":"levelo://app?vid=0947d520-5902-43d2-9e61-47bf12ff75f9","ios":"levelo://app?vid=0947d520-5902-43d2-9e61-47bf12ff75f9"},"vehicle_type_id":"4","last_reported":1722272846,"current_range_meters":21600,"station_id":"","pricing_plan_id":"cebpf4jnsgd1na2vs0mg"},{"bike_id":"aaebd38b-cd82-4a8d-881e-1ee4bc290770","system_id":"levelo_inurba_marseille","lat":43.301117,"lon":5.398795,"is_reserved":false,"is_disabled":false,"rental_uris":{"android":"levelo://app?vid=aaebd38b-cd82-4a8d-881e-1ee4bc290770","ios":"levelo://app?vid=aaebd38b-cd82-4a8d-881e-1ee4bc290770"},"vehicle_type_id":"4","last_reported":1722272846,"current_range_meters":5600,"station_id":"ce4bh0h2rcd13ifvqd40","pricing_plan_id":"cebpf4jnsgd1na2vs0mg"},{"bike_id":"bcaca912-58ad-489f-9cbf-c42a885a104c","system_id":"levelo_inurba_marseille","lat":43.301117,"lon":5.398795,"is_reserved":false,"is_disabled":false,"rental_uris":{"android":"levelo://app?vid=bcaca912-58ad-489f-9cbf-c42a885a104c","ios":"levelo://app?vid=bcaca912-58ad-489f-9cbf-c42a885a104c"},"vehicle_type_id":"4","last_reported":1722272846,"current_range_meters":28000,"station_id":"ce4bh0h2rcd13ifvqd40","pricing_plan_id":"cebpf4jnsgd1na2vs0mg"},{"bike_id":"59af494d-94f1-4887-8d34-4ad085958e64","system_id":"levelo_inurba_marseille","lat":43.301117,"lon":5.398795,"is_reserved":false,"is_disabled":false,"rental_uris":{"android":"levelo://app?vid=59af494d-94f1-4887-8d34-4ad085958e64","ios":"levelo://app?vid=59af494d-94f1-4887-8d34-4ad085958e64"},"vehicle_type_id":"4","last_reported":1722272846,"current_range_meters":22800,"station_id":"ce4bh0h2rcd13ifvqd40","pricing_plan_id":"cebpf4jnsgd1na2vs0mg"},{"bike_id":"b4334cc2-bf95-4c80-8b4a-b6e1a5c1909d","system_id":"levelo_inurba_marseille","lat":43.301117,"lon":5.398795,"is_reserved":false,"is_disabled":false,"rental_uris":{"android":"levelo://app?vid=b4334cc2-bf95-4c80-8b4a-b6e1a5c1909d","ios":"levelo://app?vid=b4334cc2-bf95-4c80-8b4a-b6e1a5c1909d"},"vehicle_type_id":"4","last_reported":1722272846,"current_range_meters":26400,"station_id":"ce4bh0h2rcd13ifvqd40","pricing_plan_id":"cebpf4jnsgd1na2vs0mg"},{"bike_id":"29446e97-e565-4068-9a34-2812e45860df","system_id":"levelo_inurba_marseille","lat":43.28727,"lon":5.36078,"is_reserved":false,"is_disabled":false,"rental_uris":{"android":"levelo://app?vid=29446e97-e565-4068-9a34-2812e45860df","ios":"levelo://app?vid=29446e97-e565-4068-9a34-2812e45860df"},"vehicle_type_id":"4","last_reported":1722272846,"current_range_meters":29200,"station_id":"cki0cbj6b192h4jlfktg","pricing_plan_id":"cebpf4jnsgd1na2vs0mg"},{"bike_id":"5fcb929d-71b7-4170-a640-084e9d61da03","system_id":"levelo_inurba_marseille","lat":43.301117,"lon":5.398795,"is_reserved":false,"is_disabled":false,"rental_uris":{"android":"levelo://app?vid=5fcb929d-71b7-4170-a640-084e9d61da03","ios":"levelo://app?vid=5fcb929d-71b7-4170-a640-084e9d61da03"},"vehicle_type_id":"4","last_reported":1722272846,"current_range_meters":21600,"station_id":"ce4bh0h2rcd13ifvqd40","pricing_plan_id":"cebpf4jnsgd1na2vs0mg"},{"bike_id":"c447da20-11da-4d12-8e60-085fe3665118","system_id":"levelo_inurba_marseille","lat":43.28727,"lon":5.36078,"is_reserved":false,"is_disabled":false,"rental_uris":{"android":"levelo://app?vid=c447da20-11da-4d12-8e60-085fe3665118","ios":"levelo://app?vid=c447da20-11da-4d12-8e60-085fe3665118"},"vehicle_type_id":"4","last_reported":1722272846,"current_range_meters":9200,"station_id":"cki0cbj6b192h4jlfktg","pricing_plan_id":"cebpf4jnsgd1na2vs0mg"},{"bike_id":"2d6755d0-1dc3-44b0-98b7-dee70b2c96dd","system_id":"levelo_inurba_marseille","lat":43.298681,"lon":5.397225,"is_reserved":false,"is_disabled":false,"rental_uris":{"android":"levelo://app?vid=2d6755d0-1dc3-44b0-98b7-dee70b2c96dd","ios":"levelo://app?vid=2d6755d0-1dc3-44b0-98b7-dee70b2c96dd"},"vehicle_type_id":"4","last_reported":1722272846,"current_range_meters":31600,"station_id":"ce4bh0h2rcd13ifvqd50","pricing_plan_id":"cebpf4jnsgd1na2vs0mg"},{"bike_id":"16ab5a43-7094-43d5-879a-e1f518caf8e3","system_id":"levelo_inurba_marseille","lat":43.298681,"lon":5.397225,"is_reserved":false,"is_disabled":false,"rental_uris":{"android":"levelo://app?vid=16ab5a43-7094-43d5-879a-e1f518caf8e3","ios":"levelo://app?vid=16ab5a43-7094-43d5-879a-e1f518caf8e3"},"vehicle_type_id":"4","last_reported":1722272846,"current_range_meters":21200,"station_id":"ce4bh0h2rcd13ifvqd50","pricing_plan_id":"cebpf4jnsgd1na2vs0mg"},{"bike_id":"62fcc133-4331-4242-9431-e03aaa5988c8","system_id":"levelo_inurba_marseille","lat":43.286591,"lon":5.363346,"is_reserved":false,"is_disabled":false,"rental_uris":{"android":"levelo://app?vid=62fcc133-4331-4242-9431-e03aaa5988c8","ios":"levelo://app?vid=62fcc133-4331-4242-9431-e03aaa5988c8"},"vehicle_type_id":"4","last_reported":1722272846,"current_range_meters":14400,"station_id":"ce4bhah2rcd13ifvqej0","pricing_plan_id":"cebpf4jnsgd1na2vs0mg"},{"bike_id":"fcd20e74-8a8f-4176-9240-8ad6d3a4b875","system_id":"levelo_inurba_marseille","lat":43.298681,"lon":5.397225,"is_reserved":false,"is_disabled":false,"rental_uris":{"android":"levelo://app?vid=fcd20e74-8a8f-4176-9240-8ad6d3a4b875","ios":"levelo://app?vid=fcd20e74-8a8f-4176-9240-8ad6d3a4b875"},"vehicle_type_id":"4","last_reported":1722272846,"current_range_meters":5200,"station_id":"ce4bh0h2rcd13ifvqd50","pricing_plan_id":"cebpf4jnsgd1na2vs0mg"},{"bike_id":"99d325ee-0ff7-44b2-ba10-af7a72ab59d1","system_id":"levelo_inurba_marseille","lat":43.286591,"lon":5.363346,"is_reserved":false,"is_disabled":false,"rental_uris":{"android":"levelo://app?vid=99d325ee-0ff7-44b2-ba10-af7a72ab59d1","ios":"levelo://app?vid=99d325ee-0ff7-44b2-ba10-af7a72ab59d1"},"vehicle_type_id":"4","last_reported":1722272846,"current_range_meters":19200,"station_id":"ce4bhah2rcd13ifvqej0","pricing_plan_id":"cebpf4jnsgd1na2vs0mg"},{"bike_id":"3f45d999-ac85-4b20-9531-5415ca629e29","system_id":"levelo_inurba_marseille","lat":43.286593,"lon":5.363346,"is_reserved":false,"is_disabled":false,"rental_uris":{"android":"levelo://app?vid=3f45d999-ac85-4b20-9531-5415ca629e29","ios":"levelo://app?vid=3f45d999-ac85-4b20-9531-5415ca629e29"},"vehicle_type_id":"4","last_reported":1722272846,"current_range_meters":6400,"station_id":"ce4bhah2rcd13ifvqej0","pricing_plan_id":"cebpf4jnsgd1na2vs0mg"},{"bike_id":"71ac0322-b1e9-4423-b0fc-cebada27b1f5","system_id":"levelo_inurba_marseille","lat":43.286591,"lon":5.363346,"is_reserved":false,"is_disabled":false,"rental_uris":{"android":"levelo://app?vid=71ac0322-b1e9-4423-b0fc-cebada27b1f5","ios":"levelo://app?vid=71ac0322-b1e9-4423-b0fc-cebada27b1f5"},"vehicle_type_id":"4","last_reported":1722272846,"current_range_meters":28000,"station_id":"ce4bhah2rcd13ifvqej0","pricing_plan_id":"cebpf4jnsgd1na2vs0mg"},{"bike_id":"4704abb3-ea71-43a3-8e2b-16b0d09ec32b","system_id":"levelo_inurba_marseille","lat":43.298681,"lon":5.397225,"is_reserved":false,"is_disabled":false,"rental_uris":{"android":"levelo://app?vid=4704abb3-ea71-43a3-8e2b-16b0d09ec32b","ios":"levelo://app?vid=4704abb3-ea71-43a3-8e2b-16b0d09ec32b"},"vehicle_type_id":"4","last_reported":1722272846,"current_range_meters":26800,"station_id":"ce4bh0h2rcd13ifvqd50","pricing_plan_id":"cebpf4jnsgd1na2vs0mg"},{"bike_id":"b45b9739-a072-4a32-be64-c3af85dbda4d","system_id":"levelo_inurba_marseille","lat":43.28653,"lon":5.36351,"is_reserved":false,"is_disabled":false,"rental_uris":{"android":"levelo://app?vid=b45b9739-a072-4a32-be64-c3af85dbda4d","ios":"levelo://app?vid=b45b9739-a072-4a32-be64-c3af85dbda4d"},"vehicle_type_id":"4","last_reported":1722272846,"current_range_meters":2400,"station_id":"ce4bhah2rcd13ifvqej0","pricing_plan_id":"cebpf4jnsgd1na2vs0mg"},{"bike_id":"71fa350a-3798-469b-9fe0-3c87ac5e3bfa","system_id":"levelo_inurba_marseille","lat":43.290336,"lon":5.386425,"is_reserved":false,"is_disabled":false,"rental_uris":{"android":"levelo://app?vid=71fa350a-3798-469b-9fe0-3c87ac5e3bfa","ios":"levelo://app?vid=71fa350a-3798-469b-9fe0-3c87ac5e3bfa"},"vehicle_type_id":"4","last_reported":1722272846,"current_range_meters":0,"station_id":"ce4bh4p2rcd13ifvqe0g","pricing_plan_id":"cebpf4jnsgd1na2vs0mg"},{"bike_id":"dcc9cd20-0eef-4348-945e-a40d1f0f6d81","system_id":"levelo_inurba_marseille","lat":43.2903,"lon":5.38648,"is_reserved":false,"is_disabled":false,"rental_uris":{"android":"levelo://app?vid=dcc9cd20-0eef-4348-945e-a40d1f0f6d81","ios":"levelo://app?vid=dcc9cd20-0eef-4348-945e-a40d1f0f6d81"},"vehicle_type_id":"4","last_reported":1722272846,"current_range_meters":13200,"station_id":"ce4bh4p2rcd13ifvqe0g","pricing_plan_id":"cebpf4jnsgd1na2vs0mg"},{"bike_id":"f3908e61-b8ac-4b43-90f9-eaa7c60b0247","system_id":"levelo_inurba_marseille","lat":43.29029,"lon":5.38649,"is_reserved":false,"is_disabled":false,"rental_uris":{"android":"levelo://app?vid=f3908e61-b8ac-4b43-90f9-eaa7c60b0247","ios":"levelo://app?vid=f3908e61-b8ac-4b43-90f9-eaa7c60b0247"},"vehicle_type_id":"4","last_reported":1722272846,"current_range_meters":4400,"station_id":"ce4bh4p2rcd13ifvqe0g","pricing_plan_id":"cebpf4jnsgd1na2vs0mg"},{"bike_id":"c4c581c3-672c-4404-b988-2ad32fc88660","system_id":"levelo_inurba_marseille","lat":43.302482,"lon":5.400758,"is_reserved":false,"is_disabled":false,"rental_uris":{"android":"levelo://app?vid=c4c581c3-672c-4404-b988-2ad32fc88660","ios":"levelo://app?vid=c4c581c3-672c-4404-b988-2ad32fc88660"},"vehicle_type_id":"4","last_reported":1722272846,"current_range_meters":0,"station_id":"ce4bgvh2rcd13ifvqcs0","pricing_plan_id":"cebpf4jnsgd1na2vs0mg"},{"bike_id":"6e264004-61ef-4998-9134-962bc6b70bc1","system_id":"levelo_inurba_marseille","lat":43.286039,"lon":5.370681,"is_reserved":false,"is_disabled":false,"rental_uris":{"android":"levelo://app?vid=6e264004-61ef-4998-9134-962bc6b70bc1","ios":"levelo://app?vid=6e264004-61ef-4998-9134-962bc6b70bc1"},"vehicle_type_id":"4","last_reported":1722272846,"current_range_meters":0,"station_id":"ce4bht12rcd13ifvqi60","pricing_plan_id":"cebpf4jnsgd1na2vs0mg"},{"bike_id":"d991c142-35e6-480e-a0fd-2f800d439c27","system_id":"levelo_inurba_marseille","lat":43.286039,"lon":5.370679,"is_reserved":false,"is_disabled":false,"rental_uris":{"android":"levelo://app?vid=d991c142-35e6-480e-a0fd-2f800d439c27","ios":"levelo://app?vid=d991c142-35e6-480e-a0fd-2f800d439c27"},"vehicle_type_id":"4","last_reported":1722272846,"current_range_meters":6000,"station_id":"ce4bht12rcd13ifvqi60","pricing_plan_id":"cebpf4jnsgd1na2vs0mg"},{"bike_id":"190402e3-b43b-4dc5-ab49-9d4f475def54","system_id":"levelo_inurba_marseille","lat":43.287062,"lon":5.379542,"is_reserved":false,"is_disabled":false,"rental_uris":{"android":"levelo://app?vid=190402e3-b43b-4dc5-ab49-9d4f475def54","ios":"levelo://app?vid=190402e3-b43b-4dc5-ab49-9d4f475def54"},"vehicle_type_id":"4","last_reported":1722272846,"current_range_meters":12800,"station_id":"ce4bh9p2rcd13ifvqec0","pricing_plan_id":"cebpf4jnsgd1na2vs0mg"},{"bike_id":"0d359ab2-1818-4c05-8cdc-ea4f5decc274","system_id":"levelo_inurba_marseille","lat":43.284534,"lon":5.358662,"is_reserved":false,"is_disabled":false,"rental_uris":{"android":"levelo://app?vid=0d359ab2-1818-4c05-8cdc-ea4f5decc274","ios":"levelo://app?vid=0d359ab2-1818-4c05-8cdc-ea4f5decc274"},"vehicle_type_id":"4","last_reported":1722272846,"current_range_meters":0,"station_id":"ce4bhah2rcd13ifvqei0","pricing_plan_id":"cebpf4jnsgd1na2vs0mg"},{"bike_id":"630fed74-bb8f-4ac2-9dd3-72a46a4f9727","system_id":"levelo_inurba_marseille","lat":43.284534,"lon":5.358662,"is_reserved":false,"is_disabled":false,"rental_uris":{"android":"levelo://app?vid=630fed74-bb8f-4ac2-9dd3-72a46a4f9727","ios":"levelo://app?vid=630fed74-bb8f-4ac2-9dd3-72a46a4f9727"},"vehicle_type_id":"4","last_reported":1722272846,"current_range_meters":31600,"station_id":"ce4bhah2rcd13ifvqei0","pricing_plan_id":"cebpf4jnsgd1na2vs0mg"},{"bike_id":"99b6455a-801e-49f3-91ce-36ecdc13845b","system_id":"levelo_inurba_marseille","lat":43.294314,"lon":5.397498,"is_reserved":false,"is_disabled":false,"rental_uris":{"android":"levelo://app?vid=99b6455a-801e-49f3-91ce-36ecdc13845b","ios":"levelo://app?vid=99b6455a-801e-49f3-91ce-36ecdc13845b"},"vehicle_type_id":"4","last_reported":1722272846,"current_range_meters":1200,"station_id":"ce4bh3h2rcd13ifvqdo0","pricing_plan_id":"cebpf4jnsgd1na2vs0mg"},{"bike_id":"e0e2f390-ee14-41b4-919c-4e40385edf03","system_id":"levelo_inurba_marseille","lat":43.294314,"lon":5.397498,"is_reserved":false,"is_disabled":false,"rental_uris":{"android":"levelo://app?vid=e0e2f390-ee14-41b4-919c-4e40385edf03","ios":"levelo://app?vid=e0e2f390-ee14-41b4-919c-4e40385edf03"},"vehicle_type_id":"4","last_reported":1722272846,"current_range_meters":10400,"station_id":"ce4bh3h2rcd13ifvqdo0","pricing_plan_id":"cebpf4jnsgd1na2vs0mg"},{"bike_id":"83c9633b-e3f7-4c79-93bc-e3f0508b3c31","system_id":"levelo_inurba_marseille","lat":43.294314,"lon":5.397498,"is_reserved":false,"is_disabled":false,"rental_uris":{"android":"levelo://app?vid=83c9633b-e3f7-4c79-93bc-e3f0508b3c31","ios":"levelo://app?vid=83c9633b-e3f7-4c79-93bc-e3f0508b3c31"},"vehicle_type_id":"4","last_reported":1722272846,"current_range_meters":0,"station_id":"ce4bh3h2rcd13ifvqdo0","pricing_plan_id":"cebpf4jnsgd1na2vs0mg"},{"bike_id":"87d31c23-1aca-4ad4-98db-5c0112d23824","system_id":"levelo_inurba_marseille","lat":43.294314,"lon":5.397498,"is_reserved":false,"is_disabled":false,"rental_uris":{"android":"levelo://app?vid=87d31c23-1aca-4ad4-98db-5c0112d23824","ios":"levelo://app?vid=87d31c23-1aca-4ad4-98db-5c0112d23824"},"vehicle_type_id":"4","last_reported":1722272846,"current_range_meters":0,"station_id":"ce4bh3h2rcd13ifvqdo0","pricing_plan_id":"cebpf4jnsgd1na2vs0mg"},{"bike_id":"6fcf59f1-f33c-4537-9a5a-c1d3fef04133","system_id":"levelo_inurba_marseille","lat":43.28623,"lon":5.3511,"is_reserved":false,"is_disabled":false,"rental_uris":{"android":"levelo://app?vid=6fcf59f1-f33c-4537-9a5a-c1d3fef04133","ios":"levelo://app?vid=6fcf59f1-f33c-4537-9a5a-c1d3fef04133"},"vehicle_type_id":"4","last_reported":1722272846,"current_range_meters":16800,"station_id":"ce4bhch2rcd13ifvqeug","pricing_plan_id":"cebpf4jnsgd1na2vs0mg"},{"bike_id":"2b572ee7-fbc4-4ba8-b819-b3288c331aa8","system_id":"levelo_inurba_marseille","lat":43.294314,"lon":5.397498,"is_reserved":false,"is_disabled":false,"rental_uris":{"android":"levelo://app?vid=2b572ee7-fbc4-4ba8-b819-b3288c331aa8","ios":"levelo://app?vid=2b572ee7-fbc4-4ba8-b819-b3288c331aa8"},"vehicle_type_id":"4","last_reported":1722272846,"current_range_meters":0,"station_id":"ce4bh3h2rcd13ifvqdo0","pricing_plan_id":"cebpf4jnsgd1na2vs0mg"},{"bike_id":"7f8a9953-fbd1-48fc-a6fe-50bd5378e2d7","system_id":"levelo_inurba_marseille","lat":43.28617,"lon":5.35111,"is_reserved":false,"is_disabled":false,"rental_uris":{"android":"levelo://app?vid=7f8a9953-fbd1-48fc-a6fe-50bd5378e2d7","ios":"levelo://app?vid=7f8a9953-fbd1-48fc-a6fe-50bd5378e2d7"},"vehicle_type_id":"4","last_reported":1722272846,"current_range_meters":10400,"station_id":"ce4bhch2rcd13ifvqeug","pricing_plan_id":"cebpf4jnsgd1na2vs0mg"},{"bike_id":"b9e49aad-be70-484d-b0f7-c58a3dea930e","system_id":"levelo_inurba_marseille","lat":43.28619,"lon":5.35103,"is_reserved":false,"is_disabled":false,"rental_uris":{"android":"levelo://app?vid=b9e49aad-be70-484d-b0f7-c58a3dea930e","ios":"levelo://app?vid=b9e49aad-be70-484d-b0f7-c58a3dea930e"},"vehicle_type_id":"4","last_reported":1722272846,"current_range_meters":2800,"station_id":"ce4bhch2rcd13ifvqeug","pricing_plan_id":"cebpf4jnsgd1na2vs0mg"},{"bike_id":"ef4368ab-90bc-496a-886e-1ed793607988","system_id":"levelo_inurba_marseille","lat":43.28616,"lon":5.35109,"is_reserved":false,"is_disabled":false,"rental_uris":{"android":"levelo://app?vid=ef4368ab-90bc-496a-886e-1ed793607988","ios":"levelo://app?vid=ef4368ab-90bc-496a-886e-1ed793607988"},"vehicle_type_id":"4","last_reported":1722272846,"current_range_meters":6400,"station_id":"ce4bhch2rcd13ifvqeug","pricing_plan_id":"cebpf4jnsgd1na2vs0mg"},{"bike_id":"f8574f7c-88bf-4813-bd5c-8a996a9a4d54","system_id":"levelo_inurba_marseille","lat":43.28618,"lon":5.35101,"is_reserved":false,"is_disabled":false,"rental_uris":{"android":"levelo://app?vid=f8574f7c-88bf-4813-bd5c-8a996a9a4d54","ios":"levelo://app?vid=f8574f7c-88bf-4813-bd5c-8a996a9a4d54"},"vehicle_type_id":"4","last_reported":1722272846,"current_range_meters":16400,"station_id":"ce4bhch2rcd13ifvqeug","pricing_plan_id":"cebpf4jnsgd1na2vs0mg"},{"bike_id":"daef437c-3dcf-4910-89fc-740c42afc1d9","system_id":"levelo_inurba_marseille","lat":43.28616,"lon":5.35106,"is_reserved":false,"is_disabled":false,"rental_uris":{"android":"levelo://app?vid=daef437c-3dcf-4910-89fc-740c42afc1d9","ios":"levelo://app?vid=daef437c-3dcf-4910-89fc-740c42afc1d9"},"vehicle_type_id":"4","last_reported":1722272846,"current_range_meters":11600,"station_id":"ce4bhch2rcd13ifvqeug","pricing_plan_id":"cebpf4jnsgd1na2vs0mg"},{"bike_id":"f15af144-1845-4d82-be89-1fc620b3c906","system_id":"levelo_inurba_marseille","lat":43.28616,"lon":5.35105,"is_reserved":false,"is_disabled":false,"rental_uris":{"android":"levelo://app?vid=f15af144-1845-4d82-be89-1fc620b3c906","ios":"levelo://app?vid=f15af144-1845-4d82-be89-1fc620b3c906"},"vehicle_type_id":"4","last_reported":1722272846,"current_range_meters":18000,"station_id":"ce4bhch2rcd13ifvqeug","pricing_plan_id":"cebpf4jnsgd1na2vs0mg"},{"bike_id":"957e7bd7-c168-4b5c-b1df-db2dbc4d879e","system_id":"levelo_inurba_marseille","lat":43.28618,"lon":5.35098,"is_reserved":false,"is_disabled":false,"rental_uris":{"android":"levelo://app?vid=957e7bd7-c168-4b5c-b1df-db2dbc4d879e","ios":"levelo://app?vid=957e7bd7-c168-4b5c-b1df-db2dbc4d879e"},"vehicle_type_id":"4","last_reported":1722272846,"current_range_meters":0,"station_id":"ce4bhch2rcd13ifvqeug","pricing_plan_id":"cebpf4jnsgd1na2vs0mg"},{"bike_id":"b84ff4eb-dbe9-44bc-a7fb-aa66d82c340c","system_id":"levelo_inurba_marseille","lat":43.28617,"lon":5.35101,"is_reserved":false,"is_disabled":false,"rental_uris":{"android":"levelo://app?vid=b84ff4eb-dbe9-44bc-a7fb-aa66d82c340c","ios":"levelo://app?vid=b84ff4eb-dbe9-44bc-a7fb-aa66d82c340c"},"vehicle_type_id":"4","last_reported":1722272846,"current_range_meters":11200,"station_id":"ce4bhch2rcd13ifvqeug","pricing_plan_id":"cebpf4jnsgd1na2vs0mg"},{"bike_id":"0e40599e-0868-4638-9302-cfb699be11dd","system_id":"levelo_inurba_marseille","lat":43.28617,"lon":5.35101,"is_reserved":false,"is_disabled":false,"rental_uris":{"android":"levelo://app?vid=0e40599e-0868-4638-9302-cfb699be11dd","ios":"levelo://app?vid=0e40599e-0868-4638-9302-cfb699be11dd"},"vehicle_type_id":"4","last_reported":1722272846,"current_range_meters":6400,"station_id":"ce4bhch2rcd13ifvqeug","pricing_plan_id":"cebpf4jnsgd1na2vs0mg"},{"bike_id":"87914a30-d53d-4fe2-82ee-7f43ad2a14d0","system_id":"levelo_inurba_marseille","lat":43.28616,"lon":5.35104,"is_reserved":false,"is_disabled":false,"rental_uris":{"android":"levelo://app?vid=87914a30-d53d-4fe2-82ee-7f43ad2a14d0","ios":"levelo://app?vid=87914a30-d53d-4fe2-82ee-7f43ad2a14d0"},"vehicle_type_id":"4","last_reported":1722272846,"current_range_meters":11200,"station_id":"ce4bhch2rcd13ifvqeug","pricing_plan_id":"cebpf4jnsgd1na2vs0mg"},{"bike_id":"ad61b438-868f-47eb-8e97-1b9a56eb7537","system_id":"levelo_inurba_marseille","lat":43.28616,"lon":5.35102,"is_reserved":false,"is_disabled":false,"rental_uris":{"android":"levelo://app?vid=ad61b438-868f-47eb-8e97-1b9a56eb7537","ios":"levelo://app?vid=ad61b438-868f-47eb-8e97-1b9a56eb7537"},"vehicle_type_id":"4","last_reported":1722272846,"current_range_meters":31200,"station_id":"ce4bhch2rcd13ifvqeug","pricing_plan_id":"cebpf4jnsgd1na2vs0mg"},{"bike_id":"00a28651-5005-4ac5-92e8-d36d97c4cdb2","system_id":"levelo_inurba_marseille","lat":43.285856,"lon":5.350771,"is_reserved":false,"is_disabled":false,"rental_uris":{"android":"levelo://app?vid=00a28651-5005-4ac5-92e8-d36d97c4cdb2","ios":"levelo://app?vid=00a28651-5005-4ac5-92e8-d36d97c4cdb2"},"vehicle_type_id":"4","last_reported":1722272846,"current_range_meters":17600,"station_id":"ce4bhch2rcd13ifvqeug","pricing_plan_id":"cebpf4jnsgd1na2vs0mg"},{"bike_id":"430d6b0a-4ba3-4ace-ade4-67c5514ff2b2","system_id":"levelo_inurba_marseille","lat":43.28613,"lon":5.35111,"is_reserved":false,"is_disabled":false,"rental_uris":{"android":"levelo://app?vid=430d6b0a-4ba3-4ace-ade4-67c5514ff2b2","ios":"levelo://app?vid=430d6b0a-4ba3-4ace-ade4-67c5514ff2b2"},"vehicle_type_id":"4","last_reported":1722272846,"current_range_meters":31200,"station_id":"ce4bhch2rcd13ifvqeug","pricing_plan_id":"cebpf4jnsgd1na2vs0mg"},{"bike_id":"ecfd06db-7a9b-4b5d-8b12-deca1e6c5189","system_id":"levelo_inurba_marseille","lat":43.285856,"lon":5.350771,"is_reserved":false,"is_disabled":false,"rental_uris":{"android":"levelo://app?vid=ecfd06db-7a9b-4b5d-8b12-deca1e6c5189","ios":"levelo://app?vid=ecfd06db-7a9b-4b5d-8b12-deca1e6c5189"},"vehicle_type_id":"4","last_reported":1722272846,"current_range_meters":7600,"station_id":"ce4bhch2rcd13ifvqeug","pricing_plan_id":"cebpf4jnsgd1na2vs0mg"},{"bike_id":"b097d308-482f-4f8a-898f-cc26bbb66ef7","system_id":"levelo_inurba_marseille","lat":43.28615,"lon":5.35103,"is_reserved":false,"is_disabled":false,"rental_uris":{"android":"levelo://app?vid=b097d308-482f-4f8a-898f-cc26bbb66ef7","ios":"levelo://app?vid=b097d308-482f-4f8a-898f-cc26bbb66ef7"},"vehicle_type_id":"4","last_reported":1722272846,"current_range_meters":3200,"station_id":"ce4bhch2rcd13ifvqeug","pricing_plan_id":"cebpf4jnsgd1na2vs0mg"},{"bike_id":"51872082-24a0-4622-94f2-08df6b56c329","system_id":"levelo_inurba_marseille","lat":43.28615,"lon":5.35102,"is_reserved":false,"is_disabled":false,"rental_uris":{"android":"levelo://app?vid=51872082-24a0-4622-94f2-08df6b56c329","ios":"levelo://app?vid=51872082-24a0-4622-94f2-08df6b56c329"},"vehicle_type_id":"4","last_reported":1722272846,"current_range_meters":0,"station_id":"ce4bhch2rcd13ifvqeug","pricing_plan_id":"cebpf4jnsgd1na2vs0mg"},{"bike_id":"d8096a6e-957d-4204-b4e0-ae4e6801c7b4","system_id":"levelo_inurba_marseille","lat":43.28615,"lon":5.35101,"is_reserved":false,"is_disabled":false,"rental_uris":{"android":"levelo://app?vid=d8096a6e-957d-4204-b4e0-ae4e6801c7b4","ios":"levelo://app?vid=d8096a6e-957d-4204-b4e0-ae4e6801c7b4"},"vehicle_type_id":"4","last_reported":1722272846,"current_range_meters":31200,"station_id":"ce4bhch2rcd13ifvqeug","pricing_plan_id":"cebpf4jnsgd1na2vs0mg"},{"bike_id":"5572c660-4b6a-4cb1-ab3a-b0e3ae1cc9bb","system_id":"levelo_inurba_marseille","lat":43.28615,"lon":5.351,"is_reserved":false,"is_disabled":false,"rental_uris":{"android":"levelo://app?vid=5572c660-4b6a-4cb1-ab3a-b0e3ae1cc9bb","ios":"levelo://app?vid=5572c660-4b6a-4cb1-ab3a-b0e3ae1cc9bb"},"vehicle_type_id":"4","last_reported":1722272846,"current_range_meters":22000,"station_id":"ce4bhch2rcd13ifvqeug","pricing_plan_id":"cebpf4jnsgd1na2vs0mg"},{"bike_id":"7179b9b2-0cb6-443c-9b5e-eb94388aa9e3","system_id":"levelo_inurba_marseille","lat":43.28613,"lon":5.35105,"is_reserved":false,"is_disabled":false,"rental_uris":{"android":"levelo://app?vid=7179b9b2-0cb6-443c-9b5e-eb94388aa9e3","ios":"levelo://app?vid=7179b9b2-0cb6-443c-9b5e-eb94388aa9e3"},"vehicle_type_id":"4","last_reported":1722272846,"current_range_meters":27600,"station_id":"ce4bhch2rcd13ifvqeug","pricing_plan_id":"cebpf4jnsgd1na2vs0mg"},{"bike_id":"044e7c04-ec3c-4cd6-903a-3e33b3d0bc2e","system_id":"levelo_inurba_marseille","lat":43.285856,"lon":5.350771,"is_reserved":false,"is_disabled":false,"rental_uris":{"android":"levelo://app?vid=044e7c04-ec3c-4cd6-903a-3e33b3d0bc2e","ios":"levelo://app?vid=044e7c04-ec3c-4cd6-903a-3e33b3d0bc2e"},"vehicle_type_id":"4","last_reported":1722272846,"current_range_meters":18000,"station_id":"ce4bhch2rcd13ifvqeug","pricing_plan_id":"cebpf4jnsgd1na2vs0mg"},{"bike_id":"548c2f3b-9a71-491c-859d-e578d604d6b0","system_id":"levelo_inurba_marseille","lat":43.28615,"lon":5.35097,"is_reserved":false,"is_disabled":false,"rental_uris":{"android":"levelo://app?vid=548c2f3b-9a71-491c-859d-e578d604d6b0","ios":"levelo://app?vid=548c2f3b-9a71-491c-859d-e578d604d6b0"},"vehicle_type_id":"4","last_reported":1722272846,"current_range_meters":29600,"station_id":"ce4bhch2rcd13ifvqeug","pricing_plan_id":"cebpf4jnsgd1na2vs0mg"},{"bike_id":"cd7c5792-af43-487b-bccb-bce112664a82","system_id":"levelo_inurba_marseille","lat":43.285856,"lon":5.350771,"is_reserved":false,"is_disabled":false,"rental_uris":{"android":"levelo://app?vid=cd7c5792-af43-487b-bccb-bce112664a82","ios":"levelo://app?vid=cd7c5792-af43-487b-bccb-bce112664a82"},"vehicle_type_id":"4","last_reported":1722272846,"current_range_meters":8000,"station_id":"ce4bhch2rcd13ifvqeug","pricing_plan_id":"cebpf4jnsgd1na2vs0mg"},{"bike_id":"e5677fc2-f1fe-4e9d-9b62-8c1dff5de1ca","system_id":"levelo_inurba_marseille","lat":43.28612,"lon":5.35102,"is_reserved":false,"is_disabled":false,"rental_uris":{"android":"levelo://app?vid=e5677fc2-f1fe-4e9d-9b62-8c1dff5de1ca","ios":"levelo://app?vid=e5677fc2-f1fe-4e9d-9b62-8c1dff5de1ca"},"vehicle_type_id":"4","last_reported":1722272846,"current_range_meters":12000,"station_id":"ce4bhch2rcd13ifvqeug","pricing_plan_id":"cebpf4jnsgd1na2vs0mg"},{"bike_id":"575be719-bf98-4c46-b35c-a45833433af5","system_id":"levelo_inurba_marseille","lat":43.285856,"lon":5.350771,"is_reserved":false,"is_disabled":false,"rental_uris":{"android":"levelo://app?vid=575be719-bf98-4c46-b35c-a45833433af5","ios":"levelo://app?vid=575be719-bf98-4c46-b35c-a45833433af5"},"vehicle_type_id":"4","last_reported":1722272846,"current_range_meters":3200,"station_id":"ce4bhch2rcd13ifvqeug","pricing_plan_id":"cebpf4jnsgd1na2vs0mg"},{"bike_id":"b0965b43-3e25-42f4-b9a0-74dc3030fa36","system_id":"levelo_inurba_marseille","lat":43.283998,"lon":5.375062,"is_reserved":false,"is_disabled":false,"rental_uris":{"android":"levelo://app?vid=b0965b43-3e25-42f4-b9a0-74dc3030fa36","ios":"levelo://app?vid=b0965b43-3e25-42f4-b9a0-74dc3030fa36"},"vehicle_type_id":"4","last_reported":1722272846,"current_range_meters":14400,"station_id":"ce4bh412rcd13ifvqds0","pricing_plan_id":"cebpf4jnsgd1na2vs0mg"},{"bike_id":"7dc20b5c-3717-4a4c-b886-98e15b4d9d91","system_id":"levelo_inurba_marseille","lat":43.283998,"lon":5.375062,"is_reserved":false,"is_disabled":false,"rental_uris":{"android":"levelo://app?vid=7dc20b5c-3717-4a4c-b886-98e15b4d9d91","ios":"levelo://app?vid=7dc20b5c-3717-4a4c-b886-98e15b4d9d91"},"vehicle_type_id":"4","last_reported":1722272846,"current_range_meters":0,"station_id":"ce4bh412rcd13ifvqds0","pricing_plan_id":"cebpf4jnsgd1na2vs0mg"},{"bike_id":"8a7f54a0-cd86-416e-81e8-500359c1d769","system_id":"levelo_inurba_marseille","lat":43.299516,"lon":5.402824,"is_reserved":false,"is_disabled":false,"rental_uris":{"android":"levelo://app?vid=8a7f54a0-cd86-416e-81e8-500359c1d769","ios":"levelo://app?vid=8a7f54a0-cd86-416e-81e8-500359c1d769"},"vehicle_type_id":"4","last_reported":1722272846,"current_range_meters":30800,"station_id":"","pricing_plan_id":"cebpf4jnsgd1na2vs0mg"},{"bike_id":"345a88e7-5c27-4d27-9277-0614c056dbc7","system_id":"levelo_inurba_marseille","lat":43.29959,"lon":5.40288,"is_reserved":false,"is_disabled":false,"rental_uris":{"android":"levelo://app?vid=345a88e7-5c27-4d27-9277-0614c056dbc7","ios":"levelo://app?vid=345a88e7-5c27-4d27-9277-0614c056dbc7"},"vehicle_type_id":"4","last_reported":1722272846,"current_range_meters":25600,"station_id":"","pricing_plan_id":"cebpf4jnsgd1na2vs0mg"},{"bike_id":"968bf180-b7e1-412e-8fe6-112b0b39b579","system_id":"levelo_inurba_marseille","lat":43.283998,"lon":5.375062,"is_reserved":false,"is_disabled":false,"rental_uris":{"android":"levelo://app?vid=968bf180-b7e1-412e-8fe6-112b0b39b579","ios":"levelo://app?vid=968bf180-b7e1-412e-8fe6-112b0b39b579"},"vehicle_type_id":"4","last_reported":1722272846,"current_range_meters":9200,"station_id":"ce4bh412rcd13ifvqds0","pricing_plan_id":"cebpf4jnsgd1na2vs0mg"},{"bike_id":"65ced017-f17e-454c-bb87-38a1948265cc","system_id":"levelo_inurba_marseille","lat":43.284038,"lon":5.375164,"is_reserved":false,"is_disabled":false,"rental_uris":{"android":"levelo://app?vid=65ced017-f17e-454c-bb87-38a1948265cc","ios":"levelo://app?vid=65ced017-f17e-454c-bb87-38a1948265cc"},"vehicle_type_id":"4","last_reported":1722272846,"current_range_meters":0,"station_id":"ce4bh412rcd13ifvqds0","pricing_plan_id":"cebpf4jnsgd1na2vs0mg"},{"bike_id":"8374c320-97fc-492d-a959-61b6bdfe9f86","system_id":"levelo_inurba_marseille","lat":43.295713,"lon":5.399639,"is_reserved":false,"is_disabled":false,"rental_uris":{"android":"levelo://app?vid=8374c320-97fc-492d-a959-61b6bdfe9f86","ios":"levelo://app?vid=8374c320-97fc-492d-a959-61b6bdfe9f86"},"vehicle_type_id":"4","last_reported":1722272846,"current_range_meters":1200,"station_id":"ce4bh312rcd13ifvqdj0","pricing_plan_id":"cebpf4jnsgd1na2vs0mg"},{"bike_id":"d3b1f28f-ea9a-4dce-87eb-4b3ba8b25917","system_id":"levelo_inurba_marseille","lat":43.299457,"lon":5.403016,"is_reserved":false,"is_disabled":false,"rental_uris":{"android":"levelo://app?vid=d3b1f28f-ea9a-4dce-87eb-4b3ba8b25917","ios":"levelo://app?vid=d3b1f28f-ea9a-4dce-87eb-4b3ba8b25917"},"vehicle_type_id":"4","last_reported":1722272846,"current_range_meters":30800,"station_id":"","pricing_plan_id":"cebpf4jnsgd1na2vs0mg"},{"bike_id":"7bbe1875-6dc4-422f-8b38-a5aa9ef6fd9b","system_id":"levelo_inurba_marseille","lat":43.286595,"lon":5.386795,"is_reserved":false,"is_disabled":false,"rental_uris":{"android":"levelo://app?vid=7bbe1875-6dc4-422f-8b38-a5aa9ef6fd9b","ios":"levelo://app?vid=7bbe1875-6dc4-422f-8b38-a5aa9ef6fd9b"},"vehicle_type_id":"4","last_reported":1722272846,"current_range_meters":0,"station_id":"ce4bh492rcd13ifvqdug","pricing_plan_id":"cebpf4jnsgd1na2vs0mg"},{"bike_id":"d2ea62a3-3936-46bb-a835-fec226b7b268","system_id":"levelo_inurba_marseille","lat":43.286595,"lon":5.386795,"is_reserved":false,"is_disabled":false,"rental_uris":{"android":"levelo://app?vid=d2ea62a3-3936-46bb-a835-fec226b7b268","ios":"levelo://app?vid=d2ea62a3-3936-46bb-a835-fec226b7b268"},"vehicle_type_id":"4","last_reported":1722272846,"current_range_meters":0,"station_id":"ce4bh492rcd13ifvqdug","pricing_plan_id":"cebpf4jnsgd1na2vs0mg"},{"bike_id":"5bdd6bc8-bfc1-4691-8352-1c25377f724c","system_id":"levelo_inurba_marseille","lat":43.323464,"lon":5.406297,"is_reserved":false,"is_disabled":false,"rental_uris":{"android":"levelo://app?vid=5bdd6bc8-bfc1-4691-8352-1c25377f724c","ios":"levelo://app?vid=5bdd6bc8-bfc1-4691-8352-1c25377f724c"},"vehicle_type_id":"4","last_reported":1722272846,"current_range_meters":29200,"station_id":"ce4bhq92rcd13ifvqhjg","pricing_plan_id":"cebpf4jnsgd1na2vs0mg"},{"bike_id":"989d4b67-4226-4b56-8887-2898a965f775","system_id":"levelo_inurba_marseille","lat":43.284748,"lon":5.38403,"is_reserved":false,"is_disabled":false,"rental_uris":{"android":"levelo://app?vid=989d4b67-4226-4b56-8887-2898a965f775","ios":"levelo://app?vid=989d4b67-4226-4b56-8887-2898a965f775"},"vehicle_type_id":"4","last_reported":1722272846,"current_range_meters":0,"station_id":"ce4bh512rcd13ifvqe3g","pricing_plan_id":"cebpf4jnsgd1na2vs0mg"},{"bike_id":"68a15570-7fff-4903-a3d9-230e3040cb56","system_id":"levelo_inurba_marseille","lat":43.288497,"lon":5.393089,"is_reserved":false,"is_disabled":false,"rental_uris":{"android":"levelo://app?vid=68a15570-7fff-4903-a3d9-230e3040cb56","ios":"levelo://app?vid=68a15570-7fff-4903-a3d9-230e3040cb56"},"vehicle_type_id":"4","last_reported":1722272846,"current_range_meters":26000,"station_id":"ce4bh2p2rcd13ifvqdi0","pricing_plan_id":"cebpf4jnsgd1na2vs0mg"},{"bike_id":"5f6273ff-5d6d-41f5-8287-7eb4bc20d62a","system_id":"levelo_inurba_marseille","lat":43.284776,"lon":5.385603,"is_reserved":false,"is_disabled":false,"rental_uris":{"android":"levelo://app?vid=5f6273ff-5d6d-41f5-8287-7eb4bc20d62a","ios":"levelo://app?vid=5f6273ff-5d6d-41f5-8287-7eb4bc20d62a"},"vehicle_type_id":"4","last_reported":1722272846,"current_range_meters":0,"station_id":"ce4bh8p2rcd13ifvqeb0","pricing_plan_id":"cebpf4jnsgd1na2vs0mg"},{"bike_id":"6c1c89cc-fb91-4a89-b006-a12032a5ff4e","system_id":"levelo_inurba_marseille","lat":43.284776,"lon":5.385603,"is_reserved":false,"is_disabled":false,"rental_uris":{"android":"levelo://app?vid=6c1c89cc-fb91-4a89-b006-a12032a5ff4e","ios":"levelo://app?vid=6c1c89cc-fb91-4a89-b006-a12032a5ff4e"},"vehicle_type_id":"4","last_reported":1722272846,"current_range_meters":13200,"station_id":"ce4bh8p2rcd13ifvqeb0","pricing_plan_id":"cebpf4jnsgd1na2vs0mg"},{"bike_id":"4149f0b1-f9d5-40f4-89f6-a073e185742f","system_id":"levelo_inurba_marseille","lat":43.284776,"lon":5.385603,"is_reserved":false,"is_disabled":false,"rental_uris":{"android":"levelo://app?vid=4149f0b1-f9d5-40f4-89f6-a073e185742f","ios":"levelo://app?vid=4149f0b1-f9d5-40f4-89f6-a073e185742f"},"vehicle_type_id":"4","last_reported":1722272846,"current_range_meters":21600,"station_id":"ce4bh8p2rcd13ifvqeb0","pricing_plan_id":"cebpf4jnsgd1na2vs0mg"},{"bike_id":"f967c808-67f3-4f6e-be8a-31755fadb167","system_id":"levelo_inurba_marseille","lat":43.283494,"lon":5.380945,"is_reserved":false,"is_disabled":false,"rental_uris":{"android":"levelo://app?vid=f967c808-67f3-4f6e-be8a-31755fadb167","ios":"levelo://app?vid=f967c808-67f3-4f6e-be8a-31755fadb167"},"vehicle_type_id":"4","last_reported":1722272846,"current_range_meters":0,"station_id":"ce4bh412rcd13ifvqdr0","pricing_plan_id":"cebpf4jnsgd1na2vs0mg"},{"bike_id":"d934f28a-2882-4d0c-8c62-e4a6e321d5f6","system_id":"levelo_inurba_marseille","lat":43.284832,"lon":5.385578,"is_reserved":false,"is_disabled":false,"rental_uris":{"android":"levelo://app?vid=d934f28a-2882-4d0c-8c62-e4a6e321d5f6","ios":"levelo://app?vid=d934f28a-2882-4d0c-8c62-e4a6e321d5f6"},"vehicle_type_id":"4","last_reported":1722272846,"current_range_meters":22800,"station_id":"","pricing_plan_id":"cebpf4jnsgd1na2vs0mg"},{"bike_id":"f1ba9bef-a52c-47b4-98c6-d73003ca995c","system_id":"levelo_inurba_marseille","lat":43.284214,"lon":5.349706,"is_reserved":false,"is_disabled":false,"rental_uris":{"android":"levelo://app?vid=f1ba9bef-a52c-47b4-98c6-d73003ca995c","ios":"levelo://app?vid=f1ba9bef-a52c-47b4-98c6-d73003ca995c"},"vehicle_type_id":"4","last_reported":1722272846,"current_range_meters":16800,"station_id":"ce4bhbh2rcd13ifvqepg","pricing_plan_id":"cebpf4jnsgd1na2vs0mg"},{"bike_id":"71b7da71-4d63-4c18-a73f-9a42940d4562","system_id":"levelo_inurba_marseille","lat":43.284219,"lon":5.3497,"is_reserved":false,"is_disabled":false,"rental_uris":{"android":"levelo://app?vid=71b7da71-4d63-4c18-a73f-9a42940d4562","ios":"levelo://app?vid=71b7da71-4d63-4c18-a73f-9a42940d4562"},"vehicle_type_id":"4","last_reported":1722272846,"current_range_meters":28000,"station_id":"ce4bhbh2rcd13ifvqepg","pricing_plan_id":"cebpf4jnsgd1na2vs0mg"},{"bike_id":"33cf43be-6e98-4c55-9581-c71b0ee2c13b","system_id":"levelo_inurba_marseille","lat":43.284214,"lon":5.349706,"is_reserved":false,"is_disabled":false,"rental_uris":{"android":"levelo://app?vid=33cf43be-6e98-4c55-9581-c71b0ee2c13b","ios":"levelo://app?vid=33cf43be-6e98-4c55-9581-c71b0ee2c13b"},"vehicle_type_id":"4","last_reported":1722272846,"current_range_meters":24000,"station_id":"ce4bhbh2rcd13ifvqepg","pricing_plan_id":"cebpf4jnsgd1na2vs0mg"},{"bike_id":"deafbe4b-6d03-428a-8a30-ca652a59659f","system_id":"levelo_inurba_marseille","lat":43.284219,"lon":5.3497,"is_reserved":false,"is_disabled":false,"rental_uris":{"android":"levelo://app?vid=deafbe4b-6d03-428a-8a30-ca652a59659f","ios":"levelo://app?vid=deafbe4b-6d03-428a-8a30-ca652a59659f"},"vehicle_type_id":"4","last_reported":1722272846,"current_range_meters":28400,"station_id":"ce4bhbh2rcd13ifvqepg","pricing_plan_id":"cebpf4jnsgd1na2vs0mg"},{"bike_id":"63fc4204-6f97-432a-8507-5d6b67219426","system_id":"levelo_inurba_marseille","lat":43.28422,"lon":5.34997,"is_reserved":false,"is_disabled":false,"rental_uris":{"android":"levelo://app?vid=63fc4204-6f97-432a-8507-5d6b67219426","ios":"levelo://app?vid=63fc4204-6f97-432a-8507-5d6b67219426"},"vehicle_type_id":"4","last_reported":1722272846,"current_range_meters":0,"station_id":"ce4bhbh2rcd13ifvqepg","pricing_plan_id":"cebpf4jnsgd1na2vs0mg"},{"bike_id":"4186ebe8-94d2-4f8f-bd3b-4178a291e493","system_id":"levelo_inurba_marseille","lat":43.284219,"lon":5.3497,"is_reserved":false,"is_disabled":false,"rental_uris":{"android":"levelo://app?vid=4186ebe8-94d2-4f8f-bd3b-4178a291e493","ios":"levelo://app?vid=4186ebe8-94d2-4f8f-bd3b-4178a291e493"},"vehicle_type_id":"4","last_reported":1722272846,"current_range_meters":31600,"station_id":"ce4bhbh2rcd13ifvqepg","pricing_plan_id":"cebpf4jnsgd1na2vs0mg"},{"bike_id":"0d67de3f-a69a-4647-983a-e22a30d24006","system_id":"levelo_inurba_marseille","lat":43.284214,"lon":5.349706,"is_reserved":false,"is_disabled":false,"rental_uris":{"android":"levelo://app?vid=0d67de3f-a69a-4647-983a-e22a30d24006","ios":"levelo://app?vid=0d67de3f-a69a-4647-983a-e22a30d24006"},"vehicle_type_id":"4","last_reported":1722272846,"current_range_meters":23200,"station_id":"ce4bhbh2rcd13ifvqepg","pricing_plan_id":"cebpf4jnsgd1na2vs0mg"},{"bike_id":"80fd520d-2c23-43c9-b89e-12a1910f7972","system_id":"levelo_inurba_marseille","lat":43.284201,"lon":5.34994,"is_reserved":false,"is_disabled":false,"rental_uris":{"android":"levelo://app?vid=80fd520d-2c23-43c9-b89e-12a1910f7972","ios":"levelo://app?vid=80fd520d-2c23-43c9-b89e-12a1910f7972"},"vehicle_type_id":"4","last_reported":1722272846,"current_range_meters":26400,"station_id":"ce4bhbh2rcd13ifvqepg","pricing_plan_id":"cebpf4jnsgd1na2vs0mg"},{"bike_id":"3b6af82b-01eb-4948-b863-b711a77ee06a","system_id":"levelo_inurba_marseille","lat":43.28423,"lon":5.34984,"is_reserved":false,"is_disabled":false,"rental_uris":{"android":"levelo://app?vid=3b6af82b-01eb-4948-b863-b711a77ee06a","ios":"levelo://app?vid=3b6af82b-01eb-4948-b863-b711a77ee06a"},"vehicle_type_id":"4","last_reported":1722272846,"current_range_meters":16400,"station_id":"ce4bhbh2rcd13ifvqepg","pricing_plan_id":"cebpf4jnsgd1na2vs0mg"},{"bike_id":"657c2aa6-b3db-4aac-a8f6-4a2885e220e6","system_id":"levelo_inurba_marseille","lat":43.284219,"lon":5.3497,"is_reserved":false,"is_disabled":false,"rental_uris":{"android":"levelo://app?vid=657c2aa6-b3db-4aac-a8f6-4a2885e220e6","ios":"levelo://app?vid=657c2aa6-b3db-4aac-a8f6-4a2885e220e6"},"vehicle_type_id":"4","last_reported":1722272846,"current_range_meters":26000,"station_id":"ce4bhbh2rcd13ifvqepg","pricing_plan_id":"cebpf4jnsgd1na2vs0mg"},{"bike_id":"d39145d6-18c0-4ae1-a0aa-c5cc94c4c3c3","system_id":"levelo_inurba_marseille","lat":43.284257,"lon":5.349743,"is_reserved":false,"is_disabled":false,"rental_uris":{"android":"levelo://app?vid=d39145d6-18c0-4ae1-a0aa-c5cc94c4c3c3","ios":"levelo://app?vid=d39145d6-18c0-4ae1-a0aa-c5cc94c4c3c3"},"vehicle_type_id":"4","last_reported":1722272846,"current_range_meters":15600,"station_id":"ce4bhbh2rcd13ifvqepg","pricing_plan_id":"cebpf4jnsgd1na2vs0mg"},{"bike_id":"e8c6b70a-b634-4a8d-b990-4301c8c65680","system_id":"levelo_inurba_marseille","lat":43.284219,"lon":5.3497,"is_reserved":false,"is_disabled":false,"rental_uris":{"android":"levelo://app?vid=e8c6b70a-b634-4a8d-b990-4301c8c65680","ios":"levelo://app?vid=e8c6b70a-b634-4a8d-b990-4301c8c65680"},"vehicle_type_id":"4","last_reported":1722272846,"current_range_meters":30400,"station_id":"ce4bhbh2rcd13ifvqepg","pricing_plan_id":"cebpf4jnsgd1na2vs0mg"},{"bike_id":"0ca8ff0f-997a-4e23-a6cd-8b9b271396c8","system_id":"levelo_inurba_marseille","lat":43.28424,"lon":5.34978,"is_reserved":false,"is_disabled":false,"rental_uris":{"android":"levelo://app?vid=0ca8ff0f-997a-4e23-a6cd-8b9b271396c8","ios":"levelo://app?vid=0ca8ff0f-997a-4e23-a6cd-8b9b271396c8"},"vehicle_type_id":"4","last_reported":1722272846,"current_range_meters":14400,"station_id":"ce4bhbh2rcd13ifvqepg","pricing_plan_id":"cebpf4jnsgd1na2vs0mg"},{"bike_id":"63fb993d-33a5-4314-bb3d-fc0d2e0a9272","system_id":"levelo_inurba_marseille","lat":43.284214,"lon":5.349706,"is_reserved":false,"is_disabled":false,"rental_uris":{"android":"levelo://app?vid=63fb993d-33a5-4314-bb3d-fc0d2e0a9272","ios":"levelo://app?vid=63fb993d-33a5-4314-bb3d-fc0d2e0a9272"},"vehicle_type_id":"4","last_reported":1722272846,"current_range_meters":30800,"station_id":"ce4bhbh2rcd13ifvqepg","pricing_plan_id":"cebpf4jnsgd1na2vs0mg"},{"bike_id":"6c6cc2ec-9f7b-4c04-ab93-95333e938f6a","system_id":"levelo_inurba_marseille","lat":43.284219,"lon":5.3497,"is_reserved":false,"is_disabled":false,"rental_uris":{"android":"levelo://app?vid=6c6cc2ec-9f7b-4c04-ab93-95333e938f6a","ios":"levelo://app?vid=6c6cc2ec-9f7b-4c04-ab93-95333e938f6a"},"vehicle_type_id":"4","last_reported":1722272846,"current_range_meters":23600,"station_id":"ce4bhbh2rcd13ifvqepg","pricing_plan_id":"cebpf4jnsgd1na2vs0mg"},{"bike_id":"f1eb3aa1-f247-4195-b86f-456160c5dab9","system_id":"levelo_inurba_marseille","lat":43.284219,"lon":5.3497,"is_reserved":false,"is_disabled":false,"rental_uris":{"android":"levelo://app?vid=f1eb3aa1-f247-4195-b86f-456160c5dab9","ios":"levelo://app?vid=f1eb3aa1-f247-4195-b86f-456160c5dab9"},"vehicle_type_id":"4","last_reported":1722272846,"current_range_meters":5200,"station_id":"ce4bhbh2rcd13ifvqepg","pricing_plan_id":"cebpf4jnsgd1na2vs0mg"},{"bike_id":"da796497-2529-4297-9ba6-4cea47bb6cb2","system_id":"levelo_inurba_marseille","lat":43.28422,"lon":5.34981,"is_reserved":false,"is_disabled":false,"rental_uris":{"android":"levelo://app?vid=da796497-2529-4297-9ba6-4cea47bb6cb2","ios":"levelo://app?vid=da796497-2529-4297-9ba6-4cea47bb6cb2"},"vehicle_type_id":"4","last_reported":1722272846,"current_range_meters":18000,"station_id":"ce4bhbh2rcd13ifvqepg","pricing_plan_id":"cebpf4jnsgd1na2vs0mg"},{"bike_id":"6af722e1-a2ea-45d0-a706-43ebc110982a","system_id":"levelo_inurba_marseille","lat":43.284219,"lon":5.3497,"is_reserved":false,"is_disabled":false,"rental_uris":{"android":"levelo://app?vid=6af722e1-a2ea-45d0-a706-43ebc110982a","ios":"levelo://app?vid=6af722e1-a2ea-45d0-a706-43ebc110982a"},"vehicle_type_id":"4","last_reported":1722272846,"current_range_meters":16400,"station_id":"ce4bhbh2rcd13ifvqepg","pricing_plan_id":"cebpf4jnsgd1na2vs0mg"},{"bike_id":"9c928de9-5fa2-4e16-ba4f-270d34f819a0","system_id":"levelo_inurba_marseille","lat":43.284187,"lon":5.349905,"is_reserved":false,"is_disabled":false,"rental_uris":{"android":"levelo://app?vid=9c928de9-5fa2-4e16-ba4f-270d34f819a0","ios":"levelo://app?vid=9c928de9-5fa2-4e16-ba4f-270d34f819a0"},"vehicle_type_id":"4","last_reported":1722272846,"current_range_meters":20400,"station_id":"ce4bhbh2rcd13ifvqepg","pricing_plan_id":"cebpf4jnsgd1na2vs0mg"},{"bike_id":"d146cca2-7f7c-418e-b96d-d81286d46067","system_id":"levelo_inurba_marseille","lat":43.28423,"lon":5.34976,"is_reserved":false,"is_disabled":false,"rental_uris":{"android":"levelo://app?vid=d146cca2-7f7c-418e-b96d-d81286d46067","ios":"levelo://app?vid=d146cca2-7f7c-418e-b96d-d81286d46067"},"vehicle_type_id":"4","last_reported":1722272846,"current_range_meters":30800,"station_id":"ce4bhbh2rcd13ifvqepg","pricing_plan_id":"cebpf4jnsgd1na2vs0mg"},{"bike_id":"6aa01dde-8457-4051-939e-029e415d098c","system_id":"levelo_inurba_marseille","lat":43.284219,"lon":5.3497,"is_reserved":false,"is_disabled":false,"rental_uris":{"android":"levelo://app?vid=6aa01dde-8457-4051-939e-029e415d098c","ios":"levelo://app?vid=6aa01dde-8457-4051-939e-029e415d098c"},"vehicle_type_id":"4","last_reported":1722272846,"current_range_meters":30000,"station_id":"ce4bhbh2rcd13ifvqepg","pricing_plan_id":"cebpf4jnsgd1na2vs0mg"},{"bike_id":"3a7776dd-9403-4c2c-a72d-c0a2129beca3","system_id":"levelo_inurba_marseille","lat":43.284217,"lon":5.349783,"is_reserved":false,"is_disabled":false,"rental_uris":{"android":"levelo://app?vid=3a7776dd-9403-4c2c-a72d-c0a2129beca3","ios":"levelo://app?vid=3a7776dd-9403-4c2c-a72d-c0a2129beca3"},"vehicle_type_id":"4","last_reported":1722272846,"current_range_meters":10800,"station_id":"ce4bhbh2rcd13ifvqepg","pricing_plan_id":"cebpf4jnsgd1na2vs0mg"},{"bike_id":"e886d12b-543b-42ac-9b7b-302fde4ce781","system_id":"levelo_inurba_marseille","lat":43.284219,"lon":5.3497,"is_reserved":false,"is_disabled":false,"rental_uris":{"android":"levelo://app?vid=e886d12b-543b-42ac-9b7b-302fde4ce781","ios":"levelo://app?vid=e886d12b-543b-42ac-9b7b-302fde4ce781"},"vehicle_type_id":"4","last_reported":1722272846,"current_range_meters":13200,"station_id":"ce4bhbh2rcd13ifvqepg","pricing_plan_id":"cebpf4jnsgd1na2vs0mg"},{"bike_id":"562a55a7-1073-4f3a-ac10-e17263c030a1","system_id":"levelo_inurba_marseille","lat":43.28418,"lon":5.349895,"is_reserved":false,"is_disabled":false,"rental_uris":{"android":"levelo://app?vid=562a55a7-1073-4f3a-ac10-e17263c030a1","ios":"levelo://app?vid=562a55a7-1073-4f3a-ac10-e17263c030a1"},"vehicle_type_id":"4","last_reported":1722272846,"current_range_meters":29600,"station_id":"ce4bhbh2rcd13ifvqepg","pricing_plan_id":"cebpf4jnsgd1na2vs0mg"},{"bike_id":"7d74d4e5-9527-4ff0-99e2-67f63578e1ed","system_id":"levelo_inurba_marseille","lat":43.284163,"lon":5.349926,"is_reserved":false,"is_disabled":false,"rental_uris":{"android":"levelo://app?vid=7d74d4e5-9527-4ff0-99e2-67f63578e1ed","ios":"levelo://app?vid=7d74d4e5-9527-4ff0-99e2-67f63578e1ed"},"vehicle_type_id":"4","last_reported":1722272846,"current_range_meters":21600,"station_id":"ce4bhbh2rcd13ifvqepg","pricing_plan_id":"cebpf4jnsgd1na2vs0mg"},{"bike_id":"92aa3738-bce2-40e3-9a75-e0b34bcc76a0","system_id":"levelo_inurba_marseille","lat":43.284217,"lon":5.349697,"is_reserved":false,"is_disabled":false,"rental_uris":{"android":"levelo://app?vid=92aa3738-bce2-40e3-9a75-e0b34bcc76a0","ios":"levelo://app?vid=92aa3738-bce2-40e3-9a75-e0b34bcc76a0"},"vehicle_type_id":"4","last_reported":1722272846,"current_range_meters":31600,"station_id":"ce4bhbh2rcd13ifvqepg","pricing_plan_id":"cebpf4jnsgd1na2vs0mg"},