{"last_updated":1752154064,"ttl":60,"version":"2.2","data":{"bikes":[{"bike_id":"cd20cfea-2f2f-444d-a882-a49b6cf370eb","system_id":"levelo_inurba_marseille","lat":43.337444,"lon":5.374475,"is_reserved":false,"is_disabled":true,"rental_uris":{"android":"levelo://app?vid=cd20cfea-2f2f-444d-a882-a49b6cf370eb","ios":"levelo://app?vid=cd20cfea-2f2f-444d-a882-a49b6cf370eb"},"vehicle_type_id":"4","last_reported":1752154064,"current_range_meters":0,"station_id":"","pricing_plan_id":"cebpf4jnsgd1na2vs0mg"},{"bike_id":"3da29fb8-fc97-44c6-b9ac-31dd456b2fd4","system_id":"levelo_inurba_marseille","lat":43.33771,"lon":5.37424,"is_reserved":false,"is_disabled":true,"rental_uris":{"android":"levelo://app?vid=3da29fb8-fc97-44c6-b9ac-31dd456b2fd4","ios":"levelo://app?vid=3da29fb8-fc97-44c6-b9ac-31dd456b2fd4"},"vehicle_type_id":"4","last_reported":1752154064,"current_range_meters":0,"station_id":"","pricing_plan_id":"cebpf4jnsgd1na2vs0mg"},{"bike_id":"01861ad8-a8d7-4be6-816e-651927c87584","system_id":"levelo_inurba_marseille","lat":43.33751,"lon":5.37456,"is_reserved":false,"is_disabled":true,"rental_uris":{"android":"levelo://app?vid=01861ad8-a8d7-4be6-816e-651927c87584","ios":"levelo://app?vid=01861ad8-a8d7-4be6-816e-651927c87584"},"vehicle_type_id":"4","last_reported":1752154064,"current_range_meters":0,"station_id":"","pricing_plan_id":"cebpf4jnsgd1na2vs0mg"},{"bike_id":"24cb9089-93ac-4b36-9d4e-b77f1a42140d","system_id":"levelo_inurba_marseille","lat":43.31339,"lon":5.36781,"is_reserved":false,"is_disabled":true,"rental_uris":{"android":"levelo://app?vid=24cb9089-93ac-4b36-9d4e-b77f1a42140d","ios":"levelo://app?vid=24cb9089-93ac-4b36-9d4e-b77f1a42140d"},"vehicle_type_id":"4","last_reported":1752154064,"current_range_meters":0,"station_id":"","pricing_plan_id":"cebpf4jnsgd1na2vs0mg"},{"bike_id":"37f2becd-23f9-4f13-a711-38b8024eeec7","system_id":"levelo_inurba_marseille","lat":43.33768,"lon":5.37516,"is_reserved":false,"is_disabled":true,"rental_uris":{"android":"levelo://app?vid=37f2becd-23f9-4f13-a711-38b8024eeec7","ios":"levelo://app?vid=37f2becd-23f9-4f13-a711-38b8024eeec7"},"vehicle_type_id":"4","last_reported":1752154064,"current_range_meters":0,"station_id":"","pricing_plan_id":"cebpf4jnsgd1na2vs0mg"},{"bike_id":"b8fcd1b8-e383-4c4c-a466-f8393a965939","system_id":"levelo_inurba_marseille","lat":43.21759,"lon":5.34597,"is_reserved":false,"is_disabled":true,"rental_uris":{"android":"levelo://app?vid=b8fcd1b8-e383-4c4c-a466-f8393a965939","ios":"levelo://app?vid=b8fcd1b8-e383-4c4c-a466-f8393a965939"},"vehicle_type_id":"4","last_reported":1752154064,"current_range_meters":0,"station_id":"","pricing_plan_id":"cebpf4jnsgd1na2vs0mg"},{"bike_id":"53b1a31e-8ada-40c0-8d64-113a81233c84","system_id":"levelo_inurba_marseille","lat":43.36391,"lon":5.31933,"is_reserved":false,"is_disabled":true,"rental_uris":{"android":"levelo://app?vid=53b1a31e-8ada-40c0-8d64-113a81233c84","ios":"levelo://app?vid=53b1a31e-8ada-40c0-8d64-113a81233c84"},"vehicle_type_id":"4","last_reported":1752154064,"current_range_meters":0,"station_id":"","pricing_plan_id":"cebpf4jnsgd1na2vs0mg"},{"bike_id":"db841109-9b56-4777-86e2-06fbf4ef1649","system_id":"levelo_inurba_marseille","lat":43.311224,"lon":5.397286,"is_reserved":false,"is_disabled":true,"rental_uris":{"android":"levelo://app?vid=db841109-9b56-4777-86e2-06fbf4ef1649","ios":"levelo://app?vid=db841109-9b56-4777-86e2-06fbf4ef1649"},"vehicle_type_id":"4","last_reported":1752154064,"current_range_meters":0,"station_id":"","pricing_plan_id":"cebpf4jnsgd1na2vs0mg"},{"bike_id":"66c5cbeb-ea3c-4c1c-a42f-c457fcb2d3f9","system_id":"levelo_inurba_marseille","lat":43.30589,"lon":5.3936,"is_reserved":false,"is_disabled":true,"rental_uris":{"android":"levelo://app?vid=66c5cbeb-ea3c-4c1c-a42f-c457fcb2d3f9","ios":"levelo://app?vid=66c5cbeb-ea3c-4c1c-a42f-c457fcb2d3f9"},"vehicle_type_id":"4","last_reported":1752154064,"current_range_meters":0,"station_id":"ce4bh0p2rcd13ifvqd80","pricing_plan_id":"cebpf4jnsgd1na2vs0mg"},{"bike_id":"d0afdcac-61f9-451b-b809-cdf62d609c75","system_id":"levelo_inurba_marseille","lat":43.295517,"lon":5.422771,"is_reserved":false,"is_disabled":true,"rental_uris":{"android":"levelo://app?vid=d0afdcac-61f9-451b-b809-cdf62d609c75","ios":"levelo://app?vid=d0afdcac-61f9-451b-b809-cdf62d609c75"},"vehicle_type_id":"4","last_reported":1752154064,"current_range_meters":0,"station_id":"ce4bhph2rcd13ifvqhdg","pricing_plan_id":"cebpf4jnsgd1na2vs0mg"},{"bike_id":"1ea07c30-7637-4836-8280-b70950b610b5","system_id":"levelo_inurba_marseille","lat":43.225037,"lon":5.347858,"is_reserved":false,"is_disabled":true,"rental_uris":{"android":"levelo://app?vid=1ea07c30-7637-4836-8280-b70950b610b5","ios":"levelo://app?vid=1ea07c30-7637-4836-8280-b70950b610b5"},"vehicle_type_id":"4","last_reported":1752154064,"current_range_meters":0,"station_id":"st_cvj5dfep6f1abm77gieg","pricing_plan_id":"cebpf4jnsgd1na2vs0mg"},{"bike_id":"dcbf183e-dd12-41db-a851-27f96f911957","system_id":"levelo_inurba_marseille","lat":43.27312,"lon":5.39071,"is_reserved":false,"is_disabled":true,"rental_uris":{"android":"levelo://app?vid=dcbf183e-dd12-41db-a851-27f96f911957","ios":"levelo://app?vid=dcbf183e-dd12-41db-a851-27f96f911957"},"vehicle_type_id":"4","last_reported":1752154064,"current_range_meters":400,"station_id":"ce4bhgp2rcd13ifvqfe0","pricing_plan_id":"cebpf4jnsgd1na2vs0mg"},{"bike_id":"8637aaab-14e2-473e-bb8c-7f0817f7d7db","system_id":"levelo_inurba_marseille","lat":43.3245,"lon":5.36594,"is_reserved":false,"is_disabled":true,"rental_uris":{"android":"levelo://app?vid=8637aaab-14e2-473e-bb8c-7f0817f7d7db","ios":"levelo://app?vid=8637aaab-14e2-473e-bb8c-7f0817f7d7db"},"vehicle_type_id":"4","last_reported":1752154064,"current_range_meters":400,"station_id":"ce4bhs12rcd13ifvqhvg","pricing_plan_id":"cebpf4jnsgd1na2vs0mg"},{"bike_id":"5ce39f79-aff1-446c-be6e-5b7a8fe0dcce","system_id":"levelo_inurba_marseille","lat":43.31465,"lon":5.38352,"is_reserved":false,"is_disabled":true,"rental_uris":{"android":"levelo://app?vid=5ce39f79-aff1-446c-be6e-5b7a8fe0dcce","ios":"levelo://app?vid=5ce39f79-aff1-446c-be6e-5b7a8fe0dcce"},"vehicle_type_id":"4","last_reported":1752154064,"current_range_meters":800,"station_id":"","pricing_plan_id":"cebpf4jnsgd1na2vs0mg"},{"bike_id":"888522e3-39b6-4ff3-ad74-ff6c6f771157","system_id":"levelo_inurba_marseille","lat":43.294951,"lon":5.40282,"is_reserved":false,"is_disabled":true,"rental_uris":{"android":"levelo://app?vid=888522e3-39b6-4ff3-ad74-ff6c6f771157","ios":"levelo://app?vid=888522e3-39b6-4ff3-ad74-ff6c6f771157"},"vehicle_type_id":"4","last_reported":1752154064,"current_range_meters":2000,"station_id":"","pricing_plan_id":"cebpf4jnsgd1na2vs0mg"},{"bike_id":"323b107d-22f0-4d8a-8cd0-c280dd2323e0","system_id":"levelo_inurba_marseille","lat":43.32355,"lon":5.36741,"is_reserved":false,"is_disabled":true,"rental_uris":{"android":"levelo://app?vid=323b107d-22f0-4d8a-8cd0-c280dd2323e0","ios":"levelo://app?vid=323b107d-22f0-4d8a-8cd0-c280dd2323e0"},"vehicle_type_id":"4","last_reported":1752154064,"current_range_meters":2000,"station_id":"ce4bhsh2rcd13ifvqi2g","pricing_plan_id":"cebpf4jnsgd1na2vs0mg"},{"bike_id":"2ed07b92-0d4c-4bd4-99fc-f76ffc710ed1","system_id":"levelo_inurba_marseille","lat":43.26182,"lon":5.37461,"is_reserved":false,"is_disabled":false,"rental_uris":{"android":"levelo://app?vid=2ed07b92-0d4c-4bd4-99fc-f76ffc710ed1","ios":"levelo://app?vid=2ed07b92-0d4c-4bd4-99fc-f76ffc710ed1"},"vehicle_type_id":"4","last_reported":1752154064,"current_range_meters":2800,"station_id":"ce4bhgp2rcd13ifvqfc0","pricing_plan_id":"cebpf4jnsgd1na2vs0mg"},{"bike_id":"32141a10-47cb-4abc-ada5-dd0b9c858704","system_id":"levelo_inurba_marseille","lat":43.26684,"lon":5.38279,"is_reserved":false,"is_disabled":false,"rental_uris":{"android":"levelo://app?vid=32141a10-47cb-4abc-ada5-dd0b9c858704","ios":"levelo://app?vid=32141a10-47cb-4abc-ada5-dd0b9c858704"},"vehicle_type_id":"4","last_reported":1752154064,"current_range_meters":3200,"station_id":"ce4bhg92rcd13ifvqf90","pricing_plan_id":"cebpf4jnsgd1na2vs0mg"},{"bike_id":"a2f9416e-f746-4882-90d2-31939cb0ca51","system_id":"levelo_inurba_marseille","lat":43.29679,"lon":5.37297,"is_reserved":false,"is_disabled":false,"rental_uris":{"android":"levelo://app?vid=a2f9416e-f746-4882-90d2-31939cb0ca51","ios":"levelo://app?vid=a2f9416e-f746-4882-90d2-31939cb0ca51"},"vehicle_type_id":"4","last_reported":1752154064,"current_range_meters":3600,"station_id":"ce4bgk12rcd13ifvqbj0","pricing_plan_id":"cebpf4jnsgd1na2vs0mg"},{"bike_id":"d6c55c7b-798d-4ae6-9853-5897bf1d3c94","system_id":"levelo_inurba_marseille","lat":43.31118,"lon":5.37765,"is_reserved":false,"is_disabled":false,"rental_uris":{"android":"levelo://app?vid=d6c55c7b-798d-4ae6-9853-5897bf1d3c94","ios":"levelo://app?vid=d6c55c7b-798d-4ae6-9853-5897bf1d3c94"},"vehicle_type_id":"4","last_reported":1752154064,"current_range_meters":3600,"station_id":"ce4bgt92rcd13ifvqcg0","pricing_plan_id":"cebpf4jnsgd1na2vs0mg"},{"bike_id":"2e716f66-ae78-4bc9-b189-4d51f53957e6","system_id":"levelo_inurba_marseille","lat":43.26209,"lon":5.37443,"is_reserved":false,"is_disabled":false,"rental_uris":{"android":"levelo://app?vid=2e716f66-ae78-4bc9-b189-4d51f53957e6","ios":"levelo://app?vid=2e716f66-ae78-4bc9-b189-4d51f53957e6"},"vehicle_type_id":"4","last_reported":1752154064,"current_range_meters":3600,"station_id":"ce4bhgp2rcd13ifvqfc0","pricing_plan_id":"cebpf4jnsgd1na2vs0mg"},{"bike_id":"1ec8563c-a218-4951-8064-cf63215ec46d","system_id":"levelo_inurba_marseille","lat":43.27369,"lon":5.36249,"is_reserved":false,"is_disabled":false,"rental_uris":{"android":"levelo://app?vid=1ec8563c-a218-4951-8064-cf63215ec46d","ios":"levelo://app?vid=1ec8563c-a218-4951-8064-cf63215ec46d"},"vehicle_type_id":"4","last_reported":1752154064,"current_range_meters":4000,"station_id":"ce4bhbh2rcd13ifvqeo0","pricing_plan_id":"cebpf4jnsgd1na2vs0mg"},{"bike_id":"0711d71c-0fb3-4534-b842-7fbe1592a073","system_id":"levelo_inurba_marseille","lat":43.24387,"lon":5.37062,"is_reserved":false,"is_disabled":false,"rental_uris":{"android":"levelo://app?vid=0711d71c-0fb3-4534-b842-7fbe1592a073","ios":"levelo://app?vid=0711d71c-0fb3-4534-b842-7fbe1592a073"},"vehicle_type_id":"4","last_reported":1752154064,"current_range_meters":4000,"station_id":"ce4bhhh2rcd13ifvqfk0","pricing_plan_id":"cebpf4jnsgd1na2vs0mg"},{"bike_id":"f425e3f1-9111-4d70-96e0-b01352b09606","system_id":"levelo_inurba_marseille","lat":43.26784,"lon":5.39417,"is_reserved":false,"is_disabled":false,"rental_uris":{"android":"levelo://app?vid=f425e3f1-9111-4d70-96e0-b01352b09606","ios":"levelo://app?vid=f425e3f1-9111-4d70-96e0-b01352b09606"},"vehicle_type_id":"4","last_reported":1752154064,"current_range_meters":4800,"station_id":"ce4bhh12rcd13ifvqfg0","pricing_plan_id":"cebpf4jnsgd1na2vs0mg"},{"bike_id":"9026bd14-a8f4-4712-90f5-5d4be02998c6","system_id":"levelo_inurba_marseille","lat":43.28905,"lon":5.3664,"is_reserved":false,"is_disabled":false,"rental_uris":{"android":"levelo://app?vid=9026bd14-a8f4-4712-90f5-5d4be02998c6","ios":"levelo://app?vid=9026bd14-a8f4-4712-90f5-5d4be02998c6"},"vehicle_type_id":"4","last_reported":1752154064,"current_range_meters":5600,"station_id":"","pricing_plan_id":"cebpf4jnsgd1na2vs0mg"},{"bike_id":"252d8c70-0b4e-41f7-86b7-b36845e06df0","system_id":"levelo_inurba_marseille","lat":43.23143,"lon":5.43719,"is_reserved":false,"is_disabled":false,"rental_uris":{"android":"levelo://app?vid=252d8c70-0b4e-41f7-86b7-b36845e06df0","ios":"levelo://app?vid=252d8c70-0b4e-41f7-86b7-b36845e06df0"},"vehicle_type_id":"4","last_reported":1752154064,"current_range_meters":6400,"station_id":"ce4bhmp2rcd13ifvqgog","pricing_plan_id":"cebpf4jnsgd1na2vs0mg"},{"bike_id":"e12f77dc-a71a-40d3-adfa-ae9c42f39f54","system_id":"levelo_inurba_marseille","lat":43.22929,"lon":5.35387,"is_reserved":false,"is_disabled":false,"rental_uris":{"android":"levelo://app?vid=e12f77dc-a71a-40d3-adfa-ae9c42f39f54","ios":"levelo://app?vid=e12f77dc-a71a-40d3-adfa-ae9c42f39f54"},"vehicle_type_id":"4","last_reported":1752154064,"current_range_meters":6400,"station_id":"cpo3532slgdg3j2ikp40","pricing_plan_id":"cebpf4jnsgd1na2vs0mg"},{"bike_id":"6fb45b4a-01f5-4f5d-b85b-9d16785015b8","system_id":"levelo_inurba_marseille","lat":43.21757,"lon":5.34599,"is_reserved":false,"is_disabled":false,"rental_uris":{"android":"levelo://app?vid=6fb45b4a-01f5-4f5d-b85b-9d16785015b8","ios":"levelo://app?vid=6fb45b4a-01f5-4f5d-b85b-9d16785015b8"},"vehicle_type_id":"4","last_reported":1752154064,"current_range_meters":6800,"station_id":"","pricing_plan_id":"cebpf4jnsgd1na2vs0mg"},{"bike_id":"2da448a1-ba5e-4f6c-aa16-685df838e419","system_id":"levelo_inurba_marseille","lat":43.250002,"lon":5.389277,"is_reserved":false,"is_disabled":false,"rental_uris":{"android":"levelo://app?vid=2da448a1-ba5e-4f6c-aa16-685df838e419","ios":"levelo://app?vid=2da448a1-ba5e-4f6c-aa16-685df838e419"},"vehicle_type_id":"4","last_reported":1752154064,"current_range_meters":6800,"station_id":"ce4bhgp2rcd13ifvqfd0","pricing_plan_id":"cebpf4jnsgd1na2vs0mg"},{"bike_id":"fa6a074f-5db7-4b29-bba6-9c0a6f430824","system_id":"levelo_inurba_marseille","lat":43.337444,"lon":5.374475,"is_reserved":false,"is_disabled":false,"rental_uris":{"android":"levelo://app?vid=fa6a074f-5db7-4b29-bba6-9c0a6f430824","ios":"levelo://app?vid=fa6a074f-5db7-4b29-bba6-9c0a6f430824"},"vehicle_type_id":"4","last_reported":1752154064,"current_range_meters":7200,"station_id":"","pricing_plan_id":"cebpf4jnsgd1na2vs0mg"},{"bike_id":"0c4c067e-d96c-41c2-8250-feda7544380d","system_id":"levelo_inurba_marseille","lat":43.32556,"lon":5.37417,"is_reserved":false,"is_disabled":false,"rental_uris":{"android":"levelo://app?vid=0c4c067e-d96c-41c2-8250-feda7544380d","ios":"levelo://app?vid=0c4c067e-d96c-41c2-8250-feda7544380d"},"vehicle_type_id":"4","last_reported":1752154064,"current_range_meters":7200,"station_id":"","pricing_plan_id":"cebpf4jnsgd1na2vs0mg"},{"bike_id":"4ab195c2-2814-49da-82c0-2400c6501432","system_id":"levelo_inurba_marseille","lat":43.296826,"lon":5.372932,"is_reserved":false,"is_disabled":false,"rental_uris":{"android":"levelo://app?vid=4ab195c2-2814-49da-82c0-2400c6501432","ios":"levelo://app?vid=4ab195c2-2814-49da-82c0-2400c6501432"},"vehicle_type_id":"4","last_reported":1752154064,"current_range_meters":7200,"station_id":"ce4bgk12rcd13ifvqbj0","pricing_plan_id":"cebpf4jnsgd1na2vs0mg"},{"bike_id":"2354f4ca-20d1-4b1b-b469-739d1656dff6","system_id":"levelo_inurba_marseille","lat":43.290195,"lon":5.376276,"is_reserved":false,"is_disabled":false,"rental_uris":{"android":"levelo://app?vid=2354f4ca-20d1-4b1b-b469-739d1656dff6","ios":"levelo://app?vid=2354f4ca-20d1-4b1b-b469-739d1656dff6"},"vehicle_type_id":"4","last_reported":1752154064,"current_range_meters":8400,"station_id":"ce4bh692rcd13ifvqe90","pricing_plan_id":"cebpf4jnsgd1na2vs0mg"},{"bike_id":"284108be-3396-4afc-ab96-24efcdfcf5d9","system_id":"levelo_inurba_marseille","lat":43.27369,"lon":5.36261,"is_reserved":false,"is_disabled":false,"rental_uris":{"android":"levelo://app?vid=284108be-3396-4afc-ab96-24efcdfcf5d9","ios":"levelo://app?vid=284108be-3396-4afc-ab96-24efcdfcf5d9"},"vehicle_type_id":"4","last_reported":1752154064,"current_range_meters":8800,"station_id":"ce4bhbh2rcd13ifvqeo0","pricing_plan_id":"cebpf4jnsgd1na2vs0mg"},{"bike_id":"4460c553-7e39-49b5-9d4f-a0ff5a06b0a6","system_id":"levelo_inurba_marseille","lat":43.262,"lon":5.37934,"is_reserved":false,"is_disabled":false,"rental_uris":{"android":"levelo://app?vid=4460c553-7e39-49b5-9d4f-a0ff5a06b0a6","ios":"levelo://app?vid=4460c553-7e39-49b5-9d4f-a0ff5a06b0a6"},"vehicle_type_id":"4","last_reported":1752154064,"current_range_meters":8800,"station_id":"ce4bhjp2rcd13ifvqg90","pricing_plan_id":"cebpf4jnsgd1na2vs0mg"},{"bike_id":"84e7e709-4e4f-4764-818c-af719435bfca","system_id":"levelo_inurba_marseille","lat":43.31958,"lon":5.37144,"is_reserved":false,"is_disabled":false,"rental_uris":{"android":"levelo://app?vid=84e7e709-4e4f-4764-818c-af719435bfca","ios":"levelo://app?vid=84e7e709-4e4f-4764-818c-af719435bfca"},"vehicle_type_id":"4","last_reported":1752154064,"current_range_meters":9200,"station_id":"","pricing_plan_id":"cebpf4jnsgd1na2vs0mg"},{"bike_id":"f573a8fb-f1f8-47c4-901e-ddf2739a5cca","system_id":"levelo_inurba_marseille","lat":43.35995,"lon":5.32481,"is_reserved":false,"is_disabled":false,"rental_uris":{"android":"levelo://app?vid=f573a8fb-f1f8-47c4-901e-ddf2739a5cca","ios":"levelo://app?vid=f573a8fb-f1f8-47c4-901e-ddf2739a5cca"},"vehicle_type_id":"4","last_reported":1752154064,"current_range_meters":9200,"station_id":"","pricing_plan_id":"cebpf4jnsgd1na2vs0mg"},{"bike_id":"6f521d80-7efc-48ae-a1ba-6fd75f5bbd11","system_id":"levelo_inurba_marseille","lat":43.28441,"lon":5.3921,"is_reserved":false,"is_disabled":false,"rental_uris":{"android":"levelo://app?vid=6f521d80-7efc-48ae-a1ba-6fd75f5bbd11","ios":"levelo://app?vid=6f521d80-7efc-48ae-a1ba-6fd75f5bbd11"},"vehicle_type_id":"4","last_reported":1752154064,"current_range_meters":9200,"station_id":"ce4bhoh2rcd13ifvqh5g","pricing_plan_id":"cebpf4jnsgd1na2vs0mg"},{"bike_id":"4975b22d-8c48-452f-bd19-7a9d3ed7c378","system_id":"levelo_inurba_marseille","lat":43.29676,"lon":5.37424,"is_reserved":false,"is_disabled":false,"rental_uris":{"android":"levelo://app?vid=4975b22d-8c48-452f-bd19-7a9d3ed7c378","ios":"levelo://app?vid=4975b22d-8c48-452f-bd19-7a9d3ed7c378"},"vehicle_type_id":"4","last_reported":1752154064,"current_range_meters":9600,"station_id":"","pricing_plan_id":"cebpf4jnsgd1na2vs0mg"},{"bike_id":"762d0cae-d1f3-42d1-b4b9-66651b157d07","system_id":"levelo_inurba_marseille","lat":43.30554,"lon":5.36554,"is_reserved":false,"is_disabled":false,"rental_uris":{"android":"levelo://app?vid=762d0cae-d1f3-42d1-b4b9-66651b157d07","ios":"levelo://app?vid=762d0cae-d1f3-42d1-b4b9-66651b157d07"},"vehicle_type_id":"4","last_reported":1752154064,"current_range_meters":9600,"station_id":"ce4bgs12rcd13ifvqcag","pricing_plan_id":"cebpf4jnsgd1na2vs0mg"},{"bike_id":"9939afd5-b00e-4a93-8bd0-17c1d84522a9","system_id":"levelo_inurba_marseille","lat":43.27377,"lon":5.36244,"is_reserved":false,"is_disabled":false,"rental_uris":{"android":"levelo://app?vid=9939afd5-b00e-4a93-8bd0-17c1d84522a9","ios":"levelo://app?vid=9939afd5-b00e-4a93-8bd0-17c1d84522a9"},"vehicle_type_id":"4","last_reported":1752154064,"current_range_meters":9600,"station_id":"ce4bhbh2rcd13ifvqeo0","pricing_plan_id":"cebpf4jnsgd1na2vs0mg"},{"bike_id":"2e8ac602-3345-4dca-8b97-71af1b472b31","system_id":"levelo_inurba_marseille","lat":43.26561,"lon":5.3901,"is_reserved":false,"is_disabled":false,"rental_uris":{"android":"levelo://app?vid=2e8ac602-3345-4dca-8b97-71af1b472b31","ios":"levelo://app?vid=2e8ac602-3345-4dca-8b97-71af1b472b31"},"vehicle_type_id":"4","last_reported":1752154064,"current_range_meters":10000,"station_id":"ce4bhe12rcd13ifvqf30","pricing_plan_id":"cebpf4jnsgd1na2vs0mg"},{"bike_id":"f3e2163a-2628-4f65-ba77-a54fa613447d","system_id":"levelo_inurba_marseille","lat":43.23968,"lon":5.36623,"is_reserved":false,"is_disabled":false,"rental_uris":{"android":"levelo://app?vid=f3e2163a-2628-4f65-ba77-a54fa613447d","ios":"levelo://app?vid=f3e2163a-2628-4f65-ba77-a54fa613447d"},"vehicle_type_id":"4","last_reported":1752154064,"current_range_meters":10000,"station_id":"ce4bhi12rcd13ifvqfp0","pricing_plan_id":"cebpf4jnsgd1na2vs0mg"},{"bike_id":"f461005f-47ed-4619-995e-529f4cbee158","system_id":"levelo_inurba_marseille","lat":43.28705,"lon":5.39988,"is_reserved":false,"is_disabled":false,"rental_uris":{"android":"levelo://app?vid=f461005f-47ed-4619-995e-529f4cbee158","ios":"levelo://app?vid=f461005f-47ed-4619-995e-529f4cbee158"},"vehicle_type_id":"4","last_reported":1752154064,"current_range_meters":10000,"station_id":"ce4bho92rcd13ifvqh3g","pricing_plan_id":"cebpf4jnsgd1na2vs0mg"},{"bike_id":"6e5c2657-ccb8-4153-8b94-2143bc427a03","system_id":"levelo_inurba_marseille","lat":43.2249,"lon":5.34784,"is_reserved":false,"is_disabled":false,"rental_uris":{"android":"levelo://app?vid=6e5c2657-ccb8-4153-8b94-2143bc427a03","ios":"levelo://app?vid=6e5c2657-ccb8-4153-8b94-2143bc427a03"},"vehicle_type_id":"4","last_reported":1752154064,"current_range_meters":10000,"station_id":"st_cvj5dfep6f1abm77gieg","pricing_plan_id":"cebpf4jnsgd1na2vs0mg"},{"bike_id":"b2caa530-bb19-4cc6-a6bd-61e3e1d7432e","system_id":"levelo_inurba_marseille","lat":43.33763,"lon":5.37461,"is_reserved":false,"is_disabled":false,"rental_uris":{"android":"levelo://app?vid=b2caa530-bb19-4cc6-a6bd-61e3e1d7432e","ios":"levelo://app?vid=b2caa530-bb19-4cc6-a6bd-61e3e1d7432e"},"vehicle_type_id":"4","last_reported":1752154064,"current_range_meters":10800,"station_id":"","pricing_plan_id":"cebpf4jnsgd1na2vs0mg"},{"bike_id":"833f97ec-e704-4051-ab3b-2e9eb58f71d0","system_id":"levelo_inurba_marseille","lat":43.30264,"lon":5.37533,"is_reserved":false,"is_disabled":false,"rental_uris":{"android":"levelo://app?vid=833f97ec-e704-4051-ab3b-2e9eb58f71d0","ios":"levelo://app?vid=833f97ec-e704-4051-ab3b-2e9eb58f71d0"},"vehicle_type_id":"4","last_reported":1752154064,"current_range_meters":10800,"station_id":"","pricing_plan_id":"cebpf4jnsgd1na2vs0mg"},{"bike_id":"f5c16f07-bc6f-4121-91a7-5ad90eec4f34","system_id":"levelo_inurba_marseille","lat":43.31225,"lon":5.37311,"is_reserved":false,"is_disabled":false,"rental_uris":{"android":"levelo://app?vid=f5c16f07-bc6f-4121-91a7-5ad90eec4f34","ios":"levelo://app?vid=f5c16f07-bc6f-4121-91a7-5ad90eec4f34"},"vehicle_type_id":"4","last_reported":1752154064,"current_range_meters":10800,"station_id":"","pricing_plan_id":"cebpf4jnsgd1na2vs0mg"},{"bike_id":"8b83100c-f442-41a9-8a54-50c40df7440e","system_id":"levelo_inurba_marseille","lat":43.30943,"lon":5.3682,"is_reserved":false,"is_disabled":false,"rental_uris":{"android":"levelo://app?vid=8b83100c-f442-41a9-8a54-50c40df7440e","ios":"levelo://app?vid=8b83100c-f442-41a9-8a54-50c40df7440e"},"vehicle_type_id":"4","last_reported":1752154064,"current_range_meters":10800,"station_id":"ce4bgn92rcd13ifvqbvg","pricing_plan_id":"cebpf4jnsgd1na2vs0mg"},{"bike_id":"b757ffbb-2b71-4330-9f60-5f8a9d46d16e","system_id":"levelo_inurba_marseille","lat":43.29643,"lon":5.3711,"is_reserved":false,"is_disabled":false,"rental_uris":{"android":"levelo://app?vid=b757ffbb-2b71-4330-9f60-5f8a9d46d16e","ios":"levelo://app?vid=b757ffbb-2b71-4330-9f60-5f8a9d46d16e"},"vehicle_type_id":"4","last_reported":1752154064,"current_range_meters":10800,"station_id":"ce4bgnh2rcd13ifvqc0g","pricing_plan_id":"cebpf4jnsgd1na2vs0mg"},{"bike_id":"251cdbb9-cd54-43e5-8efe-83cd63625202","system_id":"levelo_inurba_marseille","lat":43.290023,"lon":5.356098,"is_reserved":false,"is_disabled":false,"rental_uris":{"android":"levelo://app?vid=251cdbb9-cd54-43e5-8efe-83cd63625202","ios":"levelo://app?vid=251cdbb9-cd54-43e5-8efe-83cd63625202"},"vehicle_type_id":"4","last_reported":1752154064,"current_range_meters":10800,"station_id":"ce4bhb92rcd13ifvqen0","pricing_plan_id":"cebpf4jnsgd1na2vs0mg"},{"bike_id":"2ab5f808-f1c7-4502-afc4-f61e7d5de5aa","system_id":"levelo_inurba_marseille","lat":43.23974,"lon":5.36626,"is_reserved":false,"is_disabled":false,"rental_uris":{"android":"levelo://app?vid=2ab5f808-f1c7-4502-afc4-f61e7d5de5aa","ios":"levelo://app?vid=2ab5f808-f1c7-4502-afc4-f61e7d5de5aa"},"vehicle_type_id":"4","last_reported":1752154064,"current_range_meters":10800,"station_id":"ce4bhi12rcd13ifvqfp0","pricing_plan_id":"cebpf4jnsgd1na2vs0mg"},{"bike_id":"d12d2459-50c7-4367-89fd-db654a092185","system_id":"levelo_inurba_marseille","lat":43.27811,"lon":5.40714,"is_reserved":false,"is_disabled":false,"rental_uris":{"android":"levelo://app?vid=d12d2459-50c7-4367-89fd-db654a092185","ios":"levelo://app?vid=d12d2459-50c7-4367-89fd-db654a092185"},"vehicle_type_id":"4","last_reported":1752154064,"current_range_meters":10800,"station_id":"ce4bhnh2rcd13ifvqgtg","pricing_plan_id":"cebpf4jnsgd1na2vs0mg"},{"bike_id":"6ef5f3ea-45a5-4129-a8bc-9005968550f8","system_id":"levelo_inurba_marseille","lat":43.3044,"lon":5.36837,"is_reserved":false,"is_disabled":false,"rental_uris":{"android":"levelo://app?vid=6ef5f3ea-45a5-4129-a8bc-9005968550f8","ios":"levelo://app?vid=6ef5f3ea-45a5-4129-a8bc-9005968550f8"},"vehicle_type_id":"4","last_reported":1752154064,"current_range_meters":11600,"station_id":"","pricing_plan_id":"cebpf4jnsgd1na2vs0mg"},{"bike_id":"1e88e79d-30c1-4aad-973f-9f72b17918cf","system_id":"levelo_inurba_marseille","lat":43.28414,"lon":5.34992,"is_reserved":false,"is_disabled":false,"rental_uris":{"android":"levelo://app?vid=1e88e79d-30c1-4aad-973f-9f72b17918cf","ios":"levelo://app?vid=1e88e79d-30c1-4aad-973f-9f72b17918cf"},"vehicle_type_id":"4","last_reported":1752154064,"current_range_meters":11600,"station_id":"ce4bhbh2rcd13ifvqepg","pricing_plan_id":"cebpf4jnsgd1na2vs0mg"},{"bike_id":"8f2190ec-dc26-462f-a120-658138ff2c2c","system_id":"levelo_inurba_marseille","lat":43.28626,"lon":5.351,"is_reserved":false,"is_disabled":false,"rental_uris":{"android":"levelo://app?vid=8f2190ec-dc26-462f-a120-658138ff2c2c","ios":"levelo://app?vid=8f2190ec-dc26-462f-a120-658138ff2c2c"},"vehicle_type_id":"4","last_reported":1752154064,"current_range_meters":11600,"station_id":"ce4bhch2rcd13ifvqeug","pricing_plan_id":"cebpf4jnsgd1na2vs0mg"},{"bike_id":"7a1e61f6-7523-46a2-9b80-de3748d2b6d8","system_id":"levelo_inurba_marseille","lat":43.25496,"lon":5.3765,"is_reserved":false,"is_disabled":false,"rental_uris":{"android":"levelo://app?vid=7a1e61f6-7523-46a2-9b80-de3748d2b6d8","ios":"levelo://app?vid=7a1e61f6-7523-46a2-9b80-de3748d2b6d8"},"vehicle_type_id":"4","last_reported":1752154064,"current_range_meters":11600,"station_id":"ce4bhh12rcd13ifvqff0","pricing_plan_id":"cebpf4jnsgd1na2vs0mg"},{"bike_id":"320f2a33-deaa-4e0a-a3d5-c39ce8ad680a","system_id":"levelo_inurba_marseille","lat":43.315823,"lon":5.374238,"is_reserved":false,"is_disabled":false,"rental_uris":{"android":"levelo://app?vid=320f2a33-deaa-4e0a-a3d5-c39ce8ad680a","ios":"levelo://app?vid=320f2a33-deaa-4e0a-a3d5-c39ce8ad680a"},"vehicle_type_id":"4","last_reported":1752154064,"current_range_meters":12000,"station_id":"","pricing_plan_id":"cebpf4jnsgd1na2vs0mg"},{"bike_id":"e75173ba-092f-4e3c-b2e1-128bf1f9d79b","system_id":"levelo_inurba_marseille","lat":43.21735,"lon":5.34624,"is_reserved":false,"is_disabled":false,"rental_uris":{"android":"levelo://app?vid=e75173ba-092f-4e3c-b2e1-128bf1f9d79b","ios":"levelo://app?vid=e75173ba-092f-4e3c-b2e1-128bf1f9d79b"},"vehicle_type_id":"4","last_reported":1752154064,"current_range_meters":12000,"station_id":"","pricing_plan_id":"cebpf4jnsgd1na2vs0mg"},{"bike_id":"acd773d6-8ebd-4441-8ee4-ca4aec27a697","system_id":"levelo_inurba_marseille","lat":43.24814,"lon":5.37453,"is_reserved":false,"is_disabled":false,"rental_uris":{"android":"levelo://app?vid=acd773d6-8ebd-4441-8ee4-ca4aec27a697","ios":"levelo://app?vid=acd773d6-8ebd-4441-8ee4-ca4aec27a697"},"vehicle_type_id":"4","last_reported":1752154064,"current_range_meters":12000,"station_id":"ce4bhgh2rcd13ifvqfb0","pricing_plan_id":"cebpf4jnsgd1na2vs0mg"},{"bike_id":"2a2c2ba3-f4e7-4476-b21e-559d75857b71","system_id":"levelo_inurba_marseille","lat":43.27095,"lon":5.42278,"is_reserved":false,"is_disabled":false,"rental_uris":{"android":"levelo://app?vid=2a2c2ba3-f4e7-4476-b21e-559d75857b71","ios":"levelo://app?vid=2a2c2ba3-f4e7-4476-b21e-559d75857b71"},"vehicle_type_id":"4","last_reported":1752154064,"current_range_meters":12000,"station_id":"ce4bhk92rcd13ifvqgb0","pricing_plan_id":"cebpf4jnsgd1na2vs0mg"},{"bike_id":"4b14770d-641c-493b-8577-5a331c2a8d71","system_id":"levelo_inurba_marseille","lat":43.27374,"lon":5.36256,"is_reserved":false,"is_disabled":false,"rental_uris":{"android":"levelo://app?vid=4b14770d-641c-493b-8577-5a331c2a8d71","ios":"levelo://app?vid=4b14770d-641c-493b-8577-5a331c2a8d71"},"vehicle_type_id":"4","last_reported":1752154064,"current_range_meters":12400,"station_id":"ce4bhbh2rcd13ifvqeo0","pricing_plan_id":"cebpf4jnsgd1na2vs0mg"},{"bike_id":"da8b4a9a-3509-4171-9ac3-c4ef3e499d81","system_id":"levelo_inurba_marseille","lat":43.28037,"lon":5.36954,"is_reserved":false,"is_disabled":false,"rental_uris":{"android":"levelo://app?vid=da8b4a9a-3509-4171-9ac3-c4ef3e499d81","ios":"levelo://app?vid=da8b4a9a-3509-4171-9ac3-c4ef3e499d81"},"vehicle_type_id":"4","last_reported":1752154064,"current_range_meters":12800,"station_id":"ce4bha12rcd13ifvqef0","pricing_plan_id":"cebpf4jnsgd1na2vs0mg"},{"bike_id":"0c83d4b3-d268-4f20-aa5c-38431a8ef719","system_id":"levelo_inurba_marseille","lat":43.22931,"lon":5.35379,"is_reserved":false,"is_disabled":false,"rental_uris":{"android":"levelo://app?vid=0c83d4b3-d268-4f20-aa5c-38431a8ef719","ios":"levelo://app?vid=0c83d4b3-d268-4f20-aa5c-38431a8ef719"},"vehicle_type_id":"4","last_reported":1752154064,"current_range_meters":12800,"station_id":"cpo3532slgdg3j2ikp40","pricing_plan_id":"cebpf4jnsgd1na2vs0mg"},{"bike_id":"feaa7e3a-cbe4-4489-be11-8a12d7eec173","system_id":"levelo_inurba_marseille","lat":43.25173,"lon":5.4241,"is_reserved":false,"is_disabled":false,"rental_uris":{"android":"levelo://app?vid=feaa7e3a-cbe4-4489-be11-8a12d7eec173","ios":"levelo://app?vid=feaa7e3a-cbe4-4489-be11-8a12d7eec173"},"vehicle_type_id":"4","last_reported":1752154064,"current_range_meters":14000,"station_id":"","pricing_plan_id":"cebpf4jnsgd1na2vs0mg"},{"bike_id":"dca1f1ea-b047-4c2f-9b2d-c715cbd0edf7","system_id":"levelo_inurba_marseille","lat":43.30785,"lon":5.37643,"is_reserved":false,"is_disabled":false,"rental_uris":{"android":"levelo://app?vid=dca1f1ea-b047-4c2f-9b2d-c715cbd0edf7","ios":"levelo://app?vid=dca1f1ea-b047-4c2f-9b2d-c715cbd0edf7"},"vehicle_type_id":"4","last_reported":1752154064,"current_range_meters":14000,"station_id":"ce4bgv92rcd13ifvqcq0","pricing_plan_id":"cebpf4jnsgd1na2vs0mg"},{"bike_id":"6e039703-2762-4837-96fd-cd1fc6a77421","system_id":"levelo_inurba_marseille","lat":43.2621,"lon":5.37441,"is_reserved":false,"is_disabled":false,"rental_uris":{"android":"levelo://app?vid=6e039703-2762-4837-96fd-cd1fc6a77421","ios":"levelo://app?vid=6e039703-2762-4837-96fd-cd1fc6a77421"},"vehicle_type_id":"4","last_reported":1752154064,"current_range_meters":14000,"station_id":"ce4bhgp2rcd13ifvqfc0","pricing_plan_id":"cebpf4jnsgd1na2vs0mg"},{"bike_id":"b19269dd-af0a-45f9-9879-9214769af267","system_id":"levelo_inurba_marseille","lat":43.33604,"lon":5.4103,"is_reserved":false,"is_disabled":false,"rental_uris":{"android":"levelo://app?vid=b19269dd-af0a-45f9-9879-9214769af267","ios":"levelo://app?vid=b19269dd-af0a-45f9-9879-9214769af267"},"vehicle_type_id":"4","last_reported":1752154064,"current_range_meters":14000,"station_id":"ce4bhqh2rcd13ifvqhmg","pricing_plan_id":"cebpf4jnsgd1na2vs0mg"},{"bike_id":"07e23da8-1aab-44d7-8d40-309109ee0205","system_id":"levelo_inurba_marseille","lat":43.323679,"lon":5.367498,"is_reserved":false,"is_disabled":false,"rental_uris":{"android":"levelo://app?vid=07e23da8-1aab-44d7-8d40-309109ee0205","ios":"levelo://app?vid=07e23da8-1aab-44d7-8d40-309109ee0205"},"vehicle_type_id":"4","last_reported":1752154064,"current_range_meters":14000,"station_id":"ce4bhsh2rcd13ifvqi2g","pricing_plan_id":"cebpf4jnsgd1na2vs0mg"},{"bike_id":"87d13c3c-9453-4492-8a8f-f2b4c8e828c6","system_id":"levelo_inurba_marseille","lat":43.26177,"lon":5.37049,"is_reserved":false,"is_disabled":false,"rental_uris":{"android":"levelo://app?vid=87d13c3c-9453-4492-8a8f-f2b4c8e828c6","ios":"levelo://app?vid=87d13c3c-9453-4492-8a8f-f2b4c8e828c6"},"vehicle_type_id":"4","last_reported":1752154064,"current_range_meters":14400,"station_id":"","pricing_plan_id":"cebpf4jnsgd1na2vs0mg"},{"bike_id":"f5c34381-a063-4c35-a29b-d0f98fcaa525","system_id":"levelo_inurba_marseille","lat":43.29628,"lon":5.40604,"is_reserved":false,"is_disabled":false,"rental_uris":{"android":"levelo://app?vid=f5c34381-a063-4c35-a29b-d0f98fcaa525","ios":"levelo://app?vid=f5c34381-a063-4c35-a29b-d0f98fcaa525"},"vehicle_type_id":"4","last_reported":1752154064,"current_range_meters":14400,"station_id":"ce4bh0h2rcd13ifvqd60","pricing_plan_id":"cebpf4jnsgd1na2vs0mg"},{"bike_id":"4189fbf6-b97e-45d8-ba49-b2c2766c2224","system_id":"levelo_inurba_marseille","lat":43.26199,"lon":5.37935,"is_reserved":false,"is_disabled":false,"rental_uris":{"android":"levelo://app?vid=4189fbf6-b97e-45d8-ba49-b2c2766c2224","ios":"levelo://app?vid=4189fbf6-b97e-45d8-ba49-b2c2766c2224"},"vehicle_type_id":"4","last_reported":1752154064,"current_range_meters":14400,"station_id":"ce4bhjp2rcd13ifvqg90","pricing_plan_id":"cebpf4jnsgd1na2vs0mg"},{"bike_id":"43295620-c025-4cd3-9d75-138f8b6f7893","system_id":"levelo_inurba_marseille","lat":43.28159,"lon":5.4265,"is_reserved":false,"is_disabled":false,"rental_uris":{"android":"levelo://app?vid=43295620-c025-4cd3-9d75-138f8b6f7893","ios":"levelo://app?vid=43295620-c025-4cd3-9d75-138f8b6f7893"},"vehicle_type_id":"4","last_reported":1752154064,"current_range_meters":14400,"station_id":"ce4bhnh2rcd13ifvqgug","pricing_plan_id":"cebpf4jnsgd1na2vs0mg"},{"bike_id":"de010bc4-5e98-41bd-aed3-9094f259cc5a","system_id":"levelo_inurba_marseille","lat":43.241654,"lon":5.363955,"is_reserved":false,"is_disabled":false,"rental_uris":{"android":"levelo://app?vid=de010bc4-5e98-41bd-aed3-9094f259cc5a","ios":"levelo://app?vid=de010bc4-5e98-41bd-aed3-9094f259cc5a"},"vehicle_type_id":"4","last_reported":1752154064,"current_range_meters":14400,"station_id":"cpo36qri1sfpv3e86is0","pricing_plan_id":"cebpf4jnsgd1na2vs0mg"},{"bike_id":"d3e8264f-5e78-41b8-b5b0-557e389e6623","system_id":"levelo_inurba_marseille","lat":43.31371,"lon":5.37159,"is_reserved":false,"is_disabled":false,"rental_uris":{"android":"levelo://app?vid=d3e8264f-5e78-41b8-b5b0-557e389e6623","ios":"levelo://app?vid=d3e8264f-5e78-41b8-b5b0-557e389e6623"},"vehicle_type_id":"4","last_reported":1752154064,"current_range_meters":14800,"station_id":"","pricing_plan_id":"cebpf4jnsgd1na2vs0mg"},{"bike_id":"bbf1c256-d3d0-4932-820a-1e6e44085b8f","system_id":"levelo_inurba_marseille","lat":43.286139,"lon":5.351025,"is_reserved":false,"is_disabled":false,"rental_uris":{"android":"levelo://app?vid=bbf1c256-d3d0-4932-820a-1e6e44085b8f","ios":"levelo://app?vid=bbf1c256-d3d0-4932-820a-1e6e44085b8f"},"vehicle_type_id":"4","last_reported":1752154064,"current_range_meters":14800,"station_id":"ce4bhch2rcd13ifvqeug","pricing_plan_id":"cebpf4jnsgd1na2vs0mg"},{"bike_id":"5ccebdbb-d6e3-4fa2-96cf-9979fe34041a","system_id":"levelo_inurba_marseille","lat":43.28014,"lon":5.4167,"is_reserved":false,"is_disabled":false,"rental_uris":{"android":"levelo://app?vid=5ccebdbb-d6e3-4fa2-96cf-9979fe34041a","ios":"levelo://app?vid=5ccebdbb-d6e3-4fa2-96cf-9979fe34041a"},"vehicle_type_id":"4","last_reported":1752154064,"current_range_meters":14800,"station_id":"ce4bho12rcd13ifvqh1g","pricing_plan_id":"cebpf4jnsgd1na2vs0mg"},{"bike_id":"7af64c0e-bfdd-49ce-ac23-d7baf0c97d4a","system_id":"levelo_inurba_marseille","lat":43.23197,"lon":5.35554,"is_reserved":false,"is_disabled":false,"rental_uris":{"android":"levelo://app?vid=7af64c0e-bfdd-49ce-ac23-d7baf0c97d4a","ios":"levelo://app?vid=7af64c0e-bfdd-49ce-ac23-d7baf0c97d4a"},"vehicle_type_id":"4","last_reported":1752154064,"current_range_meters":14800,"station_id":"ce4bhu92rcd13ifvqi70","pricing_plan_id":"cebpf4jnsgd1na2vs0mg"},{"bike_id":"f373e4a8-33e3-4f72-ae8e-e7ab386910f4","system_id":"levelo_inurba_marseille","lat":43.22505,"lon":5.34758,"is_reserved":false,"is_disabled":false,"rental_uris":{"android":"levelo://app?vid=f373e4a8-33e3-4f72-ae8e-e7ab386910f4","ios":"levelo://app?vid=f373e4a8-33e3-4f72-ae8e-e7ab386910f4"},"vehicle_type_id":"4","last_reported":1752154064,"current_range_meters":14800,"station_id":"st_cvj5dfep6f1abm77gieg","pricing_plan_id":"cebpf4jnsgd1na2vs0mg"},{"bike_id":"d4fef870-f3df-418c-b45a-632453acc9ad","system_id":"levelo_inurba_marseille","lat":43.22505,"lon":5.34768,"is_reserved":false,"is_disabled":false,"rental_uris":{"android":"levelo://app?vid=d4fef870-f3df-418c-b45a-632453acc9ad","ios":"levelo://app?vid=d4fef870-f3df-418c-b45a-632453acc9ad"},"vehicle_type_id":"4","last_reported":1752154064,"current_range_meters":14800,"station_id":"st_cvj5dfep6f1abm77gieg","pricing_plan_id":"cebpf4jnsgd1na2vs0mg"},{"bike_id":"73fe94e8-74f9-41f0-85e9-7d8c52adf2fc","system_id":"levelo_inurba_marseille","lat":43.212687,"lon":5.352886,"is_reserved":false,"is_disabled":false,"rental_uris":{"android":"levelo://app?vid=73fe94e8-74f9-41f0-85e9-7d8c52adf2fc","ios":"levelo://app?vid=73fe94e8-74f9-41f0-85e9-7d8c52adf2fc"},"vehicle_type_id":"4","last_reported":1752154064,"current_range_meters":15200,"station_id":"","pricing_plan_id":"cebpf4jnsgd1na2vs0mg"},{"bike_id":"606b87b5-a316-425d-ab80-c455b2915862","system_id":"levelo_inurba_marseille","lat":43.30136,"lon":5.3807,"is_reserved":false,"is_disabled":false,"rental_uris":{"android":"levelo://app?vid=606b87b5-a316-425d-ab80-c455b2915862","ios":"levelo://app?vid=606b87b5-a316-425d-ab80-c455b2915862"},"vehicle_type_id":"4","last_reported":1752154064,"current_range_meters":15200,"station_id":"ce4bgjp2rcd13ifvqbh0","pricing_plan_id":"cebpf4jnsgd1na2vs0mg"},{"bike_id":"55105142-3666-4ef7-8f20-17f02baa8c73","system_id":"levelo_inurba_marseille","lat":43.3088,"lon":5.36871,"is_reserved":false,"is_disabled":false,"rental_uris":{"android":"levelo://app?vid=55105142-3666-4ef7-8f20-17f02baa8c73","ios":"levelo://app?vid=55105142-3666-4ef7-8f20-17f02baa8c73"},"vehicle_type_id":"4","last_reported":1752154064,"current_range_meters":15200,"station_id":"ce4bgn92rcd13ifvqbvg","pricing_plan_id":"cebpf4jnsgd1na2vs0mg"},{"bike_id":"37d24ae8-ab60-4ff1-9d36-77e365c878e4","system_id":"levelo_inurba_marseille","lat":43.29829,"lon":5.36278,"is_reserved":false,"is_disabled":false,"rental_uris":{"android":"levelo://app?vid=37d24ae8-ab60-4ff1-9d36-77e365c878e4","ios":"levelo://app?vid=37d24ae8-ab60-4ff1-9d36-77e365c878e4"},"vehicle_type_id":"4","last_reported":1752154064,"current_range_meters":15200,"station_id":"ce4bgpp2rcd13ifvqc3g","pricing_plan_id":"cebpf4jnsgd1na2vs0mg"},{"bike_id":"4f3eeda2-8e69-4abe-8935-2d8aee993e7d","system_id":"levelo_inurba_marseille","lat":43.286116,"lon":5.351007,"is_reserved":false,"is_disabled":false,"rental_uris":{"android":"levelo://app?vid=4f3eeda2-8e69-4abe-8935-2d8aee993e7d","ios":"levelo://app?vid=4f3eeda2-8e69-4abe-8935-2d8aee993e7d"},"vehicle_type_id":"4","last_reported":1752154064,"current_range_meters":15200,"station_id":"ce4bhch2rcd13ifvqeug","pricing_plan_id":"cebpf4jnsgd1na2vs0mg"},{"bike_id":"3230e9d0-8c9f-4305-b141-a48c1e44b327","system_id":"levelo_inurba_marseille","lat":43.24388,"lon":5.37055,"is_reserved":false,"is_disabled":false,"rental_uris":{"android":"levelo://app?vid=3230e9d0-8c9f-4305-b141-a48c1e44b327","ios":"levelo://app?vid=3230e9d0-8c9f-4305-b141-a48c1e44b327"},"vehicle_type_id":"4","last_reported":1752154064,"current_range_meters":15200,"station_id":"ce4bhhh2rcd13ifvqfk0","pricing_plan_id":"cebpf4jnsgd1na2vs0mg"},{"bike_id":"9592e91a-9cfa-42f1-b19a-5f7c1c3b0f7d","system_id":"levelo_inurba_marseille","lat":43.272095,"lon":5.391922,"is_reserved":false,"is_disabled":false,"rental_uris":{"android":"levelo://app?vid=9592e91a-9cfa-42f1-b19a-5f7c1c3b0f7d","ios":"levelo://app?vid=9592e91a-9cfa-42f1-b19a-5f7c1c3b0f7d"},"vehicle_type_id":"4","last_reported":1752154064,"current_range_meters":15200,"station_id":"ce4bhhp2rcd13ifvqfm0","pricing_plan_id":"cebpf4jnsgd1na2vs0mg"},{"bike_id":"9f5e74ce-2459-4c6f-a171-f6d1e8a1ed83","system_id":"levelo_inurba_marseille","lat":43.31874,"lon":5.37543,"is_reserved":false,"is_disabled":false,"rental_uris":{"android":"levelo://app?vid=9f5e74ce-2459-4c6f-a171-f6d1e8a1ed83","ios":"levelo://app?vid=9f5e74ce-2459-4c6f-a171-f6d1e8a1ed83"},"vehicle_type_id":"4","last_reported":1752154064,"current_range_meters":16000,"station_id":"","pricing_plan_id":"cebpf4jnsgd1na2vs0mg"},{"bike_id":"9219df6f-7ed8-49de-88c3-db2eb40b5dc7","system_id":"levelo_inurba_marseille","lat":43.30333,"lon":5.40428,"is_reserved":false,"is_disabled":false,"rental_uris":{"android":"levelo://app?vid=9219df6f-7ed8-49de-88c3-db2eb40b5dc7","ios":"levelo://app?vid=9219df6f-7ed8-49de-88c3-db2eb40b5dc7"},"vehicle_type_id":"4","last_reported":1752154064,"current_range_meters":16000,"station_id":"ce4bh012rcd13ifvqd10","pricing_plan_id":"cebpf4jnsgd1na2vs0mg"},{"bike_id":"119b7eed-1582-4766-b484-107798ee8de6","system_id":"levelo_inurba_marseille","lat":43.28421,"lon":5.34997,"is_reserved":false,"is_disabled":false,"rental_uris":{"android":"levelo://app?vid=119b7eed-1582-4766-b484-107798ee8de6","ios":"levelo://app?vid=119b7eed-1582-4766-b484-107798ee8de6"},"vehicle_type_id":"4","last_reported":1752154064,"current_range_meters":16000,"station_id":"ce4bhbh2rcd13ifvqepg","pricing_plan_id":"cebpf4jnsgd1na2vs0mg"},{"bike_id":"1999e0a4-8ee1-4cfd-9464-ac3f6506522b","system_id":"levelo_inurba_marseille","lat":43.22937,"lon":5.35382,"is_reserved":false,"is_disabled":false,"rental_uris":{"android":"levelo://app?vid=1999e0a4-8ee1-4cfd-9464-ac3f6506522b","ios":"levelo://app?vid=1999e0a4-8ee1-4cfd-9464-ac3f6506522b"},"vehicle_type_id":"4","last_reported":1752154064,"current_range_meters":16000,"station_id":"cpo3532slgdg3j2ikp40","pricing_plan_id":"cebpf4jnsgd1na2vs0mg"},{"bike_id":"189d095c-e3fe-4dcd-8020-e1b13f469a9f","system_id":"levelo_inurba_marseille","lat":43.25451,"lon":5.37946,"is_reserved":false,"is_disabled":false,"rental_uris":{"android":"levelo://app?vid=189d095c-e3fe-4dcd-8020-e1b13f469a9f","ios":"levelo://app?vid=189d095c-e3fe-4dcd-8020-e1b13f469a9f"},"vehicle_type_id":"4","last_reported":1752154064,"current_range_meters":16400,"station_id":"","pricing_plan_id":"cebpf4jnsgd1na2vs0mg"},{"bike_id":"17a6b586-2d9c-4efa-90d7-625072ba8ece","system_id":"levelo_inurba_marseille","lat":43.337444,"lon":5.374475,"is_reserved":false,"is_disabled":false,"rental_uris":{"android":"levelo://app?vid=17a6b586-2d9c-4efa-90d7-625072ba8ece","ios":"levelo://app?vid=17a6b586-2d9c-4efa-90d7-625072ba8ece"},"vehicle_type_id":"4","last_reported":1752154064,"current_range_meters":16400,"station_id":"","pricing_plan_id":"cebpf4jnsgd1na2vs0mg"},{"bike_id":"4e209b0c-855f-4b51-8120-2faef8673853","system_id":"levelo_inurba_marseille","lat":43.30642,"lon":5.36901,"is_reserved":false,"is_disabled":false,"rental_uris":{"android":"levelo://app?vid=4e209b0c-855f-4b51-8120-2faef8673853","ios":"levelo://app?vid=4e209b0c-855f-4b51-8120-2faef8673853"},"vehicle_type_id":"4","last_reported":1752154064,"current_range_meters":16400,"station_id":"","pricing_plan_id":"cebpf4jnsgd1na2vs0mg"},{"bike_id":"e7f9c178-1400-46c8-b353-fda69449e6c0","system_id":"levelo_inurba_marseille","lat":43.27369,"lon":5.3626,"is_reserved":false,"is_disabled":false,"rental_uris":{"android":"levelo://app?vid=e7f9c178-1400-46c8-b353-fda69449e6c0","ios":"levelo://app?vid=e7f9c178-1400-46c8-b353-fda69449e6c0"},"vehicle_type_id":"4","last_reported":1752154064,"current_range_meters":16400,"station_id":"ce4bhbh2rcd13ifvqeo0","pricing_plan_id":"cebpf4jnsgd1na2vs0mg"},{"bike_id":"aea8d665-2d91-46d6-a00b-d6caf3043c90","system_id":"levelo_inurba_marseille","lat":43.25981,"lon":5.40927,"is_reserved":false,"is_disabled":false,"rental_uris":{"android":"levelo://app?vid=aea8d665-2d91-46d6-a00b-d6caf3043c90","ios":"levelo://app?vid=aea8d665-2d91-46d6-a00b-d6caf3043c90"},"vehicle_type_id":"4","last_reported":1752154064,"current_range_meters":16400,"station_id":"ce4bhm92rcd13ifvqglg","pricing_plan_id":"cebpf4jnsgd1na2vs0mg"},{"bike_id":"64f8b491-21a3-4569-95cd-f157b47cb62a","system_id":"levelo_inurba_marseille","lat":43.27925,"lon":5.40989,"is_reserved":false,"is_disabled":false,"rental_uris":{"android":"levelo://app?vid=64f8b491-21a3-4569-95cd-f157b47cb62a","ios":"levelo://app?vid=64f8b491-21a3-4569-95cd-f157b47cb62a"},"vehicle_type_id":"4","last_reported":1752154064,"current_range_meters":16400,"station_id":"ce4bhnp2rcd13ifvqh0g","pricing_plan_id":"cebpf4jnsgd1na2vs0mg"},{"bike_id":"4e9c1f87-a435-4f44-b3da-2affda0fc2b7","system_id":"levelo_inurba_marseille","lat":43.24159,"lon":5.364,"is_reserved":false,"is_disabled":false,"rental_uris":{"android":"levelo://app?vid=4e9c1f87-a435-4f44-b3da-2affda0fc2b7","ios":"levelo://app?vid=4e9c1f87-a435-4f44-b3da-2affda0fc2b7"},"vehicle_type_id":"4","last_reported":1752154064,"current_range_meters":16400,"station_id":"cpo36qri1sfpv3e86is0","pricing_plan_id":"cebpf4jnsgd1na2vs0mg"},{"bike_id":"fa87fcb5-aacb-41a1-a789-0296bbd02085","system_id":"levelo_inurba_marseille","lat":43.24586,"lon":5.37376,"is_reserved":false,"is_disabled":false,"rental_uris":{"android":"levelo://app?vid=fa87fcb5-aacb-41a1-a789-0296bbd02085","ios":"levelo://app?vid=fa87fcb5-aacb-41a1-a789-0296bbd02085"},"vehicle_type_id":"4","last_reported":1752154064,"current_range_meters":16800,"station_id":"","pricing_plan_id":"cebpf4jnsgd1na2vs0mg"},{"bike_id":"55eb3ee3-207d-45c9-a356-7e275a6ee08e","system_id":"levelo_inurba_marseille","lat":43.322208,"lon":5.407363,"is_reserved":false,"is_disabled":false,"rental_uris":{"android":"levelo://app?vid=55eb3ee3-207d-45c9-a356-7e275a6ee08e","ios":"levelo://app?vid=55eb3ee3-207d-45c9-a356-7e275a6ee08e"},"vehicle_type_id":"4","last_reported":1752154064,"current_range_meters":16800,"station_id":"ce4bh092rcd13ifvqd30","pricing_plan_id":"cebpf4jnsgd1na2vs0mg"},{"bike_id":"dbec3c11-5ed5-4eaa-a394-cf6410ce14a1","system_id":"levelo_inurba_marseille","lat":43.27925,"lon":5.41052,"is_reserved":false,"is_disabled":false,"rental_uris":{"android":"levelo://app?vid=dbec3c11-5ed5-4eaa-a394-cf6410ce14a1","ios":"levelo://app?vid=dbec3c11-5ed5-4eaa-a394-cf6410ce14a1"},"vehicle_type_id":"4","last_reported":1752154064,"current_range_meters":16800,"station_id":"ce4bhnp2rcd13ifvqh0g","pricing_plan_id":"cebpf4jnsgd1na2vs0mg"},{"bike_id":"a5a6c2c1-2d48-4581-8647-6eab6c0bbb54","system_id":"levelo_inurba_marseille","lat":43.26354,"lon":5.373798,"is_reserved":false,"is_disabled":false,"rental_uris":{"android":"levelo://app?vid=a5a6c2c1-2d48-4581-8647-6eab6c0bbb54","ios":"levelo://app?vid=a5a6c2c1-2d48-4581-8647-6eab6c0bbb54"},"vehicle_type_id":"4","last_reported":1752154064,"current_range_meters":17200,"station_id":"","pricing_plan_id":"cebpf4jnsgd1na2vs0mg"},{"bike_id":"c7bc0b85-c966-4913-8908-15a71d65944b","system_id":"levelo_inurba_marseille","lat":43.35469,"lon":5.3572,"is_reserved":false,"is_disabled":false,"rental_uris":{"android":"levelo://app?vid=c7bc0b85-c966-4913-8908-15a71d65944b","ios":"levelo://app?vid=c7bc0b85-c966-4913-8908-15a71d65944b"},"vehicle_type_id":"4","last_reported":1752154064,"current_range_meters":17200,"station_id":"","pricing_plan_id":"cebpf4jnsgd1na2vs0mg"},{"bike_id":"24b17f7b-dff1-4936-b27a-7c2c6813a894","system_id":"levelo_inurba_marseille","lat":43.24595,"lon":5.37383,"is_reserved":false,"is_disabled":false,"rental_uris":{"android":"levelo://app?vid=24b17f7b-dff1-4936-b27a-7c2c6813a894","ios":"levelo://app?vid=24b17f7b-dff1-4936-b27a-7c2c6813a894"},"vehicle_type_id":"4","last_reported":1752154064,"current_range_meters":17200,"station_id":"","pricing_plan_id":"cebpf4jnsgd1na2vs0mg"},{"bike_id":"9c772ddc-b1ca-4795-963f-f1de9ab8215d","system_id":"levelo_inurba_marseille","lat":43.30138,"lon":5.37406,"is_reserved":false,"is_disabled":false,"rental_uris":{"android":"levelo://app?vid=9c772ddc-b1ca-4795-963f-f1de9ab8215d","ios":"levelo://app?vid=9c772ddc-b1ca-4795-963f-f1de9ab8215d"},"vehicle_type_id":"4","last_reported":1752154064,"current_range_meters":17200,"station_id":"ce4bgs92rcd13ifvqcc0","pricing_plan_id":"cebpf4jnsgd1na2vs0mg"},{"bike_id":"9e9e4346-f98a-4288-93ef-9b6fcc259f2d","system_id":"levelo_inurba_marseille","lat":43.28414,"lon":5.34995,"is_reserved":false,"is_disabled":false,"rental_uris":{"android":"levelo://app?vid=9e9e4346-f98a-4288-93ef-9b6fcc259f2d","ios":"levelo://app?vid=9e9e4346-f98a-4288-93ef-9b6fcc259f2d"},"vehicle_type_id":"4","last_reported":1752154064,"current_range_meters":17200,"station_id":"ce4bhbh2rcd13ifvqepg","pricing_plan_id":"cebpf4jnsgd1na2vs0mg"},{"bike_id":"15ab90ec-56d6-4852-abe6-f4c7ffe49d82","system_id":"levelo_inurba_marseille","lat":43.28261,"lon":5.35068,"is_reserved":false,"is_disabled":false,"rental_uris":{"android":"levelo://app?vid=15ab90ec-56d6-4852-abe6-f4c7ffe49d82","ios":"levelo://app?vid=15ab90ec-56d6-4852-abe6-f4c7ffe49d82"},"vehicle_type_id":"4","last_reported":1752154064,"current_range_meters":17200,"station_id":"ce4bhbp2rcd13ifvqerg","pricing_plan_id":"cebpf4jnsgd1na2vs0mg"},{"bike_id":"f7307128-f6e3-40a3-b30f-f4891395d8f9","system_id":"levelo_inurba_marseille","lat":43.28629,"lon":5.3509,"is_reserved":false,"is_disabled":false,"rental_uris":{"android":"levelo://app?vid=f7307128-f6e3-40a3-b30f-f4891395d8f9","ios":"levelo://app?vid=f7307128-f6e3-40a3-b30f-f4891395d8f9"},"vehicle_type_id":"4","last_reported":1752154064,"current_range_meters":17200,"station_id":"ce4bhch2rcd13ifvqeug","pricing_plan_id":"cebpf4jnsgd1na2vs0mg"},{"bike_id":"9b8d88ed-6470-44a5-bbbe-5ed7e95c1cb7","system_id":"levelo_inurba_marseille","lat":43.24169,"lon":5.36396,"is_reserved":false,"is_disabled":false,"rental_uris":{"android":"levelo://app?vid=9b8d88ed-6470-44a5-bbbe-5ed7e95c1cb7","ios":"levelo://app?vid=9b8d88ed-6470-44a5-bbbe-5ed7e95c1cb7"},"vehicle_type_id":"4","last_reported":1752154064,"current_range_meters":17200,"station_id":"cpo36qri1sfpv3e86is0","pricing_plan_id":"cebpf4jnsgd1na2vs0mg"},{"bike_id":"ee1ac907-8623-4d00-ac01-d41dd90be9fe","system_id":"levelo_inurba_marseille","lat":43.21179,"lon":5.35093,"is_reserved":false,"is_disabled":false,"rental_uris":{"android":"levelo://app?vid=ee1ac907-8623-4d00-ac01-d41dd90be9fe","ios":"levelo://app?vid=ee1ac907-8623-4d00-ac01-d41dd90be9fe"},"vehicle_type_id":"4","last_reported":1752154064,"current_range_meters":17200,"station_id":"st_cvj6sg6p6f1abm77japg","pricing_plan_id":"cebpf4jnsgd1na2vs0mg"},{"bike_id":"bcb5093d-72d2-421e-92d3-1be69245626d","system_id":"levelo_inurba_marseille","lat":43.28251,"lon":5.35111,"is_reserved":false,"is_disabled":false,"rental_uris":{"android":"levelo://app?vid=bcb5093d-72d2-421e-92d3-1be69245626d","ios":"levelo://app?vid=bcb5093d-72d2-421e-92d3-1be69245626d"},"vehicle_type_id":"4","last_reported":1752154064,"current_range_meters":17600,"station_id":"","pricing_plan_id":"cebpf4jnsgd1na2vs0mg"},{"bike_id":"cc91f022-5f4f-478d-8287-995a3efb66d1","system_id":"levelo_inurba_marseille","lat":43.262277,"lon":5.404573,"is_reserved":false,"is_disabled":false,"rental_uris":{"android":"levelo://app?vid=cc91f022-5f4f-478d-8287-995a3efb66d1","ios":"levelo://app?vid=cc91f022-5f4f-478d-8287-995a3efb66d1"},"vehicle_type_id":"4","last_reported":1752154064,"current_range_meters":17600,"station_id":"ce4bhmh2rcd13ifvqgmg","pricing_plan_id":"cebpf4jnsgd1na2vs0mg"},{"bike_id":"8f89e4f3-495a-4317-bd6d-37a19186d65b","system_id":"levelo_inurba_marseille","lat":43.3373,"lon":5.39192,"is_reserved":false,"is_disabled":false,"rental_uris":{"android":"levelo://app?vid=8f89e4f3-495a-4317-bd6d-37a19186d65b","ios":"levelo://app?vid=8f89e4f3-495a-4317-bd6d-37a19186d65b"},"vehicle_type_id":"4","last_reported":1752154064,"current_range_meters":17600,"station_id":"ce4bhr92rcd13ifvqhsg","pricing_plan_id":"cebpf4jnsgd1na2vs0mg"},{"bike_id":"620c39dc-a416-4605-b27e-d4faf78ab1bf","system_id":"levelo_inurba_marseille","lat":43.22928,"lon":5.3538,"is_reserved":false,"is_disabled":false,"rental_uris":{"android":"levelo://app?vid=620c39dc-a416-4605-b27e-d4faf78ab1bf","ios":"levelo://app?vid=620c39dc-a416-4605-b27e-d4faf78ab1bf"},"vehicle_type_id":"4","last_reported":1752154064,"current_range_meters":17600,"station_id":"cpo3532slgdg3j2ikp40","pricing_plan_id":"cebpf4jnsgd1na2vs0mg"},{"bike_id":"a3d06fdd-d90f-4da8-9200-8f61c005f0a2","system_id":"levelo_inurba_marseille","lat":43.22511,"lon":5.3478,"is_reserved":false,"is_disabled":false,"rental_uris":{"android":"levelo://app?vid=a3d06fdd-d90f-4da8-9200-8f61c005f0a2","ios":"levelo://app?vid=a3d06fdd-d90f-4da8-9200-8f61c005f0a2"},"vehicle_type_id":"4","last_reported":1752154064,"current_range_meters":17600,"station_id":"st_cvj5dfep6f1abm77gieg","pricing_plan_id":"cebpf4jnsgd1na2vs0mg"},{"bike_id":"4c20d321-0bc9-42d0-9308-79703d497ae9","system_id":"levelo_inurba_marseille","lat":43.284789,"lon":5.384169,"is_reserved":false,"is_disabled":false,"rental_uris":{"android":"levelo://app?vid=4c20d321-0bc9-42d0-9308-79703d497ae9","ios":"levelo://app?vid=4c20d321-0bc9-42d0-9308-79703d497ae9"},"vehicle_type_id":"4","last_reported":1752154064,"current_range_meters":18000,"station_id":"","pricing_plan_id":"cebpf4jnsgd1na2vs0mg"},{"bike_id":"74efb7ac-5292-4d58-8fa8-5d39218ea8f2","system_id":"levelo_inurba_marseille","lat":43.3088,"lon":5.39644,"is_reserved":false,"is_disabled":false,"rental_uris":{"android":"levelo://app?vid=74efb7ac-5292-4d58-8fa8-5d39218ea8f2","ios":"levelo://app?vid=74efb7ac-5292-4d58-8fa8-5d39218ea8f2"},"vehicle_type_id":"4","last_reported":1752154064,"current_range_meters":18000,"station_id":"ce4bh012rcd13ifvqcv0","pricing_plan_id":"cebpf4jnsgd1na2vs0mg"},{"bike_id":"2e6ed084-50b3-4394-a9bf-febad611bd03","system_id":"levelo_inurba_marseille","lat":43.28418,"lon":5.34993,"is_reserved":false,"is_disabled":false,"rental_uris":{"android":"levelo://app?vid=2e6ed084-50b3-4394-a9bf-febad611bd03","ios":"levelo://app?vid=2e6ed084-50b3-4394-a9bf-febad611bd03"},"vehicle_type_id":"4","last_reported":1752154064,"current_range_meters":18000,"station_id":"ce4bhbh2rcd13ifvqepg","pricing_plan_id":"cebpf4jnsgd1na2vs0mg"},{"bike_id":"a37c81c5-d096-4e6d-b1b3-5bbb8251fbd0","system_id":"levelo_inurba_marseille","lat":43.243911,"lon":5.370648,"is_reserved":false,"is_disabled":false,"rental_uris":{"android":"levelo://app?vid=a37c81c5-d096-4e6d-b1b3-5bbb8251fbd0","ios":"levelo://app?vid=a37c81c5-d096-4e6d-b1b3-5bbb8251fbd0"},"vehicle_type_id":"4","last_reported":1752154064,"current_range_meters":18000,"station_id":"ce4bhhh2rcd13ifvqfk0","pricing_plan_id":"cebpf4jnsgd1na2vs0mg"},{"bike_id":"02ef6089-6433-4fe3-b379-8e926e04b68b","system_id":"levelo_inurba_marseille","lat":43.23964,"lon":5.36645,"is_reserved":false,"is_disabled":false,"rental_uris":{"android":"levelo://app?vid=02ef6089-6433-4fe3-b379-8e926e04b68b","ios":"levelo://app?vid=02ef6089-6433-4fe3-b379-8e926e04b68b"},"vehicle_type_id":"4","last_reported":1752154064,"current_range_meters":18000,"station_id":"ce4bhi12rcd13ifvqfp0","pricing_plan_id":"cebpf4jnsgd1na2vs0mg"},{"bike_id":"a744e08e-16d1-4c0c-bbb8-df2bdaaf5ca0","system_id":"levelo_inurba_marseille","lat":43.23156,"lon":5.43711,"is_reserved":false,"is_disabled":false,"rental_uris":{"android":"levelo://app?vid=a744e08e-16d1-4c0c-bbb8-df2bdaaf5ca0","ios":"levelo://app?vid=a744e08e-16d1-4c0c-bbb8-df2bdaaf5ca0"},"vehicle_type_id":"4","last_reported":1752154064,"current_range_meters":18000,"station_id":"ce4bhmp2rcd13ifvqgog","pricing_plan_id":"cebpf4jnsgd1na2vs0mg"},{"bike_id":"6cf6841b-bf7d-4df9-8a1e-96f681722cdd","system_id":"levelo_inurba_marseille","lat":43.28609,"lon":5.37063,"is_reserved":false,"is_disabled":false,"rental_uris":{"android":"levelo://app?vid=6cf6841b-bf7d-4df9-8a1e-96f681722cdd","ios":"levelo://app?vid=6cf6841b-bf7d-4df9-8a1e-96f681722cdd"},"vehicle_type_id":"4","last_reported":1752154064,"current_range_meters":18000,"station_id":"ce4bht12rcd13ifvqi60","pricing_plan_id":"cebpf4jnsgd1na2vs0mg"},{"bike_id":"768c2f57-bfbc-4779-9f59-6169b7447570","system_id":"levelo_inurba_marseille","lat":43.23057,"lon":5.35501,"is_reserved":false,"is_disabled":false,"rental_uris":{"android":"levelo://app?vid=768c2f57-bfbc-4779-9f59-6169b7447570","ios":"levelo://app?vid=768c2f57-bfbc-4779-9f59-6169b7447570"},"vehicle_type_id":"4","last_reported":1752154064,"current_range_meters":18000,"station_id":"cpo3342slgdg3j2ifvpg","pricing_plan_id":"cebpf4jnsgd1na2vs0mg"},{"bike_id":"ccd8088e-665d-407d-bc70-2c07bf9cec81","system_id":"levelo_inurba_marseille","lat":43.22916,"lon":5.3541,"is_reserved":false,"is_disabled":false,"rental_uris":{"android":"levelo://app?vid=ccd8088e-665d-407d-bc70-2c07bf9cec81","ios":"levelo://app?vid=ccd8088e-665d-407d-bc70-2c07bf9cec81"},"vehicle_type_id":"4","last_reported":1752154064,"current_range_meters":18000,"station_id":"cpo3532slgdg3j2ikp40","pricing_plan_id":"cebpf4jnsgd1na2vs0mg"},{"bike_id":"6d526cf2-f7c6-43f0-8c10-b635af2f14a9","system_id":"levelo_inurba_marseille","lat":43.229326,"lon":5.353896,"is_reserved":false,"is_disabled":false,"rental_uris":{"android":"levelo://app?vid=6d526cf2-f7c6-43f0-8c10-b635af2f14a9","ios":"levelo://app?vid=6d526cf2-f7c6-43f0-8c10-b635af2f14a9"},"vehicle_type_id":"4","last_reported":1752154064,"current_range_meters":18000,"station_id":"cpo3532slgdg3j2ikp40","pricing_plan_id":"cebpf4jnsgd1na2vs0mg"},{"bike_id":"29a0a180-d29f-4a4e-a71b-d1d9d42cb217","system_id":"levelo_inurba_marseille","lat":43.21196,"lon":5.35104,"is_reserved":false,"is_disabled":false,"rental_uris":{"android":"levelo://app?vid=29a0a180-d29f-4a4e-a71b-d1d9d42cb217","ios":"levelo://app?vid=29a0a180-d29f-4a4e-a71b-d1d9d42cb217"},"vehicle_type_id":"4","last_reported":1752154064,"current_range_meters":18000,"station_id":"st_cvj6sg6p6f1abm77japg","pricing_plan_id":"cebpf4jnsgd1na2vs0mg"},{"bike_id":"595e9351-a7ce-45de-8995-771f7d9fe86e","system_id":"levelo_inurba_marseille","lat":43.309243,"lon":5.378088,"is_reserved":false,"is_disabled":false,"rental_uris":{"android":"levelo://app?vid=595e9351-a7ce-45de-8995-771f7d9fe86e","ios":"levelo://app?vid=595e9351-a7ce-45de-8995-771f7d9fe86e"},"vehicle_type_id":"4","last_reported":1752154064,"current_range_meters":18800,"station_id":"","pricing_plan_id":"cebpf4jnsgd1na2vs0mg"},{"bike_id":"38a4795d-6fec-4fc6-bc0e-132de0c6b7bf","system_id":"levelo_inurba_marseille","lat":43.30549,"lon":5.3655,"is_reserved":false,"is_disabled":false,"rental_uris":{"android":"levelo://app?vid=38a4795d-6fec-4fc6-bc0e-132de0c6b7bf","ios":"levelo://app?vid=38a4795d-6fec-4fc6-bc0e-132de0c6b7bf"},"vehicle_type_id":"4","last_reported":1752154064,"current_range_meters":18800,"station_id":"ce4bgs12rcd13ifvqcag","pricing_plan_id":"cebpf4jnsgd1na2vs0mg"},{"bike_id":"878f26dc-1c2b-4334-aba8-3bd005614a15","system_id":"levelo_inurba_marseille","lat":43.29189,"lon":5.35802,"is_reserved":false,"is_disabled":false,"rental_uris":{"android":"levelo://app?vid=878f26dc-1c2b-4334-aba8-3bd005614a15","ios":"levelo://app?vid=878f26dc-1c2b-4334-aba8-3bd005614a15"},"vehicle_type_id":"4","last_reported":1752154064,"current_range_meters":18800,"station_id":"ce4bhb12rcd13ifvqel0","pricing_plan_id":"cebpf4jnsgd1na2vs0mg"},{"bike_id":"d33cbabe-8724-4b7d-a873-a5476968f7d3","system_id":"levelo_inurba_marseille","lat":43.284005,"lon":5.349822,"is_reserved":false,"is_disabled":false,"rental_uris":{"android":"levelo://app?vid=d33cbabe-8724-4b7d-a873-a5476968f7d3","ios":"levelo://app?vid=d33cbabe-8724-4b7d-a873-a5476968f7d3"},"vehicle_type_id":"4","last_reported":1752154064,"current_range_meters":18800,"station_id":"ce4bhbh2rcd13ifvqepg","pricing_plan_id":"cebpf4jnsgd1na2vs0mg"},{"bike_id":"67dcf5ba-9f78-4b03-bec2-7431b50e3f91","system_id":"levelo_inurba_marseille","lat":43.27204,"lon":5.39182,"is_reserved":false,"is_disabled":false,"rental_uris":{"android":"levelo://app?vid=67dcf5ba-9f78-4b03-bec2-7431b50e3f91","ios":"levelo://app?vid=67dcf5ba-9f78-4b03-bec2-7431b50e3f91"},"vehicle_type_id":"4","last_reported":1752154064,"current_range_meters":18800,"station_id":"ce4bhhp2rcd13ifvqfm0","pricing_plan_id":"cebpf4jnsgd1na2vs0mg"},{"bike_id":"d39178c4-b7be-4d48-9ac4-b9c12a67227c","system_id":"levelo_inurba_marseille","lat":43.25929,"lon":5.40866,"is_reserved":false,"is_disabled":false,"rental_uris":{"android":"levelo://app?vid=d39178c4-b7be-4d48-9ac4-b9c12a67227c","ios":"levelo://app?vid=d39178c4-b7be-4d48-9ac4-b9c12a67227c"},"vehicle_type_id":"4","last_reported":1752154064,"current_range_meters":18800,"station_id":"ce4bhm92rcd13ifvqglg","pricing_plan_id":"cebpf4jnsgd1na2vs0mg"},{"bike_id":"9f3c5f2e-d4be-4bd4-9865-c7acb5e49047","system_id":"levelo_inurba_marseille","lat":43.30376,"lon":5.42477,"is_reserved":false,"is_disabled":false,"rental_uris":{"android":"levelo://app?vid=9f3c5f2e-d4be-4bd4-9865-c7acb5e49047","ios":"levelo://app?vid=9f3c5f2e-d4be-4bd4-9865-c7acb5e49047"},"vehicle_type_id":"4","last_reported":1752154064,"current_range_meters":18800,"station_id":"ce4bhoh2rcd13ifvqh6g","pricing_plan_id":"cebpf4jnsgd1na2vs0mg"},{"bike_id":"8b440aeb-3c8b-4650-9f24-9c9b62dd74de","system_id":"levelo_inurba_marseille","lat":43.21187,"lon":5.35072,"is_reserved":false,"is_disabled":false,"rental_uris":{"android":"levelo://app?vid=8b440aeb-3c8b-4650-9f24-9c9b62dd74de","ios":"levelo://app?vid=8b440aeb-3c8b-4650-9f24-9c9b62dd74de"},"vehicle_type_id":"4","last_reported":1752154064,"current_range_meters":18800,"station_id":"st_cvj6sg6p6f1abm77japg","pricing_plan_id":"cebpf4jnsgd1na2vs0mg"},{"bike_id":"800b1751-81c4-40b8-ace8-ec2de651aab0","system_id":"levelo_inurba_marseille","lat":43.29935,"lon":5.36596,"is_reserved":false,"is_disabled":false,"rental_uris":{"android":"levelo://app?vid=800b1751-81c4-40b8-ace8-ec2de651aab0","ios":"levelo://app?vid=800b1751-81c4-40b8-ace8-ec2de651aab0"},"vehicle_type_id":"4","last_reported":1752154064,"current_range_meters":19200,"station_id":"ce4bgm92rcd13ifvqbr0","pricing_plan_id":"cebpf4jnsgd1na2vs0mg"},{"bike_id":"f17e9f4d-b216-40cf-a6e4-23b51a690058","system_id":"levelo_inurba_marseille","lat":43.29247,"lon":5.40907,"is_reserved":false,"is_disabled":false,"rental_uris":{"android":"levelo://app?vid=f17e9f4d-b216-40cf-a6e4-23b51a690058","ios":"levelo://app?vid=f17e9f4d-b216-40cf-a6e4-23b51a690058"},"vehicle_type_id":"4","last_reported":1752154064,"current_range_meters":19200,"station_id":"ce4bh192rcd13ifvqdc0","pricing_plan_id":"cebpf4jnsgd1na2vs0mg"},{"bike_id":"f172a914-1395-4e57-8a1c-dcbe8652545d","system_id":"levelo_inurba_marseille","lat":43.262041,"lon":5.374457,"is_reserved":false,"is_disabled":false,"rental_uris":{"android":"levelo://app?vid=f172a914-1395-4e57-8a1c-dcbe8652545d","ios":"levelo://app?vid=f172a914-1395-4e57-8a1c-dcbe8652545d"},"vehicle_type_id":"4","last_reported":1752154064,"current_range_meters":19200,"station_id":"ce4bhgp2rcd13ifvqfc0","pricing_plan_id":"cebpf4jnsgd1na2vs0mg"},{"bike_id":"e3a75ee9-c614-467b-8cc2-f813bcef2ab1","system_id":"levelo_inurba_marseille","lat":43.33743,"lon":5.3919,"is_reserved":false,"is_disabled":false,"rental_uris":{"android":"levelo://app?vid=e3a75ee9-c614-467b-8cc2-f813bcef2ab1","ios":"levelo://app?vid=e3a75ee9-c614-467b-8cc2-f813bcef2ab1"},"vehicle_type_id":"4","last_reported":1752154064,"current_range_meters":19200,"station_id":"ce4bhr92rcd13ifvqhsg","pricing_plan_id":"cebpf4jnsgd1na2vs0mg"},{"bike_id":"4ca69d49-63d1-4772-9006-09bcfa098c08","system_id":"levelo_inurba_marseille","lat":43.26161,"lon":5.37468,"is_reserved":false,"is_disabled":false,"rental_uris":{"android":"levelo://app?vid=4ca69d49-63d1-4772-9006-09bcfa098c08","ios":"levelo://app?vid=4ca69d49-63d1-4772-9006-09bcfa098c08"},"vehicle_type_id":"4","last_reported":1752154064,"current_range_meters":19600,"station_id":"","pricing_plan_id":"cebpf4jnsgd1na2vs0mg"},{"bike_id":"cb8db05c-7ef4-4fcf-b321-cdc13d7cccad","system_id":"levelo_inurba_marseille","lat":43.290753,"lon":5.355695,"is_reserved":false,"is_disabled":false,"rental_uris":{"android":"levelo://app?vid=cb8db05c-7ef4-4fcf-b321-cdc13d7cccad","ios":"levelo://app?vid=cb8db05c-7ef4-4fcf-b321-cdc13d7cccad"},"vehicle_type_id":"4","last_reported":1752154064,"current_range_meters":19600,"station_id":"","pricing_plan_id":"cebpf4jnsgd1na2vs0mg"},{"bike_id":"70fb38eb-bc91-46b9-8331-ce03b841c330","system_id":"levelo_inurba_marseille","lat":43.29832,"lon":5.3627,"is_reserved":false,"is_disabled":false,"rental_uris":{"android":"levelo://app?vid=70fb38eb-bc91-46b9-8331-ce03b841c330","ios":"levelo://app?vid=70fb38eb-bc91-46b9-8331-ce03b841c330"},"vehicle_type_id":"4","last_reported":1752154064,"current_range_meters":19600,"station_id":"ce4bgpp2rcd13ifvqc3g","pricing_plan_id":"cebpf4jnsgd1na2vs0mg"},{"bike_id":"484d4207-f668-4dc5-ba37-b9196efda610","system_id":"levelo_inurba_marseille","lat":43.30542,"lon":5.36553,"is_reserved":false,"is_disabled":false,"rental_uris":{"android":"levelo://app?vid=484d4207-f668-4dc5-ba37-b9196efda610","ios":"levelo://app?vid=484d4207-f668-4dc5-ba37-b9196efda610"},"vehicle_type_id":"4","last_reported":1752154064,"current_range_meters":19600,"station_id":"ce4bgs12rcd13ifvqcag","pricing_plan_id":"cebpf4jnsgd1na2vs0mg"},{"bike_id":"e41f92bf-eb86-4d48-a9ca-65ca70574759","system_id":"levelo_inurba_marseille","lat":43.28261,"lon":5.35069,"is_reserved":false,"is_disabled":false,"rental_uris":{"android":"levelo://app?vid=e41f92bf-eb86-4d48-a9ca-65ca70574759","ios":"levelo://app?vid=e41f92bf-eb86-4d48-a9ca-65ca70574759"},"vehicle_type_id":"4","last_reported":1752154064,"current_range_meters":19600,"station_id":"ce4bhbp2rcd13ifvqerg","pricing_plan_id":"cebpf4jnsgd1na2vs0mg"},{"bike_id":"591f4f64-81e5-4a85-a2e0-419f34f92309","system_id":"levelo_inurba_marseille","lat":43.32111,"lon":5.36781,"is_reserved":false,"is_disabled":false,"rental_uris":{"android":"levelo://app?vid=591f4f64-81e5-4a85-a2e0-419f34f92309","ios":"levelo://app?vid=591f4f64-81e5-4a85-a2e0-419f34f92309"},"vehicle_type_id":"4","last_reported":1752154064,"current_range_meters":19600,"station_id":"ce4bhrh2rcd13ifvqhug","pricing_plan_id":"cebpf4jnsgd1na2vs0mg"},{"bike_id":"06ec5e73-7c37-4d7d-9933-e904369ec74e","system_id":"levelo_inurba_marseille","lat":43.32344,"lon":5.36708,"is_reserved":false,"is_disabled":false,"rental_uris":{"android":"levelo://app?vid=06ec5e73-7c37-4d7d-9933-e904369ec74e","ios":"levelo://app?vid=06ec5e73-7c37-4d7d-9933-e904369ec74e"},"vehicle_type_id":"4","last_reported":1752154064,"current_range_meters":19600,"station_id":"ce4bhsh2rcd13ifvqi2g","pricing_plan_id":"cebpf4jnsgd1na2vs0mg"},{"bike_id":"52bbed55-bb43-4609-aa14-ca80dd09df26","system_id":"levelo_inurba_marseille","lat":43.3374,"lon":5.37495,"is_reserved":false,"is_disabled":false,"rental_uris":{"android":"levelo://app?vid=52bbed55-bb43-4609-aa14-ca80dd09df26","ios":"levelo://app?vid=52bbed55-bb43-4609-aa14-ca80dd09df26"},"vehicle_type_id":"4","last_reported":1752154064,"current_range_meters":20000,"station_id":"","pricing_plan_id":"cebpf4jnsgd1na2vs0mg"},{"bike_id":"fde530d0-eeed-4692-bb9c-2c65ba0cdd9f","system_id":"levelo_inurba_marseille","lat":43.30843,"lon":5.42586,"is_reserved":false,"is_disabled":false,"rental_uris":{"android":"levelo://app?vid=fde530d0-eeed-4692-bb9c-2c65ba0cdd9f","ios":"levelo://app?vid=fde530d0-eeed-4692-bb9c-2c65ba0cdd9f"},"vehicle_type_id":"4","last_reported":1752154064,"current_range_meters":20000,"station_id":"","pricing_plan_id":"cebpf4jnsgd1na2vs0mg"},{"bike_id":"4e00cdbd-b77b-42f4-baba-ccd4943dd4d7","system_id":"levelo_inurba_marseille","lat":43.2984,"lon":5.36274,"is_reserved":false,"is_disabled":false,"rental_uris":{"android":"levelo://app?vid=4e00cdbd-b77b-42f4-baba-ccd4943dd4d7","ios":"levelo://app?vid=4e00cdbd-b77b-42f4-baba-ccd4943dd4d7"},"vehicle_type_id":"4","last_reported":1752154064,"current_range_meters":20000,"station_id":"ce4bgpp2rcd13ifvqc3g","pricing_plan_id":"cebpf4jnsgd1na2vs0mg"},{"bike_id":"ad65c0e5-41d1-41a7-adf3-1846489af418","system_id":"levelo_inurba_marseille","lat":43.3078,"lon":5.37646,"is_reserved":false,"is_disabled":false,"rental_uris":{"android":"levelo://app?vid=ad65c0e5-41d1-41a7-adf3-1846489af418","ios":"levelo://app?vid=ad65c0e5-41d1-41a7-adf3-1846489af418"},"vehicle_type_id":"4","last_reported":1752154064,"current_range_meters":20000,"station_id":"ce4bgv92rcd13ifvqcq0","pricing_plan_id":"cebpf4jnsgd1na2vs0mg"},{"bike_id":"6737fe9b-6a3a-4b4e-94b6-194a31284cbb","system_id":"levelo_inurba_marseille","lat":43.30635,"lon":5.40093,"is_reserved":false,"is_disabled":false,"rental_uris":{"android":"levelo://app?vid=6737fe9b-6a3a-4b4e-94b6-194a31284cbb","ios":"levelo://app?vid=6737fe9b-6a3a-4b4e-94b6-194a31284cbb"},"vehicle_type_id":"4","last_reported":1752154064,"current_range_meters":20000,"station_id":"ce4bh112rcd13ifvqda0","pricing_plan_id":"cebpf4jnsgd1na2vs0mg"},{"bike_id":"7019abb7-7290-46fc-9e18-2b81a414a239","system_id":"levelo_inurba_marseille","lat":43.28106,"lon":5.37837,"is_reserved":false,"is_disabled":false,"rental_uris":{"android":"levelo://app?vid=7019abb7-7290-46fc-9e18-2b81a414a239","ios":"levelo://app?vid=7019abb7-7290-46fc-9e18-2b81a414a239"},"vehicle_type_id":"4","last_reported":1752154064,"current_range_meters":20000,"station_id":"ce4bha12rcd13ifvqee0","pricing_plan_id":"cebpf4jnsgd1na2vs0mg"},{"bike_id":"843fd1e3-926e-46ce-971a-3d02ac6a6054","system_id":"levelo_inurba_marseille","lat":43.24662,"lon":5.38167,"is_reserved":false,"is_disabled":false,"rental_uris":{"android":"levelo://app?vid=843fd1e3-926e-46ce-971a-3d02ac6a6054","ios":"levelo://app?vid=843fd1e3-926e-46ce-971a-3d02ac6a6054"},"vehicle_type_id":"4","last_reported":1752154064,"current_range_meters":20000,"station_id":"ce4bhih2rcd13ifvqfr0","pricing_plan_id":"cebpf4jnsgd1na2vs0mg"},{"bike_id":"5e4bb725-0a7c-42b6-8717-a55d114feeb5","system_id":"levelo_inurba_marseille","lat":43.32455,"lon":5.36573,"is_reserved":false,"is_disabled":false,"rental_uris":{"android":"levelo://app?vid=5e4bb725-0a7c-42b6-8717-a55d114feeb5","ios":"levelo://app?vid=5e4bb725-0a7c-42b6-8717-a55d114feeb5"},"vehicle_type_id":"4","last_reported":1752154064,"current_range_meters":20000,"station_id":"ce4bhs12rcd13ifvqhvg","pricing_plan_id":"cebpf4jnsgd1na2vs0mg"},{"bike_id":"8a714a3d-5bed-4c0e-96e8-f1ca872de929","system_id":"levelo_inurba_marseille","lat":43.28608,"lon":5.37059,"is_reserved":false,"is_disabled":false,"rental_uris":{"android":"levelo://app?vid=8a714a3d-5bed-4c0e-96e8-f1ca872de929","ios":"levelo://app?vid=8a714a3d-5bed-4c0e-96e8-f1ca872de929"},"vehicle_type_id":"4","last_reported":1752154064,"current_range_meters":20000,"station_id":"ce4bht12rcd13ifvqi60","pricing_plan_id":"cebpf4jnsgd1na2vs0mg"},{"bike_id":"495b42e7-c480-4c9f-af1d-45f0e83f40b6","system_id":"levelo_inurba_marseille","lat":43.21746,"lon":5.34607,"is_reserved":false,"is_disabled":false,"rental_uris":{"android":"levelo://app?vid=495b42e7-c480-4c9f-af1d-45f0e83f40b6","ios":"levelo://app?vid=495b42e7-c480-4c9f-af1d-45f0e83f40b6"},"vehicle_type_id":"4","last_reported":1752154064,"current_range_meters":20000,"station_id":"st_cvj6r9ubvosntc0bgbag","pricing_plan_id":"cebpf4jnsgd1na2vs0mg"},{"bike_id":"7b5cd6ce-df57-4328-854d-cb2d1407ab18","system_id":"levelo_inurba_marseille","lat":43.33075,"lon":5.39003,"is_reserved":false,"is_disabled":false,"rental_uris":{"android":"levelo://app?vid=7b5cd6ce-df57-4328-854d-cb2d1407ab18","ios":"levelo://app?vid=7b5cd6ce-df57-4328-854d-cb2d1407ab18"},"vehicle_type_id":"4","last_reported":1752154064,"current_range_meters":20400,"station_id":"","pricing_plan_id":"cebpf4jnsgd1na2vs0mg"},{"bike_id":"6fefbf99-4f45-4f7e-940e-669c1a8fa458","system_id":"levelo_inurba_marseille","lat":43.31364,"lon":5.367,"is_reserved":false,"is_disabled":false,"rental_uris":{"android":"levelo://app?vid=6fefbf99-4f45-4f7e-940e-669c1a8fa458","ios":"levelo://app?vid=6fefbf99-4f45-4f7e-940e-669c1a8fa458"},"vehicle_type_id":"4","last_reported":1752154064,"current_range_meters":20400,"station_id":"ce4bgr92rcd13ifvqc6g","pricing_plan_id":"cebpf4jnsgd1na2vs0mg"},{"bike_id":"c142aa9d-7afe-4cc4-a17e-e65bd44a32aa","system_id":"levelo_inurba_marseille","lat":43.30544,"lon":5.36524,"is_reserved":false,"is_disabled":false,"rental_uris":{"android":"levelo://app?vid=c142aa9d-7afe-4cc4-a17e-e65bd44a32aa","ios":"levelo://app?vid=c142aa9d-7afe-4cc4-a17e-e65bd44a32aa"},"vehicle_type_id":"4","last_reported":1752154064,"current_range_meters":20400,"station_id":"ce4bgs12rcd13ifvqcag","pricing_plan_id":"cebpf4jnsgd1na2vs0mg"},{"bike_id":"56ee5e29-9327-4805-9811-c5ca3ccf343d","system_id":"levelo_inurba_marseille","lat":43.30952,"lon":5.40135,"is_reserved":false,"is_disabled":false,"rental_uris":{"android":"levelo://app?vid=56ee5e29-9327-4805-9811-c5ca3ccf343d","ios":"levelo://app?vid=56ee5e29-9327-4805-9811-c5ca3ccf343d"},"vehicle_type_id":"4","last_reported":1752154064,"current_range_meters":20400,"station_id":"ce4bgvp2rcd13ifvqct0","pricing_plan_id":"cebpf4jnsgd1na2vs0mg"},{"bike_id":"564cb0bb-57a6-4471-b863-9a9d3cc51bec","system_id":"levelo_inurba_marseille","lat":43.27368,"lon":5.3626,"is_reserved":false,"is_disabled":false,"rental_uris":{"android":"levelo://app?vid=564cb0bb-57a6-4471-b863-9a9d3cc51bec","ios":"levelo://app?vid=564cb0bb-57a6-4471-b863-9a9d3cc51bec"},"vehicle_type_id":"4","last_reported":1752154064,"current_range_meters":20400,"station_id":"ce4bhbh2rcd13ifvqeo0","pricing_plan_id":"cebpf4jnsgd1na2vs0mg"},{"bike_id":"5fa281ea-b2b7-4806-a59d-87d02c76b268","system_id":"levelo_inurba_marseille","lat":43.25901,"lon":5.40896,"is_reserved":false,"is_disabled":false,"rental_uris":{"android":"levelo://app?vid=5fa281ea-b2b7-4806-a59d-87d02c76b268","ios":"levelo://app?vid=5fa281ea-b2b7-4806-a59d-87d02c76b268"},"vehicle_type_id":"4","last_reported":1752154064,"current_range_meters":20400,"station_id":"ce4bhm92rcd13ifvqglg","pricing_plan_id":"cebpf4jnsgd1na2vs0mg"},{"bike_id":"41c4827f-9f3d-416f-bbe6-ec0cf48e58f5","system_id":"levelo_inurba_marseille","lat":43.33607,"lon":5.410364,"is_reserved":false,"is_disabled":false,"rental_uris":{"android":"levelo://app?vid=41c4827f-9f3d-416f-bbe6-ec0cf48e58f5","ios":"levelo://app?vid=41c4827f-9f3d-416f-bbe6-ec0cf48e58f5"},"vehicle_type_id":"4","last_reported":1752154064,"current_range_meters":20400,"station_id":"ce4bhqh2rcd13ifvqhmg","pricing_plan_id":"cebpf4jnsgd1na2vs0mg"},{"bike_id":"65c6d2d7-a7dc-45ec-9f2f-fb7430e6281d","system_id":"levelo_inurba_marseille","lat":43.32346,"lon":5.36745,"is_reserved":false,"is_disabled":false,"rental_uris":{"android":"levelo://app?vid=65c6d2d7-a7dc-45ec-9f2f-fb7430e6281d","ios":"levelo://app?vid=65c6d2d7-a7dc-45ec-9f2f-fb7430e6281d"},"vehicle_type_id":"4","last_reported":1752154064,"current_range_meters":20400,"station_id":"ce4bhsh2rcd13ifvqi2g","pricing_plan_id":"cebpf4jnsgd1na2vs0mg"},{"bike_id":"dafa5a87-b26d-4379-9a6b-1f02133b78a6","system_id":"levelo_inurba_marseille","lat":43.211757,"lon":5.351043,"is_reserved":false,"is_disabled":false,"rental_uris":{"android":"levelo://app?vid=dafa5a87-b26d-4379-9a6b-1f02133b78a6","ios":"levelo://app?vid=dafa5a87-b26d-4379-9a6b-1f02133b78a6"},"vehicle_type_id":"4","last_reported":1752154064,"current_range_meters":20400,"station_id":"st_cvj6sg6p6f1abm77japg","pricing_plan_id":"cebpf4jnsgd1na2vs0mg"},{"bike_id":"37b84a38-055a-4a6e-a56a-8ff3d0c1b2ec","system_id":"levelo_inurba_marseille","lat":43.211899,"lon":5.350754,"is_reserved":false,"is_disabled":false,"rental_uris":{"android":"levelo://app?vid=37b84a38-055a-4a6e-a56a-8ff3d0c1b2ec","ios":"levelo://app?vid=37b84a38-055a-4a6e-a56a-8ff3d0c1b2ec"},"vehicle_type_id":"4","last_reported":1752154064,"current_range_meters":20400,"station_id":"st_cvj6sg6p6f1abm77japg","pricing_plan_id":"cebpf4jnsgd1na2vs0mg"},{"bike_id":"c0b25fe6-a5c9-4f10-8632-acbc4be17ec7","system_id":"levelo_inurba_marseille","lat":43.30767,"lon":5.37649,"is_reserved":false,"is_disabled":false,"rental_uris":{"android":"levelo://app?vid=c0b25fe6-a5c9-4f10-8632-acbc4be17ec7","ios":"levelo://app?vid=c0b25fe6-a5c9-4f10-8632-acbc4be17ec7"},"vehicle_type_id":"4","last_reported":1752154064,"current_range_meters":20800,"station_id":"ce4bgv92rcd13ifvqcq0","pricing_plan_id":"cebpf4jnsgd1na2vs0mg"},{"bike_id":"4b7264a2-07ac-4530-a40e-5317fc89af6b","system_id":"levelo_inurba_marseille","lat":43.31686,"lon":5.40479,"is_reserved":false,"is_disabled":false,"rental_uris":{"android":"levelo://app?vid=4b7264a2-07ac-4530-a40e-5317fc89af6b","ios":"levelo://app?vid=4b7264a2-07ac-4530-a40e-5317fc89af6b"},"vehicle_type_id":"4","last_reported":1752154064,"current_range_meters":20800,"station_id":"ce4bh012rcd13ifvqd00","pricing_plan_id":"cebpf4jnsgd1na2vs0mg"},{"bike_id":"125b67b5-0ea9-4fc6-a276-bc78b839d604","system_id":"levelo_inurba_marseille","lat":43.29529,"lon":5.39008,"is_reserved":false,"is_disabled":false,"rental_uris":{"android":"levelo://app?vid=125b67b5-0ea9-4fc6-a276-bc78b839d604","ios":"levelo://app?vid=125b67b5-0ea9-4fc6-a276-bc78b839d604"},"vehicle_type_id":"4","last_reported":1752154064,"current_range_meters":20800,"station_id":"ce4bh3p2rcd13ifvqdp0","pricing_plan_id":"cebpf4jnsgd1na2vs0mg"},{"bike_id":"75043fd3-12d9-43f2-84e9-ba6eebd6c2f9","system_id":"levelo_inurba_marseille","lat":43.25491,"lon":5.37673,"is_reserved":false,"is_disabled":false,"rental_uris":{"android":"levelo://app?vid=75043fd3-12d9-43f2-84e9-ba6eebd6c2f9","ios":"levelo://app?vid=75043fd3-12d9-43f2-84e9-ba6eebd6c2f9"},"vehicle_type_id":"4","last_reported":1752154064,"current_range_meters":20800,"station_id":"ce4bhh12rcd13ifvqff0","pricing_plan_id":"cebpf4jnsgd1na2vs0mg"},{"bike_id":"7f5051af-bec0-45f2-a210-88095fee74d4","system_id":"levelo_inurba_marseille","lat":43.21779,"lon":5.3459,"is_reserved":false,"is_disabled":false,"rental_uris":{"android":"levelo://app?vid=7f5051af-bec0-45f2-a210-88095fee74d4","ios":"levelo://app?vid=7f5051af-bec0-45f2-a210-88095fee74d4"},"vehicle_type_id":"4","last_reported":1752154064,"current_range_meters":20800,"station_id":"st_cvj6r9ubvosntc0bgbag","pricing_plan_id":"cebpf4jnsgd1na2vs0mg"},{"bike_id":"43b90c82-97e0-4fa7-8b67-2448f07d529e","system_id":"levelo_inurba_marseille","lat":43.21189,"lon":5.35076,"is_reserved":false,"is_disabled":false,"rental_uris":{"android":"levelo://app?vid=43b90c82-97e0-4fa7-8b67-2448f07d529e","ios":"levelo://app?vid=43b90c82-97e0-4fa7-8b67-2448f07d529e"},"vehicle_type_id":"4","last_reported":1752154064,"current_range_meters":21600,"station_id":"","pricing_plan_id":"cebpf4jnsgd1na2vs0mg"},{"bike_id":"dbba3321-20c7-4989-a7b5-ea9ab2c4b3e8","system_id":"levelo_inurba_marseille","lat":43.261935,"lon":5.374477,"is_reserved":false,"is_disabled":false,"rental_uris":{"android":"levelo://app?vid=dbba3321-20c7-4989-a7b5-ea9ab2c4b3e8","ios":"levelo://app?vid=dbba3321-20c7-4989-a7b5-ea9ab2c4b3e8"},"vehicle_type_id":"4","last_reported":1752154064,"current_range_meters":21600,"station_id":"ce4bhgp2rcd13ifvqfc0","pricing_plan_id":"cebpf4jnsgd1na2vs0mg"},{"bike_id":"d43c3f50-7cc1-4dd0-b596-b27abca3bb5c","system_id":"levelo_inurba_marseille","lat":43.26195,"lon":5.37448,"is_reserved":false,"is_disabled":false,"rental_uris":{"android":"levelo://app?vid=d43c3f50-7cc1-4dd0-b596-b27abca3bb5c","ios":"levelo://app?vid=d43c3f50-7cc1-4dd0-b596-b27abca3bb5c"},"vehicle_type_id":"4","last_reported":1752154064,"current_range_meters":21600,"station_id":"ce4bhgp2rcd13ifvqfc0","pricing_plan_id":"cebpf4jnsgd1na2vs0mg"},{"bike_id":"11391b78-8f97-41a0-9cb9-0d3ccc162efe","system_id":"levelo_inurba_marseille","lat":43.21754,"lon":5.34604,"is_reserved":false,"is_disabled":false,"rental_uris":{"android":"levelo://app?vid=11391b78-8f97-41a0-9cb9-0d3ccc162efe","ios":"levelo://app?vid=11391b78-8f97-41a0-9cb9-0d3ccc162efe"},"vehicle_type_id":"4","last_reported":1752154064,"current_range_meters":21600,"station_id":"st_cvj6r9ubvosntc0bgbag","pricing_plan_id":"cebpf4jnsgd1na2vs0mg"},{"bike_id":"5f9facdb-d1e1-40e1-8ceb-766e4b9ac193","system_id":"levelo_inurba_marseille","lat":43.21754,"lon":5.345992,"is_reserved":false,"is_disabled":false,"rental_uris":{"android":"levelo://app?vid=5f9facdb-d1e1-40e1-8ceb-766e4b9ac193","ios":"levelo://app?vid=5f9facdb-d1e1-40e1-8ceb-766e4b9ac193"},"vehicle_type_id":"4","last_reported":1752154064,"current_range_meters":22000,"station_id":"","pricing_plan_id":"cebpf4jnsgd1na2vs0mg"},{"bike_id":"046fa2a0-9fb2-4690-9995-70f0621686d6","system_id":"levelo_inurba_marseille","lat":43.259398,"lon":5.409035,"is_reserved":false,"is_disabled":false,"rental_uris":{"android":"levelo://app?vid=046fa2a0-9fb2-4690-9995-70f0621686d6","ios":"levelo://app?vid=046fa2a0-9fb2-4690-9995-70f0621686d6"},"vehicle_type_id":"4","last_reported":1752154064,"current_range_meters":22000,"station_id":"","pricing_plan_id":"cebpf4jnsgd1na2vs0mg"},{"bike_id":"09e19b6c-03be-413a-b572-381e44334b9f","system_id":"levelo_inurba_marseille","lat":43.29871,"lon":5.39737,"is_reserved":false,"is_disabled":false,"rental_uris":{"android":"levelo://app?vid=09e19b6c-03be-413a-b572-381e44334b9f","ios":"levelo://app?vid=09e19b6c-03be-413a-b572-381e44334b9f"},"vehicle_type_id":"4","last_reported":1752154064,"current_range_meters":22000,"station_id":"ce4bh0h2rcd13ifvqd50","pricing_plan_id":"cebpf4jnsgd1na2vs0mg"},{"bike_id":"fe3748f0-63b3-46a4-9acc-31336f1b1995","system_id":"levelo_inurba_marseille","lat":43.28936,"lon":5.39631,"is_reserved":false,"is_disabled":false,"rental_uris":{"android":"levelo://app?vid=fe3748f0-63b3-46a4-9acc-31336f1b1995","ios":"levelo://app?vid=fe3748f0-63b3-46a4-9acc-31336f1b1995"},"vehicle_type_id":"4","last_reported":1752154064,"current_range_meters":22000,"station_id":"ce4bh3h2rcd13ifvqdn0","pricing_plan_id":"cebpf4jnsgd1na2vs0mg"},{"bike_id":"72578c54-5f2c-4fc7-b593-af0d4cce64e6","system_id":"levelo_inurba_marseille","lat":43.2826,"lon":5.35074,"is_reserved":false,"is_disabled":false,"rental_uris":{"android":"levelo://app?vid=72578c54-5f2c-4fc7-b593-af0d4cce64e6","ios":"levelo://app?vid=72578c54-5f2c-4fc7-b593-af0d4cce64e6"},"vehicle_type_id":"4","last_reported":1752154064,"current_range_meters":22000,"station_id":"ce4bhbp2rcd13ifvqerg","pricing_plan_id":"cebpf4jnsgd1na2vs0mg"},{"bike_id":"65956467-65b9-41c6-bcd6-af3b570f810d","system_id":"levelo_inurba_marseille","lat":43.2619,"lon":5.37471,"is_reserved":false,"is_disabled":false,"rental_uris":{"android":"levelo://app?vid=65956467-65b9-41c6-bcd6-af3b570f810d","ios":"levelo://app?vid=65956467-65b9-41c6-bcd6-af3b570f810d"},"vehicle_type_id":"4","last_reported":1752154064,"current_range_meters":22000,"station_id":"ce4bhgp2rcd13ifvqfc0","pricing_plan_id":"cebpf4jnsgd1na2vs0mg"},{"bike_id":"b6dcd2c1-0d76-4767-8413-3866b661d382","system_id":"levelo_inurba_marseille","lat":43.279669,"lon":5.410459,"is_reserved":false,"is_disabled":false,"rental_uris":{"android":"levelo://app?vid=b6dcd2c1-0d76-4767-8413-3866b661d382","ios":"levelo://app?vid=b6dcd2c1-0d76-4767-8413-3866b661d382"},"vehicle_type_id":"4","last_reported":1752154064,"current_range_meters":22000,"station_id":"ce4bhnp2rcd13ifvqh0g","pricing_plan_id":"cebpf4jnsgd1na2vs0mg"},{"bike_id":"953ea83f-a4ea-4034-85d4-e09bef5b921a","system_id":"levelo_inurba_marseille","lat":43.225,"lon":5.34781,"is_reserved":false,"is_disabled":false,"rental_uris":{"android":"levelo://app?vid=953ea83f-a4ea-4034-85d4-e09bef5b921a","ios":"levelo://app?vid=953ea83f-a4ea-4034-85d4-e09bef5b921a"},"vehicle_type_id":"4","last_reported":1752154064,"current_range_meters":22000,"station_id":"st_cvj5dfep6f1abm77gieg","pricing_plan_id":"cebpf4jnsgd1na2vs0mg"},{"bike_id":"edfecb0b-e9ae-4b74-bcff-0e624d0045ff","system_id":"levelo_inurba_marseille","lat":43.3093,"lon":5.40141,"is_reserved":false,"is_disabled":false,"rental_uris":{"android":"levelo://app?vid=edfecb0b-e9ae-4b74-bcff-0e624d0045ff","ios":"levelo://app?vid=edfecb0b-e9ae-4b74-bcff-0e624d0045ff"},"vehicle_type_id":"4","last_reported":1752154064,"current_range_meters":22400,"station_id":"ce4bgvp2rcd13ifvqct0","pricing_plan_id":"cebpf4jnsgd1na2vs0mg"},{"bike_id":"b573620b-b670-47f2-8c0c-cb142da7dfe9","system_id":"levelo_inurba_marseille","lat":43.273194,"lon":5.390761,"is_reserved":false,"is_disabled":false,"rental_uris":{"android":"levelo://app?vid=b573620b-b670-47f2-8c0c-cb142da7dfe9","ios":"levelo://app?vid=b573620b-b670-47f2-8c0c-cb142da7dfe9"},"vehicle_type_id":"4","last_reported":1752154064,"current_range_meters":22400,"station_id":"ce4bh9p2rcd13ifvqec0","pricing_plan_id":"cebpf4jnsgd1na2vs0mg"},{"bike_id":"d357372f-6bce-4590-bdf3-7a38b5641ee3","system_id":"levelo_inurba_marseille","lat":43.2893,"lon":5.36635,"is_reserved":false,"is_disabled":false,"rental_uris":{"android":"levelo://app?vid=d357372f-6bce-4590-bdf3-7a38b5641ee3","ios":"levelo://app?vid=d357372f-6bce-4590-bdf3-7a38b5641ee3"},"vehicle_type_id":"4","last_reported":1752154064,"current_range_meters":22400,"station_id":"ce4bhap2rcd13ifvqek0","pricing_plan_id":"cebpf4jnsgd1na2vs0mg"},{"bike_id":"0712ab87-ecdc-47c1-ac05-a1e0b8c59e43","system_id":"levelo_inurba_marseille","lat":43.2737,"lon":5.36246,"is_reserved":false,"is_disabled":false,"rental_uris":{"android":"levelo://app?vid=0712ab87-ecdc-47c1-ac05-a1e0b8c59e43","ios":"levelo://app?vid=0712ab87-ecdc-47c1-ac05-a1e0b8c59e43"},"vehicle_type_id":"4","last_reported":1752154064,"current_range_meters":22400,"station_id":"ce4bhbh2rcd13ifvqeo0","pricing_plan_id":"cebpf4jnsgd1na2vs0mg"},{"bike_id":"b7d2b65c-4d5e-4e35-bb8a-ff91c064c5dc","system_id":"levelo_inurba_marseille","lat":43.28404,"lon":5.34992,"is_reserved":false,"is_disabled":false,"rental_uris":{"android":"levelo://app?vid=b7d2b65c-4d5e-4e35-bb8a-ff91c064c5dc","ios":"levelo://app?vid=b7d2b65c-4d5e-4e35-bb8a-ff91c064c5dc"},"vehicle_type_id":"4","last_reported":1752154064,"current_range_meters":22400,"station_id":"ce4bhbh2rcd13ifvqepg","pricing_plan_id":"cebpf4jnsgd1na2vs0mg"},{"bike_id":"68826ec1-2d41-4bb5-a405-afb62c7d1197","system_id":"levelo_inurba_marseille","lat":43.2842,"lon":5.34992,"is_reserved":false,"is_disabled":false,"rental_uris":{"android":"levelo://app?vid=68826ec1-2d41-4bb5-a405-afb62c7d1197","ios":"levelo://app?vid=68826ec1-2d41-4bb5-a405-afb62c7d1197"},"vehicle_type_id":"4","last_reported":1752154064,"current_range_meters":22400,"station_id":"ce4bhbh2rcd13ifvqepg","pricing_plan_id":"cebpf4jnsgd1na2vs0mg"},{"bike_id":"c278feab-e882-46b1-b083-828299e2d4e0","system_id":"levelo_inurba_marseille","lat":43.23178,"lon":5.39983,"is_reserved":false,"is_disabled":false,"rental_uris":{"android":"levelo://app?vid=c278feab-e882-46b1-b083-828299e2d4e0","ios":"levelo://app?vid=c278feab-e882-46b1-b083-828299e2d4e0"},"vehicle_type_id":"4","last_reported":1752154064,"current_range_meters":22400,"station_id":"ce4bhn12rcd13ifvqgqg","pricing_plan_id":"cebpf4jnsgd1na2vs0mg"},{"bike_id":"b42d7c38-1c82-4226-bfd8-fc44d3a3ea22","system_id":"levelo_inurba_marseille","lat":43.31238,"lon":5.36839,"is_reserved":false,"is_disabled":false,"rental_uris":{"android":"levelo://app?vid=b42d7c38-1c82-4226-bfd8-fc44d3a3ea22","ios":"levelo://app?vid=b42d7c38-1c82-4226-bfd8-fc44d3a3ea22"},"vehicle_type_id":"4","last_reported":1752154064,"current_range_meters":22800,"station_id":"ce4bgl92rcd13ifvqbq0","pricing_plan_id":"cebpf4jnsgd1na2vs0mg"},{"bike_id":"a61c4993-4e43-41ae-b4e5-4f7087f00e5f","system_id":"levelo_inurba_marseille","lat":43.29843,"lon":5.36277,"is_reserved":false,"is_disabled":false,"rental_uris":{"android":"levelo://app?vid=a61c4993-4e43-41ae-b4e5-4f7087f00e5f","ios":"levelo://app?vid=a61c4993-4e43-41ae-b4e5-4f7087f00e5f"},"vehicle_type_id":"4","last_reported":1752154064,"current_range_meters":22800,"station_id":"ce4bgpp2rcd13ifvqc3g","pricing_plan_id":"cebpf4jnsgd1na2vs0mg"},{"bike_id":"8c9dc852-5216-46da-a355-fb9acb7a2853","system_id":"levelo_inurba_marseille","lat":43.273621,"lon":5.362461,"is_reserved":false,"is_disabled":false,"rental_uris":{"android":"levelo://app?vid=8c9dc852-5216-46da-a355-fb9acb7a2853","ios":"levelo://app?vid=8c9dc852-5216-46da-a355-fb9acb7a2853"},"vehicle_type_id":"4","last_reported":1752154064,"current_range_meters":22800,"station_id":"ce4bhbh2rcd13ifvqeo0","pricing_plan_id":"cebpf4jnsgd1na2vs0mg"},{"bike_id":"d5e6942e-9cf0-4099-ab46-48b215cc6d5e","system_id":"levelo_inurba_marseille","lat":43.2825,"lon":5.3505,"is_reserved":false,"is_disabled":false,"rental_uris":{"android":"levelo://app?vid=d5e6942e-9cf0-4099-ab46-48b215cc6d5e","ios":"levelo://app?vid=d5e6942e-9cf0-4099-ab46-48b215cc6d5e"},"vehicle_type_id":"4","last_reported":1752154064,"current_range_meters":22800,"station_id":"ce4bhbp2rcd13ifvqerg","pricing_plan_id":"cebpf4jnsgd1na2vs0mg"},{"bike_id":"e86ba8c9-208d-482c-a826-4c100938472a","system_id":"levelo_inurba_marseille","lat":43.211948,"lon":5.350686,"is_reserved":false,"is_disabled":false,"rental_uris":{"android":"levelo://app?vid=e86ba8c9-208d-482c-a826-4c100938472a","ios":"levelo://app?vid=e86ba8c9-208d-482c-a826-4c100938472a"},"vehicle_type_id":"4","last_reported":1752154064,"current_range_meters":22800,"station_id":"st_cvj6sg6p6f1abm77japg","pricing_plan_id":"cebpf4jnsgd1na2vs0mg"},{"bike_id":"23b37642-b108-4776-9368-34aa0142bdf9","system_id":"levelo_inurba_marseille","lat":43.29842,"lon":5.36273,"is_reserved":false,"is_disabled":false,"rental_uris":{"android":"levelo://app?vid=23b37642-b108-4776-9368-34aa0142bdf9","ios":"levelo://app?vid=23b37642-b108-4776-9368-34aa0142bdf9"},"vehicle_type_id":"4","last_reported":1752154064,"current_range_meters":23200,"station_id":"ce4bgpp2rcd13ifvqc3g","pricing_plan_id":"cebpf4jnsgd1na2vs0mg"},{"bike_id":"32ea2331-ff3f-457b-8d51-826f37560a93","system_id":"levelo_inurba_marseille","lat":43.30777,"lon":5.38171,"is_reserved":false,"is_disabled":false,"rental_uris":{"android":"levelo://app?vid=32ea2331-ff3f-457b-8d51-826f37560a93","ios":"levelo://app?vid=32ea2331-ff3f-457b-8d51-826f37560a93"},"vehicle_type_id":"4","last_reported":1752154064,"current_range_meters":23200,"station_id":"ce4bgt12rcd13ifvqce0","pricing_plan_id":"cebpf4jnsgd1na2vs0mg"},{"bike_id":"c169943a-2fba-42ca-a537-d4c53f2cb203","system_id":"levelo_inurba_marseille","lat":43.31329,"lon":5.39693,"is_reserved":false,"is_disabled":false,"rental_uris":{"android":"levelo://app?vid=c169943a-2fba-42ca-a537-d4c53f2cb203","ios":"levelo://app?vid=c169943a-2fba-42ca-a537-d4c53f2cb203"},"vehicle_type_id":"4","last_reported":1752154064,"current_range_meters":23200,"station_id":"ce4bgvp2rcd13ifvqcu0","pricing_plan_id":"cebpf4jnsgd1na2vs0mg"},{"bike_id":"63eb0946-3a7f-48f5-9ce5-04ee0abbe304","system_id":"levelo_inurba_marseille","lat":43.28412,"lon":5.34965,"is_reserved":false,"is_disabled":false,"rental_uris":{"android":"levelo://app?vid=63eb0946-3a7f-48f5-9ce5-04ee0abbe304","ios":"levelo://app?vid=63eb0946-3a7f-48f5-9ce5-04ee0abbe304"},"vehicle_type_id":"4","last_reported":1752154064,"current_range_meters":23200,"station_id":"ce4bhbh2rcd13ifvqepg","pricing_plan_id":"cebpf4jnsgd1na2vs0mg"},{"bike_id":"e950f680-b1a3-4497-a681-45549c5f3272","system_id":"levelo_inurba_marseille","lat":43.28264,"lon":5.35068,"is_reserved":false,"is_disabled":false,"rental_uris":{"android":"levelo://app?vid=e950f680-b1a3-4497-a681-45549c5f3272","ios":"levelo://app?vid=e950f680-b1a3-4497-a681-45549c5f3272"},"vehicle_type_id":"4","last_reported":1752154064,"current_range_meters":23200,"station_id":"ce4bhbp2rcd13ifvqerg","pricing_plan_id":"cebpf4jnsgd1na2vs0mg"},{"bike_id":"3a01fc12-271c-4342-b912-67007af6cc96","system_id":"levelo_inurba_marseille","lat":43.26197,"lon":5.37483,"is_reserved":false,"is_disabled":false,"rental_uris":{"android":"levelo://app?vid=3a01fc12-271c-4342-b912-67007af6cc96","ios":"levelo://app?vid=3a01fc12-271c-4342-b912-67007af6cc96"},"vehicle_type_id":"4","last_reported":1752154064,"current_range_meters":23200,"station_id":"ce4bhgp2rcd13ifvqfc0","pricing_plan_id":"cebpf4jnsgd1na2vs0mg"},{"bike_id":"8d635064-fd1a-4388-aa0f-e40a6a6c8bc5","system_id":"levelo_inurba_marseille","lat":43.257375,"lon":5.411386,"is_reserved":false,"is_disabled":false,"rental_uris":{"android":"levelo://app?vid=8d635064-fd1a-4388-aa0f-e40a6a6c8bc5","ios":"levelo://app?vid=8d635064-fd1a-4388-aa0f-e40a6a6c8bc5"},"vehicle_type_id":"4","last_reported":1752154064,"current_range_meters":23200,"station_id":"ce4bhkp2rcd13ifvqgd0","pricing_plan_id":"cebpf4jnsgd1na2vs0mg"},{"bike_id":"93e9eaf4-08f8-40b1-9dd8-48d8e605730d","system_id":"levelo_inurba_marseille","lat":43.23172,"lon":5.43699,"is_reserved":false,"is_disabled":false,"rental_uris":{"android":"levelo://app?vid=93e9eaf4-08f8-40b1-9dd8-48d8e605730d","ios":"levelo://app?vid=93e9eaf4-08f8-40b1-9dd8-48d8e605730d"},"vehicle_type_id":"4","last_reported":1752154064,"current_range_meters":23200,"station_id":"ce4bhmp2rcd13ifvqgog","pricing_plan_id":"cebpf4jnsgd1na2vs0mg"},{"bike_id":"452e8211-4f44-45d0-814a-3e9e25b8c44e","system_id":"levelo_inurba_marseille","lat":43.21188,"lon":5.35074,"is_reserved":false,"is_disabled":false,"rental_uris":{"android":"levelo://app?vid=452e8211-4f44-45d0-814a-3e9e25b8c44e","ios":"levelo://app?vid=452e8211-4f44-45d0-814a-3e9e25b8c44e"},"vehicle_type_id":"4","last_reported":1752154064,"current_range_meters":23200,"station_id":"st_cvj6sg6p6f1abm77japg","pricing_plan_id":"cebpf4jnsgd1na2vs0mg"},{"bike_id":"5fae4696-4745-4bfd-b3fa-9c8f72e406b8","system_id":"levelo_inurba_marseille","lat":43.21753,"lon":5.34603,"is_reserved":false,"is_disabled":false,"rental_uris":{"android":"levelo://app?vid=5fae4696-4745-4bfd-b3fa-9c8f72e406b8","ios":"levelo://app?vid=5fae4696-4745-4bfd-b3fa-9c8f72e406b8"},"vehicle_type_id":"4","last_reported":1752154064,"current_range_meters":24000,"station_id":"","pricing_plan_id":"cebpf4jnsgd1na2vs0mg"},{"bike_id":"70f85462-7aaf-45f1-86f5-31bb51936349","system_id":"levelo_inurba_marseille","lat":43.30552,"lon":5.36721,"is_reserved":false,"is_disabled":false,"rental_uris":{"android":"levelo://app?vid=70f85462-7aaf-45f1-86f5-31bb51936349","ios":"levelo://app?vid=70f85462-7aaf-45f1-86f5-31bb51936349"},"vehicle_type_id":"4","last_reported":1752154064,"current_range_meters":24000,"station_id":"ce4bgrp2rcd13ifvqc9g","pricing_plan_id":"cebpf4jnsgd1na2vs0mg"},{"bike_id":"a023d3da-85e9-4faf-9f4e-e86a3f765d3e","system_id":"levelo_inurba_marseille","lat":43.31704,"lon":5.3773,"is_reserved":false,"is_disabled":false,"rental_uris":{"android":"levelo://app?vid=a023d3da-85e9-4faf-9f4e-e86a3f765d3e","ios":"levelo://app?vid=a023d3da-85e9-4faf-9f4e-e86a3f765d3e"},"vehicle_type_id":"4","last_reported":1752154064,"current_range_meters":24000,"station_id":"ce4bgth2rcd13ifvqch0","pricing_plan_id":"cebpf4jnsgd1na2vs0mg"},{"bike_id":"332c530f-0402-4fb0-ab1c-577087e02459","system_id":"levelo_inurba_marseille","lat":43.28415,"lon":5.34986,"is_reserved":false,"is_disabled":false,"rental_uris":{"android":"levelo://app?vid=332c530f-0402-4fb0-ab1c-577087e02459","ios":"levelo://app?vid=332c530f-0402-4fb0-ab1c-577087e02459"},"vehicle_type_id":"4","last_reported":1752154064,"current_range_meters":24000,"station_id":"ce4bhbh2rcd13ifvqepg","pricing_plan_id":"cebpf4jnsgd1na2vs0mg"},{"bike_id":"66bc7345-0db7-4114-9922-2d5a323088b8","system_id":"levelo_inurba_marseille","lat":43.28259,"lon":5.35072,"is_reserved":false,"is_disabled":false,"rental_uris":{"android":"levelo://app?vid=66bc7345-0db7-4114-9922-2d5a323088b8","ios":"levelo://app?vid=66bc7345-0db7-4114-9922-2d5a323088b8"},"vehicle_type_id":"4","last_reported":1752154064,"current_range_meters":24000,"station_id":"ce4bhbp2rcd13ifvqerg","pricing_plan_id":"cebpf4jnsgd1na2vs0mg"},{"bike_id":"60d37d48-14a2-40ee-95b0-260d4ab3c2db","system_id":"levelo_inurba_marseille","lat":43.26208,"lon":5.37434,"is_reserved":false,"is_disabled":false,"rental_uris":{"android":"levelo://app?vid=60d37d48-14a2-40ee-95b0-260d4ab3c2db","ios":"levelo://app?vid=60d37d48-14a2-40ee-95b0-260d4ab3c2db"},"vehicle_type_id":"4","last_reported":1752154064,"current_range_meters":24000,"station_id":"ce4bhgp2rcd13ifvqfc0","pricing_plan_id":"cebpf4jnsgd1na2vs0mg"},{"bike_id":"095841ff-4539-44ba-b632-1281556d709d","system_id":"levelo_inurba_marseille","lat":43.243904,"lon":5.370712,"is_reserved":false,"is_disabled":false,"rental_uris":{"android":"levelo://app?vid=095841ff-4539-44ba-b632-1281556d709d","ios":"levelo://app?vid=095841ff-4539-44ba-b632-1281556d709d"},"vehicle_type_id":"4","last_reported":1752154064,"current_range_meters":24000,"station_id":"ce4bhhh2rcd13ifvqfk0","pricing_plan_id":"cebpf4jnsgd1na2vs0mg"},{"bike_id":"9a5ecb01-299a-46f1-8807-6bd4317a877c","system_id":"levelo_inurba_marseille","lat":43.279932,"lon":5.416604,"is_reserved":false,"is_disabled":false,"rental_uris":{"android":"levelo://app?vid=9a5ecb01-299a-46f1-8807-6bd4317a877c","ios":"levelo://app?vid=9a5ecb01-299a-46f1-8807-6bd4317a877c"},"vehicle_type_id":"4","last_reported":1752154064,"current_range_meters":24000,"station_id":"ce4bho12rcd13ifvqh1g","pricing_plan_id":"cebpf4jnsgd1na2vs0mg"},{"bike_id":"881ac15c-e324-4bf4-9569-ad048d9e8a7c","system_id":"levelo_inurba_marseille","lat":43.29897,"lon":5.43683,"is_reserved":false,"is_disabled":false,"rental_uris":{"android":"levelo://app?vid=881ac15c-e324-4bf4-9569-ad048d9e8a7c","ios":"levelo://app?vid=881ac15c-e324-4bf4-9569-ad048d9e8a7c"},"vehicle_type_id":"4","last_reported":1752154064,"current_range_meters":24000,"station_id":"ce4bhpp2rcd13ifvqhfg","pricing_plan_id":"cebpf4jnsgd1na2vs0mg"},{"bike_id":"c75bb91e-aa5a-49c1-b731-6d424b0690e7","system_id":"levelo_inurba_marseille","lat":43.3236,"lon":5.36722,"is_reserved":false,"is_disabled":false,"rental_uris":{"android":"levelo://app?vid=c75bb91e-aa5a-49c1-b731-6d424b0690e7","ios":"levelo://app?vid=c75bb91e-aa5a-49c1-b731-6d424b0690e7"},"vehicle_type_id":"4","last_reported":1752154064,"current_range_meters":24000,"station_id":"ce4bhsh2rcd13ifvqi2g","pricing_plan_id":"cebpf4jnsgd1na2vs0mg"},{"bike_id":"0335f126-6bbf-44e3-a5e0-8ed786d318f7","system_id":"levelo_inurba_marseille","lat":43.29275,"lon":5.37449,"is_reserved":false,"is_disabled":false,"rental_uris":{"android":"levelo://app?vid=0335f126-6bbf-44e3-a5e0-8ed786d318f7","ios":"levelo://app?vid=0335f126-6bbf-44e3-a5e0-8ed786d318f7"},"vehicle_type_id":"4","last_reported":1752154064,"current_range_meters":24400,"station_id":"ce4bgi12rcd13ifvqb70","pricing_plan_id":"cebpf4jnsgd1na2vs0mg"},{"bike_id":"a378ccdf-1dfc-4b5d-b357-9c2eac329109","system_id":"levelo_inurba_marseille","lat":43.30146,"lon":5.38088,"is_reserved":false,"is_disabled":false,"rental_uris":{"android":"levelo://app?vid=a378ccdf-1dfc-4b5d-b357-9c2eac329109","ios":"levelo://app?vid=a378ccdf-1dfc-4b5d-b357-9c2eac329109"},"vehicle_type_id":"4","last_reported":1752154064,"current_range_meters":24400,"station_id":"ce4bgjp2rcd13ifvqbh0","pricing_plan_id":"cebpf4jnsgd1na2vs0mg"},{"bike_id":"8f3a5bcd-f0a0-4d5f-b9b0-57d389785cdf","system_id":"levelo_inurba_marseille","lat":43.30519,"lon":5.36721,"is_reserved":false,"is_disabled":false,"rental_uris":{"android":"levelo://app?vid=8f3a5bcd-f0a0-4d5f-b9b0-57d389785cdf","ios":"levelo://app?vid=8f3a5bcd-f0a0-4d5f-b9b0-57d389785cdf"},"vehicle_type_id":"4","last_reported":1752154064,"current_range_meters":24400,"station_id":"ce4bgrp2rcd13ifvqc9g","pricing_plan_id":"cebpf4jnsgd1na2vs0mg"},{"bike_id":"b3200d24-e121-47be-8926-f5f0c71007a5","system_id":"levelo_inurba_marseille","lat":43.289743,"lon":5.378338,"is_reserved":false,"is_disabled":false,"rental_uris":{"android":"levelo://app?vid=b3200d24-e121-47be-8926-f5f0c71007a5","ios":"levelo://app?vid=b3200d24-e121-47be-8926-f5f0c71007a5"},"vehicle_type_id":"4","last_reported":1752154064,"current_range_meters":24400,"station_id":"ce4bh9p2rcd13ifvqed0","pricing_plan_id":"cebpf4jnsgd1na2vs0mg"},{"bike_id":"e0374d0b-6f52-4bfb-9c4a-9a9fe8e068de","system_id":"levelo_inurba_marseille","lat":43.26945,"lon":5.38637,"is_reserved":false,"is_disabled":false,"rental_uris":{"android":"levelo://app?vid=e0374d0b-6f52-4bfb-9c4a-9a9fe8e068de","ios":"levelo://app?vid=e0374d0b-6f52-4bfb-9c4a-9a9fe8e068de"},"vehicle_type_id":"4","last_reported":1752154064,"current_range_meters":24400,"station_id":"ce4bhh92rcd13ifvqfh0","pricing_plan_id":"cebpf4jnsgd1na2vs0mg"},{"bike_id":"fc5e3d6d-ac3e-458b-b666-129d4733cb63","system_id":"levelo_inurba_marseille","lat":43.26491,"lon":5.39533,"is_reserved":false,"is_disabled":false,"rental_uris":{"android":"levelo://app?vid=fc5e3d6d-ac3e-458b-b666-129d4733cb63","ios":"levelo://app?vid=fc5e3d6d-ac3e-458b-b666-129d4733cb63"},"vehicle_type_id":"4","last_reported":1752154064,"current_range_meters":24400,"station_id":"ce4bhi12rcd13ifvqfq0","pricing_plan_id":"cebpf4jnsgd1na2vs0mg"},{"bike_id":"ebcf2222-4d2c-434f-b87e-306d18ad75ce","system_id":"levelo_inurba_marseille","lat":43.2782,"lon":5.40724,"is_reserved":false,"is_disabled":false,"rental_uris":{"android":"levelo://app?vid=ebcf2222-4d2c-434f-b87e-306d18ad75ce","ios":"levelo://app?vid=ebcf2222-4d2c-434f-b87e-306d18ad75ce"},"vehicle_type_id":"4","last_reported":1752154064,"current_range_meters":24400,"station_id":"ce4bhnh2rcd13ifvqgtg","pricing_plan_id":"cebpf4jnsgd1na2vs0mg"},{"bike_id":"00bc0b3b-e317-4a17-a011-a3a9a29d816a","system_id":"levelo_inurba_marseille","lat":43.211964,"lon":5.350726,"is_reserved":false,"is_disabled":false,"rental_uris":{"android":"levelo://app?vid=00bc0b3b-e317-4a17-a011-a3a9a29d816a","ios":"levelo://app?vid=00bc0b3b-e317-4a17-a011-a3a9a29d816a"},