{"last_updated":1701310864,"ttl":30,"version":"2.2","data":{"bikes":[{"bike_id":"123b52bc-d4c9-473b-b2c5-211d961d3b7e","system_id":"levelo_inurba_marseille","lat":43.312239,"lon":5.368562,"is_reserved":false,"is_disabled":false,"rental_uris":{"android":"levelo://app?vid=123b52bc-d4c9-473b-b2c5-211d961d3b7e","ios":"levelo://app?vid=123b52bc-d4c9-473b-b2c5-211d961d3b7e"},"vehicle_type_id":"4","last_reported":1701310864,"current_range_meters":24000,"station_id":"ce4bgl92rcd13ifvqbq0","pricing_plan_id":"free"},{"bike_id":"69907837-c36c-4c49-b90d-f2943933288a","system_id":"levelo_inurba_marseille","lat":43.309076,"lon":5.368465,"is_reserved":false,"is_disabled":false,"rental_uris":{"android":"levelo://app?vid=69907837-c36c-4c49-b90d-f2943933288a","ios":"levelo://app?vid=69907837-c36c-4c49-b90d-f2943933288a"},"vehicle_type_id":"4","last_reported":1701310864,"current_range_meters":31200,"station_id":"ce4bgn92rcd13ifvqbvg","pricing_plan_id":"free"},{"bike_id":"e0ed4152-83c6-48a0-8da6-adae3254e07e","system_id":"levelo_inurba_marseille","lat":43.309076,"lon":5.368465,"is_reserved":false,"is_disabled":false,"rental_uris":{"android":"levelo://app?vid=e0ed4152-83c6-48a0-8da6-adae3254e07e","ios":"levelo://app?vid=e0ed4152-83c6-48a0-8da6-adae3254e07e"},"vehicle_type_id":"4","last_reported":1701310864,"current_range_meters":26400,"station_id":"ce4bgn92rcd13ifvqbvg","pricing_plan_id":"free"},{"bike_id":"4c990c7a-97c8-45e4-aad6-5aa5064c1e5b","system_id":"levelo_inurba_marseille","lat":43.314811,"lon":5.373103,"is_reserved":false,"is_disabled":false,"rental_uris":{"android":"levelo://app?vid=4c990c7a-97c8-45e4-aad6-5aa5064c1e5b","ios":"levelo://app?vid=4c990c7a-97c8-45e4-aad6-5aa5064c1e5b"},"vehicle_type_id":"4","last_reported":1701310864,"current_range_meters":24800,"station_id":"ce4bgt12rcd13ifvqcd0","pricing_plan_id":"free"},{"bike_id":"74f66dfb-bcc8-4554-a9e3-733b1eff479a","system_id":"levelo_inurba_marseille","lat":43.309039,"lon":5.371797,"is_reserved":false,"is_disabled":false,"rental_uris":{"android":"levelo://app?vid=74f66dfb-bcc8-4554-a9e3-733b1eff479a","ios":"levelo://app?vid=74f66dfb-bcc8-4554-a9e3-733b1eff479a"},"vehicle_type_id":"4","last_reported":1701310864,"current_range_meters":29600,"station_id":"ce4bguh2rcd13ifvqckg","pricing_plan_id":"free"},{"bike_id":"25a7966d-18b8-4331-a19c-926a59620a84","system_id":"levelo_inurba_marseille","lat":43.305322,"lon":5.36693,"is_reserved":false,"is_disabled":false,"rental_uris":{"android":"levelo://app?vid=25a7966d-18b8-4331-a19c-926a59620a84","ios":"levelo://app?vid=25a7966d-18b8-4331-a19c-926a59620a84"},"vehicle_type_id":"4","last_reported":1701310864,"current_range_meters":24800,"station_id":"ce4bgrp2rcd13ifvqc9g","pricing_plan_id":"free"},{"bike_id":"12631c3d-383c-43f6-be5e-921540dae4f9","system_id":"levelo_inurba_marseille","lat":43.305989,"lon":5.37225,"is_reserved":false,"is_disabled":false,"rental_uris":{"android":"levelo://app?vid=12631c3d-383c-43f6-be5e-921540dae4f9","ios":"levelo://app?vid=12631c3d-383c-43f6-be5e-921540dae4f9"},"vehicle_type_id":"4","last_reported":1701310864,"current_range_meters":26800,"station_id":"ce4bgqh2rcd13ifvqc4g","pricing_plan_id":"free"},{"bike_id":"b247da9b-12ce-4f46-a5d7-c38bf4e37be4","system_id":"levelo_inurba_marseille","lat":43.311254,"lon":5.377563,"is_reserved":false,"is_disabled":false,"rental_uris":{"android":"levelo://app?vid=b247da9b-12ce-4f46-a5d7-c38bf4e37be4","ios":"levelo://app?vid=b247da9b-12ce-4f46-a5d7-c38bf4e37be4"},"vehicle_type_id":"4","last_reported":1701310864,"current_range_meters":5200,"station_id":"ce4bgt92rcd13ifvqcg0","pricing_plan_id":"free"},{"bike_id":"e09e9576-44cb-4d2b-a9cb-cdaab84630b0","system_id":"levelo_inurba_marseille","lat":43.311193,"lon":5.377693,"is_reserved":false,"is_disabled":false,"rental_uris":{"android":"levelo://app?vid=e09e9576-44cb-4d2b-a9cb-cdaab84630b0","ios":"levelo://app?vid=e09e9576-44cb-4d2b-a9cb-cdaab84630b0"},"vehicle_type_id":"4","last_reported":1701310864,"current_range_meters":22400,"station_id":"ce4bgt92rcd13ifvqcg0","pricing_plan_id":"free"},{"bike_id":"b5129530-3639-47e5-92b6-d358b01a2cff","system_id":"levelo_inurba_marseille","lat":43.308147,"lon":5.376539,"is_reserved":false,"is_disabled":false,"rental_uris":{"android":"levelo://app?vid=b5129530-3639-47e5-92b6-d358b01a2cff","ios":"levelo://app?vid=b5129530-3639-47e5-92b6-d358b01a2cff"},"vehicle_type_id":"4","last_reported":1701310864,"current_range_meters":22800,"station_id":"ce4bgv92rcd13ifvqcq0","pricing_plan_id":"free"},{"bike_id":"c97bb28e-2692-446f-9fe7-2615154f5a3c","system_id":"levelo_inurba_marseille","lat":43.307945,"lon":5.376487,"is_reserved":false,"is_disabled":false,"rental_uris":{"android":"levelo://app?vid=c97bb28e-2692-446f-9fe7-2615154f5a3c","ios":"levelo://app?vid=c97bb28e-2692-446f-9fe7-2615154f5a3c"},"vehicle_type_id":"4","last_reported":1701310864,"current_range_meters":21600,"station_id":"ce4bgv92rcd13ifvqcq0","pricing_plan_id":"free"},{"bike_id":"544cc8fc-72fe-42d6-ae4d-ae5248250752","system_id":"levelo_inurba_marseille","lat":43.307945,"lon":5.376487,"is_reserved":false,"is_disabled":false,"rental_uris":{"android":"levelo://app?vid=544cc8fc-72fe-42d6-ae4d-ae5248250752","ios":"levelo://app?vid=544cc8fc-72fe-42d6-ae4d-ae5248250752"},"vehicle_type_id":"4","last_reported":1701310864,"current_range_meters":28000,"station_id":"ce4bgv92rcd13ifvqcq0","pricing_plan_id":"free"},{"bike_id":"073e5f28-931f-49b1-b30b-a52b579e61f5","system_id":"levelo_inurba_marseille","lat":43.307945,"lon":5.376487,"is_reserved":false,"is_disabled":false,"rental_uris":{"android":"levelo://app?vid=073e5f28-931f-49b1-b30b-a52b579e61f5","ios":"levelo://app?vid=073e5f28-931f-49b1-b30b-a52b579e61f5"},"vehicle_type_id":"4","last_reported":1701310864,"current_range_meters":30400,"station_id":"ce4bgv92rcd13ifvqcq0","pricing_plan_id":"free"},{"bike_id":"f427a2c3-6e4a-446b-ae2f-9be8aa7f4122","system_id":"levelo_inurba_marseille","lat":43.31719,"lon":5.376813,"is_reserved":false,"is_disabled":false,"rental_uris":{"android":"levelo://app?vid=f427a2c3-6e4a-446b-ae2f-9be8aa7f4122","ios":"levelo://app?vid=f427a2c3-6e4a-446b-ae2f-9be8aa7f4122"},"vehicle_type_id":"4","last_reported":1701310864,"current_range_meters":7200,"station_id":"ce4bgth2rcd13ifvqch0","pricing_plan_id":"free"},{"bike_id":"e913f328-1e31-4c22-bd87-f809ea246de4","system_id":"levelo_inurba_marseille","lat":43.317168,"lon":5.376883,"is_reserved":false,"is_disabled":false,"rental_uris":{"android":"levelo://app?vid=e913f328-1e31-4c22-bd87-f809ea246de4","ios":"levelo://app?vid=e913f328-1e31-4c22-bd87-f809ea246de4"},"vehicle_type_id":"4","last_reported":1701310864,"current_range_meters":9600,"station_id":"ce4bgth2rcd13ifvqch0","pricing_plan_id":"free"},{"bike_id":"43f2c56c-e419-4afd-a9d3-226846802988","system_id":"levelo_inurba_marseille","lat":43.317075,"lon":5.377367,"is_reserved":false,"is_disabled":false,"rental_uris":{"android":"levelo://app?vid=43f2c56c-e419-4afd-a9d3-226846802988","ios":"levelo://app?vid=43f2c56c-e419-4afd-a9d3-226846802988"},"vehicle_type_id":"4","last_reported":1701310864,"current_range_meters":30000,"station_id":"ce4bgth2rcd13ifvqch0","pricing_plan_id":"free"},{"bike_id":"8624531c-50aa-4d2e-a1e1-3b1f3e5bf86e","system_id":"levelo_inurba_marseille","lat":43.301939,"lon":5.366286,"is_reserved":false,"is_disabled":false,"rental_uris":{"android":"levelo://app?vid=8624531c-50aa-4d2e-a1e1-3b1f3e5bf86e","ios":"levelo://app?vid=8624531c-50aa-4d2e-a1e1-3b1f3e5bf86e"},"vehicle_type_id":"4","last_reported":1701310864,"current_range_meters":30000,"station_id":"ce4bgrh2rcd13ifvqc8g","pricing_plan_id":"free"},{"bike_id":"287508f4-ff89-44f4-85c1-31610bd762b7","system_id":"levelo_inurba_marseille","lat":43.30806,"lon":5.38144,"is_reserved":false,"is_disabled":false,"rental_uris":{"android":"levelo://app?vid=287508f4-ff89-44f4-85c1-31610bd762b7","ios":"levelo://app?vid=287508f4-ff89-44f4-85c1-31610bd762b7"},"vehicle_type_id":"4","last_reported":1701310864,"current_range_meters":11600,"station_id":"ce4bgt12rcd13ifvqce0","pricing_plan_id":"free"},{"bike_id":"8d38ac26-7fa9-4097-84a1-9a2f8ffa2093","system_id":"levelo_inurba_marseille","lat":43.308109,"lon":5.381484,"is_reserved":false,"is_disabled":false,"rental_uris":{"android":"levelo://app?vid=8d38ac26-7fa9-4097-84a1-9a2f8ffa2093","ios":"levelo://app?vid=8d38ac26-7fa9-4097-84a1-9a2f8ffa2093"},"vehicle_type_id":"4","last_reported":1701310864,"current_range_meters":13600,"station_id":"ce4bgt12rcd13ifvqce0","pricing_plan_id":"free"},{"bike_id":"75585f4a-c804-4c55-81cd-779d9d703670","system_id":"levelo_inurba_marseille","lat":43.307984,"lon":5.381516,"is_reserved":false,"is_disabled":false,"rental_uris":{"android":"levelo://app?vid=75585f4a-c804-4c55-81cd-779d9d703670","ios":"levelo://app?vid=75585f4a-c804-4c55-81cd-779d9d703670"},"vehicle_type_id":"4","last_reported":1701310864,"current_range_meters":21600,"station_id":"ce4bgt12rcd13ifvqce0","pricing_plan_id":"free"},{"bike_id":"d371d2ae-ba63-4f15-a9a4-faaff7173407","system_id":"levelo_inurba_marseille","lat":43.304606,"lon":5.379026,"is_reserved":false,"is_disabled":false,"rental_uris":{"android":"levelo://app?vid=d371d2ae-ba63-4f15-a9a4-faaff7173407","ios":"levelo://app?vid=d371d2ae-ba63-4f15-a9a4-faaff7173407"},"vehicle_type_id":"4","last_reported":1701310864,"current_range_meters":30000,"station_id":"ce4bgup2rcd13ifvqcn0","pricing_plan_id":"free"},{"bike_id":"52b240cd-859f-4d08-aeac-1bc539eec2de","system_id":"levelo_inurba_marseille","lat":43.304606,"lon":5.379026,"is_reserved":false,"is_disabled":false,"rental_uris":{"android":"levelo://app?vid=52b240cd-859f-4d08-aeac-1bc539eec2de","ios":"levelo://app?vid=52b240cd-859f-4d08-aeac-1bc539eec2de"},"vehicle_type_id":"4","last_reported":1701310864,"current_range_meters":18400,"station_id":"ce4bgup2rcd13ifvqcn0","pricing_plan_id":"free"},{"bike_id":"5f0dcc7e-fe2f-41ae-b9b7-07b5430b86ee","system_id":"levelo_inurba_marseille","lat":43.324821,"lon":5.36551,"is_reserved":false,"is_disabled":false,"rental_uris":{"android":"levelo://app?vid=5f0dcc7e-fe2f-41ae-b9b7-07b5430b86ee","ios":"levelo://app?vid=5f0dcc7e-fe2f-41ae-b9b7-07b5430b86ee"},"vehicle_type_id":"4","last_reported":1701310864,"current_range_meters":16400,"station_id":"ce4bhs12rcd13ifvqhvg","pricing_plan_id":"free"},{"bike_id":"7698e9c3-cba2-4208-95d6-52b07709b8a8","system_id":"levelo_inurba_marseille","lat":43.324771,"lon":5.36557,"is_reserved":false,"is_disabled":false,"rental_uris":{"android":"levelo://app?vid=7698e9c3-cba2-4208-95d6-52b07709b8a8","ios":"levelo://app?vid=7698e9c3-cba2-4208-95d6-52b07709b8a8"},"vehicle_type_id":"4","last_reported":1701310864,"current_range_meters":18400,"station_id":"ce4bhs12rcd13ifvqhvg","pricing_plan_id":"free"},{"bike_id":"3e01df68-27f0-42b4-ac09-2ec4a13acda6","system_id":"levelo_inurba_marseille","lat":43.319935,"lon":5.381699,"is_reserved":false,"is_disabled":false,"rental_uris":{"android":"levelo://app?vid=3e01df68-27f0-42b4-ac09-2ec4a13acda6","ios":"levelo://app?vid=3e01df68-27f0-42b4-ac09-2ec4a13acda6"},"vehicle_type_id":"4","last_reported":1701310864,"current_range_meters":10000,"station_id":"ce4bhr12rcd13ifvqhpg","pricing_plan_id":"free"},{"bike_id":"565095b7-316d-4677-b34c-7054bea3c533","system_id":"levelo_inurba_marseille","lat":43.319935,"lon":5.381699,"is_reserved":false,"is_disabled":false,"rental_uris":{"android":"levelo://app?vid=565095b7-316d-4677-b34c-7054bea3c533","ios":"levelo://app?vid=565095b7-316d-4677-b34c-7054bea3c533"},"vehicle_type_id":"4","last_reported":1701310864,"current_range_meters":19600,"station_id":"ce4bhr12rcd13ifvqhpg","pricing_plan_id":"free"},{"bike_id":"5f404070-e56a-43ba-b7ae-b95c51c02b1e","system_id":"levelo_inurba_marseille","lat":43.320023,"lon":5.381487,"is_reserved":false,"is_disabled":false,"rental_uris":{"android":"levelo://app?vid=5f404070-e56a-43ba-b7ae-b95c51c02b1e","ios":"levelo://app?vid=5f404070-e56a-43ba-b7ae-b95c51c02b1e"},"vehicle_type_id":"4","last_reported":1701310864,"current_range_meters":0,"station_id":"ce4bhr12rcd13ifvqhpg","pricing_plan_id":"free"},{"bike_id":"2275aca5-3158-4c2c-8022-ca5d2714bc86","system_id":"levelo_inurba_marseille","lat":43.319997,"lon":5.381594,"is_reserved":false,"is_disabled":false,"rental_uris":{"android":"levelo://app?vid=2275aca5-3158-4c2c-8022-ca5d2714bc86","ios":"levelo://app?vid=2275aca5-3158-4c2c-8022-ca5d2714bc86"},"vehicle_type_id":"4","last_reported":1701310864,"current_range_meters":24800,"station_id":"ce4bhr12rcd13ifvqhpg","pricing_plan_id":"free"},{"bike_id":"201731f7-2940-4bd2-b225-c90288ce9129","system_id":"levelo_inurba_marseille","lat":43.313571,"lon":5.384829,"is_reserved":false,"is_disabled":false,"rental_uris":{"android":"levelo://app?vid=201731f7-2940-4bd2-b225-c90288ce9129","ios":"levelo://app?vid=201731f7-2940-4bd2-b225-c90288ce9129"},"vehicle_type_id":"4","last_reported":1701310864,"current_range_meters":31200,"station_id":"ce4bgt92rcd13ifvqcf0","pricing_plan_id":"free"},{"bike_id":"a1e5851c-1a01-451c-abde-9e11fedaf16c","system_id":"levelo_inurba_marseille","lat":43.313571,"lon":5.384829,"is_reserved":false,"is_disabled":false,"rental_uris":{"android":"levelo://app?vid=a1e5851c-1a01-451c-abde-9e11fedaf16c","ios":"levelo://app?vid=a1e5851c-1a01-451c-abde-9e11fedaf16c"},"vehicle_type_id":"4","last_reported":1701310864,"current_range_meters":28000,"station_id":"ce4bgt92rcd13ifvqcf0","pricing_plan_id":"free"},{"bike_id":"0d018c40-879c-4b54-a728-7f28c71665bd","system_id":"levelo_inurba_marseille","lat":43.313571,"lon":5.384829,"is_reserved":false,"is_disabled":false,"rental_uris":{"android":"levelo://app?vid=0d018c40-879c-4b54-a728-7f28c71665bd","ios":"levelo://app?vid=0d018c40-879c-4b54-a728-7f28c71665bd"},"vehicle_type_id":"4","last_reported":1701310864,"current_range_meters":28000,"station_id":"ce4bgt92rcd13ifvqcf0","pricing_plan_id":"free"},{"bike_id":"c34c5b24-27cc-4568-9c4f-8442b0eb6289","system_id":"levelo_inurba_marseille","lat":43.299222,"lon":5.365554,"is_reserved":false,"is_disabled":false,"rental_uris":{"android":"levelo://app?vid=c34c5b24-27cc-4568-9c4f-8442b0eb6289","ios":"levelo://app?vid=c34c5b24-27cc-4568-9c4f-8442b0eb6289"},"vehicle_type_id":"4","last_reported":1701310864,"current_range_meters":1200,"station_id":"ce4bgm92rcd13ifvqbr0","pricing_plan_id":"free"},{"bike_id":"f1869728-27c0-49cb-b803-0f676cca23b4","system_id":"levelo_inurba_marseille","lat":43.311722,"lon":5.387247,"is_reserved":false,"is_disabled":false,"rental_uris":{"android":"levelo://app?vid=f1869728-27c0-49cb-b803-0f676cca23b4","ios":"levelo://app?vid=f1869728-27c0-49cb-b803-0f676cca23b4"},"vehicle_type_id":"4","last_reported":1701310864,"current_range_meters":27600,"station_id":"ce4bgv12rcd13ifvqcp0","pricing_plan_id":"free"},{"bike_id":"aebb5f1f-3a1e-4323-a4f0-ae83e0b78d14","system_id":"levelo_inurba_marseille","lat":43.327603,"lon":5.36705,"is_reserved":false,"is_disabled":false,"rental_uris":{"android":"levelo://app?vid=aebb5f1f-3a1e-4323-a4f0-ae83e0b78d14","ios":"levelo://app?vid=aebb5f1f-3a1e-4323-a4f0-ae83e0b78d14"},"vehicle_type_id":"4","last_reported":1701310864,"current_range_meters":26400,"station_id":"","pricing_plan_id":"free"},{"bike_id":"54e930f2-3c1e-4bc3-86f3-a276ab4fd435","system_id":"levelo_inurba_marseille","lat":43.297774,"lon":5.370875,"is_reserved":false,"is_disabled":false,"rental_uris":{"android":"levelo://app?vid=54e930f2-3c1e-4bc3-86f3-a276ab4fd435","ios":"levelo://app?vid=54e930f2-3c1e-4bc3-86f3-a276ab4fd435"},"vehicle_type_id":"4","last_reported":1701310864,"current_range_meters":28400,"station_id":"ce4bgop2rcd13ifvqc1g","pricing_plan_id":"free"},{"bike_id":"b1f1c99b-ffc0-4368-813e-ae4d547f1040","system_id":"levelo_inurba_marseille","lat":43.328275,"lon":5.366817,"is_reserved":false,"is_disabled":false,"rental_uris":{"android":"levelo://app?vid=b1f1c99b-ffc0-4368-813e-ae4d547f1040","ios":"levelo://app?vid=b1f1c99b-ffc0-4368-813e-ae4d547f1040"},"vehicle_type_id":"4","last_reported":1701310864,"current_range_meters":25600,"station_id":"ce4bhs92rcd13ifvqi0g","pricing_plan_id":"free"},{"bike_id":"8aa9b6bc-eb86-48b4-ae35-170a2d83be94","system_id":"levelo_inurba_marseille","lat":43.297163,"lon":5.365866,"is_reserved":false,"is_disabled":false,"rental_uris":{"android":"levelo://app?vid=8aa9b6bc-eb86-48b4-ae35-170a2d83be94","ios":"levelo://app?vid=8aa9b6bc-eb86-48b4-ae35-170a2d83be94"},"vehicle_type_id":"4","last_reported":1701310864,"current_range_meters":20800,"station_id":"ce4bgn12rcd13ifvqbt0","pricing_plan_id":"free"},{"bike_id":"56768e4e-9386-4af4-86a9-5511352d419c","system_id":"levelo_inurba_marseille","lat":43.295932,"lon":5.367261,"is_reserved":false,"is_disabled":false,"rental_uris":{"android":"levelo://app?vid=56768e4e-9386-4af4-86a9-5511352d419c","ios":"levelo://app?vid=56768e4e-9386-4af4-86a9-5511352d419c"},"vehicle_type_id":"4","last_reported":1701310864,"current_range_meters":9600,"station_id":"","pricing_plan_id":"free"},{"bike_id":"f3449596-e9b3-46af-9337-6058b9c8cebb","system_id":"levelo_inurba_marseille","lat":43.29573,"lon":5.367355,"is_reserved":false,"is_disabled":false,"rental_uris":{"android":"levelo://app?vid=f3449596-e9b3-46af-9337-6058b9c8cebb","ios":"levelo://app?vid=f3449596-e9b3-46af-9337-6058b9c8cebb"},"vehicle_type_id":"4","last_reported":1701310864,"current_range_meters":27200,"station_id":"ce4bgph2rcd13ifvqc2g","pricing_plan_id":"free"},{"bike_id":"58af9d59-5609-444f-84df-f6e9140e1c96","system_id":"levelo_inurba_marseille","lat":43.309541,"lon":5.390349,"is_reserved":false,"is_disabled":false,"rental_uris":{"android":"levelo://app?vid=58af9d59-5609-444f-84df-f6e9140e1c96","ios":"levelo://app?vid=58af9d59-5609-444f-84df-f6e9140e1c96"},"vehicle_type_id":"4","last_reported":1701310864,"current_range_meters":0,"station_id":"ce4bgup2rcd13ifvqco0","pricing_plan_id":"free"},{"bike_id":"057ae66f-c5eb-4cf3-ad62-ae217c15f56b","system_id":"levelo_inurba_marseille","lat":43.317557,"lon":5.390173,"is_reserved":false,"is_disabled":false,"rental_uris":{"android":"levelo://app?vid=057ae66f-c5eb-4cf3-ad62-ae217c15f56b","ios":"levelo://app?vid=057ae66f-c5eb-4cf3-ad62-ae217c15f56b"},"vehicle_type_id":"4","last_reported":1701310864,"current_range_meters":31200,"station_id":"ce4bhqp2rcd13ifvqhng","pricing_plan_id":"free"},{"bike_id":"6ed22076-9ba5-4488-a16d-4aa18d2dd911","system_id":"levelo_inurba_marseille","lat":43.317557,"lon":5.390173,"is_reserved":false,"is_disabled":false,"rental_uris":{"android":"levelo://app?vid=6ed22076-9ba5-4488-a16d-4aa18d2dd911","ios":"levelo://app?vid=6ed22076-9ba5-4488-a16d-4aa18d2dd911"},"vehicle_type_id":"4","last_reported":1701310864,"current_range_meters":0,"station_id":"ce4bhqp2rcd13ifvqhng","pricing_plan_id":"free"},{"bike_id":"fe050158-b634-4ff7-921d-a136c9e7fbf7","system_id":"levelo_inurba_marseille","lat":43.298037,"lon":5.381066,"is_reserved":false,"is_disabled":false,"rental_uris":{"android":"levelo://app?vid=fe050158-b634-4ff7-921d-a136c9e7fbf7","ios":"levelo://app?vid=fe050158-b634-4ff7-921d-a136c9e7fbf7"},"vehicle_type_id":"4","last_reported":1701310864,"current_range_meters":22800,"station_id":"ce4bgip2rcd13ifvqbb0","pricing_plan_id":"free"},{"bike_id":"4679eb48-940e-4fa0-8976-f7baf43d136a","system_id":"levelo_inurba_marseille","lat":43.298037,"lon":5.381066,"is_reserved":false,"is_disabled":false,"rental_uris":{"android":"levelo://app?vid=4679eb48-940e-4fa0-8976-f7baf43d136a","ios":"levelo://app?vid=4679eb48-940e-4fa0-8976-f7baf43d136a"},"vehicle_type_id":"4","last_reported":1701310864,"current_range_meters":22800,"station_id":"ce4bgip2rcd13ifvqbb0","pricing_plan_id":"free"},{"bike_id":"831d4715-23b0-4eb9-9b6d-b9a8d8463bda","system_id":"levelo_inurba_marseille","lat":43.298037,"lon":5.381066,"is_reserved":false,"is_disabled":false,"rental_uris":{"android":"levelo://app?vid=831d4715-23b0-4eb9-9b6d-b9a8d8463bda","ios":"levelo://app?vid=831d4715-23b0-4eb9-9b6d-b9a8d8463bda"},"vehicle_type_id":"4","last_reported":1701310864,"current_range_meters":14800,"station_id":"ce4bgip2rcd13ifvqbb0","pricing_plan_id":"free"},{"bike_id":"08397f1e-250d-457f-b146-fd2aa57e83c5","system_id":"levelo_inurba_marseille","lat":43.298037,"lon":5.381066,"is_reserved":false,"is_disabled":false,"rental_uris":{"android":"levelo://app?vid=08397f1e-250d-457f-b146-fd2aa57e83c5","ios":"levelo://app?vid=08397f1e-250d-457f-b146-fd2aa57e83c5"},"vehicle_type_id":"4","last_reported":1701310864,"current_range_meters":30000,"station_id":"ce4bgip2rcd13ifvqbb0","pricing_plan_id":"free"},{"bike_id":"9df85a81-9917-473e-a24d-b7452bef33f3","system_id":"levelo_inurba_marseille","lat":43.298037,"lon":5.381066,"is_reserved":false,"is_disabled":false,"rental_uris":{"android":"levelo://app?vid=9df85a81-9917-473e-a24d-b7452bef33f3","ios":"levelo://app?vid=9df85a81-9917-473e-a24d-b7452bef33f3"},"vehicle_type_id":"4","last_reported":1701310864,"current_range_meters":30000,"station_id":"ce4bgip2rcd13ifvqbb0","pricing_plan_id":"free"},{"bike_id":"2157436e-3725-4729-8bf6-f929263707d7","system_id":"levelo_inurba_marseille","lat":43.297946,"lon":5.380933,"is_reserved":false,"is_disabled":false,"rental_uris":{"android":"levelo://app?vid=2157436e-3725-4729-8bf6-f929263707d7","ios":"levelo://app?vid=2157436e-3725-4729-8bf6-f929263707d7"},"vehicle_type_id":"4","last_reported":1701310864,"current_range_meters":30400,"station_id":"ce4bgip2rcd13ifvqbb0","pricing_plan_id":"free"},{"bike_id":"3e7ed083-e97a-4c08-a1ba-bd6708800fc4","system_id":"levelo_inurba_marseille","lat":43.30085,"lon":5.390856,"is_reserved":false,"is_disabled":false,"rental_uris":{"android":"levelo://app?vid=3e7ed083-e97a-4c08-a1ba-bd6708800fc4","ios":"levelo://app?vid=3e7ed083-e97a-4c08-a1ba-bd6708800fc4"},"vehicle_type_id":"4","last_reported":1701310864,"current_range_meters":29600,"station_id":"ce4bh192rcd13ifvqdb0","pricing_plan_id":"free"},{"bike_id":"5065875c-05cf-4751-9199-730b4b85ab55","system_id":"levelo_inurba_marseille","lat":43.30085,"lon":5.390856,"is_reserved":false,"is_disabled":false,"rental_uris":{"android":"levelo://app?vid=5065875c-05cf-4751-9199-730b4b85ab55","ios":"levelo://app?vid=5065875c-05cf-4751-9199-730b4b85ab55"},"vehicle_type_id":"4","last_reported":1701310864,"current_range_meters":29200,"station_id":"ce4bh192rcd13ifvqdb0","pricing_plan_id":"free"},{"bike_id":"ed8ebb71-f2f8-48ca-8f7a-00053913057e","system_id":"levelo_inurba_marseille","lat":43.2923,"lon":5.36058,"is_reserved":false,"is_disabled":false,"rental_uris":{"android":"levelo://app?vid=ed8ebb71-f2f8-48ca-8f7a-00053913057e","ios":"levelo://app?vid=ed8ebb71-f2f8-48ca-8f7a-00053913057e"},"vehicle_type_id":"4","last_reported":1701310864,"current_range_meters":24800,"station_id":"ce4bhbh2rcd13ifvqeqg","pricing_plan_id":"free"},{"bike_id":"bfd3884b-3a94-4cd4-87e3-c07a3c24d07c","system_id":"levelo_inurba_marseille","lat":43.30085,"lon":5.390856,"is_reserved":false,"is_disabled":false,"rental_uris":{"android":"levelo://app?vid=bfd3884b-3a94-4cd4-87e3-c07a3c24d07c","ios":"levelo://app?vid=bfd3884b-3a94-4cd4-87e3-c07a3c24d07c"},"vehicle_type_id":"4","last_reported":1701310864,"current_range_meters":27600,"station_id":"ce4bh192rcd13ifvqdb0","pricing_plan_id":"free"},{"bike_id":"ca514639-382e-49c2-adf8-4bfa06ee29e9","system_id":"levelo_inurba_marseille","lat":43.309038,"lon":5.396546,"is_reserved":false,"is_disabled":false,"rental_uris":{"android":"levelo://app?vid=ca514639-382e-49c2-adf8-4bfa06ee29e9","ios":"levelo://app?vid=ca514639-382e-49c2-adf8-4bfa06ee29e9"},"vehicle_type_id":"4","last_reported":1701310864,"current_range_meters":31200,"station_id":"ce4bh012rcd13ifvqcv0","pricing_plan_id":"free"},{"bike_id":"9fc02e1b-18cf-4ba2-a4b6-43fb4433d289","system_id":"levelo_inurba_marseille","lat":43.309038,"lon":5.396546,"is_reserved":false,"is_disabled":false,"rental_uris":{"android":"levelo://app?vid=9fc02e1b-18cf-4ba2-a4b6-43fb4433d289","ios":"levelo://app?vid=9fc02e1b-18cf-4ba2-a4b6-43fb4433d289"},"vehicle_type_id":"4","last_reported":1701310864,"current_range_meters":1600,"station_id":"ce4bh012rcd13ifvqcv0","pricing_plan_id":"free"},{"bike_id":"19f83519-64de-4937-9c93-7e8d3565fa39","system_id":"levelo_inurba_marseille","lat":43.29199,"lon":5.35799,"is_reserved":false,"is_disabled":false,"rental_uris":{"android":"levelo://app?vid=19f83519-64de-4937-9c93-7e8d3565fa39","ios":"levelo://app?vid=19f83519-64de-4937-9c93-7e8d3565fa39"},"vehicle_type_id":"4","last_reported":1701310864,"current_range_meters":12000,"station_id":"ce4bhb12rcd13ifvqel0","pricing_plan_id":"free"},{"bike_id":"3842212e-cdf8-408b-b825-8e132af203fd","system_id":"levelo_inurba_marseille","lat":43.309038,"lon":5.396546,"is_reserved":false,"is_disabled":false,"rental_uris":{"android":"levelo://app?vid=3842212e-cdf8-408b-b825-8e132af203fd","ios":"levelo://app?vid=3842212e-cdf8-408b-b825-8e132af203fd"},"vehicle_type_id":"4","last_reported":1701310864,"current_range_meters":30400,"station_id":"ce4bh012rcd13ifvqcv0","pricing_plan_id":"free"},{"bike_id":"3ab0657b-ffa6-4b7b-8e7f-15b5b391b91f","system_id":"levelo_inurba_marseille","lat":43.309047,"lon":5.396551,"is_reserved":false,"is_disabled":false,"rental_uris":{"android":"levelo://app?vid=3ab0657b-ffa6-4b7b-8e7f-15b5b391b91f","ios":"levelo://app?vid=3ab0657b-ffa6-4b7b-8e7f-15b5b391b91f"},"vehicle_type_id":"4","last_reported":1701310864,"current_range_meters":31200,"station_id":"ce4bh012rcd13ifvqcv0","pricing_plan_id":"free"},{"bike_id":"5f37aa65-c2d6-45c5-901e-c16f106965a7","system_id":"levelo_inurba_marseille","lat":43.309038,"lon":5.396546,"is_reserved":false,"is_disabled":false,"rental_uris":{"android":"levelo://app?vid=5f37aa65-c2d6-45c5-901e-c16f106965a7","ios":"levelo://app?vid=5f37aa65-c2d6-45c5-901e-c16f106965a7"},"vehicle_type_id":"4","last_reported":1701310864,"current_range_meters":28800,"station_id":"ce4bh012rcd13ifvqcv0","pricing_plan_id":"free"},{"bike_id":"7c3a263f-151a-4a8a-88c3-35f7de6c51ae","system_id":"levelo_inurba_marseille","lat":43.3133,"lon":5.39688,"is_reserved":false,"is_disabled":false,"rental_uris":{"android":"levelo://app?vid=7c3a263f-151a-4a8a-88c3-35f7de6c51ae","ios":"levelo://app?vid=7c3a263f-151a-4a8a-88c3-35f7de6c51ae"},"vehicle_type_id":"4","last_reported":1701310864,"current_range_meters":30000,"station_id":"ce4bgvp2rcd13ifvqcu0","pricing_plan_id":"free"},{"bike_id":"525bebc4-5fd4-46a8-a7e0-53952eb0c313","system_id":"levelo_inurba_marseille","lat":43.309047,"lon":5.396551,"is_reserved":false,"is_disabled":false,"rental_uris":{"android":"levelo://app?vid=525bebc4-5fd4-46a8-a7e0-53952eb0c313","ios":"levelo://app?vid=525bebc4-5fd4-46a8-a7e0-53952eb0c313"},"vehicle_type_id":"4","last_reported":1701310864,"current_range_meters":15200,"station_id":"ce4bh012rcd13ifvqcv0","pricing_plan_id":"free"},{"bike_id":"d3c6091f-bc1e-4fcc-99a3-266ab434bc60","system_id":"levelo_inurba_marseille","lat":43.313291,"lon":5.396838,"is_reserved":false,"is_disabled":false,"rental_uris":{"android":"levelo://app?vid=d3c6091f-bc1e-4fcc-99a3-266ab434bc60","ios":"levelo://app?vid=d3c6091f-bc1e-4fcc-99a3-266ab434bc60"},"vehicle_type_id":"4","last_reported":1701310864,"current_range_meters":23600,"station_id":"ce4bgvp2rcd13ifvqcu0","pricing_plan_id":"free"},{"bike_id":"d83f094f-82ea-4268-83eb-6c4ef0f8caeb","system_id":"levelo_inurba_marseille","lat":43.313291,"lon":5.396838,"is_reserved":false,"is_disabled":false,"rental_uris":{"android":"levelo://app?vid=d83f094f-82ea-4268-83eb-6c4ef0f8caeb","ios":"levelo://app?vid=d83f094f-82ea-4268-83eb-6c4ef0f8caeb"},"vehicle_type_id":"4","last_reported":1701310864,"current_range_meters":8400,"station_id":"ce4bgvp2rcd13ifvqcu0","pricing_plan_id":"free"},{"bike_id":"abfe3815-1d09-4405-bf6e-e1fad75ef729","system_id":"levelo_inurba_marseille","lat":43.313291,"lon":5.396838,"is_reserved":false,"is_disabled":false,"rental_uris":{"android":"levelo://app?vid=abfe3815-1d09-4405-bf6e-e1fad75ef729","ios":"levelo://app?vid=abfe3815-1d09-4405-bf6e-e1fad75ef729"},"vehicle_type_id":"4","last_reported":1701310864,"current_range_meters":12000,"station_id":"ce4bgvp2rcd13ifvqcu0","pricing_plan_id":"free"},{"bike_id":"d96c8dd8-23c3-410c-bccb-8d3d25a8ad20","system_id":"levelo_inurba_marseille","lat":43.309038,"lon":5.396546,"is_reserved":false,"is_disabled":false,"rental_uris":{"android":"levelo://app?vid=d96c8dd8-23c3-410c-bccb-8d3d25a8ad20","ios":"levelo://app?vid=d96c8dd8-23c3-410c-bccb-8d3d25a8ad20"},"vehicle_type_id":"4","last_reported":1701310864,"current_range_meters":31200,"station_id":"ce4bh012rcd13ifvqcv0","pricing_plan_id":"free"},{"bike_id":"b981bc87-7d0a-4416-aea6-6413376f91b8","system_id":"levelo_inurba_marseille","lat":43.302008,"lon":5.394694,"is_reserved":false,"is_disabled":false,"rental_uris":{"android":"levelo://app?vid=b981bc87-7d0a-4416-aea6-6413376f91b8","ios":"levelo://app?vid=b981bc87-7d0a-4416-aea6-6413376f91b8"},"vehicle_type_id":"4","last_reported":1701310864,"current_range_meters":20800,"station_id":"ce4bh0p2rcd13ifvqd70","pricing_plan_id":"free"},{"bike_id":"2724cc8f-085b-459c-b2b4-8796f455ea3f","system_id":"levelo_inurba_marseille","lat":43.290631,"lon":5.359244,"is_reserved":false,"is_disabled":false,"rental_uris":{"android":"levelo://app?vid=2724cc8f-085b-459c-b2b4-8796f455ea3f","ios":"levelo://app?vid=2724cc8f-085b-459c-b2b4-8796f455ea3f"},"vehicle_type_id":"4","last_reported":1701310864,"current_range_meters":30000,"station_id":"ce4bha92rcd13ifvqeg0","pricing_plan_id":"free"},{"bike_id":"17a1f976-5147-4e4b-8261-df6c06701252","system_id":"levelo_inurba_marseille","lat":43.290104,"lon":5.356111,"is_reserved":false,"is_disabled":false,"rental_uris":{"android":"levelo://app?vid=17a1f976-5147-4e4b-8261-df6c06701252","ios":"levelo://app?vid=17a1f976-5147-4e4b-8261-df6c06701252"},"vehicle_type_id":"4","last_reported":1701310864,"current_range_meters":30000,"station_id":"ce4bhb92rcd13ifvqen0","pricing_plan_id":"free"},{"bike_id":"ad2f7736-9eec-4d71-a71a-65726625f89e","system_id":"levelo_inurba_marseille","lat":43.330442,"lon":5.389148,"is_reserved":false,"is_disabled":false,"rental_uris":{"android":"levelo://app?vid=ad2f7736-9eec-4d71-a71a-65726625f89e","ios":"levelo://app?vid=ad2f7736-9eec-4d71-a71a-65726625f89e"},"vehicle_type_id":"4","last_reported":1701310864,"current_range_meters":3200,"station_id":"ce4bhr92rcd13ifvqhrg","pricing_plan_id":"free"},{"bike_id":"ec75b8c7-9188-4e68-b56b-d9340eb684d4","system_id":"levelo_inurba_marseille","lat":43.330442,"lon":5.389148,"is_reserved":false,"is_disabled":false,"rental_uris":{"android":"levelo://app?vid=ec75b8c7-9188-4e68-b56b-d9340eb684d4","ios":"levelo://app?vid=ec75b8c7-9188-4e68-b56b-d9340eb684d4"},"vehicle_type_id":"4","last_reported":1701310864,"current_range_meters":22800,"station_id":"ce4bhr92rcd13ifvqhrg","pricing_plan_id":"free"},{"bike_id":"79d6d86d-0804-471d-b8fd-5486df3b9649","system_id":"levelo_inurba_marseille","lat":43.290104,"lon":5.356111,"is_reserved":false,"is_disabled":false,"rental_uris":{"android":"levelo://app?vid=79d6d86d-0804-471d-b8fd-5486df3b9649","ios":"levelo://app?vid=79d6d86d-0804-471d-b8fd-5486df3b9649"},"vehicle_type_id":"4","last_reported":1701310864,"current_range_meters":28800,"station_id":"ce4bhb92rcd13ifvqen0","pricing_plan_id":"free"},{"bike_id":"dd2169e6-d554-4534-bbc7-6685222618d8","system_id":"levelo_inurba_marseille","lat":43.289993,"lon":5.356109,"is_reserved":false,"is_disabled":false,"rental_uris":{"android":"levelo://app?vid=dd2169e6-d554-4534-bbc7-6685222618d8","ios":"levelo://app?vid=dd2169e6-d554-4534-bbc7-6685222618d8"},"vehicle_type_id":"4","last_reported":1701310864,"current_range_meters":0,"station_id":"ce4bhb92rcd13ifvqen0","pricing_plan_id":"free"},{"bike_id":"58b62225-256e-4d7a-addd-88854b12de0e","system_id":"levelo_inurba_marseille","lat":43.28856,"lon":5.358371,"is_reserved":false,"is_disabled":false,"rental_uris":{"android":"levelo://app?vid=58b62225-256e-4d7a-addd-88854b12de0e","ios":"levelo://app?vid=58b62225-256e-4d7a-addd-88854b12de0e"},"vehicle_type_id":"4","last_reported":1701310864,"current_range_meters":19600,"station_id":"ce4bhb12rcd13ifvqem0","pricing_plan_id":"free"},{"bike_id":"78251cb9-b29c-416f-8221-0db1c429dace","system_id":"levelo_inurba_marseille","lat":43.28856,"lon":5.358371,"is_reserved":false,"is_disabled":false,"rental_uris":{"android":"levelo://app?vid=78251cb9-b29c-416f-8221-0db1c429dace","ios":"levelo://app?vid=78251cb9-b29c-416f-8221-0db1c429dace"},"vehicle_type_id":"4","last_reported":1701310864,"current_range_meters":26000,"station_id":"ce4bhb12rcd13ifvqem0","pricing_plan_id":"free"},{"bike_id":"bd5a5c31-6495-426c-82e9-f1d928ff8b17","system_id":"levelo_inurba_marseille","lat":43.28856,"lon":5.358371,"is_reserved":false,"is_disabled":false,"rental_uris":{"android":"levelo://app?vid=bd5a5c31-6495-426c-82e9-f1d928ff8b17","ios":"levelo://app?vid=bd5a5c31-6495-426c-82e9-f1d928ff8b17"},"vehicle_type_id":"4","last_reported":1701310864,"current_range_meters":31600,"station_id":"ce4bhb12rcd13ifvqem0","pricing_plan_id":"free"},{"bike_id":"f294f06c-942d-492a-9674-b89096137224","system_id":"levelo_inurba_marseille","lat":43.28856,"lon":5.358371,"is_reserved":false,"is_disabled":false,"rental_uris":{"android":"levelo://app?vid=f294f06c-942d-492a-9674-b89096137224","ios":"levelo://app?vid=f294f06c-942d-492a-9674-b89096137224"},"vehicle_type_id":"4","last_reported":1701310864,"current_range_meters":30800,"station_id":"ce4bhb12rcd13ifvqem0","pricing_plan_id":"free"},{"bike_id":"8dd6119c-7aef-4d30-9ad4-05127783a43f","system_id":"levelo_inurba_marseille","lat":43.28856,"lon":5.358371,"is_reserved":false,"is_disabled":false,"rental_uris":{"android":"levelo://app?vid=8dd6119c-7aef-4d30-9ad4-05127783a43f","ios":"levelo://app?vid=8dd6119c-7aef-4d30-9ad4-05127783a43f"},"vehicle_type_id":"4","last_reported":1701310864,"current_range_meters":27600,"station_id":"ce4bhb12rcd13ifvqem0","pricing_plan_id":"free"},{"bike_id":"f3090319-3b82-4b93-8444-9fab36f667e8","system_id":"levelo_inurba_marseille","lat":43.288449,"lon":5.358326,"is_reserved":false,"is_disabled":false,"rental_uris":{"android":"levelo://app?vid=f3090319-3b82-4b93-8444-9fab36f667e8","ios":"levelo://app?vid=f3090319-3b82-4b93-8444-9fab36f667e8"},"vehicle_type_id":"4","last_reported":1701310864,"current_range_meters":30000,"station_id":"ce4bhb12rcd13ifvqem0","pricing_plan_id":"free"},{"bike_id":"8c347477-75ee-4a61-9fca-a99e7c3315fd","system_id":"levelo_inurba_marseille","lat":43.312858,"lon":5.401625,"is_reserved":false,"is_disabled":false,"rental_uris":{"android":"levelo://app?vid=8c347477-75ee-4a61-9fca-a99e7c3315fd","ios":"levelo://app?vid=8c347477-75ee-4a61-9fca-a99e7c3315fd"},"vehicle_type_id":"4","last_reported":1701310864,"current_range_meters":15200,"station_id":"ce4bh092rcd13ifvqd30","pricing_plan_id":"free"},{"bike_id":"e1f0eac7-7cc1-4b90-89f7-84c9d3398748","system_id":"levelo_inurba_marseille","lat":43.312609,"lon":5.401662,"is_reserved":false,"is_disabled":false,"rental_uris":{"android":"levelo://app?vid=e1f0eac7-7cc1-4b90-89f7-84c9d3398748","ios":"levelo://app?vid=e1f0eac7-7cc1-4b90-89f7-84c9d3398748"},"vehicle_type_id":"4","last_reported":1701310864,"current_range_meters":31200,"station_id":"ce4bh092rcd13ifvqd30","pricing_plan_id":"free"},{"bike_id":"3ed736de-4ff5-40f8-82ed-6682e0fe9097","system_id":"levelo_inurba_marseille","lat":43.312813,"lon":5.401637,"is_reserved":false,"is_disabled":false,"rental_uris":{"android":"levelo://app?vid=3ed736de-4ff5-40f8-82ed-6682e0fe9097","ios":"levelo://app?vid=3ed736de-4ff5-40f8-82ed-6682e0fe9097"},"vehicle_type_id":"4","last_reported":1701310864,"current_range_meters":31200,"station_id":"ce4bh092rcd13ifvqd30","pricing_plan_id":"free"},{"bike_id":"a71772fa-ab40-447f-8fad-7e28540b4b2a","system_id":"levelo_inurba_marseille","lat":43.312609,"lon":5.401662,"is_reserved":false,"is_disabled":false,"rental_uris":{"android":"levelo://app?vid=a71772fa-ab40-447f-8fad-7e28540b4b2a","ios":"levelo://app?vid=a71772fa-ab40-447f-8fad-7e28540b4b2a"},"vehicle_type_id":"4","last_reported":1701310864,"current_range_meters":31200,"station_id":"ce4bh092rcd13ifvqd30","pricing_plan_id":"free"},{"bike_id":"ecdbc40c-eb0d-41d0-a69f-ac5b430fc7de","system_id":"levelo_inurba_marseille","lat":43.309371,"lon":5.401449,"is_reserved":false,"is_disabled":false,"rental_uris":{"android":"levelo://app?vid=ecdbc40c-eb0d-41d0-a69f-ac5b430fc7de","ios":"levelo://app?vid=ecdbc40c-eb0d-41d0-a69f-ac5b430fc7de"},"vehicle_type_id":"4","last_reported":1701310864,"current_range_meters":31200,"station_id":"ce4bgvp2rcd13ifvqct0","pricing_plan_id":"free"},{"bike_id":"c1648df4-0061-4373-a7d3-47094b0a7720","system_id":"levelo_inurba_marseille","lat":43.30939,"lon":5.40141,"is_reserved":false,"is_disabled":false,"rental_uris":{"android":"levelo://app?vid=c1648df4-0061-4373-a7d3-47094b0a7720","ios":"levelo://app?vid=c1648df4-0061-4373-a7d3-47094b0a7720"},"vehicle_type_id":"4","last_reported":1701310864,"current_range_meters":23200,"station_id":"ce4bgvp2rcd13ifvqct0","pricing_plan_id":"free"},{"bike_id":"c7b905eb-e822-477b-a0ec-ca3f2b569573","system_id":"levelo_inurba_marseille","lat":43.309371,"lon":5.401449,"is_reserved":false,"is_disabled":false,"rental_uris":{"android":"levelo://app?vid=c7b905eb-e822-477b-a0ec-ca3f2b569573","ios":"levelo://app?vid=c7b905eb-e822-477b-a0ec-ca3f2b569573"},"vehicle_type_id":"4","last_reported":1701310864,"current_range_meters":31200,"station_id":"ce4bgvp2rcd13ifvqct0","pricing_plan_id":"free"},{"bike_id":"fdd33285-17b5-425a-abf6-d490dc998f79","system_id":"levelo_inurba_marseille","lat":43.309371,"lon":5.401449,"is_reserved":false,"is_disabled":false,"rental_uris":{"android":"levelo://app?vid=fdd33285-17b5-425a-abf6-d490dc998f79","ios":"levelo://app?vid=fdd33285-17b5-425a-abf6-d490dc998f79"},"vehicle_type_id":"4","last_reported":1701310864,"current_range_meters":27200,"station_id":"ce4bgvp2rcd13ifvqct0","pricing_plan_id":"free"},{"bike_id":"88880a52-aae9-4cc9-9193-b191c778cdc2","system_id":"levelo_inurba_marseille","lat":43.30937,"lon":5.401422,"is_reserved":false,"is_disabled":false,"rental_uris":{"android":"levelo://app?vid=88880a52-aae9-4cc9-9193-b191c778cdc2","ios":"levelo://app?vid=88880a52-aae9-4cc9-9193-b191c778cdc2"},"vehicle_type_id":"4","last_reported":1701310864,"current_range_meters":30800,"station_id":"ce4bgvp2rcd13ifvqct0","pricing_plan_id":"free"},{"bike_id":"14e655ce-3002-4339-a617-3829d37c4e8a","system_id":"levelo_inurba_marseille","lat":43.30929,"lon":5.40146,"is_reserved":false,"is_disabled":false,"rental_uris":{"android":"levelo://app?vid=14e655ce-3002-4339-a617-3829d37c4e8a","ios":"levelo://app?vid=14e655ce-3002-4339-a617-3829d37c4e8a"},"vehicle_type_id":"4","last_reported":1701310864,"current_range_meters":30800,"station_id":"ce4bgvp2rcd13ifvqct0","pricing_plan_id":"free"},{"bike_id":"3c232801-03c8-4d41-8674-db1152932823","system_id":"levelo_inurba_marseille","lat":43.30642,"lon":5.401031,"is_reserved":false,"is_disabled":false,"rental_uris":{"android":"levelo://app?vid=3c232801-03c8-4d41-8674-db1152932823","ios":"levelo://app?vid=3c232801-03c8-4d41-8674-db1152932823"},"vehicle_type_id":"4","last_reported":1701310864,"current_range_meters":30000,"station_id":"ce4bh112rcd13ifvqda0","pricing_plan_id":"free"},{"bike_id":"d6690bc4-971f-4fd3-a7f8-f5cd3064da95","system_id":"levelo_inurba_marseille","lat":43.30934,"lon":5.4015,"is_reserved":false,"is_disabled":false,"rental_uris":{"android":"levelo://app?vid=d6690bc4-971f-4fd3-a7f8-f5cd3064da95","ios":"levelo://app?vid=d6690bc4-971f-4fd3-a7f8-f5cd3064da95"},"vehicle_type_id":"4","last_reported":1701310864,"current_range_meters":22800,"station_id":"ce4bgvp2rcd13ifvqct0","pricing_plan_id":"free"},{"bike_id":"f26971b5-ec16-40b4-90cf-510112c7ca61","system_id":"levelo_inurba_marseille","lat":43.309227,"lon":5.401593,"is_reserved":false,"is_disabled":false,"rental_uris":{"android":"levelo://app?vid=f26971b5-ec16-40b4-90cf-510112c7ca61","ios":"levelo://app?vid=f26971b5-ec16-40b4-90cf-510112c7ca61"},"vehicle_type_id":"4","last_reported":1701310864,"current_range_meters":18000,"station_id":"ce4bgvp2rcd13ifvqct0","pricing_plan_id":"free"},{"bike_id":"43f94be8-4f51-40c8-9c23-2bf692c64000","system_id":"levelo_inurba_marseille","lat":43.309371,"lon":5.401449,"is_reserved":false,"is_disabled":false,"rental_uris":{"android":"levelo://app?vid=43f94be8-4f51-40c8-9c23-2bf692c64000","ios":"levelo://app?vid=43f94be8-4f51-40c8-9c23-2bf692c64000"},"vehicle_type_id":"4","last_reported":1701310864,"current_range_meters":26400,"station_id":"ce4bgvp2rcd13ifvqct0","pricing_plan_id":"free"},{"bike_id":"bf39e900-930d-46dd-82b6-5786e3df5465","system_id":"levelo_inurba_marseille","lat":43.306556,"lon":5.400921,"is_reserved":false,"is_disabled":false,"rental_uris":{"android":"levelo://app?vid=bf39e900-930d-46dd-82b6-5786e3df5465","ios":"levelo://app?vid=bf39e900-930d-46dd-82b6-5786e3df5465"},"vehicle_type_id":"4","last_reported":1701310864,"current_range_meters":0,"station_id":"ce4bh112rcd13ifvqda0","pricing_plan_id":"free"},{"bike_id":"aa6beeb4-d406-4a8a-8945-4e13fd7c0445","system_id":"levelo_inurba_marseille","lat":43.28727,"lon":5.36078,"is_reserved":false,"is_disabled":false,"rental_uris":{"android":"levelo://app?vid=aa6beeb4-d406-4a8a-8945-4e13fd7c0445","ios":"levelo://app?vid=aa6beeb4-d406-4a8a-8945-4e13fd7c0445"},"vehicle_type_id":"4","last_reported":1701310864,"current_range_meters":29600,"station_id":"cki0cbj6b192h4jlfktg","pricing_plan_id":"free"},{"bike_id":"b51345f2-2cc6-409e-9406-138f26c55bd8","system_id":"levelo_inurba_marseille","lat":43.28727,"lon":5.36078,"is_reserved":false,"is_disabled":false,"rental_uris":{"android":"levelo://app?vid=b51345f2-2cc6-409e-9406-138f26c55bd8","ios":"levelo://app?vid=b51345f2-2cc6-409e-9406-138f26c55bd8"},"vehicle_type_id":"4","last_reported":1701310864,"current_range_meters":24800,"station_id":"cki0cbj6b192h4jlfktg","pricing_plan_id":"free"},{"bike_id":"629fe102-6cd1-4b81-89be-c9d5ebc679c5","system_id":"levelo_inurba_marseille","lat":43.286591,"lon":5.363346,"is_reserved":false,"is_disabled":false,"rental_uris":{"android":"levelo://app?vid=629fe102-6cd1-4b81-89be-c9d5ebc679c5","ios":"levelo://app?vid=629fe102-6cd1-4b81-89be-c9d5ebc679c5"},"vehicle_type_id":"4","last_reported":1701310864,"current_range_meters":29200,"station_id":"ce4bhah2rcd13ifvqej0","pricing_plan_id":"free"},{"bike_id":"4dcab8fa-239b-40f5-afc2-25565b98c0c3","system_id":"levelo_inurba_marseille","lat":43.286591,"lon":5.363346,"is_reserved":false,"is_disabled":false,"rental_uris":{"android":"levelo://app?vid=4dcab8fa-239b-40f5-afc2-25565b98c0c3","ios":"levelo://app?vid=4dcab8fa-239b-40f5-afc2-25565b98c0c3"},"vehicle_type_id":"4","last_reported":1701310864,"current_range_meters":21600,"station_id":"ce4bhah2rcd13ifvqej0","pricing_plan_id":"free"},{"bike_id":"f8f25d76-dcb2-482b-8055-ff4510e37ebc","system_id":"levelo_inurba_marseille","lat":43.302759,"lon":5.400793,"is_reserved":false,"is_disabled":false,"rental_uris":{"android":"levelo://app?vid=f8f25d76-dcb2-482b-8055-ff4510e37ebc","ios":"levelo://app?vid=f8f25d76-dcb2-482b-8055-ff4510e37ebc"},"vehicle_type_id":"4","last_reported":1701310864,"current_range_meters":22800,"station_id":"ce4bgvh2rcd13ifvqcs0","pricing_plan_id":"free"},{"bike_id":"74ca3dc2-2ab4-4b8f-95e9-b587bff68ac6","system_id":"levelo_inurba_marseille","lat":43.30251,"lon":5.400547,"is_reserved":false,"is_disabled":false,"rental_uris":{"android":"levelo://app?vid=74ca3dc2-2ab4-4b8f-95e9-b587bff68ac6","ios":"levelo://app?vid=74ca3dc2-2ab4-4b8f-95e9-b587bff68ac6"},"vehicle_type_id":"4","last_reported":1701310864,"current_range_meters":25600,"station_id":"ce4bgvh2rcd13ifvqcs0","pricing_plan_id":"free"},{"bike_id":"50263fd7-ac79-42a6-b68c-6ca3ecb50f11","system_id":"levelo_inurba_marseille","lat":43.302759,"lon":5.400793,"is_reserved":false,"is_disabled":false,"rental_uris":{"android":"levelo://app?vid=50263fd7-ac79-42a6-b68c-6ca3ecb50f11","ios":"levelo://app?vid=50263fd7-ac79-42a6-b68c-6ca3ecb50f11"},"vehicle_type_id":"4","last_reported":1701310864,"current_range_meters":23200,"station_id":"ce4bgvh2rcd13ifvqcs0","pricing_plan_id":"free"},{"bike_id":"3d88466d-6de0-4530-973d-de22dda39935","system_id":"levelo_inurba_marseille","lat":43.302759,"lon":5.400793,"is_reserved":false,"is_disabled":false,"rental_uris":{"android":"levelo://app?vid=3d88466d-6de0-4530-973d-de22dda39935","ios":"levelo://app?vid=3d88466d-6de0-4530-973d-de22dda39935"},"vehicle_type_id":"4","last_reported":1701310864,"current_range_meters":31600,"station_id":"ce4bgvh2rcd13ifvqcs0","pricing_plan_id":"free"},{"bike_id":"5c21f2b6-0e51-4f66-93c4-895101179ffc","system_id":"levelo_inurba_marseille","lat":43.302759,"lon":5.400793,"is_reserved":false,"is_disabled":false,"rental_uris":{"android":"levelo://app?vid=5c21f2b6-0e51-4f66-93c4-895101179ffc","ios":"levelo://app?vid=5c21f2b6-0e51-4f66-93c4-895101179ffc"},"vehicle_type_id":"4","last_reported":1701310864,"current_range_meters":20400,"station_id":"ce4bgvh2rcd13ifvqcs0","pricing_plan_id":"free"},{"bike_id":"a3bdef2f-81c6-4599-862b-b373eae28b8b","system_id":"levelo_inurba_marseille","lat":43.290266,"lon":5.386472,"is_reserved":false,"is_disabled":false,"rental_uris":{"android":"levelo://app?vid=a3bdef2f-81c6-4599-862b-b373eae28b8b","ios":"levelo://app?vid=a3bdef2f-81c6-4599-862b-b373eae28b8b"},"vehicle_type_id":"4","last_reported":1701310864,"current_range_meters":26800,"station_id":"","pricing_plan_id":"free"},{"bike_id":"2cbb47e3-7183-4b81-82cf-05c3292a8095","system_id":"levelo_inurba_marseille","lat":43.289307,"lon":5.38406,"is_reserved":false,"is_disabled":false,"rental_uris":{"android":"levelo://app?vid=2cbb47e3-7183-4b81-82cf-05c3292a8095","ios":"levelo://app?vid=2cbb47e3-7183-4b81-82cf-05c3292a8095"},"vehicle_type_id":"4","last_reported":1701310864,"current_range_meters":27600,"station_id":"ce4bh612rcd13ifvqe6g","pricing_plan_id":"free"},{"bike_id":"543c3d35-174c-4a80-b8a1-9a8b5242800c","system_id":"levelo_inurba_marseille","lat":43.302759,"lon":5.400793,"is_reserved":false,"is_disabled":false,"rental_uris":{"android":"levelo://app?vid=543c3d35-174c-4a80-b8a1-9a8b5242800c","ios":"levelo://app?vid=543c3d35-174c-4a80-b8a1-9a8b5242800c"},"vehicle_type_id":"4","last_reported":1701310864,"current_range_meters":16800,"station_id":"ce4bgvh2rcd13ifvqcs0","pricing_plan_id":"free"},{"bike_id":"c8155f93-f075-4d6b-8a65-2ba46ee73eac","system_id":"levelo_inurba_marseille","lat":43.286039,"lon":5.370681,"is_reserved":false,"is_disabled":false,"rental_uris":{"android":"levelo://app?vid=c8155f93-f075-4d6b-8a65-2ba46ee73eac","ios":"levelo://app?vid=c8155f93-f075-4d6b-8a65-2ba46ee73eac"},"vehicle_type_id":"4","last_reported":1701310864,"current_range_meters":15200,"station_id":"ce4bht12rcd13ifvqi60","pricing_plan_id":"free"},{"bike_id":"cd094417-d2c6-46e2-b1f5-ff1aaf0691c0","system_id":"levelo_inurba_marseille","lat":43.28731,"lon":5.37962,"is_reserved":false,"is_disabled":false,"rental_uris":{"android":"levelo://app?vid=cd094417-d2c6-46e2-b1f5-ff1aaf0691c0","ios":"levelo://app?vid=cd094417-d2c6-46e2-b1f5-ff1aaf0691c0"},"vehicle_type_id":"4","last_reported":1701310864,"current_range_meters":27600,"station_id":"ce4bh9p2rcd13ifvqec0","pricing_plan_id":"free"},{"bike_id":"8030115d-ac19-469d-b665-bfe163693ae2","system_id":"levelo_inurba_marseille","lat":43.31647,"lon":5.40438,"is_reserved":false,"is_disabled":false,"rental_uris":{"android":"levelo://app?vid=8030115d-ac19-469d-b665-bfe163693ae2","ios":"levelo://app?vid=8030115d-ac19-469d-b665-bfe163693ae2"},"vehicle_type_id":"4","last_reported":1701310864,"current_range_meters":11200,"station_id":"ce4bh012rcd13ifvqd00","pricing_plan_id":"free"},{"bike_id":"589bbc17-bf14-4455-bff8-c1a011b76a56","system_id":"levelo_inurba_marseille","lat":43.316493,"lon":5.404393,"is_reserved":false,"is_disabled":false,"rental_uris":{"android":"levelo://app?vid=589bbc17-bf14-4455-bff8-c1a011b76a56","ios":"levelo://app?vid=589bbc17-bf14-4455-bff8-c1a011b76a56"},"vehicle_type_id":"4","last_reported":1701310864,"current_range_meters":22000,"station_id":"ce4bh012rcd13ifvqd00","pricing_plan_id":"free"},{"bike_id":"7bb029db-f924-4156-b0e3-8dd65455676d","system_id":"levelo_inurba_marseille","lat":43.29193,"lon":5.39305,"is_reserved":false,"is_disabled":false,"rental_uris":{"android":"levelo://app?vid=7bb029db-f924-4156-b0e3-8dd65455676d","ios":"levelo://app?vid=7bb029db-f924-4156-b0e3-8dd65455676d"},"vehicle_type_id":"4","last_reported":1701310864,"current_range_meters":0,"station_id":"ce4bh192rcd13ifvqdd0","pricing_plan_id":"free"},{"bike_id":"a110e0e4-5b60-4206-a4d6-2d4d5b638da4","system_id":"levelo_inurba_marseille","lat":43.284534,"lon":5.358662,"is_reserved":false,"is_disabled":false,"rental_uris":{"android":"levelo://app?vid=a110e0e4-5b60-4206-a4d6-2d4d5b638da4","ios":"levelo://app?vid=a110e0e4-5b60-4206-a4d6-2d4d5b638da4"},"vehicle_type_id":"4","last_reported":1701310864,"current_range_meters":12400,"station_id":"ce4bhah2rcd13ifvqei0","pricing_plan_id":"free"},{"bike_id":"04facffd-c50a-40d5-b32a-c1de136b26c6","system_id":"levelo_inurba_marseille","lat":43.284538,"lon":5.358657,"is_reserved":false,"is_disabled":false,"rental_uris":{"android":"levelo://app?vid=04facffd-c50a-40d5-b32a-c1de136b26c6","ios":"levelo://app?vid=04facffd-c50a-40d5-b32a-c1de136b26c6"},"vehicle_type_id":"4","last_reported":1701310864,"current_range_meters":29200,"station_id":"ce4bhah2rcd13ifvqei0","pricing_plan_id":"free"},{"bike_id":"beb5e383-b304-453f-a8e5-3bc8834c9c69","system_id":"levelo_inurba_marseille","lat":43.284538,"lon":5.358657,"is_reserved":false,"is_disabled":false,"rental_uris":{"android":"levelo://app?vid=beb5e383-b304-453f-a8e5-3bc8834c9c69","ios":"levelo://app?vid=beb5e383-b304-453f-a8e5-3bc8834c9c69"},"vehicle_type_id":"4","last_reported":1701310864,"current_range_meters":24000,"station_id":"ce4bhah2rcd13ifvqei0","pricing_plan_id":"free"},{"bike_id":"2df84d96-f4e0-47d1-b504-efcc3a90184c","system_id":"levelo_inurba_marseille","lat":43.284534,"lon":5.358662,"is_reserved":false,"is_disabled":false,"rental_uris":{"android":"levelo://app?vid=2df84d96-f4e0-47d1-b504-efcc3a90184c","ios":"levelo://app?vid=2df84d96-f4e0-47d1-b504-efcc3a90184c"},"vehicle_type_id":"4","last_reported":1701310864,"current_range_meters":31200,"station_id":"ce4bhah2rcd13ifvqei0","pricing_plan_id":"free"},{"bike_id":"2b2babcc-8e64-4501-a747-a078e67a5260","system_id":"levelo_inurba_marseille","lat":43.28611,"lon":5.35104,"is_reserved":false,"is_disabled":false,"rental_uris":{"android":"levelo://app?vid=2b2babcc-8e64-4501-a747-a078e67a5260","ios":"levelo://app?vid=2b2babcc-8e64-4501-a747-a078e67a5260"},"vehicle_type_id":"4","last_reported":1701310864,"current_range_meters":27200,"station_id":"ce4bhch2rcd13ifvqeug","pricing_plan_id":"free"},{"bike_id":"f9601311-7b5a-45ca-b201-3634bd08062d","system_id":"levelo_inurba_marseille","lat":43.286128,"lon":5.35091,"is_reserved":false,"is_disabled":false,"rental_uris":{"android":"levelo://app?vid=f9601311-7b5a-45ca-b201-3634bd08062d","ios":"levelo://app?vid=f9601311-7b5a-45ca-b201-3634bd08062d"},"vehicle_type_id":"4","last_reported":1701310864,"current_range_meters":19200,"station_id":"","pricing_plan_id":"free"},{"bike_id":"702d0fd4-d176-48d8-8568-2e1456896b85","system_id":"levelo_inurba_marseille","lat":43.283998,"lon":5.375062,"is_reserved":false,"is_disabled":false,"rental_uris":{"android":"levelo://app?vid=702d0fd4-d176-48d8-8568-2e1456896b85","ios":"levelo://app?vid=702d0fd4-d176-48d8-8568-2e1456896b85"},"vehicle_type_id":"4","last_reported":1701310864,"current_range_meters":0,"station_id":"ce4bh412rcd13ifvqds0","pricing_plan_id":"free"},{"bike_id":"7e54b1f3-c180-4603-94ce-f6493951b575","system_id":"levelo_inurba_marseille","lat":43.319179,"lon":5.407725,"is_reserved":false,"is_disabled":false,"rental_uris":{"android":"levelo://app?vid=7e54b1f3-c180-4603-94ce-f6493951b575","ios":"levelo://app?vid=7e54b1f3-c180-4603-94ce-f6493951b575"},"vehicle_type_id":"4","last_reported":1701310864,"current_range_meters":30800,"station_id":"ce4bhq12rcd13ifvqhig","pricing_plan_id":"free"},{"bike_id":"2f9ea0ef-2030-4c52-bdc4-51c85e869643","system_id":"levelo_inurba_marseille","lat":43.319179,"lon":5.407725,"is_reserved":false,"is_disabled":false,"rental_uris":{"android":"levelo://app?vid=2f9ea0ef-2030-4c52-bdc4-51c85e869643","ios":"levelo://app?vid=2f9ea0ef-2030-4c52-bdc4-51c85e869643"},"vehicle_type_id":"4","last_reported":1701310864,"current_range_meters":30400,"station_id":"ce4bhq12rcd13ifvqhig","pricing_plan_id":"free"},{"bike_id":"7f977ef5-537f-4c88-8d6c-402ef4187f4e","system_id":"levelo_inurba_marseille","lat":43.323464,"lon":5.406297,"is_reserved":false,"is_disabled":false,"rental_uris":{"android":"levelo://app?vid=7f977ef5-537f-4c88-8d6c-402ef4187f4e","ios":"levelo://app?vid=7f977ef5-537f-4c88-8d6c-402ef4187f4e"},"vehicle_type_id":"4","last_reported":1701310864,"current_range_meters":12000,"station_id":"ce4bhq92rcd13ifvqhjg","pricing_plan_id":"free"},{"bike_id":"87982c98-aa48-4360-9231-8dcc8e21859c","system_id":"levelo_inurba_marseille","lat":43.323464,"lon":5.406297,"is_reserved":false,"is_disabled":false,"rental_uris":{"android":"levelo://app?vid=87982c98-aa48-4360-9231-8dcc8e21859c","ios":"levelo://app?vid=87982c98-aa48-4360-9231-8dcc8e21859c"},"vehicle_type_id":"4","last_reported":1701310864,"current_range_meters":31600,"station_id":"ce4bhq92rcd13ifvqhjg","pricing_plan_id":"free"},{"bike_id":"90af7416-6579-40a9-812c-8f0f6c19045c","system_id":"levelo_inurba_marseille","lat":43.323464,"lon":5.406297,"is_reserved":false,"is_disabled":false,"rental_uris":{"android":"levelo://app?vid=90af7416-6579-40a9-812c-8f0f6c19045c","ios":"levelo://app?vid=90af7416-6579-40a9-812c-8f0f6c19045c"},"vehicle_type_id":"4","last_reported":1701310864,"current_range_meters":23200,"station_id":"ce4bhq92rcd13ifvqhjg","pricing_plan_id":"free"},{"bike_id":"94ae21fa-cf2e-4ffe-9cd9-29d90ec0e5b7","system_id":"levelo_inurba_marseille","lat":43.284793,"lon":5.384113,"is_reserved":false,"is_disabled":false,"rental_uris":{"android":"levelo://app?vid=94ae21fa-cf2e-4ffe-9cd9-29d90ec0e5b7","ios":"levelo://app?vid=94ae21fa-cf2e-4ffe-9cd9-29d90ec0e5b7"},"vehicle_type_id":"4","last_reported":1701310864,"current_range_meters":24800,"station_id":"ce4bh512rcd13ifvqe3g","pricing_plan_id":"free"},{"bike_id":"c9165fc1-11c3-44db-bc48-d004c9372642","system_id":"levelo_inurba_marseille","lat":43.337168,"lon":5.391825,"is_reserved":false,"is_disabled":false,"rental_uris":{"android":"levelo://app?vid=c9165fc1-11c3-44db-bc48-d004c9372642","ios":"levelo://app?vid=c9165fc1-11c3-44db-bc48-d004c9372642"},"vehicle_type_id":"4","last_reported":1701310864,"current_range_meters":30000,"station_id":"ce4bhr92rcd13ifvqhsg","pricing_plan_id":"free"},{"bike_id":"3d1d35d0-a62b-45f0-9661-51b5669fe40c","system_id":"levelo_inurba_marseille","lat":43.284744,"lon":5.384036,"is_reserved":false,"is_disabled":false,"rental_uris":{"android":"levelo://app?vid=3d1d35d0-a62b-45f0-9661-51b5669fe40c","ios":"levelo://app?vid=3d1d35d0-a62b-45f0-9661-51b5669fe40c"},"vehicle_type_id":"4","last_reported":1701310864,"current_range_meters":30400,"station_id":"ce4bh512rcd13ifvqe3g","pricing_plan_id":"free"},{"bike_id":"d08cc67e-d152-4ffc-9d85-699ba106be1a","system_id":"levelo_inurba_marseille","lat":43.297946,"lon":5.404063,"is_reserved":false,"is_disabled":false,"rental_uris":{"android":"levelo://app?vid=d08cc67e-d152-4ffc-9d85-699ba106be1a","ios":"levelo://app?vid=d08cc67e-d152-4ffc-9d85-699ba106be1a"},"vehicle_type_id":"4","last_reported":1701310864,"current_range_meters":19200,"station_id":"ce4bh112rcd13ifvqd90","pricing_plan_id":"free"},{"bike_id":"0f1460ed-bee0-4464-9621-5f4dd7e5d1ef","system_id":"levelo_inurba_marseille","lat":43.297946,"lon":5.404063,"is_reserved":false,"is_disabled":false,"rental_uris":{"android":"levelo://app?vid=0f1460ed-bee0-4464-9621-5f4dd7e5d1ef","ios":"levelo://app?vid=0f1460ed-bee0-4464-9621-5f4dd7e5d1ef"},"vehicle_type_id":"4","last_reported":1701310864,"current_range_meters":31200,"station_id":"ce4bh112rcd13ifvqd90","pricing_plan_id":"free"},{"bike_id":"0a01a476-ee65-43f0-86ce-1b71d00c4784","system_id":"levelo_inurba_marseille","lat":43.29795,"lon":5.404086,"is_reserved":false,"is_disabled":false,"rental_uris":{"android":"levelo://app?vid=0a01a476-ee65-43f0-86ce-1b71d00c4784","ios":"levelo://app?vid=0a01a476-ee65-43f0-86ce-1b71d00c4784"},"vehicle_type_id":"4","last_reported":1701310864,"current_range_meters":28000,"station_id":"ce4bh112rcd13ifvqd90","pricing_plan_id":"free"},{"bike_id":"015673b6-e6b4-4baa-923e-ea3f1b9051bd","system_id":"levelo_inurba_marseille","lat":43.283494,"lon":5.380945,"is_reserved":false,"is_disabled":false,"rental_uris":{"android":"levelo://app?vid=015673b6-e6b4-4baa-923e-ea3f1b9051bd","ios":"levelo://app?vid=015673b6-e6b4-4baa-923e-ea3f1b9051bd"},"vehicle_type_id":"4","last_reported":1701310864,"current_range_meters":30800,"station_id":"ce4bh412rcd13ifvqdr0","pricing_plan_id":"free"},{"bike_id":"e4212623-b0df-480a-8244-ec8c58eff0b8","system_id":"levelo_inurba_marseille","lat":43.283494,"lon":5.380945,"is_reserved":false,"is_disabled":false,"rental_uris":{"android":"levelo://app?vid=e4212623-b0df-480a-8244-ec8c58eff0b8","ios":"levelo://app?vid=e4212623-b0df-480a-8244-ec8c58eff0b8"},"vehicle_type_id":"4","last_reported":1701310864,"current_range_meters":30400,"station_id":"ce4bh412rcd13ifvqdr0","pricing_plan_id":"free"},{"bike_id":"d2120d76-0fad-47eb-b244-dc59d199f1f4","system_id":"levelo_inurba_marseille","lat":43.333397,"lon":5.39872,"is_reserved":false,"is_disabled":false,"rental_uris":{"android":"levelo://app?vid=d2120d76-0fad-47eb-b244-dc59d199f1f4","ios":"levelo://app?vid=d2120d76-0fad-47eb-b244-dc59d199f1f4"},"vehicle_type_id":"4","last_reported":1701310864,"current_range_meters":2400,"station_id":"","pricing_plan_id":"free"},{"bike_id":"fea6b21a-cca4-4033-90bb-4188ccac37e3","system_id":"levelo_inurba_marseille","lat":43.292724,"lon":5.401131,"is_reserved":false,"is_disabled":false,"rental_uris":{"android":"levelo://app?vid=fea6b21a-cca4-4033-90bb-4188ccac37e3","ios":"levelo://app?vid=fea6b21a-cca4-4033-90bb-4188ccac37e3"},"vehicle_type_id":"4","last_reported":1701310864,"current_range_meters":14800,"station_id":"ce4bh312rcd13ifvqdk0","pricing_plan_id":"free"},{"bike_id":"028df4ed-da18-4953-947f-3ef6db55685e","system_id":"levelo_inurba_marseille","lat":43.282744,"lon":5.350533,"is_reserved":false,"is_disabled":false,"rental_uris":{"android":"levelo://app?vid=028df4ed-da18-4953-947f-3ef6db55685e","ios":"levelo://app?vid=028df4ed-da18-4953-947f-3ef6db55685e"},"vehicle_type_id":"4","last_reported":1701310864,"current_range_meters":21200,"station_id":"ce4bhbp2rcd13ifvqerg","pricing_plan_id":"free"},{"bike_id":"fd63b808-6064-4ffb-bf5b-a03feb4d0fea","system_id":"levelo_inurba_marseille","lat":43.282744,"lon":5.350533,"is_reserved":false,"is_disabled":false,"rental_uris":{"android":"levelo://app?vid=fd63b808-6064-4ffb-bf5b-a03feb4d0fea","ios":"levelo://app?vid=fd63b808-6064-4ffb-bf5b-a03feb4d0fea"},"vehicle_type_id":"4","last_reported":1701310864,"current_range_meters":20800,"station_id":"ce4bhbp2rcd13ifvqerg","pricing_plan_id":"free"},{"bike_id":"963d6a9c-7612-4a37-803a-3af335937e69","system_id":"levelo_inurba_marseille","lat":43.282754,"lon":5.350519,"is_reserved":false,"is_disabled":false,"rental_uris":{"android":"levelo://app?vid=963d6a9c-7612-4a37-803a-3af335937e69","ios":"levelo://app?vid=963d6a9c-7612-4a37-803a-3af335937e69"},"vehicle_type_id":"4","last_reported":1701310864,"current_range_meters":22400,"station_id":"ce4bhbp2rcd13ifvqerg","pricing_plan_id":"free"},{"bike_id":"ae15dbbe-04c5-4c7a-9fb5-40b2546b11bc","system_id":"levelo_inurba_marseille","lat":43.283502,"lon":5.386471,"is_reserved":false,"is_disabled":false,"rental_uris":{"android":"levelo://app?vid=ae15dbbe-04c5-4c7a-9fb5-40b2546b11bc","ios":"levelo://app?vid=ae15dbbe-04c5-4c7a-9fb5-40b2546b11bc"},"vehicle_type_id":"4","last_reported":1701310864,"current_range_meters":7600,"station_id":"ce4bh492rcd13ifvqdvg","pricing_plan_id":"free"},{"bike_id":"34bd56fe-1e78-4f52-bfbe-32ff63417704","system_id":"levelo_inurba_marseille","lat":43.282675,"lon":5.350637,"is_reserved":false,"is_disabled":false,"rental_uris":{"android":"levelo://app?vid=34bd56fe-1e78-4f52-bfbe-32ff63417704","ios":"levelo://app?vid=34bd56fe-1e78-4f52-bfbe-32ff63417704"},"vehicle_type_id":"4","last_reported":1701310864,"current_range_meters":30400,"station_id":"ce4bhbp2rcd13ifvqerg","pricing_plan_id":"free"},{"bike_id":"905fede1-9d8a-4cff-9c7f-900efd540e3d","system_id":"levelo_inurba_marseille","lat":43.282744,"lon":5.350533,"is_reserved":false,"is_disabled":false,"rental_uris":{"android":"levelo://app?vid=905fede1-9d8a-4cff-9c7f-900efd540e3d","ios":"levelo://app?vid=905fede1-9d8a-4cff-9c7f-900efd540e3d"},"vehicle_type_id":"4","last_reported":1701310864,"current_range_meters":31600,"station_id":"ce4bhbp2rcd13ifvqerg","pricing_plan_id":"free"},{"bike_id":"dd64b606-cbd6-4f45-b475-9169a7d81877","system_id":"levelo_inurba_marseille","lat":43.282744,"lon":5.350533,"is_reserved":false,"is_disabled":false,"rental_uris":{"android":"levelo://app?vid=dd64b606-cbd6-4f45-b475-9169a7d81877","ios":"levelo://app?vid=dd64b606-cbd6-4f45-b475-9169a7d81877"},"vehicle_type_id":"4","last_reported":1701310864,"current_range_meters":10000,"station_id":"ce4bhbp2rcd13ifvqerg","pricing_plan_id":"free"},{"bike_id":"cbfb07c3-6df7-428e-9608-952bbabffaad","system_id":"levelo_inurba_marseille","lat":43.282744,"lon":5.350533,"is_reserved":false,"is_disabled":false,"rental_uris":{"android":"levelo://app?vid=cbfb07c3-6df7-428e-9608-952bbabffaad","ios":"levelo://app?vid=cbfb07c3-6df7-428e-9608-952bbabffaad"},"vehicle_type_id":"4","last_reported":1701310864,"current_range_meters":31200,"station_id":"ce4bhbp2rcd13ifvqerg","pricing_plan_id":"free"},{"bike_id":"95cec55c-c27c-46c6-ab2a-324667e6941f","system_id":"levelo_inurba_marseille","lat":43.28039,"lon":5.369297,"is_reserved":false,"is_disabled":false,"rental_uris":{"android":"levelo://app?vid=95cec55c-c27c-46c6-ab2a-324667e6941f","ios":"levelo://app?vid=95cec55c-c27c-46c6-ab2a-324667e6941f"},"vehicle_type_id":"4","last_reported":1701310864,"current_range_meters":28400,"station_id":"ce4bha12rcd13ifvqef0","pricing_plan_id":"free"},{"bike_id":"b39cf2b2-ecca-4141-a4e9-def827cec38f","system_id":"levelo_inurba_marseille","lat":43.2804,"lon":5.369391,"is_reserved":false,"is_disabled":false,"rental_uris":{"android":"levelo://app?vid=b39cf2b2-ecca-4141-a4e9-def827cec38f","ios":"levelo://app?vid=b39cf2b2-ecca-4141-a4e9-def827cec38f"},"vehicle_type_id":"4","last_reported":1701310864,"current_range_meters":4800,"station_id":"ce4bha12rcd13ifvqef0","pricing_plan_id":"free"},{"bike_id":"f3edfa28-1f6b-4879-b4f7-158bdbbdee95","system_id":"levelo_inurba_marseille","lat":43.280393,"lon":5.369559,"is_reserved":false,"is_disabled":false,"rental_uris":{"android":"levelo://app?vid=f3edfa28-1f6b-4879-b4f7-158bdbbdee95","ios":"levelo://app?vid=f3edfa28-1f6b-4879-b4f7-158bdbbdee95"},"vehicle_type_id":"4","last_reported":1701310864,"current_range_meters":30400,"station_id":"ce4bha12rcd13ifvqef0","pricing_plan_id":"free"},{"bike_id":"730d6574-35f2-4c7e-a4c2-72ac67eb3b70","system_id":"levelo_inurba_marseille","lat":43.280382,"lon":5.369291,"is_reserved":false,"is_disabled":false,"rental_uris":{"android":"levelo://app?vid=730d6574-35f2-4c7e-a4c2-72ac67eb3b70","ios":"levelo://app?vid=730d6574-35f2-4c7e-a4c2-72ac67eb3b70"},"vehicle_type_id":"4","last_reported":1701310864,"current_range_meters":30400,"station_id":"ce4bha12rcd13ifvqef0","pricing_plan_id":"free"},{"bike_id":"b78d8feb-fb49-441d-8899-bff0281620e8","system_id":"levelo_inurba_marseille","lat":43.280338,"lon":5.369429,"is_reserved":false,"is_disabled":false,"rental_uris":{"android":"levelo://app?vid=b78d8feb-fb49-441d-8899-bff0281620e8","ios":"levelo://app?vid=b78d8feb-fb49-441d-8899-bff0281620e8"},"vehicle_type_id":"4","last_reported":1701310864,"current_range_meters":0,"station_id":"ce4bha12rcd13ifvqef0","pricing_plan_id":"free"},{"bike_id":"275d6402-0ea6-4af0-8fc5-9b35462d469f","system_id":"levelo_inurba_marseille","lat":43.280382,"lon":5.369291,"is_reserved":false,"is_disabled":false,"rental_uris":{"android":"levelo://app?vid=275d6402-0ea6-4af0-8fc5-9b35462d469f","ios":"levelo://app?vid=275d6402-0ea6-4af0-8fc5-9b35462d469f"},"vehicle_type_id":"4","last_reported":1701310864,"current_range_meters":28800,"station_id":"ce4bha12rcd13ifvqef0","pricing_plan_id":"free"},{"bike_id":"f6ebb7a9-b097-4f65-bad2-e6900739b283","system_id":"levelo_inurba_marseille","lat":43.28039,"lon":5.369297,"is_reserved":false,"is_disabled":false,"rental_uris":{"android":"levelo://app?vid=f6ebb7a9-b097-4f65-bad2-e6900739b283","ios":"levelo://app?vid=f6ebb7a9-b097-4f65-bad2-e6900739b283"},"vehicle_type_id":"4","last_reported":1701310864,"current_range_meters":31200,"station_id":"ce4bha12rcd13ifvqef0","pricing_plan_id":"free"},{"bike_id":"e855330b-5d69-4316-8319-541fccfa6612","system_id":"levelo_inurba_marseille","lat":43.281044,"lon":5.378308,"is_reserved":false,"is_disabled":false,"rental_uris":{"android":"levelo://app?vid=e855330b-5d69-4316-8319-541fccfa6612","ios":"levelo://app?vid=e855330b-5d69-4316-8319-541fccfa6612"},"vehicle_type_id":"4","last_reported":1701310864,"current_range_meters":28400,"station_id":"ce4bha12rcd13ifvqee0","pricing_plan_id":"free"},{"bike_id":"254e1433-c6ac-4f67-ae90-099a7484883e","system_id":"levelo_inurba_marseille","lat":43.296263,"lon":5.40601,"is_reserved":false,"is_disabled":false,"rental_uris":{"android":"levelo://app?vid=254e1433-c6ac-4f67-ae90-099a7484883e","ios":"levelo://app?vid=254e1433-c6ac-4f67-ae90-099a7484883e"},"vehicle_type_id":"4","last_reported":1701310864,"current_range_meters":30400,"station_id":"ce4bh0h2rcd13ifvqd60","pricing_plan_id":"free"},{"bike_id":"b68219d4-fad7-4a12-bac0-33d9b017f229","system_id":"levelo_inurba_marseille","lat":43.285742,"lon":5.395004,"is_reserved":false,"is_disabled":false,"rental_uris":{"android":"levelo://app?vid=b68219d4-fad7-4a12-bac0-33d9b017f229","ios":"levelo://app?vid=b68219d4-fad7-4a12-bac0-33d9b017f229"},"vehicle_type_id":"4","last_reported":1701310864,"current_range_meters":27600,"station_id":"ce4bh292rcd13ifvqdg0","pricing_plan_id":"free"},{"bike_id":"5c6b06c6-99ac-4f01-bff4-ffec7cb90804","system_id":"levelo_inurba_marseille","lat":43.28573,"lon":5.394992,"is_reserved":false,"is_disabled":false,"rental_uris":{"android":"levelo://app?vid=5c6b06c6-99ac-4f01-bff4-ffec7cb90804","ios":"levelo://app?vid=5c6b06c6-99ac-4f01-bff4-ffec7cb90804"},"vehicle_type_id":"4","last_reported":1701310864,"current_range_meters":30000,"station_id":"ce4bh292rcd13ifvqdg0","pricing_plan_id":"free"},{"bike_id":"b65b8345-2e42-4021-a435-c914b0d00652","system_id":"levelo_inurba_marseille","lat":43.326605,"lon":5.409903,"is_reserved":false,"is_disabled":false,"rental_uris":{"android":"levelo://app?vid=b65b8345-2e42-4021-a435-c914b0d00652","ios":"levelo://app?vid=b65b8345-2e42-4021-a435-c914b0d00652"},"vehicle_type_id":"4","last_reported":1701310864,"current_range_meters":28000,"station_id":"ce4bhpp2rcd13ifvqhgg","pricing_plan_id":"free"},{"bike_id":"e3713d96-8452-4f2a-b1d6-acdb5f14e91b","system_id":"levelo_inurba_marseille","lat":43.304188,"lon":5.412904,"is_reserved":false,"is_disabled":false,"rental_uris":{"android":"levelo://app?vid=e3713d96-8452-4f2a-b1d6-acdb5f14e91b","ios":"levelo://app?vid=e3713d96-8452-4f2a-b1d6-acdb5f14e91b"},"vehicle_type_id":"4","last_reported":1701310864,"current_range_meters":27600,"station_id":"ce4bhop2rcd13ifvqh8g","pricing_plan_id":"free"},{"bike_id":"010d9f9f-5238-4fb9-b42b-e62d985c34ce","system_id":"levelo_inurba_marseille","lat":43.304188,"lon":5.412904,"is_reserved":false,"is_disabled":false,"rental_uris":{"android":"levelo://app?vid=010d9f9f-5238-4fb9-b42b-e62d985c34ce","ios":"levelo://app?vid=010d9f9f-5238-4fb9-b42b-e62d985c34ce"},"vehicle_type_id":"4","last_reported":1701310864,"current_range_meters":30000,"station_id":"ce4bhop2rcd13ifvqh8g","pricing_plan_id":"free"},{"bike_id":"4c8cc9c9-5ea0-4abc-85c9-7b43579de585","system_id":"levelo_inurba_marseille","lat":43.279742,"lon":5.38744,"is_reserved":false,"is_disabled":false,"rental_uris":{"android":"levelo://app?vid=4c8cc9c9-5ea0-4abc-85c9-7b43579de585","ios":"levelo://app?vid=4c8cc9c9-5ea0-4abc-85c9-7b43579de585"},"vehicle_type_id":"4","last_reported":1701310864,"current_range_meters":30400,"station_id":"ce4bhg12rcd13ifvqf80","pricing_plan_id":"free"},{"bike_id":"4edb74a9-e5c0-41ba-8fc5-bdca92191f90","system_id":"levelo_inurba_marseille","lat":43.320045,"lon":5.415046,"is_reserved":false,"is_disabled":false,"rental_uris":{"android":"levelo://app?vid=4edb74a9-e5c0-41ba-8fc5-bdca92191f90","ios":"levelo://app?vid=4edb74a9-e5c0-41ba-8fc5-bdca92191f90"},"vehicle_type_id":"4","last_reported":1701310864,"current_range_meters":27600,"station_id":"ce4bhq92rcd13ifvqhkg","pricing_plan_id":"free"},{"bike_id":"dec95bca-6e2c-4768-a173-128059aecf98","system_id":"levelo_inurba_marseille","lat":43.299577,"lon":5.413277,"is_reserved":false,"is_disabled":false,"rental_uris":{"android":"levelo://app?vid=dec95bca-6e2c-4768-a173-128059aecf98","ios":"levelo://app?vid=dec95bca-6e2c-4768-a173-128059aecf98"},"vehicle_type_id":"4","last_reported":1701310864,"current_range_meters":30400,"station_id":"ce4bhp12rcd13ifvqh9g","pricing_plan_id":"free"},{"bike_id":"2981bd2a-3bbc-48ff-a9c3-a2e196c84c3a","system_id":"levelo_inurba_marseille","lat":43.292571,"lon":5.409107,"is_reserved":false,"is_disabled":false,"rental_uris":{"android":"levelo://app?vid=2981bd2a-3bbc-48ff-a9c3-a2e196c84c3a","ios":"levelo://app?vid=2981bd2a-3bbc-48ff-a9c3-a2e196c84c3a"},"vehicle_type_id":"4","last_reported":1701310864,"current_range_meters":23200,"station_id":"ce4bh192rcd13ifvqdc0","pricing_plan_id":"free"},{"bike_id":"da7c465e-07d8-45d6-8344-2389bff31c55","system_id":"levelo_inurba_marseille","lat":43.280784,"lon":5.396622,"is_reserved":false,"is_disabled":false,"rental_uris":{"android":"levelo://app?vid=da7c465e-07d8-45d6-8344-2389bff31c55","ios":"levelo://app?vid=da7c465e-07d8-45d6-8344-2389bff31c55"},"vehicle_type_id":"4","last_reported":1701310864,"current_range_meters":13200,"station_id":"ce4bho12rcd13ifvqh2g","pricing_plan_id":"free"},{"bike_id":"ed9b8387-82a7-47e9-9de0-0dcbb28c2109","system_id":"levelo_inurba_marseille","lat":43.280784,"lon":5.396622,"is_reserved":false,"is_disabled":false,"rental_uris":{"android":"levelo://app?vid=ed9b8387-82a7-47e9-9de0-0dcbb28c2109","ios":"levelo://app?vid=ed9b8387-82a7-47e9-9de0-0dcbb28c2109"},"vehicle_type_id":"4","last_reported":1701310864,"current_range_meters":29600,"station_id":"ce4bho12rcd13ifvqh2g","pricing_plan_id":"free"},{"bike_id":"aeb6aae8-277f-467f-8c00-8f540be5604a","system_id":"levelo_inurba_marseille","lat":43.278333,"lon":5.39198,"is_reserved":false,"is_disabled":false,"rental_uris":{"android":"levelo://app?vid=aeb6aae8-277f-467f-8c00-8f540be5604a","ios":"levelo://app?vid=aeb6aae8-277f-467f-8c00-8f540be5604a"},"vehicle_type_id":"4","last_reported":1701310864,"current_range_meters":28400,"station_id":"ce4bhjp2rcd13ifvqga0","pricing_plan_id":"free"},{"bike_id":"51906621-8246-492d-ac66-399d5e20cda5","system_id":"levelo_inurba_marseille","lat":43.278332,"lon":5.391991,"is_reserved":false,"is_disabled":false,"rental_uris":{"android":"levelo://app?vid=51906621-8246-492d-ac66-399d5e20cda5","ios":"levelo://app?vid=51906621-8246-492d-ac66-399d5e20cda5"},"vehicle_type_id":"4","last_reported":1701310864,"current_range_meters":30000,"station_id":"ce4bhjp2rcd13ifvqga0","pricing_plan_id":"free"},{"bike_id":"02bbaec1-5fe3-4433-9407-81171b2a94ea","system_id":"levelo_inurba_marseille","lat":43.275625,"lon":5.384392,"is_reserved":false,"is_disabled":false,"rental_uris":{"android":"levelo://app?vid=02bbaec1-5fe3-4433-9407-81171b2a94ea","ios":"levelo://app?vid=02bbaec1-5fe3-4433-9407-81171b2a94ea"},"vehicle_type_id":"4","last_reported":1701310864,"current_range_meters":29600,"station_id":"ce4bhh92rcd13ifvqfi0","pricing_plan_id":"free"},{"bike_id":"ae944ce2-e7fe-407f-a11d-0561779717d0","system_id":"levelo_inurba_marseille","lat":43.273613,"lon":5.362705,"is_reserved":false,"is_disabled":false,"rental_uris":{"android":"levelo://app?vid=ae944ce2-e7fe-407f-a11d-0561779717d0","ios":"levelo://app?vid=ae944ce2-e7fe-407f-a11d-0561779717d0"},"vehicle_type_id":"4","last_reported":1701310864,"current_range_meters":400,"station_id":"ce4bhbh2rcd13ifvqeo0","pricing_plan_id":"free"},{"bike_id":"ecc995c3-0c26-4fbf-b38f-cd7b92ad609b","system_id":"levelo_inurba_marseille","lat":43.33612,"lon":5.410321,"is_reserved":false,"is_disabled":false,"rental_uris":{"android":"levelo://app?vid=ecc995c3-0c26-4fbf-b38f-cd7b92ad609b","ios":"levelo://app?vid=ecc995c3-0c26-4fbf-b38f-cd7b92ad609b"},"vehicle_type_id":"4","last_reported":1701310864,"current_range_meters":22800,"station_id":"ce4bhqh2rcd13ifvqhmg","pricing_plan_id":"free"},{"bike_id":"b31b3a6b-bb9f-4671-ba5b-d6d4fae1a59e","system_id":"levelo_inurba_marseille","lat":43.273613,"lon":5.362705,"is_reserved":false,"is_disabled":false,"rental_uris":{"android":"levelo://app?vid=b31b3a6b-bb9f-4671-ba5b-d6d4fae1a59e","ios":"levelo://app?vid=b31b3a6b-bb9f-4671-ba5b-d6d4fae1a59e"},"vehicle_type_id":"4","last_reported":1701310864,"current_range_meters":18800,"station_id":"ce4bhbh2rcd13ifvqeo0","pricing_plan_id":"free"},{"bike_id":"b2dce51d-ce4e-40fb-9ef2-73d9b2b72d52","system_id":"levelo_inurba_marseille","lat":43.273609,"lon":5.362708,"is_reserved":false,"is_disabled":false,"rental_uris":{"android":"levelo://app?vid=b2dce51d-ce4e-40fb-9ef2-73d9b2b72d52","ios":"levelo://app?vid=b2dce51d-ce4e-40fb-9ef2-73d9b2b72d52"},"vehicle_type_id":"4","last_reported":1701310864,"current_range_meters":30000,"station_id":"ce4bhbh2rcd13ifvqeo0","pricing_plan_id":"free"},{"bike_id":"9a0a29ad-7574-42cb-a4fc-de7c094c3a31","system_id":"levelo_inurba_marseille","lat":43.273613,"lon":5.362705,"is_reserved":false,"is_disabled":false,"rental_uris":{"android":"levelo://app?vid=9a0a29ad-7574-42cb-a4fc-de7c094c3a31","ios":"levelo://app?vid=9a0a29ad-7574-42cb-a4fc-de7c094c3a31"},"vehicle_type_id":"4","last_reported":1701310864,"current_range_meters":31600,"station_id":"ce4bhbh2rcd13ifvqeo0","pricing_plan_id":"free"},{"bike_id":"9d142aeb-b679-4d87-a6b0-de38f0581765","system_id":"levelo_inurba_marseille","lat":43.336148,"lon":5.410349,"is_reserved":false,"is_disabled":false,"rental_uris":{"android":"levelo://app?vid=9d142aeb-b679-4d87-a6b0-de38f0581765","ios":"levelo://app?vid=9d142aeb-b679-4d87-a6b0-de38f0581765"},"vehicle_type_id":"4","last_reported":1701310864,"current_range_meters":30000,"station_id":"ce4bhqh2rcd13ifvqhmg","pricing_plan_id":"free"},{"bike_id":"c59cf3cf-5a75-43bf-98b9-0eb5a1bcf5bd","system_id":"levelo_inurba_marseille","lat":43.336134,"lon":5.410341,"is_reserved":false,"is_disabled":false,"rental_uris":{"android":"levelo://app?vid=c59cf3cf-5a75-43bf-98b9-0eb5a1bcf5bd","ios":"levelo://app?vid=c59cf3cf-5a75-43bf-98b9-0eb5a1bcf5bd"},"vehicle_type_id":"4","last_reported":1701310864,"current_range_meters":29600,"station_id":"ce4bhqh2rcd13ifvqhmg","pricing_plan_id":"free"},{"bike_id":"0ac4280a-3db5-4260-a762-2c50c8aeb19a","system_id":"levelo_inurba_marseille","lat":43.33612,"lon":5.410321,"is_reserved":false,"is_disabled":false,"rental_uris":{"android":"levelo://app?vid=0ac4280a-3db5-4260-a762-2c50c8aeb19a","ios":"levelo://app?vid=0ac4280a-3db5-4260-a762-2c50c8aeb19a"},"vehicle_type_id":"4","last_reported":1701310864,"current_range_meters":19600,"station_id":"ce4bhqh2rcd13ifvqhmg","pricing_plan_id":"free"},{"bike_id":"dc6cecc7-7b9d-4582-b470-a66427e5694d","system_id":"levelo_inurba_marseille","lat":43.33612,"lon":5.410321,"is_reserved":false,"is_disabled":false,"rental_uris":{"android":"levelo://app?vid=dc6cecc7-7b9d-4582-b470-a66427e5694d","ios":"levelo://app?vid=dc6cecc7-7b9d-4582-b470-a66427e5694d"},"vehicle_type_id":"4","last_reported":1701310864,"current_range_meters":26800,"station_id":"ce4bhqh2rcd13ifvqhmg","pricing_plan_id":"free"},{"bike_id":"ec16ba45-9ec7-4bc0-a0e5-82c952c7d249","system_id":"levelo_inurba_marseille","lat":43.336134,"lon":5.410341,"is_reserved":false,"is_disabled":false,"rental_uris":{"android":"levelo://app?vid=ec16ba45-9ec7-4bc0-a0e5-82c952c7d249","ios":"levelo://app?vid=ec16ba45-9ec7-4bc0-a0e5-82c952c7d249"},"vehicle_type_id":"4","last_reported":1701310864,"current_range_meters":28400,"station_id":"ce4bhqh2rcd13ifvqhmg","pricing_plan_id":"free"},{"bike_id":"cf852e64-b69e-45a5-816b-2947e928c6cd","system_id":"levelo_inurba_marseille","lat":43.276771,"lon":5.388799,"is_reserved":false,"is_disabled":false,"rental_uris":{"android":"levelo://app?vid=cf852e64-b69e-45a5-816b-2947e928c6cd","ios":"levelo://app?vid=cf852e64-b69e-45a5-816b-2947e928c6cd"},"vehicle_type_id":"4","last_reported":1701310864,"current_range_meters":20400,"station_id":"ce4bhi12rcd13ifvqfo0","pricing_plan_id":"free"},{"bike_id":"2f7b84a6-5093-46f6-b261-a1c351e80b2d","system_id":"levelo_inurba_marseille","lat":43.276771,"lon":5.388799,"is_reserved":false,"is_disabled":false,"rental_uris":{"android":"levelo://app?vid=2f7b84a6-5093-46f6-b261-a1c351e80b2d","ios":"levelo://app?vid=2f7b84a6-5093-46f6-b261-a1c351e80b2d"},"vehicle_type_id":"4","last_reported":1701310864,"current_range_meters":29600,"station_id":"ce4bhi12rcd13ifvqfo0","pricing_plan_id":"free"},{"bike_id":"12008593-bfe0-4468-8b92-8cdd8e37b9d8","system_id":"levelo_inurba_marseille","lat":43.276771,"lon":5.388799,"is_reserved":false,"is_disabled":false,"rental_uris":{"android":"levelo://app?vid=12008593-bfe0-4468-8b92-8cdd8e37b9d8","ios":"levelo://app?vid=12008593-bfe0-4468-8b92-8cdd8e37b9d8"},"vehicle_type_id":"4","last_reported":1701310864,"current_range_meters":27200,"station_id":"ce4bhi12rcd13ifvqfo0","pricing_plan_id":"free"},{"bike_id":"a76aea1e-f460-4283-9591-8fd8c7ac0ea7","system_id":"levelo_inurba_marseille","lat":43.341192,"lon":5.405823,"is_reserved":false,"is_disabled":false,"rental_uris":{"android":"levelo://app?vid=a76aea1e-f460-4283-9591-8fd8c7ac0ea7","ios":"levelo://app?vid=a76aea1e-f460-4283-9591-8fd8c7ac0ea7"},"vehicle_type_id":"4","last_reported":1701310864,"current_range_meters":13200,"station_id":"","pricing_plan_id":"free"},{"bike_id":"ebda0b6e-7465-4608-841e-9d7a331ae123","system_id":"levelo_inurba_marseille","lat":43.28,"lon":5.400147,"is_reserved":false,"is_disabled":false,"rental_uris":{"android":"levelo://app?vid=ebda0b6e-7465-4608-841e-9d7a331ae123","ios":"levelo://app?vid=ebda0b6e-7465-4608-841e-9d7a331ae123"},"vehicle_type_id":"4","last_reported":1701310864,"current_range_meters":27200,"station_id":"ce4bho92rcd13ifvqh4g","pricing_plan_id":"free"},{"bike_id":"3c50c062-4b6b-4e52-ac0a-ef7174711fa9","system_id":"levelo_inurba_marseille","lat":43.279978,"lon":5.400172,"is_reserved":false,"is_disabled":false,"rental_uris":{"android":"levelo://app?vid=3c50c062-4b6b-4e52-ac0a-ef7174711fa9","ios":"levelo://app?vid=3c50c062-4b6b-4e52-ac0a-ef7174711fa9"},"vehicle_type_id":"4","last_reported":1701310864,"current_range_meters":19200,"station_id":"ce4bho92rcd13ifvqh4g","pricing_plan_id":"free"},{"bike_id":"be089778-fb34-4c77-a00c-8d5c4b16068c","system_id":"levelo_inurba_marseille","lat":43.317121,"lon":5.423936,"is_reserved":false,"is_disabled":false,"rental_uris":{"android":"levelo://app?vid=be089778-fb34-4c77-a00c-8d5c4b16068c","ios":"levelo://app?vid=be089778-fb34-4c77-a00c-8d5c4b16068c"},"vehicle_type_id":"4","last_reported":1701310864,"current_range_meters":20800,"station_id":"ce4bhp92rcd13ifvqhbg","pricing_plan_id":"free"},{"bike_id":"521ca7fa-ebdc-45ea-85a3-99d902329c35","system_id":"levelo_inurba_marseille","lat":43.310785,"lon":5.424305,"is_reserved":false,"is_disabled":false,"rental_uris":{"android":"levelo://app?vid=521ca7fa-ebdc-45ea-85a3-99d902329c35","ios":"levelo://app?vid=521ca7fa-ebdc-45ea-85a3-99d902329c35"},"vehicle_type_id":"4","last_reported":1701310864,"current_range_meters":1600,"station_id":"ce4bhp92rcd13ifvqhag","pricing_plan_id":"free"},{"bike_id":"33449a5f-4b78-4140-9f71-bb6c5c9ecf3a","system_id":"levelo_inurba_marseille","lat":43.310785,"lon":5.424305,"is_reserved":false,"is_disabled":false,"rental_uris":{"android":"levelo://app?vid=33449a5f-4b78-4140-9f71-bb6c5c9ecf3a","ios":"levelo://app?vid=33449a5f-4b78-4140-9f71-bb6c5c9ecf3a"},"vehicle_type_id":"4","last_reported":1701310864,"current_range_meters":6800,"station_id":"ce4bhp92rcd13ifvqhag","pricing_plan_id":"free"},{"bike_id":"d8aa4e72-eeae-4685-9bc0-6401a3934feb","system_id":"levelo_inurba_marseille","lat":43.340804,"lon":5.410219,"is_reserved":false,"is_disabled":false,"rental_uris":{"android":"levelo://app?vid=d8aa4e72-eeae-4685-9bc0-6401a3934feb","ios":"levelo://app?vid=d8aa4e72-eeae-4685-9bc0-6401a3934feb"},"vehicle_type_id":"4","last_reported":1701310864,"current_range_meters":26800,"station_id":"ce4bhqh2rcd13ifvqhlg","pricing_plan_id":"free"},{"bike_id":"7c6438b7-5c60-44ec-85f0-56b9d65ac35f","system_id":"levelo_inurba_marseille","lat":43.273125,"lon":5.390731,"is_reserved":false,"is_disabled":false,"rental_uris":{"android":"levelo://app?vid=7c6438b7-5c60-44ec-85f0-56b9d65ac35f","ios":"levelo://app?vid=7c6438b7-5c60-44ec-85f0-56b9d65ac35f"},"vehicle_type_id":"4","last_reported":1701310864,"current_range_meters":12000,"station_id":"ce4bhgp2rcd13ifvqfe0","pricing_plan_id":"free"},{"bike_id":"91d17f03-6019-4565-a226-956d41c1639e","system_id":"levelo_inurba_marseille","lat":43.273181,"lon":5.390893,"is_reserved":false,"is_disabled":false,"rental_uris":{"android":"levelo://app?vid=91d17f03-6019-4565-a226-956d41c1639e","ios":"levelo://app?vid=91d17f03-6019-4565-a226-956d41c1639e"},"vehicle_type_id":"4","last_reported":1701310864,"current_range_meters":31600,"station_id":"ce4bhgp2rcd13ifvqfe0","pricing_plan_id":"free"},{"bike_id":"1995b353-3df8-4744-9047-31035e4532a5","system_id":"levelo_inurba_marseille","lat":43.27318,"lon":5.390948,"is_reserved":false,"is_disabled":false,"rental_uris":{"android":"levelo://app?vid=1995b353-3df8-4744-9047-31035e4532a5","ios":"levelo://app?vid=1995b353-3df8-4744-9047-31035e4532a5"},"vehicle_type_id":"4","last_reported":1701310864,"current_range_meters":25200,"station_id":"ce4bhgp2rcd13ifvqfe0","pricing_plan_id":"free"},{"bike_id":"d6196e04-2494-4446-a9da-1bc4c12e52ee","system_id":"levelo_inurba_marseille","lat":43.295523,"lon":5.422926,"is_reserved":false,"is_disabled":false,"rental_uris":{"android":"levelo://app?vid=d6196e04-2494-4446-a9da-1bc4c12e52ee","ios":"levelo://app?vid=d6196e04-2494-4446-a9da-1bc4c12e52ee"},"vehicle_type_id":"4","last_reported":1701310864,"current_range_meters":27600,"station_id":"ce4bhph2rcd13ifvqhdg","pricing_plan_id":"free"},{"bike_id":"7335a393-cc37-4e1d-b729-82d3cd0e69fb","system_id":"levelo_inurba_marseille","lat":43.29518,"lon":5.42264,"is_reserved":false,"is_disabled":false,"rental_uris":{"android":"levelo://app?vid=7335a393-cc37-4e1d-b729-82d3cd0e69fb","ios":"levelo://app?vid=7335a393-cc37-4e1d-b729-82d3cd0e69fb"},"vehicle_type_id":"4","last_reported":1701310864,"current_range_meters":22400,"station_id":"ce4bhph2rcd13ifvqhdg","pricing_plan_id":"free"},{"bike_id":"879eaebb-d472-4bcc-a56a-f7ff06b82be3","system_id":"levelo_inurba_marseille","lat":43.295511,"lon":5.422926,"is_reserved":false,"is_disabled":false,"rental_uris":{"android":"levelo://app?vid=879eaebb-d472-4bcc-a56a-f7ff06b82be3","ios":"levelo://app?vid=879eaebb-d472-4bcc-a56a-f7ff06b82be3"},"vehicle_type_id":"4","last_reported":1701310864,"current_range_meters":26400,"station_id":"ce4bhph2rcd13ifvqhdg","pricing_plan_id":"free"},{"bike_id":"a77ff4ee-8be9-4d58-9101-6e5b4c0186f4","system_id":"levelo_inurba_marseille","lat":43.278128,"lon":5.407195,"is_reserved":false,"is_disabled":false,"rental_uris":{"android":"levelo://app?vid=a77ff4ee-8be9-4d58-9101-6e5b4c0186f4","ios":"levelo://app?vid=a77ff4ee-8be9-4d58-9101-6e5b4c0186f4"},"vehicle_type_id":"4","last_reported":1701310864,"current_range_meters":27600,"station_id":"ce4bhnh2rcd13ifvqgtg","pricing_plan_id":"free"},{"bike_id":"e517965d-f675-46bc-b66b-a7b94a96f94c","system_id":"levelo_inurba_marseille","lat":43.269319,"lon":5.389397,"is_reserved":false,"is_disabled":false,"rental_uris":{"android":"levelo://app?vid=e517965d-f675-46bc-b66b-a7b94a96f94c","ios":"levelo://app?vid=e517965d-f675-46bc-b66b-a7b94a96f94c"},"vehicle_type_id":"4","last_reported":1701310864,"current_range_meters":28800,"station_id":"ce4bhhh2rcd13ifvqfl0","pricing_plan_id":"free"},{"bike_id":"1e6cad57-669e-459c-a601-77b2770279f1","system_id":"levelo_inurba_marseille","lat":43.265714,"lon":5.372891,"is_reserved":false,"is_disabled":false,"rental_uris":{"android":"levelo://app?vid=1e6cad57-669e-459c-a601-77b2770279f1","ios":"levelo://app?vid=1e6cad57-669e-459c-a601-77b2770279f1"},"vehicle_type_id":"4","last_reported":1701310864,"current_range_meters":9200,"station_id":"ce4bhg12rcd13ifvqf70","pricing_plan_id":"free"},{"bike_id":"897c7477-704f-4ada-86df-3c153fdea6b8","system_id":"levelo_inurba_marseille","lat":43.265519,"lon":5.372846,"is_reserved":false,"is_disabled":false,"rental_uris":{"android":"levelo://app?vid=897c7477-704f-4ada-86df-3c153fdea6b8","ios":"levelo://app?vid=897c7477-704f-4ada-86df-3c153fdea6b8"},"vehicle_type_id":"4","last_reported":1701310864,"current_range_meters":0,"station_id":"ce4bhg12rcd13ifvqf70","pricing_plan_id":"free"},{"bike_id":"17ece11e-fd08-4a39-9fa8-e5560440b4cc","system_id":"levelo_inurba_marseille","lat":43.27996,"lon":5.416624,"is_reserved":false,"is_disabled":false,"rental_uris":{"android":"levelo://app?vid=17ece11e-fd08-4a39-9fa8-e5560440b4cc","ios":"levelo://app?vid=17ece11e-fd08-4a39-9fa8-e5560440b4cc"},"vehicle_type_id":"4","last_reported":1701310864,"current_range_meters":30000,"station_id":"ce4bho12rcd13ifvqh1g","pricing_plan_id":"free"},{"bike_id":"12452487-8637-4874-8cd3-35f9e6d5c626","system_id":"levelo_inurba_marseille","lat":43.265714,"lon":5.372891,"is_reserved":false,"is_disabled":false,"rental_uris":{"android":"levelo://app?vid=12452487-8637-4874-8cd3-35f9e6d5c626","ios":"levelo://app?vid=12452487-8637-4874-8cd3-35f9e6d5c626"},"vehicle_type_id":"4","last_reported":1701310864,"current_range_meters":30400,"station_id":"ce4bhg12rcd13ifvqf70","pricing_plan_id":"free"},{"bike_id":"e1d57b3f-ef15-43b9-b540-4e0f3235d1a9","system_id":"levelo_inurba_marseille","lat":43.265571,"lon":5.390032,"is_reserved":false,"is_disabled":false,"rental_uris":{"android":"levelo://app?vid=e1d57b3f-ef15-43b9-b540-4e0f3235d1a9","ios":"levelo://app?vid=e1d57b3f-ef15-43b9-b540-4e0f3235d1a9"},"vehicle_type_id":"4","last_reported":1701310864,"current_range_meters":26000,"station_id":"ce4bhe12rcd13ifvqf30","pricing_plan_id":"free"},{"bike_id":"76289dd2-d53b-4a1f-ba82-59d55ae3ffce","system_id":"levelo_inurba_marseille","lat":43.308051,"lon":5.43527,"is_reserved":false,"is_disabled":false,"rental_uris":{"android":"levelo://app?vid=76289dd2-d53b-4a1f-ba82-59d55ae3ffce","ios":"levelo://app?vid=76289dd2-d53b-4a1f-ba82-59d55ae3ffce"},"vehicle_type_id":"4","last_reported":1701310864,"current_range_meters":30000,"station_id":"ce4bhph2rcd13ifvqheg","pricing_plan_id":"free"},{"bike_id":"79828ae7-a860-4d1d-ba9e-5f4424d1b14c","system_id":"levelo_inurba_marseille","lat":43.26937,"lon":5.40254,"is_reserved":false,"is_disabled":false,"rental_uris":{"android":"levelo://app?vid=79828ae7-a860-4d1d-ba9e-5f4424d1b14c","ios":"levelo://app?vid=79828ae7-a860-4d1d-ba9e-5f4424d1b14c"},"vehicle_type_id":"4","last_reported":1701310864,"current_range_meters":0,"station_id":"cjm6bp8fraef2m0cb0m0","pricing_plan_id":"free"},{"bike_id":"1c859d8c-6823-4772-9abb-da577a635321","system_id":"levelo_inurba_marseille","lat":43.317104,"lon":5.436818,"is_reserved":false,"is_disabled":false,"rental_uris":{"android":"levelo://app?vid=1c859d8c-6823-4772-9abb-da577a635321","ios":"levelo://app?vid=1c859d8c-6823-4772-9abb-da577a635321"},"vehicle_type_id":"4","last_reported":1701310864,"current_range_meters":21200,"station_id":"ce4bhp92rcd13ifvqhcg","pricing_plan_id":"free"},{"bike_id":"990b2adb-7167-4739-a5a0-0597c75ab46f","system_id":"levelo_inurba_marseille","lat":43.317104,"lon":5.436818,"is_reserved":false,"is_disabled":false,"rental_uris":{"android":"levelo://app?vid=990b2adb-7167-4739-a5a0-0597c75ab46f","ios":"levelo://app?vid=990b2adb-7167-4739-a5a0-0597c75ab46f"},"vehicle_type_id":"4","last_reported":1701310864,"current_range_meters":0,"station_id":"ce4bhp92rcd13ifvqhcg","pricing_plan_id":"free"},{"bike_id":"f554caff-ea27-4c9a-835c-3ef548d12f07","system_id":"levelo_inurba_marseille","lat":43.317104,"lon":5.436818,"is_reserved":false,"is_disabled":false,"rental_uris":{"android":"levelo://app?vid=f554caff-ea27-4c9a-835c-3ef548d12f07","ios":"levelo://app?vid=f554caff-ea27-4c9a-835c-3ef548d12f07"},"vehicle_type_id":"4","last_reported":1701310864,"current_range_meters":4800,"station_id":"ce4bhp92rcd13ifvqhcg","pricing_plan_id":"free"},{"bike_id":"99d63533-62af-4498-b6d6-41c459d84925","system_id":"levelo_inurba_marseille","lat":43.317104,"lon":5.436818,"is_reserved":false,"is_disabled":false,"rental_uris":{"android":"levelo://app?vid=99d63533-62af-4498-b6d6-41c459d84925","ios":"levelo://app?vid=99d63533-62af-4498-b6d6-41c459d84925"},"vehicle_type_id":"4","last_reported":1701310864,"current_range_meters":21600,"station_id":"ce4bhp92rcd13ifvqhcg","pricing_plan_id":"free"},{"bike_id":"31e2b54c-3864-49b9-bbb8-6ef613406686","system_id":"levelo_inurba_marseille","lat":43.2618,"lon":5.37441,"is_reserved":false,"is_disabled":false,"rental_uris":{"android":"levelo://app?vid=31e2b54c-3864-49b9-bbb8-6ef613406686","ios":"levelo://app?vid=31e2b54c-3864-49b9-bbb8-6ef613406686"},"vehicle_type_id":"4","last_reported":1701310864,"current_range_meters":0,"station_id":"ce4bhgp2rcd13ifvqfc0","pricing_plan_id":"free"},{"bike_id":"de4e587f-42d6-400c-8852-6148ad8011f6","system_id":"levelo_inurba_marseille","lat":43.271388,"lon":5.409269,"is_reserved":false,"is_disabled":false,"rental_uris":{"android":"levelo://app?vid=de4e587f-42d6-400c-8852-6148ad8011f6","ios":"levelo://app?vid=de4e587f-42d6-400c-8852-6148ad8011f6"},"vehicle_type_id":"4","last_reported":1701310864,"current_range_meters":2400,"station_id":"ce4bhl12rcd13ifvqgf0","pricing_plan_id":"free"},{"bike_id":"51345e9f-2413-403c-8601-5ddf942a2617","system_id":"levelo_inurba_marseille","lat":43.26202,"lon":5.379299,"is_reserved":false,"is_disabled":false,"rental_uris":{"android":"levelo://app?vid=51345e9f-2413-403c-8601-5ddf942a2617","ios":"levelo://app?vid=51345e9f-2413-403c-8601-5ddf942a2617"},"vehicle_type_id":"4","last_reported":1701310864,"current_range_meters":28400,"station_id":"ce4bhjp2rcd13ifvqg90","pricing_plan_id":"free"},{"bike_id":"3b0c0bb4-5989-4886-a288-42d1a3878a2b","system_id":"levelo_inurba_marseille","lat":43.27175,"lon":5.40987,"is_reserved":false,"is_disabled":false,"rental_uris":{"android":"levelo://app?vid=3b0c0bb4-5989-4886-a288-42d1a3878a2b","ios":"levelo://app?vid=3b0c0bb4-5989-4886-a288-42d1a3878a2b"},"vehicle_type_id":"4","last_reported":1701310864,"current_range_meters":0,"station_id":"ce4bhl12rcd13ifvqgf0","pricing_plan_id":"free"},{"bike_id":"c27ac3f7-47c8-4e42-aa5d-a5083ed3eb8a","system_id":"levelo_inurba_marseille","lat":43.271388,"lon":5.409269,"is_reserved":false,"is_disabled":false,"rental_uris":{"android":"levelo://app?vid=c27ac3f7-47c8-4e42-aa5d-a5083ed3eb8a","ios":"levelo://app?vid=c27ac3f7-47c8-4e42-aa5d-a5083ed3eb8a"},"vehicle_type_id":"4","last_reported":1701310864,"current_range_meters":31600,"station_id":"ce4bhl12rcd13ifvqgf0","pricing_plan_id":"free"},{"bike_id":"07373662-8901-48a2-b23c-0454c00fa92c","system_id":"levelo_inurba_marseille","lat":43.267959,"lon":5.402685,"is_reserved":false,"is_disabled":false,"rental_uris":{"android":"levelo://app?vid=07373662-8901-48a2-b23c-0454c00fa92c","ios":"levelo://app?vid=07373662-8901-48a2-b23c-0454c00fa92c"},"vehicle_type_id":"4","last_reported":1701310864,"current_range_meters":28800,"station_id":"ce501612rcd8frsf0b60","pricing_plan_id":"free"},{"bike_id":"0048fac2-56d5-4842-9efe-a79340b04119","system_id":"levelo_inurba_marseille","lat":43.299,"lon":5.43676,"is_reserved":false,"is_disabled":false,"rental_uris":{"android":"levelo://app?vid=0048fac2-56d5-4842-9efe-a79340b04119","ios":"levelo://app?vid=0048fac2-56d5-4842-9efe-a79340b04119"},"vehicle_type_id":"4","last_reported":1701310864,"current_range_meters":14000,"station_id":"ce4bhpp2rcd13ifvqhfg","pricing_plan_id":"free"},{"bike_id":"5d6c08b1-f1a5-4de3-874d-829b5159ed1d","system_id":"levelo_inurba_marseille","lat":43.281548,"lon":5.42643,"is_reserved":false,"is_disabled":false,"rental_uris":{"android":"levelo://app?vid=5d6c08b1-f1a5-4de3-874d-829b5159ed1d","ios":"levelo://app?vid=5d6c08b1-f1a5-4de3-874d-829b5159ed1d"},"vehicle_type_id":"4","last_reported":1701310864,"current_range_meters":27600,"station_id":"ce4bhnh2rcd13ifvqgug","pricing_plan_id":"free"},{"bike_id":"6a423f92-9b07-4949-8514-2ee167e03bcf","system_id":"levelo_inurba_marseille","lat":43.28157,"lon":5.42637,"is_reserved":false,"is_disabled":false,"rental_uris":{"android":"levelo://app?vid=6a423f92-9b07-4949-8514-2ee167e03bcf","ios":"levelo://app?vid=6a423f92-9b07-4949-8514-2ee167e03bcf"},"vehicle_type_id":"4","last_reported":1701310864,"current_range_meters":30800,"station_id":"ce4bhnh2rcd13ifvqgug","pricing_plan_id":"free"},{"bike_id":"2cbd4b3c-d8dd-4b95-ac76-1323d53b4182","system_id":"levelo_inurba_marseille","lat":43.2815,"lon":5.42636,"is_reserved":false,"is_disabled":false,"rental_uris":{"android":"levelo://app?vid=2cbd4b3c-d8dd-4b95-ac76-1323d53b4182","ios":"levelo://app?vid=2cbd4b3c-d8dd-4b95-ac76-1323d53b4182"},"vehicle_type_id":"4","last_reported":1701310864,"current_range_meters":31200,"station_id":"ce4bhnh2rcd13ifvqgug","pricing_plan_id":"free"},{"bike_id":"85158950-5b86-488b-bdb1-726b8dfbb936","system_id":"levelo_inurba_marseille","lat":43.281548,"lon":5.42643,"is_reserved":false,"is_disabled":false,"rental_uris":{"android":"levelo://app?vid=85158950-5b86-488b-bdb1-726b8dfbb936","ios":"levelo://app?vid=85158950-5b86-488b-bdb1-726b8dfbb936"},"vehicle_type_id":"4","last_reported":1701310864,"current_range_meters":14800,"station_id":"ce4bhnh2rcd13ifvqgug","pricing_plan_id":"free"},{"bike_id":"bd71c321-451e-4db9-9483-b3fea5f99947","system_id":"levelo_inurba_marseille","lat":43.28155,"lon":5.42644,"is_reserved":false,"is_disabled":false,"rental_uris":{"android":"levelo://app?vid=bd71c321-451e-4db9-9483-b3fea5f99947","ios":"levelo://app?vid=bd71c321-451e-4db9-9483-b3fea5f99947"},"vehicle_type_id":"4","last_reported":1701310864,"current_range_meters":26400,"station_id":"ce4bhnh2rcd13ifvqgug","pricing_plan_id":"free"},{"bike_id":"7dd4c909-c4b2-400f-9b7a-caa808388dc4","system_id":"levelo_inurba_marseille","lat":43.28154,"lon":5.42647,"is_reserved":false,"is_disabled":false,"rental_uris":{"android":"levelo://app?vid=7dd4c909-c4b2-400f-9b7a-caa808388dc4","ios":"levelo://app?vid=7dd4c909-c4b2-400f-9b7a-caa808388dc4"},"vehicle_type_id":"4","last_reported":1701310864,"current_range_meters":10800,"station_id":"ce4bhnh2rcd13ifvqgug","pricing_plan_id":"free"},{"bike_id":"54e7103a-044b-433e-9f97-9f60b9ff0bee","system_id":"levelo_inurba_marseille","lat":43.281548,"lon":5.42643,"is_reserved":false,"is_disabled":false,"rental_uris":{"android":"levelo://app?vid=54e7103a-044b-433e-9f97-9f60b9ff0bee","ios":"levelo://app?vid=54e7103a-044b-433e-9f97-9f60b9ff0bee"},"vehicle_type_id":"4","last_reported":1701310864,"current_range_meters":31600,"station_id":"ce4bhnh2rcd13ifvqgug","pricing_plan_id":"free"},{"bike_id":"00d1bf49-5f2f-40eb-ba1c-6d61ac984990","system_id":"levelo_inurba_marseille","lat":43.281548,"lon":5.42643,"is_reserved":false,"is_disabled":false,"rental_uris":{"android":"levelo://app?vid=00d1bf49-5f2f-40eb-ba1c-6d61ac984990","ios":"levelo://app?vid=00d1bf49-5f2f-40eb-ba1c-6d61ac984990"},"vehicle_type_id":"4","last_reported":1701310864,"current_range_meters":30800,"station_id":"ce4bhnh2rcd13ifvqgug","pricing_plan_id":"free"},{"bike_id":"54fac5fe-0c7e-4943-897d-31a01d6d8c11","system_id":"levelo_inurba_marseille","lat":43.26083,"lon":5.39768,"is_reserved":false,"is_disabled":false,"rental_uris":{"android":"levelo://app?vid=54fac5fe-0c7e-4943-897d-31a01d6d8c11","ios":"levelo://app?vid=54fac5fe-0c7e-4943-897d-31a01d6d8c11"},"vehicle_type_id":"4","last_reported":1701310864,"current_range_meters":0,"station_id":"ce4bhi12rcd13ifvqfq0","pricing_plan_id":"free"},{"bike_id":"39623ebf-a3b7-4fb2-99b1-0c72cfeab56b","system_id":"levelo_inurba_marseille","lat":43.255805,"lon":5.382268,"is_reserved":false,"is_disabled":false,"rental_uris":{"android":"levelo://app?vid=39623ebf-a3b7-4fb2-99b1-0c72cfeab56b","ios":"levelo://app?vid=39623ebf-a3b7-4fb2-99b1-0c72cfeab56b"},"vehicle_type_id":"4","last_reported":1701310864,"current_range_meters":28400,"station_id":"ce4bhih2rcd13ifvqfs0","pricing_plan_id":"free"},{"bike_id":"6ac19fc1-74ea-4d56-9cd5-2a9b2e3f7887","system_id":"levelo_inurba_marseille","lat":43.258224,"lon":5.394369,"is_reserved":false,"is_disabled":false,"rental_uris":{"android":"levelo://app?vid=6ac19fc1-74ea-4d56-9cd5-2a9b2e3f7887","ios":"levelo://app?vid=6ac19fc1-74ea-4d56-9cd5-2a9b2e3f7887"},"vehicle_type_id":"4","last_reported":1701310864,"current_range_meters":18800,"station_id":"ce4bhip2rcd13ifvqft0","pricing_plan_id":"free"},{"bike_id":"0e904d10-9ecb-4f79-883b-a75ae068ad82","system_id":"levelo_inurba_marseille","lat":43.255792,"lon":5.382342,"is_reserved":false,"is_disabled":false,"rental_uris":{"android":"levelo://app?vid=0e904d10-9ecb-4f79-883b-a75ae068ad82","ios":"levelo://app?vid=0e904d10-9ecb-4f79-883b-a75ae068ad82"},"vehicle_type_id":"4","last_reported":1701310864,"current_range_meters":17600,"station_id":"ce4bhih2rcd13ifvqfs0","pricing_plan_id":"free"},{"bike_id":"9adae74f-3e93-483c-863d-d9d8e3d8aa00","system_id":"levelo_inurba_marseille","lat":43.25499,"lon":5.37648,"is_reserved":false,"is_disabled":false,"rental_uris":{"android":"levelo://app?vid=9adae74f-3e93-483c-863d-d9d8e3d8aa00","ios":"levelo://app?vid=9adae74f-3e93-483c-863d-d9d8e3d8aa00"},"vehicle_type_id":"4","last_reported":1701310864,"current_range_meters":28000,"station_id":"ce4bhh12rcd13ifvqff0","pricing_plan_id":"free"},{"bike_id":"30565658-e7be-4be7-92bf-bc263e190872","system_id":"levelo_inurba_marseille","lat":43.254939,"lon":5.376417,"is_reserved":false,"is_disabled":false,"rental_uris":{"android":"levelo://app?vid=30565658-e7be-4be7-92bf-bc263e190872","ios":"levelo://app?vid=30565658-e7be-4be7-92bf-bc263e190872"},"vehicle_type_id":"4","last_reported":1701310864,"current_range_meters":31200,"station_id":"ce4bhh12rcd13ifvqff0","pricing_plan_id":"free"},{"bike_id":"072735fc-7166-45e4-ab1b-a3fa626d7d29","system_id":"levelo_inurba_marseille","lat":43.254947,"lon":5.376454,"is_reserved":false,"is_disabled":false,"rental_uris":{"android":"levelo://app?vid=072735fc-7166-45e4-ab1b-a3fa626d7d29","ios":"levelo://app?vid=072735fc-7166-45e4-ab1b-a3fa626d7d29"},"vehicle_type_id":"4","last_reported":1701310864,"current_range_meters":13200,"station_id":"ce4bhh12rcd13ifvqff0","pricing_plan_id":"free"},{"bike_id":"49607bd9-1fac-45b0-9032-723b68168d90","system_id":"levelo_inurba_marseille","lat":43.254947,"lon":5.376454,"is_reserved":false,"is_disabled":false,"rental_uris":{"android":"levelo://app?vid=49607bd9-1fac-45b0-9032-723b68168d90","ios":"levelo://app?vid=49607bd9-1fac-45b0-9032-723b68168d90"},"vehicle_type_id":"4","last_reported":1701310864,"current_range_meters":20800,"station_id":"ce4bhh12rcd13ifvqff0","pricing_plan_id":"free"},{"bike_id":"4e0bd320-2cd9-4caa-8a11-234b11e8d880","system_id":"levelo_inurba_marseille","lat":43.254947,"lon":5.376454,"is_reserved":false,"is_disabled":false,"rental_uris":{"android":"levelo://app?vid=4e0bd320-2cd9-4caa-8a11-234b11e8d880","ios":"levelo://app?vid=4e0bd320-2cd9-4caa-8a11-234b11e8d880"},"vehicle_type_id":"4","last_reported":1701310864,"current_range_meters":31600,"station_id":"ce4bhh12rcd13ifvqff0","pricing_plan_id":"free"},{"bike_id":"a28fb2aa-8b2b-4471-b447-cc8f247e9718","system_id":"levelo_inurba_marseille","lat":43.270721,"lon":5.422764,"is_reserved":false,"is_disabled":false,"rental_uris":{"android":"levelo://app?vid=a28fb2aa-8b2b-4471-b447-cc8f247e9718","ios":"levelo://app?vid=a28fb2aa-8b2b-4471-b447-cc8f247e9718"},"vehicle_type_id":"4","last_reported":1701310864,"current_range_meters":12800,"station_id":"ce4bhk92rcd13ifvqgb0","pricing_plan_id":"free"},