{"last_updated":1711649368,"ttl":30,"version":"2.2","data":{"bikes":[{"bike_id":"318cd812-f6f6-42b0-b7af-a0e667e728c9","system_id":"levelo_inurba_marseille","lat":43.293259,"lon":5.371586,"is_reserved":false,"is_disabled":false,"rental_uris":{"android":"levelo://app?vid=318cd812-f6f6-42b0-b7af-a0e667e728c9","ios":"levelo://app?vid=318cd812-f6f6-42b0-b7af-a0e667e728c9"},"vehicle_type_id":"4","last_reported":1711649368,"current_range_meters":11200,"station_id":"ce4bgh92rcd13ifvqb40","pricing_plan_id":"cebpf4jnsgd1na2vs0mg"},{"bike_id":"dc644691-f312-445e-a1ec-61f575e6918d","system_id":"levelo_inurba_marseille","lat":43.309182,"lon":5.368564,"is_reserved":false,"is_disabled":false,"rental_uris":{"android":"levelo://app?vid=dc644691-f312-445e-a1ec-61f575e6918d","ios":"levelo://app?vid=dc644691-f312-445e-a1ec-61f575e6918d"},"vehicle_type_id":"4","last_reported":1711649368,"current_range_meters":0,"station_id":"ce4bgn92rcd13ifvqbvg","pricing_plan_id":"cebpf4jnsgd1na2vs0mg"},{"bike_id":"259c081b-1fe4-4fcf-9e04-1188005974ee","system_id":"levelo_inurba_marseille","lat":43.314811,"lon":5.373103,"is_reserved":false,"is_disabled":false,"rental_uris":{"android":"levelo://app?vid=259c081b-1fe4-4fcf-9e04-1188005974ee","ios":"levelo://app?vid=259c081b-1fe4-4fcf-9e04-1188005974ee"},"vehicle_type_id":"4","last_reported":1711649368,"current_range_meters":2000,"station_id":"ce4bgt12rcd13ifvqcd0","pricing_plan_id":"cebpf4jnsgd1na2vs0mg"},{"bike_id":"cc397b1f-865e-46c0-8b4b-028cb78e8c42","system_id":"levelo_inurba_marseille","lat":43.314811,"lon":5.373103,"is_reserved":false,"is_disabled":false,"rental_uris":{"android":"levelo://app?vid=cc397b1f-865e-46c0-8b4b-028cb78e8c42","ios":"levelo://app?vid=cc397b1f-865e-46c0-8b4b-028cb78e8c42"},"vehicle_type_id":"4","last_reported":1711649368,"current_range_meters":0,"station_id":"ce4bgt12rcd13ifvqcd0","pricing_plan_id":"cebpf4jnsgd1na2vs0mg"},{"bike_id":"5d8166b7-84fe-449a-a4ce-c64c5013d25c","system_id":"levelo_inurba_marseille","lat":43.314811,"lon":5.373103,"is_reserved":false,"is_disabled":false,"rental_uris":{"android":"levelo://app?vid=5d8166b7-84fe-449a-a4ce-c64c5013d25c","ios":"levelo://app?vid=5d8166b7-84fe-449a-a4ce-c64c5013d25c"},"vehicle_type_id":"4","last_reported":1711649368,"current_range_meters":16400,"station_id":"ce4bgt12rcd13ifvqcd0","pricing_plan_id":"cebpf4jnsgd1na2vs0mg"},{"bike_id":"1f402ea2-1735-4c7b-a5a5-13eb352915de","system_id":"levelo_inurba_marseille","lat":43.31487,"lon":5.37303,"is_reserved":false,"is_disabled":false,"rental_uris":{"android":"levelo://app?vid=1f402ea2-1735-4c7b-a5a5-13eb352915de","ios":"levelo://app?vid=1f402ea2-1735-4c7b-a5a5-13eb352915de"},"vehicle_type_id":"4","last_reported":1711649368,"current_range_meters":2400,"station_id":"ce4bgt12rcd13ifvqcd0","pricing_plan_id":"cebpf4jnsgd1na2vs0mg"},{"bike_id":"da659122-8556-4864-818a-927bc946980a","system_id":"levelo_inurba_marseille","lat":43.314811,"lon":5.373103,"is_reserved":false,"is_disabled":false,"rental_uris":{"android":"levelo://app?vid=da659122-8556-4864-818a-927bc946980a","ios":"levelo://app?vid=da659122-8556-4864-818a-927bc946980a"},"vehicle_type_id":"4","last_reported":1711649368,"current_range_meters":3200,"station_id":"ce4bgt12rcd13ifvqcd0","pricing_plan_id":"cebpf4jnsgd1na2vs0mg"},{"bike_id":"d71926af-d7e2-47bc-985e-5f821e6683d4","system_id":"levelo_inurba_marseille","lat":43.314811,"lon":5.373103,"is_reserved":false,"is_disabled":false,"rental_uris":{"android":"levelo://app?vid=d71926af-d7e2-47bc-985e-5f821e6683d4","ios":"levelo://app?vid=d71926af-d7e2-47bc-985e-5f821e6683d4"},"vehicle_type_id":"4","last_reported":1711649368,"current_range_meters":21600,"station_id":"ce4bgt12rcd13ifvqcd0","pricing_plan_id":"cebpf4jnsgd1na2vs0mg"},{"bike_id":"6d16cd8b-bc61-442d-9911-2a1cfbae64fb","system_id":"levelo_inurba_marseille","lat":43.314811,"lon":5.373104,"is_reserved":false,"is_disabled":false,"rental_uris":{"android":"levelo://app?vid=6d16cd8b-bc61-442d-9911-2a1cfbae64fb","ios":"levelo://app?vid=6d16cd8b-bc61-442d-9911-2a1cfbae64fb"},"vehicle_type_id":"4","last_reported":1711649368,"current_range_meters":31600,"station_id":"ce4bgt12rcd13ifvqcd0","pricing_plan_id":"cebpf4jnsgd1na2vs0mg"},{"bike_id":"487f9b2a-8e22-4a5d-bb84-5d2c3cd6c73a","system_id":"levelo_inurba_marseille","lat":43.314811,"lon":5.373103,"is_reserved":false,"is_disabled":false,"rental_uris":{"android":"levelo://app?vid=487f9b2a-8e22-4a5d-bb84-5d2c3cd6c73a","ios":"levelo://app?vid=487f9b2a-8e22-4a5d-bb84-5d2c3cd6c73a"},"vehicle_type_id":"4","last_reported":1711649368,"current_range_meters":0,"station_id":"ce4bgt12rcd13ifvqcd0","pricing_plan_id":"cebpf4jnsgd1na2vs0mg"},{"bike_id":"cf5315a6-b6a3-4b06-ad4d-c702f6ebee29","system_id":"levelo_inurba_marseille","lat":43.314811,"lon":5.373103,"is_reserved":false,"is_disabled":false,"rental_uris":{"android":"levelo://app?vid=cf5315a6-b6a3-4b06-ad4d-c702f6ebee29","ios":"levelo://app?vid=cf5315a6-b6a3-4b06-ad4d-c702f6ebee29"},"vehicle_type_id":"4","last_reported":1711649368,"current_range_meters":31200,"station_id":"ce4bgt12rcd13ifvqcd0","pricing_plan_id":"cebpf4jnsgd1na2vs0mg"},{"bike_id":"c42384a7-ae8b-4d66-a9ee-d4b51160db28","system_id":"levelo_inurba_marseille","lat":43.314811,"lon":5.373103,"is_reserved":false,"is_disabled":false,"rental_uris":{"android":"levelo://app?vid=c42384a7-ae8b-4d66-a9ee-d4b51160db28","ios":"levelo://app?vid=c42384a7-ae8b-4d66-a9ee-d4b51160db28"},"vehicle_type_id":"4","last_reported":1711649368,"current_range_meters":8400,"station_id":"ce4bgt12rcd13ifvqcd0","pricing_plan_id":"cebpf4jnsgd1na2vs0mg"},{"bike_id":"3a3c5801-38ea-4675-b53f-97bedb17ff0a","system_id":"levelo_inurba_marseille","lat":43.314811,"lon":5.373103,"is_reserved":false,"is_disabled":false,"rental_uris":{"android":"levelo://app?vid=3a3c5801-38ea-4675-b53f-97bedb17ff0a","ios":"levelo://app?vid=3a3c5801-38ea-4675-b53f-97bedb17ff0a"},"vehicle_type_id":"4","last_reported":1711649368,"current_range_meters":19600,"station_id":"ce4bgt12rcd13ifvqcd0","pricing_plan_id":"cebpf4jnsgd1na2vs0mg"},{"bike_id":"6dcd76ec-7f8c-45f4-8e4f-da00f74c6195","system_id":"levelo_inurba_marseille","lat":43.314811,"lon":5.373103,"is_reserved":false,"is_disabled":false,"rental_uris":{"android":"levelo://app?vid=6dcd76ec-7f8c-45f4-8e4f-da00f74c6195","ios":"levelo://app?vid=6dcd76ec-7f8c-45f4-8e4f-da00f74c6195"},"vehicle_type_id":"4","last_reported":1711649368,"current_range_meters":18800,"station_id":"ce4bgt12rcd13ifvqcd0","pricing_plan_id":"cebpf4jnsgd1na2vs0mg"},{"bike_id":"f3da0304-6d14-4d86-aa59-21a9c391de06","system_id":"levelo_inurba_marseille","lat":43.314811,"lon":5.373104,"is_reserved":false,"is_disabled":false,"rental_uris":{"android":"levelo://app?vid=f3da0304-6d14-4d86-aa59-21a9c391de06","ios":"levelo://app?vid=f3da0304-6d14-4d86-aa59-21a9c391de06"},"vehicle_type_id":"4","last_reported":1711649368,"current_range_meters":31600,"station_id":"ce4bgt12rcd13ifvqcd0","pricing_plan_id":"cebpf4jnsgd1na2vs0mg"},{"bike_id":"5e1e7046-4d0c-4c27-998b-7d9083d2ebcc","system_id":"levelo_inurba_marseille","lat":43.314811,"lon":5.373104,"is_reserved":false,"is_disabled":false,"rental_uris":{"android":"levelo://app?vid=5e1e7046-4d0c-4c27-998b-7d9083d2ebcc","ios":"levelo://app?vid=5e1e7046-4d0c-4c27-998b-7d9083d2ebcc"},"vehicle_type_id":"4","last_reported":1711649368,"current_range_meters":16800,"station_id":"ce4bgt12rcd13ifvqcd0","pricing_plan_id":"cebpf4jnsgd1na2vs0mg"},{"bike_id":"f45ca928-8919-4287-b7b7-5d15bf1d66b1","system_id":"levelo_inurba_marseille","lat":43.314811,"lon":5.373104,"is_reserved":false,"is_disabled":false,"rental_uris":{"android":"levelo://app?vid=f45ca928-8919-4287-b7b7-5d15bf1d66b1","ios":"levelo://app?vid=f45ca928-8919-4287-b7b7-5d15bf1d66b1"},"vehicle_type_id":"4","last_reported":1711649368,"current_range_meters":31600,"station_id":"ce4bgt12rcd13ifvqcd0","pricing_plan_id":"cebpf4jnsgd1na2vs0mg"},{"bike_id":"c2df91e7-1599-43a8-81b4-9a73b36bdc59","system_id":"levelo_inurba_marseille","lat":43.314811,"lon":5.373104,"is_reserved":false,"is_disabled":false,"rental_uris":{"android":"levelo://app?vid=c2df91e7-1599-43a8-81b4-9a73b36bdc59","ios":"levelo://app?vid=c2df91e7-1599-43a8-81b4-9a73b36bdc59"},"vehicle_type_id":"4","last_reported":1711649368,"current_range_meters":0,"station_id":"ce4bgt12rcd13ifvqcd0","pricing_plan_id":"cebpf4jnsgd1na2vs0mg"},{"bike_id":"8dd5d927-39ff-4422-9448-b8ab2cbc1f8c","system_id":"levelo_inurba_marseille","lat":43.319935,"lon":5.381699,"is_reserved":false,"is_disabled":false,"rental_uris":{"android":"levelo://app?vid=8dd5d927-39ff-4422-9448-b8ab2cbc1f8c","ios":"levelo://app?vid=8dd5d927-39ff-4422-9448-b8ab2cbc1f8c"},"vehicle_type_id":"4","last_reported":1711649368,"current_range_meters":6800,"station_id":"ce4bhr12rcd13ifvqhpg","pricing_plan_id":"cebpf4jnsgd1na2vs0mg"},{"bike_id":"a85998bb-f37b-4d1e-877e-ef8d5bcfdb70","system_id":"levelo_inurba_marseille","lat":43.305989,"lon":5.37225,"is_reserved":false,"is_disabled":false,"rental_uris":{"android":"levelo://app?vid=a85998bb-f37b-4d1e-877e-ef8d5bcfdb70","ios":"levelo://app?vid=a85998bb-f37b-4d1e-877e-ef8d5bcfdb70"},"vehicle_type_id":"4","last_reported":1711649368,"current_range_meters":800,"station_id":"ce4bgqh2rcd13ifvqc4g","pricing_plan_id":"cebpf4jnsgd1na2vs0mg"},{"bike_id":"3836c203-817e-4bba-8980-3dd9e861b671","system_id":"levelo_inurba_marseille","lat":43.308995,"lon":5.371927,"is_reserved":false,"is_disabled":false,"rental_uris":{"android":"levelo://app?vid=3836c203-817e-4bba-8980-3dd9e861b671","ios":"levelo://app?vid=3836c203-817e-4bba-8980-3dd9e861b671"},"vehicle_type_id":"4","last_reported":1711649368,"current_range_meters":6800,"station_id":"ce4bh2h2rcd13ifvqdh0","pricing_plan_id":"cebpf4jnsgd1na2vs0mg"},{"bike_id":"56ca4f5a-54b3-401d-9d0e-edd65e194b16","system_id":"levelo_inurba_marseille","lat":43.298037,"lon":5.381066,"is_reserved":false,"is_disabled":false,"rental_uris":{"android":"levelo://app?vid=56ca4f5a-54b3-401d-9d0e-edd65e194b16","ios":"levelo://app?vid=56ca4f5a-54b3-401d-9d0e-edd65e194b16"},"vehicle_type_id":"4","last_reported":1711649368,"current_range_meters":400,"station_id":"ce4bgip2rcd13ifvqbb0","pricing_plan_id":"cebpf4jnsgd1na2vs0mg"},{"bike_id":"9d47983c-55a5-497f-a18c-198562b98921","system_id":"levelo_inurba_marseille","lat":43.308825,"lon":5.371845,"is_reserved":false,"is_disabled":false,"rental_uris":{"android":"levelo://app?vid=9d47983c-55a5-497f-a18c-198562b98921","ios":"levelo://app?vid=9d47983c-55a5-497f-a18c-198562b98921"},"vehicle_type_id":"4","last_reported":1711649368,"current_range_meters":19600,"station_id":"ce4bguh2rcd13ifvqckg","pricing_plan_id":"cebpf4jnsgd1na2vs0mg"},{"bike_id":"f9c7365b-d56a-417e-9470-d6b93b2c360f","system_id":"levelo_inurba_marseille","lat":43.306516,"lon":5.373168,"is_reserved":false,"is_disabled":false,"rental_uris":{"android":"levelo://app?vid=f9c7365b-d56a-417e-9470-d6b93b2c360f","ios":"levelo://app?vid=f9c7365b-d56a-417e-9470-d6b93b2c360f"},"vehicle_type_id":"4","last_reported":1711649368,"current_range_meters":0,"station_id":"","pricing_plan_id":"cebpf4jnsgd1na2vs0mg"},{"bike_id":"3e599b6c-0319-4bb2-a71d-dc2e1fb8698d","system_id":"levelo_inurba_marseille","lat":43.305989,"lon":5.37225,"is_reserved":false,"is_disabled":false,"rental_uris":{"android":"levelo://app?vid=3e599b6c-0319-4bb2-a71d-dc2e1fb8698d","ios":"levelo://app?vid=3e599b6c-0319-4bb2-a71d-dc2e1fb8698d"},"vehicle_type_id":"4","last_reported":1711649368,"current_range_meters":18000,"station_id":"ce4bgqh2rcd13ifvqc4g","pricing_plan_id":"cebpf4jnsgd1na2vs0mg"},{"bike_id":"ea581a77-e58b-4328-8163-9214d2d3fbb2","system_id":"levelo_inurba_marseille","lat":43.305989,"lon":5.37225,"is_reserved":false,"is_disabled":false,"rental_uris":{"android":"levelo://app?vid=ea581a77-e58b-4328-8163-9214d2d3fbb2","ios":"levelo://app?vid=ea581a77-e58b-4328-8163-9214d2d3fbb2"},"vehicle_type_id":"4","last_reported":1711649368,"current_range_meters":2800,"station_id":"ce4bgqh2rcd13ifvqc4g","pricing_plan_id":"cebpf4jnsgd1na2vs0mg"},{"bike_id":"a6849f47-8f9b-478d-b7b1-414aaba28be6","system_id":"levelo_inurba_marseille","lat":43.311125,"lon":5.377624,"is_reserved":false,"is_disabled":false,"rental_uris":{"android":"levelo://app?vid=a6849f47-8f9b-478d-b7b1-414aaba28be6","ios":"levelo://app?vid=a6849f47-8f9b-478d-b7b1-414aaba28be6"},"vehicle_type_id":"4","last_reported":1711649368,"current_range_meters":2000,"station_id":"ce4bgt92rcd13ifvqcg0","pricing_plan_id":"cebpf4jnsgd1na2vs0mg"},{"bike_id":"e7a989cc-11f4-451b-bd9d-df3e6db282db","system_id":"levelo_inurba_marseille","lat":43.311125,"lon":5.377624,"is_reserved":false,"is_disabled":false,"rental_uris":{"android":"levelo://app?vid=e7a989cc-11f4-451b-bd9d-df3e6db282db","ios":"levelo://app?vid=e7a989cc-11f4-451b-bd9d-df3e6db282db"},"vehicle_type_id":"4","last_reported":1711649368,"current_range_meters":31600,"station_id":"ce4bgt92rcd13ifvqcg0","pricing_plan_id":"cebpf4jnsgd1na2vs0mg"},{"bike_id":"c2161c94-e0b2-4121-a717-126b42e0098f","system_id":"levelo_inurba_marseille","lat":43.311131,"lon":5.377651,"is_reserved":false,"is_disabled":false,"rental_uris":{"android":"levelo://app?vid=c2161c94-e0b2-4121-a717-126b42e0098f","ios":"levelo://app?vid=c2161c94-e0b2-4121-a717-126b42e0098f"},"vehicle_type_id":"4","last_reported":1711649368,"current_range_meters":0,"station_id":"ce4bgt92rcd13ifvqcg0","pricing_plan_id":"cebpf4jnsgd1na2vs0mg"},{"bike_id":"b74f5ad2-5116-4c01-ada8-7318046d020b","system_id":"levelo_inurba_marseille","lat":43.311125,"lon":5.377624,"is_reserved":false,"is_disabled":false,"rental_uris":{"android":"levelo://app?vid=b74f5ad2-5116-4c01-ada8-7318046d020b","ios":"levelo://app?vid=b74f5ad2-5116-4c01-ada8-7318046d020b"},"vehicle_type_id":"4","last_reported":1711649368,"current_range_meters":3200,"station_id":"ce4bgt92rcd13ifvqcg0","pricing_plan_id":"cebpf4jnsgd1na2vs0mg"},{"bike_id":"d1f07d78-d115-4105-a937-36aa2f051b91","system_id":"levelo_inurba_marseille","lat":43.311131,"lon":5.377651,"is_reserved":false,"is_disabled":false,"rental_uris":{"android":"levelo://app?vid=d1f07d78-d115-4105-a937-36aa2f051b91","ios":"levelo://app?vid=d1f07d78-d115-4105-a937-36aa2f051b91"},"vehicle_type_id":"4","last_reported":1711649368,"current_range_meters":20000,"station_id":"ce4bgt92rcd13ifvqcg0","pricing_plan_id":"cebpf4jnsgd1na2vs0mg"},{"bike_id":"d2b795a1-2a49-4d4b-bcbd-0404c6110624","system_id":"levelo_inurba_marseille","lat":43.307945,"lon":5.376487,"is_reserved":false,"is_disabled":false,"rental_uris":{"android":"levelo://app?vid=d2b795a1-2a49-4d4b-bcbd-0404c6110624","ios":"levelo://app?vid=d2b795a1-2a49-4d4b-bcbd-0404c6110624"},"vehicle_type_id":"4","last_reported":1711649368,"current_range_meters":21600,"station_id":"ce4bgv92rcd13ifvqcq0","pricing_plan_id":"cebpf4jnsgd1na2vs0mg"},{"bike_id":"e8b802ff-5438-4f80-bd72-b9eb22bfd508","system_id":"levelo_inurba_marseille","lat":43.307945,"lon":5.376487,"is_reserved":false,"is_disabled":false,"rental_uris":{"android":"levelo://app?vid=e8b802ff-5438-4f80-bd72-b9eb22bfd508","ios":"levelo://app?vid=e8b802ff-5438-4f80-bd72-b9eb22bfd508"},"vehicle_type_id":"4","last_reported":1711649368,"current_range_meters":4000,"station_id":"ce4bgv92rcd13ifvqcq0","pricing_plan_id":"cebpf4jnsgd1na2vs0mg"},{"bike_id":"bbfed310-f5ca-41c8-bf3a-f83cd6959697","system_id":"levelo_inurba_marseille","lat":43.313368,"lon":5.378734,"is_reserved":false,"is_disabled":false,"rental_uris":{"android":"levelo://app?vid=bbfed310-f5ca-41c8-bf3a-f83cd6959697","ios":"levelo://app?vid=bbfed310-f5ca-41c8-bf3a-f83cd6959697"},"vehicle_type_id":"4","last_reported":1711649368,"current_range_meters":27600,"station_id":"","pricing_plan_id":"cebpf4jnsgd1na2vs0mg"},{"bike_id":"4bd62990-a8da-43b5-bf62-d22e95252fe4","system_id":"levelo_inurba_marseille","lat":43.317075,"lon":5.377367,"is_reserved":false,"is_disabled":false,"rental_uris":{"android":"levelo://app?vid=4bd62990-a8da-43b5-bf62-d22e95252fe4","ios":"levelo://app?vid=4bd62990-a8da-43b5-bf62-d22e95252fe4"},"vehicle_type_id":"4","last_reported":1711649368,"current_range_meters":19200,"station_id":"ce4bgth2rcd13ifvqch0","pricing_plan_id":"cebpf4jnsgd1na2vs0mg"},{"bike_id":"3d6012f7-a6b0-4e2c-8795-b4f88d6eeff3","system_id":"levelo_inurba_marseille","lat":43.317075,"lon":5.377367,"is_reserved":false,"is_disabled":false,"rental_uris":{"android":"levelo://app?vid=3d6012f7-a6b0-4e2c-8795-b4f88d6eeff3","ios":"levelo://app?vid=3d6012f7-a6b0-4e2c-8795-b4f88d6eeff3"},"vehicle_type_id":"4","last_reported":1711649368,"current_range_meters":21200,"station_id":"ce4bgth2rcd13ifvqch0","pricing_plan_id":"cebpf4jnsgd1na2vs0mg"},{"bike_id":"5cbfd4c0-f04e-46a5-8a34-49703ffe229d","system_id":"levelo_inurba_marseille","lat":43.317075,"lon":5.377367,"is_reserved":false,"is_disabled":false,"rental_uris":{"android":"levelo://app?vid=5cbfd4c0-f04e-46a5-8a34-49703ffe229d","ios":"levelo://app?vid=5cbfd4c0-f04e-46a5-8a34-49703ffe229d"},"vehicle_type_id":"4","last_reported":1711649368,"current_range_meters":28800,"station_id":"ce4bgth2rcd13ifvqch0","pricing_plan_id":"cebpf4jnsgd1na2vs0mg"},{"bike_id":"3ed2df49-b2a5-4776-92e1-a1aa558dfb80","system_id":"levelo_inurba_marseille","lat":43.311697,"lon":5.379863,"is_reserved":false,"is_disabled":false,"rental_uris":{"android":"levelo://app?vid=3ed2df49-b2a5-4776-92e1-a1aa558dfb80","ios":"levelo://app?vid=3ed2df49-b2a5-4776-92e1-a1aa558dfb80"},"vehicle_type_id":"4","last_reported":1711649368,"current_range_meters":0,"station_id":"","pricing_plan_id":"cebpf4jnsgd1na2vs0mg"},{"bike_id":"b9ac48fe-8e12-41ed-ac13-f3b42761b728","system_id":"levelo_inurba_marseille","lat":43.303046,"lon":5.368981,"is_reserved":false,"is_disabled":false,"rental_uris":{"android":"levelo://app?vid=b9ac48fe-8e12-41ed-ac13-f3b42761b728","ios":"levelo://app?vid=b9ac48fe-8e12-41ed-ac13-f3b42761b728"},"vehicle_type_id":"4","last_reported":1711649368,"current_range_meters":0,"station_id":"ce4bgqh2rcd13ifvqc5g","pricing_plan_id":"cebpf4jnsgd1na2vs0mg"},{"bike_id":"075e1dae-ac69-4591-b472-d9e233ee2be0","system_id":"levelo_inurba_marseille","lat":43.303046,"lon":5.368981,"is_reserved":false,"is_disabled":false,"rental_uris":{"android":"levelo://app?vid=075e1dae-ac69-4591-b472-d9e233ee2be0","ios":"levelo://app?vid=075e1dae-ac69-4591-b472-d9e233ee2be0"},"vehicle_type_id":"4","last_reported":1711649368,"current_range_meters":400,"station_id":"ce4bgqh2rcd13ifvqc5g","pricing_plan_id":"cebpf4jnsgd1na2vs0mg"},{"bike_id":"a15b1758-03f4-4ec6-b673-eb8f7fdaa625","system_id":"levelo_inurba_marseille","lat":43.293009,"lon":5.374584,"is_reserved":false,"is_disabled":false,"rental_uris":{"android":"levelo://app?vid=a15b1758-03f4-4ec6-b673-eb8f7fdaa625","ios":"levelo://app?vid=a15b1758-03f4-4ec6-b673-eb8f7fdaa625"},"vehicle_type_id":"4","last_reported":1711649368,"current_range_meters":5200,"station_id":"ce4bgi12rcd13ifvqb70","pricing_plan_id":"cebpf4jnsgd1na2vs0mg"},{"bike_id":"025d23b1-87d1-4525-90ad-12caa2232c62","system_id":"levelo_inurba_marseille","lat":43.319935,"lon":5.381699,"is_reserved":false,"is_disabled":false,"rental_uris":{"android":"levelo://app?vid=025d23b1-87d1-4525-90ad-12caa2232c62","ios":"levelo://app?vid=025d23b1-87d1-4525-90ad-12caa2232c62"},"vehicle_type_id":"4","last_reported":1711649368,"current_range_meters":12800,"station_id":"ce4bhr12rcd13ifvqhpg","pricing_plan_id":"cebpf4jnsgd1na2vs0mg"},{"bike_id":"c5e699e6-eebf-4d26-8034-84a00ccb6f45","system_id":"levelo_inurba_marseille","lat":43.30196,"lon":5.366254,"is_reserved":false,"is_disabled":false,"rental_uris":{"android":"levelo://app?vid=c5e699e6-eebf-4d26-8034-84a00ccb6f45","ios":"levelo://app?vid=c5e699e6-eebf-4d26-8034-84a00ccb6f45"},"vehicle_type_id":"4","last_reported":1711649368,"current_range_meters":0,"station_id":"ce4bgrh2rcd13ifvqc8g","pricing_plan_id":"cebpf4jnsgd1na2vs0mg"},{"bike_id":"dc6133dd-4d3f-4543-9ce3-39b0644dd028","system_id":"levelo_inurba_marseille","lat":43.308313,"lon":5.380548,"is_reserved":false,"is_disabled":false,"rental_uris":{"android":"levelo://app?vid=dc6133dd-4d3f-4543-9ce3-39b0644dd028","ios":"levelo://app?vid=dc6133dd-4d3f-4543-9ce3-39b0644dd028"},"vehicle_type_id":"4","last_reported":1711649368,"current_range_meters":11600,"station_id":"","pricing_plan_id":"cebpf4jnsgd1na2vs0mg"},{"bike_id":"59660140-fe4c-4d09-b0b0-58cf470e7ebd","system_id":"levelo_inurba_marseille","lat":43.308012,"lon":5.381511,"is_reserved":false,"is_disabled":false,"rental_uris":{"android":"levelo://app?vid=59660140-fe4c-4d09-b0b0-58cf470e7ebd","ios":"levelo://app?vid=59660140-fe4c-4d09-b0b0-58cf470e7ebd"},"vehicle_type_id":"4","last_reported":1711649368,"current_range_meters":28400,"station_id":"ce4bgt12rcd13ifvqce0","pricing_plan_id":"cebpf4jnsgd1na2vs0mg"},{"bike_id":"b93ee3e0-fc04-4dc7-be6f-a86bf271df53","system_id":"levelo_inurba_marseille","lat":43.308012,"lon":5.381511,"is_reserved":false,"is_disabled":false,"rental_uris":{"android":"levelo://app?vid=b93ee3e0-fc04-4dc7-be6f-a86bf271df53","ios":"levelo://app?vid=b93ee3e0-fc04-4dc7-be6f-a86bf271df53"},"vehicle_type_id":"4","last_reported":1711649368,"current_range_meters":16400,"station_id":"ce4bgt12rcd13ifvqce0","pricing_plan_id":"cebpf4jnsgd1na2vs0mg"},{"bike_id":"050bb8b9-7490-4c5c-851d-23e9f06363ce","system_id":"levelo_inurba_marseille","lat":43.308109,"lon":5.381498,"is_reserved":false,"is_disabled":false,"rental_uris":{"android":"levelo://app?vid=050bb8b9-7490-4c5c-851d-23e9f06363ce","ios":"levelo://app?vid=050bb8b9-7490-4c5c-851d-23e9f06363ce"},"vehicle_type_id":"4","last_reported":1711649368,"current_range_meters":23600,"station_id":"ce4bgt12rcd13ifvqce0","pricing_plan_id":"cebpf4jnsgd1na2vs0mg"},{"bike_id":"21ee70b4-bb3b-4992-b9b5-ef103e0734ec","system_id":"levelo_inurba_marseille","lat":43.308012,"lon":5.381511,"is_reserved":false,"is_disabled":false,"rental_uris":{"android":"levelo://app?vid=21ee70b4-bb3b-4992-b9b5-ef103e0734ec","ios":"levelo://app?vid=21ee70b4-bb3b-4992-b9b5-ef103e0734ec"},"vehicle_type_id":"4","last_reported":1711649368,"current_range_meters":20800,"station_id":"ce4bgt12rcd13ifvqce0","pricing_plan_id":"cebpf4jnsgd1na2vs0mg"},{"bike_id":"e1a823ad-acfb-4d0b-9161-b9c04321ad58","system_id":"levelo_inurba_marseille","lat":43.301429,"lon":5.37413,"is_reserved":false,"is_disabled":false,"rental_uris":{"android":"levelo://app?vid=e1a823ad-acfb-4d0b-9161-b9c04321ad58","ios":"levelo://app?vid=e1a823ad-acfb-4d0b-9161-b9c04321ad58"},"vehicle_type_id":"4","last_reported":1711649368,"current_range_meters":6400,"station_id":"ce4bgs92rcd13ifvqcc0","pricing_plan_id":"cebpf4jnsgd1na2vs0mg"},{"bike_id":"eee3c640-7244-4284-a46c-7cc4a7048639","system_id":"levelo_inurba_marseille","lat":43.30462,"lon":5.37898,"is_reserved":false,"is_disabled":false,"rental_uris":{"android":"levelo://app?vid=eee3c640-7244-4284-a46c-7cc4a7048639","ios":"levelo://app?vid=eee3c640-7244-4284-a46c-7cc4a7048639"},"vehicle_type_id":"4","last_reported":1711649368,"current_range_meters":0,"station_id":"ce4bgup2rcd13ifvqcn0","pricing_plan_id":"cebpf4jnsgd1na2vs0mg"},{"bike_id":"61686b39-1299-45fa-b234-8e735adbd23a","system_id":"levelo_inurba_marseille","lat":43.304478,"lon":5.378804,"is_reserved":false,"is_disabled":false,"rental_uris":{"android":"levelo://app?vid=61686b39-1299-45fa-b234-8e735adbd23a","ios":"levelo://app?vid=61686b39-1299-45fa-b234-8e735adbd23a"},"vehicle_type_id":"4","last_reported":1711649368,"current_range_meters":0,"station_id":"ce4bgup2rcd13ifvqcn0","pricing_plan_id":"cebpf4jnsgd1na2vs0mg"},{"bike_id":"52ea4928-9ccf-4dca-a71d-4055071fe64a","system_id":"levelo_inurba_marseille","lat":43.30462,"lon":5.37901,"is_reserved":false,"is_disabled":false,"rental_uris":{"android":"levelo://app?vid=52ea4928-9ccf-4dca-a71d-4055071fe64a","ios":"levelo://app?vid=52ea4928-9ccf-4dca-a71d-4055071fe64a"},"vehicle_type_id":"4","last_reported":1711649368,"current_range_meters":10800,"station_id":"ce4bgup2rcd13ifvqcn0","pricing_plan_id":"cebpf4jnsgd1na2vs0mg"},{"bike_id":"c75669a2-3013-4e8d-9e87-dbbdd84ff170","system_id":"levelo_inurba_marseille","lat":43.30457,"lon":5.378993,"is_reserved":false,"is_disabled":false,"rental_uris":{"android":"levelo://app?vid=c75669a2-3013-4e8d-9e87-dbbdd84ff170","ios":"levelo://app?vid=c75669a2-3013-4e8d-9e87-dbbdd84ff170"},"vehicle_type_id":"4","last_reported":1711649368,"current_range_meters":0,"station_id":"ce4bgup2rcd13ifvqcn0","pricing_plan_id":"cebpf4jnsgd1na2vs0mg"},{"bike_id":"da06b0ac-af29-464c-86f5-ee6572de8847","system_id":"levelo_inurba_marseille","lat":43.304606,"lon":5.379026,"is_reserved":false,"is_disabled":false,"rental_uris":{"android":"levelo://app?vid=da06b0ac-af29-464c-86f5-ee6572de8847","ios":"levelo://app?vid=da06b0ac-af29-464c-86f5-ee6572de8847"},"vehicle_type_id":"4","last_reported":1711649368,"current_range_meters":25600,"station_id":"ce4bgup2rcd13ifvqcn0","pricing_plan_id":"cebpf4jnsgd1na2vs0mg"},{"bike_id":"a21c0ed7-d2d4-4964-bafc-d0d6bc411a64","system_id":"levelo_inurba_marseille","lat":43.304606,"lon":5.379026,"is_reserved":false,"is_disabled":false,"rental_uris":{"android":"levelo://app?vid=a21c0ed7-d2d4-4964-bafc-d0d6bc411a64","ios":"levelo://app?vid=a21c0ed7-d2d4-4964-bafc-d0d6bc411a64"},"vehicle_type_id":"4","last_reported":1711649368,"current_range_meters":8400,"station_id":"ce4bgup2rcd13ifvqcn0","pricing_plan_id":"cebpf4jnsgd1na2vs0mg"},{"bike_id":"f6f72ee2-3f0f-4fe4-910a-0ab1c3a2398f","system_id":"levelo_inurba_marseille","lat":43.324771,"lon":5.36557,"is_reserved":false,"is_disabled":false,"rental_uris":{"android":"levelo://app?vid=f6f72ee2-3f0f-4fe4-910a-0ab1c3a2398f","ios":"levelo://app?vid=f6f72ee2-3f0f-4fe4-910a-0ab1c3a2398f"},"vehicle_type_id":"4","last_reported":1711649368,"current_range_meters":10400,"station_id":"ce4bhs12rcd13ifvqhvg","pricing_plan_id":"cebpf4jnsgd1na2vs0mg"},{"bike_id":"df1abeda-a3c0-4b6c-a55d-7726b899ac52","system_id":"levelo_inurba_marseille","lat":43.324797,"lon":5.36582,"is_reserved":false,"is_disabled":false,"rental_uris":{"android":"levelo://app?vid=df1abeda-a3c0-4b6c-a55d-7726b899ac52","ios":"levelo://app?vid=df1abeda-a3c0-4b6c-a55d-7726b899ac52"},"vehicle_type_id":"4","last_reported":1711649368,"current_range_meters":2000,"station_id":"ce4bhs12rcd13ifvqhvg","pricing_plan_id":"cebpf4jnsgd1na2vs0mg"},{"bike_id":"130e069b-8fc6-4ee8-97cd-0c4f45529b1e","system_id":"levelo_inurba_marseille","lat":43.324771,"lon":5.36557,"is_reserved":false,"is_disabled":false,"rental_uris":{"android":"levelo://app?vid=130e069b-8fc6-4ee8-97cd-0c4f45529b1e","ios":"levelo://app?vid=130e069b-8fc6-4ee8-97cd-0c4f45529b1e"},"vehicle_type_id":"4","last_reported":1711649368,"current_range_meters":8800,"station_id":"ce4bhs12rcd13ifvqhvg","pricing_plan_id":"cebpf4jnsgd1na2vs0mg"},{"bike_id":"911b6731-41e1-4ea6-9710-d2db4ba0b588","system_id":"levelo_inurba_marseille","lat":43.304606,"lon":5.379026,"is_reserved":false,"is_disabled":false,"rental_uris":{"android":"levelo://app?vid=911b6731-41e1-4ea6-9710-d2db4ba0b588","ios":"levelo://app?vid=911b6731-41e1-4ea6-9710-d2db4ba0b588"},"vehicle_type_id":"4","last_reported":1711649368,"current_range_meters":16800,"station_id":"ce4bgup2rcd13ifvqcn0","pricing_plan_id":"cebpf4jnsgd1na2vs0mg"},{"bike_id":"d7e593ae-0e04-4801-88d6-585d610f28a0","system_id":"levelo_inurba_marseille","lat":43.324771,"lon":5.36557,"is_reserved":false,"is_disabled":false,"rental_uris":{"android":"levelo://app?vid=d7e593ae-0e04-4801-88d6-585d610f28a0","ios":"levelo://app?vid=d7e593ae-0e04-4801-88d6-585d610f28a0"},"vehicle_type_id":"4","last_reported":1711649368,"current_range_meters":9600,"station_id":"ce4bhs12rcd13ifvqhvg","pricing_plan_id":"cebpf4jnsgd1na2vs0mg"},{"bike_id":"efba47c0-0371-4a8b-b1a3-18cb5de7595a","system_id":"levelo_inurba_marseille","lat":43.310706,"lon":5.38353,"is_reserved":false,"is_disabled":false,"rental_uris":{"android":"levelo://app?vid=efba47c0-0371-4a8b-b1a3-18cb5de7595a","ios":"levelo://app?vid=efba47c0-0371-4a8b-b1a3-18cb5de7595a"},"vehicle_type_id":"4","last_reported":1711649368,"current_range_meters":0,"station_id":"ce4bgv92rcd13ifvqcr0","pricing_plan_id":"cebpf4jnsgd1na2vs0mg"},{"bike_id":"f8585aa1-3639-4115-b417-9c073d2b1958","system_id":"levelo_inurba_marseille","lat":43.310804,"lon":5.38359,"is_reserved":false,"is_disabled":false,"rental_uris":{"android":"levelo://app?vid=f8585aa1-3639-4115-b417-9c073d2b1958","ios":"levelo://app?vid=f8585aa1-3639-4115-b417-9c073d2b1958"},"vehicle_type_id":"4","last_reported":1711649368,"current_range_meters":24000,"station_id":"ce4bgv92rcd13ifvqcr0","pricing_plan_id":"cebpf4jnsgd1na2vs0mg"},{"bike_id":"ac235d0f-51b5-4d65-8ab8-912f117d12b4","system_id":"levelo_inurba_marseille","lat":43.310804,"lon":5.38359,"is_reserved":false,"is_disabled":false,"rental_uris":{"android":"levelo://app?vid=ac235d0f-51b5-4d65-8ab8-912f117d12b4","ios":"levelo://app?vid=ac235d0f-51b5-4d65-8ab8-912f117d12b4"},"vehicle_type_id":"4","last_reported":1711649368,"current_range_meters":1200,"station_id":"ce4bgv92rcd13ifvqcr0","pricing_plan_id":"cebpf4jnsgd1na2vs0mg"},{"bike_id":"2166e33c-59e0-4dbc-91a0-464f785785a8","system_id":"levelo_inurba_marseille","lat":43.30143,"lon":5.37413,"is_reserved":false,"is_disabled":false,"rental_uris":{"android":"levelo://app?vid=2166e33c-59e0-4dbc-91a0-464f785785a8","ios":"levelo://app?vid=2166e33c-59e0-4dbc-91a0-464f785785a8"},"vehicle_type_id":"4","last_reported":1711649368,"current_range_meters":4000,"station_id":"ce4bgs92rcd13ifvqcc0","pricing_plan_id":"cebpf4jnsgd1na2vs0mg"},{"bike_id":"0781a365-3497-480f-ac3c-2332122d0603","system_id":"levelo_inurba_marseille","lat":43.301429,"lon":5.37413,"is_reserved":false,"is_disabled":false,"rental_uris":{"android":"levelo://app?vid=0781a365-3497-480f-ac3c-2332122d0603","ios":"levelo://app?vid=0781a365-3497-480f-ac3c-2332122d0603"},"vehicle_type_id":"4","last_reported":1711649368,"current_range_meters":26800,"station_id":"ce4bgs92rcd13ifvqcc0","pricing_plan_id":"cebpf4jnsgd1na2vs0mg"},{"bike_id":"98837a36-ff6e-4d56-aa01-5a8b32361ac5","system_id":"levelo_inurba_marseille","lat":43.301429,"lon":5.37413,"is_reserved":false,"is_disabled":false,"rental_uris":{"android":"levelo://app?vid=98837a36-ff6e-4d56-aa01-5a8b32361ac5","ios":"levelo://app?vid=98837a36-ff6e-4d56-aa01-5a8b32361ac5"},"vehicle_type_id":"4","last_reported":1711649368,"current_range_meters":25600,"station_id":"ce4bgs92rcd13ifvqcc0","pricing_plan_id":"cebpf4jnsgd1na2vs0mg"},{"bike_id":"f1a54125-3819-4398-bfe1-38963f6cc47c","system_id":"levelo_inurba_marseille","lat":43.30001,"lon":5.36564,"is_reserved":false,"is_disabled":false,"rental_uris":{"android":"levelo://app?vid=f1a54125-3819-4398-bfe1-38963f6cc47c","ios":"levelo://app?vid=f1a54125-3819-4398-bfe1-38963f6cc47c"},"vehicle_type_id":"4","last_reported":1711649368,"current_range_meters":5200,"station_id":"","pricing_plan_id":"cebpf4jnsgd1na2vs0mg"},{"bike_id":"bd231c0a-2e9a-4753-9143-34a921226e99","system_id":"levelo_inurba_marseille","lat":43.319923,"lon":5.381459,"is_reserved":false,"is_disabled":false,"rental_uris":{"android":"levelo://app?vid=bd231c0a-2e9a-4753-9143-34a921226e99","ios":"levelo://app?vid=bd231c0a-2e9a-4753-9143-34a921226e99"},"vehicle_type_id":"4","last_reported":1711649368,"current_range_meters":30000,"station_id":"","pricing_plan_id":"cebpf4jnsgd1na2vs0mg"},{"bike_id":"8b8c6300-4212-4ac4-9069-67ea75b4870b","system_id":"levelo_inurba_marseille","lat":43.319935,"lon":5.381699,"is_reserved":false,"is_disabled":false,"rental_uris":{"android":"levelo://app?vid=8b8c6300-4212-4ac4-9069-67ea75b4870b","ios":"levelo://app?vid=8b8c6300-4212-4ac4-9069-67ea75b4870b"},"vehicle_type_id":"4","last_reported":1711649368,"current_range_meters":26800,"station_id":"ce4bhr12rcd13ifvqhpg","pricing_plan_id":"cebpf4jnsgd1na2vs0mg"},{"bike_id":"d83131e9-d0e9-4575-a002-863fd07a027f","system_id":"levelo_inurba_marseille","lat":43.31993,"lon":5.38152,"is_reserved":false,"is_disabled":false,"rental_uris":{"android":"levelo://app?vid=d83131e9-d0e9-4575-a002-863fd07a027f","ios":"levelo://app?vid=d83131e9-d0e9-4575-a002-863fd07a027f"},"vehicle_type_id":"4","last_reported":1711649368,"current_range_meters":2000,"station_id":"ce4bhr12rcd13ifvqhpg","pricing_plan_id":"cebpf4jnsgd1na2vs0mg"},{"bike_id":"a263493d-bdcb-4178-8daa-6a519ed8256b","system_id":"levelo_inurba_marseille","lat":43.319935,"lon":5.381699,"is_reserved":false,"is_disabled":false,"rental_uris":{"android":"levelo://app?vid=a263493d-bdcb-4178-8daa-6a519ed8256b","ios":"levelo://app?vid=a263493d-bdcb-4178-8daa-6a519ed8256b"},"vehicle_type_id":"4","last_reported":1711649368,"current_range_meters":11600,"station_id":"ce4bhr12rcd13ifvqhpg","pricing_plan_id":"cebpf4jnsgd1na2vs0mg"},{"bike_id":"2ae5a75f-5fbf-4f46-a5ac-b50798bc8faf","system_id":"levelo_inurba_marseille","lat":43.319935,"lon":5.381699,"is_reserved":false,"is_disabled":false,"rental_uris":{"android":"levelo://app?vid=2ae5a75f-5fbf-4f46-a5ac-b50798bc8faf","ios":"levelo://app?vid=2ae5a75f-5fbf-4f46-a5ac-b50798bc8faf"},"vehicle_type_id":"4","last_reported":1711649368,"current_range_meters":8000,"station_id":"ce4bhr12rcd13ifvqhpg","pricing_plan_id":"cebpf4jnsgd1na2vs0mg"},{"bike_id":"2af1d108-4dc8-44a3-bcf4-a0e0ba937b8d","system_id":"levelo_inurba_marseille","lat":43.319935,"lon":5.381699,"is_reserved":false,"is_disabled":false,"rental_uris":{"android":"levelo://app?vid=2af1d108-4dc8-44a3-bcf4-a0e0ba937b8d","ios":"levelo://app?vid=2af1d108-4dc8-44a3-bcf4-a0e0ba937b8d"},"vehicle_type_id":"4","last_reported":1711649368,"current_range_meters":17600,"station_id":"ce4bhr12rcd13ifvqhpg","pricing_plan_id":"cebpf4jnsgd1na2vs0mg"},{"bike_id":"ae653ebc-2cb7-4d32-aeb5-9accc5b2c8eb","system_id":"levelo_inurba_marseille","lat":43.319935,"lon":5.381699,"is_reserved":false,"is_disabled":false,"rental_uris":{"android":"levelo://app?vid=ae653ebc-2cb7-4d32-aeb5-9accc5b2c8eb","ios":"levelo://app?vid=ae653ebc-2cb7-4d32-aeb5-9accc5b2c8eb"},"vehicle_type_id":"4","last_reported":1711649368,"current_range_meters":7600,"station_id":"ce4bhr12rcd13ifvqhpg","pricing_plan_id":"cebpf4jnsgd1na2vs0mg"},{"bike_id":"a1e9092c-2759-4ed2-b1e3-e5a7f759703f","system_id":"levelo_inurba_marseille","lat":43.313571,"lon":5.384829,"is_reserved":false,"is_disabled":false,"rental_uris":{"android":"levelo://app?vid=a1e9092c-2759-4ed2-b1e3-e5a7f759703f","ios":"levelo://app?vid=a1e9092c-2759-4ed2-b1e3-e5a7f759703f"},"vehicle_type_id":"4","last_reported":1711649368,"current_range_meters":14800,"station_id":"ce4bgt92rcd13ifvqcf0","pricing_plan_id":"cebpf4jnsgd1na2vs0mg"},{"bike_id":"8b08e89f-3eeb-413b-bc74-e6f2384e1496","system_id":"levelo_inurba_marseille","lat":43.313571,"lon":5.384829,"is_reserved":false,"is_disabled":false,"rental_uris":{"android":"levelo://app?vid=8b08e89f-3eeb-413b-bc74-e6f2384e1496","ios":"levelo://app?vid=8b08e89f-3eeb-413b-bc74-e6f2384e1496"},"vehicle_type_id":"4","last_reported":1711649368,"current_range_meters":0,"station_id":"ce4bgt92rcd13ifvqcf0","pricing_plan_id":"cebpf4jnsgd1na2vs0mg"},{"bike_id":"2278ca68-19a7-46b0-9aa4-8c8ba78015cb","system_id":"levelo_inurba_marseille","lat":43.313571,"lon":5.384829,"is_reserved":false,"is_disabled":false,"rental_uris":{"android":"levelo://app?vid=2278ca68-19a7-46b0-9aa4-8c8ba78015cb","ios":"levelo://app?vid=2278ca68-19a7-46b0-9aa4-8c8ba78015cb"},"vehicle_type_id":"4","last_reported":1711649368,"current_range_meters":10400,"station_id":"ce4bgt92rcd13ifvqcf0","pricing_plan_id":"cebpf4jnsgd1na2vs0mg"},{"bike_id":"21adf74c-829c-46e9-a8e3-2ca2f7fbbf19","system_id":"levelo_inurba_marseille","lat":43.313571,"lon":5.384829,"is_reserved":false,"is_disabled":false,"rental_uris":{"android":"levelo://app?vid=21adf74c-829c-46e9-a8e3-2ca2f7fbbf19","ios":"levelo://app?vid=21adf74c-829c-46e9-a8e3-2ca2f7fbbf19"},"vehicle_type_id":"4","last_reported":1711649368,"current_range_meters":1200,"station_id":"ce4bgt92rcd13ifvqcf0","pricing_plan_id":"cebpf4jnsgd1na2vs0mg"},{"bike_id":"c28b1cf1-c19c-4db1-a1f8-8fcedcf43efd","system_id":"levelo_inurba_marseille","lat":43.313571,"lon":5.384829,"is_reserved":false,"is_disabled":false,"rental_uris":{"android":"levelo://app?vid=c28b1cf1-c19c-4db1-a1f8-8fcedcf43efd","ios":"levelo://app?vid=c28b1cf1-c19c-4db1-a1f8-8fcedcf43efd"},"vehicle_type_id":"4","last_reported":1711649368,"current_range_meters":2000,"station_id":"ce4bgt92rcd13ifvqcf0","pricing_plan_id":"cebpf4jnsgd1na2vs0mg"},{"bike_id":"0082a250-6e13-4d7c-b847-331d80e74e23","system_id":"levelo_inurba_marseille","lat":43.313571,"lon":5.384829,"is_reserved":false,"is_disabled":false,"rental_uris":{"android":"levelo://app?vid=0082a250-6e13-4d7c-b847-331d80e74e23","ios":"levelo://app?vid=0082a250-6e13-4d7c-b847-331d80e74e23"},"vehicle_type_id":"4","last_reported":1711649368,"current_range_meters":800,"station_id":"ce4bgt92rcd13ifvqcf0","pricing_plan_id":"cebpf4jnsgd1na2vs0mg"},{"bike_id":"a0d32efb-2ff6-43cd-ae89-807c34459bfa","system_id":"levelo_inurba_marseille","lat":43.313571,"lon":5.384829,"is_reserved":false,"is_disabled":false,"rental_uris":{"android":"levelo://app?vid=a0d32efb-2ff6-43cd-ae89-807c34459bfa","ios":"levelo://app?vid=a0d32efb-2ff6-43cd-ae89-807c34459bfa"},"vehicle_type_id":"4","last_reported":1711649368,"current_range_meters":7600,"station_id":"ce4bgt92rcd13ifvqcf0","pricing_plan_id":"cebpf4jnsgd1na2vs0mg"},{"bike_id":"d0c7c2cb-c853-4ee7-8aa9-932a3e7e2e95","system_id":"levelo_inurba_marseille","lat":43.313571,"lon":5.384829,"is_reserved":false,"is_disabled":false,"rental_uris":{"android":"levelo://app?vid=d0c7c2cb-c853-4ee7-8aa9-932a3e7e2e95","ios":"levelo://app?vid=d0c7c2cb-c853-4ee7-8aa9-932a3e7e2e95"},"vehicle_type_id":"4","last_reported":1711649368,"current_range_meters":8000,"station_id":"ce4bgt92rcd13ifvqcf0","pricing_plan_id":"cebpf4jnsgd1na2vs0mg"},{"bike_id":"49f57797-3dc6-40c9-8085-3a1c890e11ae","system_id":"levelo_inurba_marseille","lat":43.313571,"lon":5.384829,"is_reserved":false,"is_disabled":false,"rental_uris":{"android":"levelo://app?vid=49f57797-3dc6-40c9-8085-3a1c890e11ae","ios":"levelo://app?vid=49f57797-3dc6-40c9-8085-3a1c890e11ae"},"vehicle_type_id":"4","last_reported":1711649368,"current_range_meters":26000,"station_id":"ce4bgt92rcd13ifvqcf0","pricing_plan_id":"cebpf4jnsgd1na2vs0mg"},{"bike_id":"df3c8f94-57cc-4c79-8123-74f1f85d213a","system_id":"levelo_inurba_marseille","lat":43.313571,"lon":5.384829,"is_reserved":false,"is_disabled":false,"rental_uris":{"android":"levelo://app?vid=df3c8f94-57cc-4c79-8123-74f1f85d213a","ios":"levelo://app?vid=df3c8f94-57cc-4c79-8123-74f1f85d213a"},"vehicle_type_id":"4","last_reported":1711649368,"current_range_meters":0,"station_id":"ce4bgt92rcd13ifvqcf0","pricing_plan_id":"cebpf4jnsgd1na2vs0mg"},{"bike_id":"b1665ffb-5eca-4fe4-a1fb-a1775f1ce528","system_id":"levelo_inurba_marseille","lat":43.313571,"lon":5.384829,"is_reserved":false,"is_disabled":false,"rental_uris":{"android":"levelo://app?vid=b1665ffb-5eca-4fe4-a1fb-a1775f1ce528","ios":"levelo://app?vid=b1665ffb-5eca-4fe4-a1fb-a1775f1ce528"},"vehicle_type_id":"4","last_reported":1711649368,"current_range_meters":16000,"station_id":"ce4bgt92rcd13ifvqcf0","pricing_plan_id":"cebpf4jnsgd1na2vs0mg"},{"bike_id":"8558530c-44fe-481f-bedb-4dec7116c0b9","system_id":"levelo_inurba_marseille","lat":43.313571,"lon":5.384829,"is_reserved":false,"is_disabled":false,"rental_uris":{"android":"levelo://app?vid=8558530c-44fe-481f-bedb-4dec7116c0b9","ios":"levelo://app?vid=8558530c-44fe-481f-bedb-4dec7116c0b9"},"vehicle_type_id":"4","last_reported":1711649368,"current_range_meters":0,"station_id":"ce4bgt92rcd13ifvqcf0","pricing_plan_id":"cebpf4jnsgd1na2vs0mg"},{"bike_id":"9c9be7d6-f2bf-4910-922a-e63a15907962","system_id":"levelo_inurba_marseille","lat":43.299222,"lon":5.365554,"is_reserved":false,"is_disabled":false,"rental_uris":{"android":"levelo://app?vid=9c9be7d6-f2bf-4910-922a-e63a15907962","ios":"levelo://app?vid=9c9be7d6-f2bf-4910-922a-e63a15907962"},"vehicle_type_id":"4","last_reported":1711649368,"current_range_meters":400,"station_id":"ce4bgm92rcd13ifvqbr0","pricing_plan_id":"cebpf4jnsgd1na2vs0mg"},{"bike_id":"e579c225-273b-4622-b284-4ab06091d381","system_id":"levelo_inurba_marseille","lat":43.29944,"lon":5.365383,"is_reserved":false,"is_disabled":false,"rental_uris":{"android":"levelo://app?vid=e579c225-273b-4622-b284-4ab06091d381","ios":"levelo://app?vid=e579c225-273b-4622-b284-4ab06091d381"},"vehicle_type_id":"4","last_reported":1711649368,"current_range_meters":0,"station_id":"ce4bgm92rcd13ifvqbr0","pricing_plan_id":"cebpf4jnsgd1na2vs0mg"},{"bike_id":"50a3f749-6f93-498e-8040-afd9a0fd0f95","system_id":"levelo_inurba_marseille","lat":43.299724,"lon":5.371829,"is_reserved":false,"is_disabled":false,"rental_uris":{"android":"levelo://app?vid=50a3f749-6f93-498e-8040-afd9a0fd0f95","ios":"levelo://app?vid=50a3f749-6f93-498e-8040-afd9a0fd0f95"},"vehicle_type_id":"4","last_reported":1711649368,"current_range_meters":0,"station_id":"ce4bgr92rcd13ifvqc7g","pricing_plan_id":"cebpf4jnsgd1na2vs0mg"},{"bike_id":"c43d2cf8-155d-4779-ad4e-5d72d439ef22","system_id":"levelo_inurba_marseille","lat":43.305364,"lon":5.384119,"is_reserved":false,"is_disabled":false,"rental_uris":{"android":"levelo://app?vid=c43d2cf8-155d-4779-ad4e-5d72d439ef22","ios":"levelo://app?vid=c43d2cf8-155d-4779-ad4e-5d72d439ef22"},"vehicle_type_id":"4","last_reported":1711649368,"current_range_meters":24800,"station_id":"ce4bgg92rcd13ifvqb30","pricing_plan_id":"cebpf4jnsgd1na2vs0mg"},{"bike_id":"7445a02a-c6c3-49ec-8dba-37e8f0b79b6d","system_id":"levelo_inurba_marseille","lat":43.305364,"lon":5.384119,"is_reserved":false,"is_disabled":false,"rental_uris":{"android":"levelo://app?vid=7445a02a-c6c3-49ec-8dba-37e8f0b79b6d","ios":"levelo://app?vid=7445a02a-c6c3-49ec-8dba-37e8f0b79b6d"},"vehicle_type_id":"4","last_reported":1711649368,"current_range_meters":0,"station_id":"ce4bgg92rcd13ifvqb30","pricing_plan_id":"cebpf4jnsgd1na2vs0mg"},{"bike_id":"621037e3-7f4e-491e-b884-a6774b24d267","system_id":"levelo_inurba_marseille","lat":43.298433,"lon":5.362774,"is_reserved":false,"is_disabled":false,"rental_uris":{"android":"levelo://app?vid=621037e3-7f4e-491e-b884-a6774b24d267","ios":"levelo://app?vid=621037e3-7f4e-491e-b884-a6774b24d267"},"vehicle_type_id":"4","last_reported":1711649368,"current_range_meters":31200,"station_id":"ce4bgpp2rcd13ifvqc3g","pricing_plan_id":"cebpf4jnsgd1na2vs0mg"},{"bike_id":"dbce40dd-83ef-4cdd-8c0b-0fab49e82bca","system_id":"levelo_inurba_marseille","lat":43.305364,"lon":5.384119,"is_reserved":false,"is_disabled":false,"rental_uris":{"android":"levelo://app?vid=dbce40dd-83ef-4cdd-8c0b-0fab49e82bca","ios":"levelo://app?vid=dbce40dd-83ef-4cdd-8c0b-0fab49e82bca"},"vehicle_type_id":"4","last_reported":1711649368,"current_range_meters":15600,"station_id":"ce4bgg92rcd13ifvqb30","pricing_plan_id":"cebpf4jnsgd1na2vs0mg"},{"bike_id":"89a9e3f4-b166-4154-a977-7585c3382080","system_id":"levelo_inurba_marseille","lat":43.29928,"lon":5.37495,"is_reserved":false,"is_disabled":false,"rental_uris":{"android":"levelo://app?vid=89a9e3f4-b166-4154-a977-7585c3382080","ios":"levelo://app?vid=89a9e3f4-b166-4154-a977-7585c3382080"},"vehicle_type_id":"4","last_reported":1711649368,"current_range_meters":400,"station_id":"ce4bgjh2rcd13ifvqbg0","pricing_plan_id":"cebpf4jnsgd1na2vs0mg"},{"bike_id":"f77c4955-211e-4b63-9754-ada4ca65e30a","system_id":"levelo_inurba_marseille","lat":43.29915,"lon":5.37455,"is_reserved":false,"is_disabled":false,"rental_uris":{"android":"levelo://app?vid=f77c4955-211e-4b63-9754-ada4ca65e30a","ios":"levelo://app?vid=f77c4955-211e-4b63-9754-ada4ca65e30a"},"vehicle_type_id":"4","last_reported":1711649368,"current_range_meters":17600,"station_id":"ce4bgjh2rcd13ifvqbg0","pricing_plan_id":"cebpf4jnsgd1na2vs0mg"},{"bike_id":"240b61cc-8176-4ab8-81e0-a77651ee94fa","system_id":"levelo_inurba_marseille","lat":43.311125,"lon":5.377624,"is_reserved":false,"is_disabled":false,"rental_uris":{"android":"levelo://app?vid=240b61cc-8176-4ab8-81e0-a77651ee94fa","ios":"levelo://app?vid=240b61cc-8176-4ab8-81e0-a77651ee94fa"},"vehicle_type_id":"4","last_reported":1711649368,"current_range_meters":12800,"station_id":"ce4bgt92rcd13ifvqcg0","pricing_plan_id":"cebpf4jnsgd1na2vs0mg"},{"bike_id":"9bc316c1-b70f-4f6f-b19d-d74c04d9a16c","system_id":"levelo_inurba_marseille","lat":43.298433,"lon":5.362774,"is_reserved":false,"is_disabled":false,"rental_uris":{"android":"levelo://app?vid=9bc316c1-b70f-4f6f-b19d-d74c04d9a16c","ios":"levelo://app?vid=9bc316c1-b70f-4f6f-b19d-d74c04d9a16c"},"vehicle_type_id":"4","last_reported":1711649368,"current_range_meters":6000,"station_id":"ce4bgpp2rcd13ifvqc3g","pricing_plan_id":"cebpf4jnsgd1na2vs0mg"},{"bike_id":"0ae7aeab-313b-4df2-86c1-2383faf845fe","system_id":"levelo_inurba_marseille","lat":43.310804,"lon":5.38359,"is_reserved":false,"is_disabled":false,"rental_uris":{"android":"levelo://app?vid=0ae7aeab-313b-4df2-86c1-2383faf845fe","ios":"levelo://app?vid=0ae7aeab-313b-4df2-86c1-2383faf845fe"},"vehicle_type_id":"4","last_reported":1711649368,"current_range_meters":9600,"station_id":"ce4bgv92rcd13ifvqcr0","pricing_plan_id":"cebpf4jnsgd1na2vs0mg"},{"bike_id":"60c9ce26-1a97-439d-9340-c0543a9e72cf","system_id":"levelo_inurba_marseille","lat":43.297774,"lon":5.370875,"is_reserved":false,"is_disabled":false,"rental_uris":{"android":"levelo://app?vid=60c9ce26-1a97-439d-9340-c0543a9e72cf","ios":"levelo://app?vid=60c9ce26-1a97-439d-9340-c0543a9e72cf"},"vehicle_type_id":"4","last_reported":1711649368,"current_range_meters":0,"station_id":"ce4bgop2rcd13ifvqc1g","pricing_plan_id":"cebpf4jnsgd1na2vs0mg"},{"bike_id":"38f1a639-8cf7-49d0-b93e-6357ea0a9b6b","system_id":"levelo_inurba_marseille","lat":43.322872,"lon":5.382756,"is_reserved":false,"is_disabled":false,"rental_uris":{"android":"levelo://app?vid=38f1a639-8cf7-49d0-b93e-6357ea0a9b6b","ios":"levelo://app?vid=38f1a639-8cf7-49d0-b93e-6357ea0a9b6b"},"vehicle_type_id":"4","last_reported":1711649368,"current_range_meters":14800,"station_id":"ce4bhr12rcd13ifvqhqg","pricing_plan_id":"cebpf4jnsgd1na2vs0mg"},{"bike_id":"e1332fa5-1ca0-4f7f-88ac-b8b7cdf218e8","system_id":"levelo_inurba_marseille","lat":43.32288,"lon":5.3827,"is_reserved":false,"is_disabled":false,"rental_uris":{"android":"levelo://app?vid=e1332fa5-1ca0-4f7f-88ac-b8b7cdf218e8","ios":"levelo://app?vid=e1332fa5-1ca0-4f7f-88ac-b8b7cdf218e8"},"vehicle_type_id":"4","last_reported":1711649368,"current_range_meters":400,"station_id":"ce4bhr12rcd13ifvqhqg","pricing_plan_id":"cebpf4jnsgd1na2vs0mg"},{"bike_id":"317519cd-ef36-403f-bba6-2177a25028b5","system_id":"levelo_inurba_marseille","lat":43.322872,"lon":5.382756,"is_reserved":false,"is_disabled":false,"rental_uris":{"android":"levelo://app?vid=317519cd-ef36-403f-bba6-2177a25028b5","ios":"levelo://app?vid=317519cd-ef36-403f-bba6-2177a25028b5"},"vehicle_type_id":"4","last_reported":1711649368,"current_range_meters":30000,"station_id":"ce4bhr12rcd13ifvqhqg","pricing_plan_id":"cebpf4jnsgd1na2vs0mg"},{"bike_id":"f5f1a870-2efe-4f1a-b8d8-e342b746a405","system_id":"levelo_inurba_marseille","lat":43.32367,"lon":5.388836,"is_reserved":false,"is_disabled":false,"rental_uris":{"android":"levelo://app?vid=f5f1a870-2efe-4f1a-b8d8-e342b746a405","ios":"levelo://app?vid=f5f1a870-2efe-4f1a-b8d8-e342b746a405"},"vehicle_type_id":"4","last_reported":1711649368,"current_range_meters":22400,"station_id":"ce4bhqp2rcd13ifvqhog","pricing_plan_id":"cebpf4jnsgd1na2vs0mg"},{"bike_id":"5fe179a4-68ba-439a-88aa-12906cbed460","system_id":"levelo_inurba_marseille","lat":43.322872,"lon":5.382756,"is_reserved":false,"is_disabled":false,"rental_uris":{"android":"levelo://app?vid=5fe179a4-68ba-439a-88aa-12906cbed460","ios":"levelo://app?vid=5fe179a4-68ba-439a-88aa-12906cbed460"},"vehicle_type_id":"4","last_reported":1711649368,"current_range_meters":22800,"station_id":"ce4bhr12rcd13ifvqhqg","pricing_plan_id":"cebpf4jnsgd1na2vs0mg"},{"bike_id":"07431bbb-b567-47a9-ac0a-f955c1a3e829","system_id":"levelo_inurba_marseille","lat":43.297195,"lon":5.365745,"is_reserved":false,"is_disabled":false,"rental_uris":{"android":"levelo://app?vid=07431bbb-b567-47a9-ac0a-f955c1a3e829","ios":"levelo://app?vid=07431bbb-b567-47a9-ac0a-f955c1a3e829"},"vehicle_type_id":"4","last_reported":1711649368,"current_range_meters":0,"station_id":"ce4bgn12rcd13ifvqbt0","pricing_plan_id":"cebpf4jnsgd1na2vs0mg"},{"bike_id":"0dc88b79-c621-4fee-9587-7d3e109e817b","system_id":"levelo_inurba_marseille","lat":43.297139,"lon":5.366141,"is_reserved":false,"is_disabled":false,"rental_uris":{"android":"levelo://app?vid=0dc88b79-c621-4fee-9587-7d3e109e817b","ios":"levelo://app?vid=0dc88b79-c621-4fee-9587-7d3e109e817b"},"vehicle_type_id":"4","last_reported":1711649368,"current_range_meters":0,"station_id":"ce4bgn12rcd13ifvqbt0","pricing_plan_id":"cebpf4jnsgd1na2vs0mg"},{"bike_id":"c321cc7d-84d6-4541-a61e-1a2cb8fc3734","system_id":"levelo_inurba_marseille","lat":43.29711,"lon":5.366125,"is_reserved":false,"is_disabled":false,"rental_uris":{"android":"levelo://app?vid=c321cc7d-84d6-4541-a61e-1a2cb8fc3734","ios":"levelo://app?vid=c321cc7d-84d6-4541-a61e-1a2cb8fc3734"},"vehicle_type_id":"4","last_reported":1711649368,"current_range_meters":13600,"station_id":"ce4bgn12rcd13ifvqbt0","pricing_plan_id":"cebpf4jnsgd1na2vs0mg"},{"bike_id":"d1b837ef-9efe-4f05-a01e-082e788757cc","system_id":"levelo_inurba_marseille","lat":43.297163,"lon":5.365866,"is_reserved":false,"is_disabled":false,"rental_uris":{"android":"levelo://app?vid=d1b837ef-9efe-4f05-a01e-082e788757cc","ios":"levelo://app?vid=d1b837ef-9efe-4f05-a01e-082e788757cc"},"vehicle_type_id":"4","last_reported":1711649368,"current_range_meters":16400,"station_id":"ce4bgn12rcd13ifvqbt0","pricing_plan_id":"cebpf4jnsgd1na2vs0mg"},{"bike_id":"067367f0-16b2-4cab-b7f1-dc758acc2f3e","system_id":"levelo_inurba_marseille","lat":43.29707,"lon":5.36606,"is_reserved":false,"is_disabled":false,"rental_uris":{"android":"levelo://app?vid=067367f0-16b2-4cab-b7f1-dc758acc2f3e","ios":"levelo://app?vid=067367f0-16b2-4cab-b7f1-dc758acc2f3e"},"vehicle_type_id":"4","last_reported":1711649368,"current_range_meters":12000,"station_id":"ce4bgn12rcd13ifvqbt0","pricing_plan_id":"cebpf4jnsgd1na2vs0mg"},{"bike_id":"24a495a5-965a-4985-bfd5-24c1e6f80920","system_id":"levelo_inurba_marseille","lat":43.297015,"lon":5.366142,"is_reserved":false,"is_disabled":false,"rental_uris":{"android":"levelo://app?vid=24a495a5-965a-4985-bfd5-24c1e6f80920","ios":"levelo://app?vid=24a495a5-965a-4985-bfd5-24c1e6f80920"},"vehicle_type_id":"4","last_reported":1711649368,"current_range_meters":7600,"station_id":"ce4bgn12rcd13ifvqbt0","pricing_plan_id":"cebpf4jnsgd1na2vs0mg"},{"bike_id":"b55483c7-5e79-4e88-9f14-f5bebeec9e29","system_id":"levelo_inurba_marseille","lat":43.294153,"lon":5.386305,"is_reserved":false,"is_disabled":false,"rental_uris":{"android":"levelo://app?vid=b55483c7-5e79-4e88-9f14-f5bebeec9e29","ios":"levelo://app?vid=b55483c7-5e79-4e88-9f14-f5bebeec9e29"},"vehicle_type_id":"4","last_reported":1711649368,"current_range_meters":12400,"station_id":"ce4bh2h2rcd13ifvqdh0","pricing_plan_id":"cebpf4jnsgd1na2vs0mg"},{"bike_id":"dbe54802-2a04-4628-b5ad-9c8a1da58066","system_id":"levelo_inurba_marseille","lat":43.297163,"lon":5.365866,"is_reserved":false,"is_disabled":false,"rental_uris":{"android":"levelo://app?vid=dbe54802-2a04-4628-b5ad-9c8a1da58066","ios":"levelo://app?vid=dbe54802-2a04-4628-b5ad-9c8a1da58066"},"vehicle_type_id":"4","last_reported":1711649368,"current_range_meters":14400,"station_id":"ce4bgn12rcd13ifvqbt0","pricing_plan_id":"cebpf4jnsgd1na2vs0mg"},{"bike_id":"df1e6ea2-2d2a-4468-bf41-ca2da1e31172","system_id":"levelo_inurba_marseille","lat":43.31556,"lon":5.38842,"is_reserved":false,"is_disabled":false,"rental_uris":{"android":"levelo://app?vid=df1e6ea2-2d2a-4468-bf41-ca2da1e31172","ios":"levelo://app?vid=df1e6ea2-2d2a-4468-bf41-ca2da1e31172"},"vehicle_type_id":"4","last_reported":1711649368,"current_range_meters":0,"station_id":"","pricing_plan_id":"cebpf4jnsgd1na2vs0mg"},{"bike_id":"dabe3db4-2799-4509-8127-743c9266ea50","system_id":"levelo_inurba_marseille","lat":43.297156,"lon":5.362509,"is_reserved":false,"is_disabled":false,"rental_uris":{"android":"levelo://app?vid=dabe3db4-2799-4509-8127-743c9266ea50","ios":"levelo://app?vid=dabe3db4-2799-4509-8127-743c9266ea50"},"vehicle_type_id":"4","last_reported":1711649368,"current_range_meters":4800,"station_id":"","pricing_plan_id":"cebpf4jnsgd1na2vs0mg"},{"bike_id":"6648a5a4-a9a8-49eb-be44-5b62fa4b1ce4","system_id":"levelo_inurba_marseille","lat":43.31494,"lon":5.38881,"is_reserved":false,"is_disabled":false,"rental_uris":{"android":"levelo://app?vid=6648a5a4-a9a8-49eb-be44-5b62fa4b1ce4","ios":"levelo://app?vid=6648a5a4-a9a8-49eb-be44-5b62fa4b1ce4"},"vehicle_type_id":"4","last_reported":1711649368,"current_range_meters":22800,"station_id":"","pricing_plan_id":"cebpf4jnsgd1na2vs0mg"},{"bike_id":"7cd84d22-195f-4d70-b2d2-3149d454902d","system_id":"levelo_inurba_marseille","lat":43.298433,"lon":5.362774,"is_reserved":false,"is_disabled":false,"rental_uris":{"android":"levelo://app?vid=7cd84d22-195f-4d70-b2d2-3149d454902d","ios":"levelo://app?vid=7cd84d22-195f-4d70-b2d2-3149d454902d"},"vehicle_type_id":"4","last_reported":1711649368,"current_range_meters":21200,"station_id":"ce4bgpp2rcd13ifvqc3g","pricing_plan_id":"cebpf4jnsgd1na2vs0mg"},{"bike_id":"20063f08-1e5f-4b7a-b34b-12dde04e03b4","system_id":"levelo_inurba_marseille","lat":43.309076,"lon":5.368465,"is_reserved":false,"is_disabled":false,"rental_uris":{"android":"levelo://app?vid=20063f08-1e5f-4b7a-b34b-12dde04e03b4","ios":"levelo://app?vid=20063f08-1e5f-4b7a-b34b-12dde04e03b4"},"vehicle_type_id":"4","last_reported":1711649368,"current_range_meters":9600,"station_id":"ce4bgn92rcd13ifvqbvg","pricing_plan_id":"cebpf4jnsgd1na2vs0mg"},{"bike_id":"a9448f06-b809-4a41-8ebe-fd132b1b878c","system_id":"levelo_inurba_marseille","lat":43.296131,"lon":5.370791,"is_reserved":false,"is_disabled":false,"rental_uris":{"android":"levelo://app?vid=a9448f06-b809-4a41-8ebe-fd132b1b878c","ios":"levelo://app?vid=a9448f06-b809-4a41-8ebe-fd132b1b878c"},"vehicle_type_id":"4","last_reported":1711649368,"current_range_meters":1200,"station_id":"ce4bgnh2rcd13ifvqc0g","pricing_plan_id":"cebpf4jnsgd1na2vs0mg"},{"bike_id":"d82b23fd-b086-4c04-a0e9-b28eca596588","system_id":"levelo_inurba_marseille","lat":43.29581,"lon":5.36737,"is_reserved":false,"is_disabled":false,"rental_uris":{"android":"levelo://app?vid=d82b23fd-b086-4c04-a0e9-b28eca596588","ios":"levelo://app?vid=d82b23fd-b086-4c04-a0e9-b28eca596588"},"vehicle_type_id":"4","last_reported":1711649368,"current_range_meters":1600,"station_id":"ce4bgph2rcd13ifvqc2g","pricing_plan_id":"cebpf4jnsgd1na2vs0mg"},{"bike_id":"b112b157-11ef-4afe-89da-49605d4fbcc6","system_id":"levelo_inurba_marseille","lat":43.292644,"lon":5.384257,"is_reserved":false,"is_disabled":false,"rental_uris":{"android":"levelo://app?vid=b112b157-11ef-4afe-89da-49605d4fbcc6","ios":"levelo://app?vid=b112b157-11ef-4afe-89da-49605d4fbcc6"},"vehicle_type_id":"4","last_reported":1711649368,"current_range_meters":13600,"station_id":"ce4bh692rcd13ifvqea0","pricing_plan_id":"cebpf4jnsgd1na2vs0mg"},{"bike_id":"a85dbae0-c84e-42a1-9568-abcea8af463b","system_id":"levelo_inurba_marseille","lat":43.292642,"lon":5.384254,"is_reserved":false,"is_disabled":false,"rental_uris":{"android":"levelo://app?vid=a85dbae0-c84e-42a1-9568-abcea8af463b","ios":"levelo://app?vid=a85dbae0-c84e-42a1-9568-abcea8af463b"},"vehicle_type_id":"4","last_reported":1711649368,"current_range_meters":4800,"station_id":"ce4bh692rcd13ifvqea0","pricing_plan_id":"cebpf4jnsgd1na2vs0mg"},{"bike_id":"cf97afc2-812d-4771-b25a-53df60e17694","system_id":"levelo_inurba_marseille","lat":43.29578,"lon":5.36734,"is_reserved":false,"is_disabled":false,"rental_uris":{"android":"levelo://app?vid=cf97afc2-812d-4771-b25a-53df60e17694","ios":"levelo://app?vid=cf97afc2-812d-4771-b25a-53df60e17694"},"vehicle_type_id":"4","last_reported":1711649368,"current_range_meters":6000,"station_id":"ce4bgph2rcd13ifvqc2g","pricing_plan_id":"cebpf4jnsgd1na2vs0mg"},{"bike_id":"04f3e3fc-a295-473f-a1cf-05dc366f8e51","system_id":"levelo_inurba_marseille","lat":43.29714,"lon":5.37707,"is_reserved":false,"is_disabled":false,"rental_uris":{"android":"levelo://app?vid=04f3e3fc-a295-473f-a1cf-05dc366f8e51","ios":"levelo://app?vid=04f3e3fc-a295-473f-a1cf-05dc366f8e51"},"vehicle_type_id":"4","last_reported":1711649368,"current_range_meters":5600,"station_id":"ce4bgkh2rcd13ifvqbl0","pricing_plan_id":"cebpf4jnsgd1na2vs0mg"},{"bike_id":"9a1d6572-d4ab-44c3-b2ab-a3b3aa3484de","system_id":"levelo_inurba_marseille","lat":43.296935,"lon":5.376544,"is_reserved":false,"is_disabled":false,"rental_uris":{"android":"levelo://app?vid=9a1d6572-d4ab-44c3-b2ab-a3b3aa3484de","ios":"levelo://app?vid=9a1d6572-d4ab-44c3-b2ab-a3b3aa3484de"},"vehicle_type_id":"4","last_reported":1711649368,"current_range_meters":1200,"station_id":"ce4bgkh2rcd13ifvqbl0","pricing_plan_id":"cebpf4jnsgd1na2vs0mg"},{"bike_id":"a5b3fcbf-da88-4697-89d2-87e6ec805704","system_id":"levelo_inurba_marseille","lat":43.31762,"lon":5.39007,"is_reserved":false,"is_disabled":false,"rental_uris":{"android":"levelo://app?vid=a5b3fcbf-da88-4697-89d2-87e6ec805704","ios":"levelo://app?vid=a5b3fcbf-da88-4697-89d2-87e6ec805704"},"vehicle_type_id":"4","last_reported":1711649368,"current_range_meters":31200,"station_id":"ce4bhqp2rcd13ifvqhng","pricing_plan_id":"cebpf4jnsgd1na2vs0mg"},{"bike_id":"d0dd0085-c414-456f-95f1-f92ecddea43b","system_id":"levelo_inurba_marseille","lat":43.31757,"lon":5.39011,"is_reserved":false,"is_disabled":false,"rental_uris":{"android":"levelo://app?vid=d0dd0085-c414-456f-95f1-f92ecddea43b","ios":"levelo://app?vid=d0dd0085-c414-456f-95f1-f92ecddea43b"},"vehicle_type_id":"4","last_reported":1711649368,"current_range_meters":0,"station_id":"ce4bhqp2rcd13ifvqhng","pricing_plan_id":"cebpf4jnsgd1na2vs0mg"},{"bike_id":"b2bc132d-80f6-42b1-8bd7-bc67f76456a6","system_id":"levelo_inurba_marseille","lat":43.31761,"lon":5.39012,"is_reserved":false,"is_disabled":false,"rental_uris":{"android":"levelo://app?vid=b2bc132d-80f6-42b1-8bd7-bc67f76456a6","ios":"levelo://app?vid=b2bc132d-80f6-42b1-8bd7-bc67f76456a6"},"vehicle_type_id":"4","last_reported":1711649368,"current_range_meters":23600,"station_id":"ce4bhqp2rcd13ifvqhng","pricing_plan_id":"cebpf4jnsgd1na2vs0mg"},{"bike_id":"14b25ab4-d3a1-44e6-8abb-31afe39ac129","system_id":"levelo_inurba_marseille","lat":43.31761,"lon":5.39013,"is_reserved":false,"is_disabled":false,"rental_uris":{"android":"levelo://app?vid=14b25ab4-d3a1-44e6-8abb-31afe39ac129","ios":"levelo://app?vid=14b25ab4-d3a1-44e6-8abb-31afe39ac129"},"vehicle_type_id":"4","last_reported":1711649368,"current_range_meters":4400,"station_id":"ce4bhqp2rcd13ifvqhng","pricing_plan_id":"cebpf4jnsgd1na2vs0mg"},{"bike_id":"5476f617-6acd-4623-a373-b5da9e3b2d22","system_id":"levelo_inurba_marseille","lat":43.3176,"lon":5.39016,"is_reserved":false,"is_disabled":false,"rental_uris":{"android":"levelo://app?vid=5476f617-6acd-4623-a373-b5da9e3b2d22","ios":"levelo://app?vid=5476f617-6acd-4623-a373-b5da9e3b2d22"},"vehicle_type_id":"4","last_reported":1711649368,"current_range_meters":0,"station_id":"ce4bhqp2rcd13ifvqhng","pricing_plan_id":"cebpf4jnsgd1na2vs0mg"},{"bike_id":"26ff9772-7999-47f8-b30d-e8a6c19e273d","system_id":"levelo_inurba_marseille","lat":43.31758,"lon":5.39017,"is_reserved":false,"is_disabled":false,"rental_uris":{"android":"levelo://app?vid=26ff9772-7999-47f8-b30d-e8a6c19e273d","ios":"levelo://app?vid=26ff9772-7999-47f8-b30d-e8a6c19e273d"},"vehicle_type_id":"4","last_reported":1711649368,"current_range_meters":18800,"station_id":"ce4bhqp2rcd13ifvqhng","pricing_plan_id":"cebpf4jnsgd1na2vs0mg"},{"bike_id":"ae27ded8-ead6-4dc4-8155-68bebdee1bf1","system_id":"levelo_inurba_marseille","lat":43.31759,"lon":5.39017,"is_reserved":false,"is_disabled":false,"rental_uris":{"android":"levelo://app?vid=ae27ded8-ead6-4dc4-8155-68bebdee1bf1","ios":"levelo://app?vid=ae27ded8-ead6-4dc4-8155-68bebdee1bf1"},"vehicle_type_id":"4","last_reported":1711649368,"current_range_meters":4800,"station_id":"ce4bhqp2rcd13ifvqhng","pricing_plan_id":"cebpf4jnsgd1na2vs0mg"},{"bike_id":"63d7e23f-6216-414f-8d05-021df6249fa9","system_id":"levelo_inurba_marseille","lat":43.317623,"lon":5.390167,"is_reserved":false,"is_disabled":false,"rental_uris":{"android":"levelo://app?vid=63d7e23f-6216-414f-8d05-021df6249fa9","ios":"levelo://app?vid=63d7e23f-6216-414f-8d05-021df6249fa9"},"vehicle_type_id":"4","last_reported":1711649368,"current_range_meters":18400,"station_id":"ce4bhqp2rcd13ifvqhng","pricing_plan_id":"cebpf4jnsgd1na2vs0mg"},{"bike_id":"f9e26199-094c-4b06-b0ad-4be1a38ed7be","system_id":"levelo_inurba_marseille","lat":43.31757,"lon":5.3902,"is_reserved":false,"is_disabled":false,"rental_uris":{"android":"levelo://app?vid=f9e26199-094c-4b06-b0ad-4be1a38ed7be","ios":"levelo://app?vid=f9e26199-094c-4b06-b0ad-4be1a38ed7be"},"vehicle_type_id":"4","last_reported":1711649368,"current_range_meters":16000,"station_id":"ce4bhqp2rcd13ifvqhng","pricing_plan_id":"cebpf4jnsgd1na2vs0mg"},{"bike_id":"e4042505-b127-4f06-bb1e-39cb28acf2ea","system_id":"levelo_inurba_marseille","lat":43.3176,"lon":5.39021,"is_reserved":false,"is_disabled":false,"rental_uris":{"android":"levelo://app?vid=e4042505-b127-4f06-bb1e-39cb28acf2ea","ios":"levelo://app?vid=e4042505-b127-4f06-bb1e-39cb28acf2ea"},"vehicle_type_id":"4","last_reported":1711649368,"current_range_meters":6800,"station_id":"ce4bhqp2rcd13ifvqhng","pricing_plan_id":"cebpf4jnsgd1na2vs0mg"},{"bike_id":"6eae7506-b4c5-4f63-9f99-57aa4358f341","system_id":"levelo_inurba_marseille","lat":43.3176,"lon":5.39021,"is_reserved":false,"is_disabled":false,"rental_uris":{"android":"levelo://app?vid=6eae7506-b4c5-4f63-9f99-57aa4358f341","ios":"levelo://app?vid=6eae7506-b4c5-4f63-9f99-57aa4358f341"},"vehicle_type_id":"4","last_reported":1711649368,"current_range_meters":0,"station_id":"","pricing_plan_id":"cebpf4jnsgd1na2vs0mg"},{"bike_id":"1954028a-6eed-49c2-af3c-6304f18a142d","system_id":"levelo_inurba_marseille","lat":43.30427,"lon":5.38879,"is_reserved":false,"is_disabled":false,"rental_uris":{"android":"levelo://app?vid=1954028a-6eed-49c2-af3c-6304f18a142d","ios":"levelo://app?vid=1954028a-6eed-49c2-af3c-6304f18a142d"},"vehicle_type_id":"4","last_reported":1711649368,"current_range_meters":0,"station_id":"ce4bgk12rcd13ifvqbi0","pricing_plan_id":"cebpf4jnsgd1na2vs0mg"},{"bike_id":"85722d89-1d99-411e-86aa-6d83f530f1c7","system_id":"levelo_inurba_marseille","lat":43.304274,"lon":5.388873,"is_reserved":false,"is_disabled":false,"rental_uris":{"android":"levelo://app?vid=85722d89-1d99-411e-86aa-6d83f530f1c7","ios":"levelo://app?vid=85722d89-1d99-411e-86aa-6d83f530f1c7"},"vehicle_type_id":"4","last_reported":1711649368,"current_range_meters":28400,"station_id":"ce4bgk12rcd13ifvqbi0","pricing_plan_id":"cebpf4jnsgd1na2vs0mg"},{"bike_id":"82d40c53-e8eb-43aa-bf4e-8213251517f6","system_id":"levelo_inurba_marseille","lat":43.299028,"lon":5.381509,"is_reserved":false,"is_disabled":false,"rental_uris":{"android":"levelo://app?vid=82d40c53-e8eb-43aa-bf4e-8213251517f6","ios":"levelo://app?vid=82d40c53-e8eb-43aa-bf4e-8213251517f6"},"vehicle_type_id":"4","last_reported":1711649368,"current_range_meters":28400,"station_id":"ce4bgj12rcd13ifvqbc0","pricing_plan_id":"cebpf4jnsgd1na2vs0mg"},{"bike_id":"9dc972fa-a0bf-423c-ab4c-6ba8925ad515","system_id":"levelo_inurba_marseille","lat":43.298037,"lon":5.381066,"is_reserved":false,"is_disabled":false,"rental_uris":{"android":"levelo://app?vid=9dc972fa-a0bf-423c-ab4c-6ba8925ad515","ios":"levelo://app?vid=9dc972fa-a0bf-423c-ab4c-6ba8925ad515"},"vehicle_type_id":"4","last_reported":1711649368,"current_range_meters":18000,"station_id":"ce4bgip2rcd13ifvqbb0","pricing_plan_id":"cebpf4jnsgd1na2vs0mg"},{"bike_id":"b55982cb-a125-4570-860a-93c2fc9c05a3","system_id":"levelo_inurba_marseille","lat":43.29601,"lon":5.37723,"is_reserved":false,"is_disabled":false,"rental_uris":{"android":"levelo://app?vid=b55982cb-a125-4570-860a-93c2fc9c05a3","ios":"levelo://app?vid=b55982cb-a125-4570-860a-93c2fc9c05a3"},"vehicle_type_id":"4","last_reported":1711649368,"current_range_meters":0,"station_id":"ce4bgi92rcd13ifvqb90","pricing_plan_id":"cebpf4jnsgd1na2vs0mg"},{"bike_id":"71488dd7-ac56-4474-8089-06df5fc39ad0","system_id":"levelo_inurba_marseille","lat":43.299707,"lon":5.384859,"is_reserved":false,"is_disabled":false,"rental_uris":{"android":"levelo://app?vid=71488dd7-ac56-4474-8089-06df5fc39ad0","ios":"levelo://app?vid=71488dd7-ac56-4474-8089-06df5fc39ad0"},"vehicle_type_id":"4","last_reported":1711649368,"current_range_meters":9200,"station_id":"ce4bgj92rcd13ifvqbd0","pricing_plan_id":"cebpf4jnsgd1na2vs0mg"},{"bike_id":"1be6c460-2040-4998-b9c7-5e71bfd6744b","system_id":"levelo_inurba_marseille","lat":43.298037,"lon":5.381066,"is_reserved":false,"is_disabled":false,"rental_uris":{"android":"levelo://app?vid=1be6c460-2040-4998-b9c7-5e71bfd6744b","ios":"levelo://app?vid=1be6c460-2040-4998-b9c7-5e71bfd6744b"},"vehicle_type_id":"4","last_reported":1711649368,"current_range_meters":10000,"station_id":"ce4bgip2rcd13ifvqbb0","pricing_plan_id":"cebpf4jnsgd1na2vs0mg"},{"bike_id":"3657d321-fc2d-44ba-87fb-0ab85372e1ad","system_id":"levelo_inurba_marseille","lat":43.29589,"lon":5.37719,"is_reserved":false,"is_disabled":false,"rental_uris":{"android":"levelo://app?vid=3657d321-fc2d-44ba-87fb-0ab85372e1ad","ios":"levelo://app?vid=3657d321-fc2d-44ba-87fb-0ab85372e1ad"},"vehicle_type_id":"4","last_reported":1711649368,"current_range_meters":14000,"station_id":"ce4bgi92rcd13ifvqb90","pricing_plan_id":"cebpf4jnsgd1na2vs0mg"},{"bike_id":"cf030bd4-4040-4d45-9112-b0bc17746e95","system_id":"levelo_inurba_marseille","lat":43.295279,"lon":5.375048,"is_reserved":false,"is_disabled":false,"rental_uris":{"android":"levelo://app?vid=cf030bd4-4040-4d45-9112-b0bc17746e95","ios":"levelo://app?vid=cf030bd4-4040-4d45-9112-b0bc17746e95"},"vehicle_type_id":"4","last_reported":1711649368,"current_range_meters":0,"station_id":"ce4bgkp2rcd13ifvqbmg","pricing_plan_id":"cebpf4jnsgd1na2vs0mg"},{"bike_id":"15f933f1-f946-47d9-bdbd-51c605f1a3ed","system_id":"levelo_inurba_marseille","lat":43.295468,"lon":5.375849,"is_reserved":false,"is_disabled":false,"rental_uris":{"android":"levelo://app?vid=15f933f1-f946-47d9-bdbd-51c605f1a3ed","ios":"levelo://app?vid=15f933f1-f946-47d9-bdbd-51c605f1a3ed"},"vehicle_type_id":"4","last_reported":1711649368,"current_range_meters":8400,"station_id":"ce4bgkh2rcd13ifvqbl0","pricing_plan_id":"cebpf4jnsgd1na2vs0mg"},{"bike_id":"c992edc8-b6bc-4a13-ba24-0362b4d6ff10","system_id":"levelo_inurba_marseille","lat":43.292644,"lon":5.384257,"is_reserved":false,"is_disabled":false,"rental_uris":{"android":"levelo://app?vid=c992edc8-b6bc-4a13-ba24-0362b4d6ff10","ios":"levelo://app?vid=c992edc8-b6bc-4a13-ba24-0362b4d6ff10"},"vehicle_type_id":"4","last_reported":1711649368,"current_range_meters":0,"station_id":"ce4bh692rcd13ifvqea0","pricing_plan_id":"cebpf4jnsgd1na2vs0mg"},{"bike_id":"d15381f7-6688-4bf6-87c1-20054670f7ae","system_id":"levelo_inurba_marseille","lat":43.296498,"lon":5.379928,"is_reserved":false,"is_disabled":false,"rental_uris":{"android":"levelo://app?vid=d15381f7-6688-4bf6-87c1-20054670f7ae","ios":"levelo://app?vid=d15381f7-6688-4bf6-87c1-20054670f7ae"},"vehicle_type_id":"4","last_reported":1711649368,"current_range_meters":1600,"station_id":"","pricing_plan_id":"cebpf4jnsgd1na2vs0mg"},{"bike_id":"4bee18e0-ec50-4f46-991e-89940fe07714","system_id":"levelo_inurba_marseille","lat":43.32367,"lon":5.388836,"is_reserved":false,"is_disabled":false,"rental_uris":{"android":"levelo://app?vid=4bee18e0-ec50-4f46-991e-89940fe07714","ios":"levelo://app?vid=4bee18e0-ec50-4f46-991e-89940fe07714"},"vehicle_type_id":"4","last_reported":1711649368,"current_range_meters":8800,"station_id":"ce4bhqp2rcd13ifvqhog","pricing_plan_id":"cebpf4jnsgd1na2vs0mg"},{"bike_id":"f4f06a98-fad7-4671-b11e-16c23a8e2b3d","system_id":"levelo_inurba_marseille","lat":43.32367,"lon":5.388836,"is_reserved":false,"is_disabled":false,"rental_uris":{"android":"levelo://app?vid=f4f06a98-fad7-4671-b11e-16c23a8e2b3d","ios":"levelo://app?vid=f4f06a98-fad7-4671-b11e-16c23a8e2b3d"},"vehicle_type_id":"4","last_reported":1711649368,"current_range_meters":12400,"station_id":"ce4bhqp2rcd13ifvqhog","pricing_plan_id":"cebpf4jnsgd1na2vs0mg"},{"bike_id":"0f7ef33e-5eca-44d4-b2c4-7b7101508861","system_id":"levelo_inurba_marseille","lat":43.294072,"lon":5.374105,"is_reserved":false,"is_disabled":false,"rental_uris":{"android":"levelo://app?vid=0f7ef33e-5eca-44d4-b2c4-7b7101508861","ios":"levelo://app?vid=0f7ef33e-5eca-44d4-b2c4-7b7101508861"},"vehicle_type_id":"4","last_reported":1711649368,"current_range_meters":26800,"station_id":"","pricing_plan_id":"cebpf4jnsgd1na2vs0mg"},{"bike_id":"1458ec21-c253-4301-b659-c07adde33d68","system_id":"levelo_inurba_marseille","lat":43.29294,"lon":5.3685,"is_reserved":false,"is_disabled":false,"rental_uris":{"android":"levelo://app?vid=1458ec21-c253-4301-b659-c07adde33d68","ios":"levelo://app?vid=1458ec21-c253-4301-b659-c07adde33d68"},"vehicle_type_id":"4","last_reported":1711649368,"current_range_meters":14800,"station_id":"ce4bhbp2rcd13ifvqesg","pricing_plan_id":"cebpf4jnsgd1na2vs0mg"},{"bike_id":"e254f5d5-cc88-40cb-b95f-ae483630a116","system_id":"levelo_inurba_marseille","lat":43.292749,"lon":5.368402,"is_reserved":false,"is_disabled":false,"rental_uris":{"android":"levelo://app?vid=e254f5d5-cc88-40cb-b95f-ae483630a116","ios":"levelo://app?vid=e254f5d5-cc88-40cb-b95f-ae483630a116"},"vehicle_type_id":"4","last_reported":1711649368,"current_range_meters":0,"station_id":"ce4bhbp2rcd13ifvqesg","pricing_plan_id":"cebpf4jnsgd1na2vs0mg"},{"bike_id":"d87f553e-6038-46f2-bacb-50c95f0c15a2","system_id":"levelo_inurba_marseille","lat":43.292749,"lon":5.368402,"is_reserved":false,"is_disabled":false,"rental_uris":{"android":"levelo://app?vid=d87f553e-6038-46f2-bacb-50c95f0c15a2","ios":"levelo://app?vid=d87f553e-6038-46f2-bacb-50c95f0c15a2"},"vehicle_type_id":"4","last_reported":1711649368,"current_range_meters":10400,"station_id":"ce4bhbp2rcd13ifvqesg","pricing_plan_id":"cebpf4jnsgd1na2vs0mg"},{"bike_id":"61df8ce3-a5e3-437b-91e6-0231824ce0ba","system_id":"levelo_inurba_marseille","lat":43.293249,"lon":5.371578,"is_reserved":false,"is_disabled":false,"rental_uris":{"android":"levelo://app?vid=61df8ce3-a5e3-437b-91e6-0231824ce0ba","ios":"levelo://app?vid=61df8ce3-a5e3-437b-91e6-0231824ce0ba"},"vehicle_type_id":"4","last_reported":1711649368,"current_range_meters":9600,"station_id":"ce4bgh92rcd13ifvqb40","pricing_plan_id":"cebpf4jnsgd1na2vs0mg"},{"bike_id":"302ba38c-437b-4f10-833b-bacf3aa8eb0b","system_id":"levelo_inurba_marseille","lat":43.292706,"lon":5.368134,"is_reserved":false,"is_disabled":false,"rental_uris":{"android":"levelo://app?vid=302ba38c-437b-4f10-833b-bacf3aa8eb0b","ios":"levelo://app?vid=302ba38c-437b-4f10-833b-bacf3aa8eb0b"},"vehicle_type_id":"4","last_reported":1711649368,"current_range_meters":26800,"station_id":"ce4bhbp2rcd13ifvqesg","pricing_plan_id":"cebpf4jnsgd1na2vs0mg"},{"bike_id":"0ca39299-9454-4ac1-b89f-cbe29ce92524","system_id":"levelo_inurba_marseille","lat":43.305994,"lon":5.393687,"is_reserved":false,"is_disabled":false,"rental_uris":{"android":"levelo://app?vid=0ca39299-9454-4ac1-b89f-cbe29ce92524","ios":"levelo://app?vid=0ca39299-9454-4ac1-b89f-cbe29ce92524"},"vehicle_type_id":"4","last_reported":1711649368,"current_range_meters":8000,"station_id":"ce4bh0p2rcd13ifvqd80","pricing_plan_id":"cebpf4jnsgd1na2vs0mg"},{"bike_id":"f33f8e06-735f-4f5f-adbb-3fd35b0cc087","system_id":"levelo_inurba_marseille","lat":43.305994,"lon":5.393687,"is_reserved":false,"is_disabled":false,"rental_uris":{"android":"levelo://app?vid=f33f8e06-735f-4f5f-adbb-3fd35b0cc087","ios":"levelo://app?vid=f33f8e06-735f-4f5f-adbb-3fd35b0cc087"},"vehicle_type_id":"4","last_reported":1711649368,"current_range_meters":0,"station_id":"ce4bh0p2rcd13ifvqd80","pricing_plan_id":"cebpf4jnsgd1na2vs0mg"},{"bike_id":"6b5a66c2-f336-4eb3-877b-848802fd2669","system_id":"levelo_inurba_marseille","lat":43.293009,"lon":5.374584,"is_reserved":false,"is_disabled":false,"rental_uris":{"android":"levelo://app?vid=6b5a66c2-f336-4eb3-877b-848802fd2669","ios":"levelo://app?vid=6b5a66c2-f336-4eb3-877b-848802fd2669"},"vehicle_type_id":"4","last_reported":1711649368,"current_range_meters":11600,"station_id":"ce4bgi12rcd13ifvqb70","pricing_plan_id":"cebpf4jnsgd1na2vs0mg"},{"bike_id":"b0fb44c3-50f9-4c4f-9f93-e386ad8ea9ec","system_id":"levelo_inurba_marseille","lat":43.305994,"lon":5.393687,"is_reserved":false,"is_disabled":false,"rental_uris":{"android":"levelo://app?vid=b0fb44c3-50f9-4c4f-9f93-e386ad8ea9ec","ios":"levelo://app?vid=b0fb44c3-50f9-4c4f-9f93-e386ad8ea9ec"},"vehicle_type_id":"4","last_reported":1711649368,"current_range_meters":2000,"station_id":"ce4bh0p2rcd13ifvqd80","pricing_plan_id":"cebpf4jnsgd1na2vs0mg"},{"bike_id":"642ae8f7-92f2-4071-a79c-6a7629f52ebb","system_id":"levelo_inurba_marseille","lat":43.302992,"lon":5.392136,"is_reserved":false,"is_disabled":false,"rental_uris":{"android":"levelo://app?vid=642ae8f7-92f2-4071-a79c-6a7629f52ebb","ios":"levelo://app?vid=642ae8f7-92f2-4071-a79c-6a7629f52ebb"},"vehicle_type_id":"4","last_reported":1711649368,"current_range_meters":5600,"station_id":"ce4bgkh2rcd13ifvqbk0","pricing_plan_id":"cebpf4jnsgd1na2vs0mg"},{"bike_id":"82b190b1-7647-4079-a6f5-821f0e73d22a","system_id":"levelo_inurba_marseille","lat":43.302992,"lon":5.392136,"is_reserved":false,"is_disabled":false,"rental_uris":{"android":"levelo://app?vid=82b190b1-7647-4079-a6f5-821f0e73d22a","ios":"levelo://app?vid=82b190b1-7647-4079-a6f5-821f0e73d22a"},"vehicle_type_id":"4","last_reported":1711649368,"current_range_meters":17200,"station_id":"ce4bgkh2rcd13ifvqbk0","pricing_plan_id":"cebpf4jnsgd1na2vs0mg"},{"bike_id":"37990e8a-1daa-44b1-944f-f7ffdc4f467e","system_id":"levelo_inurba_marseille","lat":43.30085,"lon":5.390856,"is_reserved":false,"is_disabled":false,"rental_uris":{"android":"levelo://app?vid=37990e8a-1daa-44b1-944f-f7ffdc4f467e","ios":"levelo://app?vid=37990e8a-1daa-44b1-944f-f7ffdc4f467e"},"vehicle_type_id":"4","last_reported":1711649368,"current_range_meters":5200,"station_id":"ce4bh192rcd13ifvqdb0","pricing_plan_id":"cebpf4jnsgd1na2vs0mg"},{"bike_id":"3c772159-ed05-4396-adcb-30a7ee0475d0","system_id":"levelo_inurba_marseille","lat":43.292311,"lon":5.360731,"is_reserved":false,"is_disabled":false,"rental_uris":{"android":"levelo://app?vid=3c772159-ed05-4396-adcb-30a7ee0475d0","ios":"levelo://app?vid=3c772159-ed05-4396-adcb-30a7ee0475d0"},"vehicle_type_id":"4","last_reported":1711649368,"current_range_meters":0,"station_id":"ce4bhbh2rcd13ifvqeqg","pricing_plan_id":"cebpf4jnsgd1na2vs0mg"},{"bike_id":"28f8513b-5fdf-499b-bb7a-5cea095a336f","system_id":"levelo_inurba_marseille","lat":43.298764,"lon":5.388973,"is_reserved":false,"is_disabled":false,"rental_uris":{"android":"levelo://app?vid=28f8513b-5fdf-499b-bb7a-5cea095a336f","ios":"levelo://app?vid=28f8513b-5fdf-499b-bb7a-5cea095a336f"},"vehicle_type_id":"4","last_reported":1711649368,"current_range_meters":0,"station_id":"ce4bh392rcd13ifvqdl0","pricing_plan_id":"cebpf4jnsgd1na2vs0mg"},{"bike_id":"df8a8443-01ed-49cf-b52c-2ea542418ea7","system_id":"levelo_inurba_marseille","lat":43.295169,"lon":5.390426,"is_reserved":false,"is_disabled":false,"rental_uris":{"android":"levelo://app?vid=df8a8443-01ed-49cf-b52c-2ea542418ea7","ios":"levelo://app?vid=df8a8443-01ed-49cf-b52c-2ea542418ea7"},"vehicle_type_id":"4","last_reported":1711649368,"current_range_meters":14000,"station_id":"ce4bh3p2rcd13ifvqdp0","pricing_plan_id":"cebpf4jnsgd1na2vs0mg"},{"bike_id":"cc82c866-fde3-4f70-8bcf-d476e3fc9c83","system_id":"levelo_inurba_marseille","lat":43.291671,"lon":5.371575,"is_reserved":false,"is_disabled":false,"rental_uris":{"android":"levelo://app?vid=cc82c866-fde3-4f70-8bcf-d476e3fc9c83","ios":"levelo://app?vid=cc82c866-fde3-4f70-8bcf-d476e3fc9c83"},"vehicle_type_id":"4","last_reported":1711649368,"current_range_meters":7600,"station_id":"ce4bha92rcd13ifvqeh0","pricing_plan_id":"cebpf4jnsgd1na2vs0mg"},{"bike_id":"a745db81-3c76-4fb0-b1bd-64f4db34ab4f","system_id":"levelo_inurba_marseille","lat":43.300852,"lon":5.390859,"is_reserved":false,"is_disabled":false,"rental_uris":{"android":"levelo://app?vid=a745db81-3c76-4fb0-b1bd-64f4db34ab4f","ios":"levelo://app?vid=a745db81-3c76-4fb0-b1bd-64f4db34ab4f"},"vehicle_type_id":"4","last_reported":1711649368,"current_range_meters":7200,"station_id":"ce4bh192rcd13ifvqdb0","pricing_plan_id":"cebpf4jnsgd1na2vs0mg"},{"bike_id":"6e16cc71-897d-4055-8e16-9b2850d3b724","system_id":"levelo_inurba_marseille","lat":43.29219,"lon":5.36057,"is_reserved":false,"is_disabled":false,"rental_uris":{"android":"levelo://app?vid=6e16cc71-897d-4055-8e16-9b2850d3b724","ios":"levelo://app?vid=6e16cc71-897d-4055-8e16-9b2850d3b724"},"vehicle_type_id":"4","last_reported":1711649368,"current_range_meters":0,"station_id":"ce4bhbh2rcd13ifvqeqg","pricing_plan_id":"cebpf4jnsgd1na2vs0mg"},{"bike_id":"44a67c2a-3f3f-4a57-874d-36bacc2ba79a","system_id":"levelo_inurba_marseille","lat":43.298764,"lon":5.388973,"is_reserved":false,"is_disabled":false,"rental_uris":{"android":"levelo://app?vid=44a67c2a-3f3f-4a57-874d-36bacc2ba79a","ios":"levelo://app?vid=44a67c2a-3f3f-4a57-874d-36bacc2ba79a"},"vehicle_type_id":"4","last_reported":1711649368,"current_range_meters":9600,"station_id":"ce4bh392rcd13ifvqdl0","pricing_plan_id":"cebpf4jnsgd1na2vs0mg"},{"bike_id":"26226e35-a79d-4e20-a243-fd78ca300135","system_id":"levelo_inurba_marseille","lat":43.291671,"lon":5.371575,"is_reserved":false,"is_disabled":false,"rental_uris":{"android":"levelo://app?vid=26226e35-a79d-4e20-a243-fd78ca300135","ios":"levelo://app?vid=26226e35-a79d-4e20-a243-fd78ca300135"},"vehicle_type_id":"4","last_reported":1711649368,"current_range_meters":0,"station_id":"ce4bha92rcd13ifvqeh0","pricing_plan_id":"cebpf4jnsgd1na2vs0mg"},{"bike_id":"99148dfa-fdc9-41bc-b76b-750aeca24668","system_id":"levelo_inurba_marseille","lat":43.293009,"lon":5.374584,"is_reserved":false,"is_disabled":false,"rental_uris":{"android":"levelo://app?vid=99148dfa-fdc9-41bc-b76b-750aeca24668","ios":"levelo://app?vid=99148dfa-fdc9-41bc-b76b-750aeca24668"},"vehicle_type_id":"4","last_reported":1711649368,"current_range_meters":5200,"station_id":"ce4bgi12rcd13ifvqb70","pricing_plan_id":"cebpf4jnsgd1na2vs0mg"},{"bike_id":"2de27d66-bc37-484a-a357-97eb87f04136","system_id":"levelo_inurba_marseille","lat":43.298764,"lon":5.388973,"is_reserved":false,"is_disabled":false,"rental_uris":{"android":"levelo://app?vid=2de27d66-bc37-484a-a357-97eb87f04136","ios":"levelo://app?vid=2de27d66-bc37-484a-a357-97eb87f04136"},"vehicle_type_id":"4","last_reported":1711649368,"current_range_meters":5600,"station_id":"ce4bh392rcd13ifvqdl0","pricing_plan_id":"cebpf4jnsgd1na2vs0mg"},{"bike_id":"e90a92c6-0ed4-4a64-9109-6dc8b7775307","system_id":"levelo_inurba_marseille","lat":43.291675,"lon":5.371583,"is_reserved":false,"is_disabled":false,"rental_uris":{"android":"levelo://app?vid=e90a92c6-0ed4-4a64-9109-6dc8b7775307","ios":"levelo://app?vid=e90a92c6-0ed4-4a64-9109-6dc8b7775307"},"vehicle_type_id":"4","last_reported":1711649368,"current_range_meters":20000,"station_id":"ce4bha92rcd13ifvqeh0","pricing_plan_id":"cebpf4jnsgd1na2vs0mg"},{"bike_id":"b4664926-9e48-459f-8ffe-e03bd5ed45c5","system_id":"levelo_inurba_marseille","lat":43.298764,"lon":5.388973,"is_reserved":false,"is_disabled":false,"rental_uris":{"android":"levelo://app?vid=b4664926-9e48-459f-8ffe-e03bd5ed45c5","ios":"levelo://app?vid=b4664926-9e48-459f-8ffe-e03bd5ed45c5"},"vehicle_type_id":"4","last_reported":1711649368,"current_range_meters":15200,"station_id":"ce4bh392rcd13ifvqdl0","pricing_plan_id":"cebpf4jnsgd1na2vs0mg"},{"bike_id":"8f77174a-56ac-485c-b809-d85dde86205a","system_id":"levelo_inurba_marseille","lat":43.29873,"lon":5.38906,"is_reserved":false,"is_disabled":false,"rental_uris":{"android":"levelo://app?vid=8f77174a-56ac-485c-b809-d85dde86205a","ios":"levelo://app?vid=8f77174a-56ac-485c-b809-d85dde86205a"},"vehicle_type_id":"4","last_reported":1711649368,"current_range_meters":0,"station_id":"","pricing_plan_id":"cebpf4jnsgd1na2vs0mg"},{"bike_id":"a27f0afc-fc80-4719-9e5a-e9ef6860ee2f","system_id":"levelo_inurba_marseille","lat":43.291671,"lon":5.371575,"is_reserved":false,"is_disabled":false,"rental_uris":{"android":"levelo://app?vid=a27f0afc-fc80-4719-9e5a-e9ef6860ee2f","ios":"levelo://app?vid=a27f0afc-fc80-4719-9e5a-e9ef6860ee2f"},"vehicle_type_id":"4","last_reported":1711649368,"current_range_meters":4400,"station_id":"ce4bha92rcd13ifvqeh0","pricing_plan_id":"cebpf4jnsgd1na2vs0mg"},{"bike_id":"5eccb71b-035d-4d7c-97f4-ec07bb9fcb17","system_id":"levelo_inurba_marseille","lat":43.29198,"lon":5.35811,"is_reserved":false,"is_disabled":false,"rental_uris":{"android":"levelo://app?vid=5eccb71b-035d-4d7c-97f4-ec07bb9fcb17","ios":"levelo://app?vid=5eccb71b-035d-4d7c-97f4-ec07bb9fcb17"},"vehicle_type_id":"4","last_reported":1711649368,"current_range_meters":20000,"station_id":"ce4bhb12rcd13ifvqel0","pricing_plan_id":"cebpf4jnsgd1na2vs0mg"},{"bike_id":"e1d63fa1-94bd-432f-9d31-9b7d48a72927","system_id":"levelo_inurba_marseille","lat":43.313291,"lon":5.396838,"is_reserved":false,"is_disabled":false,"rental_uris":{"android":"levelo://app?vid=e1d63fa1-94bd-432f-9d31-9b7d48a72927","ios":"levelo://app?vid=e1d63fa1-94bd-432f-9d31-9b7d48a72927"},"vehicle_type_id":"4","last_reported":1711649368,"current_range_meters":19600,"station_id":"ce4bgvp2rcd13ifvqcu0","pricing_plan_id":"cebpf4jnsgd1na2vs0mg"},{"bike_id":"c4a1ba26-3bfd-476a-9f27-4b07557da504","system_id":"levelo_inurba_marseille","lat":43.308927,"lon":5.396367,"is_reserved":false,"is_disabled":false,"rental_uris":{"android":"levelo://app?vid=c4a1ba26-3bfd-476a-9f27-4b07557da504","ios":"levelo://app?vid=c4a1ba26-3bfd-476a-9f27-4b07557da504"},"vehicle_type_id":"4","last_reported":1711649368,"current_range_meters":0,"station_id":"ce4bh012rcd13ifvqcv0","pricing_plan_id":"cebpf4jnsgd1na2vs0mg"},{"bike_id":"e0785e2e-1cda-4c93-be1e-9b07469724ee","system_id":"levelo_inurba_marseille","lat":43.31326,"lon":5.39684,"is_reserved":false,"is_disabled":false,"rental_uris":{"android":"levelo://app?vid=e0785e2e-1cda-4c93-be1e-9b07469724ee","ios":"levelo://app?vid=e0785e2e-1cda-4c93-be1e-9b07469724ee"},"vehicle_type_id":"4","last_reported":1711649368,"current_range_meters":26000,"station_id":"ce4bgvp2rcd13ifvqcu0","pricing_plan_id":"cebpf4jnsgd1na2vs0mg"},{"bike_id":"1c2f1d0f-f014-46ee-8a6d-7b28e2232510","system_id":"levelo_inurba_marseille","lat":43.291994,"lon":5.357886,"is_reserved":false,"is_disabled":false,"rental_uris":{"android":"levelo://app?vid=1c2f1d0f-f014-46ee-8a6d-7b28e2232510","ios":"levelo://app?vid=1c2f1d0f-f014-46ee-8a6d-7b28e2232510"},"vehicle_type_id":"4","last_reported":1711649368,"current_range_meters":0,"station_id":"ce4bhb12rcd13ifvqel0","pricing_plan_id":"cebpf4jnsgd1na2vs0mg"},{"bike_id":"3fa2267c-8a0f-4c43-abb9-74dcd7f8c975","system_id":"levelo_inurba_marseille","lat":43.291994,"lon":5.357886,"is_reserved":false,"is_disabled":false,"rental_uris":{"android":"levelo://app?vid=3fa2267c-8a0f-4c43-abb9-74dcd7f8c975","ios":"levelo://app?vid=3fa2267c-8a0f-4c43-abb9-74dcd7f8c975"},"vehicle_type_id":"4","last_reported":1711649368,"current_range_meters":24400,"station_id":"ce4bhb12rcd13ifvqel0","pricing_plan_id":"cebpf4jnsgd1na2vs0mg"},{"bike_id":"c80d137b-de25-4e57-a375-6e5e78976a48","system_id":"levelo_inurba_marseille","lat":43.309047,"lon":5.396551,"is_reserved":false,"is_disabled":false,"rental_uris":{"android":"levelo://app?vid=c80d137b-de25-4e57-a375-6e5e78976a48","ios":"levelo://app?vid=c80d137b-de25-4e57-a375-6e5e78976a48"},"vehicle_type_id":"4","last_reported":1711649368,"current_range_meters":4000,"station_id":"ce4bh012rcd13ifvqcv0","pricing_plan_id":"cebpf4jnsgd1na2vs0mg"},{"bike_id":"8e5f6abb-9b60-4bc9-844c-6d6e5d5964b9","system_id":"levelo_inurba_marseille","lat":43.313291,"lon":5.396838,"is_reserved":false,"is_disabled":false,"rental_uris":{"android":"levelo://app?vid=8e5f6abb-9b60-4bc9-844c-6d6e5d5964b9","ios":"levelo://app?vid=8e5f6abb-9b60-4bc9-844c-6d6e5d5964b9"},"vehicle_type_id":"4","last_reported":1711649368,"current_range_meters":31200,"station_id":"ce4bgvp2rcd13ifvqcu0","pricing_plan_id":"cebpf4jnsgd1na2vs0mg"},{"bike_id":"43864cd7-17dc-4252-877f-f0ce261f6a68","system_id":"levelo_inurba_marseille","lat":43.30879,"lon":5.39639,"is_reserved":false,"is_disabled":false,"rental_uris":{"android":"levelo://app?vid=43864cd7-17dc-4252-877f-f0ce261f6a68","ios":"levelo://app?vid=43864cd7-17dc-4252-877f-f0ce261f6a68"},"vehicle_type_id":"4","last_reported":1711649368,"current_range_meters":0,"station_id":"ce4bh012rcd13ifvqcv0","pricing_plan_id":"cebpf4jnsgd1na2vs0mg"},{"bike_id":"24663d5c-6a02-412d-87d0-b4bbc85977a2","system_id":"levelo_inurba_marseille","lat":43.313291,"lon":5.396838,"is_reserved":false,"is_disabled":false,"rental_uris":{"android":"levelo://app?vid=24663d5c-6a02-412d-87d0-b4bbc85977a2","ios":"levelo://app?vid=24663d5c-6a02-412d-87d0-b4bbc85977a2"},"vehicle_type_id":"4","last_reported":1711649368,"current_range_meters":12000,"station_id":"ce4bgvp2rcd13ifvqcu0","pricing_plan_id":"cebpf4jnsgd1na2vs0mg"},{"bike_id":"82afc1e0-1fe3-4b1c-bcca-3f4f8d64d201","system_id":"levelo_inurba_marseille","lat":43.313291,"lon":5.396838,"is_reserved":false,"is_disabled":false,"rental_uris":{"android":"levelo://app?vid=82afc1e0-1fe3-4b1c-bcca-3f4f8d64d201","ios":"levelo://app?vid=82afc1e0-1fe3-4b1c-bcca-3f4f8d64d201"},"vehicle_type_id":"4","last_reported":1711649368,"current_range_meters":8800,"station_id":"ce4bgvp2rcd13ifvqcu0","pricing_plan_id":"cebpf4jnsgd1na2vs0mg"},{"bike_id":"f1c1b940-8d2f-4e3b-a45d-2bda28f6a9cf","system_id":"levelo_inurba_marseille","lat":43.313291,"lon":5.396838,"is_reserved":false,"is_disabled":false,"rental_uris":{"android":"levelo://app?vid=f1c1b940-8d2f-4e3b-a45d-2bda28f6a9cf","ios":"levelo://app?vid=f1c1b940-8d2f-4e3b-a45d-2bda28f6a9cf"},"vehicle_type_id":"4","last_reported":1711649368,"current_range_meters":1200,"station_id":"ce4bgvp2rcd13ifvqcu0","pricing_plan_id":"cebpf4jnsgd1na2vs0mg"},{"bike_id":"2d7e90e5-0fe5-47d9-b652-74c4ccc28477","system_id":"levelo_inurba_marseille","lat":43.313291,"lon":5.396838,"is_reserved":false,"is_disabled":false,"rental_uris":{"android":"levelo://app?vid=2d7e90e5-0fe5-47d9-b652-74c4ccc28477","ios":"levelo://app?vid=2d7e90e5-0fe5-47d9-b652-74c4ccc28477"},"vehicle_type_id":"4","last_reported":1711649368,"current_range_meters":30800,"station_id":"ce4bgvp2rcd13ifvqcu0","pricing_plan_id":"cebpf4jnsgd1na2vs0mg"},{"bike_id":"1e9c416c-7f76-4e1b-83bc-a15d7846147b","system_id":"levelo_inurba_marseille","lat":43.313291,"lon":5.396838,"is_reserved":false,"is_disabled":false,"rental_uris":{"android":"levelo://app?vid=1e9c416c-7f76-4e1b-83bc-a15d7846147b","ios":"levelo://app?vid=1e9c416c-7f76-4e1b-83bc-a15d7846147b"},"vehicle_type_id":"4","last_reported":1711649368,"current_range_meters":8800,"station_id":"ce4bgvp2rcd13ifvqcu0","pricing_plan_id":"cebpf4jnsgd1na2vs0mg"},{"bike_id":"d12b5af8-5f91-4b32-909c-e51c6d72116d","system_id":"levelo_inurba_marseille","lat":43.313291,"lon":5.396838,"is_reserved":false,"is_disabled":false,"rental_uris":{"android":"levelo://app?vid=d12b5af8-5f91-4b32-909c-e51c6d72116d","ios":"levelo://app?vid=d12b5af8-5f91-4b32-909c-e51c6d72116d"},"vehicle_type_id":"4","last_reported":1711649368,"current_range_meters":13600,"station_id":"ce4bgvp2rcd13ifvqcu0","pricing_plan_id":"cebpf4jnsgd1na2vs0mg"},{"bike_id":"4848517b-9778-4be3-a6bd-4d75a7756f84","system_id":"levelo_inurba_marseille","lat":43.313291,"lon":5.396838,"is_reserved":false,"is_disabled":false,"rental_uris":{"android":"levelo://app?vid=4848517b-9778-4be3-a6bd-4d75a7756f84","ios":"levelo://app?vid=4848517b-9778-4be3-a6bd-4d75a7756f84"},"vehicle_type_id":"4","last_reported":1711649368,"current_range_meters":16000,"station_id":"ce4bgvp2rcd13ifvqcu0","pricing_plan_id":"cebpf4jnsgd1na2vs0mg"},{"bike_id":"d3fbe4d8-af5c-4cb0-bc16-b010f8a46d0e","system_id":"levelo_inurba_marseille","lat":43.313291,"lon":5.396838,"is_reserved":false,"is_disabled":false,"rental_uris":{"android":"levelo://app?vid=d3fbe4d8-af5c-4cb0-bc16-b010f8a46d0e","ios":"levelo://app?vid=d3fbe4d8-af5c-4cb0-bc16-b010f8a46d0e"},"vehicle_type_id":"4","last_reported":1711649368,"current_range_meters":29200,"station_id":"ce4bgvp2rcd13ifvqcu0","pricing_plan_id":"cebpf4jnsgd1na2vs0mg"},{"bike_id":"27e3eb6f-4ebe-4d21-aac5-b2fed37df929","system_id":"levelo_inurba_marseille","lat":43.313291,"lon":5.396838,"is_reserved":false,"is_disabled":false,"rental_uris":{"android":"levelo://app?vid=27e3eb6f-4ebe-4d21-aac5-b2fed37df929","ios":"levelo://app?vid=27e3eb6f-4ebe-4d21-aac5-b2fed37df929"},"vehicle_type_id":"4","last_reported":1711649368,"current_range_meters":19600,"station_id":"ce4bgvp2rcd13ifvqcu0","pricing_plan_id":"cebpf4jnsgd1na2vs0mg"},{"bike_id":"176a45b0-15ed-4097-87b5-fe0a76ff74fe","system_id":"levelo_inurba_marseille","lat":43.313291,"lon":5.396838,"is_reserved":false,"is_disabled":false,"rental_uris":{"android":"levelo://app?vid=176a45b0-15ed-4097-87b5-fe0a76ff74fe","ios":"levelo://app?vid=176a45b0-15ed-4097-87b5-fe0a76ff74fe"},"vehicle_type_id":"4","last_reported":1711649368,"current_range_meters":4000,"station_id":"ce4bgvp2rcd13ifvqcu0","pricing_plan_id":"cebpf4jnsgd1na2vs0mg"},{"bike_id":"7a59bc2c-31aa-4162-9b9d-406f79a7d201","system_id":"levelo_inurba_marseille","lat":43.309038,"lon":5.396546,"is_reserved":false,"is_disabled":false,"rental_uris":{"android":"levelo://app?vid=7a59bc2c-31aa-4162-9b9d-406f79a7d201","ios":"levelo://app?vid=7a59bc2c-31aa-4162-9b9d-406f79a7d201"},"vehicle_type_id":"4","last_reported":1711649368,"current_range_meters":6000,"station_id":"ce4bh012rcd13ifvqcv0","pricing_plan_id":"cebpf4jnsgd1na2vs0mg"},{"bike_id":"e84b11e6-020d-41b1-b1ca-7ef6662b86e9","system_id":"levelo_inurba_marseille","lat":43.313291,"lon":5.396838,"is_reserved":false,"is_disabled":false,"rental_uris":{"android":"levelo://app?vid=e84b11e6-020d-41b1-b1ca-7ef6662b86e9","ios":"levelo://app?vid=e84b11e6-020d-41b1-b1ca-7ef6662b86e9"},"vehicle_type_id":"4","last_reported":1711649368,"current_range_meters":4400,"station_id":"ce4bgvp2rcd13ifvqcu0","pricing_plan_id":"cebpf4jnsgd1na2vs0mg"},{"bike_id":"1ee17a16-1b29-4b57-a169-5158e3d1622d","system_id":"levelo_inurba_marseille","lat":43.313291,"lon":5.396838,"is_reserved":false,"is_disabled":false,"rental_uris":{"android":"levelo://app?vid=1ee17a16-1b29-4b57-a169-5158e3d1622d","ios":"levelo://app?vid=1ee17a16-1b29-4b57-a169-5158e3d1622d"},"vehicle_type_id":"4","last_reported":1711649368,"current_range_meters":20000,"station_id":"ce4bgvp2rcd13ifvqcu0","pricing_plan_id":"cebpf4jnsgd1na2vs0mg"},{"bike_id":"e458e35f-b5ed-484c-a026-f9fa6aa76987","system_id":"levelo_inurba_marseille","lat":43.313291,"lon":5.396838,"is_reserved":false,"is_disabled":false,"rental_uris":{"android":"levelo://app?vid=e458e35f-b5ed-484c-a026-f9fa6aa76987","ios":"levelo://app?vid=e458e35f-b5ed-484c-a026-f9fa6aa76987"},"vehicle_type_id":"4","last_reported":1711649368,"current_range_meters":31200,"station_id":"ce4bgvp2rcd13ifvqcu0","pricing_plan_id":"cebpf4jnsgd1na2vs0mg"},{"bike_id":"b0d37129-d032-4a6b-8f01-35efe7762cfb","system_id":"levelo_inurba_marseille","lat":43.291994,"lon":5.357886,"is_reserved":false,"is_disabled":false,"rental_uris":{"android":"levelo://app?vid=b0d37129-d032-4a6b-8f01-35efe7762cfb","ios":"levelo://app?vid=b0d37129-d032-4a6b-8f01-35efe7762cfb"},"vehicle_type_id":"4","last_reported":1711649368,"current_range_meters":28000,"station_id":"ce4bhb12rcd13ifvqel0","pricing_plan_id":"cebpf4jnsgd1na2vs0mg"},{"bike_id":"64d1587d-c408-4a62-912a-cc8295767d48","system_id":"levelo_inurba_marseille","lat":43.313291,"lon":5.396838,"is_reserved":false,"is_disabled":false,"rental_uris":{"android":"levelo://app?vid=64d1587d-c408-4a62-912a-cc8295767d48","ios":"levelo://app?vid=64d1587d-c408-4a62-912a-cc8295767d48"},"vehicle_type_id":"4","last_reported":1711649368,"current_range_meters":0,"station_id":"ce4bgvp2rcd13ifvqcu0","pricing_plan_id":"cebpf4jnsgd1na2vs0mg"},{"bike_id":"01e2c699-2cdc-4ffd-96b8-fb83dc128391","system_id":"levelo_inurba_marseille","lat":43.309047,"lon":5.396551,"is_reserved":false,"is_disabled":false,"rental_uris":{"android":"levelo://app?vid=01e2c699-2cdc-4ffd-96b8-fb83dc128391","ios":"levelo://app?vid=01e2c699-2cdc-4ffd-96b8-fb83dc128391"},"vehicle_type_id":"4","last_reported":1711649368,"current_range_meters":19600,"station_id":"ce4bh012rcd13ifvqcv0","pricing_plan_id":"cebpf4jnsgd1na2vs0mg"},{"bike_id":"5121a31f-77a4-436b-ba23-ba4f53f698c1","system_id":"levelo_inurba_marseille","lat":43.29536,"lon":5.38535,"is_reserved":false,"is_disabled":false,"rental_uris":{"android":"levelo://app?vid=5121a31f-77a4-436b-ba23-ba4f53f698c1","ios":"levelo://app?vid=5121a31f-77a4-436b-ba23-ba4f53f698c1"},"vehicle_type_id":"4","last_reported":1711649368,"current_range_meters":0,"station_id":"ce4bgih2rcd13ifvqba0","pricing_plan_id":"cebpf4jnsgd1na2vs0mg"},{"bike_id":"e63659d9-07ae-4fbd-9149-0569714bd3c9","system_id":"levelo_inurba_marseille","lat":43.29529,"lon":5.385581,"is_reserved":false,"is_disabled":false,"rental_uris":{"android":"levelo://app?vid=e63659d9-07ae-4fbd-9149-0569714bd3c9","ios":"levelo://app?vid=e63659d9-07ae-4fbd-9149-0569714bd3c9"},"vehicle_type_id":"4","last_reported":1711649368,"current_range_meters":31200,"station_id":"ce4bgih2rcd13ifvqba0","pricing_plan_id":"cebpf4jnsgd1na2vs0mg"},{"bike_id":"b8ce6a77-f3ba-473b-9336-23a000eb269b","system_id":"levelo_inurba_marseille","lat":43.29529,"lon":5.385581,"is_reserved":false,"is_disabled":false,"rental_uris":{"android":"levelo://app?vid=b8ce6a77-f3ba-473b-9336-23a000eb269b","ios":"levelo://app?vid=b8ce6a77-f3ba-473b-9336-23a000eb269b"},"vehicle_type_id":"4","last_reported":1711649368,"current_range_meters":7200,"station_id":"ce4bgih2rcd13ifvqba0","pricing_plan_id":"cebpf4jnsgd1na2vs0mg"},{"bike_id":"8c32e151-696d-4044-90e1-d649a548658b","system_id":"levelo_inurba_marseille","lat":43.29529,"lon":5.385581,"is_reserved":false,"is_disabled":false,"rental_uris":{"android":"levelo://app?vid=8c32e151-696d-4044-90e1-d649a548658b","ios":"levelo://app?vid=8c32e151-696d-4044-90e1-d649a548658b"},"vehicle_type_id":"4","last_reported":1711649368,"current_range_meters":6800,"station_id":"ce4bgih2rcd13ifvqba0","pricing_plan_id":"cebpf4jnsgd1na2vs0mg"},{"bike_id":"d2baf0e1-a56f-433f-8f13-40ced34410e7","system_id":"levelo_inurba_marseille","lat":43.29531,"lon":5.38542,"is_reserved":false,"is_disabled":false,"rental_uris":{"android":"levelo://app?vid=d2baf0e1-a56f-433f-8f13-40ced34410e7","ios":"levelo://app?vid=d2baf0e1-a56f-433f-8f13-40ced34410e7"},"vehicle_type_id":"4","last_reported":1711649368,"current_range_meters":0,"station_id":"ce4bgih2rcd13ifvqba0","pricing_plan_id":"cebpf4jnsgd1na2vs0mg"},{"bike_id":"7dca51bd-29f9-42d2-8ddf-1acf631fdf2a","system_id":"levelo_inurba_marseille","lat":43.29529,"lon":5.385581,"is_reserved":false,"is_disabled":false,"rental_uris":{"android":"levelo://app?vid=7dca51bd-29f9-42d2-8ddf-1acf631fdf2a","ios":"levelo://app?vid=7dca51bd-29f9-42d2-8ddf-1acf631fdf2a"},"vehicle_type_id":"4","last_reported":1711649368,"current_range_meters":26000,"station_id":"ce4bgih2rcd13ifvqba0","pricing_plan_id":"cebpf4jnsgd1na2vs0mg"},{"bike_id":"da30c87c-0a5e-41be-a4d4-2bc0731f8552","system_id":"levelo_inurba_marseille","lat":43.29529,"lon":5.38542,"is_reserved":false,"is_disabled":false,"rental_uris":{"android":"levelo://app?vid=da30c87c-0a5e-41be-a4d4-2bc0731f8552","ios":"levelo://app?vid=da30c87c-0a5e-41be-a4d4-2bc0731f8552"},"vehicle_type_id":"4","last_reported":1711649368,"current_range_meters":800,"station_id":"ce4bgih2rcd13ifvqba0","pricing_plan_id":"cebpf4jnsgd1na2vs0mg"},{"bike_id":"dce5a5f6-8a24-40cb-a954-e983ff57d121","system_id":"levelo_inurba_marseille","lat":43.29529,"lon":5.385581,"is_reserved":false,"is_disabled":false,"rental_uris":{"android":"levelo://app?vid=dce5a5f6-8a24-40cb-a954-e983ff57d121","ios":"levelo://app?vid=dce5a5f6-8a24-40cb-a954-e983ff57d121"},"vehicle_type_id":"4","last_reported":1711649368,"current_range_meters":19200,"station_id":"ce4bgih2rcd13ifvqba0","pricing_plan_id":"cebpf4jnsgd1na2vs0mg"},{"bike_id":"553be6ba-c65d-4cef-80a9-9bd5e9dea82e","system_id":"levelo_inurba_marseille","lat":43.328077,"lon":5.388814,"is_reserved":false,"is_disabled":false,"rental_uris":{"android":"levelo://app?vid=553be6ba-c65d-4cef-80a9-9bd5e9dea82e","ios":"levelo://app?vid=553be6ba-c65d-4cef-80a9-9bd5e9dea82e"},"vehicle_type_id":"4","last_reported":1711649368,"current_range_meters":15600,"station_id":"","pricing_plan_id":"cebpf4jnsgd1na2vs0mg"},{"bike_id":"bc5db068-2343-41e4-aec4-e1d1c2cb6894","system_id":"levelo_inurba_marseille","lat":43.290779,"lon":5.371482,"is_reserved":false,"is_disabled":false,"rental_uris":{"android":"levelo://app?vid=bc5db068-2343-41e4-aec4-e1d1c2cb6894","ios":"levelo://app?vid=bc5db068-2343-41e4-aec4-e1d1c2cb6894"},"vehicle_type_id":"4","last_reported":1711649368,"current_range_meters":3600,"station_id":"ce4bh5p2rcd13ifvqe4g","pricing_plan_id":"cebpf4jnsgd1na2vs0mg"},{"bike_id":"9d7b8361-b996-447f-9948-156ab5a7b34b","system_id":"levelo_inurba_marseille","lat":43.290779,"lon":5.371482,"is_reserved":false,"is_disabled":false,"rental_uris":{"android":"levelo://app?vid=9d7b8361-b996-447f-9948-156ab5a7b34b","ios":"levelo://app?vid=9d7b8361-b996-447f-9948-156ab5a7b34b"},"vehicle_type_id":"4","last_reported":1711649368,"current_range_meters":8400,"station_id":"ce4bh5p2rcd13ifvqe4g","pricing_plan_id":"cebpf4jnsgd1na2vs0mg"},{"bike_id":"ab06ded2-12c8-4a30-b594-06fbfb545116","system_id":"levelo_inurba_marseille","lat":43.290779,"lon":5.371482,"is_reserved":false,"is_disabled":false,"rental_uris":{"android":"levelo://app?vid=ab06ded2-12c8-4a30-b594-06fbfb545116","ios":"levelo://app?vid=ab06ded2-12c8-4a30-b594-06fbfb545116"},"vehicle_type_id":"4","last_reported":1711649368,"current_range_meters":0,"station_id":"ce4bh5p2rcd13ifvqe4g","pricing_plan_id":"cebpf4jnsgd1na2vs0mg"},{"bike_id":"d992bdd3-3bcf-4b09-a106-9765acd28b4c","system_id":"levelo_inurba_marseille","lat":43.313291,"lon":5.396838,"is_reserved":false,"is_disabled":false,"rental_uris":{"android":"levelo://app?vid=d992bdd3-3bcf-4b09-a106-9765acd28b4c","ios":"levelo://app?vid=d992bdd3-3bcf-4b09-a106-9765acd28b4c"},"vehicle_type_id":"4","last_reported":1711649368,"current_range_meters":8400,"station_id":"ce4bgvp2rcd13ifvqcu0","pricing_plan_id":"cebpf4jnsgd1na2vs0mg"},{"bike_id":"1e1f3b9a-896a-4086-bf41-61999f7e8c13","system_id":"levelo_inurba_marseille","lat":43.290592,"lon":5.371676,"is_reserved":false,"is_disabled":false,"rental_uris":{"android":"levelo://app?vid=1e1f3b9a-896a-4086-bf41-61999f7e8c13","ios":"levelo://app?vid=1e1f3b9a-896a-4086-bf41-61999f7e8c13"},"vehicle_type_id":"4","last_reported":1711649368,"current_range_meters":0,"station_id":"ce4bh5p2rcd13ifvqe4g","pricing_plan_id":"cebpf4jnsgd1na2vs0mg"},{"bike_id":"5e536ca0-b2f5-49cb-b6ed-cfc615621657","system_id":"levelo_inurba_marseille","lat":43.302008,"lon":5.394694,"is_reserved":false,"is_disabled":false,"rental_uris":{"android":"levelo://app?vid=5e536ca0-b2f5-49cb-b6ed-cfc615621657","ios":"levelo://app?vid=5e536ca0-b2f5-49cb-b6ed-cfc615621657"},"vehicle_type_id":"4","last_reported":1711649368,"current_range_meters":30400,"station_id":"ce4bh0p2rcd13ifvqd70","pricing_plan_id":"cebpf4jnsgd1na2vs0mg"},{"bike_id":"1c1a39f3-4062-4342-a49f-3072cf608093","system_id":"levelo_inurba_marseille","lat":43.302008,"lon":5.394694,"is_reserved":false,"is_disabled":false,"rental_uris":{"android":"levelo://app?vid=1c1a39f3-4062-4342-a49f-3072cf608093","ios":"levelo://app?vid=1c1a39f3-4062-4342-a49f-3072cf608093"},"vehicle_type_id":"4","last_reported":1711649368,"current_range_meters":25600,"station_id":"ce4bh0p2rcd13ifvqd70","pricing_plan_id":"cebpf4jnsgd1na2vs0mg"},{"bike_id":"ea8f94b3-260e-4433-a2ba-03c3585967db","system_id":"levelo_inurba_marseille","lat":43.289184,"lon":5.366408,"is_reserved":false,"is_disabled":false,"rental_uris":{"android":"levelo://app?vid=ea8f94b3-260e-4433-a2ba-03c3585967db","ios":"levelo://app?vid=ea8f94b3-260e-4433-a2ba-03c3585967db"},"vehicle_type_id":"4","last_reported":1711649368,"current_range_meters":17200,"station_id":"ce4bhap2rcd13ifvqek0","pricing_plan_id":"cebpf4jnsgd1na2vs0mg"},