{"last_updated":1779051279,"ttl":60,"version":"2.2","data":{"bikes":[{"bike_id":"3b6ad17b-5811-42c2-8655-9f2d4768a767","system_id":"levelo_inurba_marseille","lat":43.27617,"lon":5.36107,"is_reserved":false,"is_disabled":true,"rental_uris":{"android":"levelo://app?vid=3b6ad17b-5811-42c2-8655-9f2d4768a767","ios":"levelo://app?vid=3b6ad17b-5811-42c2-8655-9f2d4768a767"},"vehicle_type_id":"4","last_reported":1779051279,"current_range_meters":2800,"station_id":"ce4bgj92rcd13ifvqbe0","pricing_plan_id":"cebpf4jnsgd1na2vs0mg"},{"bike_id":"47f093e7-99ff-4e07-b233-1f892c85ad89","system_id":"levelo_inurba_marseille","lat":43.26233,"lon":5.38762,"is_reserved":false,"is_disabled":false,"rental_uris":{"android":"levelo://app?vid=47f093e7-99ff-4e07-b233-1f892c85ad89","ios":"levelo://app?vid=47f093e7-99ff-4e07-b233-1f892c85ad89"},"vehicle_type_id":"4","last_reported":1779051279,"current_range_meters":2800,"station_id":"","pricing_plan_id":"cebpf4jnsgd1na2vs0mg"},{"bike_id":"07c776b9-fb7b-4c17-8f6f-4e86ee033eac","system_id":"levelo_inurba_marseille","lat":43.30318,"lon":5.40427,"is_reserved":false,"is_disabled":false,"rental_uris":{"android":"levelo://app?vid=07c776b9-fb7b-4c17-8f6f-4e86ee033eac","ios":"levelo://app?vid=07c776b9-fb7b-4c17-8f6f-4e86ee033eac"},"vehicle_type_id":"4","last_reported":1779051279,"current_range_meters":2800,"station_id":"ce4bh012rcd13ifvqd10","pricing_plan_id":"cebpf4jnsgd1na2vs0mg"},{"bike_id":"6a4c2e9b-27c2-4388-95c0-205c60ca40a0","system_id":"levelo_inurba_marseille","lat":43.29458,"lon":5.38633,"is_reserved":false,"is_disabled":false,"rental_uris":{"android":"levelo://app?vid=6a4c2e9b-27c2-4388-95c0-205c60ca40a0","ios":"levelo://app?vid=6a4c2e9b-27c2-4388-95c0-205c60ca40a0"},"vehicle_type_id":"4","last_reported":1779051279,"current_range_meters":2800,"station_id":"","pricing_plan_id":"cebpf4jnsgd1na2vs0mg"},{"bike_id":"4b584b91-6611-441f-bd8d-f46ade499770","system_id":"levelo_inurba_marseille","lat":43.31892,"lon":5.36807,"is_reserved":false,"is_disabled":false,"rental_uris":{"android":"levelo://app?vid=4b584b91-6611-441f-bd8d-f46ade499770","ios":"levelo://app?vid=4b584b91-6611-441f-bd8d-f46ade499770"},"vehicle_type_id":"4","last_reported":1779051279,"current_range_meters":2800,"station_id":"st_d6o2h0d0559c73evc1b0","pricing_plan_id":"cebpf4jnsgd1na2vs0mg"},{"bike_id":"a4ef27c6-14af-4352-8eae-12622ec32150","system_id":"levelo_inurba_marseille","lat":43.31718,"lon":5.43666,"is_reserved":false,"is_disabled":false,"rental_uris":{"android":"levelo://app?vid=a4ef27c6-14af-4352-8eae-12622ec32150","ios":"levelo://app?vid=a4ef27c6-14af-4352-8eae-12622ec32150"},"vehicle_type_id":"4","last_reported":1779051279,"current_range_meters":2800,"station_id":"ce4bhp92rcd13ifvqhcg","pricing_plan_id":"cebpf4jnsgd1na2vs0mg"},{"bike_id":"bc3bc0e1-7dea-473a-9596-c4ef9446df3e","system_id":"levelo_inurba_marseille","lat":43.26226,"lon":5.40451,"is_reserved":false,"is_disabled":false,"rental_uris":{"android":"levelo://app?vid=bc3bc0e1-7dea-473a-9596-c4ef9446df3e","ios":"levelo://app?vid=bc3bc0e1-7dea-473a-9596-c4ef9446df3e"},"vehicle_type_id":"4","last_reported":1779051279,"current_range_meters":2800,"station_id":"ce4bhmh2rcd13ifvqgmg","pricing_plan_id":"cebpf4jnsgd1na2vs0mg"},{"bike_id":"488a9249-ab10-459b-b8bf-98cb3bc718b8","system_id":"levelo_inurba_marseille","lat":43.22561,"lon":5.41638,"is_reserved":false,"is_disabled":false,"rental_uris":{"android":"levelo://app?vid=488a9249-ab10-459b-b8bf-98cb3bc718b8","ios":"levelo://app?vid=488a9249-ab10-459b-b8bf-98cb3bc718b8"},"vehicle_type_id":"4","last_reported":1779051279,"current_range_meters":3200,"station_id":"st_d2o4gvlbi1j2169b742g","pricing_plan_id":"cebpf4jnsgd1na2vs0mg"},{"bike_id":"d883c0f7-a56b-4c01-b096-561a0103c603","system_id":"levelo_inurba_marseille","lat":43.28699,"lon":5.46706,"is_reserved":false,"is_disabled":false,"rental_uris":{"android":"levelo://app?vid=d883c0f7-a56b-4c01-b096-561a0103c603","ios":"levelo://app?vid=d883c0f7-a56b-4c01-b096-561a0103c603"},"vehicle_type_id":"4","last_reported":1779051279,"current_range_meters":3200,"station_id":"st_d6tc3vkotcvc738tfjhg","pricing_plan_id":"cebpf4jnsgd1na2vs0mg"},{"bike_id":"c9b8c22e-e4a4-431e-81d1-866a9cbbba40","system_id":"levelo_inurba_marseille","lat":43.21737,"lon":5.34584,"is_reserved":false,"is_disabled":true,"rental_uris":{"android":"levelo://app?vid=c9b8c22e-e4a4-431e-81d1-866a9cbbba40","ios":"levelo://app?vid=c9b8c22e-e4a4-431e-81d1-866a9cbbba40"},"vehicle_type_id":"4","last_reported":1779051279,"current_range_meters":3200,"station_id":"st_cvj6r9ubvosntc0bgbag","pricing_plan_id":"cebpf4jnsgd1na2vs0mg"},{"bike_id":"ef05a466-74a6-428e-9978-e7fb138ca4ee","system_id":"levelo_inurba_marseille","lat":43.2657,"lon":5.39005,"is_reserved":false,"is_disabled":true,"rental_uris":{"android":"levelo://app?vid=ef05a466-74a6-428e-9978-e7fb138ca4ee","ios":"levelo://app?vid=ef05a466-74a6-428e-9978-e7fb138ca4ee"},"vehicle_type_id":"4","last_reported":1779051279,"current_range_meters":3200,"station_id":"ce4bhe12rcd13ifvqf30","pricing_plan_id":"cebpf4jnsgd1na2vs0mg"},{"bike_id":"391b50dc-f04d-41da-9469-ee3fa9cc785b","system_id":"levelo_inurba_marseille","lat":43.33554,"lon":5.37461,"is_reserved":false,"is_disabled":false,"rental_uris":{"android":"levelo://app?vid=391b50dc-f04d-41da-9469-ee3fa9cc785b","ios":"levelo://app?vid=391b50dc-f04d-41da-9469-ee3fa9cc785b"},"vehicle_type_id":"4","last_reported":1779051279,"current_range_meters":3200,"station_id":"st_d46tts09ee8s73dlu43g","pricing_plan_id":"cebpf4jnsgd1na2vs0mg"},{"bike_id":"f58c35b5-8301-4cac-a2ed-65f4f0b95ed5","system_id":"levelo_inurba_marseille","lat":43.25505,"lon":5.37646,"is_reserved":false,"is_disabled":true,"rental_uris":{"android":"levelo://app?vid=f58c35b5-8301-4cac-a2ed-65f4f0b95ed5","ios":"levelo://app?vid=f58c35b5-8301-4cac-a2ed-65f4f0b95ed5"},"vehicle_type_id":"4","last_reported":1779051279,"current_range_meters":3200,"station_id":"ce4bhh12rcd13ifvqff0","pricing_plan_id":"cebpf4jnsgd1na2vs0mg"},{"bike_id":"76ece3b2-259a-4dcc-8c53-23c442307232","system_id":"levelo_inurba_marseille","lat":43.28221,"lon":5.39054,"is_reserved":false,"is_disabled":false,"rental_uris":{"android":"levelo://app?vid=76ece3b2-259a-4dcc-8c53-23c442307232","ios":"levelo://app?vid=76ece3b2-259a-4dcc-8c53-23c442307232"},"vehicle_type_id":"4","last_reported":1779051279,"current_range_meters":3200,"station_id":"ce4bhn92rcd13ifvqgsg","pricing_plan_id":"cebpf4jnsgd1na2vs0mg"},{"bike_id":"614c5504-23fd-4737-907f-8d315016ccf6","system_id":"levelo_inurba_marseille","lat":43.29881,"lon":5.38904,"is_reserved":false,"is_disabled":false,"rental_uris":{"android":"levelo://app?vid=614c5504-23fd-4737-907f-8d315016ccf6","ios":"levelo://app?vid=614c5504-23fd-4737-907f-8d315016ccf6"},"vehicle_type_id":"4","last_reported":1779051279,"current_range_meters":3200,"station_id":"ce4bh392rcd13ifvqdl0","pricing_plan_id":"cebpf4jnsgd1na2vs0mg"},{"bike_id":"40787b5d-5a3a-4fad-9fc5-f5a9636f4f17","system_id":"levelo_inurba_marseille","lat":43.30944,"lon":5.39037,"is_reserved":false,"is_disabled":false,"rental_uris":{"android":"levelo://app?vid=40787b5d-5a3a-4fad-9fc5-f5a9636f4f17","ios":"levelo://app?vid=40787b5d-5a3a-4fad-9fc5-f5a9636f4f17"},"vehicle_type_id":"4","last_reported":1779051279,"current_range_meters":3200,"station_id":"ce4bgup2rcd13ifvqco0","pricing_plan_id":"cebpf4jnsgd1na2vs0mg"},{"bike_id":"65031c68-348f-4db9-854c-9e4fca32803c","system_id":"levelo_inurba_marseille","lat":43.30796,"lon":5.4022,"is_reserved":false,"is_disabled":false,"rental_uris":{"android":"levelo://app?vid=65031c68-348f-4db9-854c-9e4fca32803c","ios":"levelo://app?vid=65031c68-348f-4db9-854c-9e4fca32803c"},"vehicle_type_id":"4","last_reported":1779051279,"current_range_meters":3600,"station_id":"","pricing_plan_id":"cebpf4jnsgd1na2vs0mg"},{"bike_id":"4dfbbb73-3c53-4e8a-8d3c-17d14069b634","system_id":"levelo_inurba_marseille","lat":43.3169,"lon":5.40487,"is_reserved":false,"is_disabled":false,"rental_uris":{"android":"levelo://app?vid=4dfbbb73-3c53-4e8a-8d3c-17d14069b634","ios":"levelo://app?vid=4dfbbb73-3c53-4e8a-8d3c-17d14069b634"},"vehicle_type_id":"4","last_reported":1779051279,"current_range_meters":3600,"station_id":"ce4bh012rcd13ifvqd00","pricing_plan_id":"cebpf4jnsgd1na2vs0mg"},{"bike_id":"2f6ca038-9e8a-499e-94be-71aabf32edf3","system_id":"levelo_inurba_marseille","lat":43.33546,"lon":5.37463,"is_reserved":false,"is_disabled":false,"rental_uris":{"android":"levelo://app?vid=2f6ca038-9e8a-499e-94be-71aabf32edf3","ios":"levelo://app?vid=2f6ca038-9e8a-499e-94be-71aabf32edf3"},"vehicle_type_id":"4","last_reported":1779051279,"current_range_meters":3600,"station_id":"st_d46tts09ee8s73dlu43g","pricing_plan_id":"cebpf4jnsgd1na2vs0mg"},{"bike_id":"021a3014-354f-4f07-84a6-c9b58284be2e","system_id":"levelo_inurba_marseille","lat":43.27682,"lon":5.41361,"is_reserved":false,"is_disabled":false,"rental_uris":{"android":"levelo://app?vid=021a3014-354f-4f07-84a6-c9b58284be2e","ios":"levelo://app?vid=021a3014-354f-4f07-84a6-c9b58284be2e"},"vehicle_type_id":"4","last_reported":1779051279,"current_range_meters":3600,"station_id":"","pricing_plan_id":"cebpf4jnsgd1na2vs0mg"},{"bike_id":"2e108468-d288-4b33-ad0a-131180b70fbc","system_id":"levelo_inurba_marseille","lat":43.25587,"lon":5.38236,"is_reserved":false,"is_disabled":false,"rental_uris":{"android":"levelo://app?vid=2e108468-d288-4b33-ad0a-131180b70fbc","ios":"levelo://app?vid=2e108468-d288-4b33-ad0a-131180b70fbc"},"vehicle_type_id":"4","last_reported":1779051279,"current_range_meters":3600,"station_id":"ce4bhih2rcd13ifvqfs0","pricing_plan_id":"cebpf4jnsgd1na2vs0mg"},{"bike_id":"71de3602-30e6-4e1c-b30e-31801efa5ed3","system_id":"levelo_inurba_marseille","lat":43.23885,"lon":5.37462,"is_reserved":false,"is_disabled":true,"rental_uris":{"android":"levelo://app?vid=71de3602-30e6-4e1c-b30e-31801efa5ed3","ios":"levelo://app?vid=71de3602-30e6-4e1c-b30e-31801efa5ed3"},"vehicle_type_id":"4","last_reported":1779051279,"current_range_meters":3600,"station_id":"st_d6sm7csbq4hs73f8fpjg","pricing_plan_id":"cebpf4jnsgd1na2vs0mg"},{"bike_id":"2a0cb435-1794-48a4-bd84-9cf497919159","system_id":"levelo_inurba_marseille","lat":43.30145,"lon":5.37416,"is_reserved":false,"is_disabled":false,"rental_uris":{"android":"levelo://app?vid=2a0cb435-1794-48a4-bd84-9cf497919159","ios":"levelo://app?vid=2a0cb435-1794-48a4-bd84-9cf497919159"},"vehicle_type_id":"4","last_reported":1779051279,"current_range_meters":3600,"station_id":"ce4bgs92rcd13ifvqcc0","pricing_plan_id":"cebpf4jnsgd1na2vs0mg"},{"bike_id":"a426e549-3082-44c3-899e-313fc7af0798","system_id":"levelo_inurba_marseille","lat":43.29014,"lon":5.3812,"is_reserved":false,"is_disabled":false,"rental_uris":{"android":"levelo://app?vid=a426e549-3082-44c3-899e-313fc7af0798","ios":"levelo://app?vid=a426e549-3082-44c3-899e-313fc7af0798"},"vehicle_type_id":"4","last_reported":1779051279,"current_range_meters":3600,"station_id":"ce4bh4p2rcd13ifvqe1g","pricing_plan_id":"cebpf4jnsgd1na2vs0mg"},{"bike_id":"29a1fef6-22a0-4877-9ff6-b425becb2d10","system_id":"levelo_inurba_marseille","lat":43.292,"lon":5.39314,"is_reserved":false,"is_disabled":false,"rental_uris":{"android":"levelo://app?vid=29a1fef6-22a0-4877-9ff6-b425becb2d10","ios":"levelo://app?vid=29a1fef6-22a0-4877-9ff6-b425becb2d10"},"vehicle_type_id":"4","last_reported":1779051279,"current_range_meters":3600,"station_id":"ce4bh192rcd13ifvqdd0","pricing_plan_id":"cebpf4jnsgd1na2vs0mg"},{"bike_id":"a72ed776-a4c5-4fa7-8b4f-299ef308f60d","system_id":"levelo_inurba_marseille","lat":43.225281,"lon":5.348366,"is_reserved":false,"is_disabled":true,"rental_uris":{"android":"levelo://app?vid=a72ed776-a4c5-4fa7-8b4f-299ef308f60d","ios":"levelo://app?vid=a72ed776-a4c5-4fa7-8b4f-299ef308f60d"},"vehicle_type_id":"4","last_reported":1779051279,"current_range_meters":3600,"station_id":"st_cvj5dfep6f1abm77gieg","pricing_plan_id":"cebpf4jnsgd1na2vs0mg"},{"bike_id":"6a6aae50-57e9-45a1-b44e-15449f93cd34","system_id":"levelo_inurba_marseille","lat":43.29738,"lon":5.42741,"is_reserved":false,"is_disabled":false,"rental_uris":{"android":"levelo://app?vid=6a6aae50-57e9-45a1-b44e-15449f93cd34","ios":"levelo://app?vid=6a6aae50-57e9-45a1-b44e-15449f93cd34"},"vehicle_type_id":"4","last_reported":1779051279,"current_range_meters":3600,"station_id":"st_d3md5207bmas73dh9klg","pricing_plan_id":"cebpf4jnsgd1na2vs0mg"},{"bike_id":"d7f2ec52-1f3e-4741-adba-7f30cc0a3e6f","system_id":"levelo_inurba_marseille","lat":43.26045,"lon":5.37553,"is_reserved":false,"is_disabled":true,"rental_uris":{"android":"levelo://app?vid=d7f2ec52-1f3e-4741-adba-7f30cc0a3e6f","ios":"levelo://app?vid=d7f2ec52-1f3e-4741-adba-7f30cc0a3e6f"},"vehicle_type_id":"4","last_reported":1779051279,"current_range_meters":3600,"station_id":"ce4bhgh2rcd13ifvqfa0","pricing_plan_id":"cebpf4jnsgd1na2vs0mg"},{"bike_id":"71918cea-b617-4f68-aa50-3e8772137752","system_id":"levelo_inurba_marseille","lat":43.29276,"lon":5.40184,"is_reserved":false,"is_disabled":false,"rental_uris":{"android":"levelo://app?vid=71918cea-b617-4f68-aa50-3e8772137752","ios":"levelo://app?vid=71918cea-b617-4f68-aa50-3e8772137752"},"vehicle_type_id":"4","last_reported":1779051279,"current_range_meters":3600,"station_id":"","pricing_plan_id":"cebpf4jnsgd1na2vs0mg"},{"bike_id":"7ecc22d2-335d-4ea0-ac77-260eccfc3b68","system_id":"levelo_inurba_marseille","lat":43.31911,"lon":5.40757,"is_reserved":false,"is_disabled":true,"rental_uris":{"android":"levelo://app?vid=7ecc22d2-335d-4ea0-ac77-260eccfc3b68","ios":"levelo://app?vid=7ecc22d2-335d-4ea0-ac77-260eccfc3b68"},"vehicle_type_id":"4","last_reported":1779051279,"current_range_meters":3600,"station_id":"ce4bhq12rcd13ifvqhig","pricing_plan_id":"cebpf4jnsgd1na2vs0mg"},{"bike_id":"f7cab484-4725-4921-89ba-b02924312c14","system_id":"levelo_inurba_marseille","lat":43.27312,"lon":5.39078,"is_reserved":false,"is_disabled":false,"rental_uris":{"android":"levelo://app?vid=f7cab484-4725-4921-89ba-b02924312c14","ios":"levelo://app?vid=f7cab484-4725-4921-89ba-b02924312c14"},"vehicle_type_id":"4","last_reported":1779051279,"current_range_meters":4000,"station_id":"ce4bhgp2rcd13ifvqfe0","pricing_plan_id":"cebpf4jnsgd1na2vs0mg"},{"bike_id":"95b5aa74-b3e0-4286-ab92-7f4c507d6172","system_id":"levelo_inurba_marseille","lat":43.23066,"lon":5.35494,"is_reserved":false,"is_disabled":false,"rental_uris":{"android":"levelo://app?vid=95b5aa74-b3e0-4286-ab92-7f4c507d6172","ios":"levelo://app?vid=95b5aa74-b3e0-4286-ab92-7f4c507d6172"},"vehicle_type_id":"4","last_reported":1779051279,"current_range_meters":4000,"station_id":"cpo3342slgdg3j2ifvpg","pricing_plan_id":"cebpf4jnsgd1na2vs0mg"},{"bike_id":"551ead51-cf99-48bb-a300-a2033ce21fbe","system_id":"levelo_inurba_marseille","lat":43.273257,"lon":5.39078,"is_reserved":false,"is_disabled":false,"rental_uris":{"android":"levelo://app?vid=551ead51-cf99-48bb-a300-a2033ce21fbe","ios":"levelo://app?vid=551ead51-cf99-48bb-a300-a2033ce21fbe"},"vehicle_type_id":"4","last_reported":1779051279,"current_range_meters":4000,"station_id":"ce4bhgp2rcd13ifvqfe0","pricing_plan_id":"cebpf4jnsgd1na2vs0mg"},{"bike_id":"ee0a702f-4b45-45d4-9cf3-4ea34466e9b4","system_id":"levelo_inurba_marseille","lat":43.29721,"lon":5.37701,"is_reserved":false,"is_disabled":false,"rental_uris":{"android":"levelo://app?vid=ee0a702f-4b45-45d4-9cf3-4ea34466e9b4","ios":"levelo://app?vid=ee0a702f-4b45-45d4-9cf3-4ea34466e9b4"},"vehicle_type_id":"4","last_reported":1779051279,"current_range_meters":4000,"station_id":"ce4bgkh2rcd13ifvqbl0","pricing_plan_id":"cebpf4jnsgd1na2vs0mg"},{"bike_id":"f876af5b-3c93-4397-951a-35d7c2b1d353","system_id":"levelo_inurba_marseille","lat":43.30887,"lon":5.39652,"is_reserved":false,"is_disabled":false,"rental_uris":{"android":"levelo://app?vid=f876af5b-3c93-4397-951a-35d7c2b1d353","ios":"levelo://app?vid=f876af5b-3c93-4397-951a-35d7c2b1d353"},"vehicle_type_id":"4","last_reported":1779051279,"current_range_meters":4000,"station_id":"ce4bh012rcd13ifvqcv0","pricing_plan_id":"cebpf4jnsgd1na2vs0mg"},{"bike_id":"40fb7786-8cc1-4d48-93b3-a3ba0d965e6c","system_id":"levelo_inurba_marseille","lat":43.290672,"lon":5.37572,"is_reserved":false,"is_disabled":false,"rental_uris":{"android":"levelo://app?vid=40fb7786-8cc1-4d48-93b3-a3ba0d965e6c","ios":"levelo://app?vid=40fb7786-8cc1-4d48-93b3-a3ba0d965e6c"},"vehicle_type_id":"4","last_reported":1779051279,"current_range_meters":4400,"station_id":"ce4bh692rcd13ifvqe90","pricing_plan_id":"cebpf4jnsgd1na2vs0mg"},{"bike_id":"dc210f91-085a-4684-a4ce-04d864ad8ec6","system_id":"levelo_inurba_marseille","lat":43.24798,"lon":5.37443,"is_reserved":false,"is_disabled":false,"rental_uris":{"android":"levelo://app?vid=dc210f91-085a-4684-a4ce-04d864ad8ec6","ios":"levelo://app?vid=dc210f91-085a-4684-a4ce-04d864ad8ec6"},"vehicle_type_id":"4","last_reported":1779051279,"current_range_meters":4400,"station_id":"ce4bhgh2rcd13ifvqfb0","pricing_plan_id":"cebpf4jnsgd1na2vs0mg"},{"bike_id":"0bd112c5-ad94-44c5-8026-def3fcc04c7d","system_id":"levelo_inurba_marseille","lat":43.27993,"lon":5.40025,"is_reserved":false,"is_disabled":false,"rental_uris":{"android":"levelo://app?vid=0bd112c5-ad94-44c5-8026-def3fcc04c7d","ios":"levelo://app?vid=0bd112c5-ad94-44c5-8026-def3fcc04c7d"},"vehicle_type_id":"4","last_reported":1779051279,"current_range_meters":4400,"station_id":"ce4bho92rcd13ifvqh4g","pricing_plan_id":"cebpf4jnsgd1na2vs0mg"},{"bike_id":"1083eafc-a501-41a5-817d-cf807bb2321f","system_id":"levelo_inurba_marseille","lat":43.24958,"lon":5.40481,"is_reserved":false,"is_disabled":false,"rental_uris":{"android":"levelo://app?vid=1083eafc-a501-41a5-817d-cf807bb2321f","ios":"levelo://app?vid=1083eafc-a501-41a5-817d-cf807bb2321f"},"vehicle_type_id":"4","last_reported":1779051279,"current_range_meters":4400,"station_id":"st_d2ngiaodas8pm72gd1h0","pricing_plan_id":"cebpf4jnsgd1na2vs0mg"},{"bike_id":"de531965-79d0-44d4-900c-04591c31f4fc","system_id":"levelo_inurba_marseille","lat":43.24385,"lon":5.37074,"is_reserved":false,"is_disabled":false,"rental_uris":{"android":"levelo://app?vid=de531965-79d0-44d4-900c-04591c31f4fc","ios":"levelo://app?vid=de531965-79d0-44d4-900c-04591c31f4fc"},"vehicle_type_id":"4","last_reported":1779051279,"current_range_meters":4400,"station_id":"ce4bhhh2rcd13ifvqfk0","pricing_plan_id":"cebpf4jnsgd1na2vs0mg"},{"bike_id":"606b976b-f9a7-4974-9ede-2b5ee6e36e1a","system_id":"levelo_inurba_marseille","lat":43.3029,"lon":5.39206,"is_reserved":false,"is_disabled":false,"rental_uris":{"android":"levelo://app?vid=606b976b-f9a7-4974-9ede-2b5ee6e36e1a","ios":"levelo://app?vid=606b976b-f9a7-4974-9ede-2b5ee6e36e1a"},"vehicle_type_id":"4","last_reported":1779051279,"current_range_meters":4400,"station_id":"ce4bgkh2rcd13ifvqbk0","pricing_plan_id":"cebpf4jnsgd1na2vs0mg"},{"bike_id":"824c6726-d7b9-4f8f-9280-41d1d42ad5d1","system_id":"levelo_inurba_marseille","lat":43.26774,"lon":5.39425,"is_reserved":false,"is_disabled":false,"rental_uris":{"android":"levelo://app?vid=824c6726-d7b9-4f8f-9280-41d1d42ad5d1","ios":"levelo://app?vid=824c6726-d7b9-4f8f-9280-41d1d42ad5d1"},"vehicle_type_id":"4","last_reported":1779051279,"current_range_meters":4400,"station_id":"ce4bhh12rcd13ifvqfg0","pricing_plan_id":"cebpf4jnsgd1na2vs0mg"},{"bike_id":"aa9d571d-618a-4a5c-a72d-c16ef134e655","system_id":"levelo_inurba_marseille","lat":43.28389,"lon":5.4598,"is_reserved":false,"is_disabled":false,"rental_uris":{"android":"levelo://app?vid=aa9d571d-618a-4a5c-a72d-c16ef134e655","ios":"levelo://app?vid=aa9d571d-618a-4a5c-a72d-c16ef134e655"},"vehicle_type_id":"4","last_reported":1779051279,"current_range_meters":4400,"station_id":"ce4bhgh2rcd13ifvqfa0","pricing_plan_id":"cebpf4jnsgd1na2vs0mg"},{"bike_id":"069e4ffc-e146-485c-92d8-f22bf845ffcd","system_id":"levelo_inurba_marseille","lat":43.287,"lon":5.46676,"is_reserved":false,"is_disabled":false,"rental_uris":{"android":"levelo://app?vid=069e4ffc-e146-485c-92d8-f22bf845ffcd","ios":"levelo://app?vid=069e4ffc-e146-485c-92d8-f22bf845ffcd"},"vehicle_type_id":"4","last_reported":1779051279,"current_range_meters":4400,"station_id":"st_d6tc3vkotcvc738tfjhg","pricing_plan_id":"cebpf4jnsgd1na2vs0mg"},{"bike_id":"904f06ba-3a45-4118-bbf1-7f6e176ea00d","system_id":"levelo_inurba_marseille","lat":43.32565,"lon":5.41446,"is_reserved":false,"is_disabled":false,"rental_uris":{"android":"levelo://app?vid=904f06ba-3a45-4118-bbf1-7f6e176ea00d","ios":"levelo://app?vid=904f06ba-3a45-4118-bbf1-7f6e176ea00d"},"vehicle_type_id":"4","last_reported":1779051279,"current_range_meters":4800,"station_id":"ce4bhq12rcd13ifvqhhg","pricing_plan_id":"cebpf4jnsgd1na2vs0mg"},{"bike_id":"b43f7b66-8ea3-4971-a385-9185038dd5e0","system_id":"levelo_inurba_marseille","lat":43.24815,"lon":5.3743,"is_reserved":false,"is_disabled":false,"rental_uris":{"android":"levelo://app?vid=b43f7b66-8ea3-4971-a385-9185038dd5e0","ios":"levelo://app?vid=b43f7b66-8ea3-4971-a385-9185038dd5e0"},"vehicle_type_id":"4","last_reported":1779051279,"current_range_meters":4800,"station_id":"ce4bhgh2rcd13ifvqfb0","pricing_plan_id":"cebpf4jnsgd1na2vs0mg"},{"bike_id":"589519f5-3d4d-477d-b715-51da2a76d4b7","system_id":"levelo_inurba_marseille","lat":43.26964,"lon":5.40252,"is_reserved":false,"is_disabled":false,"rental_uris":{"android":"levelo://app?vid=589519f5-3d4d-477d-b715-51da2a76d4b7","ios":"levelo://app?vid=589519f5-3d4d-477d-b715-51da2a76d4b7"},"vehicle_type_id":"4","last_reported":1779051279,"current_range_meters":4800,"station_id":"cjm6bp8fraef2m0cb0m0","pricing_plan_id":"cebpf4jnsgd1na2vs0mg"},{"bike_id":"c4d175a0-6d02-4fdd-a32c-668209eec0c9","system_id":"levelo_inurba_marseille","lat":43.3021,"lon":5.39438,"is_reserved":false,"is_disabled":false,"rental_uris":{"android":"levelo://app?vid=c4d175a0-6d02-4fdd-a32c-668209eec0c9","ios":"levelo://app?vid=c4d175a0-6d02-4fdd-a32c-668209eec0c9"},"vehicle_type_id":"4","last_reported":1779051279,"current_range_meters":4800,"station_id":"ce4bh0p2rcd13ifvqd70","pricing_plan_id":"cebpf4jnsgd1na2vs0mg"},{"bike_id":"81d486c6-8055-4622-b184-526a5a37dde4","system_id":"levelo_inurba_marseille","lat":43.30197,"lon":5.36628,"is_reserved":false,"is_disabled":false,"rental_uris":{"android":"levelo://app?vid=81d486c6-8055-4622-b184-526a5a37dde4","ios":"levelo://app?vid=81d486c6-8055-4622-b184-526a5a37dde4"},"vehicle_type_id":"4","last_reported":1779051279,"current_range_meters":4800,"station_id":"ce4bgrh2rcd13ifvqc8g","pricing_plan_id":"cebpf4jnsgd1na2vs0mg"},{"bike_id":"1d06564d-ea73-4d68-ab30-68a567adc035","system_id":"levelo_inurba_marseille","lat":43.31027,"lon":5.37161,"is_reserved":false,"is_disabled":false,"rental_uris":{"android":"levelo://app?vid=1d06564d-ea73-4d68-ab30-68a567adc035","ios":"levelo://app?vid=1d06564d-ea73-4d68-ab30-68a567adc035"},"vehicle_type_id":"4","last_reported":1779051279,"current_range_meters":4800,"station_id":"st_d4kl2rp97mjs73e7tdfg","pricing_plan_id":"cebpf4jnsgd1na2vs0mg"},{"bike_id":"13427265-7fc6-43dc-8049-93594f404dad","system_id":"levelo_inurba_marseille","lat":43.23958,"lon":5.36626,"is_reserved":false,"is_disabled":false,"rental_uris":{"android":"levelo://app?vid=13427265-7fc6-43dc-8049-93594f404dad","ios":"levelo://app?vid=13427265-7fc6-43dc-8049-93594f404dad"},"vehicle_type_id":"4","last_reported":1779051279,"current_range_meters":4800,"station_id":"ce4bhi12rcd13ifvqfp0","pricing_plan_id":"cebpf4jnsgd1na2vs0mg"},{"bike_id":"ee617cb3-d828-445a-bbbf-fc4ee3217bb1","system_id":"levelo_inurba_marseille","lat":43.25113,"lon":5.39502,"is_reserved":false,"is_disabled":false,"rental_uris":{"android":"levelo://app?vid=ee617cb3-d828-445a-bbbf-fc4ee3217bb1","ios":"levelo://app?vid=ee617cb3-d828-445a-bbbf-fc4ee3217bb1"},"vehicle_type_id":"4","last_reported":1779051279,"current_range_meters":4800,"station_id":"ce4bhm12rcd13ifvqgkg","pricing_plan_id":"cebpf4jnsgd1na2vs0mg"},{"bike_id":"c0eb0733-b72c-4dcd-812c-f5107717d31c","system_id":"levelo_inurba_marseille","lat":43.290748,"lon":5.37175,"is_reserved":false,"is_disabled":false,"rental_uris":{"android":"levelo://app?vid=c0eb0733-b72c-4dcd-812c-f5107717d31c","ios":"levelo://app?vid=c0eb0733-b72c-4dcd-812c-f5107717d31c"},"vehicle_type_id":"4","last_reported":1779051279,"current_range_meters":4800,"station_id":"ce4bh5p2rcd13ifvqe4g","pricing_plan_id":"cebpf4jnsgd1na2vs0mg"},{"bike_id":"855e13db-2be5-4101-96e1-db7dac9c0ba6","system_id":"levelo_inurba_marseille","lat":43.30356,"lon":5.42459,"is_reserved":false,"is_disabled":false,"rental_uris":{"android":"levelo://app?vid=855e13db-2be5-4101-96e1-db7dac9c0ba6","ios":"levelo://app?vid=855e13db-2be5-4101-96e1-db7dac9c0ba6"},"vehicle_type_id":"4","last_reported":1779051279,"current_range_meters":4800,"station_id":"ce4bhoh2rcd13ifvqh6g","pricing_plan_id":"cebpf4jnsgd1na2vs0mg"},{"bike_id":"6ea549ac-7bfc-4340-a751-1ad0220932fc","system_id":"levelo_inurba_marseille","lat":43.28713,"lon":5.37935,"is_reserved":false,"is_disabled":false,"rental_uris":{"android":"levelo://app?vid=6ea549ac-7bfc-4340-a751-1ad0220932fc","ios":"levelo://app?vid=6ea549ac-7bfc-4340-a751-1ad0220932fc"},"vehicle_type_id":"4","last_reported":1779051279,"current_range_meters":4800,"station_id":"ce4bh9p2rcd13ifvqec0","pricing_plan_id":"cebpf4jnsgd1na2vs0mg"},{"bike_id":"58c2f4c0-4bec-4781-9d6a-61ef7bc8b17c","system_id":"levelo_inurba_marseille","lat":43.24025,"lon":5.36237,"is_reserved":false,"is_disabled":false,"rental_uris":{"android":"levelo://app?vid=58c2f4c0-4bec-4781-9d6a-61ef7bc8b17c","ios":"levelo://app?vid=58c2f4c0-4bec-4781-9d6a-61ef7bc8b17c"},"vehicle_type_id":"4","last_reported":1779051279,"current_range_meters":4800,"station_id":"","pricing_plan_id":"cebpf4jnsgd1na2vs0mg"},{"bike_id":"d77966f0-5c13-40db-9d14-10601a4afd72","system_id":"levelo_inurba_marseille","lat":43.26815,"lon":5.40831,"is_reserved":false,"is_disabled":false,"rental_uris":{"android":"levelo://app?vid=d77966f0-5c13-40db-9d14-10601a4afd72","ios":"levelo://app?vid=d77966f0-5c13-40db-9d14-10601a4afd72"},"vehicle_type_id":"4","last_reported":1779051279,"current_range_meters":4800,"station_id":"","pricing_plan_id":"cebpf4jnsgd1na2vs0mg"},{"bike_id":"b702e4f7-f82f-4454-9af6-c50764d95921","system_id":"levelo_inurba_marseille","lat":43.31722,"lon":5.4373,"is_reserved":false,"is_disabled":false,"rental_uris":{"android":"levelo://app?vid=b702e4f7-f82f-4454-9af6-c50764d95921","ios":"levelo://app?vid=b702e4f7-f82f-4454-9af6-c50764d95921"},"vehicle_type_id":"4","last_reported":1779051279,"current_range_meters":5600,"station_id":"ce4bhp92rcd13ifvqhcg","pricing_plan_id":"cebpf4jnsgd1na2vs0mg"},{"bike_id":"6142fb54-5ddd-4594-858e-637ad4d92369","system_id":"levelo_inurba_marseille","lat":43.26786,"lon":5.40275,"is_reserved":false,"is_disabled":false,"rental_uris":{"android":"levelo://app?vid=6142fb54-5ddd-4594-858e-637ad4d92369","ios":"levelo://app?vid=6142fb54-5ddd-4594-858e-637ad4d92369"},"vehicle_type_id":"4","last_reported":1779051279,"current_range_meters":5600,"station_id":"ce501612rcd8frsf0b60","pricing_plan_id":"cebpf4jnsgd1na2vs0mg"},{"bike_id":"2f9b58e8-3878-42e9-9454-a217d90e8152","system_id":"levelo_inurba_marseille","lat":43.30597,"lon":5.39356,"is_reserved":false,"is_disabled":false,"rental_uris":{"android":"levelo://app?vid=2f9b58e8-3878-42e9-9454-a217d90e8152","ios":"levelo://app?vid=2f9b58e8-3878-42e9-9454-a217d90e8152"},"vehicle_type_id":"4","last_reported":1779051279,"current_range_meters":5600,"station_id":"ce4bh0p2rcd13ifvqd80","pricing_plan_id":"cebpf4jnsgd1na2vs0mg"},{"bike_id":"302a72ea-3775-417b-8d62-4fb684003f89","system_id":"levelo_inurba_marseille","lat":43.29542,"lon":5.38543,"is_reserved":false,"is_disabled":false,"rental_uris":{"android":"levelo://app?vid=302a72ea-3775-417b-8d62-4fb684003f89","ios":"levelo://app?vid=302a72ea-3775-417b-8d62-4fb684003f89"},"vehicle_type_id":"4","last_reported":1779051279,"current_range_meters":5600,"station_id":"ce4bgih2rcd13ifvqba0","pricing_plan_id":"cebpf4jnsgd1na2vs0mg"},{"bike_id":"25197b6f-80b5-4fd2-b49e-722e6454ece8","system_id":"levelo_inurba_marseille","lat":43.29256,"lon":5.38432,"is_reserved":false,"is_disabled":false,"rental_uris":{"android":"levelo://app?vid=25197b6f-80b5-4fd2-b49e-722e6454ece8","ios":"levelo://app?vid=25197b6f-80b5-4fd2-b49e-722e6454ece8"},"vehicle_type_id":"4","last_reported":1779051279,"current_range_meters":5600,"station_id":"ce4bh692rcd13ifvqea0","pricing_plan_id":"cebpf4jnsgd1na2vs0mg"},{"bike_id":"afc2a5b0-1c9b-4ade-a260-751814005a03","system_id":"levelo_inurba_marseille","lat":43.2494,"lon":5.38925,"is_reserved":false,"is_disabled":false,"rental_uris":{"android":"levelo://app?vid=afc2a5b0-1c9b-4ade-a260-751814005a03","ios":"levelo://app?vid=afc2a5b0-1c9b-4ade-a260-751814005a03"},"vehicle_type_id":"4","last_reported":1779051279,"current_range_meters":5600,"station_id":"","pricing_plan_id":"cebpf4jnsgd1na2vs0mg"},{"bike_id":"c88718d1-c585-42c7-a165-977901d60dbd","system_id":"levelo_inurba_marseille","lat":43.28703,"lon":5.39988,"is_reserved":false,"is_disabled":false,"rental_uris":{"android":"levelo://app?vid=c88718d1-c585-42c7-a165-977901d60dbd","ios":"levelo://app?vid=c88718d1-c585-42c7-a165-977901d60dbd"},"vehicle_type_id":"4","last_reported":1779051279,"current_range_meters":5600,"station_id":"ce4bho92rcd13ifvqh3g","pricing_plan_id":"cebpf4jnsgd1na2vs0mg"},{"bike_id":"eecc2b6c-aeb0-4088-ab82-0596e29b46f6","system_id":"levelo_inurba_marseille","lat":43.27429,"lon":5.39391,"is_reserved":false,"is_disabled":true,"rental_uris":{"android":"levelo://app?vid=eecc2b6c-aeb0-4088-ab82-0596e29b46f6","ios":"levelo://app?vid=eecc2b6c-aeb0-4088-ab82-0596e29b46f6"},"vehicle_type_id":"4","last_reported":1779051279,"current_range_meters":5600,"station_id":"ce4bhdp2rcd13ifvqf20","pricing_plan_id":"cebpf4jnsgd1na2vs0mg"},{"bike_id":"af2d2bd4-1d04-46a8-9f96-08a235bb6257","system_id":"levelo_inurba_marseille","lat":43.29043,"lon":5.37509,"is_reserved":false,"is_disabled":false,"rental_uris":{"android":"levelo://app?vid=af2d2bd4-1d04-46a8-9f96-08a235bb6257","ios":"levelo://app?vid=af2d2bd4-1d04-46a8-9f96-08a235bb6257"},"vehicle_type_id":"4","last_reported":1779051279,"current_range_meters":5600,"station_id":"","pricing_plan_id":"cebpf4jnsgd1na2vs0mg"},{"bike_id":"7ad82494-d2db-46c2-80dd-2d50fdb47afb","system_id":"levelo_inurba_marseille","lat":43.27209,"lon":5.39179,"is_reserved":false,"is_disabled":false,"rental_uris":{"android":"levelo://app?vid=7ad82494-d2db-46c2-80dd-2d50fdb47afb","ios":"levelo://app?vid=7ad82494-d2db-46c2-80dd-2d50fdb47afb"},"vehicle_type_id":"4","last_reported":1779051279,"current_range_meters":5600,"station_id":"ce4bhhp2rcd13ifvqfm0","pricing_plan_id":"cebpf4jnsgd1na2vs0mg"},{"bike_id":"2986d552-3005-43a7-8483-2d7fd8b5d0f4","system_id":"levelo_inurba_marseille","lat":43.24843,"lon":5.37449,"is_reserved":false,"is_disabled":false,"rental_uris":{"android":"levelo://app?vid=2986d552-3005-43a7-8483-2d7fd8b5d0f4","ios":"levelo://app?vid=2986d552-3005-43a7-8483-2d7fd8b5d0f4"},"vehicle_type_id":"4","last_reported":1779051279,"current_range_meters":5600,"station_id":"","pricing_plan_id":"cebpf4jnsgd1na2vs0mg"},{"bike_id":"4d3d050c-033f-41df-9f1e-316f361d1168","system_id":"levelo_inurba_marseille","lat":43.30114,"lon":5.39049,"is_reserved":false,"is_disabled":false,"rental_uris":{"android":"levelo://app?vid=4d3d050c-033f-41df-9f1e-316f361d1168","ios":"levelo://app?vid=4d3d050c-033f-41df-9f1e-316f361d1168"},"vehicle_type_id":"4","last_reported":1779051279,"current_range_meters":5600,"station_id":"ce4bh192rcd13ifvqdb0","pricing_plan_id":"cebpf4jnsgd1na2vs0mg"},{"bike_id":"61399ca3-8344-498f-89d7-90b632c9660c","system_id":"levelo_inurba_marseille","lat":43.265665,"lon":5.403398,"is_reserved":false,"is_disabled":false,"rental_uris":{"android":"levelo://app?vid=61399ca3-8344-498f-89d7-90b632c9660c","ios":"levelo://app?vid=61399ca3-8344-498f-89d7-90b632c9660c"},"vehicle_type_id":"4","last_reported":1779051279,"current_range_meters":5600,"station_id":"ce4bhmp2rcd13ifvqgng","pricing_plan_id":"cebpf4jnsgd1na2vs0mg"},{"bike_id":"f1cd0890-3e2d-4ace-99cd-3f5cc88ecf21","system_id":"levelo_inurba_marseille","lat":43.31897,"lon":5.3678,"is_reserved":false,"is_disabled":false,"rental_uris":{"android":"levelo://app?vid=f1cd0890-3e2d-4ace-99cd-3f5cc88ecf21","ios":"levelo://app?vid=f1cd0890-3e2d-4ace-99cd-3f5cc88ecf21"},"vehicle_type_id":"4","last_reported":1779051279,"current_range_meters":6000,"station_id":"st_d6o2h0d0559c73evc1b0","pricing_plan_id":"cebpf4jnsgd1na2vs0mg"},{"bike_id":"071bb025-e6ab-455b-970c-1c5ebc6c46f5","system_id":"levelo_inurba_marseille","lat":43.3014,"lon":5.37422,"is_reserved":false,"is_disabled":false,"rental_uris":{"android":"levelo://app?vid=071bb025-e6ab-455b-970c-1c5ebc6c46f5","ios":"levelo://app?vid=071bb025-e6ab-455b-970c-1c5ebc6c46f5"},"vehicle_type_id":"4","last_reported":1779051279,"current_range_meters":6000,"station_id":"ce4bgs92rcd13ifvqcc0","pricing_plan_id":"cebpf4jnsgd1na2vs0mg"},{"bike_id":"0baeead3-5057-46f7-9ab7-624502f6039c","system_id":"levelo_inurba_marseille","lat":43.292801,"lon":5.401149,"is_reserved":false,"is_disabled":true,"rental_uris":{"android":"levelo://app?vid=0baeead3-5057-46f7-9ab7-624502f6039c","ios":"levelo://app?vid=0baeead3-5057-46f7-9ab7-624502f6039c"},"vehicle_type_id":"4","last_reported":1779051279,"current_range_meters":6000,"station_id":"ce4bh312rcd13ifvqdk0","pricing_plan_id":"cebpf4jnsgd1na2vs0mg"},{"bike_id":"3a47ff7b-1495-4b38-ba63-866198f72bba","system_id":"levelo_inurba_marseille","lat":43.30948,"lon":5.39039,"is_reserved":false,"is_disabled":false,"rental_uris":{"android":"levelo://app?vid=3a47ff7b-1495-4b38-ba63-866198f72bba","ios":"levelo://app?vid=3a47ff7b-1495-4b38-ba63-866198f72bba"},"vehicle_type_id":"4","last_reported":1779051279,"current_range_meters":6000,"station_id":"ce4bgup2rcd13ifvqco0","pricing_plan_id":"cebpf4jnsgd1na2vs0mg"},{"bike_id":"e7769197-75a5-4ebd-8a7c-258a71c3d79f","system_id":"levelo_inurba_marseille","lat":43.27617,"lon":5.361,"is_reserved":false,"is_disabled":false,"rental_uris":{"android":"levelo://app?vid=e7769197-75a5-4ebd-8a7c-258a71c3d79f","ios":"levelo://app?vid=e7769197-75a5-4ebd-8a7c-258a71c3d79f"},"vehicle_type_id":"4","last_reported":1779051279,"current_range_meters":6000,"station_id":"ce4bhbh2rcd13ifvqeqg","pricing_plan_id":"cebpf4jnsgd1na2vs0mg"},{"bike_id":"62491268-7d1b-4037-9dd7-2d4c13008b92","system_id":"levelo_inurba_marseille","lat":43.30779,"lon":5.37057,"is_reserved":false,"is_disabled":false,"rental_uris":{"android":"levelo://app?vid=62491268-7d1b-4037-9dd7-2d4c13008b92","ios":"levelo://app?vid=62491268-7d1b-4037-9dd7-2d4c13008b92"},"vehicle_type_id":"4","last_reported":1779051279,"current_range_meters":6000,"station_id":"","pricing_plan_id":"cebpf4jnsgd1na2vs0mg"},{"bike_id":"3d2f482a-90d0-4fd6-acee-470dbd6acb0e","system_id":"levelo_inurba_marseille","lat":43.29975,"lon":5.38486,"is_reserved":false,"is_disabled":false,"rental_uris":{"android":"levelo://app?vid=3d2f482a-90d0-4fd6-acee-470dbd6acb0e","ios":"levelo://app?vid=3d2f482a-90d0-4fd6-acee-470dbd6acb0e"},"vehicle_type_id":"4","last_reported":1779051279,"current_range_meters":6000,"station_id":"ce4bgj92rcd13ifvqbd0","pricing_plan_id":"cebpf4jnsgd1na2vs0mg"},{"bike_id":"54fde902-aa3c-457a-b571-90fafcd914f0","system_id":"levelo_inurba_marseille","lat":43.25188,"lon":5.37433,"is_reserved":false,"is_disabled":false,"rental_uris":{"android":"levelo://app?vid=54fde902-aa3c-457a-b571-90fafcd914f0","ios":"levelo://app?vid=54fde902-aa3c-457a-b571-90fafcd914f0"},"vehicle_type_id":"4","last_reported":1779051279,"current_range_meters":6000,"station_id":"","pricing_plan_id":"cebpf4jnsgd1na2vs0mg"},{"bike_id":"c332725f-1433-4df6-83da-b09f7d9eca8a","system_id":"levelo_inurba_marseille","lat":43.28875,"lon":5.42505,"is_reserved":false,"is_disabled":false,"rental_uris":{"android":"levelo://app?vid=c332725f-1433-4df6-83da-b09f7d9eca8a","ios":"levelo://app?vid=c332725f-1433-4df6-83da-b09f7d9eca8a"},"vehicle_type_id":"4","last_reported":1779051279,"current_range_meters":6000,"station_id":"st_d3b462108ojc7389ooeg","pricing_plan_id":"cebpf4jnsgd1na2vs0mg"},{"bike_id":"d61a5bad-5179-4144-83df-8466c8572fc4","system_id":"levelo_inurba_marseille","lat":43.23961,"lon":5.36618,"is_reserved":false,"is_disabled":false,"rental_uris":{"android":"levelo://app?vid=d61a5bad-5179-4144-83df-8466c8572fc4","ios":"levelo://app?vid=d61a5bad-5179-4144-83df-8466c8572fc4"},"vehicle_type_id":"4","last_reported":1779051279,"current_range_meters":6000,"station_id":"ce4bhi12rcd13ifvqfp0","pricing_plan_id":"cebpf4jnsgd1na2vs0mg"},{"bike_id":"fb86733b-144b-4c0a-83c9-ab7086be4c18","system_id":"levelo_inurba_marseille","lat":43.27846,"lon":5.38669,"is_reserved":false,"is_disabled":true,"rental_uris":{"android":"levelo://app?vid=fb86733b-144b-4c0a-83c9-ab7086be4c18","ios":"levelo://app?vid=fb86733b-144b-4c0a-83c9-ab7086be4c18"},"vehicle_type_id":"4","last_reported":1779051279,"current_range_meters":6000,"station_id":"ce4bhg12rcd13ifvqf80","pricing_plan_id":"cebpf4jnsgd1na2vs0mg"},{"bike_id":"b249b654-9f6a-4dcd-9f3a-de18b5d86afb","system_id":"levelo_inurba_marseille","lat":43.24168,"lon":5.36399,"is_reserved":false,"is_disabled":false,"rental_uris":{"android":"levelo://app?vid=b249b654-9f6a-4dcd-9f3a-de18b5d86afb","ios":"levelo://app?vid=b249b654-9f6a-4dcd-9f3a-de18b5d86afb"},"vehicle_type_id":"4","last_reported":1779051279,"current_range_meters":6000,"station_id":"cpo36qri1sfpv3e86is0","pricing_plan_id":"cebpf4jnsgd1na2vs0mg"},{"bike_id":"c6e93e06-3823-44a1-9183-7579cebb2f07","system_id":"levelo_inurba_marseille","lat":43.29269,"lon":5.38412,"is_reserved":false,"is_disabled":false,"rental_uris":{"android":"levelo://app?vid=c6e93e06-3823-44a1-9183-7579cebb2f07","ios":"levelo://app?vid=c6e93e06-3823-44a1-9183-7579cebb2f07"},"vehicle_type_id":"4","last_reported":1779051279,"current_range_meters":6000,"station_id":"ce4bh692rcd13ifvqea0","pricing_plan_id":"cebpf4jnsgd1na2vs0mg"},{"bike_id":"4f9c05a9-48cd-4271-bffa-29556b30148b","system_id":"levelo_inurba_marseille","lat":43.29302,"lon":5.40306,"is_reserved":false,"is_disabled":false,"rental_uris":{"android":"levelo://app?vid=4f9c05a9-48cd-4271-bffa-29556b30148b","ios":"levelo://app?vid=4f9c05a9-48cd-4271-bffa-29556b30148b"},"vehicle_type_id":"4","last_reported":1779051279,"current_range_meters":6000,"station_id":"","pricing_plan_id":"cebpf4jnsgd1na2vs0mg"},{"bike_id":"d099c9d8-5a55-4fef-971b-743cec5cec4a","system_id":"levelo_inurba_marseille","lat":43.28471,"lon":5.38446,"is_reserved":false,"is_disabled":false,"rental_uris":{"android":"levelo://app?vid=d099c9d8-5a55-4fef-971b-743cec5cec4a","ios":"levelo://app?vid=d099c9d8-5a55-4fef-971b-743cec5cec4a"},"vehicle_type_id":"4","last_reported":1779051279,"current_range_meters":6000,"station_id":"ce4bh512rcd13ifvqe3g","pricing_plan_id":"cebpf4jnsgd1na2vs0mg"},{"bike_id":"df4672e2-3eea-4479-8560-fa0fb94b9cdd","system_id":"levelo_inurba_marseille","lat":43.28662,"lon":5.36351,"is_reserved":false,"is_disabled":false,"rental_uris":{"android":"levelo://app?vid=df4672e2-3eea-4479-8560-fa0fb94b9cdd","ios":"levelo://app?vid=df4672e2-3eea-4479-8560-fa0fb94b9cdd"},"vehicle_type_id":"4","last_reported":1779051279,"current_range_meters":6000,"station_id":"ce4bhah2rcd13ifvqej0","pricing_plan_id":"cebpf4jnsgd1na2vs0mg"},{"bike_id":"1725e9ad-6780-4716-8376-c2be2afd8017","system_id":"levelo_inurba_marseille","lat":43.27681,"lon":5.38878,"is_reserved":false,"is_disabled":false,"rental_uris":{"android":"levelo://app?vid=1725e9ad-6780-4716-8376-c2be2afd8017","ios":"levelo://app?vid=1725e9ad-6780-4716-8376-c2be2afd8017"},"vehicle_type_id":"4","last_reported":1779051279,"current_range_meters":6000,"station_id":"ce4bhi12rcd13ifvqfo0","pricing_plan_id":"cebpf4jnsgd1na2vs0mg"},{"bike_id":"8b8fd09d-481f-4309-9df8-335b89551122","system_id":"levelo_inurba_marseille","lat":43.28937,"lon":5.36621,"is_reserved":false,"is_disabled":false,"rental_uris":{"android":"levelo://app?vid=8b8fd09d-481f-4309-9df8-335b89551122","ios":"levelo://app?vid=8b8fd09d-481f-4309-9df8-335b89551122"},"vehicle_type_id":"4","last_reported":1779051279,"current_range_meters":6000,"station_id":"ce4bhap2rcd13ifvqek0","pricing_plan_id":"cebpf4jnsgd1na2vs0mg"},{"bike_id":"832d64bf-bfdb-444d-bc03-658089b5ad2a","system_id":"levelo_inurba_marseille","lat":43.27378,"lon":5.36237,"is_reserved":false,"is_disabled":false,"rental_uris":{"android":"levelo://app?vid=832d64bf-bfdb-444d-bc03-658089b5ad2a","ios":"levelo://app?vid=832d64bf-bfdb-444d-bc03-658089b5ad2a"},"vehicle_type_id":"4","last_reported":1779051279,"current_range_meters":6000,"station_id":"ce4bhbh2rcd13ifvqeo0","pricing_plan_id":"cebpf4jnsgd1na2vs0mg"},{"bike_id":"57d54335-7168-4a0a-8b10-b7cd0fcac1c9","system_id":"levelo_inurba_marseille","lat":43.29692,"lon":5.36588,"is_reserved":false,"is_disabled":false,"rental_uris":{"android":"levelo://app?vid=57d54335-7168-4a0a-8b10-b7cd0fcac1c9","ios":"levelo://app?vid=57d54335-7168-4a0a-8b10-b7cd0fcac1c9"},"vehicle_type_id":"4","last_reported":1779051279,"current_range_meters":6400,"station_id":"ce4bgn12rcd13ifvqbt0","pricing_plan_id":"cebpf4jnsgd1na2vs0mg"},{"bike_id":"54ab9ce3-2b91-42b0-a7d8-1383a1442009","system_id":"levelo_inurba_marseille","lat":43.22577,"lon":5.41667,"is_reserved":false,"is_disabled":false,"rental_uris":{"android":"levelo://app?vid=54ab9ce3-2b91-42b0-a7d8-1383a1442009","ios":"levelo://app?vid=54ab9ce3-2b91-42b0-a7d8-1383a1442009"},"vehicle_type_id":"4","last_reported":1779051279,"current_range_meters":6400,"station_id":"st_d2o4gvlbi1j2169b742g","pricing_plan_id":"cebpf4jnsgd1na2vs0mg"},{"bike_id":"7b127ec7-0070-45dd-9ff1-e1878546b350","system_id":"levelo_inurba_marseille","lat":43.28281,"lon":5.35082,"is_reserved":false,"is_disabled":true,"rental_uris":{"android":"levelo://app?vid=7b127ec7-0070-45dd-9ff1-e1878546b350","ios":"levelo://app?vid=7b127ec7-0070-45dd-9ff1-e1878546b350"},"vehicle_type_id":"4","last_reported":1779051279,"current_range_meters":6400,"station_id":"ce4bhbp2rcd13ifvqerg","pricing_plan_id":"cebpf4jnsgd1na2vs0mg"},{"bike_id":"d26debdb-f469-4a13-a8ba-292bb0c749cd","system_id":"levelo_inurba_marseille","lat":43.22923,"lon":5.35368,"is_reserved":false,"is_disabled":false,"rental_uris":{"android":"levelo://app?vid=d26debdb-f469-4a13-a8ba-292bb0c749cd","ios":"levelo://app?vid=d26debdb-f469-4a13-a8ba-292bb0c749cd"},"vehicle_type_id":"4","last_reported":1779051279,"current_range_meters":6400,"station_id":"cpo3532slgdg3j2ikp40","pricing_plan_id":"cebpf4jnsgd1na2vs0mg"},{"bike_id":"fb32d163-c477-4aa0-97a7-e411303b0a42","system_id":"levelo_inurba_marseille","lat":43.21189,"lon":5.35068,"is_reserved":false,"is_disabled":false,"rental_uris":{"android":"levelo://app?vid=fb32d163-c477-4aa0-97a7-e411303b0a42","ios":"levelo://app?vid=fb32d163-c477-4aa0-97a7-e411303b0a42"},"vehicle_type_id":"4","last_reported":1779051279,"current_range_meters":6400,"station_id":"st_cvj6sg6p6f1abm77japg","pricing_plan_id":"cebpf4jnsgd1na2vs0mg"},{"bike_id":"b3f6493c-d013-4c08-8527-9e057dfa45f6","system_id":"levelo_inurba_marseille","lat":43.29329,"lon":5.37443,"is_reserved":false,"is_disabled":true,"rental_uris":{"android":"levelo://app?vid=b3f6493c-d013-4c08-8527-9e057dfa45f6","ios":"levelo://app?vid=b3f6493c-d013-4c08-8527-9e057dfa45f6"},"vehicle_type_id":"4","last_reported":1779051279,"current_range_meters":6400,"station_id":"ce4bgi12rcd13ifvqb70","pricing_plan_id":"cebpf4jnsgd1na2vs0mg"},{"bike_id":"28ea8ab8-f68c-422d-ae62-5dda211f8abb","system_id":"levelo_inurba_marseille","lat":43.32106,"lon":5.36784,"is_reserved":false,"is_disabled":false,"rental_uris":{"android":"levelo://app?vid=28ea8ab8-f68c-422d-ae62-5dda211f8abb","ios":"levelo://app?vid=28ea8ab8-f68c-422d-ae62-5dda211f8abb"},"vehicle_type_id":"4","last_reported":1779051279,"current_range_meters":6400,"station_id":"ce4bhrh2rcd13ifvqhug","pricing_plan_id":"cebpf4jnsgd1na2vs0mg"},{"bike_id":"567c49c0-7ff7-4d34-a58e-cec560e41a32","system_id":"levelo_inurba_marseille","lat":43.30415,"lon":5.39433,"is_reserved":false,"is_disabled":false,"rental_uris":{"android":"levelo://app?vid=567c49c0-7ff7-4d34-a58e-cec560e41a32","ios":"levelo://app?vid=567c49c0-7ff7-4d34-a58e-cec560e41a32"},"vehicle_type_id":"4","last_reported":1779051279,"current_range_meters":6400,"station_id":"ce4bh0p2rcd13ifvqd80","pricing_plan_id":"cebpf4jnsgd1na2vs0mg"},{"bike_id":"a4dcb63d-da5e-4e93-abca-967325ccef1b","system_id":"levelo_inurba_marseille","lat":43.23901,"lon":5.37446,"is_reserved":false,"is_disabled":true,"rental_uris":{"android":"levelo://app?vid=a4dcb63d-da5e-4e93-abca-967325ccef1b","ios":"levelo://app?vid=a4dcb63d-da5e-4e93-abca-967325ccef1b"},"vehicle_type_id":"4","last_reported":1779051279,"current_range_meters":6400,"station_id":"st_d6sm7csbq4hs73f8fpjg","pricing_plan_id":"cebpf4jnsgd1na2vs0mg"},{"bike_id":"b4d3a7ef-d996-48f2-a414-1f9c8040bb8f","system_id":"levelo_inurba_marseille","lat":43.27503,"lon":5.42439,"is_reserved":false,"is_disabled":false,"rental_uris":{"android":"levelo://app?vid=b4d3a7ef-d996-48f2-a414-1f9c8040bb8f","ios":"levelo://app?vid=b4d3a7ef-d996-48f2-a414-1f9c8040bb8f"},"vehicle_type_id":"4","last_reported":1779051279,"current_range_meters":6400,"station_id":"ce4bhn92rcd13ifvqgrg","pricing_plan_id":"cebpf4jnsgd1na2vs0mg"},{"bike_id":"471c599a-d317-44fb-91c7-b181a7263dd1","system_id":"levelo_inurba_marseille","lat":43.24074,"lon":5.37765,"is_reserved":false,"is_disabled":false,"rental_uris":{"android":"levelo://app?vid=471c599a-d317-44fb-91c7-b181a7263dd1","ios":"levelo://app?vid=471c599a-d317-44fb-91c7-b181a7263dd1"},"vehicle_type_id":"4","last_reported":1779051279,"current_range_meters":6400,"station_id":"ce4bhnp2rcd13ifvqgvg","pricing_plan_id":"cebpf4jnsgd1na2vs0mg"},{"bike_id":"7af3deac-591f-4e06-9b07-18f668304cda","system_id":"levelo_inurba_marseille","lat":43.2624,"lon":5.37585,"is_reserved":false,"is_disabled":false,"rental_uris":{"android":"levelo://app?vid=7af3deac-591f-4e06-9b07-18f668304cda","ios":"levelo://app?vid=7af3deac-591f-4e06-9b07-18f668304cda"},"vehicle_type_id":"4","last_reported":1779051279,"current_range_meters":6400,"station_id":"","pricing_plan_id":"cebpf4jnsgd1na2vs0mg"},{"bike_id":"b1a83a13-4601-4cc8-b069-9b93072b6870","system_id":"levelo_inurba_marseille","lat":43.3211,"lon":5.3674,"is_reserved":false,"is_disabled":false,"rental_uris":{"android":"levelo://app?vid=b1a83a13-4601-4cc8-b069-9b93072b6870","ios":"levelo://app?vid=b1a83a13-4601-4cc8-b069-9b93072b6870"},"vehicle_type_id":"4","last_reported":1779051279,"current_range_meters":6400,"station_id":"ce4bhrh2rcd13ifvqhug","pricing_plan_id":"cebpf4jnsgd1na2vs0mg"},{"bike_id":"c42cd8aa-b86d-4b0d-a8bd-91284919ac1c","system_id":"levelo_inurba_marseille","lat":43.24399,"lon":5.3705,"is_reserved":false,"is_disabled":false,"rental_uris":{"android":"levelo://app?vid=c42cd8aa-b86d-4b0d-a8bd-91284919ac1c","ios":"levelo://app?vid=c42cd8aa-b86d-4b0d-a8bd-91284919ac1c"},"vehicle_type_id":"4","last_reported":1779051279,"current_range_meters":6800,"station_id":"ce4bhhh2rcd13ifvqfk0","pricing_plan_id":"cebpf4jnsgd1na2vs0mg"},{"bike_id":"2986fb6d-029a-46c2-a508-7b31795b62a0","system_id":"levelo_inurba_marseille","lat":43.27819,"lon":5.40693,"is_reserved":false,"is_disabled":false,"rental_uris":{"android":"levelo://app?vid=2986fb6d-029a-46c2-a508-7b31795b62a0","ios":"levelo://app?vid=2986fb6d-029a-46c2-a508-7b31795b62a0"},"vehicle_type_id":"4","last_reported":1779051279,"current_range_meters":6800,"station_id":"ce4bhnh2rcd13ifvqgtg","pricing_plan_id":"cebpf4jnsgd1na2vs0mg"},{"bike_id":"ab683654-00d6-482a-99f3-3b01e127b0cc","system_id":"levelo_inurba_marseille","lat":43.26959,"lon":5.40232,"is_reserved":false,"is_disabled":false,"rental_uris":{"android":"levelo://app?vid=ab683654-00d6-482a-99f3-3b01e127b0cc","ios":"levelo://app?vid=ab683654-00d6-482a-99f3-3b01e127b0cc"},"vehicle_type_id":"4","last_reported":1779051279,"current_range_meters":6800,"station_id":"cjm6bp8fraef2m0cb0m0","pricing_plan_id":"cebpf4jnsgd1na2vs0mg"},{"bike_id":"5f6900ba-259e-4899-b1c6-79e14c1eb135","system_id":"levelo_inurba_marseille","lat":43.2121,"lon":5.35059,"is_reserved":false,"is_disabled":false,"rental_uris":{"android":"levelo://app?vid=5f6900ba-259e-4899-b1c6-79e14c1eb135","ios":"levelo://app?vid=5f6900ba-259e-4899-b1c6-79e14c1eb135"},"vehicle_type_id":"4","last_reported":1779051279,"current_range_meters":6800,"station_id":"st_cvj6sg6p6f1abm77japg","pricing_plan_id":"cebpf4jnsgd1na2vs0mg"},{"bike_id":"5c088cbe-f367-4c53-832b-92dcbcd67f3b","system_id":"levelo_inurba_marseille","lat":43.24648,"lon":5.38878,"is_reserved":false,"is_disabled":false,"rental_uris":{"android":"levelo://app?vid=5c088cbe-f367-4c53-832b-92dcbcd67f3b","ios":"levelo://app?vid=5c088cbe-f367-4c53-832b-92dcbcd67f3b"},"vehicle_type_id":"4","last_reported":1779051279,"current_range_meters":6800,"station_id":"ce4bhg12rcd13ifvqf60","pricing_plan_id":"cebpf4jnsgd1na2vs0mg"},{"bike_id":"e5b0fcb7-16bc-4149-8522-a9dbdd766b0a","system_id":"levelo_inurba_marseille","lat":43.26813,"lon":5.40271,"is_reserved":false,"is_disabled":false,"rental_uris":{"android":"levelo://app?vid=e5b0fcb7-16bc-4149-8522-a9dbdd766b0a","ios":"levelo://app?vid=e5b0fcb7-16bc-4149-8522-a9dbdd766b0a"},"vehicle_type_id":"4","last_reported":1779051279,"current_range_meters":6800,"station_id":"ce501612rcd8frsf0b60","pricing_plan_id":"cebpf4jnsgd1na2vs0mg"},{"bike_id":"1a604e1b-7247-4bf8-8da3-cd73d8358a5b","system_id":"levelo_inurba_marseille","lat":43.24323,"lon":5.38438,"is_reserved":false,"is_disabled":false,"rental_uris":{"android":"levelo://app?vid=1a604e1b-7247-4bf8-8da3-cd73d8358a5b","ios":"levelo://app?vid=1a604e1b-7247-4bf8-8da3-cd73d8358a5b"},"vehicle_type_id":"4","last_reported":1779051279,"current_range_meters":6800,"station_id":"","pricing_plan_id":"cebpf4jnsgd1na2vs0mg"},{"bike_id":"bd6c6a18-b185-4ca4-bf72-37723228331c","system_id":"levelo_inurba_marseille","lat":43.26843,"lon":5.39464,"is_reserved":false,"is_disabled":false,"rental_uris":{"android":"levelo://app?vid=bd6c6a18-b185-4ca4-bf72-37723228331c","ios":"levelo://app?vid=bd6c6a18-b185-4ca4-bf72-37723228331c"},"vehicle_type_id":"4","last_reported":1779051279,"current_range_meters":6800,"station_id":"","pricing_plan_id":"cebpf4jnsgd1na2vs0mg"},{"bike_id":"71ee6503-1c9e-4aa5-82c6-ae2135886773","system_id":"levelo_inurba_marseille","lat":43.27612,"lon":5.36105,"is_reserved":false,"is_disabled":false,"rental_uris":{"android":"levelo://app?vid=71ee6503-1c9e-4aa5-82c6-ae2135886773","ios":"levelo://app?vid=71ee6503-1c9e-4aa5-82c6-ae2135886773"},"vehicle_type_id":"4","last_reported":1779051279,"current_range_meters":6800,"station_id":"ce4bgj92rcd13ifvqbe0","pricing_plan_id":"cebpf4jnsgd1na2vs0mg"},{"bike_id":"d694a24c-448f-40d3-93b9-cd4f3b5cfb26","system_id":"levelo_inurba_marseille","lat":43.24964,"lon":5.40489,"is_reserved":false,"is_disabled":false,"rental_uris":{"android":"levelo://app?vid=d694a24c-448f-40d3-93b9-cd4f3b5cfb26","ios":"levelo://app?vid=d694a24c-448f-40d3-93b9-cd4f3b5cfb26"},"vehicle_type_id":"4","last_reported":1779051279,"current_range_meters":6800,"station_id":"st_d2ngiaodas8pm72gd1h0","pricing_plan_id":"cebpf4jnsgd1na2vs0mg"},{"bike_id":"c25116ee-36e8-4385-ac6a-936536f8e0ec","system_id":"levelo_inurba_marseille","lat":43.26557,"lon":5.42177,"is_reserved":false,"is_disabled":false,"rental_uris":{"android":"levelo://app?vid=c25116ee-36e8-4385-ac6a-936536f8e0ec","ios":"levelo://app?vid=c25116ee-36e8-4385-ac6a-936536f8e0ec"},"vehicle_type_id":"4","last_reported":1779051279,"current_range_meters":6800,"station_id":"","pricing_plan_id":"cebpf4jnsgd1na2vs0mg"},{"bike_id":"18c973f2-0985-4e43-b947-72bfd1633b25","system_id":"levelo_inurba_marseille","lat":43.29546,"lon":5.39386,"is_reserved":false,"is_disabled":false,"rental_uris":{"android":"levelo://app?vid=18c973f2-0985-4e43-b947-72bfd1633b25","ios":"levelo://app?vid=18c973f2-0985-4e43-b947-72bfd1633b25"},"vehicle_type_id":"4","last_reported":1779051279,"current_range_meters":6800,"station_id":"ce4bh292rcd13ifvqdf0","pricing_plan_id":"cebpf4jnsgd1na2vs0mg"},{"bike_id":"ce532fcd-5557-4a28-a00e-d605ccf8c010","system_id":"levelo_inurba_marseille","lat":43.24423,"lon":5.37024,"is_reserved":false,"is_disabled":false,"rental_uris":{"android":"levelo://app?vid=ce532fcd-5557-4a28-a00e-d605ccf8c010","ios":"levelo://app?vid=ce532fcd-5557-4a28-a00e-d605ccf8c010"},"vehicle_type_id":"4","last_reported":1779051279,"current_range_meters":6800,"station_id":"","pricing_plan_id":"cebpf4jnsgd1na2vs0mg"},{"bike_id":"3709e2eb-1cc1-449a-a8a9-9b35e8235906","system_id":"levelo_inurba_marseille","lat":43.26369,"lon":5.41056,"is_reserved":false,"is_disabled":false,"rental_uris":{"android":"levelo://app?vid=3709e2eb-1cc1-449a-a8a9-9b35e8235906","ios":"levelo://app?vid=3709e2eb-1cc1-449a-a8a9-9b35e8235906"},"vehicle_type_id":"4","last_reported":1779051279,"current_range_meters":6800,"station_id":"st_d4e5ca6na9uc73bfl5fg","pricing_plan_id":"cebpf4jnsgd1na2vs0mg"},{"bike_id":"41ded781-3ab4-4404-8a64-8293b4fa5a47","system_id":"levelo_inurba_marseille","lat":43.30248,"lon":5.40077,"is_reserved":false,"is_disabled":false,"rental_uris":{"android":"levelo://app?vid=41ded781-3ab4-4404-8a64-8293b4fa5a47","ios":"levelo://app?vid=41ded781-3ab4-4404-8a64-8293b4fa5a47"},"vehicle_type_id":"4","last_reported":1779051279,"current_range_meters":6800,"station_id":"ce4bgvh2rcd13ifvqcs0","pricing_plan_id":"cebpf4jnsgd1na2vs0mg"},{"bike_id":"0ab4d095-2343-49ac-9cf5-8431ecc99ec0","system_id":"levelo_inurba_marseille","lat":43.30137,"lon":5.38788,"is_reserved":false,"is_disabled":false,"rental_uris":{"android":"levelo://app?vid=0ab4d095-2343-49ac-9cf5-8431ecc99ec0","ios":"levelo://app?vid=0ab4d095-2343-49ac-9cf5-8431ecc99ec0"},"vehicle_type_id":"4","last_reported":1779051279,"current_range_meters":6800,"station_id":"ce4bghh2rcd13ifvqb60","pricing_plan_id":"cebpf4jnsgd1na2vs0mg"},{"bike_id":"6f2c2415-0abc-4a6d-81e0-d4315cd25937","system_id":"levelo_inurba_marseille","lat":43.29289,"lon":5.40111,"is_reserved":false,"is_disabled":false,"rental_uris":{"android":"levelo://app?vid=6f2c2415-0abc-4a6d-81e0-d4315cd25937","ios":"levelo://app?vid=6f2c2415-0abc-4a6d-81e0-d4315cd25937"},"vehicle_type_id":"4","last_reported":1779051279,"current_range_meters":6800,"station_id":"ce4bh312rcd13ifvqdk0","pricing_plan_id":"cebpf4jnsgd1na2vs0mg"},{"bike_id":"12b35af7-acd4-4e3f-a8f0-e1988b414249","system_id":"levelo_inurba_marseille","lat":43.2998,"lon":5.38487,"is_reserved":false,"is_disabled":false,"rental_uris":{"android":"levelo://app?vid=12b35af7-acd4-4e3f-a8f0-e1988b414249","ios":"levelo://app?vid=12b35af7-acd4-4e3f-a8f0-e1988b414249"},"vehicle_type_id":"4","last_reported":1779051279,"current_range_meters":6800,"station_id":"ce4bgj92rcd13ifvqbd0","pricing_plan_id":"cebpf4jnsgd1na2vs0mg"},{"bike_id":"9e878235-dd2c-4199-9aa8-8698ea6e9314","system_id":"levelo_inurba_marseille","lat":43.2509,"lon":5.39527,"is_reserved":false,"is_disabled":false,"rental_uris":{"android":"levelo://app?vid=9e878235-dd2c-4199-9aa8-8698ea6e9314","ios":"levelo://app?vid=9e878235-dd2c-4199-9aa8-8698ea6e9314"},"vehicle_type_id":"4","last_reported":1779051279,"current_range_meters":6800,"station_id":"ce4bhm12rcd13ifvqgkg","pricing_plan_id":"cebpf4jnsgd1na2vs0mg"},{"bike_id":"65dbae25-6334-47ef-a49d-ffe5a15f1273","system_id":"levelo_inurba_marseille","lat":43.24166,"lon":5.36396,"is_reserved":false,"is_disabled":false,"rental_uris":{"android":"levelo://app?vid=65dbae25-6334-47ef-a49d-ffe5a15f1273","ios":"levelo://app?vid=65dbae25-6334-47ef-a49d-ffe5a15f1273"},"vehicle_type_id":"4","last_reported":1779051279,"current_range_meters":6800,"station_id":"cpo36qri1sfpv3e86is0","pricing_plan_id":"cebpf4jnsgd1na2vs0mg"},{"bike_id":"d815c488-0cf1-4d4b-bacb-68d62f5a9580","system_id":"levelo_inurba_marseille","lat":43.3128,"lon":5.36822,"is_reserved":false,"is_disabled":false,"rental_uris":{"android":"levelo://app?vid=d815c488-0cf1-4d4b-bacb-68d62f5a9580","ios":"levelo://app?vid=d815c488-0cf1-4d4b-bacb-68d62f5a9580"},"vehicle_type_id":"4","last_reported":1779051279,"current_range_meters":6800,"station_id":"","pricing_plan_id":"cebpf4jnsgd1na2vs0mg"},{"bike_id":"37e8354e-ce39-4030-9881-babd9feb5321","system_id":"levelo_inurba_marseille","lat":43.23972,"lon":5.36627,"is_reserved":false,"is_disabled":false,"rental_uris":{"android":"levelo://app?vid=37e8354e-ce39-4030-9881-babd9feb5321","ios":"levelo://app?vid=37e8354e-ce39-4030-9881-babd9feb5321"},"vehicle_type_id":"4","last_reported":1779051279,"current_range_meters":7200,"station_id":"ce4bhi12rcd13ifvqfp0","pricing_plan_id":"cebpf4jnsgd1na2vs0mg"},{"bike_id":"afe11141-8996-42c9-8f0d-1bd1997a7530","system_id":"levelo_inurba_marseille","lat":43.29664,"lon":5.37769,"is_reserved":false,"is_disabled":false,"rental_uris":{"android":"levelo://app?vid=afe11141-8996-42c9-8f0d-1bd1997a7530","ios":"levelo://app?vid=afe11141-8996-42c9-8f0d-1bd1997a7530"},"vehicle_type_id":"4","last_reported":1779051279,"current_range_meters":7200,"station_id":"","pricing_plan_id":"cebpf4jnsgd1na2vs0mg"},{"bike_id":"b33fe95e-35af-4b58-b9e7-0c6a8caa8110","system_id":"levelo_inurba_marseille","lat":43.29788,"lon":5.3935,"is_reserved":false,"is_disabled":false,"rental_uris":{"android":"levelo://app?vid=b33fe95e-35af-4b58-b9e7-0c6a8caa8110","ios":"levelo://app?vid=b33fe95e-35af-4b58-b9e7-0c6a8caa8110"},"vehicle_type_id":"4","last_reported":1779051279,"current_range_meters":7200,"station_id":"chh1huq6cuj3fo74tm60","pricing_plan_id":"cebpf4jnsgd1na2vs0mg"},{"bike_id":"4594bcf5-4027-4564-aa74-8f0911cfd6ee","system_id":"levelo_inurba_marseille","lat":43.26589,"lon":5.39625,"is_reserved":false,"is_disabled":false,"rental_uris":{"android":"levelo://app?vid=4594bcf5-4027-4564-aa74-8f0911cfd6ee","ios":"levelo://app?vid=4594bcf5-4027-4564-aa74-8f0911cfd6ee"},"vehicle_type_id":"4","last_reported":1779051279,"current_range_meters":7200,"station_id":"","pricing_plan_id":"cebpf4jnsgd1na2vs0mg"},{"bike_id":"a5a2318a-33d9-4e58-8414-86b09ee999c4","system_id":"levelo_inurba_marseille","lat":43.27984,"lon":5.40024,"is_reserved":false,"is_disabled":false,"rental_uris":{"android":"levelo://app?vid=a5a2318a-33d9-4e58-8414-86b09ee999c4","ios":"levelo://app?vid=a5a2318a-33d9-4e58-8414-86b09ee999c4"},"vehicle_type_id":"4","last_reported":1779051279,"current_range_meters":7200,"station_id":"ce4bho92rcd13ifvqh4g","pricing_plan_id":"cebpf4jnsgd1na2vs0mg"},{"bike_id":"1fbce2f5-da80-4e48-bf50-ba3a76552067","system_id":"levelo_inurba_marseille","lat":43.3094,"lon":5.3903,"is_reserved":false,"is_disabled":true,"rental_uris":{"android":"levelo://app?vid=1fbce2f5-da80-4e48-bf50-ba3a76552067","ios":"levelo://app?vid=1fbce2f5-da80-4e48-bf50-ba3a76552067"},"vehicle_type_id":"4","last_reported":1779051279,"current_range_meters":7200,"station_id":"ce4bgup2rcd13ifvqco0","pricing_plan_id":"cebpf4jnsgd1na2vs0mg"},{"bike_id":"00f07221-40ec-4f62-9b59-bb0756e8fce8","system_id":"levelo_inurba_marseille","lat":43.2721,"lon":5.39174,"is_reserved":false,"is_disabled":true,"rental_uris":{"android":"levelo://app?vid=00f07221-40ec-4f62-9b59-bb0756e8fce8","ios":"levelo://app?vid=00f07221-40ec-4f62-9b59-bb0756e8fce8"},"vehicle_type_id":"4","last_reported":1779051279,"current_range_meters":7200,"station_id":"ce4bhhp2rcd13ifvqfm0","pricing_plan_id":"cebpf4jnsgd1na2vs0mg"},{"bike_id":"8a1d19c1-4998-48cc-919f-a7da99fe2397","system_id":"levelo_inurba_marseille","lat":43.27847,"lon":5.39175,"is_reserved":false,"is_disabled":true,"rental_uris":{"android":"levelo://app?vid=8a1d19c1-4998-48cc-919f-a7da99fe2397","ios":"levelo://app?vid=8a1d19c1-4998-48cc-919f-a7da99fe2397"},"vehicle_type_id":"4","last_reported":1779051279,"current_range_meters":7200,"station_id":"ce4bhjp2rcd13ifvqga0","pricing_plan_id":"cebpf4jnsgd1na2vs0mg"},{"bike_id":"dd6df5b2-52b8-49a8-91cf-d826100f9526","system_id":"levelo_inurba_marseille","lat":43.32463,"lon":5.3657,"is_reserved":false,"is_disabled":false,"rental_uris":{"android":"levelo://app?vid=dd6df5b2-52b8-49a8-91cf-d826100f9526","ios":"levelo://app?vid=dd6df5b2-52b8-49a8-91cf-d826100f9526"},"vehicle_type_id":"4","last_reported":1779051279,"current_range_meters":7200,"station_id":"ce4bhs12rcd13ifvqhvg","pricing_plan_id":"cebpf4jnsgd1na2vs0mg"},{"bike_id":"c3d0b567-c57c-4ef1-bea5-b14352133d76","system_id":"levelo_inurba_marseille","lat":43.25355,"lon":5.42148,"is_reserved":false,"is_disabled":false,"rental_uris":{"android":"levelo://app?vid=c3d0b567-c57c-4ef1-bea5-b14352133d76","ios":"levelo://app?vid=c3d0b567-c57c-4ef1-bea5-b14352133d76"},"vehicle_type_id":"4","last_reported":1779051279,"current_range_meters":7200,"station_id":"st_d2m65c5bi1j21697t3ng","pricing_plan_id":"cebpf4jnsgd1na2vs0mg"},{"bike_id":"9de423cf-09d6-4636-b22f-b51156ae05e5","system_id":"levelo_inurba_marseille","lat":43.27357,"lon":5.3909,"is_reserved":false,"is_disabled":false,"rental_uris":{"android":"levelo://app?vid=9de423cf-09d6-4636-b22f-b51156ae05e5","ios":"levelo://app?vid=9de423cf-09d6-4636-b22f-b51156ae05e5"},"vehicle_type_id":"4","last_reported":1779051279,"current_range_meters":7200,"station_id":"","pricing_plan_id":"cebpf4jnsgd1na2vs0mg"},{"bike_id":"2e3ea795-a6bf-458f-844c-e7760666b217","system_id":"levelo_inurba_marseille","lat":43.21177,"lon":5.351,"is_reserved":false,"is_disabled":false,"rental_uris":{"android":"levelo://app?vid=2e3ea795-a6bf-458f-844c-e7760666b217","ios":"levelo://app?vid=2e3ea795-a6bf-458f-844c-e7760666b217"},"vehicle_type_id":"4","last_reported":1779051279,"current_range_meters":7200,"station_id":"st_cvj6sg6p6f1abm77japg","pricing_plan_id":"cebpf4jnsgd1na2vs0mg"},{"bike_id":"31f60dc9-10db-49bb-ae99-e6068062085d","system_id":"levelo_inurba_marseille","lat":43.296125,"lon":5.380984,"is_reserved":false,"is_disabled":false,"rental_uris":{"android":"levelo://app?vid=31f60dc9-10db-49bb-ae99-e6068062085d","ios":"levelo://app?vid=31f60dc9-10db-49bb-ae99-e6068062085d"},"vehicle_type_id":"4","last_reported":1779051279,"current_range_meters":7200,"station_id":"ce4bgl12rcd13ifvqbo0","pricing_plan_id":"cebpf4jnsgd1na2vs0mg"},{"bike_id":"9c77cdc0-0332-44a0-8caf-b0f006af6dfa","system_id":"levelo_inurba_marseille","lat":43.29217,"lon":5.39316,"is_reserved":false,"is_disabled":false,"rental_uris":{"android":"levelo://app?vid=9c77cdc0-0332-44a0-8caf-b0f006af6dfa","ios":"levelo://app?vid=9c77cdc0-0332-44a0-8caf-b0f006af6dfa"},"vehicle_type_id":"4","last_reported":1779051279,"current_range_meters":7200,"station_id":"ce4bh192rcd13ifvqdd0","pricing_plan_id":"cebpf4jnsgd1na2vs0mg"},{"bike_id":"bb9cd75a-b7c6-451a-ae1b-ccad6972075c","system_id":"levelo_inurba_marseille","lat":43.337444,"lon":5.374475,"is_reserved":false,"is_disabled":false,"rental_uris":{"android":"levelo://app?vid=bb9cd75a-b7c6-451a-ae1b-ccad6972075c","ios":"levelo://app?vid=bb9cd75a-b7c6-451a-ae1b-ccad6972075c"},"vehicle_type_id":"4","last_reported":1779051279,"current_range_meters":7200,"station_id":"","pricing_plan_id":"cebpf4jnsgd1na2vs0mg"},{"bike_id":"8dc7b2ad-9120-4009-8c05-65cfd51c493c","system_id":"levelo_inurba_marseille","lat":43.29873,"lon":5.38917,"is_reserved":false,"is_disabled":false,"rental_uris":{"android":"levelo://app?vid=8dc7b2ad-9120-4009-8c05-65cfd51c493c","ios":"levelo://app?vid=8dc7b2ad-9120-4009-8c05-65cfd51c493c"},"vehicle_type_id":"4","last_reported":1779051279,"current_range_meters":7200,"station_id":"ce4bh392rcd13ifvqdl0","pricing_plan_id":"cebpf4jnsgd1na2vs0mg"},{"bike_id":"0625ea84-8105-448f-87d5-411c05db2009","system_id":"levelo_inurba_marseille","lat":43.29816,"lon":5.41668,"is_reserved":false,"is_disabled":false,"rental_uris":{"android":"levelo://app?vid=0625ea84-8105-448f-87d5-411c05db2009","ios":"levelo://app?vid=0625ea84-8105-448f-87d5-411c05db2009"},"vehicle_type_id":"4","last_reported":1779051279,"current_range_meters":7200,"station_id":"","pricing_plan_id":"cebpf4jnsgd1na2vs0mg"},{"bike_id":"43442916-2496-4a59-9563-08917babadbf","system_id":"levelo_inurba_marseille","lat":43.28665,"lon":5.38685,"is_reserved":false,"is_disabled":false,"rental_uris":{"android":"levelo://app?vid=43442916-2496-4a59-9563-08917babadbf","ios":"levelo://app?vid=43442916-2496-4a59-9563-08917babadbf"},"vehicle_type_id":"4","last_reported":1779051279,"current_range_meters":7200,"station_id":"ce4bh492rcd13ifvqdug","pricing_plan_id":"cebpf4jnsgd1na2vs0mg"},{"bike_id":"eb8ebb0d-c874-4c4f-9aef-bd9f11e8a2ff","system_id":"levelo_inurba_marseille","lat":43.29993,"lon":5.37171,"is_reserved":false,"is_disabled":false,"rental_uris":{"android":"levelo://app?vid=eb8ebb0d-c874-4c4f-9aef-bd9f11e8a2ff","ios":"levelo://app?vid=eb8ebb0d-c874-4c4f-9aef-bd9f11e8a2ff"},"vehicle_type_id":"4","last_reported":1779051279,"current_range_meters":7200,"station_id":"ce4bgr92rcd13ifvqc7g","pricing_plan_id":"cebpf4jnsgd1na2vs0mg"},{"bike_id":"6276bff5-4581-47e4-a8e1-b655b8d14bf7","system_id":"levelo_inurba_marseille","lat":43.3122,"lon":5.37825,"is_reserved":false,"is_disabled":false,"rental_uris":{"android":"levelo://app?vid=6276bff5-4581-47e4-a8e1-b655b8d14bf7","ios":"levelo://app?vid=6276bff5-4581-47e4-a8e1-b655b8d14bf7"},"vehicle_type_id":"4","last_reported":1779051279,"current_range_meters":7200,"station_id":"","pricing_plan_id":"cebpf4jnsgd1na2vs0mg"},{"bike_id":"44d62942-015e-4e08-aa58-a151f9d82f40","system_id":"levelo_inurba_marseille","lat":43.25094,"lon":5.39529,"is_reserved":false,"is_disabled":false,"rental_uris":{"android":"levelo://app?vid=44d62942-015e-4e08-aa58-a151f9d82f40","ios":"levelo://app?vid=44d62942-015e-4e08-aa58-a151f9d82f40"},"vehicle_type_id":"4","last_reported":1779051279,"current_range_meters":8000,"station_id":"ce4bhm12rcd13ifvqgkg","pricing_plan_id":"cebpf4jnsgd1na2vs0mg"},{"bike_id":"c802a554-9fb5-4e10-819d-3615d5152820","system_id":"levelo_inurba_marseille","lat":43.23972,"lon":5.36624,"is_reserved":false,"is_disabled":false,"rental_uris":{"android":"levelo://app?vid=c802a554-9fb5-4e10-819d-3615d5152820","ios":"levelo://app?vid=c802a554-9fb5-4e10-819d-3615d5152820"},"vehicle_type_id":"4","last_reported":1779051279,"current_range_meters":8000,"station_id":"ce4bhi12rcd13ifvqfp0","pricing_plan_id":"cebpf4jnsgd1na2vs0mg"},{"bike_id":"c2b0ca5c-3037-4fbe-970a-64f421260e6b","system_id":"levelo_inurba_marseille","lat":43.25725,"lon":5.4111,"is_reserved":false,"is_disabled":false,"rental_uris":{"android":"levelo://app?vid=c2b0ca5c-3037-4fbe-970a-64f421260e6b","ios":"levelo://app?vid=c2b0ca5c-3037-4fbe-970a-64f421260e6b"},"vehicle_type_id":"4","last_reported":1779051279,"current_range_meters":8000,"station_id":"ce4bhkp2rcd13ifvqgd0","pricing_plan_id":"cebpf4jnsgd1na2vs0mg"},{"bike_id":"dae64e63-b5b1-472f-bd6c-4583689cf002","system_id":"levelo_inurba_marseille","lat":43.31724,"lon":5.40459,"is_reserved":false,"is_disabled":false,"rental_uris":{"android":"levelo://app?vid=dae64e63-b5b1-472f-bd6c-4583689cf002","ios":"levelo://app?vid=dae64e63-b5b1-472f-bd6c-4583689cf002"},"vehicle_type_id":"4","last_reported":1779051279,"current_range_meters":8000,"station_id":"ce4bh012rcd13ifvqd00","pricing_plan_id":"cebpf4jnsgd1na2vs0mg"},{"bike_id":"47a2a6ef-37cb-4def-a862-a0fa35fdf816","system_id":"levelo_inurba_marseille","lat":43.29576,"lon":5.36723,"is_reserved":false,"is_disabled":false,"rental_uris":{"android":"levelo://app?vid=47a2a6ef-37cb-4def-a862-a0fa35fdf816","ios":"levelo://app?vid=47a2a6ef-37cb-4def-a862-a0fa35fdf816"},"vehicle_type_id":"4","last_reported":1779051279,"current_range_meters":8000,"station_id":"ce4bgph2rcd13ifvqc2g","pricing_plan_id":"cebpf4jnsgd1na2vs0mg"},{"bike_id":"4280f3b9-7424-4daa-b934-ee7e1773b5ea","system_id":"levelo_inurba_marseille","lat":43.27073,"lon":5.38317,"is_reserved":false,"is_disabled":false,"rental_uris":{"android":"levelo://app?vid=4280f3b9-7424-4daa-b934-ee7e1773b5ea","ios":"levelo://app?vid=4280f3b9-7424-4daa-b934-ee7e1773b5ea"},"vehicle_type_id":"4","last_reported":1779051279,"current_range_meters":8000,"station_id":"st_d3n2fo6cfp8s73cte1j0","pricing_plan_id":"cebpf4jnsgd1na2vs0mg"},{"bike_id":"0c7fc7e6-13dd-4503-982c-8e557ba72f04","system_id":"levelo_inurba_marseille","lat":43.29088,"lon":5.37151,"is_reserved":false,"is_disabled":true,"rental_uris":{"android":"levelo://app?vid=0c7fc7e6-13dd-4503-982c-8e557ba72f04","ios":"levelo://app?vid=0c7fc7e6-13dd-4503-982c-8e557ba72f04"},"vehicle_type_id":"4","last_reported":1779051279,"current_range_meters":8000,"station_id":"ce4bh5p2rcd13ifvqe4g","pricing_plan_id":"cebpf4jnsgd1na2vs0mg"},{"bike_id":"332f0f18-438c-4d98-a30f-6bc7a8ac3ae6","system_id":"levelo_inurba_marseille","lat":43.28616,"lon":5.39869,"is_reserved":false,"is_disabled":false,"rental_uris":{"android":"levelo://app?vid=332f0f18-438c-4d98-a30f-6bc7a8ac3ae6","ios":"levelo://app?vid=332f0f18-438c-4d98-a30f-6bc7a8ac3ae6"},"vehicle_type_id":"4","last_reported":1779051279,"current_range_meters":8000,"station_id":"st_d4a7ka997mjs738ck50g","pricing_plan_id":"cebpf4jnsgd1na2vs0mg"},{"bike_id":"b81bfa2d-bdf1-466c-8696-75a73b68ab5f","system_id":"levelo_inurba_marseille","lat":43.24168,"lon":5.36401,"is_reserved":false,"is_disabled":true,"rental_uris":{"android":"levelo://app?vid=b81bfa2d-bdf1-466c-8696-75a73b68ab5f","ios":"levelo://app?vid=b81bfa2d-bdf1-466c-8696-75a73b68ab5f"},"vehicle_type_id":"4","last_reported":1779051279,"current_range_meters":8000,"station_id":"cpo36qri1sfpv3e86is0","pricing_plan_id":"cebpf4jnsgd1na2vs0mg"},{"bike_id":"2d7c74b1-3e33-42fb-af03-1aa65310216f","system_id":"levelo_inurba_marseille","lat":43.3066,"lon":5.40089,"is_reserved":false,"is_disabled":false,"rental_uris":{"android":"levelo://app?vid=2d7c74b1-3e33-42fb-af03-1aa65310216f","ios":"levelo://app?vid=2d7c74b1-3e33-42fb-af03-1aa65310216f"},"vehicle_type_id":"4","last_reported":1779051279,"current_range_meters":8000,"station_id":"ce4bh112rcd13ifvqda0","pricing_plan_id":"cebpf4jnsgd1na2vs0mg"},{"bike_id":"4403e0f2-3728-4b55-9ee7-4919ddfa29cf","system_id":"levelo_inurba_marseille","lat":43.29732,"lon":5.41632,"is_reserved":false,"is_disabled":false,"rental_uris":{"android":"levelo://app?vid=4403e0f2-3728-4b55-9ee7-4919ddfa29cf","ios":"levelo://app?vid=4403e0f2-3728-4b55-9ee7-4919ddfa29cf"},"vehicle_type_id":"4","last_reported":1779051279,"current_range_meters":8000,"station_id":"","pricing_plan_id":"cebpf4jnsgd1na2vs0mg"},{"bike_id":"59751aaa-1388-4dd9-98e1-46458591d8bf","system_id":"levelo_inurba_marseille","lat":43.32573,"lon":5.39932,"is_reserved":false,"is_disabled":false,"rental_uris":{"android":"levelo://app?vid=59751aaa-1388-4dd9-98e1-46458591d8bf","ios":"levelo://app?vid=59751aaa-1388-4dd9-98e1-46458591d8bf"},"vehicle_type_id":"4","last_reported":1779051279,"current_range_meters":8000,"station_id":"","pricing_plan_id":"cebpf4jnsgd1na2vs0mg"},{"bike_id":"1d095693-2450-4994-a078-b31dc5ce940a","system_id":"levelo_inurba_marseille","lat":43.28644,"lon":5.37777,"is_reserved":false,"is_disabled":false,"rental_uris":{"android":"levelo://app?vid=1d095693-2450-4994-a078-b31dc5ce940a","ios":"levelo://app?vid=1d095693-2450-4994-a078-b31dc5ce940a"},"vehicle_type_id":"4","last_reported":1779051279,"current_range_meters":8000,"station_id":"","pricing_plan_id":"cebpf4jnsgd1na2vs0mg"},{"bike_id":"5b20d758-5f48-43ef-bae2-273e9d505dcd","system_id":"levelo_inurba_marseille","lat":43.29615,"lon":5.3809,"is_reserved":false,"is_disabled":false,"rental_uris":{"android":"levelo://app?vid=5b20d758-5f48-43ef-bae2-273e9d505dcd","ios":"levelo://app?vid=5b20d758-5f48-43ef-bae2-273e9d505dcd"},"vehicle_type_id":"4","last_reported":1779051279,"current_range_meters":8000,"station_id":"ce4bgl12rcd13ifvqbo0","pricing_plan_id":"cebpf4jnsgd1na2vs0mg"},{"bike_id":"fa1a045f-2361-486e-afa4-3f179565cf19","system_id":"levelo_inurba_marseille","lat":43.27047,"lon":5.38726,"is_reserved":false,"is_disabled":false,"rental_uris":{"android":"levelo://app?vid=fa1a045f-2361-486e-afa4-3f179565cf19","ios":"levelo://app?vid=fa1a045f-2361-486e-afa4-3f179565cf19"},"vehicle_type_id":"4","last_reported":1779051279,"current_range_meters":8000,"station_id":"","pricing_plan_id":"cebpf4jnsgd1na2vs0mg"},{"bike_id":"a1637fae-cad0-4d79-b358-a47ebcc91caf","system_id":"levelo_inurba_marseille","lat":43.27877,"lon":5.38591,"is_reserved":false,"is_disabled":false,"rental_uris":{"android":"levelo://app?vid=a1637fae-cad0-4d79-b358-a47ebcc91caf","ios":"levelo://app?vid=a1637fae-cad0-4d79-b358-a47ebcc91caf"},"vehicle_type_id":"4","last_reported":1779051279,"current_range_meters":8000,"station_id":"","pricing_plan_id":"cebpf4jnsgd1na2vs0mg"},{"bike_id":"ba9139b3-b8e8-4c83-a23a-5acff42cf9ab","system_id":"levelo_inurba_marseille","lat":43.24957,"lon":5.40508,"is_reserved":false,"is_disabled":false,"rental_uris":{"android":"levelo://app?vid=ba9139b3-b8e8-4c83-a23a-5acff42cf9ab","ios":"levelo://app?vid=ba9139b3-b8e8-4c83-a23a-5acff42cf9ab"},"vehicle_type_id":"4","last_reported":1779051279,"current_range_meters":8000,"station_id":"st_d2ngiaodas8pm72gd1h0","pricing_plan_id":"cebpf4jnsgd1na2vs0mg"},{"bike_id":"616a37b9-2d39-4d33-aa08-3afeee8eb5cc","system_id":"levelo_inurba_marseille","lat":43.24819,"lon":5.3745,"is_reserved":false,"is_disabled":false,"rental_uris":{"android":"levelo://app?vid=616a37b9-2d39-4d33-aa08-3afeee8eb5cc","ios":"levelo://app?vid=616a37b9-2d39-4d33-aa08-3afeee8eb5cc"},"vehicle_type_id":"4","last_reported":1779051279,"current_range_meters":8000,"station_id":"ce4bhgh2rcd13ifvqfb0","pricing_plan_id":"cebpf4jnsgd1na2vs0mg"},{"bike_id":"a6408e66-594b-41b7-a8bd-68ce7a9c5560","system_id":"levelo_inurba_marseille","lat":43.28997,"lon":5.3815,"is_reserved":false,"is_disabled":false,"rental_uris":{"android":"levelo://app?vid=a6408e66-594b-41b7-a8bd-68ce7a9c5560","ios":"levelo://app?vid=a6408e66-594b-41b7-a8bd-68ce7a9c5560"},"vehicle_type_id":"4","last_reported":1779051279,"current_range_meters":8000,"station_id":"ce4bh4p2rcd13ifvqe1g","pricing_plan_id":"cebpf4jnsgd1na2vs0mg"},{"bike_id":"4ffd0320-caf1-4818-8470-812f3e330d06","system_id":"levelo_inurba_marseille","lat":43.28274,"lon":5.35051,"is_reserved":false,"is_disabled":true,"rental_uris":{"android":"levelo://app?vid=4ffd0320-caf1-4818-8470-812f3e330d06","ios":"levelo://app?vid=4ffd0320-caf1-4818-8470-812f3e330d06"},"vehicle_type_id":"4","last_reported":1779051279,"current_range_meters":8000,"station_id":"ce4bhbp2rcd13ifvqerg","pricing_plan_id":"cebpf4jnsgd1na2vs0mg"},{"bike_id":"c607e0b1-2b1d-4776-bf18-1bde0ba0cad9","system_id":"levelo_inurba_marseille","lat":43.29798,"lon":5.37103,"is_reserved":false,"is_disabled":false,"rental_uris":{"android":"levelo://app?vid=c607e0b1-2b1d-4776-bf18-1bde0ba0cad9","ios":"levelo://app?vid=c607e0b1-2b1d-4776-bf18-1bde0ba0cad9"},"vehicle_type_id":"4","last_reported":1779051279,"current_range_meters":8000,"station_id":"ce4bgop2rcd13ifvqc1g","pricing_plan_id":"cebpf4jnsgd1na2vs0mg"},{"bike_id":"e2a000ce-dcb8-4ea0-a726-21acbdc29397","system_id":"levelo_inurba_marseille","lat":43.30391,"lon":5.41312,"is_reserved":false,"is_disabled":false,"rental_uris":{"android":"levelo://app?vid=e2a000ce-dcb8-4ea0-a726-21acbdc29397","ios":"levelo://app?vid=e2a000ce-dcb8-4ea0-a726-21acbdc29397"},"vehicle_type_id":"4","last_reported":1779051279,"current_range_meters":8000,"station_id":"ce4bhop2rcd13ifvqh8g","pricing_plan_id":"cebpf4jnsgd1na2vs0mg"},{"bike_id":"82732d27-a6fd-4309-8f0b-8efeb9732e2d","system_id":"levelo_inurba_marseille","lat":43.27568,"lon":5.38414,"is_reserved":false,"is_disabled":false,"rental_uris":{"android":"levelo://app?vid=82732d27-a6fd-4309-8f0b-8efeb9732e2d","ios":"levelo://app?vid=82732d27-a6fd-4309-8f0b-8efeb9732e2d"},"vehicle_type_id":"4","last_reported":1779051279,"current_range_meters":8000,"station_id":"ce4bhh92rcd13ifvqfi0","pricing_plan_id":"cebpf4jnsgd1na2vs0mg"},{"bike_id":"48634141-94f7-4a80-8bc2-d44595c890b2","system_id":"levelo_inurba_marseille","lat":43.30815,"lon":5.38148,"is_reserved":false,"is_disabled":false,"rental_uris":{"android":"levelo://app?vid=48634141-94f7-4a80-8bc2-d44595c890b2","ios":"levelo://app?vid=48634141-94f7-4a80-8bc2-d44595c890b2"},"vehicle_type_id":"4","last_reported":1779051279,"current_range_meters":8000,"station_id":"ce4bgt12rcd13ifvqce0","pricing_plan_id":"cebpf4jnsgd1na2vs0mg"},{"bike_id":"8f9937f3-c536-45b0-80fa-7127a471059b","system_id":"levelo_inurba_marseille","lat":43.28716,"lon":5.46685,"is_reserved":false,"is_disabled":false,"rental_uris":{"android":"levelo://app?vid=8f9937f3-c536-45b0-80fa-7127a471059b","ios":"levelo://app?vid=8f9937f3-c536-45b0-80fa-7127a471059b"},"vehicle_type_id":"4","last_reported":1779051279,"current_range_meters":8000,"station_id":"st_d6tc3vkotcvc738tfjhg","pricing_plan_id":"cebpf4jnsgd1na2vs0mg"},{"bike_id":"6adcefd4-5da8-42e2-8b68-86fc98bbdd70","system_id":"levelo_inurba_marseille","lat":43.31354,"lon":5.44141,"is_reserved":false,"is_disabled":false,"rental_uris":{"android":"levelo://app?vid=6adcefd4-5da8-42e2-8b68-86fc98bbdd70","ios":"levelo://app?vid=6adcefd4-5da8-42e2-8b68-86fc98bbdd70"},"vehicle_type_id":"4","last_reported":1779051279,"current_range_meters":8000,"station_id":"","pricing_plan_id":"cebpf4jnsgd1na2vs0mg"},{"bike_id":"cddca771-c3fb-4d89-8226-8a70f32ae088","system_id":"levelo_inurba_marseille","lat":43.26223,"lon":5.40423,"is_reserved":false,"is_disabled":true,"rental_uris":{"android":"levelo://app?vid=cddca771-c3fb-4d89-8226-8a70f32ae088","ios":"levelo://app?vid=cddca771-c3fb-4d89-8226-8a70f32ae088"},"vehicle_type_id":"4","last_reported":1779051279,"current_range_meters":8000,"station_id":"ce4bhmh2rcd13ifvqgmg","pricing_plan_id":"cebpf4jnsgd1na2vs0mg"},{"bike_id":"11f149fb-1408-4969-a9ff-b85a4b651e7c","system_id":"levelo_inurba_marseille","lat":43.26375,"lon":5.41055,"is_reserved":false,"is_disabled":false,"rental_uris":{"android":"levelo://app?vid=11f149fb-1408-4969-a9ff-b85a4b651e7c","ios":"levelo://app?vid=11f149fb-1408-4969-a9ff-b85a4b651e7c"},"vehicle_type_id":"4","last_reported":1779051279,"current_range_meters":8000,"station_id":"st_d4e5ca6na9uc73bfl5fg","pricing_plan_id":"cebpf4jnsgd1na2vs0mg"},{"bike_id":"627b26f3-84b0-47c1-9a7d-7d4e921513f2","system_id":"levelo_inurba_marseille","lat":43.29237,"lon":5.39299,"is_reserved":false,"is_disabled":false,"rental_uris":{"android":"levelo://app?vid=627b26f3-84b0-47c1-9a7d-7d4e921513f2","ios":"levelo://app?vid=627b26f3-84b0-47c1-9a7d-7d4e921513f2"},"vehicle_type_id":"4","last_reported":1779051279,"current_range_meters":8400,"station_id":"ce4bh192rcd13ifvqdd0","pricing_plan_id":"cebpf4jnsgd1na2vs0mg"},{"bike_id":"fb13ce5a-b947-4685-af35-f885d7c76828","system_id":"levelo_inurba_marseille","lat":43.26245,"lon":5.40453,"is_reserved":false,"is_disabled":false,"rental_uris":{"android":"levelo://app?vid=fb13ce5a-b947-4685-af35-f885d7c76828","ios":"levelo://app?vid=fb13ce5a-b947-4685-af35-f885d7c76828"},"vehicle_type_id":"4","last_reported":1779051279,"current_range_meters":8400,"station_id":"ce4bhmh2rcd13ifvqgmg","pricing_plan_id":"cebpf4jnsgd1na2vs0mg"},{"bike_id":"75e7518c-c79c-4b62-8637-9308e20f07f0","system_id":"levelo_inurba_marseille","lat":43.2655,"lon":5.37298,"is_reserved":false,"is_disabled":false,"rental_uris":{"android":"levelo://app?vid=75e7518c-c79c-4b62-8637-9308e20f07f0","ios":"levelo://app?vid=75e7518c-c79c-4b62-8637-9308e20f07f0"},"vehicle_type_id":"4","last_reported":1779051279,"current_range_meters":8400,"station_id":"ce4bhg12rcd13ifvqf70","pricing_plan_id":"cebpf4jnsgd1na2vs0mg"},{"bike_id":"e62efea3-6562-47c6-809b-481f65f6b77a","system_id":"levelo_inurba_marseille","lat":43.239647,"lon":5.366361,"is_reserved":false,"is_disabled":false,"rental_uris":{"android":"levelo://app?vid=e62efea3-6562-47c6-809b-481f65f6b77a","ios":"levelo://app?vid=e62efea3-6562-47c6-809b-481f65f6b77a"},"vehicle_type_id":"4","last_reported":1779051279,"current_range_meters":8400,"station_id":"ce4bhi12rcd13ifvqfp0","pricing_plan_id":"cebpf4jnsgd1na2vs0mg"},{"bike_id":"a07fc93a-0889-42f5-b604-e39f1548e4a2","system_id":"levelo_inurba_marseille","lat":43.27994,"lon":5.40007,"is_reserved":false,"is_disabled":false,"rental_uris":{"android":"levelo://app?vid=a07fc93a-0889-42f5-b604-e39f1548e4a2","ios":"levelo://app?vid=a07fc93a-0889-42f5-b604-e39f1548e4a2"},"vehicle_type_id":"4","last_reported":1779051279,"current_range_meters":8400,"station_id":"ce4bho92rcd13ifvqh4g","pricing_plan_id":"cebpf4jnsgd1na2vs0mg"},{"bike_id":"72903579-8fd6-484f-b59e-c52adf730e7d","system_id":"levelo_inurba_marseille","lat":43.28572,"lon":5.39492,"is_reserved":false,"is_disabled":false,"rental_uris":{"android":"levelo://app?vid=72903579-8fd6-484f-b59e-c52adf730e7d","ios":"levelo://app?vid=72903579-8fd6-484f-b59e-c52adf730e7d"},"vehicle_type_id":"4","last_reported":1779051279,"current_range_meters":8400,"station_id":"ce4bh292rcd13ifvqdg0","pricing_plan_id":"cebpf4jnsgd1na2vs0mg"},{"bike_id":"8ce725bf-3fdc-443e-9866-f5b8bb9f4297","system_id":"levelo_inurba_marseille","lat":43.300128,"lon":5.388946,"is_reserved":false,"is_disabled":false,"rental_uris":{"android":"levelo://app?vid=8ce725bf-3fdc-443e-9866-f5b8bb9f4297","ios":"levelo://app?vid=8ce725bf-3fdc-443e-9866-f5b8bb9f4297"},"vehicle_type_id":"4","last_reported":1779051279,"current_range_meters":8400,"station_id":"","pricing_plan_id":"cebpf4jnsgd1na2vs0mg"},{"bike_id":"308340ff-f954-4526-8858-e97f3ab03a0c","system_id":"levelo_inurba_marseille","lat":43.28849,"lon":5.35861,"is_reserved":false,"is_disabled":false,"rental_uris":{"android":"levelo://app?vid=308340ff-f954-4526-8858-e97f3ab03a0c","ios":"levelo://app?vid=308340ff-f954-4526-8858-e97f3ab03a0c"},"vehicle_type_id":"4","last_reported":1779051279,"current_range_meters":8400,"station_id":"ce4bhb12rcd13ifvqem0","pricing_plan_id":"cebpf4jnsgd1na2vs0mg"},{"bike_id":"6c170e7a-0de4-4e89-9d99-a2607ad0ed7e","system_id":"levelo_inurba_marseille","lat":43.2718,"lon":5.40974,"is_reserved":false,"is_disabled":false,"rental_uris":{"android":"levelo://app?vid=6c170e7a-0de4-4e89-9d99-a2607ad0ed7e","ios":"levelo://app?vid=6c170e7a-0de4-4e89-9d99-a2607ad0ed7e"},"vehicle_type_id":"4","last_reported":1779051279,"current_range_meters":8400,"station_id":"ce4bhl12rcd13ifvqgf0","pricing_plan_id":"cebpf4jnsgd1na2vs0mg"},{"bike_id":"429a4c8b-5dbf-4efe-b06c-07b9b631e0c8","system_id":"levelo_inurba_marseille","lat":43.29469,"lon":5.39757,"is_reserved":false,"is_disabled":false,"rental_uris":{"android":"levelo://app?vid=429a4c8b-5dbf-4efe-b06c-07b9b631e0c8","ios":"levelo://app?vid=429a4c8b-5dbf-4efe-b06c-07b9b631e0c8"},"vehicle_type_id":"4","last_reported":1779051279,"current_range_meters":8400,"station_id":"ce4bh3h2rcd13ifvqdo0","pricing_plan_id":"cebpf4jnsgd1na2vs0mg"},{"bike_id":"2a0f5a5f-e48d-4a40-83ca-b49fb42d8f35","system_id":"levelo_inurba_marseille","lat":43.29262,"lon":5.38433,"is_reserved":false,"is_disabled":false,"rental_uris":{"android":"levelo://app?vid=2a0f5a5f-e48d-4a40-83ca-b49fb42d8f35","ios":"levelo://app?vid=2a0f5a5f-e48d-4a40-83ca-b49fb42d8f35"},"vehicle_type_id":"4","last_reported":1779051279,"current_range_meters":8400,"station_id":"ce4bh692rcd13ifvqea0","pricing_plan_id":"cebpf4jnsgd1na2vs0mg"},{"bike_id":"dbff2f56-fecc-4566-9e72-f251e59a0a58","system_id":"levelo_inurba_marseille","lat":43.22552,"lon":5.41613,"is_reserved":false,"is_disabled":false,"rental_uris":{"android":"levelo://app?vid=dbff2f56-fecc-4566-9e72-f251e59a0a58","ios":"levelo://app?vid=dbff2f56-fecc-4566-9e72-f251e59a0a58"},"vehicle_type_id":"4","last_reported":1779051279,"current_range_meters":8400,"station_id":"st_d2o4gvlbi1j2169b742g","pricing_plan_id":"cebpf4jnsgd1na2vs0mg"},{"bike_id":"126735d8-a6b3-4888-aa40-5a961ac244e7","system_id":"levelo_inurba_marseille","lat":43.3189,"lon":5.36792,"is_reserved":false,"is_disabled":false,"rental_uris":{"android":"levelo://app?vid=126735d8-a6b3-4888-aa40-5a961ac244e7","ios":"levelo://app?vid=126735d8-a6b3-4888-aa40-5a961ac244e7"},"vehicle_type_id":"4","last_reported":1779051279,"current_range_meters":8400,"station_id":"st_d6o2h0d0559c73evc1b0","pricing_plan_id":"cebpf4jnsgd1na2vs0mg"},{"bike_id":"80151f78-e237-427a-8f4e-ebd85b681d21","system_id":"levelo_inurba_marseille","lat":43.29269,"lon":5.38436,"is_reserved":false,"is_disabled":false,"rental_uris":{"android":"levelo://app?vid=80151f78-e237-427a-8f4e-ebd85b681d21","ios":"levelo://app?vid=80151f78-e237-427a-8f4e-ebd85b681d21"},"vehicle_type_id":"4","last_reported":1779051279,"current_range_meters":8400,"station_id":"ce4bh692rcd13ifvqea0","pricing_plan_id":"cebpf4jnsgd1na2vs0mg"},{"bike_id":"5d23e7ca-539a-488d-b581-4fc9ac04d4bf","system_id":"levelo_inurba_marseille","lat":43.24818,"lon":5.37475,"is_reserved":false,"is_disabled":false,"rental_uris":{"android":"levelo://app?vid=5d23e7ca-539a-488d-b581-4fc9ac04d4bf","ios":"levelo://app?vid=5d23e7ca-539a-488d-b581-4fc9ac04d4bf"},"vehicle_type_id":"4","last_reported":1779051279,"current_range_meters":8400,"station_id":"ce4bhgh2rcd13ifvqfb0","pricing_plan_id":"cebpf4jnsgd1na2vs0mg"},{"bike_id":"2965f993-c553-4a93-b31f-7339498805aa","system_id":"levelo_inurba_marseille","lat":43.29229,"lon":5.36021,"is_reserved":false,"is_disabled":true,"rental_uris":{"android":"levelo://app?vid=2965f993-c553-4a93-b31f-7339498805aa","ios":"levelo://app?vid=2965f993-c553-4a93-b31f-7339498805aa"},"vehicle_type_id":"4","last_reported":1779051279,"current_range_meters":8400,"station_id":"ce4bhbh2rcd13ifvqeqg","pricing_plan_id":"cebpf4jnsgd1na2vs0mg"},{"bike_id":"8efef881-1519-49b8-95df-1da3bd7d822c","system_id":"levelo_inurba_marseille","lat":43.23952,"lon":5.36639,"is_reserved":false,"is_disabled":false,"rental_uris":{"android":"levelo://app?vid=8efef881-1519-49b8-95df-1da3bd7d822c","ios":"levelo://app?vid=8efef881-1519-49b8-95df-1da3bd7d822c"},"vehicle_type_id":"4","last_reported":1779051279,"current_range_meters":8400,"station_id":"ce4bhi12rcd13ifvqfp0","pricing_plan_id":"cebpf4jnsgd1na2vs0mg"},{"bike_id":"a00582bb-14ee-4488-b76d-e923712179d5","system_id":"levelo_inurba_marseille","lat":43.2256,"lon":5.41634,"is_reserved":false,"is_disabled":false,"rental_uris":{"android":"levelo://app?vid=a00582bb-14ee-4488-b76d-e923712179d5","ios":"levelo://app?vid=a00582bb-14ee-4488-b76d-e923712179d5"},"vehicle_type_id":"4","last_reported":1779051279,"current_range_meters":8400,"station_id":"st_d2o4gvlbi1j2169b742g","pricing_plan_id":"cebpf4jnsgd1na2vs0mg"},{"bike_id":"50a6d4b0-42a5-49b2-a746-3042908bb0af","system_id":"levelo_inurba_marseille","lat":43.29209,"lon":5.39319,"is_reserved":false,"is_disabled":false,"rental_uris":{"android":"levelo://app?vid=50a6d4b0-42a5-49b2-a746-3042908bb0af","ios":"levelo://app?vid=50a6d4b0-42a5-49b2-a746-3042908bb0af"},"vehicle_type_id":"4","last_reported":1779051279,"current_range_meters":8400,"station_id":"ce4bh192rcd13ifvqdd0","pricing_plan_id":"cebpf4jnsgd1na2vs0mg"},{"bike_id":"befe5ac7-a4a9-4723-ba13-48c6f1b53b93","system_id":"levelo_inurba_marseille","lat":43.21189,"lon":5.35085,"is_reserved":false,"is_disabled":false,"rental_uris":{"android":"levelo://app?vid=befe5ac7-a4a9-4723-ba13-48c6f1b53b93","ios":"levelo://app?vid=befe5ac7-a4a9-4723-ba13-48c6f1b53b93"},"vehicle_type_id":"4","last_reported":1779051279,"current_range_meters":8400,"station_id":"st_cvj6sg6p6f1abm77japg","pricing_plan_id":"cebpf4jnsgd1na2vs0mg"},{"bike_id":"2f4b3587-bc7f-4f93-abe8-e0e70970735e","system_id":"levelo_inurba_marseille","lat":43.25339,"lon":5.4135,"is_reserved":false,"is_disabled":false,"rental_uris":{"android":"levelo://app?vid=2f4b3587-bc7f-4f93-abe8-e0e70970735e","ios":"levelo://app?vid=2f4b3587-bc7f-4f93-abe8-e0e70970735e"},"vehicle_type_id":"4","last_reported":1779051279,"current_range_meters":8400,"station_id":"","pricing_plan_id":"cebpf4jnsgd1na2vs0mg"},{"bike_id":"0b286f1a-d86e-4fbd-a050-1a92445a4f6a","system_id":"levelo_inurba_marseille","lat":43.24375,"lon":5.37043,"is_reserved":false,"is_disabled":false,"rental_uris":{"android":"levelo://app?vid=0b286f1a-d86e-4fbd-a050-1a92445a4f6a","ios":"levelo://app?vid=0b286f1a-d86e-4fbd-a050-1a92445a4f6a"},"vehicle_type_id":"4","last_reported":1779051279,"current_range_meters":8400,"station_id":"ce4bhhh2rcd13ifvqfk0","pricing_plan_id":"cebpf4jnsgd1na2vs0mg"},{"bike_id":"61d0f610-d76d-4e72-a50c-77105c920c33","system_id":"levelo_inurba_marseille","lat":43.3325,"lon":5.40564,"is_reserved":false,"is_disabled":false,"rental_uris":{"android":"levelo://app?vid=61d0f610-d76d-4e72-a50c-77105c920c33","ios":"levelo://app?vid=61d0f610-d76d-4e72-a50c-77105c920c33"},"vehicle_type_id":"4","last_reported":1779051279,"current_range_meters":8400,"station_id":"","pricing_plan_id":"cebpf4jnsgd1na2vs0mg"},{"bike_id":"4769f653-6dce-4e43-b4a1-4a44ffd9fa0e","system_id":"levelo_inurba_marseille","lat":43.29262,"lon":5.3761,"is_reserved":false,"is_disabled":true,"rental_uris":{"android":"levelo://app?vid=4769f653-6dce-4e43-b4a1-4a44ffd9fa0e","ios":"levelo://app?vid=4769f653-6dce-4e43-b4a1-4a44ffd9fa0e"},"vehicle_type_id":"4","last_reported":1779051279,"current_range_meters":8400,"station_id":"ce4bgi12rcd13ifvqb80","pricing_plan_id":"cebpf4jnsgd1na2vs0mg"},{"bike_id":"67e76aeb-e290-4d9f-a86a-a4195e2bcdfa","system_id":"levelo_inurba_marseille","lat":43.32123,"lon":5.36761,"is_reserved":false,"is_disabled":false,"rental_uris":{"android":"levelo://app?vid=67e76aeb-e290-4d9f-a86a-a4195e2bcdfa","ios":"levelo://app?vid=67e76aeb-e290-4d9f-a86a-a4195e2bcdfa"},"vehicle_type_id":"4","last_reported":1779051279,"current_range_meters":8400,"station_id":"ce4bhrh2rcd13ifvqhug","pricing_plan_id":"cebpf4jnsgd1na2vs0mg"},{"bike_id":"4937000e-a85e-459c-837a-fc091ea51bdb","system_id":"levelo_inurba_marseille","lat":43.28482,"lon":5.38547,"is_reserved":false,"is_disabled":false,"rental_uris":{"android":"levelo://app?vid=4937000e-a85e-459c-837a-fc091ea51bdb","ios":"levelo://app?vid=4937000e-a85e-459c-837a-fc091ea51bdb"},"vehicle_type_id":"4","last_reported":1779051279,"current_range_meters":8400,"station_id":"ce4bh8p2rcd13ifvqeb0","pricing_plan_id":"cebpf4jnsgd1na2vs0mg"},{"bike_id":"547b754d-0be1-48ca-aa8a-ca21ea4263f9","system_id":"levelo_inurba_marseille","lat":43.29784,"lon":5.39354,"is_reserved":false,"is_disabled":false,"rental_uris":{"android":"levelo://app?vid=547b754d-0be1-48ca-aa8a-ca21ea4263f9","ios":"levelo://app?vid=547b754d-0be1-48ca-aa8a-ca21ea4263f9"},"vehicle_type_id":"4","last_reported":1779051279,"current_range_meters":8400,"station_id":"chh1huq6cuj3fo74tm60","pricing_plan_id":"cebpf4jnsgd1na2vs0mg"},{"bike_id":"8e4799d3-dd59-4d32-a3d8-cc709da0bea3","system_id":"levelo_inurba_marseille","lat":43.2816,"lon":5.42647,"is_reserved":false,"is_disabled":false,"rental_uris":{"android":"levelo://app?vid=8e4799d3-dd59-4d32-a3d8-cc709da0bea3","ios":"levelo://app?vid=8e4799d3-dd59-4d32-a3d8-cc709da0bea3"},"vehicle_type_id":"4","last_reported":1779051279,"current_range_meters":8400,"station_id":"ce4bhnh2rcd13ifvqgug","pricing_plan_id":"cebpf4jnsgd1na2vs0mg"},{"bike_id":"51c4db2d-afb1-4da8-9a2d-4c72328cc145","system_id":"levelo_inurba_marseille","lat":43.2603,"lon":5.37539,"is_reserved":false,"is_disabled":false,"rental_uris":{"android":"levelo://app?vid=51c4db2d-afb1-4da8-9a2d-4c72328cc145","ios":"levelo://app?vid=51c4db2d-afb1-4da8-9a2d-4c72328cc145"},"vehicle_type_id":"4","last_reported":1779051279,"current_range_meters":8400,"station_id":"ce4bhgh2rcd13ifvqfa0","pricing_plan_id":"cebpf4jnsgd1na2vs0mg"},{"bike_id":"e500f2f6-9c74-40a0-8fce-504348e9a402","system_id":"levelo_inurba_marseille","lat":43.32482,"lon":5.36596,"is_reserved":false,"is_disabled":false,"rental_uris":{"android":"levelo://app?vid=e500f2f6-9c74-40a0-8fce-504348e9a402","ios":"levelo://app?vid=e500f2f6-9c74-40a0-8fce-504348e9a402"},"vehicle_type_id":"4","last_reported":1779051279,"current_range_meters":8400,"station_id":"ce4bhs12rcd13ifvqhvg","pricing_plan_id":"cebpf4jnsgd1na2vs0mg"},{"bike_id":"813b04aa-9f12-4185-a115-ac50e2d02084","system_id":"levelo_inurba_marseille","lat":43.30183,"lon":5.36615,"is_reserved":false,"is_disabled":false,"rental_uris":{"android":"levelo://app?vid=813b04aa-9f12-4185-a115-ac50e2d02084","ios":"levelo://app?vid=813b04aa-9f12-4185-a115-ac50e2d02084"},"vehicle_type_id":"4","last_reported":1779051279,"current_range_meters":8800,"station_id":"ce4bgrh2rcd13ifvqc8g","pricing_plan_id":"cebpf4jnsgd1na2vs0mg"},{"bike_id":"e6d03995-08d1-4379-9c6c-96373c082519","system_id":"levelo_inurba_marseille","lat":43.28942,"lon":5.35481,"is_reserved":false,"is_disabled":false,"rental_uris":{"android":"levelo://app?vid=e6d03995-08d1-4379-9c6c-96373c082519","ios":"levelo://app?vid=e6d03995-08d1-4379-9c6c-96373c082519"},"vehicle_type_id":"4","last_reported":1779051279,"current_range_meters":8800,"station_id":"","pricing_plan_id":"cebpf4jnsgd1na2vs0mg"},{"bike_id":"96cd2606-e013-4501-8dde-4120dbdd0512","system_id":"levelo_inurba_marseille","lat":43.33539,"lon":5.37462,"is_reserved":false,"is_disabled":false,"rental_uris":{"android":"levelo://app?vid=96cd2606-e013-4501-8dde-4120dbdd0512","ios":"levelo://app?vid=96cd2606-e013-4501-8dde-4120dbdd0512"},"vehicle_type_id":"4","last_reported":1779051279,"current_range_meters":8800,"station_id":"st_d46tts09ee8s73dlu43g","pricing_plan_id":"cebpf4jnsgd1na2vs0mg"},{"bike_id":"75794905-d9f9-42ec-a578-71c212750199","system_id":"levelo_inurba_marseille","lat":43.337444,"lon":5.374475,"is_reserved":false,"is_disabled":false,"rental_uris":{"android":"levelo://app?vid=75794905-d9f9-42ec-a578-71c212750199","ios":"levelo://app?vid=75794905-d9f9-42ec-a578-71c212750199"},"vehicle_type_id":"4","last_reported":1779051279,"current_range_meters":8800,"station_id":"","pricing_plan_id":"cebpf4jnsgd1na2vs0mg"},{"bike_id":"8f0c0dd7-145d-41cf-a326-eb083f41ef4c","system_id":"levelo_inurba_marseille","lat":43.26558,"lon":5.3727,"is_reserved":false,"is_disabled":false,"rental_uris":{"android":"levelo://app?vid=8f0c0dd7-145d-41cf-a326-eb083f41ef4c","ios":"levelo://app?vid=8f0c0dd7-145d-41cf-a326-eb083f41ef4c"},"vehicle_type_id":"4","last_reported":1779051279,"current_range_meters":8800,"station_id":"ce4bhg12rcd13ifvqf70","pricing_plan_id":"cebpf4jnsgd1na2vs0mg"},{"bike_id":"d7a9bbce-c868-4cfb-ab2a-3419373970bb","system_id":"levelo_inurba_marseille","lat":43.27433,"lon":5.39429,"is_reserved":false,"is_disabled":false,"rental_uris":{"android":"levelo://app?vid=d7a9bbce-c868-4cfb-ab2a-3419373970bb","ios":"levelo://app?vid=d7a9bbce-c868-4cfb-ab2a-3419373970bb"},"vehicle_type_id":"4","last_reported":1779051279,"current_range_meters":8800,"station_id":"ce4bhdp2rcd13ifvqf20","pricing_plan_id":"cebpf4jnsgd1na2vs0mg"},{"bike_id":"23b41bfa-8aed-4c99-aeaf-2b7fbef13d6b","system_id":"levelo_inurba_marseille","lat":43.27364,"lon":5.3933,"is_reserved":false,"is_disabled":false,"rental_uris":{"android":"levelo://app?vid=23b41bfa-8aed-4c99-aeaf-2b7fbef13d6b","ios":"levelo://app?vid=23b41bfa-8aed-4c99-aeaf-2b7fbef13d6b"},"vehicle_type_id":"4","last_reported":1779051279,"current_range_meters":8800,"station_id":"","pricing_plan_id":"cebpf4jnsgd1na2vs0mg"},{"bike_id":"21f34737-facf-4bc5-b6cf-b912c6a451e5","system_id":"levelo_inurba_marseille","lat":43.29794,"lon":5.38981,"is_reserved":false,"is_disabled":false,"rental_uris":{"android":"levelo://app?vid=21f34737-facf-4bc5-b6cf-b912c6a451e5","ios":"levelo://app?vid=21f34737-facf-4bc5-b6cf-b912c6a451e5"},"vehicle_type_id":"4","last_reported":1779051279,"current_range_meters":8800,"station_id":"","pricing_plan_id":"cebpf4jnsgd1na2vs0mg"},{"bike_id":"a7450a4a-671c-4579-bd7c-c4eb2bffe00f","system_id":"levelo_inurba_marseille","lat":43.288587,"lon":5.425307,"is_reserved":false,"is_disabled":false,"rental_uris":{"android":"levelo://app?vid=a7450a4a-671c-4579-bd7c-c4eb2bffe00f","ios":"levelo://app?vid=a7450a4a-671c-4579-bd7c-c4eb2bffe00f"},"vehicle_type_id":"4","last_reported":1779051279,"current_range_meters":8800,"station_id":"st_d3b462108ojc7389ooeg","pricing_plan_id":"cebpf4jnsgd1na2vs0mg"},{"bike_id":"265c693f-c560-4fcb-a211-c19c9830e5d6","system_id":"levelo_inurba_marseille","lat":43.24668,"lon":5.38123,"is_reserved":false,"is_disabled":false,"rental_uris":{"android":"levelo://app?vid=265c693f-c560-4fcb-a211-c19c9830e5d6","ios":"levelo://app?vid=265c693f-c560-4fcb-a211-c19c9830e5d6"},"vehicle_type_id":"4","last_reported":1779051279,"current_range_meters":8800,"station_id":"ce4bhih2rcd13ifvqfr0","pricing_plan_id":"cebpf4jnsgd1na2vs0mg"},{"bike_id":"847cdb9f-18ca-4981-ae4d-f7273de4d9d5","system_id":"levelo_inurba_marseille","lat":43.29529,"lon":5.3854,"is_reserved":false,"is_disabled":false,"rental_uris":{"android":"levelo://app?vid=847cdb9f-18ca-4981-ae4d-f7273de4d9d5","ios":"levelo://app?vid=847cdb9f-18ca-4981-ae4d-f7273de4d9d5"},"vehicle_type_id":"4","last_reported":1779051279,"current_range_meters":8800,"station_id":"ce4bgih2rcd13ifvqba0","pricing_plan_id":"cebpf4jnsgd1na2vs0mg"},{"bike_id":"519ff981-81ed-4d16-a2ab-39926335ec07","system_id":"levelo_inurba_marseille","lat":43.30596,"lon":5.36548,"is_reserved":false,"is_disabled":false,"rental_uris":{"android":"levelo://app?vid=519ff981-81ed-4d16-a2ab-39926335ec07","ios":"levelo://app?vid=519ff981-81ed-4d16-a2ab-39926335ec07"},"vehicle_type_id":"4","last_reported":1779051279,"current_range_meters":8800,"station_id":"ce4bgs12rcd13ifvqcag","pricing_plan_id":"cebpf4jnsgd1na2vs0mg"},{"bike_id":"81d61a73-c808-4ed5-836a-9f3f261c498a","system_id":"levelo_inurba_marseille","lat":43.32328,"lon":5.36721,"is_reserved":false,"is_disabled":false,"rental_uris":{"android":"levelo://app?vid=81d61a73-c808-4ed5-836a-9f3f261c498a","ios":"levelo://app?vid=81d61a73-c808-4ed5-836a-9f3f261c498a"},"vehicle_type_id":"4","last_reported":1779051279,"current_range_meters":8800,"station_id":"ce4bhsh2rcd13ifvqi2g","pricing_plan_id":"cebpf4jnsgd1na2vs0mg"},{"bike_id":"90834e88-8a97-4385-a33c-0cb3d4bc19e0","system_id":"levelo_inurba_marseille","lat":43.26944,"lon":5.40249,"is_reserved":false,"is_disabled":false,"rental_uris":{"android":"levelo://app?vid=90834e88-8a97-4385-a33c-0cb3d4bc19e0","ios":"levelo://app?vid=90834e88-8a97-4385-a33c-0cb3d4bc19e0"},"vehicle_type_id":"4","last_reported":1779051279,"current_range_meters":8800,"station_id":"cjm6bp8fraef2m0cb0m0","pricing_plan_id":"cebpf4jnsgd1na2vs0mg"},{"bike_id":"56c86d02-852a-4053-adc4-56486980ded1","system_id":"levelo_inurba_marseille","lat":43.29575,"lon":5.42276,"is_reserved":false,"is_disabled":false,"rental_uris":{"android":"levelo://app?vid=56c86d02-852a-4053-adc4-56486980ded1","ios":"levelo://app?vid=56c86d02-852a-4053-adc4-56486980ded1"},"vehicle_type_id":"4","last_reported":1779051279,"current_range_meters":8800,"station_id":"ce4bhph2rcd13ifvqhdg","pricing_plan_id":"cebpf4jnsgd1na2vs0mg"},{"bike_id":"b45c502e-8bbc-41be-9d91-b250f09e95f9","system_id":"levelo_inurba_marseille","lat":43.29611,"lon":5.38101,"is_reserved":false,"is_disabled":false,"rental_uris":{"android":"levelo://app?vid=b45c502e-8bbc-41be-9d91-b250f09e95f9","ios":"levelo://app?vid=b45c502e-8bbc-41be-9d91-b250f09e95f9"},"vehicle_type_id":"4","last_reported":1779051279,"current_range_meters":8800,"station_id":"ce4bgl12rcd13ifvqbo0","pricing_plan_id":"cebpf4jnsgd1na2vs0mg"},{"bike_id":"bb5f542e-e832-49df-8721-a590dd9bc680","system_id":"levelo_inurba_marseille","lat":43.32092,"lon":5.36773,"is_reserved":false,"is_disabled":false,"rental_uris":{"android":"levelo://app?vid=bb5f542e-e832-49df-8721-a590dd9bc680","ios":"levelo://app?vid=bb5f542e-e832-49df-8721-a590dd9bc680"},"vehicle_type_id":"4","last_reported":1779051279,"current_range_meters":8800,"station_id":"ce4bhrh2rcd13ifvqhug","pricing_plan_id":"cebpf4jnsgd1na2vs0mg"},{"bike_id":"50e7b976-351f-48b6-9fb9-ddeb2f830757","system_id":"levelo_inurba_marseille","lat":43.29175,"lon":5.38521,"is_reserved":false,"is_disabled":false,"rental_uris":{"android":"levelo://app?vid=50e7b976-351f-48b6-9fb9-ddeb2f830757","ios":"levelo://app?vid=50e7b976-351f-48b6-9fb9-ddeb2f830757"},"vehicle_type_id":"4","last_reported":1779051279,"current_range_meters":8800,"station_id":"","pricing_plan_id":"cebpf4jnsgd1na2vs0mg"},{"bike_id":"6a39194e-ebf1-49ca-85df-b6a0d68ede0b","system_id":"levelo_inurba_marseille","lat":43.28784,"lon":5.35949,"is_reserved":false,"is_disabled":false,"rental_uris":{"android":"levelo://app?vid=6a39194e-ebf1-49ca-85df-b6a0d68ede0b","ios":"levelo://app?vid=6a39194e-ebf1-49ca-85df-b6a0d68ede0b"},"vehicle_type_id":"4","last_reported":1779051279,"current_range_meters":8800,"station_id":"ce4bhb12rcd13ifvqem0","pricing_plan_id":"cebpf4jnsgd1na2vs0mg"},{"bike_id":"80e4f318-6a3b-4b06-a938-1c4875ecf0cc","system_id":"levelo_inurba_marseille","lat":43.26188,"lon":5.3745,"is_reserved":false,"is_disabled":false,"rental_uris":{"android":"levelo://app?vid=80e4f318-6a3b-4b06-a938-1c4875ecf0cc","ios":"levelo://app?vid=80e4f318-6a3b-4b06-a938-1c4875ecf0cc"},