{"last_updated":1709582822,"ttl":30,"version":"2.2","data":{"bikes":[{"bike_id":"bed79921-45a7-471f-9ec0-f259847a5eb4","system_id":"levelo_inurba_marseille","lat":43.31341,"lon":5.367098,"is_reserved":false,"is_disabled":false,"rental_uris":{"android":"levelo://app?vid=bed79921-45a7-471f-9ec0-f259847a5eb4","ios":"levelo://app?vid=bed79921-45a7-471f-9ec0-f259847a5eb4"},"vehicle_type_id":"4","last_reported":1709582822,"current_range_meters":2800,"station_id":"ce4bgr92rcd13ifvqc6g","pricing_plan_id":"cebpf4jnsgd1na2vs0mg"},{"bike_id":"232931e6-03ce-4b82-a8e9-aa15f217c184","system_id":"levelo_inurba_marseille","lat":43.31341,"lon":5.367098,"is_reserved":false,"is_disabled":false,"rental_uris":{"android":"levelo://app?vid=232931e6-03ce-4b82-a8e9-aa15f217c184","ios":"levelo://app?vid=232931e6-03ce-4b82-a8e9-aa15f217c184"},"vehicle_type_id":"4","last_reported":1709582822,"current_range_meters":8000,"station_id":"ce4bgr92rcd13ifvqc6g","pricing_plan_id":"cebpf4jnsgd1na2vs0mg"},{"bike_id":"1f2ff055-abb5-4574-bc51-8939b3c4b39d","system_id":"levelo_inurba_marseille","lat":43.31338,"lon":5.3683,"is_reserved":false,"is_disabled":false,"rental_uris":{"android":"levelo://app?vid=1f2ff055-abb5-4574-bc51-8939b3c4b39d","ios":"levelo://app?vid=1f2ff055-abb5-4574-bc51-8939b3c4b39d"},"vehicle_type_id":"4","last_reported":1709582822,"current_range_meters":11600,"station_id":"","pricing_plan_id":"cebpf4jnsgd1na2vs0mg"},{"bike_id":"ae9338c5-fef9-4525-a3f3-f27d502278d5","system_id":"levelo_inurba_marseille","lat":43.312239,"lon":5.368562,"is_reserved":false,"is_disabled":false,"rental_uris":{"android":"levelo://app?vid=ae9338c5-fef9-4525-a3f3-f27d502278d5","ios":"levelo://app?vid=ae9338c5-fef9-4525-a3f3-f27d502278d5"},"vehicle_type_id":"4","last_reported":1709582822,"current_range_meters":20800,"station_id":"ce4bgl92rcd13ifvqbq0","pricing_plan_id":"cebpf4jnsgd1na2vs0mg"},{"bike_id":"e68d11a0-8838-4b1c-b887-f60af9a470a7","system_id":"levelo_inurba_marseille","lat":43.312239,"lon":5.368562,"is_reserved":false,"is_disabled":false,"rental_uris":{"android":"levelo://app?vid=e68d11a0-8838-4b1c-b887-f60af9a470a7","ios":"levelo://app?vid=e68d11a0-8838-4b1c-b887-f60af9a470a7"},"vehicle_type_id":"4","last_reported":1709582822,"current_range_meters":31200,"station_id":"ce4bgl92rcd13ifvqbq0","pricing_plan_id":"cebpf4jnsgd1na2vs0mg"},{"bike_id":"88d10d0d-b523-436b-9ddd-9d6ffac86f2b","system_id":"levelo_inurba_marseille","lat":43.312239,"lon":5.368562,"is_reserved":false,"is_disabled":false,"rental_uris":{"android":"levelo://app?vid=88d10d0d-b523-436b-9ddd-9d6ffac86f2b","ios":"levelo://app?vid=88d10d0d-b523-436b-9ddd-9d6ffac86f2b"},"vehicle_type_id":"4","last_reported":1709582822,"current_range_meters":2800,"station_id":"ce4bgl92rcd13ifvqbq0","pricing_plan_id":"cebpf4jnsgd1na2vs0mg"},{"bike_id":"6a863bd4-c815-4972-a170-262f5a77ebc2","system_id":"levelo_inurba_marseille","lat":43.312239,"lon":5.368562,"is_reserved":false,"is_disabled":false,"rental_uris":{"android":"levelo://app?vid=6a863bd4-c815-4972-a170-262f5a77ebc2","ios":"levelo://app?vid=6a863bd4-c815-4972-a170-262f5a77ebc2"},"vehicle_type_id":"4","last_reported":1709582822,"current_range_meters":12000,"station_id":"ce4bgl92rcd13ifvqbq0","pricing_plan_id":"cebpf4jnsgd1na2vs0mg"},{"bike_id":"6ffb1f2b-7596-413a-b2d2-a7ed5824992c","system_id":"levelo_inurba_marseille","lat":43.312239,"lon":5.368562,"is_reserved":false,"is_disabled":false,"rental_uris":{"android":"levelo://app?vid=6ffb1f2b-7596-413a-b2d2-a7ed5824992c","ios":"levelo://app?vid=6ffb1f2b-7596-413a-b2d2-a7ed5824992c"},"vehicle_type_id":"4","last_reported":1709582822,"current_range_meters":5200,"station_id":"ce4bgl92rcd13ifvqbq0","pricing_plan_id":"cebpf4jnsgd1na2vs0mg"},{"bike_id":"776ebee6-1e70-4557-9b83-96b063837ef5","system_id":"levelo_inurba_marseille","lat":43.312239,"lon":5.368562,"is_reserved":false,"is_disabled":false,"rental_uris":{"android":"levelo://app?vid=776ebee6-1e70-4557-9b83-96b063837ef5","ios":"levelo://app?vid=776ebee6-1e70-4557-9b83-96b063837ef5"},"vehicle_type_id":"4","last_reported":1709582822,"current_range_meters":10400,"station_id":"ce4bgl92rcd13ifvqbq0","pricing_plan_id":"cebpf4jnsgd1na2vs0mg"},{"bike_id":"441815a3-97a4-4831-ad91-b189805d19fb","system_id":"levelo_inurba_marseille","lat":43.312239,"lon":5.368562,"is_reserved":false,"is_disabled":false,"rental_uris":{"android":"levelo://app?vid=441815a3-97a4-4831-ad91-b189805d19fb","ios":"levelo://app?vid=441815a3-97a4-4831-ad91-b189805d19fb"},"vehicle_type_id":"4","last_reported":1709582822,"current_range_meters":12800,"station_id":"ce4bgl92rcd13ifvqbq0","pricing_plan_id":"cebpf4jnsgd1na2vs0mg"},{"bike_id":"ccde7584-6766-46b9-aa2c-d9e49ce2d4b6","system_id":"levelo_inurba_marseille","lat":43.312239,"lon":5.368562,"is_reserved":false,"is_disabled":false,"rental_uris":{"android":"levelo://app?vid=ccde7584-6766-46b9-aa2c-d9e49ce2d4b6","ios":"levelo://app?vid=ccde7584-6766-46b9-aa2c-d9e49ce2d4b6"},"vehicle_type_id":"4","last_reported":1709582822,"current_range_meters":6400,"station_id":"ce4bgl92rcd13ifvqbq0","pricing_plan_id":"cebpf4jnsgd1na2vs0mg"},{"bike_id":"e837f7e5-517f-4417-a1c2-9d1fd0bfeb0d","system_id":"levelo_inurba_marseille","lat":43.312239,"lon":5.368562,"is_reserved":false,"is_disabled":false,"rental_uris":{"android":"levelo://app?vid=e837f7e5-517f-4417-a1c2-9d1fd0bfeb0d","ios":"levelo://app?vid=e837f7e5-517f-4417-a1c2-9d1fd0bfeb0d"},"vehicle_type_id":"4","last_reported":1709582822,"current_range_meters":22800,"station_id":"ce4bgl92rcd13ifvqbq0","pricing_plan_id":"cebpf4jnsgd1na2vs0mg"},{"bike_id":"899a1e49-b5e0-4eb6-894a-89e4d022824b","system_id":"levelo_inurba_marseille","lat":43.309076,"lon":5.368465,"is_reserved":false,"is_disabled":false,"rental_uris":{"android":"levelo://app?vid=899a1e49-b5e0-4eb6-894a-89e4d022824b","ios":"levelo://app?vid=899a1e49-b5e0-4eb6-894a-89e4d022824b"},"vehicle_type_id":"4","last_reported":1709582822,"current_range_meters":10800,"station_id":"ce4bgn92rcd13ifvqbvg","pricing_plan_id":"cebpf4jnsgd1na2vs0mg"},{"bike_id":"7ef5cb9a-3b04-4df5-a5df-2871cbd15084","system_id":"levelo_inurba_marseille","lat":43.309076,"lon":5.368465,"is_reserved":false,"is_disabled":false,"rental_uris":{"android":"levelo://app?vid=7ef5cb9a-3b04-4df5-a5df-2871cbd15084","ios":"levelo://app?vid=7ef5cb9a-3b04-4df5-a5df-2871cbd15084"},"vehicle_type_id":"4","last_reported":1709582822,"current_range_meters":23200,"station_id":"ce4bgn92rcd13ifvqbvg","pricing_plan_id":"cebpf4jnsgd1na2vs0mg"},{"bike_id":"2c4465f3-7320-4c26-97ab-50bf2c1e243d","system_id":"levelo_inurba_marseille","lat":43.309076,"lon":5.368465,"is_reserved":false,"is_disabled":false,"rental_uris":{"android":"levelo://app?vid=2c4465f3-7320-4c26-97ab-50bf2c1e243d","ios":"levelo://app?vid=2c4465f3-7320-4c26-97ab-50bf2c1e243d"},"vehicle_type_id":"4","last_reported":1709582822,"current_range_meters":12000,"station_id":"ce4bgn92rcd13ifvqbvg","pricing_plan_id":"cebpf4jnsgd1na2vs0mg"},{"bike_id":"22f3a0e5-0259-4085-a0d0-e5d529a4bb7d","system_id":"levelo_inurba_marseille","lat":43.309093,"lon":5.368541,"is_reserved":false,"is_disabled":false,"rental_uris":{"android":"levelo://app?vid=22f3a0e5-0259-4085-a0d0-e5d529a4bb7d","ios":"levelo://app?vid=22f3a0e5-0259-4085-a0d0-e5d529a4bb7d"},"vehicle_type_id":"4","last_reported":1709582822,"current_range_meters":5600,"station_id":"ce4bgn92rcd13ifvqbvg","pricing_plan_id":"cebpf4jnsgd1na2vs0mg"},{"bike_id":"0a058e90-8da2-41c7-871d-b5b294185191","system_id":"levelo_inurba_marseille","lat":43.309076,"lon":5.368465,"is_reserved":false,"is_disabled":false,"rental_uris":{"android":"levelo://app?vid=0a058e90-8da2-41c7-871d-b5b294185191","ios":"levelo://app?vid=0a058e90-8da2-41c7-871d-b5b294185191"},"vehicle_type_id":"4","last_reported":1709582822,"current_range_meters":31200,"station_id":"ce4bgn92rcd13ifvqbvg","pricing_plan_id":"cebpf4jnsgd1na2vs0mg"},{"bike_id":"6375d21b-190c-47c8-9f64-c3c5b3ae9e43","system_id":"levelo_inurba_marseille","lat":43.309076,"lon":5.368465,"is_reserved":false,"is_disabled":false,"rental_uris":{"android":"levelo://app?vid=6375d21b-190c-47c8-9f64-c3c5b3ae9e43","ios":"levelo://app?vid=6375d21b-190c-47c8-9f64-c3c5b3ae9e43"},"vehicle_type_id":"4","last_reported":1709582822,"current_range_meters":1200,"station_id":"ce4bgn92rcd13ifvqbvg","pricing_plan_id":"cebpf4jnsgd1na2vs0mg"},{"bike_id":"d36fd8c2-5ddc-49d0-9ef1-1bf659b07cd4","system_id":"levelo_inurba_marseille","lat":43.314811,"lon":5.373103,"is_reserved":false,"is_disabled":false,"rental_uris":{"android":"levelo://app?vid=d36fd8c2-5ddc-49d0-9ef1-1bf659b07cd4","ios":"levelo://app?vid=d36fd8c2-5ddc-49d0-9ef1-1bf659b07cd4"},"vehicle_type_id":"4","last_reported":1709582822,"current_range_meters":17200,"station_id":"ce4bgt12rcd13ifvqcd0","pricing_plan_id":"cebpf4jnsgd1na2vs0mg"},{"bike_id":"ad4c6593-0e37-4df1-945c-2ba05ef8bf03","system_id":"levelo_inurba_marseille","lat":43.31482,"lon":5.37302,"is_reserved":false,"is_disabled":false,"rental_uris":{"android":"levelo://app?vid=ad4c6593-0e37-4df1-945c-2ba05ef8bf03","ios":"levelo://app?vid=ad4c6593-0e37-4df1-945c-2ba05ef8bf03"},"vehicle_type_id":"4","last_reported":1709582822,"current_range_meters":0,"station_id":"ce4bgt12rcd13ifvqcd0","pricing_plan_id":"cebpf4jnsgd1na2vs0mg"},{"bike_id":"0a7b291d-f6a6-4500-8ebc-b1dbeb060382","system_id":"levelo_inurba_marseille","lat":43.314811,"lon":5.373103,"is_reserved":false,"is_disabled":false,"rental_uris":{"android":"levelo://app?vid=0a7b291d-f6a6-4500-8ebc-b1dbeb060382","ios":"levelo://app?vid=0a7b291d-f6a6-4500-8ebc-b1dbeb060382"},"vehicle_type_id":"4","last_reported":1709582822,"current_range_meters":6800,"station_id":"ce4bgt12rcd13ifvqcd0","pricing_plan_id":"cebpf4jnsgd1na2vs0mg"},{"bike_id":"e1bad5f2-befc-43a9-9f63-91d2e3e24263","system_id":"levelo_inurba_marseille","lat":43.314811,"lon":5.373104,"is_reserved":false,"is_disabled":false,"rental_uris":{"android":"levelo://app?vid=e1bad5f2-befc-43a9-9f63-91d2e3e24263","ios":"levelo://app?vid=e1bad5f2-befc-43a9-9f63-91d2e3e24263"},"vehicle_type_id":"4","last_reported":1709582822,"current_range_meters":27200,"station_id":"ce4bgt12rcd13ifvqcd0","pricing_plan_id":"cebpf4jnsgd1na2vs0mg"},{"bike_id":"3e8e4454-d3ce-4e34-8b8b-7e65e10a495c","system_id":"levelo_inurba_marseille","lat":43.309039,"lon":5.371797,"is_reserved":false,"is_disabled":false,"rental_uris":{"android":"levelo://app?vid=3e8e4454-d3ce-4e34-8b8b-7e65e10a495c","ios":"levelo://app?vid=3e8e4454-d3ce-4e34-8b8b-7e65e10a495c"},"vehicle_type_id":"4","last_reported":1709582822,"current_range_meters":30000,"station_id":"ce4bguh2rcd13ifvqckg","pricing_plan_id":"cebpf4jnsgd1na2vs0mg"},{"bike_id":"14176c7d-d735-440b-b14f-43614e20955d","system_id":"levelo_inurba_marseille","lat":43.314811,"lon":5.373104,"is_reserved":false,"is_disabled":false,"rental_uris":{"android":"levelo://app?vid=14176c7d-d735-440b-b14f-43614e20955d","ios":"levelo://app?vid=14176c7d-d735-440b-b14f-43614e20955d"},"vehicle_type_id":"4","last_reported":1709582822,"current_range_meters":8800,"station_id":"ce4bgt12rcd13ifvqcd0","pricing_plan_id":"cebpf4jnsgd1na2vs0mg"},{"bike_id":"810a5df8-936a-412c-9434-4c96a92489c2","system_id":"levelo_inurba_marseille","lat":43.309039,"lon":5.371797,"is_reserved":false,"is_disabled":false,"rental_uris":{"android":"levelo://app?vid=810a5df8-936a-412c-9434-4c96a92489c2","ios":"levelo://app?vid=810a5df8-936a-412c-9434-4c96a92489c2"},"vehicle_type_id":"4","last_reported":1709582822,"current_range_meters":7600,"station_id":"ce4bguh2rcd13ifvqckg","pricing_plan_id":"cebpf4jnsgd1na2vs0mg"},{"bike_id":"cc1a186d-56d3-41a0-b80e-3656356a91d4","system_id":"levelo_inurba_marseille","lat":43.309034,"lon":5.371783,"is_reserved":false,"is_disabled":false,"rental_uris":{"android":"levelo://app?vid=cc1a186d-56d3-41a0-b80e-3656356a91d4","ios":"levelo://app?vid=cc1a186d-56d3-41a0-b80e-3656356a91d4"},"vehicle_type_id":"4","last_reported":1709582822,"current_range_meters":3200,"station_id":"ce4bguh2rcd13ifvqckg","pricing_plan_id":"cebpf4jnsgd1na2vs0mg"},{"bike_id":"e021817b-1b32-4e83-86c1-156fabff83a7","system_id":"levelo_inurba_marseille","lat":43.305368,"lon":5.367343,"is_reserved":false,"is_disabled":false,"rental_uris":{"android":"levelo://app?vid=e021817b-1b32-4e83-86c1-156fabff83a7","ios":"levelo://app?vid=e021817b-1b32-4e83-86c1-156fabff83a7"},"vehicle_type_id":"4","last_reported":1709582822,"current_range_meters":4400,"station_id":"ce4bgrp2rcd13ifvqc9g","pricing_plan_id":"cebpf4jnsgd1na2vs0mg"},{"bike_id":"8c73ce2e-cd3a-44ab-873c-ecfad27edc8c","system_id":"levelo_inurba_marseille","lat":43.313683,"lon":5.377,"is_reserved":false,"is_disabled":false,"rental_uris":{"android":"levelo://app?vid=8c73ce2e-cd3a-44ab-873c-ecfad27edc8c","ios":"levelo://app?vid=8c73ce2e-cd3a-44ab-873c-ecfad27edc8c"},"vehicle_type_id":"4","last_reported":1709582822,"current_range_meters":25600,"station_id":"","pricing_plan_id":"cebpf4jnsgd1na2vs0mg"},{"bike_id":"bd652c0c-e0d1-45e7-a3b7-ae4720594b0b","system_id":"levelo_inurba_marseille","lat":43.305368,"lon":5.367343,"is_reserved":false,"is_disabled":false,"rental_uris":{"android":"levelo://app?vid=bd652c0c-e0d1-45e7-a3b7-ae4720594b0b","ios":"levelo://app?vid=bd652c0c-e0d1-45e7-a3b7-ae4720594b0b"},"vehicle_type_id":"4","last_reported":1709582822,"current_range_meters":18800,"station_id":"ce4bgrp2rcd13ifvqc9g","pricing_plan_id":"cebpf4jnsgd1na2vs0mg"},{"bike_id":"4e6c04d8-b728-4dc6-bef4-00461ff0c6a6","system_id":"levelo_inurba_marseille","lat":43.30538,"lon":5.36549,"is_reserved":false,"is_disabled":false,"rental_uris":{"android":"levelo://app?vid=4e6c04d8-b728-4dc6-bef4-00461ff0c6a6","ios":"levelo://app?vid=4e6c04d8-b728-4dc6-bef4-00461ff0c6a6"},"vehicle_type_id":"4","last_reported":1709582822,"current_range_meters":4000,"station_id":"ce4bgs12rcd13ifvqcag","pricing_plan_id":"cebpf4jnsgd1na2vs0mg"},{"bike_id":"ab915a87-27aa-4f17-b12b-6edfa9dbaf0e","system_id":"levelo_inurba_marseille","lat":43.30531,"lon":5.365443,"is_reserved":false,"is_disabled":false,"rental_uris":{"android":"levelo://app?vid=ab915a87-27aa-4f17-b12b-6edfa9dbaf0e","ios":"levelo://app?vid=ab915a87-27aa-4f17-b12b-6edfa9dbaf0e"},"vehicle_type_id":"4","last_reported":1709582822,"current_range_meters":7200,"station_id":"ce4bgs12rcd13ifvqcag","pricing_plan_id":"cebpf4jnsgd1na2vs0mg"},{"bike_id":"9a24f815-def6-46d9-a840-da2d00d1991e","system_id":"levelo_inurba_marseille","lat":43.305989,"lon":5.37225,"is_reserved":false,"is_disabled":false,"rental_uris":{"android":"levelo://app?vid=9a24f815-def6-46d9-a840-da2d00d1991e","ios":"levelo://app?vid=9a24f815-def6-46d9-a840-da2d00d1991e"},"vehicle_type_id":"4","last_reported":1709582822,"current_range_meters":10800,"station_id":"ce4bgqh2rcd13ifvqc4g","pricing_plan_id":"cebpf4jnsgd1na2vs0mg"},{"bike_id":"f4bb6b64-26a5-4a18-9630-75d0ca3ce93a","system_id":"levelo_inurba_marseille","lat":43.305989,"lon":5.37225,"is_reserved":false,"is_disabled":false,"rental_uris":{"android":"levelo://app?vid=f4bb6b64-26a5-4a18-9630-75d0ca3ce93a","ios":"levelo://app?vid=f4bb6b64-26a5-4a18-9630-75d0ca3ce93a"},"vehicle_type_id":"4","last_reported":1709582822,"current_range_meters":25600,"station_id":"ce4bgqh2rcd13ifvqc4g","pricing_plan_id":"cebpf4jnsgd1na2vs0mg"},{"bike_id":"25bff0f1-9319-4a21-8ab5-3a9389f2706e","system_id":"levelo_inurba_marseille","lat":43.31115,"lon":5.377617,"is_reserved":false,"is_disabled":false,"rental_uris":{"android":"levelo://app?vid=25bff0f1-9319-4a21-8ab5-3a9389f2706e","ios":"levelo://app?vid=25bff0f1-9319-4a21-8ab5-3a9389f2706e"},"vehicle_type_id":"4","last_reported":1709582822,"current_range_meters":0,"station_id":"ce4bgt92rcd13ifvqcg0","pricing_plan_id":"cebpf4jnsgd1na2vs0mg"},{"bike_id":"0379ae16-9772-4360-9e64-07b8e9cdc75f","system_id":"levelo_inurba_marseille","lat":43.311131,"lon":5.377651,"is_reserved":false,"is_disabled":false,"rental_uris":{"android":"levelo://app?vid=0379ae16-9772-4360-9e64-07b8e9cdc75f","ios":"levelo://app?vid=0379ae16-9772-4360-9e64-07b8e9cdc75f"},"vehicle_type_id":"4","last_reported":1709582822,"current_range_meters":3200,"station_id":"ce4bgt92rcd13ifvqcg0","pricing_plan_id":"cebpf4jnsgd1na2vs0mg"},{"bike_id":"efe5a1bd-0268-48af-8734-5dbd60621967","system_id":"levelo_inurba_marseille","lat":43.311125,"lon":5.377624,"is_reserved":false,"is_disabled":false,"rental_uris":{"android":"levelo://app?vid=efe5a1bd-0268-48af-8734-5dbd60621967","ios":"levelo://app?vid=efe5a1bd-0268-48af-8734-5dbd60621967"},"vehicle_type_id":"4","last_reported":1709582822,"current_range_meters":0,"station_id":"ce4bgt92rcd13ifvqcg0","pricing_plan_id":"cebpf4jnsgd1na2vs0mg"},{"bike_id":"7a50b68e-38b0-4a98-8580-45b88b6162b5","system_id":"levelo_inurba_marseille","lat":43.311125,"lon":5.377624,"is_reserved":false,"is_disabled":false,"rental_uris":{"android":"levelo://app?vid=7a50b68e-38b0-4a98-8580-45b88b6162b5","ios":"levelo://app?vid=7a50b68e-38b0-4a98-8580-45b88b6162b5"},"vehicle_type_id":"4","last_reported":1709582822,"current_range_meters":24000,"station_id":"ce4bgt92rcd13ifvqcg0","pricing_plan_id":"cebpf4jnsgd1na2vs0mg"},{"bike_id":"0045128b-6274-415a-9826-626c0439d0cd","system_id":"levelo_inurba_marseille","lat":43.307945,"lon":5.376487,"is_reserved":false,"is_disabled":false,"rental_uris":{"android":"levelo://app?vid=0045128b-6274-415a-9826-626c0439d0cd","ios":"levelo://app?vid=0045128b-6274-415a-9826-626c0439d0cd"},"vehicle_type_id":"4","last_reported":1709582822,"current_range_meters":6400,"station_id":"ce4bgv92rcd13ifvqcq0","pricing_plan_id":"cebpf4jnsgd1na2vs0mg"},{"bike_id":"a16c0c49-620b-4de9-be96-1d598e260b82","system_id":"levelo_inurba_marseille","lat":43.307945,"lon":5.376487,"is_reserved":false,"is_disabled":false,"rental_uris":{"android":"levelo://app?vid=a16c0c49-620b-4de9-be96-1d598e260b82","ios":"levelo://app?vid=a16c0c49-620b-4de9-be96-1d598e260b82"},"vehicle_type_id":"4","last_reported":1709582822,"current_range_meters":16000,"station_id":"ce4bgv92rcd13ifvqcq0","pricing_plan_id":"cebpf4jnsgd1na2vs0mg"},{"bike_id":"54c67a79-90d6-4f2c-a2f8-b75e2c124329","system_id":"levelo_inurba_marseille","lat":43.307945,"lon":5.376487,"is_reserved":false,"is_disabled":false,"rental_uris":{"android":"levelo://app?vid=54c67a79-90d6-4f2c-a2f8-b75e2c124329","ios":"levelo://app?vid=54c67a79-90d6-4f2c-a2f8-b75e2c124329"},"vehicle_type_id":"4","last_reported":1709582822,"current_range_meters":31200,"station_id":"ce4bgv92rcd13ifvqcq0","pricing_plan_id":"cebpf4jnsgd1na2vs0mg"},{"bike_id":"cce7b8cb-f837-49d6-ad61-60cd647659d2","system_id":"levelo_inurba_marseille","lat":43.307945,"lon":5.376487,"is_reserved":false,"is_disabled":false,"rental_uris":{"android":"levelo://app?vid=cce7b8cb-f837-49d6-ad61-60cd647659d2","ios":"levelo://app?vid=cce7b8cb-f837-49d6-ad61-60cd647659d2"},"vehicle_type_id":"4","last_reported":1709582822,"current_range_meters":30000,"station_id":"ce4bgv92rcd13ifvqcq0","pricing_plan_id":"cebpf4jnsgd1na2vs0mg"},{"bike_id":"9c4df5b1-ba21-4f2e-966c-394893a359e1","system_id":"levelo_inurba_marseille","lat":43.307945,"lon":5.376487,"is_reserved":false,"is_disabled":false,"rental_uris":{"android":"levelo://app?vid=9c4df5b1-ba21-4f2e-966c-394893a359e1","ios":"levelo://app?vid=9c4df5b1-ba21-4f2e-966c-394893a359e1"},"vehicle_type_id":"4","last_reported":1709582822,"current_range_meters":1600,"station_id":"ce4bgv92rcd13ifvqcq0","pricing_plan_id":"cebpf4jnsgd1na2vs0mg"},{"bike_id":"884e8807-7d19-43c7-8e81-4b46620f626d","system_id":"levelo_inurba_marseille","lat":43.307945,"lon":5.376487,"is_reserved":false,"is_disabled":false,"rental_uris":{"android":"levelo://app?vid=884e8807-7d19-43c7-8e81-4b46620f626d","ios":"levelo://app?vid=884e8807-7d19-43c7-8e81-4b46620f626d"},"vehicle_type_id":"4","last_reported":1709582822,"current_range_meters":0,"station_id":"ce4bgv92rcd13ifvqcq0","pricing_plan_id":"cebpf4jnsgd1na2vs0mg"},{"bike_id":"41d4f44f-e16d-4c6f-b78a-6c57d6896a23","system_id":"levelo_inurba_marseille","lat":43.307945,"lon":5.376487,"is_reserved":false,"is_disabled":false,"rental_uris":{"android":"levelo://app?vid=41d4f44f-e16d-4c6f-b78a-6c57d6896a23","ios":"levelo://app?vid=41d4f44f-e16d-4c6f-b78a-6c57d6896a23"},"vehicle_type_id":"4","last_reported":1709582822,"current_range_meters":6400,"station_id":"ce4bgv92rcd13ifvqcq0","pricing_plan_id":"cebpf4jnsgd1na2vs0mg"},{"bike_id":"005f2f8a-4666-4939-8197-8d3286def3ea","system_id":"levelo_inurba_marseille","lat":43.307945,"lon":5.376487,"is_reserved":false,"is_disabled":false,"rental_uris":{"android":"levelo://app?vid=005f2f8a-4666-4939-8197-8d3286def3ea","ios":"levelo://app?vid=005f2f8a-4666-4939-8197-8d3286def3ea"},"vehicle_type_id":"4","last_reported":1709582822,"current_range_meters":14000,"station_id":"ce4bgv92rcd13ifvqcq0","pricing_plan_id":"cebpf4jnsgd1na2vs0mg"},{"bike_id":"b2c4fc33-3316-4a70-89c5-4414a90664f0","system_id":"levelo_inurba_marseille","lat":43.307945,"lon":5.376487,"is_reserved":false,"is_disabled":false,"rental_uris":{"android":"levelo://app?vid=b2c4fc33-3316-4a70-89c5-4414a90664f0","ios":"levelo://app?vid=b2c4fc33-3316-4a70-89c5-4414a90664f0"},"vehicle_type_id":"4","last_reported":1709582822,"current_range_meters":8400,"station_id":"ce4bgv92rcd13ifvqcq0","pricing_plan_id":"cebpf4jnsgd1na2vs0mg"},{"bike_id":"6ebd7b4b-9742-431e-adb5-26f942e83caa","system_id":"levelo_inurba_marseille","lat":43.307945,"lon":5.376487,"is_reserved":false,"is_disabled":false,"rental_uris":{"android":"levelo://app?vid=6ebd7b4b-9742-431e-adb5-26f942e83caa","ios":"levelo://app?vid=6ebd7b4b-9742-431e-adb5-26f942e83caa"},"vehicle_type_id":"4","last_reported":1709582822,"current_range_meters":31200,"station_id":"ce4bgv92rcd13ifvqcq0","pricing_plan_id":"cebpf4jnsgd1na2vs0mg"},{"bike_id":"97a3d905-825c-4d70-af76-a77f2f45e83d","system_id":"levelo_inurba_marseille","lat":43.307945,"lon":5.376487,"is_reserved":false,"is_disabled":false,"rental_uris":{"android":"levelo://app?vid=97a3d905-825c-4d70-af76-a77f2f45e83d","ios":"levelo://app?vid=97a3d905-825c-4d70-af76-a77f2f45e83d"},"vehicle_type_id":"4","last_reported":1709582822,"current_range_meters":7200,"station_id":"ce4bgv92rcd13ifvqcq0","pricing_plan_id":"cebpf4jnsgd1na2vs0mg"},{"bike_id":"66faee2f-b05c-4541-bac9-7b6469fca192","system_id":"levelo_inurba_marseille","lat":43.307945,"lon":5.376487,"is_reserved":false,"is_disabled":false,"rental_uris":{"android":"levelo://app?vid=66faee2f-b05c-4541-bac9-7b6469fca192","ios":"levelo://app?vid=66faee2f-b05c-4541-bac9-7b6469fca192"},"vehicle_type_id":"4","last_reported":1709582822,"current_range_meters":1200,"station_id":"ce4bgv92rcd13ifvqcq0","pricing_plan_id":"cebpf4jnsgd1na2vs0mg"},{"bike_id":"7a92fbe2-9c26-46ed-8b1d-dc3c21ae03e3","system_id":"levelo_inurba_marseille","lat":43.307945,"lon":5.376487,"is_reserved":false,"is_disabled":false,"rental_uris":{"android":"levelo://app?vid=7a92fbe2-9c26-46ed-8b1d-dc3c21ae03e3","ios":"levelo://app?vid=7a92fbe2-9c26-46ed-8b1d-dc3c21ae03e3"},"vehicle_type_id":"4","last_reported":1709582822,"current_range_meters":6000,"station_id":"ce4bgv92rcd13ifvqcq0","pricing_plan_id":"cebpf4jnsgd1na2vs0mg"},{"bike_id":"5d5cd16f-0a69-4e97-87bb-cbe82e8bd2bf","system_id":"levelo_inurba_marseille","lat":43.317075,"lon":5.377367,"is_reserved":false,"is_disabled":false,"rental_uris":{"android":"levelo://app?vid=5d5cd16f-0a69-4e97-87bb-cbe82e8bd2bf","ios":"levelo://app?vid=5d5cd16f-0a69-4e97-87bb-cbe82e8bd2bf"},"vehicle_type_id":"4","last_reported":1709582822,"current_range_meters":14400,"station_id":"ce4bgth2rcd13ifvqch0","pricing_plan_id":"cebpf4jnsgd1na2vs0mg"},{"bike_id":"fca492ac-89d4-4b15-9539-1509cb50fb93","system_id":"levelo_inurba_marseille","lat":43.303046,"lon":5.368981,"is_reserved":false,"is_disabled":false,"rental_uris":{"android":"levelo://app?vid=fca492ac-89d4-4b15-9539-1509cb50fb93","ios":"levelo://app?vid=fca492ac-89d4-4b15-9539-1509cb50fb93"},"vehicle_type_id":"4","last_reported":1709582822,"current_range_meters":5600,"station_id":"ce4bgqh2rcd13ifvqc5g","pricing_plan_id":"cebpf4jnsgd1na2vs0mg"},{"bike_id":"90ff4b3a-88cc-4593-8143-46a8b13b5e37","system_id":"levelo_inurba_marseille","lat":43.30304,"lon":5.368987,"is_reserved":false,"is_disabled":false,"rental_uris":{"android":"levelo://app?vid=90ff4b3a-88cc-4593-8143-46a8b13b5e37","ios":"levelo://app?vid=90ff4b3a-88cc-4593-8143-46a8b13b5e37"},"vehicle_type_id":"4","last_reported":1709582822,"current_range_meters":11600,"station_id":"ce4bgqh2rcd13ifvqc5g","pricing_plan_id":"cebpf4jnsgd1na2vs0mg"},{"bike_id":"fb116dbb-9ec7-413f-9dd7-33f18722cb57","system_id":"levelo_inurba_marseille","lat":43.315289,"lon":5.380349,"is_reserved":false,"is_disabled":false,"rental_uris":{"android":"levelo://app?vid=fb116dbb-9ec7-413f-9dd7-33f18722cb57","ios":"levelo://app?vid=fb116dbb-9ec7-413f-9dd7-33f18722cb57"},"vehicle_type_id":"4","last_reported":1709582822,"current_range_meters":25600,"station_id":"ce4bhsp2rcd13ifvqi50","pricing_plan_id":"cebpf4jnsgd1na2vs0mg"},{"bike_id":"48ecacc2-30d3-43b1-8a2f-0b4f1010bb9c","system_id":"levelo_inurba_marseille","lat":43.315293,"lon":5.380349,"is_reserved":false,"is_disabled":false,"rental_uris":{"android":"levelo://app?vid=48ecacc2-30d3-43b1-8a2f-0b4f1010bb9c","ios":"levelo://app?vid=48ecacc2-30d3-43b1-8a2f-0b4f1010bb9c"},"vehicle_type_id":"4","last_reported":1709582822,"current_range_meters":28800,"station_id":"ce4bhsp2rcd13ifvqi50","pricing_plan_id":"cebpf4jnsgd1na2vs0mg"},{"bike_id":"da64b67b-6621-494c-afbd-fa777f14824d","system_id":"levelo_inurba_marseille","lat":43.30191,"lon":5.36613,"is_reserved":false,"is_disabled":false,"rental_uris":{"android":"levelo://app?vid=da64b67b-6621-494c-afbd-fa777f14824d","ios":"levelo://app?vid=da64b67b-6621-494c-afbd-fa777f14824d"},"vehicle_type_id":"4","last_reported":1709582822,"current_range_meters":0,"station_id":"ce4bgrh2rcd13ifvqc8g","pricing_plan_id":"cebpf4jnsgd1na2vs0mg"},{"bike_id":"65aa42f3-0fb2-402b-b757-ffa70ef1522a","system_id":"levelo_inurba_marseille","lat":43.301939,"lon":5.366286,"is_reserved":false,"is_disabled":false,"rental_uris":{"android":"levelo://app?vid=65aa42f3-0fb2-402b-b757-ffa70ef1522a","ios":"levelo://app?vid=65aa42f3-0fb2-402b-b757-ffa70ef1522a"},"vehicle_type_id":"4","last_reported":1709582822,"current_range_meters":13600,"station_id":"ce4bgrh2rcd13ifvqc8g","pricing_plan_id":"cebpf4jnsgd1na2vs0mg"},{"bike_id":"aa41c5e1-3bfd-44bc-9c72-c39a58a53bf4","system_id":"levelo_inurba_marseille","lat":43.308012,"lon":5.381511,"is_reserved":false,"is_disabled":false,"rental_uris":{"android":"levelo://app?vid=aa41c5e1-3bfd-44bc-9c72-c39a58a53bf4","ios":"levelo://app?vid=aa41c5e1-3bfd-44bc-9c72-c39a58a53bf4"},"vehicle_type_id":"4","last_reported":1709582822,"current_range_meters":0,"station_id":"ce4bgt12rcd13ifvqce0","pricing_plan_id":"cebpf4jnsgd1na2vs0mg"},{"bike_id":"8445949b-4371-4e9f-87de-0ef4a83730b7","system_id":"levelo_inurba_marseille","lat":43.308113,"lon":5.381485,"is_reserved":false,"is_disabled":false,"rental_uris":{"android":"levelo://app?vid=8445949b-4371-4e9f-87de-0ef4a83730b7","ios":"levelo://app?vid=8445949b-4371-4e9f-87de-0ef4a83730b7"},"vehicle_type_id":"4","last_reported":1709582822,"current_range_meters":4000,"station_id":"ce4bgt12rcd13ifvqce0","pricing_plan_id":"cebpf4jnsgd1na2vs0mg"},{"bike_id":"f24269b0-765f-4966-a007-7ab3a56ed073","system_id":"levelo_inurba_marseille","lat":43.308012,"lon":5.381511,"is_reserved":false,"is_disabled":false,"rental_uris":{"android":"levelo://app?vid=f24269b0-765f-4966-a007-7ab3a56ed073","ios":"levelo://app?vid=f24269b0-765f-4966-a007-7ab3a56ed073"},"vehicle_type_id":"4","last_reported":1709582822,"current_range_meters":12400,"station_id":"ce4bgt12rcd13ifvqce0","pricing_plan_id":"cebpf4jnsgd1na2vs0mg"},{"bike_id":"517a45cc-ae00-4f63-a72e-0ff20a7abf6c","system_id":"levelo_inurba_marseille","lat":43.308012,"lon":5.381511,"is_reserved":false,"is_disabled":false,"rental_uris":{"android":"levelo://app?vid=517a45cc-ae00-4f63-a72e-0ff20a7abf6c","ios":"levelo://app?vid=517a45cc-ae00-4f63-a72e-0ff20a7abf6c"},"vehicle_type_id":"4","last_reported":1709582822,"current_range_meters":31200,"station_id":"ce4bgt12rcd13ifvqce0","pricing_plan_id":"cebpf4jnsgd1na2vs0mg"},{"bike_id":"d5755c74-54ad-4d46-97a0-292ed52ba972","system_id":"levelo_inurba_marseille","lat":43.304606,"lon":5.379026,"is_reserved":false,"is_disabled":false,"rental_uris":{"android":"levelo://app?vid=d5755c74-54ad-4d46-97a0-292ed52ba972","ios":"levelo://app?vid=d5755c74-54ad-4d46-97a0-292ed52ba972"},"vehicle_type_id":"4","last_reported":1709582822,"current_range_meters":24000,"station_id":"ce4bgup2rcd13ifvqcn0","pricing_plan_id":"cebpf4jnsgd1na2vs0mg"},{"bike_id":"b00940ae-a0ca-42af-b50f-d305d61254f7","system_id":"levelo_inurba_marseille","lat":43.304606,"lon":5.379026,"is_reserved":false,"is_disabled":false,"rental_uris":{"android":"levelo://app?vid=b00940ae-a0ca-42af-b50f-d305d61254f7","ios":"levelo://app?vid=b00940ae-a0ca-42af-b50f-d305d61254f7"},"vehicle_type_id":"4","last_reported":1709582822,"current_range_meters":17200,"station_id":"ce4bgup2rcd13ifvqcn0","pricing_plan_id":"cebpf4jnsgd1na2vs0mg"},{"bike_id":"9b7cfd94-0a0d-4d74-a7e4-655c53c10423","system_id":"levelo_inurba_marseille","lat":43.324771,"lon":5.36557,"is_reserved":false,"is_disabled":false,"rental_uris":{"android":"levelo://app?vid=9b7cfd94-0a0d-4d74-a7e4-655c53c10423","ios":"levelo://app?vid=9b7cfd94-0a0d-4d74-a7e4-655c53c10423"},"vehicle_type_id":"4","last_reported":1709582822,"current_range_meters":11600,"station_id":"ce4bhs12rcd13ifvqhvg","pricing_plan_id":"cebpf4jnsgd1na2vs0mg"},{"bike_id":"1b059764-63cd-4568-b7cc-cd1938a84e65","system_id":"levelo_inurba_marseille","lat":43.324771,"lon":5.36557,"is_reserved":false,"is_disabled":false,"rental_uris":{"android":"levelo://app?vid=1b059764-63cd-4568-b7cc-cd1938a84e65","ios":"levelo://app?vid=1b059764-63cd-4568-b7cc-cd1938a84e65"},"vehicle_type_id":"4","last_reported":1709582822,"current_range_meters":10800,"station_id":"ce4bhs12rcd13ifvqhvg","pricing_plan_id":"cebpf4jnsgd1na2vs0mg"},{"bike_id":"5883364f-a61e-440b-a38e-98d53a54b721","system_id":"levelo_inurba_marseille","lat":43.324771,"lon":5.36557,"is_reserved":false,"is_disabled":false,"rental_uris":{"android":"levelo://app?vid=5883364f-a61e-440b-a38e-98d53a54b721","ios":"levelo://app?vid=5883364f-a61e-440b-a38e-98d53a54b721"},"vehicle_type_id":"4","last_reported":1709582822,"current_range_meters":8400,"station_id":"ce4bhs12rcd13ifvqhvg","pricing_plan_id":"cebpf4jnsgd1na2vs0mg"},{"bike_id":"330c1d30-61ac-4dce-bda5-64eaf2fa22cb","system_id":"levelo_inurba_marseille","lat":43.324771,"lon":5.36557,"is_reserved":false,"is_disabled":false,"rental_uris":{"android":"levelo://app?vid=330c1d30-61ac-4dce-bda5-64eaf2fa22cb","ios":"levelo://app?vid=330c1d30-61ac-4dce-bda5-64eaf2fa22cb"},"vehicle_type_id":"4","last_reported":1709582822,"current_range_meters":8400,"station_id":"ce4bhs12rcd13ifvqhvg","pricing_plan_id":"cebpf4jnsgd1na2vs0mg"},{"bike_id":"2c1b1deb-ce09-43e2-9310-1dcc52d9b600","system_id":"levelo_inurba_marseille","lat":43.324771,"lon":5.36557,"is_reserved":false,"is_disabled":false,"rental_uris":{"android":"levelo://app?vid=2c1b1deb-ce09-43e2-9310-1dcc52d9b600","ios":"levelo://app?vid=2c1b1deb-ce09-43e2-9310-1dcc52d9b600"},"vehicle_type_id":"4","last_reported":1709582822,"current_range_meters":14800,"station_id":"ce4bhs12rcd13ifvqhvg","pricing_plan_id":"cebpf4jnsgd1na2vs0mg"},{"bike_id":"77a79aca-bd8c-4e93-aa90-ffe422f75c29","system_id":"levelo_inurba_marseille","lat":43.324771,"lon":5.36557,"is_reserved":false,"is_disabled":false,"rental_uris":{"android":"levelo://app?vid=77a79aca-bd8c-4e93-aa90-ffe422f75c29","ios":"levelo://app?vid=77a79aca-bd8c-4e93-aa90-ffe422f75c29"},"vehicle_type_id":"4","last_reported":1709582822,"current_range_meters":6800,"station_id":"ce4bhs12rcd13ifvqhvg","pricing_plan_id":"cebpf4jnsgd1na2vs0mg"},{"bike_id":"4a38f246-f20a-4229-b3a7-98d233c4b71b","system_id":"levelo_inurba_marseille","lat":43.324771,"lon":5.36557,"is_reserved":false,"is_disabled":false,"rental_uris":{"android":"levelo://app?vid=4a38f246-f20a-4229-b3a7-98d233c4b71b","ios":"levelo://app?vid=4a38f246-f20a-4229-b3a7-98d233c4b71b"},"vehicle_type_id":"4","last_reported":1709582822,"current_range_meters":2400,"station_id":"ce4bhs12rcd13ifvqhvg","pricing_plan_id":"cebpf4jnsgd1na2vs0mg"},{"bike_id":"ebc8f392-892e-4642-b6ff-761d7a410b07","system_id":"levelo_inurba_marseille","lat":43.324791,"lon":5.365614,"is_reserved":false,"is_disabled":false,"rental_uris":{"android":"levelo://app?vid=ebc8f392-892e-4642-b6ff-761d7a410b07","ios":"levelo://app?vid=ebc8f392-892e-4642-b6ff-761d7a410b07"},"vehicle_type_id":"4","last_reported":1709582822,"current_range_meters":5600,"station_id":"ce4bhs12rcd13ifvqhvg","pricing_plan_id":"cebpf4jnsgd1na2vs0mg"},{"bike_id":"57603526-7a1b-4bdd-b732-1cb0d818d3fe","system_id":"levelo_inurba_marseille","lat":43.324771,"lon":5.36557,"is_reserved":false,"is_disabled":false,"rental_uris":{"android":"levelo://app?vid=57603526-7a1b-4bdd-b732-1cb0d818d3fe","ios":"levelo://app?vid=57603526-7a1b-4bdd-b732-1cb0d818d3fe"},"vehicle_type_id":"4","last_reported":1709582822,"current_range_meters":9600,"station_id":"ce4bhs12rcd13ifvqhvg","pricing_plan_id":"cebpf4jnsgd1na2vs0mg"},{"bike_id":"09171ad4-c046-4a6a-b254-7a86b183ba2b","system_id":"levelo_inurba_marseille","lat":43.324771,"lon":5.36557,"is_reserved":false,"is_disabled":false,"rental_uris":{"android":"levelo://app?vid=09171ad4-c046-4a6a-b254-7a86b183ba2b","ios":"levelo://app?vid=09171ad4-c046-4a6a-b254-7a86b183ba2b"},"vehicle_type_id":"4","last_reported":1709582822,"current_range_meters":22000,"station_id":"ce4bhs12rcd13ifvqhvg","pricing_plan_id":"cebpf4jnsgd1na2vs0mg"},{"bike_id":"b517cabf-1478-4807-875d-62cd36831bc9","system_id":"levelo_inurba_marseille","lat":43.324771,"lon":5.36557,"is_reserved":false,"is_disabled":false,"rental_uris":{"android":"levelo://app?vid=b517cabf-1478-4807-875d-62cd36831bc9","ios":"levelo://app?vid=b517cabf-1478-4807-875d-62cd36831bc9"},"vehicle_type_id":"4","last_reported":1709582822,"current_range_meters":17600,"station_id":"ce4bhs12rcd13ifvqhvg","pricing_plan_id":"cebpf4jnsgd1na2vs0mg"},{"bike_id":"0fde1c2f-7058-4cde-a568-520de38a3413","system_id":"levelo_inurba_marseille","lat":43.324771,"lon":5.36557,"is_reserved":false,"is_disabled":false,"rental_uris":{"android":"levelo://app?vid=0fde1c2f-7058-4cde-a568-520de38a3413","ios":"levelo://app?vid=0fde1c2f-7058-4cde-a568-520de38a3413"},"vehicle_type_id":"4","last_reported":1709582822,"current_range_meters":12400,"station_id":"ce4bhs12rcd13ifvqhvg","pricing_plan_id":"cebpf4jnsgd1na2vs0mg"},{"bike_id":"63c3265d-4eef-4eb2-b7b8-9c59069bbfea","system_id":"levelo_inurba_marseille","lat":43.324771,"lon":5.36557,"is_reserved":false,"is_disabled":false,"rental_uris":{"android":"levelo://app?vid=63c3265d-4eef-4eb2-b7b8-9c59069bbfea","ios":"levelo://app?vid=63c3265d-4eef-4eb2-b7b8-9c59069bbfea"},"vehicle_type_id":"4","last_reported":1709582822,"current_range_meters":16800,"station_id":"ce4bhs12rcd13ifvqhvg","pricing_plan_id":"cebpf4jnsgd1na2vs0mg"},{"bike_id":"5d3ece2b-8a81-4e83-9a62-78cb6984efed","system_id":"levelo_inurba_marseille","lat":43.324835,"lon":5.365576,"is_reserved":false,"is_disabled":false,"rental_uris":{"android":"levelo://app?vid=5d3ece2b-8a81-4e83-9a62-78cb6984efed","ios":"levelo://app?vid=5d3ece2b-8a81-4e83-9a62-78cb6984efed"},"vehicle_type_id":"4","last_reported":1709582822,"current_range_meters":0,"station_id":"ce4bhs12rcd13ifvqhvg","pricing_plan_id":"cebpf4jnsgd1na2vs0mg"},{"bike_id":"bb089a3b-9845-4b78-bdce-2ba8d005e314","system_id":"levelo_inurba_marseille","lat":43.32484,"lon":5.36563,"is_reserved":false,"is_disabled":false,"rental_uris":{"android":"levelo://app?vid=bb089a3b-9845-4b78-bdce-2ba8d005e314","ios":"levelo://app?vid=bb089a3b-9845-4b78-bdce-2ba8d005e314"},"vehicle_type_id":"4","last_reported":1709582822,"current_range_meters":13200,"station_id":"ce4bhs12rcd13ifvqhvg","pricing_plan_id":"cebpf4jnsgd1na2vs0mg"},{"bike_id":"dc1334bd-723b-4f47-bb2f-97619ac70217","system_id":"levelo_inurba_marseille","lat":43.324854,"lon":5.365845,"is_reserved":false,"is_disabled":false,"rental_uris":{"android":"levelo://app?vid=dc1334bd-723b-4f47-bb2f-97619ac70217","ios":"levelo://app?vid=dc1334bd-723b-4f47-bb2f-97619ac70217"},"vehicle_type_id":"4","last_reported":1709582822,"current_range_meters":0,"station_id":"ce4bhs12rcd13ifvqhvg","pricing_plan_id":"cebpf4jnsgd1na2vs0mg"},{"bike_id":"d1e321b4-6ad2-42ba-9204-09b8f197e1e9","system_id":"levelo_inurba_marseille","lat":43.324771,"lon":5.36557,"is_reserved":false,"is_disabled":false,"rental_uris":{"android":"levelo://app?vid=d1e321b4-6ad2-42ba-9204-09b8f197e1e9","ios":"levelo://app?vid=d1e321b4-6ad2-42ba-9204-09b8f197e1e9"},"vehicle_type_id":"4","last_reported":1709582822,"current_range_meters":6400,"station_id":"ce4bhs12rcd13ifvqhvg","pricing_plan_id":"cebpf4jnsgd1na2vs0mg"},{"bike_id":"82ed7681-ca60-471a-b7ad-f5addd19281a","system_id":"levelo_inurba_marseille","lat":43.324771,"lon":5.36557,"is_reserved":false,"is_disabled":false,"rental_uris":{"android":"levelo://app?vid=82ed7681-ca60-471a-b7ad-f5addd19281a","ios":"levelo://app?vid=82ed7681-ca60-471a-b7ad-f5addd19281a"},"vehicle_type_id":"4","last_reported":1709582822,"current_range_meters":12800,"station_id":"ce4bhs12rcd13ifvqhvg","pricing_plan_id":"cebpf4jnsgd1na2vs0mg"},{"bike_id":"566882a6-5c45-4933-89ba-d3ec6f26612c","system_id":"levelo_inurba_marseille","lat":43.324771,"lon":5.36557,"is_reserved":false,"is_disabled":false,"rental_uris":{"android":"levelo://app?vid=566882a6-5c45-4933-89ba-d3ec6f26612c","ios":"levelo://app?vid=566882a6-5c45-4933-89ba-d3ec6f26612c"},"vehicle_type_id":"4","last_reported":1709582822,"current_range_meters":10400,"station_id":"ce4bhs12rcd13ifvqhvg","pricing_plan_id":"cebpf4jnsgd1na2vs0mg"},{"bike_id":"59b1d14d-c65f-4ab1-b826-fbacb330635b","system_id":"levelo_inurba_marseille","lat":43.310804,"lon":5.38359,"is_reserved":false,"is_disabled":false,"rental_uris":{"android":"levelo://app?vid=59b1d14d-c65f-4ab1-b826-fbacb330635b","ios":"levelo://app?vid=59b1d14d-c65f-4ab1-b826-fbacb330635b"},"vehicle_type_id":"4","last_reported":1709582822,"current_range_meters":4000,"station_id":"ce4bgv92rcd13ifvqcr0","pricing_plan_id":"cebpf4jnsgd1na2vs0mg"},{"bike_id":"58f13cd2-1148-4200-b3eb-6d6eec917374","system_id":"levelo_inurba_marseille","lat":43.310804,"lon":5.38359,"is_reserved":false,"is_disabled":false,"rental_uris":{"android":"levelo://app?vid=58f13cd2-1148-4200-b3eb-6d6eec917374","ios":"levelo://app?vid=58f13cd2-1148-4200-b3eb-6d6eec917374"},"vehicle_type_id":"4","last_reported":1709582822,"current_range_meters":8800,"station_id":"ce4bgv92rcd13ifvqcr0","pricing_plan_id":"cebpf4jnsgd1na2vs0mg"},{"bike_id":"7533988b-d6e7-4898-9f7d-237017779a48","system_id":"levelo_inurba_marseille","lat":43.310804,"lon":5.38359,"is_reserved":false,"is_disabled":false,"rental_uris":{"android":"levelo://app?vid=7533988b-d6e7-4898-9f7d-237017779a48","ios":"levelo://app?vid=7533988b-d6e7-4898-9f7d-237017779a48"},"vehicle_type_id":"4","last_reported":1709582822,"current_range_meters":20800,"station_id":"ce4bgv92rcd13ifvqcr0","pricing_plan_id":"cebpf4jnsgd1na2vs0mg"},{"bike_id":"c630040e-9d54-4e3d-8024-9fdc7e95c069","system_id":"levelo_inurba_marseille","lat":43.310804,"lon":5.38359,"is_reserved":false,"is_disabled":false,"rental_uris":{"android":"levelo://app?vid=c630040e-9d54-4e3d-8024-9fdc7e95c069","ios":"levelo://app?vid=c630040e-9d54-4e3d-8024-9fdc7e95c069"},"vehicle_type_id":"4","last_reported":1709582822,"current_range_meters":26000,"station_id":"ce4bgv92rcd13ifvqcr0","pricing_plan_id":"cebpf4jnsgd1na2vs0mg"},{"bike_id":"474b5cba-2f93-4a52-ba97-1da95287b3db","system_id":"levelo_inurba_marseille","lat":43.31074,"lon":5.3836,"is_reserved":false,"is_disabled":false,"rental_uris":{"android":"levelo://app?vid=474b5cba-2f93-4a52-ba97-1da95287b3db","ios":"levelo://app?vid=474b5cba-2f93-4a52-ba97-1da95287b3db"},"vehicle_type_id":"4","last_reported":1709582822,"current_range_meters":7200,"station_id":"ce4bgv92rcd13ifvqcr0","pricing_plan_id":"cebpf4jnsgd1na2vs0mg"},{"bike_id":"0eb5e81f-0d60-4024-9cbd-587b76d76205","system_id":"levelo_inurba_marseille","lat":43.310693,"lon":5.38359,"is_reserved":false,"is_disabled":false,"rental_uris":{"android":"levelo://app?vid=0eb5e81f-0d60-4024-9cbd-587b76d76205","ios":"levelo://app?vid=0eb5e81f-0d60-4024-9cbd-587b76d76205"},"vehicle_type_id":"4","last_reported":1709582822,"current_range_meters":1200,"station_id":"ce4bgv92rcd13ifvqcr0","pricing_plan_id":"cebpf4jnsgd1na2vs0mg"},{"bike_id":"d96f9f68-b0ed-40fc-ba2c-c7fc3a2c4685","system_id":"levelo_inurba_marseille","lat":43.31068,"lon":5.383588,"is_reserved":false,"is_disabled":false,"rental_uris":{"android":"levelo://app?vid=d96f9f68-b0ed-40fc-ba2c-c7fc3a2c4685","ios":"levelo://app?vid=d96f9f68-b0ed-40fc-ba2c-c7fc3a2c4685"},"vehicle_type_id":"4","last_reported":1709582822,"current_range_meters":25200,"station_id":"ce4bgv92rcd13ifvqcr0","pricing_plan_id":"cebpf4jnsgd1na2vs0mg"},{"bike_id":"ff5fbc8b-1e80-482a-95ca-5dc176358c45","system_id":"levelo_inurba_marseille","lat":43.31073,"lon":5.383605,"is_reserved":false,"is_disabled":false,"rental_uris":{"android":"levelo://app?vid=ff5fbc8b-1e80-482a-95ca-5dc176358c45","ios":"levelo://app?vid=ff5fbc8b-1e80-482a-95ca-5dc176358c45"},"vehicle_type_id":"4","last_reported":1709582822,"current_range_meters":17600,"station_id":"ce4bgv92rcd13ifvqcr0","pricing_plan_id":"cebpf4jnsgd1na2vs0mg"},{"bike_id":"00a0c8b7-2b86-497b-8aac-a9e9a4df2734","system_id":"levelo_inurba_marseille","lat":43.31077,"lon":5.38362,"is_reserved":false,"is_disabled":false,"rental_uris":{"android":"levelo://app?vid=00a0c8b7-2b86-497b-8aac-a9e9a4df2734","ios":"levelo://app?vid=00a0c8b7-2b86-497b-8aac-a9e9a4df2734"},"vehicle_type_id":"4","last_reported":1709582822,"current_range_meters":19600,"station_id":"ce4bgv92rcd13ifvqcr0","pricing_plan_id":"cebpf4jnsgd1na2vs0mg"},{"bike_id":"1dae8cf9-c849-4214-995c-c3ddaf4be958","system_id":"levelo_inurba_marseille","lat":43.310804,"lon":5.38359,"is_reserved":false,"is_disabled":false,"rental_uris":{"android":"levelo://app?vid=1dae8cf9-c849-4214-995c-c3ddaf4be958","ios":"levelo://app?vid=1dae8cf9-c849-4214-995c-c3ddaf4be958"},"vehicle_type_id":"4","last_reported":1709582822,"current_range_meters":3600,"station_id":"ce4bgv92rcd13ifvqcr0","pricing_plan_id":"cebpf4jnsgd1na2vs0mg"},{"bike_id":"0c57bc0f-c686-45f6-8cd3-57bbd5bbfae1","system_id":"levelo_inurba_marseille","lat":43.319935,"lon":5.381699,"is_reserved":false,"is_disabled":false,"rental_uris":{"android":"levelo://app?vid=0c57bc0f-c686-45f6-8cd3-57bbd5bbfae1","ios":"levelo://app?vid=0c57bc0f-c686-45f6-8cd3-57bbd5bbfae1"},"vehicle_type_id":"4","last_reported":1709582822,"current_range_meters":15600,"station_id":"ce4bhr12rcd13ifvqhpg","pricing_plan_id":"cebpf4jnsgd1na2vs0mg"},{"bike_id":"8657df2a-d1d1-4559-aec1-21bc6e0c89d6","system_id":"levelo_inurba_marseille","lat":43.319935,"lon":5.381699,"is_reserved":false,"is_disabled":false,"rental_uris":{"android":"levelo://app?vid=8657df2a-d1d1-4559-aec1-21bc6e0c89d6","ios":"levelo://app?vid=8657df2a-d1d1-4559-aec1-21bc6e0c89d6"},"vehicle_type_id":"4","last_reported":1709582822,"current_range_meters":12800,"station_id":"ce4bhr12rcd13ifvqhpg","pricing_plan_id":"cebpf4jnsgd1na2vs0mg"},{"bike_id":"3381c3e7-3ed4-4728-b3ac-6f98c1557439","system_id":"levelo_inurba_marseille","lat":43.319935,"lon":5.381699,"is_reserved":false,"is_disabled":false,"rental_uris":{"android":"levelo://app?vid=3381c3e7-3ed4-4728-b3ac-6f98c1557439","ios":"levelo://app?vid=3381c3e7-3ed4-4728-b3ac-6f98c1557439"},"vehicle_type_id":"4","last_reported":1709582822,"current_range_meters":9200,"station_id":"ce4bhr12rcd13ifvqhpg","pricing_plan_id":"cebpf4jnsgd1na2vs0mg"},{"bike_id":"4faf8d38-aa55-450e-a315-6328e3cce9e3","system_id":"levelo_inurba_marseille","lat":43.319935,"lon":5.381699,"is_reserved":false,"is_disabled":false,"rental_uris":{"android":"levelo://app?vid=4faf8d38-aa55-450e-a315-6328e3cce9e3","ios":"levelo://app?vid=4faf8d38-aa55-450e-a315-6328e3cce9e3"},"vehicle_type_id":"4","last_reported":1709582822,"current_range_meters":20800,"station_id":"ce4bhr12rcd13ifvqhpg","pricing_plan_id":"cebpf4jnsgd1na2vs0mg"},{"bike_id":"32273df4-185e-4d44-8cf1-707fc2f049cb","system_id":"levelo_inurba_marseille","lat":43.319935,"lon":5.381699,"is_reserved":false,"is_disabled":false,"rental_uris":{"android":"levelo://app?vid=32273df4-185e-4d44-8cf1-707fc2f049cb","ios":"levelo://app?vid=32273df4-185e-4d44-8cf1-707fc2f049cb"},"vehicle_type_id":"4","last_reported":1709582822,"current_range_meters":11600,"station_id":"ce4bhr12rcd13ifvqhpg","pricing_plan_id":"cebpf4jnsgd1na2vs0mg"},{"bike_id":"c4561512-9b9a-49a4-a664-e0bda83e18e4","system_id":"levelo_inurba_marseille","lat":43.313571,"lon":5.384829,"is_reserved":false,"is_disabled":false,"rental_uris":{"android":"levelo://app?vid=c4561512-9b9a-49a4-a664-e0bda83e18e4","ios":"levelo://app?vid=c4561512-9b9a-49a4-a664-e0bda83e18e4"},"vehicle_type_id":"4","last_reported":1709582822,"current_range_meters":19200,"station_id":"ce4bgt92rcd13ifvqcf0","pricing_plan_id":"cebpf4jnsgd1na2vs0mg"},{"bike_id":"92354862-b6b1-4001-b3cf-f73930c6420a","system_id":"levelo_inurba_marseille","lat":43.313571,"lon":5.384829,"is_reserved":false,"is_disabled":false,"rental_uris":{"android":"levelo://app?vid=92354862-b6b1-4001-b3cf-f73930c6420a","ios":"levelo://app?vid=92354862-b6b1-4001-b3cf-f73930c6420a"},"vehicle_type_id":"4","last_reported":1709582822,"current_range_meters":31600,"station_id":"ce4bgt92rcd13ifvqcf0","pricing_plan_id":"cebpf4jnsgd1na2vs0mg"},{"bike_id":"91ec6930-239a-40f0-8d37-ee83a6c13644","system_id":"levelo_inurba_marseille","lat":43.313571,"lon":5.384829,"is_reserved":false,"is_disabled":false,"rental_uris":{"android":"levelo://app?vid=91ec6930-239a-40f0-8d37-ee83a6c13644","ios":"levelo://app?vid=91ec6930-239a-40f0-8d37-ee83a6c13644"},"vehicle_type_id":"4","last_reported":1709582822,"current_range_meters":3600,"station_id":"ce4bgt92rcd13ifvqcf0","pricing_plan_id":"cebpf4jnsgd1na2vs0mg"},{"bike_id":"5442234b-a09b-4545-a42a-d43ffa70920f","system_id":"levelo_inurba_marseille","lat":43.313571,"lon":5.384829,"is_reserved":false,"is_disabled":false,"rental_uris":{"android":"levelo://app?vid=5442234b-a09b-4545-a42a-d43ffa70920f","ios":"levelo://app?vid=5442234b-a09b-4545-a42a-d43ffa70920f"},"vehicle_type_id":"4","last_reported":1709582822,"current_range_meters":0,"station_id":"ce4bgt92rcd13ifvqcf0","pricing_plan_id":"cebpf4jnsgd1na2vs0mg"},{"bike_id":"e8784999-1817-4dad-98f7-291999df2280","system_id":"levelo_inurba_marseille","lat":43.299893,"lon":5.371809,"is_reserved":false,"is_disabled":false,"rental_uris":{"android":"levelo://app?vid=e8784999-1817-4dad-98f7-291999df2280","ios":"levelo://app?vid=e8784999-1817-4dad-98f7-291999df2280"},"vehicle_type_id":"4","last_reported":1709582822,"current_range_meters":26400,"station_id":"ce4bgr92rcd13ifvqc7g","pricing_plan_id":"cebpf4jnsgd1na2vs0mg"},{"bike_id":"f2430a27-7182-4659-b455-60fa7dd7cac7","system_id":"levelo_inurba_marseille","lat":43.299724,"lon":5.371829,"is_reserved":false,"is_disabled":false,"rental_uris":{"android":"levelo://app?vid=f2430a27-7182-4659-b455-60fa7dd7cac7","ios":"levelo://app?vid=f2430a27-7182-4659-b455-60fa7dd7cac7"},"vehicle_type_id":"4","last_reported":1709582822,"current_range_meters":15200,"station_id":"ce4bgr92rcd13ifvqc7g","pricing_plan_id":"cebpf4jnsgd1na2vs0mg"},{"bike_id":"373a5e47-3de3-4eba-8e25-ac4acd5008b9","system_id":"levelo_inurba_marseille","lat":43.299222,"lon":5.365554,"is_reserved":false,"is_disabled":false,"rental_uris":{"android":"levelo://app?vid=373a5e47-3de3-4eba-8e25-ac4acd5008b9","ios":"levelo://app?vid=373a5e47-3de3-4eba-8e25-ac4acd5008b9"},"vehicle_type_id":"4","last_reported":1709582822,"current_range_meters":18800,"station_id":"ce4bgm92rcd13ifvqbr0","pricing_plan_id":"cebpf4jnsgd1na2vs0mg"},{"bike_id":"36c9265e-f5aa-4713-b8d3-7c39a29d6c1f","system_id":"levelo_inurba_marseille","lat":43.299222,"lon":5.365554,"is_reserved":false,"is_disabled":false,"rental_uris":{"android":"levelo://app?vid=36c9265e-f5aa-4713-b8d3-7c39a29d6c1f","ios":"levelo://app?vid=36c9265e-f5aa-4713-b8d3-7c39a29d6c1f"},"vehicle_type_id":"4","last_reported":1709582822,"current_range_meters":23600,"station_id":"ce4bgm92rcd13ifvqbr0","pricing_plan_id":"cebpf4jnsgd1na2vs0mg"},{"bike_id":"dba0c4bf-2a52-4fc8-aec1-114362676c29","system_id":"levelo_inurba_marseille","lat":43.299209,"lon":5.365547,"is_reserved":false,"is_disabled":false,"rental_uris":{"android":"levelo://app?vid=dba0c4bf-2a52-4fc8-aec1-114362676c29","ios":"levelo://app?vid=dba0c4bf-2a52-4fc8-aec1-114362676c29"},"vehicle_type_id":"4","last_reported":1709582822,"current_range_meters":23200,"station_id":"ce4bgm92rcd13ifvqbr0","pricing_plan_id":"cebpf4jnsgd1na2vs0mg"},{"bike_id":"de715efc-c6f1-479b-a104-1d1f95f13ed1","system_id":"levelo_inurba_marseille","lat":43.299209,"lon":5.365547,"is_reserved":false,"is_disabled":false,"rental_uris":{"android":"levelo://app?vid=de715efc-c6f1-479b-a104-1d1f95f13ed1","ios":"levelo://app?vid=de715efc-c6f1-479b-a104-1d1f95f13ed1"},"vehicle_type_id":"4","last_reported":1709582822,"current_range_meters":8400,"station_id":"ce4bgm92rcd13ifvqbr0","pricing_plan_id":"cebpf4jnsgd1na2vs0mg"},{"bike_id":"6b3102c9-ab5a-4142-beab-66bb2d0d309c","system_id":"levelo_inurba_marseille","lat":43.298433,"lon":5.362774,"is_reserved":false,"is_disabled":false,"rental_uris":{"android":"levelo://app?vid=6b3102c9-ab5a-4142-beab-66bb2d0d309c","ios":"levelo://app?vid=6b3102c9-ab5a-4142-beab-66bb2d0d309c"},"vehicle_type_id":"4","last_reported":1709582822,"current_range_meters":13600,"station_id":"ce4bgpp2rcd13ifvqc3g","pricing_plan_id":"cebpf4jnsgd1na2vs0mg"},{"bike_id":"09323236-d0cc-4eb0-ad86-03027649af94","system_id":"levelo_inurba_marseille","lat":43.298433,"lon":5.362774,"is_reserved":false,"is_disabled":false,"rental_uris":{"android":"levelo://app?vid=09323236-d0cc-4eb0-ad86-03027649af94","ios":"levelo://app?vid=09323236-d0cc-4eb0-ad86-03027649af94"},"vehicle_type_id":"4","last_reported":1709582822,"current_range_meters":3200,"station_id":"ce4bgpp2rcd13ifvqc3g","pricing_plan_id":"cebpf4jnsgd1na2vs0mg"},{"bike_id":"6c64887c-9edc-4998-aedc-63db47511459","system_id":"levelo_inurba_marseille","lat":43.298433,"lon":5.362774,"is_reserved":false,"is_disabled":false,"rental_uris":{"android":"levelo://app?vid=6c64887c-9edc-4998-aedc-63db47511459","ios":"levelo://app?vid=6c64887c-9edc-4998-aedc-63db47511459"},"vehicle_type_id":"4","last_reported":1709582822,"current_range_meters":6800,"station_id":"ce4bgpp2rcd13ifvqc3g","pricing_plan_id":"cebpf4jnsgd1na2vs0mg"},{"bike_id":"18917f5a-4d11-4e9e-9c7b-d81afe3de7f9","system_id":"levelo_inurba_marseille","lat":43.298433,"lon":5.362774,"is_reserved":false,"is_disabled":false,"rental_uris":{"android":"levelo://app?vid=18917f5a-4d11-4e9e-9c7b-d81afe3de7f9","ios":"levelo://app?vid=18917f5a-4d11-4e9e-9c7b-d81afe3de7f9"},"vehicle_type_id":"4","last_reported":1709582822,"current_range_meters":16800,"station_id":"ce4bgpp2rcd13ifvqc3g","pricing_plan_id":"cebpf4jnsgd1na2vs0mg"},{"bike_id":"2d890c73-e283-4534-8160-e6ab3f6b8677","system_id":"levelo_inurba_marseille","lat":43.298433,"lon":5.362774,"is_reserved":false,"is_disabled":false,"rental_uris":{"android":"levelo://app?vid=2d890c73-e283-4534-8160-e6ab3f6b8677","ios":"levelo://app?vid=2d890c73-e283-4534-8160-e6ab3f6b8677"},"vehicle_type_id":"4","last_reported":1709582822,"current_range_meters":31200,"station_id":"ce4bgpp2rcd13ifvqc3g","pricing_plan_id":"cebpf4jnsgd1na2vs0mg"},{"bike_id":"230c5c6c-69fc-4cc7-b112-fc6b434ed815","system_id":"levelo_inurba_marseille","lat":43.2985,"lon":5.36285,"is_reserved":false,"is_disabled":false,"rental_uris":{"android":"levelo://app?vid=230c5c6c-69fc-4cc7-b112-fc6b434ed815","ios":"levelo://app?vid=230c5c6c-69fc-4cc7-b112-fc6b434ed815"},"vehicle_type_id":"4","last_reported":1709582822,"current_range_meters":17200,"station_id":"ce4bgpp2rcd13ifvqc3g","pricing_plan_id":"cebpf4jnsgd1na2vs0mg"},{"bike_id":"427153b5-e577-44d9-bbb2-c62722e42933","system_id":"levelo_inurba_marseille","lat":43.29849,"lon":5.36286,"is_reserved":false,"is_disabled":false,"rental_uris":{"android":"levelo://app?vid=427153b5-e577-44d9-bbb2-c62722e42933","ios":"levelo://app?vid=427153b5-e577-44d9-bbb2-c62722e42933"},"vehicle_type_id":"4","last_reported":1709582822,"current_range_meters":12000,"station_id":"ce4bgpp2rcd13ifvqc3g","pricing_plan_id":"cebpf4jnsgd1na2vs0mg"},{"bike_id":"ab22a54e-516f-4ad5-bc4f-e7cbf6e7951f","system_id":"levelo_inurba_marseille","lat":43.2985,"lon":5.36279,"is_reserved":false,"is_disabled":false,"rental_uris":{"android":"levelo://app?vid=ab22a54e-516f-4ad5-bc4f-e7cbf6e7951f","ios":"levelo://app?vid=ab22a54e-516f-4ad5-bc4f-e7cbf6e7951f"},"vehicle_type_id":"4","last_reported":1709582822,"current_range_meters":0,"station_id":"ce4bgpp2rcd13ifvqc3g","pricing_plan_id":"cebpf4jnsgd1na2vs0mg"},{"bike_id":"53945259-a7ec-4859-b4ea-46ad0a96f35d","system_id":"levelo_inurba_marseille","lat":43.29848,"lon":5.36286,"is_reserved":false,"is_disabled":false,"rental_uris":{"android":"levelo://app?vid=53945259-a7ec-4859-b4ea-46ad0a96f35d","ios":"levelo://app?vid=53945259-a7ec-4859-b4ea-46ad0a96f35d"},"vehicle_type_id":"4","last_reported":1709582822,"current_range_meters":4000,"station_id":"ce4bgpp2rcd13ifvqc3g","pricing_plan_id":"cebpf4jnsgd1na2vs0mg"},{"bike_id":"be11a1a2-0a85-4547-a3ad-fca3b4ddb16d","system_id":"levelo_inurba_marseille","lat":43.29848,"lon":5.36274,"is_reserved":false,"is_disabled":false,"rental_uris":{"android":"levelo://app?vid=be11a1a2-0a85-4547-a3ad-fca3b4ddb16d","ios":"levelo://app?vid=be11a1a2-0a85-4547-a3ad-fca3b4ddb16d"},"vehicle_type_id":"4","last_reported":1709582822,"current_range_meters":17600,"station_id":"ce4bgpp2rcd13ifvqc3g","pricing_plan_id":"cebpf4jnsgd1na2vs0mg"},{"bike_id":"fb4e363a-9d98-485e-8470-114e7bb65d4b","system_id":"levelo_inurba_marseille","lat":43.298433,"lon":5.362774,"is_reserved":false,"is_disabled":false,"rental_uris":{"android":"levelo://app?vid=fb4e363a-9d98-485e-8470-114e7bb65d4b","ios":"levelo://app?vid=fb4e363a-9d98-485e-8470-114e7bb65d4b"},"vehicle_type_id":"4","last_reported":1709582822,"current_range_meters":3600,"station_id":"ce4bgpp2rcd13ifvqc3g","pricing_plan_id":"cebpf4jnsgd1na2vs0mg"},{"bike_id":"82a6504d-c1f4-486e-b8d1-8a9013473313","system_id":"levelo_inurba_marseille","lat":43.31182,"lon":5.38707,"is_reserved":false,"is_disabled":false,"rental_uris":{"android":"levelo://app?vid=82a6504d-c1f4-486e-b8d1-8a9013473313","ios":"levelo://app?vid=82a6504d-c1f4-486e-b8d1-8a9013473313"},"vehicle_type_id":"4","last_reported":1709582822,"current_range_meters":23600,"station_id":"ce4bgv12rcd13ifvqcp0","pricing_plan_id":"cebpf4jnsgd1na2vs0mg"},{"bike_id":"0f0d27b7-aff7-4c73-8c3e-5b961318e7de","system_id":"levelo_inurba_marseille","lat":43.29922,"lon":5.3749,"is_reserved":false,"is_disabled":false,"rental_uris":{"android":"levelo://app?vid=0f0d27b7-aff7-4c73-8c3e-5b961318e7de","ios":"levelo://app?vid=0f0d27b7-aff7-4c73-8c3e-5b961318e7de"},"vehicle_type_id":"4","last_reported":1709582822,"current_range_meters":16400,"station_id":"ce4bgjh2rcd13ifvqbg0","pricing_plan_id":"cebpf4jnsgd1na2vs0mg"},{"bike_id":"66ef1af1-196a-4415-b0e9-a40a2b04461c","system_id":"levelo_inurba_marseille","lat":43.31182,"lon":5.38711,"is_reserved":false,"is_disabled":false,"rental_uris":{"android":"levelo://app?vid=66ef1af1-196a-4415-b0e9-a40a2b04461c","ios":"levelo://app?vid=66ef1af1-196a-4415-b0e9-a40a2b04461c"},"vehicle_type_id":"4","last_reported":1709582822,"current_range_meters":28400,"station_id":"ce4bgv12rcd13ifvqcp0","pricing_plan_id":"cebpf4jnsgd1na2vs0mg"},{"bike_id":"53822925-c8ad-47d4-95eb-4137b431a5b7","system_id":"levelo_inurba_marseille","lat":43.311722,"lon":5.387247,"is_reserved":false,"is_disabled":false,"rental_uris":{"android":"levelo://app?vid=53822925-c8ad-47d4-95eb-4137b431a5b7","ios":"levelo://app?vid=53822925-c8ad-47d4-95eb-4137b431a5b7"},"vehicle_type_id":"4","last_reported":1709582822,"current_range_meters":18800,"station_id":"ce4bgv12rcd13ifvqcp0","pricing_plan_id":"cebpf4jnsgd1na2vs0mg"},{"bike_id":"f724532b-aa47-48bf-ae61-b323e29c9824","system_id":"levelo_inurba_marseille","lat":43.311722,"lon":5.387247,"is_reserved":false,"is_disabled":false,"rental_uris":{"android":"levelo://app?vid=f724532b-aa47-48bf-ae61-b323e29c9824","ios":"levelo://app?vid=f724532b-aa47-48bf-ae61-b323e29c9824"},"vehicle_type_id":"4","last_reported":1709582822,"current_range_meters":5600,"station_id":"ce4bgv12rcd13ifvqcp0","pricing_plan_id":"cebpf4jnsgd1na2vs0mg"},{"bike_id":"3927f6d2-22f2-482f-829f-ced49375b703","system_id":"levelo_inurba_marseille","lat":43.311722,"lon":5.387247,"is_reserved":false,"is_disabled":false,"rental_uris":{"android":"levelo://app?vid=3927f6d2-22f2-482f-829f-ced49375b703","ios":"levelo://app?vid=3927f6d2-22f2-482f-829f-ced49375b703"},"vehicle_type_id":"4","last_reported":1709582822,"current_range_meters":31600,"station_id":"ce4bgv12rcd13ifvqcp0","pricing_plan_id":"cebpf4jnsgd1na2vs0mg"},{"bike_id":"457158c6-58f1-467a-be37-2e66a0667950","system_id":"levelo_inurba_marseille","lat":43.29917,"lon":5.37482,"is_reserved":false,"is_disabled":false,"rental_uris":{"android":"levelo://app?vid=457158c6-58f1-467a-be37-2e66a0667950","ios":"levelo://app?vid=457158c6-58f1-467a-be37-2e66a0667950"},"vehicle_type_id":"4","last_reported":1709582822,"current_range_meters":11600,"station_id":"ce4bgjh2rcd13ifvqbg0","pricing_plan_id":"cebpf4jnsgd1na2vs0mg"},{"bike_id":"bec2c1c1-c8e4-4052-aa2e-5597d65bd8c7","system_id":"levelo_inurba_marseille","lat":43.311847,"lon":5.387148,"is_reserved":false,"is_disabled":false,"rental_uris":{"android":"levelo://app?vid=bec2c1c1-c8e4-4052-aa2e-5597d65bd8c7","ios":"levelo://app?vid=bec2c1c1-c8e4-4052-aa2e-5597d65bd8c7"},"vehicle_type_id":"4","last_reported":1709582822,"current_range_meters":24000,"station_id":"ce4bgv12rcd13ifvqcp0","pricing_plan_id":"cebpf4jnsgd1na2vs0mg"},{"bike_id":"1bbd253c-1d8c-449b-8c43-b0f5ef7bf21a","system_id":"levelo_inurba_marseille","lat":43.29913,"lon":5.37472,"is_reserved":false,"is_disabled":false,"rental_uris":{"android":"levelo://app?vid=1bbd253c-1d8c-449b-8c43-b0f5ef7bf21a","ios":"levelo://app?vid=1bbd253c-1d8c-449b-8c43-b0f5ef7bf21a"},"vehicle_type_id":"4","last_reported":1709582822,"current_range_meters":0,"station_id":"ce4bgjh2rcd13ifvqbg0","pricing_plan_id":"cebpf4jnsgd1na2vs0mg"},{"bike_id":"79a732c6-3445-48ca-96f7-c717b33d68d8","system_id":"levelo_inurba_marseille","lat":43.311722,"lon":5.387247,"is_reserved":false,"is_disabled":false,"rental_uris":{"android":"levelo://app?vid=79a732c6-3445-48ca-96f7-c717b33d68d8","ios":"levelo://app?vid=79a732c6-3445-48ca-96f7-c717b33d68d8"},"vehicle_type_id":"4","last_reported":1709582822,"current_range_meters":30000,"station_id":"ce4bgv12rcd13ifvqcp0","pricing_plan_id":"cebpf4jnsgd1na2vs0mg"},{"bike_id":"1893a063-4542-47bb-bc22-c9ff09d03e36","system_id":"levelo_inurba_marseille","lat":43.311722,"lon":5.387247,"is_reserved":false,"is_disabled":false,"rental_uris":{"android":"levelo://app?vid=1893a063-4542-47bb-bc22-c9ff09d03e36","ios":"levelo://app?vid=1893a063-4542-47bb-bc22-c9ff09d03e36"},"vehicle_type_id":"4","last_reported":1709582822,"current_range_meters":9200,"station_id":"ce4bgv12rcd13ifvqcp0","pricing_plan_id":"cebpf4jnsgd1na2vs0mg"},{"bike_id":"b26adbdf-f0f7-425e-b180-f633f8ebd1b9","system_id":"levelo_inurba_marseille","lat":43.311722,"lon":5.387247,"is_reserved":false,"is_disabled":false,"rental_uris":{"android":"levelo://app?vid=b26adbdf-f0f7-425e-b180-f633f8ebd1b9","ios":"levelo://app?vid=b26adbdf-f0f7-425e-b180-f633f8ebd1b9"},"vehicle_type_id":"4","last_reported":1709582822,"current_range_meters":22000,"station_id":"ce4bgv12rcd13ifvqcp0","pricing_plan_id":"cebpf4jnsgd1na2vs0mg"},{"bike_id":"b0548cf1-eedc-4738-8852-9c334b8a5565","system_id":"levelo_inurba_marseille","lat":43.311722,"lon":5.387247,"is_reserved":false,"is_disabled":false,"rental_uris":{"android":"levelo://app?vid=b0548cf1-eedc-4738-8852-9c334b8a5565","ios":"levelo://app?vid=b0548cf1-eedc-4738-8852-9c334b8a5565"},"vehicle_type_id":"4","last_reported":1709582822,"current_range_meters":18800,"station_id":"ce4bgv12rcd13ifvqcp0","pricing_plan_id":"cebpf4jnsgd1na2vs0mg"},{"bike_id":"f863e9df-c42a-4596-91d5-3b8bfb7b6908","system_id":"levelo_inurba_marseille","lat":43.311722,"lon":5.387247,"is_reserved":false,"is_disabled":false,"rental_uris":{"android":"levelo://app?vid=f863e9df-c42a-4596-91d5-3b8bfb7b6908","ios":"levelo://app?vid=f863e9df-c42a-4596-91d5-3b8bfb7b6908"},"vehicle_type_id":"4","last_reported":1709582822,"current_range_meters":0,"station_id":"ce4bgv12rcd13ifvqcp0","pricing_plan_id":"cebpf4jnsgd1na2vs0mg"},{"bike_id":"b590cb06-eb51-4b59-ad60-6dff15296568","system_id":"levelo_inurba_marseille","lat":43.311722,"lon":5.387247,"is_reserved":false,"is_disabled":false,"rental_uris":{"android":"levelo://app?vid=b590cb06-eb51-4b59-ad60-6dff15296568","ios":"levelo://app?vid=b590cb06-eb51-4b59-ad60-6dff15296568"},"vehicle_type_id":"4","last_reported":1709582822,"current_range_meters":19200,"station_id":"ce4bgv12rcd13ifvqcp0","pricing_plan_id":"cebpf4jnsgd1na2vs0mg"},{"bike_id":"c1b377ac-6ec1-4d17-afae-5a5d160f3394","system_id":"levelo_inurba_marseille","lat":43.299243,"lon":5.37481,"is_reserved":false,"is_disabled":false,"rental_uris":{"android":"levelo://app?vid=c1b377ac-6ec1-4d17-afae-5a5d160f3394","ios":"levelo://app?vid=c1b377ac-6ec1-4d17-afae-5a5d160f3394"},"vehicle_type_id":"4","last_reported":1709582822,"current_range_meters":3600,"station_id":"ce4bgjh2rcd13ifvqbg0","pricing_plan_id":"cebpf4jnsgd1na2vs0mg"},{"bike_id":"7943c7c1-df13-48f9-8bef-2955f3e25eda","system_id":"levelo_inurba_marseille","lat":43.32281,"lon":5.38263,"is_reserved":false,"is_disabled":false,"rental_uris":{"android":"levelo://app?vid=7943c7c1-df13-48f9-8bef-2955f3e25eda","ios":"levelo://app?vid=7943c7c1-df13-48f9-8bef-2955f3e25eda"},"vehicle_type_id":"4","last_reported":1709582822,"current_range_meters":8000,"station_id":"ce4bhr12rcd13ifvqhqg","pricing_plan_id":"cebpf4jnsgd1na2vs0mg"},{"bike_id":"c8b9d32c-c6f5-414c-94f5-86b56c1bc436","system_id":"levelo_inurba_marseille","lat":43.322872,"lon":5.382756,"is_reserved":false,"is_disabled":false,"rental_uris":{"android":"levelo://app?vid=c8b9d32c-c6f5-414c-94f5-86b56c1bc436","ios":"levelo://app?vid=c8b9d32c-c6f5-414c-94f5-86b56c1bc436"},"vehicle_type_id":"4","last_reported":1709582822,"current_range_meters":31200,"station_id":"ce4bhr12rcd13ifvqhqg","pricing_plan_id":"cebpf4jnsgd1na2vs0mg"},{"bike_id":"d549eb2a-65ca-4166-8fff-3a61d5f67a9a","system_id":"levelo_inurba_marseille","lat":43.29777,"lon":5.37091,"is_reserved":false,"is_disabled":false,"rental_uris":{"android":"levelo://app?vid=d549eb2a-65ca-4166-8fff-3a61d5f67a9a","ios":"levelo://app?vid=d549eb2a-65ca-4166-8fff-3a61d5f67a9a"},"vehicle_type_id":"4","last_reported":1709582822,"current_range_meters":31200,"station_id":"ce4bgop2rcd13ifvqc1g","pricing_plan_id":"cebpf4jnsgd1na2vs0mg"},{"bike_id":"bcb94b14-0b31-4eb8-a7bc-4a8f0375f667","system_id":"levelo_inurba_marseille","lat":43.322872,"lon":5.382756,"is_reserved":false,"is_disabled":false,"rental_uris":{"android":"levelo://app?vid=bcb94b14-0b31-4eb8-a7bc-4a8f0375f667","ios":"levelo://app?vid=bcb94b14-0b31-4eb8-a7bc-4a8f0375f667"},"vehicle_type_id":"4","last_reported":1709582822,"current_range_meters":0,"station_id":"ce4bhr12rcd13ifvqhqg","pricing_plan_id":"cebpf4jnsgd1na2vs0mg"},{"bike_id":"9bb52770-1551-4b39-849e-bee90710a3d8","system_id":"levelo_inurba_marseille","lat":43.29773,"lon":5.371017,"is_reserved":false,"is_disabled":false,"rental_uris":{"android":"levelo://app?vid=9bb52770-1551-4b39-849e-bee90710a3d8","ios":"levelo://app?vid=9bb52770-1551-4b39-849e-bee90710a3d8"},"vehicle_type_id":"4","last_reported":1709582822,"current_range_meters":3200,"station_id":"ce4bgop2rcd13ifvqc1g","pricing_plan_id":"cebpf4jnsgd1na2vs0mg"},{"bike_id":"ade3fe0c-613e-41d7-b13b-a29db446ebe8","system_id":"levelo_inurba_marseille","lat":43.322872,"lon":5.382756,"is_reserved":false,"is_disabled":false,"rental_uris":{"android":"levelo://app?vid=ade3fe0c-613e-41d7-b13b-a29db446ebe8","ios":"levelo://app?vid=ade3fe0c-613e-41d7-b13b-a29db446ebe8"},"vehicle_type_id":"4","last_reported":1709582822,"current_range_meters":20000,"station_id":"ce4bhr12rcd13ifvqhqg","pricing_plan_id":"cebpf4jnsgd1na2vs0mg"},{"bike_id":"ac14e5f1-c2e8-4b39-8a5e-4381c6bafff9","system_id":"levelo_inurba_marseille","lat":43.322872,"lon":5.382756,"is_reserved":false,"is_disabled":false,"rental_uris":{"android":"levelo://app?vid=ac14e5f1-c2e8-4b39-8a5e-4381c6bafff9","ios":"levelo://app?vid=ac14e5f1-c2e8-4b39-8a5e-4381c6bafff9"},"vehicle_type_id":"4","last_reported":1709582822,"current_range_meters":16000,"station_id":"ce4bhr12rcd13ifvqhqg","pricing_plan_id":"cebpf4jnsgd1na2vs0mg"},{"bike_id":"04277f71-9a24-4a68-9c27-7886460b2105","system_id":"levelo_inurba_marseille","lat":43.322872,"lon":5.382756,"is_reserved":false,"is_disabled":false,"rental_uris":{"android":"levelo://app?vid=04277f71-9a24-4a68-9c27-7886460b2105","ios":"levelo://app?vid=04277f71-9a24-4a68-9c27-7886460b2105"},"vehicle_type_id":"4","last_reported":1709582822,"current_range_meters":12800,"station_id":"ce4bhr12rcd13ifvqhqg","pricing_plan_id":"cebpf4jnsgd1na2vs0mg"},{"bike_id":"07b32308-00fc-4b1d-bd30-c57fc7f04f46","system_id":"levelo_inurba_marseille","lat":43.322872,"lon":5.382756,"is_reserved":false,"is_disabled":false,"rental_uris":{"android":"levelo://app?vid=07b32308-00fc-4b1d-bd30-c57fc7f04f46","ios":"levelo://app?vid=07b32308-00fc-4b1d-bd30-c57fc7f04f46"},"vehicle_type_id":"4","last_reported":1709582822,"current_range_meters":24000,"station_id":"ce4bhr12rcd13ifvqhqg","pricing_plan_id":"cebpf4jnsgd1na2vs0mg"},{"bike_id":"4f0d3521-2b36-4490-8f05-2c910df75b64","system_id":"levelo_inurba_marseille","lat":43.297163,"lon":5.365866,"is_reserved":false,"is_disabled":false,"rental_uris":{"android":"levelo://app?vid=4f0d3521-2b36-4490-8f05-2c910df75b64","ios":"levelo://app?vid=4f0d3521-2b36-4490-8f05-2c910df75b64"},"vehicle_type_id":"4","last_reported":1709582822,"current_range_meters":4000,"station_id":"ce4bgn12rcd13ifvqbt0","pricing_plan_id":"cebpf4jnsgd1na2vs0mg"},{"bike_id":"221063a3-9ff0-4487-b709-b4fd02a78bac","system_id":"levelo_inurba_marseille","lat":43.297163,"lon":5.365866,"is_reserved":false,"is_disabled":false,"rental_uris":{"android":"levelo://app?vid=221063a3-9ff0-4487-b709-b4fd02a78bac","ios":"levelo://app?vid=221063a3-9ff0-4487-b709-b4fd02a78bac"},"vehicle_type_id":"4","last_reported":1709582822,"current_range_meters":24000,"station_id":"ce4bgn12rcd13ifvqbt0","pricing_plan_id":"cebpf4jnsgd1na2vs0mg"},{"bike_id":"65d3d00e-99c6-4e28-bee3-9d5f988f6d36","system_id":"levelo_inurba_marseille","lat":43.297163,"lon":5.365866,"is_reserved":false,"is_disabled":false,"rental_uris":{"android":"levelo://app?vid=65d3d00e-99c6-4e28-bee3-9d5f988f6d36","ios":"levelo://app?vid=65d3d00e-99c6-4e28-bee3-9d5f988f6d36"},"vehicle_type_id":"4","last_reported":1709582822,"current_range_meters":18800,"station_id":"ce4bgn12rcd13ifvqbt0","pricing_plan_id":"cebpf4jnsgd1na2vs0mg"},{"bike_id":"81a73b5b-283c-4bf7-b754-c42af3f9cb25","system_id":"levelo_inurba_marseille","lat":43.297163,"lon":5.365866,"is_reserved":false,"is_disabled":false,"rental_uris":{"android":"levelo://app?vid=81a73b5b-283c-4bf7-b754-c42af3f9cb25","ios":"levelo://app?vid=81a73b5b-283c-4bf7-b754-c42af3f9cb25"},"vehicle_type_id":"4","last_reported":1709582822,"current_range_meters":12400,"station_id":"ce4bgn12rcd13ifvqbt0","pricing_plan_id":"cebpf4jnsgd1na2vs0mg"},{"bike_id":"bfedc9c0-55bc-4268-9ba3-d5b4753f28ee","system_id":"levelo_inurba_marseille","lat":43.2968,"lon":5.37291,"is_reserved":false,"is_disabled":false,"rental_uris":{"android":"levelo://app?vid=bfedc9c0-55bc-4268-9ba3-d5b4753f28ee","ios":"levelo://app?vid=bfedc9c0-55bc-4268-9ba3-d5b4753f28ee"},"vehicle_type_id":"4","last_reported":1709582822,"current_range_meters":0,"station_id":"ce4bgk12rcd13ifvqbj0","pricing_plan_id":"cebpf4jnsgd1na2vs0mg"},{"bike_id":"fd9c80d2-64ef-4871-9e57-60166996fdc7","system_id":"levelo_inurba_marseille","lat":43.2968,"lon":5.37291,"is_reserved":false,"is_disabled":false,"rental_uris":{"android":"levelo://app?vid=fd9c80d2-64ef-4871-9e57-60166996fdc7","ios":"levelo://app?vid=fd9c80d2-64ef-4871-9e57-60166996fdc7"},"vehicle_type_id":"4","last_reported":1709582822,"current_range_meters":9200,"station_id":"ce4bgk12rcd13ifvqbj0","pricing_plan_id":"cebpf4jnsgd1na2vs0mg"},{"bike_id":"3ea090fb-03b5-4429-a044-690f990fe402","system_id":"levelo_inurba_marseille","lat":43.2968,"lon":5.37291,"is_reserved":false,"is_disabled":false,"rental_uris":{"android":"levelo://app?vid=3ea090fb-03b5-4429-a044-690f990fe402","ios":"levelo://app?vid=3ea090fb-03b5-4429-a044-690f990fe402"},"vehicle_type_id":"4","last_reported":1709582822,"current_range_meters":27200,"station_id":"ce4bgk12rcd13ifvqbj0","pricing_plan_id":"cebpf4jnsgd1na2vs0mg"},{"bike_id":"7265693d-a987-4a36-a668-19077cc0273b","system_id":"levelo_inurba_marseille","lat":43.29591,"lon":5.36749,"is_reserved":false,"is_disabled":false,"rental_uris":{"android":"levelo://app?vid=7265693d-a987-4a36-a668-19077cc0273b","ios":"levelo://app?vid=7265693d-a987-4a36-a668-19077cc0273b"},"vehicle_type_id":"4","last_reported":1709582822,"current_range_meters":14800,"station_id":"ce4bgph2rcd13ifvqc2g","pricing_plan_id":"cebpf4jnsgd1na2vs0mg"},{"bike_id":"7249d1fb-3e8f-422e-b368-2a9ce7ccf97c","system_id":"levelo_inurba_marseille","lat":43.29573,"lon":5.367355,"is_reserved":false,"is_disabled":false,"rental_uris":{"android":"levelo://app?vid=7249d1fb-3e8f-422e-b368-2a9ce7ccf97c","ios":"levelo://app?vid=7249d1fb-3e8f-422e-b368-2a9ce7ccf97c"},"vehicle_type_id":"4","last_reported":1709582822,"current_range_meters":28800,"station_id":"ce4bgph2rcd13ifvqc2g","pricing_plan_id":"cebpf4jnsgd1na2vs0mg"},{"bike_id":"583701ec-534a-4866-ae89-3352e043431c","system_id":"levelo_inurba_marseille","lat":43.29573,"lon":5.367355,"is_reserved":false,"is_disabled":false,"rental_uris":{"android":"levelo://app?vid=583701ec-534a-4866-ae89-3352e043431c","ios":"levelo://app?vid=583701ec-534a-4866-ae89-3352e043431c"},"vehicle_type_id":"4","last_reported":1709582822,"current_range_meters":31200,"station_id":"ce4bgph2rcd13ifvqc2g","pricing_plan_id":"cebpf4jnsgd1na2vs0mg"},{"bike_id":"aecea3db-f108-413b-87b2-2d963c399b9a","system_id":"levelo_inurba_marseille","lat":43.29573,"lon":5.367355,"is_reserved":false,"is_disabled":false,"rental_uris":{"android":"levelo://app?vid=aecea3db-f108-413b-87b2-2d963c399b9a","ios":"levelo://app?vid=aecea3db-f108-413b-87b2-2d963c399b9a"},"vehicle_type_id":"4","last_reported":1709582822,"current_range_meters":8800,"station_id":"ce4bgph2rcd13ifvqc2g","pricing_plan_id":"cebpf4jnsgd1na2vs0mg"},{"bike_id":"28dd412f-2a66-4b58-aec2-ddbfa45ade5c","system_id":"levelo_inurba_marseille","lat":43.29573,"lon":5.367355,"is_reserved":false,"is_disabled":false,"rental_uris":{"android":"levelo://app?vid=28dd412f-2a66-4b58-aec2-ddbfa45ade5c","ios":"levelo://app?vid=28dd412f-2a66-4b58-aec2-ddbfa45ade5c"},"vehicle_type_id":"4","last_reported":1709582822,"current_range_meters":22000,"station_id":"ce4bgph2rcd13ifvqc2g","pricing_plan_id":"cebpf4jnsgd1na2vs0mg"},{"bike_id":"514cbd1e-f07a-4cde-8b1a-50dac6b57fd7","system_id":"levelo_inurba_marseille","lat":43.29573,"lon":5.367355,"is_reserved":false,"is_disabled":false,"rental_uris":{"android":"levelo://app?vid=514cbd1e-f07a-4cde-8b1a-50dac6b57fd7","ios":"levelo://app?vid=514cbd1e-f07a-4cde-8b1a-50dac6b57fd7"},"vehicle_type_id":"4","last_reported":1709582822,"current_range_meters":30400,"station_id":"ce4bgph2rcd13ifvqc2g","pricing_plan_id":"cebpf4jnsgd1na2vs0mg"},{"bike_id":"2f57771f-a9ac-4b3e-a6f7-bfc20ecc032d","system_id":"levelo_inurba_marseille","lat":43.317557,"lon":5.390173,"is_reserved":false,"is_disabled":false,"rental_uris":{"android":"levelo://app?vid=2f57771f-a9ac-4b3e-a6f7-bfc20ecc032d","ios":"levelo://app?vid=2f57771f-a9ac-4b3e-a6f7-bfc20ecc032d"},"vehicle_type_id":"4","last_reported":1709582822,"current_range_meters":31600,"station_id":"ce4bhqp2rcd13ifvqhng","pricing_plan_id":"cebpf4jnsgd1na2vs0mg"},{"bike_id":"e94b9dd5-3eae-4cb9-af89-dc4034f934bc","system_id":"levelo_inurba_marseille","lat":43.317557,"lon":5.390173,"is_reserved":false,"is_disabled":false,"rental_uris":{"android":"levelo://app?vid=e94b9dd5-3eae-4cb9-af89-dc4034f934bc","ios":"levelo://app?vid=e94b9dd5-3eae-4cb9-af89-dc4034f934bc"},"vehicle_type_id":"4","last_reported":1709582822,"current_range_meters":7600,"station_id":"ce4bhqp2rcd13ifvqhng","pricing_plan_id":"cebpf4jnsgd1na2vs0mg"},{"bike_id":"066622f4-6edf-4a55-98da-2eaec44e1f37","system_id":"levelo_inurba_marseille","lat":43.317557,"lon":5.390173,"is_reserved":false,"is_disabled":false,"rental_uris":{"android":"levelo://app?vid=066622f4-6edf-4a55-98da-2eaec44e1f37","ios":"levelo://app?vid=066622f4-6edf-4a55-98da-2eaec44e1f37"},"vehicle_type_id":"4","last_reported":1709582822,"current_range_meters":14000,"station_id":"ce4bhqp2rcd13ifvqhng","pricing_plan_id":"cebpf4jnsgd1na2vs0mg"},{"bike_id":"fd9c1b69-50e8-4bd9-b806-2114e3b7a810","system_id":"levelo_inurba_marseille","lat":43.317557,"lon":5.390173,"is_reserved":false,"is_disabled":false,"rental_uris":{"android":"levelo://app?vid=fd9c1b69-50e8-4bd9-b806-2114e3b7a810","ios":"levelo://app?vid=fd9c1b69-50e8-4bd9-b806-2114e3b7a810"},"vehicle_type_id":"4","last_reported":1709582822,"current_range_meters":30000,"station_id":"ce4bhqp2rcd13ifvqhng","pricing_plan_id":"cebpf4jnsgd1na2vs0mg"},{"bike_id":"45ee9f7d-d977-4951-9cfe-d29fd2c14be1","system_id":"levelo_inurba_marseille","lat":43.317557,"lon":5.390173,"is_reserved":false,"is_disabled":false,"rental_uris":{"android":"levelo://app?vid=45ee9f7d-d977-4951-9cfe-d29fd2c14be1","ios":"levelo://app?vid=45ee9f7d-d977-4951-9cfe-d29fd2c14be1"},"vehicle_type_id":"4","last_reported":1709582822,"current_range_meters":29600,"station_id":"ce4bhqp2rcd13ifvqhng","pricing_plan_id":"cebpf4jnsgd1na2vs0mg"},{"bike_id":"49f0560f-76cb-4fe2-b91a-61275bf93c98","system_id":"levelo_inurba_marseille","lat":43.31757,"lon":5.39014,"is_reserved":false,"is_disabled":false,"rental_uris":{"android":"levelo://app?vid=49f0560f-76cb-4fe2-b91a-61275bf93c98","ios":"levelo://app?vid=49f0560f-76cb-4fe2-b91a-61275bf93c98"},"vehicle_type_id":"4","last_reported":1709582822,"current_range_meters":16800,"station_id":"ce4bhqp2rcd13ifvqhng","pricing_plan_id":"cebpf4jnsgd1na2vs0mg"},{"bike_id":"31415fbb-fc8a-48d5-83f2-ea643f262d23","system_id":"levelo_inurba_marseille","lat":43.317557,"lon":5.390173,"is_reserved":false,"is_disabled":false,"rental_uris":{"android":"levelo://app?vid=31415fbb-fc8a-48d5-83f2-ea643f262d23","ios":"levelo://app?vid=31415fbb-fc8a-48d5-83f2-ea643f262d23"},"vehicle_type_id":"4","last_reported":1709582822,"current_range_meters":14000,"station_id":"ce4bhqp2rcd13ifvqhng","pricing_plan_id":"cebpf4jnsgd1na2vs0mg"},{"bike_id":"1eec78d4-463e-4c26-8e41-81096266dc70","system_id":"levelo_inurba_marseille","lat":43.317557,"lon":5.390173,"is_reserved":false,"is_disabled":false,"rental_uris":{"android":"levelo://app?vid=1eec78d4-463e-4c26-8e41-81096266dc70","ios":"levelo://app?vid=1eec78d4-463e-4c26-8e41-81096266dc70"},"vehicle_type_id":"4","last_reported":1709582822,"current_range_meters":29200,"station_id":"ce4bhqp2rcd13ifvqhng","pricing_plan_id":"cebpf4jnsgd1na2vs0mg"},{"bike_id":"bfe865f7-1a44-4907-9f0e-d79cce19464f","system_id":"levelo_inurba_marseille","lat":43.317557,"lon":5.390173,"is_reserved":false,"is_disabled":false,"rental_uris":{"android":"levelo://app?vid=bfe865f7-1a44-4907-9f0e-d79cce19464f","ios":"levelo://app?vid=bfe865f7-1a44-4907-9f0e-d79cce19464f"},"vehicle_type_id":"4","last_reported":1709582822,"current_range_meters":14000,"station_id":"ce4bhqp2rcd13ifvqhng","pricing_plan_id":"cebpf4jnsgd1na2vs0mg"},{"bike_id":"9d254305-8656-4c8a-81f3-9ef301598ec1","system_id":"levelo_inurba_marseille","lat":43.29801,"lon":5.38097,"is_reserved":false,"is_disabled":false,"rental_uris":{"android":"levelo://app?vid=9d254305-8656-4c8a-81f3-9ef301598ec1","ios":"levelo://app?vid=9d254305-8656-4c8a-81f3-9ef301598ec1"},"vehicle_type_id":"4","last_reported":1709582822,"current_range_meters":27200,"station_id":"ce4bgip2rcd13ifvqbb0","pricing_plan_id":"cebpf4jnsgd1na2vs0mg"},{"bike_id":"c5abb050-a544-4996-869d-8c1370fdd3f4","system_id":"levelo_inurba_marseille","lat":43.304274,"lon":5.388873,"is_reserved":false,"is_disabled":false,"rental_uris":{"android":"levelo://app?vid=c5abb050-a544-4996-869d-8c1370fdd3f4","ios":"levelo://app?vid=c5abb050-a544-4996-869d-8c1370fdd3f4"},"vehicle_type_id":"4","last_reported":1709582822,"current_range_meters":22800,"station_id":"ce4bgk12rcd13ifvqbi0","pricing_plan_id":"cebpf4jnsgd1na2vs0mg"},{"bike_id":"1bbb11cc-8b39-428a-950e-e2b83c24e283","system_id":"levelo_inurba_marseille","lat":43.29573,"lon":5.37494,"is_reserved":false,"is_disabled":false,"rental_uris":{"android":"levelo://app?vid=1bbb11cc-8b39-428a-950e-e2b83c24e283","ios":"levelo://app?vid=1bbb11cc-8b39-428a-950e-e2b83c24e283"},"vehicle_type_id":"4","last_reported":1709582822,"current_range_meters":16000,"station_id":"ce4bgh92rcd13ifvqb50","pricing_plan_id":"cebpf4jnsgd1na2vs0mg"},{"bike_id":"d45fd90f-f9d7-41f4-9ed8-173743fd6f12","system_id":"levelo_inurba_marseille","lat":43.304274,"lon":5.388873,"is_reserved":false,"is_disabled":false,"rental_uris":{"android":"levelo://app?vid=d45fd90f-f9d7-41f4-9ed8-173743fd6f12","ios":"levelo://app?vid=d45fd90f-f9d7-41f4-9ed8-173743fd6f12"},"vehicle_type_id":"4","last_reported":1709582822,"current_range_meters":5200,"station_id":"ce4bgk12rcd13ifvqbi0","pricing_plan_id":"cebpf4jnsgd1na2vs0mg"},{"bike_id":"1781161a-d7e3-4598-b3a4-fb50799ed5eb","system_id":"levelo_inurba_marseille","lat":43.297887,"lon":5.38089,"is_reserved":false,"is_disabled":false,"rental_uris":{"android":"levelo://app?vid=1781161a-d7e3-4598-b3a4-fb50799ed5eb","ios":"levelo://app?vid=1781161a-d7e3-4598-b3a4-fb50799ed5eb"},"vehicle_type_id":"4","last_reported":1709582822,"current_range_meters":0,"station_id":"ce4bgip2rcd13ifvqbb0","pricing_plan_id":"cebpf4jnsgd1na2vs0mg"},{"bike_id":"1d32579b-bac1-4489-afdb-42076a183a44","system_id":"levelo_inurba_marseille","lat":43.295725,"lon":5.37501,"is_reserved":false,"is_disabled":false,"rental_uris":{"android":"levelo://app?vid=1d32579b-bac1-4489-afdb-42076a183a44","ios":"levelo://app?vid=1d32579b-bac1-4489-afdb-42076a183a44"},"vehicle_type_id":"4","last_reported":1709582822,"current_range_meters":0,"station_id":"ce4bgh92rcd13ifvqb50","pricing_plan_id":"cebpf4jnsgd1na2vs0mg"},{"bike_id":"f83d10f4-8081-4e9f-bee9-468596376acf","system_id":"levelo_inurba_marseille","lat":43.304434,"lon":5.388898,"is_reserved":false,"is_disabled":false,"rental_uris":{"android":"levelo://app?vid=f83d10f4-8081-4e9f-bee9-468596376acf","ios":"levelo://app?vid=f83d10f4-8081-4e9f-bee9-468596376acf"},"vehicle_type_id":"4","last_reported":1709582822,"current_range_meters":21200,"station_id":"ce4bgk12rcd13ifvqbi0","pricing_plan_id":"cebpf4jnsgd1na2vs0mg"},{"bike_id":"79c50292-946f-4b70-b1b0-560aa9d66339","system_id":"levelo_inurba_marseille","lat":43.304274,"lon":5.388873,"is_reserved":false,"is_disabled":false,"rental_uris":{"android":"levelo://app?vid=79c50292-946f-4b70-b1b0-560aa9d66339","ios":"levelo://app?vid=79c50292-946f-4b70-b1b0-560aa9d66339"},"vehicle_type_id":"4","last_reported":1709582822,"current_range_meters":3600,"station_id":"ce4bgk12rcd13ifvqbi0","pricing_plan_id":"cebpf4jnsgd1na2vs0mg"},{"bike_id":"e9c9b226-2332-44ba-8cb5-b8c81695580f","system_id":"levelo_inurba_marseille","lat":43.305989,"lon":5.37225,"is_reserved":false,"is_disabled":false,"rental_uris":{"android":"levelo://app?vid=e9c9b226-2332-44ba-8cb5-b8c81695580f","ios":"levelo://app?vid=e9c9b226-2332-44ba-8cb5-b8c81695580f"},"vehicle_type_id":"4","last_reported":1709582822,"current_range_meters":9600,"station_id":"ce4bgqh2rcd13ifvqc4g","pricing_plan_id":"cebpf4jnsgd1na2vs0mg"},{"bike_id":"9a7de070-bd52-45c0-b27f-1f9da4456108","system_id":"levelo_inurba_marseille","lat":43.295748,"lon":5.37522,"is_reserved":false,"is_disabled":false,"rental_uris":{"android":"levelo://app?vid=9a7de070-bd52-45c0-b27f-1f9da4456108","ios":"levelo://app?vid=9a7de070-bd52-45c0-b27f-1f9da4456108"},"vehicle_type_id":"4","last_reported":1709582822,"current_range_meters":2000,"station_id":"ce4bgh92rcd13ifvqb50","pricing_plan_id":"cebpf4jnsgd1na2vs0mg"},{"bike_id":"0d573eb4-e31f-4a5b-bc2b-40f880af019e","system_id":"levelo_inurba_marseille","lat":43.304319,"lon":5.388836,"is_reserved":false,"is_disabled":false,"rental_uris":{"android":"levelo://app?vid=0d573eb4-e31f-4a5b-bc2b-40f880af019e","ios":"levelo://app?vid=0d573eb4-e31f-4a5b-bc2b-40f880af019e"},"vehicle_type_id":"4","last_reported":1709582822,"current_range_meters":14800,"station_id":"ce4bgk12rcd13ifvqbi0","pricing_plan_id":"cebpf4jnsgd1na2vs0mg"},{"bike_id":"3a34544e-ecd0-46fb-ab7d-1c169d004dd7","system_id":"levelo_inurba_marseille","lat":43.30434,"lon":5.38886,"is_reserved":false,"is_disabled":false,"rental_uris":{"android":"levelo://app?vid=3a34544e-ecd0-46fb-ab7d-1c169d004dd7","ios":"levelo://app?vid=3a34544e-ecd0-46fb-ab7d-1c169d004dd7"},"vehicle_type_id":"4","last_reported":1709582822,"current_range_meters":15200,"station_id":"ce4bgk12rcd13ifvqbi0","pricing_plan_id":"cebpf4jnsgd1na2vs0mg"},{"bike_id":"bda174f6-5eaa-4d89-b9ab-84b1ddc54124","system_id":"levelo_inurba_marseille","lat":43.304274,"lon":5.388873,"is_reserved":false,"is_disabled":false,"rental_uris":{"android":"levelo://app?vid=bda174f6-5eaa-4d89-b9ab-84b1ddc54124","ios":"levelo://app?vid=bda174f6-5eaa-4d89-b9ab-84b1ddc54124"},"vehicle_type_id":"4","last_reported":1709582822,"current_range_meters":8800,"station_id":"ce4bgk12rcd13ifvqbi0","pricing_plan_id":"cebpf4jnsgd1na2vs0mg"},{"bike_id":"03ab5111-2522-43ea-ae2d-122e3a078e78","system_id":"levelo_inurba_marseille","lat":43.304367,"lon":5.388896,"is_reserved":false,"is_disabled":false,"rental_uris":{"android":"levelo://app?vid=03ab5111-2522-43ea-ae2d-122e3a078e78","ios":"levelo://app?vid=03ab5111-2522-43ea-ae2d-122e3a078e78"},"vehicle_type_id":"4","last_reported":1709582822,"current_range_meters":9600,"station_id":"ce4bgk12rcd13ifvqbi0","pricing_plan_id":"cebpf4jnsgd1na2vs0mg"},{"bike_id":"6336ecab-2133-478e-9796-369b78f64f29","system_id":"levelo_inurba_marseille","lat":43.304274,"lon":5.388873,"is_reserved":false,"is_disabled":false,"rental_uris":{"android":"levelo://app?vid=6336ecab-2133-478e-9796-369b78f64f29","ios":"levelo://app?vid=6336ecab-2133-478e-9796-369b78f64f29"},"vehicle_type_id":"4","last_reported":1709582822,"current_range_meters":12400,"station_id":"ce4bgk12rcd13ifvqbi0","pricing_plan_id":"cebpf4jnsgd1na2vs0mg"},{"bike_id":"61afa0ff-91d9-4fe5-9963-c092d34fe798","system_id":"levelo_inurba_marseille","lat":43.304274,"lon":5.388873,"is_reserved":false,"is_disabled":false,"rental_uris":{"android":"levelo://app?vid=61afa0ff-91d9-4fe5-9963-c092d34fe798","ios":"levelo://app?vid=61afa0ff-91d9-4fe5-9963-c092d34fe798"},"vehicle_type_id":"4","last_reported":1709582822,"current_range_meters":800,"station_id":"ce4bgk12rcd13ifvqbi0","pricing_plan_id":"cebpf4jnsgd1na2vs0mg"},{"bike_id":"d18c3c68-7fc6-42f9-9c03-53f7f1b4bdf4","system_id":"levelo_inurba_marseille","lat":43.29566,"lon":5.37496,"is_reserved":false,"is_disabled":false,"rental_uris":{"android":"levelo://app?vid=d18c3c68-7fc6-42f9-9c03-53f7f1b4bdf4","ios":"levelo://app?vid=d18c3c68-7fc6-42f9-9c03-53f7f1b4bdf4"},"vehicle_type_id":"4","last_reported":1709582822,"current_range_meters":18800,"station_id":"ce4bgh92rcd13ifvqb50","pricing_plan_id":"cebpf4jnsgd1na2vs0mg"},{"bike_id":"0af77564-890a-47bf-bc4b-2ebc661675a8","system_id":"levelo_inurba_marseille","lat":43.30438,"lon":5.38892,"is_reserved":false,"is_disabled":false,"rental_uris":{"android":"levelo://app?vid=0af77564-890a-47bf-bc4b-2ebc661675a8","ios":"levelo://app?vid=0af77564-890a-47bf-bc4b-2ebc661675a8"},"vehicle_type_id":"4","last_reported":1709582822,"current_range_meters":27200,"station_id":"ce4bgk12rcd13ifvqbi0","pricing_plan_id":"cebpf4jnsgd1na2vs0mg"},{"bike_id":"c68147e2-8c33-46cb-a47b-7fae40cb7ef5","system_id":"levelo_inurba_marseille","lat":43.304274,"lon":5.388873,"is_reserved":false,"is_disabled":false,"rental_uris":{"android":"levelo://app?vid=c68147e2-8c33-46cb-a47b-7fae40cb7ef5","ios":"levelo://app?vid=c68147e2-8c33-46cb-a47b-7fae40cb7ef5"},"vehicle_type_id":"4","last_reported":1709582822,"current_range_meters":25200,"station_id":"ce4bgk12rcd13ifvqbi0","pricing_plan_id":"cebpf4jnsgd1na2vs0mg"},{"bike_id":"a9534d94-8ced-45c7-a03c-88a7defd5735","system_id":"levelo_inurba_marseille","lat":43.304274,"lon":5.388873,"is_reserved":false,"is_disabled":false,"rental_uris":{"android":"levelo://app?vid=a9534d94-8ced-45c7-a03c-88a7defd5735","ios":"levelo://app?vid=a9534d94-8ced-45c7-a03c-88a7defd5735"},"vehicle_type_id":"4","last_reported":1709582822,"current_range_meters":25200,"station_id":"ce4bgk12rcd13ifvqbi0","pricing_plan_id":"cebpf4jnsgd1na2vs0mg"},{"bike_id":"b26898e7-796b-4f72-a143-86eef316c6f4","system_id":"levelo_inurba_marseille","lat":43.304274,"lon":5.388873,"is_reserved":false,"is_disabled":false,"rental_uris":{"android":"levelo://app?vid=b26898e7-796b-4f72-a143-86eef316c6f4","ios":"levelo://app?vid=b26898e7-796b-4f72-a143-86eef316c6f4"},"vehicle_type_id":"4","last_reported":1709582822,"current_range_meters":7600,"station_id":"ce4bgk12rcd13ifvqbi0","pricing_plan_id":"cebpf4jnsgd1na2vs0mg"},{"bike_id":"c9262f36-7566-49f8-bdff-47321d6726b1","system_id":"levelo_inurba_marseille","lat":43.304274,"lon":5.388873,"is_reserved":false,"is_disabled":false,"rental_uris":{"android":"levelo://app?vid=c9262f36-7566-49f8-bdff-47321d6726b1","ios":"levelo://app?vid=c9262f36-7566-49f8-bdff-47321d6726b1"},"vehicle_type_id":"4","last_reported":1709582822,"current_range_meters":24400,"station_id":"ce4bgk12rcd13ifvqbi0","pricing_plan_id":"cebpf4jnsgd1na2vs0mg"},{"bike_id":"0c86b3f8-f2ab-4116-a726-aeb4b79ffbaf","system_id":"levelo_inurba_marseille","lat":43.30432,"lon":5.38894,"is_reserved":false,"is_disabled":false,"rental_uris":{"android":"levelo://app?vid=0c86b3f8-f2ab-4116-a726-aeb4b79ffbaf","ios":"levelo://app?vid=0c86b3f8-f2ab-4116-a726-aeb4b79ffbaf"},"vehicle_type_id":"4","last_reported":1709582822,"current_range_meters":30400,"station_id":"ce4bgk12rcd13ifvqbi0","pricing_plan_id":"cebpf4jnsgd1na2vs0mg"},{"bike_id":"b1e9a0d8-8ec4-4de1-b7e0-eea692982c94","system_id":"levelo_inurba_marseille","lat":43.3042,"lon":5.38888,"is_reserved":false,"is_disabled":false,"rental_uris":{"android":"levelo://app?vid=b1e9a0d8-8ec4-4de1-b7e0-eea692982c94","ios":"levelo://app?vid=b1e9a0d8-8ec4-4de1-b7e0-eea692982c94"},"vehicle_type_id":"4","last_reported":1709582822,"current_range_meters":12400,"station_id":"ce4bgk12rcd13ifvqbi0","pricing_plan_id":"cebpf4jnsgd1na2vs0mg"},{"bike_id":"714fc50a-17d3-4273-bb3f-b3fff277d059","system_id":"levelo_inurba_marseille","lat":43.304274,"lon":5.388873,"is_reserved":false,"is_disabled":false,"rental_uris":{"android":"levelo://app?vid=714fc50a-17d3-4273-bb3f-b3fff277d059","ios":"levelo://app?vid=714fc50a-17d3-4273-bb3f-b3fff277d059"},"vehicle_type_id":"4","last_reported":1709582822,"current_range_meters":7200,"station_id":"ce4bgk12rcd13ifvqbi0","pricing_plan_id":"cebpf4jnsgd1na2vs0mg"},{"bike_id":"c24132df-41b3-4b33-b7ca-0b7d1b1f0c38","system_id":"levelo_inurba_marseille","lat":43.30426,"lon":5.38897,"is_reserved":false,"is_disabled":false,"rental_uris":{"android":"levelo://app?vid=c24132df-41b3-4b33-b7ca-0b7d1b1f0c38","ios":"levelo://app?vid=c24132df-41b3-4b33-b7ca-0b7d1b1f0c38"},"vehicle_type_id":"4","last_reported":1709582822,"current_range_meters":0,"station_id":"ce4bgk12rcd13ifvqbi0","pricing_plan_id":"cebpf4jnsgd1na2vs0mg"},{"bike_id":"f21b3a53-b899-474e-8bd8-5c9ac4e8cea1","system_id":"levelo_inurba_marseille","lat":43.296584,"lon":5.378511,"is_reserved":false,"is_disabled":false,"rental_uris":{"android":"levelo://app?vid=f21b3a53-b899-474e-8bd8-5c9ac4e8cea1","ios":"levelo://app?vid=f21b3a53-b899-474e-8bd8-5c9ac4e8cea1"},"vehicle_type_id":"4","last_reported":1709582822,"current_range_meters":16800,"station_id":"","pricing_plan_id":"cebpf4jnsgd1na2vs0mg"},{"bike_id":"8858fcf3-2866-425b-88e5-df5e03be273c","system_id":"levelo_inurba_marseille","lat":43.299707,"lon":5.384859,"is_reserved":false,"is_disabled":false,"rental_uris":{"android":"levelo://app?vid=8858fcf3-2866-425b-88e5-df5e03be273c","ios":"levelo://app?vid=8858fcf3-2866-425b-88e5-df5e03be273c"},"vehicle_type_id":"4","last_reported":1709582822,"current_range_meters":12400,"station_id":"ce4bgj92rcd13ifvqbd0","pricing_plan_id":"cebpf4jnsgd1na2vs0mg"},{"bike_id":"b61433eb-ad93-4567-8e2f-bc588d40389f","system_id":"levelo_inurba_marseille","lat":43.299707,"lon":5.384859,"is_reserved":false,"is_disabled":false,"rental_uris":{"android":"levelo://app?vid=b61433eb-ad93-4567-8e2f-bc588d40389f","ios":"levelo://app?vid=b61433eb-ad93-4567-8e2f-bc588d40389f"},"vehicle_type_id":"4","last_reported":1709582822,"current_range_meters":4800,"station_id":"ce4bgj92rcd13ifvqbd0","pricing_plan_id":"cebpf4jnsgd1na2vs0mg"},{"bike_id":"0267919f-2eb9-4f19-9b79-e3340a8e2d49","system_id":"levelo_inurba_marseille","lat":43.299707,"lon":5.384859,"is_reserved":false,"is_disabled":false,"rental_uris":{"android":"levelo://app?vid=0267919f-2eb9-4f19-9b79-e3340a8e2d49","ios":"levelo://app?vid=0267919f-2eb9-4f19-9b79-e3340a8e2d49"},"vehicle_type_id":"4","last_reported":1709582822,"current_range_meters":16000,"station_id":"ce4bgj92rcd13ifvqbd0","pricing_plan_id":"cebpf4jnsgd1na2vs0mg"},{"bike_id":"13c5e1a5-3583-4c83-87d4-c4fb2054fcf9","system_id":"levelo_inurba_marseille","lat":43.29973,"lon":5.384879,"is_reserved":false,"is_disabled":false,"rental_uris":{"android":"levelo://app?vid=13c5e1a5-3583-4c83-87d4-c4fb2054fcf9","ios":"levelo://app?vid=13c5e1a5-3583-4c83-87d4-c4fb2054fcf9"},"vehicle_type_id":"4","last_reported":1709582822,"current_range_meters":0,"station_id":"ce4bgj92rcd13ifvqbd0","pricing_plan_id":"cebpf4jnsgd1na2vs0mg"},{"bike_id":"da12f8ca-29ca-4272-a635-879cea443544","system_id":"levelo_inurba_marseille","lat":43.299717,"lon":5.384845,"is_reserved":false,"is_disabled":false,"rental_uris":{"android":"levelo://app?vid=da12f8ca-29ca-4272-a635-879cea443544","ios":"levelo://app?vid=da12f8ca-29ca-4272-a635-879cea443544"},"vehicle_type_id":"4","last_reported":1709582822,"current_range_meters":28800,"station_id":"ce4bgj92rcd13ifvqbd0","pricing_plan_id":"cebpf4jnsgd1na2vs0mg"},{"bike_id":"21aeaa29-d41f-470a-a231-b675d83e000e","system_id":"levelo_inurba_marseille","lat":43.2997,"lon":5.38488,"is_reserved":false,"is_disabled":false,"rental_uris":{"android":"levelo://app?vid=21aeaa29-d41f-470a-a231-b675d83e000e","ios":"levelo://app?vid=21aeaa29-d41f-470a-a231-b675d83e000e"},"vehicle_type_id":"4","last_reported":1709582822,"current_range_meters":0,"station_id":"ce4bgj92rcd13ifvqbd0","pricing_plan_id":"cebpf4jnsgd1na2vs0mg"},{"bike_id":"7db0c9e7-7473-4ee8-90e4-5a5336a2f836","system_id":"levelo_inurba_marseille","lat":43.2997,"lon":5.38494,"is_reserved":false,"is_disabled":false,"rental_uris":{"android":"levelo://app?vid=7db0c9e7-7473-4ee8-90e4-5a5336a2f836","ios":"levelo://app?vid=7db0c9e7-7473-4ee8-90e4-5a5336a2f836"},"vehicle_type_id":"4","last_reported":1709582822,"current_range_meters":3600,"station_id":"ce4bgj92rcd13ifvqbd0","pricing_plan_id":"cebpf4jnsgd1na2vs0mg"},{"bike_id":"d477acef-5be8-4613-ae0c-994f304acbf0","system_id":"levelo_inurba_marseille","lat":43.29965,"lon":5.38491,"is_reserved":false,"is_disabled":false,"rental_uris":{"android":"levelo://app?vid=d477acef-5be8-4613-ae0c-994f304acbf0","ios":"levelo://app?vid=d477acef-5be8-4613-ae0c-994f304acbf0"},"vehicle_type_id":"4","last_reported":1709582822,"current_range_meters":16400,"station_id":"ce4bgj92rcd13ifvqbd0","pricing_plan_id":"cebpf4jnsgd1na2vs0mg"},{"bike_id":"9b1ca139-30c0-48e9-b0f1-3681ea18b55a","system_id":"levelo_inurba_marseille","lat":43.29969,"lon":5.385,"is_reserved":false,"is_disabled":false,"rental_uris":{"android":"levelo://app?vid=9b1ca139-30c0-48e9-b0f1-3681ea18b55a","ios":"levelo://app?vid=9b1ca139-30c0-48e9-b0f1-3681ea18b55a"},"vehicle_type_id":"4","last_reported":1709582822,"current_range_meters":5200,"station_id":"ce4bgj92rcd13ifvqbd0","pricing_plan_id":"cebpf4jnsgd1na2vs0mg"},{"bike_id":"81af15c6-2cba-45fc-b7be-e9f84831ad51","system_id":"levelo_inurba_marseille","lat":43.297794,"lon":5.370888,"is_reserved":false,"is_disabled":false,"rental_uris":{"android":"levelo://app?vid=81af15c6-2cba-45fc-b7be-e9f84831ad51","ios":"levelo://app?vid=81af15c6-2cba-45fc-b7be-e9f84831ad51"},"vehicle_type_id":"4","last_reported":1709582822,"current_range_meters":800,"station_id":"ce4bgop2rcd13ifvqc1g","pricing_plan_id":"cebpf4jnsgd1na2vs0mg"},{"bike_id":"56eaae27-44bb-4188-a8c9-440f6a7dba3e","system_id":"levelo_inurba_marseille","lat":43.32367,"lon":5.388836,"is_reserved":false,"is_disabled":false,"rental_uris":{"android":"levelo://app?vid=56eaae27-44bb-4188-a8c9-440f6a7dba3e","ios":"levelo://app?vid=56eaae27-44bb-4188-a8c9-440f6a7dba3e"},"vehicle_type_id":"4","last_reported":1709582822,"current_range_meters":11200,"station_id":"ce4bhqp2rcd13ifvqhog","pricing_plan_id":"cebpf4jnsgd1na2vs0mg"},{"bike_id":"bcb5c59e-0f7f-4a2c-84c9-ecca5d4ff69f","system_id":"levelo_inurba_marseille","lat":43.29602,"lon":5.381084,"is_reserved":false,"is_disabled":false,"rental_uris":{"android":"levelo://app?vid=bcb5c59e-0f7f-4a2c-84c9-ecca5d4ff69f","ios":"levelo://app?vid=bcb5c59e-0f7f-4a2c-84c9-ecca5d4ff69f"},"vehicle_type_id":"4","last_reported":1709582822,"current_range_meters":20000,"station_id":"ce4bgl12rcd13ifvqbo0","pricing_plan_id":"cebpf4jnsgd1na2vs0mg"},{"bike_id":"818329a6-6656-458e-a222-11b953e037a7","system_id":"levelo_inurba_marseille","lat":43.29602,"lon":5.381084,"is_reserved":false,"is_disabled":false,"rental_uris":{"android":"levelo://app?vid=818329a6-6656-458e-a222-11b953e037a7","ios":"levelo://app?vid=818329a6-6656-458e-a222-11b953e037a7"},"vehicle_type_id":"4","last_reported":1709582822,"current_range_meters":31200,"station_id":"ce4bgl12rcd13ifvqbo0","pricing_plan_id":"cebpf4jnsgd1na2vs0mg"},{"bike_id":"8bcd23b3-e1d8-4566-a619-e8b3b123d9c5","system_id":"levelo_inurba_marseille","lat":43.29601,"lon":5.381084,"is_reserved":false,"is_disabled":false,"rental_uris":{"android":"levelo://app?vid=8bcd23b3-e1d8-4566-a619-e8b3b123d9c5","ios":"levelo://app?vid=8bcd23b3-e1d8-4566-a619-e8b3b123d9c5"},"vehicle_type_id":"4","last_reported":1709582822,"current_range_meters":400,"station_id":"ce4bgl12rcd13ifvqbo0","pricing_plan_id":"cebpf4jnsgd1na2vs0mg"},{"bike_id":"de57c1d9-cd9d-4eb4-8306-713c074acc1a","system_id":"levelo_inurba_marseille","lat":43.29602,"lon":5.381084,"is_reserved":false,"is_disabled":false,"rental_uris":{"android":"levelo://app?vid=de57c1d9-cd9d-4eb4-8306-713c074acc1a","ios":"levelo://app?vid=de57c1d9-cd9d-4eb4-8306-713c074acc1a"},"vehicle_type_id":"4","last_reported":1709582822,"current_range_meters":16800,"station_id":"ce4bgl12rcd13ifvqbo0","pricing_plan_id":"cebpf4jnsgd1na2vs0mg"},{"bike_id":"8d2aa3c3-85e8-4eb6-93f1-30cda8cf1d35","system_id":"levelo_inurba_marseille","lat":43.29601,"lon":5.381084,"is_reserved":false,"is_disabled":false,"rental_uris":{"android":"levelo://app?vid=8d2aa3c3-85e8-4eb6-93f1-30cda8cf1d35","ios":"levelo://app?vid=8d2aa3c3-85e8-4eb6-93f1-30cda8cf1d35"},"vehicle_type_id":"4","last_reported":1709582822,"current_range_meters":9200,"station_id":"ce4bgl12rcd13ifvqbo0","pricing_plan_id":"cebpf4jnsgd1na2vs0mg"},{"bike_id":"c6a21e20-d1b4-46d4-9181-69f657b3a841","system_id":"levelo_inurba_marseille","lat":43.29602,"lon":5.381084,"is_reserved":false,"is_disabled":false,"rental_uris":{"android":"levelo://app?vid=c6a21e20-d1b4-46d4-9181-69f657b3a841","ios":"levelo://app?vid=c6a21e20-d1b4-46d4-9181-69f657b3a841"},"vehicle_type_id":"4","last_reported":1709582822,"current_range_meters":30400,"station_id":"ce4bgl12rcd13ifvqbo0","pricing_plan_id":"cebpf4jnsgd1na2vs0mg"},{"bike_id":"93800683-b31d-4420-9288-cef30d71581d","system_id":"levelo_inurba_marseille","lat":43.290624,"lon":5.359245,"is_reserved":false,"is_disabled":false,"rental_uris":{"android":"levelo://app?vid=93800683-b31d-4420-9288-cef30d71581d","ios":"levelo://app?vid=93800683-b31d-4420-9288-cef30d71581d"},"vehicle_type_id":"4","last_reported":1709582822,"current_range_meters":30400,"station_id":"ce4bha92rcd13ifvqeg0","pricing_plan_id":"cebpf4jnsgd1na2vs0mg"},{"bike_id":"365bf72d-a73e-4883-8397-1b69bc006722","system_id":"levelo_inurba_marseille","lat":43.293259,"lon":5.371586,"is_reserved":false,"is_disabled":false,"rental_uris":{"android":"levelo://app?vid=365bf72d-a73e-4883-8397-1b69bc006722","ios":"levelo://app?vid=365bf72d-a73e-4883-8397-1b69bc006722"},"vehicle_type_id":"4","last_reported":1709582822,"current_range_meters":14400,"station_id":"ce4bgh92rcd13ifvqb40","pricing_plan_id":"cebpf4jnsgd1na2vs0mg"},{"bike_id":"c1665306-77fd-4b91-8c2e-a4c2180ee1ad","system_id":"levelo_inurba_marseille","lat":43.293259,"lon":5.371586,"is_reserved":false,"is_disabled":false,"rental_uris":{"android":"levelo://app?vid=c1665306-77fd-4b91-8c2e-a4c2180ee1ad","ios":"levelo://app?vid=c1665306-77fd-4b91-8c2e-a4c2180ee1ad"},"vehicle_type_id":"4","last_reported":1709582822,"current_range_meters":20800,"station_id":"ce4bgh92rcd13ifvqb40","pricing_plan_id":"cebpf4jnsgd1na2vs0mg"},{"bike_id":"ac2ac6a9-0626-459d-a54d-276d7aec64bc","system_id":"levelo_inurba_marseille","lat":43.292749,"lon":5.368402,"is_reserved":false,"is_disabled":false,"rental_uris":{"android":"levelo://app?vid=ac2ac6a9-0626-459d-a54d-276d7aec64bc","ios":"levelo://app?vid=ac2ac6a9-0626-459d-a54d-276d7aec64bc"},"vehicle_type_id":"4","last_reported":1709582822,"current_range_meters":7600,"station_id":"ce4bhbp2rcd13ifvqesg","pricing_plan_id":"cebpf4jnsgd1na2vs0mg"},{"bike_id":"5e6a1c91-ed84-4f7a-9e51-966a11d1ed3b","system_id":"levelo_inurba_marseille","lat":43.292748,"lon":5.368412,"is_reserved":false,"is_disabled":false,"rental_uris":{"android":"levelo://app?vid=5e6a1c91-ed84-4f7a-9e51-966a11d1ed3b","ios":"levelo://app?vid=5e6a1c91-ed84-4f7a-9e51-966a11d1ed3b"},"vehicle_type_id":"4","last_reported":1709582822,"current_range_meters":30000,"station_id":"ce4bhbp2rcd13ifvqesg","pricing_plan_id":"cebpf4jnsgd1na2vs0mg"},{"bike_id":"f4b0dc4c-b806-4860-b279-eca45cc99ea1","system_id":"levelo_inurba_marseille","lat":43.29274,"lon":5.36833,"is_reserved":false,"is_disabled":false,"rental_uris":{"android":"levelo://app?vid=f4b0dc4c-b806-4860-b279-eca45cc99ea1","ios":"levelo://app?vid=f4b0dc4c-b806-4860-b279-eca45cc99ea1"},"vehicle_type_id":"4","last_reported":1709582822,"current_range_meters":0,"station_id":"ce4bhbp2rcd13ifvqesg","pricing_plan_id":"cebpf4jnsgd1na2vs0mg"},{"bike_id":"1ad18469-0d8f-49a0-9773-41547a87e307","system_id":"levelo_inurba_marseille","lat":43.292749,"lon":5.368402,"is_reserved":false,"is_disabled":false,"rental_uris":{"android":"levelo://app?vid=1ad18469-0d8f-49a0-9773-41547a87e307","ios":"levelo://app?vid=1ad18469-0d8f-49a0-9773-41547a87e307"},"vehicle_type_id":"4","last_reported":1709582822,"current_range_meters":0,"station_id":"ce4bhbp2rcd13ifvqesg","pricing_plan_id":"cebpf4jnsgd1na2vs0mg"},{"bike_id":"d8bdc6d7-0ccc-45a8-9d44-edbf464713f1","system_id":"levelo_inurba_marseille","lat":43.293009,"lon":5.374584,"is_reserved":false,"is_disabled":false,"rental_uris":{"android":"levelo://app?vid=d8bdc6d7-0ccc-45a8-9d44-edbf464713f1","ios":"levelo://app?vid=d8bdc6d7-0ccc-45a8-9d44-edbf464713f1"},"vehicle_type_id":"4","last_reported":1709582822,"current_range_meters":19600,"station_id":"ce4bgi12rcd13ifvqb70","pricing_plan_id":"cebpf4jnsgd1na2vs0mg"},{"bike_id":"45114875-3554-4389-9c92-563975aea389","system_id":"levelo_inurba_marseille","lat":43.293009,"lon":5.374584,"is_reserved":false,"is_disabled":false,"rental_uris":{"android":"levelo://app?vid=45114875-3554-4389-9c92-563975aea389","ios":"levelo://app?vid=45114875-3554-4389-9c92-563975aea389"},"vehicle_type_id":"4","last_reported":1709582822,"current_range_meters":20000,"station_id":"ce4bgi12rcd13ifvqb70","pricing_plan_id":"cebpf4jnsgd1na2vs0mg"},