{"last_updated":1735099879,"ttl":60,"version":"2.2","data":{"bikes":[{"bike_id":"8b1bd858-c93c-41ae-9d06-88224f96f46c","system_id":"levelo_inurba_marseille","lat":43.30256,"lon":5.40071,"is_reserved":false,"is_disabled":false,"rental_uris":{"android":"levelo://app?vid=8b1bd858-c93c-41ae-9d06-88224f96f46c","ios":"levelo://app?vid=8b1bd858-c93c-41ae-9d06-88224f96f46c"},"vehicle_type_id":"4","last_reported":1735099879,"current_range_meters":38800,"station_id":"ce4bgvh2rcd13ifvqcs0","pricing_plan_id":"cebpf4jnsgd1na2vs0mg"},{"bike_id":"75c516d3-a5cc-4035-8666-739d671df90f","system_id":"levelo_inurba_marseille","lat":43.29988,"lon":5.38537,"is_reserved":false,"is_disabled":false,"rental_uris":{"android":"levelo://app?vid=75c516d3-a5cc-4035-8666-739d671df90f","ios":"levelo://app?vid=75c516d3-a5cc-4035-8666-739d671df90f"},"vehicle_type_id":"4","last_reported":1735099879,"current_range_meters":32400,"station_id":"ce4bgj92rcd13ifvqbd0","pricing_plan_id":"cebpf4jnsgd1na2vs0mg"},{"bike_id":"7c110a8b-097f-43aa-9eb5-b36685ee5243","system_id":"levelo_inurba_marseille","lat":43.28265,"lon":5.35067,"is_reserved":false,"is_disabled":false,"rental_uris":{"android":"levelo://app?vid=7c110a8b-097f-43aa-9eb5-b36685ee5243","ios":"levelo://app?vid=7c110a8b-097f-43aa-9eb5-b36685ee5243"},"vehicle_type_id":"4","last_reported":1735099879,"current_range_meters":37600,"station_id":"ce4bhbp2rcd13ifvqerg","pricing_plan_id":"cebpf4jnsgd1na2vs0mg"},{"bike_id":"f5a321f6-c838-4879-9e84-b78550753d71","system_id":"levelo_inurba_marseille","lat":43.28844,"lon":5.39316,"is_reserved":false,"is_disabled":false,"rental_uris":{"android":"levelo://app?vid=f5a321f6-c838-4879-9e84-b78550753d71","ios":"levelo://app?vid=f5a321f6-c838-4879-9e84-b78550753d71"},"vehicle_type_id":"4","last_reported":1735099879,"current_range_meters":30400,"station_id":"ce4bh2p2rcd13ifvqdi0","pricing_plan_id":"cebpf4jnsgd1na2vs0mg"},{"bike_id":"7160b1eb-33a0-4924-ba09-0166c2686280","system_id":"levelo_inurba_marseille","lat":43.3237,"lon":5.38879,"is_reserved":false,"is_disabled":false,"rental_uris":{"android":"levelo://app?vid=7160b1eb-33a0-4924-ba09-0166c2686280","ios":"levelo://app?vid=7160b1eb-33a0-4924-ba09-0166c2686280"},"vehicle_type_id":"4","last_reported":1735099879,"current_range_meters":30400,"station_id":"ce4bhqp2rcd13ifvqhog","pricing_plan_id":"cebpf4jnsgd1na2vs0mg"},{"bike_id":"9023135d-7e0b-45ba-b451-810ee41de07c","system_id":"levelo_inurba_marseille","lat":43.31107,"lon":5.37771,"is_reserved":false,"is_disabled":false,"rental_uris":{"android":"levelo://app?vid=9023135d-7e0b-45ba-b451-810ee41de07c","ios":"levelo://app?vid=9023135d-7e0b-45ba-b451-810ee41de07c"},"vehicle_type_id":"4","last_reported":1735099879,"current_range_meters":29600,"station_id":"ce4bgt92rcd13ifvqcg0","pricing_plan_id":"cebpf4jnsgd1na2vs0mg"},{"bike_id":"7bc7229d-6357-401a-bdf2-266d948e482e","system_id":"levelo_inurba_marseille","lat":43.28851,"lon":5.39324,"is_reserved":false,"is_disabled":true,"rental_uris":{"android":"levelo://app?vid=7bc7229d-6357-401a-bdf2-266d948e482e","ios":"levelo://app?vid=7bc7229d-6357-401a-bdf2-266d948e482e"},"vehicle_type_id":"4","last_reported":1735099879,"current_range_meters":32400,"station_id":"ce4bh2p2rcd13ifvqdi0","pricing_plan_id":"cebpf4jnsgd1na2vs0mg"},{"bike_id":"b74f3be8-f592-4627-aa66-3b768db349aa","system_id":"levelo_inurba_marseille","lat":43.28723,"lon":5.36086,"is_reserved":false,"is_disabled":false,"rental_uris":{"android":"levelo://app?vid=b74f3be8-f592-4627-aa66-3b768db349aa","ios":"levelo://app?vid=b74f3be8-f592-4627-aa66-3b768db349aa"},"vehicle_type_id":"4","last_reported":1735099879,"current_range_meters":38400,"station_id":"cki0cbj6b192h4jlfktg","pricing_plan_id":"cebpf4jnsgd1na2vs0mg"},{"bike_id":"04774649-32bb-4f60-abb1-91c9d8c1e70a","system_id":"levelo_inurba_marseille","lat":43.336061,"lon":5.41002,"is_reserved":false,"is_disabled":false,"rental_uris":{"android":"levelo://app?vid=04774649-32bb-4f60-abb1-91c9d8c1e70a","ios":"levelo://app?vid=04774649-32bb-4f60-abb1-91c9d8c1e70a"},"vehicle_type_id":"4","last_reported":1735099879,"current_range_meters":28000,"station_id":"ce4bhqh2rcd13ifvqhmg","pricing_plan_id":"cebpf4jnsgd1na2vs0mg"},{"bike_id":"6ed1e23e-ce6d-4ac8-b81b-7ed3304a2f5d","system_id":"levelo_inurba_marseille","lat":43.31891,"lon":5.40735,"is_reserved":false,"is_disabled":false,"rental_uris":{"android":"levelo://app?vid=6ed1e23e-ce6d-4ac8-b81b-7ed3304a2f5d","ios":"levelo://app?vid=6ed1e23e-ce6d-4ac8-b81b-7ed3304a2f5d"},"vehicle_type_id":"4","last_reported":1735099879,"current_range_meters":6800,"station_id":"ce4bhq12rcd13ifvqhig","pricing_plan_id":"cebpf4jnsgd1na2vs0mg"},{"bike_id":"d523f9d9-ddd5-4ca3-b33a-6479a0f1a73c","system_id":"levelo_inurba_marseille","lat":43.24655,"lon":5.389,"is_reserved":false,"is_disabled":false,"rental_uris":{"android":"levelo://app?vid=d523f9d9-ddd5-4ca3-b33a-6479a0f1a73c","ios":"levelo://app?vid=d523f9d9-ddd5-4ca3-b33a-6479a0f1a73c"},"vehicle_type_id":"4","last_reported":1735099879,"current_range_meters":37600,"station_id":"ce4bhg12rcd13ifvqf60","pricing_plan_id":"cebpf4jnsgd1na2vs0mg"},{"bike_id":"89a639d4-ff1f-4ff6-8b8c-a4df41cf2c0e","system_id":"levelo_inurba_marseille","lat":43.2396,"lon":5.36629,"is_reserved":false,"is_disabled":false,"rental_uris":{"android":"levelo://app?vid=89a639d4-ff1f-4ff6-8b8c-a4df41cf2c0e","ios":"levelo://app?vid=89a639d4-ff1f-4ff6-8b8c-a4df41cf2c0e"},"vehicle_type_id":"4","last_reported":1735099879,"current_range_meters":38800,"station_id":"ce4bhi12rcd13ifvqfp0","pricing_plan_id":"cebpf4jnsgd1na2vs0mg"},{"bike_id":"ad16f0da-0df8-48a3-b613-ecf0d020a0ec","system_id":"levelo_inurba_marseille","lat":43.31122,"lon":5.37778,"is_reserved":false,"is_disabled":false,"rental_uris":{"android":"levelo://app?vid=ad16f0da-0df8-48a3-b613-ecf0d020a0ec","ios":"levelo://app?vid=ad16f0da-0df8-48a3-b613-ecf0d020a0ec"},"vehicle_type_id":"4","last_reported":1735099879,"current_range_meters":30400,"station_id":"ce4bgt92rcd13ifvqcg0","pricing_plan_id":"cebpf4jnsgd1na2vs0mg"},{"bike_id":"96f67906-c94f-4a78-ae6e-fdff28a17019","system_id":"levelo_inurba_marseille","lat":43.33833,"lon":5.37432,"is_reserved":false,"is_disabled":false,"rental_uris":{"android":"levelo://app?vid=96f67906-c94f-4a78-ae6e-fdff28a17019","ios":"levelo://app?vid=96f67906-c94f-4a78-ae6e-fdff28a17019"},"vehicle_type_id":"4","last_reported":1735099879,"current_range_meters":6800,"station_id":"","pricing_plan_id":"cebpf4jnsgd1na2vs0mg"},{"bike_id":"b411a283-e781-467a-9dd8-9e52e59fbfa5","system_id":"levelo_inurba_marseille","lat":43.28801,"lon":5.35917,"is_reserved":false,"is_disabled":false,"rental_uris":{"android":"levelo://app?vid=b411a283-e781-467a-9dd8-9e52e59fbfa5","ios":"levelo://app?vid=b411a283-e781-467a-9dd8-9e52e59fbfa5"},"vehicle_type_id":"4","last_reported":1735099879,"current_range_meters":38800,"station_id":"cki0cbj6b192h4jlfktg","pricing_plan_id":"cebpf4jnsgd1na2vs0mg"},{"bike_id":"b9c83c83-cf96-4e57-b709-6459d0acaf9f","system_id":"levelo_inurba_marseille","lat":43.26808,"lon":5.40258,"is_reserved":false,"is_disabled":false,"rental_uris":{"android":"levelo://app?vid=b9c83c83-cf96-4e57-b709-6459d0acaf9f","ios":"levelo://app?vid=b9c83c83-cf96-4e57-b709-6459d0acaf9f"},"vehicle_type_id":"4","last_reported":1735099879,"current_range_meters":38000,"station_id":"ce501612rcd8frsf0b60","pricing_plan_id":"cebpf4jnsgd1na2vs0mg"},{"bike_id":"f04a0f86-db6c-4a88-b4e1-c9488ba52b26","system_id":"levelo_inurba_marseille","lat":43.313335,"lon":5.397245,"is_reserved":false,"is_disabled":false,"rental_uris":{"android":"levelo://app?vid=f04a0f86-db6c-4a88-b4e1-c9488ba52b26","ios":"levelo://app?vid=f04a0f86-db6c-4a88-b4e1-c9488ba52b26"},"vehicle_type_id":"4","last_reported":1735099879,"current_range_meters":38000,"station_id":"ce4bgvp2rcd13ifvqcu0","pricing_plan_id":"cebpf4jnsgd1na2vs0mg"},{"bike_id":"91ce9225-5347-4486-a667-89ed396fa16a","system_id":"levelo_inurba_marseille","lat":43.31355,"lon":5.38493,"is_reserved":false,"is_disabled":false,"rental_uris":{"android":"levelo://app?vid=91ce9225-5347-4486-a667-89ed396fa16a","ios":"levelo://app?vid=91ce9225-5347-4486-a667-89ed396fa16a"},"vehicle_type_id":"4","last_reported":1735099879,"current_range_meters":5600,"station_id":"ce4bgt92rcd13ifvqcf0","pricing_plan_id":"cebpf4jnsgd1na2vs0mg"},{"bike_id":"fa3ed25e-9f65-4960-b3cb-77f0d1c71ed6","system_id":"levelo_inurba_marseille","lat":43.28065,"lon":5.37805,"is_reserved":false,"is_disabled":false,"rental_uris":{"android":"levelo://app?vid=fa3ed25e-9f65-4960-b3cb-77f0d1c71ed6","ios":"levelo://app?vid=fa3ed25e-9f65-4960-b3cb-77f0d1c71ed6"},"vehicle_type_id":"4","last_reported":1735099879,"current_range_meters":29600,"station_id":"ce4bha12rcd13ifvqee0","pricing_plan_id":"cebpf4jnsgd1na2vs0mg"},{"bike_id":"4337139c-b826-439f-889f-abe484bd80e4","system_id":"levelo_inurba_marseille","lat":43.27966,"lon":5.38706,"is_reserved":false,"is_disabled":false,"rental_uris":{"android":"levelo://app?vid=4337139c-b826-439f-889f-abe484bd80e4","ios":"levelo://app?vid=4337139c-b826-439f-889f-abe484bd80e4"},"vehicle_type_id":"4","last_reported":1735099879,"current_range_meters":29600,"station_id":"ce4bhg12rcd13ifvqf80","pricing_plan_id":"cebpf4jnsgd1na2vs0mg"},{"bike_id":"c545c064-810c-4b88-8ce1-2f5a358c01ce","system_id":"levelo_inurba_marseille","lat":43.29574,"lon":5.42254,"is_reserved":false,"is_disabled":false,"rental_uris":{"android":"levelo://app?vid=c545c064-810c-4b88-8ce1-2f5a358c01ce","ios":"levelo://app?vid=c545c064-810c-4b88-8ce1-2f5a358c01ce"},"vehicle_type_id":"4","last_reported":1735099879,"current_range_meters":15200,"station_id":"ce4bhph2rcd13ifvqhdg","pricing_plan_id":"cebpf4jnsgd1na2vs0mg"},{"bike_id":"b6174f09-affc-48de-b964-987935efedda","system_id":"levelo_inurba_marseille","lat":43.310695,"lon":5.383536,"is_reserved":false,"is_disabled":false,"rental_uris":{"android":"levelo://app?vid=b6174f09-affc-48de-b964-987935efedda","ios":"levelo://app?vid=b6174f09-affc-48de-b964-987935efedda"},"vehicle_type_id":"4","last_reported":1735099879,"current_range_meters":28800,"station_id":"ce4bgv92rcd13ifvqcr0","pricing_plan_id":"cebpf4jnsgd1na2vs0mg"},{"bike_id":"47ea384e-ead5-4314-9798-fa214971e156","system_id":"levelo_inurba_marseille","lat":43.30599,"lon":5.39332,"is_reserved":false,"is_disabled":false,"rental_uris":{"android":"levelo://app?vid=47ea384e-ead5-4314-9798-fa214971e156","ios":"levelo://app?vid=47ea384e-ead5-4314-9798-fa214971e156"},"vehicle_type_id":"4","last_reported":1735099879,"current_range_meters":37600,"station_id":"ce4bh0p2rcd13ifvqd80","pricing_plan_id":"cebpf4jnsgd1na2vs0mg"},{"bike_id":"6e2ce516-9a65-4382-930b-c9c67ce2ce1a","system_id":"levelo_inurba_marseille","lat":43.31267,"lon":5.40168,"is_reserved":false,"is_disabled":false,"rental_uris":{"android":"levelo://app?vid=6e2ce516-9a65-4382-930b-c9c67ce2ce1a","ios":"levelo://app?vid=6e2ce516-9a65-4382-930b-c9c67ce2ce1a"},"vehicle_type_id":"4","last_reported":1735099879,"current_range_meters":30400,"station_id":"ce4bh092rcd13ifvqd30","pricing_plan_id":"cebpf4jnsgd1na2vs0mg"},{"bike_id":"1c7602e1-a5b1-4585-81df-e1970b123579","system_id":"levelo_inurba_marseille","lat":43.30803,"lon":5.38143,"is_reserved":false,"is_disabled":false,"rental_uris":{"android":"levelo://app?vid=1c7602e1-a5b1-4585-81df-e1970b123579","ios":"levelo://app?vid=1c7602e1-a5b1-4585-81df-e1970b123579"},"vehicle_type_id":"4","last_reported":1735099879,"current_range_meters":38000,"station_id":"ce4bgt12rcd13ifvqce0","pricing_plan_id":"cebpf4jnsgd1na2vs0mg"},{"bike_id":"d5d3d2c2-5b18-4b1e-a14e-2a877450ed25","system_id":"levelo_inurba_marseille","lat":43.3234,"lon":5.40623,"is_reserved":false,"is_disabled":false,"rental_uris":{"android":"levelo://app?vid=d5d3d2c2-5b18-4b1e-a14e-2a877450ed25","ios":"levelo://app?vid=d5d3d2c2-5b18-4b1e-a14e-2a877450ed25"},"vehicle_type_id":"4","last_reported":1735099879,"current_range_meters":37600,"station_id":"ce4bhq92rcd13ifvqhjg","pricing_plan_id":"cebpf4jnsgd1na2vs0mg"},{"bike_id":"fba7b61d-832a-4843-a6b6-7aeaf903afb3","system_id":"levelo_inurba_marseille","lat":43.27424,"lon":5.39401,"is_reserved":false,"is_disabled":false,"rental_uris":{"android":"levelo://app?vid=fba7b61d-832a-4843-a6b6-7aeaf903afb3","ios":"levelo://app?vid=fba7b61d-832a-4843-a6b6-7aeaf903afb3"},"vehicle_type_id":"4","last_reported":1735099879,"current_range_meters":24800,"station_id":"ce4bhdp2rcd13ifvqf20","pricing_plan_id":"cebpf4jnsgd1na2vs0mg"},{"bike_id":"70d91ea8-bcf1-4b2a-80bf-9c28caf13ec7","system_id":"levelo_inurba_marseille","lat":43.28692,"lon":5.39982,"is_reserved":false,"is_disabled":false,"rental_uris":{"android":"levelo://app?vid=70d91ea8-bcf1-4b2a-80bf-9c28caf13ec7","ios":"levelo://app?vid=70d91ea8-bcf1-4b2a-80bf-9c28caf13ec7"},"vehicle_type_id":"4","last_reported":1735099879,"current_range_meters":15200,"station_id":"ce4bho92rcd13ifvqh3g","pricing_plan_id":"cebpf4jnsgd1na2vs0mg"},{"bike_id":"13a29cfb-4ca0-4903-96b1-b192a8a42624","system_id":"levelo_inurba_marseille","lat":43.23064,"lon":5.35494,"is_reserved":false,"is_disabled":false,"rental_uris":{"android":"levelo://app?vid=13a29cfb-4ca0-4903-96b1-b192a8a42624","ios":"levelo://app?vid=13a29cfb-4ca0-4903-96b1-b192a8a42624"},"vehicle_type_id":"4","last_reported":1735099879,"current_range_meters":35600,"station_id":"cpo3342slgdg3j2ifvpg","pricing_plan_id":"cebpf4jnsgd1na2vs0mg"},{"bike_id":"80db3b66-a5e8-44aa-b38d-701943d511de","system_id":"levelo_inurba_marseille","lat":43.25471,"lon":5.37661,"is_reserved":false,"is_disabled":false,"rental_uris":{"android":"levelo://app?vid=80db3b66-a5e8-44aa-b38d-701943d511de","ios":"levelo://app?vid=80db3b66-a5e8-44aa-b38d-701943d511de"},"vehicle_type_id":"4","last_reported":1735099879,"current_range_meters":11200,"station_id":"ce4bhh12rcd13ifvqff0","pricing_plan_id":"cebpf4jnsgd1na2vs0mg"},{"bike_id":"b76cea7e-5025-4e14-a8c7-eebf31292c4c","system_id":"levelo_inurba_marseille","lat":43.26059,"lon":5.3937,"is_reserved":false,"is_disabled":true,"rental_uris":{"android":"levelo://app?vid=b76cea7e-5025-4e14-a8c7-eebf31292c4c","ios":"levelo://app?vid=b76cea7e-5025-4e14-a8c7-eebf31292c4c"},"vehicle_type_id":"4","last_reported":1735099879,"current_range_meters":21600,"station_id":"ce4bhh92rcd13ifvqfj0","pricing_plan_id":"cebpf4jnsgd1na2vs0mg"},{"bike_id":"64bd181e-daca-4b41-84bd-e6d84057fcdc","system_id":"levelo_inurba_marseille","lat":43.29023,"lon":5.37557,"is_reserved":false,"is_disabled":false,"rental_uris":{"android":"levelo://app?vid=64bd181e-daca-4b41-84bd-e6d84057fcdc","ios":"levelo://app?vid=64bd181e-daca-4b41-84bd-e6d84057fcdc"},"vehicle_type_id":"4","last_reported":1735099879,"current_range_meters":38800,"station_id":"ce4bh692rcd13ifvqe90","pricing_plan_id":"cebpf4jnsgd1na2vs0mg"},{"bike_id":"24346bc7-f1dc-4975-9a51-bb54ce38a842","system_id":"levelo_inurba_marseille","lat":43.29848,"lon":5.36285,"is_reserved":false,"is_disabled":false,"rental_uris":{"android":"levelo://app?vid=24346bc7-f1dc-4975-9a51-bb54ce38a842","ios":"levelo://app?vid=24346bc7-f1dc-4975-9a51-bb54ce38a842"},"vehicle_type_id":"4","last_reported":1735099879,"current_range_meters":9200,"station_id":"ce4bgpp2rcd13ifvqc3g","pricing_plan_id":"cebpf4jnsgd1na2vs0mg"},{"bike_id":"d0533ccb-11ce-46dc-9cca-daa9f7a4985a","system_id":"levelo_inurba_marseille","lat":43.29536,"lon":5.42286,"is_reserved":false,"is_disabled":false,"rental_uris":{"android":"levelo://app?vid=d0533ccb-11ce-46dc-9cca-daa9f7a4985a","ios":"levelo://app?vid=d0533ccb-11ce-46dc-9cca-daa9f7a4985a"},"vehicle_type_id":"4","last_reported":1735099879,"current_range_meters":38800,"station_id":"ce4bhph2rcd13ifvqhdg","pricing_plan_id":"cebpf4jnsgd1na2vs0mg"},{"bike_id":"69b72160-f15d-49c2-b0ce-2947c62f9d05","system_id":"levelo_inurba_marseille","lat":43.322855,"lon":5.382648,"is_reserved":false,"is_disabled":false,"rental_uris":{"android":"levelo://app?vid=69b72160-f15d-49c2-b0ce-2947c62f9d05","ios":"levelo://app?vid=69b72160-f15d-49c2-b0ce-2947c62f9d05"},"vehicle_type_id":"4","last_reported":1735099879,"current_range_meters":28400,"station_id":"ce4bhr12rcd13ifvqhqg","pricing_plan_id":"cebpf4jnsgd1na2vs0mg"},{"bike_id":"5d29fc56-dbb2-4006-96bc-27e181f8d4f5","system_id":"levelo_inurba_marseille","lat":43.29842,"lon":5.3629,"is_reserved":false,"is_disabled":false,"rental_uris":{"android":"levelo://app?vid=5d29fc56-dbb2-4006-96bc-27e181f8d4f5","ios":"levelo://app?vid=5d29fc56-dbb2-4006-96bc-27e181f8d4f5"},"vehicle_type_id":"4","last_reported":1735099879,"current_range_meters":33200,"station_id":"ce4bgpp2rcd13ifvqc3g","pricing_plan_id":"cebpf4jnsgd1na2vs0mg"},{"bike_id":"fdea77be-775a-439f-8feb-aaff8920f3a4","system_id":"levelo_inurba_marseille","lat":43.33584,"lon":5.40999,"is_reserved":false,"is_disabled":false,"rental_uris":{"android":"levelo://app?vid=fdea77be-775a-439f-8feb-aaff8920f3a4","ios":"levelo://app?vid=fdea77be-775a-439f-8feb-aaff8920f3a4"},"vehicle_type_id":"4","last_reported":1735099879,"current_range_meters":36400,"station_id":"ce4bhqh2rcd13ifvqhmg","pricing_plan_id":"cebpf4jnsgd1na2vs0mg"},{"bike_id":"353cf4bf-62f4-49e8-b2f4-5a6260c37422","system_id":"levelo_inurba_marseille","lat":43.29948,"lon":5.38503,"is_reserved":false,"is_disabled":false,"rental_uris":{"android":"levelo://app?vid=353cf4bf-62f4-49e8-b2f4-5a6260c37422","ios":"levelo://app?vid=353cf4bf-62f4-49e8-b2f4-5a6260c37422"},"vehicle_type_id":"4","last_reported":1735099879,"current_range_meters":38800,"station_id":"ce4bgj92rcd13ifvqbd0","pricing_plan_id":"cebpf4jnsgd1na2vs0mg"},{"bike_id":"12cf721d-cf48-40fa-a6cb-e48a42b4d86d","system_id":"levelo_inurba_marseille","lat":43.27044,"lon":5.40266,"is_reserved":false,"is_disabled":false,"rental_uris":{"android":"levelo://app?vid=12cf721d-cf48-40fa-a6cb-e48a42b4d86d","ios":"levelo://app?vid=12cf721d-cf48-40fa-a6cb-e48a42b4d86d"},"vehicle_type_id":"4","last_reported":1735099879,"current_range_meters":28800,"station_id":"ce4bhk92rcd13ifvqgc0","pricing_plan_id":"cebpf4jnsgd1na2vs0mg"},{"bike_id":"339ddeb4-ebfd-4dc3-99a8-5e444160ed17","system_id":"levelo_inurba_marseille","lat":43.28709,"lon":5.3739,"is_reserved":false,"is_disabled":false,"rental_uris":{"android":"levelo://app?vid=339ddeb4-ebfd-4dc3-99a8-5e444160ed17","ios":"levelo://app?vid=339ddeb4-ebfd-4dc3-99a8-5e444160ed17"},"vehicle_type_id":"4","last_reported":1735099879,"current_range_meters":32000,"station_id":"ce4bh3p2rcd13ifvqdq0","pricing_plan_id":"cebpf4jnsgd1na2vs0mg"},{"bike_id":"61b6d437-e950-46a2-8cbf-76c4bc393d6f","system_id":"levelo_inurba_marseille","lat":43.27069,"lon":5.42284,"is_reserved":false,"is_disabled":false,"rental_uris":{"android":"levelo://app?vid=61b6d437-e950-46a2-8cbf-76c4bc393d6f","ios":"levelo://app?vid=61b6d437-e950-46a2-8cbf-76c4bc393d6f"},"vehicle_type_id":"4","last_reported":1735099879,"current_range_meters":17600,"station_id":"ce4bhk92rcd13ifvqgb0","pricing_plan_id":"cebpf4jnsgd1na2vs0mg"},{"bike_id":"e784a64c-a79d-45be-9214-3bdaa0b5d816","system_id":"levelo_inurba_marseille","lat":43.296,"lon":5.37722,"is_reserved":false,"is_disabled":false,"rental_uris":{"android":"levelo://app?vid=e784a64c-a79d-45be-9214-3bdaa0b5d816","ios":"levelo://app?vid=e784a64c-a79d-45be-9214-3bdaa0b5d816"},"vehicle_type_id":"4","last_reported":1735099879,"current_range_meters":18000,"station_id":"ce4bgi92rcd13ifvqb90","pricing_plan_id":"cebpf4jnsgd1na2vs0mg"},{"bike_id":"6025e78d-688d-479d-8265-20e74aeb1e4e","system_id":"levelo_inurba_marseille","lat":43.28428,"lon":5.37553,"is_reserved":false,"is_disabled":false,"rental_uris":{"android":"levelo://app?vid=6025e78d-688d-479d-8265-20e74aeb1e4e","ios":"levelo://app?vid=6025e78d-688d-479d-8265-20e74aeb1e4e"},"vehicle_type_id":"4","last_reported":1735099879,"current_range_meters":9200,"station_id":"ce4bh412rcd13ifvqds0","pricing_plan_id":"cebpf4jnsgd1na2vs0mg"},{"bike_id":"273956bb-97ab-46a9-b451-cb1b9b413f10","system_id":"levelo_inurba_marseille","lat":43.31171,"lon":5.38716,"is_reserved":false,"is_disabled":false,"rental_uris":{"android":"levelo://app?vid=273956bb-97ab-46a9-b451-cb1b9b413f10","ios":"levelo://app?vid=273956bb-97ab-46a9-b451-cb1b9b413f10"},"vehicle_type_id":"4","last_reported":1735099879,"current_range_meters":39200,"station_id":"ce4bgv12rcd13ifvqcp0","pricing_plan_id":"cebpf4jnsgd1na2vs0mg"},{"bike_id":"4a084c7e-6359-4acb-8f25-f015df249fc2","system_id":"levelo_inurba_marseille","lat":43.26501,"lon":5.39538,"is_reserved":false,"is_disabled":false,"rental_uris":{"android":"levelo://app?vid=4a084c7e-6359-4acb-8f25-f015df249fc2","ios":"levelo://app?vid=4a084c7e-6359-4acb-8f25-f015df249fc2"},"vehicle_type_id":"4","last_reported":1735099879,"current_range_meters":36000,"station_id":"ce4bhi12rcd13ifvqfq0","pricing_plan_id":"cebpf4jnsgd1na2vs0mg"},{"bike_id":"c3e392dd-fb9d-49c1-97de-a5f941076d5c","system_id":"levelo_inurba_marseille","lat":43.29233,"lon":5.40916,"is_reserved":false,"is_disabled":false,"rental_uris":{"android":"levelo://app?vid=c3e392dd-fb9d-49c1-97de-a5f941076d5c","ios":"levelo://app?vid=c3e392dd-fb9d-49c1-97de-a5f941076d5c"},"vehicle_type_id":"4","last_reported":1735099879,"current_range_meters":38400,"station_id":"ce4bh192rcd13ifvqdc0","pricing_plan_id":"cebpf4jnsgd1na2vs0mg"},{"bike_id":"2652abeb-1c53-4b2a-907c-7b48c73ec35c","system_id":"levelo_inurba_marseille","lat":43.30594,"lon":5.37219,"is_reserved":false,"is_disabled":false,"rental_uris":{"android":"levelo://app?vid=2652abeb-1c53-4b2a-907c-7b48c73ec35c","ios":"levelo://app?vid=2652abeb-1c53-4b2a-907c-7b48c73ec35c"},"vehicle_type_id":"4","last_reported":1735099879,"current_range_meters":38000,"station_id":"ce4bgqh2rcd13ifvqc4g","pricing_plan_id":"cebpf4jnsgd1na2vs0mg"},{"bike_id":"eaa93ee8-361b-4bd6-bc3c-a3486958f70d","system_id":"levelo_inurba_marseille","lat":43.29789,"lon":5.37104,"is_reserved":false,"is_disabled":false,"rental_uris":{"android":"levelo://app?vid=eaa93ee8-361b-4bd6-bc3c-a3486958f70d","ios":"levelo://app?vid=eaa93ee8-361b-4bd6-bc3c-a3486958f70d"},"vehicle_type_id":"4","last_reported":1735099879,"current_range_meters":38800,"station_id":"ce4bgop2rcd13ifvqc1g","pricing_plan_id":"cebpf4jnsgd1na2vs0mg"},{"bike_id":"40c0bad0-8626-4c9b-b59b-9fad04a61df9","system_id":"levelo_inurba_marseille","lat":43.28373,"lon":5.386397,"is_reserved":false,"is_disabled":false,"rental_uris":{"android":"levelo://app?vid=40c0bad0-8626-4c9b-b59b-9fad04a61df9","ios":"levelo://app?vid=40c0bad0-8626-4c9b-b59b-9fad04a61df9"},"vehicle_type_id":"4","last_reported":1735099879,"current_range_meters":39200,"station_id":"ce4bh492rcd13ifvqdvg","pricing_plan_id":"cebpf4jnsgd1na2vs0mg"},{"bike_id":"e724f4e5-0922-4e36-91f4-8a4c9d514ff5","system_id":"levelo_inurba_marseille","lat":43.298469,"lon":5.362584,"is_reserved":false,"is_disabled":false,"rental_uris":{"android":"levelo://app?vid=e724f4e5-0922-4e36-91f4-8a4c9d514ff5","ios":"levelo://app?vid=e724f4e5-0922-4e36-91f4-8a4c9d514ff5"},"vehicle_type_id":"4","last_reported":1735099879,"current_range_meters":36400,"station_id":"ce4bgpp2rcd13ifvqc3g","pricing_plan_id":"cebpf4jnsgd1na2vs0mg"},{"bike_id":"b392a593-72dd-421f-8809-b96d8a7b6a48","system_id":"levelo_inurba_marseille","lat":43.30145,"lon":5.38769,"is_reserved":false,"is_disabled":false,"rental_uris":{"android":"levelo://app?vid=b392a593-72dd-421f-8809-b96d8a7b6a48","ios":"levelo://app?vid=b392a593-72dd-421f-8809-b96d8a7b6a48"},"vehicle_type_id":"4","last_reported":1735099879,"current_range_meters":36800,"station_id":"ce4bghh2rcd13ifvqb60","pricing_plan_id":"cebpf4jnsgd1na2vs0mg"},{"bike_id":"3a27b30d-c3f9-412d-bbb7-90b32a3ec120","system_id":"levelo_inurba_marseille","lat":43.28003,"lon":5.40027,"is_reserved":false,"is_disabled":false,"rental_uris":{"android":"levelo://app?vid=3a27b30d-c3f9-412d-bbb7-90b32a3ec120","ios":"levelo://app?vid=3a27b30d-c3f9-412d-bbb7-90b32a3ec120"},"vehicle_type_id":"4","last_reported":1735099879,"current_range_meters":36400,"station_id":"ce4bho92rcd13ifvqh4g","pricing_plan_id":"cebpf4jnsgd1na2vs0mg"},{"bike_id":"19c0a0c0-9857-43fa-bca0-8d8e9d966de8","system_id":"levelo_inurba_marseille","lat":43.31887,"lon":5.4073,"is_reserved":false,"is_disabled":false,"rental_uris":{"android":"levelo://app?vid=19c0a0c0-9857-43fa-bca0-8d8e9d966de8","ios":"levelo://app?vid=19c0a0c0-9857-43fa-bca0-8d8e9d966de8"},"vehicle_type_id":"4","last_reported":1735099879,"current_range_meters":38800,"station_id":"ce4bhq12rcd13ifvqhig","pricing_plan_id":"cebpf4jnsgd1na2vs0mg"},{"bike_id":"fa7b6f51-07ff-4e1f-ba75-2880fb9ee1b2","system_id":"levelo_inurba_marseille","lat":43.24165,"lon":5.36398,"is_reserved":false,"is_disabled":false,"rental_uris":{"android":"levelo://app?vid=fa7b6f51-07ff-4e1f-ba75-2880fb9ee1b2","ios":"levelo://app?vid=fa7b6f51-07ff-4e1f-ba75-2880fb9ee1b2"},"vehicle_type_id":"4","last_reported":1735099879,"current_range_meters":34000,"station_id":"cpo36qri1sfpv3e86is0","pricing_plan_id":"cebpf4jnsgd1na2vs0mg"},{"bike_id":"9ff763ff-e414-4d0e-8bb9-b34d48217a3e","system_id":"levelo_inurba_marseille","lat":43.23187,"lon":5.39979,"is_reserved":false,"is_disabled":false,"rental_uris":{"android":"levelo://app?vid=9ff763ff-e414-4d0e-8bb9-b34d48217a3e","ios":"levelo://app?vid=9ff763ff-e414-4d0e-8bb9-b34d48217a3e"},"vehicle_type_id":"4","last_reported":1735099879,"current_range_meters":17200,"station_id":"ce4bhn12rcd13ifvqgqg","pricing_plan_id":"cebpf4jnsgd1na2vs0mg"},{"bike_id":"b2f86a97-af08-41b2-8296-7e91d5858232","system_id":"levelo_inurba_marseille","lat":43.28993,"lon":5.35617,"is_reserved":false,"is_disabled":false,"rental_uris":{"android":"levelo://app?vid=b2f86a97-af08-41b2-8296-7e91d5858232","ios":"levelo://app?vid=b2f86a97-af08-41b2-8296-7e91d5858232"},"vehicle_type_id":"4","last_reported":1735099879,"current_range_meters":36800,"station_id":"ce4bhb92rcd13ifvqen0","pricing_plan_id":"cebpf4jnsgd1na2vs0mg"},{"bike_id":"50f50bdd-bdce-4362-a157-c43af826c5ff","system_id":"levelo_inurba_marseille","lat":43.280759,"lon":5.396545,"is_reserved":false,"is_disabled":false,"rental_uris":{"android":"levelo://app?vid=50f50bdd-bdce-4362-a157-c43af826c5ff","ios":"levelo://app?vid=50f50bdd-bdce-4362-a157-c43af826c5ff"},"vehicle_type_id":"4","last_reported":1735099879,"current_range_meters":33200,"station_id":"ce4bho12rcd13ifvqh2g","pricing_plan_id":"cebpf4jnsgd1na2vs0mg"},{"bike_id":"d260eabd-d7e1-4f31-a251-3a682c05eccf","system_id":"levelo_inurba_marseille","lat":43.23199,"lon":5.39976,"is_reserved":false,"is_disabled":true,"rental_uris":{"android":"levelo://app?vid=d260eabd-d7e1-4f31-a251-3a682c05eccf","ios":"levelo://app?vid=d260eabd-d7e1-4f31-a251-3a682c05eccf"},"vehicle_type_id":"4","last_reported":1735099879,"current_range_meters":32000,"station_id":"ce4bhn12rcd13ifvqgqg","pricing_plan_id":"cebpf4jnsgd1na2vs0mg"},{"bike_id":"c7f2e706-b530-453a-987e-9b3f1de4a999","system_id":"levelo_inurba_marseille","lat":43.30808,"lon":5.38151,"is_reserved":false,"is_disabled":false,"rental_uris":{"android":"levelo://app?vid=c7f2e706-b530-453a-987e-9b3f1de4a999","ios":"levelo://app?vid=c7f2e706-b530-453a-987e-9b3f1de4a999"},"vehicle_type_id":"4","last_reported":1735099879,"current_range_meters":38000,"station_id":"ce4bgt12rcd13ifvqce0","pricing_plan_id":"cebpf4jnsgd1na2vs0mg"},{"bike_id":"b81e8144-3fa1-44dd-804b-b934f9862d1d","system_id":"levelo_inurba_marseille","lat":43.299041,"lon":5.381422,"is_reserved":false,"is_disabled":false,"rental_uris":{"android":"levelo://app?vid=b81e8144-3fa1-44dd-804b-b934f9862d1d","ios":"levelo://app?vid=b81e8144-3fa1-44dd-804b-b934f9862d1d"},"vehicle_type_id":"4","last_reported":1735099879,"current_range_meters":39200,"station_id":"ce4bgj12rcd13ifvqbc0","pricing_plan_id":"cebpf4jnsgd1na2vs0mg"},{"bike_id":"356d183b-f2f3-4f03-b14d-0521749fb3e6","system_id":"levelo_inurba_marseille","lat":43.27949,"lon":5.41037,"is_reserved":false,"is_disabled":false,"rental_uris":{"android":"levelo://app?vid=356d183b-f2f3-4f03-b14d-0521749fb3e6","ios":"levelo://app?vid=356d183b-f2f3-4f03-b14d-0521749fb3e6"},"vehicle_type_id":"4","last_reported":1735099879,"current_range_meters":30000,"station_id":"ce4bhnp2rcd13ifvqh0g","pricing_plan_id":"cebpf4jnsgd1na2vs0mg"},{"bike_id":"f68d00f0-3148-454c-ba66-1d06594aedb3","system_id":"levelo_inurba_marseille","lat":43.29904,"lon":5.38147,"is_reserved":false,"is_disabled":false,"rental_uris":{"android":"levelo://app?vid=f68d00f0-3148-454c-ba66-1d06594aedb3","ios":"levelo://app?vid=f68d00f0-3148-454c-ba66-1d06594aedb3"},"vehicle_type_id":"4","last_reported":1735099879,"current_range_meters":38800,"station_id":"ce4bgj12rcd13ifvqbc0","pricing_plan_id":"cebpf4jnsgd1na2vs0mg"},{"bike_id":"a87760bb-860a-41ff-af6f-797f55d9f68d","system_id":"levelo_inurba_marseille","lat":43.29776,"lon":5.3936,"is_reserved":false,"is_disabled":false,"rental_uris":{"android":"levelo://app?vid=a87760bb-860a-41ff-af6f-797f55d9f68d","ios":"levelo://app?vid=a87760bb-860a-41ff-af6f-797f55d9f68d"},"vehicle_type_id":"4","last_reported":1735099879,"current_range_meters":28400,"station_id":"chh1huq6cuj3fo74tm60","pricing_plan_id":"cebpf4jnsgd1na2vs0mg"},{"bike_id":"fc5cdb86-14be-4526-8aad-8a57f10a34ad","system_id":"levelo_inurba_marseille","lat":43.31759,"lon":5.39016,"is_reserved":false,"is_disabled":false,"rental_uris":{"android":"levelo://app?vid=fc5cdb86-14be-4526-8aad-8a57f10a34ad","ios":"levelo://app?vid=fc5cdb86-14be-4526-8aad-8a57f10a34ad"},"vehicle_type_id":"4","last_reported":1735099879,"current_range_meters":33200,"station_id":"ce4bhqp2rcd13ifvqhng","pricing_plan_id":"cebpf4jnsgd1na2vs0mg"},{"bike_id":"fcaf1022-b8ca-4e5c-a198-375c8e01b7f0","system_id":"levelo_inurba_marseille","lat":43.29179,"lon":5.37142,"is_reserved":false,"is_disabled":false,"rental_uris":{"android":"levelo://app?vid=fcaf1022-b8ca-4e5c-a198-375c8e01b7f0","ios":"levelo://app?vid=fcaf1022-b8ca-4e5c-a198-375c8e01b7f0"},"vehicle_type_id":"4","last_reported":1735099879,"current_range_meters":39200,"station_id":"ce4bha92rcd13ifvqeh0","pricing_plan_id":"cebpf4jnsgd1na2vs0mg"},{"bike_id":"d584d26a-e0dc-4c67-b65d-1772f63f3cde","system_id":"levelo_inurba_marseille","lat":43.276,"lon":5.36116,"is_reserved":false,"is_disabled":false,"rental_uris":{"android":"levelo://app?vid=d584d26a-e0dc-4c67-b65d-1772f63f3cde","ios":"levelo://app?vid=d584d26a-e0dc-4c67-b65d-1772f63f3cde"},"vehicle_type_id":"4","last_reported":1735099879,"current_range_meters":38000,"station_id":"ce4bgj92rcd13ifvqbe0","pricing_plan_id":"cebpf4jnsgd1na2vs0mg"},{"bike_id":"3c079412-698a-4ad7-872c-5c56e449290c","system_id":"levelo_inurba_marseille","lat":43.231479,"lon":5.437239,"is_reserved":false,"is_disabled":false,"rental_uris":{"android":"levelo://app?vid=3c079412-698a-4ad7-872c-5c56e449290c","ios":"levelo://app?vid=3c079412-698a-4ad7-872c-5c56e449290c"},"vehicle_type_id":"4","last_reported":1735099879,"current_range_meters":33600,"station_id":"ce4bhmp2rcd13ifvqgog","pricing_plan_id":"cebpf4jnsgd1na2vs0mg"},{"bike_id":"3704ab32-de97-40c4-8fed-eb13ce5a96bf","system_id":"levelo_inurba_marseille","lat":43.28562,"lon":5.39491,"is_reserved":false,"is_disabled":false,"rental_uris":{"android":"levelo://app?vid=3704ab32-de97-40c4-8fed-eb13ce5a96bf","ios":"levelo://app?vid=3704ab32-de97-40c4-8fed-eb13ce5a96bf"},"vehicle_type_id":"4","last_reported":1735099879,"current_range_meters":39200,"station_id":"ce4bh292rcd13ifvqdg0","pricing_plan_id":"cebpf4jnsgd1na2vs0mg"},{"bike_id":"eb493c73-faad-4c01-b4aa-27ac99a1af59","system_id":"levelo_inurba_marseille","lat":43.29627,"lon":5.371636,"is_reserved":false,"is_disabled":false,"rental_uris":{"android":"levelo://app?vid=eb493c73-faad-4c01-b4aa-27ac99a1af59","ios":"levelo://app?vid=eb493c73-faad-4c01-b4aa-27ac99a1af59"},"vehicle_type_id":"4","last_reported":1735099879,"current_range_meters":38400,"station_id":"ce4bgnh2rcd13ifvqc0g","pricing_plan_id":"cebpf4jnsgd1na2vs0mg"},{"bike_id":"745b61e3-138e-43ed-a4d3-3d3125465bde","system_id":"levelo_inurba_marseille","lat":43.26606,"lon":5.39007,"is_reserved":false,"is_disabled":false,"rental_uris":{"android":"levelo://app?vid=745b61e3-138e-43ed-a4d3-3d3125465bde","ios":"levelo://app?vid=745b61e3-138e-43ed-a4d3-3d3125465bde"},"vehicle_type_id":"4","last_reported":1735099879,"current_range_meters":25200,"station_id":"","pricing_plan_id":"cebpf4jnsgd1na2vs0mg"},{"bike_id":"4c4ae910-6a1c-4535-b027-ebf3f7594109","system_id":"levelo_inurba_marseille","lat":43.30659,"lon":5.40067,"is_reserved":false,"is_disabled":false,"rental_uris":{"android":"levelo://app?vid=4c4ae910-6a1c-4535-b027-ebf3f7594109","ios":"levelo://app?vid=4c4ae910-6a1c-4535-b027-ebf3f7594109"},"vehicle_type_id":"4","last_reported":1735099879,"current_range_meters":30400,"station_id":"ce4bh112rcd13ifvqda0","pricing_plan_id":"cebpf4jnsgd1na2vs0mg"},{"bike_id":"7608f1ad-6069-4760-9820-c5af492fd707","system_id":"levelo_inurba_marseille","lat":43.29586,"lon":5.36738,"is_reserved":false,"is_disabled":false,"rental_uris":{"android":"levelo://app?vid=7608f1ad-6069-4760-9820-c5af492fd707","ios":"levelo://app?vid=7608f1ad-6069-4760-9820-c5af492fd707"},"vehicle_type_id":"4","last_reported":1735099879,"current_range_meters":37600,"station_id":"ce4bgph2rcd13ifvqc2g","pricing_plan_id":"cebpf4jnsgd1na2vs0mg"},{"bike_id":"4844e9a3-3e0e-46b3-97e0-b21c829303d3","system_id":"levelo_inurba_marseille","lat":43.31877,"lon":5.4073,"is_reserved":false,"is_disabled":false,"rental_uris":{"android":"levelo://app?vid=4844e9a3-3e0e-46b3-97e0-b21c829303d3","ios":"levelo://app?vid=4844e9a3-3e0e-46b3-97e0-b21c829303d3"},"vehicle_type_id":"4","last_reported":1735099879,"current_range_meters":38800,"station_id":"ce4bhq12rcd13ifvqhig","pricing_plan_id":"cebpf4jnsgd1na2vs0mg"},{"bike_id":"2531a841-d2ae-4f82-b31e-c792b7d866bd","system_id":"levelo_inurba_marseille","lat":43.30661,"lon":5.40084,"is_reserved":false,"is_disabled":false,"rental_uris":{"android":"levelo://app?vid=2531a841-d2ae-4f82-b31e-c792b7d866bd","ios":"levelo://app?vid=2531a841-d2ae-4f82-b31e-c792b7d866bd"},"vehicle_type_id":"4","last_reported":1735099879,"current_range_meters":36800,"station_id":"ce4bh112rcd13ifvqda0","pricing_plan_id":"cebpf4jnsgd1na2vs0mg"},{"bike_id":"63aac863-d7ea-4344-81fa-3153d9ba0f58","system_id":"levelo_inurba_marseille","lat":43.29889,"lon":5.38152,"is_reserved":false,"is_disabled":false,"rental_uris":{"android":"levelo://app?vid=63aac863-d7ea-4344-81fa-3153d9ba0f58","ios":"levelo://app?vid=63aac863-d7ea-4344-81fa-3153d9ba0f58"},"vehicle_type_id":"4","last_reported":1735099879,"current_range_meters":35600,"station_id":"ce4bgj12rcd13ifvqbc0","pricing_plan_id":"cebpf4jnsgd1na2vs0mg"},{"bike_id":"6fc39219-982d-4feb-9b3b-e1ba4db40afe","system_id":"levelo_inurba_marseille","lat":43.29584,"lon":5.38106,"is_reserved":false,"is_disabled":false,"rental_uris":{"android":"levelo://app?vid=6fc39219-982d-4feb-9b3b-e1ba4db40afe","ios":"levelo://app?vid=6fc39219-982d-4feb-9b3b-e1ba4db40afe"},"vehicle_type_id":"4","last_reported":1735099879,"current_range_meters":39200,"station_id":"ce4bgl12rcd13ifvqbo0","pricing_plan_id":"cebpf4jnsgd1na2vs0mg"},{"bike_id":"e73e6057-e6e9-407b-a17e-f4e119a96aba","system_id":"levelo_inurba_marseille","lat":43.32108,"lon":5.36781,"is_reserved":false,"is_disabled":false,"rental_uris":{"android":"levelo://app?vid=e73e6057-e6e9-407b-a17e-f4e119a96aba","ios":"levelo://app?vid=e73e6057-e6e9-407b-a17e-f4e119a96aba"},"vehicle_type_id":"4","last_reported":1735099879,"current_range_meters":33600,"station_id":"ce4bhrh2rcd13ifvqhug","pricing_plan_id":"cebpf4jnsgd1na2vs0mg"},{"bike_id":"d3d57b3b-13bc-4c2a-ab0b-2ef5d4c4b8d5","system_id":"levelo_inurba_marseille","lat":43.27663,"lon":5.38875,"is_reserved":false,"is_disabled":false,"rental_uris":{"android":"levelo://app?vid=d3d57b3b-13bc-4c2a-ab0b-2ef5d4c4b8d5","ios":"levelo://app?vid=d3d57b3b-13bc-4c2a-ab0b-2ef5d4c4b8d5"},"vehicle_type_id":"4","last_reported":1735099879,"current_range_meters":18800,"station_id":"ce4bhi12rcd13ifvqfo0","pricing_plan_id":"cebpf4jnsgd1na2vs0mg"},{"bike_id":"ff19ce84-10b6-4ffc-b9fc-1625914b166c","system_id":"levelo_inurba_marseille","lat":43.29706,"lon":5.36622,"is_reserved":false,"is_disabled":false,"rental_uris":{"android":"levelo://app?vid=ff19ce84-10b6-4ffc-b9fc-1625914b166c","ios":"levelo://app?vid=ff19ce84-10b6-4ffc-b9fc-1625914b166c"},"vehicle_type_id":"4","last_reported":1735099879,"current_range_meters":22400,"station_id":"ce4bgn12rcd13ifvqbt0","pricing_plan_id":"cebpf4jnsgd1na2vs0mg"},{"bike_id":"365d08e9-1286-4e9d-b49e-032a6e023429","system_id":"levelo_inurba_marseille","lat":43.305981,"lon":5.372112,"is_reserved":false,"is_disabled":false,"rental_uris":{"android":"levelo://app?vid=365d08e9-1286-4e9d-b49e-032a6e023429","ios":"levelo://app?vid=365d08e9-1286-4e9d-b49e-032a6e023429"},"vehicle_type_id":"4","last_reported":1735099879,"current_range_meters":38800,"station_id":"ce4bgqh2rcd13ifvqc4g","pricing_plan_id":"cebpf4jnsgd1na2vs0mg"},{"bike_id":"7229805d-820e-4381-aa07-8ea31958c18a","system_id":"levelo_inurba_marseille","lat":43.30892,"lon":5.39638,"is_reserved":false,"is_disabled":false,"rental_uris":{"android":"levelo://app?vid=7229805d-820e-4381-aa07-8ea31958c18a","ios":"levelo://app?vid=7229805d-820e-4381-aa07-8ea31958c18a"},"vehicle_type_id":"4","last_reported":1735099879,"current_range_meters":28400,"station_id":"ce4bh012rcd13ifvqcv0","pricing_plan_id":"cebpf4jnsgd1na2vs0mg"},{"bike_id":"4bcb37c0-9249-499d-890c-0bbf93d29f8b","system_id":"levelo_inurba_marseille","lat":43.23186,"lon":5.3555,"is_reserved":false,"is_disabled":true,"rental_uris":{"android":"levelo://app?vid=4bcb37c0-9249-499d-890c-0bbf93d29f8b","ios":"levelo://app?vid=4bcb37c0-9249-499d-890c-0bbf93d29f8b"},"vehicle_type_id":"4","last_reported":1735099879,"current_range_meters":12000,"station_id":"ce4bhu92rcd13ifvqi70","pricing_plan_id":"cebpf4jnsgd1na2vs0mg"},{"bike_id":"2a3b7d32-cff7-495b-b04e-14004fa824a0","system_id":"levelo_inurba_marseille","lat":43.31362,"lon":5.38498,"is_reserved":false,"is_disabled":false,"rental_uris":{"android":"levelo://app?vid=2a3b7d32-cff7-495b-b04e-14004fa824a0","ios":"levelo://app?vid=2a3b7d32-cff7-495b-b04e-14004fa824a0"},"vehicle_type_id":"4","last_reported":1735099879,"current_range_meters":39200,"station_id":"ce4bgt92rcd13ifvqcf0","pricing_plan_id":"cebpf4jnsgd1na2vs0mg"},{"bike_id":"a8c93b85-6608-43c3-bd74-b7037f4710f5","system_id":"levelo_inurba_marseille","lat":43.25001,"lon":5.38924,"is_reserved":false,"is_disabled":false,"rental_uris":{"android":"levelo://app?vid=a8c93b85-6608-43c3-bd74-b7037f4710f5","ios":"levelo://app?vid=a8c93b85-6608-43c3-bd74-b7037f4710f5"},"vehicle_type_id":"4","last_reported":1735099879,"current_range_meters":36800,"station_id":"ce4bhgp2rcd13ifvqfd0","pricing_plan_id":"cebpf4jnsgd1na2vs0mg"},{"bike_id":"e3055757-4e5c-471b-bc49-10de19223f16","system_id":"levelo_inurba_marseille","lat":43.3204,"lon":5.41568,"is_reserved":false,"is_disabled":false,"rental_uris":{"android":"levelo://app?vid=e3055757-4e5c-471b-bc49-10de19223f16","ios":"levelo://app?vid=e3055757-4e5c-471b-bc49-10de19223f16"},"vehicle_type_id":"4","last_reported":1735099879,"current_range_meters":31200,"station_id":"ce4bhq92rcd13ifvqhkg","pricing_plan_id":"cebpf4jnsgd1na2vs0mg"},{"bike_id":"cd557ca8-748b-4022-87fb-b196f5f5086d","system_id":"levelo_inurba_marseille","lat":43.29782,"lon":5.37107,"is_reserved":false,"is_disabled":false,"rental_uris":{"android":"levelo://app?vid=cd557ca8-748b-4022-87fb-b196f5f5086d","ios":"levelo://app?vid=cd557ca8-748b-4022-87fb-b196f5f5086d"},"vehicle_type_id":"4","last_reported":1735099879,"current_range_meters":36800,"station_id":"ce4bgop2rcd13ifvqc1g","pricing_plan_id":"cebpf4jnsgd1na2vs0mg"},{"bike_id":"208be6ab-a99a-4aa4-afe7-ad23a20f3580","system_id":"levelo_inurba_marseille","lat":43.30132,"lon":5.38785,"is_reserved":false,"is_disabled":false,"rental_uris":{"android":"levelo://app?vid=208be6ab-a99a-4aa4-afe7-ad23a20f3580","ios":"levelo://app?vid=208be6ab-a99a-4aa4-afe7-ad23a20f3580"},"vehicle_type_id":"4","last_reported":1735099879,"current_range_meters":38000,"station_id":"ce4bghh2rcd13ifvqb60","pricing_plan_id":"cebpf4jnsgd1na2vs0mg"},{"bike_id":"3e0dffd7-74ff-4814-97ea-253d3881d122","system_id":"levelo_inurba_marseille","lat":43.29605,"lon":5.37744,"is_reserved":false,"is_disabled":false,"rental_uris":{"android":"levelo://app?vid=3e0dffd7-74ff-4814-97ea-253d3881d122","ios":"levelo://app?vid=3e0dffd7-74ff-4814-97ea-253d3881d122"},"vehicle_type_id":"4","last_reported":1735099879,"current_range_meters":32400,"station_id":"ce4bgi92rcd13ifvqb90","pricing_plan_id":"cebpf4jnsgd1na2vs0mg"},{"bike_id":"0d8e7050-5f36-4ff1-bb95-5ba4b8dd65b6","system_id":"levelo_inurba_marseille","lat":43.26067,"lon":5.39383,"is_reserved":false,"is_disabled":false,"rental_uris":{"android":"levelo://app?vid=0d8e7050-5f36-4ff1-bb95-5ba4b8dd65b6","ios":"levelo://app?vid=0d8e7050-5f36-4ff1-bb95-5ba4b8dd65b6"},"vehicle_type_id":"4","last_reported":1735099879,"current_range_meters":36400,"station_id":"ce4bhh92rcd13ifvqfj0","pricing_plan_id":"cebpf4jnsgd1na2vs0mg"},{"bike_id":"1401d782-4c42-4502-9233-ae0e4dbfcaa2","system_id":"levelo_inurba_marseille","lat":43.2742,"lon":5.39416,"is_reserved":false,"is_disabled":false,"rental_uris":{"android":"levelo://app?vid=1401d782-4c42-4502-9233-ae0e4dbfcaa2","ios":"levelo://app?vid=1401d782-4c42-4502-9233-ae0e4dbfcaa2"},"vehicle_type_id":"4","last_reported":1735099879,"current_range_meters":9600,"station_id":"ce4bhdp2rcd13ifvqf20","pricing_plan_id":"cebpf4jnsgd1na2vs0mg"},{"bike_id":"99d58419-7fd2-4ee3-85af-8e206f15bae9","system_id":"levelo_inurba_marseille","lat":43.308131,"lon":5.435198,"is_reserved":false,"is_disabled":false,"rental_uris":{"android":"levelo://app?vid=99d58419-7fd2-4ee3-85af-8e206f15bae9","ios":"levelo://app?vid=99d58419-7fd2-4ee3-85af-8e206f15bae9"},"vehicle_type_id":"4","last_reported":1735099879,"current_range_meters":38000,"station_id":"ce4bhph2rcd13ifvqheg","pricing_plan_id":"cebpf4jnsgd1na2vs0mg"},{"bike_id":"f1a05271-deb6-45df-a57b-c8df010d99a6","system_id":"levelo_inurba_marseille","lat":43.29847,"lon":5.36284,"is_reserved":false,"is_disabled":false,"rental_uris":{"android":"levelo://app?vid=f1a05271-deb6-45df-a57b-c8df010d99a6","ios":"levelo://app?vid=f1a05271-deb6-45df-a57b-c8df010d99a6"},"vehicle_type_id":"4","last_reported":1735099879,"current_range_meters":38000,"station_id":"ce4bgpp2rcd13ifvqc3g","pricing_plan_id":"cebpf4jnsgd1na2vs0mg"},{"bike_id":"ea2c332a-c7fe-4697-b615-7a1289ce9c2c","system_id":"levelo_inurba_marseille","lat":43.29026,"lon":5.37567,"is_reserved":false,"is_disabled":false,"rental_uris":{"android":"levelo://app?vid=ea2c332a-c7fe-4697-b615-7a1289ce9c2c","ios":"levelo://app?vid=ea2c332a-c7fe-4697-b615-7a1289ce9c2c"},"vehicle_type_id":"4","last_reported":1735099879,"current_range_meters":38800,"station_id":"ce4bh692rcd13ifvqe90","pricing_plan_id":"cebpf4jnsgd1na2vs0mg"},{"bike_id":"dad6db58-f5bc-4da2-b0b4-3d5d1002166b","system_id":"levelo_inurba_marseille","lat":43.32112,"lon":5.36773,"is_reserved":false,"is_disabled":false,"rental_uris":{"android":"levelo://app?vid=dad6db58-f5bc-4da2-b0b4-3d5d1002166b","ios":"levelo://app?vid=dad6db58-f5bc-4da2-b0b4-3d5d1002166b"},"vehicle_type_id":"4","last_reported":1735099879,"current_range_meters":28400,"station_id":"ce4bhrh2rcd13ifvqhug","pricing_plan_id":"cebpf4jnsgd1na2vs0mg"},{"bike_id":"d215e6a3-2dbb-4240-82c4-dbdd5ce5595f","system_id":"levelo_inurba_marseille","lat":43.29894,"lon":5.38142,"is_reserved":false,"is_disabled":false,"rental_uris":{"android":"levelo://app?vid=d215e6a3-2dbb-4240-82c4-dbdd5ce5595f","ios":"levelo://app?vid=d215e6a3-2dbb-4240-82c4-dbdd5ce5595f"},"vehicle_type_id":"4","last_reported":1735099879,"current_range_meters":38800,"station_id":"ce4bgj12rcd13ifvqbc0","pricing_plan_id":"cebpf4jnsgd1na2vs0mg"},{"bike_id":"dd7d4a3c-5899-4c44-8ca2-91d460496d28","system_id":"levelo_inurba_marseille","lat":43.241756,"lon":5.397363,"is_reserved":false,"is_disabled":false,"rental_uris":{"android":"levelo://app?vid=dd7d4a3c-5899-4c44-8ca2-91d460496d28","ios":"levelo://app?vid=dd7d4a3c-5899-4c44-8ca2-91d460496d28"},"vehicle_type_id":"4","last_reported":1735099879,"current_range_meters":38800,"station_id":"ce4bhn12rcd13ifvqgpg","pricing_plan_id":"cebpf4jnsgd1na2vs0mg"},{"bike_id":"7f8e539a-2241-4364-812f-32be0d6427b6","system_id":"levelo_inurba_marseille","lat":43.32103,"lon":5.36782,"is_reserved":false,"is_disabled":false,"rental_uris":{"android":"levelo://app?vid=7f8e539a-2241-4364-812f-32be0d6427b6","ios":"levelo://app?vid=7f8e539a-2241-4364-812f-32be0d6427b6"},"vehicle_type_id":"4","last_reported":1735099879,"current_range_meters":26800,"station_id":"ce4bhrh2rcd13ifvqhug","pricing_plan_id":"cebpf4jnsgd1na2vs0mg"},{"bike_id":"bb9b563a-45f8-4329-8f3c-a50a095982e4","system_id":"levelo_inurba_marseille","lat":43.299071,"lon":5.381356,"is_reserved":false,"is_disabled":false,"rental_uris":{"android":"levelo://app?vid=bb9b563a-45f8-4329-8f3c-a50a095982e4","ios":"levelo://app?vid=bb9b563a-45f8-4329-8f3c-a50a095982e4"},"vehicle_type_id":"4","last_reported":1735099879,"current_range_meters":39200,"station_id":"ce4bgj12rcd13ifvqbc0","pricing_plan_id":"cebpf4jnsgd1na2vs0mg"},{"bike_id":"a550f341-6e04-4989-b32f-77b133c98903","system_id":"levelo_inurba_marseille","lat":43.2962,"lon":5.377269,"is_reserved":false,"is_disabled":false,"rental_uris":{"android":"levelo://app?vid=a550f341-6e04-4989-b32f-77b133c98903","ios":"levelo://app?vid=a550f341-6e04-4989-b32f-77b133c98903"},"vehicle_type_id":"4","last_reported":1735099879,"current_range_meters":38800,"station_id":"ce4bgi92rcd13ifvqb90","pricing_plan_id":"cebpf4jnsgd1na2vs0mg"},{"bike_id":"1f60e3a9-5bdb-49c1-9912-d728d8f40aa3","system_id":"levelo_inurba_marseille","lat":43.23149,"lon":5.43715,"is_reserved":false,"is_disabled":false,"rental_uris":{"android":"levelo://app?vid=1f60e3a9-5bdb-49c1-9912-d728d8f40aa3","ios":"levelo://app?vid=1f60e3a9-5bdb-49c1-9912-d728d8f40aa3"},"vehicle_type_id":"4","last_reported":1735099879,"current_range_meters":36400,"station_id":"ce4bhmp2rcd13ifvqgog","pricing_plan_id":"cebpf4jnsgd1na2vs0mg"},{"bike_id":"61efb49e-53ce-4cd1-afef-a5daebcd0fcd","system_id":"levelo_inurba_marseille","lat":43.28405,"lon":5.3754,"is_reserved":false,"is_disabled":false,"rental_uris":{"android":"levelo://app?vid=61efb49e-53ce-4cd1-afef-a5daebcd0fcd","ios":"levelo://app?vid=61efb49e-53ce-4cd1-afef-a5daebcd0fcd"},"vehicle_type_id":"4","last_reported":1735099879,"current_range_meters":14000,"station_id":"ce4bh412rcd13ifvqds0","pricing_plan_id":"cebpf4jnsgd1na2vs0mg"},{"bike_id":"a1fa0cec-7356-40e6-92bc-b776a0d4ab9d","system_id":"levelo_inurba_marseille","lat":43.29592,"lon":5.37728,"is_reserved":false,"is_disabled":false,"rental_uris":{"android":"levelo://app?vid=a1fa0cec-7356-40e6-92bc-b776a0d4ab9d","ios":"levelo://app?vid=a1fa0cec-7356-40e6-92bc-b776a0d4ab9d"},"vehicle_type_id":"4","last_reported":1735099879,"current_range_meters":38800,"station_id":"ce4bgi92rcd13ifvqb90","pricing_plan_id":"cebpf4jnsgd1na2vs0mg"},{"bike_id":"195a92d4-3ce5-42fe-a0f9-4a52f2312334","system_id":"levelo_inurba_marseille","lat":43.29844,"lon":5.38926,"is_reserved":false,"is_disabled":false,"rental_uris":{"android":"levelo://app?vid=195a92d4-3ce5-42fe-a0f9-4a52f2312334","ios":"levelo://app?vid=195a92d4-3ce5-42fe-a0f9-4a52f2312334"},"vehicle_type_id":"4","last_reported":1735099879,"current_range_meters":38800,"station_id":"ce4bh392rcd13ifvqdl0","pricing_plan_id":"cebpf4jnsgd1na2vs0mg"},{"bike_id":"7d51f556-7ada-4233-9b93-03f8f492aa76","system_id":"levelo_inurba_marseille","lat":43.245405,"lon":5.395212,"is_reserved":false,"is_disabled":true,"rental_uris":{"android":"levelo://app?vid=7d51f556-7ada-4233-9b93-03f8f492aa76","ios":"levelo://app?vid=7d51f556-7ada-4233-9b93-03f8f492aa76"},"vehicle_type_id":"4","last_reported":1735099879,"current_range_meters":6000,"station_id":"ce4bhlp2rcd13ifvqgjg","pricing_plan_id":"cebpf4jnsgd1na2vs0mg"},{"bike_id":"1866340a-45b4-4bd2-ac73-392a4ecb2e72","system_id":"levelo_inurba_marseille","lat":43.29848,"lon":5.36269,"is_reserved":false,"is_disabled":false,"rental_uris":{"android":"levelo://app?vid=1866340a-45b4-4bd2-ac73-392a4ecb2e72","ios":"levelo://app?vid=1866340a-45b4-4bd2-ac73-392a4ecb2e72"},"vehicle_type_id":"4","last_reported":1735099879,"current_range_meters":38800,"station_id":"ce4bgpp2rcd13ifvqc3g","pricing_plan_id":"cebpf4jnsgd1na2vs0mg"},{"bike_id":"5b5e383b-efa1-4eb1-84b6-4e597d310e17","system_id":"levelo_inurba_marseille","lat":43.24809,"lon":5.37457,"is_reserved":false,"is_disabled":false,"rental_uris":{"android":"levelo://app?vid=5b5e383b-efa1-4eb1-84b6-4e597d310e17","ios":"levelo://app?vid=5b5e383b-efa1-4eb1-84b6-4e597d310e17"},"vehicle_type_id":"4","last_reported":1735099879,"current_range_meters":38800,"station_id":"ce4bhgh2rcd13ifvqfb0","pricing_plan_id":"cebpf4jnsgd1na2vs0mg"},{"bike_id":"9cb5e3ee-fd12-4cab-b80a-85056c35a27d","system_id":"levelo_inurba_marseille","lat":43.26471,"lon":5.39579,"is_reserved":false,"is_disabled":false,"rental_uris":{"android":"levelo://app?vid=9cb5e3ee-fd12-4cab-b80a-85056c35a27d","ios":"levelo://app?vid=9cb5e3ee-fd12-4cab-b80a-85056c35a27d"},"vehicle_type_id":"4","last_reported":1735099879,"current_range_meters":37600,"station_id":"ce4bhi12rcd13ifvqfq0","pricing_plan_id":"cebpf4jnsgd1na2vs0mg"},{"bike_id":"4ed0cabe-875c-4ebe-ad34-74644f479788","system_id":"levelo_inurba_marseille","lat":43.27669,"lon":5.38882,"is_reserved":false,"is_disabled":false,"rental_uris":{"android":"levelo://app?vid=4ed0cabe-875c-4ebe-ad34-74644f479788","ios":"levelo://app?vid=4ed0cabe-875c-4ebe-ad34-74644f479788"},"vehicle_type_id":"4","last_reported":1735099879,"current_range_meters":22800,"station_id":"ce4bhi12rcd13ifvqfo0","pricing_plan_id":"cebpf4jnsgd1na2vs0mg"},{"bike_id":"c2b13e1f-27c5-4ff9-b780-21ce47c387ee","system_id":"levelo_inurba_marseille","lat":43.2318,"lon":5.3999,"is_reserved":false,"is_disabled":false,"rental_uris":{"android":"levelo://app?vid=c2b13e1f-27c5-4ff9-b780-21ce47c387ee","ios":"levelo://app?vid=c2b13e1f-27c5-4ff9-b780-21ce47c387ee"},"vehicle_type_id":"4","last_reported":1735099879,"current_range_meters":38800,"station_id":"ce4bhn12rcd13ifvqgqg","pricing_plan_id":"cebpf4jnsgd1na2vs0mg"},{"bike_id":"836d944f-6d75-4c17-b70a-d071158594dd","system_id":"levelo_inurba_marseille","lat":43.27426,"lon":5.3942,"is_reserved":false,"is_disabled":false,"rental_uris":{"android":"levelo://app?vid=836d944f-6d75-4c17-b70a-d071158594dd","ios":"levelo://app?vid=836d944f-6d75-4c17-b70a-d071158594dd"},"vehicle_type_id":"4","last_reported":1735099879,"current_range_meters":31200,"station_id":"ce4bhdp2rcd13ifvqf20","pricing_plan_id":"cebpf4jnsgd1na2vs0mg"},{"bike_id":"83266379-37de-4908-b393-db3ef6bd1008","system_id":"levelo_inurba_marseille","lat":43.288482,"lon":5.358656,"is_reserved":false,"is_disabled":false,"rental_uris":{"android":"levelo://app?vid=83266379-37de-4908-b393-db3ef6bd1008","ios":"levelo://app?vid=83266379-37de-4908-b393-db3ef6bd1008"},"vehicle_type_id":"4","last_reported":1735099879,"current_range_meters":38800,"station_id":"ce4bhb12rcd13ifvqem0","pricing_plan_id":"cebpf4jnsgd1na2vs0mg"},{"bike_id":"13c39096-92de-47dd-a9ee-5b5cda0c5bbc","system_id":"levelo_inurba_marseille","lat":43.246479,"lon":5.388935,"is_reserved":false,"is_disabled":false,"rental_uris":{"android":"levelo://app?vid=13c39096-92de-47dd-a9ee-5b5cda0c5bbc","ios":"levelo://app?vid=13c39096-92de-47dd-a9ee-5b5cda0c5bbc"},"vehicle_type_id":"4","last_reported":1735099879,"current_range_meters":28000,"station_id":"ce4bhg12rcd13ifvqf60","pricing_plan_id":"cebpf4jnsgd1na2vs0mg"},{"bike_id":"1107b56a-98a5-4a01-8449-9eba086fee5a","system_id":"levelo_inurba_marseille","lat":43.29068,"lon":5.39891,"is_reserved":false,"is_disabled":false,"rental_uris":{"android":"levelo://app?vid=1107b56a-98a5-4a01-8449-9eba086fee5a","ios":"levelo://app?vid=1107b56a-98a5-4a01-8449-9eba086fee5a"},"vehicle_type_id":"4","last_reported":1735099879,"current_range_meters":24000,"station_id":"","pricing_plan_id":"cebpf4jnsgd1na2vs0mg"},{"bike_id":"21834ec0-2f02-45b5-b3ef-1dcac3adfa8f","system_id":"levelo_inurba_marseille","lat":43.31114,"lon":5.3777,"is_reserved":false,"is_disabled":false,"rental_uris":{"android":"levelo://app?vid=21834ec0-2f02-45b5-b3ef-1dcac3adfa8f","ios":"levelo://app?vid=21834ec0-2f02-45b5-b3ef-1dcac3adfa8f"},"vehicle_type_id":"4","last_reported":1735099879,"current_range_meters":39200,"station_id":"ce4bgt92rcd13ifvqcg0","pricing_plan_id":"cebpf4jnsgd1na2vs0mg"},{"bike_id":"4e4277ec-b79e-43a1-bae0-d0f951c20956","system_id":"levelo_inurba_marseille","lat":43.29779,"lon":5.3935,"is_reserved":false,"is_disabled":false,"rental_uris":{"android":"levelo://app?vid=4e4277ec-b79e-43a1-bae0-d0f951c20956","ios":"levelo://app?vid=4e4277ec-b79e-43a1-bae0-d0f951c20956"},"vehicle_type_id":"4","last_reported":1735099879,"current_range_meters":38800,"station_id":"chh1huq6cuj3fo74tm60","pricing_plan_id":"cebpf4jnsgd1na2vs0mg"},{"bike_id":"ac2aee16-50b3-41ee-a57d-f3da25ff9a0f","system_id":"levelo_inurba_marseille","lat":43.28681,"lon":5.38685,"is_reserved":false,"is_disabled":false,"rental_uris":{"android":"levelo://app?vid=ac2aee16-50b3-41ee-a57d-f3da25ff9a0f","ios":"levelo://app?vid=ac2aee16-50b3-41ee-a57d-f3da25ff9a0f"},"vehicle_type_id":"4","last_reported":1735099879,"current_range_meters":36400,"station_id":"ce4bh492rcd13ifvqdug","pricing_plan_id":"cebpf4jnsgd1na2vs0mg"},{"bike_id":"6f68edfd-fb24-4919-b968-971a44d10505","system_id":"levelo_inurba_marseille","lat":43.33764,"lon":5.39167,"is_reserved":false,"is_disabled":false,"rental_uris":{"android":"levelo://app?vid=6f68edfd-fb24-4919-b968-971a44d10505","ios":"levelo://app?vid=6f68edfd-fb24-4919-b968-971a44d10505"},"vehicle_type_id":"4","last_reported":1735099879,"current_range_meters":38400,"station_id":"ce4bhr92rcd13ifvqhsg","pricing_plan_id":"cebpf4jnsgd1na2vs0mg"},{"bike_id":"701a41ae-cc9c-4355-9ab3-3df20dac2c0e","system_id":"levelo_inurba_marseille","lat":43.29584,"lon":5.37501,"is_reserved":false,"is_disabled":false,"rental_uris":{"android":"levelo://app?vid=701a41ae-cc9c-4355-9ab3-3df20dac2c0e","ios":"levelo://app?vid=701a41ae-cc9c-4355-9ab3-3df20dac2c0e"},"vehicle_type_id":"4","last_reported":1735099879,"current_range_meters":34000,"station_id":"ce4bgh92rcd13ifvqb50","pricing_plan_id":"cebpf4jnsgd1na2vs0mg"},{"bike_id":"0a12f8eb-66bd-4951-8c87-6397f265a7c7","system_id":"levelo_inurba_marseille","lat":43.29724,"lon":5.36621,"is_reserved":false,"is_disabled":false,"rental_uris":{"android":"levelo://app?vid=0a12f8eb-66bd-4951-8c87-6397f265a7c7","ios":"levelo://app?vid=0a12f8eb-66bd-4951-8c87-6397f265a7c7"},"vehicle_type_id":"4","last_reported":1735099879,"current_range_meters":38800,"station_id":"ce4bgn12rcd13ifvqbt0","pricing_plan_id":"cebpf4jnsgd1na2vs0mg"},{"bike_id":"081617f2-352d-433d-abf2-e1c0c70491b7","system_id":"levelo_inurba_marseille","lat":43.2731,"lon":5.39098,"is_reserved":false,"is_disabled":false,"rental_uris":{"android":"levelo://app?vid=081617f2-352d-433d-abf2-e1c0c70491b7","ios":"levelo://app?vid=081617f2-352d-433d-abf2-e1c0c70491b7"},"vehicle_type_id":"4","last_reported":1735099879,"current_range_meters":38800,"station_id":"ce4bhgp2rcd13ifvqfe0","pricing_plan_id":"cebpf4jnsgd1na2vs0mg"},{"bike_id":"927c9afb-72ed-4ae3-a106-81664712a859","system_id":"levelo_inurba_marseille","lat":43.26928,"lon":5.38913,"is_reserved":false,"is_disabled":false,"rental_uris":{"android":"levelo://app?vid=927c9afb-72ed-4ae3-a106-81664712a859","ios":"levelo://app?vid=927c9afb-72ed-4ae3-a106-81664712a859"},"vehicle_type_id":"4","last_reported":1735099879,"current_range_meters":38000,"station_id":"ce4bhhh2rcd13ifvqfl0","pricing_plan_id":"cebpf4jnsgd1na2vs0mg"},{"bike_id":"4e6d0ca2-6374-490a-b48e-6cba90785a4f","system_id":"levelo_inurba_marseille","lat":43.246469,"lon":5.388949,"is_reserved":false,"is_disabled":false,"rental_uris":{"android":"levelo://app?vid=4e6d0ca2-6374-490a-b48e-6cba90785a4f","ios":"levelo://app?vid=4e6d0ca2-6374-490a-b48e-6cba90785a4f"},"vehicle_type_id":"4","last_reported":1735099879,"current_range_meters":18800,"station_id":"ce4bhg12rcd13ifvqf60","pricing_plan_id":"cebpf4jnsgd1na2vs0mg"},{"bike_id":"7270ea80-0eed-45f3-91ed-5899cab5719a","system_id":"levelo_inurba_marseille","lat":43.308856,"lon":5.371984,"is_reserved":false,"is_disabled":false,"rental_uris":{"android":"levelo://app?vid=7270ea80-0eed-45f3-91ed-5899cab5719a","ios":"levelo://app?vid=7270ea80-0eed-45f3-91ed-5899cab5719a"},"vehicle_type_id":"4","last_reported":1735099879,"current_range_meters":38400,"station_id":"ce4bguh2rcd13ifvqckg","pricing_plan_id":"cebpf4jnsgd1na2vs0mg"},{"bike_id":"a2da62ed-c4ca-4443-a1a1-134c277a106e","system_id":"levelo_inurba_marseille","lat":43.2694,"lon":5.40251,"is_reserved":false,"is_disabled":false,"rental_uris":{"android":"levelo://app?vid=a2da62ed-c4ca-4443-a1a1-134c277a106e","ios":"levelo://app?vid=a2da62ed-c4ca-4443-a1a1-134c277a106e"},"vehicle_type_id":"4","last_reported":1735099879,"current_range_meters":31200,"station_id":"cjm6bp8fraef2m0cb0m0","pricing_plan_id":"cebpf4jnsgd1na2vs0mg"},{"bike_id":"d1d72a74-b611-4e0e-9b28-42c2fc95b34d","system_id":"levelo_inurba_marseille","lat":43.31063,"lon":5.3835,"is_reserved":false,"is_disabled":false,"rental_uris":{"android":"levelo://app?vid=d1d72a74-b611-4e0e-9b28-42c2fc95b34d","ios":"levelo://app?vid=d1d72a74-b611-4e0e-9b28-42c2fc95b34d"},"vehicle_type_id":"4","last_reported":1735099879,"current_range_meters":18800,"station_id":"ce4bgv92rcd13ifvqcr0","pricing_plan_id":"cebpf4jnsgd1na2vs0mg"},{"bike_id":"b60afeb8-f744-4162-9ce6-9a0121ae1831","system_id":"levelo_inurba_marseille","lat":43.30902,"lon":5.39629,"is_reserved":false,"is_disabled":false,"rental_uris":{"android":"levelo://app?vid=b60afeb8-f744-4162-9ce6-9a0121ae1831","ios":"levelo://app?vid=b60afeb8-f744-4162-9ce6-9a0121ae1831"},"vehicle_type_id":"4","last_reported":1735099879,"current_range_meters":37600,"station_id":"ce4bh012rcd13ifvqcv0","pricing_plan_id":"cebpf4jnsgd1na2vs0mg"},{"bike_id":"d74a540a-4d93-448c-ace1-d7796f43408b","system_id":"levelo_inurba_marseille","lat":43.27214,"lon":5.39167,"is_reserved":false,"is_disabled":false,"rental_uris":{"android":"levelo://app?vid=d74a540a-4d93-448c-ace1-d7796f43408b","ios":"levelo://app?vid=d74a540a-4d93-448c-ace1-d7796f43408b"},"vehicle_type_id":"4","last_reported":1735099879,"current_range_meters":30800,"station_id":"ce4bhhp2rcd13ifvqfm0","pricing_plan_id":"cebpf4jnsgd1na2vs0mg"},{"bike_id":"ba65d07a-204d-4be9-96e0-b91b2ca6d251","system_id":"levelo_inurba_marseille","lat":43.26932,"lon":5.40252,"is_reserved":false,"is_disabled":false,"rental_uris":{"android":"levelo://app?vid=ba65d07a-204d-4be9-96e0-b91b2ca6d251","ios":"levelo://app?vid=ba65d07a-204d-4be9-96e0-b91b2ca6d251"},"vehicle_type_id":"4","last_reported":1735099879,"current_range_meters":38800,"station_id":"cjm6bp8fraef2m0cb0m0","pricing_plan_id":"cebpf4jnsgd1na2vs0mg"},{"bike_id":"5ca093cb-437c-4e7d-bc7e-09c7ab1b0f93","system_id":"levelo_inurba_marseille","lat":43.299069,"lon":5.374663,"is_reserved":false,"is_disabled":false,"rental_uris":{"android":"levelo://app?vid=5ca093cb-437c-4e7d-bc7e-09c7ab1b0f93","ios":"levelo://app?vid=5ca093cb-437c-4e7d-bc7e-09c7ab1b0f93"},"vehicle_type_id":"4","last_reported":1735099879,"current_range_meters":37600,"station_id":"ce4bgjh2rcd13ifvqbg0","pricing_plan_id":"cebpf4jnsgd1na2vs0mg"},{"bike_id":"43472636-57cd-411f-b3bd-d2bda7647d04","system_id":"levelo_inurba_marseille","lat":43.26937,"lon":5.40254,"is_reserved":false,"is_disabled":false,"rental_uris":{"android":"levelo://app?vid=43472636-57cd-411f-b3bd-d2bda7647d04","ios":"levelo://app?vid=43472636-57cd-411f-b3bd-d2bda7647d04"},"vehicle_type_id":"4","last_reported":1735099879,"current_range_meters":38800,"station_id":"cjm6bp8fraef2m0cb0m0","pricing_plan_id":"cebpf4jnsgd1na2vs0mg"},{"bike_id":"e9ba0a83-93bd-4576-9168-5cc6cd4c54ad","system_id":"levelo_inurba_marseille","lat":43.24807,"lon":5.37444,"is_reserved":false,"is_disabled":false,"rental_uris":{"android":"levelo://app?vid=e9ba0a83-93bd-4576-9168-5cc6cd4c54ad","ios":"levelo://app?vid=e9ba0a83-93bd-4576-9168-5cc6cd4c54ad"},"vehicle_type_id":"4","last_reported":1735099879,"current_range_meters":8400,"station_id":"ce4bhgh2rcd13ifvqfb0","pricing_plan_id":"cebpf4jnsgd1na2vs0mg"},{"bike_id":"ea65f42c-ded6-41f7-9f7f-3e7789f5ca39","system_id":"levelo_inurba_marseille","lat":43.3111,"lon":5.37761,"is_reserved":false,"is_disabled":false,"rental_uris":{"android":"levelo://app?vid=ea65f42c-ded6-41f7-9f7f-3e7789f5ca39","ios":"levelo://app?vid=ea65f42c-ded6-41f7-9f7f-3e7789f5ca39"},"vehicle_type_id":"4","last_reported":1735099879,"current_range_meters":35200,"station_id":"ce4bgt92rcd13ifvqcg0","pricing_plan_id":"cebpf4jnsgd1na2vs0mg"},{"bike_id":"6a8570d1-eb04-4587-aa7b-7e8a4cf28911","system_id":"levelo_inurba_marseille","lat":43.31325,"lon":5.39698,"is_reserved":false,"is_disabled":false,"rental_uris":{"android":"levelo://app?vid=6a8570d1-eb04-4587-aa7b-7e8a4cf28911","ios":"levelo://app?vid=6a8570d1-eb04-4587-aa7b-7e8a4cf28911"},"vehicle_type_id":"4","last_reported":1735099879,"current_range_meters":38400,"station_id":"ce4bgvp2rcd13ifvqcu0","pricing_plan_id":"cebpf4jnsgd1na2vs0mg"},{"bike_id":"58975c95-cbcc-4de2-ac6a-2c5c03741a00","system_id":"levelo_inurba_marseille","lat":43.27058,"lon":5.42282,"is_reserved":false,"is_disabled":false,"rental_uris":{"android":"levelo://app?vid=58975c95-cbcc-4de2-ac6a-2c5c03741a00","ios":"levelo://app?vid=58975c95-cbcc-4de2-ac6a-2c5c03741a00"},"vehicle_type_id":"4","last_reported":1735099879,"current_range_meters":38800,"station_id":"ce4bhk92rcd13ifvqgb0","pricing_plan_id":"cebpf4jnsgd1na2vs0mg"},{"bike_id":"efc7c228-42f5-4f3b-8ce8-2805c6b97d17","system_id":"levelo_inurba_marseille","lat":43.33816,"lon":5.40754,"is_reserved":false,"is_disabled":false,"rental_uris":{"android":"levelo://app?vid=efc7c228-42f5-4f3b-8ce8-2805c6b97d17","ios":"levelo://app?vid=efc7c228-42f5-4f3b-8ce8-2805c6b97d17"},"vehicle_type_id":"4","last_reported":1735099879,"current_range_meters":28000,"station_id":"","pricing_plan_id":"cebpf4jnsgd1na2vs0mg"},{"bike_id":"6acd59a7-8f7c-4599-aa0b-64fd7d521194","system_id":"levelo_inurba_marseille","lat":43.30416,"lon":5.3975,"is_reserved":false,"is_disabled":false,"rental_uris":{"android":"levelo://app?vid=6acd59a7-8f7c-4599-aa0b-64fd7d521194","ios":"levelo://app?vid=6acd59a7-8f7c-4599-aa0b-64fd7d521194"},"vehicle_type_id":"4","last_reported":1735099879,"current_range_meters":38000,"station_id":"ce4bh092rcd13ifvqd20","pricing_plan_id":"cebpf4jnsgd1na2vs0mg"},{"bike_id":"38ba7ba9-8653-4e7e-bbef-80cd83235a3d","system_id":"levelo_inurba_marseille","lat":43.29526,"lon":5.38548,"is_reserved":false,"is_disabled":false,"rental_uris":{"android":"levelo://app?vid=38ba7ba9-8653-4e7e-bbef-80cd83235a3d","ios":"levelo://app?vid=38ba7ba9-8653-4e7e-bbef-80cd83235a3d"},"vehicle_type_id":"4","last_reported":1735099879,"current_range_meters":38800,"station_id":"ce4bgih2rcd13ifvqba0","pricing_plan_id":"cebpf4jnsgd1na2vs0mg"},{"bike_id":"00e0742d-d71f-4a86-841a-80701d1e7b61","system_id":"levelo_inurba_marseille","lat":43.246701,"lon":5.381566,"is_reserved":false,"is_disabled":false,"rental_uris":{"android":"levelo://app?vid=00e0742d-d71f-4a86-841a-80701d1e7b61","ios":"levelo://app?vid=00e0742d-d71f-4a86-841a-80701d1e7b61"},"vehicle_type_id":"4","last_reported":1735099879,"current_range_meters":38800,"station_id":"ce4bhih2rcd13ifvqfr0","pricing_plan_id":"cebpf4jnsgd1na2vs0mg"},{"bike_id":"fb0e6359-3fe6-4009-9014-99d06d5c7222","system_id":"levelo_inurba_marseille","lat":43.29621,"lon":5.37153,"is_reserved":false,"is_disabled":false,"rental_uris":{"android":"levelo://app?vid=fb0e6359-3fe6-4009-9014-99d06d5c7222","ios":"levelo://app?vid=fb0e6359-3fe6-4009-9014-99d06d5c7222"},"vehicle_type_id":"4","last_reported":1735099879,"current_range_meters":38000,"station_id":"ce4bgnh2rcd13ifvqc0g","pricing_plan_id":"cebpf4jnsgd1na2vs0mg"},{"bike_id":"d7e221e7-fc01-4da3-b9ee-a8982a7498f9","system_id":"levelo_inurba_marseille","lat":43.303181,"lon":5.368944,"is_reserved":false,"is_disabled":false,"rental_uris":{"android":"levelo://app?vid=d7e221e7-fc01-4da3-b9ee-a8982a7498f9","ios":"levelo://app?vid=d7e221e7-fc01-4da3-b9ee-a8982a7498f9"},"vehicle_type_id":"4","last_reported":1735099879,"current_range_meters":36800,"station_id":"ce4bgqh2rcd13ifvqc5g","pricing_plan_id":"cebpf4jnsgd1na2vs0mg"},{"bike_id":"d93032f6-8f4e-4faf-9212-d96bb4bca970","system_id":"levelo_inurba_marseille","lat":43.2873,"lon":5.36081,"is_reserved":false,"is_disabled":false,"rental_uris":{"android":"levelo://app?vid=d93032f6-8f4e-4faf-9212-d96bb4bca970","ios":"levelo://app?vid=d93032f6-8f4e-4faf-9212-d96bb4bca970"},"vehicle_type_id":"4","last_reported":1735099879,"current_range_meters":38800,"station_id":"cki0cbj6b192h4jlfktg","pricing_plan_id":"cebpf4jnsgd1na2vs0mg"},{"bike_id":"40ae8cb8-e49e-4a0f-a442-f25bcd7620a2","system_id":"levelo_inurba_marseille","lat":43.30416,"lon":5.39753,"is_reserved":false,"is_disabled":false,"rental_uris":{"android":"levelo://app?vid=40ae8cb8-e49e-4a0f-a442-f25bcd7620a2","ios":"levelo://app?vid=40ae8cb8-e49e-4a0f-a442-f25bcd7620a2"},"vehicle_type_id":"4","last_reported":1735099879,"current_range_meters":38000,"station_id":"ce4bh092rcd13ifvqd20","pricing_plan_id":"cebpf4jnsgd1na2vs0mg"},{"bike_id":"c53e66df-8257-4398-a60b-2cac86243673","system_id":"levelo_inurba_marseille","lat":43.32657,"lon":5.40994,"is_reserved":false,"is_disabled":false,"rental_uris":{"android":"levelo://app?vid=c53e66df-8257-4398-a60b-2cac86243673","ios":"levelo://app?vid=c53e66df-8257-4398-a60b-2cac86243673"},"vehicle_type_id":"4","last_reported":1735099879,"current_range_meters":38800,"station_id":"ce4bhpp2rcd13ifvqhgg","pricing_plan_id":"cebpf4jnsgd1na2vs0mg"},{"bike_id":"1601cb4d-c6b7-4894-b7f8-eeab49590138","system_id":"levelo_inurba_marseille","lat":43.26556,"lon":5.37291,"is_reserved":false,"is_disabled":false,"rental_uris":{"android":"levelo://app?vid=1601cb4d-c6b7-4894-b7f8-eeab49590138","ios":"levelo://app?vid=1601cb4d-c6b7-4894-b7f8-eeab49590138"},"vehicle_type_id":"4","last_reported":1735099879,"current_range_meters":35600,"station_id":"ce4bhg12rcd13ifvqf70","pricing_plan_id":"cebpf4jnsgd1na2vs0mg"},{"bike_id":"1f51b21d-3179-4324-a3f5-a296554cea4d","system_id":"levelo_inurba_marseille","lat":43.27806,"lon":5.40702,"is_reserved":false,"is_disabled":false,"rental_uris":{"android":"levelo://app?vid=1f51b21d-3179-4324-a3f5-a296554cea4d","ios":"levelo://app?vid=1f51b21d-3179-4324-a3f5-a296554cea4d"},"vehicle_type_id":"4","last_reported":1735099879,"current_range_meters":38800,"station_id":"ce4bhnh2rcd13ifvqgtg","pricing_plan_id":"cebpf4jnsgd1na2vs0mg"},{"bike_id":"aa5d5d16-a2f6-4c81-8cd4-c9ee96949ae4","system_id":"levelo_inurba_marseille","lat":43.23186,"lon":5.39974,"is_reserved":false,"is_disabled":false,"rental_uris":{"android":"levelo://app?vid=aa5d5d16-a2f6-4c81-8cd4-c9ee96949ae4","ios":"levelo://app?vid=aa5d5d16-a2f6-4c81-8cd4-c9ee96949ae4"},"vehicle_type_id":"4","last_reported":1735099879,"current_range_meters":38800,"station_id":"ce4bhn12rcd13ifvqgqg","pricing_plan_id":"cebpf4jnsgd1na2vs0mg"},{"bike_id":"13721f9d-26f3-4f48-9c74-f57a74e3951e","system_id":"levelo_inurba_marseille","lat":43.260303,"lon":5.375482,"is_reserved":false,"is_disabled":false,"rental_uris":{"android":"levelo://app?vid=13721f9d-26f3-4f48-9c74-f57a74e3951e","ios":"levelo://app?vid=13721f9d-26f3-4f48-9c74-f57a74e3951e"},"vehicle_type_id":"4","last_reported":1735099879,"current_range_meters":38800,"station_id":"ce4bhgh2rcd13ifvqfa0","pricing_plan_id":"cebpf4jnsgd1na2vs0mg"},{"bike_id":"8a820efc-7584-4e57-bc6f-471c5345d18f","system_id":"levelo_inurba_marseille","lat":43.28469,"lon":5.384139,"is_reserved":false,"is_disabled":false,"rental_uris":{"android":"levelo://app?vid=8a820efc-7584-4e57-bc6f-471c5345d18f","ios":"levelo://app?vid=8a820efc-7584-4e57-bc6f-471c5345d18f"},"vehicle_type_id":"4","last_reported":1735099879,"current_range_meters":38000,"station_id":"ce4bh512rcd13ifvqe3g","pricing_plan_id":"cebpf4jnsgd1na2vs0mg"},{"bike_id":"38afd6fe-b6ff-4172-983e-6bea61656424","system_id":"levelo_inurba_marseille","lat":43.29261,"lon":5.38439,"is_reserved":false,"is_disabled":false,"rental_uris":{"android":"levelo://app?vid=38afd6fe-b6ff-4172-983e-6bea61656424","ios":"levelo://app?vid=38afd6fe-b6ff-4172-983e-6bea61656424"},"vehicle_type_id":"4","last_reported":1735099879,"current_range_meters":18800,"station_id":"ce4bh692rcd13ifvqea0","pricing_plan_id":"cebpf4jnsgd1na2vs0mg"},{"bike_id":"bea19fdb-8eb3-4f91-a4cd-d59bd8812761","system_id":"levelo_inurba_marseille","lat":43.23147,"lon":5.43712,"is_reserved":false,"is_disabled":false,"rental_uris":{"android":"levelo://app?vid=bea19fdb-8eb3-4f91-a4cd-d59bd8812761","ios":"levelo://app?vid=bea19fdb-8eb3-4f91-a4cd-d59bd8812761"},"vehicle_type_id":"4","last_reported":1735099879,"current_range_meters":36800,"station_id":"ce4bhmp2rcd13ifvqgog","pricing_plan_id":"cebpf4jnsgd1na2vs0mg"},{"bike_id":"d7083b66-8af0-4c6b-8299-5b0c4e022bd2","system_id":"levelo_inurba_marseille","lat":43.27995,"lon":5.40012,"is_reserved":false,"is_disabled":false,"rental_uris":{"android":"levelo://app?vid=d7083b66-8af0-4c6b-8299-5b0c4e022bd2","ios":"levelo://app?vid=d7083b66-8af0-4c6b-8299-5b0c4e022bd2"},"vehicle_type_id":"4","last_reported":1735099879,"current_range_meters":30400,"station_id":"ce4bho92rcd13ifvqh4g","pricing_plan_id":"cebpf4jnsgd1na2vs0mg"},{"bike_id":"673ed0fe-3027-4e1f-9efc-2804b0e32190","system_id":"levelo_inurba_marseille","lat":43.26687,"lon":5.38279,"is_reserved":false,"is_disabled":false,"rental_uris":{"android":"levelo://app?vid=673ed0fe-3027-4e1f-9efc-2804b0e32190","ios":"levelo://app?vid=673ed0fe-3027-4e1f-9efc-2804b0e32190"},"vehicle_type_id":"4","last_reported":1735099879,"current_range_meters":30000,"station_id":"ce4bhg92rcd13ifvqf90","pricing_plan_id":"cebpf4jnsgd1na2vs0mg"},{"bike_id":"6301200f-0a21-434a-9aaa-37a5ff71b851","system_id":"levelo_inurba_marseille","lat":43.262,"lon":5.3743,"is_reserved":false,"is_disabled":false,"rental_uris":{"android":"levelo://app?vid=6301200f-0a21-434a-9aaa-37a5ff71b851","ios":"levelo://app?vid=6301200f-0a21-434a-9aaa-37a5ff71b851"},"vehicle_type_id":"4","last_reported":1735099879,"current_range_meters":20000,"station_id":"ce4bhgp2rcd13ifvqfc0","pricing_plan_id":"cebpf4jnsgd1na2vs0mg"},{"bike_id":"3673e8e0-cf22-48be-b1b1-4e1ef08ae924","system_id":"levelo_inurba_marseille","lat":43.2961,"lon":5.381,"is_reserved":false,"is_disabled":false,"rental_uris":{"android":"levelo://app?vid=3673e8e0-cf22-48be-b1b1-4e1ef08ae924","ios":"levelo://app?vid=3673e8e0-cf22-48be-b1b1-4e1ef08ae924"},"vehicle_type_id":"4","last_reported":1735099879,"current_range_meters":36800,"station_id":"ce4bgl12rcd13ifvqbo0","pricing_plan_id":"cebpf4jnsgd1na2vs0mg"},{"bike_id":"18bae43d-db69-4109-bad1-67a273db86d7","system_id":"levelo_inurba_marseille","lat":43.30147,"lon":5.38779,"is_reserved":false,"is_disabled":false,"rental_uris":{"android":"levelo://app?vid=18bae43d-db69-4109-bad1-67a273db86d7","ios":"levelo://app?vid=18bae43d-db69-4109-bad1-67a273db86d7"},"vehicle_type_id":"4","last_reported":1735099879,"current_range_meters":4800,"station_id":"ce4bhoh2rcd13ifvqh6g","pricing_plan_id":"cebpf4jnsgd1na2vs0mg"},{"bike_id":"6aef2f85-7696-4b6e-a1df-688d463921e5","system_id":"levelo_inurba_marseille","lat":43.29715,"lon":5.36586,"is_reserved":false,"is_disabled":false,"rental_uris":{"android":"levelo://app?vid=6aef2f85-7696-4b6e-a1df-688d463921e5","ios":"levelo://app?vid=6aef2f85-7696-4b6e-a1df-688d463921e5"},"vehicle_type_id":"4","last_reported":1735099879,"current_range_meters":29600,"station_id":"ce4bgn12rcd13ifvqbt0","pricing_plan_id":"cebpf4jnsgd1na2vs0mg"},{"bike_id":"8aa29a25-71b0-47b4-8794-3774a275bf08","system_id":"levelo_inurba_marseille","lat":43.27178,"lon":5.409865,"is_reserved":false,"is_disabled":false,"rental_uris":{"android":"levelo://app?vid=8aa29a25-71b0-47b4-8794-3774a275bf08","ios":"levelo://app?vid=8aa29a25-71b0-47b4-8794-3774a275bf08"},"vehicle_type_id":"4","last_reported":1735099879,"current_range_meters":10800,"station_id":"ce4bhl12rcd13ifvqgf0","pricing_plan_id":"cebpf4jnsgd1na2vs0mg"},{"bike_id":"50771762-6294-492b-bae5-db8bd88e73ed","system_id":"levelo_inurba_marseille","lat":43.27433,"lon":5.394,"is_reserved":false,"is_disabled":false,"rental_uris":{"android":"levelo://app?vid=50771762-6294-492b-bae5-db8bd88e73ed","ios":"levelo://app?vid=50771762-6294-492b-bae5-db8bd88e73ed"},"vehicle_type_id":"4","last_reported":1735099879,"current_range_meters":38000,"station_id":"ce4bhdp2rcd13ifvqf20","pricing_plan_id":"cebpf4jnsgd1na2vs0mg"},{"bike_id":"ff0a833a-d938-44db-808d-2697dd8f9d04","system_id":"levelo_inurba_marseille","lat":43.28565,"lon":5.39501,"is_reserved":false,"is_disabled":false,"rental_uris":{"android":"levelo://app?vid=ff0a833a-d938-44db-808d-2697dd8f9d04","ios":"levelo://app?vid=ff0a833a-d938-44db-808d-2697dd8f9d04"},"vehicle_type_id":"4","last_reported":1735099879,"current_range_meters":38800,"station_id":"ce4bh292rcd13ifvqdg0","pricing_plan_id":"cebpf4jnsgd1na2vs0mg"},{"bike_id":"dba4252a-6ac0-4a91-a8ed-2c817b386ed4","system_id":"levelo_inurba_marseille","lat":43.30114,"lon":5.3743,"is_reserved":false,"is_disabled":true,"rental_uris":{"android":"levelo://app?vid=dba4252a-6ac0-4a91-a8ed-2c817b386ed4","ios":"levelo://app?vid=dba4252a-6ac0-4a91-a8ed-2c817b386ed4"},"vehicle_type_id":"4","last_reported":1735099879,"current_range_meters":8400,"station_id":"ce4bgs92rcd13ifvqcc0","pricing_plan_id":"cebpf4jnsgd1na2vs0mg"},{"bike_id":"79daacaf-40c6-41bf-8b74-c5c9a9bb7597","system_id":"levelo_inurba_marseille","lat":43.28826,"lon":5.39336,"is_reserved":false,"is_disabled":true,"rental_uris":{"android":"levelo://app?vid=79daacaf-40c6-41bf-8b74-c5c9a9bb7597","ios":"levelo://app?vid=79daacaf-40c6-41bf-8b74-c5c9a9bb7597"},"vehicle_type_id":"4","last_reported":1735099879,"current_range_meters":22000,"station_id":"ce4bh2p2rcd13ifvqdi0","pricing_plan_id":"cebpf4jnsgd1na2vs0mg"},{"bike_id":"82719b16-0394-44a1-963a-3161d6b762b8","system_id":"levelo_inurba_marseille","lat":43.29612,"lon":5.37162,"is_reserved":false,"is_disabled":false,"rental_uris":{"android":"levelo://app?vid=82719b16-0394-44a1-963a-3161d6b762b8","ios":"levelo://app?vid=82719b16-0394-44a1-963a-3161d6b762b8"},"vehicle_type_id":"4","last_reported":1735099879,"current_range_meters":38400,"station_id":"ce4bgnh2rcd13ifvqc0g","pricing_plan_id":"cebpf4jnsgd1na2vs0mg"},{"bike_id":"e17a11e0-b3c6-47c1-be20-5643d7d7457e","system_id":"levelo_inurba_marseille","lat":43.312722,"lon":5.401771,"is_reserved":false,"is_disabled":false,"rental_uris":{"android":"levelo://app?vid=e17a11e0-b3c6-47c1-be20-5643d7d7457e","ios":"levelo://app?vid=e17a11e0-b3c6-47c1-be20-5643d7d7457e"},"vehicle_type_id":"4","last_reported":1735099879,"current_range_meters":37600,"station_id":"ce4bh092rcd13ifvqd30","pricing_plan_id":"cebpf4jnsgd1na2vs0mg"},{"bike_id":"c5315344-fd5d-41fb-a9a2-9d011cd33821","system_id":"levelo_inurba_marseille","lat":43.31497,"lon":5.37289,"is_reserved":false,"is_disabled":false,"rental_uris":{"android":"levelo://app?vid=c5315344-fd5d-41fb-a9a2-9d011cd33821","ios":"levelo://app?vid=c5315344-fd5d-41fb-a9a2-9d011cd33821"},"vehicle_type_id":"4","last_reported":1735099879,"current_range_meters":10000,"station_id":"ce4bgt12rcd13ifvqcd0","pricing_plan_id":"cebpf4jnsgd1na2vs0mg"},{"bike_id":"af0b1ef8-a807-4b05-8aca-f6c986c6d4b6","system_id":"levelo_inurba_marseille","lat":43.33609,"lon":5.41032,"is_reserved":false,"is_disabled":false,"rental_uris":{"android":"levelo://app?vid=af0b1ef8-a807-4b05-8aca-f6c986c6d4b6","ios":"levelo://app?vid=af0b1ef8-a807-4b05-8aca-f6c986c6d4b6"},"vehicle_type_id":"4","last_reported":1735099879,"current_range_meters":26800,"station_id":"ce4bhqh2rcd13ifvqhmg","pricing_plan_id":"cebpf4jnsgd1na2vs0mg"},{"bike_id":"4a35463d-6286-4212-a2c7-04e728adcd62","system_id":"levelo_inurba_marseille","lat":43.28103,"lon":5.37836,"is_reserved":false,"is_disabled":false,"rental_uris":{"android":"levelo://app?vid=4a35463d-6286-4212-a2c7-04e728adcd62","ios":"levelo://app?vid=4a35463d-6286-4212-a2c7-04e728adcd62"},"vehicle_type_id":"4","last_reported":1735099879,"current_range_meters":38800,"station_id":"ce4bha12rcd13ifvqee0","pricing_plan_id":"cebpf4jnsgd1na2vs0mg"},{"bike_id":"9e57916c-72d8-4475-97bc-a8057a01ff62","system_id":"levelo_inurba_marseille","lat":43.29308,"lon":5.371616,"is_reserved":false,"is_disabled":false,"rental_uris":{"android":"levelo://app?vid=9e57916c-72d8-4475-97bc-a8057a01ff62","ios":"levelo://app?vid=9e57916c-72d8-4475-97bc-a8057a01ff62"},"vehicle_type_id":"4","last_reported":1735099879,"current_range_meters":38000,"station_id":"ce4bgh92rcd13ifvqb40","pricing_plan_id":"cebpf4jnsgd1na2vs0mg"},{"bike_id":"83a08669-f27a-4bd6-a6e0-bea6d8f798b0","system_id":"levelo_inurba_marseille","lat":43.26923,"lon":5.4024,"is_reserved":false,"is_disabled":false,"rental_uris":{"android":"levelo://app?vid=83a08669-f27a-4bd6-a6e0-bea6d8f798b0","ios":"levelo://app?vid=83a08669-f27a-4bd6-a6e0-bea6d8f798b0"},"vehicle_type_id":"4","last_reported":1735099879,"current_range_meters":34000,"station_id":"cjm6bp8fraef2m0cb0m0","pricing_plan_id":"cebpf4jnsgd1na2vs0mg"},{"bike_id":"5baae1af-217a-4423-a342-353613e5f31d","system_id":"levelo_inurba_marseille","lat":43.337444,"lon":5.374475,"is_reserved":false,"is_disabled":false,"rental_uris":{"android":"levelo://app?vid=5baae1af-217a-4423-a342-353613e5f31d","ios":"levelo://app?vid=5baae1af-217a-4423-a342-353613e5f31d"},"vehicle_type_id":"4","last_reported":1735099879,"current_range_meters":16400,"station_id":"","pricing_plan_id":"cebpf4jnsgd1na2vs0mg"},{"bike_id":"4f5db02c-99f9-460e-a880-3ca7100df048","system_id":"levelo_inurba_marseille","lat":43.27414,"lon":5.39411,"is_reserved":false,"is_disabled":false,"rental_uris":{"android":"levelo://app?vid=4f5db02c-99f9-460e-a880-3ca7100df048","ios":"levelo://app?vid=4f5db02c-99f9-460e-a880-3ca7100df048"},"vehicle_type_id":"4","last_reported":1735099879,"current_range_meters":39200,"station_id":"ce4bhdp2rcd13ifvqf20","pricing_plan_id":"cebpf4jnsgd1na2vs0mg"},{"bike_id":"fb0e9af5-7d6b-441c-998e-0381a1fe31bb","system_id":"levelo_inurba_marseille","lat":43.25707,"lon":5.41108,"is_reserved":false,"is_disabled":false,"rental_uris":{"android":"levelo://app?vid=fb0e9af5-7d6b-441c-998e-0381a1fe31bb","ios":"levelo://app?vid=fb0e9af5-7d6b-441c-998e-0381a1fe31bb"},"vehicle_type_id":"4","last_reported":1735099879,"current_range_meters":30400,"station_id":"ce4bhkp2rcd13ifvqgd0","pricing_plan_id":"cebpf4jnsgd1na2vs0mg"},{"bike_id":"5d35556a-77eb-471a-9074-b9042a3815ab","system_id":"levelo_inurba_marseille","lat":43.29563,"lon":5.38097,"is_reserved":false,"is_disabled":false,"rental_uris":{"android":"levelo://app?vid=5d35556a-77eb-471a-9074-b9042a3815ab","ios":"levelo://app?vid=5d35556a-77eb-471a-9074-b9042a3815ab"},"vehicle_type_id":"4","last_reported":1735099879,"current_range_meters":26800,"station_id":"ce4bgl12rcd13ifvqbo0","pricing_plan_id":"cebpf4jnsgd1na2vs0mg"},{"bike_id":"537ef1bf-3a78-45af-b334-3a2c52a599a8","system_id":"levelo_inurba_marseille","lat":43.34137,"lon":5.40899,"is_reserved":false,"is_disabled":false,"rental_uris":{"android":"levelo://app?vid=537ef1bf-3a78-45af-b334-3a2c52a599a8","ios":"levelo://app?vid=537ef1bf-3a78-45af-b334-3a2c52a599a8"},"vehicle_type_id":"4","last_reported":1735099879,"current_range_meters":28800,"station_id":"ce4bhqh2rcd13ifvqhlg","pricing_plan_id":"cebpf4jnsgd1na2vs0mg"},{"bike_id":"e5ec77c8-648b-4bda-921a-2babefb619a7","system_id":"levelo_inurba_marseille","lat":43.30122,"lon":5.39897,"is_reserved":false,"is_disabled":false,"rental_uris":{"android":"levelo://app?vid=e5ec77c8-648b-4bda-921a-2babefb619a7","ios":"levelo://app?vid=e5ec77c8-648b-4bda-921a-2babefb619a7"},"vehicle_type_id":"4","last_reported":1735099879,"current_range_meters":39200,"station_id":"ce4bh0h2rcd13ifvqd40","pricing_plan_id":"cebpf4jnsgd1na2vs0mg"},{"bike_id":"d1bc7ec4-ade9-4cc0-a31b-f0fa348d319b","system_id":"levelo_inurba_marseille","lat":43.24663,"lon":5.38156,"is_reserved":false,"is_disabled":false,"rental_uris":{"android":"levelo://app?vid=d1bc7ec4-ade9-4cc0-a31b-f0fa348d319b","ios":"levelo://app?vid=d1bc7ec4-ade9-4cc0-a31b-f0fa348d319b"},"vehicle_type_id":"4","last_reported":1735099879,"current_range_meters":24400,"station_id":"ce4bhih2rcd13ifvqfr0","pricing_plan_id":"cebpf4jnsgd1na2vs0mg"},{"bike_id":"7785e49f-4377-4df0-9d86-f1e92b209f62","system_id":"levelo_inurba_marseille","lat":43.29964,"lon":5.41327,"is_reserved":false,"is_disabled":false,"rental_uris":{"android":"levelo://app?vid=7785e49f-4377-4df0-9d86-f1e92b209f62","ios":"levelo://app?vid=7785e49f-4377-4df0-9d86-f1e92b209f62"},"vehicle_type_id":"4","last_reported":1735099879,"current_range_meters":37600,"station_id":"ce4bhp12rcd13ifvqh9g","pricing_plan_id":"cebpf4jnsgd1na2vs0mg"},{"bike_id":"b07e0204-2c57-49d1-a1f7-320de8610e25","system_id":"levelo_inurba_marseille","lat":43.29402,"lon":5.37344,"is_reserved":false,"is_disabled":true,"rental_uris":{"android":"levelo://app?vid=b07e0204-2c57-49d1-a1f7-320de8610e25","ios":"levelo://app?vid=b07e0204-2c57-49d1-a1f7-320de8610e25"},"vehicle_type_id":"4","last_reported":1735099879,"current_range_meters":16800,"station_id":"","pricing_plan_id":"cebpf4jnsgd1na2vs0mg"},{"bike_id":"fdd038a4-79d5-4c95-a63d-a1c3452f83b6","system_id":"levelo_inurba_marseille","lat":43.30876,"lon":5.36868,"is_reserved":false,"is_disabled":false,"rental_uris":{"android":"levelo://app?vid=fdd038a4-79d5-4c95-a63d-a1c3452f83b6","ios":"levelo://app?vid=fdd038a4-79d5-4c95-a63d-a1c3452f83b6"},"vehicle_type_id":"4","last_reported":1735099879,"current_range_meters":35200,"station_id":"ce4bgn92rcd13ifvqbvg","pricing_plan_id":"cebpf4jnsgd1na2vs0mg"},{"bike_id":"4a002a34-1ac0-4520-a519-b8da5383ed70","system_id":"levelo_inurba_marseille","lat":43.26676,"lon":5.38267,"is_reserved":false,"is_disabled":false,"rental_uris":{"android":"levelo://app?vid=4a002a34-1ac0-4520-a519-b8da5383ed70","ios":"levelo://app?vid=4a002a34-1ac0-4520-a519-b8da5383ed70"},"vehicle_type_id":"4","last_reported":1735099879,"current_range_meters":35200,"station_id":"ce4bhg92rcd13ifvqf90","pricing_plan_id":"cebpf4jnsgd1na2vs0mg"},{"bike_id":"41632095-6d88-40a7-b2e7-bb5f6e7b1393","system_id":"levelo_inurba_marseille","lat":43.26559,"lon":5.37288,"is_reserved":false,"is_disabled":false,"rental_uris":{"android":"levelo://app?vid=41632095-6d88-40a7-b2e7-bb5f6e7b1393","ios":"levelo://app?vid=41632095-6d88-40a7-b2e7-bb5f6e7b1393"},"vehicle_type_id":"4","last_reported":1735099879,"current_range_meters":17600,"station_id":"ce4bhg12rcd13ifvqf70","pricing_plan_id":"cebpf4jnsgd1na2vs0mg"},{"bike_id":"6dd041ef-a1ba-4337-8648-b463ddf038b5","system_id":"levelo_inurba_marseille","lat":43.24815,"lon":5.37456,"is_reserved":false,"is_disabled":false,"rental_uris":{"android":"levelo://app?vid=6dd041ef-a1ba-4337-8648-b463ddf038b5","ios":"levelo://app?vid=6dd041ef-a1ba-4337-8648-b463ddf038b5"},"vehicle_type_id":"4","last_reported":1735099879,"current_range_meters":24000,"station_id":"ce4bhgh2rcd13ifvqfb0","pricing_plan_id":"cebpf4jnsgd1na2vs0mg"},{"bike_id":"178d2327-1d17-48d4-92fe-75ce7ae99db3","system_id":"levelo_inurba_marseille","lat":43.29521,"lon":5.37494,"is_reserved":false,"is_disabled":false,"rental_uris":{"android":"levelo://app?vid=178d2327-1d17-48d4-92fe-75ce7ae99db3","ios":"levelo://app?vid=178d2327-1d17-48d4-92fe-75ce7ae99db3"},"vehicle_type_id":"4","last_reported":1735099879,"current_range_meters":38400,"station_id":"ce4bgkp2rcd13ifvqbmg","pricing_plan_id":"cebpf4jnsgd1na2vs0mg"},{"bike_id":"0962cac2-9980-4216-a248-1db25f0a5b80","system_id":"levelo_inurba_marseille","lat":43.29184,"lon":5.35797,"is_reserved":false,"is_disabled":false,"rental_uris":{"android":"levelo://app?vid=0962cac2-9980-4216-a248-1db25f0a5b80","ios":"levelo://app?vid=0962cac2-9980-4216-a248-1db25f0a5b80"},"vehicle_type_id":"4","last_reported":1735099879,"current_range_meters":25200,"station_id":"ce4bhb12rcd13ifvqel0","pricing_plan_id":"cebpf4jnsgd1na2vs0mg"},{"bike_id":"d0928a2e-5cea-450a-a669-d6ca6d307f7d","system_id":"levelo_inurba_marseille","lat":43.31725,"lon":5.42395,"is_reserved":false,"is_disabled":false,"rental_uris":{"android":"levelo://app?vid=d0928a2e-5cea-450a-a669-d6ca6d307f7d","ios":"levelo://app?vid=d0928a2e-5cea-450a-a669-d6ca6d307f7d"},"vehicle_type_id":"4","last_reported":1735099879,"current_range_meters":38800,"station_id":"ce4bhp92rcd13ifvqhbg","pricing_plan_id":"cebpf4jnsgd1na2vs0mg"},{"bike_id":"a52b6a95-03b2-4a39-91a2-596fa5130c55","system_id":"levelo_inurba_marseille","lat":43.26934,"lon":5.38912,"is_reserved":false,"is_disabled":false,"rental_uris":{"android":"levelo://app?vid=a52b6a95-03b2-4a39-91a2-596fa5130c55","ios":"levelo://app?vid=a52b6a95-03b2-4a39-91a2-596fa5130c55"},"vehicle_type_id":"4","last_reported":1735099879,"current_range_meters":38800,"station_id":"ce4bhhh2rcd13ifvqfl0","pricing_plan_id":"cebpf4jnsgd1na2vs0mg"},{"bike_id":"4c414f1b-f40e-4a37-8051-77fc6cbc936d","system_id":"levelo_inurba_marseille","lat":43.23978,"lon":5.36618,"is_reserved":false,"is_disabled":false,"rental_uris":{"android":"levelo://app?vid=4c414f1b-f40e-4a37-8051-77fc6cbc936d","ios":"levelo://app?vid=4c414f1b-f40e-4a37-8051-77fc6cbc936d"},"vehicle_type_id":"4","last_reported":1735099879,"current_range_meters":8000,"station_id":"ce4bhi12rcd13ifvqfp0","pricing_plan_id":"cebpf4jnsgd1na2vs0mg"},{"bike_id":"1ca6e35e-4519-4a08-8f12-cc97c32227ac","system_id":"levelo_inurba_marseille","lat":43.29778,"lon":5.37104,"is_reserved":false,"is_disabled":false,"rental_uris":{"android":"levelo://app?vid=1ca6e35e-4519-4a08-8f12-cc97c32227ac","ios":"levelo://app?vid=1ca6e35e-4519-4a08-8f12-cc97c32227ac"},"vehicle_type_id":"4","last_reported":1735099879,"current_range_meters":34800,"station_id":"ce4bgop2rcd13ifvqc1g","pricing_plan_id":"cebpf4jnsgd1na2vs0mg"},{"bike_id":"5956c99d-10e6-4dc2-8784-a2701a9e178a","system_id":"levelo_inurba_marseille","lat":43.24675,"lon":5.38159,"is_reserved":false,"is_disabled":false,"rental_uris":{"android":"levelo://app?vid=5956c99d-10e6-4dc2-8784-a2701a9e178a","ios":"levelo://app?vid=5956c99d-10e6-4dc2-8784-a2701a9e178a"},"vehicle_type_id":"4","last_reported":1735099879,"current_range_meters":38800,"station_id":"ce4bhih2rcd13ifvqfr0","pricing_plan_id":"cebpf4jnsgd1na2vs0mg"},{"bike_id":"5a0a4d6b-2d53-4889-9dc1-5c666fc934c5","system_id":"levelo_inurba_marseille","lat":43.31491,"lon":5.37301,"is_reserved":false,"is_disabled":false,"rental_uris":{"android":"levelo://app?vid=5a0a4d6b-2d53-4889-9dc1-5c666fc934c5","ios":"levelo://app?vid=5a0a4d6b-2d53-4889-9dc1-5c666fc934c5"},"vehicle_type_id":"4","last_reported":1735099879,"current_range_meters":38000,"station_id":"ce4bgt12rcd13ifvqcd0","pricing_plan_id":"cebpf4jnsgd1na2vs0mg"},{"bike_id":"7bb30ece-0af1-4c43-a603-5d1612bde6de","system_id":"levelo_inurba_marseille","lat":43.29029,"lon":5.37542,"is_reserved":false,"is_disabled":false,"rental_uris":{"android":"levelo://app?vid=7bb30ece-0af1-4c43-a603-5d1612bde6de","ios":"levelo://app?vid=7bb30ece-0af1-4c43-a603-5d1612bde6de"},"vehicle_type_id":"4","last_reported":1735099879,"current_range_meters":35600,"station_id":"ce4bh692rcd13ifvqe90","pricing_plan_id":"cebpf4jnsgd1na2vs0mg"},{"bike_id":"c9751a8a-79d3-40c3-84a6-e2e10badf950","system_id":"levelo_inurba_marseille","lat":43.29902,"lon":5.38154,"is_reserved":false,"is_disabled":false,"rental_uris":{"android":"levelo://app?vid=c9751a8a-79d3-40c3-84a6-e2e10badf950","ios":"levelo://app?vid=c9751a8a-79d3-40c3-84a6-e2e10badf950"},"vehicle_type_id":"4","last_reported":1735099879,"current_range_meters":38800,"station_id":"ce4bgj12rcd13ifvqbc0","pricing_plan_id":"cebpf4jnsgd1na2vs0mg"},{"bike_id":"cfa520e7-c419-4333-982c-468a092b4eeb","system_id":"levelo_inurba_marseille","lat":43.28459,"lon":5.35884,"is_reserved":false,"is_disabled":false,"rental_uris":{"android":"levelo://app?vid=cfa520e7-c419-4333-982c-468a092b4eeb","ios":"levelo://app?vid=cfa520e7-c419-4333-982c-468a092b4eeb"},"vehicle_type_id":"4","last_reported":1735099879,"current_range_meters":38800,"station_id":"ce4bhah2rcd13ifvqei0","pricing_plan_id":"cebpf4jnsgd1na2vs0mg"},{"bike_id":"00f2299e-6e78-4b67-898f-d05e3c74d6f8","system_id":"levelo_inurba_marseille","lat":43.27402,"lon":5.394,"is_reserved":false,"is_disabled":false,"rental_uris":{"android":"levelo://app?vid=00f2299e-6e78-4b67-898f-d05e3c74d6f8","ios":"levelo://app?vid=00f2299e-6e78-4b67-898f-d05e3c74d6f8"},"vehicle_type_id":"4","last_reported":1735099879,"current_range_meters":14800,"station_id":"ce4bhdp2rcd13ifvqf20","pricing_plan_id":"cebpf4jnsgd1na2vs0mg"},{"bike_id":"d0ac4e75-935e-4ba6-9983-43450fc65e99","system_id":"levelo_inurba_marseille","lat":43.286711,"lon":5.386764,"is_reserved":false,"is_disabled":false,"rental_uris":{"android":"levelo://app?vid=d0ac4e75-935e-4ba6-9983-43450fc65e99","ios":"levelo://app?vid=d0ac4e75-935e-4ba6-9983-43450fc65e99"},"vehicle_type_id":"4","last_reported":1735099879,"current_range_meters":38800,"station_id":"ce4bh492rcd13ifvqdug","pricing_plan_id":"cebpf4jnsgd1na2vs0mg"},{"bike_id":"6bca16b1-3eb4-4299-91bc-9740eea99592","system_id":"levelo_inurba_marseille","lat":43.29843,"lon":5.36271,"is_reserved":false,"is_disabled":false,"rental_uris":{"android":"levelo://app?vid=6bca16b1-3eb4-4299-91bc-9740eea99592","ios":"levelo://app?vid=6bca16b1-3eb4-4299-91bc-9740eea99592"},"vehicle_type_id":"4","last_reported":1735099879,"current_range_meters":38800,"station_id":"ce4bgpp2rcd13ifvqc3g","pricing_plan_id":"cebpf4jnsgd1na2vs0mg"},{"bike_id":"3dcfbc8b-e73d-4cb6-b242-a024a7453bed","system_id":"levelo_inurba_marseille","lat":43.311245,"lon":5.377773,"is_reserved":false,"is_disabled":false,"rental_uris":{"android":"levelo://app?vid=3dcfbc8b-e73d-4cb6-b242-a024a7453bed","ios":"levelo://app?vid=3dcfbc8b-e73d-4cb6-b242-a024a7453bed"},"vehicle_type_id":"4","last_reported":1735099879,"current_range_meters":28000,"station_id":"ce4bgt92rcd13ifvqcg0","pricing_plan_id":"cebpf4jnsgd1na2vs0mg"},{"bike_id":"22af35c6-7b62-4b1a-88f2-b497806c8a4a","system_id":"levelo_inurba_marseille","lat":43.25104,"lon":5.40323,"is_reserved":false,"is_disabled":false,"rental_uris":{"android":"levelo://app?vid=22af35c6-7b62-4b1a-88f2-b497806c8a4a","ios":"levelo://app?vid=22af35c6-7b62-4b1a-88f2-b497806c8a4a"},"vehicle_type_id":"4","last_reported":1735099879,"current_range_meters":31200,"station_id":"ce4bhlh2rcd13ifvqgig","pricing_plan_id":"cebpf4jnsgd1na2vs0mg"},{"bike_id":"e05bf4ea-d74d-49ed-a7dc-94fa3a3cc350","system_id":"levelo_inurba_marseille","lat":43.32362,"lon":5.36761,"is_reserved":false,"is_disabled":false,"rental_uris":{"android":"levelo://app?vid=e05bf4ea-d74d-49ed-a7dc-94fa3a3cc350","ios":"levelo://app?vid=e05bf4ea-d74d-49ed-a7dc-94fa3a3cc350"},"vehicle_type_id":"4","last_reported":1735099879,"current_range_meters":36000,"station_id":"ce4bhsh2rcd13ifvqi2g","pricing_plan_id":"cebpf4jnsgd1na2vs0mg"},{"bike_id":"50223763-d57a-4ee0-bead-58c2af622222","system_id":"levelo_inurba_marseille","lat":43.297349,"lon":5.376979,"is_reserved":false,"is_disabled":false,"rental_uris":{"android":"levelo://app?vid=50223763-d57a-4ee0-bead-58c2af622222","ios":"levelo://app?vid=50223763-d57a-4ee0-bead-58c2af622222"},"vehicle_type_id":"4","last_reported":1735099879,"current_range_meters":37600,"station_id":"ce4bgkh2rcd13ifvqbl0","pricing_plan_id":"cebpf4jnsgd1na2vs0mg"},{"bike_id":"2217e265-1c11-4717-a1be-e1d88a9cb56d","system_id":"levelo_inurba_marseille","lat":43.31102,"lon":5.37771,"is_reserved":false,"is_disabled":false,"rental_uris":{"android":"levelo://app?vid=2217e265-1c11-4717-a1be-e1d88a9cb56d","ios":"levelo://app?vid=2217e265-1c11-4717-a1be-e1d88a9cb56d"},"vehicle_type_id":"4","last_reported":1735099879,"current_range_meters":20400,"station_id":"ce4bgt92rcd13ifvqcg0","pricing_plan_id":"cebpf4jnsgd1na2vs0mg"},{"bike_id":"7a7b8261-f987-4749-9d9d-0acb49170ae0","system_id":"levelo_inurba_marseille","lat":43.25498,"lon":5.37653,"is_reserved":false,"is_disabled":false,"rental_uris":{"android":"levelo://app?vid=7a7b8261-f987-4749-9d9d-0acb49170ae0","ios":"levelo://app?vid=7a7b8261-f987-4749-9d9d-0acb49170ae0"},"vehicle_type_id":"4","last_reported":1735099879,"current_range_meters":32000,"station_id":"ce4bhh12rcd13ifvqff0","pricing_plan_id":"cebpf4jnsgd1na2vs0mg"},{"bike_id":"25d2bc58-f6d3-4508-aa97-5261c6aa48a4","system_id":"levelo_inurba_marseille","lat":43.30082,"lon":5.39086,"is_reserved":false,"is_disabled":false,"rental_uris":{"android":"levelo://app?vid=25d2bc58-f6d3-4508-aa97-5261c6aa48a4","ios":"levelo://app?vid=25d2bc58-f6d3-4508-aa97-5261c6aa48a4"},"vehicle_type_id":"4","last_reported":1735099879,"current_range_meters":30400,"station_id":"ce4bh192rcd13ifvqdb0","pricing_plan_id":"cebpf4jnsgd1na2vs0mg"},{"bike_id":"842888b9-0281-4137-8179-95fdfc851120","system_id":"levelo_inurba_marseille","lat":43.26934,"lon":5.4024,"is_reserved":false,"is_disabled":false,"rental_uris":{"android":"levelo://app?vid=842888b9-0281-4137-8179-95fdfc851120","ios":"levelo://app?vid=842888b9-0281-4137-8179-95fdfc851120"},"vehicle_type_id":"4","last_reported":1735099879,"current_range_meters":33600,"station_id":"cjm6bp8fraef2m0cb0m0","pricing_plan_id":"cebpf4jnsgd1na2vs0mg"},{"bike_id":"d24bcf9e-7df9-4fc0-9736-a88fb5d67669","system_id":"levelo_inurba_marseille","lat":43.31104,"lon":5.37764,"is_reserved":false,"is_disabled":false,"rental_uris":{"android":"levelo://app?vid=d24bcf9e-7df9-4fc0-9736-a88fb5d67669","ios":"levelo://app?vid=d24bcf9e-7df9-4fc0-9736-a88fb5d67669"},"vehicle_type_id":"4","last_reported":1735099879,"current_range_meters":26800,"station_id":"ce4bgt92rcd13ifvqcg0","pricing_plan_id":"cebpf4jnsgd1na2vs0mg"},{"bike_id":"d58e81d5-d7d2-47e1-bfa6-8384c12c6d38","system_id":"levelo_inurba_marseille","lat":43.28967,"lon":5.37848,"is_reserved":false,"is_disabled":false,"rental_uris":{"android":"levelo://app?vid=d58e81d5-d7d2-47e1-bfa6-8384c12c6d38","ios":"levelo://app?vid=d58e81d5-d7d2-47e1-bfa6-8384c12c6d38"},"vehicle_type_id":"4","last_reported":1735099879,"current_range_meters":38000,"station_id":"ce4bh9p2rcd13ifvqed0","pricing_plan_id":"cebpf4jnsgd1na2vs0mg"},{"bike_id":"584301e6-2901-4c73-97f8-5c258dacc73a","system_id":"levelo_inurba_marseille","lat":43.29938,"lon":5.38547,"is_reserved":false,"is_disabled":false,"rental_uris":{"android":"levelo://app?vid=584301e6-2901-4c73-97f8-5c258dacc73a","ios":"levelo://app?vid=584301e6-2901-4c73-97f8-5c258dacc73a"},"vehicle_type_id":"4","last_reported":1735099879,"current_range_meters":38800,"station_id":"","pricing_plan_id":"cebpf4jnsgd1na2vs0mg"},{"bike_id":"97f6e8cc-9e8c-4973-a544-3868a1479b0e","system_id":"levelo_inurba_marseille","lat":43.27943,"lon":5.41045,"is_reserved":false,"is_disabled":false,"rental_uris":{"android":"levelo://app?vid=97f6e8cc-9e8c-4973-a544-3868a1479b0e","ios":"levelo://app?vid=97f6e8cc-9e8c-4973-a544-3868a1479b0e"},"vehicle_type_id":"4","last_reported":1735099879,"current_range_meters":36000,"station_id":"ce4bhnp2rcd13ifvqh0g","pricing_plan_id":"cebpf4jnsgd1na2vs0mg"},{"bike_id":"f6b53831-a509-423f-92ef-cd957a87e01c","system_id":"levelo_inurba_marseille","lat":43.29007,"lon":5.35609,"is_reserved":false,"is_disabled":false,"rental_uris":{"android":"levelo://app?vid=f6b53831-a509-423f-92ef-cd957a87e01c","ios":"levelo://app?vid=f6b53831-a509-423f-92ef-cd957a87e01c"},"vehicle_type_id":"4","last_reported":1735099879,"current_range_meters":38000,"station_id":"ce4bhb92rcd13ifvqen0","pricing_plan_id":"cebpf4jnsgd1na2vs0mg"},{"bike_id":"04d3f0c7-a5a2-4301-9d35-89c0dd2bc4f8","system_id":"levelo_inurba_marseille","lat":43.27549,"lon":5.38417,"is_reserved":false,"is_disabled":false,"rental_uris":{"android":"levelo://app?vid=04d3f0c7-a5a2-4301-9d35-89c0dd2bc4f8","ios":"levelo://app?vid=04d3f0c7-a5a2-4301-9d35-89c0dd2bc4f8"},"vehicle_type_id":"4","last_reported":1735099879,"current_range_meters":38800,"station_id":"ce4bhh92rcd13ifvqfi0","pricing_plan_id":"cebpf4jnsgd1na2vs0mg"},{"bike_id":"427bc867-789e-4b23-8420-6d4d646a7d72","system_id":"levelo_inurba_marseille","lat":43.3079,"lon":5.381584,"is_reserved":false,"is_disabled":false,"rental_uris":{"android":"levelo://app?vid=427bc867-789e-4b23-8420-6d4d646a7d72","ios":"levelo://app?vid=427bc867-789e-4b23-8420-6d4d646a7d72"},"vehicle_type_id":"4","last_reported":1735099879,"current_range_meters":38800,"station_id":"ce4bgt12rcd13ifvqce0","pricing_plan_id":"cebpf4jnsgd1na2vs0mg"},{"bike_id":"efe8c37e-7257-49f1-b3d4-508e2ce2a300","system_id":"levelo_inurba_marseille","lat":43.30135,"lon":5.3878,"is_reserved":false,"is_disabled":false,"rental_uris":{"android":"levelo://app?vid=efe8c37e-7257-49f1-b3d4-508e2ce2a300","ios":"levelo://app?vid=efe8c37e-7257-49f1-b3d4-508e2ce2a300"},"vehicle_type_id":"4","last_reported":1735099879,"current_range_meters":19200,"station_id":"ce4bghh2rcd13ifvqb60","pricing_plan_id":"cebpf4jnsgd1na2vs0mg"},{"bike_id":"bcb51fee-0272-4a71-b9bd-d89ff73c0efe","system_id":"levelo_inurba_marseille","lat":43.29706,"lon":5.36605,"is_reserved":false,"is_disabled":false,"rental_uris":{"android":"levelo://app?vid=bcb51fee-0272-4a71-b9bd-d89ff73c0efe","ios":"levelo://app?vid=bcb51fee-0272-4a71-b9bd-d89ff73c0efe"},"vehicle_type_id":"4","last_reported":1735099879,"current_range_meters":39200,"station_id":"ce4bgn12rcd13ifvqbt0","pricing_plan_id":"cebpf4jnsgd1na2vs0mg"},{"bike_id":"8470d75c-1a4b-4272-b9c5-cce9edcaac69","system_id":"levelo_inurba_marseille","lat":43.26489,"lon":5.39545,"is_reserved":false,"is_disabled":false,"rental_uris":{"android":"levelo://app?vid=8470d75c-1a4b-4272-b9c5-cce9edcaac69","ios":"levelo://app?vid=8470d75c-1a4b-4272-b9c5-cce9edcaac69"},"vehicle_type_id":"4","last_reported":1735099879,"current_range_meters":27200,"station_id":"ce4bhi12rcd13ifvqfq0","pricing_plan_id":"cebpf4jnsgd1na2vs0mg"},{"bike_id":"6eb09a09-0ccd-48d5-a20d-bc09f65f11d1","system_id":"levelo_inurba_marseille","lat":43.32474,"lon":5.36571,"is_reserved":false,"is_disabled":false,"rental_uris":{"android":"levelo://app?vid=6eb09a09-0ccd-48d5-a20d-bc09f65f11d1","ios":"levelo://app?vid=6eb09a09-0ccd-48d5-a20d-bc09f65f11d1"},"vehicle_type_id":"4","last_reported":1735099879,"current_range_meters":38800,"station_id":"ce4bhs12rcd13ifvqhvg","pricing_plan_id":"cebpf4jnsgd1na2vs0mg"},{"bike_id":"72ad95bc-fa74-4b73-a8ce-6fdfe56679aa","system_id":"levelo_inurba_marseille","lat":43.30885,"lon":5.37195,"is_reserved":false,"is_disabled":false,"rental_uris":{"android":"levelo://app?vid=72ad95bc-fa74-4b73-a8ce-6fdfe56679aa","ios":"levelo://app?vid=72ad95bc-fa74-4b73-a8ce-6fdfe56679aa"},"vehicle_type_id":"4","last_reported":1735099879,"current_range_meters":26800,"station_id":"ce4bguh2rcd13ifvqckg","pricing_plan_id":"cebpf4jnsgd1na2vs0mg"},{"bike_id":"cc379df0-8827-46c3-b135-d6f6a02a5dff","system_id":"levelo_inurba_marseille","lat":43.3014,"lon":5.38783,"is_reserved":false,"is_disabled":false,"rental_uris":{"android":"levelo://app?vid=cc379df0-8827-46c3-b135-d6f6a02a5dff","ios":"levelo://app?vid=cc379df0-8827-46c3-b135-d6f6a02a5dff"},"vehicle_type_id":"4","last_reported":1735099879,"current_range_meters":30400,"station_id":"ce4bghh2rcd13ifvqb60","pricing_plan_id":"cebpf4jnsgd1na2vs0mg"},{"bike_id":"dd55c862-7efa-48b0-9eaa-28fa09652d9e","system_id":"levelo_inurba_marseille","lat":43.2925,"lon":5.40909,"is_reserved":false,"is_disabled":false,"rental_uris":{"android":"levelo://app?vid=dd55c862-7efa-48b0-9eaa-28fa09652d9e","ios":"levelo://app?vid=dd55c862-7efa-48b0-9eaa-28fa09652d9e"},"vehicle_type_id":"4","last_reported":1735099879,"current_range_meters":36800,"station_id":"ce4bh192rcd13ifvqdc0","pricing_plan_id":"cebpf4jnsgd1na2vs0mg"},{"bike_id":"89c31185-79e8-41ba-aeec-7ee23fd07219","system_id":"levelo_inurba_marseille","lat":43.26961,"lon":5.38628,"is_reserved":false,"is_disabled":false,"rental_uris":{"android":"levelo://app?vid=89c31185-79e8-41ba-aeec-7ee23fd07219","ios":"levelo://app?vid=89c31185-79e8-41ba-aeec-7ee23fd07219"},"vehicle_type_id":"4","last_reported":1735099879,"current_range_meters":38400,"station_id":"ce4bhh92rcd13ifvqfh0","pricing_plan_id":"cebpf4jnsgd1na2vs0mg"},{"bike_id":"416ccd23-b5d7-41d8-8d7e-5d2e6c47904e","system_id":"levelo_inurba_marseille","lat":43.31476,"lon":5.37313,"is_reserved":false,"is_disabled":false,"rental_uris":{"android":"levelo://app?vid=416ccd23-b5d7-41d8-8d7e-5d2e6c47904e","ios":"levelo://app?vid=416ccd23-b5d7-41d8-8d7e-5d2e6c47904e"},