{"last_updated":1701000688,"ttl":30,"version":"2.2","data":{"bikes":[{"bike_id":"1e08b894-cc69-428b-b9b6-2cacef76a6ec","system_id":"levelo_inurba_marseille","lat":43.305714,"lon":5.365633,"is_reserved":false,"is_disabled":false,"rental_uris":{"android":"levelo://app?vid=1e08b894-cc69-428b-b9b6-2cacef76a6ec","ios":"levelo://app?vid=1e08b894-cc69-428b-b9b6-2cacef76a6ec"},"vehicle_type_id":"4","last_reported":1701000688,"current_range_meters":15200,"station_id":"ce4bgs12rcd13ifvqcag","pricing_plan_id":"free"},{"bike_id":"87b2b925-5627-4db0-a04a-5cf843762e7a","system_id":"levelo_inurba_marseille","lat":43.305714,"lon":5.365633,"is_reserved":false,"is_disabled":false,"rental_uris":{"android":"levelo://app?vid=87b2b925-5627-4db0-a04a-5cf843762e7a","ios":"levelo://app?vid=87b2b925-5627-4db0-a04a-5cf843762e7a"},"vehicle_type_id":"4","last_reported":1701000688,"current_range_meters":15600,"station_id":"ce4bgs12rcd13ifvqcag","pricing_plan_id":"free"},{"bike_id":"7b756bcc-000e-408c-9a1f-b12c6224d3a3","system_id":"levelo_inurba_marseille","lat":43.305706,"lon":5.365654,"is_reserved":false,"is_disabled":false,"rental_uris":{"android":"levelo://app?vid=7b756bcc-000e-408c-9a1f-b12c6224d3a3","ios":"levelo://app?vid=7b756bcc-000e-408c-9a1f-b12c6224d3a3"},"vehicle_type_id":"4","last_reported":1701000688,"current_range_meters":30400,"station_id":"ce4bgs12rcd13ifvqcag","pricing_plan_id":"free"},{"bike_id":"7e078356-543a-4961-877a-a378a2f37ec5","system_id":"levelo_inurba_marseille","lat":43.305706,"lon":5.365654,"is_reserved":false,"is_disabled":false,"rental_uris":{"android":"levelo://app?vid=7e078356-543a-4961-877a-a378a2f37ec5","ios":"levelo://app?vid=7e078356-543a-4961-877a-a378a2f37ec5"},"vehicle_type_id":"4","last_reported":1701000688,"current_range_meters":19200,"station_id":"ce4bgs12rcd13ifvqcag","pricing_plan_id":"free"},{"bike_id":"573a870a-b6c4-429d-8587-8103772b84bc","system_id":"levelo_inurba_marseille","lat":43.308196,"lon":5.376563,"is_reserved":false,"is_disabled":false,"rental_uris":{"android":"levelo://app?vid=573a870a-b6c4-429d-8587-8103772b84bc","ios":"levelo://app?vid=573a870a-b6c4-429d-8587-8103772b84bc"},"vehicle_type_id":"4","last_reported":1701000688,"current_range_meters":800,"station_id":"ce4bgv92rcd13ifvqcq0","pricing_plan_id":"free"},{"bike_id":"f427a2c3-6e4a-446b-ae2f-9be8aa7f4122","system_id":"levelo_inurba_marseille","lat":43.31719,"lon":5.376813,"is_reserved":false,"is_disabled":false,"rental_uris":{"android":"levelo://app?vid=f427a2c3-6e4a-446b-ae2f-9be8aa7f4122","ios":"levelo://app?vid=f427a2c3-6e4a-446b-ae2f-9be8aa7f4122"},"vehicle_type_id":"4","last_reported":1701000688,"current_range_meters":21200,"station_id":"ce4bgth2rcd13ifvqch0","pricing_plan_id":"free"},{"bike_id":"4bdacffb-3018-4dde-b2fa-66b23f09e7ce","system_id":"levelo_inurba_marseille","lat":43.30789,"lon":5.37649,"is_reserved":false,"is_disabled":false,"rental_uris":{"android":"levelo://app?vid=4bdacffb-3018-4dde-b2fa-66b23f09e7ce","ios":"levelo://app?vid=4bdacffb-3018-4dde-b2fa-66b23f09e7ce"},"vehicle_type_id":"4","last_reported":1701000688,"current_range_meters":0,"station_id":"ce4bgv92rcd13ifvqcq0","pricing_plan_id":"free"},{"bike_id":"b898b018-f57d-4901-bab2-fdd15d391de9","system_id":"levelo_inurba_marseille","lat":43.317168,"lon":5.376883,"is_reserved":false,"is_disabled":false,"rental_uris":{"android":"levelo://app?vid=b898b018-f57d-4901-bab2-fdd15d391de9","ios":"levelo://app?vid=b898b018-f57d-4901-bab2-fdd15d391de9"},"vehicle_type_id":"4","last_reported":1701000688,"current_range_meters":23600,"station_id":"ce4bgth2rcd13ifvqch0","pricing_plan_id":"free"},{"bike_id":"0de1245e-2dfb-4b7c-a0ac-02f59047def3","system_id":"levelo_inurba_marseille","lat":43.303046,"lon":5.368981,"is_reserved":false,"is_disabled":false,"rental_uris":{"android":"levelo://app?vid=0de1245e-2dfb-4b7c-a0ac-02f59047def3","ios":"levelo://app?vid=0de1245e-2dfb-4b7c-a0ac-02f59047def3"},"vehicle_type_id":"4","last_reported":1701000688,"current_range_meters":25600,"station_id":"ce4bgqh2rcd13ifvqc5g","pricing_plan_id":"free"},{"bike_id":"1b849007-594e-4361-af6f-9e5b0757d6ca","system_id":"levelo_inurba_marseille","lat":43.302784,"lon":5.377158,"is_reserved":false,"is_disabled":false,"rental_uris":{"android":"levelo://app?vid=1b849007-594e-4361-af6f-9e5b0757d6ca","ios":"levelo://app?vid=1b849007-594e-4361-af6f-9e5b0757d6ca"},"vehicle_type_id":"4","last_reported":1701000688,"current_range_meters":26400,"station_id":"ce4bguh2rcd13ifvqcj0","pricing_plan_id":"free"},{"bike_id":"48f37233-f2c1-4f1d-b4f4-f3f38e25bf6d","system_id":"levelo_inurba_marseille","lat":43.301429,"lon":5.37413,"is_reserved":false,"is_disabled":false,"rental_uris":{"android":"levelo://app?vid=48f37233-f2c1-4f1d-b4f4-f3f38e25bf6d","ios":"levelo://app?vid=48f37233-f2c1-4f1d-b4f4-f3f38e25bf6d"},"vehicle_type_id":"4","last_reported":1701000688,"current_range_meters":30000,"station_id":"ce4bgs92rcd13ifvqcc0","pricing_plan_id":"free"},{"bike_id":"37b33645-89d7-4706-ad67-8561aeaa3082","system_id":"levelo_inurba_marseille","lat":43.31361,"lon":5.38501,"is_reserved":false,"is_disabled":false,"rental_uris":{"android":"levelo://app?vid=37b33645-89d7-4706-ad67-8561aeaa3082","ios":"levelo://app?vid=37b33645-89d7-4706-ad67-8561aeaa3082"},"vehicle_type_id":"4","last_reported":1701000688,"current_range_meters":0,"station_id":"ce4bgt92rcd13ifvqcf0","pricing_plan_id":"free"},{"bike_id":"3c0f0e03-19e8-4b31-9bda-a925ec1d2126","system_id":"levelo_inurba_marseille","lat":43.298433,"lon":5.362774,"is_reserved":false,"is_disabled":false,"rental_uris":{"android":"levelo://app?vid=3c0f0e03-19e8-4b31-9bda-a925ec1d2126","ios":"levelo://app?vid=3c0f0e03-19e8-4b31-9bda-a925ec1d2126"},"vehicle_type_id":"4","last_reported":1701000688,"current_range_meters":1200,"station_id":"ce4bgpp2rcd13ifvqc3g","pricing_plan_id":"free"},{"bike_id":"e7f47ecb-a43c-4a16-9ad6-cc6de4f6da1a","system_id":"levelo_inurba_marseille","lat":43.298433,"lon":5.362774,"is_reserved":false,"is_disabled":false,"rental_uris":{"android":"levelo://app?vid=e7f47ecb-a43c-4a16-9ad6-cc6de4f6da1a","ios":"levelo://app?vid=e7f47ecb-a43c-4a16-9ad6-cc6de4f6da1a"},"vehicle_type_id":"4","last_reported":1701000688,"current_range_meters":16400,"station_id":"ce4bgpp2rcd13ifvqc3g","pricing_plan_id":"free"},{"bike_id":"4084e26a-4a5b-4c30-a290-34faaca8cb02","system_id":"levelo_inurba_marseille","lat":43.298433,"lon":5.362774,"is_reserved":false,"is_disabled":false,"rental_uris":{"android":"levelo://app?vid=4084e26a-4a5b-4c30-a290-34faaca8cb02","ios":"levelo://app?vid=4084e26a-4a5b-4c30-a290-34faaca8cb02"},"vehicle_type_id":"4","last_reported":1701000688,"current_range_meters":30800,"station_id":"ce4bgpp2rcd13ifvqc3g","pricing_plan_id":"free"},{"bike_id":"828e663a-c34d-45d1-849c-ab680196da69","system_id":"levelo_inurba_marseille","lat":43.298433,"lon":5.362774,"is_reserved":false,"is_disabled":false,"rental_uris":{"android":"levelo://app?vid=828e663a-c34d-45d1-849c-ab680196da69","ios":"levelo://app?vid=828e663a-c34d-45d1-849c-ab680196da69"},"vehicle_type_id":"4","last_reported":1701000688,"current_range_meters":30800,"station_id":"ce4bgpp2rcd13ifvqc3g","pricing_plan_id":"free"},{"bike_id":"148d2f75-f777-4f2c-bae0-fa6e972ee9d8","system_id":"levelo_inurba_marseille","lat":43.298433,"lon":5.362774,"is_reserved":false,"is_disabled":false,"rental_uris":{"android":"levelo://app?vid=148d2f75-f777-4f2c-bae0-fa6e972ee9d8","ios":"levelo://app?vid=148d2f75-f777-4f2c-bae0-fa6e972ee9d8"},"vehicle_type_id":"4","last_reported":1701000688,"current_range_meters":25600,"station_id":"ce4bgpp2rcd13ifvqc3g","pricing_plan_id":"free"},{"bike_id":"8030f81c-d518-4d48-bae0-5e65620b880d","system_id":"levelo_inurba_marseille","lat":43.298433,"lon":5.362774,"is_reserved":false,"is_disabled":false,"rental_uris":{"android":"levelo://app?vid=8030f81c-d518-4d48-bae0-5e65620b880d","ios":"levelo://app?vid=8030f81c-d518-4d48-bae0-5e65620b880d"},"vehicle_type_id":"4","last_reported":1701000688,"current_range_meters":28800,"station_id":"ce4bgpp2rcd13ifvqc3g","pricing_plan_id":"free"},{"bike_id":"a87de9e0-a2ef-4051-baa8-896bfef2b0e1","system_id":"levelo_inurba_marseille","lat":43.298433,"lon":5.362774,"is_reserved":false,"is_disabled":false,"rental_uris":{"android":"levelo://app?vid=a87de9e0-a2ef-4051-baa8-896bfef2b0e1","ios":"levelo://app?vid=a87de9e0-a2ef-4051-baa8-896bfef2b0e1"},"vehicle_type_id":"4","last_reported":1701000688,"current_range_meters":27200,"station_id":"ce4bgpp2rcd13ifvqc3g","pricing_plan_id":"free"},{"bike_id":"388f0691-3bf5-41b1-a62c-9c0bcbc8dd64","system_id":"levelo_inurba_marseille","lat":43.311722,"lon":5.387247,"is_reserved":false,"is_disabled":false,"rental_uris":{"android":"levelo://app?vid=388f0691-3bf5-41b1-a62c-9c0bcbc8dd64","ios":"levelo://app?vid=388f0691-3bf5-41b1-a62c-9c0bcbc8dd64"},"vehicle_type_id":"4","last_reported":1701000688,"current_range_meters":14800,"station_id":"ce4bgv12rcd13ifvqcp0","pricing_plan_id":"free"},{"bike_id":"ca663ccc-b5f4-4f4c-8f28-b379a053147d","system_id":"levelo_inurba_marseille","lat":43.29778,"lon":5.37102,"is_reserved":false,"is_disabled":false,"rental_uris":{"android":"levelo://app?vid=ca663ccc-b5f4-4f4c-8f28-b379a053147d","ios":"levelo://app?vid=ca663ccc-b5f4-4f4c-8f28-b379a053147d"},"vehicle_type_id":"4","last_reported":1701000688,"current_range_meters":0,"station_id":"ce4bgop2rcd13ifvqc1g","pricing_plan_id":"free"},{"bike_id":"abf80f4a-3002-4c8a-a2d4-e93119f0ecea","system_id":"levelo_inurba_marseille","lat":43.297163,"lon":5.365866,"is_reserved":false,"is_disabled":false,"rental_uris":{"android":"levelo://app?vid=abf80f4a-3002-4c8a-a2d4-e93119f0ecea","ios":"levelo://app?vid=abf80f4a-3002-4c8a-a2d4-e93119f0ecea"},"vehicle_type_id":"4","last_reported":1701000688,"current_range_meters":28800,"station_id":"ce4bgn12rcd13ifvqbt0","pricing_plan_id":"free"},{"bike_id":"74a6eadd-de0a-4852-9bfa-c9dd403c0892","system_id":"levelo_inurba_marseille","lat":43.29573,"lon":5.367355,"is_reserved":false,"is_disabled":false,"rental_uris":{"android":"levelo://app?vid=74a6eadd-de0a-4852-9bfa-c9dd403c0892","ios":"levelo://app?vid=74a6eadd-de0a-4852-9bfa-c9dd403c0892"},"vehicle_type_id":"4","last_reported":1701000688,"current_range_meters":30000,"station_id":"ce4bgph2rcd13ifvqc2g","pricing_plan_id":"free"},{"bike_id":"8db9fa52-a84f-4b79-873d-a9ae31dde132","system_id":"levelo_inurba_marseille","lat":43.29573,"lon":5.367355,"is_reserved":false,"is_disabled":false,"rental_uris":{"android":"levelo://app?vid=8db9fa52-a84f-4b79-873d-a9ae31dde132","ios":"levelo://app?vid=8db9fa52-a84f-4b79-873d-a9ae31dde132"},"vehicle_type_id":"4","last_reported":1701000688,"current_range_meters":26000,"station_id":"ce4bgph2rcd13ifvqc2g","pricing_plan_id":"free"},{"bike_id":"663d21e8-2e74-4084-92c9-81d38f995fd9","system_id":"levelo_inurba_marseille","lat":43.29573,"lon":5.367355,"is_reserved":false,"is_disabled":false,"rental_uris":{"android":"levelo://app?vid=663d21e8-2e74-4084-92c9-81d38f995fd9","ios":"levelo://app?vid=663d21e8-2e74-4084-92c9-81d38f995fd9"},"vehicle_type_id":"4","last_reported":1701000688,"current_range_meters":31600,"station_id":"ce4bgph2rcd13ifvqc2g","pricing_plan_id":"free"},{"bike_id":"58034286-d764-400c-92dc-17f57034801c","system_id":"levelo_inurba_marseille","lat":43.29573,"lon":5.367355,"is_reserved":false,"is_disabled":false,"rental_uris":{"android":"levelo://app?vid=58034286-d764-400c-92dc-17f57034801c","ios":"levelo://app?vid=58034286-d764-400c-92dc-17f57034801c"},"vehicle_type_id":"4","last_reported":1701000688,"current_range_meters":31200,"station_id":"ce4bgph2rcd13ifvqc2g","pricing_plan_id":"free"},{"bike_id":"2ed359b4-f75c-48f2-a0c8-62dcf4c5ade5","system_id":"levelo_inurba_marseille","lat":43.29573,"lon":5.367355,"is_reserved":false,"is_disabled":false,"rental_uris":{"android":"levelo://app?vid=2ed359b4-f75c-48f2-a0c8-62dcf4c5ade5","ios":"levelo://app?vid=2ed359b4-f75c-48f2-a0c8-62dcf4c5ade5"},"vehicle_type_id":"4","last_reported":1701000688,"current_range_meters":28800,"station_id":"ce4bgph2rcd13ifvqc2g","pricing_plan_id":"free"},{"bike_id":"b1e22c6c-5113-4ef3-a28e-b67cbfef7a27","system_id":"levelo_inurba_marseille","lat":43.29573,"lon":5.367355,"is_reserved":false,"is_disabled":false,"rental_uris":{"android":"levelo://app?vid=b1e22c6c-5113-4ef3-a28e-b67cbfef7a27","ios":"levelo://app?vid=b1e22c6c-5113-4ef3-a28e-b67cbfef7a27"},"vehicle_type_id":"4","last_reported":1701000688,"current_range_meters":22800,"station_id":"ce4bgph2rcd13ifvqc2g","pricing_plan_id":"free"},{"bike_id":"37dcbebc-8dee-4073-851a-a693b584a9ca","system_id":"levelo_inurba_marseille","lat":43.29573,"lon":5.367355,"is_reserved":false,"is_disabled":false,"rental_uris":{"android":"levelo://app?vid=37dcbebc-8dee-4073-851a-a693b584a9ca","ios":"levelo://app?vid=37dcbebc-8dee-4073-851a-a693b584a9ca"},"vehicle_type_id":"4","last_reported":1701000688,"current_range_meters":28800,"station_id":"ce4bgph2rcd13ifvqc2g","pricing_plan_id":"free"},{"bike_id":"e0ae1ded-102e-4538-9b67-dc8c5608e8d8","system_id":"levelo_inurba_marseille","lat":43.29573,"lon":5.367355,"is_reserved":false,"is_disabled":false,"rental_uris":{"android":"levelo://app?vid=e0ae1ded-102e-4538-9b67-dc8c5608e8d8","ios":"levelo://app?vid=e0ae1ded-102e-4538-9b67-dc8c5608e8d8"},"vehicle_type_id":"4","last_reported":1701000688,"current_range_meters":27600,"station_id":"ce4bgph2rcd13ifvqc2g","pricing_plan_id":"free"},{"bike_id":"6a016b3a-b2d3-4f01-89cb-938c69fa36d8","system_id":"levelo_inurba_marseille","lat":43.29729,"lon":5.37726,"is_reserved":false,"is_disabled":false,"rental_uris":{"android":"levelo://app?vid=6a016b3a-b2d3-4f01-89cb-938c69fa36d8","ios":"levelo://app?vid=6a016b3a-b2d3-4f01-89cb-938c69fa36d8"},"vehicle_type_id":"4","last_reported":1701000688,"current_range_meters":28400,"station_id":"","pricing_plan_id":"free"},{"bike_id":"caf735e8-5c40-40f5-a186-a6c1c78d9f8e","system_id":"levelo_inurba_marseille","lat":43.296921,"lon":5.376579,"is_reserved":false,"is_disabled":false,"rental_uris":{"android":"levelo://app?vid=caf735e8-5c40-40f5-a186-a6c1c78d9f8e","ios":"levelo://app?vid=caf735e8-5c40-40f5-a186-a6c1c78d9f8e"},"vehicle_type_id":"4","last_reported":1701000688,"current_range_meters":14400,"station_id":"ce4bgkh2rcd13ifvqbl0","pricing_plan_id":"free"},{"bike_id":"35028cab-8956-4ea7-8103-e8151e97c23c","system_id":"levelo_inurba_marseille","lat":43.309589,"lon":5.390258,"is_reserved":false,"is_disabled":false,"rental_uris":{"android":"levelo://app?vid=35028cab-8956-4ea7-8103-e8151e97c23c","ios":"levelo://app?vid=35028cab-8956-4ea7-8103-e8151e97c23c"},"vehicle_type_id":"4","last_reported":1701000688,"current_range_meters":10400,"station_id":"ce4bgup2rcd13ifvqco0","pricing_plan_id":"free"},{"bike_id":"4a765eea-dd04-4a73-95d0-bfb287513202","system_id":"levelo_inurba_marseille","lat":43.309589,"lon":5.390258,"is_reserved":false,"is_disabled":false,"rental_uris":{"android":"levelo://app?vid=4a765eea-dd04-4a73-95d0-bfb287513202","ios":"levelo://app?vid=4a765eea-dd04-4a73-95d0-bfb287513202"},"vehicle_type_id":"4","last_reported":1701000688,"current_range_meters":28800,"station_id":"ce4bgup2rcd13ifvqco0","pricing_plan_id":"free"},{"bike_id":"e35ac614-4ea2-487d-a413-2841355a7f14","system_id":"levelo_inurba_marseille","lat":43.295748,"lon":5.37522,"is_reserved":false,"is_disabled":false,"rental_uris":{"android":"levelo://app?vid=e35ac614-4ea2-487d-a413-2841355a7f14","ios":"levelo://app?vid=e35ac614-4ea2-487d-a413-2841355a7f14"},"vehicle_type_id":"4","last_reported":1701000688,"current_range_meters":25200,"station_id":"ce4bgh92rcd13ifvqb50","pricing_plan_id":"free"},{"bike_id":"8dd310e0-7ccb-48b6-8e55-438e1a49297c","system_id":"levelo_inurba_marseille","lat":43.295748,"lon":5.37522,"is_reserved":false,"is_disabled":false,"rental_uris":{"android":"levelo://app?vid=8dd310e0-7ccb-48b6-8e55-438e1a49297c","ios":"levelo://app?vid=8dd310e0-7ccb-48b6-8e55-438e1a49297c"},"vehicle_type_id":"4","last_reported":1701000688,"current_range_meters":0,"station_id":"ce4bgh92rcd13ifvqb50","pricing_plan_id":"free"},{"bike_id":"3f0e595b-020e-437a-b5e7-0fe3c75084b0","system_id":"levelo_inurba_marseille","lat":43.295748,"lon":5.37522,"is_reserved":false,"is_disabled":false,"rental_uris":{"android":"levelo://app?vid=3f0e595b-020e-437a-b5e7-0fe3c75084b0","ios":"levelo://app?vid=3f0e595b-020e-437a-b5e7-0fe3c75084b0"},"vehicle_type_id":"4","last_reported":1701000688,"current_range_meters":20800,"station_id":"ce4bgh92rcd13ifvqb50","pricing_plan_id":"free"},{"bike_id":"728028ea-586c-42ac-87cf-727f6a3a0d33","system_id":"levelo_inurba_marseille","lat":43.309589,"lon":5.390258,"is_reserved":false,"is_disabled":false,"rental_uris":{"android":"levelo://app?vid=728028ea-586c-42ac-87cf-727f6a3a0d33","ios":"levelo://app?vid=728028ea-586c-42ac-87cf-727f6a3a0d33"},"vehicle_type_id":"4","last_reported":1701000688,"current_range_meters":29600,"station_id":"ce4bgup2rcd13ifvqco0","pricing_plan_id":"free"},{"bike_id":"dd652209-d31e-4cd9-ad30-11e727a46f5d","system_id":"levelo_inurba_marseille","lat":43.29535,"lon":5.375,"is_reserved":false,"is_disabled":false,"rental_uris":{"android":"levelo://app?vid=dd652209-d31e-4cd9-ad30-11e727a46f5d","ios":"levelo://app?vid=dd652209-d31e-4cd9-ad30-11e727a46f5d"},"vehicle_type_id":"4","last_reported":1701000688,"current_range_meters":27200,"station_id":"ce4bgkp2rcd13ifvqbmg","pricing_plan_id":"free"},{"bike_id":"518556ca-b04a-4655-8c68-5c9370dc46b0","system_id":"levelo_inurba_marseille","lat":43.295279,"lon":5.375048,"is_reserved":false,"is_disabled":false,"rental_uris":{"android":"levelo://app?vid=518556ca-b04a-4655-8c68-5c9370dc46b0","ios":"levelo://app?vid=518556ca-b04a-4655-8c68-5c9370dc46b0"},"vehicle_type_id":"4","last_reported":1701000688,"current_range_meters":27600,"station_id":"ce4bgkp2rcd13ifvqbmg","pricing_plan_id":"free"},{"bike_id":"d9ba639e-8e4c-49dd-9ae3-e7bccdce650f","system_id":"levelo_inurba_marseille","lat":43.299707,"lon":5.384859,"is_reserved":false,"is_disabled":false,"rental_uris":{"android":"levelo://app?vid=d9ba639e-8e4c-49dd-9ae3-e7bccdce650f","ios":"levelo://app?vid=d9ba639e-8e4c-49dd-9ae3-e7bccdce650f"},"vehicle_type_id":"4","last_reported":1701000688,"current_range_meters":29600,"station_id":"ce4bgj92rcd13ifvqbd0","pricing_plan_id":"free"},{"bike_id":"f4777f96-1923-41eb-95ab-26dbe280738f","system_id":"levelo_inurba_marseille","lat":43.295297,"lon":5.375007,"is_reserved":false,"is_disabled":false,"rental_uris":{"android":"levelo://app?vid=f4777f96-1923-41eb-95ab-26dbe280738f","ios":"levelo://app?vid=f4777f96-1923-41eb-95ab-26dbe280738f"},"vehicle_type_id":"4","last_reported":1701000688,"current_range_meters":19600,"station_id":"ce4bgkp2rcd13ifvqbmg","pricing_plan_id":"free"},{"bike_id":"9da403f7-f7c6-4ca9-8bc8-345dddf046d5","system_id":"levelo_inurba_marseille","lat":43.295106,"lon":5.375101,"is_reserved":false,"is_disabled":false,"rental_uris":{"android":"levelo://app?vid=9da403f7-f7c6-4ca9-8bc8-345dddf046d5","ios":"levelo://app?vid=9da403f7-f7c6-4ca9-8bc8-345dddf046d5"},"vehicle_type_id":"4","last_reported":1701000688,"current_range_meters":5200,"station_id":"ce4bgkp2rcd13ifvqbmg","pricing_plan_id":"free"},{"bike_id":"6b621983-5e9e-42f7-990d-ad5a093820d2","system_id":"levelo_inurba_marseille","lat":43.293801,"lon":5.363066,"is_reserved":false,"is_disabled":false,"rental_uris":{"android":"levelo://app?vid=6b621983-5e9e-42f7-990d-ad5a093820d2","ios":"levelo://app?vid=6b621983-5e9e-42f7-990d-ad5a093820d2"},"vehicle_type_id":"4","last_reported":1701000688,"current_range_meters":0,"station_id":"","pricing_plan_id":"free"},{"bike_id":"b1e38288-48a4-44bc-b451-e444aa913e0e","system_id":"levelo_inurba_marseille","lat":43.292749,"lon":5.368402,"is_reserved":false,"is_disabled":false,"rental_uris":{"android":"levelo://app?vid=b1e38288-48a4-44bc-b451-e444aa913e0e","ios":"levelo://app?vid=b1e38288-48a4-44bc-b451-e444aa913e0e"},"vehicle_type_id":"4","last_reported":1701000688,"current_range_meters":29200,"station_id":"ce4bhbp2rcd13ifvqesg","pricing_plan_id":"free"},{"bike_id":"451f4cab-7bcb-4dd0-add5-86d881acecce","system_id":"levelo_inurba_marseille","lat":43.29276,"lon":5.36847,"is_reserved":false,"is_disabled":false,"rental_uris":{"android":"levelo://app?vid=451f4cab-7bcb-4dd0-add5-86d881acecce","ios":"levelo://app?vid=451f4cab-7bcb-4dd0-add5-86d881acecce"},"vehicle_type_id":"4","last_reported":1701000688,"current_range_meters":14400,"station_id":"ce4bhbp2rcd13ifvqesg","pricing_plan_id":"free"},{"bike_id":"fb6a9146-aaa0-4285-a6b8-2822a729f2f8","system_id":"levelo_inurba_marseille","lat":43.293027,"lon":5.3718,"is_reserved":false,"is_disabled":false,"rental_uris":{"android":"levelo://app?vid=fb6a9146-aaa0-4285-a6b8-2822a729f2f8","ios":"levelo://app?vid=fb6a9146-aaa0-4285-a6b8-2822a729f2f8"},"vehicle_type_id":"4","last_reported":1701000688,"current_range_meters":28400,"station_id":"ce4bgh92rcd13ifvqb40","pricing_plan_id":"free"},{"bike_id":"47a82d49-5c2b-4561-9a1d-1eb597665dcd","system_id":"levelo_inurba_marseille","lat":43.293009,"lon":5.374584,"is_reserved":false,"is_disabled":false,"rental_uris":{"android":"levelo://app?vid=47a82d49-5c2b-4561-9a1d-1eb597665dcd","ios":"levelo://app?vid=47a82d49-5c2b-4561-9a1d-1eb597665dcd"},"vehicle_type_id":"4","last_reported":1701000688,"current_range_meters":22400,"station_id":"ce4bgi12rcd13ifvqb70","pricing_plan_id":"free"},{"bike_id":"48079616-9bc9-4d0b-8443-099655d6f63b","system_id":"levelo_inurba_marseille","lat":43.293009,"lon":5.374584,"is_reserved":false,"is_disabled":false,"rental_uris":{"android":"levelo://app?vid=48079616-9bc9-4d0b-8443-099655d6f63b","ios":"levelo://app?vid=48079616-9bc9-4d0b-8443-099655d6f63b"},"vehicle_type_id":"4","last_reported":1701000688,"current_range_meters":10800,"station_id":"ce4bgi12rcd13ifvqb70","pricing_plan_id":"free"},{"bike_id":"7716737e-82e0-4a05-b26e-9bfe2d72ae2e","system_id":"levelo_inurba_marseille","lat":43.293009,"lon":5.374584,"is_reserved":false,"is_disabled":false,"rental_uris":{"android":"levelo://app?vid=7716737e-82e0-4a05-b26e-9bfe2d72ae2e","ios":"levelo://app?vid=7716737e-82e0-4a05-b26e-9bfe2d72ae2e"},"vehicle_type_id":"4","last_reported":1701000688,"current_range_meters":400,"station_id":"ce4bgi12rcd13ifvqb70","pricing_plan_id":"free"},{"bike_id":"9572a87a-40e8-48c0-a5de-cb867ee30724","system_id":"levelo_inurba_marseille","lat":43.29299,"lon":5.37472,"is_reserved":false,"is_disabled":false,"rental_uris":{"android":"levelo://app?vid=9572a87a-40e8-48c0-a5de-cb867ee30724","ios":"levelo://app?vid=9572a87a-40e8-48c0-a5de-cb867ee30724"},"vehicle_type_id":"4","last_reported":1701000688,"current_range_meters":18400,"station_id":"ce4bgi12rcd13ifvqb70","pricing_plan_id":"free"},{"bike_id":"d7d50467-dd44-48d9-b399-bcfcfa7d68e5","system_id":"levelo_inurba_marseille","lat":43.29297,"lon":5.37465,"is_reserved":false,"is_disabled":false,"rental_uris":{"android":"levelo://app?vid=d7d50467-dd44-48d9-b399-bcfcfa7d68e5","ios":"levelo://app?vid=d7d50467-dd44-48d9-b399-bcfcfa7d68e5"},"vehicle_type_id":"4","last_reported":1701000688,"current_range_meters":27200,"station_id":"ce4bgi12rcd13ifvqb70","pricing_plan_id":"free"},{"bike_id":"a6856a03-f5cc-40d4-be07-2322e07d6e1a","system_id":"levelo_inurba_marseille","lat":43.293009,"lon":5.374584,"is_reserved":false,"is_disabled":false,"rental_uris":{"android":"levelo://app?vid=a6856a03-f5cc-40d4-be07-2322e07d6e1a","ios":"levelo://app?vid=a6856a03-f5cc-40d4-be07-2322e07d6e1a"},"vehicle_type_id":"4","last_reported":1701000688,"current_range_meters":20800,"station_id":"ce4bgi12rcd13ifvqb70","pricing_plan_id":"free"},{"bike_id":"c529700c-d624-4bf9-82ba-e1eb866d3e5b","system_id":"levelo_inurba_marseille","lat":43.302992,"lon":5.392136,"is_reserved":false,"is_disabled":false,"rental_uris":{"android":"levelo://app?vid=c529700c-d624-4bf9-82ba-e1eb866d3e5b","ios":"levelo://app?vid=c529700c-d624-4bf9-82ba-e1eb866d3e5b"},"vehicle_type_id":"4","last_reported":1701000688,"current_range_meters":17600,"station_id":"ce4bgkh2rcd13ifvqbk0","pricing_plan_id":"free"},{"bike_id":"e100b2da-acd7-442a-996c-32ec66579328","system_id":"levelo_inurba_marseille","lat":43.29217,"lon":5.36041,"is_reserved":false,"is_disabled":false,"rental_uris":{"android":"levelo://app?vid=e100b2da-acd7-442a-996c-32ec66579328","ios":"levelo://app?vid=e100b2da-acd7-442a-996c-32ec66579328"},"vehicle_type_id":"4","last_reported":1701000688,"current_range_meters":30400,"station_id":"ce4bhbh2rcd13ifvqeqg","pricing_plan_id":"free"},{"bike_id":"d16ef8ac-5571-470a-8706-cc6c2a33f40d","system_id":"levelo_inurba_marseille","lat":43.291671,"lon":5.371575,"is_reserved":false,"is_disabled":false,"rental_uris":{"android":"levelo://app?vid=d16ef8ac-5571-470a-8706-cc6c2a33f40d","ios":"levelo://app?vid=d16ef8ac-5571-470a-8706-cc6c2a33f40d"},"vehicle_type_id":"4","last_reported":1701000688,"current_range_meters":26800,"station_id":"ce4bha92rcd13ifvqeh0","pricing_plan_id":"free"},{"bike_id":"7a817947-b714-4064-b3c1-fdcc2ac3c351","system_id":"levelo_inurba_marseille","lat":43.295748,"lon":5.37522,"is_reserved":false,"is_disabled":false,"rental_uris":{"android":"levelo://app?vid=7a817947-b714-4064-b3c1-fdcc2ac3c351","ios":"levelo://app?vid=7a817947-b714-4064-b3c1-fdcc2ac3c351"},"vehicle_type_id":"4","last_reported":1701000688,"current_range_meters":15200,"station_id":"ce4bgh92rcd13ifvqb50","pricing_plan_id":"free"},{"bike_id":"5e317fd0-5b27-48e6-8e83-af67ae62943b","system_id":"levelo_inurba_marseille","lat":43.309038,"lon":5.396546,"is_reserved":false,"is_disabled":false,"rental_uris":{"android":"levelo://app?vid=5e317fd0-5b27-48e6-8e83-af67ae62943b","ios":"levelo://app?vid=5e317fd0-5b27-48e6-8e83-af67ae62943b"},"vehicle_type_id":"4","last_reported":1701000688,"current_range_meters":23600,"station_id":"ce4bh012rcd13ifvqcv0","pricing_plan_id":"free"},{"bike_id":"d004a540-b451-4f1f-a4b2-16e4213cc9bc","system_id":"levelo_inurba_marseille","lat":43.29187,"lon":5.357958,"is_reserved":false,"is_disabled":false,"rental_uris":{"android":"levelo://app?vid=d004a540-b451-4f1f-a4b2-16e4213cc9bc","ios":"levelo://app?vid=d004a540-b451-4f1f-a4b2-16e4213cc9bc"},"vehicle_type_id":"4","last_reported":1701000688,"current_range_meters":28800,"station_id":"ce4bhb12rcd13ifvqel0","pricing_plan_id":"free"},{"bike_id":"3608f8a8-dea3-4095-a4c1-20876203b05a","system_id":"levelo_inurba_marseille","lat":43.309038,"lon":5.396546,"is_reserved":false,"is_disabled":false,"rental_uris":{"android":"levelo://app?vid=3608f8a8-dea3-4095-a4c1-20876203b05a","ios":"levelo://app?vid=3608f8a8-dea3-4095-a4c1-20876203b05a"},"vehicle_type_id":"4","last_reported":1701000688,"current_range_meters":20400,"station_id":"ce4bh012rcd13ifvqcv0","pricing_plan_id":"free"},{"bike_id":"6cb9a910-f2a9-4664-bdbf-4f546583e0ce","system_id":"levelo_inurba_marseille","lat":43.309047,"lon":5.396551,"is_reserved":false,"is_disabled":false,"rental_uris":{"android":"levelo://app?vid=6cb9a910-f2a9-4664-bdbf-4f546583e0ce","ios":"levelo://app?vid=6cb9a910-f2a9-4664-bdbf-4f546583e0ce"},"vehicle_type_id":"4","last_reported":1701000688,"current_range_meters":14400,"station_id":"ce4bh012rcd13ifvqcv0","pricing_plan_id":"free"},{"bike_id":"f2e0e67d-0fc9-45a8-977d-d4ff711f56e9","system_id":"levelo_inurba_marseille","lat":43.29529,"lon":5.385581,"is_reserved":false,"is_disabled":false,"rental_uris":{"android":"levelo://app?vid=f2e0e67d-0fc9-45a8-977d-d4ff711f56e9","ios":"levelo://app?vid=f2e0e67d-0fc9-45a8-977d-d4ff711f56e9"},"vehicle_type_id":"4","last_reported":1701000688,"current_range_meters":19600,"station_id":"ce4bgih2rcd13ifvqba0","pricing_plan_id":"free"},{"bike_id":"d35ae0f3-1c09-466f-82c7-f0ddaf897400","system_id":"levelo_inurba_marseille","lat":43.290631,"lon":5.359244,"is_reserved":false,"is_disabled":false,"rental_uris":{"android":"levelo://app?vid=d35ae0f3-1c09-466f-82c7-f0ddaf897400","ios":"levelo://app?vid=d35ae0f3-1c09-466f-82c7-f0ddaf897400"},"vehicle_type_id":"4","last_reported":1701000688,"current_range_meters":4800,"station_id":"ce4bha92rcd13ifvqeg0","pricing_plan_id":"free"},{"bike_id":"85257771-1a3a-4387-b53c-26b4db2a6dd5","system_id":"levelo_inurba_marseille","lat":43.294302,"lon":5.386263,"is_reserved":false,"is_disabled":false,"rental_uris":{"android":"levelo://app?vid=85257771-1a3a-4387-b53c-26b4db2a6dd5","ios":"levelo://app?vid=85257771-1a3a-4387-b53c-26b4db2a6dd5"},"vehicle_type_id":"4","last_reported":1701000688,"current_range_meters":21200,"station_id":"","pricing_plan_id":"free"},{"bike_id":"b364d5ea-529b-406d-9f26-d9c05529a113","system_id":"levelo_inurba_marseille","lat":43.289184,"lon":5.366408,"is_reserved":false,"is_disabled":false,"rental_uris":{"android":"levelo://app?vid=b364d5ea-529b-406d-9f26-d9c05529a113","ios":"levelo://app?vid=b364d5ea-529b-406d-9f26-d9c05529a113"},"vehicle_type_id":"4","last_reported":1701000688,"current_range_meters":5600,"station_id":"ce4bhap2rcd13ifvqek0","pricing_plan_id":"free"},{"bike_id":"4b9d8d65-f275-49b5-93a1-fc7cc9276990","system_id":"levelo_inurba_marseille","lat":43.289184,"lon":5.366408,"is_reserved":false,"is_disabled":false,"rental_uris":{"android":"levelo://app?vid=4b9d8d65-f275-49b5-93a1-fc7cc9276990","ios":"levelo://app?vid=4b9d8d65-f275-49b5-93a1-fc7cc9276990"},"vehicle_type_id":"4","last_reported":1701000688,"current_range_meters":26000,"station_id":"ce4bhap2rcd13ifvqek0","pricing_plan_id":"free"},{"bike_id":"5567392f-42e4-45d6-815a-95cc1a275640","system_id":"levelo_inurba_marseille","lat":43.289184,"lon":5.366408,"is_reserved":false,"is_disabled":false,"rental_uris":{"android":"levelo://app?vid=5567392f-42e4-45d6-815a-95cc1a275640","ios":"levelo://app?vid=5567392f-42e4-45d6-815a-95cc1a275640"},"vehicle_type_id":"4","last_reported":1701000688,"current_range_meters":31200,"station_id":"ce4bhap2rcd13ifvqek0","pricing_plan_id":"free"},{"bike_id":"9dc10cab-270b-4096-99ff-06e9818d81d8","system_id":"levelo_inurba_marseille","lat":43.289468,"lon":5.363719,"is_reserved":false,"is_disabled":false,"rental_uris":{"android":"levelo://app?vid=9dc10cab-270b-4096-99ff-06e9818d81d8","ios":"levelo://app?vid=9dc10cab-270b-4096-99ff-06e9818d81d8"},"vehicle_type_id":"4","last_reported":1701000688,"current_range_meters":18400,"station_id":"ce4bhc92rcd13ifvqetg","pricing_plan_id":"free"},{"bike_id":"beab9963-a69b-4617-bac4-91ecf745a365","system_id":"levelo_inurba_marseille","lat":43.28935,"lon":5.36406,"is_reserved":false,"is_disabled":false,"rental_uris":{"android":"levelo://app?vid=beab9963-a69b-4617-bac4-91ecf745a365","ios":"levelo://app?vid=beab9963-a69b-4617-bac4-91ecf745a365"},"vehicle_type_id":"4","last_reported":1701000688,"current_range_meters":16000,"station_id":"ce4bhc92rcd13ifvqetg","pricing_plan_id":"free"},{"bike_id":"fdf2d3c6-61d6-4c79-940d-8608c23bcac8","system_id":"levelo_inurba_marseille","lat":43.290104,"lon":5.356111,"is_reserved":false,"is_disabled":false,"rental_uris":{"android":"levelo://app?vid=fdf2d3c6-61d6-4c79-940d-8608c23bcac8","ios":"levelo://app?vid=fdf2d3c6-61d6-4c79-940d-8608c23bcac8"},"vehicle_type_id":"4","last_reported":1701000688,"current_range_meters":31200,"station_id":"ce4bhb92rcd13ifvqen0","pricing_plan_id":"free"},{"bike_id":"fbbefe7e-69be-4188-8d67-76a4487771e7","system_id":"levelo_inurba_marseille","lat":43.290104,"lon":5.356111,"is_reserved":false,"is_disabled":false,"rental_uris":{"android":"levelo://app?vid=fbbefe7e-69be-4188-8d67-76a4487771e7","ios":"levelo://app?vid=fbbefe7e-69be-4188-8d67-76a4487771e7"},"vehicle_type_id":"4","last_reported":1701000688,"current_range_meters":22000,"station_id":"ce4bhb92rcd13ifvqen0","pricing_plan_id":"free"},{"bike_id":"dfb9aeec-2912-453c-a038-1382a791ea4f","system_id":"levelo_inurba_marseille","lat":43.290104,"lon":5.356111,"is_reserved":false,"is_disabled":false,"rental_uris":{"android":"levelo://app?vid=dfb9aeec-2912-453c-a038-1382a791ea4f","ios":"levelo://app?vid=dfb9aeec-2912-453c-a038-1382a791ea4f"},"vehicle_type_id":"4","last_reported":1701000688,"current_range_meters":30400,"station_id":"ce4bhb92rcd13ifvqen0","pricing_plan_id":"free"},{"bike_id":"3791a1aa-980f-4d16-bf51-7bd6b97f6aa0","system_id":"levelo_inurba_marseille","lat":43.290103,"lon":5.356114,"is_reserved":false,"is_disabled":false,"rental_uris":{"android":"levelo://app?vid=3791a1aa-980f-4d16-bf51-7bd6b97f6aa0","ios":"levelo://app?vid=3791a1aa-980f-4d16-bf51-7bd6b97f6aa0"},"vehicle_type_id":"4","last_reported":1701000688,"current_range_meters":26800,"station_id":"ce4bhb92rcd13ifvqen0","pricing_plan_id":"free"},{"bike_id":"66e9e321-fb5d-4833-9d20-b51fa8d31cbe","system_id":"levelo_inurba_marseille","lat":43.290104,"lon":5.356111,"is_reserved":false,"is_disabled":false,"rental_uris":{"android":"levelo://app?vid=66e9e321-fb5d-4833-9d20-b51fa8d31cbe","ios":"levelo://app?vid=66e9e321-fb5d-4833-9d20-b51fa8d31cbe"},"vehicle_type_id":"4","last_reported":1701000688,"current_range_meters":27200,"station_id":"ce4bhb92rcd13ifvqen0","pricing_plan_id":"free"},{"bike_id":"4266c345-bc2c-48f0-9a59-75c6a9a927d1","system_id":"levelo_inurba_marseille","lat":43.290104,"lon":5.356111,"is_reserved":false,"is_disabled":false,"rental_uris":{"android":"levelo://app?vid=4266c345-bc2c-48f0-9a59-75c6a9a927d1","ios":"levelo://app?vid=4266c345-bc2c-48f0-9a59-75c6a9a927d1"},"vehicle_type_id":"4","last_reported":1701000688,"current_range_meters":21200,"station_id":"ce4bhb92rcd13ifvqen0","pricing_plan_id":"free"},{"bike_id":"8b1194fa-4277-4ff6-83b0-117082c58f3f","system_id":"levelo_inurba_marseille","lat":43.290104,"lon":5.356111,"is_reserved":false,"is_disabled":false,"rental_uris":{"android":"levelo://app?vid=8b1194fa-4277-4ff6-83b0-117082c58f3f","ios":"levelo://app?vid=8b1194fa-4277-4ff6-83b0-117082c58f3f"},"vehicle_type_id":"4","last_reported":1701000688,"current_range_meters":22400,"station_id":"ce4bhb92rcd13ifvqen0","pricing_plan_id":"free"},{"bike_id":"092c02c1-33dc-4c5a-9672-af3631bac8e2","system_id":"levelo_inurba_marseille","lat":43.290103,"lon":5.356114,"is_reserved":false,"is_disabled":false,"rental_uris":{"android":"levelo://app?vid=092c02c1-33dc-4c5a-9672-af3631bac8e2","ios":"levelo://app?vid=092c02c1-33dc-4c5a-9672-af3631bac8e2"},"vehicle_type_id":"4","last_reported":1701000688,"current_range_meters":30000,"station_id":"ce4bhb92rcd13ifvqen0","pricing_plan_id":"free"},{"bike_id":"efc0bd1c-f21a-4c66-b7fe-eed2d00e0d24","system_id":"levelo_inurba_marseille","lat":43.290995,"lon":5.381361,"is_reserved":false,"is_disabled":false,"rental_uris":{"android":"levelo://app?vid=efc0bd1c-f21a-4c66-b7fe-eed2d00e0d24","ios":"levelo://app?vid=efc0bd1c-f21a-4c66-b7fe-eed2d00e0d24"},"vehicle_type_id":"4","last_reported":1701000688,"current_range_meters":12800,"station_id":"ce4bh512rcd13ifvqe2g","pricing_plan_id":"free"},{"bike_id":"3d02fb29-de80-4b73-8d83-aa239cddba47","system_id":"levelo_inurba_marseille","lat":43.295169,"lon":5.390426,"is_reserved":false,"is_disabled":false,"rental_uris":{"android":"levelo://app?vid=3d02fb29-de80-4b73-8d83-aa239cddba47","ios":"levelo://app?vid=3d02fb29-de80-4b73-8d83-aa239cddba47"},"vehicle_type_id":"4","last_reported":1701000688,"current_range_meters":26400,"station_id":"ce4bh3p2rcd13ifvqdp0","pricing_plan_id":"free"},{"bike_id":"732d6ddf-729f-4cdf-8400-c58287b107f4","system_id":"levelo_inurba_marseille","lat":43.295334,"lon":5.390399,"is_reserved":false,"is_disabled":false,"rental_uris":{"android":"levelo://app?vid=732d6ddf-729f-4cdf-8400-c58287b107f4","ios":"levelo://app?vid=732d6ddf-729f-4cdf-8400-c58287b107f4"},"vehicle_type_id":"4","last_reported":1701000688,"current_range_meters":29200,"station_id":"","pricing_plan_id":"free"},{"bike_id":"9e9e851d-1e53-4876-8bd8-0e94ef16e16d","system_id":"levelo_inurba_marseille","lat":43.295169,"lon":5.390426,"is_reserved":false,"is_disabled":false,"rental_uris":{"android":"levelo://app?vid=9e9e851d-1e53-4876-8bd8-0e94ef16e16d","ios":"levelo://app?vid=9e9e851d-1e53-4876-8bd8-0e94ef16e16d"},"vehicle_type_id":"4","last_reported":1701000688,"current_range_meters":22000,"station_id":"ce4bh3p2rcd13ifvqdp0","pricing_plan_id":"free"},{"bike_id":"a0001b2e-1918-438c-917c-fbcf727670f6","system_id":"levelo_inurba_marseille","lat":43.295169,"lon":5.390426,"is_reserved":false,"is_disabled":false,"rental_uris":{"android":"levelo://app?vid=a0001b2e-1918-438c-917c-fbcf727670f6","ios":"levelo://app?vid=a0001b2e-1918-438c-917c-fbcf727670f6"},"vehicle_type_id":"4","last_reported":1701000688,"current_range_meters":23200,"station_id":"ce4bh3p2rcd13ifvqdp0","pricing_plan_id":"free"},{"bike_id":"14a9faf7-e2eb-49f5-97b5-baffe71059ea","system_id":"levelo_inurba_marseille","lat":43.295169,"lon":5.390426,"is_reserved":false,"is_disabled":false,"rental_uris":{"android":"levelo://app?vid=14a9faf7-e2eb-49f5-97b5-baffe71059ea","ios":"levelo://app?vid=14a9faf7-e2eb-49f5-97b5-baffe71059ea"},"vehicle_type_id":"4","last_reported":1701000688,"current_range_meters":18000,"station_id":"ce4bh3p2rcd13ifvqdp0","pricing_plan_id":"free"},{"bike_id":"d0400900-5fe5-4b77-820c-4738c6c6d8a1","system_id":"levelo_inurba_marseille","lat":43.295315,"lon":5.390454,"is_reserved":false,"is_disabled":false,"rental_uris":{"android":"levelo://app?vid=d0400900-5fe5-4b77-820c-4738c6c6d8a1","ios":"levelo://app?vid=d0400900-5fe5-4b77-820c-4738c6c6d8a1"},"vehicle_type_id":"4","last_reported":1701000688,"current_range_meters":18800,"station_id":"ce4bh3p2rcd13ifvqdp0","pricing_plan_id":"free"},{"bike_id":"fdbbacaa-a99a-4a31-ba1a-f3cdb1aaf72f","system_id":"levelo_inurba_marseille","lat":43.28856,"lon":5.358371,"is_reserved":false,"is_disabled":false,"rental_uris":{"android":"levelo://app?vid=fdbbacaa-a99a-4a31-ba1a-f3cdb1aaf72f","ios":"levelo://app?vid=fdbbacaa-a99a-4a31-ba1a-f3cdb1aaf72f"},"vehicle_type_id":"4","last_reported":1701000688,"current_range_meters":25200,"station_id":"ce4bhb12rcd13ifvqem0","pricing_plan_id":"free"},{"bike_id":"de4934ef-5f8a-47de-aa4e-092ab81beee9","system_id":"levelo_inurba_marseille","lat":43.312609,"lon":5.401662,"is_reserved":false,"is_disabled":false,"rental_uris":{"android":"levelo://app?vid=de4934ef-5f8a-47de-aa4e-092ab81beee9","ios":"levelo://app?vid=de4934ef-5f8a-47de-aa4e-092ab81beee9"},"vehicle_type_id":"4","last_reported":1701000688,"current_range_meters":20800,"station_id":"ce4bh092rcd13ifvqd30","pricing_plan_id":"free"},{"bike_id":"3e7893b5-9b59-42d7-a998-7074e3002ca3","system_id":"levelo_inurba_marseille","lat":43.309371,"lon":5.401449,"is_reserved":false,"is_disabled":false,"rental_uris":{"android":"levelo://app?vid=3e7893b5-9b59-42d7-a998-7074e3002ca3","ios":"levelo://app?vid=3e7893b5-9b59-42d7-a998-7074e3002ca3"},"vehicle_type_id":"4","last_reported":1701000688,"current_range_meters":22400,"station_id":"ce4bgvp2rcd13ifvqct0","pricing_plan_id":"free"},{"bike_id":"77cb824f-f254-474c-9a17-cd9c41b9d2c7","system_id":"levelo_inurba_marseille","lat":43.309371,"lon":5.401449,"is_reserved":false,"is_disabled":false,"rental_uris":{"android":"levelo://app?vid=77cb824f-f254-474c-9a17-cd9c41b9d2c7","ios":"levelo://app?vid=77cb824f-f254-474c-9a17-cd9c41b9d2c7"},"vehicle_type_id":"4","last_reported":1701000688,"current_range_meters":14000,"station_id":"ce4bgvp2rcd13ifvqct0","pricing_plan_id":"free"},{"bike_id":"df284b61-4f87-42f5-aabe-3677eb80bc04","system_id":"levelo_inurba_marseille","lat":43.306412,"lon":5.401035,"is_reserved":false,"is_disabled":false,"rental_uris":{"android":"levelo://app?vid=df284b61-4f87-42f5-aabe-3677eb80bc04","ios":"levelo://app?vid=df284b61-4f87-42f5-aabe-3677eb80bc04"},"vehicle_type_id":"4","last_reported":1701000688,"current_range_meters":26400,"station_id":"ce4bh112rcd13ifvqda0","pricing_plan_id":"free"},{"bike_id":"f66b35c5-04f8-4b68-89df-88e4b1641cd5","system_id":"levelo_inurba_marseille","lat":43.286591,"lon":5.363346,"is_reserved":false,"is_disabled":false,"rental_uris":{"android":"levelo://app?vid=f66b35c5-04f8-4b68-89df-88e4b1641cd5","ios":"levelo://app?vid=f66b35c5-04f8-4b68-89df-88e4b1641cd5"},"vehicle_type_id":"4","last_reported":1701000688,"current_range_meters":29600,"station_id":"ce4bhah2rcd13ifvqej0","pricing_plan_id":"free"},{"bike_id":"ed62d747-4b31-4372-8ec6-972e181474ba","system_id":"levelo_inurba_marseille","lat":43.286593,"lon":5.363346,"is_reserved":false,"is_disabled":false,"rental_uris":{"android":"levelo://app?vid=ed62d747-4b31-4372-8ec6-972e181474ba","ios":"levelo://app?vid=ed62d747-4b31-4372-8ec6-972e181474ba"},"vehicle_type_id":"4","last_reported":1701000688,"current_range_meters":6800,"station_id":"ce4bhah2rcd13ifvqej0","pricing_plan_id":"free"},{"bike_id":"03f52899-de89-4c91-b068-c191312430ee","system_id":"levelo_inurba_marseille","lat":43.286039,"lon":5.370679,"is_reserved":false,"is_disabled":false,"rental_uris":{"android":"levelo://app?vid=03f52899-de89-4c91-b068-c191312430ee","ios":"levelo://app?vid=03f52899-de89-4c91-b068-c191312430ee"},"vehicle_type_id":"4","last_reported":1701000688,"current_range_meters":29200,"station_id":"ce4bht12rcd13ifvqi60","pricing_plan_id":"free"},{"bike_id":"5b5f61b4-b77b-4311-9d47-e2336d8cfbd3","system_id":"levelo_inurba_marseille","lat":43.286039,"lon":5.370679,"is_reserved":false,"is_disabled":false,"rental_uris":{"android":"levelo://app?vid=5b5f61b4-b77b-4311-9d47-e2336d8cfbd3","ios":"levelo://app?vid=5b5f61b4-b77b-4311-9d47-e2336d8cfbd3"},"vehicle_type_id":"4","last_reported":1701000688,"current_range_meters":26800,"station_id":"ce4bht12rcd13ifvqi60","pricing_plan_id":"free"},{"bike_id":"d0cc9fe1-c65d-427d-b65a-80c2d15e8427","system_id":"levelo_inurba_marseille","lat":43.28607,"lon":5.37066,"is_reserved":false,"is_disabled":false,"rental_uris":{"android":"levelo://app?vid=d0cc9fe1-c65d-427d-b65a-80c2d15e8427","ios":"levelo://app?vid=d0cc9fe1-c65d-427d-b65a-80c2d15e8427"},"vehicle_type_id":"4","last_reported":1701000688,"current_range_meters":26400,"station_id":"ce4bht12rcd13ifvqi60","pricing_plan_id":"free"},{"bike_id":"97474dae-86c4-4de6-a536-9ba7ba211d9e","system_id":"levelo_inurba_marseille","lat":43.287185,"lon":5.379373,"is_reserved":false,"is_disabled":false,"rental_uris":{"android":"levelo://app?vid=97474dae-86c4-4de6-a536-9ba7ba211d9e","ios":"levelo://app?vid=97474dae-86c4-4de6-a536-9ba7ba211d9e"},"vehicle_type_id":"4","last_reported":1701000688,"current_range_meters":24000,"station_id":"ce4bh9p2rcd13ifvqec0","pricing_plan_id":"free"},{"bike_id":"b92e7fed-e8fc-4db4-91e7-065b937ca199","system_id":"levelo_inurba_marseille","lat":43.31643,"lon":5.40432,"is_reserved":false,"is_disabled":false,"rental_uris":{"android":"levelo://app?vid=b92e7fed-e8fc-4db4-91e7-065b937ca199","ios":"levelo://app?vid=b92e7fed-e8fc-4db4-91e7-065b937ca199"},"vehicle_type_id":"4","last_reported":1701000688,"current_range_meters":0,"station_id":"ce4bh012rcd13ifvqd00","pricing_plan_id":"free"},{"bike_id":"da6936b2-5593-4679-bab3-db6b787ba7eb","system_id":"levelo_inurba_marseille","lat":43.31643,"lon":5.404405,"is_reserved":false,"is_disabled":false,"rental_uris":{"android":"levelo://app?vid=da6936b2-5593-4679-bab3-db6b787ba7eb","ios":"levelo://app?vid=da6936b2-5593-4679-bab3-db6b787ba7eb"},"vehicle_type_id":"4","last_reported":1701000688,"current_range_meters":8800,"station_id":"ce4bh012rcd13ifvqd00","pricing_plan_id":"free"},{"bike_id":"e67eef3d-b21b-4d55-b15a-64d027e6c32a","system_id":"levelo_inurba_marseille","lat":43.291994,"lon":5.392907,"is_reserved":false,"is_disabled":false,"rental_uris":{"android":"levelo://app?vid=e67eef3d-b21b-4d55-b15a-64d027e6c32a","ios":"levelo://app?vid=e67eef3d-b21b-4d55-b15a-64d027e6c32a"},"vehicle_type_id":"4","last_reported":1701000688,"current_range_meters":22800,"station_id":"ce4bh192rcd13ifvqdd0","pricing_plan_id":"free"},{"bike_id":"49a3a79f-e925-4ddc-bf8d-c9784d55b6d3","system_id":"levelo_inurba_marseille","lat":43.28456,"lon":5.35894,"is_reserved":false,"is_disabled":false,"rental_uris":{"android":"levelo://app?vid=49a3a79f-e925-4ddc-bf8d-c9784d55b6d3","ios":"levelo://app?vid=49a3a79f-e925-4ddc-bf8d-c9784d55b6d3"},"vehicle_type_id":"4","last_reported":1701000688,"current_range_meters":8400,"station_id":"ce4bhah2rcd13ifvqei0","pricing_plan_id":"free"},{"bike_id":"7b250690-0323-4fbd-9b88-836c7c0f3141","system_id":"levelo_inurba_marseille","lat":43.285848,"lon":5.350787,"is_reserved":false,"is_disabled":false,"rental_uris":{"android":"levelo://app?vid=7b250690-0323-4fbd-9b88-836c7c0f3141","ios":"levelo://app?vid=7b250690-0323-4fbd-9b88-836c7c0f3141"},"vehicle_type_id":"4","last_reported":1701000688,"current_range_meters":5200,"station_id":"ce4bhch2rcd13ifvqeug","pricing_plan_id":"free"},{"bike_id":"e56a2ee1-1b2c-4394-b0b8-2facdba419a5","system_id":"levelo_inurba_marseille","lat":43.285856,"lon":5.350771,"is_reserved":false,"is_disabled":false,"rental_uris":{"android":"levelo://app?vid=e56a2ee1-1b2c-4394-b0b8-2facdba419a5","ios":"levelo://app?vid=e56a2ee1-1b2c-4394-b0b8-2facdba419a5"},"vehicle_type_id":"4","last_reported":1701000688,"current_range_meters":18400,"station_id":"ce4bhch2rcd13ifvqeug","pricing_plan_id":"free"},{"bike_id":"a07d2893-bded-4b81-afd8-8b1d9c18a4d1","system_id":"levelo_inurba_marseille","lat":43.285856,"lon":5.350771,"is_reserved":false,"is_disabled":false,"rental_uris":{"android":"levelo://app?vid=a07d2893-bded-4b81-afd8-8b1d9c18a4d1","ios":"levelo://app?vid=a07d2893-bded-4b81-afd8-8b1d9c18a4d1"},"vehicle_type_id":"4","last_reported":1701000688,"current_range_meters":22000,"station_id":"ce4bhch2rcd13ifvqeug","pricing_plan_id":"free"},{"bike_id":"48b21e24-6216-42e4-aa6b-f843ad4b3ebe","system_id":"levelo_inurba_marseille","lat":43.285848,"lon":5.350787,"is_reserved":false,"is_disabled":false,"rental_uris":{"android":"levelo://app?vid=48b21e24-6216-42e4-aa6b-f843ad4b3ebe","ios":"levelo://app?vid=48b21e24-6216-42e4-aa6b-f843ad4b3ebe"},"vehicle_type_id":"4","last_reported":1701000688,"current_range_meters":11600,"station_id":"ce4bhch2rcd13ifvqeug","pricing_plan_id":"free"},{"bike_id":"ad8aad27-2c62-42c6-bce6-1f1f03ffad13","system_id":"levelo_inurba_marseille","lat":43.285856,"lon":5.350771,"is_reserved":false,"is_disabled":false,"rental_uris":{"android":"levelo://app?vid=ad8aad27-2c62-42c6-bce6-1f1f03ffad13","ios":"levelo://app?vid=ad8aad27-2c62-42c6-bce6-1f1f03ffad13"},"vehicle_type_id":"4","last_reported":1701000688,"current_range_meters":16800,"station_id":"ce4bhch2rcd13ifvqeug","pricing_plan_id":"free"},{"bike_id":"a41c275c-60af-4db3-8a77-2e8596e4c8ed","system_id":"levelo_inurba_marseille","lat":43.28612,"lon":5.35107,"is_reserved":false,"is_disabled":false,"rental_uris":{"android":"levelo://app?vid=a41c275c-60af-4db3-8a77-2e8596e4c8ed","ios":"levelo://app?vid=a41c275c-60af-4db3-8a77-2e8596e4c8ed"},"vehicle_type_id":"4","last_reported":1701000688,"current_range_meters":4000,"station_id":"ce4bhch2rcd13ifvqeug","pricing_plan_id":"free"},{"bike_id":"ca5dc3da-39b7-4135-b10c-c965bace5b06","system_id":"levelo_inurba_marseille","lat":43.283998,"lon":5.375062,"is_reserved":false,"is_disabled":false,"rental_uris":{"android":"levelo://app?vid=ca5dc3da-39b7-4135-b10c-c965bace5b06","ios":"levelo://app?vid=ca5dc3da-39b7-4135-b10c-c965bace5b06"},"vehicle_type_id":"4","last_reported":1701000688,"current_range_meters":20800,"station_id":"ce4bh412rcd13ifvqds0","pricing_plan_id":"free"},{"bike_id":"64bf72e6-6463-4d96-9ad3-b39dffc4f4c5","system_id":"levelo_inurba_marseille","lat":43.283998,"lon":5.375062,"is_reserved":false,"is_disabled":false,"rental_uris":{"android":"levelo://app?vid=64bf72e6-6463-4d96-9ad3-b39dffc4f4c5","ios":"levelo://app?vid=64bf72e6-6463-4d96-9ad3-b39dffc4f4c5"},"vehicle_type_id":"4","last_reported":1701000688,"current_range_meters":18800,"station_id":"ce4bh412rcd13ifvqds0","pricing_plan_id":"free"},{"bike_id":"3088027d-a82f-409a-94de-9f5ed993ee44","system_id":"levelo_inurba_marseille","lat":43.283998,"lon":5.375062,"is_reserved":false,"is_disabled":false,"rental_uris":{"android":"levelo://app?vid=3088027d-a82f-409a-94de-9f5ed993ee44","ios":"levelo://app?vid=3088027d-a82f-409a-94de-9f5ed993ee44"},"vehicle_type_id":"4","last_reported":1701000688,"current_range_meters":15200,"station_id":"ce4bh412rcd13ifvqds0","pricing_plan_id":"free"},{"bike_id":"d7291cda-b47c-4b21-ad1d-adea30d670c7","system_id":"levelo_inurba_marseille","lat":43.319179,"lon":5.407725,"is_reserved":false,"is_disabled":false,"rental_uris":{"android":"levelo://app?vid=d7291cda-b47c-4b21-ad1d-adea30d670c7","ios":"levelo://app?vid=d7291cda-b47c-4b21-ad1d-adea30d670c7"},"vehicle_type_id":"4","last_reported":1701000688,"current_range_meters":8800,"station_id":"ce4bhq12rcd13ifvqhig","pricing_plan_id":"free"},{"bike_id":"8ed56f88-8a9e-4ba5-9596-1a61b5af5d53","system_id":"levelo_inurba_marseille","lat":43.284787,"lon":5.384116,"is_reserved":false,"is_disabled":false,"rental_uris":{"android":"levelo://app?vid=8ed56f88-8a9e-4ba5-9596-1a61b5af5d53","ios":"levelo://app?vid=8ed56f88-8a9e-4ba5-9596-1a61b5af5d53"},"vehicle_type_id":"4","last_reported":1701000688,"current_range_meters":27200,"station_id":"ce4bh512rcd13ifvqe3g","pricing_plan_id":"free"},{"bike_id":"c4654d01-d648-476d-ba5b-6c35bd82be62","system_id":"levelo_inurba_marseille","lat":43.326605,"lon":5.409903,"is_reserved":false,"is_disabled":false,"rental_uris":{"android":"levelo://app?vid=c4654d01-d648-476d-ba5b-6c35bd82be62","ios":"levelo://app?vid=c4654d01-d648-476d-ba5b-6c35bd82be62"},"vehicle_type_id":"4","last_reported":1701000688,"current_range_meters":24400,"station_id":"ce4bhpp2rcd13ifvqhgg","pricing_plan_id":"free"},{"bike_id":"5219c56c-74bb-4256-a55e-f07e6a57df39","system_id":"levelo_inurba_marseille","lat":43.28854,"lon":5.39311,"is_reserved":false,"is_disabled":false,"rental_uris":{"android":"levelo://app?vid=5219c56c-74bb-4256-a55e-f07e6a57df39","ios":"levelo://app?vid=5219c56c-74bb-4256-a55e-f07e6a57df39"},"vehicle_type_id":"4","last_reported":1701000688,"current_range_meters":16000,"station_id":"ce4bh2p2rcd13ifvqdi0","pricing_plan_id":"free"},{"bike_id":"dd2c19c8-c88c-47a2-88e1-cc8f2cde88b7","system_id":"levelo_inurba_marseille","lat":43.288485,"lon":5.393195,"is_reserved":false,"is_disabled":false,"rental_uris":{"android":"levelo://app?vid=dd2c19c8-c88c-47a2-88e1-cc8f2cde88b7","ios":"levelo://app?vid=dd2c19c8-c88c-47a2-88e1-cc8f2cde88b7"},"vehicle_type_id":"4","last_reported":1701000688,"current_range_meters":14400,"station_id":"ce4bh2p2rcd13ifvqdi0","pricing_plan_id":"free"},{"bike_id":"3caab24a-d0a9-46ce-a9a6-3cbe3c610d4c","system_id":"levelo_inurba_marseille","lat":43.284217,"lon":5.349697,"is_reserved":false,"is_disabled":false,"rental_uris":{"android":"levelo://app?vid=3caab24a-d0a9-46ce-a9a6-3cbe3c610d4c","ios":"levelo://app?vid=3caab24a-d0a9-46ce-a9a6-3cbe3c610d4c"},"vehicle_type_id":"4","last_reported":1701000688,"current_range_meters":26400,"station_id":"ce4bhbh2rcd13ifvqepg","pricing_plan_id":"free"},{"bike_id":"121d48b7-fd86-46bc-b467-87e635fee642","system_id":"levelo_inurba_marseille","lat":43.284217,"lon":5.349697,"is_reserved":false,"is_disabled":false,"rental_uris":{"android":"levelo://app?vid=121d48b7-fd86-46bc-b467-87e635fee642","ios":"levelo://app?vid=121d48b7-fd86-46bc-b467-87e635fee642"},"vehicle_type_id":"4","last_reported":1701000688,"current_range_meters":21600,"station_id":"ce4bhbh2rcd13ifvqepg","pricing_plan_id":"free"},{"bike_id":"e2284003-4e46-4e0a-93e7-73d05c3666d9","system_id":"levelo_inurba_marseille","lat":43.33508,"lon":5.397755,"is_reserved":false,"is_disabled":false,"rental_uris":{"android":"levelo://app?vid=e2284003-4e46-4e0a-93e7-73d05c3666d9","ios":"levelo://app?vid=e2284003-4e46-4e0a-93e7-73d05c3666d9"},"vehicle_type_id":"4","last_reported":1701000688,"current_range_meters":18800,"station_id":"","pricing_plan_id":"free"},{"bike_id":"ede57602-ec38-4c09-9e35-d1dc68158775","system_id":"levelo_inurba_marseille","lat":43.292724,"lon":5.401131,"is_reserved":false,"is_disabled":false,"rental_uris":{"android":"levelo://app?vid=ede57602-ec38-4c09-9e35-d1dc68158775","ios":"levelo://app?vid=ede57602-ec38-4c09-9e35-d1dc68158775"},"vehicle_type_id":"4","last_reported":1701000688,"current_range_meters":20000,"station_id":"ce4bh312rcd13ifvqdk0","pricing_plan_id":"free"},{"bike_id":"35060aca-706a-4966-b066-3979bd33ff60","system_id":"levelo_inurba_marseille","lat":43.282754,"lon":5.350519,"is_reserved":false,"is_disabled":false,"rental_uris":{"android":"levelo://app?vid=35060aca-706a-4966-b066-3979bd33ff60","ios":"levelo://app?vid=35060aca-706a-4966-b066-3979bd33ff60"},"vehicle_type_id":"4","last_reported":1701000688,"current_range_meters":18000,"station_id":"ce4bhbp2rcd13ifvqerg","pricing_plan_id":"free"},{"bike_id":"9b074328-0df5-48d2-9ff8-82cb27d27c1c","system_id":"levelo_inurba_marseille","lat":43.282754,"lon":5.350519,"is_reserved":false,"is_disabled":false,"rental_uris":{"android":"levelo://app?vid=9b074328-0df5-48d2-9ff8-82cb27d27c1c","ios":"levelo://app?vid=9b074328-0df5-48d2-9ff8-82cb27d27c1c"},"vehicle_type_id":"4","last_reported":1701000688,"current_range_meters":11200,"station_id":"ce4bhbp2rcd13ifvqerg","pricing_plan_id":"free"},{"bike_id":"9b50d05d-9436-4b3f-95ea-fabf3ea85f21","system_id":"levelo_inurba_marseille","lat":43.282754,"lon":5.350519,"is_reserved":false,"is_disabled":false,"rental_uris":{"android":"levelo://app?vid=9b50d05d-9436-4b3f-95ea-fabf3ea85f21","ios":"levelo://app?vid=9b50d05d-9436-4b3f-95ea-fabf3ea85f21"},"vehicle_type_id":"4","last_reported":1701000688,"current_range_meters":5200,"station_id":"ce4bhbp2rcd13ifvqerg","pricing_plan_id":"free"},{"bike_id":"b3e79824-25e8-4268-ad1b-3bbdd7a7e89d","system_id":"levelo_inurba_marseille","lat":43.283502,"lon":5.386471,"is_reserved":false,"is_disabled":false,"rental_uris":{"android":"levelo://app?vid=b3e79824-25e8-4268-ad1b-3bbdd7a7e89d","ios":"levelo://app?vid=b3e79824-25e8-4268-ad1b-3bbdd7a7e89d"},"vehicle_type_id":"4","last_reported":1701000688,"current_range_meters":24800,"station_id":"ce4bh492rcd13ifvqdvg","pricing_plan_id":"free"},{"bike_id":"b095f0c4-696a-45c9-9db0-8005e2823dc2","system_id":"levelo_inurba_marseille","lat":43.282754,"lon":5.350519,"is_reserved":false,"is_disabled":false,"rental_uris":{"android":"levelo://app?vid=b095f0c4-696a-45c9-9db0-8005e2823dc2","ios":"levelo://app?vid=b095f0c4-696a-45c9-9db0-8005e2823dc2"},"vehicle_type_id":"4","last_reported":1701000688,"current_range_meters":16400,"station_id":"ce4bhbp2rcd13ifvqerg","pricing_plan_id":"free"},{"bike_id":"b28a3c43-48f1-4080-a2df-bc41d4de5cb6","system_id":"levelo_inurba_marseille","lat":43.283502,"lon":5.386471,"is_reserved":false,"is_disabled":false,"rental_uris":{"android":"levelo://app?vid=b28a3c43-48f1-4080-a2df-bc41d4de5cb6","ios":"levelo://app?vid=b28a3c43-48f1-4080-a2df-bc41d4de5cb6"},"vehicle_type_id":"4","last_reported":1701000688,"current_range_meters":14000,"station_id":"ce4bh492rcd13ifvqdvg","pricing_plan_id":"free"},{"bike_id":"a81f470e-6a88-41c8-b2f5-783c9beb660b","system_id":"levelo_inurba_marseille","lat":43.282754,"lon":5.350519,"is_reserved":false,"is_disabled":false,"rental_uris":{"android":"levelo://app?vid=a81f470e-6a88-41c8-b2f5-783c9beb660b","ios":"levelo://app?vid=a81f470e-6a88-41c8-b2f5-783c9beb660b"},"vehicle_type_id":"4","last_reported":1701000688,"current_range_meters":17200,"station_id":"ce4bhbp2rcd13ifvqerg","pricing_plan_id":"free"},{"bike_id":"cc8f3e63-955d-4073-b456-11abf8601fca","system_id":"levelo_inurba_marseille","lat":43.282754,"lon":5.350519,"is_reserved":false,"is_disabled":false,"rental_uris":{"android":"levelo://app?vid=cc8f3e63-955d-4073-b456-11abf8601fca","ios":"levelo://app?vid=cc8f3e63-955d-4073-b456-11abf8601fca"},"vehicle_type_id":"4","last_reported":1701000688,"current_range_meters":19200,"station_id":"ce4bhbp2rcd13ifvqerg","pricing_plan_id":"free"},{"bike_id":"8d499c4e-1933-4a61-a104-a6e042414e29","system_id":"levelo_inurba_marseille","lat":43.282744,"lon":5.350533,"is_reserved":false,"is_disabled":false,"rental_uris":{"android":"levelo://app?vid=8d499c4e-1933-4a61-a104-a6e042414e29","ios":"levelo://app?vid=8d499c4e-1933-4a61-a104-a6e042414e29"},"vehicle_type_id":"4","last_reported":1701000688,"current_range_meters":24400,"station_id":"ce4bhbp2rcd13ifvqerg","pricing_plan_id":"free"},{"bike_id":"09888acc-ad6c-4b7d-a289-f46f31b5f20a","system_id":"levelo_inurba_marseille","lat":43.282754,"lon":5.350519,"is_reserved":false,"is_disabled":false,"rental_uris":{"android":"levelo://app?vid=09888acc-ad6c-4b7d-a289-f46f31b5f20a","ios":"levelo://app?vid=09888acc-ad6c-4b7d-a289-f46f31b5f20a"},"vehicle_type_id":"4","last_reported":1701000688,"current_range_meters":25600,"station_id":"ce4bhbp2rcd13ifvqerg","pricing_plan_id":"free"},{"bike_id":"5a5f8a99-32a7-49fb-8eb1-dc45c3708491","system_id":"levelo_inurba_marseille","lat":43.283502,"lon":5.386471,"is_reserved":false,"is_disabled":false,"rental_uris":{"android":"levelo://app?vid=5a5f8a99-32a7-49fb-8eb1-dc45c3708491","ios":"levelo://app?vid=5a5f8a99-32a7-49fb-8eb1-dc45c3708491"},"vehicle_type_id":"4","last_reported":1701000688,"current_range_meters":28400,"station_id":"ce4bh492rcd13ifvqdvg","pricing_plan_id":"free"},{"bike_id":"bae8257b-c78f-4caa-8cbd-d50840bf869b","system_id":"levelo_inurba_marseille","lat":43.282744,"lon":5.350533,"is_reserved":false,"is_disabled":false,"rental_uris":{"android":"levelo://app?vid=bae8257b-c78f-4caa-8cbd-d50840bf869b","ios":"levelo://app?vid=bae8257b-c78f-4caa-8cbd-d50840bf869b"},"vehicle_type_id":"4","last_reported":1701000688,"current_range_meters":16400,"station_id":"ce4bhbp2rcd13ifvqerg","pricing_plan_id":"free"},{"bike_id":"077ed6cd-2bae-4ed6-bdf9-4c36037dbcea","system_id":"levelo_inurba_marseille","lat":43.282744,"lon":5.350533,"is_reserved":false,"is_disabled":false,"rental_uris":{"android":"levelo://app?vid=077ed6cd-2bae-4ed6-bdf9-4c36037dbcea","ios":"levelo://app?vid=077ed6cd-2bae-4ed6-bdf9-4c36037dbcea"},"vehicle_type_id":"4","last_reported":1701000688,"current_range_meters":26000,"station_id":"ce4bhbp2rcd13ifvqerg","pricing_plan_id":"free"},{"bike_id":"834da89f-9a62-49f3-be64-9dfd86ed0905","system_id":"levelo_inurba_marseille","lat":43.283502,"lon":5.386471,"is_reserved":false,"is_disabled":false,"rental_uris":{"android":"levelo://app?vid=834da89f-9a62-49f3-be64-9dfd86ed0905","ios":"levelo://app?vid=834da89f-9a62-49f3-be64-9dfd86ed0905"},"vehicle_type_id":"4","last_reported":1701000688,"current_range_meters":24800,"station_id":"ce4bh492rcd13ifvqdvg","pricing_plan_id":"free"},{"bike_id":"661f025d-47e8-415e-aa07-f17b0f70526a","system_id":"levelo_inurba_marseille","lat":43.282744,"lon":5.350533,"is_reserved":false,"is_disabled":false,"rental_uris":{"android":"levelo://app?vid=661f025d-47e8-415e-aa07-f17b0f70526a","ios":"levelo://app?vid=661f025d-47e8-415e-aa07-f17b0f70526a"},"vehicle_type_id":"4","last_reported":1701000688,"current_range_meters":12800,"station_id":"ce4bhbp2rcd13ifvqerg","pricing_plan_id":"free"},{"bike_id":"db9334a0-0093-411c-aac9-d2c04233863c","system_id":"levelo_inurba_marseille","lat":43.28039,"lon":5.369297,"is_reserved":false,"is_disabled":false,"rental_uris":{"android":"levelo://app?vid=db9334a0-0093-411c-aac9-d2c04233863c","ios":"levelo://app?vid=db9334a0-0093-411c-aac9-d2c04233863c"},"vehicle_type_id":"4","last_reported":1701000688,"current_range_meters":30400,"station_id":"ce4bha12rcd13ifvqef0","pricing_plan_id":"free"},{"bike_id":"752db139-02d7-4fc2-b740-46737058f155","system_id":"levelo_inurba_marseille","lat":43.28039,"lon":5.369297,"is_reserved":false,"is_disabled":false,"rental_uris":{"android":"levelo://app?vid=752db139-02d7-4fc2-b740-46737058f155","ios":"levelo://app?vid=752db139-02d7-4fc2-b740-46737058f155"},"vehicle_type_id":"4","last_reported":1701000688,"current_range_meters":25200,"station_id":"ce4bha12rcd13ifvqef0","pricing_plan_id":"free"},{"bike_id":"bcd500b3-23bc-4e91-bb16-1c1d37a048b8","system_id":"levelo_inurba_marseille","lat":43.280382,"lon":5.369291,"is_reserved":false,"is_disabled":false,"rental_uris":{"android":"levelo://app?vid=bcd500b3-23bc-4e91-bb16-1c1d37a048b8","ios":"levelo://app?vid=bcd500b3-23bc-4e91-bb16-1c1d37a048b8"},"vehicle_type_id":"4","last_reported":1701000688,"current_range_meters":18400,"station_id":"ce4bha12rcd13ifvqef0","pricing_plan_id":"free"},{"bike_id":"ec3b3fd1-5bfc-4d6f-bc0e-3062bce32f53","system_id":"levelo_inurba_marseille","lat":43.28039,"lon":5.369297,"is_reserved":false,"is_disabled":false,"rental_uris":{"android":"levelo://app?vid=ec3b3fd1-5bfc-4d6f-bc0e-3062bce32f53","ios":"levelo://app?vid=ec3b3fd1-5bfc-4d6f-bc0e-3062bce32f53"},"vehicle_type_id":"4","last_reported":1701000688,"current_range_meters":31200,"station_id":"ce4bha12rcd13ifvqef0","pricing_plan_id":"free"},{"bike_id":"672fd971-367d-4bcb-88b1-3a3339faa854","system_id":"levelo_inurba_marseille","lat":43.283502,"lon":5.386471,"is_reserved":false,"is_disabled":false,"rental_uris":{"android":"levelo://app?vid=672fd971-367d-4bcb-88b1-3a3339faa854","ios":"levelo://app?vid=672fd971-367d-4bcb-88b1-3a3339faa854"},"vehicle_type_id":"4","last_reported":1701000688,"current_range_meters":24000,"station_id":"ce4bh492rcd13ifvqdvg","pricing_plan_id":"free"},{"bike_id":"2e749a8b-fd97-448b-95be-a41564161e7c","system_id":"levelo_inurba_marseille","lat":43.290412,"lon":5.399633,"is_reserved":false,"is_disabled":false,"rental_uris":{"android":"levelo://app?vid=2e749a8b-fd97-448b-95be-a41564161e7c","ios":"levelo://app?vid=2e749a8b-fd97-448b-95be-a41564161e7c"},"vehicle_type_id":"4","last_reported":1701000688,"current_range_meters":28000,"station_id":"ce4bh392rcd13ifvqdm0","pricing_plan_id":"free"},{"bike_id":"f0dee295-6c0b-45bf-bb79-79160bc29adc","system_id":"levelo_inurba_marseille","lat":43.281044,"lon":5.378308,"is_reserved":false,"is_disabled":false,"rental_uris":{"android":"levelo://app?vid=f0dee295-6c0b-45bf-bb79-79160bc29adc","ios":"levelo://app?vid=f0dee295-6c0b-45bf-bb79-79160bc29adc"},"vehicle_type_id":"4","last_reported":1701000688,"current_range_meters":5200,"station_id":"ce4bha12rcd13ifvqee0","pricing_plan_id":"free"},{"bike_id":"7d4274e9-b2d7-4e98-ba9d-2706c7f14fa3","system_id":"levelo_inurba_marseille","lat":43.281044,"lon":5.378308,"is_reserved":false,"is_disabled":false,"rental_uris":{"android":"levelo://app?vid=7d4274e9-b2d7-4e98-ba9d-2706c7f14fa3","ios":"levelo://app?vid=7d4274e9-b2d7-4e98-ba9d-2706c7f14fa3"},"vehicle_type_id":"4","last_reported":1701000688,"current_range_meters":6400,"station_id":"ce4bha12rcd13ifvqee0","pricing_plan_id":"free"},{"bike_id":"6e695bbf-fb53-4282-82f3-d235614b5e36","system_id":"levelo_inurba_marseille","lat":43.296263,"lon":5.40601,"is_reserved":false,"is_disabled":false,"rental_uris":{"android":"levelo://app?vid=6e695bbf-fb53-4282-82f3-d235614b5e36","ios":"levelo://app?vid=6e695bbf-fb53-4282-82f3-d235614b5e36"},"vehicle_type_id":"4","last_reported":1701000688,"current_range_meters":19200,"station_id":"ce4bh0h2rcd13ifvqd60","pricing_plan_id":"free"},{"bike_id":"f797962a-80d7-4f8a-940b-f9d67c738836","system_id":"levelo_inurba_marseille","lat":43.296263,"lon":5.40601,"is_reserved":false,"is_disabled":false,"rental_uris":{"android":"levelo://app?vid=f797962a-80d7-4f8a-940b-f9d67c738836","ios":"levelo://app?vid=f797962a-80d7-4f8a-940b-f9d67c738836"},"vehicle_type_id":"4","last_reported":1701000688,"current_range_meters":5200,"station_id":"ce4bh0h2rcd13ifvqd60","pricing_plan_id":"free"},{"bike_id":"7e47bdba-658c-464b-b2bd-84175ff8f0c4","system_id":"levelo_inurba_marseille","lat":43.290412,"lon":5.399633,"is_reserved":false,"is_disabled":false,"rental_uris":{"android":"levelo://app?vid=7e47bdba-658c-464b-b2bd-84175ff8f0c4","ios":"levelo://app?vid=7e47bdba-658c-464b-b2bd-84175ff8f0c4"},"vehicle_type_id":"4","last_reported":1701000688,"current_range_meters":22800,"station_id":"ce4bh392rcd13ifvqdm0","pricing_plan_id":"free"},{"bike_id":"655391ce-2c57-4c84-92fe-58f9e0117811","system_id":"levelo_inurba_marseille","lat":43.29041,"lon":5.399634,"is_reserved":false,"is_disabled":false,"rental_uris":{"android":"levelo://app?vid=655391ce-2c57-4c84-92fe-58f9e0117811","ios":"levelo://app?vid=655391ce-2c57-4c84-92fe-58f9e0117811"},"vehicle_type_id":"4","last_reported":1701000688,"current_range_meters":1200,"station_id":"ce4bh392rcd13ifvqdm0","pricing_plan_id":"free"},{"bike_id":"1adaab26-1a29-4eb2-9825-90f205c4461e","system_id":"levelo_inurba_marseille","lat":43.296263,"lon":5.40601,"is_reserved":false,"is_disabled":false,"rental_uris":{"android":"levelo://app?vid=1adaab26-1a29-4eb2-9825-90f205c4461e","ios":"levelo://app?vid=1adaab26-1a29-4eb2-9825-90f205c4461e"},"vehicle_type_id":"4","last_reported":1701000688,"current_range_meters":24400,"station_id":"ce4bh0h2rcd13ifvqd60","pricing_plan_id":"free"},{"bike_id":"feca64b6-1cb0-4bac-88a7-726ab2b1168f","system_id":"levelo_inurba_marseille","lat":43.28573,"lon":5.394992,"is_reserved":false,"is_disabled":false,"rental_uris":{"android":"levelo://app?vid=feca64b6-1cb0-4bac-88a7-726ab2b1168f","ios":"levelo://app?vid=feca64b6-1cb0-4bac-88a7-726ab2b1168f"},"vehicle_type_id":"4","last_reported":1701000688,"current_range_meters":17200,"station_id":"ce4bh292rcd13ifvqdg0","pricing_plan_id":"free"},{"bike_id":"c37996c4-5ddf-4547-9622-6a7760be84a2","system_id":"levelo_inurba_marseille","lat":43.279087,"lon":5.380114,"is_reserved":false,"is_disabled":false,"rental_uris":{"android":"levelo://app?vid=c37996c4-5ddf-4547-9622-6a7760be84a2","ios":"levelo://app?vid=c37996c4-5ddf-4547-9622-6a7760be84a2"},"vehicle_type_id":"4","last_reported":1701000688,"current_range_meters":0,"station_id":"ce4bhf92rcd13ifvqf50","pricing_plan_id":"free"},{"bike_id":"477cd6b7-d75d-4002-97a5-e825498e7490","system_id":"levelo_inurba_marseille","lat":43.279087,"lon":5.380114,"is_reserved":false,"is_disabled":false,"rental_uris":{"android":"levelo://app?vid=477cd6b7-d75d-4002-97a5-e825498e7490","ios":"levelo://app?vid=477cd6b7-d75d-4002-97a5-e825498e7490"},"vehicle_type_id":"4","last_reported":1701000688,"current_range_meters":24400,"station_id":"ce4bhf92rcd13ifvqf50","pricing_plan_id":"free"},{"bike_id":"eb605792-d946-497e-b37e-cfe2f8246013","system_id":"levelo_inurba_marseille","lat":43.279087,"lon":5.380114,"is_reserved":false,"is_disabled":false,"rental_uris":{"android":"levelo://app?vid=eb605792-d946-497e-b37e-cfe2f8246013","ios":"levelo://app?vid=eb605792-d946-497e-b37e-cfe2f8246013"},"vehicle_type_id":"4","last_reported":1701000688,"current_range_meters":29600,"station_id":"ce4bhf92rcd13ifvqf50","pricing_plan_id":"free"},{"bike_id":"4db68ac9-b6b9-4c87-b371-b6a4db57b5ac","system_id":"levelo_inurba_marseille","lat":43.279087,"lon":5.380114,"is_reserved":false,"is_disabled":false,"rental_uris":{"android":"levelo://app?vid=4db68ac9-b6b9-4c87-b371-b6a4db57b5ac","ios":"levelo://app?vid=4db68ac9-b6b9-4c87-b371-b6a4db57b5ac"},"vehicle_type_id":"4","last_reported":1701000688,"current_range_meters":26400,"station_id":"ce4bhf92rcd13ifvqf50","pricing_plan_id":"free"},{"bike_id":"f592db52-c383-4987-9abf-f85334d62be9","system_id":"levelo_inurba_marseille","lat":43.279087,"lon":5.380114,"is_reserved":false,"is_disabled":false,"rental_uris":{"android":"levelo://app?vid=f592db52-c383-4987-9abf-f85334d62be9","ios":"levelo://app?vid=f592db52-c383-4987-9abf-f85334d62be9"},"vehicle_type_id":"4","last_reported":1701000688,"current_range_meters":13200,"station_id":"ce4bhf92rcd13ifvqf50","pricing_plan_id":"free"},{"bike_id":"472977f5-0e85-40b3-acb7-8b52ab5da17e","system_id":"levelo_inurba_marseille","lat":43.279087,"lon":5.380114,"is_reserved":false,"is_disabled":false,"rental_uris":{"android":"levelo://app?vid=472977f5-0e85-40b3-acb7-8b52ab5da17e","ios":"levelo://app?vid=472977f5-0e85-40b3-acb7-8b52ab5da17e"},"vehicle_type_id":"4","last_reported":1701000688,"current_range_meters":25200,"station_id":"ce4bhf92rcd13ifvqf50","pricing_plan_id":"free"},{"bike_id":"2532c679-1cc7-4268-a49d-9e7b00df2495","system_id":"levelo_inurba_marseille","lat":43.279087,"lon":5.380114,"is_reserved":false,"is_disabled":false,"rental_uris":{"android":"levelo://app?vid=2532c679-1cc7-4268-a49d-9e7b00df2495","ios":"levelo://app?vid=2532c679-1cc7-4268-a49d-9e7b00df2495"},"vehicle_type_id":"4","last_reported":1701000688,"current_range_meters":28800,"station_id":"ce4bhf92rcd13ifvqf50","pricing_plan_id":"free"},{"bike_id":"14e714c4-1676-4afd-9190-de1211a2c867","system_id":"levelo_inurba_marseille","lat":43.28693,"lon":5.39969,"is_reserved":false,"is_disabled":false,"rental_uris":{"android":"levelo://app?vid=14e714c4-1676-4afd-9190-de1211a2c867","ios":"levelo://app?vid=14e714c4-1676-4afd-9190-de1211a2c867"},"vehicle_type_id":"4","last_reported":1701000688,"current_range_meters":18400,"station_id":"ce4bho92rcd13ifvqh3g","pricing_plan_id":"free"},{"bike_id":"1767b2a0-d41e-462c-b315-acfc31c756f6","system_id":"levelo_inurba_marseille","lat":43.279733,"lon":5.387137,"is_reserved":false,"is_disabled":false,"rental_uris":{"android":"levelo://app?vid=1767b2a0-d41e-462c-b315-acfc31c756f6","ios":"levelo://app?vid=1767b2a0-d41e-462c-b315-acfc31c756f6"},"vehicle_type_id":"4","last_reported":1701000688,"current_range_meters":16400,"station_id":"ce4bhg12rcd13ifvqf80","pricing_plan_id":"free"},{"bike_id":"6808468f-2e53-47ef-ae7b-684622ab7117","system_id":"levelo_inurba_marseille","lat":43.279742,"lon":5.38744,"is_reserved":false,"is_disabled":false,"rental_uris":{"android":"levelo://app?vid=6808468f-2e53-47ef-ae7b-684622ab7117","ios":"levelo://app?vid=6808468f-2e53-47ef-ae7b-684622ab7117"},"vehicle_type_id":"4","last_reported":1701000688,"current_range_meters":15200,"station_id":"ce4bhg12rcd13ifvqf80","pricing_plan_id":"free"},{"bike_id":"5e9a64d6-27cc-4a24-ac54-0be6b7652162","system_id":"levelo_inurba_marseille","lat":43.279742,"lon":5.38744,"is_reserved":false,"is_disabled":false,"rental_uris":{"android":"levelo://app?vid=5e9a64d6-27cc-4a24-ac54-0be6b7652162","ios":"levelo://app?vid=5e9a64d6-27cc-4a24-ac54-0be6b7652162"},"vehicle_type_id":"4","last_reported":1701000688,"current_range_meters":29200,"station_id":"ce4bhg12rcd13ifvqf80","pricing_plan_id":"free"},{"bike_id":"6526cad1-2f4b-4db1-8d6b-ce04bc407b31","system_id":"levelo_inurba_marseille","lat":43.34883,"lon":5.37501,"is_reserved":false,"is_disabled":false,"rental_uris":{"android":"levelo://app?vid=6526cad1-2f4b-4db1-8d6b-ce04bc407b31","ios":"levelo://app?vid=6526cad1-2f4b-4db1-8d6b-ce04bc407b31"},"vehicle_type_id":"4","last_reported":1701000688,"current_range_meters":0,"station_id":"","pricing_plan_id":"free"},{"bike_id":"72ada52b-df59-4cf8-8731-337d1eed0205","system_id":"levelo_inurba_marseille","lat":43.2762,"lon":5.3611,"is_reserved":false,"is_disabled":false,"rental_uris":{"android":"levelo://app?vid=72ada52b-df59-4cf8-8731-337d1eed0205","ios":"levelo://app?vid=72ada52b-df59-4cf8-8731-337d1eed0205"},"vehicle_type_id":"4","last_reported":1701000688,"current_range_meters":10800,"station_id":"ce4bgj92rcd13ifvqbe0","pricing_plan_id":"free"},{"bike_id":"b5338767-b784-437a-8eca-a869323394dd","system_id":"levelo_inurba_marseille","lat":43.276196,"lon":5.361065,"is_reserved":false,"is_disabled":false,"rental_uris":{"android":"levelo://app?vid=b5338767-b784-437a-8eca-a869323394dd","ios":"levelo://app?vid=b5338767-b784-437a-8eca-a869323394dd"},"vehicle_type_id":"4","last_reported":1701000688,"current_range_meters":27200,"station_id":"","pricing_plan_id":"free"},{"bike_id":"af96db3f-8e8a-4f09-9fd5-44ed1b445f15","system_id":"levelo_inurba_marseille","lat":43.276179,"lon":5.361009,"is_reserved":false,"is_disabled":false,"rental_uris":{"android":"levelo://app?vid=af96db3f-8e8a-4f09-9fd5-44ed1b445f15","ios":"levelo://app?vid=af96db3f-8e8a-4f09-9fd5-44ed1b445f15"},"vehicle_type_id":"4","last_reported":1701000688,"current_range_meters":25600,"station_id":"ce4bgj92rcd13ifvqbe0","pricing_plan_id":"free"},{"bike_id":"c25ea147-e804-4786-9d25-91f61a8ed59a","system_id":"levelo_inurba_marseille","lat":43.293651,"lon":5.41268,"is_reserved":false,"is_disabled":false,"rental_uris":{"android":"levelo://app?vid=c25ea147-e804-4786-9d25-91f61a8ed59a","ios":"levelo://app?vid=c25ea147-e804-4786-9d25-91f61a8ed59a"},"vehicle_type_id":"4","last_reported":1701000688,"current_range_meters":0,"station_id":"","pricing_plan_id":"free"},{"bike_id":"5f0d2be1-4957-487b-b7e5-14543907a780","system_id":"levelo_inurba_marseille","lat":43.280784,"lon":5.396622,"is_reserved":false,"is_disabled":false,"rental_uris":{"android":"levelo://app?vid=5f0d2be1-4957-487b-b7e5-14543907a780","ios":"levelo://app?vid=5f0d2be1-4957-487b-b7e5-14543907a780"},"vehicle_type_id":"4","last_reported":1701000688,"current_range_meters":29200,"station_id":"ce4bho12rcd13ifvqh2g","pricing_plan_id":"free"},{"bike_id":"5f3c0b65-41dc-485d-a906-5ed61ab3d3fe","system_id":"levelo_inurba_marseille","lat":43.275625,"lon":5.384392,"is_reserved":false,"is_disabled":false,"rental_uris":{"android":"levelo://app?vid=5f3c0b65-41dc-485d-a906-5ed61ab3d3fe","ios":"levelo://app?vid=5f3c0b65-41dc-485d-a906-5ed61ab3d3fe"},"vehicle_type_id":"4","last_reported":1701000688,"current_range_meters":24000,"station_id":"ce4bhh92rcd13ifvqfi0","pricing_plan_id":"free"},{"bike_id":"371ec043-76f0-4fc3-813f-7320997bb6d2","system_id":"levelo_inurba_marseille","lat":43.33612,"lon":5.410321,"is_reserved":false,"is_disabled":false,"rental_uris":{"android":"levelo://app?vid=371ec043-76f0-4fc3-813f-7320997bb6d2","ios":"levelo://app?vid=371ec043-76f0-4fc3-813f-7320997bb6d2"},"vehicle_type_id":"4","last_reported":1701000688,"current_range_meters":18400,"station_id":"ce4bhqh2rcd13ifvqhmg","pricing_plan_id":"free"},{"bike_id":"6b828fff-8c1d-4878-a255-b6118c874910","system_id":"levelo_inurba_marseille","lat":43.276769,"lon":5.388787,"is_reserved":false,"is_disabled":false,"rental_uris":{"android":"levelo://app?vid=6b828fff-8c1d-4878-a255-b6118c874910","ios":"levelo://app?vid=6b828fff-8c1d-4878-a255-b6118c874910"},"vehicle_type_id":"4","last_reported":1701000688,"current_range_meters":22800,"station_id":"ce4bhi12rcd13ifvqfo0","pricing_plan_id":"free"},{"bike_id":"a71c4a77-e606-4ea9-be02-63a8c4f42de7","system_id":"levelo_inurba_marseille","lat":43.276769,"lon":5.388787,"is_reserved":false,"is_disabled":false,"rental_uris":{"android":"levelo://app?vid=a71c4a77-e606-4ea9-be02-63a8c4f42de7","ios":"levelo://app?vid=a71c4a77-e606-4ea9-be02-63a8c4f42de7"},"vehicle_type_id":"4","last_reported":1701000688,"current_range_meters":11600,"station_id":"ce4bhi12rcd13ifvqfo0","pricing_plan_id":"free"},{"bike_id":"4318abad-cd77-494c-bd20-ce0be9614dbf","system_id":"levelo_inurba_marseille","lat":43.298764,"lon":5.388973,"is_reserved":false,"is_disabled":false,"rental_uris":{"android":"levelo://app?vid=4318abad-cd77-494c-bd20-ce0be9614dbf","ios":"levelo://app?vid=4318abad-cd77-494c-bd20-ce0be9614dbf"},"vehicle_type_id":"4","last_reported":1701000688,"current_range_meters":20400,"station_id":"ce4bh392rcd13ifvqdl0","pricing_plan_id":"free"},{"bike_id":"2bac63be-2248-4f83-9913-6fa6e719b914","system_id":"levelo_inurba_marseille","lat":43.31082,"lon":5.42427,"is_reserved":false,"is_disabled":false,"rental_uris":{"android":"levelo://app?vid=2bac63be-2248-4f83-9913-6fa6e719b914","ios":"levelo://app?vid=2bac63be-2248-4f83-9913-6fa6e719b914"},"vehicle_type_id":"4","last_reported":1701000688,"current_range_meters":13200,"station_id":"ce4bhp92rcd13ifvqhag","pricing_plan_id":"free"},{"bike_id":"8eb5bdb0-5c9b-4999-93c3-a1a499ccf536","system_id":"levelo_inurba_marseille","lat":43.310785,"lon":5.424305,"is_reserved":false,"is_disabled":false,"rental_uris":{"android":"levelo://app?vid=8eb5bdb0-5c9b-4999-93c3-a1a499ccf536","ios":"levelo://app?vid=8eb5bdb0-5c9b-4999-93c3-a1a499ccf536"},"vehicle_type_id":"4","last_reported":1701000688,"current_range_meters":31200,"station_id":"ce4bhp92rcd13ifvqhag","pricing_plan_id":"free"},{"bike_id":"da31bc3b-2b38-4bca-9753-29b904b4f51a","system_id":"levelo_inurba_marseille","lat":43.273125,"lon":5.390731,"is_reserved":false,"is_disabled":false,"rental_uris":{"android":"levelo://app?vid=da31bc3b-2b38-4bca-9753-29b904b4f51a","ios":"levelo://app?vid=da31bc3b-2b38-4bca-9753-29b904b4f51a"},"vehicle_type_id":"4","last_reported":1701000688,"current_range_meters":12400,"station_id":"ce4bhgp2rcd13ifvqfe0","pricing_plan_id":"free"},{"bike_id":"ce9f8bef-be75-42a4-a53c-1be64df297ab","system_id":"levelo_inurba_marseille","lat":43.30412,"lon":5.42549,"is_reserved":false,"is_disabled":false,"rental_uris":{"android":"levelo://app?vid=ce9f8bef-be75-42a4-a53c-1be64df297ab","ios":"levelo://app?vid=ce9f8bef-be75-42a4-a53c-1be64df297ab"},"vehicle_type_id":"4","last_reported":1701000688,"current_range_meters":12800,"station_id":"ce4bhoh2rcd13ifvqh6g","pricing_plan_id":"free"},{"bike_id":"4a840da3-fdbc-4633-9cc0-12e811d835c6","system_id":"levelo_inurba_marseille","lat":43.304096,"lon":5.425385,"is_reserved":false,"is_disabled":false,"rental_uris":{"android":"levelo://app?vid=4a840da3-fdbc-4633-9cc0-12e811d835c6","ios":"levelo://app?vid=4a840da3-fdbc-4633-9cc0-12e811d835c6"},"vehicle_type_id":"4","last_reported":1701000688,"current_range_meters":20400,"station_id":"ce4bhoh2rcd13ifvqh6g","pricing_plan_id":"free"},{"bike_id":"9f33e7be-ccf0-4fd5-b04d-f51287063869","system_id":"levelo_inurba_marseille","lat":43.295511,"lon":5.422926,"is_reserved":false,"is_disabled":false,"rental_uris":{"android":"levelo://app?vid=9f33e7be-ccf0-4fd5-b04d-f51287063869","ios":"levelo://app?vid=9f33e7be-ccf0-4fd5-b04d-f51287063869"},"vehicle_type_id":"4","last_reported":1701000688,"current_range_meters":28800,"station_id":"ce4bhph2rcd13ifvqhdg","pricing_plan_id":"free"},{"bike_id":"c91caa24-ccd9-44a0-a7dc-ef3dd0691d85","system_id":"levelo_inurba_marseille","lat":43.272183,"lon":5.392043,"is_reserved":false,"is_disabled":false,"rental_uris":{"android":"levelo://app?vid=c91caa24-ccd9-44a0-a7dc-ef3dd0691d85","ios":"levelo://app?vid=c91caa24-ccd9-44a0-a7dc-ef3dd0691d85"},"vehicle_type_id":"4","last_reported":1701000688,"current_range_meters":16000,"station_id":"","pricing_plan_id":"free"},{"bike_id":"d0492262-17d8-47a1-87f1-b49e7580601a","system_id":"levelo_inurba_marseille","lat":43.272116,"lon":5.391747,"is_reserved":false,"is_disabled":false,"rental_uris":{"android":"levelo://app?vid=d0492262-17d8-47a1-87f1-b49e7580601a","ios":"levelo://app?vid=d0492262-17d8-47a1-87f1-b49e7580601a"},"vehicle_type_id":"4","last_reported":1701000688,"current_range_meters":13600,"station_id":"ce4bhhp2rcd13ifvqfm0","pricing_plan_id":"free"},{"bike_id":"d53f32a6-814f-4f07-94f0-385ab9644adc","system_id":"levelo_inurba_marseille","lat":43.2722,"lon":5.39236,"is_reserved":false,"is_disabled":false,"rental_uris":{"android":"levelo://app?vid=d53f32a6-814f-4f07-94f0-385ab9644adc","ios":"levelo://app?vid=d53f32a6-814f-4f07-94f0-385ab9644adc"},"vehicle_type_id":"4","last_reported":1701000688,"current_range_meters":22000,"station_id":"","pricing_plan_id":"free"},{"bike_id":"552b9570-5876-4717-a59e-c90d5a6c1b1a","system_id":"levelo_inurba_marseille","lat":43.26681,"lon":5.382694,"is_reserved":false,"is_disabled":false,"rental_uris":{"android":"levelo://app?vid=552b9570-5876-4717-a59e-c90d5a6c1b1a","ios":"levelo://app?vid=552b9570-5876-4717-a59e-c90d5a6c1b1a"},"vehicle_type_id":"4","last_reported":1701000688,"current_range_meters":31200,"station_id":"ce4bhg92rcd13ifvqf90","pricing_plan_id":"free"},{"bike_id":"58eb8a06-6d28-4ec6-a188-66edf966b964","system_id":"levelo_inurba_marseille","lat":43.26681,"lon":5.382694,"is_reserved":false,"is_disabled":false,"rental_uris":{"android":"levelo://app?vid=58eb8a06-6d28-4ec6-a188-66edf966b964","ios":"levelo://app?vid=58eb8a06-6d28-4ec6-a188-66edf966b964"},"vehicle_type_id":"4","last_reported":1701000688,"current_range_meters":30400,"station_id":"ce4bhg92rcd13ifvqf90","pricing_plan_id":"free"},{"bike_id":"0d7dd0fe-70fa-4075-8d3d-0c05a3070ec9","system_id":"levelo_inurba_marseille","lat":43.26681,"lon":5.382694,"is_reserved":false,"is_disabled":false,"rental_uris":{"android":"levelo://app?vid=0d7dd0fe-70fa-4075-8d3d-0c05a3070ec9","ios":"levelo://app?vid=0d7dd0fe-70fa-4075-8d3d-0c05a3070ec9"},"vehicle_type_id":"4","last_reported":1701000688,"current_range_meters":27600,"station_id":"ce4bhg92rcd13ifvqf90","pricing_plan_id":"free"},{"bike_id":"b8f7cc72-b31f-4926-8994-ca91088322f4","system_id":"levelo_inurba_marseille","lat":43.265546,"lon":5.372925,"is_reserved":false,"is_disabled":false,"rental_uris":{"android":"levelo://app?vid=b8f7cc72-b31f-4926-8994-ca91088322f4","ios":"levelo://app?vid=b8f7cc72-b31f-4926-8994-ca91088322f4"},"vehicle_type_id":"4","last_reported":1701000688,"current_range_meters":24000,"station_id":"ce4bhg12rcd13ifvqf70","pricing_plan_id":"free"},{"bike_id":"f23d8119-b478-4639-98c5-6883279f9f84","system_id":"levelo_inurba_marseille","lat":43.32592,"lon":5.43067,"is_reserved":false,"is_disabled":false,"rental_uris":{"android":"levelo://app?vid=f23d8119-b478-4639-98c5-6883279f9f84","ios":"levelo://app?vid=f23d8119-b478-4639-98c5-6883279f9f84"},"vehicle_type_id":"4","last_reported":1701000688,"current_range_meters":23200,"station_id":"","pricing_plan_id":"free"},{"bike_id":"ed30d6a1-b23a-49e5-9c83-5546be72a734","system_id":"levelo_inurba_marseille","lat":43.3259,"lon":5.43075,"is_reserved":false,"is_disabled":false,"rental_uris":{"android":"levelo://app?vid=ed30d6a1-b23a-49e5-9c83-5546be72a734","ios":"levelo://app?vid=ed30d6a1-b23a-49e5-9c83-5546be72a734"},"vehicle_type_id":"4","last_reported":1701000688,"current_range_meters":18000,"station_id":"","pricing_plan_id":"free"},{"bike_id":"d67469ee-5362-4610-a163-fe05ae3cf4f7","system_id":"levelo_inurba_marseille","lat":43.32604,"lon":5.430817,"is_reserved":false,"is_disabled":false,"rental_uris":{"android":"levelo://app?vid=d67469ee-5362-4610-a163-fe05ae3cf4f7","ios":"levelo://app?vid=d67469ee-5362-4610-a163-fe05ae3cf4f7"},"vehicle_type_id":"4","last_reported":1701000688,"current_range_meters":6400,"station_id":"","pricing_plan_id":"free"},{"bike_id":"2ce81b26-2847-48e0-8768-f3be7864a8f7","system_id":"levelo_inurba_marseille","lat":43.279944,"lon":5.416539,"is_reserved":false,"is_disabled":false,"rental_uris":{"android":"levelo://app?vid=2ce81b26-2847-48e0-8768-f3be7864a8f7","ios":"levelo://app?vid=2ce81b26-2847-48e0-8768-f3be7864a8f7"},"vehicle_type_id":"4","last_reported":1701000688,"current_range_meters":26400,"station_id":"ce4bho12rcd13ifvqh1g","pricing_plan_id":"free"},{"bike_id":"05d11fc6-bfad-4336-bbb0-16504370a872","system_id":"levelo_inurba_marseille","lat":43.27987,"lon":5.41656,"is_reserved":false,"is_disabled":false,"rental_uris":{"android":"levelo://app?vid=05d11fc6-bfad-4336-bbb0-16504370a872","ios":"levelo://app?vid=05d11fc6-bfad-4336-bbb0-16504370a872"},"vehicle_type_id":"4","last_reported":1701000688,"current_range_meters":26800,"station_id":"ce4bho12rcd13ifvqh1g","pricing_plan_id":"free"},{"bike_id":"6504517e-6283-4126-924a-23a141309885","system_id":"levelo_inurba_marseille","lat":43.27983,"lon":5.416555,"is_reserved":false,"is_disabled":false,"rental_uris":{"android":"levelo://app?vid=6504517e-6283-4126-924a-23a141309885","ios":"levelo://app?vid=6504517e-6283-4126-924a-23a141309885"},"vehicle_type_id":"4","last_reported":1701000688,"current_range_meters":15200,"station_id":"ce4bho12rcd13ifvqh1g","pricing_plan_id":"free"},{"bike_id":"5f4d5a4d-662a-46ce-9d3b-ec24319e12a9","system_id":"levelo_inurba_marseille","lat":43.267966,"lon":5.393976,"is_reserved":false,"is_disabled":false,"rental_uris":{"android":"levelo://app?vid=5f4d5a4d-662a-46ce-9d3b-ec24319e12a9","ios":"levelo://app?vid=5f4d5a4d-662a-46ce-9d3b-ec24319e12a9"},"vehicle_type_id":"4","last_reported":1701000688,"current_range_meters":20400,"station_id":"ce4bhh12rcd13ifvqfg0","pricing_plan_id":"free"},{"bike_id":"2b5f0b27-ae58-4e9e-bd76-c585f78e8a73","system_id":"levelo_inurba_marseille","lat":43.26386,"lon":5.37454,"is_reserved":false,"is_disabled":false,"rental_uris":{"android":"levelo://app?vid=2b5f0b27-ae58-4e9e-bd76-c585f78e8a73","ios":"levelo://app?vid=2b5f0b27-ae58-4e9e-bd76-c585f78e8a73"},"vehicle_type_id":"4","last_reported":1701000688,"current_range_meters":7200,"station_id":"","pricing_plan_id":"free"},{"bike_id":"9ae2cda8-ba30-4f57-9aaa-5721cc4b2b5a","system_id":"levelo_inurba_marseille","lat":43.30801,"lon":5.43521,"is_reserved":false,"is_disabled":false,"rental_uris":{"android":"levelo://app?vid=9ae2cda8-ba30-4f57-9aaa-5721cc4b2b5a","ios":"levelo://app?vid=9ae2cda8-ba30-4f57-9aaa-5721cc4b2b5a"},"vehicle_type_id":"4","last_reported":1701000688,"current_range_meters":30400,"station_id":"ce4bhph2rcd13ifvqheg","pricing_plan_id":"free"},{"bike_id":"95856f20-7eb4-4269-850d-d3aea9c6536f","system_id":"levelo_inurba_marseille","lat":43.26943,"lon":5.40246,"is_reserved":false,"is_disabled":false,"rental_uris":{"android":"levelo://app?vid=95856f20-7eb4-4269-850d-d3aea9c6536f","ios":"levelo://app?vid=95856f20-7eb4-4269-850d-d3aea9c6536f"},"vehicle_type_id":"4","last_reported":1701000688,"current_range_meters":28000,"station_id":"cjm6bp8fraef2m0cb0m0","pricing_plan_id":"free"},{"bike_id":"a2ca63e2-04ea-47ed-b056-4d7a57f8eca0","system_id":"levelo_inurba_marseille","lat":43.26942,"lon":5.40251,"is_reserved":false,"is_disabled":false,"rental_uris":{"android":"levelo://app?vid=a2ca63e2-04ea-47ed-b056-4d7a57f8eca0","ios":"levelo://app?vid=a2ca63e2-04ea-47ed-b056-4d7a57f8eca0"},"vehicle_type_id":"4","last_reported":1701000688,"current_range_meters":21600,"station_id":"cjm6bp8fraef2m0cb0m0","pricing_plan_id":"free"},{"bike_id":"e6ae5fa6-9435-4ad0-836c-d6e0a81870ce","system_id":"levelo_inurba_marseille","lat":43.317104,"lon":5.436818,"is_reserved":false,"is_disabled":false,"rental_uris":{"android":"levelo://app?vid=e6ae5fa6-9435-4ad0-836c-d6e0a81870ce","ios":"levelo://app?vid=e6ae5fa6-9435-4ad0-836c-d6e0a81870ce"},"vehicle_type_id":"4","last_reported":1701000688,"current_range_meters":22400,"station_id":"ce4bhp92rcd13ifvqhcg","pricing_plan_id":"free"},{"bike_id":"ec593df7-85d2-4a7c-a892-75fec147bf75","system_id":"levelo_inurba_marseille","lat":43.317104,"lon":5.436818,"is_reserved":false,"is_disabled":false,"rental_uris":{"android":"levelo://app?vid=ec593df7-85d2-4a7c-a892-75fec147bf75","ios":"levelo://app?vid=ec593df7-85d2-4a7c-a892-75fec147bf75"},"vehicle_type_id":"4","last_reported":1701000688,"current_range_meters":31200,"station_id":"ce4bhp92rcd13ifvqhcg","pricing_plan_id":"free"},{"bike_id":"770c01ec-945c-44d7-972a-cd512dd5b9a5","system_id":"levelo_inurba_marseille","lat":43.317104,"lon":5.436818,"is_reserved":false,"is_disabled":false,"rental_uris":{"android":"levelo://app?vid=770c01ec-945c-44d7-972a-cd512dd5b9a5","ios":"levelo://app?vid=770c01ec-945c-44d7-972a-cd512dd5b9a5"},"vehicle_type_id":"4","last_reported":1701000688,"current_range_meters":17600,"station_id":"ce4bhp92rcd13ifvqhcg","pricing_plan_id":"free"},{"bike_id":"34e9d94a-a716-4b0c-93f4-cd00b136e1d7","system_id":"levelo_inurba_marseille","lat":43.317104,"lon":5.436818,"is_reserved":false,"is_disabled":false,"rental_uris":{"android":"levelo://app?vid=34e9d94a-a716-4b0c-93f4-cd00b136e1d7","ios":"levelo://app?vid=34e9d94a-a716-4b0c-93f4-cd00b136e1d7"},"vehicle_type_id":"4","last_reported":1701000688,"current_range_meters":0,"station_id":"ce4bhp92rcd13ifvqhcg","pricing_plan_id":"free"},{"bike_id":"acc57f8d-e370-48b5-b4d8-94aee600a980","system_id":"levelo_inurba_marseille","lat":43.26202,"lon":5.379299,"is_reserved":false,"is_disabled":false,"rental_uris":{"android":"levelo://app?vid=acc57f8d-e370-48b5-b4d8-94aee600a980","ios":"levelo://app?vid=acc57f8d-e370-48b5-b4d8-94aee600a980"},"vehicle_type_id":"4","last_reported":1701000688,"current_range_meters":29200,"station_id":"ce4bhjp2rcd13ifvqg90","pricing_plan_id":"free"},{"bike_id":"dbf62bfb-d43b-46dc-b301-0e9e00d707fe","system_id":"levelo_inurba_marseille","lat":43.26176,"lon":5.37902,"is_reserved":false,"is_disabled":false,"rental_uris":{"android":"levelo://app?vid=dbf62bfb-d43b-46dc-b301-0e9e00d707fe","ios":"levelo://app?vid=dbf62bfb-d43b-46dc-b301-0e9e00d707fe"},"vehicle_type_id":"4","last_reported":1701000688,"current_range_meters":24400,"station_id":"ce4bhjp2rcd13ifvqg90","pricing_plan_id":"free"},{"bike_id":"7c5a83ac-336c-4b91-a5ea-82b3c6d6127d","system_id":"levelo_inurba_marseille","lat":43.298768,"lon":5.43643,"is_reserved":false,"is_disabled":false,"rental_uris":{"android":"levelo://app?vid=7c5a83ac-336c-4b91-a5ea-82b3c6d6127d","ios":"levelo://app?vid=7c5a83ac-336c-4b91-a5ea-82b3c6d6127d"},"vehicle_type_id":"4","last_reported":1701000688,"current_range_meters":31200,"station_id":"ce4bhpp2rcd13ifvqhfg","pricing_plan_id":"free"},{"bike_id":"d24921c1-8c61-4b91-941a-2e11a6ed2b73","system_id":"levelo_inurba_marseille","lat":43.29893,"lon":5.43665,"is_reserved":false,"is_disabled":false,"rental_uris":{"android":"levelo://app?vid=d24921c1-8c61-4b91-941a-2e11a6ed2b73","ios":"levelo://app?vid=d24921c1-8c61-4b91-941a-2e11a6ed2b73"},"vehicle_type_id":"4","last_reported":1701000688,"current_range_meters":29600,"station_id":"ce4bhpp2rcd13ifvqhfg","pricing_plan_id":"free"},{"bike_id":"8af0d2ed-93d1-485d-9803-40c71e52d0d9","system_id":"levelo_inurba_marseille","lat":43.29901,"lon":5.43674,"is_reserved":false,"is_disabled":false,"rental_uris":{"android":"levelo://app?vid=8af0d2ed-93d1-485d-9803-40c71e52d0d9","ios":"levelo://app?vid=8af0d2ed-93d1-485d-9803-40c71e52d0d9"},"vehicle_type_id":"4","last_reported":1701000688,"current_range_meters":8800,"station_id":"ce4bhpp2rcd13ifvqhfg","pricing_plan_id":"free"},{"bike_id":"f4f2e1d5-dafa-412d-9b3a-3611814786ce","system_id":"levelo_inurba_marseille","lat":43.298768,"lon":5.43643,"is_reserved":false,"is_disabled":false,"rental_uris":{"android":"levelo://app?vid=f4f2e1d5-dafa-412d-9b3a-3611814786ce","ios":"levelo://app?vid=f4f2e1d5-dafa-412d-9b3a-3611814786ce"},"vehicle_type_id":"4","last_reported":1701000688,"current_range_meters":31200,"station_id":"ce4bhpp2rcd13ifvqhfg","pricing_plan_id":"free"},{"bike_id":"842dcf66-28c7-40dc-af0b-7a3c6c857991","system_id":"levelo_inurba_marseille","lat":43.28154,"lon":5.42636,"is_reserved":false,"is_disabled":false,"rental_uris":{"android":"levelo://app?vid=842dcf66-28c7-40dc-af0b-7a3c6c857991","ios":"levelo://app?vid=842dcf66-28c7-40dc-af0b-7a3c6c857991"},"vehicle_type_id":"4","last_reported":1701000688,"current_range_meters":25600,"station_id":"ce4bhnh2rcd13ifvqgug","pricing_plan_id":"free"},{"bike_id":"1c8d74f7-5570-450a-a3f0-692cd9a40004","system_id":"levelo_inurba_marseille","lat":43.28156,"lon":5.4264,"is_reserved":false,"is_disabled":false,"rental_uris":{"android":"levelo://app?vid=1c8d74f7-5570-450a-a3f0-692cd9a40004","ios":"levelo://app?vid=1c8d74f7-5570-450a-a3f0-692cd9a40004"},"vehicle_type_id":"4","last_reported":1701000688,"current_range_meters":30800,"station_id":"ce4bhnh2rcd13ifvqgug","pricing_plan_id":"free"},{"bike_id":"c87cdef8-d70c-463e-88fd-987162c81837","system_id":"levelo_inurba_marseille","lat":43.281547,"lon":5.426407,"is_reserved":false,"is_disabled":false,"rental_uris":{"android":"levelo://app?vid=c87cdef8-d70c-463e-88fd-987162c81837","ios":"levelo://app?vid=c87cdef8-d70c-463e-88fd-987162c81837"},"vehicle_type_id":"4","last_reported":1701000688,"current_range_meters":16000,"station_id":"ce4bhnh2rcd13ifvqgug","pricing_plan_id":"free"},{"bike_id":"dc0c3350-5dd6-44a3-9302-c3102229fc54","system_id":"levelo_inurba_marseille","lat":43.28152,"lon":5.42639,"is_reserved":false,"is_disabled":false,"rental_uris":{"android":"levelo://app?vid=dc0c3350-5dd6-44a3-9302-c3102229fc54","ios":"levelo://app?vid=dc0c3350-5dd6-44a3-9302-c3102229fc54"},"vehicle_type_id":"4","last_reported":1701000688,"current_range_meters":26800,"station_id":"ce4bhnh2rcd13ifvqgug","pricing_plan_id":"free"},{"bike_id":"2628fb3a-9b3a-4836-8cca-8b1625de82d4","system_id":"levelo_inurba_marseille","lat":43.2815,"lon":5.42643,"is_reserved":false,"is_disabled":false,"rental_uris":{"android":"levelo://app?vid=2628fb3a-9b3a-4836-8cca-8b1625de82d4","ios":"levelo://app?vid=2628fb3a-9b3a-4836-8cca-8b1625de82d4"},"vehicle_type_id":"4","last_reported":1701000688,"current_range_meters":12400,"station_id":"ce4bhnh2rcd13ifvqgug","pricing_plan_id":"free"},{"bike_id":"9f54a9f2-7e40-4e43-a0ae-369a24109c3b","system_id":"levelo_inurba_marseille","lat":43.26063,"lon":5.39399,"is_reserved":false,"is_disabled":false,"rental_uris":{"android":"levelo://app?vid=9f54a9f2-7e40-4e43-a0ae-369a24109c3b","ios":"levelo://app?vid=9f54a9f2-7e40-4e43-a0ae-369a24109c3b"},"vehicle_type_id":"4","last_reported":1701000688,"current_range_meters":27600,"station_id":"ce4bhh92rcd13ifvqfj0","pricing_plan_id":"free"},{"bike_id":"f7869e30-ebfb-41af-974a-81eee8553910","system_id":"levelo_inurba_marseille","lat":43.2607,"lon":5.393983,"is_reserved":false,"is_disabled":false,"rental_uris":{"android":"levelo://app?vid=f7869e30-ebfb-41af-974a-81eee8553910","ios":"levelo://app?vid=f7869e30-ebfb-41af-974a-81eee8553910"},"vehicle_type_id":"4","last_reported":1701000688,"current_range_meters":1200,"station_id":"ce4bhh92rcd13ifvqfj0","pricing_plan_id":"free"},{"bike_id":"25f53fe9-442d-4a6b-bff7-b174c2430662","system_id":"levelo_inurba_marseille","lat":43.2607,"lon":5.393983,"is_reserved":false,"is_disabled":false,"rental_uris":{"android":"levelo://app?vid=25f53fe9-442d-4a6b-bff7-b174c2430662","ios":"levelo://app?vid=25f53fe9-442d-4a6b-bff7-b174c2430662"},"vehicle_type_id":"4","last_reported":1701000688,"current_range_meters":30000,"station_id":"ce4bhh92rcd13ifvqfj0","pricing_plan_id":"free"},{"bike_id":"46b70171-c203-4a99-a953-02ada8f4b83e","system_id":"levelo_inurba_marseille","lat":43.260909,"lon":5.397591,"is_reserved":false,"is_disabled":false,"rental_uris":{"android":"levelo://app?vid=46b70171-c203-4a99-a953-02ada8f4b83e","ios":"levelo://app?vid=46b70171-c203-4a99-a953-02ada8f4b83e"},"vehicle_type_id":"4","last_reported":1701000688,"current_range_meters":16400,"station_id":"ce4bhi12rcd13ifvqfq0","pricing_plan_id":"free"},{"bike_id":"81ea9040-9405-4539-89ee-413c6c89b9a8","system_id":"levelo_inurba_marseille","lat":43.2609,"lon":5.3976,"is_reserved":false,"is_disabled":false,"rental_uris":{"android":"levelo://app?vid=81ea9040-9405-4539-89ee-413c6c89b9a8","ios":"levelo://app?vid=81ea9040-9405-4539-89ee-413c6c89b9a8"},"vehicle_type_id":"4","last_reported":1701000688,"current_range_meters":23200,"station_id":"ce4bhi12rcd13ifvqfq0","pricing_plan_id":"free"},{"bike_id":"503bbd35-5565-42f7-9e59-5026d025b01e","system_id":"levelo_inurba_marseille","lat":43.274901,"lon":5.424514,"is_reserved":false,"is_disabled":false,"rental_uris":{"android":"levelo://app?vid=503bbd35-5565-42f7-9e59-5026d025b01e","ios":"levelo://app?vid=503bbd35-5565-42f7-9e59-5026d025b01e"},"vehicle_type_id":"4","last_reported":1701000688,"current_range_meters":26800,"station_id":"ce4bhn92rcd13ifvqgrg","pricing_plan_id":"free"},{"bike_id":"9ae83bda-b0aa-4bb6-8db1-9e8551b5d543","system_id":"levelo_inurba_marseille","lat":43.260867,"lon":5.397617,"is_reserved":false,"is_disabled":false,"rental_uris":{"android":"levelo://app?vid=9ae83bda-b0aa-4bb6-8db1-9e8551b5d543","ios":"levelo://app?vid=9ae83bda-b0aa-4bb6-8db1-9e8551b5d543"},"vehicle_type_id":"4","last_reported":1701000688,"current_range_meters":28800,"station_id":"ce4bhi12rcd13ifvqfq0","pricing_plan_id":"free"},{"bike_id":"c85f7616-3a9e-47a4-ae16-28a03e51ab4f","system_id":"levelo_inurba_marseille","lat":43.28929,"lon":5.438754,"is_reserved":false,"is_disabled":false,"rental_uris":{"android":"levelo://app?vid=c85f7616-3a9e-47a4-ae16-28a03e51ab4f","ios":"levelo://app?vid=c85f7616-3a9e-47a4-ae16-28a03e51ab4f"},"vehicle_type_id":"4","last_reported":1701000688,"current_range_meters":9200,"station_id":"","pricing_plan_id":"free"},{"bike_id":"53ae05c5-1664-4ddb-ae58-547f63e25710","system_id":"levelo_inurba_marseille","lat":43.25834,"lon":5.39435,"is_reserved":false,"is_disabled":false,"rental_uris":{"android":"levelo://app?vid=53ae05c5-1664-4ddb-ae58-547f63e25710","ios":"levelo://app?vid=53ae05c5-1664-4ddb-ae58-547f63e25710"},"vehicle_type_id":"4","last_reported":1701000688,"current_range_meters":26800,"station_id":"ce4bhip2rcd13ifvqft0","pricing_plan_id":"free"},{"bike_id":"2815230e-bf9b-400c-be93-737a58174572","system_id":"levelo_inurba_marseille","lat":43.258315,"lon":5.394257,"is_reserved":false,"is_disabled":false,"rental_uris":{"android":"levelo://app?vid=2815230e-bf9b-400c-be93-737a58174572","ios":"levelo://app?vid=2815230e-bf9b-400c-be93-737a58174572"},"vehicle_type_id":"4","last_reported":1701000688,"current_range_meters":26800,"station_id":"ce4bhip2rcd13ifvqft0","pricing_plan_id":"free"},{"bike_id":"50212635-4160-4083-b7f4-667edaba123a","system_id":"levelo_inurba_marseille","lat":43.2583,"lon":5.3943,"is_reserved":false,"is_disabled":false,"rental_uris":{"android":"levelo://app?vid=50212635-4160-4083-b7f4-667edaba123a","ios":"levelo://app?vid=50212635-4160-4083-b7f4-667edaba123a"},"vehicle_type_id":"4","last_reported":1701000688,"current_range_meters":10800,"station_id":"ce4bhip2rcd13ifvqft0","pricing_plan_id":"free"},{"bike_id":"3533a6b9-c640-434b-b433-4e41e36be1b7","system_id":"levelo_inurba_marseille","lat":43.270721,"lon":5.422764,"is_reserved":false,"is_disabled":false,"rental_uris":{"android":"levelo://app?vid=3533a6b9-c640-434b-b433-4e41e36be1b7","ios":"levelo://app?vid=3533a6b9-c640-434b-b433-4e41e36be1b7"},"vehicle_type_id":"4","last_reported":1701000688,"current_range_meters":31200,"station_id":"ce4bhk92rcd13ifvqgb0","pricing_plan_id":"free"},{"bike_id":"fa94e1b3-924d-484c-aa3a-070aacbdbbfd","system_id":"levelo_inurba_marseille","lat":43.270667,"lon":5.422722,"is_reserved":false,"is_disabled":false,"rental_uris":{"android":"levelo://app?vid=fa94e1b3-924d-484c-aa3a-070aacbdbbfd","ios":"levelo://app?vid=fa94e1b3-924d-484c-aa3a-070aacbdbbfd"},"vehicle_type_id":"4","last_reported":1701000688,"current_range_meters":29600,"station_id":"ce4bhk92rcd13ifvqgb0","pricing_plan_id":"free"},{"bike_id":"e06a8c78-4d48-491c-8072-84514714cbe8","system_id":"levelo_inurba_marseille","lat":43.270721,"lon":5.422764,"is_reserved":false,"is_disabled":false,"rental_uris":{"android":"levelo://app?vid=e06a8c78-4d48-491c-8072-84514714cbe8","ios":"levelo://app?vid=e06a8c78-4d48-491c-8072-84514714cbe8"},"vehicle_type_id":"4","last_reported":1701000688,"current_range_meters":31200,"station_id":"ce4bhk92rcd13ifvqgb0","pricing_plan_id":"free"},{"bike_id":"3764d48b-8e61-4222-bf2f-e0a7f6536aa8","system_id":"levelo_inurba_marseille","lat":43.27064,"lon":5.42274,"is_reserved":false,"is_disabled":false,"rental_uris":{"android":"levelo://app?vid=3764d48b-8e61-4222-bf2f-e0a7f6536aa8","ios":"levelo://app?vid=3764d48b-8e61-4222-bf2f-e0a7f6536aa8"},"vehicle_type_id":"4","last_reported":1701000688,"current_range_meters":30400,"station_id":"ce4bhk92rcd13ifvqgb0","pricing_plan_id":"free"},{"bike_id":"c683c13a-a9fe-443b-a860-642c2b85e5b7","system_id":"levelo_inurba_marseille","lat":43.27069,"lon":5.42282,"is_reserved":false,"is_disabled":false,"rental_uris":{"android":"levelo://app?vid=c683c13a-a9fe-443b-a860-642c2b85e5b7","ios":"levelo://app?vid=c683c13a-a9fe-443b-a860-642c2b85e5b7"},"vehicle_type_id":"4","last_reported":1701000688,"current_range_meters":10800,"station_id":"ce4bhk92rcd13ifvqgb0","pricing_plan_id":"free"},{"bike_id":"0b8e004f-c033-4d03-aaed-ee97b6faae0d","system_id":"levelo_inurba_marseille","lat":43.259296,"lon":5.409073,"is_reserved":false,"is_disabled":false,"rental_uris":{"android":"levelo://app?vid=0b8e004f-c033-4d03-aaed-ee97b6faae0d","ios":"levelo://app?vid=0b8e004f-c033-4d03-aaed-ee97b6faae0d"},"vehicle_type_id":"4","last_reported":1701000688,"current_range_meters":20000,"station_id":"ce4bhm92rcd13ifvqglg","pricing_plan_id":"free"},{"bike_id":"428d60de-228f-4777-b950-10e56fd61025","system_id":"levelo_inurba_marseille","lat":43.259009,"lon":5.40929,"is_reserved":false,"is_disabled":false,"rental_uris":{"android":"levelo://app?vid=428d60de-228f-4777-b950-10e56fd61025","ios":"levelo://app?vid=428d60de-228f-4777-b950-10e56fd61025"},"vehicle_type_id":"4","last_reported":1701000688,"current_range_meters":23600,"station_id":"ce4bhm92rcd13ifvqglg","pricing_plan_id":"free"},{"bike_id":"22a366ac-5382-4e2c-9fc6-96ed97199718","system_id":"levelo_inurba_marseille","lat":43.25929,"lon":5.4091,"is_reserved":false,"is_disabled":false,"rental_uris":{"android":"levelo://app?vid=22a366ac-5382-4e2c-9fc6-96ed97199718","ios":"levelo://app?vid=22a366ac-5382-4e2c-9fc6-96ed97199718"},"vehicle_type_id":"4","last_reported":1701000688,"current_range_meters":23200,"station_id":"ce4bhm92rcd13ifvqglg","pricing_plan_id":"free"},{"bike_id":"988d80d8-82d1-4beb-a095-a01e5589d1d2","system_id":"levelo_inurba_marseille","lat":43.250009,"lon":5.389195,"is_reserved":false,"is_disabled":false,"rental_uris":{"android":"levelo://app?vid=988d80d8-82d1-4beb-a095-a01e5589d1d2","ios":"levelo://app?vid=988d80d8-82d1-4beb-a095-a01e5589d1d2"},