{"last_updated":1702116395,"ttl":30,"version":"2.2","data":{"bikes":[{"bike_id":"d83fabb5-b3a5-42a1-8df9-1f40affb7eb0","system_id":"levelo_inurba_marseille","lat":43.312239,"lon":5.368562,"is_reserved":false,"is_disabled":false,"rental_uris":{"android":"levelo://app?vid=d83fabb5-b3a5-42a1-8df9-1f40affb7eb0","ios":"levelo://app?vid=d83fabb5-b3a5-42a1-8df9-1f40affb7eb0"},"vehicle_type_id":"4","last_reported":1702116396,"current_range_meters":30000,"station_id":"ce4bgl92rcd13ifvqbq0","pricing_plan_id":"free"},{"bike_id":"60707c26-ea44-498b-99e9-7b12961ceb20","system_id":"levelo_inurba_marseille","lat":43.314811,"lon":5.373103,"is_reserved":false,"is_disabled":false,"rental_uris":{"android":"levelo://app?vid=60707c26-ea44-498b-99e9-7b12961ceb20","ios":"levelo://app?vid=60707c26-ea44-498b-99e9-7b12961ceb20"},"vehicle_type_id":"4","last_reported":1702116396,"current_range_meters":26400,"station_id":"ce4bgt12rcd13ifvqcd0","pricing_plan_id":"free"},{"bike_id":"66bacac5-3f05-4c2c-a5a6-4d86fa19f61e","system_id":"levelo_inurba_marseille","lat":43.305517,"lon":5.365638,"is_reserved":false,"is_disabled":false,"rental_uris":{"android":"levelo://app?vid=66bacac5-3f05-4c2c-a5a6-4d86fa19f61e","ios":"levelo://app?vid=66bacac5-3f05-4c2c-a5a6-4d86fa19f61e"},"vehicle_type_id":"4","last_reported":1702116396,"current_range_meters":27600,"station_id":"","pricing_plan_id":"free"},{"bike_id":"63f6cbc1-7e6e-4f05-b0bb-661bbde212a4","system_id":"levelo_inurba_marseille","lat":43.305989,"lon":5.37225,"is_reserved":false,"is_disabled":false,"rental_uris":{"android":"levelo://app?vid=63f6cbc1-7e6e-4f05-b0bb-661bbde212a4","ios":"levelo://app?vid=63f6cbc1-7e6e-4f05-b0bb-661bbde212a4"},"vehicle_type_id":"4","last_reported":1702116396,"current_range_meters":28400,"station_id":"ce4bgqh2rcd13ifvqc4g","pricing_plan_id":"free"},{"bike_id":"711a1eb4-2c4e-4561-9e3d-7d3f0f773a0c","system_id":"levelo_inurba_marseille","lat":43.311131,"lon":5.377651,"is_reserved":false,"is_disabled":false,"rental_uris":{"android":"levelo://app?vid=711a1eb4-2c4e-4561-9e3d-7d3f0f773a0c","ios":"levelo://app?vid=711a1eb4-2c4e-4561-9e3d-7d3f0f773a0c"},"vehicle_type_id":"4","last_reported":1702116396,"current_range_meters":7200,"station_id":"ce4bgt92rcd13ifvqcg0","pricing_plan_id":"free"},{"bike_id":"e50a0d9c-af0a-4e60-b6b7-2f9fc9cf5c58","system_id":"levelo_inurba_marseille","lat":43.317026,"lon":5.377296,"is_reserved":false,"is_disabled":false,"rental_uris":{"android":"levelo://app?vid=e50a0d9c-af0a-4e60-b6b7-2f9fc9cf5c58","ios":"levelo://app?vid=e50a0d9c-af0a-4e60-b6b7-2f9fc9cf5c58"},"vehicle_type_id":"4","last_reported":1702116396,"current_range_meters":23600,"station_id":"ce4bgth2rcd13ifvqch0","pricing_plan_id":"free"},{"bike_id":"ee0e638f-d618-41fa-ac21-fbf44fdd47b0","system_id":"levelo_inurba_marseille","lat":43.319935,"lon":5.381699,"is_reserved":false,"is_disabled":false,"rental_uris":{"android":"levelo://app?vid=ee0e638f-d618-41fa-ac21-fbf44fdd47b0","ios":"levelo://app?vid=ee0e638f-d618-41fa-ac21-fbf44fdd47b0"},"vehicle_type_id":"4","last_reported":1702116396,"current_range_meters":29600,"station_id":"ce4bhr12rcd13ifvqhpg","pricing_plan_id":"free"},{"bike_id":"7cadf9d5-609d-4f36-b371-aa696990a50d","system_id":"levelo_inurba_marseille","lat":43.313571,"lon":5.384829,"is_reserved":false,"is_disabled":false,"rental_uris":{"android":"levelo://app?vid=7cadf9d5-609d-4f36-b371-aa696990a50d","ios":"levelo://app?vid=7cadf9d5-609d-4f36-b371-aa696990a50d"},"vehicle_type_id":"4","last_reported":1702116396,"current_range_meters":11200,"station_id":"ce4bgt92rcd13ifvqcf0","pricing_plan_id":"free"},{"bike_id":"bc5fbb97-360a-4591-ac4b-df0879d1eab4","system_id":"levelo_inurba_marseille","lat":43.31356,"lon":5.38493,"is_reserved":false,"is_disabled":false,"rental_uris":{"android":"levelo://app?vid=bc5fbb97-360a-4591-ac4b-df0879d1eab4","ios":"levelo://app?vid=bc5fbb97-360a-4591-ac4b-df0879d1eab4"},"vehicle_type_id":"4","last_reported":1702116396,"current_range_meters":24400,"station_id":"ce4bgt92rcd13ifvqcf0","pricing_plan_id":"free"},{"bike_id":"911adf76-9cdd-4e85-98ee-71c7cc6593a0","system_id":"levelo_inurba_marseille","lat":43.29928,"lon":5.36544,"is_reserved":false,"is_disabled":false,"rental_uris":{"android":"levelo://app?vid=911adf76-9cdd-4e85-98ee-71c7cc6593a0","ios":"levelo://app?vid=911adf76-9cdd-4e85-98ee-71c7cc6593a0"},"vehicle_type_id":"4","last_reported":1702116396,"current_range_meters":17200,"station_id":"ce4bgm92rcd13ifvqbr0","pricing_plan_id":"free"},{"bike_id":"7e5581e0-dded-4160-a1c7-c4d1c009e084","system_id":"levelo_inurba_marseille","lat":43.298433,"lon":5.362774,"is_reserved":false,"is_disabled":false,"rental_uris":{"android":"levelo://app?vid=7e5581e0-dded-4160-a1c7-c4d1c009e084","ios":"levelo://app?vid=7e5581e0-dded-4160-a1c7-c4d1c009e084"},"vehicle_type_id":"4","last_reported":1702116396,"current_range_meters":23200,"station_id":"ce4bgpp2rcd13ifvqc3g","pricing_plan_id":"free"},{"bike_id":"b3efe5d2-ab75-413a-993a-72c974b32641","system_id":"levelo_inurba_marseille","lat":43.298433,"lon":5.362774,"is_reserved":false,"is_disabled":false,"rental_uris":{"android":"levelo://app?vid=b3efe5d2-ab75-413a-993a-72c974b32641","ios":"levelo://app?vid=b3efe5d2-ab75-413a-993a-72c974b32641"},"vehicle_type_id":"4","last_reported":1702116396,"current_range_meters":23200,"station_id":"ce4bgpp2rcd13ifvqc3g","pricing_plan_id":"free"},{"bike_id":"b98694f6-d54d-4cfe-884d-ab54a1021d31","system_id":"levelo_inurba_marseille","lat":43.298433,"lon":5.362774,"is_reserved":false,"is_disabled":false,"rental_uris":{"android":"levelo://app?vid=b98694f6-d54d-4cfe-884d-ab54a1021d31","ios":"levelo://app?vid=b98694f6-d54d-4cfe-884d-ab54a1021d31"},"vehicle_type_id":"4","last_reported":1702116396,"current_range_meters":22000,"station_id":"ce4bgpp2rcd13ifvqc3g","pricing_plan_id":"free"},{"bike_id":"38f1223e-a214-4eb0-9b54-a70de861d11b","system_id":"levelo_inurba_marseille","lat":43.322872,"lon":5.382756,"is_reserved":false,"is_disabled":false,"rental_uris":{"android":"levelo://app?vid=38f1223e-a214-4eb0-9b54-a70de861d11b","ios":"levelo://app?vid=38f1223e-a214-4eb0-9b54-a70de861d11b"},"vehicle_type_id":"4","last_reported":1702116396,"current_range_meters":23200,"station_id":"ce4bhr12rcd13ifvqhqg","pricing_plan_id":"free"},{"bike_id":"c7434962-efe8-4461-8be2-21b47b98f22c","system_id":"levelo_inurba_marseille","lat":43.322872,"lon":5.382756,"is_reserved":false,"is_disabled":false,"rental_uris":{"android":"levelo://app?vid=c7434962-efe8-4461-8be2-21b47b98f22c","ios":"levelo://app?vid=c7434962-efe8-4461-8be2-21b47b98f22c"},"vehicle_type_id":"4","last_reported":1702116396,"current_range_meters":16400,"station_id":"ce4bhr12rcd13ifvqhqg","pricing_plan_id":"free"},{"bike_id":"d04bedf3-fa0d-476a-afc0-f8735ca347d1","system_id":"levelo_inurba_marseille","lat":43.322872,"lon":5.382756,"is_reserved":false,"is_disabled":false,"rental_uris":{"android":"levelo://app?vid=d04bedf3-fa0d-476a-afc0-f8735ca347d1","ios":"levelo://app?vid=d04bedf3-fa0d-476a-afc0-f8735ca347d1"},"vehicle_type_id":"4","last_reported":1702116396,"current_range_meters":12000,"station_id":"ce4bhr12rcd13ifvqhqg","pricing_plan_id":"free"},{"bike_id":"6ac675f1-e0be-498c-ad2f-b742a949d4b0","system_id":"levelo_inurba_marseille","lat":43.298218,"lon":5.374416,"is_reserved":false,"is_disabled":false,"rental_uris":{"android":"levelo://app?vid=6ac675f1-e0be-498c-ad2f-b742a949d4b0","ios":"levelo://app?vid=6ac675f1-e0be-498c-ad2f-b742a949d4b0"},"vehicle_type_id":"4","last_reported":1702116396,"current_range_meters":2800,"station_id":"","pricing_plan_id":"free"},{"bike_id":"23a6231f-af02-4525-aab5-59d9797d5544","system_id":"levelo_inurba_marseille","lat":43.297163,"lon":5.365866,"is_reserved":false,"is_disabled":false,"rental_uris":{"android":"levelo://app?vid=23a6231f-af02-4525-aab5-59d9797d5544","ios":"levelo://app?vid=23a6231f-af02-4525-aab5-59d9797d5544"},"vehicle_type_id":"4","last_reported":1702116396,"current_range_meters":29600,"station_id":"ce4bgn12rcd13ifvqbt0","pricing_plan_id":"free"},{"bike_id":"8f24c6d8-eb82-42f8-b1d3-cfba2e2e00d6","system_id":"levelo_inurba_marseille","lat":43.297163,"lon":5.365866,"is_reserved":false,"is_disabled":false,"rental_uris":{"android":"levelo://app?vid=8f24c6d8-eb82-42f8-b1d3-cfba2e2e00d6","ios":"levelo://app?vid=8f24c6d8-eb82-42f8-b1d3-cfba2e2e00d6"},"vehicle_type_id":"4","last_reported":1702116396,"current_range_meters":27200,"station_id":"ce4bgn12rcd13ifvqbt0","pricing_plan_id":"free"},{"bike_id":"e9d50717-1f3f-423c-8fa7-4cfe37540c5f","system_id":"levelo_inurba_marseille","lat":43.297163,"lon":5.365866,"is_reserved":false,"is_disabled":false,"rental_uris":{"android":"levelo://app?vid=e9d50717-1f3f-423c-8fa7-4cfe37540c5f","ios":"levelo://app?vid=e9d50717-1f3f-423c-8fa7-4cfe37540c5f"},"vehicle_type_id":"4","last_reported":1702116396,"current_range_meters":30400,"station_id":"ce4bgn12rcd13ifvqbt0","pricing_plan_id":"free"},{"bike_id":"ee60dd09-2b5b-4f0b-8fbe-5c1a8b48e0ab","system_id":"levelo_inurba_marseille","lat":43.297163,"lon":5.365866,"is_reserved":false,"is_disabled":false,"rental_uris":{"android":"levelo://app?vid=ee60dd09-2b5b-4f0b-8fbe-5c1a8b48e0ab","ios":"levelo://app?vid=ee60dd09-2b5b-4f0b-8fbe-5c1a8b48e0ab"},"vehicle_type_id":"4","last_reported":1702116396,"current_range_meters":31200,"station_id":"ce4bgn12rcd13ifvqbt0","pricing_plan_id":"free"},{"bike_id":"ff7d43a8-dfef-4523-9e21-a8e04fe4808e","system_id":"levelo_inurba_marseille","lat":43.296131,"lon":5.370791,"is_reserved":false,"is_disabled":false,"rental_uris":{"android":"levelo://app?vid=ff7d43a8-dfef-4523-9e21-a8e04fe4808e","ios":"levelo://app?vid=ff7d43a8-dfef-4523-9e21-a8e04fe4808e"},"vehicle_type_id":"4","last_reported":1702116396,"current_range_meters":20400,"station_id":"ce4bgnh2rcd13ifvqc0g","pricing_plan_id":"free"},{"bike_id":"92dc65d6-6823-4de3-93d4-056f738f090c","system_id":"levelo_inurba_marseille","lat":43.316538,"lon":5.38954,"is_reserved":false,"is_disabled":false,"rental_uris":{"android":"levelo://app?vid=92dc65d6-6823-4de3-93d4-056f738f090c","ios":"levelo://app?vid=92dc65d6-6823-4de3-93d4-056f738f090c"},"vehicle_type_id":"4","last_reported":1702116396,"current_range_meters":0,"station_id":"","pricing_plan_id":"free"},{"bike_id":"06dff815-7747-4b47-b7f0-946d03eab382","system_id":"levelo_inurba_marseille","lat":43.29573,"lon":5.367355,"is_reserved":false,"is_disabled":false,"rental_uris":{"android":"levelo://app?vid=06dff815-7747-4b47-b7f0-946d03eab382","ios":"levelo://app?vid=06dff815-7747-4b47-b7f0-946d03eab382"},"vehicle_type_id":"4","last_reported":1702116396,"current_range_meters":24400,"station_id":"ce4bgph2rcd13ifvqc2g","pricing_plan_id":"free"},{"bike_id":"185b03b6-445f-4b39-af24-0270da944a5f","system_id":"levelo_inurba_marseille","lat":43.29573,"lon":5.367355,"is_reserved":false,"is_disabled":false,"rental_uris":{"android":"levelo://app?vid=185b03b6-445f-4b39-af24-0270da944a5f","ios":"levelo://app?vid=185b03b6-445f-4b39-af24-0270da944a5f"},"vehicle_type_id":"4","last_reported":1702116396,"current_range_meters":28000,"station_id":"ce4bgph2rcd13ifvqc2g","pricing_plan_id":"free"},{"bike_id":"7dc40594-b05d-4792-a58f-b325c2fc5de6","system_id":"levelo_inurba_marseille","lat":43.309589,"lon":5.390258,"is_reserved":false,"is_disabled":false,"rental_uris":{"android":"levelo://app?vid=7dc40594-b05d-4792-a58f-b325c2fc5de6","ios":"levelo://app?vid=7dc40594-b05d-4792-a58f-b325c2fc5de6"},"vehicle_type_id":"4","last_reported":1702116396,"current_range_meters":19200,"station_id":"ce4bgup2rcd13ifvqco0","pricing_plan_id":"free"},{"bike_id":"2ba3d187-866c-4a09-817b-c1c02eaa1f0f","system_id":"levelo_inurba_marseille","lat":43.317557,"lon":5.390173,"is_reserved":false,"is_disabled":false,"rental_uris":{"android":"levelo://app?vid=2ba3d187-866c-4a09-817b-c1c02eaa1f0f","ios":"levelo://app?vid=2ba3d187-866c-4a09-817b-c1c02eaa1f0f"},"vehicle_type_id":"4","last_reported":1702116396,"current_range_meters":30000,"station_id":"ce4bhqp2rcd13ifvqhng","pricing_plan_id":"free"},{"bike_id":"bbc10879-8d22-4e78-9fc5-6c01d05589ef","system_id":"levelo_inurba_marseille","lat":43.295748,"lon":5.37522,"is_reserved":false,"is_disabled":false,"rental_uris":{"android":"levelo://app?vid=bbc10879-8d22-4e78-9fc5-6c01d05589ef","ios":"levelo://app?vid=bbc10879-8d22-4e78-9fc5-6c01d05589ef"},"vehicle_type_id":"4","last_reported":1702116396,"current_range_meters":21600,"station_id":"ce4bgh92rcd13ifvqb50","pricing_plan_id":"free"},{"bike_id":"4c95564c-c481-449d-a5cb-80f33a2782eb","system_id":"levelo_inurba_marseille","lat":43.296263,"lon":5.377094,"is_reserved":false,"is_disabled":false,"rental_uris":{"android":"levelo://app?vid=4c95564c-c481-449d-a5cb-80f33a2782eb","ios":"levelo://app?vid=4c95564c-c481-449d-a5cb-80f33a2782eb"},"vehicle_type_id":"4","last_reported":1702116396,"current_range_meters":24000,"station_id":"ce4bgi92rcd13ifvqb90","pricing_plan_id":"free"},{"bike_id":"7b444088-f59a-4e2e-b49a-a33a0ea1651b","system_id":"levelo_inurba_marseille","lat":43.29542,"lon":5.37501,"is_reserved":false,"is_disabled":false,"rental_uris":{"android":"levelo://app?vid=7b444088-f59a-4e2e-b49a-a33a0ea1651b","ios":"levelo://app?vid=7b444088-f59a-4e2e-b49a-a33a0ea1651b"},"vehicle_type_id":"4","last_reported":1702116396,"current_range_meters":27200,"station_id":"ce4bgkp2rcd13ifvqbmg","pricing_plan_id":"free"},{"bike_id":"6437a324-bb43-4c1d-9a86-721580b9f8e1","system_id":"levelo_inurba_marseille","lat":43.299707,"lon":5.384859,"is_reserved":false,"is_disabled":false,"rental_uris":{"android":"levelo://app?vid=6437a324-bb43-4c1d-9a86-721580b9f8e1","ios":"levelo://app?vid=6437a324-bb43-4c1d-9a86-721580b9f8e1"},"vehicle_type_id":"4","last_reported":1702116396,"current_range_meters":21200,"station_id":"ce4bgj92rcd13ifvqbd0","pricing_plan_id":"free"},{"bike_id":"e4380772-0cc4-42aa-8069-884f657a0a21","system_id":"levelo_inurba_marseille","lat":43.32367,"lon":5.388836,"is_reserved":false,"is_disabled":false,"rental_uris":{"android":"levelo://app?vid=e4380772-0cc4-42aa-8069-884f657a0a21","ios":"levelo://app?vid=e4380772-0cc4-42aa-8069-884f657a0a21"},"vehicle_type_id":"4","last_reported":1702116396,"current_range_meters":30800,"station_id":"ce4bhqp2rcd13ifvqhog","pricing_plan_id":"free"},{"bike_id":"5a1f6bc8-e270-4ee1-b3a7-8b734b52a9ea","system_id":"levelo_inurba_marseille","lat":43.32369,"lon":5.38884,"is_reserved":false,"is_disabled":false,"rental_uris":{"android":"levelo://app?vid=5a1f6bc8-e270-4ee1-b3a7-8b734b52a9ea","ios":"levelo://app?vid=5a1f6bc8-e270-4ee1-b3a7-8b734b52a9ea"},"vehicle_type_id":"4","last_reported":1702116396,"current_range_meters":14800,"station_id":"ce4bhqp2rcd13ifvqhog","pricing_plan_id":"free"},{"bike_id":"e9c36055-b7ad-45fe-a646-e635c0f26fe3","system_id":"levelo_inurba_marseille","lat":43.2936,"lon":5.37835,"is_reserved":false,"is_disabled":false,"rental_uris":{"android":"levelo://app?vid=e9c36055-b7ad-45fe-a646-e635c0f26fe3","ios":"levelo://app?vid=e9c36055-b7ad-45fe-a646-e635c0f26fe3"},"vehicle_type_id":"4","last_reported":1702116396,"current_range_meters":5200,"station_id":"ce4bgjh2rcd13ifvqbf0","pricing_plan_id":"free"},{"bike_id":"8e8723aa-2a14-4bbc-b6a5-6e66f870c03d","system_id":"levelo_inurba_marseille","lat":43.292311,"lon":5.360731,"is_reserved":false,"is_disabled":false,"rental_uris":{"android":"levelo://app?vid=8e8723aa-2a14-4bbc-b6a5-6e66f870c03d","ios":"levelo://app?vid=8e8723aa-2a14-4bbc-b6a5-6e66f870c03d"},"vehicle_type_id":"4","last_reported":1702116396,"current_range_meters":28000,"station_id":"ce4bhbh2rcd13ifvqeqg","pricing_plan_id":"free"},{"bike_id":"9476deac-3440-4038-b18d-9682ca3b7459","system_id":"levelo_inurba_marseille","lat":43.292311,"lon":5.360731,"is_reserved":false,"is_disabled":false,"rental_uris":{"android":"levelo://app?vid=9476deac-3440-4038-b18d-9682ca3b7459","ios":"levelo://app?vid=9476deac-3440-4038-b18d-9682ca3b7459"},"vehicle_type_id":"4","last_reported":1702116396,"current_range_meters":19200,"station_id":"ce4bhbh2rcd13ifvqeqg","pricing_plan_id":"free"},{"bike_id":"ffe8e861-9583-46be-9da3-462d5c1037ee","system_id":"levelo_inurba_marseille","lat":43.29267,"lon":5.37615,"is_reserved":false,"is_disabled":false,"rental_uris":{"android":"levelo://app?vid=ffe8e861-9583-46be-9da3-462d5c1037ee","ios":"levelo://app?vid=ffe8e861-9583-46be-9da3-462d5c1037ee"},"vehicle_type_id":"4","last_reported":1702116396,"current_range_meters":12000,"station_id":"ce4bgi12rcd13ifvqb80","pricing_plan_id":"free"},{"bike_id":"1d885f82-0a80-4432-8ef3-1f594a26cd27","system_id":"levelo_inurba_marseille","lat":43.291994,"lon":5.357886,"is_reserved":false,"is_disabled":false,"rental_uris":{"android":"levelo://app?vid=1d885f82-0a80-4432-8ef3-1f594a26cd27","ios":"levelo://app?vid=1d885f82-0a80-4432-8ef3-1f594a26cd27"},"vehicle_type_id":"4","last_reported":1702116396,"current_range_meters":22000,"station_id":"ce4bhb12rcd13ifvqel0","pricing_plan_id":"free"},{"bike_id":"25370a0e-e806-4f5e-a418-6aeaa4287291","system_id":"levelo_inurba_marseille","lat":43.29187,"lon":5.35797,"is_reserved":false,"is_disabled":false,"rental_uris":{"android":"levelo://app?vid=25370a0e-e806-4f5e-a418-6aeaa4287291","ios":"levelo://app?vid=25370a0e-e806-4f5e-a418-6aeaa4287291"},"vehicle_type_id":"4","last_reported":1702116396,"current_range_meters":17200,"station_id":"ce4bhb12rcd13ifvqel0","pricing_plan_id":"free"},{"bike_id":"62d5001a-b3db-4a98-b2ee-3efad9387715","system_id":"levelo_inurba_marseille","lat":43.29529,"lon":5.385581,"is_reserved":false,"is_disabled":false,"rental_uris":{"android":"levelo://app?vid=62d5001a-b3db-4a98-b2ee-3efad9387715","ios":"levelo://app?vid=62d5001a-b3db-4a98-b2ee-3efad9387715"},"vehicle_type_id":"4","last_reported":1702116396,"current_range_meters":6400,"station_id":"ce4bgih2rcd13ifvqba0","pricing_plan_id":"free"},{"bike_id":"816750e1-2b1c-4bcc-92c4-6b683a67c7b4","system_id":"levelo_inurba_marseille","lat":43.289184,"lon":5.366408,"is_reserved":false,"is_disabled":false,"rental_uris":{"android":"levelo://app?vid=816750e1-2b1c-4bcc-92c4-6b683a67c7b4","ios":"levelo://app?vid=816750e1-2b1c-4bcc-92c4-6b683a67c7b4"},"vehicle_type_id":"4","last_reported":1702116396,"current_range_meters":28000,"station_id":"ce4bhap2rcd13ifvqek0","pricing_plan_id":"free"},{"bike_id":"a02a1b20-1fb1-4951-988a-77389649024d","system_id":"levelo_inurba_marseille","lat":43.289259,"lon":5.366364,"is_reserved":false,"is_disabled":false,"rental_uris":{"android":"levelo://app?vid=a02a1b20-1fb1-4951-988a-77389649024d","ios":"levelo://app?vid=a02a1b20-1fb1-4951-988a-77389649024d"},"vehicle_type_id":"4","last_reported":1702116396,"current_range_meters":12400,"station_id":"","pricing_plan_id":"free"},{"bike_id":"ce30121c-a6e4-4317-9735-3c40f08a8827","system_id":"levelo_inurba_marseille","lat":43.292644,"lon":5.384257,"is_reserved":false,"is_disabled":false,"rental_uris":{"android":"levelo://app?vid=ce30121c-a6e4-4317-9735-3c40f08a8827","ios":"levelo://app?vid=ce30121c-a6e4-4317-9735-3c40f08a8827"},"vehicle_type_id":"4","last_reported":1702116396,"current_range_meters":25600,"station_id":"ce4bh692rcd13ifvqea0","pricing_plan_id":"free"},{"bike_id":"ce18ae7e-3845-4a46-8c8c-674d4d2c7da0","system_id":"levelo_inurba_marseille","lat":43.33035,"lon":5.38922,"is_reserved":false,"is_disabled":false,"rental_uris":{"android":"levelo://app?vid=ce18ae7e-3845-4a46-8c8c-674d4d2c7da0","ios":"levelo://app?vid=ce18ae7e-3845-4a46-8c8c-674d4d2c7da0"},"vehicle_type_id":"4","last_reported":1702116396,"current_range_meters":15200,"station_id":"ce4bhr92rcd13ifvqhrg","pricing_plan_id":"free"},{"bike_id":"400690de-82e4-42ab-8566-d6ecd22cfab1","system_id":"levelo_inurba_marseille","lat":43.33039,"lon":5.38921,"is_reserved":false,"is_disabled":false,"rental_uris":{"android":"levelo://app?vid=400690de-82e4-42ab-8566-d6ecd22cfab1","ios":"levelo://app?vid=400690de-82e4-42ab-8566-d6ecd22cfab1"},"vehicle_type_id":"4","last_reported":1702116396,"current_range_meters":26800,"station_id":"ce4bhr92rcd13ifvqhrg","pricing_plan_id":"free"},{"bike_id":"d279596a-a12c-4db6-9065-bfd40a0c35ec","system_id":"levelo_inurba_marseille","lat":43.290104,"lon":5.356111,"is_reserved":false,"is_disabled":false,"rental_uris":{"android":"levelo://app?vid=d279596a-a12c-4db6-9065-bfd40a0c35ec","ios":"levelo://app?vid=d279596a-a12c-4db6-9065-bfd40a0c35ec"},"vehicle_type_id":"4","last_reported":1702116396,"current_range_meters":22400,"station_id":"ce4bhb92rcd13ifvqen0","pricing_plan_id":"free"},{"bike_id":"5c851a12-5741-43b3-816f-010057363b5e","system_id":"levelo_inurba_marseille","lat":43.33041,"lon":5.3892,"is_reserved":false,"is_disabled":false,"rental_uris":{"android":"levelo://app?vid=5c851a12-5741-43b3-816f-010057363b5e","ios":"levelo://app?vid=5c851a12-5741-43b3-816f-010057363b5e"},"vehicle_type_id":"4","last_reported":1702116396,"current_range_meters":8800,"station_id":"ce4bhr92rcd13ifvqhrg","pricing_plan_id":"free"},{"bike_id":"59683761-a578-4012-9a2e-6bfd1a5a4622","system_id":"levelo_inurba_marseille","lat":43.33044,"lon":5.38923,"is_reserved":false,"is_disabled":false,"rental_uris":{"android":"levelo://app?vid=59683761-a578-4012-9a2e-6bfd1a5a4622","ios":"levelo://app?vid=59683761-a578-4012-9a2e-6bfd1a5a4622"},"vehicle_type_id":"4","last_reported":1702116396,"current_range_meters":18000,"station_id":"ce4bhr92rcd13ifvqhrg","pricing_plan_id":"free"},{"bike_id":"e32f3f2b-16c6-431a-9585-5b40495c85e4","system_id":"levelo_inurba_marseille","lat":43.309371,"lon":5.401449,"is_reserved":false,"is_disabled":false,"rental_uris":{"android":"levelo://app?vid=e32f3f2b-16c6-431a-9585-5b40495c85e4","ios":"levelo://app?vid=e32f3f2b-16c6-431a-9585-5b40495c85e4"},"vehicle_type_id":"4","last_reported":1702116396,"current_range_meters":10000,"station_id":"ce4bgvp2rcd13ifvqct0","pricing_plan_id":"free"},{"bike_id":"a5ea2d78-e03c-4183-a0f2-f0a0cb070400","system_id":"levelo_inurba_marseille","lat":43.33744,"lon":5.37461,"is_reserved":false,"is_disabled":false,"rental_uris":{"android":"levelo://app?vid=a5ea2d78-e03c-4183-a0f2-f0a0cb070400","ios":"levelo://app?vid=a5ea2d78-e03c-4183-a0f2-f0a0cb070400"},"vehicle_type_id":"4","last_reported":1702116396,"current_range_meters":29200,"station_id":"","pricing_plan_id":"free"},{"bike_id":"1e6eab60-7741-4809-86c3-5861a4c241ba","system_id":"levelo_inurba_marseille","lat":43.30928,"lon":5.40144,"is_reserved":false,"is_disabled":false,"rental_uris":{"android":"levelo://app?vid=1e6eab60-7741-4809-86c3-5861a4c241ba","ios":"levelo://app?vid=1e6eab60-7741-4809-86c3-5861a4c241ba"},"vehicle_type_id":"4","last_reported":1702116396,"current_range_meters":18400,"station_id":"ce4bgvp2rcd13ifvqct0","pricing_plan_id":"free"},{"bike_id":"98cec118-16b8-4a81-af7b-16c08d9a569e","system_id":"levelo_inurba_marseille","lat":43.3375,"lon":5.37456,"is_reserved":false,"is_disabled":false,"rental_uris":{"android":"levelo://app?vid=98cec118-16b8-4a81-af7b-16c08d9a569e","ios":"levelo://app?vid=98cec118-16b8-4a81-af7b-16c08d9a569e"},"vehicle_type_id":"4","last_reported":1702116396,"current_range_meters":27600,"station_id":"","pricing_plan_id":"free"},{"bike_id":"5e6a3cc2-3c17-45c7-8129-a2db8a57ff5d","system_id":"levelo_inurba_marseille","lat":43.337581,"lon":5.37479,"is_reserved":false,"is_disabled":false,"rental_uris":{"android":"levelo://app?vid=5e6a3cc2-3c17-45c7-8129-a2db8a57ff5d","ios":"levelo://app?vid=5e6a3cc2-3c17-45c7-8129-a2db8a57ff5d"},"vehicle_type_id":"4","last_reported":1702116396,"current_range_meters":24800,"station_id":"","pricing_plan_id":"free"},{"bike_id":"e450bb6c-19ba-44f6-9c4c-7fe494c038e1","system_id":"levelo_inurba_marseille","lat":43.28727,"lon":5.36078,"is_reserved":false,"is_disabled":false,"rental_uris":{"android":"levelo://app?vid=e450bb6c-19ba-44f6-9c4c-7fe494c038e1","ios":"levelo://app?vid=e450bb6c-19ba-44f6-9c4c-7fe494c038e1"},"vehicle_type_id":"4","last_reported":1702116396,"current_range_meters":26400,"station_id":"cki0cbj6b192h4jlfktg","pricing_plan_id":"free"},{"bike_id":"82ae3b29-4ab9-49ba-ba6d-f1a599fd0199","system_id":"levelo_inurba_marseille","lat":43.298681,"lon":5.397225,"is_reserved":false,"is_disabled":false,"rental_uris":{"android":"levelo://app?vid=82ae3b29-4ab9-49ba-ba6d-f1a599fd0199","ios":"levelo://app?vid=82ae3b29-4ab9-49ba-ba6d-f1a599fd0199"},"vehicle_type_id":"4","last_reported":1702116396,"current_range_meters":15600,"station_id":"ce4bh0h2rcd13ifvqd50","pricing_plan_id":"free"},{"bike_id":"4e00aaa9-0ab2-47e2-ba52-4041c3f7aff4","system_id":"levelo_inurba_marseille","lat":43.286593,"lon":5.363346,"is_reserved":false,"is_disabled":false,"rental_uris":{"android":"levelo://app?vid=4e00aaa9-0ab2-47e2-ba52-4041c3f7aff4","ios":"levelo://app?vid=4e00aaa9-0ab2-47e2-ba52-4041c3f7aff4"},"vehicle_type_id":"4","last_reported":1702116396,"current_range_meters":24400,"station_id":"ce4bhah2rcd13ifvqej0","pricing_plan_id":"free"},{"bike_id":"7a14c998-aa07-4b91-9d17-bece5c89800f","system_id":"levelo_inurba_marseille","lat":43.290336,"lon":5.386425,"is_reserved":false,"is_disabled":false,"rental_uris":{"android":"levelo://app?vid=7a14c998-aa07-4b91-9d17-bece5c89800f","ios":"levelo://app?vid=7a14c998-aa07-4b91-9d17-bece5c89800f"},"vehicle_type_id":"4","last_reported":1702116396,"current_range_meters":17200,"station_id":"ce4bh4p2rcd13ifvqe0g","pricing_plan_id":"free"},{"bike_id":"11827d9c-dab2-4e6e-a8a5-19328753934f","system_id":"levelo_inurba_marseille","lat":43.286039,"lon":5.370681,"is_reserved":false,"is_disabled":false,"rental_uris":{"android":"levelo://app?vid=11827d9c-dab2-4e6e-a8a5-19328753934f","ios":"levelo://app?vid=11827d9c-dab2-4e6e-a8a5-19328753934f"},"vehicle_type_id":"4","last_reported":1702116396,"current_range_meters":18000,"station_id":"ce4bht12rcd13ifvqi60","pricing_plan_id":"free"},{"bike_id":"d4ad3f70-2462-435f-9e00-1aae0cf66321","system_id":"levelo_inurba_marseille","lat":43.286039,"lon":5.370681,"is_reserved":false,"is_disabled":false,"rental_uris":{"android":"levelo://app?vid=d4ad3f70-2462-435f-9e00-1aae0cf66321","ios":"levelo://app?vid=d4ad3f70-2462-435f-9e00-1aae0cf66321"},"vehicle_type_id":"4","last_reported":1702116396,"current_range_meters":6800,"station_id":"ce4bht12rcd13ifvqi60","pricing_plan_id":"free"},{"bike_id":"49658399-508d-489c-8ecf-17152ba09692","system_id":"levelo_inurba_marseille","lat":43.286039,"lon":5.370679,"is_reserved":false,"is_disabled":false,"rental_uris":{"android":"levelo://app?vid=49658399-508d-489c-8ecf-17152ba09692","ios":"levelo://app?vid=49658399-508d-489c-8ecf-17152ba09692"},"vehicle_type_id":"4","last_reported":1702116396,"current_range_meters":25600,"station_id":"ce4bht12rcd13ifvqi60","pricing_plan_id":"free"},{"bike_id":"da285686-aab5-49df-810c-e9114b23a5c3","system_id":"levelo_inurba_marseille","lat":43.287185,"lon":5.379373,"is_reserved":false,"is_disabled":false,"rental_uris":{"android":"levelo://app?vid=da285686-aab5-49df-810c-e9114b23a5c3","ios":"levelo://app?vid=da285686-aab5-49df-810c-e9114b23a5c3"},"vehicle_type_id":"4","last_reported":1702116396,"current_range_meters":17200,"station_id":"ce4bh9p2rcd13ifvqec0","pricing_plan_id":"free"},{"bike_id":"63dd53fe-e70c-4b5e-914b-525f14509266","system_id":"levelo_inurba_marseille","lat":43.31686,"lon":5.40465,"is_reserved":false,"is_disabled":false,"rental_uris":{"android":"levelo://app?vid=63dd53fe-e70c-4b5e-914b-525f14509266","ios":"levelo://app?vid=63dd53fe-e70c-4b5e-914b-525f14509266"},"vehicle_type_id":"4","last_reported":1702116396,"current_range_meters":11600,"station_id":"ce4bh012rcd13ifvqd00","pricing_plan_id":"free"},{"bike_id":"eb1f917f-f61e-4d23-af5b-5502d2034398","system_id":"levelo_inurba_marseille","lat":43.286777,"lon":5.380697,"is_reserved":false,"is_disabled":false,"rental_uris":{"android":"levelo://app?vid=eb1f917f-f61e-4d23-af5b-5502d2034398","ios":"levelo://app?vid=eb1f917f-f61e-4d23-af5b-5502d2034398"},"vehicle_type_id":"4","last_reported":1702116396,"current_range_meters":22000,"station_id":"","pricing_plan_id":"free"},{"bike_id":"8b2f84e3-1ded-4430-a795-5d35c9656cdd","system_id":"levelo_inurba_marseille","lat":43.28464,"lon":5.35884,"is_reserved":false,"is_disabled":false,"rental_uris":{"android":"levelo://app?vid=8b2f84e3-1ded-4430-a795-5d35c9656cdd","ios":"levelo://app?vid=8b2f84e3-1ded-4430-a795-5d35c9656cdd"},"vehicle_type_id":"4","last_reported":1702116396,"current_range_meters":19200,"station_id":"ce4bhah2rcd13ifvqei0","pricing_plan_id":"free"},{"bike_id":"1c410f13-7425-42bb-b7fe-270c209d47a7","system_id":"levelo_inurba_marseille","lat":43.28463,"lon":5.35888,"is_reserved":false,"is_disabled":false,"rental_uris":{"android":"levelo://app?vid=1c410f13-7425-42bb-b7fe-270c209d47a7","ios":"levelo://app?vid=1c410f13-7425-42bb-b7fe-270c209d47a7"},"vehicle_type_id":"4","last_reported":1702116396,"current_range_meters":16800,"station_id":"ce4bhah2rcd13ifvqei0","pricing_plan_id":"free"},{"bike_id":"139b5c27-953e-4eba-b438-40258d263d4d","system_id":"levelo_inurba_marseille","lat":43.28461,"lon":5.3589,"is_reserved":false,"is_disabled":false,"rental_uris":{"android":"levelo://app?vid=139b5c27-953e-4eba-b438-40258d263d4d","ios":"levelo://app?vid=139b5c27-953e-4eba-b438-40258d263d4d"},"vehicle_type_id":"4","last_reported":1702116396,"current_range_meters":31200,"station_id":"ce4bhah2rcd13ifvqei0","pricing_plan_id":"free"},{"bike_id":"c6fe9f00-9b73-4e8f-b600-1d49cfc12157","system_id":"levelo_inurba_marseille","lat":43.284598,"lon":5.358917,"is_reserved":false,"is_disabled":false,"rental_uris":{"android":"levelo://app?vid=c6fe9f00-9b73-4e8f-b600-1d49cfc12157","ios":"levelo://app?vid=c6fe9f00-9b73-4e8f-b600-1d49cfc12157"},"vehicle_type_id":"4","last_reported":1702116396,"current_range_meters":15200,"station_id":"ce4bhah2rcd13ifvqei0","pricing_plan_id":"free"},{"bike_id":"591cb939-6b0a-4b19-83ff-445e61f6c1d6","system_id":"levelo_inurba_marseille","lat":43.28455,"lon":5.358893,"is_reserved":false,"is_disabled":false,"rental_uris":{"android":"levelo://app?vid=591cb939-6b0a-4b19-83ff-445e61f6c1d6","ios":"levelo://app?vid=591cb939-6b0a-4b19-83ff-445e61f6c1d6"},"vehicle_type_id":"4","last_reported":1702116396,"current_range_meters":31200,"station_id":"ce4bhah2rcd13ifvqei0","pricing_plan_id":"free"},{"bike_id":"a74a3878-4eea-4074-b70f-591ba450338d","system_id":"levelo_inurba_marseille","lat":43.28612,"lon":5.35101,"is_reserved":false,"is_disabled":false,"rental_uris":{"android":"levelo://app?vid=a74a3878-4eea-4074-b70f-591ba450338d","ios":"levelo://app?vid=a74a3878-4eea-4074-b70f-591ba450338d"},"vehicle_type_id":"4","last_reported":1702116396,"current_range_meters":29200,"station_id":"ce4bhch2rcd13ifvqeug","pricing_plan_id":"free"},{"bike_id":"52fef2d3-826b-4fee-8893-49efd35172a7","system_id":"levelo_inurba_marseille","lat":43.284055,"lon":5.37506,"is_reserved":false,"is_disabled":false,"rental_uris":{"android":"levelo://app?vid=52fef2d3-826b-4fee-8893-49efd35172a7","ios":"levelo://app?vid=52fef2d3-826b-4fee-8893-49efd35172a7"},"vehicle_type_id":"4","last_reported":1702116396,"current_range_meters":0,"station_id":"ce4bh412rcd13ifvqds0","pricing_plan_id":"free"},{"bike_id":"324d6f9f-42f6-4266-9049-e3939b639ea9","system_id":"levelo_inurba_marseille","lat":43.337168,"lon":5.391825,"is_reserved":false,"is_disabled":false,"rental_uris":{"android":"levelo://app?vid=324d6f9f-42f6-4266-9049-e3939b639ea9","ios":"levelo://app?vid=324d6f9f-42f6-4266-9049-e3939b639ea9"},"vehicle_type_id":"4","last_reported":1702116396,"current_range_meters":27200,"station_id":"ce4bhr92rcd13ifvqhsg","pricing_plan_id":"free"},{"bike_id":"efe9d2cc-d0eb-4e85-b313-6bf62b4d4d4c","system_id":"levelo_inurba_marseille","lat":43.33717,"lon":5.391857,"is_reserved":false,"is_disabled":false,"rental_uris":{"android":"levelo://app?vid=efe9d2cc-d0eb-4e85-b313-6bf62b4d4d4c","ios":"levelo://app?vid=efe9d2cc-d0eb-4e85-b313-6bf62b4d4d4c"},"vehicle_type_id":"4","last_reported":1702116396,"current_range_meters":0,"station_id":"ce4bhr92rcd13ifvqhsg","pricing_plan_id":"free"},{"bike_id":"3c11744c-dc53-4b59-8687-2742739d073a","system_id":"levelo_inurba_marseille","lat":43.284793,"lon":5.384113,"is_reserved":false,"is_disabled":false,"rental_uris":{"android":"levelo://app?vid=3c11744c-dc53-4b59-8687-2742739d073a","ios":"levelo://app?vid=3c11744c-dc53-4b59-8687-2742739d073a"},"vehicle_type_id":"4","last_reported":1702116396,"current_range_meters":28000,"station_id":"ce4bh512rcd13ifvqe3g","pricing_plan_id":"free"},{"bike_id":"394e7ef0-8795-4b05-b68f-3db5b0a2f588","system_id":"levelo_inurba_marseille","lat":43.33717,"lon":5.391857,"is_reserved":false,"is_disabled":false,"rental_uris":{"android":"levelo://app?vid=394e7ef0-8795-4b05-b68f-3db5b0a2f588","ios":"levelo://app?vid=394e7ef0-8795-4b05-b68f-3db5b0a2f588"},"vehicle_type_id":"4","last_reported":1702116396,"current_range_meters":29200,"station_id":"ce4bhr92rcd13ifvqhsg","pricing_plan_id":"free"},{"bike_id":"1395d12b-4659-431f-9ad5-cc070ae22f27","system_id":"levelo_inurba_marseille","lat":43.284787,"lon":5.384116,"is_reserved":false,"is_disabled":false,"rental_uris":{"android":"levelo://app?vid=1395d12b-4659-431f-9ad5-cc070ae22f27","ios":"levelo://app?vid=1395d12b-4659-431f-9ad5-cc070ae22f27"},"vehicle_type_id":"4","last_reported":1702116396,"current_range_meters":24800,"station_id":"ce4bh512rcd13ifvqe3g","pricing_plan_id":"free"},{"bike_id":"70628d4f-89ef-461f-ae57-272ef49c966f","system_id":"levelo_inurba_marseille","lat":43.284217,"lon":5.349697,"is_reserved":false,"is_disabled":false,"rental_uris":{"android":"levelo://app?vid=70628d4f-89ef-461f-ae57-272ef49c966f","ios":"levelo://app?vid=70628d4f-89ef-461f-ae57-272ef49c966f"},"vehicle_type_id":"4","last_reported":1702116396,"current_range_meters":23200,"station_id":"ce4bhbh2rcd13ifvqepg","pricing_plan_id":"free"},{"bike_id":"19e8ecea-307a-4c4b-a0ba-09ea6fce31d3","system_id":"levelo_inurba_marseille","lat":43.292724,"lon":5.401131,"is_reserved":false,"is_disabled":false,"rental_uris":{"android":"levelo://app?vid=19e8ecea-307a-4c4b-a0ba-09ea6fce31d3","ios":"levelo://app?vid=19e8ecea-307a-4c4b-a0ba-09ea6fce31d3"},"vehicle_type_id":"4","last_reported":1702116396,"current_range_meters":30400,"station_id":"ce4bh312rcd13ifvqdk0","pricing_plan_id":"free"},{"bike_id":"b8563099-ece3-45c3-8ef1-f068ee71708f","system_id":"levelo_inurba_marseille","lat":43.282754,"lon":5.350519,"is_reserved":false,"is_disabled":false,"rental_uris":{"android":"levelo://app?vid=b8563099-ece3-45c3-8ef1-f068ee71708f","ios":"levelo://app?vid=b8563099-ece3-45c3-8ef1-f068ee71708f"},"vehicle_type_id":"4","last_reported":1702116396,"current_range_meters":6400,"station_id":"ce4bhbp2rcd13ifvqerg","pricing_plan_id":"free"},{"bike_id":"b68fbed3-ab8a-4323-a302-d006618aa46d","system_id":"levelo_inurba_marseille","lat":43.281044,"lon":5.378308,"is_reserved":false,"is_disabled":false,"rental_uris":{"android":"levelo://app?vid=b68fbed3-ab8a-4323-a302-d006618aa46d","ios":"levelo://app?vid=b68fbed3-ab8a-4323-a302-d006618aa46d"},"vehicle_type_id":"4","last_reported":1702116396,"current_range_meters":26800,"station_id":"ce4bha12rcd13ifvqee0","pricing_plan_id":"free"},{"bike_id":"3cf9c174-d67a-46b8-a288-e8d982e95dcd","system_id":"levelo_inurba_marseille","lat":43.296263,"lon":5.40601,"is_reserved":false,"is_disabled":false,"rental_uris":{"android":"levelo://app?vid=3cf9c174-d67a-46b8-a288-e8d982e95dcd","ios":"levelo://app?vid=3cf9c174-d67a-46b8-a288-e8d982e95dcd"},"vehicle_type_id":"4","last_reported":1702116396,"current_range_meters":29600,"station_id":"ce4bh0h2rcd13ifvqd60","pricing_plan_id":"free"},{"bike_id":"c6edb2c0-fca4-4817-ac1a-8acfbd5f7de7","system_id":"levelo_inurba_marseille","lat":43.326605,"lon":5.409903,"is_reserved":false,"is_disabled":false,"rental_uris":{"android":"levelo://app?vid=c6edb2c0-fca4-4817-ac1a-8acfbd5f7de7","ios":"levelo://app?vid=c6edb2c0-fca4-4817-ac1a-8acfbd5f7de7"},"vehicle_type_id":"4","last_reported":1702116396,"current_range_meters":30000,"station_id":"ce4bhpp2rcd13ifvqhgg","pricing_plan_id":"free"},{"bike_id":"e52ddfd6-0ddd-4c7b-ab34-3c7fe5c2aaef","system_id":"levelo_inurba_marseille","lat":43.326605,"lon":5.409903,"is_reserved":false,"is_disabled":false,"rental_uris":{"android":"levelo://app?vid=e52ddfd6-0ddd-4c7b-ab34-3c7fe5c2aaef","ios":"levelo://app?vid=e52ddfd6-0ddd-4c7b-ab34-3c7fe5c2aaef"},"vehicle_type_id":"4","last_reported":1702116396,"current_range_meters":31200,"station_id":"ce4bhpp2rcd13ifvqhgg","pricing_plan_id":"free"},{"bike_id":"5e578afd-3e4d-4841-96fa-cf1bf643d8d9","system_id":"levelo_inurba_marseille","lat":43.326605,"lon":5.409903,"is_reserved":false,"is_disabled":false,"rental_uris":{"android":"levelo://app?vid=5e578afd-3e4d-4841-96fa-cf1bf643d8d9","ios":"levelo://app?vid=5e578afd-3e4d-4841-96fa-cf1bf643d8d9"},"vehicle_type_id":"4","last_reported":1702116396,"current_range_meters":20000,"station_id":"ce4bhpp2rcd13ifvqhgg","pricing_plan_id":"free"},{"bike_id":"c0763524-47cd-4818-80fc-1b29f8280dc8","system_id":"levelo_inurba_marseille","lat":43.326605,"lon":5.409903,"is_reserved":false,"is_disabled":false,"rental_uris":{"android":"levelo://app?vid=c0763524-47cd-4818-80fc-1b29f8280dc8","ios":"levelo://app?vid=c0763524-47cd-4818-80fc-1b29f8280dc8"},"vehicle_type_id":"4","last_reported":1702116396,"current_range_meters":31200,"station_id":"ce4bhpp2rcd13ifvqhgg","pricing_plan_id":"free"},{"bike_id":"602a54ad-4929-4a4f-9c51-e372b2edb079","system_id":"levelo_inurba_marseille","lat":43.32656,"lon":5.40998,"is_reserved":false,"is_disabled":false,"rental_uris":{"android":"levelo://app?vid=602a54ad-4929-4a4f-9c51-e372b2edb079","ios":"levelo://app?vid=602a54ad-4929-4a4f-9c51-e372b2edb079"},"vehicle_type_id":"4","last_reported":1702116396,"current_range_meters":30800,"station_id":"ce4bhpp2rcd13ifvqhgg","pricing_plan_id":"free"},{"bike_id":"47cf5cd0-f502-4a57-9f6e-06da5c04ddda","system_id":"levelo_inurba_marseille","lat":43.279087,"lon":5.380114,"is_reserved":false,"is_disabled":false,"rental_uris":{"android":"levelo://app?vid=47cf5cd0-f502-4a57-9f6e-06da5c04ddda","ios":"levelo://app?vid=47cf5cd0-f502-4a57-9f6e-06da5c04ddda"},"vehicle_type_id":"4","last_reported":1702116396,"current_range_meters":11600,"station_id":"ce4bhf92rcd13ifvqf50","pricing_plan_id":"free"},{"bike_id":"9f0451ea-5f38-405a-b829-aac95d9999b5","system_id":"levelo_inurba_marseille","lat":43.279087,"lon":5.380114,"is_reserved":false,"is_disabled":false,"rental_uris":{"android":"levelo://app?vid=9f0451ea-5f38-405a-b829-aac95d9999b5","ios":"levelo://app?vid=9f0451ea-5f38-405a-b829-aac95d9999b5"},"vehicle_type_id":"4","last_reported":1702116396,"current_range_meters":14800,"station_id":"ce4bhf92rcd13ifvqf50","pricing_plan_id":"free"},{"bike_id":"24b10a3e-23d1-4501-90bd-d3015c64138f","system_id":"levelo_inurba_marseille","lat":43.320045,"lon":5.415048,"is_reserved":false,"is_disabled":false,"rental_uris":{"android":"levelo://app?vid=24b10a3e-23d1-4501-90bd-d3015c64138f","ios":"levelo://app?vid=24b10a3e-23d1-4501-90bd-d3015c64138f"},"vehicle_type_id":"4","last_reported":1702116396,"current_range_meters":26400,"station_id":"ce4bhq92rcd13ifvqhkg","pricing_plan_id":"free"},{"bike_id":"24543067-89fb-4809-919a-61ff64ddfd63","system_id":"levelo_inurba_marseille","lat":43.33612,"lon":5.410321,"is_reserved":false,"is_disabled":false,"rental_uris":{"android":"levelo://app?vid=24543067-89fb-4809-919a-61ff64ddfd63","ios":"levelo://app?vid=24543067-89fb-4809-919a-61ff64ddfd63"},"vehicle_type_id":"4","last_reported":1702116396,"current_range_meters":2800,"station_id":"ce4bhqh2rcd13ifvqhmg","pricing_plan_id":"free"},{"bike_id":"cad2aa93-1dd6-4f61-aed7-63bd8874b030","system_id":"levelo_inurba_marseille","lat":43.30354,"lon":5.41887,"is_reserved":false,"is_disabled":false,"rental_uris":{"android":"levelo://app?vid=cad2aa93-1dd6-4f61-aed7-63bd8874b030","ios":"levelo://app?vid=cad2aa93-1dd6-4f61-aed7-63bd8874b030"},"vehicle_type_id":"4","last_reported":1702116396,"current_range_meters":4800,"station_id":"ce4bhop2rcd13ifvqh7g","pricing_plan_id":"free"},{"bike_id":"271b5547-c603-4887-a853-4abad47ee430","system_id":"levelo_inurba_marseille","lat":43.30353,"lon":5.41887,"is_reserved":false,"is_disabled":false,"rental_uris":{"android":"levelo://app?vid=271b5547-c603-4887-a853-4abad47ee430","ios":"levelo://app?vid=271b5547-c603-4887-a853-4abad47ee430"},"vehicle_type_id":"4","last_reported":1702116396,"current_range_meters":14000,"station_id":"ce4bhop2rcd13ifvqh7g","pricing_plan_id":"free"},{"bike_id":"00aefffc-0b3f-4f37-b088-c293e94bb941","system_id":"levelo_inurba_marseille","lat":43.27383,"lon":5.36252,"is_reserved":false,"is_disabled":false,"rental_uris":{"android":"levelo://app?vid=00aefffc-0b3f-4f37-b088-c293e94bb941","ios":"levelo://app?vid=00aefffc-0b3f-4f37-b088-c293e94bb941"},"vehicle_type_id":"4","last_reported":1702116396,"current_range_meters":22400,"station_id":"ce4bhbh2rcd13ifvqeo0","pricing_plan_id":"free"},{"bike_id":"8524bb52-56a5-458d-82f3-0a1f0ef4e77b","system_id":"levelo_inurba_marseille","lat":43.273613,"lon":5.362705,"is_reserved":false,"is_disabled":false,"rental_uris":{"android":"levelo://app?vid=8524bb52-56a5-458d-82f3-0a1f0ef4e77b","ios":"levelo://app?vid=8524bb52-56a5-458d-82f3-0a1f0ef4e77b"},"vehicle_type_id":"4","last_reported":1702116396,"current_range_meters":22400,"station_id":"ce4bhbh2rcd13ifvqeo0","pricing_plan_id":"free"},{"bike_id":"28de6b25-f8a6-4b5a-b931-e682f2d33ad0","system_id":"levelo_inurba_marseille","lat":43.275625,"lon":5.384392,"is_reserved":false,"is_disabled":false,"rental_uris":{"android":"levelo://app?vid=28de6b25-f8a6-4b5a-b931-e682f2d33ad0","ios":"levelo://app?vid=28de6b25-f8a6-4b5a-b931-e682f2d33ad0"},"vehicle_type_id":"4","last_reported":1702116396,"current_range_meters":18800,"station_id":"ce4bhh92rcd13ifvqfi0","pricing_plan_id":"free"},{"bike_id":"47723a28-1698-4551-8de2-3e4dcf2da4e8","system_id":"levelo_inurba_marseille","lat":43.28003,"lon":5.4001,"is_reserved":false,"is_disabled":false,"rental_uris":{"android":"levelo://app?vid=47723a28-1698-4551-8de2-3e4dcf2da4e8","ios":"levelo://app?vid=47723a28-1698-4551-8de2-3e4dcf2da4e8"},"vehicle_type_id":"4","last_reported":1702116396,"current_range_meters":24800,"station_id":"ce4bho92rcd13ifvqh4g","pricing_plan_id":"free"},{"bike_id":"fc4bcc5b-5f4e-42a1-8cca-78d5c651475f","system_id":"levelo_inurba_marseille","lat":43.317121,"lon":5.423936,"is_reserved":false,"is_disabled":false,"rental_uris":{"android":"levelo://app?vid=fc4bcc5b-5f4e-42a1-8cca-78d5c651475f","ios":"levelo://app?vid=fc4bcc5b-5f4e-42a1-8cca-78d5c651475f"},"vehicle_type_id":"4","last_reported":1702116396,"current_range_meters":26800,"station_id":"ce4bhp92rcd13ifvqhbg","pricing_plan_id":"free"},{"bike_id":"b5e520e0-8911-4af3-a2d4-7d3ed4e4e33e","system_id":"levelo_inurba_marseille","lat":43.31712,"lon":5.424,"is_reserved":false,"is_disabled":false,"rental_uris":{"android":"levelo://app?vid=b5e520e0-8911-4af3-a2d4-7d3ed4e4e33e","ios":"levelo://app?vid=b5e520e0-8911-4af3-a2d4-7d3ed4e4e33e"},"vehicle_type_id":"4","last_reported":1702116396,"current_range_meters":10800,"station_id":"ce4bhp92rcd13ifvqhbg","pricing_plan_id":"free"},{"bike_id":"02791883-a925-42a0-9dd3-b7193f6a574b","system_id":"levelo_inurba_marseille","lat":43.31712,"lon":5.424,"is_reserved":false,"is_disabled":false,"rental_uris":{"android":"levelo://app?vid=02791883-a925-42a0-9dd3-b7193f6a574b","ios":"levelo://app?vid=02791883-a925-42a0-9dd3-b7193f6a574b"},"vehicle_type_id":"4","last_reported":1702116396,"current_range_meters":4800,"station_id":"ce4bhp92rcd13ifvqhbg","pricing_plan_id":"free"},{"bike_id":"0f7a9644-c470-46e7-ae97-75a010349f8b","system_id":"levelo_inurba_marseille","lat":43.317121,"lon":5.423936,"is_reserved":false,"is_disabled":false,"rental_uris":{"android":"levelo://app?vid=0f7a9644-c470-46e7-ae97-75a010349f8b","ios":"levelo://app?vid=0f7a9644-c470-46e7-ae97-75a010349f8b"},"vehicle_type_id":"4","last_reported":1702116396,"current_range_meters":26400,"station_id":"ce4bhp92rcd13ifvqhbg","pricing_plan_id":"free"},{"bike_id":"3382fddf-23bf-43e2-9be0-1a0233fdea3a","system_id":"levelo_inurba_marseille","lat":43.31085,"lon":5.42428,"is_reserved":false,"is_disabled":false,"rental_uris":{"android":"levelo://app?vid=3382fddf-23bf-43e2-9be0-1a0233fdea3a","ios":"levelo://app?vid=3382fddf-23bf-43e2-9be0-1a0233fdea3a"},"vehicle_type_id":"4","last_reported":1702116396,"current_range_meters":28800,"station_id":"ce4bhp92rcd13ifvqhag","pricing_plan_id":"free"},{"bike_id":"88e59060-d458-48a8-8abe-8a1913097d92","system_id":"levelo_inurba_marseille","lat":43.31716,"lon":5.42402,"is_reserved":false,"is_disabled":false,"rental_uris":{"android":"levelo://app?vid=88e59060-d458-48a8-8abe-8a1913097d92","ios":"levelo://app?vid=88e59060-d458-48a8-8abe-8a1913097d92"},"vehicle_type_id":"4","last_reported":1702116396,"current_range_meters":25600,"station_id":"ce4bhp92rcd13ifvqhbg","pricing_plan_id":"free"},{"bike_id":"80038031-3601-4c51-b66a-c6c9131d41d1","system_id":"levelo_inurba_marseille","lat":43.310785,"lon":5.424305,"is_reserved":false,"is_disabled":false,"rental_uris":{"android":"levelo://app?vid=80038031-3601-4c51-b66a-c6c9131d41d1","ios":"levelo://app?vid=80038031-3601-4c51-b66a-c6c9131d41d1"},"vehicle_type_id":"4","last_reported":1702116396,"current_range_meters":30400,"station_id":"ce4bhp92rcd13ifvqhag","pricing_plan_id":"free"},{"bike_id":"c58024d2-cabc-4012-868c-d0b5976a6bb0","system_id":"levelo_inurba_marseille","lat":43.317121,"lon":5.423936,"is_reserved":false,"is_disabled":false,"rental_uris":{"android":"levelo://app?vid=c58024d2-cabc-4012-868c-d0b5976a6bb0","ios":"levelo://app?vid=c58024d2-cabc-4012-868c-d0b5976a6bb0"},"vehicle_type_id":"4","last_reported":1702116396,"current_range_meters":28800,"station_id":"ce4bhp92rcd13ifvqhbg","pricing_plan_id":"free"},{"bike_id":"e6ff414d-6f05-44d2-b7c6-4a89a6fc64e2","system_id":"levelo_inurba_marseille","lat":43.31079,"lon":5.42429,"is_reserved":false,"is_disabled":false,"rental_uris":{"android":"levelo://app?vid=e6ff414d-6f05-44d2-b7c6-4a89a6fc64e2","ios":"levelo://app?vid=e6ff414d-6f05-44d2-b7c6-4a89a6fc64e2"},"vehicle_type_id":"4","last_reported":1702116396,"current_range_meters":5600,"station_id":"ce4bhp92rcd13ifvqhag","pricing_plan_id":"free"},{"bike_id":"e7bd1e73-4f86-473d-905c-a7b0f3d6ad8a","system_id":"levelo_inurba_marseille","lat":43.31723,"lon":5.42405,"is_reserved":false,"is_disabled":false,"rental_uris":{"android":"levelo://app?vid=e7bd1e73-4f86-473d-905c-a7b0f3d6ad8a","ios":"levelo://app?vid=e7bd1e73-4f86-473d-905c-a7b0f3d6ad8a"},"vehicle_type_id":"4","last_reported":1702116396,"current_range_meters":17600,"station_id":"ce4bhp92rcd13ifvqhbg","pricing_plan_id":"free"},{"bike_id":"fe6596e6-baa8-4e45-9baf-7421815b8310","system_id":"levelo_inurba_marseille","lat":43.31083,"lon":5.42432,"is_reserved":false,"is_disabled":false,"rental_uris":{"android":"levelo://app?vid=fe6596e6-baa8-4e45-9baf-7421815b8310","ios":"levelo://app?vid=fe6596e6-baa8-4e45-9baf-7421815b8310"},"vehicle_type_id":"4","last_reported":1702116396,"current_range_meters":15600,"station_id":"ce4bhp92rcd13ifvqhag","pricing_plan_id":"free"},{"bike_id":"48e3df08-57dc-434d-a06c-f6f751cd351f","system_id":"levelo_inurba_marseille","lat":43.310785,"lon":5.424305,"is_reserved":false,"is_disabled":false,"rental_uris":{"android":"levelo://app?vid=48e3df08-57dc-434d-a06c-f6f751cd351f","ios":"levelo://app?vid=48e3df08-57dc-434d-a06c-f6f751cd351f"},"vehicle_type_id":"4","last_reported":1702116396,"current_range_meters":20400,"station_id":"ce4bhp92rcd13ifvqhag","pricing_plan_id":"free"},{"bike_id":"63133364-316e-458e-b234-bbd4926c63fc","system_id":"levelo_inurba_marseille","lat":43.27583,"lon":5.39474,"is_reserved":false,"is_disabled":false,"rental_uris":{"android":"levelo://app?vid=63133364-316e-458e-b234-bbd4926c63fc","ios":"levelo://app?vid=63133364-316e-458e-b234-bbd4926c63fc"},"vehicle_type_id":"4","last_reported":1702116396,"current_range_meters":8400,"station_id":"","pricing_plan_id":"free"},{"bike_id":"6e368dc2-c621-4d41-a98b-608bcdd93b18","system_id":"levelo_inurba_marseille","lat":43.30415,"lon":5.42543,"is_reserved":false,"is_disabled":false,"rental_uris":{"android":"levelo://app?vid=6e368dc2-c621-4d41-a98b-608bcdd93b18","ios":"levelo://app?vid=6e368dc2-c621-4d41-a98b-608bcdd93b18"},"vehicle_type_id":"4","last_reported":1702116396,"current_range_meters":30000,"station_id":"ce4bhoh2rcd13ifvqh6g","pricing_plan_id":"free"},{"bike_id":"fc6794cf-495d-453d-b822-fc2923d07b21","system_id":"levelo_inurba_marseille","lat":43.30413,"lon":5.42544,"is_reserved":false,"is_disabled":false,"rental_uris":{"android":"levelo://app?vid=fc6794cf-495d-453d-b822-fc2923d07b21","ios":"levelo://app?vid=fc6794cf-495d-453d-b822-fc2923d07b21"},"vehicle_type_id":"4","last_reported":1702116396,"current_range_meters":12000,"station_id":"ce4bhoh2rcd13ifvqh6g","pricing_plan_id":"free"},{"bike_id":"19d0bff2-9420-4cc7-a5d7-5c2a381f7d06","system_id":"levelo_inurba_marseille","lat":43.30414,"lon":5.42549,"is_reserved":false,"is_disabled":false,"rental_uris":{"android":"levelo://app?vid=19d0bff2-9420-4cc7-a5d7-5c2a381f7d06","ios":"levelo://app?vid=19d0bff2-9420-4cc7-a5d7-5c2a381f7d06"},"vehicle_type_id":"4","last_reported":1702116396,"current_range_meters":25200,"station_id":"ce4bhoh2rcd13ifvqh6g","pricing_plan_id":"free"},{"bike_id":"b0f86606-8154-47d8-bdba-2e76713781d4","system_id":"levelo_inurba_marseille","lat":43.30416,"lon":5.4255,"is_reserved":false,"is_disabled":false,"rental_uris":{"android":"levelo://app?vid=b0f86606-8154-47d8-bdba-2e76713781d4","ios":"levelo://app?vid=b0f86606-8154-47d8-bdba-2e76713781d4"},"vehicle_type_id":"4","last_reported":1702116396,"current_range_meters":4800,"station_id":"ce4bhoh2rcd13ifvqh6g","pricing_plan_id":"free"},{"bike_id":"d04013a3-534f-4ad9-a405-306181f29573","system_id":"levelo_inurba_marseille","lat":43.295511,"lon":5.422926,"is_reserved":false,"is_disabled":false,"rental_uris":{"android":"levelo://app?vid=d04013a3-534f-4ad9-a405-306181f29573","ios":"levelo://app?vid=d04013a3-534f-4ad9-a405-306181f29573"},"vehicle_type_id":"4","last_reported":1702116396,"current_range_meters":21200,"station_id":"ce4bhph2rcd13ifvqhdg","pricing_plan_id":"free"},{"bike_id":"4f9e48a0-eacd-4e63-bd3c-330b19e5c041","system_id":"levelo_inurba_marseille","lat":43.295511,"lon":5.422926,"is_reserved":false,"is_disabled":false,"rental_uris":{"android":"levelo://app?vid=4f9e48a0-eacd-4e63-bd3c-330b19e5c041","ios":"levelo://app?vid=4f9e48a0-eacd-4e63-bd3c-330b19e5c041"},"vehicle_type_id":"4","last_reported":1702116396,"current_range_meters":31600,"station_id":"ce4bhph2rcd13ifvqhdg","pricing_plan_id":"free"},{"bike_id":"8f021145-48f8-459b-aef0-f8921e18b0a0","system_id":"levelo_inurba_marseille","lat":43.27214,"lon":5.3925,"is_reserved":false,"is_disabled":false,"rental_uris":{"android":"levelo://app?vid=8f021145-48f8-459b-aef0-f8921e18b0a0","ios":"levelo://app?vid=8f021145-48f8-459b-aef0-f8921e18b0a0"},"vehicle_type_id":"4","last_reported":1702116396,"current_range_meters":2000,"station_id":"","pricing_plan_id":"free"},{"bike_id":"b059728c-a8df-46c8-a0f0-bd1fbc08873e","system_id":"levelo_inurba_marseille","lat":43.278128,"lon":5.407195,"is_reserved":false,"is_disabled":false,"rental_uris":{"android":"levelo://app?vid=b059728c-a8df-46c8-a0f0-bd1fbc08873e","ios":"levelo://app?vid=b059728c-a8df-46c8-a0f0-bd1fbc08873e"},"vehicle_type_id":"4","last_reported":1702116396,"current_range_meters":30000,"station_id":"ce4bhnh2rcd13ifvqgtg","pricing_plan_id":"free"},{"bike_id":"a5983fa1-f78a-4534-b00f-ce1a4f527b94","system_id":"levelo_inurba_marseille","lat":43.278128,"lon":5.407195,"is_reserved":false,"is_disabled":false,"rental_uris":{"android":"levelo://app?vid=a5983fa1-f78a-4534-b00f-ce1a4f527b94","ios":"levelo://app?vid=a5983fa1-f78a-4534-b00f-ce1a4f527b94"},"vehicle_type_id":"4","last_reported":1702116396,"current_range_meters":31200,"station_id":"ce4bhnh2rcd13ifvqgtg","pricing_plan_id":"free"},{"bike_id":"dfff6bb2-a5f6-4f7f-9aa3-a0f23d5a8a21","system_id":"levelo_inurba_marseille","lat":43.269537,"lon":5.386299,"is_reserved":false,"is_disabled":false,"rental_uris":{"android":"levelo://app?vid=dfff6bb2-a5f6-4f7f-9aa3-a0f23d5a8a21","ios":"levelo://app?vid=dfff6bb2-a5f6-4f7f-9aa3-a0f23d5a8a21"},"vehicle_type_id":"4","last_reported":1702116396,"current_range_meters":14000,"station_id":"","pricing_plan_id":"free"},{"bike_id":"cd337572-0ffd-4033-81f2-afa31815e4ce","system_id":"levelo_inurba_marseille","lat":43.26951,"lon":5.38628,"is_reserved":false,"is_disabled":false,"rental_uris":{"android":"levelo://app?vid=cd337572-0ffd-4033-81f2-afa31815e4ce","ios":"levelo://app?vid=cd337572-0ffd-4033-81f2-afa31815e4ce"},"vehicle_type_id":"4","last_reported":1702116396,"current_range_meters":25600,"station_id":"ce4bhh92rcd13ifvqfh0","pricing_plan_id":"free"},{"bike_id":"c9c48948-f3af-4bcd-ae70-ef2c37fe74b5","system_id":"levelo_inurba_marseille","lat":43.269319,"lon":5.389397,"is_reserved":false,"is_disabled":false,"rental_uris":{"android":"levelo://app?vid=c9c48948-f3af-4bcd-ae70-ef2c37fe74b5","ios":"levelo://app?vid=c9c48948-f3af-4bcd-ae70-ef2c37fe74b5"},"vehicle_type_id":"4","last_reported":1702116396,"current_range_meters":30000,"station_id":"ce4bhhh2rcd13ifvqfl0","pricing_plan_id":"free"},{"bike_id":"d0e524d2-9a51-4078-bd64-3c49605fffc0","system_id":"levelo_inurba_marseille","lat":43.269319,"lon":5.389397,"is_reserved":false,"is_disabled":false,"rental_uris":{"android":"levelo://app?vid=d0e524d2-9a51-4078-bd64-3c49605fffc0","ios":"levelo://app?vid=d0e524d2-9a51-4078-bd64-3c49605fffc0"},"vehicle_type_id":"4","last_reported":1702116396,"current_range_meters":25200,"station_id":"ce4bhhh2rcd13ifvqfl0","pricing_plan_id":"free"},{"bike_id":"b9107a3d-7bf5-44b0-a809-5196f11aa7fb","system_id":"levelo_inurba_marseille","lat":43.26681,"lon":5.382694,"is_reserved":false,"is_disabled":false,"rental_uris":{"android":"levelo://app?vid=b9107a3d-7bf5-44b0-a809-5196f11aa7fb","ios":"levelo://app?vid=b9107a3d-7bf5-44b0-a809-5196f11aa7fb"},"vehicle_type_id":"4","last_reported":1702116396,"current_range_meters":29200,"station_id":"ce4bhg92rcd13ifvqf90","pricing_plan_id":"free"},{"bike_id":"0479c42c-f8e6-448c-8881-02bd74fec942","system_id":"levelo_inurba_marseille","lat":43.279881,"lon":5.416579,"is_reserved":false,"is_disabled":false,"rental_uris":{"android":"levelo://app?vid=0479c42c-f8e6-448c-8881-02bd74fec942","ios":"levelo://app?vid=0479c42c-f8e6-448c-8881-02bd74fec942"},"vehicle_type_id":"4","last_reported":1702116396,"current_range_meters":3600,"station_id":"ce4bho12rcd13ifvqh1g","pricing_plan_id":"free"},{"bike_id":"6688b55d-5c52-4cb5-9f66-71f6f9339e66","system_id":"levelo_inurba_marseille","lat":43.267966,"lon":5.393976,"is_reserved":false,"is_disabled":false,"rental_uris":{"android":"levelo://app?vid=6688b55d-5c52-4cb5-9f66-71f6f9339e66","ios":"levelo://app?vid=6688b55d-5c52-4cb5-9f66-71f6f9339e66"},"vehicle_type_id":"4","last_reported":1702116396,"current_range_meters":14800,"station_id":"ce4bhh12rcd13ifvqfg0","pricing_plan_id":"free"},{"bike_id":"8140807f-4a5f-4495-b23b-fe3acd4a5647","system_id":"levelo_inurba_marseille","lat":43.267966,"lon":5.393976,"is_reserved":false,"is_disabled":false,"rental_uris":{"android":"levelo://app?vid=8140807f-4a5f-4495-b23b-fe3acd4a5647","ios":"levelo://app?vid=8140807f-4a5f-4495-b23b-fe3acd4a5647"},"vehicle_type_id":"4","last_reported":1702116396,"current_range_meters":26800,"station_id":"ce4bhh12rcd13ifvqfg0","pricing_plan_id":"free"},{"bike_id":"4d187a7d-ee7f-44b6-84f1-2006a0fec486","system_id":"levelo_inurba_marseille","lat":43.26574,"lon":5.39005,"is_reserved":false,"is_disabled":false,"rental_uris":{"android":"levelo://app?vid=4d187a7d-ee7f-44b6-84f1-2006a0fec486","ios":"levelo://app?vid=4d187a7d-ee7f-44b6-84f1-2006a0fec486"},"vehicle_type_id":"4","last_reported":1702116396,"current_range_meters":21600,"station_id":"ce4bhe12rcd13ifvqf30","pricing_plan_id":"free"},{"bike_id":"953e4af0-c270-490b-8a35-21adbad82a34","system_id":"levelo_inurba_marseille","lat":43.308051,"lon":5.43527,"is_reserved":false,"is_disabled":false,"rental_uris":{"android":"levelo://app?vid=953e4af0-c270-490b-8a35-21adbad82a34","ios":"levelo://app?vid=953e4af0-c270-490b-8a35-21adbad82a34"},"vehicle_type_id":"4","last_reported":1702116396,"current_range_meters":22400,"station_id":"ce4bhph2rcd13ifvqheg","pricing_plan_id":"free"},{"bike_id":"08464ac4-6d67-40c4-91ad-6d492d79ebff","system_id":"levelo_inurba_marseille","lat":43.265687,"lon":5.390063,"is_reserved":false,"is_disabled":false,"rental_uris":{"android":"levelo://app?vid=08464ac4-6d67-40c4-91ad-6d492d79ebff","ios":"levelo://app?vid=08464ac4-6d67-40c4-91ad-6d492d79ebff"},"vehicle_type_id":"4","last_reported":1702116396,"current_range_meters":23600,"station_id":"ce4bhe12rcd13ifvqf30","pricing_plan_id":"free"},{"bike_id":"70f4e826-edcd-43a6-a845-887860dfaf56","system_id":"levelo_inurba_marseille","lat":43.265569,"lon":5.390047,"is_reserved":false,"is_disabled":false,"rental_uris":{"android":"levelo://app?vid=70f4e826-edcd-43a6-a845-887860dfaf56","ios":"levelo://app?vid=70f4e826-edcd-43a6-a845-887860dfaf56"},"vehicle_type_id":"4","last_reported":1702116396,"current_range_meters":25200,"station_id":"ce4bhe12rcd13ifvqf30","pricing_plan_id":"free"},{"bike_id":"e132b7fa-bdd6-4418-b1a5-031ca34f3a66","system_id":"levelo_inurba_marseille","lat":43.265569,"lon":5.390047,"is_reserved":false,"is_disabled":false,"rental_uris":{"android":"levelo://app?vid=e132b7fa-bdd6-4418-b1a5-031ca34f3a66","ios":"levelo://app?vid=e132b7fa-bdd6-4418-b1a5-031ca34f3a66"},"vehicle_type_id":"4","last_reported":1702116396,"current_range_meters":27200,"station_id":"ce4bhe12rcd13ifvqf30","pricing_plan_id":"free"},{"bike_id":"2d0dff6e-116f-437d-a5b5-a8cb42c057ac","system_id":"levelo_inurba_marseille","lat":43.26949,"lon":5.40262,"is_reserved":false,"is_disabled":false,"rental_uris":{"android":"levelo://app?vid=2d0dff6e-116f-437d-a5b5-a8cb42c057ac","ios":"levelo://app?vid=2d0dff6e-116f-437d-a5b5-a8cb42c057ac"},"vehicle_type_id":"4","last_reported":1702116396,"current_range_meters":6800,"station_id":"cjm6bp8fraef2m0cb0m0","pricing_plan_id":"free"},{"bike_id":"10bd98e0-d0a2-4a25-a407-cc97034aa68c","system_id":"levelo_inurba_marseille","lat":43.31713,"lon":5.43702,"is_reserved":false,"is_disabled":false,"rental_uris":{"android":"levelo://app?vid=10bd98e0-d0a2-4a25-a407-cc97034aa68c","ios":"levelo://app?vid=10bd98e0-d0a2-4a25-a407-cc97034aa68c"},"vehicle_type_id":"4","last_reported":1702116396,"current_range_meters":7600,"station_id":"ce4bhp92rcd13ifvqhcg","pricing_plan_id":"free"},{"bike_id":"5c153179-ced7-4c5d-b2b9-d932b3798e95","system_id":"levelo_inurba_marseille","lat":43.317104,"lon":5.436818,"is_reserved":false,"is_disabled":false,"rental_uris":{"android":"levelo://app?vid=5c153179-ced7-4c5d-b2b9-d932b3798e95","ios":"levelo://app?vid=5c153179-ced7-4c5d-b2b9-d932b3798e95"},"vehicle_type_id":"4","last_reported":1702116396,"current_range_meters":24800,"station_id":"ce4bhp92rcd13ifvqhcg","pricing_plan_id":"free"},{"bike_id":"3d23a16f-1a90-44c4-853f-5090bb34499b","system_id":"levelo_inurba_marseille","lat":43.262012,"lon":5.379307,"is_reserved":false,"is_disabled":false,"rental_uris":{"android":"levelo://app?vid=3d23a16f-1a90-44c4-853f-5090bb34499b","ios":"levelo://app?vid=3d23a16f-1a90-44c4-853f-5090bb34499b"},"vehicle_type_id":"4","last_reported":1702116396,"current_range_meters":14800,"station_id":"ce4bhjp2rcd13ifvqg90","pricing_plan_id":"free"},{"bike_id":"02862649-a2be-4de6-bab9-c744bb6c79b5","system_id":"levelo_inurba_marseille","lat":43.262012,"lon":5.379307,"is_reserved":false,"is_disabled":false,"rental_uris":{"android":"levelo://app?vid=02862649-a2be-4de6-bab9-c744bb6c79b5","ios":"levelo://app?vid=02862649-a2be-4de6-bab9-c744bb6c79b5"},"vehicle_type_id":"4","last_reported":1702116396,"current_range_meters":27200,"station_id":"ce4bhjp2rcd13ifvqg90","pricing_plan_id":"free"},{"bike_id":"ff92a259-9dcd-4085-8e07-fc3504cf3aa0","system_id":"levelo_inurba_marseille","lat":43.26202,"lon":5.379299,"is_reserved":false,"is_disabled":false,"rental_uris":{"android":"levelo://app?vid=ff92a259-9dcd-4085-8e07-fc3504cf3aa0","ios":"levelo://app?vid=ff92a259-9dcd-4085-8e07-fc3504cf3aa0"},"vehicle_type_id":"4","last_reported":1702116396,"current_range_meters":26400,"station_id":"ce4bhjp2rcd13ifvqg90","pricing_plan_id":"free"},{"bike_id":"089a56e4-f254-4271-978a-cf9b913cc864","system_id":"levelo_inurba_marseille","lat":43.271388,"lon":5.409269,"is_reserved":false,"is_disabled":false,"rental_uris":{"android":"levelo://app?vid=089a56e4-f254-4271-978a-cf9b913cc864","ios":"levelo://app?vid=089a56e4-f254-4271-978a-cf9b913cc864"},"vehicle_type_id":"4","last_reported":1702116396,"current_range_meters":26400,"station_id":"ce4bhl12rcd13ifvqgf0","pricing_plan_id":"free"},{"bike_id":"3b2d4f90-1617-43d7-8846-712b04edc48a","system_id":"levelo_inurba_marseille","lat":43.271368,"lon":5.40928,"is_reserved":false,"is_disabled":false,"rental_uris":{"android":"levelo://app?vid=3b2d4f90-1617-43d7-8846-712b04edc48a","ios":"levelo://app?vid=3b2d4f90-1617-43d7-8846-712b04edc48a"},"vehicle_type_id":"4","last_reported":1702116396,"current_range_meters":24000,"station_id":"ce4bhl12rcd13ifvqgf0","pricing_plan_id":"free"},{"bike_id":"c16ba598-e268-423a-ba8d-6002d2a98117","system_id":"levelo_inurba_marseille","lat":43.298768,"lon":5.43643,"is_reserved":false,"is_disabled":false,"rental_uris":{"android":"levelo://app?vid=c16ba598-e268-423a-ba8d-6002d2a98117","ios":"levelo://app?vid=c16ba598-e268-423a-ba8d-6002d2a98117"},"vehicle_type_id":"4","last_reported":1702116396,"current_range_meters":31600,"station_id":"ce4bhpp2rcd13ifvqhfg","pricing_plan_id":"free"},{"bike_id":"5215ad78-0811-4492-88ee-04afc35bf3a5","system_id":"levelo_inurba_marseille","lat":43.298768,"lon":5.43643,"is_reserved":false,"is_disabled":false,"rental_uris":{"android":"levelo://app?vid=5215ad78-0811-4492-88ee-04afc35bf3a5","ios":"levelo://app?vid=5215ad78-0811-4492-88ee-04afc35bf3a5"},"vehicle_type_id":"4","last_reported":1702116396,"current_range_meters":31600,"station_id":"ce4bhpp2rcd13ifvqhfg","pricing_plan_id":"free"},{"bike_id":"9f325604-7097-43d9-8e58-831174294b2f","system_id":"levelo_inurba_marseille","lat":43.298768,"lon":5.43643,"is_reserved":false,"is_disabled":false,"rental_uris":{"android":"levelo://app?vid=9f325604-7097-43d9-8e58-831174294b2f","ios":"levelo://app?vid=9f325604-7097-43d9-8e58-831174294b2f"},"vehicle_type_id":"4","last_reported":1702116396,"current_range_meters":30400,"station_id":"ce4bhpp2rcd13ifvqhfg","pricing_plan_id":"free"},{"bike_id":"2cd90db9-b508-45af-afd0-5b4b8fae22ee","system_id":"levelo_inurba_marseille","lat":43.298768,"lon":5.43643,"is_reserved":false,"is_disabled":false,"rental_uris":{"android":"levelo://app?vid=2cd90db9-b508-45af-afd0-5b4b8fae22ee","ios":"levelo://app?vid=2cd90db9-b508-45af-afd0-5b4b8fae22ee"},"vehicle_type_id":"4","last_reported":1702116396,"current_range_meters":28400,"station_id":"ce4bhpp2rcd13ifvqhfg","pricing_plan_id":"free"},{"bike_id":"70c52fa1-91be-4fbd-9217-7a0c668f9310","system_id":"levelo_inurba_marseille","lat":43.298984,"lon":5.436636,"is_reserved":false,"is_disabled":false,"rental_uris":{"android":"levelo://app?vid=70c52fa1-91be-4fbd-9217-7a0c668f9310","ios":"levelo://app?vid=70c52fa1-91be-4fbd-9217-7a0c668f9310"},"vehicle_type_id":"4","last_reported":1702116396,"current_range_meters":26000,"station_id":"ce4bhpp2rcd13ifvqhfg","pricing_plan_id":"free"},{"bike_id":"ca4db8a8-5b98-4b78-bc3d-514f38028a3d","system_id":"levelo_inurba_marseille","lat":43.298768,"lon":5.43643,"is_reserved":false,"is_disabled":false,"rental_uris":{"android":"levelo://app?vid=ca4db8a8-5b98-4b78-bc3d-514f38028a3d","ios":"levelo://app?vid=ca4db8a8-5b98-4b78-bc3d-514f38028a3d"},"vehicle_type_id":"4","last_reported":1702116396,"current_range_meters":31600,"station_id":"ce4bhpp2rcd13ifvqhfg","pricing_plan_id":"free"},{"bike_id":"4f68f183-a711-4386-a731-e8ea8e2f115e","system_id":"levelo_inurba_marseille","lat":43.298768,"lon":5.43643,"is_reserved":false,"is_disabled":false,"rental_uris":{"android":"levelo://app?vid=4f68f183-a711-4386-a731-e8ea8e2f115e","ios":"levelo://app?vid=4f68f183-a711-4386-a731-e8ea8e2f115e"},"vehicle_type_id":"4","last_reported":1702116396,"current_range_meters":26000,"station_id":"ce4bhpp2rcd13ifvqhfg","pricing_plan_id":"free"},{"bike_id":"ea11885c-ac6a-48b0-927e-bbe2fdcc290f","system_id":"levelo_inurba_marseille","lat":43.298768,"lon":5.43643,"is_reserved":false,"is_disabled":false,"rental_uris":{"android":"levelo://app?vid=ea11885c-ac6a-48b0-927e-bbe2fdcc290f","ios":"levelo://app?vid=ea11885c-ac6a-48b0-927e-bbe2fdcc290f"},"vehicle_type_id":"4","last_reported":1702116396,"current_range_meters":24000,"station_id":"ce4bhpp2rcd13ifvqhfg","pricing_plan_id":"free"},{"bike_id":"83e2018e-7127-4415-8bbf-2e347a9c6750","system_id":"levelo_inurba_marseille","lat":43.29896,"lon":5.43673,"is_reserved":false,"is_disabled":false,"rental_uris":{"android":"levelo://app?vid=83e2018e-7127-4415-8bbf-2e347a9c6750","ios":"levelo://app?vid=83e2018e-7127-4415-8bbf-2e347a9c6750"},"vehicle_type_id":"4","last_reported":1702116396,"current_range_meters":0,"station_id":"ce4bhpp2rcd13ifvqhfg","pricing_plan_id":"free"},{"bike_id":"6b17b896-99f2-456b-929e-df3811eeb274","system_id":"levelo_inurba_marseille","lat":43.298768,"lon":5.43643,"is_reserved":false,"is_disabled":false,"rental_uris":{"android":"levelo://app?vid=6b17b896-99f2-456b-929e-df3811eeb274","ios":"levelo://app?vid=6b17b896-99f2-456b-929e-df3811eeb274"},"vehicle_type_id":"4","last_reported":1702116396,"current_range_meters":28800,"station_id":"ce4bhpp2rcd13ifvqhfg","pricing_plan_id":"free"},{"bike_id":"2d70b9fc-8d42-4ce5-98c1-cdfca249cc2c","system_id":"levelo_inurba_marseille","lat":43.2815,"lon":5.4264,"is_reserved":false,"is_disabled":false,"rental_uris":{"android":"levelo://app?vid=2d70b9fc-8d42-4ce5-98c1-cdfca249cc2c","ios":"levelo://app?vid=2d70b9fc-8d42-4ce5-98c1-cdfca249cc2c"},"vehicle_type_id":"4","last_reported":1702116396,"current_range_meters":28400,"station_id":"ce4bhnh2rcd13ifvqgug","pricing_plan_id":"free"},{"bike_id":"f56607a5-8c0d-4214-a86e-b954d1fd309d","system_id":"levelo_inurba_marseille","lat":43.2815,"lon":5.42644,"is_reserved":false,"is_disabled":false,"rental_uris":{"android":"levelo://app?vid=f56607a5-8c0d-4214-a86e-b954d1fd309d","ios":"levelo://app?vid=f56607a5-8c0d-4214-a86e-b954d1fd309d"},"vehicle_type_id":"4","last_reported":1702116396,"current_range_meters":0,"station_id":"ce4bhnh2rcd13ifvqgug","pricing_plan_id":"free"},{"bike_id":"5c6c0a20-db46-4949-8b8f-87d395f35c91","system_id":"levelo_inurba_marseille","lat":43.275028,"lon":5.424534,"is_reserved":false,"is_disabled":false,"rental_uris":{"android":"levelo://app?vid=5c6c0a20-db46-4949-8b8f-87d395f35c91","ios":"levelo://app?vid=5c6c0a20-db46-4949-8b8f-87d395f35c91"},"vehicle_type_id":"4","last_reported":1702116396,"current_range_meters":31200,"station_id":"ce4bhn92rcd13ifvqgrg","pricing_plan_id":"free"},{"bike_id":"2db9b15e-6e41-454a-aff4-607aeaf73f42","system_id":"levelo_inurba_marseille","lat":43.270721,"lon":5.422764,"is_reserved":false,"is_disabled":false,"rental_uris":{"android":"levelo://app?vid=2db9b15e-6e41-454a-aff4-607aeaf73f42","ios":"levelo://app?vid=2db9b15e-6e41-454a-aff4-607aeaf73f42"},"vehicle_type_id":"4","last_reported":1702116396,"current_range_meters":14800,"station_id":"ce4bhk92rcd13ifvqgb0","pricing_plan_id":"free"},{"bike_id":"6ed089ef-9932-4c16-91e9-dafe344c662d","system_id":"levelo_inurba_marseille","lat":43.270721,"lon":5.422764,"is_reserved":false,"is_disabled":false,"rental_uris":{"android":"levelo://app?vid=6ed089ef-9932-4c16-91e9-dafe344c662d","ios":"levelo://app?vid=6ed089ef-9932-4c16-91e9-dafe344c662d"},"vehicle_type_id":"4","last_reported":1702116396,"current_range_meters":25600,"station_id":"ce4bhk92rcd13ifvqgb0","pricing_plan_id":"free"},{"bike_id":"b892416b-65d0-482e-a86c-e596080a2ad5","system_id":"levelo_inurba_marseille","lat":43.27069,"lon":5.42282,"is_reserved":false,"is_disabled":false,"rental_uris":{"android":"levelo://app?vid=b892416b-65d0-482e-a86c-e596080a2ad5","ios":"levelo://app?vid=b892416b-65d0-482e-a86c-e596080a2ad5"},"vehicle_type_id":"4","last_reported":1702116396,"current_range_meters":22800,"station_id":"ce4bhk92rcd13ifvqgb0","pricing_plan_id":"free"},{"bike_id":"3a377878-b713-4aaf-aad2-3a453208969a","system_id":"levelo_inurba_marseille","lat":43.25924,"lon":5.40914,"is_reserved":false,"is_disabled":false,"rental_uris":{"android":"levelo://app?vid=3a377878-b713-4aaf-aad2-3a453208969a","ios":"levelo://app?vid=3a377878-b713-4aaf-aad2-3a453208969a"},"vehicle_type_id":"4","last_reported":1702116396,"current_range_meters":17600,"station_id":"ce4bhm92rcd13ifvqglg","pricing_plan_id":"free"},{"bike_id":"0dc6bb76-c9e2-41b8-8b88-1df44a692ab1","system_id":"levelo_inurba_marseille","lat":43.25727,"lon":5.41108,"is_reserved":false,"is_disabled":false,"rental_uris":{"android":"levelo://app?vid=0dc6bb76-c9e2-41b8-8b88-1df44a692ab1","ios":"levelo://app?vid=0dc6bb76-c9e2-41b8-8b88-1df44a692ab1"},"vehicle_type_id":"4","last_reported":1702116396,"current_range_meters":13200,"station_id":"ce4bhkp2rcd13ifvqgd0","pricing_plan_id":"free"},{"bike_id":"9c0ddfb3-23a0-4f2d-87b9-6806835818c0","system_id":"levelo_inurba_marseille","lat":43.257079,"lon":5.411051,"is_reserved":false,"is_disabled":false,"rental_uris":{"android":"levelo://app?vid=9c0ddfb3-23a0-4f2d-87b9-6806835818c0","ios":"levelo://app?vid=9c0ddfb3-23a0-4f2d-87b9-6806835818c0"},"vehicle_type_id":"4","last_reported":1702116396,"current_range_meters":26800,"station_id":"ce4bhkp2rcd13ifvqgd0","pricing_plan_id":"free"},{"bike_id":"a284a7b9-963d-4f35-8ee8-4c7c3dc16ca9","system_id":"levelo_inurba_marseille","lat":43.2479,"lon":5.374457,"is_reserved":false,"is_disabled":false,"rental_uris":{"android":"levelo://app?vid=a284a7b9-963d-4f35-8ee8-4c7c3dc16ca9","ios":"levelo://app?vid=a284a7b9-963d-4f35-8ee8-4c7c3dc16ca9"},"vehicle_type_id":"4","last_reported":1702116396,"current_range_meters":20400,"station_id":"ce4bhgh2rcd13ifvqfb0","pricing_plan_id":"free"},{"bike_id":"b656df32-9327-4f91-9532-1363a7eb9201","system_id":"levelo_inurba_marseille","lat":43.25102,"lon":5.403214,"is_reserved":false,"is_disabled":false,"rental_uris":{"android":"levelo://app?vid=b656df32-9327-4f91-9532-1363a7eb9201","ios":"levelo://app?vid=b656df32-9327-4f91-9532-1363a7eb9201"},"vehicle_type_id":"4","last_reported":1702116396,"current_range_meters":1600,"station_id":"ce4bhlh2rcd13ifvqgig","pricing_plan_id":"free"},{"bike_id":"47f677c3-253c-4311-a209-5fdb32821dac","system_id":"levelo_inurba_marseille","lat":43.25102,"lon":5.403214,"is_reserved":false,"is_disabled":false,"rental_uris":{"android":"levelo://app?vid=47f677c3-253c-4311-a209-5fdb32821dac","ios":"levelo://app?vid=47f677c3-253c-4311-a209-5fdb32821dac"},"vehicle_type_id":"4","last_reported":1702116396,"current_range_meters":11200,"station_id":"ce4bhlh2rcd13ifvqgig","pricing_plan_id":"free"},{"bike_id":"d8ec6ef7-52db-4dde-9927-1128a313208a","system_id":"levelo_inurba_marseille","lat":43.246461,"lon":5.389014,"is_reserved":false,"is_disabled":false,"rental_uris":{"android":"levelo://app?vid=d8ec6ef7-52db-4dde-9927-1128a313208a","ios":"levelo://app?vid=d8ec6ef7-52db-4dde-9927-1128a313208a"},"vehicle_type_id":"4","last_reported":1702116396,"current_range_meters":24000,"station_id":"ce4bhg12rcd13ifvqf60","pricing_plan_id":"free"},{"bike_id":"1f5043f5-ab70-4b00-b188-f5de4509875c","system_id":"levelo_inurba_marseille","lat":43.24549,"lon":5.39529,"is_reserved":false,"is_disabled":false,"rental_uris":{"android":"levelo://app?vid=1f5043f5-ab70-4b00-b188-f5de4509875c","ios":"levelo://app?vid=1f5043f5-ab70-4b00-b188-f5de4509875c"},"vehicle_type_id":"4","last_reported":1702116396,"current_range_meters":12400,"station_id":"ce4bhlp2rcd13ifvqgjg","pricing_plan_id":"free"},{"bike_id":"90b46009-8f90-4cc7-8ea1-08f62555240b","system_id":"levelo_inurba_marseille","lat":43.245581,"lon":5.395069,"is_reserved":false,"is_disabled":false,"rental_uris":{"android":"levelo://app?vid=90b46009-8f90-4cc7-8ea1-08f62555240b","ios":"levelo://app?vid=90b46009-8f90-4cc7-8ea1-08f62555240b"},"vehicle_type_id":"4","last_reported":1702116396,"current_range_meters":21600,"station_id":"ce4bhlp2rcd13ifvqgjg","pricing_plan_id":"free"},{"bike_id":"b3705516-da65-4902-b345-4cc53e261fdf","system_id":"levelo_inurba_marseille","lat":43.231793,"lon":5.400044,"is_reserved":false,"is_disabled":false,"rental_uris":{"android":"levelo://app?vid=b3705516-da65-4902-b345-4cc53e261fdf","ios":"levelo://app?vid=b3705516-da65-4902-b345-4cc53e261fdf"},"vehicle_type_id":"4","last_reported":1702116396,"current_range_meters":18800,"station_id":"ce4bhn12rcd13ifvqgqg","pricing_plan_id":"free"},{"bike_id":"868bb225-bffe-4b2e-9a8b-56b2a9d28e58","system_id":"levelo_inurba_marseille","lat":43.24075,"lon":5.3776,"is_reserved":false,"is_disabled":false,"rental_uris":{"android":"levelo://app?vid=868bb225-bffe-4b2e-9a8b-56b2a9d28e58","ios":"levelo://app?vid=868bb225-bffe-4b2e-9a8b-56b2a9d28e58"},"vehicle_type_id":"4","last_reported":1702116396,"current_range_meters":18400,"station_id":"ce4bhnp2rcd13ifvqgvg","pricing_plan_id":"free"},{"bike_id":"1987ffb3-1930-48b6-aaa2-5055c54bbd00","system_id":"levelo_inurba_marseille","lat":43.240623,"lon":5.377642,"is_reserved":false,"is_disabled":false,"rental_uris":{"android":"levelo://app?vid=1987ffb3-1930-48b6-aaa2-5055c54bbd00","ios":"levelo://app?vid=1987ffb3-1930-48b6-aaa2-5055c54bbd00"},"vehicle_type_id":"4","last_reported":1702116396,"current_range_meters":14800,"station_id":"ce4bhnp2rcd13ifvqgvg","pricing_plan_id":"free"},{"bike_id":"9bc41371-7a8c-4363-8d66-f8a86c5c31f1","system_id":"levelo_inurba_marseille","lat":43.240623,"lon":5.377642,"is_reserved":false,"is_disabled":false,"rental_uris":{"android":"levelo://app?vid=9bc41371-7a8c-4363-8d66-f8a86c5c31f1","ios":"levelo://app?vid=9bc41371-7a8c-4363-8d66-f8a86c5c31f1"},"vehicle_type_id":"4","last_reported":1702116396,"current_range_meters":29600,"station_id":"ce4bhnp2rcd13ifvqgvg","pricing_plan_id":"free"},{"bike_id":"0d94aa4f-7ab5-452d-a06d-a8e7b953d180","system_id":"levelo_inurba_marseille","lat":43.240623,"lon":5.377642,"is_reserved":false,"is_disabled":false,"rental_uris":{"android":"levelo://app?vid=0d94aa4f-7ab5-452d-a06d-a8e7b953d180","ios":"levelo://app?vid=0d94aa4f-7ab5-452d-a06d-a8e7b953d180"},"vehicle_type_id":"4","last_reported":1702116396,"current_range_meters":19600,"station_id":"ce4bhnp2rcd13ifvqgvg","pricing_plan_id":"free"},{"bike_id":"7033f328-e327-4359-8e21-ce58f98240fa","system_id":"levelo_inurba_marseille","lat":43.24064,"lon":5.37753,"is_reserved":false,"is_disabled":false,"rental_uris":{"android":"levelo://app?vid=7033f328-e327-4359-8e21-ce58f98240fa","ios":"levelo://app?vid=7033f328-e327-4359-8e21-ce58f98240fa"},"vehicle_type_id":"4","last_reported":1702116396,"current_range_meters":26000,"station_id":"ce4bhnp2rcd13ifvqgvg","pricing_plan_id":"free"},{"bike_id":"07f04f98-06c9-4309-b3fe-4415621f48f3","system_id":"levelo_inurba_marseille","lat":43.23971,"lon":5.36632,"is_reserved":false,"is_disabled":false,"rental_uris":{"android":"levelo://app?vid=07f04f98-06c9-4309-b3fe-4415621f48f3","ios":"levelo://app?vid=07f04f98-06c9-4309-b3fe-4415621f48f3"},"vehicle_type_id":"4","last_reported":1702116396,"current_range_meters":24000,"station_id":"ce4bhi12rcd13ifvqfp0","pricing_plan_id":"free"},{"bike_id":"f3af0f29-c6b3-45f1-8540-3a752563e91b","system_id":"levelo_inurba_marseille","lat":43.23968,"lon":5.36628,"is_reserved":false,"is_disabled":false,"rental_uris":{"android":"levelo://app?vid=f3af0f29-c6b3-45f1-8540-3a752563e91b","ios":"levelo://app?vid=f3af0f29-c6b3-45f1-8540-3a752563e91b"},"vehicle_type_id":"4","last_reported":1702116396,"current_range_meters":10800,"station_id":"ce4bhi12rcd13ifvqfp0","pricing_plan_id":"free"},{"bike_id":"ee7d9f3a-4947-4ac7-867e-bdca862e5b32","system_id":"levelo_inurba_marseille","lat":43.239588,"lon":5.366238,"is_reserved":false,"is_disabled":false,"rental_uris":{"android":"levelo://app?vid=ee7d9f3a-4947-4ac7-867e-bdca862e5b32","ios":"levelo://app?vid=ee7d9f3a-4947-4ac7-867e-bdca862e5b32"},"vehicle_type_id":"4","last_reported":1702116396,"current_range_meters":9200,"station_id":"ce4bhi12rcd13ifvqfp0","pricing_plan_id":"free"},{"bike_id":"a6a4b85e-4149-43b9-9e51-1a32a90de556","system_id":"levelo_inurba_marseille","lat":43.239588,"lon":5.366238,"is_reserved":false,"is_disabled":false,"rental_uris":{"android":"levelo://app?vid=a6a4b85e-4149-43b9-9e51-1a32a90de556","ios":"levelo://app?vid=a6a4b85e-4149-43b9-9e51-1a32a90de556"},"vehicle_type_id":"4","last_reported":1702116396,"current_range_meters":31200,"station_id":"ce4bhi12rcd13ifvqfp0","pricing_plan_id":"free"},{"bike_id":"8df37565-07df-4422-a214-552c70866e84","system_id":"levelo_inurba_marseille","lat":43.23958,"lon":5.36633,"is_reserved":false,"is_disabled":false,"rental_uris":{"android":"levelo://app?vid=8df37565-07df-4422-a214-552c70866e84","ios":"levelo://app?vid=8df37565-07df-4422-a214-552c70866e84"},"vehicle_type_id":"4","last_reported":1702116396,"current_range_meters":23200,"station_id":"ce4bhi12rcd13ifvqfp0","pricing_plan_id":"free"},{"bike_id":"93954539-37ab-42cb-8148-c6cd6174d0ce","system_id":"levelo_inurba_marseille","lat":43.23957,"lon":5.3663,"is_reserved":false,"is_disabled":false,"rental_uris":{"android":"levelo://app?vid=93954539-37ab-42cb-8148-c6cd6174d0ce","ios":"levelo://app?vid=93954539-37ab-42cb-8148-c6cd6174d0ce"},"vehicle_type_id":"4","last_reported":1702116396,"current_range_meters":30000,"station_id":"ce4bhi12rcd13ifvqfp0","pricing_plan_id":"free"},{"bike_id":"19de1d90-0ef7-4697-bd3a-3e98bd2bf2e7","system_id":"levelo_inurba_marseille","lat":43.239588,"lon":5.366238,"is_reserved":false,"is_disabled":false,"rental_uris":{"android":"levelo://app?vid=19de1d90-0ef7-4697-bd3a-3e98bd2bf2e7","ios":"levelo://app?vid=19de1d90-0ef7-4697-bd3a-3e98bd2bf2e7"},"vehicle_type_id":"4","last_reported":1702116396,"current_range_meters":31200,"station_id":"ce4bhi12rcd13ifvqfp0","pricing_plan_id":"free"},{"bike_id":"e0de2a76-a094-4308-bd23-96855fb04b36","system_id":"levelo_inurba_marseille","lat":43.241782,"lon":5.397261,"is_reserved":false,"is_disabled":false,"rental_uris":{"android":"levelo://app?vid=e0de2a76-a094-4308-bd23-96855fb04b36","ios":"levelo://app?vid=e0de2a76-a094-4308-bd23-96855fb04b36"},"vehicle_type_id":"4","last_reported":1702116396,"current_range_meters":20400,"station_id":"ce4bhn12rcd13ifvqgpg","pricing_plan_id":"free"},{"bike_id":"99162b1b-1461-4ae7-a834-def1d4bac4d4","system_id":"levelo_inurba_marseille","lat":43.241782,"lon":5.397261,"is_reserved":false,"is_disabled":false,"rental_uris":{"android":"levelo://app?vid=99162b1b-1461-4ae7-a834-def1d4bac4d4","ios":"levelo://app?vid=99162b1b-1461-4ae7-a834-def1d4bac4d4"},"vehicle_type_id":"4","last_reported":1702116396,"current_range_meters":21200,"station_id":"ce4bhn12rcd13ifvqgpg","pricing_plan_id":"free"},{"bike_id":"3f32a967-cbd7-4db4-89f8-7aff6995a3ab","system_id":"levelo_inurba_marseille","lat":43.241782,"lon":5.397261,"is_reserved":false,"is_disabled":false,"rental_uris":{"android":"levelo://app?vid=3f32a967-cbd7-4db4-89f8-7aff6995a3ab","ios":"levelo://app?vid=3f32a967-cbd7-4db4-89f8-7aff6995a3ab"},"vehicle_type_id":"4","last_reported":1702116396,"current_range_meters":25600,"station_id":"ce4bhn12rcd13ifvqgpg","pricing_plan_id":"free"},{"bike_id":"be845917-f52e-4a9f-83ff-909546a09332","system_id":"levelo_inurba_marseille","lat":43.231794,"lon":5.400052,"is_reserved":false,"is_disabled":false,"rental_uris":{"android":"levelo://app?vid=be845917-f52e-4a9f-83ff-909546a09332","ios":"levelo://app?vid=be845917-f52e-4a9f-83ff-909546a09332"},"vehicle_type_id":"4","last_reported":1702116396,"current_range_meters":31200,"station_id":"ce4bhn12rcd13ifvqgqg","pricing_plan_id":"free"},{"bike_id":"6c4620c0-0d4d-493f-9950-4fd3c4457696","system_id":"levelo_inurba_marseille","lat":43.231794,"lon":5.400052,"is_reserved":false,"is_disabled":false,"rental_uris":{"android":"levelo://app?vid=6c4620c0-0d4d-493f-9950-4fd3c4457696","ios":"levelo://app?vid=6c4620c0-0d4d-493f-9950-4fd3c4457696"},"vehicle_type_id":"4","last_reported":1702116396,"current_range_meters":31200,"station_id":"ce4bhn12rcd13ifvqgqg","pricing_plan_id":"free"},{"bike_id":"3a5f58e6-7397-4973-b1f2-c571ec2a0087","system_id":"levelo_inurba_marseille","lat":43.231793,"lon":5.400044,"is_reserved":false,"is_disabled":false,"rental_uris":{"android":"levelo://app?vid=3a5f58e6-7397-4973-b1f2-c571ec2a0087","ios":"levelo://app?vid=3a5f58e6-7397-4973-b1f2-c571ec2a0087"},"vehicle_type_id":"4","last_reported":1702116396,"current_range_meters":31200,"station_id":"ce4bhn12rcd13ifvqgqg","pricing_plan_id":"free"}]}}