{"last_updated":1758705079,"ttl":60,"version":"2.2","data":{"bikes":[{"bike_id":"0cebc3c9-924e-4ee5-96f0-4b04fd9fd7d4","system_id":"levelo_inurba_marseille","lat":43.27204,"lon":5.39177,"is_reserved":false,"is_disabled":false,"rental_uris":{"android":"levelo://app?vid=0cebc3c9-924e-4ee5-96f0-4b04fd9fd7d4","ios":"levelo://app?vid=0cebc3c9-924e-4ee5-96f0-4b04fd9fd7d4"},"vehicle_type_id":"4","last_reported":1758705080,"current_range_meters":2000,"station_id":"ce4bhhp2rcd13ifvqfm0","pricing_plan_id":"cebpf4jnsgd1na2vs0mg"},{"bike_id":"2c6d038e-9f76-4305-9cda-1c986363f549","system_id":"levelo_inurba_marseille","lat":43.27206,"lon":5.39179,"is_reserved":false,"is_disabled":false,"rental_uris":{"android":"levelo://app?vid=2c6d038e-9f76-4305-9cda-1c986363f549","ios":"levelo://app?vid=2c6d038e-9f76-4305-9cda-1c986363f549"},"vehicle_type_id":"4","last_reported":1758705080,"current_range_meters":2800,"station_id":"ce4bhhp2rcd13ifvqfm0","pricing_plan_id":"cebpf4jnsgd1na2vs0mg"},{"bike_id":"886f4530-4d44-4b26-bac7-485c876b7d5d","system_id":"levelo_inurba_marseille","lat":43.29966,"lon":5.384852,"is_reserved":false,"is_disabled":false,"rental_uris":{"android":"levelo://app?vid=886f4530-4d44-4b26-bac7-485c876b7d5d","ios":"levelo://app?vid=886f4530-4d44-4b26-bac7-485c876b7d5d"},"vehicle_type_id":"4","last_reported":1758705080,"current_range_meters":3200,"station_id":"","pricing_plan_id":"cebpf4jnsgd1na2vs0mg"},{"bike_id":"899f256f-e713-4bbf-9be7-202f61522765","system_id":"levelo_inurba_marseille","lat":43.26945,"lon":5.38628,"is_reserved":false,"is_disabled":false,"rental_uris":{"android":"levelo://app?vid=899f256f-e713-4bbf-9be7-202f61522765","ios":"levelo://app?vid=899f256f-e713-4bbf-9be7-202f61522765"},"vehicle_type_id":"4","last_reported":1758705080,"current_range_meters":3600,"station_id":"ce4bhh92rcd13ifvqfh0","pricing_plan_id":"cebpf4jnsgd1na2vs0mg"},{"bike_id":"7a49baae-1192-4d9e-9454-3b7dc1b5cd97","system_id":"levelo_inurba_marseille","lat":43.301547,"lon":5.373767,"is_reserved":false,"is_disabled":false,"rental_uris":{"android":"levelo://app?vid=7a49baae-1192-4d9e-9454-3b7dc1b5cd97","ios":"levelo://app?vid=7a49baae-1192-4d9e-9454-3b7dc1b5cd97"},"vehicle_type_id":"4","last_reported":1758705080,"current_range_meters":3600,"station_id":"ce4bgs92rcd13ifvqcc0","pricing_plan_id":"cebpf4jnsgd1na2vs0mg"},{"bike_id":"7fd14ad2-a454-423d-bbfa-04d2678cc6ac","system_id":"levelo_inurba_marseille","lat":43.29763,"lon":5.38163,"is_reserved":false,"is_disabled":false,"rental_uris":{"android":"levelo://app?vid=7fd14ad2-a454-423d-bbfa-04d2678cc6ac","ios":"levelo://app?vid=7fd14ad2-a454-423d-bbfa-04d2678cc6ac"},"vehicle_type_id":"4","last_reported":1758705080,"current_range_meters":4000,"station_id":"","pricing_plan_id":"cebpf4jnsgd1na2vs0mg"},{"bike_id":"213937f4-0cd9-48b8-9d64-0b73c37bc721","system_id":"levelo_inurba_marseille","lat":43.29558,"lon":5.38174,"is_reserved":false,"is_disabled":false,"rental_uris":{"android":"levelo://app?vid=213937f4-0cd9-48b8-9d64-0b73c37bc721","ios":"levelo://app?vid=213937f4-0cd9-48b8-9d64-0b73c37bc721"},"vehicle_type_id":"4","last_reported":1758705080,"current_range_meters":4000,"station_id":"","pricing_plan_id":"cebpf4jnsgd1na2vs0mg"},{"bike_id":"c3ccbf09-5bbf-4439-ab62-cd1f4f69efb3","system_id":"levelo_inurba_marseille","lat":43.33608,"lon":5.41026,"is_reserved":false,"is_disabled":false,"rental_uris":{"android":"levelo://app?vid=c3ccbf09-5bbf-4439-ab62-cd1f4f69efb3","ios":"levelo://app?vid=c3ccbf09-5bbf-4439-ab62-cd1f4f69efb3"},"vehicle_type_id":"4","last_reported":1758705080,"current_range_meters":4000,"station_id":"ce4bhqh2rcd13ifvqhmg","pricing_plan_id":"cebpf4jnsgd1na2vs0mg"},{"bike_id":"2dfaaa4a-93c5-4cf9-8b08-9f12cc0b2676","system_id":"levelo_inurba_marseille","lat":43.288425,"lon":5.392955,"is_reserved":false,"is_disabled":false,"rental_uris":{"android":"levelo://app?vid=2dfaaa4a-93c5-4cf9-8b08-9f12cc0b2676","ios":"levelo://app?vid=2dfaaa4a-93c5-4cf9-8b08-9f12cc0b2676"},"vehicle_type_id":"4","last_reported":1758705080,"current_range_meters":3600,"station_id":"ce4bh2p2rcd13ifvqdi0","pricing_plan_id":"cebpf4jnsgd1na2vs0mg"},{"bike_id":"1efddf8d-578f-4e4c-8c3f-e3a8bd592ba4","system_id":"levelo_inurba_marseille","lat":43.29985,"lon":5.37426,"is_reserved":false,"is_disabled":false,"rental_uris":{"android":"levelo://app?vid=1efddf8d-578f-4e4c-8c3f-e3a8bd592ba4","ios":"levelo://app?vid=1efddf8d-578f-4e4c-8c3f-e3a8bd592ba4"},"vehicle_type_id":"4","last_reported":1758705080,"current_range_meters":4400,"station_id":"","pricing_plan_id":"cebpf4jnsgd1na2vs0mg"},{"bike_id":"0a1ab1a5-b85e-4ac3-936e-fe171b7ebe82","system_id":"levelo_inurba_marseille","lat":43.296295,"lon":5.381289,"is_reserved":false,"is_disabled":false,"rental_uris":{"android":"levelo://app?vid=0a1ab1a5-b85e-4ac3-936e-fe171b7ebe82","ios":"levelo://app?vid=0a1ab1a5-b85e-4ac3-936e-fe171b7ebe82"},"vehicle_type_id":"4","last_reported":1758705080,"current_range_meters":4400,"station_id":"","pricing_plan_id":"cebpf4jnsgd1na2vs0mg"},{"bike_id":"efd7e7c4-05d5-4b89-a153-e76be3d8baeb","system_id":"levelo_inurba_marseille","lat":43.29528,"lon":5.38549,"is_reserved":false,"is_disabled":false,"rental_uris":{"android":"levelo://app?vid=efd7e7c4-05d5-4b89-a153-e76be3d8baeb","ios":"levelo://app?vid=efd7e7c4-05d5-4b89-a153-e76be3d8baeb"},"vehicle_type_id":"4","last_reported":1758705080,"current_range_meters":4400,"station_id":"ce4bgih2rcd13ifvqba0","pricing_plan_id":"cebpf4jnsgd1na2vs0mg"},{"bike_id":"119a01e6-59d7-40d3-946b-0f2773609fd6","system_id":"levelo_inurba_marseille","lat":43.28719,"lon":5.3609,"is_reserved":false,"is_disabled":false,"rental_uris":{"android":"levelo://app?vid=119a01e6-59d7-40d3-946b-0f2773609fd6","ios":"levelo://app?vid=119a01e6-59d7-40d3-946b-0f2773609fd6"},"vehicle_type_id":"4","last_reported":1758705080,"current_range_meters":8000,"station_id":"cki0cbj6b192h4jlfktg","pricing_plan_id":"cebpf4jnsgd1na2vs0mg"},{"bike_id":"567a33c3-383a-4286-a595-316551e7d1cb","system_id":"levelo_inurba_marseille","lat":43.29374,"lon":5.37843,"is_reserved":false,"is_disabled":false,"rental_uris":{"android":"levelo://app?vid=567a33c3-383a-4286-a595-316551e7d1cb","ios":"levelo://app?vid=567a33c3-383a-4286-a595-316551e7d1cb"},"vehicle_type_id":"4","last_reported":1758705080,"current_range_meters":4400,"station_id":"ce4bgjh2rcd13ifvqbf0","pricing_plan_id":"cebpf4jnsgd1na2vs0mg"},{"bike_id":"141a9d3a-0b93-48fe-ab24-a5e32d9694e8","system_id":"levelo_inurba_marseille","lat":43.24387,"lon":5.37064,"is_reserved":false,"is_disabled":false,"rental_uris":{"android":"levelo://app?vid=141a9d3a-0b93-48fe-ab24-a5e32d9694e8","ios":"levelo://app?vid=141a9d3a-0b93-48fe-ab24-a5e32d9694e8"},"vehicle_type_id":"4","last_reported":1758705080,"current_range_meters":5600,"station_id":"ce4bhhh2rcd13ifvqfk0","pricing_plan_id":"cebpf4jnsgd1na2vs0mg"},{"bike_id":"82304ba4-71d4-444b-a52b-5e234edb762c","system_id":"levelo_inurba_marseille","lat":43.22945,"lon":5.35374,"is_reserved":false,"is_disabled":false,"rental_uris":{"android":"levelo://app?vid=82304ba4-71d4-444b-a52b-5e234edb762c","ios":"levelo://app?vid=82304ba4-71d4-444b-a52b-5e234edb762c"},"vehicle_type_id":"4","last_reported":1758705080,"current_range_meters":5600,"station_id":"","pricing_plan_id":"cebpf4jnsgd1na2vs0mg"},{"bike_id":"d9797464-46f7-4e2a-bf95-ae38dc2758fd","system_id":"levelo_inurba_marseille","lat":43.33018,"lon":5.39049,"is_reserved":false,"is_disabled":false,"rental_uris":{"android":"levelo://app?vid=d9797464-46f7-4e2a-bf95-ae38dc2758fd","ios":"levelo://app?vid=d9797464-46f7-4e2a-bf95-ae38dc2758fd"},"vehicle_type_id":"4","last_reported":1758705080,"current_range_meters":5600,"station_id":"ce4bhr92rcd13ifvqhrg","pricing_plan_id":"cebpf4jnsgd1na2vs0mg"},{"bike_id":"2b46bfa4-600a-4d4d-a57c-393add828d6c","system_id":"levelo_inurba_marseille","lat":43.28454,"lon":5.35889,"is_reserved":false,"is_disabled":false,"rental_uris":{"android":"levelo://app?vid=2b46bfa4-600a-4d4d-a57c-393add828d6c","ios":"levelo://app?vid=2b46bfa4-600a-4d4d-a57c-393add828d6c"},"vehicle_type_id":"4","last_reported":1758705080,"current_range_meters":6000,"station_id":"ce4bhah2rcd13ifvqei0","pricing_plan_id":"cebpf4jnsgd1na2vs0mg"},{"bike_id":"e08a5c95-4de5-40d9-88ef-395724071684","system_id":"levelo_inurba_marseille","lat":43.30198,"lon":5.36639,"is_reserved":false,"is_disabled":false,"rental_uris":{"android":"levelo://app?vid=e08a5c95-4de5-40d9-88ef-395724071684","ios":"levelo://app?vid=e08a5c95-4de5-40d9-88ef-395724071684"},"vehicle_type_id":"4","last_reported":1758705080,"current_range_meters":6000,"station_id":"ce4bgrh2rcd13ifvqc8g","pricing_plan_id":"cebpf4jnsgd1na2vs0mg"},{"bike_id":"023538a4-c74d-41b7-b52d-a9cf1f022cec","system_id":"levelo_inurba_marseille","lat":43.30955,"lon":5.37885,"is_reserved":false,"is_disabled":false,"rental_uris":{"android":"levelo://app?vid=023538a4-c74d-41b7-b52d-a9cf1f022cec","ios":"levelo://app?vid=023538a4-c74d-41b7-b52d-a9cf1f022cec"},"vehicle_type_id":"4","last_reported":1758705080,"current_range_meters":6000,"station_id":"","pricing_plan_id":"cebpf4jnsgd1na2vs0mg"},{"bike_id":"962b15bf-a341-4469-9450-c0428eb337e2","system_id":"levelo_inurba_marseille","lat":43.231512,"lon":5.43717,"is_reserved":false,"is_disabled":false,"rental_uris":{"android":"levelo://app?vid=962b15bf-a341-4469-9450-c0428eb337e2","ios":"levelo://app?vid=962b15bf-a341-4469-9450-c0428eb337e2"},"vehicle_type_id":"4","last_reported":1758705080,"current_range_meters":6400,"station_id":"ce4bhmp2rcd13ifvqgog","pricing_plan_id":"cebpf4jnsgd1na2vs0mg"},{"bike_id":"cb6bf7d2-2ed1-47c4-b0a7-9c935f0ebf1a","system_id":"levelo_inurba_marseille","lat":43.26854,"lon":5.40674,"is_reserved":false,"is_disabled":false,"rental_uris":{"android":"levelo://app?vid=cb6bf7d2-2ed1-47c4-b0a7-9c935f0ebf1a","ios":"levelo://app?vid=cb6bf7d2-2ed1-47c4-b0a7-9c935f0ebf1a"},"vehicle_type_id":"4","last_reported":1758705080,"current_range_meters":6400,"station_id":"","pricing_plan_id":"cebpf4jnsgd1na2vs0mg"},{"bike_id":"0fded6e1-5b43-4e8c-ac27-dc6c94366c34","system_id":"levelo_inurba_marseille","lat":43.23196,"lon":5.3555,"is_reserved":false,"is_disabled":false,"rental_uris":{"android":"levelo://app?vid=0fded6e1-5b43-4e8c-ac27-dc6c94366c34","ios":"levelo://app?vid=0fded6e1-5b43-4e8c-ac27-dc6c94366c34"},"vehicle_type_id":"4","last_reported":1758705080,"current_range_meters":6000,"station_id":"ce4bhu92rcd13ifvqi70","pricing_plan_id":"cebpf4jnsgd1na2vs0mg"},{"bike_id":"1f08633a-8f55-4a9e-9496-b83ccb92dd6d","system_id":"levelo_inurba_marseille","lat":43.2708,"lon":5.42266,"is_reserved":false,"is_disabled":false,"rental_uris":{"android":"levelo://app?vid=1f08633a-8f55-4a9e-9496-b83ccb92dd6d","ios":"levelo://app?vid=1f08633a-8f55-4a9e-9496-b83ccb92dd6d"},"vehicle_type_id":"4","last_reported":1758705080,"current_range_meters":6400,"station_id":"ce4bhk92rcd13ifvqgb0","pricing_plan_id":"cebpf4jnsgd1na2vs0mg"},{"bike_id":"c95e0c05-dd94-491f-8092-9c7978400114","system_id":"levelo_inurba_marseille","lat":43.33484,"lon":5.36257,"is_reserved":false,"is_disabled":false,"rental_uris":{"android":"levelo://app?vid=c95e0c05-dd94-491f-8092-9c7978400114","ios":"levelo://app?vid=c95e0c05-dd94-491f-8092-9c7978400114"},"vehicle_type_id":"4","last_reported":1758705080,"current_range_meters":7200,"station_id":"ce4bhs12rcd13ifvqhvg","pricing_plan_id":"cebpf4jnsgd1na2vs0mg"},{"bike_id":"8955f19f-4c21-4fdf-88b6-14a50a9f9214","system_id":"levelo_inurba_marseille","lat":43.27963,"lon":5.38757,"is_reserved":false,"is_disabled":false,"rental_uris":{"android":"levelo://app?vid=8955f19f-4c21-4fdf-88b6-14a50a9f9214","ios":"levelo://app?vid=8955f19f-4c21-4fdf-88b6-14a50a9f9214"},"vehicle_type_id":"4","last_reported":1758705080,"current_range_meters":7200,"station_id":"ce4bhg12rcd13ifvqf80","pricing_plan_id":"cebpf4jnsgd1na2vs0mg"},{"bike_id":"6ddbbc98-2a93-4c9c-b1db-2e0aa0aae8ca","system_id":"levelo_inurba_marseille","lat":43.29564,"lon":5.37523,"is_reserved":false,"is_disabled":false,"rental_uris":{"android":"levelo://app?vid=6ddbbc98-2a93-4c9c-b1db-2e0aa0aae8ca","ios":"levelo://app?vid=6ddbbc98-2a93-4c9c-b1db-2e0aa0aae8ca"},"vehicle_type_id":"4","last_reported":1758705080,"current_range_meters":8000,"station_id":"ce4bgh92rcd13ifvqb50","pricing_plan_id":"cebpf4jnsgd1na2vs0mg"},{"bike_id":"22a44c64-2f1a-4740-b0a8-4bd8b16ef200","system_id":"levelo_inurba_marseille","lat":43.2821,"lon":5.39071,"is_reserved":false,"is_disabled":false,"rental_uris":{"android":"levelo://app?vid=22a44c64-2f1a-4740-b0a8-4bd8b16ef200","ios":"levelo://app?vid=22a44c64-2f1a-4740-b0a8-4bd8b16ef200"},"vehicle_type_id":"4","last_reported":1758705080,"current_range_meters":8000,"station_id":"ce4bhn92rcd13ifvqgsg","pricing_plan_id":"cebpf4jnsgd1na2vs0mg"},{"bike_id":"eecd2d2b-42d7-4497-9b6f-bd5d1d51cfe0","system_id":"levelo_inurba_marseille","lat":43.30643,"lon":5.40106,"is_reserved":false,"is_disabled":true,"rental_uris":{"android":"levelo://app?vid=eecd2d2b-42d7-4497-9b6f-bd5d1d51cfe0","ios":"levelo://app?vid=eecd2d2b-42d7-4497-9b6f-bd5d1d51cfe0"},"vehicle_type_id":"4","last_reported":1758705080,"current_range_meters":3200,"station_id":"ce4bh112rcd13ifvqda0","pricing_plan_id":"cebpf4jnsgd1na2vs0mg"},{"bike_id":"d55e0924-f6c9-460c-b252-c5362b98fbde","system_id":"levelo_inurba_marseille","lat":43.31073,"lon":5.38358,"is_reserved":false,"is_disabled":false,"rental_uris":{"android":"levelo://app?vid=d55e0924-f6c9-460c-b252-c5362b98fbde","ios":"levelo://app?vid=d55e0924-f6c9-460c-b252-c5362b98fbde"},"vehicle_type_id":"4","last_reported":1758705080,"current_range_meters":8000,"station_id":"ce4bgv92rcd13ifvqcr0","pricing_plan_id":"cebpf4jnsgd1na2vs0mg"},{"bike_id":"8d243e83-cc74-44d3-bf18-f20421549672","system_id":"levelo_inurba_marseille","lat":43.2893,"lon":5.35944,"is_reserved":false,"is_disabled":false,"rental_uris":{"android":"levelo://app?vid=8d243e83-cc74-44d3-bf18-f20421549672","ios":"levelo://app?vid=8d243e83-cc74-44d3-bf18-f20421549672"},"vehicle_type_id":"4","last_reported":1758705080,"current_range_meters":8000,"station_id":"","pricing_plan_id":"cebpf4jnsgd1na2vs0mg"},{"bike_id":"9d7921ee-d866-41c8-b7ef-f3c10de7093c","system_id":"levelo_inurba_marseille","lat":43.296346,"lon":5.405977,"is_reserved":false,"is_disabled":false,"rental_uris":{"android":"levelo://app?vid=9d7921ee-d866-41c8-b7ef-f3c10de7093c","ios":"levelo://app?vid=9d7921ee-d866-41c8-b7ef-f3c10de7093c"},"vehicle_type_id":"4","last_reported":1758705080,"current_range_meters":8400,"station_id":"ce4bh0h2rcd13ifvqd60","pricing_plan_id":"cebpf4jnsgd1na2vs0mg"},{"bike_id":"4596d468-43b5-46f6-a595-cdcd1d4c923e","system_id":"levelo_inurba_marseille","lat":43.30321,"lon":5.40437,"is_reserved":false,"is_disabled":false,"rental_uris":{"android":"levelo://app?vid=4596d468-43b5-46f6-a595-cdcd1d4c923e","ios":"levelo://app?vid=4596d468-43b5-46f6-a595-cdcd1d4c923e"},"vehicle_type_id":"4","last_reported":1758705080,"current_range_meters":8400,"station_id":"ce4bh012rcd13ifvqd10","pricing_plan_id":"cebpf4jnsgd1na2vs0mg"},{"bike_id":"91541116-ee56-40d5-8813-60aa886e6a83","system_id":"levelo_inurba_marseille","lat":43.27569,"lon":5.38393,"is_reserved":false,"is_disabled":false,"rental_uris":{"android":"levelo://app?vid=91541116-ee56-40d5-8813-60aa886e6a83","ios":"levelo://app?vid=91541116-ee56-40d5-8813-60aa886e6a83"},"vehicle_type_id":"4","last_reported":1758705080,"current_range_meters":8400,"station_id":"ce4bhh92rcd13ifvqfi0","pricing_plan_id":"cebpf4jnsgd1na2vs0mg"},{"bike_id":"99d3aab5-4351-4f25-9c8e-248a2dc1ad09","system_id":"levelo_inurba_marseille","lat":43.25111,"lon":5.403243,"is_reserved":false,"is_disabled":false,"rental_uris":{"android":"levelo://app?vid=99d3aab5-4351-4f25-9c8e-248a2dc1ad09","ios":"levelo://app?vid=99d3aab5-4351-4f25-9c8e-248a2dc1ad09"},"vehicle_type_id":"4","last_reported":1758705080,"current_range_meters":12000,"station_id":"ce4bhlh2rcd13ifvqgig","pricing_plan_id":"cebpf4jnsgd1na2vs0mg"},{"bike_id":"0f1650fe-7e07-4db9-9c9e-440f7f5b47d4","system_id":"levelo_inurba_marseille","lat":43.21187,"lon":5.35072,"is_reserved":false,"is_disabled":false,"rental_uris":{"android":"levelo://app?vid=0f1650fe-7e07-4db9-9c9e-440f7f5b47d4","ios":"levelo://app?vid=0f1650fe-7e07-4db9-9c9e-440f7f5b47d4"},"vehicle_type_id":"4","last_reported":1758705080,"current_range_meters":8400,"station_id":"st_cvj6sg6p6f1abm77japg","pricing_plan_id":"cebpf4jnsgd1na2vs0mg"},{"bike_id":"52019998-4cc5-4a25-b77c-093b9de82dfc","system_id":"levelo_inurba_marseille","lat":43.27309,"lon":5.39093,"is_reserved":false,"is_disabled":false,"rental_uris":{"android":"levelo://app?vid=52019998-4cc5-4a25-b77c-093b9de82dfc","ios":"levelo://app?vid=52019998-4cc5-4a25-b77c-093b9de82dfc"},"vehicle_type_id":"4","last_reported":1758705080,"current_range_meters":8800,"station_id":"ce4bhgp2rcd13ifvqfe0","pricing_plan_id":"cebpf4jnsgd1na2vs0mg"},{"bike_id":"5831c095-df14-45e5-a8ab-be880ef9780a","system_id":"levelo_inurba_marseille","lat":43.26691,"lon":5.38242,"is_reserved":false,"is_disabled":false,"rental_uris":{"android":"levelo://app?vid=5831c095-df14-45e5-a8ab-be880ef9780a","ios":"levelo://app?vid=5831c095-df14-45e5-a8ab-be880ef9780a"},"vehicle_type_id":"4","last_reported":1758705080,"current_range_meters":8800,"station_id":"ce4bhg92rcd13ifvqf90","pricing_plan_id":"cebpf4jnsgd1na2vs0mg"},{"bike_id":"227ae520-26bb-49dd-abd9-3a8e1a78287c","system_id":"levelo_inurba_marseille","lat":43.24164,"lon":5.364,"is_reserved":false,"is_disabled":false,"rental_uris":{"android":"levelo://app?vid=227ae520-26bb-49dd-abd9-3a8e1a78287c","ios":"levelo://app?vid=227ae520-26bb-49dd-abd9-3a8e1a78287c"},"vehicle_type_id":"4","last_reported":1758705080,"current_range_meters":8800,"station_id":"cpo36qri1sfpv3e86is0","pricing_plan_id":"cebpf4jnsgd1na2vs0mg"},{"bike_id":"0ef9083f-93f3-4169-8290-adb876a45ae0","system_id":"levelo_inurba_marseille","lat":43.26934,"lon":5.40269,"is_reserved":false,"is_disabled":false,"rental_uris":{"android":"levelo://app?vid=0ef9083f-93f3-4169-8290-adb876a45ae0","ios":"levelo://app?vid=0ef9083f-93f3-4169-8290-adb876a45ae0"},"vehicle_type_id":"4","last_reported":1758705080,"current_range_meters":8800,"station_id":"cjm6bp8fraef2m0cb0m0","pricing_plan_id":"cebpf4jnsgd1na2vs0mg"},{"bike_id":"4cabf13e-70d3-46c5-8d1e-119d522aa974","system_id":"levelo_inurba_marseille","lat":43.269379,"lon":5.389137,"is_reserved":false,"is_disabled":false,"rental_uris":{"android":"levelo://app?vid=4cabf13e-70d3-46c5-8d1e-119d522aa974","ios":"levelo://app?vid=4cabf13e-70d3-46c5-8d1e-119d522aa974"},"vehicle_type_id":"4","last_reported":1758705080,"current_range_meters":8800,"station_id":"ce4bhhh2rcd13ifvqfl0","pricing_plan_id":"cebpf4jnsgd1na2vs0mg"},{"bike_id":"290a0fc6-f509-417f-a135-6f694ce3b70d","system_id":"levelo_inurba_marseille","lat":43.289239,"lon":5.384018,"is_reserved":false,"is_disabled":false,"rental_uris":{"android":"levelo://app?vid=290a0fc6-f509-417f-a135-6f694ce3b70d","ios":"levelo://app?vid=290a0fc6-f509-417f-a135-6f694ce3b70d"},"vehicle_type_id":"4","last_reported":1758705080,"current_range_meters":6000,"station_id":"ce4bh612rcd13ifvqe6g","pricing_plan_id":"cebpf4jnsgd1na2vs0mg"},{"bike_id":"af8bbd19-ecc7-4921-bc16-cdbeda63b9f0","system_id":"levelo_inurba_marseille","lat":43.32482,"lon":5.36576,"is_reserved":false,"is_disabled":false,"rental_uris":{"android":"levelo://app?vid=af8bbd19-ecc7-4921-bc16-cdbeda63b9f0","ios":"levelo://app?vid=af8bbd19-ecc7-4921-bc16-cdbeda63b9f0"},"vehicle_type_id":"4","last_reported":1758705080,"current_range_meters":9200,"station_id":"ce4bhs12rcd13ifvqhvg","pricing_plan_id":"cebpf4jnsgd1na2vs0mg"},{"bike_id":"8f4b7c74-6b50-43d6-b6f8-fa899b71c672","system_id":"levelo_inurba_marseille","lat":43.29915,"lon":5.38183,"is_reserved":false,"is_disabled":false,"rental_uris":{"android":"levelo://app?vid=8f4b7c74-6b50-43d6-b6f8-fa899b71c672","ios":"levelo://app?vid=8f4b7c74-6b50-43d6-b6f8-fa899b71c672"},"vehicle_type_id":"4","last_reported":1758705080,"current_range_meters":9200,"station_id":"ce4bgj12rcd13ifvqbc0","pricing_plan_id":"cebpf4jnsgd1na2vs0mg"},{"bike_id":"5066d309-8216-451d-a4ad-b99cfce50b61","system_id":"levelo_inurba_marseille","lat":43.30534,"lon":5.36698,"is_reserved":false,"is_disabled":false,"rental_uris":{"android":"levelo://app?vid=5066d309-8216-451d-a4ad-b99cfce50b61","ios":"levelo://app?vid=5066d309-8216-451d-a4ad-b99cfce50b61"},"vehicle_type_id":"4","last_reported":1758705080,"current_range_meters":9600,"station_id":"ce4bgrp2rcd13ifvqc9g","pricing_plan_id":"cebpf4jnsgd1na2vs0mg"},{"bike_id":"1a611c5a-5545-4af6-9cb5-9ef7c74054f3","system_id":"levelo_inurba_marseille","lat":43.29688,"lon":5.37285,"is_reserved":false,"is_disabled":false,"rental_uris":{"android":"levelo://app?vid=1a611c5a-5545-4af6-9cb5-9ef7c74054f3","ios":"levelo://app?vid=1a611c5a-5545-4af6-9cb5-9ef7c74054f3"},"vehicle_type_id":"4","last_reported":1758705080,"current_range_meters":9600,"station_id":"ce4bgk12rcd13ifvqbj0","pricing_plan_id":"cebpf4jnsgd1na2vs0mg"},{"bike_id":"52de0958-b441-4537-88d9-5943de40f698","system_id":"levelo_inurba_marseille","lat":43.29933,"lon":5.36553,"is_reserved":false,"is_disabled":false,"rental_uris":{"android":"levelo://app?vid=52de0958-b441-4537-88d9-5943de40f698","ios":"levelo://app?vid=52de0958-b441-4537-88d9-5943de40f698"},"vehicle_type_id":"4","last_reported":1758705080,"current_range_meters":9600,"station_id":"ce4bgm92rcd13ifvqbr0","pricing_plan_id":"cebpf4jnsgd1na2vs0mg"},{"bike_id":"ba5db9ed-0955-44e1-bfbc-a138fae16e15","system_id":"levelo_inurba_marseille","lat":43.23963,"lon":5.36624,"is_reserved":false,"is_disabled":false,"rental_uris":{"android":"levelo://app?vid=ba5db9ed-0955-44e1-bfbc-a138fae16e15","ios":"levelo://app?vid=ba5db9ed-0955-44e1-bfbc-a138fae16e15"},"vehicle_type_id":"4","last_reported":1758705080,"current_range_meters":10000,"station_id":"ce4bhi12rcd13ifvqfp0","pricing_plan_id":"cebpf4jnsgd1na2vs0mg"},{"bike_id":"08ffd931-e17f-4442-9575-cf4dfdcd5276","system_id":"levelo_inurba_marseille","lat":43.28284,"lon":5.35084,"is_reserved":false,"is_disabled":false,"rental_uris":{"android":"levelo://app?vid=08ffd931-e17f-4442-9575-cf4dfdcd5276","ios":"levelo://app?vid=08ffd931-e17f-4442-9575-cf4dfdcd5276"},"vehicle_type_id":"4","last_reported":1758705080,"current_range_meters":10000,"station_id":"ce4bhbp2rcd13ifvqerg","pricing_plan_id":"cebpf4jnsgd1na2vs0mg"},{"bike_id":"4ce67155-9f15-4130-9400-f86685d8ecda","system_id":"levelo_inurba_marseille","lat":43.29766,"lon":5.36532,"is_reserved":false,"is_disabled":false,"rental_uris":{"android":"levelo://app?vid=4ce67155-9f15-4130-9400-f86685d8ecda","ios":"levelo://app?vid=4ce67155-9f15-4130-9400-f86685d8ecda"},"vehicle_type_id":"4","last_reported":1758705080,"current_range_meters":10000,"station_id":"","pricing_plan_id":"cebpf4jnsgd1na2vs0mg"},{"bike_id":"bcb71d7d-9f90-4495-a001-e0f5211c472c","system_id":"levelo_inurba_marseille","lat":43.29723,"lon":5.37682,"is_reserved":false,"is_disabled":false,"rental_uris":{"android":"levelo://app?vid=bcb71d7d-9f90-4495-a001-e0f5211c472c","ios":"levelo://app?vid=bcb71d7d-9f90-4495-a001-e0f5211c472c"},"vehicle_type_id":"4","last_reported":1758705080,"current_range_meters":10000,"station_id":"ce4bgkh2rcd13ifvqbl0","pricing_plan_id":"cebpf4jnsgd1na2vs0mg"},{"bike_id":"a158b282-d85f-443f-80a3-0e47d4023af0","system_id":"levelo_inurba_marseille","lat":43.29197,"lon":5.3932,"is_reserved":false,"is_disabled":false,"rental_uris":{"android":"levelo://app?vid=a158b282-d85f-443f-80a3-0e47d4023af0","ios":"levelo://app?vid=a158b282-d85f-443f-80a3-0e47d4023af0"},"vehicle_type_id":"4","last_reported":1758705080,"current_range_meters":12400,"station_id":"ce4bh192rcd13ifvqdd0","pricing_plan_id":"cebpf4jnsgd1na2vs0mg"},{"bike_id":"7c0482c3-9253-4d1b-b4f3-be55cdb7721d","system_id":"levelo_inurba_marseille","lat":43.33757,"lon":5.37466,"is_reserved":false,"is_disabled":false,"rental_uris":{"android":"levelo://app?vid=7c0482c3-9253-4d1b-b4f3-be55cdb7721d","ios":"levelo://app?vid=7c0482c3-9253-4d1b-b4f3-be55cdb7721d"},"vehicle_type_id":"4","last_reported":1758705080,"current_range_meters":10800,"station_id":"","pricing_plan_id":"cebpf4jnsgd1na2vs0mg"},{"bike_id":"edade4de-eb90-41df-bddf-508a7e4d485a","system_id":"levelo_inurba_marseille","lat":43.24167,"lon":5.36394,"is_reserved":false,"is_disabled":false,"rental_uris":{"android":"levelo://app?vid=edade4de-eb90-41df-bddf-508a7e4d485a","ios":"levelo://app?vid=edade4de-eb90-41df-bddf-508a7e4d485a"},"vehicle_type_id":"4","last_reported":1758705080,"current_range_meters":10800,"station_id":"cpo36qri1sfpv3e86is0","pricing_plan_id":"cebpf4jnsgd1na2vs0mg"},{"bike_id":"ee324131-7f1e-4c44-8cd4-8facf81a76e2","system_id":"levelo_inurba_marseille","lat":43.27972,"lon":5.40006,"is_reserved":false,"is_disabled":false,"rental_uris":{"android":"levelo://app?vid=ee324131-7f1e-4c44-8cd4-8facf81a76e2","ios":"levelo://app?vid=ee324131-7f1e-4c44-8cd4-8facf81a76e2"},"vehicle_type_id":"4","last_reported":1758705080,"current_range_meters":10800,"station_id":"ce4bho92rcd13ifvqh4g","pricing_plan_id":"cebpf4jnsgd1na2vs0mg"},{"bike_id":"d438a7f3-977a-45af-8dca-ef2d933780b8","system_id":"levelo_inurba_marseille","lat":43.287037,"lon":5.399952,"is_reserved":false,"is_disabled":true,"rental_uris":{"android":"levelo://app?vid=d438a7f3-977a-45af-8dca-ef2d933780b8","ios":"levelo://app?vid=d438a7f3-977a-45af-8dca-ef2d933780b8"},"vehicle_type_id":"4","last_reported":1758705080,"current_range_meters":10800,"station_id":"ce4bho92rcd13ifvqh3g","pricing_plan_id":"cebpf4jnsgd1na2vs0mg"},{"bike_id":"52064b94-8553-49a6-89a5-862bba16d5e2","system_id":"levelo_inurba_marseille","lat":43.30789,"lon":5.3816,"is_reserved":false,"is_disabled":false,"rental_uris":{"android":"levelo://app?vid=52064b94-8553-49a6-89a5-862bba16d5e2","ios":"levelo://app?vid=52064b94-8553-49a6-89a5-862bba16d5e2"},"vehicle_type_id":"4","last_reported":1758705080,"current_range_meters":10800,"station_id":"ce4bgt12rcd13ifvqce0","pricing_plan_id":"cebpf4jnsgd1na2vs0mg"},{"bike_id":"b3ec3379-5c3f-4624-9266-6edb4f07b01e","system_id":"levelo_inurba_marseille","lat":43.30276,"lon":5.377,"is_reserved":false,"is_disabled":false,"rental_uris":{"android":"levelo://app?vid=b3ec3379-5c3f-4624-9266-6edb4f07b01e","ios":"levelo://app?vid=b3ec3379-5c3f-4624-9266-6edb4f07b01e"},"vehicle_type_id":"4","last_reported":1758705080,"current_range_meters":10800,"station_id":"ce4bguh2rcd13ifvqcj0","pricing_plan_id":"cebpf4jnsgd1na2vs0mg"},{"bike_id":"17a93b55-3a62-4419-ab50-3eb9214f913e","system_id":"levelo_inurba_marseille","lat":43.30141,"lon":5.37402,"is_reserved":false,"is_disabled":false,"rental_uris":{"android":"levelo://app?vid=17a93b55-3a62-4419-ab50-3eb9214f913e","ios":"levelo://app?vid=17a93b55-3a62-4419-ab50-3eb9214f913e"},"vehicle_type_id":"4","last_reported":1758705080,"current_range_meters":10800,"station_id":"ce4bgs92rcd13ifvqcc0","pricing_plan_id":"cebpf4jnsgd1na2vs0mg"},{"bike_id":"43d57fd4-047e-4ac8-97e5-ec9b96239472","system_id":"levelo_inurba_marseille","lat":43.33231,"lon":5.39821,"is_reserved":false,"is_disabled":false,"rental_uris":{"android":"levelo://app?vid=43d57fd4-047e-4ac8-97e5-ec9b96239472","ios":"levelo://app?vid=43d57fd4-047e-4ac8-97e5-ec9b96239472"},"vehicle_type_id":"4","last_reported":1758705080,"current_range_meters":10800,"station_id":"","pricing_plan_id":"cebpf4jnsgd1na2vs0mg"},{"bike_id":"e35dc3d8-0dfe-4bd4-87f7-5d3ca8bee4e5","system_id":"levelo_inurba_marseille","lat":43.250827,"lon":5.426085,"is_reserved":false,"is_disabled":false,"rental_uris":{"android":"levelo://app?vid=e35dc3d8-0dfe-4bd4-87f7-5d3ca8bee4e5","ios":"levelo://app?vid=e35dc3d8-0dfe-4bd4-87f7-5d3ca8bee4e5"},"vehicle_type_id":"4","last_reported":1758705080,"current_range_meters":10800,"station_id":"","pricing_plan_id":"cebpf4jnsgd1na2vs0mg"},{"bike_id":"05c71d1b-93ca-41b5-9e26-6b92b9d131f5","system_id":"levelo_inurba_marseille","lat":43.30527,"lon":5.36548,"is_reserved":false,"is_disabled":false,"rental_uris":{"android":"levelo://app?vid=05c71d1b-93ca-41b5-9e26-6b92b9d131f5","ios":"levelo://app?vid=05c71d1b-93ca-41b5-9e26-6b92b9d131f5"},"vehicle_type_id":"4","last_reported":1758705080,"current_range_meters":11200,"station_id":"ce4bgs12rcd13ifvqcag","pricing_plan_id":"cebpf4jnsgd1na2vs0mg"},{"bike_id":"06a24bce-028d-4b4a-b4a3-d45296145db5","system_id":"levelo_inurba_marseille","lat":43.28425,"lon":5.34991,"is_reserved":false,"is_disabled":true,"rental_uris":{"android":"levelo://app?vid=06a24bce-028d-4b4a-b4a3-d45296145db5","ios":"levelo://app?vid=06a24bce-028d-4b4a-b4a3-d45296145db5"},"vehicle_type_id":"4","last_reported":1758705080,"current_range_meters":11200,"station_id":"ce4bhch2rcd13ifvqeug","pricing_plan_id":"cebpf4jnsgd1na2vs0mg"},{"bike_id":"a962e30f-ee6b-4077-a702-66853b2744b8","system_id":"levelo_inurba_marseille","lat":43.31345,"lon":5.36721,"is_reserved":false,"is_disabled":false,"rental_uris":{"android":"levelo://app?vid=a962e30f-ee6b-4077-a702-66853b2744b8","ios":"levelo://app?vid=a962e30f-ee6b-4077-a702-66853b2744b8"},"vehicle_type_id":"4","last_reported":1758705080,"current_range_meters":11200,"station_id":"ce4bgr92rcd13ifvqc6g","pricing_plan_id":"cebpf4jnsgd1na2vs0mg"},{"bike_id":"4c0b651b-953c-4759-a0f7-0074f59a45eb","system_id":"levelo_inurba_marseille","lat":43.2579,"lon":5.39277,"is_reserved":false,"is_disabled":false,"rental_uris":{"android":"levelo://app?vid=4c0b651b-953c-4759-a0f7-0074f59a45eb","ios":"levelo://app?vid=4c0b651b-953c-4759-a0f7-0074f59a45eb"},"vehicle_type_id":"4","last_reported":1758705080,"current_range_meters":11200,"station_id":"","pricing_plan_id":"cebpf4jnsgd1na2vs0mg"},{"bike_id":"eeeabaa8-c53c-4758-8a4b-9daf803322f3","system_id":"levelo_inurba_marseille","lat":43.28268,"lon":5.35065,"is_reserved":false,"is_disabled":false,"rental_uris":{"android":"levelo://app?vid=eeeabaa8-c53c-4758-8a4b-9daf803322f3","ios":"levelo://app?vid=eeeabaa8-c53c-4758-8a4b-9daf803322f3"},"vehicle_type_id":"4","last_reported":1758705080,"current_range_meters":11200,"station_id":"ce4bhbp2rcd13ifvqerg","pricing_plan_id":"cebpf4jnsgd1na2vs0mg"},{"bike_id":"bbab97ef-5a76-4096-a4f4-1d33aec9e6d4","system_id":"levelo_inurba_marseille","lat":43.27976,"lon":5.38742,"is_reserved":false,"is_disabled":false,"rental_uris":{"android":"levelo://app?vid=bbab97ef-5a76-4096-a4f4-1d33aec9e6d4","ios":"levelo://app?vid=bbab97ef-5a76-4096-a4f4-1d33aec9e6d4"},"vehicle_type_id":"4","last_reported":1758705080,"current_range_meters":11200,"station_id":"ce4bhg12rcd13ifvqf80","pricing_plan_id":"cebpf4jnsgd1na2vs0mg"},{"bike_id":"f746730a-01df-4aaf-8b03-2432ec0f5a0e","system_id":"levelo_inurba_marseille","lat":43.2593,"lon":5.40887,"is_reserved":false,"is_disabled":false,"rental_uris":{"android":"levelo://app?vid=f746730a-01df-4aaf-8b03-2432ec0f5a0e","ios":"levelo://app?vid=f746730a-01df-4aaf-8b03-2432ec0f5a0e"},"vehicle_type_id":"4","last_reported":1758705080,"current_range_meters":11600,"station_id":"ce4bhm92rcd13ifvqglg","pricing_plan_id":"cebpf4jnsgd1na2vs0mg"},{"bike_id":"4ddf4003-3948-4ef1-81c5-9859c50c51b7","system_id":"levelo_inurba_marseille","lat":43.2455,"lon":5.39528,"is_reserved":false,"is_disabled":false,"rental_uris":{"android":"levelo://app?vid=4ddf4003-3948-4ef1-81c5-9859c50c51b7","ios":"levelo://app?vid=4ddf4003-3948-4ef1-81c5-9859c50c51b7"},"vehicle_type_id":"4","last_reported":1758705080,"current_range_meters":11600,"station_id":"ce4bhlp2rcd13ifvqgjg","pricing_plan_id":"cebpf4jnsgd1na2vs0mg"},{"bike_id":"b016c3a3-5290-4457-98f1-664fe0e3a9c0","system_id":"levelo_inurba_marseille","lat":43.29025,"lon":5.38132,"is_reserved":false,"is_disabled":false,"rental_uris":{"android":"levelo://app?vid=b016c3a3-5290-4457-98f1-664fe0e3a9c0","ios":"levelo://app?vid=b016c3a3-5290-4457-98f1-664fe0e3a9c0"},"vehicle_type_id":"4","last_reported":1758705080,"current_range_meters":11200,"station_id":"ce4bh4p2rcd13ifvqe1g","pricing_plan_id":"cebpf4jnsgd1na2vs0mg"},{"bike_id":"ff363bf3-8d67-4f85-a90b-d63b35c9e259","system_id":"levelo_inurba_marseille","lat":43.273614,"lon":5.424136,"is_reserved":false,"is_disabled":false,"rental_uris":{"android":"levelo://app?vid=ff363bf3-8d67-4f85-a90b-d63b35c9e259","ios":"levelo://app?vid=ff363bf3-8d67-4f85-a90b-d63b35c9e259"},"vehicle_type_id":"4","last_reported":1758705080,"current_range_meters":11600,"station_id":"","pricing_plan_id":"cebpf4jnsgd1na2vs0mg"},{"bike_id":"7981bd57-1a91-436b-8601-50130d20e8be","system_id":"levelo_inurba_marseille","lat":43.21185,"lon":5.35064,"is_reserved":false,"is_disabled":false,"rental_uris":{"android":"levelo://app?vid=7981bd57-1a91-436b-8601-50130d20e8be","ios":"levelo://app?vid=7981bd57-1a91-436b-8601-50130d20e8be"},"vehicle_type_id":"4","last_reported":1758705080,"current_range_meters":12000,"station_id":"","pricing_plan_id":"cebpf4jnsgd1na2vs0mg"},{"bike_id":"2884e01e-e8e5-4f64-839a-a54c238e1ae3","system_id":"levelo_inurba_marseille","lat":43.22532,"lon":5.34819,"is_reserved":false,"is_disabled":false,"rental_uris":{"android":"levelo://app?vid=2884e01e-e8e5-4f64-839a-a54c238e1ae3","ios":"levelo://app?vid=2884e01e-e8e5-4f64-839a-a54c238e1ae3"},"vehicle_type_id":"4","last_reported":1758705080,"current_range_meters":12000,"station_id":"","pricing_plan_id":"cebpf4jnsgd1na2vs0mg"},{"bike_id":"e64d045f-976b-42e6-ba63-29e9d1ee10ee","system_id":"levelo_inurba_marseille","lat":43.259259,"lon":5.408873,"is_reserved":false,"is_disabled":false,"rental_uris":{"android":"levelo://app?vid=e64d045f-976b-42e6-ba63-29e9d1ee10ee","ios":"levelo://app?vid=e64d045f-976b-42e6-ba63-29e9d1ee10ee"},"vehicle_type_id":"4","last_reported":1758705080,"current_range_meters":12000,"station_id":"ce4bhm92rcd13ifvqglg","pricing_plan_id":"cebpf4jnsgd1na2vs0mg"},{"bike_id":"659b5631-9407-438e-86e4-9487767e366a","system_id":"levelo_inurba_marseille","lat":43.229313,"lon":5.35382,"is_reserved":false,"is_disabled":false,"rental_uris":{"android":"levelo://app?vid=659b5631-9407-438e-86e4-9487767e366a","ios":"levelo://app?vid=659b5631-9407-438e-86e4-9487767e366a"},"vehicle_type_id":"4","last_reported":1758705080,"current_range_meters":12000,"station_id":"cpo3532slgdg3j2ikp40","pricing_plan_id":"cebpf4jnsgd1na2vs0mg"},{"bike_id":"dddca5ef-4a33-499b-936a-6d8e6136a417","system_id":"levelo_inurba_marseille","lat":43.22932,"lon":5.35405,"is_reserved":false,"is_disabled":false,"rental_uris":{"android":"levelo://app?vid=dddca5ef-4a33-499b-936a-6d8e6136a417","ios":"levelo://app?vid=dddca5ef-4a33-499b-936a-6d8e6136a417"},"vehicle_type_id":"4","last_reported":1758705080,"current_range_meters":12000,"station_id":"cpo3532slgdg3j2ikp40","pricing_plan_id":"cebpf4jnsgd1na2vs0mg"},{"bike_id":"a60abba9-f9b8-477b-8786-175fc2b6218b","system_id":"levelo_inurba_marseille","lat":43.30866,"lon":5.37169,"is_reserved":false,"is_disabled":false,"rental_uris":{"android":"levelo://app?vid=a60abba9-f9b8-477b-8786-175fc2b6218b","ios":"levelo://app?vid=a60abba9-f9b8-477b-8786-175fc2b6218b"},"vehicle_type_id":"4","last_reported":1758705080,"current_range_meters":12400,"station_id":"ce4bguh2rcd13ifvqckg","pricing_plan_id":"cebpf4jnsgd1na2vs0mg"},{"bike_id":"da88e82d-65d4-43a3-9497-024ee708202d","system_id":"levelo_inurba_marseille","lat":43.31486,"lon":5.37265,"is_reserved":false,"is_disabled":false,"rental_uris":{"android":"levelo://app?vid=da88e82d-65d4-43a3-9497-024ee708202d","ios":"levelo://app?vid=da88e82d-65d4-43a3-9497-024ee708202d"},"vehicle_type_id":"4","last_reported":1758705080,"current_range_meters":12400,"station_id":"ce4bgt12rcd13ifvqcd0","pricing_plan_id":"cebpf4jnsgd1na2vs0mg"},{"bike_id":"2ed7add6-6469-4c05-be99-776a0c3ab2d7","system_id":"levelo_inurba_marseille","lat":43.24155,"lon":5.36404,"is_reserved":false,"is_disabled":false,"rental_uris":{"android":"levelo://app?vid=2ed7add6-6469-4c05-be99-776a0c3ab2d7","ios":"levelo://app?vid=2ed7add6-6469-4c05-be99-776a0c3ab2d7"},"vehicle_type_id":"4","last_reported":1758705080,"current_range_meters":12400,"station_id":"cpo36qri1sfpv3e86is0","pricing_plan_id":"cebpf4jnsgd1na2vs0mg"},{"bike_id":"4116215f-56db-4ae3-b49f-7e0d9bf3f356","system_id":"levelo_inurba_marseille","lat":43.27171,"lon":5.40989,"is_reserved":false,"is_disabled":false,"rental_uris":{"android":"levelo://app?vid=4116215f-56db-4ae3-b49f-7e0d9bf3f356","ios":"levelo://app?vid=4116215f-56db-4ae3-b49f-7e0d9bf3f356"},"vehicle_type_id":"4","last_reported":1758705080,"current_range_meters":12400,"station_id":"ce4bhl12rcd13ifvqgf0","pricing_plan_id":"cebpf4jnsgd1na2vs0mg"},{"bike_id":"a740e6c6-76f8-48cb-b6fe-e70d48f6ba79","system_id":"levelo_inurba_marseille","lat":43.291988,"lon":5.393192,"is_reserved":false,"is_disabled":true,"rental_uris":{"android":"levelo://app?vid=a740e6c6-76f8-48cb-b6fe-e70d48f6ba79","ios":"levelo://app?vid=a740e6c6-76f8-48cb-b6fe-e70d48f6ba79"},"vehicle_type_id":"4","last_reported":1758705080,"current_range_meters":12800,"station_id":"ce4bh192rcd13ifvqdd0","pricing_plan_id":"cebpf4jnsgd1na2vs0mg"},{"bike_id":"d45e55fd-bdef-4148-a4fe-c963d9428301","system_id":"levelo_inurba_marseille","lat":43.259241,"lon":5.408991,"is_reserved":false,"is_disabled":false,"rental_uris":{"android":"levelo://app?vid=d45e55fd-bdef-4148-a4fe-c963d9428301","ios":"levelo://app?vid=d45e55fd-bdef-4148-a4fe-c963d9428301"},"vehicle_type_id":"4","last_reported":1758705080,"current_range_meters":12800,"station_id":"ce4bhm92rcd13ifvqglg","pricing_plan_id":"cebpf4jnsgd1na2vs0mg"},{"bike_id":"5ba63f7e-3ad9-48c1-b258-aa24eedf3704","system_id":"levelo_inurba_marseille","lat":43.30556,"lon":5.36551,"is_reserved":false,"is_disabled":false,"rental_uris":{"android":"levelo://app?vid=5ba63f7e-3ad9-48c1-b258-aa24eedf3704","ios":"levelo://app?vid=5ba63f7e-3ad9-48c1-b258-aa24eedf3704"},"vehicle_type_id":"4","last_reported":1758705080,"current_range_meters":12800,"station_id":"ce4bgs12rcd13ifvqcag","pricing_plan_id":"cebpf4jnsgd1na2vs0mg"},{"bike_id":"9feb0e0f-24fa-4463-b0f3-30472830c043","system_id":"levelo_inurba_marseille","lat":43.31757,"lon":5.39002,"is_reserved":false,"is_disabled":false,"rental_uris":{"android":"levelo://app?vid=9feb0e0f-24fa-4463-b0f3-30472830c043","ios":"levelo://app?vid=9feb0e0f-24fa-4463-b0f3-30472830c043"},"vehicle_type_id":"4","last_reported":1758705080,"current_range_meters":13600,"station_id":"ce4bhqp2rcd13ifvqhng","pricing_plan_id":"cebpf4jnsgd1na2vs0mg"},{"bike_id":"e76ba9e9-1d13-4c6d-8c30-52611500a175","system_id":"levelo_inurba_marseille","lat":43.29843,"lon":5.36275,"is_reserved":false,"is_disabled":false,"rental_uris":{"android":"levelo://app?vid=e76ba9e9-1d13-4c6d-8c30-52611500a175","ios":"levelo://app?vid=e76ba9e9-1d13-4c6d-8c30-52611500a175"},"vehicle_type_id":"4","last_reported":1758705080,"current_range_meters":13600,"station_id":"ce4bgpp2rcd13ifvqc3g","pricing_plan_id":"cebpf4jnsgd1na2vs0mg"},{"bike_id":"775d2ad5-89ec-4ca2-aad6-292d6d92b011","system_id":"levelo_inurba_marseille","lat":43.32473,"lon":5.36553,"is_reserved":false,"is_disabled":false,"rental_uris":{"android":"levelo://app?vid=775d2ad5-89ec-4ca2-aad6-292d6d92b011","ios":"levelo://app?vid=775d2ad5-89ec-4ca2-aad6-292d6d92b011"},"vehicle_type_id":"4","last_reported":1758705080,"current_range_meters":13600,"station_id":"ce4bhs12rcd13ifvqhvg","pricing_plan_id":"cebpf4jnsgd1na2vs0mg"},{"bike_id":"67524f51-5bef-4f33-957d-d40e31902509","system_id":"levelo_inurba_marseille","lat":43.278987,"lon":5.381971,"is_reserved":false,"is_disabled":false,"rental_uris":{"android":"levelo://app?vid=67524f51-5bef-4f33-957d-d40e31902509","ios":"levelo://app?vid=67524f51-5bef-4f33-957d-d40e31902509"},"vehicle_type_id":"4","last_reported":1758705080,"current_range_meters":13600,"station_id":"ce4bhf92rcd13ifvqf50","pricing_plan_id":"cebpf4jnsgd1na2vs0mg"},{"bike_id":"ac84aaae-c3eb-4db9-972a-fd754e485c90","system_id":"levelo_inurba_marseille","lat":43.32046,"lon":5.41567,"is_reserved":false,"is_disabled":false,"rental_uris":{"android":"levelo://app?vid=ac84aaae-c3eb-4db9-972a-fd754e485c90","ios":"levelo://app?vid=ac84aaae-c3eb-4db9-972a-fd754e485c90"},"vehicle_type_id":"4","last_reported":1758705080,"current_range_meters":13600,"station_id":"ce4bhq92rcd13ifvqhkg","pricing_plan_id":"cebpf4jnsgd1na2vs0mg"},{"bike_id":"b34b7137-f457-4e6f-a393-9887b00a74d6","system_id":"levelo_inurba_marseille","lat":43.30144,"lon":5.38088,"is_reserved":false,"is_disabled":false,"rental_uris":{"android":"levelo://app?vid=b34b7137-f457-4e6f-a393-9887b00a74d6","ios":"levelo://app?vid=b34b7137-f457-4e6f-a393-9887b00a74d6"},"vehicle_type_id":"4","last_reported":1758705080,"current_range_meters":13600,"station_id":"ce4bgjp2rcd13ifvqbh0","pricing_plan_id":"cebpf4jnsgd1na2vs0mg"},{"bike_id":"06a4186e-4c46-48d1-ad28-d4f759fac563","system_id":"levelo_inurba_marseille","lat":43.29974,"lon":5.37179,"is_reserved":false,"is_disabled":false,"rental_uris":{"android":"levelo://app?vid=06a4186e-4c46-48d1-ad28-d4f759fac563","ios":"levelo://app?vid=06a4186e-4c46-48d1-ad28-d4f759fac563"},"vehicle_type_id":"4","last_reported":1758705080,"current_range_meters":13600,"station_id":"ce4bgr92rcd13ifvqc7g","pricing_plan_id":"cebpf4jnsgd1na2vs0mg"},{"bike_id":"438ead59-de14-4fa0-a61d-03a70a4122ae","system_id":"levelo_inurba_marseille","lat":43.97269,"lon":4.89111,"is_reserved":false,"is_disabled":true,"rental_uris":{"android":"levelo://app?vid=438ead59-de14-4fa0-a61d-03a70a4122ae","ios":"levelo://app?vid=438ead59-de14-4fa0-a61d-03a70a4122ae"},"vehicle_type_id":"4","last_reported":1758705080,"current_range_meters":13600,"station_id":"","pricing_plan_id":"cebpf4jnsgd1na2vs0mg"},{"bike_id":"4ea71d83-c74b-45e0-95a5-e4c77af55e88","system_id":"levelo_inurba_marseille","lat":43.321,"lon":5.36779,"is_reserved":false,"is_disabled":false,"rental_uris":{"android":"levelo://app?vid=4ea71d83-c74b-45e0-95a5-e4c77af55e88","ios":"levelo://app?vid=4ea71d83-c74b-45e0-95a5-e4c77af55e88"},"vehicle_type_id":"4","last_reported":1758705080,"current_range_meters":14000,"station_id":"ce4bhrh2rcd13ifvqhug","pricing_plan_id":"cebpf4jnsgd1na2vs0mg"},{"bike_id":"7e1e131e-0c6c-4714-a7c2-4840652dd87e","system_id":"levelo_inurba_marseille","lat":43.29054,"lon":5.35916,"is_reserved":false,"is_disabled":false,"rental_uris":{"android":"levelo://app?vid=7e1e131e-0c6c-4714-a7c2-4840652dd87e","ios":"levelo://app?vid=7e1e131e-0c6c-4714-a7c2-4840652dd87e"},"vehicle_type_id":"4","last_reported":1758705080,"current_range_meters":14000,"station_id":"ce4bha92rcd13ifvqeg0","pricing_plan_id":"cebpf4jnsgd1na2vs0mg"},{"bike_id":"b5097eea-9912-4be2-9cf9-14c224c5fab6","system_id":"levelo_inurba_marseille","lat":43.23193,"lon":5.35562,"is_reserved":false,"is_disabled":false,"rental_uris":{"android":"levelo://app?vid=b5097eea-9912-4be2-9cf9-14c224c5fab6","ios":"levelo://app?vid=b5097eea-9912-4be2-9cf9-14c224c5fab6"},"vehicle_type_id":"4","last_reported":1758705080,"current_range_meters":14000,"station_id":"ce4bhu92rcd13ifvqi70","pricing_plan_id":"cebpf4jnsgd1na2vs0mg"},{"bike_id":"3e6b491c-e97b-441e-93d9-d999f0e897f2","system_id":"levelo_inurba_marseille","lat":43.29577,"lon":5.36736,"is_reserved":false,"is_disabled":false,"rental_uris":{"android":"levelo://app?vid=3e6b491c-e97b-441e-93d9-d999f0e897f2","ios":"levelo://app?vid=3e6b491c-e97b-441e-93d9-d999f0e897f2"},"vehicle_type_id":"4","last_reported":1758705080,"current_range_meters":13600,"station_id":"ce4bgph2rcd13ifvqc2g","pricing_plan_id":"cebpf4jnsgd1na2vs0mg"},{"bike_id":"1e56c8c5-da61-40ea-a2c8-74243a168c10","system_id":"levelo_inurba_marseille","lat":43.299665,"lon":5.385029,"is_reserved":false,"is_disabled":false,"rental_uris":{"android":"levelo://app?vid=1e56c8c5-da61-40ea-a2c8-74243a168c10","ios":"levelo://app?vid=1e56c8c5-da61-40ea-a2c8-74243a168c10"},"vehicle_type_id":"4","last_reported":1758705080,"current_range_meters":14000,"station_id":"ce4bgt12rcd13ifvqce0","pricing_plan_id":"cebpf4jnsgd1na2vs0mg"},{"bike_id":"06c10839-75c7-457b-804b-f341157fb4f3","system_id":"levelo_inurba_marseille","lat":43.25061,"lon":5.40419,"is_reserved":false,"is_disabled":false,"rental_uris":{"android":"levelo://app?vid=06c10839-75c7-457b-804b-f341157fb4f3","ios":"levelo://app?vid=06c10839-75c7-457b-804b-f341157fb4f3"},"vehicle_type_id":"4","last_reported":1758705080,"current_range_meters":14000,"station_id":"","pricing_plan_id":"cebpf4jnsgd1na2vs0mg"},{"bike_id":"4f60849d-7e41-47e4-a340-7c7f445d6859","system_id":"levelo_inurba_marseille","lat":43.31756,"lon":5.39006,"is_reserved":false,"is_disabled":false,"rental_uris":{"android":"levelo://app?vid=4f60849d-7e41-47e4-a340-7c7f445d6859","ios":"levelo://app?vid=4f60849d-7e41-47e4-a340-7c7f445d6859"},"vehicle_type_id":"4","last_reported":1758705080,"current_range_meters":14000,"station_id":"ce4bhqp2rcd13ifvqhng","pricing_plan_id":"cebpf4jnsgd1na2vs0mg"},{"bike_id":"e36b8523-28d4-4650-bb1a-56482550ea8b","system_id":"levelo_inurba_marseille","lat":43.29775,"lon":5.38105,"is_reserved":false,"is_disabled":true,"rental_uris":{"android":"levelo://app?vid=e36b8523-28d4-4650-bb1a-56482550ea8b","ios":"levelo://app?vid=e36b8523-28d4-4650-bb1a-56482550ea8b"},"vehicle_type_id":"4","last_reported":1758705080,"current_range_meters":14000,"station_id":"","pricing_plan_id":"cebpf4jnsgd1na2vs0mg"},{"bike_id":"d68b9cdd-055c-48e6-b5c7-c6c683b923e5","system_id":"levelo_inurba_marseille","lat":43.28612,"lon":5.35104,"is_reserved":false,"is_disabled":true,"rental_uris":{"android":"levelo://app?vid=d68b9cdd-055c-48e6-b5c7-c6c683b923e5","ios":"levelo://app?vid=d68b9cdd-055c-48e6-b5c7-c6c683b923e5"},"vehicle_type_id":"4","last_reported":1758705080,"current_range_meters":14000,"station_id":"ce4bhch2rcd13ifvqeug","pricing_plan_id":"cebpf4jnsgd1na2vs0mg"},{"bike_id":"81550a7a-b471-48dc-bc67-404dc9eac132","system_id":"levelo_inurba_marseille","lat":43.29567,"lon":5.37503,"is_reserved":false,"is_disabled":false,"rental_uris":{"android":"levelo://app?vid=81550a7a-b471-48dc-bc67-404dc9eac132","ios":"levelo://app?vid=81550a7a-b471-48dc-bc67-404dc9eac132"},"vehicle_type_id":"4","last_reported":1758705080,"current_range_meters":14000,"station_id":"ce4bgh92rcd13ifvqb50","pricing_plan_id":"cebpf4jnsgd1na2vs0mg"},{"bike_id":"3f9b1775-5d55-481e-be79-078d38b09814","system_id":"levelo_inurba_marseille","lat":43.2571,"lon":5.41113,"is_reserved":false,"is_disabled":false,"rental_uris":{"android":"levelo://app?vid=3f9b1775-5d55-481e-be79-078d38b09814","ios":"levelo://app?vid=3f9b1775-5d55-481e-be79-078d38b09814"},"vehicle_type_id":"4","last_reported":1758705080,"current_range_meters":14000,"station_id":"ce4bhkp2rcd13ifvqgd0","pricing_plan_id":"cebpf4jnsgd1na2vs0mg"},{"bike_id":"2d4006e7-21c9-43f0-a094-fcaaa7f929b9","system_id":"levelo_inurba_marseille","lat":43.30483,"lon":5.36547,"is_reserved":false,"is_disabled":false,"rental_uris":{"android":"levelo://app?vid=2d4006e7-21c9-43f0-a094-fcaaa7f929b9","ios":"levelo://app?vid=2d4006e7-21c9-43f0-a094-fcaaa7f929b9"},"vehicle_type_id":"4","last_reported":1758705080,"current_range_meters":14400,"station_id":"ce4bgs12rcd13ifvqcag","pricing_plan_id":"cebpf4jnsgd1na2vs0mg"},{"bike_id":"d0ebaeb4-0509-4e9f-a02a-c09b9a9e066b","system_id":"levelo_inurba_marseille","lat":43.26671,"lon":5.38277,"is_reserved":false,"is_disabled":false,"rental_uris":{"android":"levelo://app?vid=d0ebaeb4-0509-4e9f-a02a-c09b9a9e066b","ios":"levelo://app?vid=d0ebaeb4-0509-4e9f-a02a-c09b9a9e066b"},"vehicle_type_id":"4","last_reported":1758705080,"current_range_meters":14400,"station_id":"ce4bhg92rcd13ifvqf90","pricing_plan_id":"cebpf4jnsgd1na2vs0mg"},{"bike_id":"8c0227e3-55e8-4994-aa0c-9b6ee99b7e26","system_id":"levelo_inurba_marseille","lat":43.23055,"lon":5.35484,"is_reserved":false,"is_disabled":false,"rental_uris":{"android":"levelo://app?vid=8c0227e3-55e8-4994-aa0c-9b6ee99b7e26","ios":"levelo://app?vid=8c0227e3-55e8-4994-aa0c-9b6ee99b7e26"},"vehicle_type_id":"4","last_reported":1758705080,"current_range_meters":14800,"station_id":"cpo3342slgdg3j2ifvpg","pricing_plan_id":"cebpf4jnsgd1na2vs0mg"},{"bike_id":"d5ef471c-84ed-4adf-b290-78212e76ec0a","system_id":"levelo_inurba_marseille","lat":43.27619,"lon":5.36106,"is_reserved":false,"is_disabled":false,"rental_uris":{"android":"levelo://app?vid=d5ef471c-84ed-4adf-b290-78212e76ec0a","ios":"levelo://app?vid=d5ef471c-84ed-4adf-b290-78212e76ec0a"},"vehicle_type_id":"4","last_reported":1758705080,"current_range_meters":14400,"station_id":"ce4bgj92rcd13ifvqbe0","pricing_plan_id":"cebpf4jnsgd1na2vs0mg"},{"bike_id":"90531cf1-c3c6-4374-9d7f-da4a9ea7fd92","system_id":"levelo_inurba_marseille","lat":43.29525,"lon":5.37513,"is_reserved":false,"is_disabled":false,"rental_uris":{"android":"levelo://app?vid=90531cf1-c3c6-4374-9d7f-da4a9ea7fd92","ios":"levelo://app?vid=90531cf1-c3c6-4374-9d7f-da4a9ea7fd92"},"vehicle_type_id":"4","last_reported":1758705080,"current_range_meters":14800,"station_id":"ce4bgkp2rcd13ifvqbmg","pricing_plan_id":"cebpf4jnsgd1na2vs0mg"},{"bike_id":"b48e70b2-53f1-4641-819c-a53cac59b8ed","system_id":"levelo_inurba_marseille","lat":43.258241,"lon":5.39439,"is_reserved":false,"is_disabled":false,"rental_uris":{"android":"levelo://app?vid=b48e70b2-53f1-4641-819c-a53cac59b8ed","ios":"levelo://app?vid=b48e70b2-53f1-4641-819c-a53cac59b8ed"},"vehicle_type_id":"4","last_reported":1758705080,"current_range_meters":14800,"station_id":"ce4bhip2rcd13ifvqft0","pricing_plan_id":"cebpf4jnsgd1na2vs0mg"},{"bike_id":"36b070bb-df09-4433-b99c-aab79ada22d5","system_id":"levelo_inurba_marseille","lat":43.29287,"lon":5.3744,"is_reserved":false,"is_disabled":false,"rental_uris":{"android":"levelo://app?vid=36b070bb-df09-4433-b99c-aab79ada22d5","ios":"levelo://app?vid=36b070bb-df09-4433-b99c-aab79ada22d5"},"vehicle_type_id":"4","last_reported":1758705080,"current_range_meters":14800,"station_id":"","pricing_plan_id":"cebpf4jnsgd1na2vs0mg"},{"bike_id":"ef00c611-56e3-4d87-83a8-6fad9627913a","system_id":"levelo_inurba_marseille","lat":43.308894,"lon":5.371943,"is_reserved":false,"is_disabled":false,"rental_uris":{"android":"levelo://app?vid=ef00c611-56e3-4d87-83a8-6fad9627913a","ios":"levelo://app?vid=ef00c611-56e3-4d87-83a8-6fad9627913a"},"vehicle_type_id":"4","last_reported":1758705080,"current_range_meters":15200,"station_id":"ce4bguh2rcd13ifvqckg","pricing_plan_id":"cebpf4jnsgd1na2vs0mg"},{"bike_id":"a96e0b24-5191-4e51-a3f6-3395c66ee3ad","system_id":"levelo_inurba_marseille","lat":43.3016,"lon":5.3809,"is_reserved":false,"is_disabled":false,"rental_uris":{"android":"levelo://app?vid=a96e0b24-5191-4e51-a3f6-3395c66ee3ad","ios":"levelo://app?vid=a96e0b24-5191-4e51-a3f6-3395c66ee3ad"},"vehicle_type_id":"4","last_reported":1758705080,"current_range_meters":15200,"station_id":"ce4bgjp2rcd13ifvqbh0","pricing_plan_id":"cebpf4jnsgd1na2vs0mg"},{"bike_id":"fa32ac66-1868-4621-9603-33ed57153ba3","system_id":"levelo_inurba_marseille","lat":43.29991,"lon":5.40109,"is_reserved":false,"is_disabled":false,"rental_uris":{"android":"levelo://app?vid=fa32ac66-1868-4621-9603-33ed57153ba3","ios":"levelo://app?vid=fa32ac66-1868-4621-9603-33ed57153ba3"},"vehicle_type_id":"4","last_reported":1758705080,"current_range_meters":15200,"station_id":"","pricing_plan_id":"cebpf4jnsgd1na2vs0mg"},{"bike_id":"a851cae0-b395-441e-9dd1-21300baf3396","system_id":"levelo_inurba_marseille","lat":43.31512,"lon":5.3871,"is_reserved":false,"is_disabled":false,"rental_uris":{"android":"levelo://app?vid=a851cae0-b395-441e-9dd1-21300baf3396","ios":"levelo://app?vid=a851cae0-b395-441e-9dd1-21300baf3396"},"vehicle_type_id":"4","last_reported":1758705080,"current_range_meters":15200,"station_id":"","pricing_plan_id":"cebpf4jnsgd1na2vs0mg"},{"bike_id":"6328a373-4637-4cad-b70a-68e5687281f7","system_id":"levelo_inurba_marseille","lat":43.2678,"lon":5.39417,"is_reserved":false,"is_disabled":false,"rental_uris":{"android":"levelo://app?vid=6328a373-4637-4cad-b70a-68e5687281f7","ios":"levelo://app?vid=6328a373-4637-4cad-b70a-68e5687281f7"},"vehicle_type_id":"4","last_reported":1758705080,"current_range_meters":14800,"station_id":"ce4bhh12rcd13ifvqfg0","pricing_plan_id":"cebpf4jnsgd1na2vs0mg"},{"bike_id":"528c3ca2-6e69-4088-b13a-99bd3c7e415f","system_id":"levelo_inurba_marseille","lat":43.23182,"lon":5.39983,"is_reserved":false,"is_disabled":false,"rental_uris":{"android":"levelo://app?vid=528c3ca2-6e69-4088-b13a-99bd3c7e415f","ios":"levelo://app?vid=528c3ca2-6e69-4088-b13a-99bd3c7e415f"},"vehicle_type_id":"4","last_reported":1758705080,"current_range_meters":15200,"station_id":"ce4bhn12rcd13ifvqgqg","pricing_plan_id":"cebpf4jnsgd1na2vs0mg"},{"bike_id":"c2de3646-1146-49ab-a3e8-f7695fa47dd0","system_id":"levelo_inurba_marseille","lat":43.26498,"lon":5.39069,"is_reserved":false,"is_disabled":false,"rental_uris":{"android":"levelo://app?vid=c2de3646-1146-49ab-a3e8-f7695fa47dd0","ios":"levelo://app?vid=c2de3646-1146-49ab-a3e8-f7695fa47dd0"},"vehicle_type_id":"4","last_reported":1758705080,"current_range_meters":15200,"station_id":"ce4bhe12rcd13ifvqf30","pricing_plan_id":"cebpf4jnsgd1na2vs0mg"},{"bike_id":"d2be082e-bd73-4203-addb-18871b3a9587","system_id":"levelo_inurba_marseille","lat":43.29422,"lon":5.37458,"is_reserved":false,"is_disabled":false,"rental_uris":{"android":"levelo://app?vid=d2be082e-bd73-4203-addb-18871b3a9587","ios":"levelo://app?vid=d2be082e-bd73-4203-addb-18871b3a9587"},"vehicle_type_id":"4","last_reported":1758705080,"current_range_meters":16000,"station_id":"","pricing_plan_id":"cebpf4jnsgd1na2vs0mg"},{"bike_id":"7234278d-7569-4b29-b750-3369f51b14bf","system_id":"levelo_inurba_marseille","lat":43.30461,"lon":5.37902,"is_reserved":false,"is_disabled":false,"rental_uris":{"android":"levelo://app?vid=7234278d-7569-4b29-b750-3369f51b14bf","ios":"levelo://app?vid=7234278d-7569-4b29-b750-3369f51b14bf"},"vehicle_type_id":"4","last_reported":1758705080,"current_range_meters":16000,"station_id":"ce4bgup2rcd13ifvqcn0","pricing_plan_id":"cebpf4jnsgd1na2vs0mg"},{"bike_id":"e2017298-7010-4fcc-9644-9ccfb0f46125","system_id":"levelo_inurba_marseille","lat":43.30098,"lon":5.41534,"is_reserved":false,"is_disabled":false,"rental_uris":{"android":"levelo://app?vid=e2017298-7010-4fcc-9644-9ccfb0f46125","ios":"levelo://app?vid=e2017298-7010-4fcc-9644-9ccfb0f46125"},"vehicle_type_id":"4","last_reported":1758705080,"current_range_meters":16000,"station_id":"","pricing_plan_id":"cebpf4jnsgd1na2vs0mg"},{"bike_id":"5fb726be-412e-4b65-b587-9d991ba40c42","system_id":"levelo_inurba_marseille","lat":43.21185,"lon":5.35073,"is_reserved":false,"is_disabled":false,"rental_uris":{"android":"levelo://app?vid=5fb726be-412e-4b65-b587-9d991ba40c42","ios":"levelo://app?vid=5fb726be-412e-4b65-b587-9d991ba40c42"},"vehicle_type_id":"4","last_reported":1758705080,"current_range_meters":16000,"station_id":"st_cvj6sg6p6f1abm77japg","pricing_plan_id":"cebpf4jnsgd1na2vs0mg"},{"bike_id":"3cb1dae7-6bcd-41e5-b1b7-c1d25c751a99","system_id":"levelo_inurba_marseille","lat":43.337594,"lon":5.374419,"is_reserved":false,"is_disabled":false,"rental_uris":{"android":"levelo://app?vid=3cb1dae7-6bcd-41e5-b1b7-c1d25c751a99","ios":"levelo://app?vid=3cb1dae7-6bcd-41e5-b1b7-c1d25c751a99"},"vehicle_type_id":"4","last_reported":1758705080,"current_range_meters":16400,"station_id":"","pricing_plan_id":"cebpf4jnsgd1na2vs0mg"},{"bike_id":"57b14c92-2a17-45b3-beb1-cbb460ef441b","system_id":"levelo_inurba_marseille","lat":43.23183,"lon":5.39992,"is_reserved":false,"is_disabled":false,"rental_uris":{"android":"levelo://app?vid=57b14c92-2a17-45b3-beb1-cbb460ef441b","ios":"levelo://app?vid=57b14c92-2a17-45b3-beb1-cbb460ef441b"},"vehicle_type_id":"4","last_reported":1758705080,"current_range_meters":16400,"station_id":"ce4bhn12rcd13ifvqgqg","pricing_plan_id":"cebpf4jnsgd1na2vs0mg"},{"bike_id":"fb009b43-3f01-462f-b4c8-df9f7af2e199","system_id":"levelo_inurba_marseille","lat":43.30164,"lon":5.380728,"is_reserved":false,"is_disabled":false,"rental_uris":{"android":"levelo://app?vid=fb009b43-3f01-462f-b4c8-df9f7af2e199","ios":"levelo://app?vid=fb009b43-3f01-462f-b4c8-df9f7af2e199"},"vehicle_type_id":"4","last_reported":1758705080,"current_range_meters":16400,"station_id":"ce4bgjp2rcd13ifvqbh0","pricing_plan_id":"cebpf4jnsgd1na2vs0mg"},{"bike_id":"6f8bdede-be06-4f0a-bd17-e30487a2f508","system_id":"levelo_inurba_marseille","lat":43.30238,"lon":5.4006,"is_reserved":false,"is_disabled":false,"rental_uris":{"android":"levelo://app?vid=6f8bdede-be06-4f0a-bd17-e30487a2f508","ios":"levelo://app?vid=6f8bdede-be06-4f0a-bd17-e30487a2f508"},"vehicle_type_id":"4","last_reported":1758705080,"current_range_meters":16400,"station_id":"ce4bgvh2rcd13ifvqcs0","pricing_plan_id":"cebpf4jnsgd1na2vs0mg"},{"bike_id":"522e656d-cb38-4e13-871c-d08bf441ce6b","system_id":"levelo_inurba_marseille","lat":43.32531,"lon":5.41459,"is_reserved":false,"is_disabled":false,"rental_uris":{"android":"levelo://app?vid=522e656d-cb38-4e13-871c-d08bf441ce6b","ios":"levelo://app?vid=522e656d-cb38-4e13-871c-d08bf441ce6b"},"vehicle_type_id":"4","last_reported":1758705080,"current_range_meters":16400,"station_id":"ce4bhq12rcd13ifvqhhg","pricing_plan_id":"cebpf4jnsgd1na2vs0mg"},{"bike_id":"178af37d-dd54-4cf7-b80a-b996e0f2a163","system_id":"levelo_inurba_marseille","lat":43.21208,"lon":5.35063,"is_reserved":false,"is_disabled":false,"rental_uris":{"android":"levelo://app?vid=178af37d-dd54-4cf7-b80a-b996e0f2a163","ios":"levelo://app?vid=178af37d-dd54-4cf7-b80a-b996e0f2a163"},"vehicle_type_id":"4","last_reported":1758705080,"current_range_meters":16400,"station_id":"st_cvj6sg6p6f1abm77japg","pricing_plan_id":"cebpf4jnsgd1na2vs0mg"},{"bike_id":"50c03ce7-6089-4ca2-9f23-f4c8c568a597","system_id":"levelo_inurba_marseille","lat":43.33775,"lon":5.37409,"is_reserved":false,"is_disabled":false,"rental_uris":{"android":"levelo://app?vid=50c03ce7-6089-4ca2-9f23-f4c8c568a597","ios":"levelo://app?vid=50c03ce7-6089-4ca2-9f23-f4c8c568a597"},"vehicle_type_id":"4","last_reported":1758705080,"current_range_meters":16400,"station_id":"","pricing_plan_id":"cebpf4jnsgd1na2vs0mg"},{"bike_id":"e19472f1-87e0-4943-97f3-e785d2a10054","system_id":"levelo_inurba_marseille","lat":43.28856,"lon":5.42523,"is_reserved":false,"is_disabled":false,"rental_uris":{"android":"levelo://app?vid=e19472f1-87e0-4943-97f3-e785d2a10054","ios":"levelo://app?vid=e19472f1-87e0-4943-97f3-e785d2a10054"},"vehicle_type_id":"4","last_reported":1758705080,"current_range_meters":16400,"station_id":"","pricing_plan_id":"cebpf4jnsgd1na2vs0mg"},{"bike_id":"8c29ed20-d3eb-4ff9-b2fb-332a4c6e32f4","system_id":"levelo_inurba_marseille","lat":43.26676,"lon":5.38267,"is_reserved":false,"is_disabled":false,"rental_uris":{"android":"levelo://app?vid=8c29ed20-d3eb-4ff9-b2fb-332a4c6e32f4","ios":"levelo://app?vid=8c29ed20-d3eb-4ff9-b2fb-332a4c6e32f4"},"vehicle_type_id":"4","last_reported":1758705080,"current_range_meters":16800,"station_id":"ce4bhg92rcd13ifvqf90","pricing_plan_id":"cebpf4jnsgd1na2vs0mg"},{"bike_id":"8eae954c-dab6-4303-94f5-569e1c483f62","system_id":"levelo_inurba_marseille","lat":43.29441,"lon":5.40741,"is_reserved":false,"is_disabled":false,"rental_uris":{"android":"levelo://app?vid=8eae954c-dab6-4303-94f5-569e1c483f62","ios":"levelo://app?vid=8eae954c-dab6-4303-94f5-569e1c483f62"},"vehicle_type_id":"4","last_reported":1758705080,"current_range_meters":16800,"station_id":"","pricing_plan_id":"cebpf4jnsgd1na2vs0mg"},{"bike_id":"9aa94c4f-da7c-4770-9081-a8dca3f600f4","system_id":"levelo_inurba_marseille","lat":43.27486,"lon":5.42463,"is_reserved":false,"is_disabled":false,"rental_uris":{"android":"levelo://app?vid=9aa94c4f-da7c-4770-9081-a8dca3f600f4","ios":"levelo://app?vid=9aa94c4f-da7c-4770-9081-a8dca3f600f4"},"vehicle_type_id":"4","last_reported":1758705080,"current_range_meters":16800,"station_id":"ce4bhn92rcd13ifvqgrg","pricing_plan_id":"cebpf4jnsgd1na2vs0mg"},{"bike_id":"c7f6a08b-c655-4213-b2ba-7d02e7f382fe","system_id":"levelo_inurba_marseille","lat":43.27988,"lon":5.39483,"is_reserved":false,"is_disabled":false,"rental_uris":{"android":"levelo://app?vid=c7f6a08b-c655-4213-b2ba-7d02e7f382fe","ios":"levelo://app?vid=c7f6a08b-c655-4213-b2ba-7d02e7f382fe"},"vehicle_type_id":"4","last_reported":1758705080,"current_range_meters":16800,"station_id":"","pricing_plan_id":"cebpf4jnsgd1na2vs0mg"},{"bike_id":"fb58048d-8866-472d-b180-b88733bae2bb","system_id":"levelo_inurba_marseille","lat":43.31166,"lon":5.38722,"is_reserved":false,"is_disabled":false,"rental_uris":{"android":"levelo://app?vid=fb58048d-8866-472d-b180-b88733bae2bb","ios":"levelo://app?vid=fb58048d-8866-472d-b180-b88733bae2bb"},"vehicle_type_id":"4","last_reported":1758705080,"current_range_meters":16400,"station_id":"ce4bgv12rcd13ifvqcp0","pricing_plan_id":"cebpf4jnsgd1na2vs0mg"},{"bike_id":"0d0c93a1-14ed-4e3e-a45d-cf08d8aa0d39","system_id":"levelo_inurba_marseille","lat":43.259378,"lon":5.409015,"is_reserved":false,"is_disabled":false,"rental_uris":{"android":"levelo://app?vid=0d0c93a1-14ed-4e3e-a45d-cf08d8aa0d39","ios":"levelo://app?vid=0d0c93a1-14ed-4e3e-a45d-cf08d8aa0d39"},"vehicle_type_id":"4","last_reported":1758705080,"current_range_meters":17200,"station_id":"ce4bhm92rcd13ifvqglg","pricing_plan_id":"cebpf4jnsgd1na2vs0mg"},{"bike_id":"b1c24100-f3f8-47d4-8ba8-accf2a827162","system_id":"levelo_inurba_marseille","lat":43.28293,"lon":5.35066,"is_reserved":false,"is_disabled":false,"rental_uris":{"android":"levelo://app?vid=b1c24100-f3f8-47d4-8ba8-accf2a827162","ios":"levelo://app?vid=b1c24100-f3f8-47d4-8ba8-accf2a827162"},"vehicle_type_id":"4","last_reported":1758705080,"current_range_meters":17200,"station_id":"ce4bhbp2rcd13ifvqerg","pricing_plan_id":"cebpf4jnsgd1na2vs0mg"},{"bike_id":"a0df2e1a-1d62-48c6-a1fe-9a6d9ae40dec","system_id":"levelo_inurba_marseille","lat":43.297151,"lon":5.377104,"is_reserved":false,"is_disabled":false,"rental_uris":{"android":"levelo://app?vid=a0df2e1a-1d62-48c6-a1fe-9a6d9ae40dec","ios":"levelo://app?vid=a0df2e1a-1d62-48c6-a1fe-9a6d9ae40dec"},"vehicle_type_id":"4","last_reported":1758705080,"current_range_meters":17200,"station_id":"ce4bgkh2rcd13ifvqbl0","pricing_plan_id":"cebpf4jnsgd1na2vs0mg"},{"bike_id":"22598176-374e-4fcd-a4b2-4d7f1d01a2dc","system_id":"levelo_inurba_marseille","lat":43.308903,"lon":5.371954,"is_reserved":false,"is_disabled":false,"rental_uris":{"android":"levelo://app?vid=22598176-374e-4fcd-a4b2-4d7f1d01a2dc","ios":"levelo://app?vid=22598176-374e-4fcd-a4b2-4d7f1d01a2dc"},"vehicle_type_id":"4","last_reported":1758705080,"current_range_meters":17200,"station_id":"ce4bguh2rcd13ifvqckg","pricing_plan_id":"cebpf4jnsgd1na2vs0mg"},{"bike_id":"0e9ca394-4351-4bf8-a641-f4e5215baf20","system_id":"levelo_inurba_marseille","lat":43.28274,"lon":5.35071,"is_reserved":false,"is_disabled":false,"rental_uris":{"android":"levelo://app?vid=0e9ca394-4351-4bf8-a641-f4e5215baf20","ios":"levelo://app?vid=0e9ca394-4351-4bf8-a641-f4e5215baf20"},"vehicle_type_id":"4","last_reported":1758705080,"current_range_meters":17200,"station_id":"ce4bhbp2rcd13ifvqerg","pricing_plan_id":"cebpf4jnsgd1na2vs0mg"},{"bike_id":"129c8450-4cca-4e9f-b9f6-538b0080ad49","system_id":"levelo_inurba_marseille","lat":43.32543,"lon":5.38916,"is_reserved":false,"is_disabled":false,"rental_uris":{"android":"levelo://app?vid=129c8450-4cca-4e9f-b9f6-538b0080ad49","ios":"levelo://app?vid=129c8450-4cca-4e9f-b9f6-538b0080ad49"},"vehicle_type_id":"4","last_reported":1758705080,"current_range_meters":17200,"station_id":"","pricing_plan_id":"cebpf4jnsgd1na2vs0mg"},{"bike_id":"a6e34ff3-eb30-431d-92d6-c50ebfd8c6a8","system_id":"levelo_inurba_marseille","lat":43.26213,"lon":5.3744,"is_reserved":false,"is_disabled":false,"rental_uris":{"android":"levelo://app?vid=a6e34ff3-eb30-431d-92d6-c50ebfd8c6a8","ios":"levelo://app?vid=a6e34ff3-eb30-431d-92d6-c50ebfd8c6a8"},"vehicle_type_id":"4","last_reported":1758705080,"current_range_meters":17200,"station_id":"ce4bhgp2rcd13ifvqfc0","pricing_plan_id":"cebpf4jnsgd1na2vs0mg"},{"bike_id":"b8b3ddcf-17eb-47ff-a7e2-25a225975274","system_id":"levelo_inurba_marseille","lat":43.2793,"lon":5.3959,"is_reserved":false,"is_disabled":false,"rental_uris":{"android":"levelo://app?vid=b8b3ddcf-17eb-47ff-a7e2-25a225975274","ios":"levelo://app?vid=b8b3ddcf-17eb-47ff-a7e2-25a225975274"},"vehicle_type_id":"4","last_reported":1758705080,"current_range_meters":17200,"station_id":"ce4bhf92rcd13ifvqf40","pricing_plan_id":"cebpf4jnsgd1na2vs0mg"},{"bike_id":"16a3e31e-14e7-462a-a681-b9bd4b981754","system_id":"levelo_inurba_marseille","lat":43.30541,"lon":5.36523,"is_reserved":false,"is_disabled":false,"rental_uris":{"android":"levelo://app?vid=16a3e31e-14e7-462a-a681-b9bd4b981754","ios":"levelo://app?vid=16a3e31e-14e7-462a-a681-b9bd4b981754"},"vehicle_type_id":"4","last_reported":1758705080,"current_range_meters":17200,"station_id":"ce4bgs12rcd13ifvqcag","pricing_plan_id":"cebpf4jnsgd1na2vs0mg"},{"bike_id":"9daac5d3-61aa-4838-867b-05177cf139a4","system_id":"levelo_inurba_marseille","lat":43.22569,"lon":5.41626,"is_reserved":false,"is_disabled":false,"rental_uris":{"android":"levelo://app?vid=9daac5d3-61aa-4838-867b-05177cf139a4","ios":"levelo://app?vid=9daac5d3-61aa-4838-867b-05177cf139a4"},"vehicle_type_id":"4","last_reported":1758705080,"current_range_meters":17200,"station_id":"st_d2o4gvlbi1j2169b742g","pricing_plan_id":"cebpf4jnsgd1na2vs0mg"},{"bike_id":"148e1a7b-d40b-44a2-8b3b-a86d98dd9455","system_id":"levelo_inurba_marseille","lat":43.25588,"lon":5.38235,"is_reserved":false,"is_disabled":false,"rental_uris":{"android":"levelo://app?vid=148e1a7b-d40b-44a2-8b3b-a86d98dd9455","ios":"levelo://app?vid=148e1a7b-d40b-44a2-8b3b-a86d98dd9455"},"vehicle_type_id":"4","last_reported":1758705080,"current_range_meters":17600,"station_id":"ce4bhih2rcd13ifvqfs0","pricing_plan_id":"cebpf4jnsgd1na2vs0mg"},{"bike_id":"8a828295-28e2-4f47-bc01-1374c80f32a1","system_id":"levelo_inurba_marseille","lat":43.239607,"lon":5.366352,"is_reserved":false,"is_disabled":false,"rental_uris":{"android":"levelo://app?vid=8a828295-28e2-4f47-bc01-1374c80f32a1","ios":"levelo://app?vid=8a828295-28e2-4f47-bc01-1374c80f32a1"},"vehicle_type_id":"4","last_reported":1758705080,"current_range_meters":17600,"station_id":"ce4bhi12rcd13ifvqfp0","pricing_plan_id":"cebpf4jnsgd1na2vs0mg"},{"bike_id":"6e28c473-43c7-4359-9768-11e494b67b04","system_id":"levelo_inurba_marseille","lat":43.27085,"lon":5.42303,"is_reserved":false,"is_disabled":false,"rental_uris":{"android":"levelo://app?vid=6e28c473-43c7-4359-9768-11e494b67b04","ios":"levelo://app?vid=6e28c473-43c7-4359-9768-11e494b67b04"},"vehicle_type_id":"4","last_reported":1758705080,"current_range_meters":17600,"station_id":"ce4bhk92rcd13ifvqgb0","pricing_plan_id":"cebpf4jnsgd1na2vs0mg"},{"bike_id":"cdd9250b-20c0-48e2-b45b-56204b8135aa","system_id":"levelo_inurba_marseille","lat":43.30279,"lon":5.37724,"is_reserved":false,"is_disabled":false,"rental_uris":{"android":"levelo://app?vid=cdd9250b-20c0-48e2-b45b-56204b8135aa","ios":"levelo://app?vid=cdd9250b-20c0-48e2-b45b-56204b8135aa"},"vehicle_type_id":"4","last_reported":1758705080,"current_range_meters":17600,"station_id":"ce4bguh2rcd13ifvqcj0","pricing_plan_id":"cebpf4jnsgd1na2vs0mg"},{"bike_id":"9385c901-957a-4a72-8c25-682453c983f9","system_id":"levelo_inurba_marseille","lat":43.28349,"lon":5.38104,"is_reserved":false,"is_disabled":false,"rental_uris":{"android":"levelo://app?vid=9385c901-957a-4a72-8c25-682453c983f9","ios":"levelo://app?vid=9385c901-957a-4a72-8c25-682453c983f9"},"vehicle_type_id":"4","last_reported":1758705080,"current_range_meters":16800,"station_id":"ce4bh412rcd13ifvqdr0","pricing_plan_id":"cebpf4jnsgd1na2vs0mg"},{"bike_id":"bed7bcf4-39ca-4610-8d64-a50e40de1738","system_id":"levelo_inurba_marseille","lat":43.283492,"lon":5.381018,"is_reserved":false,"is_disabled":false,"rental_uris":{"android":"levelo://app?vid=bed7bcf4-39ca-4610-8d64-a50e40de1738","ios":"levelo://app?vid=bed7bcf4-39ca-4610-8d64-a50e40de1738"},"vehicle_type_id":"4","last_reported":1758705080,"current_range_meters":18000,"station_id":"ce4bh412rcd13ifvqdr0","pricing_plan_id":"cebpf4jnsgd1na2vs0mg"},{"bike_id":"67e63637-48d5-4c5a-be76-c75a56ece116","system_id":"levelo_inurba_marseille","lat":43.26683,"lon":5.38278,"is_reserved":false,"is_disabled":false,"rental_uris":{"android":"levelo://app?vid=67e63637-48d5-4c5a-be76-c75a56ece116","ios":"levelo://app?vid=67e63637-48d5-4c5a-be76-c75a56ece116"},"vehicle_type_id":"4","last_reported":1758705080,"current_range_meters":18000,"station_id":"ce4bhg92rcd13ifvqf90","pricing_plan_id":"cebpf4jnsgd1na2vs0mg"},{"bike_id":"933b8929-c48d-4c87-90f2-6f4b1b2e0ed3","system_id":"levelo_inurba_marseille","lat":43.26944,"lon":5.38638,"is_reserved":false,"is_disabled":false,"rental_uris":{"android":"levelo://app?vid=933b8929-c48d-4c87-90f2-6f4b1b2e0ed3","ios":"levelo://app?vid=933b8929-c48d-4c87-90f2-6f4b1b2e0ed3"},"vehicle_type_id":"4","last_reported":1758705080,"current_range_meters":18000,"station_id":"ce4bhh92rcd13ifvqfh0","pricing_plan_id":"cebpf4jnsgd1na2vs0mg"},{"bike_id":"d184006b-6edf-430f-a427-b6017c3480db","system_id":"levelo_inurba_marseille","lat":43.27204,"lon":5.39118,"is_reserved":false,"is_disabled":false,"rental_uris":{"android":"levelo://app?vid=d184006b-6edf-430f-a427-b6017c3480db","ios":"levelo://app?vid=d184006b-6edf-430f-a427-b6017c3480db"},"vehicle_type_id":"4","last_reported":1758705080,"current_range_meters":18000,"station_id":"ce4bhhp2rcd13ifvqfm0","pricing_plan_id":"cebpf4jnsgd1na2vs0mg"},{"bike_id":"e3485370-4267-40d2-baa1-aac3126cd3bd","system_id":"levelo_inurba_marseille","lat":43.25709,"lon":5.41106,"is_reserved":false,"is_disabled":false,"rental_uris":{"android":"levelo://app?vid=e3485370-4267-40d2-baa1-aac3126cd3bd","ios":"levelo://app?vid=e3485370-4267-40d2-baa1-aac3126cd3bd"},"vehicle_type_id":"4","last_reported":1758705080,"current_range_meters":18000,"station_id":"ce4bhkp2rcd13ifvqgd0","pricing_plan_id":"cebpf4jnsgd1na2vs0mg"},{"bike_id":"2bd2a176-8590-4e06-8b8c-a96b49b7b36a","system_id":"levelo_inurba_marseille","lat":43.262237,"lon":5.404538,"is_reserved":false,"is_disabled":false,"rental_uris":{"android":"levelo://app?vid=2bd2a176-8590-4e06-8b8c-a96b49b7b36a","ios":"levelo://app?vid=2bd2a176-8590-4e06-8b8c-a96b49b7b36a"},"vehicle_type_id":"4","last_reported":1758705080,"current_range_meters":18000,"station_id":"","pricing_plan_id":"cebpf4jnsgd1na2vs0mg"},{"bike_id":"6ce97256-6e29-4ee4-b817-ac92bdd5aea1","system_id":"levelo_inurba_marseille","lat":43.22534,"lon":5.34835,"is_reserved":false,"is_disabled":false,"rental_uris":{"android":"levelo://app?vid=6ce97256-6e29-4ee4-b817-ac92bdd5aea1","ios":"levelo://app?vid=6ce97256-6e29-4ee4-b817-ac92bdd5aea1"},"vehicle_type_id":"4","last_reported":1758705080,"current_range_meters":18000,"station_id":"","pricing_plan_id":"cebpf4jnsgd1na2vs0mg"},{"bike_id":"16d9a464-95f6-4241-939a-8d28eb548d4d","system_id":"levelo_inurba_marseille","lat":43.28614,"lon":5.35099,"is_reserved":false,"is_disabled":true,"rental_uris":{"android":"levelo://app?vid=16d9a464-95f6-4241-939a-8d28eb548d4d","ios":"levelo://app?vid=16d9a464-95f6-4241-939a-8d28eb548d4d"},"vehicle_type_id":"4","last_reported":1758705080,"current_range_meters":18000,"station_id":"ce4bhch2rcd13ifvqeug","pricing_plan_id":"cebpf4jnsgd1na2vs0mg"},{"bike_id":"77f2f510-4ad2-4d18-ad9b-7a9b96f26767","system_id":"levelo_inurba_marseille","lat":43.27983,"lon":5.38754,"is_reserved":false,"is_disabled":false,"rental_uris":{"android":"levelo://app?vid=77f2f510-4ad2-4d18-ad9b-7a9b96f26767","ios":"levelo://app?vid=77f2f510-4ad2-4d18-ad9b-7a9b96f26767"},"vehicle_type_id":"4","last_reported":1758705080,"current_range_meters":18000,"station_id":"ce4bhg12rcd13ifvqf80","pricing_plan_id":"cebpf4jnsgd1na2vs0mg"},{"bike_id":"1bb616ca-3720-400d-bb8e-b6a7213808f8","system_id":"levelo_inurba_marseille","lat":43.2678,"lon":5.39411,"is_reserved":false,"is_disabled":false,"rental_uris":{"android":"levelo://app?vid=1bb616ca-3720-400d-bb8e-b6a7213808f8","ios":"levelo://app?vid=1bb616ca-3720-400d-bb8e-b6a7213808f8"},"vehicle_type_id":"4","last_reported":1758705080,"current_range_meters":17600,"station_id":"ce4bhh12rcd13ifvqfg0","pricing_plan_id":"cebpf4jnsgd1na2vs0mg"},{"bike_id":"830192b3-dc60-4894-ac03-722920c5710a","system_id":"levelo_inurba_marseille","lat":43.25928,"lon":5.40902,"is_reserved":false,"is_disabled":false,"rental_uris":{"android":"levelo://app?vid=830192b3-dc60-4894-ac03-722920c5710a","ios":"levelo://app?vid=830192b3-dc60-4894-ac03-722920c5710a"},"vehicle_type_id":"4","last_reported":1758705080,"current_range_meters":18000,"station_id":"ce4bhm92rcd13ifvqglg","pricing_plan_id":"cebpf4jnsgd1na2vs0mg"},{"bike_id":"e7e23a3e-f475-4695-97a8-d2c8537765a4","system_id":"levelo_inurba_marseille","lat":43.296347,"lon":5.405966,"is_reserved":false,"is_disabled":false,"rental_uris":{"android":"levelo://app?vid=e7e23a3e-f475-4695-97a8-d2c8537765a4","ios":"levelo://app?vid=e7e23a3e-f475-4695-97a8-d2c8537765a4"},"vehicle_type_id":"4","last_reported":1758705080,"current_range_meters":18000,"station_id":"ce4bh0h2rcd13ifvqd60","pricing_plan_id":"cebpf4jnsgd1na2vs0mg"},{"bike_id":"0c2ef951-5318-4136-ae45-1c046a4dbcff","system_id":"levelo_inurba_marseille","lat":43.28994,"lon":5.37839,"is_reserved":false,"is_disabled":false,"rental_uris":{"android":"levelo://app?vid=0c2ef951-5318-4136-ae45-1c046a4dbcff","ios":"levelo://app?vid=0c2ef951-5318-4136-ae45-1c046a4dbcff"},"vehicle_type_id":"4","last_reported":1758705080,"current_range_meters":18000,"station_id":"ce4bh9p2rcd13ifvqed0","pricing_plan_id":"cebpf4jnsgd1na2vs0mg"},{"bike_id":"a6ad0c6c-868d-42f3-ba54-573e1a175a36","system_id":"levelo_inurba_marseille","lat":43.26265,"lon":5.41298,"is_reserved":false,"is_disabled":false,"rental_uris":{"android":"levelo://app?vid=a6ad0c6c-868d-42f3-ba54-573e1a175a36","ios":"levelo://app?vid=a6ad0c6c-868d-42f3-ba54-573e1a175a36"},"vehicle_type_id":"4","last_reported":1758705080,"current_range_meters":18000,"station_id":"","pricing_plan_id":"cebpf4jnsgd1na2vs0mg"},{"bike_id":"8353488b-27d1-4657-88aa-31403d6b0301","system_id":"levelo_inurba_marseille","lat":43.305927,"lon":5.372126,"is_reserved":false,"is_disabled":false,"rental_uris":{"android":"levelo://app?vid=8353488b-27d1-4657-88aa-31403d6b0301","ios":"levelo://app?vid=8353488b-27d1-4657-88aa-31403d6b0301"},"vehicle_type_id":"4","last_reported":1758705080,"current_range_meters":18000,"station_id":"ce4bgqh2rcd13ifvqc4g","pricing_plan_id":"cebpf4jnsgd1na2vs0mg"},{"bike_id":"003515e8-8117-44bb-979d-5f47e8d50fda","system_id":"levelo_inurba_marseille","lat":43.30626,"lon":5.37568,"is_reserved":false,"is_disabled":false,"rental_uris":{"android":"levelo://app?vid=003515e8-8117-44bb-979d-5f47e8d50fda","ios":"levelo://app?vid=003515e8-8117-44bb-979d-5f47e8d50fda"},"vehicle_type_id":"4","last_reported":1758705080,"current_range_meters":18800,"station_id":"","pricing_plan_id":"cebpf4jnsgd1na2vs0mg"},{"bike_id":"5b2e4301-8a04-44b6-bb74-5f97ee4e1633","system_id":"levelo_inurba_marseille","lat":43.259368,"lon":5.408884,"is_reserved":false,"is_disabled":false,"rental_uris":{"android":"levelo://app?vid=5b2e4301-8a04-44b6-bb74-5f97ee4e1633","ios":"levelo://app?vid=5b2e4301-8a04-44b6-bb74-5f97ee4e1633"},"vehicle_type_id":"4","last_reported":1758705080,"current_range_meters":18800,"station_id":"ce4bhm92rcd13ifvqglg","pricing_plan_id":"cebpf4jnsgd1na2vs0mg"},{"bike_id":"0bb6f47a-232d-40fa-8b85-7b85c4e2cc1f","system_id":"levelo_inurba_marseille","lat":43.27227,"lon":5.39193,"is_reserved":false,"is_disabled":false,"rental_uris":{"android":"levelo://app?vid=0bb6f47a-232d-40fa-8b85-7b85c4e2cc1f","ios":"levelo://app?vid=0bb6f47a-232d-40fa-8b85-7b85c4e2cc1f"},"vehicle_type_id":"4","last_reported":1758705080,"current_range_meters":18800,"station_id":"ce4bhhp2rcd13ifvqfm0","pricing_plan_id":"cebpf4jnsgd1na2vs0mg"},{"bike_id":"2b644e71-e910-47c3-bc22-6ae07a295fb4","system_id":"levelo_inurba_marseille","lat":43.29271,"lon":5.37629,"is_reserved":false,"is_disabled":false,"rental_uris":{"android":"levelo://app?vid=2b644e71-e910-47c3-bc22-6ae07a295fb4","ios":"levelo://app?vid=2b644e71-e910-47c3-bc22-6ae07a295fb4"},"vehicle_type_id":"4","last_reported":1758705080,"current_range_meters":18800,"station_id":"ce4bgi12rcd13ifvqb80","pricing_plan_id":"cebpf4jnsgd1na2vs0mg"},{"bike_id":"a25b12c3-337f-4835-a9ae-b042ddb7b42d","system_id":"levelo_inurba_marseille","lat":43.24387,"lon":5.370592,"is_reserved":false,"is_disabled":false,"rental_uris":{"android":"levelo://app?vid=a25b12c3-337f-4835-a9ae-b042ddb7b42d","ios":"levelo://app?vid=a25b12c3-337f-4835-a9ae-b042ddb7b42d"},"vehicle_type_id":"4","last_reported":1758705080,"current_range_meters":18800,"station_id":"ce4bhhh2rcd13ifvqfk0","pricing_plan_id":"cebpf4jnsgd1na2vs0mg"},{"bike_id":"c5e35d50-1334-4251-9e23-b568a1a449ad","system_id":"levelo_inurba_marseille","lat":43.30271,"lon":5.37699,"is_reserved":false,"is_disabled":false,"rental_uris":{"android":"levelo://app?vid=c5e35d50-1334-4251-9e23-b568a1a449ad","ios":"levelo://app?vid=c5e35d50-1334-4251-9e23-b568a1a449ad"},"vehicle_type_id":"4","last_reported":1758705080,"current_range_meters":18800,"station_id":"ce4bguh2rcd13ifvqcj0","pricing_plan_id":"cebpf4jnsgd1na2vs0mg"},{"bike_id":"53812b58-9ac3-431d-9ae0-cf5a2600f457","system_id":"levelo_inurba_marseille","lat":43.27003,"lon":5.36593,"is_reserved":false,"is_disabled":false,"rental_uris":{"android":"levelo://app?vid=53812b58-9ac3-431d-9ae0-cf5a2600f457","ios":"levelo://app?vid=53812b58-9ac3-431d-9ae0-cf5a2600f457"},"vehicle_type_id":"4","last_reported":1758705080,"current_range_meters":19200,"station_id":"","pricing_plan_id":"cebpf4jnsgd1na2vs0mg"},{"bike_id":"b33afcb9-323b-4b25-b34a-d7ff770bee10","system_id":"levelo_inurba_marseille","lat":43.25911,"lon":5.40894,"is_reserved":false,"is_disabled":false,"rental_uris":{"android":"levelo://app?vid=b33afcb9-323b-4b25-b34a-d7ff770bee10","ios":"levelo://app?vid=b33afcb9-323b-4b25-b34a-d7ff770bee10"},"vehicle_type_id":"4","last_reported":1758705080,"current_range_meters":19200,"station_id":"ce4bhm92rcd13ifvqglg","pricing_plan_id":"cebpf4jnsgd1na2vs0mg"},{"bike_id":"429b97eb-f7cc-4d35-b219-e8e26e3f47e0","system_id":"levelo_inurba_marseille","lat":43.25907,"lon":5.40886,"is_reserved":false,"is_disabled":false,"rental_uris":{"android":"levelo://app?vid=429b97eb-f7cc-4d35-b219-e8e26e3f47e0","ios":"levelo://app?vid=429b97eb-f7cc-4d35-b219-e8e26e3f47e0"},"vehicle_type_id":"4","last_reported":1758705080,"current_range_meters":19200,"station_id":"ce4bhm92rcd13ifvqglg","pricing_plan_id":"cebpf4jnsgd1na2vs0mg"},{"bike_id":"a18e322d-fd1b-4845-af86-bddb5255e783","system_id":"levelo_inurba_marseille","lat":43.325373,"lon":5.414387,"is_reserved":false,"is_disabled":false,"rental_uris":{"android":"levelo://app?vid=a18e322d-fd1b-4845-af86-bddb5255e783","ios":"levelo://app?vid=a18e322d-fd1b-4845-af86-bddb5255e783"},"vehicle_type_id":"4","last_reported":1758705080,"current_range_meters":19200,"station_id":"ce4bhq12rcd13ifvqhhg","pricing_plan_id":"cebpf4jnsgd1na2vs0mg"},{"bike_id":"173a8f92-d156-417c-825f-fc3f477b8569","system_id":"levelo_inurba_marseille","lat":43.30546,"lon":5.36561,"is_reserved":false,"is_disabled":false,"rental_uris":{"android":"levelo://app?vid=173a8f92-d156-417c-825f-fc3f477b8569","ios":"levelo://app?vid=173a8f92-d156-417c-825f-fc3f477b8569"},"vehicle_type_id":"4","last_reported":1758705080,"current_range_meters":19200,"station_id":"ce4bgs12rcd13ifvqcag","pricing_plan_id":"cebpf4jnsgd1na2vs0mg"},{"bike_id":"e8e0a80f-25dc-47ab-ae8b-3cbce8fbad61","system_id":"levelo_inurba_marseille","lat":43.24164,"lon":5.39701,"is_reserved":false,"is_disabled":false,"rental_uris":{"android":"levelo://app?vid=e8e0a80f-25dc-47ab-ae8b-3cbce8fbad61","ios":"levelo://app?vid=e8e0a80f-25dc-47ab-ae8b-3cbce8fbad61"},"vehicle_type_id":"4","last_reported":1758705080,"current_range_meters":19200,"station_id":"ce4bhn12rcd13ifvqgpg","pricing_plan_id":"cebpf4jnsgd1na2vs0mg"},{"bike_id":"257b6117-3f52-4ac5-8ca0-24bed9a2362a","system_id":"levelo_inurba_marseille","lat":43.26954,"lon":5.3863,"is_reserved":false,"is_disabled":false,"rental_uris":{"android":"levelo://app?vid=257b6117-3f52-4ac5-8ca0-24bed9a2362a","ios":"levelo://app?vid=257b6117-3f52-4ac5-8ca0-24bed9a2362a"},"vehicle_type_id":"4","last_reported":1758705080,"current_range_meters":19200,"station_id":"ce4bhh92rcd13ifvqfh0","pricing_plan_id":"cebpf4jnsgd1na2vs0mg"},{"bike_id":"2c0bb87d-f7a9-49ca-b7cc-f889de120f01","system_id":"levelo_inurba_marseille","lat":43.2937,"lon":5.37836,"is_reserved":false,"is_disabled":false,"rental_uris":{"android":"levelo://app?vid=2c0bb87d-f7a9-49ca-b7cc-f889de120f01","ios":"levelo://app?vid=2c0bb87d-f7a9-49ca-b7cc-f889de120f01"},"vehicle_type_id":"4","last_reported":1758705080,"current_range_meters":19200,"station_id":"ce4bgjh2rcd13ifvqbf0","pricing_plan_id":"cebpf4jnsgd1na2vs0mg"},{"bike_id":"6803ca3c-a64e-44c1-bb73-852abd0a4df3","system_id":"levelo_inurba_marseille","lat":43.26656,"lon":5.38271,"is_reserved":false,"is_disabled":false,"rental_uris":{"android":"levelo://app?vid=6803ca3c-a64e-44c1-bb73-852abd0a4df3","ios":"levelo://app?vid=6803ca3c-a64e-44c1-bb73-852abd0a4df3"},"vehicle_type_id":"4","last_reported":1758705080,"current_range_meters":19200,"station_id":"ce4bhg92rcd13ifvqf90","pricing_plan_id":"cebpf4jnsgd1na2vs0mg"},{"bike_id":"942c48de-c56c-48fe-85de-fbd6e81eab59","system_id":"levelo_inurba_marseille","lat":43.28716,"lon":5.37943,"is_reserved":false,"is_disabled":false,"rental_uris":{"android":"levelo://app?vid=942c48de-c56c-48fe-85de-fbd6e81eab59","ios":"levelo://app?vid=942c48de-c56c-48fe-85de-fbd6e81eab59"},"vehicle_type_id":"4","last_reported":1758705080,"current_range_meters":19200,"station_id":"ce4bh9p2rcd13ifvqec0","pricing_plan_id":"cebpf4jnsgd1na2vs0mg"},{"bike_id":"cbffa1ac-98d6-4cc2-87a0-04642a871cda","system_id":"levelo_inurba_marseille","lat":43.30137,"lon":5.37416,"is_reserved":false,"is_disabled":false,"rental_uris":{"android":"levelo://app?vid=cbffa1ac-98d6-4cc2-87a0-04642a871cda","ios":"levelo://app?vid=cbffa1ac-98d6-4cc2-87a0-04642a871cda"},"vehicle_type_id":"4","last_reported":1758705080,"current_range_meters":19200,"station_id":"ce4bgs92rcd13ifvqcc0","pricing_plan_id":"cebpf4jnsgd1na2vs0mg"},{"bike_id":"1df49bbf-3961-4fe5-b358-8ab4ccaa4d93","system_id":"levelo_inurba_marseille","lat":43.27664,"lon":5.38914,"is_reserved":false,"is_disabled":false,"rental_uris":{"android":"levelo://app?vid=1df49bbf-3961-4fe5-b358-8ab4ccaa4d93","ios":"levelo://app?vid=1df49bbf-3961-4fe5-b358-8ab4ccaa4d93"},"vehicle_type_id":"4","last_reported":1758705080,"current_range_meters":19200,"station_id":"ce4bhi12rcd13ifvqfo0","pricing_plan_id":"cebpf4jnsgd1na2vs0mg"},{"bike_id":"cdb840f3-312e-40e5-b10f-6c6dab22efa8","system_id":"levelo_inurba_marseille","lat":43.304634,"lon":5.378993,"is_reserved":false,"is_disabled":false,"rental_uris":{"android":"levelo://app?vid=cdb840f3-312e-40e5-b10f-6c6dab22efa8","ios":"levelo://app?vid=cdb840f3-312e-40e5-b10f-6c6dab22efa8"},"vehicle_type_id":"4","last_reported":1758705080,"current_range_meters":18800,"station_id":"ce4bgup2rcd13ifvqcn0","pricing_plan_id":"cebpf4jnsgd1na2vs0mg"},{"bike_id":"d4b33841-be4c-4864-91b8-475aaf9a7f71","system_id":"levelo_inurba_marseille","lat":43.26679,"lon":5.38263,"is_reserved":false,"is_disabled":false,"rental_uris":{"android":"levelo://app?vid=d4b33841-be4c-4864-91b8-475aaf9a7f71","ios":"levelo://app?vid=d4b33841-be4c-4864-91b8-475aaf9a7f71"},"vehicle_type_id":"4","last_reported":1758705080,"current_range_meters":19200,"station_id":"ce4bhg92rcd13ifvqf90","pricing_plan_id":"cebpf4jnsgd1na2vs0mg"},{"bike_id":"327c041e-5c9e-4b0d-a97c-a2dbaab036ae","system_id":"levelo_inurba_marseille","lat":43.325652,"lon":5.411012,"is_reserved":false,"is_disabled":false,"rental_uris":{"android":"levelo://app?vid=327c041e-5c9e-4b0d-a97c-a2dbaab036ae","ios":"levelo://app?vid=327c041e-5c9e-4b0d-a97c-a2dbaab036ae"},"vehicle_type_id":"4","last_reported":1758705080,"current_range_meters":19600,"station_id":"","pricing_plan_id":"cebpf4jnsgd1na2vs0mg"},{"bike_id":"d087f77a-406c-4d5a-be43-4950dac65ee4","system_id":"levelo_inurba_marseille","lat":43.24391,"lon":5.37045,"is_reserved":false,"is_disabled":false,"rental_uris":{"android":"levelo://app?vid=d087f77a-406c-4d5a-be43-4950dac65ee4","ios":"levelo://app?vid=d087f77a-406c-4d5a-be43-4950dac65ee4"},"vehicle_type_id":"4","last_reported":1758705080,"current_range_meters":19600,"station_id":"ce4bhhh2rcd13ifvqfk0","pricing_plan_id":"cebpf4jnsgd1na2vs0mg"},{"bike_id":"b2316bf7-2cf2-42da-9a0b-5256ee1be1a0","system_id":"levelo_inurba_marseille","lat":43.3035,"lon":5.41881,"is_reserved":false,"is_disabled":false,"rental_uris":{"android":"levelo://app?vid=b2316bf7-2cf2-42da-9a0b-5256ee1be1a0","ios":"levelo://app?vid=b2316bf7-2cf2-42da-9a0b-5256ee1be1a0"},"vehicle_type_id":"4","last_reported":1758705080,"current_range_meters":19600,"station_id":"ce4bhop2rcd13ifvqh7g","pricing_plan_id":"cebpf4jnsgd1na2vs0mg"},{"bike_id":"9ad67f25-172f-4562-8f8e-dcc023c41300","system_id":"levelo_inurba_marseille","lat":43.30944,"lon":5.39033,"is_reserved":false,"is_disabled":false,"rental_uris":{"android":"levelo://app?vid=9ad67f25-172f-4562-8f8e-dcc023c41300","ios":"levelo://app?vid=9ad67f25-172f-4562-8f8e-dcc023c41300"},"vehicle_type_id":"4","last_reported":1758705080,"current_range_meters":19600,"station_id":"ce4bgup2rcd13ifvqco0","pricing_plan_id":"cebpf4jnsgd1na2vs0mg"},{"bike_id":"28c88dbd-9da7-4de2-8d6f-292480000a32","system_id":"levelo_inurba_marseille","lat":43.31067,"lon":5.38347,"is_reserved":false,"is_disabled":true,"rental_uris":{"android":"levelo://app?vid=28c88dbd-9da7-4de2-8d6f-292480000a32","ios":"levelo://app?vid=28c88dbd-9da7-4de2-8d6f-292480000a32"},"vehicle_type_id":"4","last_reported":1758705080,"current_range_meters":19600,"station_id":"ce4bgv92rcd13ifvqcr0","pricing_plan_id":"cebpf4jnsgd1na2vs0mg"},{"bike_id":"21e43a77-c757-4773-8b05-956702f92169","system_id":"levelo_inurba_marseille","lat":43.26675,"lon":5.38279,"is_reserved":false,"is_disabled":false,"rental_uris":{"android":"levelo://app?vid=21e43a77-c757-4773-8b05-956702f92169","ios":"levelo://app?vid=21e43a77-c757-4773-8b05-956702f92169"},"vehicle_type_id":"4","last_reported":1758705080,"current_range_meters":19600,"station_id":"ce4bhg92rcd13ifvqf90","pricing_plan_id":"cebpf4jnsgd1na2vs0mg"},{"bike_id":"da4b668f-d60d-4573-abcd-c040f3309c92","system_id":"levelo_inurba_marseille","lat":43.28998,"lon":5.35609,"is_reserved":false,"is_disabled":false,"rental_uris":{"android":"levelo://app?vid=da4b668f-d60d-4573-abcd-c040f3309c92","ios":"levelo://app?vid=da4b668f-d60d-4573-abcd-c040f3309c92"},"vehicle_type_id":"4","last_reported":1758705080,"current_range_meters":19200,"station_id":"ce4bhb92rcd13ifvqen0","pricing_plan_id":"cebpf4jnsgd1na2vs0mg"},{"bike_id":"725b1ff1-3894-44f1-a38e-91bc39cbab7e","system_id":"levelo_inurba_marseille","lat":43.24641,"lon":5.43133,"is_reserved":false,"is_disabled":false,"rental_uris":{"android":"levelo://app?vid=725b1ff1-3894-44f1-a38e-91bc39cbab7e","ios":"levelo://app?vid=725b1ff1-3894-44f1-a38e-91bc39cbab7e"},"vehicle_type_id":"4","last_reported":1758705080,"current_range_meters":20000,"station_id":"st_d2m6c4gdas8pm72e190g","pricing_plan_id":"cebpf4jnsgd1na2vs0mg"},{"bike_id":"175760d5-253d-4692-91bd-1ac0c3f225e0","system_id":"levelo_inurba_marseille","lat":43.30888,"lon":5.39638,"is_reserved":false,"is_disabled":false,"rental_uris":{"android":"levelo://app?vid=175760d5-253d-4692-91bd-1ac0c3f225e0","ios":"levelo://app?vid=175760d5-253d-4692-91bd-1ac0c3f225e0"},"vehicle_type_id":"4","last_reported":1758705080,"current_range_meters":20000,"station_id":"ce4bh012rcd13ifvqcv0","pricing_plan_id":"cebpf4jnsgd1na2vs0mg"},{"bike_id":"68027ee0-4bcf-4cc3-a11b-b5a63fa1b9c3","system_id":"levelo_inurba_marseille","lat":43.29198,"lon":5.3581,"is_reserved":false,"is_disabled":false,"rental_uris":{"android":"levelo://app?vid=68027ee0-4bcf-4cc3-a11b-b5a63fa1b9c3","ios":"levelo://app?vid=68027ee0-4bcf-4cc3-a11b-b5a63fa1b9c3"},"vehicle_type_id":"4","last_reported":1758705080,"current_range_meters":20800,"station_id":"ce4bhb12rcd13ifvqel0","pricing_plan_id":"cebpf4jnsgd1na2vs0mg"},{"bike_id":"5421b11f-6375-4f74-ac12-c335a87fc8b3","system_id":"levelo_inurba_marseille","lat":43.31498,"lon":5.37296,"is_reserved":false,"is_disabled":false,"rental_uris":{"android":"levelo://app?vid=5421b11f-6375-4f74-ac12-c335a87fc8b3","ios":"levelo://app?vid=5421b11f-6375-4f74-ac12-c335a87fc8b3"},"vehicle_type_id":"4","last_reported":1758705080,"current_range_meters":20000,"station_id":"ce4bgt12rcd13ifvqcd0","pricing_plan_id":"cebpf4jnsgd1na2vs0mg"},{"bike_id":"d31d856a-933d-49cf-948f-ce03657dfc74","system_id":"levelo_inurba_marseille","lat":43.28418,"lon":5.34991,"is_reserved":false,"is_disabled":false,"rental_uris":{"android":"levelo://app?vid=d31d856a-933d-49cf-948f-ce03657dfc74","ios":"levelo://app?vid=d31d856a-933d-49cf-948f-ce03657dfc74"},"vehicle_type_id":"4","last_reported":1758705080,"current_range_meters":20000,"station_id":"ce4bhbh2rcd13ifvqepg","pricing_plan_id":"cebpf4jnsgd1na2vs0mg"},{"bike_id":"028b7ed6-f3f9-4174-b7c6-25b8c3a9d163","system_id":"levelo_inurba_marseille","lat":43.24171,"lon":5.39733,"is_reserved":false,"is_disabled":false,"rental_uris":{"android":"levelo://app?vid=028b7ed6-f3f9-4174-b7c6-25b8c3a9d163","ios":"levelo://app?vid=028b7ed6-f3f9-4174-b7c6-25b8c3a9d163"},"vehicle_type_id":"4","last_reported":1758705080,"current_range_meters":20000,"station_id":"ce4bhn12rcd13ifvqgpg","pricing_plan_id":"cebpf4jnsgd1na2vs0mg"},{"bike_id":"344f590f-c240-4165-9441-6ca9ff3a0e6f","system_id":"levelo_inurba_marseille","lat":43.30535,"lon":5.36702,"is_reserved":false,"is_disabled":false,"rental_uris":{"android":"levelo://app?vid=344f590f-c240-4165-9441-6ca9ff3a0e6f","ios":"levelo://app?vid=344f590f-c240-4165-9441-6ca9ff3a0e6f"},"vehicle_type_id":"4","last_reported":1758705080,"current_range_meters":20400,"station_id":"ce4bgrp2rcd13ifvqc9g","pricing_plan_id":"cebpf4jnsgd1na2vs0mg"},{"bike_id":"d9f0307c-6e8f-4e17-b8a1-3055457bc46e","system_id":"levelo_inurba_marseille","lat":43.28668,"lon":5.38663,"is_reserved":false,"is_disabled":false,"rental_uris":{"android":"levelo://app?vid=d9f0307c-6e8f-4e17-b8a1-3055457bc46e","ios":"levelo://app?vid=d9f0307c-6e8f-4e17-b8a1-3055457bc46e"},"vehicle_type_id":"4","last_reported":1758705080,"current_range_meters":20000,"station_id":"ce4bh492rcd13ifvqdug","pricing_plan_id":"cebpf4jnsgd1na2vs0mg"},{"bike_id":"d55f7cff-ce18-4107-992e-8cb8fb12b05f","system_id":"levelo_inurba_marseille","lat":43.23203,"lon":5.3556,"is_reserved":false,"is_disabled":false,"rental_uris":{"android":"levelo://app?vid=d55f7cff-ce18-4107-992e-8cb8fb12b05f","ios":"levelo://app?vid=d55f7cff-ce18-4107-992e-8cb8fb12b05f"},"vehicle_type_id":"4","last_reported":1758705080,"current_range_meters":20400,"station_id":"ce4bhu92rcd13ifvqi70","pricing_plan_id":"cebpf4jnsgd1na2vs0mg"},{"bike_id":"89ab370d-5bba-4eef-aa52-d5fcaccc41fb","system_id":"levelo_inurba_marseille","lat":43.24061,"lon":5.37764,"is_reserved":false,"is_disabled":false,"rental_uris":{"android":"levelo://app?vid=89ab370d-5bba-4eef-aa52-d5fcaccc41fb","ios":"levelo://app?vid=89ab370d-5bba-4eef-aa52-d5fcaccc41fb"},"vehicle_type_id":"4","last_reported":1758705080,"current_range_meters":20400,"station_id":"ce4bhnp2rcd13ifvqgvg","pricing_plan_id":"cebpf4jnsgd1na2vs0mg"},{"bike_id":"a67191e4-afd3-4c08-831c-8c0e6ad83484","system_id":"levelo_inurba_marseille","lat":43.28424,"lon":5.349791,"is_reserved":false,"is_disabled":false,"rental_uris":{"android":"levelo://app?vid=a67191e4-afd3-4c08-831c-8c0e6ad83484","ios":"levelo://app?vid=a67191e4-afd3-4c08-831c-8c0e6ad83484"},"vehicle_type_id":"4","last_reported":1758705080,"current_range_meters":20400,"station_id":"ce4bhbh2rcd13ifvqepg","pricing_plan_id":"cebpf4jnsgd1na2vs0mg"},{"bike_id":"041cd397-24ab-4e04-af23-07b961e161f4","system_id":"levelo_inurba_marseille","lat":43.337444,"lon":5.374475,"is_reserved":false,"is_disabled":false,"rental_uris":{"android":"levelo://app?vid=041cd397-24ab-4e04-af23-07b961e161f4","ios":"levelo://app?vid=041cd397-24ab-4e04-af23-07b961e161f4"},"vehicle_type_id":"4","last_reported":1758705080,"current_range_meters":20400,"station_id":"","pricing_plan_id":"cebpf4jnsgd1na2vs0mg"},{"bike_id":"734acbe4-9112-4b9c-b4e5-3449f0dbd1cc","system_id":"levelo_inurba_marseille","lat":43.30214,"lon":5.394699,"is_reserved":false,"is_disabled":false,"rental_uris":{"android":"levelo://app?vid=734acbe4-9112-4b9c-b4e5-3449f0dbd1cc","ios":"levelo://app?vid=734acbe4-9112-4b9c-b4e5-3449f0dbd1cc"},"vehicle_type_id":"4","last_reported":1758705080,"current_range_meters":20800,"station_id":"ce4bh0p2rcd13ifvqd70","pricing_plan_id":"cebpf4jnsgd1na2vs0mg"},{"bike_id":"dec5e3d0-16cf-4f61-8905-2078866bf757","system_id":"levelo_inurba_marseille","lat":43.25062,"lon":5.39525,"is_reserved":false,"is_disabled":false,"rental_uris":{"android":"levelo://app?vid=dec5e3d0-16cf-4f61-8905-2078866bf757","ios":"levelo://app?vid=dec5e3d0-16cf-4f61-8905-2078866bf757"},"vehicle_type_id":"4","last_reported":1758705080,"current_range_meters":20800,"station_id":"ce4bhm12rcd13ifvqgkg","pricing_plan_id":"cebpf4jnsgd1na2vs0mg"},{"bike_id":"69ddde94-fa47-4b27-b267-82afd62aa200","system_id":"levelo_inurba_marseille","lat":43.271965,"lon":5.362736,"is_reserved":false,"is_disabled":false,"rental_uris":{"android":"levelo://app?vid=69ddde94-fa47-4b27-b267-82afd62aa200","ios":"levelo://app?vid=69ddde94-fa47-4b27-b267-82afd62aa200"},"vehicle_type_id":"4","last_reported":1758705080,"current_range_meters":20800,"station_id":"ce4bhg12rcd13ifvqf70","pricing_plan_id":"cebpf4jnsgd1na2vs0mg"},{"bike_id":"946cf8b8-cf9a-4dcd-9e0f-9f7df30570d3","system_id":"levelo_inurba_marseille","lat":43.225588,"lon":5.416318,"is_reserved":false,"is_disabled":false,"rental_uris":{"android":"levelo://app?vid=946cf8b8-cf9a-4dcd-9e0f-9f7df30570d3","ios":"levelo://app?vid=946cf8b8-cf9a-4dcd-9e0f-9f7df30570d3"},"vehicle_type_id":"4","last_reported":1758705080,"current_range_meters":21600,"station_id":"st_d2o4gvlbi1j2169b742g","pricing_plan_id":"cebpf4jnsgd1na2vs0mg"},{"bike_id":"81743f7d-fe43-4f48-a794-bc68fd31728c","system_id":"levelo_inurba_marseille","lat":43.34156,"lon":5.4089,"is_reserved":false,"is_disabled":false,"rental_uris":{"android":"levelo://app?vid=81743f7d-fe43-4f48-a794-bc68fd31728c","ios":"levelo://app?vid=81743f7d-fe43-4f48-a794-bc68fd31728c"},"vehicle_type_id":"4","last_reported":1758705080,"current_range_meters":21600,"station_id":"ce4bhqh2rcd13ifvqhlg","pricing_plan_id":"cebpf4jnsgd1na2vs0mg"},{"bike_id":"37039d9c-4484-49e6-b052-9edb44b8bedb","system_id":"levelo_inurba_marseille","lat":43.32366,"lon":5.3676,"is_reserved":false,"is_disabled":false,"rental_uris":{"android":"levelo://app?vid=37039d9c-4484-49e6-b052-9edb44b8bedb","ios":"levelo://app?vid=37039d9c-4484-49e6-b052-9edb44b8bedb"},"vehicle_type_id":"4","last_reported":1758705080,"current_range_meters":21600,"station_id":"ce4bhsh2rcd13ifvqi2g","pricing_plan_id":"cebpf4jnsgd1na2vs0mg"},{"bike_id":"6b725c44-ca3b-4da0-88ad-54c06e55ce3d","system_id":"levelo_inurba_marseille","lat":43.239632,"lon":5.366252,"is_reserved":false,"is_disabled":false,"rental_uris":{"android":"levelo://app?vid=6b725c44-ca3b-4da0-88ad-54c06e55ce3d","ios":"levelo://app?vid=6b725c44-ca3b-4da0-88ad-54c06e55ce3d"},"vehicle_type_id":"4","last_reported":1758705080,"current_range_meters":21600,"station_id":"ce4bhi12rcd13ifvqfp0","pricing_plan_id":"cebpf4jnsgd1na2vs0mg"},{"bike_id":"049d12d6-9b69-4fa3-b828-faf08af51446","system_id":"levelo_inurba_marseille","lat":43.28857,"lon":5.42511,"is_reserved":false,"is_disabled":false,"rental_uris":{"android":"levelo://app?vid=049d12d6-9b69-4fa3-b828-faf08af51446","ios":"levelo://app?vid=049d12d6-9b69-4fa3-b828-faf08af51446"},"vehicle_type_id":"4","last_reported":1758705080,"current_range_meters":21600,"station_id":"","pricing_plan_id":"cebpf4jnsgd1na2vs0mg"},{"bike_id":"b96fdeac-4ccd-436d-9761-b092972e32fc","system_id":"levelo_inurba_marseille","lat":43.29845,"lon":5.36272,"is_reserved":false,"is_disabled":false,"rental_uris":{"android":"levelo://app?vid=b96fdeac-4ccd-436d-9761-b092972e32fc","ios":"levelo://app?vid=b96fdeac-4ccd-436d-9761-b092972e32fc"},"vehicle_type_id":"4","last_reported":1758705080,"current_range_meters":21600,"station_id":"ce4bgpp2rcd13ifvqc3g","pricing_plan_id":"cebpf4jnsgd1na2vs0mg"},{"bike_id":"3d399f3a-f440-4074-9017-60e2409fc7db","system_id":"levelo_inurba_marseille","lat":43.30135,"lon":5.38775,"is_reserved":false,"is_disabled":false,"rental_uris":{"android":"levelo://app?vid=3d399f3a-f440-4074-9017-60e2409fc7db","ios":"levelo://app?vid=3d399f3a-f440-4074-9017-60e2409fc7db"},"vehicle_type_id":"4","last_reported":1758705080,"current_range_meters":21600,"station_id":"ce4bghh2rcd13ifvqb60","pricing_plan_id":"cebpf4jnsgd1na2vs0mg"},{"bike_id":"71737bbd-095f-4d59-8f91-013604e96c34","system_id":"levelo_inurba_marseille","lat":43.25825,"lon":5.39446,"is_reserved":false,"is_disabled":false,"rental_uris":{"android":"levelo://app?vid=71737bbd-095f-4d59-8f91-013604e96c34","ios":"levelo://app?vid=71737bbd-095f-4d59-8f91-013604e96c34"},"vehicle_type_id":"4","last_reported":1758705080,"current_range_meters":21600,"station_id":"ce4bhip2rcd13ifvqft0","pricing_plan_id":"cebpf4jnsgd1na2vs0mg"},{"bike_id":"3a5ab464-6124-4a59-884a-16a2783503cf","system_id":"levelo_inurba_marseille","lat":43.29989,"lon":5.38081,"is_reserved":false,"is_disabled":false,"rental_uris":{"android":"levelo://app?vid=3a5ab464-6124-4a59-884a-16a2783503cf","ios":"levelo://app?vid=3a5ab464-6124-4a59-884a-16a2783503cf"},"vehicle_type_id":"4","last_reported":1758705080,"current_range_meters":22000,"station_id":"","pricing_plan_id":"cebpf4jnsgd1na2vs0mg"},{"bike_id":"630841ce-eab7-466a-bfcc-194b90d9eba0","system_id":"levelo_inurba_marseille","lat":43.33722,"lon":5.3919,"is_reserved":false,"is_disabled":false,"rental_uris":{"android":"levelo://app?vid=630841ce-eab7-466a-bfcc-194b90d9eba0","ios":"levelo://app?vid=630841ce-eab7-466a-bfcc-194b90d9eba0"},"vehicle_type_id":"4","last_reported":1758705080,"current_range_meters":21600,"station_id":"ce4bhr92rcd13ifvqhsg","pricing_plan_id":"cebpf4jnsgd1na2vs0mg"},{"bike_id":"4d41b255-f0d0-4e7c-92ca-cb6d582270ba","system_id":"levelo_inurba_marseille","lat":43.30127,"lon":5.39845,"is_reserved":false,"is_disabled":false,"rental_uris":{"android":"levelo://app?vid=4d41b255-f0d0-4e7c-92ca-cb6d582270ba","ios":"levelo://app?vid=4d41b255-f0d0-4e7c-92ca-cb6d582270ba"},"vehicle_type_id":"4","last_reported":1758705080,"current_range_meters":22000,"station_id":"ce4bh0h2rcd13ifvqd40","pricing_plan_id":"cebpf4jnsgd1na2vs0mg"},{"bike_id":"c9c451d9-fb39-47a0-9bad-1e64a1e845d1","system_id":"levelo_inurba_marseille","lat":43.250433,"lon":5.389177,"is_reserved":false,"is_disabled":false,"rental_uris":{"android":"levelo://app?vid=c9c451d9-fb39-47a0-9bad-1e64a1e845d1","ios":"levelo://app?vid=c9c451d9-fb39-47a0-9bad-1e64a1e845d1"},"vehicle_type_id":"4","last_reported":1758705080,"current_range_meters":21600,"station_id":"ce4bhgp2rcd13ifvqfd0","pricing_plan_id":"cebpf4jnsgd1na2vs0mg"},{"bike_id":"ad143bc4-0025-4bdb-bd8a-f4eaa8fbe22d","system_id":"levelo_inurba_marseille","lat":43.280418,"lon":5.369423,"is_reserved":false,"is_disabled":false,"rental_uris":{"android":"levelo://app?vid=ad143bc4-0025-4bdb-bd8a-f4eaa8fbe22d","ios":"levelo://app?vid=ad143bc4-0025-4bdb-bd8a-f4eaa8fbe22d"},"vehicle_type_id":"4","last_reported":1758705080,"current_range_meters":22000,"station_id":"","pricing_plan_id":"cebpf4jnsgd1na2vs0mg"},{"bike_id":"70743f52-911d-4758-8a3f-6e3bb77e0354","system_id":"levelo_inurba_marseille","lat":43.302731,"lon":5.376981,"is_reserved":false,"is_disabled":false,"rental_uris":{"android":"levelo://app?vid=70743f52-911d-4758-8a3f-6e3bb77e0354","ios":"levelo://app?vid=70743f52-911d-4758-8a3f-6e3bb77e0354"},"vehicle_type_id":"4","last_reported":1758705080,"current_range_meters":22000,"station_id":"ce4bguh2rcd13ifvqcj0","pricing_plan_id":"cebpf4jnsgd1na2vs0mg"},{"bike_id":"a57b3feb-2354-42fe-87fd-e8fcee3a0260","system_id":"levelo_inurba_marseille","lat":43.26953,"lon":5.40241,"is_reserved":false,"is_disabled":false,"rental_uris":{"android":"levelo://app?vid=a57b3feb-2354-42fe-87fd-e8fcee3a0260","ios":"levelo://app?vid=a57b3feb-2354-42fe-87fd-e8fcee3a0260"},"vehicle_type_id":"4","last_reported":1758705080,"current_range_meters":22000,"station_id":"","pricing_plan_id":"cebpf4jnsgd1na2vs0mg"},