{"last_updated":1726780110,"ttl":30,"version":"2.2","data":{"bikes":[{"bike_id":"bab5cc8a-f9f2-4ce4-aae4-e65c8cdf7666","system_id":"levelo_inurba_marseille","lat":43.30883,"lon":5.39659,"is_reserved":false,"is_disabled":false,"rental_uris":{"android":"levelo://app?vid=bab5cc8a-f9f2-4ce4-aae4-e65c8cdf7666","ios":"levelo://app?vid=bab5cc8a-f9f2-4ce4-aae4-e65c8cdf7666"},"vehicle_type_id":"4","last_reported":1726780110,"current_range_meters":32800,"station_id":"ce4bh012rcd13ifvqcv0","pricing_plan_id":"cebpf4jnsgd1na2vs0mg"},{"bike_id":"4cf03332-33ee-438c-92f2-f13f088230e7","system_id":"levelo_inurba_marseille","lat":43.290336,"lon":5.399714,"is_reserved":false,"is_disabled":false,"rental_uris":{"android":"levelo://app?vid=4cf03332-33ee-438c-92f2-f13f088230e7","ios":"levelo://app?vid=4cf03332-33ee-438c-92f2-f13f088230e7"},"vehicle_type_id":"4","last_reported":1726780110,"current_range_meters":15200,"station_id":"ce4bh392rcd13ifvqdm0","pricing_plan_id":"cebpf4jnsgd1na2vs0mg"},{"bike_id":"525e906e-5e92-4051-9a72-087d98faec29","system_id":"levelo_inurba_marseille","lat":43.26954,"lon":5.38637,"is_reserved":false,"is_disabled":false,"rental_uris":{"android":"levelo://app?vid=525e906e-5e92-4051-9a72-087d98faec29","ios":"levelo://app?vid=525e906e-5e92-4051-9a72-087d98faec29"},"vehicle_type_id":"4","last_reported":1726780110,"current_range_meters":6800,"station_id":"ce4bh412rcd13ifvqdr0","pricing_plan_id":"cebpf4jnsgd1na2vs0mg"},{"bike_id":"7d55db78-7210-483f-b538-ea2b4ad1d4c8","system_id":"levelo_inurba_marseille","lat":43.31077,"lon":5.42437,"is_reserved":false,"is_disabled":false,"rental_uris":{"android":"levelo://app?vid=7d55db78-7210-483f-b538-ea2b4ad1d4c8","ios":"levelo://app?vid=7d55db78-7210-483f-b538-ea2b4ad1d4c8"},"vehicle_type_id":"4","last_reported":1726780110,"current_range_meters":38800,"station_id":"ce4bhp92rcd13ifvqhag","pricing_plan_id":"cebpf4jnsgd1na2vs0mg"},{"bike_id":"a5ed4552-d0d2-4d14-bf49-8a55d4e2e324","system_id":"levelo_inurba_marseille","lat":43.30417,"lon":5.41297,"is_reserved":false,"is_disabled":false,"rental_uris":{"android":"levelo://app?vid=a5ed4552-d0d2-4d14-bf49-8a55d4e2e324","ios":"levelo://app?vid=a5ed4552-d0d2-4d14-bf49-8a55d4e2e324"},"vehicle_type_id":"4","last_reported":1726780110,"current_range_meters":34000,"station_id":"ce4bhop2rcd13ifvqh8g","pricing_plan_id":"cebpf4jnsgd1na2vs0mg"},{"bike_id":"dc873ccc-5283-4204-9440-97850e006bd7","system_id":"levelo_inurba_marseille","lat":43.3153,"lon":5.38038,"is_reserved":false,"is_disabled":false,"rental_uris":{"android":"levelo://app?vid=dc873ccc-5283-4204-9440-97850e006bd7","ios":"levelo://app?vid=dc873ccc-5283-4204-9440-97850e006bd7"},"vehicle_type_id":"4","last_reported":1726780110,"current_range_meters":29600,"station_id":"ce4bhsp2rcd13ifvqi50","pricing_plan_id":"cebpf4jnsgd1na2vs0mg"},{"bike_id":"259a1233-1d98-4d8d-810e-00bdd4c3c766","system_id":"levelo_inurba_marseille","lat":43.3189,"lon":5.40735,"is_reserved":false,"is_disabled":false,"rental_uris":{"android":"levelo://app?vid=259a1233-1d98-4d8d-810e-00bdd4c3c766","ios":"levelo://app?vid=259a1233-1d98-4d8d-810e-00bdd4c3c766"},"vehicle_type_id":"4","last_reported":1726780110,"current_range_meters":36400,"station_id":"ce4bhq12rcd13ifvqhig","pricing_plan_id":"cebpf4jnsgd1na2vs0mg"},{"bike_id":"5a011757-8bed-47aa-aa97-2be1fb39f2aa","system_id":"levelo_inurba_marseille","lat":43.28464,"lon":5.35888,"is_reserved":false,"is_disabled":false,"rental_uris":{"android":"levelo://app?vid=5a011757-8bed-47aa-aa97-2be1fb39f2aa","ios":"levelo://app?vid=5a011757-8bed-47aa-aa97-2be1fb39f2aa"},"vehicle_type_id":"4","last_reported":1726780110,"current_range_meters":28000,"station_id":"ce4bhah2rcd13ifvqei0","pricing_plan_id":"cebpf4jnsgd1na2vs0mg"},{"bike_id":"e532fd53-ad12-4848-82ea-70ac934c1c37","system_id":"levelo_inurba_marseille","lat":43.3375,"lon":5.37446,"is_reserved":false,"is_disabled":false,"rental_uris":{"android":"levelo://app?vid=e532fd53-ad12-4848-82ea-70ac934c1c37","ios":"levelo://app?vid=e532fd53-ad12-4848-82ea-70ac934c1c37"},"vehicle_type_id":"4","last_reported":1726780110,"current_range_meters":36000,"station_id":"","pricing_plan_id":"cebpf4jnsgd1na2vs0mg"},{"bike_id":"1634cb17-a421-4481-a16d-ce76951a2212","system_id":"levelo_inurba_marseille","lat":43.2756,"lon":5.38424,"is_reserved":false,"is_disabled":false,"rental_uris":{"android":"levelo://app?vid=1634cb17-a421-4481-a16d-ce76951a2212","ios":"levelo://app?vid=1634cb17-a421-4481-a16d-ce76951a2212"},"vehicle_type_id":"4","last_reported":1726780110,"current_range_meters":29600,"station_id":"ce4bhh92rcd13ifvqfi0","pricing_plan_id":"cebpf4jnsgd1na2vs0mg"},{"bike_id":"8ceaecc8-718f-4488-8932-de6cb7c7ec9e","system_id":"levelo_inurba_marseille","lat":43.26806,"lon":5.40269,"is_reserved":false,"is_disabled":false,"rental_uris":{"android":"levelo://app?vid=8ceaecc8-718f-4488-8932-de6cb7c7ec9e","ios":"levelo://app?vid=8ceaecc8-718f-4488-8932-de6cb7c7ec9e"},"vehicle_type_id":"4","last_reported":1726780110,"current_range_meters":38800,"station_id":"ce501612rcd8frsf0b60","pricing_plan_id":"cebpf4jnsgd1na2vs0mg"},{"bike_id":"80490428-4cf9-4e64-9c06-c69737938659","system_id":"levelo_inurba_marseille","lat":43.28658,"lon":5.36358,"is_reserved":false,"is_disabled":false,"rental_uris":{"android":"levelo://app?vid=80490428-4cf9-4e64-9c06-c69737938659","ios":"levelo://app?vid=80490428-4cf9-4e64-9c06-c69737938659"},"vehicle_type_id":"4","last_reported":1726780110,"current_range_meters":6400,"station_id":"ce4bhah2rcd13ifvqej0","pricing_plan_id":"cebpf4jnsgd1na2vs0mg"},{"bike_id":"eba669c2-dbe1-4f32-b6c5-931f9639d8d0","system_id":"levelo_inurba_marseille","lat":43.29953,"lon":5.38482,"is_reserved":false,"is_disabled":false,"rental_uris":{"android":"levelo://app?vid=eba669c2-dbe1-4f32-b6c5-931f9639d8d0","ios":"levelo://app?vid=eba669c2-dbe1-4f32-b6c5-931f9639d8d0"},"vehicle_type_id":"4","last_reported":1726780110,"current_range_meters":9200,"station_id":"ce4bgj92rcd13ifvqbd0","pricing_plan_id":"cebpf4jnsgd1na2vs0mg"},{"bike_id":"f9898cab-cb36-4e00-83b8-7f729aaf5652","system_id":"levelo_inurba_marseille","lat":43.32655,"lon":5.41001,"is_reserved":false,"is_disabled":false,"rental_uris":{"android":"levelo://app?vid=f9898cab-cb36-4e00-83b8-7f729aaf5652","ios":"levelo://app?vid=f9898cab-cb36-4e00-83b8-7f729aaf5652"},"vehicle_type_id":"4","last_reported":1726780110,"current_range_meters":38800,"station_id":"ce4bhpp2rcd13ifvqhgg","pricing_plan_id":"cebpf4jnsgd1na2vs0mg"},{"bike_id":"a17f5ffc-f55c-4584-bc7a-fa848bff16e2","system_id":"levelo_inurba_marseille","lat":43.29568,"lon":5.37542,"is_reserved":false,"is_disabled":false,"rental_uris":{"android":"levelo://app?vid=a17f5ffc-f55c-4584-bc7a-fa848bff16e2","ios":"levelo://app?vid=a17f5ffc-f55c-4584-bc7a-fa848bff16e2"},"vehicle_type_id":"4","last_reported":1726780110,"current_range_meters":38800,"station_id":"ce4bgh92rcd13ifvqb50","pricing_plan_id":"cebpf4jnsgd1na2vs0mg"},{"bike_id":"f8244d0c-1d80-4b02-82b2-454f2a30c379","system_id":"levelo_inurba_marseille","lat":43.28927,"lon":5.38398,"is_reserved":false,"is_disabled":false,"rental_uris":{"android":"levelo://app?vid=f8244d0c-1d80-4b02-82b2-454f2a30c379","ios":"levelo://app?vid=f8244d0c-1d80-4b02-82b2-454f2a30c379"},"vehicle_type_id":"4","last_reported":1726780110,"current_range_meters":11200,"station_id":"ce4bh612rcd13ifvqe6g","pricing_plan_id":"cebpf4jnsgd1na2vs0mg"},{"bike_id":"de0c6da8-e5fd-4f02-86fc-a69875f68f8b","system_id":"levelo_inurba_marseille","lat":43.30463,"lon":5.37907,"is_reserved":false,"is_disabled":false,"rental_uris":{"android":"levelo://app?vid=de0c6da8-e5fd-4f02-86fc-a69875f68f8b","ios":"levelo://app?vid=de0c6da8-e5fd-4f02-86fc-a69875f68f8b"},"vehicle_type_id":"4","last_reported":1726780110,"current_range_meters":38800,"station_id":"ce4bgup2rcd13ifvqcn0","pricing_plan_id":"cebpf4jnsgd1na2vs0mg"},{"bike_id":"a567976d-80fe-4b0e-a6dd-1f84f1aac25d","system_id":"levelo_inurba_marseille","lat":43.29192,"lon":5.39321,"is_reserved":false,"is_disabled":false,"rental_uris":{"android":"levelo://app?vid=a567976d-80fe-4b0e-a6dd-1f84f1aac25d","ios":"levelo://app?vid=a567976d-80fe-4b0e-a6dd-1f84f1aac25d"},"vehicle_type_id":"4","last_reported":1726780110,"current_range_meters":39200,"station_id":"ce4bh192rcd13ifvqdd0","pricing_plan_id":"cebpf4jnsgd1na2vs0mg"},{"bike_id":"6813a1bb-af4b-4872-8b9e-0171c15e7d49","system_id":"levelo_inurba_marseille","lat":43.3064,"lon":5.40094,"is_reserved":false,"is_disabled":false,"rental_uris":{"android":"levelo://app?vid=6813a1bb-af4b-4872-8b9e-0171c15e7d49","ios":"levelo://app?vid=6813a1bb-af4b-4872-8b9e-0171c15e7d49"},"vehicle_type_id":"4","last_reported":1726780110,"current_range_meters":38800,"station_id":"ce4bh112rcd13ifvqda0","pricing_plan_id":"cebpf4jnsgd1na2vs0mg"},{"bike_id":"7f6acce1-39ea-4633-ba55-98fb087e35e9","system_id":"levelo_inurba_marseille","lat":43.30877,"lon":5.39638,"is_reserved":false,"is_disabled":false,"rental_uris":{"android":"levelo://app?vid=7f6acce1-39ea-4633-ba55-98fb087e35e9","ios":"levelo://app?vid=7f6acce1-39ea-4633-ba55-98fb087e35e9"},"vehicle_type_id":"4","last_reported":1726780110,"current_range_meters":7200,"station_id":"ce4bh012rcd13ifvqcv0","pricing_plan_id":"cebpf4jnsgd1na2vs0mg"},{"bike_id":"e8005e2f-3357-4bf8-9521-65d37d4096f5","system_id":"levelo_inurba_marseille","lat":43.30886,"lon":5.39657,"is_reserved":false,"is_disabled":false,"rental_uris":{"android":"levelo://app?vid=e8005e2f-3357-4bf8-9521-65d37d4096f5","ios":"levelo://app?vid=e8005e2f-3357-4bf8-9521-65d37d4096f5"},"vehicle_type_id":"4","last_reported":1726780110,"current_range_meters":30800,"station_id":"ce4bh012rcd13ifvqcv0","pricing_plan_id":"cebpf4jnsgd1na2vs0mg"},{"bike_id":"c9181234-dad9-48f7-ada2-0ba8f6f07317","system_id":"levelo_inurba_marseille","lat":43.29198,"lon":5.39325,"is_reserved":false,"is_disabled":false,"rental_uris":{"android":"levelo://app?vid=c9181234-dad9-48f7-ada2-0ba8f6f07317","ios":"levelo://app?vid=c9181234-dad9-48f7-ada2-0ba8f6f07317"},"vehicle_type_id":"4","last_reported":1726780110,"current_range_meters":33200,"station_id":"ce4bh192rcd13ifvqdd0","pricing_plan_id":"cebpf4jnsgd1na2vs0mg"},{"bike_id":"0e6d9370-8da4-4f23-a42e-d76f6f525ae5","system_id":"levelo_inurba_marseille","lat":43.28849,"lon":5.35854,"is_reserved":false,"is_disabled":false,"rental_uris":{"android":"levelo://app?vid=0e6d9370-8da4-4f23-a42e-d76f6f525ae5","ios":"levelo://app?vid=0e6d9370-8da4-4f23-a42e-d76f6f525ae5"},"vehicle_type_id":"4","last_reported":1726780110,"current_range_meters":39200,"station_id":"ce4bhb12rcd13ifvqem0","pricing_plan_id":"cebpf4jnsgd1na2vs0mg"},{"bike_id":"1d669fcc-1fdc-4a47-bb39-513baf72b3d8","system_id":"levelo_inurba_marseille","lat":43.28103,"lon":5.37842,"is_reserved":false,"is_disabled":false,"rental_uris":{"android":"levelo://app?vid=1d669fcc-1fdc-4a47-bb39-513baf72b3d8","ios":"levelo://app?vid=1d669fcc-1fdc-4a47-bb39-513baf72b3d8"},"vehicle_type_id":"4","last_reported":1726780110,"current_range_meters":10800,"station_id":"ce4bha12rcd13ifvqee0","pricing_plan_id":"cebpf4jnsgd1na2vs0mg"},{"bike_id":"06eef320-c2b1-42ca-bda3-e896022e4f06","system_id":"levelo_inurba_marseille","lat":43.27072,"lon":5.42284,"is_reserved":false,"is_disabled":false,"rental_uris":{"android":"levelo://app?vid=06eef320-c2b1-42ca-bda3-e896022e4f06","ios":"levelo://app?vid=06eef320-c2b1-42ca-bda3-e896022e4f06"},"vehicle_type_id":"4","last_reported":1726780110,"current_range_meters":17200,"station_id":"ce4bhk92rcd13ifvqgb0","pricing_plan_id":"cebpf4jnsgd1na2vs0mg"},{"bike_id":"ee4669c1-ee4e-4b95-a902-81fdf4f62505","system_id":"levelo_inurba_marseille","lat":43.289459,"lon":5.364138,"is_reserved":false,"is_disabled":false,"rental_uris":{"android":"levelo://app?vid=ee4669c1-ee4e-4b95-a902-81fdf4f62505","ios":"levelo://app?vid=ee4669c1-ee4e-4b95-a902-81fdf4f62505"},"vehicle_type_id":"4","last_reported":1726780110,"current_range_meters":29600,"station_id":"ce4bhc92rcd13ifvqetg","pricing_plan_id":"cebpf4jnsgd1na2vs0mg"},{"bike_id":"13c31526-0a25-491f-9fac-6717d2552893","system_id":"levelo_inurba_marseille","lat":43.24809,"lon":5.37458,"is_reserved":false,"is_disabled":false,"rental_uris":{"android":"levelo://app?vid=13c31526-0a25-491f-9fac-6717d2552893","ios":"levelo://app?vid=13c31526-0a25-491f-9fac-6717d2552893"},"vehicle_type_id":"4","last_reported":1726780110,"current_range_meters":38800,"station_id":"ce4bhgh2rcd13ifvqfb0","pricing_plan_id":"cebpf4jnsgd1na2vs0mg"},{"bike_id":"8e417cb4-67fe-479f-a53b-44f7562c31a1","system_id":"levelo_inurba_marseille","lat":43.31477,"lon":5.37309,"is_reserved":false,"is_disabled":false,"rental_uris":{"android":"levelo://app?vid=8e417cb4-67fe-479f-a53b-44f7562c31a1","ios":"levelo://app?vid=8e417cb4-67fe-479f-a53b-44f7562c31a1"},"vehicle_type_id":"4","last_reported":1726780110,"current_range_meters":8800,"station_id":"ce4bgt12rcd13ifvqcd0","pricing_plan_id":"cebpf4jnsgd1na2vs0mg"},{"bike_id":"522296b9-a8e3-4bc2-82ad-a3a2fe0dcce3","system_id":"levelo_inurba_marseille","lat":43.31717,"lon":5.37762,"is_reserved":false,"is_disabled":false,"rental_uris":{"android":"levelo://app?vid=522296b9-a8e3-4bc2-82ad-a3a2fe0dcce3","ios":"levelo://app?vid=522296b9-a8e3-4bc2-82ad-a3a2fe0dcce3"},"vehicle_type_id":"4","last_reported":1726780110,"current_range_meters":8400,"station_id":"ce4bgth2rcd13ifvqch0","pricing_plan_id":"cebpf4jnsgd1na2vs0mg"},{"bike_id":"48e80926-2cfb-4701-83c2-0b3239f99ebc","system_id":"levelo_inurba_marseille","lat":43.28562,"lon":5.39495,"is_reserved":false,"is_disabled":false,"rental_uris":{"android":"levelo://app?vid=48e80926-2cfb-4701-83c2-0b3239f99ebc","ios":"levelo://app?vid=48e80926-2cfb-4701-83c2-0b3239f99ebc"},"vehicle_type_id":"4","last_reported":1726780110,"current_range_meters":22000,"station_id":"ce4bh292rcd13ifvqdg0","pricing_plan_id":"cebpf4jnsgd1na2vs0mg"},{"bike_id":"990ec802-a6a4-4df1-929a-4499308736aa","system_id":"levelo_inurba_marseille","lat":43.30883,"lon":5.39662,"is_reserved":false,"is_disabled":false,"rental_uris":{"android":"levelo://app?vid=990ec802-a6a4-4df1-929a-4499308736aa","ios":"levelo://app?vid=990ec802-a6a4-4df1-929a-4499308736aa"},"vehicle_type_id":"4","last_reported":1726780110,"current_range_meters":4000,"station_id":"ce4bh012rcd13ifvqcv0","pricing_plan_id":"cebpf4jnsgd1na2vs0mg"},{"bike_id":"a244c4d4-d575-48e3-94b5-f5a8645dec63","system_id":"levelo_inurba_marseille","lat":43.3117,"lon":5.38713,"is_reserved":false,"is_disabled":false,"rental_uris":{"android":"levelo://app?vid=a244c4d4-d575-48e3-94b5-f5a8645dec63","ios":"levelo://app?vid=a244c4d4-d575-48e3-94b5-f5a8645dec63"},"vehicle_type_id":"4","last_reported":1726780110,"current_range_meters":38400,"station_id":"ce4bgv12rcd13ifvqcp0","pricing_plan_id":"cebpf4jnsgd1na2vs0mg"},{"bike_id":"1bcdb92b-8824-41cd-b6cf-d0ee92f5a1da","system_id":"levelo_inurba_marseille","lat":43.28031,"lon":5.36953,"is_reserved":false,"is_disabled":false,"rental_uris":{"android":"levelo://app?vid=1bcdb92b-8824-41cd-b6cf-d0ee92f5a1da","ios":"levelo://app?vid=1bcdb92b-8824-41cd-b6cf-d0ee92f5a1da"},"vehicle_type_id":"4","last_reported":1726780110,"current_range_meters":17200,"station_id":"ce4bha12rcd13ifvqef0","pricing_plan_id":"cebpf4jnsgd1na2vs0mg"},{"bike_id":"04394a73-34a5-4d88-bac1-80c0695aafe5","system_id":"levelo_inurba_marseille","lat":43.337444,"lon":5.374475,"is_reserved":false,"is_disabled":false,"rental_uris":{"android":"levelo://app?vid=04394a73-34a5-4d88-bac1-80c0695aafe5","ios":"levelo://app?vid=04394a73-34a5-4d88-bac1-80c0695aafe5"},"vehicle_type_id":"4","last_reported":1726780110,"current_range_meters":22800,"station_id":"","pricing_plan_id":"cebpf4jnsgd1na2vs0mg"},{"bike_id":"2bb3e148-93ab-445e-859b-72db66b984ff","system_id":"levelo_inurba_marseille","lat":43.29523,"lon":5.39045,"is_reserved":false,"is_disabled":false,"rental_uris":{"android":"levelo://app?vid=2bb3e148-93ab-445e-859b-72db66b984ff","ios":"levelo://app?vid=2bb3e148-93ab-445e-859b-72db66b984ff"},"vehicle_type_id":"4","last_reported":1726780110,"current_range_meters":38800,"station_id":"ce4bh3p2rcd13ifvqdp0","pricing_plan_id":"cebpf4jnsgd1na2vs0mg"},{"bike_id":"036ab25f-0c34-4c45-8e88-1fc9200da6fd","system_id":"levelo_inurba_marseille","lat":43.2718,"lon":5.42693,"is_reserved":false,"is_disabled":false,"rental_uris":{"android":"levelo://app?vid=036ab25f-0c34-4c45-8e88-1fc9200da6fd","ios":"levelo://app?vid=036ab25f-0c34-4c45-8e88-1fc9200da6fd"},"vehicle_type_id":"4","last_reported":1726780110,"current_range_meters":28400,"station_id":"","pricing_plan_id":"cebpf4jnsgd1na2vs0mg"},{"bike_id":"40e5b403-5590-4098-a474-822a4163b2a7","system_id":"levelo_inurba_marseille","lat":43.24082,"lon":5.3775,"is_reserved":false,"is_disabled":false,"rental_uris":{"android":"levelo://app?vid=40e5b403-5590-4098-a474-822a4163b2a7","ios":"levelo://app?vid=40e5b403-5590-4098-a474-822a4163b2a7"},"vehicle_type_id":"4","last_reported":1726780110,"current_range_meters":27200,"station_id":"ce4bhnp2rcd13ifvqgvg","pricing_plan_id":"cebpf4jnsgd1na2vs0mg"},{"bike_id":"298ac1dc-024a-45f9-bee5-67e6e0d001f8","system_id":"levelo_inurba_marseille","lat":43.32291,"lon":5.38262,"is_reserved":false,"is_disabled":false,"rental_uris":{"android":"levelo://app?vid=298ac1dc-024a-45f9-bee5-67e6e0d001f8","ios":"levelo://app?vid=298ac1dc-024a-45f9-bee5-67e6e0d001f8"},"vehicle_type_id":"4","last_reported":1726780110,"current_range_meters":30800,"station_id":"ce4bhr12rcd13ifvqhqg","pricing_plan_id":"cebpf4jnsgd1na2vs0mg"},{"bike_id":"1e3f7b56-5fc7-46fd-836e-78f130647b4e","system_id":"levelo_inurba_marseille","lat":43.30939,"lon":5.40145,"is_reserved":false,"is_disabled":false,"rental_uris":{"android":"levelo://app?vid=1e3f7b56-5fc7-46fd-836e-78f130647b4e","ios":"levelo://app?vid=1e3f7b56-5fc7-46fd-836e-78f130647b4e"},"vehicle_type_id":"4","last_reported":1726780110,"current_range_meters":8000,"station_id":"ce4bgvp2rcd13ifvqct0","pricing_plan_id":"cebpf4jnsgd1na2vs0mg"},{"bike_id":"60ba0f6b-768c-4a45-8a5f-fdc9bb710a0e","system_id":"levelo_inurba_marseille","lat":43.27575,"lon":5.38417,"is_reserved":false,"is_disabled":false,"rental_uris":{"android":"levelo://app?vid=60ba0f6b-768c-4a45-8a5f-fdc9bb710a0e","ios":"levelo://app?vid=60ba0f6b-768c-4a45-8a5f-fdc9bb710a0e"},"vehicle_type_id":"4","last_reported":1726780110,"current_range_meters":3200,"station_id":"ce4bhh92rcd13ifvqfi0","pricing_plan_id":"cebpf4jnsgd1na2vs0mg"},{"bike_id":"f385b4a6-31cf-416b-83d1-919567483ec0","system_id":"levelo_inurba_marseille","lat":43.29573,"lon":5.39962,"is_reserved":false,"is_disabled":false,"rental_uris":{"android":"levelo://app?vid=f385b4a6-31cf-416b-83d1-919567483ec0","ios":"levelo://app?vid=f385b4a6-31cf-416b-83d1-919567483ec0"},"vehicle_type_id":"4","last_reported":1726780110,"current_range_meters":33600,"station_id":"ce4bh312rcd13ifvqdj0","pricing_plan_id":"cebpf4jnsgd1na2vs0mg"},{"bike_id":"b973b732-8187-48ff-a444-9cdcda602a15","system_id":"levelo_inurba_marseille","lat":43.26558,"lon":5.37286,"is_reserved":false,"is_disabled":false,"rental_uris":{"android":"levelo://app?vid=b973b732-8187-48ff-a444-9cdcda602a15","ios":"levelo://app?vid=b973b732-8187-48ff-a444-9cdcda602a15"},"vehicle_type_id":"4","last_reported":1726780110,"current_range_meters":2000,"station_id":"ce4bhg12rcd13ifvqf70","pricing_plan_id":"cebpf4jnsgd1na2vs0mg"},{"bike_id":"727c59dd-4a33-4404-90bc-3a4e59bd8948","system_id":"levelo_inurba_marseille","lat":43.32366,"lon":5.38892,"is_reserved":false,"is_disabled":false,"rental_uris":{"android":"levelo://app?vid=727c59dd-4a33-4404-90bc-3a4e59bd8948","ios":"levelo://app?vid=727c59dd-4a33-4404-90bc-3a4e59bd8948"},"vehicle_type_id":"4","last_reported":1726780110,"current_range_meters":25600,"station_id":"ce4bhqp2rcd13ifvqhog","pricing_plan_id":"cebpf4jnsgd1na2vs0mg"},{"bike_id":"fb05fda6-7ba5-461c-9029-16f078e065d0","system_id":"levelo_inurba_marseille","lat":43.30675,"lon":5.40078,"is_reserved":false,"is_disabled":false,"rental_uris":{"android":"levelo://app?vid=fb05fda6-7ba5-461c-9029-16f078e065d0","ios":"levelo://app?vid=fb05fda6-7ba5-461c-9029-16f078e065d0"},"vehicle_type_id":"4","last_reported":1726780110,"current_range_meters":34000,"station_id":"ce4bh112rcd13ifvqda0","pricing_plan_id":"cebpf4jnsgd1na2vs0mg"},{"bike_id":"fbfa8a69-504e-48b8-a8d3-632085cde9e0","system_id":"levelo_inurba_marseille","lat":43.31174,"lon":5.387142,"is_reserved":false,"is_disabled":false,"rental_uris":{"android":"levelo://app?vid=fbfa8a69-504e-48b8-a8d3-632085cde9e0","ios":"levelo://app?vid=fbfa8a69-504e-48b8-a8d3-632085cde9e0"},"vehicle_type_id":"4","last_reported":1726780110,"current_range_meters":26000,"station_id":"ce4bgv12rcd13ifvqcp0","pricing_plan_id":"cebpf4jnsgd1na2vs0mg"},{"bike_id":"68d7dfce-d550-4f46-afca-11b9024d5cf5","system_id":"levelo_inurba_marseille","lat":43.27175,"lon":5.40995,"is_reserved":false,"is_disabled":false,"rental_uris":{"android":"levelo://app?vid=68d7dfce-d550-4f46-afca-11b9024d5cf5","ios":"levelo://app?vid=68d7dfce-d550-4f46-afca-11b9024d5cf5"},"vehicle_type_id":"4","last_reported":1726780110,"current_range_meters":38800,"station_id":"ce4bhl12rcd13ifvqgf0","pricing_plan_id":"cebpf4jnsgd1na2vs0mg"},{"bike_id":"253b057b-a41c-4693-8aa4-03c682f3fbb1","system_id":"levelo_inurba_marseille","lat":43.26818,"lon":5.40271,"is_reserved":false,"is_disabled":false,"rental_uris":{"android":"levelo://app?vid=253b057b-a41c-4693-8aa4-03c682f3fbb1","ios":"levelo://app?vid=253b057b-a41c-4693-8aa4-03c682f3fbb1"},"vehicle_type_id":"4","last_reported":1726780110,"current_range_meters":6800,"station_id":"ce501612rcd8frsf0b60","pricing_plan_id":"cebpf4jnsgd1na2vs0mg"},{"bike_id":"6659f6a7-2ea0-4ee9-acc0-4f7b7437cae8","system_id":"levelo_inurba_marseille","lat":43.31324,"lon":5.39694,"is_reserved":false,"is_disabled":false,"rental_uris":{"android":"levelo://app?vid=6659f6a7-2ea0-4ee9-acc0-4f7b7437cae8","ios":"levelo://app?vid=6659f6a7-2ea0-4ee9-acc0-4f7b7437cae8"},"vehicle_type_id":"4","last_reported":1726780110,"current_range_meters":10000,"station_id":"ce4bgvp2rcd13ifvqcu0","pricing_plan_id":"cebpf4jnsgd1na2vs0mg"},{"bike_id":"49aec777-8627-4899-a18d-07e10a9d4f25","system_id":"levelo_inurba_marseille","lat":43.29376,"lon":5.3785,"is_reserved":false,"is_disabled":false,"rental_uris":{"android":"levelo://app?vid=49aec777-8627-4899-a18d-07e10a9d4f25","ios":"levelo://app?vid=49aec777-8627-4899-a18d-07e10a9d4f25"},"vehicle_type_id":"4","last_reported":1726780110,"current_range_meters":33200,"station_id":"ce4bgjh2rcd13ifvqbf0","pricing_plan_id":"cebpf4jnsgd1na2vs0mg"},{"bike_id":"53621e68-d08f-4097-8d46-569277e23e4a","system_id":"levelo_inurba_marseille","lat":43.30439,"lon":5.38897,"is_reserved":false,"is_disabled":false,"rental_uris":{"android":"levelo://app?vid=53621e68-d08f-4097-8d46-569277e23e4a","ios":"levelo://app?vid=53621e68-d08f-4097-8d46-569277e23e4a"},"vehicle_type_id":"4","last_reported":1726780110,"current_range_meters":38800,"station_id":"ce4bgk12rcd13ifvqbi0","pricing_plan_id":"cebpf4jnsgd1na2vs0mg"},{"bike_id":"edfb1ff5-b81b-4225-8da9-100a9115b1e3","system_id":"levelo_inurba_marseille","lat":43.29735,"lon":5.36561,"is_reserved":false,"is_disabled":false,"rental_uris":{"android":"levelo://app?vid=edfb1ff5-b81b-4225-8da9-100a9115b1e3","ios":"levelo://app?vid=edfb1ff5-b81b-4225-8da9-100a9115b1e3"},"vehicle_type_id":"4","last_reported":1726780110,"current_range_meters":16000,"station_id":"","pricing_plan_id":"cebpf4jnsgd1na2vs0mg"},{"bike_id":"dd83f023-48ca-405e-9810-aa024cae22ef","system_id":"levelo_inurba_marseille","lat":43.292664,"lon":5.384444,"is_reserved":false,"is_disabled":false,"rental_uris":{"android":"levelo://app?vid=dd83f023-48ca-405e-9810-aa024cae22ef","ios":"levelo://app?vid=dd83f023-48ca-405e-9810-aa024cae22ef"},"vehicle_type_id":"4","last_reported":1726780110,"current_range_meters":30000,"station_id":"ce4bh692rcd13ifvqea0","pricing_plan_id":"cebpf4jnsgd1na2vs0mg"},{"bike_id":"ffb7686b-d973-47b0-b1aa-d8e89cab7abc","system_id":"levelo_inurba_marseille","lat":43.288551,"lon":5.358556,"is_reserved":false,"is_disabled":false,"rental_uris":{"android":"levelo://app?vid=ffb7686b-d973-47b0-b1aa-d8e89cab7abc","ios":"levelo://app?vid=ffb7686b-d973-47b0-b1aa-d8e89cab7abc"},"vehicle_type_id":"4","last_reported":1726780110,"current_range_meters":35200,"station_id":"ce4bh0h2rcd13ifvqd50","pricing_plan_id":"cebpf4jnsgd1na2vs0mg"},{"bike_id":"79f9170f-8de8-4fbe-9051-45aa1ac080c3","system_id":"levelo_inurba_marseille","lat":43.2943,"lon":5.39753,"is_reserved":false,"is_disabled":false,"rental_uris":{"android":"levelo://app?vid=79f9170f-8de8-4fbe-9051-45aa1ac080c3","ios":"levelo://app?vid=79f9170f-8de8-4fbe-9051-45aa1ac080c3"},"vehicle_type_id":"4","last_reported":1726780110,"current_range_meters":38800,"station_id":"ce4bh3h2rcd13ifvqdo0","pricing_plan_id":"cebpf4jnsgd1na2vs0mg"},{"bike_id":"13e0720d-f4b9-4807-8b0e-29114e886647","system_id":"levelo_inurba_marseille","lat":43.31713,"lon":5.43708,"is_reserved":false,"is_disabled":false,"rental_uris":{"android":"levelo://app?vid=13e0720d-f4b9-4807-8b0e-29114e886647","ios":"levelo://app?vid=13e0720d-f4b9-4807-8b0e-29114e886647"},"vehicle_type_id":"4","last_reported":1726780110,"current_range_meters":8000,"station_id":"ce4bhp92rcd13ifvqhcg","pricing_plan_id":"cebpf4jnsgd1na2vs0mg"},{"bike_id":"db16e655-ff00-4e1e-9839-120e81e4bf92","system_id":"levelo_inurba_marseille","lat":43.29271,"lon":5.36841,"is_reserved":false,"is_disabled":false,"rental_uris":{"android":"levelo://app?vid=db16e655-ff00-4e1e-9839-120e81e4bf92","ios":"levelo://app?vid=db16e655-ff00-4e1e-9839-120e81e4bf92"},"vehicle_type_id":"4","last_reported":1726780110,"current_range_meters":33600,"station_id":"ce4bhbp2rcd13ifvqesg","pricing_plan_id":"cebpf4jnsgd1na2vs0mg"},{"bike_id":"5b87ea10-02d9-442f-9b10-4fd331eca58e","system_id":"levelo_inurba_marseille","lat":43.25007,"lon":5.38928,"is_reserved":false,"is_disabled":false,"rental_uris":{"android":"levelo://app?vid=5b87ea10-02d9-442f-9b10-4fd331eca58e","ios":"levelo://app?vid=5b87ea10-02d9-442f-9b10-4fd331eca58e"},"vehicle_type_id":"4","last_reported":1726780110,"current_range_meters":38800,"station_id":"ce4bhgp2rcd13ifvqfd0","pricing_plan_id":"cebpf4jnsgd1na2vs0mg"},{"bike_id":"c42d6b2f-7847-4248-848b-a4c3edc602d9","system_id":"levelo_inurba_marseille","lat":43.32001,"lon":5.38156,"is_reserved":false,"is_disabled":false,"rental_uris":{"android":"levelo://app?vid=c42d6b2f-7847-4248-848b-a4c3edc602d9","ios":"levelo://app?vid=c42d6b2f-7847-4248-848b-a4c3edc602d9"},"vehicle_type_id":"4","last_reported":1726780110,"current_range_meters":11600,"station_id":"ce4bhr12rcd13ifvqhpg","pricing_plan_id":"cebpf4jnsgd1na2vs0mg"},{"bike_id":"989503c6-d34b-4dd2-93e1-6c39071147ce","system_id":"levelo_inurba_marseille","lat":43.290914,"lon":5.381407,"is_reserved":false,"is_disabled":false,"rental_uris":{"android":"levelo://app?vid=989503c6-d34b-4dd2-93e1-6c39071147ce","ios":"levelo://app?vid=989503c6-d34b-4dd2-93e1-6c39071147ce"},"vehicle_type_id":"4","last_reported":1726780110,"current_range_meters":28000,"station_id":"ce4bh512rcd13ifvqe2g","pricing_plan_id":"cebpf4jnsgd1na2vs0mg"},{"bike_id":"96b332fe-ec14-463a-a727-386ea5e48984","system_id":"levelo_inurba_marseille","lat":43.32362,"lon":5.38891,"is_reserved":false,"is_disabled":false,"rental_uris":{"android":"levelo://app?vid=96b332fe-ec14-463a-a727-386ea5e48984","ios":"levelo://app?vid=96b332fe-ec14-463a-a727-386ea5e48984"},"vehicle_type_id":"4","last_reported":1726780110,"current_range_meters":38800,"station_id":"ce4bhqp2rcd13ifvqhog","pricing_plan_id":"cebpf4jnsgd1na2vs0mg"},{"bike_id":"1d4dce81-26c9-4e90-9512-73a77179f3d4","system_id":"levelo_inurba_marseille","lat":43.23182,"lon":5.39988,"is_reserved":false,"is_disabled":false,"rental_uris":{"android":"levelo://app?vid=1d4dce81-26c9-4e90-9512-73a77179f3d4","ios":"levelo://app?vid=1d4dce81-26c9-4e90-9512-73a77179f3d4"},"vehicle_type_id":"4","last_reported":1726780110,"current_range_meters":9600,"station_id":"ce4bhn12rcd13ifvqgqg","pricing_plan_id":"cebpf4jnsgd1na2vs0mg"},{"bike_id":"43356356-1ebf-41d4-a9de-4fa2973940ef","system_id":"levelo_inurba_marseille","lat":43.29963,"lon":5.41329,"is_reserved":false,"is_disabled":false,"rental_uris":{"android":"levelo://app?vid=43356356-1ebf-41d4-a9de-4fa2973940ef","ios":"levelo://app?vid=43356356-1ebf-41d4-a9de-4fa2973940ef"},"vehicle_type_id":"4","last_reported":1726780110,"current_range_meters":35600,"station_id":"ce4bhp12rcd13ifvqh9g","pricing_plan_id":"cebpf4jnsgd1na2vs0mg"},{"bike_id":"d30f821e-1e42-49d4-86e7-59f80602dbb7","system_id":"levelo_inurba_marseille","lat":43.24669,"lon":5.38169,"is_reserved":false,"is_disabled":false,"rental_uris":{"android":"levelo://app?vid=d30f821e-1e42-49d4-86e7-59f80602dbb7","ios":"levelo://app?vid=d30f821e-1e42-49d4-86e7-59f80602dbb7"},"vehicle_type_id":"4","last_reported":1726780110,"current_range_meters":38400,"station_id":"ce4bhih2rcd13ifvqfr0","pricing_plan_id":"cebpf4jnsgd1na2vs0mg"},{"bike_id":"586337a7-ea44-4a0c-a2e4-774a4f46c373","system_id":"levelo_inurba_marseille","lat":43.31335,"lon":5.39698,"is_reserved":false,"is_disabled":false,"rental_uris":{"android":"levelo://app?vid=586337a7-ea44-4a0c-a2e4-774a4f46c373","ios":"levelo://app?vid=586337a7-ea44-4a0c-a2e4-774a4f46c373"},"vehicle_type_id":"4","last_reported":1726780110,"current_range_meters":38800,"station_id":"ce4bgvp2rcd13ifvqcu0","pricing_plan_id":"cebpf4jnsgd1na2vs0mg"},{"bike_id":"f91d86b2-456a-48aa-bac9-b4717c616eb8","system_id":"levelo_inurba_marseille","lat":43.25724,"lon":5.4111,"is_reserved":false,"is_disabled":false,"rental_uris":{"android":"levelo://app?vid=f91d86b2-456a-48aa-bac9-b4717c616eb8","ios":"levelo://app?vid=f91d86b2-456a-48aa-bac9-b4717c616eb8"},"vehicle_type_id":"4","last_reported":1726780110,"current_range_meters":8400,"station_id":"ce4bhkp2rcd13ifvqgd0","pricing_plan_id":"cebpf4jnsgd1na2vs0mg"},{"bike_id":"f689521a-328c-4627-83e8-a25c4f32e99b","system_id":"levelo_inurba_marseille","lat":43.2319,"lon":5.35563,"is_reserved":false,"is_disabled":false,"rental_uris":{"android":"levelo://app?vid=f689521a-328c-4627-83e8-a25c4f32e99b","ios":"levelo://app?vid=f689521a-328c-4627-83e8-a25c4f32e99b"},"vehicle_type_id":"4","last_reported":1726780110,"current_range_meters":29600,"station_id":"ce4bhu92rcd13ifvqi70","pricing_plan_id":"cebpf4jnsgd1na2vs0mg"},{"bike_id":"0103eeda-09a7-4e2b-b881-e857ddcec39e","system_id":"levelo_inurba_marseille","lat":43.2319,"lon":5.39996,"is_reserved":false,"is_disabled":false,"rental_uris":{"android":"levelo://app?vid=0103eeda-09a7-4e2b-b881-e857ddcec39e","ios":"levelo://app?vid=0103eeda-09a7-4e2b-b881-e857ddcec39e"},"vehicle_type_id":"4","last_reported":1726780110,"current_range_meters":38800,"station_id":"ce4bhn12rcd13ifvqgqg","pricing_plan_id":"cebpf4jnsgd1na2vs0mg"},{"bike_id":"4c9dad28-bab3-4c54-867f-101b77a30cda","system_id":"levelo_inurba_marseille","lat":43.28457,"lon":5.35881,"is_reserved":false,"is_disabled":false,"rental_uris":{"android":"levelo://app?vid=4c9dad28-bab3-4c54-867f-101b77a30cda","ios":"levelo://app?vid=4c9dad28-bab3-4c54-867f-101b77a30cda"},"vehicle_type_id":"4","last_reported":1726780110,"current_range_meters":39200,"station_id":"ce4bhah2rcd13ifvqei0","pricing_plan_id":"cebpf4jnsgd1na2vs0mg"},{"bike_id":"8011d6fb-4c21-417a-bc0c-136e1770de02","system_id":"levelo_inurba_marseille","lat":43.28077,"lon":5.39661,"is_reserved":false,"is_disabled":false,"rental_uris":{"android":"levelo://app?vid=8011d6fb-4c21-417a-bc0c-136e1770de02","ios":"levelo://app?vid=8011d6fb-4c21-417a-bc0c-136e1770de02"},"vehicle_type_id":"4","last_reported":1726780110,"current_range_meters":28000,"station_id":"ce4bho12rcd13ifvqh2g","pricing_plan_id":"cebpf4jnsgd1na2vs0mg"},{"bike_id":"3f83789d-3dd0-43cc-a9bb-a5b70cdc879e","system_id":"levelo_inurba_marseille","lat":43.28705,"lon":5.37385,"is_reserved":false,"is_disabled":false,"rental_uris":{"android":"levelo://app?vid=3f83789d-3dd0-43cc-a9bb-a5b70cdc879e","ios":"levelo://app?vid=3f83789d-3dd0-43cc-a9bb-a5b70cdc879e"},"vehicle_type_id":"4","last_reported":1726780110,"current_range_meters":39200,"station_id":"ce4bh3p2rcd13ifvqdq0","pricing_plan_id":"cebpf4jnsgd1na2vs0mg"},{"bike_id":"a1c72085-5b87-40f4-ac75-5c75b15dd893","system_id":"levelo_inurba_marseille","lat":43.30882,"lon":5.39632,"is_reserved":false,"is_disabled":false,"rental_uris":{"android":"levelo://app?vid=a1c72085-5b87-40f4-ac75-5c75b15dd893","ios":"levelo://app?vid=a1c72085-5b87-40f4-ac75-5c75b15dd893"},"vehicle_type_id":"4","last_reported":1726780110,"current_range_meters":38800,"station_id":"ce4bh012rcd13ifvqcv0","pricing_plan_id":"cebpf4jnsgd1na2vs0mg"},{"bike_id":"8b52ab57-179c-4a72-8284-951453e82027","system_id":"levelo_inurba_marseille","lat":43.29028,"lon":5.38639,"is_reserved":false,"is_disabled":false,"rental_uris":{"android":"levelo://app?vid=8b52ab57-179c-4a72-8284-951453e82027","ios":"levelo://app?vid=8b52ab57-179c-4a72-8284-951453e82027"},"vehicle_type_id":"4","last_reported":1726780110,"current_range_meters":11200,"station_id":"ce4bh4p2rcd13ifvqe0g","pricing_plan_id":"cebpf4jnsgd1na2vs0mg"},{"bike_id":"26bef151-f653-458f-81df-3d744b453c90","system_id":"levelo_inurba_marseille","lat":43.30792,"lon":5.37656,"is_reserved":false,"is_disabled":false,"rental_uris":{"android":"levelo://app?vid=26bef151-f653-458f-81df-3d744b453c90","ios":"levelo://app?vid=26bef151-f653-458f-81df-3d744b453c90"},"vehicle_type_id":"4","last_reported":1726780110,"current_range_meters":28800,"station_id":"ce4bgv92rcd13ifvqcq0","pricing_plan_id":"cebpf4jnsgd1na2vs0mg"},{"bike_id":"a8841453-322d-4809-a2ca-4c41ea5ecf5f","system_id":"levelo_inurba_marseille","lat":43.30886,"lon":5.37183,"is_reserved":false,"is_disabled":false,"rental_uris":{"android":"levelo://app?vid=a8841453-322d-4809-a2ca-4c41ea5ecf5f","ios":"levelo://app?vid=a8841453-322d-4809-a2ca-4c41ea5ecf5f"},"vehicle_type_id":"4","last_reported":1726780110,"current_range_meters":38800,"station_id":"ce4bguh2rcd13ifvqckg","pricing_plan_id":"cebpf4jnsgd1na2vs0mg"},{"bike_id":"2376883e-6e46-46ff-9793-b6c06012171e","system_id":"levelo_inurba_marseille","lat":43.29024,"lon":5.38652,"is_reserved":false,"is_disabled":false,"rental_uris":{"android":"levelo://app?vid=2376883e-6e46-46ff-9793-b6c06012171e","ios":"levelo://app?vid=2376883e-6e46-46ff-9793-b6c06012171e"},"vehicle_type_id":"4","last_reported":1726780110,"current_range_meters":28800,"station_id":"ce4bh4p2rcd13ifvqe0g","pricing_plan_id":"cebpf4jnsgd1na2vs0mg"},{"bike_id":"ce68b5bb-b3a2-432f-9edc-1842f56e647e","system_id":"levelo_inurba_marseille","lat":43.28682,"lon":5.37404,"is_reserved":false,"is_disabled":false,"rental_uris":{"android":"levelo://app?vid=ce68b5bb-b3a2-432f-9edc-1842f56e647e","ios":"levelo://app?vid=ce68b5bb-b3a2-432f-9edc-1842f56e647e"},"vehicle_type_id":"4","last_reported":1726780110,"current_range_meters":36800,"station_id":"ce4bh3p2rcd13ifvqdq0","pricing_plan_id":"cebpf4jnsgd1na2vs0mg"},{"bike_id":"b9cce780-afff-448f-a3ea-2b9ff395d34e","system_id":"levelo_inurba_marseille","lat":43.29028,"lon":5.38646,"is_reserved":false,"is_disabled":false,"rental_uris":{"android":"levelo://app?vid=b9cce780-afff-448f-a3ea-2b9ff395d34e","ios":"levelo://app?vid=b9cce780-afff-448f-a3ea-2b9ff395d34e"},"vehicle_type_id":"4","last_reported":1726780110,"current_range_meters":28400,"station_id":"ce4bh4p2rcd13ifvqe0g","pricing_plan_id":"cebpf4jnsgd1na2vs0mg"},{"bike_id":"002b0699-6ee9-40eb-887b-ba2bc729859f","system_id":"levelo_inurba_marseille","lat":43.225306,"lon":5.348318,"is_reserved":false,"is_disabled":false,"rental_uris":{"android":"levelo://app?vid=002b0699-6ee9-40eb-887b-ba2bc729859f","ios":"levelo://app?vid=002b0699-6ee9-40eb-887b-ba2bc729859f"},"vehicle_type_id":"4","last_reported":1726780110,"current_range_meters":9600,"station_id":"ce4bhu92rcd13ifvqi70","pricing_plan_id":"cebpf4jnsgd1na2vs0mg"},{"bike_id":"1237d880-253f-4c2f-91da-48c3390eb4ac","system_id":"levelo_inurba_marseille","lat":43.30306,"lon":5.36901,"is_reserved":false,"is_disabled":false,"rental_uris":{"android":"levelo://app?vid=1237d880-253f-4c2f-91da-48c3390eb4ac","ios":"levelo://app?vid=1237d880-253f-4c2f-91da-48c3390eb4ac"},"vehicle_type_id":"4","last_reported":1726780110,"current_range_meters":17200,"station_id":"ce4bgqh2rcd13ifvqc5g","pricing_plan_id":"cebpf4jnsgd1na2vs0mg"},{"bike_id":"9680a5ae-9565-4f16-a49c-6049cde2422f","system_id":"levelo_inurba_marseille","lat":43.29284,"lon":5.40122,"is_reserved":false,"is_disabled":false,"rental_uris":{"android":"levelo://app?vid=9680a5ae-9565-4f16-a49c-6049cde2422f","ios":"levelo://app?vid=9680a5ae-9565-4f16-a49c-6049cde2422f"},"vehicle_type_id":"4","last_reported":1726780110,"current_range_meters":28000,"station_id":"ce4bh312rcd13ifvqdk0","pricing_plan_id":"cebpf4jnsgd1na2vs0mg"},{"bike_id":"66605760-e5ce-4433-ac25-c9f1b389b6f3","system_id":"levelo_inurba_marseille","lat":43.29888,"lon":5.38909,"is_reserved":false,"is_disabled":false,"rental_uris":{"android":"levelo://app?vid=66605760-e5ce-4433-ac25-c9f1b389b6f3","ios":"levelo://app?vid=66605760-e5ce-4433-ac25-c9f1b389b6f3"},"vehicle_type_id":"4","last_reported":1726780110,"current_range_meters":32000,"station_id":"ce4bh392rcd13ifvqdl0","pricing_plan_id":"cebpf4jnsgd1na2vs0mg"},{"bike_id":"8e6d2fc8-e567-4608-887c-b606408d3c34","system_id":"levelo_inurba_marseille","lat":43.263154,"lon":5.371873,"is_reserved":false,"is_disabled":false,"rental_uris":{"android":"levelo://app?vid=8e6d2fc8-e567-4608-887c-b606408d3c34","ios":"levelo://app?vid=8e6d2fc8-e567-4608-887c-b606408d3c34"},"vehicle_type_id":"4","last_reported":1726780110,"current_range_meters":16800,"station_id":"ce4bh0h2rcd13ifvqd50","pricing_plan_id":"cebpf4jnsgd1na2vs0mg"},{"bike_id":"d6a3ab68-eefc-470d-980e-558c3ad1e585","system_id":"levelo_inurba_marseille","lat":43.30529,"lon":5.38429,"is_reserved":false,"is_disabled":false,"rental_uris":{"android":"levelo://app?vid=d6a3ab68-eefc-470d-980e-558c3ad1e585","ios":"levelo://app?vid=d6a3ab68-eefc-470d-980e-558c3ad1e585"},"vehicle_type_id":"4","last_reported":1726780110,"current_range_meters":38400,"station_id":"ce4bgg92rcd13ifvqb30","pricing_plan_id":"cebpf4jnsgd1na2vs0mg"},{"bike_id":"327530bf-58b6-4c65-86e8-f93d3fc1fe0b","system_id":"levelo_inurba_marseille","lat":43.28358,"lon":5.3865,"is_reserved":false,"is_disabled":false,"rental_uris":{"android":"levelo://app?vid=327530bf-58b6-4c65-86e8-f93d3fc1fe0b","ios":"levelo://app?vid=327530bf-58b6-4c65-86e8-f93d3fc1fe0b"},"vehicle_type_id":"4","last_reported":1726780110,"current_range_meters":2000,"station_id":"ce4bh492rcd13ifvqdvg","pricing_plan_id":"cebpf4jnsgd1na2vs0mg"},{"bike_id":"72afbc88-749c-4ec5-9ff0-ddd824e0a5ba","system_id":"levelo_inurba_marseille","lat":43.27183,"lon":5.40995,"is_reserved":false,"is_disabled":false,"rental_uris":{"android":"levelo://app?vid=72afbc88-749c-4ec5-9ff0-ddd824e0a5ba","ios":"levelo://app?vid=72afbc88-749c-4ec5-9ff0-ddd824e0a5ba"},"vehicle_type_id":"4","last_reported":1726780110,"current_range_meters":38400,"station_id":"ce4bhl12rcd13ifvqgf0","pricing_plan_id":"cebpf4jnsgd1na2vs0mg"},{"bike_id":"8ee6d5db-cb8b-4219-a1d2-5a1a8206952f","system_id":"levelo_inurba_marseille","lat":43.29555,"lon":5.42282,"is_reserved":false,"is_disabled":false,"rental_uris":{"android":"levelo://app?vid=8ee6d5db-cb8b-4219-a1d2-5a1a8206952f","ios":"levelo://app?vid=8ee6d5db-cb8b-4219-a1d2-5a1a8206952f"},"vehicle_type_id":"4","last_reported":1726780110,"current_range_meters":38800,"station_id":"ce4bhph2rcd13ifvqhdg","pricing_plan_id":"cebpf4jnsgd1na2vs0mg"},{"bike_id":"0b489c8a-29e1-4f5d-80ab-4ae77a5d0e18","system_id":"levelo_inurba_marseille","lat":43.29328,"lon":5.3715,"is_reserved":false,"is_disabled":false,"rental_uris":{"android":"levelo://app?vid=0b489c8a-29e1-4f5d-80ab-4ae77a5d0e18","ios":"levelo://app?vid=0b489c8a-29e1-4f5d-80ab-4ae77a5d0e18"},"vehicle_type_id":"4","last_reported":1726780110,"current_range_meters":12000,"station_id":"ce4bgh92rcd13ifvqb40","pricing_plan_id":"cebpf4jnsgd1na2vs0mg"},{"bike_id":"0ff393b5-2680-4ab9-a61b-b35fece17fe2","system_id":"levelo_inurba_marseille","lat":43.34145,"lon":5.409,"is_reserved":false,"is_disabled":false,"rental_uris":{"android":"levelo://app?vid=0ff393b5-2680-4ab9-a61b-b35fece17fe2","ios":"levelo://app?vid=0ff393b5-2680-4ab9-a61b-b35fece17fe2"},"vehicle_type_id":"4","last_reported":1726780110,"current_range_meters":38800,"station_id":"ce4bhqh2rcd13ifvqhlg","pricing_plan_id":"cebpf4jnsgd1na2vs0mg"},{"bike_id":"5767e1a9-48b0-4c74-8627-4d55bc18f357","system_id":"levelo_inurba_marseille","lat":43.25731,"lon":5.41112,"is_reserved":false,"is_disabled":false,"rental_uris":{"android":"levelo://app?vid=5767e1a9-48b0-4c74-8627-4d55bc18f357","ios":"levelo://app?vid=5767e1a9-48b0-4c74-8627-4d55bc18f357"},"vehicle_type_id":"4","last_reported":1726780110,"current_range_meters":22000,"station_id":"ce4bhkp2rcd13ifvqgd0","pricing_plan_id":"cebpf4jnsgd1na2vs0mg"},{"bike_id":"78de459a-8961-48d3-9d87-3a4dc50323f3","system_id":"levelo_inurba_marseille","lat":43.32361,"lon":5.3889,"is_reserved":false,"is_disabled":false,"rental_uris":{"android":"levelo://app?vid=78de459a-8961-48d3-9d87-3a4dc50323f3","ios":"levelo://app?vid=78de459a-8961-48d3-9d87-3a4dc50323f3"},"vehicle_type_id":"4","last_reported":1726780110,"current_range_meters":16800,"station_id":"ce4bhqp2rcd13ifvqhog","pricing_plan_id":"cebpf4jnsgd1na2vs0mg"},{"bike_id":"38dadd8c-d3a2-4d23-ab13-29b99dc8b37a","system_id":"levelo_inurba_marseille","lat":43.33024,"lon":5.39044,"is_reserved":false,"is_disabled":false,"rental_uris":{"android":"levelo://app?vid=38dadd8c-d3a2-4d23-ab13-29b99dc8b37a","ios":"levelo://app?vid=38dadd8c-d3a2-4d23-ab13-29b99dc8b37a"},"vehicle_type_id":"4","last_reported":1726780110,"current_range_meters":16400,"station_id":"ce4bhr92rcd13ifvqhrg","pricing_plan_id":"cebpf4jnsgd1na2vs0mg"},{"bike_id":"e300bc59-4965-4de2-859e-a118857eb8fb","system_id":"levelo_inurba_marseille","lat":43.27614,"lon":5.36109,"is_reserved":false,"is_disabled":false,"rental_uris":{"android":"levelo://app?vid=e300bc59-4965-4de2-859e-a118857eb8fb","ios":"levelo://app?vid=e300bc59-4965-4de2-859e-a118857eb8fb"},"vehicle_type_id":"4","last_reported":1726780110,"current_range_meters":37600,"station_id":"ce4bgj92rcd13ifvqbe0","pricing_plan_id":"cebpf4jnsgd1na2vs0mg"},{"bike_id":"466108db-1d9d-4690-83e9-6a75e28314ef","system_id":"levelo_inurba_marseille","lat":43.317153,"lon":5.436845,"is_reserved":false,"is_disabled":false,"rental_uris":{"android":"levelo://app?vid=466108db-1d9d-4690-83e9-6a75e28314ef","ios":"levelo://app?vid=466108db-1d9d-4690-83e9-6a75e28314ef"},"vehicle_type_id":"4","last_reported":1726780110,"current_range_meters":14400,"station_id":"ce4bhp92rcd13ifvqhcg","pricing_plan_id":"cebpf4jnsgd1na2vs0mg"},{"bike_id":"8d47ac2c-6aff-4006-865b-6319f0339211","system_id":"levelo_inurba_marseille","lat":43.31751,"lon":5.39019,"is_reserved":false,"is_disabled":false,"rental_uris":{"android":"levelo://app?vid=8d47ac2c-6aff-4006-865b-6319f0339211","ios":"levelo://app?vid=8d47ac2c-6aff-4006-865b-6319f0339211"},"vehicle_type_id":"4","last_reported":1726780110,"current_range_meters":38800,"station_id":"ce4bhqp2rcd13ifvqhng","pricing_plan_id":"cebpf4jnsgd1na2vs0mg"},{"bike_id":"d495ce04-6d48-4450-b6b1-d5ddd1249075","system_id":"levelo_inurba_marseille","lat":43.28918,"lon":5.38397,"is_reserved":false,"is_disabled":false,"rental_uris":{"android":"levelo://app?vid=d495ce04-6d48-4450-b6b1-d5ddd1249075","ios":"levelo://app?vid=d495ce04-6d48-4450-b6b1-d5ddd1249075"},"vehicle_type_id":"4","last_reported":1726780110,"current_range_meters":38800,"station_id":"ce4bh612rcd13ifvqe6g","pricing_plan_id":"cebpf4jnsgd1na2vs0mg"},{"bike_id":"0f53cc12-21ea-4b2c-82be-e7ab4beb82bf","system_id":"levelo_inurba_marseille","lat":43.31751,"lon":5.39026,"is_reserved":false,"is_disabled":false,"rental_uris":{"android":"levelo://app?vid=0f53cc12-21ea-4b2c-82be-e7ab4beb82bf","ios":"levelo://app?vid=0f53cc12-21ea-4b2c-82be-e7ab4beb82bf"},"vehicle_type_id":"4","last_reported":1726780110,"current_range_meters":38800,"station_id":"ce4bhqp2rcd13ifvqhng","pricing_plan_id":"cebpf4jnsgd1na2vs0mg"},{"bike_id":"4bb898d6-7c31-4ffc-b3c5-8692a16d600c","system_id":"levelo_inurba_marseille","lat":43.298656,"lon":5.397334,"is_reserved":false,"is_disabled":false,"rental_uris":{"android":"levelo://app?vid=4bb898d6-7c31-4ffc-b3c5-8692a16d600c","ios":"levelo://app?vid=4bb898d6-7c31-4ffc-b3c5-8692a16d600c"},"vehicle_type_id":"4","last_reported":1726780110,"current_range_meters":14000,"station_id":"ce4bh0h2rcd13ifvqd50","pricing_plan_id":"cebpf4jnsgd1na2vs0mg"},{"bike_id":"fadac423-1102-471d-b12e-f79a7c476377","system_id":"levelo_inurba_marseille","lat":43.27908,"lon":5.38014,"is_reserved":false,"is_disabled":false,"rental_uris":{"android":"levelo://app?vid=fadac423-1102-471d-b12e-f79a7c476377","ios":"levelo://app?vid=fadac423-1102-471d-b12e-f79a7c476377"},"vehicle_type_id":"4","last_reported":1726780110,"current_range_meters":38800,"station_id":"ce4bhf92rcd13ifvqf50","pricing_plan_id":"cebpf4jnsgd1na2vs0mg"},{"bike_id":"4114215e-b99f-4882-92c6-f96853aa7056","system_id":"levelo_inurba_marseille","lat":43.29253,"lon":5.408938,"is_reserved":false,"is_disabled":false,"rental_uris":{"android":"levelo://app?vid=4114215e-b99f-4882-92c6-f96853aa7056","ios":"levelo://app?vid=4114215e-b99f-4882-92c6-f96853aa7056"},"vehicle_type_id":"4","last_reported":1726780110,"current_range_meters":30800,"station_id":"ce4bh192rcd13ifvqdc0","pricing_plan_id":"cebpf4jnsgd1na2vs0mg"},{"bike_id":"b153f585-91a7-4778-8e3b-fba7bd4d15f4","system_id":"levelo_inurba_marseille","lat":43.31351,"lon":5.36715,"is_reserved":false,"is_disabled":false,"rental_uris":{"android":"levelo://app?vid=b153f585-91a7-4778-8e3b-fba7bd4d15f4","ios":"levelo://app?vid=b153f585-91a7-4778-8e3b-fba7bd4d15f4"},"vehicle_type_id":"4","last_reported":1726780110,"current_range_meters":37600,"station_id":"ce4bgr92rcd13ifvqc6g","pricing_plan_id":"cebpf4jnsgd1na2vs0mg"},{"bike_id":"d23b9ae4-ccae-4fd5-96e0-0f9d91f82b70","system_id":"levelo_inurba_marseille","lat":43.31223,"lon":5.36869,"is_reserved":false,"is_disabled":false,"rental_uris":{"android":"levelo://app?vid=d23b9ae4-ccae-4fd5-96e0-0f9d91f82b70","ios":"levelo://app?vid=d23b9ae4-ccae-4fd5-96e0-0f9d91f82b70"},"vehicle_type_id":"4","last_reported":1726780110,"current_range_meters":38800,"station_id":"ce4bgl92rcd13ifvqbq0","pricing_plan_id":"cebpf4jnsgd1na2vs0mg"},{"bike_id":"c05abdd6-c69d-4472-842a-bcf2fd61daa1","system_id":"levelo_inurba_marseille","lat":43.29788,"lon":5.39353,"is_reserved":false,"is_disabled":false,"rental_uris":{"android":"levelo://app?vid=c05abdd6-c69d-4472-842a-bcf2fd61daa1","ios":"levelo://app?vid=c05abdd6-c69d-4472-842a-bcf2fd61daa1"},"vehicle_type_id":"4","last_reported":1726780110,"current_range_meters":24800,"station_id":"chh1huq6cuj3fo74tm60","pricing_plan_id":"cebpf4jnsgd1na2vs0mg"},{"bike_id":"27c5c9f5-f14e-4a8b-9dc8-8a569cb24e34","system_id":"levelo_inurba_marseille","lat":43.28458,"lon":5.35881,"is_reserved":false,"is_disabled":false,"rental_uris":{"android":"levelo://app?vid=27c5c9f5-f14e-4a8b-9dc8-8a569cb24e34","ios":"levelo://app?vid=27c5c9f5-f14e-4a8b-9dc8-8a569cb24e34"},"vehicle_type_id":"4","last_reported":1726780110,"current_range_meters":17600,"station_id":"ce4bhah2rcd13ifvqei0","pricing_plan_id":"cebpf4jnsgd1na2vs0mg"},{"bike_id":"0f99561d-c3b7-4d71-8f6c-402f09bcbad6","system_id":"levelo_inurba_marseille","lat":43.25869,"lon":5.39894,"is_reserved":false,"is_disabled":false,"rental_uris":{"android":"levelo://app?vid=0f99561d-c3b7-4d71-8f6c-402f09bcbad6","ios":"levelo://app?vid=0f99561d-c3b7-4d71-8f6c-402f09bcbad6"},"vehicle_type_id":"4","last_reported":1726780110,"current_range_meters":39200,"station_id":"ce4bhl92rcd13ifvqghg","pricing_plan_id":"cebpf4jnsgd1na2vs0mg"},{"bike_id":"2c96f4ad-2c2e-44b8-8e08-a57b6c1eb2e5","system_id":"levelo_inurba_marseille","lat":43.33024,"lon":5.3904,"is_reserved":false,"is_disabled":false,"rental_uris":{"android":"levelo://app?vid=2c96f4ad-2c2e-44b8-8e08-a57b6c1eb2e5","ios":"levelo://app?vid=2c96f4ad-2c2e-44b8-8e08-a57b6c1eb2e5"},"vehicle_type_id":"4","last_reported":1726780110,"current_range_meters":33200,"station_id":"ce4bhr92rcd13ifvqhrg","pricing_plan_id":"cebpf4jnsgd1na2vs0mg"},{"bike_id":"c03a1ab9-85ba-4bc9-aa5b-ac7c1227d1a2","system_id":"levelo_inurba_marseille","lat":43.24549,"lon":5.39524,"is_reserved":false,"is_disabled":false,"rental_uris":{"android":"levelo://app?vid=c03a1ab9-85ba-4bc9-aa5b-ac7c1227d1a2","ios":"levelo://app?vid=c03a1ab9-85ba-4bc9-aa5b-ac7c1227d1a2"},"vehicle_type_id":"4","last_reported":1726780110,"current_range_meters":11600,"station_id":"ce4bhlp2rcd13ifvqgjg","pricing_plan_id":"cebpf4jnsgd1na2vs0mg"},{"bike_id":"4c230512-d70f-46c7-8713-1912d24b8631","system_id":"levelo_inurba_marseille","lat":43.2872,"lon":5.36086,"is_reserved":false,"is_disabled":false,"rental_uris":{"android":"levelo://app?vid=4c230512-d70f-46c7-8713-1912d24b8631","ios":"levelo://app?vid=4c230512-d70f-46c7-8713-1912d24b8631"},"vehicle_type_id":"4","last_reported":1726780110,"current_range_meters":22800,"station_id":"cki0cbj6b192h4jlfktg","pricing_plan_id":"cebpf4jnsgd1na2vs0mg"},{"bike_id":"932d7963-1def-478a-a279-5afe4224ca7d","system_id":"levelo_inurba_marseille","lat":43.26025,"lon":5.37553,"is_reserved":false,"is_disabled":false,"rental_uris":{"android":"levelo://app?vid=932d7963-1def-478a-a279-5afe4224ca7d","ios":"levelo://app?vid=932d7963-1def-478a-a279-5afe4224ca7d"},"vehicle_type_id":"4","last_reported":1726780110,"current_range_meters":38800,"station_id":"ce4bhgh2rcd13ifvqfa0","pricing_plan_id":"cebpf4jnsgd1na2vs0mg"},{"bike_id":"e3678fe5-cd97-41c2-92f5-c59b10e32309","system_id":"levelo_inurba_marseille","lat":43.31525,"lon":5.38042,"is_reserved":false,"is_disabled":false,"rental_uris":{"android":"levelo://app?vid=e3678fe5-cd97-41c2-92f5-c59b10e32309","ios":"levelo://app?vid=e3678fe5-cd97-41c2-92f5-c59b10e32309"},"vehicle_type_id":"4","last_reported":1726780110,"current_range_meters":36800,"station_id":"ce4bhsp2rcd13ifvqi50","pricing_plan_id":"cebpf4jnsgd1na2vs0mg"},{"bike_id":"e9a5d37d-0cb5-44ff-a653-c77a5ca5838b","system_id":"levelo_inurba_marseille","lat":43.31751,"lon":5.39021,"is_reserved":false,"is_disabled":false,"rental_uris":{"android":"levelo://app?vid=e9a5d37d-0cb5-44ff-a653-c77a5ca5838b","ios":"levelo://app?vid=e9a5d37d-0cb5-44ff-a653-c77a5ca5838b"},"vehicle_type_id":"4","last_reported":1726780110,"current_range_meters":38800,"station_id":"ce4bhqp2rcd13ifvqhng","pricing_plan_id":"cebpf4jnsgd1na2vs0mg"},{"bike_id":"c9a20d1a-1368-46f1-8387-996b677b1fc6","system_id":"levelo_inurba_marseille","lat":43.31723,"lon":5.423839,"is_reserved":false,"is_disabled":false,"rental_uris":{"android":"levelo://app?vid=c9a20d1a-1368-46f1-8387-996b677b1fc6","ios":"levelo://app?vid=c9a20d1a-1368-46f1-8387-996b677b1fc6"},"vehicle_type_id":"4","last_reported":1726780110,"current_range_meters":11200,"station_id":"","pricing_plan_id":"cebpf4jnsgd1na2vs0mg"},{"bike_id":"44da3e59-dcf2-4354-910f-f3fece0ed467","system_id":"levelo_inurba_marseille","lat":43.27064,"lon":5.4228,"is_reserved":false,"is_disabled":false,"rental_uris":{"android":"levelo://app?vid=44da3e59-dcf2-4354-910f-f3fece0ed467","ios":"levelo://app?vid=44da3e59-dcf2-4354-910f-f3fece0ed467"},"vehicle_type_id":"4","last_reported":1726780110,"current_range_meters":38800,"station_id":"ce4bhk92rcd13ifvqgb0","pricing_plan_id":"cebpf4jnsgd1na2vs0mg"},{"bike_id":"eb2ef9af-e9bb-4b94-aee1-3fb33b5e66f9","system_id":"levelo_inurba_marseille","lat":43.27997,"lon":5.41666,"is_reserved":false,"is_disabled":false,"rental_uris":{"android":"levelo://app?vid=eb2ef9af-e9bb-4b94-aee1-3fb33b5e66f9","ios":"levelo://app?vid=eb2ef9af-e9bb-4b94-aee1-3fb33b5e66f9"},"vehicle_type_id":"4","last_reported":1726780110,"current_range_meters":38800,"station_id":"ce4bho12rcd13ifvqh1g","pricing_plan_id":"cebpf4jnsgd1na2vs0mg"},{"bike_id":"1f80227b-c6b9-4a4f-bc1d-ca2709170bdc","system_id":"levelo_inurba_marseille","lat":43.25106,"lon":5.40327,"is_reserved":false,"is_disabled":false,"rental_uris":{"android":"levelo://app?vid=1f80227b-c6b9-4a4f-bc1d-ca2709170bdc","ios":"levelo://app?vid=1f80227b-c6b9-4a4f-bc1d-ca2709170bdc"},"vehicle_type_id":"4","last_reported":1726780110,"current_range_meters":12000,"station_id":"ce4bhlh2rcd13ifvqgig","pricing_plan_id":"cebpf4jnsgd1na2vs0mg"},{"bike_id":"bbabc812-5d4f-4dde-ac4b-6c59e8a40a27","system_id":"levelo_inurba_marseille","lat":43.27497,"lon":5.42447,"is_reserved":false,"is_disabled":false,"rental_uris":{"android":"levelo://app?vid=bbabc812-5d4f-4dde-ac4b-6c59e8a40a27","ios":"levelo://app?vid=bbabc812-5d4f-4dde-ac4b-6c59e8a40a27"},"vehicle_type_id":"4","last_reported":1726780110,"current_range_meters":36000,"station_id":"ce4bhn92rcd13ifvqgrg","pricing_plan_id":"cebpf4jnsgd1na2vs0mg"},{"bike_id":"94743f7f-9e77-4c7e-8f58-8c8dbc1498a1","system_id":"levelo_inurba_marseille","lat":43.24803,"lon":5.37457,"is_reserved":false,"is_disabled":false,"rental_uris":{"android":"levelo://app?vid=94743f7f-9e77-4c7e-8f58-8c8dbc1498a1","ios":"levelo://app?vid=94743f7f-9e77-4c7e-8f58-8c8dbc1498a1"},"vehicle_type_id":"4","last_reported":1726780110,"current_range_meters":38400,"station_id":"ce4bhgh2rcd13ifvqfb0","pricing_plan_id":"cebpf4jnsgd1na2vs0mg"},{"bike_id":"9f8649e2-75d2-4d09-94ee-538fd13f9680","system_id":"levelo_inurba_marseille","lat":43.33606,"lon":5.4103,"is_reserved":false,"is_disabled":false,"rental_uris":{"android":"levelo://app?vid=9f8649e2-75d2-4d09-94ee-538fd13f9680","ios":"levelo://app?vid=9f8649e2-75d2-4d09-94ee-538fd13f9680"},"vehicle_type_id":"4","last_reported":1726780110,"current_range_meters":38800,"station_id":"ce4bhqh2rcd13ifvqhmg","pricing_plan_id":"cebpf4jnsgd1na2vs0mg"},{"bike_id":"05f6fc60-c8a7-45e7-88b7-036dbeb6c828","system_id":"levelo_inurba_marseille","lat":43.2846,"lon":5.35887,"is_reserved":false,"is_disabled":false,"rental_uris":{"android":"levelo://app?vid=05f6fc60-c8a7-45e7-88b7-036dbeb6c828","ios":"levelo://app?vid=05f6fc60-c8a7-45e7-88b7-036dbeb6c828"},"vehicle_type_id":"4","last_reported":1726780110,"current_range_meters":36000,"station_id":"ce4bhah2rcd13ifvqei0","pricing_plan_id":"cebpf4jnsgd1na2vs0mg"},{"bike_id":"dd584773-adaf-4b1b-8f11-fcfca5f7bc1d","system_id":"levelo_inurba_marseille","lat":43.28089,"lon":5.39663,"is_reserved":false,"is_disabled":false,"rental_uris":{"android":"levelo://app?vid=dd584773-adaf-4b1b-8f11-fcfca5f7bc1d","ios":"levelo://app?vid=dd584773-adaf-4b1b-8f11-fcfca5f7bc1d"},"vehicle_type_id":"4","last_reported":1726780110,"current_range_meters":25200,"station_id":"ce4bho12rcd13ifvqh2g","pricing_plan_id":"cebpf4jnsgd1na2vs0mg"},{"bike_id":"d095a2de-cb44-4d0b-9d57-524091713fe6","system_id":"levelo_inurba_marseille","lat":43.29199,"lon":5.39335,"is_reserved":false,"is_disabled":false,"rental_uris":{"android":"levelo://app?vid=d095a2de-cb44-4d0b-9d57-524091713fe6","ios":"levelo://app?vid=d095a2de-cb44-4d0b-9d57-524091713fe6"},"vehicle_type_id":"4","last_reported":1726780110,"current_range_meters":20000,"station_id":"ce4bh192rcd13ifvqdd0","pricing_plan_id":"cebpf4jnsgd1na2vs0mg"},{"bike_id":"dd74e259-a115-47c5-afe1-b8dee667f7eb","system_id":"levelo_inurba_marseille","lat":43.28685,"lon":5.38657,"is_reserved":false,"is_disabled":false,"rental_uris":{"android":"levelo://app?vid=dd74e259-a115-47c5-afe1-b8dee667f7eb","ios":"levelo://app?vid=dd74e259-a115-47c5-afe1-b8dee667f7eb"},"vehicle_type_id":"4","last_reported":1726780110,"current_range_meters":16400,"station_id":"ce4bh492rcd13ifvqdug","pricing_plan_id":"cebpf4jnsgd1na2vs0mg"},{"bike_id":"1bd9aea9-da31-4368-b338-3635b5620571","system_id":"levelo_inurba_marseille","lat":43.2396,"lon":5.36637,"is_reserved":false,"is_disabled":false,"rental_uris":{"android":"levelo://app?vid=1bd9aea9-da31-4368-b338-3635b5620571","ios":"levelo://app?vid=1bd9aea9-da31-4368-b338-3635b5620571"},"vehicle_type_id":"4","last_reported":1726780110,"current_range_meters":24400,"station_id":"ce4bhi12rcd13ifvqfp0","pricing_plan_id":"cebpf4jnsgd1na2vs0mg"},{"bike_id":"09663c06-875e-4d80-ae33-d09ac53a0959","system_id":"levelo_inurba_marseille","lat":43.29264,"lon":5.40902,"is_reserved":false,"is_disabled":false,"rental_uris":{"android":"levelo://app?vid=09663c06-875e-4d80-ae33-d09ac53a0959","ios":"levelo://app?vid=09663c06-875e-4d80-ae33-d09ac53a0959"},"vehicle_type_id":"4","last_reported":1726780110,"current_range_meters":25600,"station_id":"ce4bh192rcd13ifvqdc0","pricing_plan_id":"cebpf4jnsgd1na2vs0mg"},{"bike_id":"8bded9b1-4958-41a5-9529-392455536bc5","system_id":"levelo_inurba_marseille","lat":43.27494,"lon":5.42453,"is_reserved":false,"is_disabled":false,"rental_uris":{"android":"levelo://app?vid=8bded9b1-4958-41a5-9529-392455536bc5","ios":"levelo://app?vid=8bded9b1-4958-41a5-9529-392455536bc5"},"vehicle_type_id":"4","last_reported":1726780110,"current_range_meters":38800,"station_id":"ce4bhn92rcd13ifvqgrg","pricing_plan_id":"cebpf4jnsgd1na2vs0mg"},{"bike_id":"a2eb1526-071c-462b-ae89-1cca26b21959","system_id":"levelo_inurba_marseille","lat":43.31368,"lon":5.38496,"is_reserved":false,"is_disabled":false,"rental_uris":{"android":"levelo://app?vid=a2eb1526-071c-462b-ae89-1cca26b21959","ios":"levelo://app?vid=a2eb1526-071c-462b-ae89-1cca26b21959"},"vehicle_type_id":"4","last_reported":1726780110,"current_range_meters":10000,"station_id":"ce4bgt92rcd13ifvqcf0","pricing_plan_id":"cebpf4jnsgd1na2vs0mg"},{"bike_id":"be94c59f-2016-4732-9f99-b945584a5279","system_id":"levelo_inurba_marseille","lat":43.23162,"lon":5.43716,"is_reserved":false,"is_disabled":false,"rental_uris":{"android":"levelo://app?vid=be94c59f-2016-4732-9f99-b945584a5279","ios":"levelo://app?vid=be94c59f-2016-4732-9f99-b945584a5279"},"vehicle_type_id":"4","last_reported":1726780110,"current_range_meters":27200,"station_id":"ce4bhmp2rcd13ifvqgog","pricing_plan_id":"cebpf4jnsgd1na2vs0mg"},{"bike_id":"35b5402e-439d-435e-b161-9776477f6ee9","system_id":"levelo_inurba_marseille","lat":43.29528,"lon":5.39409,"is_reserved":false,"is_disabled":false,"rental_uris":{"android":"levelo://app?vid=35b5402e-439d-435e-b161-9776477f6ee9","ios":"levelo://app?vid=35b5402e-439d-435e-b161-9776477f6ee9"},"vehicle_type_id":"4","last_reported":1726780110,"current_range_meters":38800,"station_id":"ce4bh292rcd13ifvqdf0","pricing_plan_id":"cebpf4jnsgd1na2vs0mg"},{"bike_id":"4fa0ca0d-342c-4cd6-990b-f5e4ae40db2b","system_id":"levelo_inurba_marseille","lat":43.29965,"lon":5.41331,"is_reserved":false,"is_disabled":false,"rental_uris":{"android":"levelo://app?vid=4fa0ca0d-342c-4cd6-990b-f5e4ae40db2b","ios":"levelo://app?vid=4fa0ca0d-342c-4cd6-990b-f5e4ae40db2b"},"vehicle_type_id":"4","last_reported":1726780110,"current_range_meters":38400,"station_id":"ce4bhp12rcd13ifvqh9g","pricing_plan_id":"cebpf4jnsgd1na2vs0mg"},{"bike_id":"1b297945-7c8a-4e0e-b2c4-bc43a6c00be3","system_id":"levelo_inurba_marseille","lat":43.24649,"lon":5.388916,"is_reserved":false,"is_disabled":false,"rental_uris":{"android":"levelo://app?vid=1b297945-7c8a-4e0e-b2c4-bc43a6c00be3","ios":"levelo://app?vid=1b297945-7c8a-4e0e-b2c4-bc43a6c00be3"},"vehicle_type_id":"4","last_reported":1726780110,"current_range_meters":12000,"station_id":"ce4bhg12rcd13ifvqf60","pricing_plan_id":"cebpf4jnsgd1na2vs0mg"},{"bike_id":"e591a483-ae4e-4014-bc0e-b00942cd6486","system_id":"levelo_inurba_marseille","lat":43.25496,"lon":5.37655,"is_reserved":false,"is_disabled":false,"rental_uris":{"android":"levelo://app?vid=e591a483-ae4e-4014-bc0e-b00942cd6486","ios":"levelo://app?vid=e591a483-ae4e-4014-bc0e-b00942cd6486"},"vehicle_type_id":"4","last_reported":1726780110,"current_range_meters":38800,"station_id":"ce4bhh12rcd13ifvqff0","pricing_plan_id":"cebpf4jnsgd1na2vs0mg"},{"bike_id":"83ef1383-3d59-49e3-aa69-20217af57790","system_id":"levelo_inurba_marseille","lat":43.29033,"lon":5.39969,"is_reserved":false,"is_disabled":false,"rental_uris":{"android":"levelo://app?vid=83ef1383-3d59-49e3-aa69-20217af57790","ios":"levelo://app?vid=83ef1383-3d59-49e3-aa69-20217af57790"},"vehicle_type_id":"4","last_reported":1726780110,"current_range_meters":8800,"station_id":"ce4bh392rcd13ifvqdm0","pricing_plan_id":"cebpf4jnsgd1na2vs0mg"},{"bike_id":"7da8b691-08cd-4492-b3b2-ddefd4d25596","system_id":"levelo_inurba_marseille","lat":43.27916,"lon":5.38771,"is_reserved":false,"is_disabled":false,"rental_uris":{"android":"levelo://app?vid=7da8b691-08cd-4492-b3b2-ddefd4d25596","ios":"levelo://app?vid=7da8b691-08cd-4492-b3b2-ddefd4d25596"},"vehicle_type_id":"4","last_reported":1726780110,"current_range_meters":36800,"station_id":"","pricing_plan_id":"cebpf4jnsgd1na2vs0mg"},{"bike_id":"ee2ae07a-387b-4f30-9eaf-a0669ad17e67","system_id":"levelo_inurba_marseille","lat":43.3009,"lon":5.39066,"is_reserved":false,"is_disabled":false,"rental_uris":{"android":"levelo://app?vid=ee2ae07a-387b-4f30-9eaf-a0669ad17e67","ios":"levelo://app?vid=ee2ae07a-387b-4f30-9eaf-a0669ad17e67"},"vehicle_type_id":"4","last_reported":1726780110,"current_range_meters":12400,"station_id":"ce4bh192rcd13ifvqdb0","pricing_plan_id":"cebpf4jnsgd1na2vs0mg"},{"bike_id":"07fcfce5-54a0-4550-9885-ea4d8e42bc22","system_id":"levelo_inurba_marseille","lat":43.279022,"lon":5.395699,"is_reserved":false,"is_disabled":false,"rental_uris":{"android":"levelo://app?vid=07fcfce5-54a0-4550-9885-ea4d8e42bc22","ios":"levelo://app?vid=07fcfce5-54a0-4550-9885-ea4d8e42bc22"},"vehicle_type_id":"4","last_reported":1726780110,"current_range_meters":30000,"station_id":"ce4bhf92rcd13ifvqf40","pricing_plan_id":"cebpf4jnsgd1na2vs0mg"},{"bike_id":"0c30f822-5143-4be7-b857-82e09a21a343","system_id":"levelo_inurba_marseille","lat":43.30524,"lon":5.36718,"is_reserved":false,"is_disabled":false,"rental_uris":{"android":"levelo://app?vid=0c30f822-5143-4be7-b857-82e09a21a343","ios":"levelo://app?vid=0c30f822-5143-4be7-b857-82e09a21a343"},"vehicle_type_id":"4","last_reported":1726780110,"current_range_meters":36400,"station_id":"ce4bgrp2rcd13ifvqc9g","pricing_plan_id":"cebpf4jnsgd1na2vs0mg"},{"bike_id":"2d8281c6-056d-4fac-979c-6708b61c9726","system_id":"levelo_inurba_marseille","lat":43.26063,"lon":5.394,"is_reserved":false,"is_disabled":false,"rental_uris":{"android":"levelo://app?vid=2d8281c6-056d-4fac-979c-6708b61c9726","ios":"levelo://app?vid=2d8281c6-056d-4fac-979c-6708b61c9726"},"vehicle_type_id":"4","last_reported":1726780110,"current_range_meters":27600,"station_id":"ce4bhh92rcd13ifvqfj0","pricing_plan_id":"cebpf4jnsgd1na2vs0mg"},{"bike_id":"5705acbc-d503-4f36-a9f5-13b5f18aa34d","system_id":"levelo_inurba_marseille","lat":43.23954,"lon":5.36645,"is_reserved":false,"is_disabled":false,"rental_uris":{"android":"levelo://app?vid=5705acbc-d503-4f36-a9f5-13b5f18aa34d","ios":"levelo://app?vid=5705acbc-d503-4f36-a9f5-13b5f18aa34d"},"vehicle_type_id":"4","last_reported":1726780110,"current_range_meters":37600,"station_id":"ce4bhi12rcd13ifvqfp0","pricing_plan_id":"cebpf4jnsgd1na2vs0mg"},{"bike_id":"05035e18-c624-4ff9-a16d-de5fbf15eae2","system_id":"levelo_inurba_marseille","lat":43.2886,"lon":5.35853,"is_reserved":false,"is_disabled":false,"rental_uris":{"android":"levelo://app?vid=05035e18-c624-4ff9-a16d-de5fbf15eae2","ios":"levelo://app?vid=05035e18-c624-4ff9-a16d-de5fbf15eae2"},"vehicle_type_id":"4","last_reported":1726780110,"current_range_meters":39200,"station_id":"ce4bhb12rcd13ifvqem0","pricing_plan_id":"cebpf4jnsgd1na2vs0mg"},{"bike_id":"11228085-23e5-4c89-842a-c1aca906e3a6","system_id":"levelo_inurba_marseille","lat":43.27995,"lon":5.4166,"is_reserved":false,"is_disabled":false,"rental_uris":{"android":"levelo://app?vid=11228085-23e5-4c89-842a-c1aca906e3a6","ios":"levelo://app?vid=11228085-23e5-4c89-842a-c1aca906e3a6"},"vehicle_type_id":"4","last_reported":1726780110,"current_range_meters":38800,"station_id":"ce4bho12rcd13ifvqh1g","pricing_plan_id":"cebpf4jnsgd1na2vs0mg"},{"bike_id":"c9f3a0b8-525c-4ab6-9937-fd795d03618e","system_id":"levelo_inurba_marseille","lat":43.26057,"lon":5.39398,"is_reserved":false,"is_disabled":false,"rental_uris":{"android":"levelo://app?vid=c9f3a0b8-525c-4ab6-9937-fd795d03618e","ios":"levelo://app?vid=c9f3a0b8-525c-4ab6-9937-fd795d03618e"},"vehicle_type_id":"4","last_reported":1726780110,"current_range_meters":38800,"station_id":"ce4bhh92rcd13ifvqfj0","pricing_plan_id":"cebpf4jnsgd1na2vs0mg"},{"bike_id":"cd8e9929-c995-4a74-af9f-d79388bb1f25","system_id":"levelo_inurba_marseille","lat":43.28858,"lon":5.39309,"is_reserved":false,"is_disabled":false,"rental_uris":{"android":"levelo://app?vid=cd8e9929-c995-4a74-af9f-d79388bb1f25","ios":"levelo://app?vid=cd8e9929-c995-4a74-af9f-d79388bb1f25"},"vehicle_type_id":"4","last_reported":1726780110,"current_range_meters":10800,"station_id":"ce4bh2p2rcd13ifvqdi0","pricing_plan_id":"cebpf4jnsgd1na2vs0mg"},{"bike_id":"ac49b01f-2e9e-4a24-94ed-41fc5c8d74cb","system_id":"levelo_inurba_marseille","lat":43.29785,"lon":5.39342,"is_reserved":false,"is_disabled":false,"rental_uris":{"android":"levelo://app?vid=ac49b01f-2e9e-4a24-94ed-41fc5c8d74cb","ios":"levelo://app?vid=ac49b01f-2e9e-4a24-94ed-41fc5c8d74cb"},"vehicle_type_id":"4","last_reported":1726780110,"current_range_meters":25200,"station_id":"chh1huq6cuj3fo74tm60","pricing_plan_id":"cebpf4jnsgd1na2vs0mg"},{"bike_id":"1edca639-3336-4120-8e77-24c4159a23de","system_id":"levelo_inurba_marseille","lat":43.291687,"lon":5.37156,"is_reserved":false,"is_disabled":false,"rental_uris":{"android":"levelo://app?vid=1edca639-3336-4120-8e77-24c4159a23de","ios":"levelo://app?vid=1edca639-3336-4120-8e77-24c4159a23de"},"vehicle_type_id":"4","last_reported":1726780110,"current_range_meters":38800,"station_id":"ce4bha92rcd13ifvqeh0","pricing_plan_id":"cebpf4jnsgd1na2vs0mg"},{"bike_id":"7b9dd459-340b-4978-bfb0-6c163a5263e8","system_id":"levelo_inurba_marseille","lat":43.23189,"lon":5.35553,"is_reserved":false,"is_disabled":false,"rental_uris":{"android":"levelo://app?vid=7b9dd459-340b-4978-bfb0-6c163a5263e8","ios":"levelo://app?vid=7b9dd459-340b-4978-bfb0-6c163a5263e8"},"vehicle_type_id":"4","last_reported":1726780110,"current_range_meters":38800,"station_id":"ce4bhu92rcd13ifvqi70","pricing_plan_id":"cebpf4jnsgd1na2vs0mg"},{"bike_id":"47c56b71-2560-481e-a76e-8d39095c725b","system_id":"levelo_inurba_marseille","lat":43.25002,"lon":5.3893,"is_reserved":false,"is_disabled":false,"rental_uris":{"android":"levelo://app?vid=47c56b71-2560-481e-a76e-8d39095c725b","ios":"levelo://app?vid=47c56b71-2560-481e-a76e-8d39095c725b"},"vehicle_type_id":"4","last_reported":1726780110,"current_range_meters":38800,"station_id":"ce4bhgp2rcd13ifvqfd0","pricing_plan_id":"cebpf4jnsgd1na2vs0mg"},{"bike_id":"e3d2cb34-c757-45ad-beac-0be6b9457278","system_id":"levelo_inurba_marseille","lat":43.30803,"lon":5.43525,"is_reserved":false,"is_disabled":false,"rental_uris":{"android":"levelo://app?vid=e3d2cb34-c757-45ad-beac-0be6b9457278","ios":"levelo://app?vid=e3d2cb34-c757-45ad-beac-0be6b9457278"},"vehicle_type_id":"4","last_reported":1726780110,"current_range_meters":37600,"station_id":"ce4bhph2rcd13ifvqheg","pricing_plan_id":"cebpf4jnsgd1na2vs0mg"},{"bike_id":"87440cd1-4d99-421b-9f62-83acc0dd5fa9","system_id":"levelo_inurba_marseille","lat":43.32366,"lon":5.38874,"is_reserved":false,"is_disabled":false,"rental_uris":{"android":"levelo://app?vid=87440cd1-4d99-421b-9f62-83acc0dd5fa9","ios":"levelo://app?vid=87440cd1-4d99-421b-9f62-83acc0dd5fa9"},"vehicle_type_id":"4","last_reported":1726780110,"current_range_meters":2800,"station_id":"ce4bhqp2rcd13ifvqhog","pricing_plan_id":"cebpf4jnsgd1na2vs0mg"},{"bike_id":"408a7389-3635-4c64-9b5e-576ef3edf329","system_id":"levelo_inurba_marseille","lat":43.301514,"lon":5.380765,"is_reserved":false,"is_disabled":false,"rental_uris":{"android":"levelo://app?vid=408a7389-3635-4c64-9b5e-576ef3edf329","ios":"levelo://app?vid=408a7389-3635-4c64-9b5e-576ef3edf329"},"vehicle_type_id":"4","last_reported":1726780110,"current_range_meters":15200,"station_id":"ce4bgt12rcd13ifvqcd0","pricing_plan_id":"cebpf4jnsgd1na2vs0mg"},{"bike_id":"dad38bd6-f634-4d80-9e1a-573af50bb627","system_id":"levelo_inurba_marseille","lat":43.3117,"lon":5.38716,"is_reserved":false,"is_disabled":false,"rental_uris":{"android":"levelo://app?vid=dad38bd6-f634-4d80-9e1a-573af50bb627","ios":"levelo://app?vid=dad38bd6-f634-4d80-9e1a-573af50bb627"},"vehicle_type_id":"4","last_reported":1726780110,"current_range_meters":11200,"station_id":"ce4bgv12rcd13ifvqcp0","pricing_plan_id":"cebpf4jnsgd1na2vs0mg"},{"bike_id":"876be530-93a8-40a0-ae3a-03a728a47b3a","system_id":"levelo_inurba_marseille","lat":43.29414,"lon":5.38628,"is_reserved":false,"is_disabled":false,"rental_uris":{"android":"levelo://app?vid=876be530-93a8-40a0-ae3a-03a728a47b3a","ios":"levelo://app?vid=876be530-93a8-40a0-ae3a-03a728a47b3a"},"vehicle_type_id":"4","last_reported":1726780110,"current_range_meters":3200,"station_id":"ce4bh2h2rcd13ifvqdh0","pricing_plan_id":"cebpf4jnsgd1na2vs0mg"},{"bike_id":"010d89de-6be0-4954-8660-15897686fb5a","system_id":"levelo_inurba_marseille","lat":43.31178,"lon":5.38711,"is_reserved":false,"is_disabled":false,"rental_uris":{"android":"levelo://app?vid=010d89de-6be0-4954-8660-15897686fb5a","ios":"levelo://app?vid=010d89de-6be0-4954-8660-15897686fb5a"},"vehicle_type_id":"4","last_reported":1726780110,"current_range_meters":22000,"station_id":"ce4bgv12rcd13ifvqcp0","pricing_plan_id":"cebpf4jnsgd1na2vs0mg"},{"bike_id":"f0acb984-d113-4e73-b246-74f9b542af03","system_id":"levelo_inurba_marseille","lat":43.27907,"lon":5.38016,"is_reserved":false,"is_disabled":false,"rental_uris":{"android":"levelo://app?vid=f0acb984-d113-4e73-b246-74f9b542af03","ios":"levelo://app?vid=f0acb984-d113-4e73-b246-74f9b542af03"},"vehicle_type_id":"4","last_reported":1726780110,"current_range_meters":26800,"station_id":"ce4bhf92rcd13ifvqf50","pricing_plan_id":"cebpf4jnsgd1na2vs0mg"},{"bike_id":"59526314-6814-428f-9df0-ead1cf1c2777","system_id":"levelo_inurba_marseille","lat":43.25934,"lon":5.4092,"is_reserved":false,"is_disabled":false,"rental_uris":{"android":"levelo://app?vid=59526314-6814-428f-9df0-ead1cf1c2777","ios":"levelo://app?vid=59526314-6814-428f-9df0-ead1cf1c2777"},"vehicle_type_id":"4","last_reported":1726780110,"current_range_meters":36800,"station_id":"ce4bhm92rcd13ifvqglg","pricing_plan_id":"cebpf4jnsgd1na2vs0mg"},{"bike_id":"c2f8d79c-0cd5-4170-922e-dd55f954b76c","system_id":"levelo_inurba_marseille","lat":43.278015,"lon":5.406922,"is_reserved":false,"is_disabled":false,"rental_uris":{"android":"levelo://app?vid=c2f8d79c-0cd5-4170-922e-dd55f954b76c","ios":"levelo://app?vid=c2f8d79c-0cd5-4170-922e-dd55f954b76c"},"vehicle_type_id":"4","last_reported":1726780110,"current_range_meters":24800,"station_id":"ce4bhnh2rcd13ifvqgtg","pricing_plan_id":"cebpf4jnsgd1na2vs0mg"},{"bike_id":"8ffa1982-6191-434e-b395-24a81023ee09","system_id":"levelo_inurba_marseille","lat":43.2836,"lon":5.38111,"is_reserved":false,"is_disabled":false,"rental_uris":{"android":"levelo://app?vid=8ffa1982-6191-434e-b395-24a81023ee09","ios":"levelo://app?vid=8ffa1982-6191-434e-b395-24a81023ee09"},"vehicle_type_id":"4","last_reported":1726780110,"current_range_meters":19600,"station_id":"ce4bh412rcd13ifvqdr0","pricing_plan_id":"cebpf4jnsgd1na2vs0mg"},{"bike_id":"0fc13407-e0a2-4110-bcd0-20cb93aa518b","system_id":"levelo_inurba_marseille","lat":43.2848,"lon":5.3842,"is_reserved":false,"is_disabled":false,"rental_uris":{"android":"levelo://app?vid=0fc13407-e0a2-4110-bcd0-20cb93aa518b","ios":"levelo://app?vid=0fc13407-e0a2-4110-bcd0-20cb93aa518b"},"vehicle_type_id":"4","last_reported":1726780110,"current_range_meters":22800,"station_id":"ce4bh512rcd13ifvqe3g","pricing_plan_id":"cebpf4jnsgd1na2vs0mg"},{"bike_id":"a6138b45-7e28-438c-b576-0f9f8832e4f6","system_id":"levelo_inurba_marseille","lat":43.32662,"lon":5.40998,"is_reserved":false,"is_disabled":false,"rental_uris":{"android":"levelo://app?vid=a6138b45-7e28-438c-b576-0f9f8832e4f6","ios":"levelo://app?vid=a6138b45-7e28-438c-b576-0f9f8832e4f6"},"vehicle_type_id":"4","last_reported":1726780110,"current_range_meters":8800,"station_id":"ce4bhpp2rcd13ifvqhgg","pricing_plan_id":"cebpf4jnsgd1na2vs0mg"},{"bike_id":"02da36e0-efc9-45d8-a2c7-4c1db99ae3a5","system_id":"levelo_inurba_marseille","lat":43.292725,"lon":5.384241,"is_reserved":false,"is_disabled":false,"rental_uris":{"android":"levelo://app?vid=02da36e0-efc9-45d8-a2c7-4c1db99ae3a5","ios":"levelo://app?vid=02da36e0-efc9-45d8-a2c7-4c1db99ae3a5"},"vehicle_type_id":"4","last_reported":1726780110,"current_range_meters":38800,"station_id":"ce4bh692rcd13ifvqea0","pricing_plan_id":"cebpf4jnsgd1na2vs0mg"},{"bike_id":"e8838fc0-3cd4-4213-84e3-c33f37fcda59","system_id":"levelo_inurba_marseille","lat":43.25828,"lon":5.39435,"is_reserved":false,"is_disabled":false,"rental_uris":{"android":"levelo://app?vid=e8838fc0-3cd4-4213-84e3-c33f37fcda59","ios":"levelo://app?vid=e8838fc0-3cd4-4213-84e3-c33f37fcda59"},"vehicle_type_id":"4","last_reported":1726780110,"current_range_meters":38800,"station_id":"ce4bhip2rcd13ifvqft0","pricing_plan_id":"cebpf4jnsgd1na2vs0mg"},{"bike_id":"ef180934-2dae-4833-acdd-ed74426bbff7","system_id":"levelo_inurba_marseille","lat":43.31328,"lon":5.39693,"is_reserved":false,"is_disabled":false,"rental_uris":{"android":"levelo://app?vid=ef180934-2dae-4833-acdd-ed74426bbff7","ios":"levelo://app?vid=ef180934-2dae-4833-acdd-ed74426bbff7"},"vehicle_type_id":"4","last_reported":1726780110,"current_range_meters":38800,"station_id":"ce4bgvp2rcd13ifvqcu0","pricing_plan_id":"cebpf4jnsgd1na2vs0mg"},{"bike_id":"4edcc49b-9769-4fb2-8d02-550ab3e6f485","system_id":"levelo_inurba_marseille","lat":43.29767,"lon":5.37105,"is_reserved":false,"is_disabled":false,"rental_uris":{"android":"levelo://app?vid=4edcc49b-9769-4fb2-8d02-550ab3e6f485","ios":"levelo://app?vid=4edcc49b-9769-4fb2-8d02-550ab3e6f485"},"vehicle_type_id":"4","last_reported":1726780110,"current_range_meters":36000,"station_id":"ce4bgop2rcd13ifvqc1g","pricing_plan_id":"cebpf4jnsgd1na2vs0mg"},{"bike_id":"eb2bede7-1cfc-481d-95f0-4175f9ef21df","system_id":"levelo_inurba_marseille","lat":43.2594,"lon":5.40905,"is_reserved":false,"is_disabled":false,"rental_uris":{"android":"levelo://app?vid=eb2bede7-1cfc-481d-95f0-4175f9ef21df","ios":"levelo://app?vid=eb2bede7-1cfc-481d-95f0-4175f9ef21df"},"vehicle_type_id":"4","last_reported":1726780110,"current_range_meters":19600,"station_id":"ce4bhm92rcd13ifvqglg","pricing_plan_id":"cebpf4jnsgd1na2vs0mg"},{"bike_id":"dbc1e49a-2a6e-4685-a7f9-548debfb0042","system_id":"levelo_inurba_marseille","lat":43.24815,"lon":5.37461,"is_reserved":false,"is_disabled":false,"rental_uris":{"android":"levelo://app?vid=dbc1e49a-2a6e-4685-a7f9-548debfb0042","ios":"levelo://app?vid=dbc1e49a-2a6e-4685-a7f9-548debfb0042"},"vehicle_type_id":"4","last_reported":1726780110,"current_range_meters":4800,"station_id":"ce4bhgh2rcd13ifvqfb0","pricing_plan_id":"cebpf4jnsgd1na2vs0mg"},{"bike_id":"f0358b7c-0d51-45cd-b0f4-25d08b472a8f","system_id":"levelo_inurba_marseille","lat":43.31715,"lon":5.37754,"is_reserved":false,"is_disabled":false,"rental_uris":{"android":"levelo://app?vid=f0358b7c-0d51-45cd-b0f4-25d08b472a8f","ios":"levelo://app?vid=f0358b7c-0d51-45cd-b0f4-25d08b472a8f"},"vehicle_type_id":"4","last_reported":1726780110,"current_range_meters":32000,"station_id":"ce4bgth2rcd13ifvqch0","pricing_plan_id":"cebpf4jnsgd1na2vs0mg"},{"bike_id":"d28d7583-4be1-4af3-88da-fb58a3be4df3","system_id":"levelo_inurba_marseille","lat":43.29196,"lon":5.35807,"is_reserved":false,"is_disabled":false,"rental_uris":{"android":"levelo://app?vid=d28d7583-4be1-4af3-88da-fb58a3be4df3","ios":"levelo://app?vid=d28d7583-4be1-4af3-88da-fb58a3be4df3"},"vehicle_type_id":"4","last_reported":1726780110,"current_range_meters":17600,"station_id":"ce4bhb12rcd13ifvqel0","pricing_plan_id":"cebpf4jnsgd1na2vs0mg"},{"bike_id":"b639e14f-e095-4c35-8c20-ce3aa7b199ab","system_id":"levelo_inurba_marseille","lat":43.3117,"lon":5.38711,"is_reserved":false,"is_disabled":false,"rental_uris":{"android":"levelo://app?vid=b639e14f-e095-4c35-8c20-ce3aa7b199ab","ios":"levelo://app?vid=b639e14f-e095-4c35-8c20-ce3aa7b199ab"},"vehicle_type_id":"4","last_reported":1726780110,"current_range_meters":36400,"station_id":"ce4bgv12rcd13ifvqcp0","pricing_plan_id":"cebpf4jnsgd1na2vs0mg"},{"bike_id":"6c9203fc-fa5f-4aed-9d55-ad66cd264384","system_id":"levelo_inurba_marseille","lat":43.30802,"lon":5.3817,"is_reserved":false,"is_disabled":false,"rental_uris":{"android":"levelo://app?vid=6c9203fc-fa5f-4aed-9d55-ad66cd264384","ios":"levelo://app?vid=6c9203fc-fa5f-4aed-9d55-ad66cd264384"},"vehicle_type_id":"4","last_reported":1726780110,"current_range_meters":28400,"station_id":"ce4bgt12rcd13ifvqce0","pricing_plan_id":"cebpf4jnsgd1na2vs0mg"},{"bike_id":"46c81631-f9df-4d0f-bfb6-7099ccd4c02c","system_id":"levelo_inurba_marseille","lat":43.29275,"lon":5.36842,"is_reserved":false,"is_disabled":false,"rental_uris":{"android":"levelo://app?vid=46c81631-f9df-4d0f-bfb6-7099ccd4c02c","ios":"levelo://app?vid=46c81631-f9df-4d0f-bfb6-7099ccd4c02c"},"vehicle_type_id":"4","last_reported":1726780110,"current_range_meters":38800,"station_id":"ce4bhbp2rcd13ifvqesg","pricing_plan_id":"cebpf4jnsgd1na2vs0mg"},{"bike_id":"ee41bdc7-00d2-44a5-9eb9-55f6a395866e","system_id":"levelo_inurba_marseille","lat":43.31166,"lon":5.3871,"is_reserved":false,"is_disabled":false,"rental_uris":{"android":"levelo://app?vid=ee41bdc7-00d2-44a5-9eb9-55f6a395866e","ios":"levelo://app?vid=ee41bdc7-00d2-44a5-9eb9-55f6a395866e"},"vehicle_type_id":"4","last_reported":1726780110,"current_range_meters":37600,"station_id":"ce4bgv12rcd13ifvqcp0","pricing_plan_id":"cebpf4jnsgd1na2vs0mg"},{"bike_id":"82ea35eb-356c-435a-af7e-f3943eee0033","system_id":"levelo_inurba_marseille","lat":43.31527,"lon":5.38028,"is_reserved":false,"is_disabled":false,"rental_uris":{"android":"levelo://app?vid=82ea35eb-356c-435a-af7e-f3943eee0033","ios":"levelo://app?vid=82ea35eb-356c-435a-af7e-f3943eee0033"},"vehicle_type_id":"4","last_reported":1726780110,"current_range_meters":38800,"station_id":"ce4bhsp2rcd13ifvqi50","pricing_plan_id":"cebpf4jnsgd1na2vs0mg"},{"bike_id":"902190e7-1fe9-4270-9546-498dac581307","system_id":"levelo_inurba_marseille","lat":43.28005,"lon":5.40602,"is_reserved":false,"is_disabled":false,"rental_uris":{"android":"levelo://app?vid=902190e7-1fe9-4270-9546-498dac581307","ios":"levelo://app?vid=902190e7-1fe9-4270-9546-498dac581307"},"vehicle_type_id":"4","last_reported":1726780110,"current_range_meters":34000,"station_id":"","pricing_plan_id":"cebpf4jnsgd1na2vs0mg"},{"bike_id":"11ed3a3a-fe9d-4655-885c-1aab946d839d","system_id":"levelo_inurba_marseille","lat":43.317565,"lon":5.390157,"is_reserved":false,"is_disabled":false,"rental_uris":{"android":"levelo://app?vid=11ed3a3a-fe9d-4655-885c-1aab946d839d","ios":"levelo://app?vid=11ed3a3a-fe9d-4655-885c-1aab946d839d"},"vehicle_type_id":"4","last_reported":1726780110,"current_range_meters":38800,"station_id":"ce4bhqp2rcd13ifvqhng","pricing_plan_id":"cebpf4jnsgd1na2vs0mg"},{"bike_id":"94a23158-f24a-4a19-9200-d436cf6c13c4","system_id":"levelo_inurba_marseille","lat":43.3019,"lon":5.36625,"is_reserved":false,"is_disabled":false,"rental_uris":{"android":"levelo://app?vid=94a23158-f24a-4a19-9200-d436cf6c13c4","ios":"levelo://app?vid=94a23158-f24a-4a19-9200-d436cf6c13c4"},"vehicle_type_id":"4","last_reported":1726780110,"current_range_meters":38400,"station_id":"ce4bgrh2rcd13ifvqc8g","pricing_plan_id":"cebpf4jnsgd1na2vs0mg"},{"bike_id":"5357f56d-8fda-4848-92ec-00c39d374ad6","system_id":"levelo_inurba_marseille","lat":43.28462,"lon":5.35894,"is_reserved":false,"is_disabled":false,"rental_uris":{"android":"levelo://app?vid=5357f56d-8fda-4848-92ec-00c39d374ad6","ios":"levelo://app?vid=5357f56d-8fda-4848-92ec-00c39d374ad6"},"vehicle_type_id":"4","last_reported":1726780110,"current_range_meters":24000,"station_id":"ce4bhah2rcd13ifvqei0","pricing_plan_id":"cebpf4jnsgd1na2vs0mg"},{"bike_id":"c48441d3-1273-46e7-8012-ad8941a2e1c7","system_id":"levelo_inurba_marseille","lat":43.31276,"lon":5.40181,"is_reserved":false,"is_disabled":false,"rental_uris":{"android":"levelo://app?vid=c48441d3-1273-46e7-8012-ad8941a2e1c7","ios":"levelo://app?vid=c48441d3-1273-46e7-8012-ad8941a2e1c7"},"vehicle_type_id":"4","last_reported":1726780110,"current_range_meters":26000,"station_id":"ce4bh092rcd13ifvqd30","pricing_plan_id":"cebpf4jnsgd1na2vs0mg"},{"bike_id":"c72671e4-48d1-4590-84cd-1cd1b432d06a","system_id":"levelo_inurba_marseille","lat":43.31717,"lon":5.37765,"is_reserved":false,"is_disabled":false,"rental_uris":{"android":"levelo://app?vid=c72671e4-48d1-4590-84cd-1cd1b432d06a","ios":"levelo://app?vid=c72671e4-48d1-4590-84cd-1cd1b432d06a"},"vehicle_type_id":"4","last_reported":1726780110,"current_range_meters":25600,"station_id":"ce4bgth2rcd13ifvqch0","pricing_plan_id":"cebpf4jnsgd1na2vs0mg"},{"bike_id":"7c904801-7111-4d1d-a285-a9fb34472e47","system_id":"levelo_inurba_marseille","lat":43.29801,"lon":5.40419,"is_reserved":false,"is_disabled":false,"rental_uris":{"android":"levelo://app?vid=7c904801-7111-4d1d-a285-a9fb34472e47","ios":"levelo://app?vid=7c904801-7111-4d1d-a285-a9fb34472e47"},"vehicle_type_id":"4","last_reported":1726780110,"current_range_meters":39200,"station_id":"ce4bh112rcd13ifvqd90","pricing_plan_id":"cebpf4jnsgd1na2vs0mg"},{"bike_id":"db5bed51-afb9-4548-98e9-7b7ae226c501","system_id":"levelo_inurba_marseille","lat":43.33756,"lon":5.37453,"is_reserved":false,"is_disabled":false,"rental_uris":{"android":"levelo://app?vid=db5bed51-afb9-4548-98e9-7b7ae226c501","ios":"levelo://app?vid=db5bed51-afb9-4548-98e9-7b7ae226c501"},"vehicle_type_id":"4","last_reported":1726780110,"current_range_meters":20000,"station_id":"","pricing_plan_id":"cebpf4jnsgd1na2vs0mg"},{"bike_id":"7f3ee7c5-cbeb-4e30-8b0c-0a2466cfda3f","system_id":"levelo_inurba_marseille","lat":43.24809,"lon":5.3746,"is_reserved":false,"is_disabled":false,"rental_uris":{"android":"levelo://app?vid=7f3ee7c5-cbeb-4e30-8b0c-0a2466cfda3f","ios":"levelo://app?vid=7f3ee7c5-cbeb-4e30-8b0c-0a2466cfda3f"},"vehicle_type_id":"4","last_reported":1726780110,"current_range_meters":38800,"station_id":"ce4bhgh2rcd13ifvqfb0","pricing_plan_id":"cebpf4jnsgd1na2vs0mg"},{"bike_id":"acf47c03-d493-46fb-9b5b-720a9b9aec60","system_id":"levelo_inurba_marseille","lat":43.27996,"lon":5.41665,"is_reserved":false,"is_disabled":false,"rental_uris":{"android":"levelo://app?vid=acf47c03-d493-46fb-9b5b-720a9b9aec60","ios":"levelo://app?vid=acf47c03-d493-46fb-9b5b-720a9b9aec60"},"vehicle_type_id":"4","last_reported":1726780110,"current_range_meters":38800,"station_id":"ce4bho12rcd13ifvqh1g","pricing_plan_id":"cebpf4jnsgd1na2vs0mg"},{"bike_id":"93c79a73-3e02-46ac-80e0-9576860eb50b","system_id":"levelo_inurba_marseille","lat":43.33024,"lon":5.39039,"is_reserved":false,"is_disabled":false,"rental_uris":{"android":"levelo://app?vid=93c79a73-3e02-46ac-80e0-9576860eb50b","ios":"levelo://app?vid=93c79a73-3e02-46ac-80e0-9576860eb50b"},"vehicle_type_id":"4","last_reported":1726780110,"current_range_meters":33200,"station_id":"ce4bhr92rcd13ifvqhrg","pricing_plan_id":"cebpf4jnsgd1na2vs0mg"},{"bike_id":"b533a72c-f0be-41e8-a41a-69199c56196b","system_id":"levelo_inurba_marseille","lat":43.30293,"lon":5.39208,"is_reserved":false,"is_disabled":false,"rental_uris":{"android":"levelo://app?vid=b533a72c-f0be-41e8-a41a-69199c56196b","ios":"levelo://app?vid=b533a72c-f0be-41e8-a41a-69199c56196b"},"vehicle_type_id":"4","last_reported":1726780110,"current_range_meters":24400,"station_id":"ce4bgkh2rcd13ifvqbk0","pricing_plan_id":"cebpf4jnsgd1na2vs0mg"},{"bike_id":"327dd63b-d479-45fd-b8d0-20036984d251","system_id":"levelo_inurba_marseille","lat":43.30137,"lon":5.37413,"is_reserved":false,"is_disabled":false,"rental_uris":{"android":"levelo://app?vid=327dd63b-d479-45fd-b8d0-20036984d251","ios":"levelo://app?vid=327dd63b-d479-45fd-b8d0-20036984d251"},"vehicle_type_id":"4","last_reported":1726780110,"current_range_meters":38800,"station_id":"ce4bgs92rcd13ifvqcc0","pricing_plan_id":"cebpf4jnsgd1na2vs0mg"},{"bike_id":"ee8ed57b-5e17-431c-8f90-8fdc97ce5404","system_id":"levelo_inurba_marseille","lat":43.264832,"lon":5.395546,"is_reserved":false,"is_disabled":false,"rental_uris":{"android":"levelo://app?vid=ee8ed57b-5e17-431c-8f90-8fdc97ce5404","ios":"levelo://app?vid=ee8ed57b-5e17-431c-8f90-8fdc97ce5404"},"vehicle_type_id":"4","last_reported":1726780110,"current_range_meters":16400,"station_id":"ce4bhi12rcd13ifvqfq0","pricing_plan_id":"cebpf4jnsgd1na2vs0mg"},{"bike_id":"26f5c6c9-9ba1-4a1a-abde-84cca0ffc830","system_id":"levelo_inurba_marseille","lat":43.32287,"lon":5.40642,"is_reserved":false,"is_disabled":false,"rental_uris":{"android":"levelo://app?vid=26f5c6c9-9ba1-4a1a-abde-84cca0ffc830","ios":"levelo://app?vid=26f5c6c9-9ba1-4a1a-abde-84cca0ffc830"},"vehicle_type_id":"4","last_reported":1726780110,"current_range_meters":31200,"station_id":"ce4bhq92rcd13ifvqhjg","pricing_plan_id":"cebpf4jnsgd1na2vs0mg"},{"bike_id":"1005537b-abba-4a33-9073-3d27072603aa","system_id":"levelo_inurba_marseille","lat":43.27814,"lon":5.40709,"is_reserved":false,"is_disabled":false,"rental_uris":{"android":"levelo://app?vid=1005537b-abba-4a33-9073-3d27072603aa","ios":"levelo://app?vid=1005537b-abba-4a33-9073-3d27072603aa"},"vehicle_type_id":"4","last_reported":1726780110,"current_range_meters":32800,"station_id":"ce4bhnh2rcd13ifvqgtg","pricing_plan_id":"cebpf4jnsgd1na2vs0mg"},{"bike_id":"4a9e77fa-aa16-453a-ade2-7a8a125bd2a3","system_id":"levelo_inurba_marseille","lat":43.30089,"lon":5.3908,"is_reserved":false,"is_disabled":false,"rental_uris":{"android":"levelo://app?vid=4a9e77fa-aa16-453a-ade2-7a8a125bd2a3","ios":"levelo://app?vid=4a9e77fa-aa16-453a-ade2-7a8a125bd2a3"},"vehicle_type_id":"4","last_reported":1726780110,"current_range_meters":38800,"station_id":"ce4bh192rcd13ifvqdb0","pricing_plan_id":"cebpf4jnsgd1na2vs0mg"},{"bike_id":"ffa23234-c1ea-4d00-b640-cd73b1915784","system_id":"levelo_inurba_marseille","lat":43.31999,"lon":5.38153,"is_reserved":false,"is_disabled":false,"rental_uris":{"android":"levelo://app?vid=ffa23234-c1ea-4d00-b640-cd73b1915784","ios":"levelo://app?vid=ffa23234-c1ea-4d00-b640-cd73b1915784"},"vehicle_type_id":"4","last_reported":1726780110,"current_range_meters":11200,"station_id":"ce4bhr12rcd13ifvqhpg","pricing_plan_id":"cebpf4jnsgd1na2vs0mg"},{"bike_id":"b85ab7ea-1ddf-4476-a6e6-3d5a1069c8cd","system_id":"levelo_inurba_marseille","lat":43.27918,"lon":5.39587,"is_reserved":false,"is_disabled":false,"rental_uris":{"android":"levelo://app?vid=b85ab7ea-1ddf-4476-a6e6-3d5a1069c8cd","ios":"levelo://app?vid=b85ab7ea-1ddf-4476-a6e6-3d5a1069c8cd"},"vehicle_type_id":"4","last_reported":1726780110,"current_range_meters":7200,"station_id":"ce4bhf92rcd13ifvqf40","pricing_plan_id":"cebpf4jnsgd1na2vs0mg"},{"bike_id":"92e6af67-05b1-4069-9f4f-c3abf89c366a","system_id":"levelo_inurba_marseille","lat":43.28729,"lon":5.36091,"is_reserved":false,"is_disabled":false,"rental_uris":{"android":"levelo://app?vid=92e6af67-05b1-4069-9f4f-c3abf89c366a","ios":"levelo://app?vid=92e6af67-05b1-4069-9f4f-c3abf89c366a"},"vehicle_type_id":"4","last_reported":1726780110,"current_range_meters":33600,"station_id":"cki0cbj6b192h4jlfktg","pricing_plan_id":"cebpf4jnsgd1na2vs0mg"},{"bike_id":"8d730e8c-417b-4b1f-bea1-f6ef0bfab897","system_id":"levelo_inurba_marseille","lat":43.317233,"lon":5.423993,"is_reserved":false,"is_disabled":false,"rental_uris":{"android":"levelo://app?vid=8d730e8c-417b-4b1f-bea1-f6ef0bfab897","ios":"levelo://app?vid=8d730e8c-417b-4b1f-bea1-f6ef0bfab897"},"vehicle_type_id":"4","last_reported":1726780110,"current_range_meters":38800,"station_id":"ce4bhp92rcd13ifvqhbg","pricing_plan_id":"cebpf4jnsgd1na2vs0mg"},{"bike_id":"4cbf8dee-05aa-404b-aaa0-d3dc59ca7a93","system_id":"levelo_inurba_marseille","lat":43.283096,"lon":5.3873,"is_reserved":false,"is_disabled":false,"rental_uris":{"android":"levelo://app?vid=4cbf8dee-05aa-404b-aaa0-d3dc59ca7a93","ios":"levelo://app?vid=4cbf8dee-05aa-404b-aaa0-d3dc59ca7a93"},"vehicle_type_id":"4","last_reported":1726780110,"current_range_meters":22800,"station_id":"ce4bh492rcd13ifvqdvg","pricing_plan_id":"cebpf4jnsgd1na2vs0mg"},{"bike_id":"9026b139-a186-4f8c-912c-c67d44f69a24","system_id":"levelo_inurba_marseille","lat":43.30132,"lon":5.38785,"is_reserved":false,"is_disabled":false,"rental_uris":{"android":"levelo://app?vid=9026b139-a186-4f8c-912c-c67d44f69a24","ios":"levelo://app?vid=9026b139-a186-4f8c-912c-c67d44f69a24"},"vehicle_type_id":"4","last_reported":1726780110,"current_range_meters":19600,"station_id":"ce4bghh2rcd13ifvqb60","pricing_plan_id":"cebpf4jnsgd1na2vs0mg"},{"bike_id":"23c42534-9ebd-414c-b93d-200e4090e5b4","system_id":"levelo_inurba_marseille","lat":43.29859,"lon":5.39732,"is_reserved":false,"is_disabled":false,"rental_uris":{"android":"levelo://app?vid=23c42534-9ebd-414c-b93d-200e4090e5b4","ios":"levelo://app?vid=23c42534-9ebd-414c-b93d-200e4090e5b4"},"vehicle_type_id":"4","last_reported":1726780110,"current_range_meters":21600,"station_id":"ce4bh0h2rcd13ifvqd50","pricing_plan_id":"cebpf4jnsgd1na2vs0mg"},{"bike_id":"58014cc6-4f39-4119-a8a0-cdc0e2507820","system_id":"levelo_inurba_marseille","lat":43.32286,"lon":5.38266,"is_reserved":false,"is_disabled":false,"rental_uris":{"android":"levelo://app?vid=58014cc6-4f39-4119-a8a0-cdc0e2507820","ios":"levelo://app?vid=58014cc6-4f39-4119-a8a0-cdc0e2507820"},"vehicle_type_id":"4","last_reported":1726780110,"current_range_meters":38800,"station_id":"ce4bhr12rcd13ifvqhqg","pricing_plan_id":"cebpf4jnsgd1na2vs0mg"},{"bike_id":"30e7826e-7830-4992-a4c2-be07207c93c7","system_id":"levelo_inurba_marseille","lat":43.323395,"lon":5.406195,"is_reserved":false,"is_disabled":false,"rental_uris":{"android":"levelo://app?vid=30e7826e-7830-4992-a4c2-be07207c93c7","ios":"levelo://app?vid=30e7826e-7830-4992-a4c2-be07207c93c7"},"vehicle_type_id":"4","last_reported":1726780110,"current_range_meters":27600,"station_id":"","pricing_plan_id":"cebpf4jnsgd1na2vs0mg"},{"bike_id":"2f6487d8-3308-48fb-a6c3-71a5b95fa3f1","system_id":"levelo_inurba_marseille","lat":43.29194,"lon":5.39333,"is_reserved":false,"is_disabled":false,"rental_uris":{"android":"levelo://app?vid=2f6487d8-3308-48fb-a6c3-71a5b95fa3f1","ios":"levelo://app?vid=2f6487d8-3308-48fb-a6c3-71a5b95fa3f1"},"vehicle_type_id":"4","last_reported":1726780110,"current_range_meters":38800,"station_id":"ce4bh192rcd13ifvqdd0","pricing_plan_id":"cebpf4jnsgd1na2vs0mg"},{"bike_id":"dffd0509-58b7-4b9d-9a37-0cbd5fc7a7ad","system_id":"levelo_inurba_marseille","lat":43.30126,"lon":5.38776,"is_reserved":false,"is_disabled":false,"rental_uris":{"android":"levelo://app?vid=dffd0509-58b7-4b9d-9a37-0cbd5fc7a7ad","ios":"levelo://app?vid=dffd0509-58b7-4b9d-9a37-0cbd5fc7a7ad"},"vehicle_type_id":"4","last_reported":1726780110,"current_range_meters":38800,"station_id":"ce4bghh2rcd13ifvqb60","pricing_plan_id":"cebpf4jnsgd1na2vs0mg"},{"bike_id":"bce83964-771d-421d-a795-c2b376c5b9dc","system_id":"levelo_inurba_marseille","lat":43.23198,"lon":5.35551,"is_reserved":false,"is_disabled":false,"rental_uris":{"android":"levelo://app?vid=bce83964-771d-421d-a795-c2b376c5b9dc","ios":"levelo://app?vid=bce83964-771d-421d-a795-c2b376c5b9dc"},"vehicle_type_id":"4","last_reported":1726780110,"current_range_meters":19200,"station_id":"ce4bhu92rcd13ifvqi70","pricing_plan_id":"cebpf4jnsgd1na2vs0mg"},{"bike_id":"2122e45e-6b47-431a-823f-eafb400fe41f","system_id":"levelo_inurba_marseille","lat":43.31265,"lon":5.40172,"is_reserved":false,"is_disabled":false,"rental_uris":{"android":"levelo://app?vid=2122e45e-6b47-431a-823f-eafb400fe41f","ios":"levelo://app?vid=2122e45e-6b47-431a-823f-eafb400fe41f"},"vehicle_type_id":"4","last_reported":1726780110,"current_range_meters":22800,"station_id":"ce4bh092rcd13ifvqd30","pricing_plan_id":"cebpf4jnsgd1na2vs0mg"},{"bike_id":"adc9346b-3bd9-4737-bbeb-f84afb48cedf","system_id":"levelo_inurba_marseille","lat":43.31167,"lon":5.38714,"is_reserved":false,"is_disabled":false,"rental_uris":{"android":"levelo://app?vid=adc9346b-3bd9-4737-bbeb-f84afb48cedf","ios":"levelo://app?vid=adc9346b-3bd9-4737-bbeb-f84afb48cedf"},"vehicle_type_id":"4","last_reported":1726780110,"current_range_meters":34000,"station_id":"ce4bgv12rcd13ifvqcp0","pricing_plan_id":"cebpf4jnsgd1na2vs0mg"},{"bike_id":"610f8990-dd77-4468-ab4e-0b488aa87bf5","system_id":"levelo_inurba_marseille","lat":43.28568,"lon":5.39511,"is_reserved":false,"is_disabled":false,"rental_uris":{"android":"levelo://app?vid=610f8990-dd77-4468-ab4e-0b488aa87bf5","ios":"levelo://app?vid=610f8990-dd77-4468-ab4e-0b488aa87bf5"},"vehicle_type_id":"4","last_reported":1726780110,"current_range_meters":38000,"station_id":"ce4bh292rcd13ifvqdg0","pricing_plan_id":"cebpf4jnsgd1na2vs0mg"},{"bike_id":"ac8c2064-cd59-4c08-a0cc-57a6b4b1952f","system_id":"levelo_inurba_marseille","lat":43.2951,"lon":5.39042,"is_reserved":false,"is_disabled":false,"rental_uris":{"android":"levelo://app?vid=ac8c2064-cd59-4c08-a0cc-57a6b4b1952f","ios":"levelo://app?vid=ac8c2064-cd59-4c08-a0cc-57a6b4b1952f"},"vehicle_type_id":"4","last_reported":1726780110,"current_range_meters":38800,"station_id":"ce4bh3p2rcd13ifvqdp0","pricing_plan_id":"cebpf4jnsgd1na2vs0mg"},{"bike_id":"aff3f781-0b85-4632-b931-41379274a64a","system_id":"levelo_inurba_marseille","lat":43.28855,"lon":5.35857,"is_reserved":false,"is_disabled":false,"rental_uris":{"android":"levelo://app?vid=aff3f781-0b85-4632-b931-41379274a64a","ios":"levelo://app?vid=aff3f781-0b85-4632-b931-41379274a64a"},"vehicle_type_id":"4","last_reported":1726780110,"current_range_meters":40000,"station_id":"ce4bhb12rcd13ifvqem0","pricing_plan_id":"cebpf4jnsgd1na2vs0mg"},{"bike_id":"5c643d73-df91-4773-be66-12c4b540fa63","system_id":"levelo_inurba_marseille","lat":43.32363,"lon":5.38884,"is_reserved":false,"is_disabled":false,"rental_uris":{"android":"levelo://app?vid=5c643d73-df91-4773-be66-12c4b540fa63","ios":"levelo://app?vid=5c643d73-df91-4773-be66-12c4b540fa63"},"vehicle_type_id":"4","last_reported":1726780110,"current_range_meters":32400,"station_id":"ce4bhqp2rcd13ifvqhog","pricing_plan_id":"cebpf4jnsgd1na2vs0mg"},{"bike_id":"e123e304-c276-45c0-a8c6-c991c0bcc18b","system_id":"levelo_inurba_marseille","lat":43.308068,"lon":5.381382,"is_reserved":false,"is_disabled":false,"rental_uris":{"android":"levelo://app?vid=e123e304-c276-45c0-a8c6-c991c0bcc18b","ios":"levelo://app?vid=e123e304-c276-45c0-a8c6-c991c0bcc18b"},"vehicle_type_id":"4","last_reported":1726780110,"current_range_meters":18000,"station_id":"ce4bgt12rcd13ifvqce0","pricing_plan_id":"cebpf4jnsgd1na2vs0mg"},{"bike_id":"ec29d62d-5ae9-437a-b766-df37d25daa06","system_id":"levelo_inurba_marseille","lat":43.25437,"lon":5.41284,"is_reserved":false,"is_disabled":false,"rental_uris":{"android":"levelo://app?vid=ec29d62d-5ae9-437a-b766-df37d25daa06","ios":"levelo://app?vid=ec29d62d-5ae9-437a-b766-df37d25daa06"},"vehicle_type_id":"4","last_reported":1726780110,"current_range_meters":18000,"station_id":"","pricing_plan_id":"cebpf4jnsgd1na2vs0mg"},{"bike_id":"1c7ed120-b7d1-42b8-88ea-a70260238c7a","system_id":"levelo_inurba_marseille","lat":43.3388,"lon":5.39164,"is_reserved":false,"is_disabled":false,"rental_uris":{"android":"levelo://app?vid=1c7ed120-b7d1-42b8-88ea-a70260238c7a","ios":"levelo://app?vid=1c7ed120-b7d1-42b8-88ea-a70260238c7a"},"vehicle_type_id":"4","last_reported":1726780110,"current_range_meters":2000,"station_id":"","pricing_plan_id":"cebpf4jnsgd1na2vs0mg"},{"bike_id":"486cd400-e632-4ee8-8f0d-302e2930cd91","system_id":"levelo_inurba_marseille","lat":43.2894,"lon":5.36637,"is_reserved":false,"is_disabled":false,"rental_uris":{"android":"levelo://app?vid=486cd400-e632-4ee8-8f0d-302e2930cd91","ios":"levelo://app?vid=486cd400-e632-4ee8-8f0d-302e2930cd91"},"vehicle_type_id":"4","last_reported":1726780110,"current_range_meters":30000,"station_id":"ce4bhap2rcd13ifvqek0","pricing_plan_id":"cebpf4jnsgd1na2vs0mg"},{"bike_id":"8935c5fa-f85c-4159-97da-4e8301a75112","system_id":"levelo_inurba_marseille","lat":43.289381,"lon":5.396254,"is_reserved":false,"is_disabled":false,"rental_uris":{"android":"levelo://app?vid=8935c5fa-f85c-4159-97da-4e8301a75112","ios":"levelo://app?vid=8935c5fa-f85c-4159-97da-4e8301a75112"},"vehicle_type_id":"4","last_reported":1726780110,"current_range_meters":18800,"station_id":"ce4bh3h2rcd13ifvqdn0","pricing_plan_id":"cebpf4jnsgd1na2vs0mg"},{"bike_id":"50e3bf56-38ff-41a7-8960-3b324d461e2c","system_id":"levelo_inurba_marseille","lat":43.31179,"lon":5.38713,"is_reserved":false,"is_disabled":false,"rental_uris":{"android":"levelo://app?vid=50e3bf56-38ff-41a7-8960-3b324d461e2c","ios":"levelo://app?vid=50e3bf56-38ff-41a7-8960-3b324d461e2c"},"vehicle_type_id":"4","last_reported":1726780110,"current_range_meters":5600,"station_id":"ce4bgv12rcd13ifvqcp0","pricing_plan_id":"cebpf4jnsgd1na2vs0mg"},{"bike_id":"183bb22c-3fd6-4864-8774-98e63170d171","system_id":"levelo_inurba_marseille","lat":43.31388,"lon":5.36835,"is_reserved":false,"is_disabled":false,"rental_uris":{"android":"levelo://app?vid=183bb22c-3fd6-4864-8774-98e63170d171","ios":"levelo://app?vid=183bb22c-3fd6-4864-8774-98e63170d171"},"vehicle_type_id":"4","last_reported":1726780110,"current_range_meters":38800,"station_id":"ce4bgr92rcd13ifvqc6g","pricing_plan_id":"cebpf4jnsgd1na2vs0mg"},{"bike_id":"9dfa3817-31bf-4eb3-a2ba-d71489c5d17b","system_id":"levelo_inurba_marseille","lat":43.29293,"lon":5.37466,"is_reserved":false,"is_disabled":false,"rental_uris":{"android":"levelo://app?vid=9dfa3817-31bf-4eb3-a2ba-d71489c5d17b","ios":"levelo://app?vid=9dfa3817-31bf-4eb3-a2ba-d71489c5d17b"},"vehicle_type_id":"4","last_reported":1726780110,"current_range_meters":22400,"station_id":"ce4bgi12rcd13ifvqb70","pricing_plan_id":"cebpf4jnsgd1na2vs0mg"},{"bike_id":"6a7cbce8-6d05-4e3b-85d6-96b606fa3c7d","system_id":"levelo_inurba_marseille","lat":43.28711,"lon":5.39992,"is_reserved":false,"is_disabled":false,"rental_uris":{"android":"levelo://app?vid=6a7cbce8-6d05-4e3b-85d6-96b606fa3c7d","ios":"levelo://app?vid=6a7cbce8-6d05-4e3b-85d6-96b606fa3c7d"},"vehicle_type_id":"4","last_reported":1726780110,"current_range_meters":34000,"station_id":"ce4bho92rcd13ifvqh3g","pricing_plan_id":"cebpf4jnsgd1na2vs0mg"},{"bike_id":"fa2e946d-01fe-4bb4-a2b0-55af60a0bcec","system_id":"levelo_inurba_marseille","lat":43.33733,"lon":5.39182,"is_reserved":false,"is_disabled":false,"rental_uris":{"android":"levelo://app?vid=fa2e946d-01fe-4bb4-a2b0-55af60a0bcec","ios":"levelo://app?vid=fa2e946d-01fe-4bb4-a2b0-55af60a0bcec"},"vehicle_type_id":"4","last_reported":1726780110,"current_range_meters":36400,"station_id":"ce4bhr92rcd13ifvqhsg","pricing_plan_id":"cebpf4jnsgd1na2vs0mg"},{"bike_id":"a33a0fc8-35b8-4496-bf44-4bdfbf2387fd","system_id":"levelo_inurba_marseille","lat":43.26196,"lon":5.37452,"is_reserved":false,"is_disabled":false,"rental_uris":{"android":"levelo://app?vid=a33a0fc8-35b8-4496-bf44-4bdfbf2387fd","ios":"levelo://app?vid=a33a0fc8-35b8-4496-bf44-4bdfbf2387fd"},"vehicle_type_id":"4","last_reported":1726780110,"current_range_meters":0,"station_id":"ce4bhgp2rcd13ifvqfc0","pricing_plan_id":"cebpf4jnsgd1na2vs0mg"},{"bike_id":"15c61f1f-3493-4657-baab-60b59ae1c722","system_id":"levelo_inurba_marseille","lat":43.33025,"lon":5.39041,"is_reserved":false,"is_disabled":false,"rental_uris":{"android":"levelo://app?vid=15c61f1f-3493-4657-baab-60b59ae1c722","ios":"levelo://app?vid=15c61f1f-3493-4657-baab-60b59ae1c722"},"vehicle_type_id":"4","last_reported":1726780110,"current_range_meters":38800,"station_id":"ce4bhr92rcd13ifvqhrg","pricing_plan_id":"cebpf4jnsgd1na2vs0mg"},{"bike_id":"3888da84-f20a-4b44-9c97-e9a23d30b44c","system_id":"levelo_inurba_marseille","lat":43.29958,"lon":5.41326,"is_reserved":false,"is_disabled":false,"rental_uris":{"android":"levelo://app?vid=3888da84-f20a-4b44-9c97-e9a23d30b44c","ios":"levelo://app?vid=3888da84-f20a-4b44-9c97-e9a23d30b44c"},"vehicle_type_id":"4","last_reported":1726780110,"current_range_meters":16400,"station_id":"ce4bhp12rcd13ifvqh9g","pricing_plan_id":"cebpf4jnsgd1na2vs0mg"},{"bike_id":"ad25ed5e-276e-467f-bb47-4f182554d2bd","system_id":"levelo_inurba_marseille","lat":43.25492,"lon":5.3765,"is_reserved":false,"is_disabled":false,"rental_uris":{"android":"levelo://app?vid=ad25ed5e-276e-467f-bb47-4f182554d2bd","ios":"levelo://app?vid=ad25ed5e-276e-467f-bb47-4f182554d2bd"},"vehicle_type_id":"4","last_reported":1726780110,"current_range_meters":38800,"station_id":"ce4bhh12rcd13ifvqff0","pricing_plan_id":"cebpf4jnsgd1na2vs0mg"},