{"last_updated":1736788085,"ttl":60,"version":"2.2","data":{"bikes":[{"bike_id":"2f4e0253-da65-48c9-961b-7746ab2ffb8d","system_id":"levelo_inurba_marseille","lat":43.32471,"lon":5.36554,"is_reserved":false,"is_disabled":false,"rental_uris":{"android":"levelo://app?vid=2f4e0253-da65-48c9-961b-7746ab2ffb8d","ios":"levelo://app?vid=2f4e0253-da65-48c9-961b-7746ab2ffb8d"},"vehicle_type_id":"4","last_reported":1736788085,"current_range_meters":38800,"station_id":"ce4bhs12rcd13ifvqhvg","pricing_plan_id":"cebpf4jnsgd1na2vs0mg"},{"bike_id":"6601a39b-0319-411e-9096-91963154f3d0","system_id":"levelo_inurba_marseille","lat":43.27983,"lon":5.38735,"is_reserved":false,"is_disabled":true,"rental_uris":{"android":"levelo://app?vid=6601a39b-0319-411e-9096-91963154f3d0","ios":"levelo://app?vid=6601a39b-0319-411e-9096-91963154f3d0"},"vehicle_type_id":"4","last_reported":1736788085,"current_range_meters":0,"station_id":"ce4bhg12rcd13ifvqf80","pricing_plan_id":"cebpf4jnsgd1na2vs0mg"},{"bike_id":"f8858586-ef30-44a5-b783-a9bff6e2b165","system_id":"levelo_inurba_marseille","lat":43.2655,"lon":5.39038,"is_reserved":false,"is_disabled":false,"rental_uris":{"android":"levelo://app?vid=f8858586-ef30-44a5-b783-a9bff6e2b165","ios":"levelo://app?vid=f8858586-ef30-44a5-b783-a9bff6e2b165"},"vehicle_type_id":"4","last_reported":1736788085,"current_range_meters":10000,"station_id":"ce4bhe12rcd13ifvqf30","pricing_plan_id":"cebpf4jnsgd1na2vs0mg"},{"bike_id":"a4fed38a-b4f4-4ca2-8c85-691d5a50b7ed","system_id":"levelo_inurba_marseille","lat":43.26491,"lon":5.39545,"is_reserved":false,"is_disabled":false,"rental_uris":{"android":"levelo://app?vid=a4fed38a-b4f4-4ca2-8c85-691d5a50b7ed","ios":"levelo://app?vid=a4fed38a-b4f4-4ca2-8c85-691d5a50b7ed"},"vehicle_type_id":"4","last_reported":1736788085,"current_range_meters":20400,"station_id":"ce4bhi12rcd13ifvqfq0","pricing_plan_id":"cebpf4jnsgd1na2vs0mg"},{"bike_id":"f8d2be7c-2a1a-40b5-8f3e-e27de02ebe2b","system_id":"levelo_inurba_marseille","lat":43.29864,"lon":5.39736,"is_reserved":false,"is_disabled":false,"rental_uris":{"android":"levelo://app?vid=f8d2be7c-2a1a-40b5-8f3e-e27de02ebe2b","ios":"levelo://app?vid=f8d2be7c-2a1a-40b5-8f3e-e27de02ebe2b"},"vehicle_type_id":"4","last_reported":1736788085,"current_range_meters":16800,"station_id":"ce4bh0h2rcd13ifvqd50","pricing_plan_id":"cebpf4jnsgd1na2vs0mg"},{"bike_id":"f518817b-3c26-4461-b4a1-c6388c8bcd87","system_id":"levelo_inurba_marseille","lat":43.30501,"lon":5.38086,"is_reserved":false,"is_disabled":false,"rental_uris":{"android":"levelo://app?vid=f518817b-3c26-4461-b4a1-c6388c8bcd87","ios":"levelo://app?vid=f518817b-3c26-4461-b4a1-c6388c8bcd87"},"vehicle_type_id":"4","last_reported":1736788085,"current_range_meters":26800,"station_id":"","pricing_plan_id":"cebpf4jnsgd1na2vs0mg"},{"bike_id":"3953439b-f509-49e5-bb8d-9b9887e5086e","system_id":"levelo_inurba_marseille","lat":43.3108,"lon":5.38358,"is_reserved":false,"is_disabled":false,"rental_uris":{"android":"levelo://app?vid=3953439b-f509-49e5-bb8d-9b9887e5086e","ios":"levelo://app?vid=3953439b-f509-49e5-bb8d-9b9887e5086e"},"vehicle_type_id":"4","last_reported":1736788085,"current_range_meters":31200,"station_id":"ce4bgv92rcd13ifvqcr0","pricing_plan_id":"cebpf4jnsgd1na2vs0mg"},{"bike_id":"8ea81c6d-840a-443a-ae7f-753f63519e00","system_id":"levelo_inurba_marseille","lat":43.33722,"lon":5.39191,"is_reserved":false,"is_disabled":false,"rental_uris":{"android":"levelo://app?vid=8ea81c6d-840a-443a-ae7f-753f63519e00","ios":"levelo://app?vid=8ea81c6d-840a-443a-ae7f-753f63519e00"},"vehicle_type_id":"4","last_reported":1736788085,"current_range_meters":22400,"station_id":"ce4bhr92rcd13ifvqhsg","pricing_plan_id":"cebpf4jnsgd1na2vs0mg"},{"bike_id":"8df66f74-b7b1-4730-a851-ab6b59f101e6","system_id":"levelo_inurba_marseille","lat":43.28608,"lon":5.35118,"is_reserved":false,"is_disabled":false,"rental_uris":{"android":"levelo://app?vid=8df66f74-b7b1-4730-a851-ab6b59f101e6","ios":"levelo://app?vid=8df66f74-b7b1-4730-a851-ab6b59f101e6"},"vehicle_type_id":"4","last_reported":1736788085,"current_range_meters":32000,"station_id":"ce4bhch2rcd13ifvqeug","pricing_plan_id":"cebpf4jnsgd1na2vs0mg"},{"bike_id":"5527467b-9d2c-446b-8b6a-ca3e841c3902","system_id":"levelo_inurba_marseille","lat":43.31491,"lon":5.37301,"is_reserved":false,"is_disabled":false,"rental_uris":{"android":"levelo://app?vid=5527467b-9d2c-446b-8b6a-ca3e841c3902","ios":"levelo://app?vid=5527467b-9d2c-446b-8b6a-ca3e841c3902"},"vehicle_type_id":"4","last_reported":1736788085,"current_range_meters":35600,"station_id":"ce4bgt12rcd13ifvqcd0","pricing_plan_id":"cebpf4jnsgd1na2vs0mg"},{"bike_id":"a6943742-818e-4008-acc6-cc0735fe9917","system_id":"levelo_inurba_marseille","lat":43.31472,"lon":5.38847,"is_reserved":false,"is_disabled":false,"rental_uris":{"android":"levelo://app?vid=a6943742-818e-4008-acc6-cc0735fe9917","ios":"levelo://app?vid=a6943742-818e-4008-acc6-cc0735fe9917"},"vehicle_type_id":"4","last_reported":1736788085,"current_range_meters":24800,"station_id":"","pricing_plan_id":"cebpf4jnsgd1na2vs0mg"},{"bike_id":"9ee9ad79-08af-4ba2-a567-66d93c52cc3a","system_id":"levelo_inurba_marseille","lat":43.29869,"lon":5.389,"is_reserved":false,"is_disabled":false,"rental_uris":{"android":"levelo://app?vid=9ee9ad79-08af-4ba2-a567-66d93c52cc3a","ios":"levelo://app?vid=9ee9ad79-08af-4ba2-a567-66d93c52cc3a"},"vehicle_type_id":"4","last_reported":1736788085,"current_range_meters":37600,"station_id":"ce4bh392rcd13ifvqdl0","pricing_plan_id":"cebpf4jnsgd1na2vs0mg"},{"bike_id":"5bb5758f-37be-496e-ac0a-3712e6b43125","system_id":"levelo_inurba_marseille","lat":43.26193,"lon":5.37886,"is_reserved":false,"is_disabled":false,"rental_uris":{"android":"levelo://app?vid=5bb5758f-37be-496e-ac0a-3712e6b43125","ios":"levelo://app?vid=5bb5758f-37be-496e-ac0a-3712e6b43125"},"vehicle_type_id":"4","last_reported":1736788085,"current_range_meters":38800,"station_id":"ce4bhjp2rcd13ifvqg90","pricing_plan_id":"cebpf4jnsgd1na2vs0mg"},{"bike_id":"fbdc1be9-0896-4827-9983-8a84e7013511","system_id":"levelo_inurba_marseille","lat":43.25207,"lon":5.39106,"is_reserved":false,"is_disabled":false,"rental_uris":{"android":"levelo://app?vid=fbdc1be9-0896-4827-9983-8a84e7013511","ios":"levelo://app?vid=fbdc1be9-0896-4827-9983-8a84e7013511"},"vehicle_type_id":"4","last_reported":1736788085,"current_range_meters":36800,"station_id":"","pricing_plan_id":"cebpf4jnsgd1na2vs0mg"},{"bike_id":"47895ff9-2feb-423e-9fb3-4b3b221f759f","system_id":"levelo_inurba_marseille","lat":43.26061,"lon":5.39393,"is_reserved":false,"is_disabled":false,"rental_uris":{"android":"levelo://app?vid=47895ff9-2feb-423e-9fb3-4b3b221f759f","ios":"levelo://app?vid=47895ff9-2feb-423e-9fb3-4b3b221f759f"},"vehicle_type_id":"4","last_reported":1736788085,"current_range_meters":24400,"station_id":"ce4bhh92rcd13ifvqfj0","pricing_plan_id":"cebpf4jnsgd1na2vs0mg"},{"bike_id":"e03993de-546d-4648-af7a-dfa8b70ca581","system_id":"levelo_inurba_marseille","lat":43.26925,"lon":5.38927,"is_reserved":false,"is_disabled":false,"rental_uris":{"android":"levelo://app?vid=e03993de-546d-4648-af7a-dfa8b70ca581","ios":"levelo://app?vid=e03993de-546d-4648-af7a-dfa8b70ca581"},"vehicle_type_id":"4","last_reported":1736788085,"current_range_meters":32400,"station_id":"ce4bhhh2rcd13ifvqfl0","pricing_plan_id":"cebpf4jnsgd1na2vs0mg"},{"bike_id":"9fcc88dd-34cd-4ae6-82cd-3f8a2d8bfba2","system_id":"levelo_inurba_marseille","lat":43.31368,"lon":5.38498,"is_reserved":false,"is_disabled":false,"rental_uris":{"android":"levelo://app?vid=9fcc88dd-34cd-4ae6-82cd-3f8a2d8bfba2","ios":"levelo://app?vid=9fcc88dd-34cd-4ae6-82cd-3f8a2d8bfba2"},"vehicle_type_id":"4","last_reported":1736788085,"current_range_meters":30000,"station_id":"ce4bgt92rcd13ifvqcf0","pricing_plan_id":"cebpf4jnsgd1na2vs0mg"},{"bike_id":"962cc5cc-fec7-46f8-84df-102fbfaf51f6","system_id":"levelo_inurba_marseille","lat":43.25943,"lon":5.4089,"is_reserved":false,"is_disabled":true,"rental_uris":{"android":"levelo://app?vid=962cc5cc-fec7-46f8-84df-102fbfaf51f6","ios":"levelo://app?vid=962cc5cc-fec7-46f8-84df-102fbfaf51f6"},"vehicle_type_id":"4","last_reported":1736788085,"current_range_meters":800,"station_id":"ce4bhm92rcd13ifvqglg","pricing_plan_id":"cebpf4jnsgd1na2vs0mg"},{"bike_id":"82a6ba22-4fb6-4762-a475-80b36233bd6a","system_id":"levelo_inurba_marseille","lat":43.29775,"lon":5.39362,"is_reserved":false,"is_disabled":false,"rental_uris":{"android":"levelo://app?vid=82a6ba22-4fb6-4762-a475-80b36233bd6a","ios":"levelo://app?vid=82a6ba22-4fb6-4762-a475-80b36233bd6a"},"vehicle_type_id":"4","last_reported":1736788085,"current_range_meters":28400,"station_id":"chh1huq6cuj3fo74tm60","pricing_plan_id":"cebpf4jnsgd1na2vs0mg"},{"bike_id":"74b1a066-7ffd-4c08-a2ca-4bcbe105c927","system_id":"levelo_inurba_marseille","lat":43.29614,"lon":5.37725,"is_reserved":false,"is_disabled":false,"rental_uris":{"android":"levelo://app?vid=74b1a066-7ffd-4c08-a2ca-4bcbe105c927","ios":"levelo://app?vid=74b1a066-7ffd-4c08-a2ca-4bcbe105c927"},"vehicle_type_id":"4","last_reported":1736788085,"current_range_meters":28800,"station_id":"ce4bgi92rcd13ifvqb90","pricing_plan_id":"cebpf4jnsgd1na2vs0mg"},{"bike_id":"34ab4a2c-1cfd-44bc-8a6f-9e19f16ad438","system_id":"levelo_inurba_marseille","lat":43.28011,"lon":5.39998,"is_reserved":false,"is_disabled":false,"rental_uris":{"android":"levelo://app?vid=34ab4a2c-1cfd-44bc-8a6f-9e19f16ad438","ios":"levelo://app?vid=34ab4a2c-1cfd-44bc-8a6f-9e19f16ad438"},"vehicle_type_id":"4","last_reported":1736788085,"current_range_meters":24800,"station_id":"ce4bho92rcd13ifvqh4g","pricing_plan_id":"cebpf4jnsgd1na2vs0mg"},{"bike_id":"25201559-3be6-490e-b049-639df5366fcd","system_id":"levelo_inurba_marseille","lat":43.29969,"lon":5.385,"is_reserved":false,"is_disabled":true,"rental_uris":{"android":"levelo://app?vid=25201559-3be6-490e-b049-639df5366fcd","ios":"levelo://app?vid=25201559-3be6-490e-b049-639df5366fcd"},"vehicle_type_id":"4","last_reported":1736788085,"current_range_meters":38800,"station_id":"ce4bgj92rcd13ifvqbd0","pricing_plan_id":"cebpf4jnsgd1na2vs0mg"},{"bike_id":"94440fca-9d66-4315-a057-b48311229f6d","system_id":"levelo_inurba_marseille","lat":43.33623,"lon":5.41026,"is_reserved":false,"is_disabled":true,"rental_uris":{"android":"levelo://app?vid=94440fca-9d66-4315-a057-b48311229f6d","ios":"levelo://app?vid=94440fca-9d66-4315-a057-b48311229f6d"},"vehicle_type_id":"4","last_reported":1736788085,"current_range_meters":37600,"station_id":"ce4bhqh2rcd13ifvqhmg","pricing_plan_id":"cebpf4jnsgd1na2vs0mg"},{"bike_id":"e689af25-c7b1-43a9-8749-461d975ac16a","system_id":"levelo_inurba_marseille","lat":43.29866,"lon":5.39734,"is_reserved":false,"is_disabled":false,"rental_uris":{"android":"levelo://app?vid=e689af25-c7b1-43a9-8749-461d975ac16a","ios":"levelo://app?vid=e689af25-c7b1-43a9-8749-461d975ac16a"},"vehicle_type_id":"4","last_reported":1736788085,"current_range_meters":19600,"station_id":"ce4bh0h2rcd13ifvqd50","pricing_plan_id":"cebpf4jnsgd1na2vs0mg"},{"bike_id":"b7c55b65-1809-413a-a815-7a11fbcba11d","system_id":"levelo_inurba_marseille","lat":43.28455,"lon":5.35889,"is_reserved":false,"is_disabled":false,"rental_uris":{"android":"levelo://app?vid=b7c55b65-1809-413a-a815-7a11fbcba11d","ios":"levelo://app?vid=b7c55b65-1809-413a-a815-7a11fbcba11d"},"vehicle_type_id":"4","last_reported":1736788085,"current_range_meters":34800,"station_id":"ce4bhah2rcd13ifvqei0","pricing_plan_id":"cebpf4jnsgd1na2vs0mg"},{"bike_id":"9ee95468-1053-4a7c-835d-92e580e3e50c","system_id":"levelo_inurba_marseille","lat":43.28697,"lon":5.37392,"is_reserved":false,"is_disabled":false,"rental_uris":{"android":"levelo://app?vid=9ee95468-1053-4a7c-835d-92e580e3e50c","ios":"levelo://app?vid=9ee95468-1053-4a7c-835d-92e580e3e50c"},"vehicle_type_id":"4","last_reported":1736788085,"current_range_meters":15200,"station_id":"ce4bh3p2rcd13ifvqdq0","pricing_plan_id":"cebpf4jnsgd1na2vs0mg"},{"bike_id":"6a8dc65c-8c47-4239-8815-8efa2acdc338","system_id":"levelo_inurba_marseille","lat":43.2799,"lon":5.41648,"is_reserved":false,"is_disabled":true,"rental_uris":{"android":"levelo://app?vid=6a8dc65c-8c47-4239-8815-8efa2acdc338","ios":"levelo://app?vid=6a8dc65c-8c47-4239-8815-8efa2acdc338"},"vehicle_type_id":"4","last_reported":1736788085,"current_range_meters":2800,"station_id":"ce4bho12rcd13ifvqh1g","pricing_plan_id":"cebpf4jnsgd1na2vs0mg"},{"bike_id":"94d00723-79f7-443c-bc62-0c89ddbb1d1c","system_id":"levelo_inurba_marseille","lat":43.28164,"lon":5.42635,"is_reserved":false,"is_disabled":true,"rental_uris":{"android":"levelo://app?vid=94d00723-79f7-443c-bc62-0c89ddbb1d1c","ios":"levelo://app?vid=94d00723-79f7-443c-bc62-0c89ddbb1d1c"},"vehicle_type_id":"4","last_reported":1736788085,"current_range_meters":20000,"station_id":"ce4bhnh2rcd13ifvqgug","pricing_plan_id":"cebpf4jnsgd1na2vs0mg"},{"bike_id":"23091b0d-cb8a-4baf-8184-5ff18572160a","system_id":"levelo_inurba_marseille","lat":43.29546,"lon":5.39395,"is_reserved":false,"is_disabled":false,"rental_uris":{"android":"levelo://app?vid=23091b0d-cb8a-4baf-8184-5ff18572160a","ios":"levelo://app?vid=23091b0d-cb8a-4baf-8184-5ff18572160a"},"vehicle_type_id":"4","last_reported":1736788085,"current_range_meters":24400,"station_id":"ce4bh292rcd13ifvqdf0","pricing_plan_id":"cebpf4jnsgd1na2vs0mg"},{"bike_id":"936740fb-9b34-4884-80d6-b102868533e7","system_id":"levelo_inurba_marseille","lat":43.325041,"lon":5.365635,"is_reserved":false,"is_disabled":false,"rental_uris":{"android":"levelo://app?vid=936740fb-9b34-4884-80d6-b102868533e7","ios":"levelo://app?vid=936740fb-9b34-4884-80d6-b102868533e7"},"vehicle_type_id":"4","last_reported":1736788085,"current_range_meters":38000,"station_id":"ce4bhs12rcd13ifvqhvg","pricing_plan_id":"cebpf4jnsgd1na2vs0mg"},{"bike_id":"e35d110b-0ca6-4c99-b711-04ba364d3860","system_id":"levelo_inurba_marseille","lat":43.232,"lon":5.35555,"is_reserved":false,"is_disabled":false,"rental_uris":{"android":"levelo://app?vid=e35d110b-0ca6-4c99-b711-04ba364d3860","ios":"levelo://app?vid=e35d110b-0ca6-4c99-b711-04ba364d3860"},"vehicle_type_id":"4","last_reported":1736788085,"current_range_meters":37600,"station_id":"ce4bhu92rcd13ifvqi70","pricing_plan_id":"cebpf4jnsgd1na2vs0mg"},{"bike_id":"cf197ed1-7e16-41d8-bf6d-38b37ae8d081","system_id":"levelo_inurba_marseille","lat":43.31107,"lon":5.3775,"is_reserved":false,"is_disabled":false,"rental_uris":{"android":"levelo://app?vid=cf197ed1-7e16-41d8-bf6d-38b37ae8d081","ios":"levelo://app?vid=cf197ed1-7e16-41d8-bf6d-38b37ae8d081"},"vehicle_type_id":"4","last_reported":1736788085,"current_range_meters":8800,"station_id":"ce4bgt92rcd13ifvqcg0","pricing_plan_id":"cebpf4jnsgd1na2vs0mg"},{"bike_id":"9359c89a-4d31-44d4-a0ba-27d9d8aceb3d","system_id":"levelo_inurba_marseille","lat":43.30892,"lon":5.37206,"is_reserved":false,"is_disabled":false,"rental_uris":{"android":"levelo://app?vid=9359c89a-4d31-44d4-a0ba-27d9d8aceb3d","ios":"levelo://app?vid=9359c89a-4d31-44d4-a0ba-27d9d8aceb3d"},"vehicle_type_id":"4","last_reported":1736788085,"current_range_meters":28800,"station_id":"ce4bguh2rcd13ifvqckg","pricing_plan_id":"cebpf4jnsgd1na2vs0mg"},{"bike_id":"04242d7d-6524-4840-9376-c0bce1fa64bb","system_id":"levelo_inurba_marseille","lat":43.25498,"lon":5.37646,"is_reserved":false,"is_disabled":false,"rental_uris":{"android":"levelo://app?vid=04242d7d-6524-4840-9376-c0bce1fa64bb","ios":"levelo://app?vid=04242d7d-6524-4840-9376-c0bce1fa64bb"},"vehicle_type_id":"4","last_reported":1736788085,"current_range_meters":16800,"station_id":"ce4bhh12rcd13ifvqff0","pricing_plan_id":"cebpf4jnsgd1na2vs0mg"},{"bike_id":"fcd6a641-0562-446f-a80e-127879f577c9","system_id":"levelo_inurba_marseille","lat":43.28416,"lon":5.34995,"is_reserved":false,"is_disabled":false,"rental_uris":{"android":"levelo://app?vid=fcd6a641-0562-446f-a80e-127879f577c9","ios":"levelo://app?vid=fcd6a641-0562-446f-a80e-127879f577c9"},"vehicle_type_id":"4","last_reported":1736788085,"current_range_meters":18800,"station_id":"ce4bhbh2rcd13ifvqepg","pricing_plan_id":"cebpf4jnsgd1na2vs0mg"},{"bike_id":"4ff57719-03f4-47bd-8538-0e0467c2c848","system_id":"levelo_inurba_marseille","lat":43.25866,"lon":5.39853,"is_reserved":false,"is_disabled":false,"rental_uris":{"android":"levelo://app?vid=4ff57719-03f4-47bd-8538-0e0467c2c848","ios":"levelo://app?vid=4ff57719-03f4-47bd-8538-0e0467c2c848"},"vehicle_type_id":"4","last_reported":1736788085,"current_range_meters":24800,"station_id":"ce4bhl92rcd13ifvqghg","pricing_plan_id":"cebpf4jnsgd1na2vs0mg"},{"bike_id":"6b750947-fb43-40e2-9931-495446cc2b3f","system_id":"levelo_inurba_marseille","lat":43.22928,"lon":5.35373,"is_reserved":false,"is_disabled":false,"rental_uris":{"android":"levelo://app?vid=6b750947-fb43-40e2-9931-495446cc2b3f","ios":"levelo://app?vid=6b750947-fb43-40e2-9931-495446cc2b3f"},"vehicle_type_id":"4","last_reported":1736788085,"current_range_meters":28400,"station_id":"cpo3532slgdg3j2ikp40","pricing_plan_id":"cebpf4jnsgd1na2vs0mg"},{"bike_id":"c8e997c0-8580-4d0f-8d9f-0766596381e1","system_id":"levelo_inurba_marseille","lat":43.34012,"lon":5.37551,"is_reserved":false,"is_disabled":true,"rental_uris":{"android":"levelo://app?vid=c8e997c0-8580-4d0f-8d9f-0766596381e1","ios":"levelo://app?vid=c8e997c0-8580-4d0f-8d9f-0766596381e1"},"vehicle_type_id":"4","last_reported":1736788085,"current_range_meters":0,"station_id":"","pricing_plan_id":"cebpf4jnsgd1na2vs0mg"},{"bike_id":"c60791e5-c5b6-4b5f-a2b3-68e6dd491ea9","system_id":"levelo_inurba_marseille","lat":43.305073,"lon":5.372403,"is_reserved":false,"is_disabled":false,"rental_uris":{"android":"levelo://app?vid=c60791e5-c5b6-4b5f-a2b3-68e6dd491ea9","ios":"levelo://app?vid=c60791e5-c5b6-4b5f-a2b3-68e6dd491ea9"},"vehicle_type_id":"4","last_reported":1736788085,"current_range_meters":22000,"station_id":"","pricing_plan_id":"cebpf4jnsgd1na2vs0mg"},{"bike_id":"ba5df164-d25c-4a1c-8679-1bd1a1db0642","system_id":"levelo_inurba_marseille","lat":43.33726,"lon":5.39208,"is_reserved":false,"is_disabled":false,"rental_uris":{"android":"levelo://app?vid=ba5df164-d25c-4a1c-8679-1bd1a1db0642","ios":"levelo://app?vid=ba5df164-d25c-4a1c-8679-1bd1a1db0642"},"vehicle_type_id":"4","last_reported":1736788085,"current_range_meters":38400,"station_id":"ce4bhr92rcd13ifvqhsg","pricing_plan_id":"cebpf4jnsgd1na2vs0mg"},{"bike_id":"c5b025e5-217e-48aa-9ce4-92d8b9f9b5dd","system_id":"levelo_inurba_marseille","lat":43.29905,"lon":5.38149,"is_reserved":false,"is_disabled":false,"rental_uris":{"android":"levelo://app?vid=c5b025e5-217e-48aa-9ce4-92d8b9f9b5dd","ios":"levelo://app?vid=c5b025e5-217e-48aa-9ce4-92d8b9f9b5dd"},"vehicle_type_id":"4","last_reported":1736788085,"current_range_meters":38000,"station_id":"ce4bgj12rcd13ifvqbc0","pricing_plan_id":"cebpf4jnsgd1na2vs0mg"},{"bike_id":"0a0c0d3e-aac5-4346-9c6d-081b23451d86","system_id":"levelo_inurba_marseille","lat":43.30711,"lon":5.37338,"is_reserved":false,"is_disabled":false,"rental_uris":{"android":"levelo://app?vid=0a0c0d3e-aac5-4346-9c6d-081b23451d86","ios":"levelo://app?vid=0a0c0d3e-aac5-4346-9c6d-081b23451d86"},"vehicle_type_id":"4","last_reported":1736788085,"current_range_meters":28400,"station_id":"","pricing_plan_id":"cebpf4jnsgd1na2vs0mg"},{"bike_id":"a3162289-c869-4e8a-944d-f0baa128cc74","system_id":"levelo_inurba_marseille","lat":43.23969,"lon":5.3663,"is_reserved":false,"is_disabled":false,"rental_uris":{"android":"levelo://app?vid=a3162289-c869-4e8a-944d-f0baa128cc74","ios":"levelo://app?vid=a3162289-c869-4e8a-944d-f0baa128cc74"},"vehicle_type_id":"4","last_reported":1736788085,"current_range_meters":38000,"station_id":"ce4bhi12rcd13ifvqfp0","pricing_plan_id":"cebpf4jnsgd1na2vs0mg"},{"bike_id":"7dd5dd5e-1d75-4c5b-b5b8-248a34302cca","system_id":"levelo_inurba_marseille","lat":43.304616,"lon":5.379048,"is_reserved":false,"is_disabled":true,"rental_uris":{"android":"levelo://app?vid=7dd5dd5e-1d75-4c5b-b5b8-248a34302cca","ios":"levelo://app?vid=7dd5dd5e-1d75-4c5b-b5b8-248a34302cca"},"vehicle_type_id":"4","last_reported":1736788085,"current_range_meters":26000,"station_id":"ce4bgup2rcd13ifvqcn0","pricing_plan_id":"cebpf4jnsgd1na2vs0mg"},{"bike_id":"d6c96704-294d-4d5c-bdc4-f101740b8958","system_id":"levelo_inurba_marseille","lat":43.26029,"lon":5.37547,"is_reserved":false,"is_disabled":false,"rental_uris":{"android":"levelo://app?vid=d6c96704-294d-4d5c-bdc4-f101740b8958","ios":"levelo://app?vid=d6c96704-294d-4d5c-bdc4-f101740b8958"},"vehicle_type_id":"4","last_reported":1736788085,"current_range_meters":38400,"station_id":"ce4bhgh2rcd13ifvqfa0","pricing_plan_id":"cebpf4jnsgd1na2vs0mg"},{"bike_id":"d85a1d9b-f035-4b2a-858c-2526acab5ed6","system_id":"levelo_inurba_marseille","lat":43.30133,"lon":5.37403,"is_reserved":false,"is_disabled":true,"rental_uris":{"android":"levelo://app?vid=d85a1d9b-f035-4b2a-858c-2526acab5ed6","ios":"levelo://app?vid=d85a1d9b-f035-4b2a-858c-2526acab5ed6"},"vehicle_type_id":"4","last_reported":1736788085,"current_range_meters":38000,"station_id":"ce4bgs92rcd13ifvqcc0","pricing_plan_id":"cebpf4jnsgd1na2vs0mg"},{"bike_id":"d8327471-e10e-4e1d-a46b-c43156fc0620","system_id":"levelo_inurba_marseille","lat":43.2677,"lon":5.39432,"is_reserved":false,"is_disabled":false,"rental_uris":{"android":"levelo://app?vid=d8327471-e10e-4e1d-a46b-c43156fc0620","ios":"levelo://app?vid=d8327471-e10e-4e1d-a46b-c43156fc0620"},"vehicle_type_id":"4","last_reported":1736788085,"current_range_meters":37600,"station_id":"ce4bhh12rcd13ifvqfg0","pricing_plan_id":"cebpf4jnsgd1na2vs0mg"},{"bike_id":"1481326c-119b-4a4e-9051-004796883f8f","system_id":"levelo_inurba_marseille","lat":43.24818,"lon":5.37418,"is_reserved":false,"is_disabled":false,"rental_uris":{"android":"levelo://app?vid=1481326c-119b-4a4e-9051-004796883f8f","ios":"levelo://app?vid=1481326c-119b-4a4e-9051-004796883f8f"},"vehicle_type_id":"4","last_reported":1736788085,"current_range_meters":30800,"station_id":"ce4bhgh2rcd13ifvqfb0","pricing_plan_id":"cebpf4jnsgd1na2vs0mg"},{"bike_id":"5372dfef-da71-4e3b-8377-854fdc0e47f5","system_id":"levelo_inurba_marseille","lat":43.32463,"lon":5.36543,"is_reserved":false,"is_disabled":false,"rental_uris":{"android":"levelo://app?vid=5372dfef-da71-4e3b-8377-854fdc0e47f5","ios":"levelo://app?vid=5372dfef-da71-4e3b-8377-854fdc0e47f5"},"vehicle_type_id":"4","last_reported":1736788085,"current_range_meters":31200,"station_id":"ce4bhs12rcd13ifvqhvg","pricing_plan_id":"cebpf4jnsgd1na2vs0mg"},{"bike_id":"d834b072-d7cd-429c-8242-a48a72514ebf","system_id":"levelo_inurba_marseille","lat":43.30132,"lon":5.39871,"is_reserved":false,"is_disabled":false,"rental_uris":{"android":"levelo://app?vid=d834b072-d7cd-429c-8242-a48a72514ebf","ios":"levelo://app?vid=d834b072-d7cd-429c-8242-a48a72514ebf"},"vehicle_type_id":"4","last_reported":1736788085,"current_range_meters":24800,"station_id":"ce4bh0h2rcd13ifvqd40","pricing_plan_id":"cebpf4jnsgd1na2vs0mg"},{"bike_id":"6ba8d844-4be9-4966-b91c-0b5bcfe6a94b","system_id":"levelo_inurba_marseille","lat":43.29164,"lon":5.37145,"is_reserved":false,"is_disabled":true,"rental_uris":{"android":"levelo://app?vid=6ba8d844-4be9-4966-b91c-0b5bcfe6a94b","ios":"levelo://app?vid=6ba8d844-4be9-4966-b91c-0b5bcfe6a94b"},"vehicle_type_id":"4","last_reported":1736788085,"current_range_meters":38800,"station_id":"ce4bha92rcd13ifvqeh0","pricing_plan_id":"cebpf4jnsgd1na2vs0mg"},{"bike_id":"eaf78926-df73-4d98-bf7e-6b0b755f0384","system_id":"levelo_inurba_marseille","lat":43.307805,"lon":5.376568,"is_reserved":false,"is_disabled":false,"rental_uris":{"android":"levelo://app?vid=eaf78926-df73-4d98-bf7e-6b0b755f0384","ios":"levelo://app?vid=eaf78926-df73-4d98-bf7e-6b0b755f0384"},"vehicle_type_id":"4","last_reported":1736788085,"current_range_meters":36400,"station_id":"ce4bgv92rcd13ifvqcq0","pricing_plan_id":"cebpf4jnsgd1na2vs0mg"},{"bike_id":"59d914a9-7941-4d0c-ad3f-66ae0befc663","system_id":"levelo_inurba_marseille","lat":43.28033,"lon":5.36966,"is_reserved":false,"is_disabled":false,"rental_uris":{"android":"levelo://app?vid=59d914a9-7941-4d0c-ad3f-66ae0befc663","ios":"levelo://app?vid=59d914a9-7941-4d0c-ad3f-66ae0befc663"},"vehicle_type_id":"4","last_reported":1736788085,"current_range_meters":10000,"station_id":"ce4bha12rcd13ifvqef0","pricing_plan_id":"cebpf4jnsgd1na2vs0mg"},{"bike_id":"d7687e08-57c7-45aa-8013-1220233e38c0","system_id":"levelo_inurba_marseille","lat":43.31755,"lon":5.39014,"is_reserved":false,"is_disabled":false,"rental_uris":{"android":"levelo://app?vid=d7687e08-57c7-45aa-8013-1220233e38c0","ios":"levelo://app?vid=d7687e08-57c7-45aa-8013-1220233e38c0"},"vehicle_type_id":"4","last_reported":1736788085,"current_range_meters":24400,"station_id":"ce4bhqp2rcd13ifvqhng","pricing_plan_id":"cebpf4jnsgd1na2vs0mg"},{"bike_id":"426ee80e-06b0-4d0f-86a5-ea8ad64aaa11","system_id":"levelo_inurba_marseille","lat":43.28917,"lon":5.43746,"is_reserved":false,"is_disabled":false,"rental_uris":{"android":"levelo://app?vid=426ee80e-06b0-4d0f-86a5-ea8ad64aaa11","ios":"levelo://app?vid=426ee80e-06b0-4d0f-86a5-ea8ad64aaa11"},"vehicle_type_id":"4","last_reported":1736788085,"current_range_meters":8400,"station_id":"","pricing_plan_id":"cebpf4jnsgd1na2vs0mg"},{"bike_id":"6d701b4e-deea-46da-8af4-df5ed2166a15","system_id":"levelo_inurba_marseille","lat":43.31114,"lon":5.37765,"is_reserved":false,"is_disabled":false,"rental_uris":{"android":"levelo://app?vid=6d701b4e-deea-46da-8af4-df5ed2166a15","ios":"levelo://app?vid=6d701b4e-deea-46da-8af4-df5ed2166a15"},"vehicle_type_id":"4","last_reported":1736788085,"current_range_meters":28000,"station_id":"ce4bgt92rcd13ifvqcg0","pricing_plan_id":"cebpf4jnsgd1na2vs0mg"},{"bike_id":"6b205fa3-d872-4511-9175-6c462bcc6d5e","system_id":"levelo_inurba_marseille","lat":43.32367,"lon":5.3889,"is_reserved":false,"is_disabled":false,"rental_uris":{"android":"levelo://app?vid=6b205fa3-d872-4511-9175-6c462bcc6d5e","ios":"levelo://app?vid=6b205fa3-d872-4511-9175-6c462bcc6d5e"},"vehicle_type_id":"4","last_reported":1736788085,"current_range_meters":27200,"station_id":"ce4bhqp2rcd13ifvqhog","pricing_plan_id":"cebpf4jnsgd1na2vs0mg"},{"bike_id":"9814023a-fbfd-430e-a624-071e90fc1982","system_id":"levelo_inurba_marseille","lat":43.27442,"lon":5.39383,"is_reserved":false,"is_disabled":false,"rental_uris":{"android":"levelo://app?vid=9814023a-fbfd-430e-a624-071e90fc1982","ios":"levelo://app?vid=9814023a-fbfd-430e-a624-071e90fc1982"},"vehicle_type_id":"4","last_reported":1736788085,"current_range_meters":26800,"station_id":"ce4bhdp2rcd13ifvqf20","pricing_plan_id":"cebpf4jnsgd1na2vs0mg"},{"bike_id":"969e27ab-5a9e-459e-9526-3b57e6f57682","system_id":"levelo_inurba_marseille","lat":43.22932,"lon":5.35379,"is_reserved":false,"is_disabled":false,"rental_uris":{"android":"levelo://app?vid=969e27ab-5a9e-459e-9526-3b57e6f57682","ios":"levelo://app?vid=969e27ab-5a9e-459e-9526-3b57e6f57682"},"vehicle_type_id":"4","last_reported":1736788085,"current_range_meters":39200,"station_id":"cpo3532slgdg3j2ikp40","pricing_plan_id":"cebpf4jnsgd1na2vs0mg"},{"bike_id":"cb3fad42-989f-48ed-9b5b-2987feba3acc","system_id":"levelo_inurba_marseille","lat":43.29555,"lon":5.42284,"is_reserved":false,"is_disabled":false,"rental_uris":{"android":"levelo://app?vid=cb3fad42-989f-48ed-9b5b-2987feba3acc","ios":"levelo://app?vid=cb3fad42-989f-48ed-9b5b-2987feba3acc"},"vehicle_type_id":"4","last_reported":1736788085,"current_range_meters":38400,"station_id":"ce4bhph2rcd13ifvqhdg","pricing_plan_id":"cebpf4jnsgd1na2vs0mg"},{"bike_id":"f288bb75-8df4-4f4a-b0d0-d215a9447574","system_id":"levelo_inurba_marseille","lat":43.28935,"lon":5.36378,"is_reserved":false,"is_disabled":true,"rental_uris":{"android":"levelo://app?vid=f288bb75-8df4-4f4a-b0d0-d215a9447574","ios":"levelo://app?vid=f288bb75-8df4-4f4a-b0d0-d215a9447574"},"vehicle_type_id":"4","last_reported":1736788085,"current_range_meters":0,"station_id":"ce4bhc92rcd13ifvqetg","pricing_plan_id":"cebpf4jnsgd1na2vs0mg"},{"bike_id":"e6150580-61d3-4a64-8f36-c72aec658bfe","system_id":"levelo_inurba_marseille","lat":43.28632,"lon":5.3705,"is_reserved":false,"is_disabled":false,"rental_uris":{"android":"levelo://app?vid=e6150580-61d3-4a64-8f36-c72aec658bfe","ios":"levelo://app?vid=e6150580-61d3-4a64-8f36-c72aec658bfe"},"vehicle_type_id":"4","last_reported":1736788085,"current_range_meters":39200,"station_id":"ce4bht12rcd13ifvqi60","pricing_plan_id":"cebpf4jnsgd1na2vs0mg"},{"bike_id":"fafa25b0-e75e-49ae-865e-60291b28c72d","system_id":"levelo_inurba_marseille","lat":43.28623,"lon":5.35107,"is_reserved":false,"is_disabled":false,"rental_uris":{"android":"levelo://app?vid=fafa25b0-e75e-49ae-865e-60291b28c72d","ios":"levelo://app?vid=fafa25b0-e75e-49ae-865e-60291b28c72d"},"vehicle_type_id":"4","last_reported":1736788085,"current_range_meters":26000,"station_id":"ce4bhch2rcd13ifvqeug","pricing_plan_id":"cebpf4jnsgd1na2vs0mg"},{"bike_id":"f4dbc556-58b0-4dfd-be99-18a51c032520","system_id":"levelo_inurba_marseille","lat":43.24173,"lon":5.39708,"is_reserved":false,"is_disabled":false,"rental_uris":{"android":"levelo://app?vid=f4dbc556-58b0-4dfd-be99-18a51c032520","ios":"levelo://app?vid=f4dbc556-58b0-4dfd-be99-18a51c032520"},"vehicle_type_id":"4","last_reported":1736788085,"current_range_meters":30000,"station_id":"ce4bhn12rcd13ifvqgpg","pricing_plan_id":"cebpf4jnsgd1na2vs0mg"},{"bike_id":"ec231b5c-b512-49b1-a6e6-15ebcae688bd","system_id":"levelo_inurba_marseille","lat":43.23191,"lon":5.35551,"is_reserved":false,"is_disabled":false,"rental_uris":{"android":"levelo://app?vid=ec231b5c-b512-49b1-a6e6-15ebcae688bd","ios":"levelo://app?vid=ec231b5c-b512-49b1-a6e6-15ebcae688bd"},"vehicle_type_id":"4","last_reported":1736788085,"current_range_meters":24000,"station_id":"ce4bhu92rcd13ifvqi70","pricing_plan_id":"cebpf4jnsgd1na2vs0mg"},{"bike_id":"5f76cc9a-1467-4dc6-a58d-2c29c6b72e2b","system_id":"levelo_inurba_marseille","lat":43.29187,"lon":5.358,"is_reserved":false,"is_disabled":false,"rental_uris":{"android":"levelo://app?vid=5f76cc9a-1467-4dc6-a58d-2c29c6b72e2b","ios":"levelo://app?vid=5f76cc9a-1467-4dc6-a58d-2c29c6b72e2b"},"vehicle_type_id":"4","last_reported":1736788085,"current_range_meters":39200,"station_id":"ce4bhb12rcd13ifvqel0","pricing_plan_id":"cebpf4jnsgd1na2vs0mg"},{"bike_id":"cb18743c-5765-46ab-bd31-a067734403fc","system_id":"levelo_inurba_marseille","lat":43.30806,"lon":5.38161,"is_reserved":false,"is_disabled":false,"rental_uris":{"android":"levelo://app?vid=cb18743c-5765-46ab-bd31-a067734403fc","ios":"levelo://app?vid=cb18743c-5765-46ab-bd31-a067734403fc"},"vehicle_type_id":"4","last_reported":1736788085,"current_range_meters":26800,"station_id":"ce4bgt12rcd13ifvqce0","pricing_plan_id":"cebpf4jnsgd1na2vs0mg"},{"bike_id":"3ab3bbf7-8c70-4649-ad84-8954557a86b5","system_id":"levelo_inurba_marseille","lat":43.280068,"lon":5.400088,"is_reserved":false,"is_disabled":false,"rental_uris":{"android":"levelo://app?vid=3ab3bbf7-8c70-4649-ad84-8954557a86b5","ios":"levelo://app?vid=3ab3bbf7-8c70-4649-ad84-8954557a86b5"},"vehicle_type_id":"4","last_reported":1736788085,"current_range_meters":32000,"station_id":"ce4bho92rcd13ifvqh4g","pricing_plan_id":"cebpf4jnsgd1na2vs0mg"},{"bike_id":"f51f3616-6c33-4a5f-8b28-980818697bb0","system_id":"levelo_inurba_marseille","lat":43.2318,"lon":5.40004,"is_reserved":false,"is_disabled":false,"rental_uris":{"android":"levelo://app?vid=f51f3616-6c33-4a5f-8b28-980818697bb0","ios":"levelo://app?vid=f51f3616-6c33-4a5f-8b28-980818697bb0"},"vehicle_type_id":"4","last_reported":1736788085,"current_range_meters":36800,"station_id":"ce4bhn12rcd13ifvqgqg","pricing_plan_id":"cebpf4jnsgd1na2vs0mg"},{"bike_id":"49306021-abf6-40c1-aaca-955aecdd7194","system_id":"levelo_inurba_marseille","lat":43.28489,"lon":5.38545,"is_reserved":false,"is_disabled":false,"rental_uris":{"android":"levelo://app?vid=49306021-abf6-40c1-aaca-955aecdd7194","ios":"levelo://app?vid=49306021-abf6-40c1-aaca-955aecdd7194"},"vehicle_type_id":"4","last_reported":1736788085,"current_range_meters":27600,"station_id":"ce4bh8p2rcd13ifvqeb0","pricing_plan_id":"cebpf4jnsgd1na2vs0mg"},{"bike_id":"9f90ab46-c373-4698-9418-c8ef5e2133b0","system_id":"levelo_inurba_marseille","lat":43.23189,"lon":5.35553,"is_reserved":false,"is_disabled":false,"rental_uris":{"android":"levelo://app?vid=9f90ab46-c373-4698-9418-c8ef5e2133b0","ios":"levelo://app?vid=9f90ab46-c373-4698-9418-c8ef5e2133b0"},"vehicle_type_id":"4","last_reported":1736788085,"current_range_meters":21600,"station_id":"ce4bhu92rcd13ifvqi70","pricing_plan_id":"cebpf4jnsgd1na2vs0mg"},{"bike_id":"7a869afa-fc4c-4b30-aea6-e0d8b156eb83","system_id":"levelo_inurba_marseille","lat":43.24658,"lon":5.38187,"is_reserved":false,"is_disabled":true,"rental_uris":{"android":"levelo://app?vid=7a869afa-fc4c-4b30-aea6-e0d8b156eb83","ios":"levelo://app?vid=7a869afa-fc4c-4b30-aea6-e0d8b156eb83"},"vehicle_type_id":"4","last_reported":1736788085,"current_range_meters":30800,"station_id":"ce4bhih2rcd13ifvqfr0","pricing_plan_id":"cebpf4jnsgd1na2vs0mg"},{"bike_id":"755e5c0a-8de7-4ee5-9d4e-5ec609711170","system_id":"levelo_inurba_marseille","lat":43.29588,"lon":5.38092,"is_reserved":false,"is_disabled":true,"rental_uris":{"android":"levelo://app?vid=755e5c0a-8de7-4ee5-9d4e-5ec609711170","ios":"levelo://app?vid=755e5c0a-8de7-4ee5-9d4e-5ec609711170"},"vehicle_type_id":"4","last_reported":1736788085,"current_range_meters":34800,"station_id":"ce4bgl12rcd13ifvqbo0","pricing_plan_id":"cebpf4jnsgd1na2vs0mg"},{"bike_id":"88a38876-6e4c-460b-8e1d-ad00991b7093","system_id":"levelo_inurba_marseille","lat":43.2871,"lon":5.37388,"is_reserved":false,"is_disabled":false,"rental_uris":{"android":"levelo://app?vid=88a38876-6e4c-460b-8e1d-ad00991b7093","ios":"levelo://app?vid=88a38876-6e4c-460b-8e1d-ad00991b7093"},"vehicle_type_id":"4","last_reported":1736788085,"current_range_meters":29600,"station_id":"ce4bh3p2rcd13ifvqdq0","pricing_plan_id":"cebpf4jnsgd1na2vs0mg"},{"bike_id":"11ba34ad-8618-419b-b510-3c527e1cf8c3","system_id":"levelo_inurba_marseille","lat":43.28451,"lon":5.37486,"is_reserved":false,"is_disabled":true,"rental_uris":{"android":"levelo://app?vid=11ba34ad-8618-419b-b510-3c527e1cf8c3","ios":"levelo://app?vid=11ba34ad-8618-419b-b510-3c527e1cf8c3"},"vehicle_type_id":"4","last_reported":1736788085,"current_range_meters":6400,"station_id":"ce4bh412rcd13ifvqds0","pricing_plan_id":"cebpf4jnsgd1na2vs0mg"},{"bike_id":"1e465e1a-18ee-4cae-b73f-e1bb761d1697","system_id":"levelo_inurba_marseille","lat":43.28701,"lon":5.37393,"is_reserved":false,"is_disabled":false,"rental_uris":{"android":"levelo://app?vid=1e465e1a-18ee-4cae-b73f-e1bb761d1697","ios":"levelo://app?vid=1e465e1a-18ee-4cae-b73f-e1bb761d1697"},"vehicle_type_id":"4","last_reported":1736788085,"current_range_meters":11200,"station_id":"ce4bh3p2rcd13ifvqdq0","pricing_plan_id":"cebpf4jnsgd1na2vs0mg"},{"bike_id":"399dcf40-8a2d-4b11-9128-7cb146882042","system_id":"levelo_inurba_marseille","lat":43.28106,"lon":5.37838,"is_reserved":false,"is_disabled":false,"rental_uris":{"android":"levelo://app?vid=399dcf40-8a2d-4b11-9128-7cb146882042","ios":"levelo://app?vid=399dcf40-8a2d-4b11-9128-7cb146882042"},"vehicle_type_id":"4","last_reported":1736788085,"current_range_meters":20000,"station_id":"ce4bha12rcd13ifvqee0","pricing_plan_id":"cebpf4jnsgd1na2vs0mg"},{"bike_id":"45910403-43fe-46b0-8271-3ee82162b96d","system_id":"levelo_inurba_marseille","lat":43.28452,"lon":5.35894,"is_reserved":false,"is_disabled":false,"rental_uris":{"android":"levelo://app?vid=45910403-43fe-46b0-8271-3ee82162b96d","ios":"levelo://app?vid=45910403-43fe-46b0-8271-3ee82162b96d"},"vehicle_type_id":"4","last_reported":1736788085,"current_range_meters":39200,"station_id":"ce4bhah2rcd13ifvqei0","pricing_plan_id":"cebpf4jnsgd1na2vs0mg"},{"bike_id":"05aa594c-4b8e-425e-b0d6-64a546e290e2","system_id":"levelo_inurba_marseille","lat":43.29008,"lon":5.35604,"is_reserved":false,"is_disabled":false,"rental_uris":{"android":"levelo://app?vid=05aa594c-4b8e-425e-b0d6-64a546e290e2","ios":"levelo://app?vid=05aa594c-4b8e-425e-b0d6-64a546e290e2"},"vehicle_type_id":"4","last_reported":1736788085,"current_range_meters":8000,"station_id":"ce4bhb92rcd13ifvqen0","pricing_plan_id":"cebpf4jnsgd1na2vs0mg"},{"bike_id":"3b74a056-c0cf-4f44-8772-22ed33115fcd","system_id":"levelo_inurba_marseille","lat":43.23197,"lon":5.39972,"is_reserved":false,"is_disabled":false,"rental_uris":{"android":"levelo://app?vid=3b74a056-c0cf-4f44-8772-22ed33115fcd","ios":"levelo://app?vid=3b74a056-c0cf-4f44-8772-22ed33115fcd"},"vehicle_type_id":"4","last_reported":1736788085,"current_range_meters":11200,"station_id":"ce4bhn12rcd13ifvqgqg","pricing_plan_id":"cebpf4jnsgd1na2vs0mg"},{"bike_id":"f44d84a7-547b-40a3-bb57-c02a50c3f0dc","system_id":"levelo_inurba_marseille","lat":43.29522,"lon":5.39036,"is_reserved":false,"is_disabled":false,"rental_uris":{"android":"levelo://app?vid=f44d84a7-547b-40a3-bb57-c02a50c3f0dc","ios":"levelo://app?vid=f44d84a7-547b-40a3-bb57-c02a50c3f0dc"},"vehicle_type_id":"4","last_reported":1736788085,"current_range_meters":29600,"station_id":"ce4bh3p2rcd13ifvqdp0","pricing_plan_id":"cebpf4jnsgd1na2vs0mg"},{"bike_id":"3d617204-1d4c-440a-9621-81535c3b4d54","system_id":"levelo_inurba_marseille","lat":43.23966,"lon":5.36634,"is_reserved":false,"is_disabled":false,"rental_uris":{"android":"levelo://app?vid=3d617204-1d4c-440a-9621-81535c3b4d54","ios":"levelo://app?vid=3d617204-1d4c-440a-9621-81535c3b4d54"},"vehicle_type_id":"4","last_reported":1736788085,"current_range_meters":17600,"station_id":"ce4bhi12rcd13ifvqfp0","pricing_plan_id":"cebpf4jnsgd1na2vs0mg"},{"bike_id":"44e6d13e-1348-4924-af0e-0d0c77fed367","system_id":"levelo_inurba_marseille","lat":43.30185,"lon":5.36626,"is_reserved":false,"is_disabled":false,"rental_uris":{"android":"levelo://app?vid=44e6d13e-1348-4924-af0e-0d0c77fed367","ios":"levelo://app?vid=44e6d13e-1348-4924-af0e-0d0c77fed367"},"vehicle_type_id":"4","last_reported":1736788085,"current_range_meters":17200,"station_id":"ce4bgrh2rcd13ifvqc8g","pricing_plan_id":"cebpf4jnsgd1na2vs0mg"},{"bike_id":"51bb6953-dea8-4e82-96bf-52696267905f","system_id":"levelo_inurba_marseille","lat":43.23069,"lon":5.35479,"is_reserved":false,"is_disabled":false,"rental_uris":{"android":"levelo://app?vid=51bb6953-dea8-4e82-96bf-52696267905f","ios":"levelo://app?vid=51bb6953-dea8-4e82-96bf-52696267905f"},"vehicle_type_id":"4","last_reported":1736788085,"current_range_meters":11600,"station_id":"cpo3342slgdg3j2ifvpg","pricing_plan_id":"cebpf4jnsgd1na2vs0mg"},{"bike_id":"0e3b415a-a1e0-4606-8d4a-e611339594ee","system_id":"levelo_inurba_marseille","lat":43.31076,"lon":5.38356,"is_reserved":false,"is_disabled":false,"rental_uris":{"android":"levelo://app?vid=0e3b415a-a1e0-4606-8d4a-e611339594ee","ios":"levelo://app?vid=0e3b415a-a1e0-4606-8d4a-e611339594ee"},"vehicle_type_id":"4","last_reported":1736788085,"current_range_meters":22000,"station_id":"ce4bgv92rcd13ifvqcr0","pricing_plan_id":"cebpf4jnsgd1na2vs0mg"},{"bike_id":"dc388f0e-5ba4-4401-b2b7-3e59da087469","system_id":"levelo_inurba_marseille","lat":43.28635,"lon":5.35089,"is_reserved":false,"is_disabled":false,"rental_uris":{"android":"levelo://app?vid=dc388f0e-5ba4-4401-b2b7-3e59da087469","ios":"levelo://app?vid=dc388f0e-5ba4-4401-b2b7-3e59da087469"},"vehicle_type_id":"4","last_reported":1736788085,"current_range_meters":11200,"station_id":"ce4bhch2rcd13ifvqeug","pricing_plan_id":"cebpf4jnsgd1na2vs0mg"},{"bike_id":"b94590f1-f942-48fb-86db-9fab873d7c2a","system_id":"levelo_inurba_marseille","lat":43.28459,"lon":5.3589,"is_reserved":false,"is_disabled":false,"rental_uris":{"android":"levelo://app?vid=b94590f1-f942-48fb-86db-9fab873d7c2a","ios":"levelo://app?vid=b94590f1-f942-48fb-86db-9fab873d7c2a"},"vehicle_type_id":"4","last_reported":1736788085,"current_range_meters":34800,"station_id":"ce4bhah2rcd13ifvqei0","pricing_plan_id":"cebpf4jnsgd1na2vs0mg"},{"bike_id":"c84c60ce-c7f6-42eb-bb3c-f11a697bd396","system_id":"levelo_inurba_marseille","lat":43.299814,"lon":5.384967,"is_reserved":false,"is_disabled":true,"rental_uris":{"android":"levelo://app?vid=c84c60ce-c7f6-42eb-bb3c-f11a697bd396","ios":"levelo://app?vid=c84c60ce-c7f6-42eb-bb3c-f11a697bd396"},"vehicle_type_id":"4","last_reported":1736788085,"current_range_meters":38000,"station_id":"ce4bgj92rcd13ifvqbd0","pricing_plan_id":"cebpf4jnsgd1na2vs0mg"},{"bike_id":"5b6f32ca-27c0-4ddf-ba56-69f237bfef76","system_id":"levelo_inurba_marseille","lat":43.28615,"lon":5.35104,"is_reserved":false,"is_disabled":false,"rental_uris":{"android":"levelo://app?vid=5b6f32ca-27c0-4ddf-ba56-69f237bfef76","ios":"levelo://app?vid=5b6f32ca-27c0-4ddf-ba56-69f237bfef76"},"vehicle_type_id":"4","last_reported":1736788085,"current_range_meters":34000,"station_id":"ce4bhch2rcd13ifvqeug","pricing_plan_id":"cebpf4jnsgd1na2vs0mg"},{"bike_id":"55fa8664-1d33-4322-a814-be758ac67b03","system_id":"levelo_inurba_marseille","lat":43.30327,"lon":5.40426,"is_reserved":false,"is_disabled":false,"rental_uris":{"android":"levelo://app?vid=55fa8664-1d33-4322-a814-be758ac67b03","ios":"levelo://app?vid=55fa8664-1d33-4322-a814-be758ac67b03"},"vehicle_type_id":"4","last_reported":1736788085,"current_range_meters":12000,"station_id":"ce4bh012rcd13ifvqd10","pricing_plan_id":"cebpf4jnsgd1na2vs0mg"},{"bike_id":"60eb95fc-b90e-49ce-a432-7bfaaff8cec5","system_id":"levelo_inurba_marseille","lat":43.28443,"lon":5.35892,"is_reserved":false,"is_disabled":false,"rental_uris":{"android":"levelo://app?vid=60eb95fc-b90e-49ce-a432-7bfaaff8cec5","ios":"levelo://app?vid=60eb95fc-b90e-49ce-a432-7bfaaff8cec5"},"vehicle_type_id":"4","last_reported":1736788085,"current_range_meters":10000,"station_id":"ce4bhah2rcd13ifvqei0","pricing_plan_id":"cebpf4jnsgd1na2vs0mg"},{"bike_id":"56a37990-c381-414a-8c27-59f20eae88ce","system_id":"levelo_inurba_marseille","lat":43.25007,"lon":5.38916,"is_reserved":false,"is_disabled":false,"rental_uris":{"android":"levelo://app?vid=56a37990-c381-414a-8c27-59f20eae88ce","ios":"levelo://app?vid=56a37990-c381-414a-8c27-59f20eae88ce"},"vehicle_type_id":"4","last_reported":1736788085,"current_range_meters":8800,"station_id":"ce4bhgp2rcd13ifvqfd0","pricing_plan_id":"cebpf4jnsgd1na2vs0mg"},{"bike_id":"c1c51f67-6348-4482-a3d4-31704cefaf37","system_id":"levelo_inurba_marseille","lat":43.2861,"lon":5.3511,"is_reserved":false,"is_disabled":false,"rental_uris":{"android":"levelo://app?vid=c1c51f67-6348-4482-a3d4-31704cefaf37","ios":"levelo://app?vid=c1c51f67-6348-4482-a3d4-31704cefaf37"},"vehicle_type_id":"4","last_reported":1736788085,"current_range_meters":32800,"station_id":"ce4bhch2rcd13ifvqeug","pricing_plan_id":"cebpf4jnsgd1na2vs0mg"},{"bike_id":"e067160c-4497-450a-b2ce-7ff4d5762f95","system_id":"levelo_inurba_marseille","lat":43.29876,"lon":5.39737,"is_reserved":false,"is_disabled":true,"rental_uris":{"android":"levelo://app?vid=e067160c-4497-450a-b2ce-7ff4d5762f95","ios":"levelo://app?vid=e067160c-4497-450a-b2ce-7ff4d5762f95"},"vehicle_type_id":"4","last_reported":1736788085,"current_range_meters":2000,"station_id":"ce4bh0h2rcd13ifvqd50","pricing_plan_id":"cebpf4jnsgd1na2vs0mg"},{"bike_id":"a56bdef2-14b8-4e02-b3bc-538917283971","system_id":"levelo_inurba_marseille","lat":43.25091,"lon":5.39502,"is_reserved":false,"is_disabled":false,"rental_uris":{"android":"levelo://app?vid=a56bdef2-14b8-4e02-b3bc-538917283971","ios":"levelo://app?vid=a56bdef2-14b8-4e02-b3bc-538917283971"},"vehicle_type_id":"4","last_reported":1736788085,"current_range_meters":11600,"station_id":"ce4bhm12rcd13ifvqgkg","pricing_plan_id":"cebpf4jnsgd1na2vs0mg"},{"bike_id":"e762cd7d-615b-4492-aed7-22e5d37d8a01","system_id":"levelo_inurba_marseille","lat":43.31323,"lon":5.3969,"is_reserved":false,"is_disabled":false,"rental_uris":{"android":"levelo://app?vid=e762cd7d-615b-4492-aed7-22e5d37d8a01","ios":"levelo://app?vid=e762cd7d-615b-4492-aed7-22e5d37d8a01"},"vehicle_type_id":"4","last_reported":1736788085,"current_range_meters":7200,"station_id":"ce4bgvp2rcd13ifvqcu0","pricing_plan_id":"cebpf4jnsgd1na2vs0mg"},{"bike_id":"315b51a2-7ea0-4300-9b20-5b0527089b0f","system_id":"levelo_inurba_marseille","lat":43.25564,"lon":5.38231,"is_reserved":false,"is_disabled":false,"rental_uris":{"android":"levelo://app?vid=315b51a2-7ea0-4300-9b20-5b0527089b0f","ios":"levelo://app?vid=315b51a2-7ea0-4300-9b20-5b0527089b0f"},"vehicle_type_id":"4","last_reported":1736788085,"current_range_meters":36800,"station_id":"ce4bhih2rcd13ifvqfs0","pricing_plan_id":"cebpf4jnsgd1na2vs0mg"},{"bike_id":"e9430f1b-8860-41e9-9b9f-1f3b253b57f9","system_id":"levelo_inurba_marseille","lat":43.26057,"lon":5.39389,"is_reserved":false,"is_disabled":false,"rental_uris":{"android":"levelo://app?vid=e9430f1b-8860-41e9-9b9f-1f3b253b57f9","ios":"levelo://app?vid=e9430f1b-8860-41e9-9b9f-1f3b253b57f9"},"vehicle_type_id":"4","last_reported":1736788085,"current_range_meters":30400,"station_id":"ce4bhh92rcd13ifvqfj0","pricing_plan_id":"cebpf4jnsgd1na2vs0mg"},{"bike_id":"11b5ef43-7a8b-43a6-8dc9-02e75f07b9e3","system_id":"levelo_inurba_marseille","lat":43.28696,"lon":5.37392,"is_reserved":false,"is_disabled":false,"rental_uris":{"android":"levelo://app?vid=11b5ef43-7a8b-43a6-8dc9-02e75f07b9e3","ios":"levelo://app?vid=11b5ef43-7a8b-43a6-8dc9-02e75f07b9e3"},"vehicle_type_id":"4","last_reported":1736788085,"current_range_meters":11200,"station_id":"ce4bh3p2rcd13ifvqdq0","pricing_plan_id":"cebpf4jnsgd1na2vs0mg"},{"bike_id":"270d469d-915d-470f-844b-8f88407e7792","system_id":"levelo_inurba_marseille","lat":43.29967,"lon":5.38499,"is_reserved":false,"is_disabled":false,"rental_uris":{"android":"levelo://app?vid=270d469d-915d-470f-844b-8f88407e7792","ios":"levelo://app?vid=270d469d-915d-470f-844b-8f88407e7792"},"vehicle_type_id":"4","last_reported":1736788085,"current_range_meters":35600,"station_id":"ce4bgj92rcd13ifvqbd0","pricing_plan_id":"cebpf4jnsgd1na2vs0mg"},{"bike_id":"a754abf4-87cb-4915-a97f-0b4d0e8971f5","system_id":"levelo_inurba_marseille","lat":43.28615,"lon":5.35103,"is_reserved":false,"is_disabled":false,"rental_uris":{"android":"levelo://app?vid=a754abf4-87cb-4915-a97f-0b4d0e8971f5","ios":"levelo://app?vid=a754abf4-87cb-4915-a97f-0b4d0e8971f5"},"vehicle_type_id":"4","last_reported":1736788085,"current_range_meters":32400,"station_id":"ce4bhch2rcd13ifvqeug","pricing_plan_id":"cebpf4jnsgd1na2vs0mg"},{"bike_id":"b51b8509-c21e-40ac-802b-edd56e55cdd0","system_id":"levelo_inurba_marseille","lat":43.3035,"lon":5.41873,"is_reserved":false,"is_disabled":true,"rental_uris":{"android":"levelo://app?vid=b51b8509-c21e-40ac-802b-edd56e55cdd0","ios":"levelo://app?vid=b51b8509-c21e-40ac-802b-edd56e55cdd0"},"vehicle_type_id":"4","last_reported":1736788085,"current_range_meters":23200,"station_id":"ce4bhop2rcd13ifvqh7g","pricing_plan_id":"cebpf4jnsgd1na2vs0mg"},{"bike_id":"512c7bd5-5643-4f7d-a8c3-5cceff4f5ebd","system_id":"levelo_inurba_marseille","lat":43.27373,"lon":5.36256,"is_reserved":false,"is_disabled":false,"rental_uris":{"android":"levelo://app?vid=512c7bd5-5643-4f7d-a8c3-5cceff4f5ebd","ios":"levelo://app?vid=512c7bd5-5643-4f7d-a8c3-5cceff4f5ebd"},"vehicle_type_id":"4","last_reported":1736788085,"current_range_meters":12800,"station_id":"ce4bhbh2rcd13ifvqeo0","pricing_plan_id":"cebpf4jnsgd1na2vs0mg"},{"bike_id":"9a1547ad-2778-4a38-b024-dffd4330cf60","system_id":"levelo_inurba_marseille","lat":43.26211,"lon":5.3745,"is_reserved":false,"is_disabled":true,"rental_uris":{"android":"levelo://app?vid=9a1547ad-2778-4a38-b024-dffd4330cf60","ios":"levelo://app?vid=9a1547ad-2778-4a38-b024-dffd4330cf60"},"vehicle_type_id":"4","last_reported":1736788085,"current_range_meters":0,"station_id":"ce4bhgp2rcd13ifvqfc0","pricing_plan_id":"cebpf4jnsgd1na2vs0mg"},{"bike_id":"78fc2529-851e-44ea-9e17-e5a76c9197b1","system_id":"levelo_inurba_marseille","lat":43.2972,"lon":5.37674,"is_reserved":false,"is_disabled":true,"rental_uris":{"android":"levelo://app?vid=78fc2529-851e-44ea-9e17-e5a76c9197b1","ios":"levelo://app?vid=78fc2529-851e-44ea-9e17-e5a76c9197b1"},"vehicle_type_id":"4","last_reported":1736788085,"current_range_meters":37600,"station_id":"ce4bgkh2rcd13ifvqbl0","pricing_plan_id":"cebpf4jnsgd1na2vs0mg"},{"bike_id":"4abf9319-e884-461c-bbf8-cd9ddf517830","system_id":"levelo_inurba_marseille","lat":43.29217,"lon":5.36033,"is_reserved":false,"is_disabled":false,"rental_uris":{"android":"levelo://app?vid=4abf9319-e884-461c-bbf8-cd9ddf517830","ios":"levelo://app?vid=4abf9319-e884-461c-bbf8-cd9ddf517830"},"vehicle_type_id":"4","last_reported":1736788085,"current_range_meters":38800,"station_id":"ce4bhbh2rcd13ifvqeqg","pricing_plan_id":"cebpf4jnsgd1na2vs0mg"},{"bike_id":"89256b5b-a3cc-4492-be85-cfa8d81ef51a","system_id":"levelo_inurba_marseille","lat":43.3026,"lon":5.40081,"is_reserved":false,"is_disabled":false,"rental_uris":{"android":"levelo://app?vid=89256b5b-a3cc-4492-be85-cfa8d81ef51a","ios":"levelo://app?vid=89256b5b-a3cc-4492-be85-cfa8d81ef51a"},"vehicle_type_id":"4","last_reported":1736788085,"current_range_meters":23200,"station_id":"ce4bgvh2rcd13ifvqcs0","pricing_plan_id":"cebpf4jnsgd1na2vs0mg"},{"bike_id":"7c53cd33-cb9c-4072-9762-fc9111f0e5c3","system_id":"levelo_inurba_marseille","lat":43.27828,"lon":5.40695,"is_reserved":false,"is_disabled":false,"rental_uris":{"android":"levelo://app?vid=7c53cd33-cb9c-4072-9762-fc9111f0e5c3","ios":"levelo://app?vid=7c53cd33-cb9c-4072-9762-fc9111f0e5c3"},"vehicle_type_id":"4","last_reported":1736788085,"current_range_meters":12800,"station_id":"ce4bhnh2rcd13ifvqgtg","pricing_plan_id":"cebpf4jnsgd1na2vs0mg"},{"bike_id":"ea51f736-54b3-43c5-8b95-a6c3d5ff0ef4","system_id":"levelo_inurba_marseille","lat":43.25813,"lon":5.39431,"is_reserved":false,"is_disabled":true,"rental_uris":{"android":"levelo://app?vid=ea51f736-54b3-43c5-8b95-a6c3d5ff0ef4","ios":"levelo://app?vid=ea51f736-54b3-43c5-8b95-a6c3d5ff0ef4"},"vehicle_type_id":"4","last_reported":1736788085,"current_range_meters":2000,"station_id":"ce4bhip2rcd13ifvqft0","pricing_plan_id":"cebpf4jnsgd1na2vs0mg"},{"bike_id":"81894d57-6961-4ca9-8a73-3302ecbe940c","system_id":"levelo_inurba_marseille","lat":43.24829,"lon":5.37445,"is_reserved":false,"is_disabled":false,"rental_uris":{"android":"levelo://app?vid=81894d57-6961-4ca9-8a73-3302ecbe940c","ios":"levelo://app?vid=81894d57-6961-4ca9-8a73-3302ecbe940c"},"vehicle_type_id":"4","last_reported":1736788085,"current_range_meters":8800,"station_id":"ce4bhgh2rcd13ifvqfb0","pricing_plan_id":"cebpf4jnsgd1na2vs0mg"},{"bike_id":"c25eff20-13c9-4fec-963a-111efca2ade7","system_id":"levelo_inurba_marseille","lat":43.28842,"lon":5.39297,"is_reserved":false,"is_disabled":false,"rental_uris":{"android":"levelo://app?vid=c25eff20-13c9-4fec-963a-111efca2ade7","ios":"levelo://app?vid=c25eff20-13c9-4fec-963a-111efca2ade7"},"vehicle_type_id":"4","last_reported":1736788085,"current_range_meters":12400,"station_id":"ce4bh2p2rcd13ifvqdi0","pricing_plan_id":"cebpf4jnsgd1na2vs0mg"},{"bike_id":"2e97710c-38d7-4cf4-aadf-33f66f41c611","system_id":"levelo_inurba_marseille","lat":43.28938,"lon":5.36383,"is_reserved":false,"is_disabled":false,"rental_uris":{"android":"levelo://app?vid=2e97710c-38d7-4cf4-aadf-33f66f41c611","ios":"levelo://app?vid=2e97710c-38d7-4cf4-aadf-33f66f41c611"},"vehicle_type_id":"4","last_reported":1736788085,"current_range_meters":33600,"station_id":"ce4bhc92rcd13ifvqetg","pricing_plan_id":"cebpf4jnsgd1na2vs0mg"},{"bike_id":"45324790-abcf-4a91-8b9e-6b7c17eae013","system_id":"levelo_inurba_marseille","lat":43.27378,"lon":5.36244,"is_reserved":false,"is_disabled":false,"rental_uris":{"android":"levelo://app?vid=45324790-abcf-4a91-8b9e-6b7c17eae013","ios":"levelo://app?vid=45324790-abcf-4a91-8b9e-6b7c17eae013"},"vehicle_type_id":"4","last_reported":1736788085,"current_range_meters":8800,"station_id":"ce4bhbh2rcd13ifvqeo0","pricing_plan_id":"cebpf4jnsgd1na2vs0mg"},{"bike_id":"0b69caea-6d54-4121-b916-7612818febc6","system_id":"levelo_inurba_marseille","lat":43.31232,"lon":5.36856,"is_reserved":false,"is_disabled":false,"rental_uris":{"android":"levelo://app?vid=0b69caea-6d54-4121-b916-7612818febc6","ios":"levelo://app?vid=0b69caea-6d54-4121-b916-7612818febc6"},"vehicle_type_id":"4","last_reported":1736788085,"current_range_meters":25600,"station_id":"ce4bgl92rcd13ifvqbq0","pricing_plan_id":"cebpf4jnsgd1na2vs0mg"},{"bike_id":"11fc9837-7d9f-42a2-8c46-3a70e1e3c81f","system_id":"levelo_inurba_marseille","lat":43.23959,"lon":5.36623,"is_reserved":false,"is_disabled":false,"rental_uris":{"android":"levelo://app?vid=11fc9837-7d9f-42a2-8c46-3a70e1e3c81f","ios":"levelo://app?vid=11fc9837-7d9f-42a2-8c46-3a70e1e3c81f"},"vehicle_type_id":"4","last_reported":1736788085,"current_range_meters":15200,"station_id":"ce4bhi12rcd13ifvqfp0","pricing_plan_id":"cebpf4jnsgd1na2vs0mg"},{"bike_id":"f04caad5-8478-457c-925b-4c5c0b4368d8","system_id":"levelo_inurba_marseille","lat":43.29791,"lon":5.39344,"is_reserved":false,"is_disabled":false,"rental_uris":{"android":"levelo://app?vid=f04caad5-8478-457c-925b-4c5c0b4368d8","ios":"levelo://app?vid=f04caad5-8478-457c-925b-4c5c0b4368d8"},"vehicle_type_id":"4","last_reported":1736788085,"current_range_meters":12000,"station_id":"chh1huq6cuj3fo74tm60","pricing_plan_id":"cebpf4jnsgd1na2vs0mg"},{"bike_id":"769a7675-79a7-477c-96af-a7ad17ea732a","system_id":"levelo_inurba_marseille","lat":43.2899,"lon":5.36686,"is_reserved":false,"is_disabled":false,"rental_uris":{"android":"levelo://app?vid=769a7675-79a7-477c-96af-a7ad17ea732a","ios":"levelo://app?vid=769a7675-79a7-477c-96af-a7ad17ea732a"},"vehicle_type_id":"4","last_reported":1736788085,"current_range_meters":22000,"station_id":"ce4bh412rcd13ifvqdr0","pricing_plan_id":"cebpf4jnsgd1na2vs0mg"},{"bike_id":"0c7f34c8-2275-4571-8b67-6728027855d1","system_id":"levelo_inurba_marseille","lat":43.29277,"lon":5.40117,"is_reserved":false,"is_disabled":false,"rental_uris":{"android":"levelo://app?vid=0c7f34c8-2275-4571-8b67-6728027855d1","ios":"levelo://app?vid=0c7f34c8-2275-4571-8b67-6728027855d1"},"vehicle_type_id":"4","last_reported":1736788085,"current_range_meters":5600,"station_id":"ce4bh312rcd13ifvqdk0","pricing_plan_id":"cebpf4jnsgd1na2vs0mg"},{"bike_id":"fe5ef8e7-5e5f-406e-bda3-11210356606d","system_id":"levelo_inurba_marseille","lat":43.29942,"lon":5.36557,"is_reserved":false,"is_disabled":false,"rental_uris":{"android":"levelo://app?vid=fe5ef8e7-5e5f-406e-bda3-11210356606d","ios":"levelo://app?vid=fe5ef8e7-5e5f-406e-bda3-11210356606d"},"vehicle_type_id":"4","last_reported":1736788085,"current_range_meters":8400,"station_id":"ce4bgm92rcd13ifvqbr0","pricing_plan_id":"cebpf4jnsgd1na2vs0mg"},{"bike_id":"92b1b3ea-3b3c-4209-a8ea-83b3dd6876a2","system_id":"levelo_inurba_marseille","lat":43.292,"lon":5.39324,"is_reserved":false,"is_disabled":false,"rental_uris":{"android":"levelo://app?vid=92b1b3ea-3b3c-4209-a8ea-83b3dd6876a2","ios":"levelo://app?vid=92b1b3ea-3b3c-4209-a8ea-83b3dd6876a2"},"vehicle_type_id":"4","last_reported":1736788085,"current_range_meters":25200,"station_id":"ce4bh192rcd13ifvqdd0","pricing_plan_id":"cebpf4jnsgd1na2vs0mg"},{"bike_id":"fed252d4-8a96-4918-8909-8c985d1de4fb","system_id":"levelo_inurba_marseille","lat":43.32449,"lon":5.3657,"is_reserved":false,"is_disabled":false,"rental_uris":{"android":"levelo://app?vid=fed252d4-8a96-4918-8909-8c985d1de4fb","ios":"levelo://app?vid=fed252d4-8a96-4918-8909-8c985d1de4fb"},"vehicle_type_id":"4","last_reported":1736788085,"current_range_meters":23200,"station_id":"ce4bhs12rcd13ifvqhvg","pricing_plan_id":"cebpf4jnsgd1na2vs0mg"},{"bike_id":"1ff4d6af-d168-4206-80a1-8f85ab0c0a00","system_id":"levelo_inurba_marseille","lat":43.25868,"lon":5.39896,"is_reserved":false,"is_disabled":false,"rental_uris":{"android":"levelo://app?vid=1ff4d6af-d168-4206-80a1-8f85ab0c0a00","ios":"levelo://app?vid=1ff4d6af-d168-4206-80a1-8f85ab0c0a00"},"vehicle_type_id":"4","last_reported":1736788085,"current_range_meters":39200,"station_id":"ce4bhl92rcd13ifvqghg","pricing_plan_id":"cebpf4jnsgd1na2vs0mg"},{"bike_id":"02f9c855-9b7c-4c4d-a998-251e38d370bb","system_id":"levelo_inurba_marseille","lat":43.31021,"lon":5.37939,"is_reserved":false,"is_disabled":false,"rental_uris":{"android":"levelo://app?vid=02f9c855-9b7c-4c4d-a998-251e38d370bb","ios":"levelo://app?vid=02f9c855-9b7c-4c4d-a998-251e38d370bb"},"vehicle_type_id":"4","last_reported":1736788085,"current_range_meters":30000,"station_id":"","pricing_plan_id":"cebpf4jnsgd1na2vs0mg"},{"bike_id":"d97ad6b4-c689-48bf-a0b5-0a64e623e699","system_id":"levelo_inurba_marseille","lat":43.28154,"lon":5.42644,"is_reserved":false,"is_disabled":false,"rental_uris":{"android":"levelo://app?vid=d97ad6b4-c689-48bf-a0b5-0a64e623e699","ios":"levelo://app?vid=d97ad6b4-c689-48bf-a0b5-0a64e623e699"},"vehicle_type_id":"4","last_reported":1736788085,"current_range_meters":18800,"station_id":"ce4bhnh2rcd13ifvqgug","pricing_plan_id":"cebpf4jnsgd1na2vs0mg"},{"bike_id":"8f2883cf-5b8b-4163-a405-806c9d9065e1","system_id":"levelo_inurba_marseille","lat":43.28995,"lon":5.35615,"is_reserved":false,"is_disabled":false,"rental_uris":{"android":"levelo://app?vid=8f2883cf-5b8b-4163-a405-806c9d9065e1","ios":"levelo://app?vid=8f2883cf-5b8b-4163-a405-806c9d9065e1"},"vehicle_type_id":"4","last_reported":1736788085,"current_range_meters":20400,"station_id":"ce4bhb92rcd13ifvqen0","pricing_plan_id":"cebpf4jnsgd1na2vs0mg"},{"bike_id":"94a60579-bf9e-4cba-9a96-de41a0fa579f","system_id":"levelo_inurba_marseille","lat":43.2656,"lon":5.37276,"is_reserved":false,"is_disabled":false,"rental_uris":{"android":"levelo://app?vid=94a60579-bf9e-4cba-9a96-de41a0fa579f","ios":"levelo://app?vid=94a60579-bf9e-4cba-9a96-de41a0fa579f"},"vehicle_type_id":"4","last_reported":1736788085,"current_range_meters":32000,"station_id":"ce4bhg12rcd13ifvqf70","pricing_plan_id":"cebpf4jnsgd1na2vs0mg"},{"bike_id":"77c125dd-0570-435e-ae36-92a459b4cd7d","system_id":"levelo_inurba_marseille","lat":43.25831,"lon":5.3943,"is_reserved":false,"is_disabled":false,"rental_uris":{"android":"levelo://app?vid=77c125dd-0570-435e-ae36-92a459b4cd7d","ios":"levelo://app?vid=77c125dd-0570-435e-ae36-92a459b4cd7d"},"vehicle_type_id":"4","last_reported":1736788085,"current_range_meters":9200,"station_id":"ce4bhip2rcd13ifvqft0","pricing_plan_id":"cebpf4jnsgd1na2vs0mg"},{"bike_id":"bbe418f9-edcd-4096-92a5-9824c80806f0","system_id":"levelo_inurba_marseille","lat":43.27414,"lon":5.39422,"is_reserved":false,"is_disabled":false,"rental_uris":{"android":"levelo://app?vid=bbe418f9-edcd-4096-92a5-9824c80806f0","ios":"levelo://app?vid=bbe418f9-edcd-4096-92a5-9824c80806f0"},"vehicle_type_id":"4","last_reported":1736788085,"current_range_meters":29600,"station_id":"ce4bhdp2rcd13ifvqf20","pricing_plan_id":"cebpf4jnsgd1na2vs0mg"},{"bike_id":"aae1ce2b-7d7b-4534-a806-3460613807d2","system_id":"levelo_inurba_marseille","lat":43.24177,"lon":5.39732,"is_reserved":false,"is_disabled":false,"rental_uris":{"android":"levelo://app?vid=aae1ce2b-7d7b-4534-a806-3460613807d2","ios":"levelo://app?vid=aae1ce2b-7d7b-4534-a806-3460613807d2"},"vehicle_type_id":"4","last_reported":1736788085,"current_range_meters":14400,"station_id":"ce4bhn12rcd13ifvqgpg","pricing_plan_id":"cebpf4jnsgd1na2vs0mg"},{"bike_id":"476f41db-3d59-43ab-93e3-66f344a533de","system_id":"levelo_inurba_marseille","lat":43.29187,"lon":5.35796,"is_reserved":false,"is_disabled":false,"rental_uris":{"android":"levelo://app?vid=476f41db-3d59-43ab-93e3-66f344a533de","ios":"levelo://app?vid=476f41db-3d59-43ab-93e3-66f344a533de"},"vehicle_type_id":"4","last_reported":1736788085,"current_range_meters":39200,"station_id":"ce4bhb12rcd13ifvqel0","pricing_plan_id":"cebpf4jnsgd1na2vs0mg"},{"bike_id":"acb789d3-c42d-465c-982b-20d6256e9026","system_id":"levelo_inurba_marseille","lat":43.24389,"lon":5.37064,"is_reserved":false,"is_disabled":false,"rental_uris":{"android":"levelo://app?vid=acb789d3-c42d-465c-982b-20d6256e9026","ios":"levelo://app?vid=acb789d3-c42d-465c-982b-20d6256e9026"},"vehicle_type_id":"4","last_reported":1736788085,"current_range_meters":6000,"station_id":"ce4bhhh2rcd13ifvqfk0","pricing_plan_id":"cebpf4jnsgd1na2vs0mg"},{"bike_id":"295bd26f-64bb-4f9a-b1ce-9227768f18ec","system_id":"levelo_inurba_marseille","lat":43.29156,"lon":5.37148,"is_reserved":false,"is_disabled":true,"rental_uris":{"android":"levelo://app?vid=295bd26f-64bb-4f9a-b1ce-9227768f18ec","ios":"levelo://app?vid=295bd26f-64bb-4f9a-b1ce-9227768f18ec"},"vehicle_type_id":"4","last_reported":1736788085,"current_range_meters":28400,"station_id":"ce4bha92rcd13ifvqeh0","pricing_plan_id":"cebpf4jnsgd1na2vs0mg"},{"bike_id":"1bff2bac-4883-4019-adbe-2dc598af8aad","system_id":"levelo_inurba_marseille","lat":43.27439,"lon":5.39384,"is_reserved":false,"is_disabled":false,"rental_uris":{"android":"levelo://app?vid=1bff2bac-4883-4019-adbe-2dc598af8aad","ios":"levelo://app?vid=1bff2bac-4883-4019-adbe-2dc598af8aad"},"vehicle_type_id":"4","last_reported":1736788085,"current_range_meters":20400,"station_id":"ce4bhdp2rcd13ifvqf20","pricing_plan_id":"cebpf4jnsgd1na2vs0mg"},{"bike_id":"ae29e0de-7b5a-45d6-ace3-313c5e88010a","system_id":"levelo_inurba_marseille","lat":43.28,"lon":5.41645,"is_reserved":false,"is_disabled":false,"rental_uris":{"android":"levelo://app?vid=ae29e0de-7b5a-45d6-ace3-313c5e88010a","ios":"levelo://app?vid=ae29e0de-7b5a-45d6-ace3-313c5e88010a"},"vehicle_type_id":"4","last_reported":1736788085,"current_range_meters":39200,"station_id":"ce4bho12rcd13ifvqh1g","pricing_plan_id":"cebpf4jnsgd1na2vs0mg"},{"bike_id":"6c8f1a4a-6d49-4354-8fa4-7312da1e1397","system_id":"levelo_inurba_marseille","lat":43.28613,"lon":5.35099,"is_reserved":false,"is_disabled":false,"rental_uris":{"android":"levelo://app?vid=6c8f1a4a-6d49-4354-8fa4-7312da1e1397","ios":"levelo://app?vid=6c8f1a4a-6d49-4354-8fa4-7312da1e1397"},"vehicle_type_id":"4","last_reported":1736788085,"current_range_meters":37600,"station_id":"ce4bhch2rcd13ifvqeug","pricing_plan_id":"cebpf4jnsgd1na2vs0mg"},{"bike_id":"572f0254-11cf-4ef2-b3f9-66737ed8298a","system_id":"levelo_inurba_marseille","lat":43.28421,"lon":5.34987,"is_reserved":false,"is_disabled":true,"rental_uris":{"android":"levelo://app?vid=572f0254-11cf-4ef2-b3f9-66737ed8298a","ios":"levelo://app?vid=572f0254-11cf-4ef2-b3f9-66737ed8298a"},"vehicle_type_id":"4","last_reported":1736788085,"current_range_meters":0,"station_id":"ce4bhbh2rcd13ifvqepg","pricing_plan_id":"cebpf4jnsgd1na2vs0mg"},{"bike_id":"3154eec0-331b-43f9-b1cc-1db740d94c8d","system_id":"levelo_inurba_marseille","lat":43.27914,"lon":5.3958,"is_reserved":false,"is_disabled":false,"rental_uris":{"android":"levelo://app?vid=3154eec0-331b-43f9-b1cc-1db740d94c8d","ios":"levelo://app?vid=3154eec0-331b-43f9-b1cc-1db740d94c8d"},"vehicle_type_id":"4","last_reported":1736788085,"current_range_meters":18800,"station_id":"ce4bhf92rcd13ifvqf40","pricing_plan_id":"cebpf4jnsgd1na2vs0mg"},{"bike_id":"60c48e84-151f-4edd-83cd-789ff87c7f63","system_id":"levelo_inurba_marseille","lat":43.2868,"lon":5.37401,"is_reserved":false,"is_disabled":true,"rental_uris":{"android":"levelo://app?vid=60c48e84-151f-4edd-83cd-789ff87c7f63","ios":"levelo://app?vid=60c48e84-151f-4edd-83cd-789ff87c7f63"},"vehicle_type_id":"4","last_reported":1736788085,"current_range_meters":36800,"station_id":"ce4bh3p2rcd13ifvqdq0","pricing_plan_id":"cebpf4jnsgd1na2vs0mg"},{"bike_id":"b8014fe9-3b0e-4643-96c5-b77e26dd3881","system_id":"levelo_inurba_marseille","lat":43.27814,"lon":5.40709,"is_reserved":false,"is_disabled":false,"rental_uris":{"android":"levelo://app?vid=b8014fe9-3b0e-4643-96c5-b77e26dd3881","ios":"levelo://app?vid=b8014fe9-3b0e-4643-96c5-b77e26dd3881"},"vehicle_type_id":"4","last_reported":1736788085,"current_range_meters":9200,"station_id":"ce4bhnh2rcd13ifvqgtg","pricing_plan_id":"cebpf4jnsgd1na2vs0mg"},{"bike_id":"d1dc4ad9-186b-444e-9d19-7e7fc8f9a273","system_id":"levelo_inurba_marseille","lat":43.25579,"lon":5.38228,"is_reserved":false,"is_disabled":false,"rental_uris":{"android":"levelo://app?vid=d1dc4ad9-186b-444e-9d19-7e7fc8f9a273","ios":"levelo://app?vid=d1dc4ad9-186b-444e-9d19-7e7fc8f9a273"},"vehicle_type_id":"4","last_reported":1736788085,"current_range_meters":39200,"station_id":"ce4bhih2rcd13ifvqfs0","pricing_plan_id":"cebpf4jnsgd1na2vs0mg"},{"bike_id":"6fcb3384-c9bc-4ab3-9c0b-f62a500684d1","system_id":"levelo_inurba_marseille","lat":43.29525,"lon":5.39014,"is_reserved":false,"is_disabled":true,"rental_uris":{"android":"levelo://app?vid=6fcb3384-c9bc-4ab3-9c0b-f62a500684d1","ios":"levelo://app?vid=6fcb3384-c9bc-4ab3-9c0b-f62a500684d1"},"vehicle_type_id":"4","last_reported":1736788085,"current_range_meters":28800,"station_id":"ce4bh3p2rcd13ifvqdp0","pricing_plan_id":"cebpf4jnsgd1na2vs0mg"},{"bike_id":"de05f028-7450-4792-8d5b-e268410faa9d","system_id":"levelo_inurba_marseille","lat":43.32096,"lon":5.36763,"is_reserved":false,"is_disabled":false,"rental_uris":{"android":"levelo://app?vid=de05f028-7450-4792-8d5b-e268410faa9d","ios":"levelo://app?vid=de05f028-7450-4792-8d5b-e268410faa9d"},"vehicle_type_id":"4","last_reported":1736788085,"current_range_meters":32400,"station_id":"ce4bhrh2rcd13ifvqhug","pricing_plan_id":"cebpf4jnsgd1na2vs0mg"},{"bike_id":"40ca92e2-89d4-42e2-bbb6-f9f0c7df0ac9","system_id":"levelo_inurba_marseille","lat":43.2318,"lon":5.3999,"is_reserved":false,"is_disabled":false,"rental_uris":{"android":"levelo://app?vid=40ca92e2-89d4-42e2-bbb6-f9f0c7df0ac9","ios":"levelo://app?vid=40ca92e2-89d4-42e2-bbb6-f9f0c7df0ac9"},"vehicle_type_id":"4","last_reported":1736788085,"current_range_meters":6400,"station_id":"ce4bhn12rcd13ifvqgqg","pricing_plan_id":"cebpf4jnsgd1na2vs0mg"},{"bike_id":"4218abb1-97a1-4e69-a779-b2859c95cf9a","system_id":"levelo_inurba_marseille","lat":43.23964,"lon":5.36629,"is_reserved":false,"is_disabled":false,"rental_uris":{"android":"levelo://app?vid=4218abb1-97a1-4e69-a779-b2859c95cf9a","ios":"levelo://app?vid=4218abb1-97a1-4e69-a779-b2859c95cf9a"},"vehicle_type_id":"4","last_reported":1736788085,"current_range_meters":18800,"station_id":"ce4bhi12rcd13ifvqfp0","pricing_plan_id":"cebpf4jnsgd1na2vs0mg"},{"bike_id":"7da73b08-06e3-43ca-8e0f-9447fe50ccbf","system_id":"levelo_inurba_marseille","lat":43.274954,"lon":5.42459,"is_reserved":false,"is_disabled":true,"rental_uris":{"android":"levelo://app?vid=7da73b08-06e3-43ca-8e0f-9447fe50ccbf","ios":"levelo://app?vid=7da73b08-06e3-43ca-8e0f-9447fe50ccbf"},"vehicle_type_id":"4","last_reported":1736788085,"current_range_meters":0,"station_id":"ce4bhn92rcd13ifvqgrg","pricing_plan_id":"cebpf4jnsgd1na2vs0mg"},{"bike_id":"f2af2ca6-447c-496c-ad3d-731c1377ca61","system_id":"levelo_inurba_marseille","lat":43.30093,"lon":5.37299,"is_reserved":false,"is_disabled":false,"rental_uris":{"android":"levelo://app?vid=f2af2ca6-447c-496c-ad3d-731c1377ca61","ios":"levelo://app?vid=f2af2ca6-447c-496c-ad3d-731c1377ca61"},"vehicle_type_id":"4","last_reported":1736788085,"current_range_meters":15200,"station_id":"","pricing_plan_id":"cebpf4jnsgd1na2vs0mg"},{"bike_id":"85cfe1c0-40e0-4f59-b74d-562bdcdf0cee","system_id":"levelo_inurba_marseille","lat":43.28567,"lon":5.3949,"is_reserved":false,"is_disabled":false,"rental_uris":{"android":"levelo://app?vid=85cfe1c0-40e0-4f59-b74d-562bdcdf0cee","ios":"levelo://app?vid=85cfe1c0-40e0-4f59-b74d-562bdcdf0cee"},"vehicle_type_id":"4","last_reported":1736788085,"current_range_meters":22400,"station_id":"ce4bh292rcd13ifvqdg0","pricing_plan_id":"cebpf4jnsgd1na2vs0mg"},{"bike_id":"923cb395-45d4-4d53-bdd9-a34c0143ee2c","system_id":"levelo_inurba_marseille","lat":43.3227,"lon":5.38283,"is_reserved":false,"is_disabled":false,"rental_uris":{"android":"levelo://app?vid=923cb395-45d4-4d53-bdd9-a34c0143ee2c","ios":"levelo://app?vid=923cb395-45d4-4d53-bdd9-a34c0143ee2c"},"vehicle_type_id":"4","last_reported":1736788085,"current_range_meters":28000,"station_id":"ce4bhr12rcd13ifvqhqg","pricing_plan_id":"cebpf4jnsgd1na2vs0mg"},{"bike_id":"c758d0b5-a9c7-436c-bd02-d42d7dc83121","system_id":"levelo_inurba_marseille","lat":43.28096,"lon":5.37833,"is_reserved":false,"is_disabled":false,"rental_uris":{"android":"levelo://app?vid=c758d0b5-a9c7-436c-bd02-d42d7dc83121","ios":"levelo://app?vid=c758d0b5-a9c7-436c-bd02-d42d7dc83121"},"vehicle_type_id":"4","last_reported":1736788085,"current_range_meters":33600,"station_id":"ce4bha12rcd13ifvqee0","pricing_plan_id":"cebpf4jnsgd1na2vs0mg"},{"bike_id":"34d1187a-0d2f-42da-8bcd-6376169d385a","system_id":"levelo_inurba_marseille","lat":43.25932,"lon":5.40895,"is_reserved":false,"is_disabled":true,"rental_uris":{"android":"levelo://app?vid=34d1187a-0d2f-42da-8bcd-6376169d385a","ios":"levelo://app?vid=34d1187a-0d2f-42da-8bcd-6376169d385a"},"vehicle_type_id":"4","last_reported":1736788085,"current_range_meters":1600,"station_id":"ce4bhm92rcd13ifvqglg","pricing_plan_id":"cebpf4jnsgd1na2vs0mg"},{"bike_id":"b704bf42-2bc7-4506-b669-8ca7a3330fef","system_id":"levelo_inurba_marseille","lat":43.28162,"lon":5.42629,"is_reserved":false,"is_disabled":true,"rental_uris":{"android":"levelo://app?vid=b704bf42-2bc7-4506-b669-8ca7a3330fef","ios":"levelo://app?vid=b704bf42-2bc7-4506-b669-8ca7a3330fef"},"vehicle_type_id":"4","last_reported":1736788085,"current_range_meters":24400,"station_id":"ce4bhnh2rcd13ifvqgug","pricing_plan_id":"cebpf4jnsgd1na2vs0mg"},{"bike_id":"813bd090-2e21-4eae-a33f-d2bf70c3d23d","system_id":"levelo_inurba_marseille","lat":43.279,"lon":5.38012,"is_reserved":false,"is_disabled":false,"rental_uris":{"android":"levelo://app?vid=813bd090-2e21-4eae-a33f-d2bf70c3d23d","ios":"levelo://app?vid=813bd090-2e21-4eae-a33f-d2bf70c3d23d"},"vehicle_type_id":"4","last_reported":1736788085,"current_range_meters":37600,"station_id":"ce4bhf92rcd13ifvqf50","pricing_plan_id":"cebpf4jnsgd1na2vs0mg"},{"bike_id":"7f6a3e2f-0dce-4550-a68a-400126b5aed3","system_id":"levelo_inurba_marseille","lat":43.30895,"lon":5.37199,"is_reserved":false,"is_disabled":false,"rental_uris":{"android":"levelo://app?vid=7f6a3e2f-0dce-4550-a68a-400126b5aed3","ios":"levelo://app?vid=7f6a3e2f-0dce-4550-a68a-400126b5aed3"},"vehicle_type_id":"4","last_reported":1736788085,"current_range_meters":27200,"station_id":"ce4bguh2rcd13ifvqckg","pricing_plan_id":"cebpf4jnsgd1na2vs0mg"},{"bike_id":"efdf6e72-46a9-4201-b253-5e7a8c8a3bbf","system_id":"levelo_inurba_marseille","lat":43.2718,"lon":5.40981,"is_reserved":false,"is_disabled":false,"rental_uris":{"android":"levelo://app?vid=efdf6e72-46a9-4201-b253-5e7a8c8a3bbf","ios":"levelo://app?vid=efdf6e72-46a9-4201-b253-5e7a8c8a3bbf"},"vehicle_type_id":"4","last_reported":1736788085,"current_range_meters":36400,"station_id":"ce4bhl12rcd13ifvqgf0","pricing_plan_id":"cebpf4jnsgd1na2vs0mg"},{"bike_id":"f62a7ed4-7c80-4ed8-9568-a4dea62069d1","system_id":"levelo_inurba_marseille","lat":43.28079,"lon":5.39659,"is_reserved":false,"is_disabled":false,"rental_uris":{"android":"levelo://app?vid=f62a7ed4-7c80-4ed8-9568-a4dea62069d1","ios":"levelo://app?vid=f62a7ed4-7c80-4ed8-9568-a4dea62069d1"},"vehicle_type_id":"4","last_reported":1736788085,"current_range_meters":28000,"station_id":"ce4bho12rcd13ifvqh2g","pricing_plan_id":"cebpf4jnsgd1na2vs0mg"},{"bike_id":"67b9922a-723b-4f97-ba9b-ba5639a07738","system_id":"levelo_inurba_marseille","lat":43.30885,"lon":5.37203,"is_reserved":false,"is_disabled":false,"rental_uris":{"android":"levelo://app?vid=67b9922a-723b-4f97-ba9b-ba5639a07738","ios":"levelo://app?vid=67b9922a-723b-4f97-ba9b-ba5639a07738"},"vehicle_type_id":"4","last_reported":1736788085,"current_range_meters":38000,"station_id":"ce4bguh2rcd13ifvqckg","pricing_plan_id":"cebpf4jnsgd1na2vs0mg"},{"bike_id":"08c58b0c-378d-4e34-9aef-7f8ed4f9ae02","system_id":"levelo_inurba_marseille","lat":43.27615,"lon":5.36108,"is_reserved":false,"is_disabled":false,"rental_uris":{"android":"levelo://app?vid=08c58b0c-378d-4e34-9aef-7f8ed4f9ae02","ios":"levelo://app?vid=08c58b0c-378d-4e34-9aef-7f8ed4f9ae02"},"vehicle_type_id":"4","last_reported":1736788085,"current_range_meters":30800,"station_id":"ce4bgj92rcd13ifvqbe0","pricing_plan_id":"cebpf4jnsgd1na2vs0mg"},{"bike_id":"17f33690-4be6-4cb3-b92d-6f24130a1384","system_id":"levelo_inurba_marseille","lat":43.26938,"lon":5.38921,"is_reserved":false,"is_disabled":false,"rental_uris":{"android":"levelo://app?vid=17f33690-4be6-4cb3-b92d-6f24130a1384","ios":"levelo://app?vid=17f33690-4be6-4cb3-b92d-6f24130a1384"},"vehicle_type_id":"4","last_reported":1736788085,"current_range_meters":36800,"station_id":"ce4bhhh2rcd13ifvqfl0","pricing_plan_id":"cebpf4jnsgd1na2vs0mg"},{"bike_id":"2ac5d086-ba2c-4c68-8515-9cd6aee6e212","system_id":"levelo_inurba_marseille","lat":43.31312,"lon":5.39702,"is_reserved":false,"is_disabled":false,"rental_uris":{"android":"levelo://app?vid=2ac5d086-ba2c-4c68-8515-9cd6aee6e212","ios":"levelo://app?vid=2ac5d086-ba2c-4c68-8515-9cd6aee6e212"},"vehicle_type_id":"4","last_reported":1736788085,"current_range_meters":8800,"station_id":"ce4bgvp2rcd13ifvqcu0","pricing_plan_id":"cebpf4jnsgd1na2vs0mg"},{"bike_id":"31240ca4-9f64-4406-9c52-14b4354e548c","system_id":"levelo_inurba_marseille","lat":43.28608,"lon":5.35103,"is_reserved":false,"is_disabled":false,"rental_uris":{"android":"levelo://app?vid=31240ca4-9f64-4406-9c52-14b4354e548c","ios":"levelo://app?vid=31240ca4-9f64-4406-9c52-14b4354e548c"},"vehicle_type_id":"4","last_reported":1736788085,"current_range_meters":32400,"station_id":"ce4bhch2rcd13ifvqeug","pricing_plan_id":"cebpf4jnsgd1na2vs0mg"},{"bike_id":"a6c3bf8e-c017-49ea-bc1d-613868e505aa","system_id":"levelo_inurba_marseille","lat":43.31752,"lon":5.39021,"is_reserved":false,"is_disabled":false,"rental_uris":{"android":"levelo://app?vid=a6c3bf8e-c017-49ea-bc1d-613868e505aa","ios":"levelo://app?vid=a6c3bf8e-c017-49ea-bc1d-613868e505aa"},"vehicle_type_id":"4","last_reported":1736788085,"current_range_meters":24000,"station_id":"ce4bhqp2rcd13ifvqhng","pricing_plan_id":"cebpf4jnsgd1na2vs0mg"},{"bike_id":"d9b042e2-bbf3-47bf-851f-426caf4d0e01","system_id":"levelo_inurba_marseille","lat":43.24818,"lon":5.37457,"is_reserved":false,"is_disabled":false,"rental_uris":{"android":"levelo://app?vid=d9b042e2-bbf3-47bf-851f-426caf4d0e01","ios":"levelo://app?vid=d9b042e2-bbf3-47bf-851f-426caf4d0e01"},"vehicle_type_id":"4","last_reported":1736788085,"current_range_meters":33200,"station_id":"ce4bhgh2rcd13ifvqfb0","pricing_plan_id":"cebpf4jnsgd1na2vs0mg"},{"bike_id":"8cba5328-787f-4a59-a6b6-c442b5aaca46","system_id":"levelo_inurba_marseille","lat":43.26489,"lon":5.39546,"is_reserved":false,"is_disabled":false,"rental_uris":{"android":"levelo://app?vid=8cba5328-787f-4a59-a6b6-c442b5aaca46","ios":"levelo://app?vid=8cba5328-787f-4a59-a6b6-c442b5aaca46"},"vehicle_type_id":"4","last_reported":1736788085,"current_range_meters":38800,"station_id":"ce4bhi12rcd13ifvqfq0","pricing_plan_id":"cebpf4jnsgd1na2vs0mg"},{"bike_id":"df0b6114-99b8-427c-912a-a9577034450a","system_id":"levelo_inurba_marseille","lat":43.2978,"lon":5.39335,"is_reserved":false,"is_disabled":false,"rental_uris":{"android":"levelo://app?vid=df0b6114-99b8-427c-912a-a9577034450a","ios":"levelo://app?vid=df0b6114-99b8-427c-912a-a9577034450a"},"vehicle_type_id":"4","last_reported":1736788085,"current_range_meters":10000,"station_id":"chh1huq6cuj3fo74tm60","pricing_plan_id":"cebpf4jnsgd1na2vs0mg"},{"bike_id":"b4455fcf-7427-42ff-a824-b77090d9ccce","system_id":"levelo_inurba_marseille","lat":43.25579,"lon":5.38247,"is_reserved":false,"is_disabled":false,"rental_uris":{"android":"levelo://app?vid=b4455fcf-7427-42ff-a824-b77090d9ccce","ios":"levelo://app?vid=b4455fcf-7427-42ff-a824-b77090d9ccce"},"vehicle_type_id":"4","last_reported":1736788085,"current_range_meters":24400,"station_id":"ce4bhih2rcd13ifvqfs0","pricing_plan_id":"cebpf4jnsgd1na2vs0mg"},{"bike_id":"6d6418c6-58d4-4c0c-a20a-1efc680c9d16","system_id":"levelo_inurba_marseille","lat":43.28926,"lon":5.38397,"is_reserved":false,"is_disabled":false,"rental_uris":{"android":"levelo://app?vid=6d6418c6-58d4-4c0c-a20a-1efc680c9d16","ios":"levelo://app?vid=6d6418c6-58d4-4c0c-a20a-1efc680c9d16"},"vehicle_type_id":"4","last_reported":1736788085,"current_range_meters":26000,"station_id":"ce4bh612rcd13ifvqe6g","pricing_plan_id":"cebpf4jnsgd1na2vs0mg"},{"bike_id":"739b9309-56f3-4b21-b61d-ade9ae6cc990","system_id":"levelo_inurba_marseille","lat":43.29269,"lon":5.40114,"is_reserved":false,"is_disabled":true,"rental_uris":{"android":"levelo://app?vid=739b9309-56f3-4b21-b61d-ade9ae6cc990","ios":"levelo://app?vid=739b9309-56f3-4b21-b61d-ade9ae6cc990"},"vehicle_type_id":"4","last_reported":1736788085,"current_range_meters":38400,"station_id":"ce4bh312rcd13ifvqdk0","pricing_plan_id":"cebpf4jnsgd1na2vs0mg"},{"bike_id":"b58e9a9b-f307-4a84-825e-af6090e2caaa","system_id":"levelo_inurba_marseille","lat":43.28727,"lon":5.3794,"is_reserved":false,"is_disabled":false,"rental_uris":{"android":"levelo://app?vid=b58e9a9b-f307-4a84-825e-af6090e2caaa","ios":"levelo://app?vid=b58e9a9b-f307-4a84-825e-af6090e2caaa"},"vehicle_type_id":"4","last_reported":1736788085,"current_range_meters":28400,"station_id":"ce4bh9p2rcd13ifvqec0","pricing_plan_id":"cebpf4jnsgd1na2vs0mg"},{"bike_id":"76a76cb7-04ed-4e26-b7ee-9253907cc562","system_id":"levelo_inurba_marseille","lat":43.29602,"lon":5.38105,"is_reserved":false,"is_disabled":false,"rental_uris":{"android":"levelo://app?vid=76a76cb7-04ed-4e26-b7ee-9253907cc562","ios":"levelo://app?vid=76a76cb7-04ed-4e26-b7ee-9253907cc562"},"vehicle_type_id":"4","last_reported":1736788085,"current_range_meters":38800,"station_id":"ce4bgl12rcd13ifvqbo0","pricing_plan_id":"cebpf4jnsgd1na2vs0mg"},{"bike_id":"3c3c287f-e835-4040-bdb7-259026d8f5b9","system_id":"levelo_inurba_marseille","lat":43.29024,"lon":5.3812,"is_reserved":false,"is_disabled":true,"rental_uris":{"android":"levelo://app?vid=3c3c287f-e835-4040-bdb7-259026d8f5b9","ios":"levelo://app?vid=3c3c287f-e835-4040-bdb7-259026d8f5b9"},"vehicle_type_id":"4","last_reported":1736788085,"current_range_meters":0,"station_id":"ce4bh4p2rcd13ifvqe1g","pricing_plan_id":"cebpf4jnsgd1na2vs0mg"},{"bike_id":"f1db6666-0386-4ce9-95d5-e40ff4c27ad6","system_id":"levelo_inurba_marseille","lat":43.30142,"lon":5.39859,"is_reserved":false,"is_disabled":false,"rental_uris":{"android":"levelo://app?vid=f1db6666-0386-4ce9-95d5-e40ff4c27ad6","ios":"levelo://app?vid=f1db6666-0386-4ce9-95d5-e40ff4c27ad6"},"vehicle_type_id":"4","last_reported":1736788085,"current_range_meters":17600,"station_id":"ce4bh0h2rcd13ifvqd40","pricing_plan_id":"cebpf4jnsgd1na2vs0mg"},{"bike_id":"f8e22307-a1e3-42d9-85c8-12a8587fea9b","system_id":"levelo_inurba_marseille","lat":43.31324,"lon":5.39683,"is_reserved":false,"is_disabled":false,"rental_uris":{"android":"levelo://app?vid=f8e22307-a1e3-42d9-85c8-12a8587fea9b","ios":"levelo://app?vid=f8e22307-a1e3-42d9-85c8-12a8587fea9b"},"vehicle_type_id":"4","last_reported":1736788085,"current_range_meters":38800,"station_id":"ce4bgvp2rcd13ifvqcu0","pricing_plan_id":"cebpf4jnsgd1na2vs0mg"},{"bike_id":"41922604-c7b8-4e93-9da5-3903771d7233","system_id":"levelo_inurba_marseille","lat":43.24812,"lon":5.37452,"is_reserved":false,"is_disabled":false,"rental_uris":{"android":"levelo://app?vid=41922604-c7b8-4e93-9da5-3903771d7233","ios":"levelo://app?vid=41922604-c7b8-4e93-9da5-3903771d7233"},"vehicle_type_id":"4","last_reported":1736788085,"current_range_meters":26000,"station_id":"ce4bhgh2rcd13ifvqfb0","pricing_plan_id":"cebpf4jnsgd1na2vs0mg"},{"bike_id":"ad7f0081-bee7-4042-91ab-9211d7e53433","system_id":"levelo_inurba_marseille","lat":43.2439,"lon":5.37063,"is_reserved":false,"is_disabled":false,"rental_uris":{"android":"levelo://app?vid=ad7f0081-bee7-4042-91ab-9211d7e53433","ios":"levelo://app?vid=ad7f0081-bee7-4042-91ab-9211d7e53433"},"vehicle_type_id":"4","last_reported":1736788085,"current_range_meters":17600,"station_id":"ce4bhhh2rcd13ifvqfk0","pricing_plan_id":"cebpf4jnsgd1na2vs0mg"},{"bike_id":"b3989067-f48e-48e8-9f72-9d04db4132b9","system_id":"levelo_inurba_marseille","lat":43.30806,"lon":5.38133,"is_reserved":false,"is_disabled":true,"rental_uris":{"android":"levelo://app?vid=b3989067-f48e-48e8-9f72-9d04db4132b9","ios":"levelo://app?vid=b3989067-f48e-48e8-9f72-9d04db4132b9"},"vehicle_type_id":"4","last_reported":1736788085,"current_range_meters":31200,"station_id":"ce4bgt12rcd13ifvqce0","pricing_plan_id":"cebpf4jnsgd1na2vs0mg"},{"bike_id":"de849d82-468f-4c9f-a8d3-e7ba994c7879","system_id":"levelo_inurba_marseille","lat":43.30453,"lon":5.36747,"is_reserved":false,"is_disabled":false,"rental_uris":{"android":"levelo://app?vid=de849d82-468f-4c9f-a8d3-e7ba994c7879","ios":"levelo://app?vid=de849d82-468f-4c9f-a8d3-e7ba994c7879"},"vehicle_type_id":"4","last_reported":1736788085,"current_range_meters":18800,"station_id":"","pricing_plan_id":"cebpf4jnsgd1na2vs0mg"},{"bike_id":"53f9831c-a716-4f18-b261-2a5ee037262e","system_id":"levelo_inurba_marseille","lat":43.295654,"lon":5.400062,"is_reserved":false,"is_disabled":false,"rental_uris":{"android":"levelo://app?vid=53f9831c-a716-4f18-b261-2a5ee037262e","ios":"levelo://app?vid=53f9831c-a716-4f18-b261-2a5ee037262e"},"vehicle_type_id":"4","last_reported":1736788085,"current_range_meters":28000,"station_id":"ce4bh312rcd13ifvqdj0","pricing_plan_id":"cebpf4jnsgd1na2vs0mg"},{"bike_id":"8c7af2f1-12e8-47a0-a6ab-f2eea557c83c","system_id":"levelo_inurba_marseille","lat":43.25185,"lon":5.39382,"is_reserved":false,"is_disabled":false,"rental_uris":{"android":"levelo://app?vid=8c7af2f1-12e8-47a0-a6ab-f2eea557c83c","ios":"levelo://app?vid=8c7af2f1-12e8-47a0-a6ab-f2eea557c83c"},"vehicle_type_id":"4","last_reported":1736788085,"current_range_meters":20400,"station_id":"ce4bhm12rcd13ifvqgkg","pricing_plan_id":"cebpf4jnsgd1na2vs0mg"},{"bike_id":"317217f4-252a-4ff2-8a17-cbcec96dc79e","system_id":"levelo_inurba_marseille","lat":43.24077,"lon":5.37728,"is_reserved":false,"is_disabled":true,"rental_uris":{"android":"levelo://app?vid=317217f4-252a-4ff2-8a17-cbcec96dc79e","ios":"levelo://app?vid=317217f4-252a-4ff2-8a17-cbcec96dc79e"},"vehicle_type_id":"4","last_reported":1736788085,"current_range_meters":36000,"station_id":"ce4bhnp2rcd13ifvqgvg","pricing_plan_id":"cebpf4jnsgd1na2vs0mg"},{"bike_id":"85603f95-286b-4848-8682-ec6ae6094237","system_id":"levelo_inurba_marseille","lat":43.27065,"lon":5.4027,"is_reserved":false,"is_disabled":true,"rental_uris":{"android":"levelo://app?vid=85603f95-286b-4848-8682-ec6ae6094237","ios":"levelo://app?vid=85603f95-286b-4848-8682-ec6ae6094237"},"vehicle_type_id":"4","last_reported":1736788085,"current_range_meters":2800,"station_id":"ce4bhk92rcd13ifvqgc0","pricing_plan_id":"cebpf4jnsgd1na2vs0mg"},{"bike_id":"55178c83-e8c1-42d0-85eb-2ae9bbbd47cf","system_id":"levelo_inurba_marseille","lat":43.23195,"lon":5.35532,"is_reserved":false,"is_disabled":false,"rental_uris":{"android":"levelo://app?vid=55178c83-e8c1-42d0-85eb-2ae9bbbd47cf","ios":"levelo://app?vid=55178c83-e8c1-42d0-85eb-2ae9bbbd47cf"},"vehicle_type_id":"4","last_reported":1736788085,"current_range_meters":38000,"station_id":"ce4bhu92rcd13ifvqi70","pricing_plan_id":"cebpf4jnsgd1na2vs0mg"},{"bike_id":"69c47c65-964f-40bd-929d-41de97277039","system_id":"levelo_inurba_marseille","lat":43.33618,"lon":5.41012,"is_reserved":false,"is_disabled":true,"rental_uris":{"android":"levelo://app?vid=69c47c65-964f-40bd-929d-41de97277039","ios":"levelo://app?vid=69c47c65-964f-40bd-929d-41de97277039"},"vehicle_type_id":"4","last_reported":1736788085,"current_range_meters":3600,"station_id":"ce4bhqh2rcd13ifvqhmg","pricing_plan_id":"cebpf4jnsgd1na2vs0mg"},{"bike_id":"c59c3bfd-259f-48d2-b5c1-5d9cc976ef8e","system_id":"levelo_inurba_marseille","lat":43.3094,"lon":5.40136,"is_reserved":false,"is_disabled":false,"rental_uris":{"android":"levelo://app?vid=c59c3bfd-259f-48d2-b5c1-5d9cc976ef8e","ios":"levelo://app?vid=c59c3bfd-259f-48d2-b5c1-5d9cc976ef8e"},"vehicle_type_id":"4","last_reported":1736788085,"current_range_meters":22400,"station_id":"ce4bgvp2rcd13ifvqct0","pricing_plan_id":"cebpf4jnsgd1na2vs0mg"},{"bike_id":"34fbdfbb-3fce-4a0e-b0ab-cce98eace863","system_id":"levelo_inurba_marseille","lat":43.2606,"lon":5.39404,"is_reserved":false,"is_disabled":false,"rental_uris":{"android":"levelo://app?vid=34fbdfbb-3fce-4a0e-b0ab-cce98eace863","ios":"levelo://app?vid=34fbdfbb-3fce-4a0e-b0ab-cce98eace863"},"vehicle_type_id":"4","last_reported":1736788085,"current_range_meters":30800,"station_id":"ce4bhh92rcd13ifvqfj0","pricing_plan_id":"cebpf4jnsgd1na2vs0mg"},{"bike_id":"a1cc9a38-ed70-4ad2-828b-7fcd9a8c9bb5","system_id":"levelo_inurba_marseille","lat":43.30331,"lon":5.40426,"is_reserved":false,"is_disabled":false,"rental_uris":{"android":"levelo://app?vid=a1cc9a38-ed70-4ad2-828b-7fcd9a8c9bb5","ios":"levelo://app?vid=a1cc9a38-ed70-4ad2-828b-7fcd9a8c9bb5"},"vehicle_type_id":"4","last_reported":1736788085,"current_range_meters":32000,"station_id":"ce4bh012rcd13ifvqd10","pricing_plan_id":"cebpf4jnsgd1na2vs0mg"},{"bike_id":"ed1f243f-d898-4d38-9939-17a56cf4c1f7","system_id":"levelo_inurba_marseille","lat":43.28934,"lon":5.36402,"is_reserved":false,"is_disabled":false,"rental_uris":{"android":"levelo://app?vid=ed1f243f-d898-4d38-9939-17a56cf4c1f7","ios":"levelo://app?vid=ed1f243f-d898-4d38-9939-17a56cf4c1f7"},"vehicle_type_id":"4","last_reported":1736788085,"current_range_meters":38800,"station_id":"ce4bhc92rcd13ifvqetg","pricing_plan_id":"cebpf4jnsgd1na2vs0mg"},{"bike_id":"067b6af8-e338-4603-ae5c-4068d14c27d0","system_id":"levelo_inurba_marseille","lat":43.2972,"lon":5.37697,"is_reserved":false,"is_disabled":false,"rental_uris":{"android":"levelo://app?vid=067b6af8-e338-4603-ae5c-4068d14c27d0","ios":"levelo://app?vid=067b6af8-e338-4603-ae5c-4068d14c27d0"},"vehicle_type_id":"4","last_reported":1736788085,"current_range_meters":36400,"station_id":"ce4bgkh2rcd13ifvqbl0","pricing_plan_id":"cebpf4jnsgd1na2vs0mg"},{"bike_id":"18b38d0a-aa85-44ff-8ce3-ffc12c766b0c","system_id":"levelo_inurba_marseille","lat":43.28413,"lon":5.34986,"is_reserved":false,"is_disabled":true,"rental_uris":{"android":"levelo://app?vid=18b38d0a-aa85-44ff-8ce3-ffc12c766b0c","ios":"levelo://app?vid=18b38d0a-aa85-44ff-8ce3-ffc12c766b0c"},"vehicle_type_id":"4","last_reported":1736788085,"current_range_meters":0,"station_id":"ce4bhbh2rcd13ifvqepg","pricing_plan_id":"cebpf4jnsgd1na2vs0mg"},{"bike_id":"2ad863f2-d589-4019-9b83-ae87d5126173","system_id":"levelo_inurba_marseille","lat":43.26059,"lon":5.39399,"is_reserved":false,"is_disabled":false,"rental_uris":{"android":"levelo://app?vid=2ad863f2-d589-4019-9b83-ae87d5126173","ios":"levelo://app?vid=2ad863f2-d589-4019-9b83-ae87d5126173"},"vehicle_type_id":"4","last_reported":1736788085,"current_range_meters":21600,"station_id":"ce4bhh92rcd13ifvqfj0","pricing_plan_id":"cebpf4jnsgd1na2vs0mg"},{"bike_id":"74a43a63-4050-48de-b3b8-0f72679e36a7","system_id":"levelo_inurba_marseille","lat":43.28665,"lon":5.38664,"is_reserved":false,"is_disabled":false,"rental_uris":{"android":"levelo://app?vid=74a43a63-4050-48de-b3b8-0f72679e36a7","ios":"levelo://app?vid=74a43a63-4050-48de-b3b8-0f72679e36a7"},"vehicle_type_id":"4","last_reported":1736788085,"current_range_meters":26800,"station_id":"ce4bh492rcd13ifvqdug","pricing_plan_id":"cebpf4jnsgd1na2vs0mg"},{"bike_id":"aa217473-fbc6-467e-996c-eafd090351ec","system_id":"levelo_inurba_marseille","lat":43.27944,"lon":5.41036,"is_reserved":false,"is_disabled":false,"rental_uris":{"android":"levelo://app?vid=aa217473-fbc6-467e-996c-eafd090351ec","ios":"levelo://app?vid=aa217473-fbc6-467e-996c-eafd090351ec"},"vehicle_type_id":"4","last_reported":1736788085,"current_range_meters":38800,"station_id":"ce4bhnp2rcd13ifvqh0g","pricing_plan_id":"cebpf4jnsgd1na2vs0mg"},{"bike_id":"d56c8c17-bf6c-4921-b577-d0f2b098c113","system_id":"levelo_inurba_marseille","lat":43.29796,"lon":5.38101,"is_reserved":false,"is_disabled":false,"rental_uris":{"android":"levelo://app?vid=d56c8c17-bf6c-4921-b577-d0f2b098c113","ios":"levelo://app?vid=d56c8c17-bf6c-4921-b577-d0f2b098c113"},"vehicle_type_id":"4","last_reported":1736788085,"current_range_meters":37600,"station_id":"ce4bgip2rcd13ifvqbb0","pricing_plan_id":"cebpf4jnsgd1na2vs0mg"},{"bike_id":"1a1bbce5-7b4d-4365-9610-075b8edac38a","system_id":"levelo_inurba_marseille","lat":43.276208,"lon":5.361155,"is_reserved":false,"is_disabled":false,"rental_uris":{"android":"levelo://app?vid=1a1bbce5-7b4d-4365-9610-075b8edac38a","ios":"levelo://app?vid=1a1bbce5-7b4d-4365-9610-075b8edac38a"},"vehicle_type_id":"4","last_reported":1736788085,"current_range_meters":39200,"station_id":"ce4bgj92rcd13ifvqbe0","pricing_plan_id":"cebpf4jnsgd1na2vs0mg"},{"bike_id":"fab598d3-0eb0-45fe-806d-4e01a792ab9d","system_id":"levelo_inurba_marseille","lat":43.28619,"lon":5.37047,"is_reserved":false,"is_disabled":false,"rental_uris":{"android":"levelo://app?vid=fab598d3-0eb0-45fe-806d-4e01a792ab9d","ios":"levelo://app?vid=fab598d3-0eb0-45fe-806d-4e01a792ab9d"},"vehicle_type_id":"4","last_reported":1736788085,"current_range_meters":19200,"station_id":"ce4bht12rcd13ifvqi60","pricing_plan_id":"cebpf4jnsgd1na2vs0mg"},{"bike_id":"5522c383-c71c-4d4a-8e2c-ba33b2518353","system_id":"levelo_inurba_marseille","lat":43.28034,"lon":5.36947,"is_reserved":false,"is_disabled":false,"rental_uris":{"android":"levelo://app?vid=5522c383-c71c-4d4a-8e2c-ba33b2518353","ios":"levelo://app?vid=5522c383-c71c-4d4a-8e2c-ba33b2518353"},"vehicle_type_id":"4","last_reported":1736788085,"current_range_meters":18800,"station_id":"ce4bha12rcd13ifvqef0","pricing_plan_id":"cebpf4jnsgd1na2vs0mg"},{"bike_id":"b7a9a420-00a3-4d99-a8aa-4068befb8c88","system_id":"levelo_inurba_marseille","lat":43.33771,"lon":5.37428,"is_reserved":false,"is_disabled":false,"rental_uris":{"android":"levelo://app?vid=b7a9a420-00a3-4d99-a8aa-4068befb8c88","ios":"levelo://app?vid=b7a9a420-00a3-4d99-a8aa-4068befb8c88"},"vehicle_type_id":"4","last_reported":1736788085,"current_range_meters":32800,"station_id":"","pricing_plan_id":"cebpf4jnsgd1na2vs0mg"},{"bike_id":"bb96e73a-fba5-4b28-b356-366b44725583","system_id":"levelo_inurba_marseille","lat":43.28463,"lon":5.35882,"is_reserved":false,"is_disabled":false,"rental_uris":{"android":"levelo://app?vid=bb96e73a-fba5-4b28-b356-366b44725583","ios":"levelo://app?vid=bb96e73a-fba5-4b28-b356-366b44725583"},"vehicle_type_id":"4","last_reported":1736788085,"current_range_meters":19200,"station_id":"ce4bhah2rcd13ifvqei0","pricing_plan_id":"cebpf4jnsgd1na2vs0mg"},{"bike_id":"4ed67719-4ca7-4f27-95be-523f30f3212f","system_id":"levelo_inurba_marseille","lat":43.26028,"lon":5.37549,"is_reserved":false,"is_disabled":false,"rental_uris":{"android":"levelo://app?vid=4ed67719-4ca7-4f27-95be-523f30f3212f","ios":"levelo://app?vid=4ed67719-4ca7-4f27-95be-523f30f3212f"},"vehicle_type_id":"4","last_reported":1736788085,"current_range_meters":12800,"station_id":"ce4bhgh2rcd13ifvqfa0","pricing_plan_id":"cebpf4jnsgd1na2vs0mg"},{"bike_id":"32d37ceb-5aec-448b-82bf-5d344e632827","system_id":"levelo_inurba_marseille","lat":43.31711,"lon":5.43708,"is_reserved":false,"is_disabled":false,"rental_uris":{"android":"levelo://app?vid=32d37ceb-5aec-448b-82bf-5d344e632827","ios":"levelo://app?vid=32d37ceb-5aec-448b-82bf-5d344e632827"},"vehicle_type_id":"4","last_reported":1736788085,"current_range_meters":20400,"station_id":"ce4bhp92rcd13ifvqhcg","pricing_plan_id":"cebpf4jnsgd1na2vs0mg"},{"bike_id":"93453819-fa38-495f-b119-63502f8dfb6e","system_id":"levelo_inurba_marseille","lat":43.32358,"lon":5.3676,"is_reserved":false,"is_disabled":false,"rental_uris":{"android":"levelo://app?vid=93453819-fa38-495f-b119-63502f8dfb6e","ios":"levelo://app?vid=93453819-fa38-495f-b119-63502f8dfb6e"},"vehicle_type_id":"4","last_reported":1736788085,"current_range_meters":38800,"station_id":"ce4bhsh2rcd13ifvqi2g","pricing_plan_id":"cebpf4jnsgd1na2vs0mg"},{"bike_id":"228fbccc-120f-48cc-9533-f3394ba7195e","system_id":"levelo_inurba_marseille","lat":43.303872,"lon":5.389099,"is_reserved":false,"is_disabled":false,"rental_uris":{"android":"levelo://app?vid=228fbccc-120f-48cc-9533-f3394ba7195e","ios":"levelo://app?vid=228fbccc-120f-48cc-9533-f3394ba7195e"},"vehicle_type_id":"4","last_reported":1736788085,"current_range_meters":25200,"station_id":"ce4bgk12rcd13ifvqbi0","pricing_plan_id":"cebpf4jnsgd1na2vs0mg"},{"bike_id":"b31c05a9-6487-4217-80a6-25821a78c060","system_id":"levelo_inurba_marseille","lat":43.23196,"lon":5.355599,"is_reserved":false,"is_disabled":false,"rental_uris":{"android":"levelo://app?vid=b31c05a9-6487-4217-80a6-25821a78c060","ios":"levelo://app?vid=b31c05a9-6487-4217-80a6-25821a78c060"},"vehicle_type_id":"4","last_reported":1736788085,"current_range_meters":33600,"station_id":"ce4bhu92rcd13ifvqi70","pricing_plan_id":"cebpf4jnsgd1na2vs0mg"},{"bike_id":"12b38652-2c32-412b-8bfb-32e93cc5467d","system_id":"levelo_inurba_marseille","lat":43.30424,"lon":5.38873,"is_reserved":false,"is_disabled":false,"rental_uris":{"android":"levelo://app?vid=12b38652-2c32-412b-8bfb-32e93cc5467d","ios":"levelo://app?vid=12b38652-2c32-412b-8bfb-32e93cc5467d"},"vehicle_type_id":"4","last_reported":1736788085,"current_range_meters":16400,"station_id":"ce4bgk12rcd13ifvqbi0","pricing_plan_id":"cebpf4jnsgd1na2vs0mg"},{"bike_id":"4a4d296c-e71a-4d73-8515-0b49a9079d8d","system_id":"levelo_inurba_marseille","lat":43.23192,"lon":5.39958,"is_reserved":false,"is_disabled":false,"rental_uris":{"android":"levelo://app?vid=4a4d296c-e71a-4d73-8515-0b49a9079d8d","ios":"levelo://app?vid=4a4d296c-e71a-4d73-8515-0b49a9079d8d"},"vehicle_type_id":"4","last_reported":1736788085,"current_range_meters":32800,"station_id":"ce4bhn12rcd13ifvqgqg","pricing_plan_id":"cebpf4jnsgd1na2vs0mg"},{"bike_id":"f92eccaa-b498-4971-8e79-c49742bfb4e0","system_id":"levelo_inurba_marseille","lat":43.26196,"lon":5.37913,"is_reserved":false,"is_disabled":false,"rental_uris":{"android":"levelo://app?vid=f92eccaa-b498-4971-8e79-c49742bfb4e0","ios":"levelo://app?vid=f92eccaa-b498-4971-8e79-c49742bfb4e0"},"vehicle_type_id":"4","last_reported":1736788085,"current_range_meters":38800,"station_id":"ce4bhjp2rcd13ifvqg90","pricing_plan_id":"cebpf4jnsgd1na2vs0mg"},{"bike_id":"e6b34210-7978-4137-b534-a3b03a983e63","system_id":"levelo_inurba_marseille","lat":43.29526,"lon":5.37506,"is_reserved":false,"is_disabled":true,"rental_uris":{"android":"levelo://app?vid=e6b34210-7978-4137-b534-a3b03a983e63","ios":"levelo://app?vid=e6b34210-7978-4137-b534-a3b03a983e63"},"vehicle_type_id":"4","last_reported":1736788085,"current_range_meters":35600,"station_id":"ce4bgkp2rcd13ifvqbmg","pricing_plan_id":"cebpf4jnsgd1na2vs0mg"},{"bike_id":"f2988f79-d32d-439a-b420-48e11cd57634","system_id":"levelo_inurba_marseille","lat":43.27825,"lon":5.39216,"is_reserved":false,"is_disabled":false,"rental_uris":{"android":"levelo://app?vid=f2988f79-d32d-439a-b420-48e11cd57634","ios":"levelo://app?vid=f2988f79-d32d-439a-b420-48e11cd57634"},"vehicle_type_id":"4","last_reported":1736788085,"current_range_meters":12800,"station_id":"ce4bhjp2rcd13ifvqga0","pricing_plan_id":"cebpf4jnsgd1na2vs0mg"},{"bike_id":"12a77688-55d2-40a5-9210-63376f169f15","system_id":"levelo_inurba_marseille","lat":43.25013,"lon":5.3891,"is_reserved":false,"is_disabled":false,"rental_uris":{"android":"levelo://app?vid=12a77688-55d2-40a5-9210-63376f169f15","ios":"levelo://app?vid=12a77688-55d2-40a5-9210-63376f169f15"},"vehicle_type_id":"4","last_reported":1736788085,"current_range_meters":22000,"station_id":"ce4bhgp2rcd13ifvqfd0","pricing_plan_id":"cebpf4jnsgd1na2vs0mg"},{"bike_id":"d45b1d40-f3b0-4cf1-8dbe-a3c485f13ea6","system_id":"levelo_inurba_marseille","lat":43.32287,"lon":5.38272,"is_reserved":false,"is_disabled":false,"rental_uris":{"android":"levelo://app?vid=d45b1d40-f3b0-4cf1-8dbe-a3c485f13ea6","ios":"levelo://app?vid=d45b1d40-f3b0-4cf1-8dbe-a3c485f13ea6"},"vehicle_type_id":"4","last_reported":1736788085,"current_range_meters":28400,"station_id":"ce4bhr12rcd13ifvqhqg","pricing_plan_id":"cebpf4jnsgd1na2vs0mg"},{"bike_id":"3dcc8658-0aa7-4f72-a7d9-437fcc1b4b2c","system_id":"levelo_inurba_marseille","lat":43.32043,"lon":5.41566,"is_reserved":false,"is_disabled":true,"rental_uris":{"android":"levelo://app?vid=3dcc8658-0aa7-4f72-a7d9-437fcc1b4b2c","ios":"levelo://app?vid=3dcc8658-0aa7-4f72-a7d9-437fcc1b4b2c"},"vehicle_type_id":"4","last_reported":1736788085,"current_range_meters":27200,"station_id":"ce4bhq92rcd13ifvqhkg","pricing_plan_id":"cebpf4jnsgd1na2vs0mg"},{"bike_id":"d30e621d-83ff-4238-81a9-2c600efebed3","system_id":"levelo_inurba_marseille","lat":43.26028,"lon":5.37545,"is_reserved":false,"is_disabled":true,"rental_uris":{"android":"levelo://app?vid=d30e621d-83ff-4238-81a9-2c600efebed3","ios":"levelo://app?vid=d30e621d-83ff-4238-81a9-2c600efebed3"},"vehicle_type_id":"4","last_reported":1736788085,"current_range_meters":1600,"station_id":"ce4bhgh2rcd13ifvqfa0","pricing_plan_id":"cebpf4jnsgd1na2vs0mg"},{"bike_id":"4725ae05-b600-47b7-ba70-7352c8181ea5","system_id":"levelo_inurba_marseille","lat":43.27415,"lon":5.39025,"is_reserved":false,"is_disabled":true,"rental_uris":{"android":"levelo://app?vid=4725ae05-b600-47b7-ba70-7352c8181ea5","ios":"levelo://app?vid=4725ae05-b600-47b7-ba70-7352c8181ea5"},"vehicle_type_id":"4","last_reported":1736788085,"current_range_meters":0,"station_id":"","pricing_plan_id":"cebpf4jnsgd1na2vs0mg"},{"bike_id":"c5d40b20-7271-4338-aa73-7b5c81838498","system_id":"levelo_inurba_marseille","lat":43.27172,"lon":5.40997,"is_reserved":false,"is_disabled":false,"rental_uris":{"android":"levelo://app?vid=c5d40b20-7271-4338-aa73-7b5c81838498","ios":"levelo://app?vid=c5d40b20-7271-4338-aa73-7b5c81838498"},"vehicle_type_id":"4","last_reported":1736788085,"current_range_meters":28400,"station_id":"ce4bhl12rcd13ifvqgf0","pricing_plan_id":"cebpf4jnsgd1na2vs0mg"},{"bike_id":"dca33f5e-1ea1-41f0-ab0e-2849acbe90fb","system_id":"levelo_inurba_marseille","lat":43.30324,"lon":5.36893,"is_reserved":false,"is_disabled":false,"rental_uris":{"android":"levelo://app?vid=dca33f5e-1ea1-41f0-ab0e-2849acbe90fb","ios":"levelo://app?vid=dca33f5e-1ea1-41f0-ab0e-2849acbe90fb"},"vehicle_type_id":"4","last_reported":1736788085,"current_range_meters":12000,"station_id":"ce4bgqh2rcd13ifvqc5g","pricing_plan_id":"cebpf4jnsgd1na2vs0mg"},{"bike_id":"87ab750a-cdb4-4a28-80b5-b53ef24a6300","system_id":"levelo_inurba_marseille","lat":43.28693,"lon":5.37387,"is_reserved":false,"is_disabled":false,"rental_uris":{"android":"levelo://app?vid=87ab750a-cdb4-4a28-80b5-b53ef24a6300","ios":"levelo://app?vid=87ab750a-cdb4-4a28-80b5-b53ef24a6300"},"vehicle_type_id":"4","last_reported":1736788085,"current_range_meters":38400,"station_id":"ce4bh3p2rcd13ifvqdq0","pricing_plan_id":"cebpf4jnsgd1na2vs0mg"},{"bike_id":"c3d246cf-0a4f-4763-aea3-48a078d29ae2","system_id":"levelo_inurba_marseille","lat":43.2511,"lon":5.403235,"is_reserved":false,"is_disabled":false,"rental_uris":{"android":"levelo://app?vid=c3d246cf-0a4f-4763-aea3-48a078d29ae2","ios":"levelo://app?vid=c3d246cf-0a4f-4763-aea3-48a078d29ae2"},"vehicle_type_id":"4","last_reported":1736788085,"current_range_meters":30800,"station_id":"ce4bhlh2rcd13ifvqgig","pricing_plan_id":"cebpf4jnsgd1na2vs0mg"},{"bike_id":"b40f5c9e-ac82-4b37-a6e1-51aa67f9cba5","system_id":"levelo_inurba_marseille","lat":43.28005,"lon":5.40008,"is_reserved":false,"is_disabled":false,"rental_uris":{"android":"levelo://app?vid=b40f5c9e-ac82-4b37-a6e1-51aa67f9cba5","ios":"levelo://app?vid=b40f5c9e-ac82-4b37-a6e1-51aa67f9cba5"},"vehicle_type_id":"4","last_reported":1736788085,"current_range_meters":38800,"station_id":"ce4bho92rcd13ifvqh4g","pricing_plan_id":"cebpf4jnsgd1na2vs0mg"},{"bike_id":"d949206b-9d57-4e75-b5c9-492aa8a05129","system_id":"levelo_inurba_marseille","lat":43.24666,"lon":5.38131,"is_reserved":false,"is_disabled":false,"rental_uris":{"android":"levelo://app?vid=d949206b-9d57-4e75-b5c9-492aa8a05129","ios":"levelo://app?vid=d949206b-9d57-4e75-b5c9-492aa8a05129"},"vehicle_type_id":"4","last_reported":1736788085,"current_range_meters":20400,"station_id":"ce4bhih2rcd13ifvqfr0","pricing_plan_id":"cebpf4jnsgd1na2vs0mg"},{"bike_id":"7371cc46-1f56-4797-902b-576934de8499","system_id":"levelo_inurba_marseille","lat":43.28616,"lon":5.35106,"is_reserved":false,"is_disabled":true,"rental_uris":{"android":"levelo://app?vid=7371cc46-1f56-4797-902b-576934de8499","ios":"levelo://app?vid=7371cc46-1f56-4797-902b-576934de8499"},"vehicle_type_id":"4","last_reported":1736788085,"current_range_meters":0,"station_id":"ce4bhch2rcd13ifvqeug","pricing_plan_id":"cebpf4jnsgd1na2vs0mg"},