{"last_updated":1740229933,"ttl":60,"version":"2.2","data":{"bikes":[{"bike_id":"350202bf-5272-4b25-8012-1b5e3cc2c139","system_id":"levelo_inurba_marseille","lat":43.31197,"lon":5.37314,"is_reserved":false,"is_disabled":false,"rental_uris":{"android":"levelo://app?vid=350202bf-5272-4b25-8012-1b5e3cc2c139","ios":"levelo://app?vid=350202bf-5272-4b25-8012-1b5e3cc2c139"},"vehicle_type_id":"4","last_reported":1740229933,"current_range_meters":2800,"station_id":"","pricing_plan_id":"cebpf4jnsgd1na2vs0mg"},{"bike_id":"42d163ea-ac1b-4f53-8c5e-824ee3bd6752","system_id":"levelo_inurba_marseille","lat":43.2707,"lon":5.4228,"is_reserved":false,"is_disabled":false,"rental_uris":{"android":"levelo://app?vid=42d163ea-ac1b-4f53-8c5e-824ee3bd6752","ios":"levelo://app?vid=42d163ea-ac1b-4f53-8c5e-824ee3bd6752"},"vehicle_type_id":"4","last_reported":1740229933,"current_range_meters":11600,"station_id":"ce4bhk92rcd13ifvqgb0","pricing_plan_id":"cebpf4jnsgd1na2vs0mg"},{"bike_id":"2d203d3b-b9be-4543-95f1-da2e41576b3b","system_id":"levelo_inurba_marseille","lat":43.29533,"lon":5.375,"is_reserved":false,"is_disabled":true,"rental_uris":{"android":"levelo://app?vid=2d203d3b-b9be-4543-95f1-da2e41576b3b","ios":"levelo://app?vid=2d203d3b-b9be-4543-95f1-da2e41576b3b"},"vehicle_type_id":"4","last_reported":1740229933,"current_range_meters":3200,"station_id":"ce4bgkp2rcd13ifvqbmg","pricing_plan_id":"cebpf4jnsgd1na2vs0mg"},{"bike_id":"ad05a559-1c70-4931-b065-66dff62064cb","system_id":"levelo_inurba_marseille","lat":43.30954,"lon":5.39022,"is_reserved":false,"is_disabled":false,"rental_uris":{"android":"levelo://app?vid=ad05a559-1c70-4931-b065-66dff62064cb","ios":"levelo://app?vid=ad05a559-1c70-4931-b065-66dff62064cb"},"vehicle_type_id":"4","last_reported":1740229933,"current_range_meters":3600,"station_id":"ce4bgup2rcd13ifvqco0","pricing_plan_id":"cebpf4jnsgd1na2vs0mg"},{"bike_id":"7df5b016-3748-470a-a9b6-ed18f20748f9","system_id":"levelo_inurba_marseille","lat":43.2205,"lon":5.34622,"is_reserved":false,"is_disabled":false,"rental_uris":{"android":"levelo://app?vid=7df5b016-3748-470a-a9b6-ed18f20748f9","ios":"levelo://app?vid=7df5b016-3748-470a-a9b6-ed18f20748f9"},"vehicle_type_id":"4","last_reported":1740229933,"current_range_meters":3600,"station_id":"cpo3532slgdg3j2ikp40","pricing_plan_id":"cebpf4jnsgd1na2vs0mg"},{"bike_id":"658d7fb2-2a42-4ca5-a32f-522375fc4369","system_id":"levelo_inurba_marseille","lat":43.29706,"lon":5.37695,"is_reserved":false,"is_disabled":false,"rental_uris":{"android":"levelo://app?vid=658d7fb2-2a42-4ca5-a32f-522375fc4369","ios":"levelo://app?vid=658d7fb2-2a42-4ca5-a32f-522375fc4369"},"vehicle_type_id":"4","last_reported":1740229933,"current_range_meters":4000,"station_id":"ce4bgkh2rcd13ifvqbl0","pricing_plan_id":"cebpf4jnsgd1na2vs0mg"},{"bike_id":"2c03ba7a-18d7-44d9-9f94-7303064e7629","system_id":"levelo_inurba_marseille","lat":43.23194,"lon":5.35551,"is_reserved":false,"is_disabled":false,"rental_uris":{"android":"levelo://app?vid=2c03ba7a-18d7-44d9-9f94-7303064e7629","ios":"levelo://app?vid=2c03ba7a-18d7-44d9-9f94-7303064e7629"},"vehicle_type_id":"4","last_reported":1740229933,"current_range_meters":4400,"station_id":"ce4bhu92rcd13ifvqi70","pricing_plan_id":"cebpf4jnsgd1na2vs0mg"},{"bike_id":"3b4d0978-06b2-4c59-8048-786e994b5e3f","system_id":"levelo_inurba_marseille","lat":43.25727,"lon":5.41106,"is_reserved":false,"is_disabled":false,"rental_uris":{"android":"levelo://app?vid=3b4d0978-06b2-4c59-8048-786e994b5e3f","ios":"levelo://app?vid=3b4d0978-06b2-4c59-8048-786e994b5e3f"},"vehicle_type_id":"4","last_reported":1740229933,"current_range_meters":4400,"station_id":"ce4bhkp2rcd13ifvqgd0","pricing_plan_id":"cebpf4jnsgd1na2vs0mg"},{"bike_id":"054d29ba-f3c8-43de-990c-b05f93035a7c","system_id":"levelo_inurba_marseille","lat":43.26926,"lon":5.38915,"is_reserved":false,"is_disabled":false,"rental_uris":{"android":"levelo://app?vid=054d29ba-f3c8-43de-990c-b05f93035a7c","ios":"levelo://app?vid=054d29ba-f3c8-43de-990c-b05f93035a7c"},"vehicle_type_id":"4","last_reported":1740229933,"current_range_meters":4400,"station_id":"ce4bhhh2rcd13ifvqfl0","pricing_plan_id":"cebpf4jnsgd1na2vs0mg"},{"bike_id":"d3a812c3-f5ac-4603-a860-185ac33e6692","system_id":"levelo_inurba_marseille","lat":43.2215,"lon":5.34571,"is_reserved":false,"is_disabled":false,"rental_uris":{"android":"levelo://app?vid=d3a812c3-f5ac-4603-a860-185ac33e6692","ios":"levelo://app?vid=d3a812c3-f5ac-4603-a860-185ac33e6692"},"vehicle_type_id":"4","last_reported":1740229933,"current_range_meters":4400,"station_id":"cpo3532slgdg3j2ikp40","pricing_plan_id":"cebpf4jnsgd1na2vs0mg"},{"bike_id":"e54116c4-9d07-4ea9-811c-f941017b21c7","system_id":"levelo_inurba_marseille","lat":43.25575,"lon":5.38237,"is_reserved":false,"is_disabled":false,"rental_uris":{"android":"levelo://app?vid=e54116c4-9d07-4ea9-811c-f941017b21c7","ios":"levelo://app?vid=e54116c4-9d07-4ea9-811c-f941017b21c7"},"vehicle_type_id":"4","last_reported":1740229933,"current_range_meters":4400,"station_id":"ce4bhih2rcd13ifvqfs0","pricing_plan_id":"cebpf4jnsgd1na2vs0mg"},{"bike_id":"c6a33ac1-a62f-47f6-86dd-f4b18bfd1b02","system_id":"levelo_inurba_marseille","lat":43.30421,"lon":5.41277,"is_reserved":false,"is_disabled":false,"rental_uris":{"android":"levelo://app?vid=c6a33ac1-a62f-47f6-86dd-f4b18bfd1b02","ios":"levelo://app?vid=c6a33ac1-a62f-47f6-86dd-f4b18bfd1b02"},"vehicle_type_id":"4","last_reported":1740229933,"current_range_meters":4800,"station_id":"ce4bhop2rcd13ifvqh8g","pricing_plan_id":"cebpf4jnsgd1na2vs0mg"},{"bike_id":"b45ab281-2ffb-4786-bbfb-31f4db8658f9","system_id":"levelo_inurba_marseille","lat":43.26573,"lon":5.39023,"is_reserved":false,"is_disabled":false,"rental_uris":{"android":"levelo://app?vid=b45ab281-2ffb-4786-bbfb-31f4db8658f9","ios":"levelo://app?vid=b45ab281-2ffb-4786-bbfb-31f4db8658f9"},"vehicle_type_id":"4","last_reported":1740229933,"current_range_meters":4800,"station_id":"ce4bhe12rcd13ifvqf30","pricing_plan_id":"cebpf4jnsgd1na2vs0mg"},{"bike_id":"7c8f3d05-5401-4545-847e-9fcee9ea83d5","system_id":"levelo_inurba_marseille","lat":43.26574,"lon":5.39872,"is_reserved":false,"is_disabled":false,"rental_uris":{"android":"levelo://app?vid=7c8f3d05-5401-4545-847e-9fcee9ea83d5","ios":"levelo://app?vid=7c8f3d05-5401-4545-847e-9fcee9ea83d5"},"vehicle_type_id":"4","last_reported":1740229933,"current_range_meters":4800,"station_id":"","pricing_plan_id":"cebpf4jnsgd1na2vs0mg"},{"bike_id":"24422f0f-bf1b-4e7b-86a1-6ca9d9962b14","system_id":"levelo_inurba_marseille","lat":43.29706,"lon":5.37706,"is_reserved":false,"is_disabled":false,"rental_uris":{"android":"levelo://app?vid=24422f0f-bf1b-4e7b-86a1-6ca9d9962b14","ios":"levelo://app?vid=24422f0f-bf1b-4e7b-86a1-6ca9d9962b14"},"vehicle_type_id":"4","last_reported":1740229933,"current_range_meters":4800,"station_id":"ce4bgkh2rcd13ifvqbl0","pricing_plan_id":"cebpf4jnsgd1na2vs0mg"},{"bike_id":"7c5289cb-0b42-4bee-9961-0cc3ccb86bfe","system_id":"levelo_inurba_marseille","lat":43.240702,"lon":5.377588,"is_reserved":false,"is_disabled":false,"rental_uris":{"android":"levelo://app?vid=7c5289cb-0b42-4bee-9961-0cc3ccb86bfe","ios":"levelo://app?vid=7c5289cb-0b42-4bee-9961-0cc3ccb86bfe"},"vehicle_type_id":"4","last_reported":1740229933,"current_range_meters":4800,"station_id":"ce4bhnp2rcd13ifvqgvg","pricing_plan_id":"cebpf4jnsgd1na2vs0mg"},{"bike_id":"0584e728-54f2-4eca-887e-fe95607e016b","system_id":"levelo_inurba_marseille","lat":43.28274,"lon":5.35089,"is_reserved":false,"is_disabled":false,"rental_uris":{"android":"levelo://app?vid=0584e728-54f2-4eca-887e-fe95607e016b","ios":"levelo://app?vid=0584e728-54f2-4eca-887e-fe95607e016b"},"vehicle_type_id":"4","last_reported":1740229933,"current_range_meters":5600,"station_id":"ce4bhbp2rcd13ifvqerg","pricing_plan_id":"cebpf4jnsgd1na2vs0mg"},{"bike_id":"2bf9824f-4980-4084-a927-fa4faf722004","system_id":"levelo_inurba_marseille","lat":43.27999,"lon":5.40018,"is_reserved":false,"is_disabled":false,"rental_uris":{"android":"levelo://app?vid=2bf9824f-4980-4084-a927-fa4faf722004","ios":"levelo://app?vid=2bf9824f-4980-4084-a927-fa4faf722004"},"vehicle_type_id":"4","last_reported":1740229933,"current_range_meters":5600,"station_id":"ce4bho92rcd13ifvqh4g","pricing_plan_id":"cebpf4jnsgd1na2vs0mg"},{"bike_id":"abfd4601-c757-4f55-9ffb-be2660f656f4","system_id":"levelo_inurba_marseille","lat":43.28481,"lon":5.384079,"is_reserved":false,"is_disabled":false,"rental_uris":{"android":"levelo://app?vid=abfd4601-c757-4f55-9ffb-be2660f656f4","ios":"levelo://app?vid=abfd4601-c757-4f55-9ffb-be2660f656f4"},"vehicle_type_id":"4","last_reported":1740229933,"current_range_meters":4800,"station_id":"ce4bhqp2rcd13ifvqhng","pricing_plan_id":"cebpf4jnsgd1na2vs0mg"},{"bike_id":"e2124d37-d1a5-4d4d-8c06-fda2ba0b4397","system_id":"levelo_inurba_marseille","lat":43.29192,"lon":5.42716,"is_reserved":false,"is_disabled":true,"rental_uris":{"android":"levelo://app?vid=e2124d37-d1a5-4d4d-8c06-fda2ba0b4397","ios":"levelo://app?vid=e2124d37-d1a5-4d4d-8c06-fda2ba0b4397"},"vehicle_type_id":"4","last_reported":1740229933,"current_range_meters":6000,"station_id":"","pricing_plan_id":"cebpf4jnsgd1na2vs0mg"},{"bike_id":"1336a141-d176-4c52-9b25-90424d7e9d90","system_id":"levelo_inurba_marseille","lat":43.29189,"lon":5.35689,"is_reserved":false,"is_disabled":false,"rental_uris":{"android":"levelo://app?vid=1336a141-d176-4c52-9b25-90424d7e9d90","ios":"levelo://app?vid=1336a141-d176-4c52-9b25-90424d7e9d90"},"vehicle_type_id":"4","last_reported":1740229933,"current_range_meters":6000,"station_id":"ce4bhb12rcd13ifvqel0","pricing_plan_id":"cebpf4jnsgd1na2vs0mg"},{"bike_id":"d6528653-78fc-4402-be42-b93da7e8564a","system_id":"levelo_inurba_marseille","lat":43.24792,"lon":5.37458,"is_reserved":false,"is_disabled":false,"rental_uris":{"android":"levelo://app?vid=d6528653-78fc-4402-be42-b93da7e8564a","ios":"levelo://app?vid=d6528653-78fc-4402-be42-b93da7e8564a"},"vehicle_type_id":"4","last_reported":1740229933,"current_range_meters":6000,"station_id":"ce4bhgh2rcd13ifvqfb0","pricing_plan_id":"cebpf4jnsgd1na2vs0mg"},{"bike_id":"edd8c9ee-a9d8-455e-b437-190be10f5489","system_id":"levelo_inurba_marseille","lat":43.29225,"lon":5.36078,"is_reserved":false,"is_disabled":false,"rental_uris":{"android":"levelo://app?vid=edd8c9ee-a9d8-455e-b437-190be10f5489","ios":"levelo://app?vid=edd8c9ee-a9d8-455e-b437-190be10f5489"},"vehicle_type_id":"4","last_reported":1740229933,"current_range_meters":6400,"station_id":"ce4bhbh2rcd13ifvqeqg","pricing_plan_id":"cebpf4jnsgd1na2vs0mg"},{"bike_id":"370868b1-6b92-4a71-9a3c-1227fea3ed81","system_id":"levelo_inurba_marseille","lat":43.28416,"lon":5.37521,"is_reserved":false,"is_disabled":false,"rental_uris":{"android":"levelo://app?vid=370868b1-6b92-4a71-9a3c-1227fea3ed81","ios":"levelo://app?vid=370868b1-6b92-4a71-9a3c-1227fea3ed81"},"vehicle_type_id":"4","last_reported":1740229933,"current_range_meters":6800,"station_id":"ce4bh412rcd13ifvqds0","pricing_plan_id":"cebpf4jnsgd1na2vs0mg"},{"bike_id":"c4604b50-ec76-4483-aa37-8fdf6b7f6fd1","system_id":"levelo_inurba_marseille","lat":43.29198,"lon":5.3932,"is_reserved":false,"is_disabled":false,"rental_uris":{"android":"levelo://app?vid=c4604b50-ec76-4483-aa37-8fdf6b7f6fd1","ios":"levelo://app?vid=c4604b50-ec76-4483-aa37-8fdf6b7f6fd1"},"vehicle_type_id":"4","last_reported":1740229933,"current_range_meters":6800,"station_id":"ce4bh192rcd13ifvqdd0","pricing_plan_id":"cebpf4jnsgd1na2vs0mg"},{"bike_id":"a2e4953e-b369-433b-8261-a64c88b8c43d","system_id":"levelo_inurba_marseille","lat":43.28264,"lon":5.42386,"is_reserved":false,"is_disabled":false,"rental_uris":{"android":"levelo://app?vid=a2e4953e-b369-433b-8261-a64c88b8c43d","ios":"levelo://app?vid=a2e4953e-b369-433b-8261-a64c88b8c43d"},"vehicle_type_id":"4","last_reported":1740229933,"current_range_meters":6800,"station_id":"","pricing_plan_id":"cebpf4jnsgd1na2vs0mg"},{"bike_id":"d0109f8e-c695-44b8-83b5-050518c2c6c9","system_id":"levelo_inurba_marseille","lat":43.2306,"lon":5.35494,"is_reserved":false,"is_disabled":false,"rental_uris":{"android":"levelo://app?vid=d0109f8e-c695-44b8-83b5-050518c2c6c9","ios":"levelo://app?vid=d0109f8e-c695-44b8-83b5-050518c2c6c9"},"vehicle_type_id":"4","last_reported":1740229933,"current_range_meters":6800,"station_id":"cpo3342slgdg3j2ifvpg","pricing_plan_id":"cebpf4jnsgd1na2vs0mg"},{"bike_id":"c0d6c131-aacf-4529-aad8-041fd8310aae","system_id":"levelo_inurba_marseille","lat":43.2913,"lon":5.37566,"is_reserved":false,"is_disabled":false,"rental_uris":{"android":"levelo://app?vid=c0d6c131-aacf-4529-aad8-041fd8310aae","ios":"levelo://app?vid=c0d6c131-aacf-4529-aad8-041fd8310aae"},"vehicle_type_id":"4","last_reported":1740229933,"current_range_meters":6800,"station_id":"","pricing_plan_id":"cebpf4jnsgd1na2vs0mg"},{"bike_id":"f3feea2e-5bf7-41f6-a6d2-c494ec11d6a2","system_id":"levelo_inurba_marseille","lat":43.230658,"lon":5.354909,"is_reserved":false,"is_disabled":false,"rental_uris":{"android":"levelo://app?vid=f3feea2e-5bf7-41f6-a6d2-c494ec11d6a2","ios":"levelo://app?vid=f3feea2e-5bf7-41f6-a6d2-c494ec11d6a2"},"vehicle_type_id":"4","last_reported":1740229933,"current_range_meters":6800,"station_id":"cpo3342slgdg3j2ifvpg","pricing_plan_id":"cebpf4jnsgd1na2vs0mg"},{"bike_id":"646b5cae-2afa-416c-8287-2abe42f0a681","system_id":"levelo_inurba_marseille","lat":43.30415,"lon":5.41279,"is_reserved":false,"is_disabled":false,"rental_uris":{"android":"levelo://app?vid=646b5cae-2afa-416c-8287-2abe42f0a681","ios":"levelo://app?vid=646b5cae-2afa-416c-8287-2abe42f0a681"},"vehicle_type_id":"4","last_reported":1740229933,"current_range_meters":7200,"station_id":"ce4bhop2rcd13ifvqh8g","pricing_plan_id":"cebpf4jnsgd1na2vs0mg"},{"bike_id":"8dec4fb6-e03c-4e80-83ff-f17990fdb4a2","system_id":"levelo_inurba_marseille","lat":43.24558,"lon":5.39548,"is_reserved":false,"is_disabled":false,"rental_uris":{"android":"levelo://app?vid=8dec4fb6-e03c-4e80-83ff-f17990fdb4a2","ios":"levelo://app?vid=8dec4fb6-e03c-4e80-83ff-f17990fdb4a2"},"vehicle_type_id":"4","last_reported":1740229933,"current_range_meters":7200,"station_id":"ce4bhlp2rcd13ifvqgjg","pricing_plan_id":"cebpf4jnsgd1na2vs0mg"},{"bike_id":"1e63d9ab-d1fb-4617-9ee0-edc946d6cfa4","system_id":"levelo_inurba_marseille","lat":43.24165,"lon":5.39729,"is_reserved":false,"is_disabled":false,"rental_uris":{"android":"levelo://app?vid=1e63d9ab-d1fb-4617-9ee0-edc946d6cfa4","ios":"levelo://app?vid=1e63d9ab-d1fb-4617-9ee0-edc946d6cfa4"},"vehicle_type_id":"4","last_reported":1740229933,"current_range_meters":7200,"station_id":"ce4bhn12rcd13ifvqgpg","pricing_plan_id":"cebpf4jnsgd1na2vs0mg"},{"bike_id":"def726d5-4740-459b-8a4d-4b3858095065","system_id":"levelo_inurba_marseille","lat":43.24812,"lon":5.37465,"is_reserved":false,"is_disabled":false,"rental_uris":{"android":"levelo://app?vid=def726d5-4740-459b-8a4d-4b3858095065","ios":"levelo://app?vid=def726d5-4740-459b-8a4d-4b3858095065"},"vehicle_type_id":"4","last_reported":1740229933,"current_range_meters":7200,"station_id":"ce4bhgh2rcd13ifvqfb0","pricing_plan_id":"cebpf4jnsgd1na2vs0mg"},{"bike_id":"2c5430a7-3583-4ae1-abd7-31976bb7717c","system_id":"levelo_inurba_marseille","lat":43.30377,"lon":5.41858,"is_reserved":false,"is_disabled":false,"rental_uris":{"android":"levelo://app?vid=2c5430a7-3583-4ae1-abd7-31976bb7717c","ios":"levelo://app?vid=2c5430a7-3583-4ae1-abd7-31976bb7717c"},"vehicle_type_id":"4","last_reported":1740229933,"current_range_meters":7200,"station_id":"ce4bhop2rcd13ifvqh7g","pricing_plan_id":"cebpf4jnsgd1na2vs0mg"},{"bike_id":"6aafab1c-b1fd-4bbd-a318-89366250d32c","system_id":"levelo_inurba_marseille","lat":43.303552,"lon":5.418736,"is_reserved":false,"is_disabled":false,"rental_uris":{"android":"levelo://app?vid=6aafab1c-b1fd-4bbd-a318-89366250d32c","ios":"levelo://app?vid=6aafab1c-b1fd-4bbd-a318-89366250d32c"},"vehicle_type_id":"4","last_reported":1740229933,"current_range_meters":8000,"station_id":"ce4bhop2rcd13ifvqh7g","pricing_plan_id":"cebpf4jnsgd1na2vs0mg"},{"bike_id":"121a3c16-ca57-4f18-a4d8-ec99bd209ab2","system_id":"levelo_inurba_marseille","lat":43.29565,"lon":5.37511,"is_reserved":false,"is_disabled":false,"rental_uris":{"android":"levelo://app?vid=121a3c16-ca57-4f18-a4d8-ec99bd209ab2","ios":"levelo://app?vid=121a3c16-ca57-4f18-a4d8-ec99bd209ab2"},"vehicle_type_id":"4","last_reported":1740229933,"current_range_meters":8000,"station_id":"ce4bgh92rcd13ifvqb50","pricing_plan_id":"cebpf4jnsgd1na2vs0mg"},{"bike_id":"cbd3690e-3852-4dcc-976e-b39531f90356","system_id":"levelo_inurba_marseille","lat":43.29197,"lon":5.3581,"is_reserved":false,"is_disabled":false,"rental_uris":{"android":"levelo://app?vid=cbd3690e-3852-4dcc-976e-b39531f90356","ios":"levelo://app?vid=cbd3690e-3852-4dcc-976e-b39531f90356"},"vehicle_type_id":"4","last_reported":1740229933,"current_range_meters":8000,"station_id":"ce4bhb12rcd13ifvqel0","pricing_plan_id":"cebpf4jnsgd1na2vs0mg"},{"bike_id":"4da61d7a-f393-4acc-b9c9-852328a04a1a","system_id":"levelo_inurba_marseille","lat":43.28266,"lon":5.35065,"is_reserved":false,"is_disabled":false,"rental_uris":{"android":"levelo://app?vid=4da61d7a-f393-4acc-b9c9-852328a04a1a","ios":"levelo://app?vid=4da61d7a-f393-4acc-b9c9-852328a04a1a"},"vehicle_type_id":"4","last_reported":1740229933,"current_range_meters":8000,"station_id":"ce4bhbp2rcd13ifvqerg","pricing_plan_id":"cebpf4jnsgd1na2vs0mg"},{"bike_id":"2afb22c7-7048-4615-a3b7-71b0be04e579","system_id":"levelo_inurba_marseille","lat":43.23206,"lon":5.35573,"is_reserved":false,"is_disabled":false,"rental_uris":{"android":"levelo://app?vid=2afb22c7-7048-4615-a3b7-71b0be04e579","ios":"levelo://app?vid=2afb22c7-7048-4615-a3b7-71b0be04e579"},"vehicle_type_id":"4","last_reported":1740229933,"current_range_meters":8000,"station_id":"ce4bhu92rcd13ifvqi70","pricing_plan_id":"cebpf4jnsgd1na2vs0mg"},{"bike_id":"f4d5d7d3-a970-4834-9cba-8d2d72b80e24","system_id":"levelo_inurba_marseille","lat":43.29571,"lon":5.37521,"is_reserved":false,"is_disabled":false,"rental_uris":{"android":"levelo://app?vid=f4d5d7d3-a970-4834-9cba-8d2d72b80e24","ios":"levelo://app?vid=f4d5d7d3-a970-4834-9cba-8d2d72b80e24"},"vehicle_type_id":"4","last_reported":1740229933,"current_range_meters":8000,"station_id":"ce4bgh92rcd13ifvqb50","pricing_plan_id":"cebpf4jnsgd1na2vs0mg"},{"bike_id":"7eef66a9-9b7f-4a8d-8892-a29aad50ec20","system_id":"levelo_inurba_marseille","lat":43.25931,"lon":5.40909,"is_reserved":false,"is_disabled":false,"rental_uris":{"android":"levelo://app?vid=7eef66a9-9b7f-4a8d-8892-a29aad50ec20","ios":"levelo://app?vid=7eef66a9-9b7f-4a8d-8892-a29aad50ec20"},"vehicle_type_id":"4","last_reported":1740229933,"current_range_meters":8000,"station_id":"ce4bhm92rcd13ifvqglg","pricing_plan_id":"cebpf4jnsgd1na2vs0mg"},{"bike_id":"2b8d73ad-5137-4320-bf7a-9fcaea6cd84f","system_id":"levelo_inurba_marseille","lat":43.27988,"lon":5.40021,"is_reserved":false,"is_disabled":false,"rental_uris":{"android":"levelo://app?vid=2b8d73ad-5137-4320-bf7a-9fcaea6cd84f","ios":"levelo://app?vid=2b8d73ad-5137-4320-bf7a-9fcaea6cd84f"},"vehicle_type_id":"4","last_reported":1740229933,"current_range_meters":8000,"station_id":"ce4bho92rcd13ifvqh4g","pricing_plan_id":"cebpf4jnsgd1na2vs0mg"},{"bike_id":"d414c500-f227-4efb-aabd-f7246cca81bc","system_id":"levelo_inurba_marseille","lat":43.23057,"lon":5.35493,"is_reserved":false,"is_disabled":false,"rental_uris":{"android":"levelo://app?vid=d414c500-f227-4efb-aabd-f7246cca81bc","ios":"levelo://app?vid=d414c500-f227-4efb-aabd-f7246cca81bc"},"vehicle_type_id":"4","last_reported":1740229933,"current_range_meters":8000,"station_id":"cpo3342slgdg3j2ifvpg","pricing_plan_id":"cebpf4jnsgd1na2vs0mg"},{"bike_id":"742bc5a2-3444-4e4e-844a-5248e8280f90","system_id":"levelo_inurba_marseille","lat":43.25087,"lon":5.39516,"is_reserved":false,"is_disabled":false,"rental_uris":{"android":"levelo://app?vid=742bc5a2-3444-4e4e-844a-5248e8280f90","ios":"levelo://app?vid=742bc5a2-3444-4e4e-844a-5248e8280f90"},"vehicle_type_id":"4","last_reported":1740229933,"current_range_meters":8000,"station_id":"ce4bhm12rcd13ifvqgkg","pricing_plan_id":"cebpf4jnsgd1na2vs0mg"},{"bike_id":"35700690-ccd3-438b-8dec-89a1ece1d462","system_id":"levelo_inurba_marseille","lat":43.23141,"lon":5.43743,"is_reserved":false,"is_disabled":false,"rental_uris":{"android":"levelo://app?vid=35700690-ccd3-438b-8dec-89a1ece1d462","ios":"levelo://app?vid=35700690-ccd3-438b-8dec-89a1ece1d462"},"vehicle_type_id":"4","last_reported":1740229933,"current_range_meters":8400,"station_id":"ce4bhmp2rcd13ifvqgog","pricing_plan_id":"cebpf4jnsgd1na2vs0mg"},{"bike_id":"7195e16d-3552-41a0-a438-b790dc48cb5a","system_id":"levelo_inurba_marseille","lat":43.337444,"lon":5.374475,"is_reserved":false,"is_disabled":true,"rental_uris":{"android":"levelo://app?vid=7195e16d-3552-41a0-a438-b790dc48cb5a","ios":"levelo://app?vid=7195e16d-3552-41a0-a438-b790dc48cb5a"},"vehicle_type_id":"4","last_reported":1740229933,"current_range_meters":8400,"station_id":"","pricing_plan_id":"cebpf4jnsgd1na2vs0mg"},{"bike_id":"943382b3-3ac2-40b7-baae-7ca1aec3b930","system_id":"levelo_inurba_marseille","lat":43.28141,"lon":5.42636,"is_reserved":false,"is_disabled":false,"rental_uris":{"android":"levelo://app?vid=943382b3-3ac2-40b7-baae-7ca1aec3b930","ios":"levelo://app?vid=943382b3-3ac2-40b7-baae-7ca1aec3b930"},"vehicle_type_id":"4","last_reported":1740229933,"current_range_meters":8400,"station_id":"ce4bhnh2rcd13ifvqgug","pricing_plan_id":"cebpf4jnsgd1na2vs0mg"},{"bike_id":"89563a26-7881-4a62-8f9e-a7769f24651b","system_id":"levelo_inurba_marseille","lat":43.23191,"lon":5.43682,"is_reserved":false,"is_disabled":false,"rental_uris":{"android":"levelo://app?vid=89563a26-7881-4a62-8f9e-a7769f24651b","ios":"levelo://app?vid=89563a26-7881-4a62-8f9e-a7769f24651b"},"vehicle_type_id":"4","last_reported":1740229933,"current_range_meters":8400,"station_id":"ce4bhmp2rcd13ifvqgog","pricing_plan_id":"cebpf4jnsgd1na2vs0mg"},{"bike_id":"e501be99-a171-4e91-9e5b-ac547e4c06f2","system_id":"levelo_inurba_marseille","lat":43.23188,"lon":5.35553,"is_reserved":false,"is_disabled":false,"rental_uris":{"android":"levelo://app?vid=e501be99-a171-4e91-9e5b-ac547e4c06f2","ios":"levelo://app?vid=e501be99-a171-4e91-9e5b-ac547e4c06f2"},"vehicle_type_id":"4","last_reported":1740229933,"current_range_meters":8400,"station_id":"ce4bhu92rcd13ifvqi70","pricing_plan_id":"cebpf4jnsgd1na2vs0mg"},{"bike_id":"827ec7e5-1ae5-45b8-890e-b6822ea9bc11","system_id":"levelo_inurba_marseille","lat":43.23959,"lon":5.36633,"is_reserved":false,"is_disabled":false,"rental_uris":{"android":"levelo://app?vid=827ec7e5-1ae5-45b8-890e-b6822ea9bc11","ios":"levelo://app?vid=827ec7e5-1ae5-45b8-890e-b6822ea9bc11"},"vehicle_type_id":"4","last_reported":1740229933,"current_range_meters":8400,"station_id":"ce4bhi12rcd13ifvqfp0","pricing_plan_id":"cebpf4jnsgd1na2vs0mg"},{"bike_id":"df1db48a-1398-45e7-b182-2264485216fa","system_id":"levelo_inurba_marseille","lat":43.24543,"lon":5.39525,"is_reserved":false,"is_disabled":false,"rental_uris":{"android":"levelo://app?vid=df1db48a-1398-45e7-b182-2264485216fa","ios":"levelo://app?vid=df1db48a-1398-45e7-b182-2264485216fa"},"vehicle_type_id":"4","last_reported":1740229933,"current_range_meters":8400,"station_id":"ce4bhlp2rcd13ifvqgjg","pricing_plan_id":"cebpf4jnsgd1na2vs0mg"},{"bike_id":"220b6500-b43c-40bd-90b7-edb8109898e5","system_id":"levelo_inurba_marseille","lat":43.29034,"lon":5.38641,"is_reserved":false,"is_disabled":false,"rental_uris":{"android":"levelo://app?vid=220b6500-b43c-40bd-90b7-edb8109898e5","ios":"levelo://app?vid=220b6500-b43c-40bd-90b7-edb8109898e5"},"vehicle_type_id":"4","last_reported":1740229933,"current_range_meters":8800,"station_id":"ce4bh4p2rcd13ifvqe0g","pricing_plan_id":"cebpf4jnsgd1na2vs0mg"},{"bike_id":"6b04f75f-fb5c-42fe-a63b-5e82daec1ece","system_id":"levelo_inurba_marseille","lat":43.25584,"lon":5.38246,"is_reserved":false,"is_disabled":false,"rental_uris":{"android":"levelo://app?vid=6b04f75f-fb5c-42fe-a63b-5e82daec1ece","ios":"levelo://app?vid=6b04f75f-fb5c-42fe-a63b-5e82daec1ece"},"vehicle_type_id":"4","last_reported":1740229933,"current_range_meters":8800,"station_id":"ce4bhih2rcd13ifvqfs0","pricing_plan_id":"cebpf4jnsgd1na2vs0mg"},{"bike_id":"ab46b189-6bae-4129-a7fd-10b3ccd5a48e","system_id":"levelo_inurba_marseille","lat":43.27195,"lon":5.40001,"is_reserved":false,"is_disabled":false,"rental_uris":{"android":"levelo://app?vid=ab46b189-6bae-4129-a7fd-10b3ccd5a48e","ios":"levelo://app?vid=ab46b189-6bae-4129-a7fd-10b3ccd5a48e"},"vehicle_type_id":"4","last_reported":1740229933,"current_range_meters":8800,"station_id":"","pricing_plan_id":"cebpf4jnsgd1na2vs0mg"},{"bike_id":"32cb548e-3f9c-45c3-8ca4-71e2dff11160","system_id":"levelo_inurba_marseille","lat":43.265622,"lon":5.390238,"is_reserved":false,"is_disabled":false,"rental_uris":{"android":"levelo://app?vid=32cb548e-3f9c-45c3-8ca4-71e2dff11160","ios":"levelo://app?vid=32cb548e-3f9c-45c3-8ca4-71e2dff11160"},"vehicle_type_id":"4","last_reported":1740229933,"current_range_meters":8800,"station_id":"ce4bhe12rcd13ifvqf30","pricing_plan_id":"cebpf4jnsgd1na2vs0mg"},{"bike_id":"78b97302-9c59-42d1-a13f-5e8c85841d45","system_id":"levelo_inurba_marseille","lat":43.2656,"lon":5.39028,"is_reserved":false,"is_disabled":false,"rental_uris":{"android":"levelo://app?vid=78b97302-9c59-42d1-a13f-5e8c85841d45","ios":"levelo://app?vid=78b97302-9c59-42d1-a13f-5e8c85841d45"},"vehicle_type_id":"4","last_reported":1740229933,"current_range_meters":8800,"station_id":"ce4bhe12rcd13ifvqf30","pricing_plan_id":"cebpf4jnsgd1na2vs0mg"},{"bike_id":"f32fe46d-1120-4c2c-97c5-cdbf2de4ccec","system_id":"levelo_inurba_marseille","lat":43.25912,"lon":5.4081,"is_reserved":false,"is_disabled":false,"rental_uris":{"android":"levelo://app?vid=f32fe46d-1120-4c2c-97c5-cdbf2de4ccec","ios":"levelo://app?vid=f32fe46d-1120-4c2c-97c5-cdbf2de4ccec"},"vehicle_type_id":"4","last_reported":1740229933,"current_range_meters":9200,"station_id":"ce4bhm92rcd13ifvqglg","pricing_plan_id":"cebpf4jnsgd1na2vs0mg"},{"bike_id":"b950d610-3d59-4fd2-b72e-fb52a924e79d","system_id":"levelo_inurba_marseille","lat":43.23069,"lon":5.35488,"is_reserved":false,"is_disabled":false,"rental_uris":{"android":"levelo://app?vid=b950d610-3d59-4fd2-b72e-fb52a924e79d","ios":"levelo://app?vid=b950d610-3d59-4fd2-b72e-fb52a924e79d"},"vehicle_type_id":"4","last_reported":1740229933,"current_range_meters":9200,"station_id":"cpo3342slgdg3j2ifvpg","pricing_plan_id":"cebpf4jnsgd1na2vs0mg"},{"bike_id":"a404738f-d592-4923-bb7f-8cad6bf8fec4","system_id":"levelo_inurba_marseille","lat":43.27962,"lon":5.38502,"is_reserved":false,"is_disabled":false,"rental_uris":{"android":"levelo://app?vid=a404738f-d592-4923-bb7f-8cad6bf8fec4","ios":"levelo://app?vid=a404738f-d592-4923-bb7f-8cad6bf8fec4"},"vehicle_type_id":"4","last_reported":1740229933,"current_range_meters":9200,"station_id":"","pricing_plan_id":"cebpf4jnsgd1na2vs0mg"},{"bike_id":"af1107fa-d68e-4f88-b9a9-b5e22ec9744f","system_id":"levelo_inurba_marseille","lat":43.23035,"lon":5.35572,"is_reserved":false,"is_disabled":false,"rental_uris":{"android":"levelo://app?vid=af1107fa-d68e-4f88-b9a9-b5e22ec9744f","ios":"levelo://app?vid=af1107fa-d68e-4f88-b9a9-b5e22ec9744f"},"vehicle_type_id":"4","last_reported":1740229933,"current_range_meters":9200,"station_id":"cpo3342slgdg3j2ifvpg","pricing_plan_id":"cebpf4jnsgd1na2vs0mg"},{"bike_id":"eaade91b-b62e-4280-9e8d-87971bf020df","system_id":"levelo_inurba_marseille","lat":43.30542,"lon":5.36692,"is_reserved":false,"is_disabled":false,"rental_uris":{"android":"levelo://app?vid=eaade91b-b62e-4280-9e8d-87971bf020df","ios":"levelo://app?vid=eaade91b-b62e-4280-9e8d-87971bf020df"},"vehicle_type_id":"4","last_reported":1740229933,"current_range_meters":9200,"station_id":"ce4bgrp2rcd13ifvqc9g","pricing_plan_id":"cebpf4jnsgd1na2vs0mg"},{"bike_id":"812f52e5-c611-4ad3-9e33-9d66033c735c","system_id":"levelo_inurba_marseille","lat":43.23151,"lon":5.43712,"is_reserved":false,"is_disabled":false,"rental_uris":{"android":"levelo://app?vid=812f52e5-c611-4ad3-9e33-9d66033c735c","ios":"levelo://app?vid=812f52e5-c611-4ad3-9e33-9d66033c735c"},"vehicle_type_id":"4","last_reported":1740229933,"current_range_meters":9600,"station_id":"ce4bhmp2rcd13ifvqgog","pricing_plan_id":"cebpf4jnsgd1na2vs0mg"},{"bike_id":"2016d3b6-a79b-414a-81b8-8adebaa323b5","system_id":"levelo_inurba_marseille","lat":43.27182,"lon":5.3917,"is_reserved":false,"is_disabled":true,"rental_uris":{"android":"levelo://app?vid=2016d3b6-a79b-414a-81b8-8adebaa323b5","ios":"levelo://app?vid=2016d3b6-a79b-414a-81b8-8adebaa323b5"},"vehicle_type_id":"4","last_reported":1740229933,"current_range_meters":9600,"station_id":"ce4bhhp2rcd13ifvqfm0","pricing_plan_id":"cebpf4jnsgd1na2vs0mg"},{"bike_id":"3555bb11-9561-43cd-a193-edca43ab4f62","system_id":"levelo_inurba_marseille","lat":43.299703,"lon":5.384807,"is_reserved":false,"is_disabled":false,"rental_uris":{"android":"levelo://app?vid=3555bb11-9561-43cd-a193-edca43ab4f62","ios":"levelo://app?vid=3555bb11-9561-43cd-a193-edca43ab4f62"},"vehicle_type_id":"4","last_reported":1740229933,"current_range_meters":9600,"station_id":"ce4bgs12rcd13ifvqcag","pricing_plan_id":"cebpf4jnsgd1na2vs0mg"},{"bike_id":"e0a27bbe-1017-4673-a93c-ffab63167e8c","system_id":"levelo_inurba_marseille","lat":43.24558,"lon":5.39518,"is_reserved":false,"is_disabled":false,"rental_uris":{"android":"levelo://app?vid=e0a27bbe-1017-4673-a93c-ffab63167e8c","ios":"levelo://app?vid=e0a27bbe-1017-4673-a93c-ffab63167e8c"},"vehicle_type_id":"4","last_reported":1740229933,"current_range_meters":9600,"station_id":"ce4bhlp2rcd13ifvqgjg","pricing_plan_id":"cebpf4jnsgd1na2vs0mg"},{"bike_id":"35331f57-b06c-41f1-8224-4eb3668702eb","system_id":"levelo_inurba_marseille","lat":43.23046,"lon":5.35501,"is_reserved":false,"is_disabled":false,"rental_uris":{"android":"levelo://app?vid=35331f57-b06c-41f1-8224-4eb3668702eb","ios":"levelo://app?vid=35331f57-b06c-41f1-8224-4eb3668702eb"},"vehicle_type_id":"4","last_reported":1740229933,"current_range_meters":9600,"station_id":"cpo3342slgdg3j2ifvpg","pricing_plan_id":"cebpf4jnsgd1na2vs0mg"},{"bike_id":"36405e8a-bb99-4498-a8c2-5cfa31059438","system_id":"levelo_inurba_marseille","lat":43.23071,"lon":5.35494,"is_reserved":false,"is_disabled":false,"rental_uris":{"android":"levelo://app?vid=36405e8a-bb99-4498-a8c2-5cfa31059438","ios":"levelo://app?vid=36405e8a-bb99-4498-a8c2-5cfa31059438"},"vehicle_type_id":"4","last_reported":1740229933,"current_range_meters":9600,"station_id":"cpo3342slgdg3j2ifvpg","pricing_plan_id":"cebpf4jnsgd1na2vs0mg"},{"bike_id":"0a1ff220-1567-478f-8a1f-36ccb8c618e9","system_id":"levelo_inurba_marseille","lat":43.23146,"lon":5.43711,"is_reserved":false,"is_disabled":false,"rental_uris":{"android":"levelo://app?vid=0a1ff220-1567-478f-8a1f-36ccb8c618e9","ios":"levelo://app?vid=0a1ff220-1567-478f-8a1f-36ccb8c618e9"},"vehicle_type_id":"4","last_reported":1740229933,"current_range_meters":10000,"station_id":"ce4bhmp2rcd13ifvqgog","pricing_plan_id":"cebpf4jnsgd1na2vs0mg"},{"bike_id":"78ccc1b5-e05d-4c30-bc5b-473f9d97e2cd","system_id":"levelo_inurba_marseille","lat":43.30115,"lon":5.37828,"is_reserved":false,"is_disabled":false,"rental_uris":{"android":"levelo://app?vid=78ccc1b5-e05d-4c30-bc5b-473f9d97e2cd","ios":"levelo://app?vid=78ccc1b5-e05d-4c30-bc5b-473f9d97e2cd"},"vehicle_type_id":"4","last_reported":1740229933,"current_range_meters":10000,"station_id":"","pricing_plan_id":"cebpf4jnsgd1na2vs0mg"},{"bike_id":"6e274d9f-89d8-4a25-a4f3-c30449f9d08e","system_id":"levelo_inurba_marseille","lat":43.25762,"lon":5.41052,"is_reserved":false,"is_disabled":false,"rental_uris":{"android":"levelo://app?vid=6e274d9f-89d8-4a25-a4f3-c30449f9d08e","ios":"levelo://app?vid=6e274d9f-89d8-4a25-a4f3-c30449f9d08e"},"vehicle_type_id":"4","last_reported":1740229933,"current_range_meters":10000,"station_id":"ce4bhkp2rcd13ifvqgd0","pricing_plan_id":"cebpf4jnsgd1na2vs0mg"},{"bike_id":"d1401c07-4858-4456-a551-89693aec6bf5","system_id":"levelo_inurba_marseille","lat":43.27049,"lon":5.40264,"is_reserved":false,"is_disabled":false,"rental_uris":{"android":"levelo://app?vid=d1401c07-4858-4456-a551-89693aec6bf5","ios":"levelo://app?vid=d1401c07-4858-4456-a551-89693aec6bf5"},"vehicle_type_id":"4","last_reported":1740229933,"current_range_meters":10000,"station_id":"ce4bhk92rcd13ifvqgc0","pricing_plan_id":"cebpf4jnsgd1na2vs0mg"},{"bike_id":"d062bab0-4061-4df2-a85c-ea4df4bf8fbe","system_id":"levelo_inurba_marseille","lat":43.30152,"lon":5.380989,"is_reserved":false,"is_disabled":false,"rental_uris":{"android":"levelo://app?vid=d062bab0-4061-4df2-a85c-ea4df4bf8fbe","ios":"levelo://app?vid=d062bab0-4061-4df2-a85c-ea4df4bf8fbe"},"vehicle_type_id":"4","last_reported":1740229933,"current_range_meters":10000,"station_id":"ce4bgjp2rcd13ifvqbh0","pricing_plan_id":"cebpf4jnsgd1na2vs0mg"},{"bike_id":"b985ad1f-1942-453b-b5eb-7462cafd1e31","system_id":"levelo_inurba_marseille","lat":43.23188,"lon":5.35557,"is_reserved":false,"is_disabled":false,"rental_uris":{"android":"levelo://app?vid=b985ad1f-1942-453b-b5eb-7462cafd1e31","ios":"levelo://app?vid=b985ad1f-1942-453b-b5eb-7462cafd1e31"},"vehicle_type_id":"4","last_reported":1740229933,"current_range_meters":10000,"station_id":"ce4bhu92rcd13ifvqi70","pricing_plan_id":"cebpf4jnsgd1na2vs0mg"},{"bike_id":"9746a280-53ae-40de-a240-ebffa0cbeb94","system_id":"levelo_inurba_marseille","lat":43.2952,"lon":5.39053,"is_reserved":false,"is_disabled":false,"rental_uris":{"android":"levelo://app?vid=9746a280-53ae-40de-a240-ebffa0cbeb94","ios":"levelo://app?vid=9746a280-53ae-40de-a240-ebffa0cbeb94"},"vehicle_type_id":"4","last_reported":1740229933,"current_range_meters":10800,"station_id":"ce4bh3p2rcd13ifvqdp0","pricing_plan_id":"cebpf4jnsgd1na2vs0mg"},{"bike_id":"b9d8a088-5be9-4539-9b15-488ed9bb6362","system_id":"levelo_inurba_marseille","lat":43.25496,"lon":5.3765,"is_reserved":false,"is_disabled":false,"rental_uris":{"android":"levelo://app?vid=b9d8a088-5be9-4539-9b15-488ed9bb6362","ios":"levelo://app?vid=b9d8a088-5be9-4539-9b15-488ed9bb6362"},"vehicle_type_id":"4","last_reported":1740229933,"current_range_meters":10800,"station_id":"ce4bhh12rcd13ifvqff0","pricing_plan_id":"cebpf4jnsgd1na2vs0mg"},{"bike_id":"d312ce1d-aae9-4c62-a1e8-38c15d95735a","system_id":"levelo_inurba_marseille","lat":43.22946,"lon":5.35405,"is_reserved":false,"is_disabled":false,"rental_uris":{"android":"levelo://app?vid=d312ce1d-aae9-4c62-a1e8-38c15d95735a","ios":"levelo://app?vid=d312ce1d-aae9-4c62-a1e8-38c15d95735a"},"vehicle_type_id":"4","last_reported":1740229933,"current_range_meters":10800,"station_id":"cpo3532slgdg3j2ikp40","pricing_plan_id":"cebpf4jnsgd1na2vs0mg"},{"bike_id":"5c474d37-cbf4-4a6a-a1d4-b0b516eb3419","system_id":"levelo_inurba_marseille","lat":43.27335,"lon":5.36272,"is_reserved":false,"is_disabled":false,"rental_uris":{"android":"levelo://app?vid=5c474d37-cbf4-4a6a-a1d4-b0b516eb3419","ios":"levelo://app?vid=5c474d37-cbf4-4a6a-a1d4-b0b516eb3419"},"vehicle_type_id":"4","last_reported":1740229933,"current_range_meters":10800,"station_id":"","pricing_plan_id":"cebpf4jnsgd1na2vs0mg"},{"bike_id":"6c2ab6e6-2d04-4225-b04d-1f709ec68055","system_id":"levelo_inurba_marseille","lat":43.22942,"lon":5.35379,"is_reserved":false,"is_disabled":false,"rental_uris":{"android":"levelo://app?vid=6c2ab6e6-2d04-4225-b04d-1f709ec68055","ios":"levelo://app?vid=6c2ab6e6-2d04-4225-b04d-1f709ec68055"},"vehicle_type_id":"4","last_reported":1740229933,"current_range_meters":10800,"station_id":"cpo3532slgdg3j2ikp40","pricing_plan_id":"cebpf4jnsgd1na2vs0mg"},{"bike_id":"a88b4534-cc43-4486-95b9-13918131b4b3","system_id":"levelo_inurba_marseille","lat":43.31756,"lon":5.39019,"is_reserved":false,"is_disabled":false,"rental_uris":{"android":"levelo://app?vid=a88b4534-cc43-4486-95b9-13918131b4b3","ios":"levelo://app?vid=a88b4534-cc43-4486-95b9-13918131b4b3"},"vehicle_type_id":"4","last_reported":1740229933,"current_range_meters":10800,"station_id":"ce4bhqp2rcd13ifvqhng","pricing_plan_id":"cebpf4jnsgd1na2vs0mg"},{"bike_id":"ba113183-374c-4d98-80f0-8303ec95b01f","system_id":"levelo_inurba_marseille","lat":43.26062,"lon":5.39393,"is_reserved":false,"is_disabled":false,"rental_uris":{"android":"levelo://app?vid=ba113183-374c-4d98-80f0-8303ec95b01f","ios":"levelo://app?vid=ba113183-374c-4d98-80f0-8303ec95b01f"},"vehicle_type_id":"4","last_reported":1740229933,"current_range_meters":11200,"station_id":"ce4bhh92rcd13ifvqfj0","pricing_plan_id":"cebpf4jnsgd1na2vs0mg"},{"bike_id":"3c232bab-88ac-4592-9031-c21395fd8a78","system_id":"levelo_inurba_marseille","lat":43.32363,"lon":5.3674,"is_reserved":false,"is_disabled":false,"rental_uris":{"android":"levelo://app?vid=3c232bab-88ac-4592-9031-c21395fd8a78","ios":"levelo://app?vid=3c232bab-88ac-4592-9031-c21395fd8a78"},"vehicle_type_id":"4","last_reported":1740229933,"current_range_meters":11200,"station_id":"ce4bhsh2rcd13ifvqi2g","pricing_plan_id":"cebpf4jnsgd1na2vs0mg"},{"bike_id":"4f542e78-da3d-4f99-b268-bd72b36f5f31","system_id":"levelo_inurba_marseille","lat":43.29569,"lon":5.39963,"is_reserved":false,"is_disabled":true,"rental_uris":{"android":"levelo://app?vid=4f542e78-da3d-4f99-b268-bd72b36f5f31","ios":"levelo://app?vid=4f542e78-da3d-4f99-b268-bd72b36f5f31"},"vehicle_type_id":"4","last_reported":1740229933,"current_range_meters":11200,"station_id":"ce4bh312rcd13ifvqdj0","pricing_plan_id":"cebpf4jnsgd1na2vs0mg"},{"bike_id":"e580b7c9-e8c0-456e-9d12-2a81481cf691","system_id":"levelo_inurba_marseille","lat":43.3078,"lon":5.37665,"is_reserved":false,"is_disabled":false,"rental_uris":{"android":"levelo://app?vid=e580b7c9-e8c0-456e-9d12-2a81481cf691","ios":"levelo://app?vid=e580b7c9-e8c0-456e-9d12-2a81481cf691"},"vehicle_type_id":"4","last_reported":1740229933,"current_range_meters":11200,"station_id":"ce4bgv92rcd13ifvqcq0","pricing_plan_id":"cebpf4jnsgd1na2vs0mg"},{"bike_id":"73960d31-ac1e-49f0-a700-1b8e521667aa","system_id":"levelo_inurba_marseille","lat":43.30539,"lon":5.38429,"is_reserved":false,"is_disabled":false,"rental_uris":{"android":"levelo://app?vid=73960d31-ac1e-49f0-a700-1b8e521667aa","ios":"levelo://app?vid=73960d31-ac1e-49f0-a700-1b8e521667aa"},"vehicle_type_id":"4","last_reported":1740229933,"current_range_meters":11600,"station_id":"ce4bgg92rcd13ifvqb30","pricing_plan_id":"cebpf4jnsgd1na2vs0mg"},{"bike_id":"ae318621-0211-4f46-8a4e-4273cdc9cb1c","system_id":"levelo_inurba_marseille","lat":43.2396,"lon":5.36626,"is_reserved":false,"is_disabled":false,"rental_uris":{"android":"levelo://app?vid=ae318621-0211-4f46-8a4e-4273cdc9cb1c","ios":"levelo://app?vid=ae318621-0211-4f46-8a4e-4273cdc9cb1c"},"vehicle_type_id":"4","last_reported":1740229933,"current_range_meters":11600,"station_id":"ce4bhi12rcd13ifvqfp0","pricing_plan_id":"cebpf4jnsgd1na2vs0mg"},{"bike_id":"9e34ff94-4206-4d85-a9da-dab3dd759910","system_id":"levelo_inurba_marseille","lat":43.30409,"lon":5.41276,"is_reserved":false,"is_disabled":false,"rental_uris":{"android":"levelo://app?vid=9e34ff94-4206-4d85-a9da-dab3dd759910","ios":"levelo://app?vid=9e34ff94-4206-4d85-a9da-dab3dd759910"},"vehicle_type_id":"4","last_reported":1740229933,"current_range_meters":11600,"station_id":"ce4bhop2rcd13ifvqh8g","pricing_plan_id":"cebpf4jnsgd1na2vs0mg"},{"bike_id":"7e976ceb-5f58-4d17-9c3e-edf6b69d6e1a","system_id":"levelo_inurba_marseille","lat":43.24551,"lon":5.39527,"is_reserved":false,"is_disabled":false,"rental_uris":{"android":"levelo://app?vid=7e976ceb-5f58-4d17-9c3e-edf6b69d6e1a","ios":"levelo://app?vid=7e976ceb-5f58-4d17-9c3e-edf6b69d6e1a"},"vehicle_type_id":"4","last_reported":1740229933,"current_range_meters":11600,"station_id":"ce4bhlp2rcd13ifvqgjg","pricing_plan_id":"cebpf4jnsgd1na2vs0mg"},{"bike_id":"22949543-b76a-4d98-a573-6d986a1c41cd","system_id":"levelo_inurba_marseille","lat":43.308012,"lon":5.376738,"is_reserved":false,"is_disabled":false,"rental_uris":{"android":"levelo://app?vid=22949543-b76a-4d98-a573-6d986a1c41cd","ios":"levelo://app?vid=22949543-b76a-4d98-a573-6d986a1c41cd"},"vehicle_type_id":"4","last_reported":1740229933,"current_range_meters":11200,"station_id":"ce4bgv92rcd13ifvqcq0","pricing_plan_id":"cebpf4jnsgd1na2vs0mg"},{"bike_id":"37bc605f-bc59-4670-abf5-3ce110e8920a","system_id":"levelo_inurba_marseille","lat":43.24389,"lon":5.37052,"is_reserved":false,"is_disabled":false,"rental_uris":{"android":"levelo://app?vid=37bc605f-bc59-4670-abf5-3ce110e8920a","ios":"levelo://app?vid=37bc605f-bc59-4670-abf5-3ce110e8920a"},"vehicle_type_id":"4","last_reported":1740229933,"current_range_meters":12000,"station_id":"ce4bhhh2rcd13ifvqfk0","pricing_plan_id":"cebpf4jnsgd1na2vs0mg"},{"bike_id":"d1097f6e-462a-4f6c-b2ed-5ea292051a9c","system_id":"levelo_inurba_marseille","lat":43.29026,"lon":5.38638,"is_reserved":false,"is_disabled":false,"rental_uris":{"android":"levelo://app?vid=d1097f6e-462a-4f6c-b2ed-5ea292051a9c","ios":"levelo://app?vid=d1097f6e-462a-4f6c-b2ed-5ea292051a9c"},"vehicle_type_id":"4","last_reported":1740229933,"current_range_meters":12000,"station_id":"ce4bh4p2rcd13ifvqe0g","pricing_plan_id":"cebpf4jnsgd1na2vs0mg"},{"bike_id":"14c02d89-ed08-4e01-b80b-1d90439696c8","system_id":"levelo_inurba_marseille","lat":43.231973,"lon":5.355567,"is_reserved":false,"is_disabled":false,"rental_uris":{"android":"levelo://app?vid=14c02d89-ed08-4e01-b80b-1d90439696c8","ios":"levelo://app?vid=14c02d89-ed08-4e01-b80b-1d90439696c8"},"vehicle_type_id":"4","last_reported":1740229933,"current_range_meters":12000,"station_id":"ce4bhu92rcd13ifvqi70","pricing_plan_id":"cebpf4jnsgd1na2vs0mg"},{"bike_id":"7cbaade2-cbc7-4b50-8b01-c77f893939b7","system_id":"levelo_inurba_marseille","lat":43.30609,"lon":5.37212,"is_reserved":false,"is_disabled":false,"rental_uris":{"android":"levelo://app?vid=7cbaade2-cbc7-4b50-8b01-c77f893939b7","ios":"levelo://app?vid=7cbaade2-cbc7-4b50-8b01-c77f893939b7"},"vehicle_type_id":"4","last_reported":1740229933,"current_range_meters":12000,"station_id":"ce4bgqh2rcd13ifvqc4g","pricing_plan_id":"cebpf4jnsgd1na2vs0mg"},{"bike_id":"e8aa9107-fad9-4a62-b20f-9589c0228e4a","system_id":"levelo_inurba_marseille","lat":43.28656,"lon":5.36349,"is_reserved":false,"is_disabled":false,"rental_uris":{"android":"levelo://app?vid=e8aa9107-fad9-4a62-b20f-9589c0228e4a","ios":"levelo://app?vid=e8aa9107-fad9-4a62-b20f-9589c0228e4a"},"vehicle_type_id":"4","last_reported":1740229933,"current_range_meters":12400,"station_id":"ce4bhah2rcd13ifvqej0","pricing_plan_id":"cebpf4jnsgd1na2vs0mg"},{"bike_id":"5b5cec87-7e08-4ad0-ba6e-28b8255531d8","system_id":"levelo_inurba_marseille","lat":43.284152,"lon":5.349739,"is_reserved":false,"is_disabled":false,"rental_uris":{"android":"levelo://app?vid=5b5cec87-7e08-4ad0-ba6e-28b8255531d8","ios":"levelo://app?vid=5b5cec87-7e08-4ad0-ba6e-28b8255531d8"},"vehicle_type_id":"4","last_reported":1740229933,"current_range_meters":12400,"station_id":"ce4bhi12rcd13ifvqfq0","pricing_plan_id":"cebpf4jnsgd1na2vs0mg"},{"bike_id":"fc719a48-4f02-4ff0-a0b0-5867ff99caf1","system_id":"levelo_inurba_marseille","lat":43.30419,"lon":5.41293,"is_reserved":false,"is_disabled":false,"rental_uris":{"android":"levelo://app?vid=fc719a48-4f02-4ff0-a0b0-5867ff99caf1","ios":"levelo://app?vid=fc719a48-4f02-4ff0-a0b0-5867ff99caf1"},"vehicle_type_id":"4","last_reported":1740229933,"current_range_meters":12400,"station_id":"ce4bhop2rcd13ifvqh8g","pricing_plan_id":"cebpf4jnsgd1na2vs0mg"},{"bike_id":"fcababa2-c0eb-4157-98ef-ebc5d47a2977","system_id":"levelo_inurba_marseille","lat":43.23184,"lon":5.39986,"is_reserved":false,"is_disabled":false,"rental_uris":{"android":"levelo://app?vid=fcababa2-c0eb-4157-98ef-ebc5d47a2977","ios":"levelo://app?vid=fcababa2-c0eb-4157-98ef-ebc5d47a2977"},"vehicle_type_id":"4","last_reported":1740229933,"current_range_meters":12400,"station_id":"ce4bhn12rcd13ifvqgqg","pricing_plan_id":"cebpf4jnsgd1na2vs0mg"},{"bike_id":"e95cb89f-0fcd-4c47-8a11-4ed18aff8aa7","system_id":"levelo_inurba_marseille","lat":43.24164,"lon":5.39698,"is_reserved":false,"is_disabled":false,"rental_uris":{"android":"levelo://app?vid=e95cb89f-0fcd-4c47-8a11-4ed18aff8aa7","ios":"levelo://app?vid=e95cb89f-0fcd-4c47-8a11-4ed18aff8aa7"},"vehicle_type_id":"4","last_reported":1740229933,"current_range_meters":12400,"station_id":"ce4bhn12rcd13ifvqgpg","pricing_plan_id":"cebpf4jnsgd1na2vs0mg"},{"bike_id":"1e97862b-d526-4c32-8a10-690378c8bd57","system_id":"levelo_inurba_marseille","lat":43.29417,"lon":5.38623,"is_reserved":false,"is_disabled":false,"rental_uris":{"android":"levelo://app?vid=1e97862b-d526-4c32-8a10-690378c8bd57","ios":"levelo://app?vid=1e97862b-d526-4c32-8a10-690378c8bd57"},"vehicle_type_id":"4","last_reported":1740229933,"current_range_meters":12400,"station_id":"ce4bh2h2rcd13ifvqdh0","pricing_plan_id":"cebpf4jnsgd1na2vs0mg"},{"bike_id":"1951b280-e8ac-4fa5-a3ef-806580107c2a","system_id":"levelo_inurba_marseille","lat":43.28156,"lon":5.4265,"is_reserved":false,"is_disabled":false,"rental_uris":{"android":"levelo://app?vid=1951b280-e8ac-4fa5-a3ef-806580107c2a","ios":"levelo://app?vid=1951b280-e8ac-4fa5-a3ef-806580107c2a"},"vehicle_type_id":"4","last_reported":1740229933,"current_range_meters":12800,"station_id":"ce4bhnh2rcd13ifvqgug","pricing_plan_id":"cebpf4jnsgd1na2vs0mg"},{"bike_id":"519c0d90-c598-4074-9c80-d5e1565ff705","system_id":"levelo_inurba_marseille","lat":43.23063,"lon":5.35522,"is_reserved":false,"is_disabled":false,"rental_uris":{"android":"levelo://app?vid=519c0d90-c598-4074-9c80-d5e1565ff705","ios":"levelo://app?vid=519c0d90-c598-4074-9c80-d5e1565ff705"},"vehicle_type_id":"4","last_reported":1740229933,"current_range_meters":12800,"station_id":"cpo3342slgdg3j2ifvpg","pricing_plan_id":"cebpf4jnsgd1na2vs0mg"},{"bike_id":"0b35ef10-1d1d-4e8a-949e-c3122c5e3874","system_id":"levelo_inurba_marseille","lat":43.23956,"lon":5.36635,"is_reserved":false,"is_disabled":false,"rental_uris":{"android":"levelo://app?vid=0b35ef10-1d1d-4e8a-949e-c3122c5e3874","ios":"levelo://app?vid=0b35ef10-1d1d-4e8a-949e-c3122c5e3874"},"vehicle_type_id":"4","last_reported":1740229933,"current_range_meters":12800,"station_id":"ce4bhi12rcd13ifvqfp0","pricing_plan_id":"cebpf4jnsgd1na2vs0mg"},{"bike_id":"0906b4f2-e9dd-48c4-af42-4df39d1d7994","system_id":"levelo_inurba_marseille","lat":43.29364,"lon":5.3784,"is_reserved":false,"is_disabled":false,"rental_uris":{"android":"levelo://app?vid=0906b4f2-e9dd-48c4-af42-4df39d1d7994","ios":"levelo://app?vid=0906b4f2-e9dd-48c4-af42-4df39d1d7994"},"vehicle_type_id":"4","last_reported":1740229933,"current_range_meters":12800,"station_id":"ce4bgjh2rcd13ifvqbf0","pricing_plan_id":"cebpf4jnsgd1na2vs0mg"},{"bike_id":"17cb2da1-6381-4c19-aa67-406968c3567c","system_id":"levelo_inurba_marseille","lat":43.29573,"lon":5.37517,"is_reserved":false,"is_disabled":false,"rental_uris":{"android":"levelo://app?vid=17cb2da1-6381-4c19-aa67-406968c3567c","ios":"levelo://app?vid=17cb2da1-6381-4c19-aa67-406968c3567c"},"vehicle_type_id":"4","last_reported":1740229933,"current_range_meters":12800,"station_id":"ce4bgh92rcd13ifvqb50","pricing_plan_id":"cebpf4jnsgd1na2vs0mg"},{"bike_id":"b6985581-0ee2-4ae2-bacd-a31085526c12","system_id":"levelo_inurba_marseille","lat":43.26559,"lon":5.39013,"is_reserved":false,"is_disabled":false,"rental_uris":{"android":"levelo://app?vid=b6985581-0ee2-4ae2-bacd-a31085526c12","ios":"levelo://app?vid=b6985581-0ee2-4ae2-bacd-a31085526c12"},"vehicle_type_id":"4","last_reported":1740229933,"current_range_meters":12800,"station_id":"ce4bhe12rcd13ifvqf30","pricing_plan_id":"cebpf4jnsgd1na2vs0mg"},{"bike_id":"f662338e-cdf8-43a5-a758-217e51d7a7f0","system_id":"levelo_inurba_marseille","lat":43.24383,"lon":5.37056,"is_reserved":false,"is_disabled":false,"rental_uris":{"android":"levelo://app?vid=f662338e-cdf8-43a5-a758-217e51d7a7f0","ios":"levelo://app?vid=f662338e-cdf8-43a5-a758-217e51d7a7f0"},"vehicle_type_id":"4","last_reported":1740229933,"current_range_meters":12800,"station_id":"ce4bhhh2rcd13ifvqfk0","pricing_plan_id":"cebpf4jnsgd1na2vs0mg"},{"bike_id":"eea04ce7-a1f1-4de3-a354-17ecdf02c9cb","system_id":"levelo_inurba_marseille","lat":43.26939,"lon":5.38629,"is_reserved":false,"is_disabled":false,"rental_uris":{"android":"levelo://app?vid=eea04ce7-a1f1-4de3-a354-17ecdf02c9cb","ios":"levelo://app?vid=eea04ce7-a1f1-4de3-a354-17ecdf02c9cb"},"vehicle_type_id":"4","last_reported":1740229933,"current_range_meters":13600,"station_id":"ce4bhh92rcd13ifvqfh0","pricing_plan_id":"cebpf4jnsgd1na2vs0mg"},{"bike_id":"5762e0fb-9adc-429a-8277-88ae5e2dd4be","system_id":"levelo_inurba_marseille","lat":43.30539,"lon":5.36537,"is_reserved":false,"is_disabled":false,"rental_uris":{"android":"levelo://app?vid=5762e0fb-9adc-429a-8277-88ae5e2dd4be","ios":"levelo://app?vid=5762e0fb-9adc-429a-8277-88ae5e2dd4be"},"vehicle_type_id":"4","last_reported":1740229933,"current_range_meters":13600,"station_id":"ce4bgs12rcd13ifvqcag","pricing_plan_id":"cebpf4jnsgd1na2vs0mg"},{"bike_id":"796385de-dc30-4c54-8ebb-b18e9d97ec0f","system_id":"levelo_inurba_marseille","lat":43.30641,"lon":5.4009,"is_reserved":false,"is_disabled":false,"rental_uris":{"android":"levelo://app?vid=796385de-dc30-4c54-8ebb-b18e9d97ec0f","ios":"levelo://app?vid=796385de-dc30-4c54-8ebb-b18e9d97ec0f"},"vehicle_type_id":"4","last_reported":1740229933,"current_range_meters":13600,"station_id":"ce4bh112rcd13ifvqda0","pricing_plan_id":"cebpf4jnsgd1na2vs0mg"},{"bike_id":"1b0d6542-f74d-4dd5-b78b-1cd1115ff80b","system_id":"levelo_inurba_marseille","lat":43.30622,"lon":5.37374,"is_reserved":false,"is_disabled":false,"rental_uris":{"android":"levelo://app?vid=1b0d6542-f74d-4dd5-b78b-1cd1115ff80b","ios":"levelo://app?vid=1b0d6542-f74d-4dd5-b78b-1cd1115ff80b"},"vehicle_type_id":"4","last_reported":1740229933,"current_range_meters":14000,"station_id":"","pricing_plan_id":"cebpf4jnsgd1na2vs0mg"},{"bike_id":"1465a4f7-c5b6-4253-8fa1-ba53adc07b99","system_id":"levelo_inurba_marseille","lat":43.30542,"lon":5.36553,"is_reserved":false,"is_disabled":false,"rental_uris":{"android":"levelo://app?vid=1465a4f7-c5b6-4253-8fa1-ba53adc07b99","ios":"levelo://app?vid=1465a4f7-c5b6-4253-8fa1-ba53adc07b99"},"vehicle_type_id":"4","last_reported":1740229933,"current_range_meters":14000,"station_id":"ce4bgs12rcd13ifvqcag","pricing_plan_id":"cebpf4jnsgd1na2vs0mg"},{"bike_id":"dab960d9-1ede-46dd-ade3-a5360c9021cf","system_id":"levelo_inurba_marseille","lat":43.231934,"lon":5.355599,"is_reserved":false,"is_disabled":false,"rental_uris":{"android":"levelo://app?vid=dab960d9-1ede-46dd-ade3-a5360c9021cf","ios":"levelo://app?vid=dab960d9-1ede-46dd-ade3-a5360c9021cf"},"vehicle_type_id":"4","last_reported":1740229933,"current_range_meters":14000,"station_id":"ce4bhu92rcd13ifvqi70","pricing_plan_id":"cebpf4jnsgd1na2vs0mg"},{"bike_id":"d88699b9-7a50-415c-9cdb-a35fdc00ed80","system_id":"levelo_inurba_marseille","lat":43.29934,"lon":5.37193,"is_reserved":false,"is_disabled":false,"rental_uris":{"android":"levelo://app?vid=d88699b9-7a50-415c-9cdb-a35fdc00ed80","ios":"levelo://app?vid=d88699b9-7a50-415c-9cdb-a35fdc00ed80"},"vehicle_type_id":"4","last_reported":1740229933,"current_range_meters":14000,"station_id":"","pricing_plan_id":"cebpf4jnsgd1na2vs0mg"},{"bike_id":"1b5b87c8-f96f-4740-8b60-bcc62c6e3f59","system_id":"levelo_inurba_marseille","lat":43.31388,"lon":5.38435,"is_reserved":false,"is_disabled":false,"rental_uris":{"android":"levelo://app?vid=1b5b87c8-f96f-4740-8b60-bcc62c6e3f59","ios":"levelo://app?vid=1b5b87c8-f96f-4740-8b60-bcc62c6e3f59"},"vehicle_type_id":"4","last_reported":1740229933,"current_range_meters":14000,"station_id":"","pricing_plan_id":"cebpf4jnsgd1na2vs0mg"},{"bike_id":"26bfe8f1-76dc-483e-ab4f-705ed1f7931c","system_id":"levelo_inurba_marseille","lat":43.29366,"lon":5.37854,"is_reserved":false,"is_disabled":true,"rental_uris":{"android":"levelo://app?vid=26bfe8f1-76dc-483e-ab4f-705ed1f7931c","ios":"levelo://app?vid=26bfe8f1-76dc-483e-ab4f-705ed1f7931c"},"vehicle_type_id":"4","last_reported":1740229933,"current_range_meters":14000,"station_id":"ce4bgjh2rcd13ifvqbf0","pricing_plan_id":"cebpf4jnsgd1na2vs0mg"},{"bike_id":"c3c1d469-a1b4-4abb-9974-701b7d97ca20","system_id":"levelo_inurba_marseille","lat":43.25572,"lon":5.3823,"is_reserved":false,"is_disabled":false,"rental_uris":{"android":"levelo://app?vid=c3c1d469-a1b4-4abb-9974-701b7d97ca20","ios":"levelo://app?vid=c3c1d469-a1b4-4abb-9974-701b7d97ca20"},"vehicle_type_id":"4","last_reported":1740229933,"current_range_meters":14000,"station_id":"ce4bhih2rcd13ifvqfs0","pricing_plan_id":"cebpf4jnsgd1na2vs0mg"},{"bike_id":"f5592fe8-7cfa-44ac-a7cd-ec1d59f7c7a5","system_id":"levelo_inurba_marseille","lat":43.29523,"lon":5.37501,"is_reserved":false,"is_disabled":false,"rental_uris":{"android":"levelo://app?vid=f5592fe8-7cfa-44ac-a7cd-ec1d59f7c7a5","ios":"levelo://app?vid=f5592fe8-7cfa-44ac-a7cd-ec1d59f7c7a5"},"vehicle_type_id":"4","last_reported":1740229933,"current_range_meters":14000,"station_id":"ce4bgkp2rcd13ifvqbmg","pricing_plan_id":"cebpf4jnsgd1na2vs0mg"},{"bike_id":"ecb792ba-e590-4d62-97cc-1e9b429064df","system_id":"levelo_inurba_marseille","lat":43.25007,"lon":5.3892,"is_reserved":false,"is_disabled":false,"rental_uris":{"android":"levelo://app?vid=ecb792ba-e590-4d62-97cc-1e9b429064df","ios":"levelo://app?vid=ecb792ba-e590-4d62-97cc-1e9b429064df"},"vehicle_type_id":"4","last_reported":1740229933,"current_range_meters":14400,"station_id":"ce4bhgp2rcd13ifvqfd0","pricing_plan_id":"cebpf4jnsgd1na2vs0mg"},{"bike_id":"005e5eb8-39b1-40fe-bf10-36f6bd3cba88","system_id":"levelo_inurba_marseille","lat":43.28367,"lon":5.38642,"is_reserved":false,"is_disabled":false,"rental_uris":{"android":"levelo://app?vid=005e5eb8-39b1-40fe-bf10-36f6bd3cba88","ios":"levelo://app?vid=005e5eb8-39b1-40fe-bf10-36f6bd3cba88"},"vehicle_type_id":"4","last_reported":1740229933,"current_range_meters":14400,"station_id":"ce4bh492rcd13ifvqdvg","pricing_plan_id":"cebpf4jnsgd1na2vs0mg"},{"bike_id":"80eb6614-a636-4a16-aa79-96e00bc04559","system_id":"levelo_inurba_marseille","lat":43.28487,"lon":5.38419,"is_reserved":false,"is_disabled":false,"rental_uris":{"android":"levelo://app?vid=80eb6614-a636-4a16-aa79-96e00bc04559","ios":"levelo://app?vid=80eb6614-a636-4a16-aa79-96e00bc04559"},"vehicle_type_id":"4","last_reported":1740229933,"current_range_meters":14400,"station_id":"ce4bh512rcd13ifvqe3g","pricing_plan_id":"cebpf4jnsgd1na2vs0mg"},{"bike_id":"1f7411cd-9379-4bab-a8bc-411b928d8602","system_id":"levelo_inurba_marseille","lat":43.27481,"lon":5.42461,"is_reserved":false,"is_disabled":false,"rental_uris":{"android":"levelo://app?vid=1f7411cd-9379-4bab-a8bc-411b928d8602","ios":"levelo://app?vid=1f7411cd-9379-4bab-a8bc-411b928d8602"},"vehicle_type_id":"4","last_reported":1740229933,"current_range_meters":14800,"station_id":"ce4bhn92rcd13ifvqgrg","pricing_plan_id":"cebpf4jnsgd1na2vs0mg"},{"bike_id":"d5f86000-25e6-41fb-a0c5-4e4e0440556c","system_id":"levelo_inurba_marseille","lat":43.29635,"lon":5.37716,"is_reserved":false,"is_disabled":false,"rental_uris":{"android":"levelo://app?vid=d5f86000-25e6-41fb-a0c5-4e4e0440556c","ios":"levelo://app?vid=d5f86000-25e6-41fb-a0c5-4e4e0440556c"},"vehicle_type_id":"4","last_reported":1740229933,"current_range_meters":14800,"station_id":"ce4bgi92rcd13ifvqb90","pricing_plan_id":"cebpf4jnsgd1na2vs0mg"},{"bike_id":"ab8e4fa1-a748-4b68-9f46-2fdc2afb052f","system_id":"levelo_inurba_marseille","lat":43.25827,"lon":5.39424,"is_reserved":false,"is_disabled":false,"rental_uris":{"android":"levelo://app?vid=ab8e4fa1-a748-4b68-9f46-2fdc2afb052f","ios":"levelo://app?vid=ab8e4fa1-a748-4b68-9f46-2fdc2afb052f"},"vehicle_type_id":"4","last_reported":1740229933,"current_range_meters":14800,"station_id":"ce4bhip2rcd13ifvqft0","pricing_plan_id":"cebpf4jnsgd1na2vs0mg"},{"bike_id":"d5566d2e-78e8-488f-b3e7-c9c338cd491f","system_id":"levelo_inurba_marseille","lat":43.27497,"lon":5.42449,"is_reserved":false,"is_disabled":false,"rental_uris":{"android":"levelo://app?vid=d5566d2e-78e8-488f-b3e7-c9c338cd491f","ios":"levelo://app?vid=d5566d2e-78e8-488f-b3e7-c9c338cd491f"},"vehicle_type_id":"4","last_reported":1740229933,"current_range_meters":14800,"station_id":"ce4bhn92rcd13ifvqgrg","pricing_plan_id":"cebpf4jnsgd1na2vs0mg"},{"bike_id":"88c1265a-d227-42d6-b325-ca073e5c1268","system_id":"levelo_inurba_marseille","lat":43.28419,"lon":5.37501,"is_reserved":false,"is_disabled":false,"rental_uris":{"android":"levelo://app?vid=88c1265a-d227-42d6-b325-ca073e5c1268","ios":"levelo://app?vid=88c1265a-d227-42d6-b325-ca073e5c1268"},"vehicle_type_id":"4","last_reported":1740229933,"current_range_meters":14800,"station_id":"ce4bh412rcd13ifvqds0","pricing_plan_id":"cebpf4jnsgd1na2vs0mg"},{"bike_id":"f75b7c43-b1e9-419b-9e88-97af31d30220","system_id":"levelo_inurba_marseille","lat":43.23954,"lon":5.3665,"is_reserved":false,"is_disabled":false,"rental_uris":{"android":"levelo://app?vid=f75b7c43-b1e9-419b-9e88-97af31d30220","ios":"levelo://app?vid=f75b7c43-b1e9-419b-9e88-97af31d30220"},"vehicle_type_id":"4","last_reported":1740229933,"current_range_meters":15200,"station_id":"ce4bhi12rcd13ifvqfp0","pricing_plan_id":"cebpf4jnsgd1na2vs0mg"},{"bike_id":"d48729f3-7776-48ad-bcc1-2422920cbff2","system_id":"levelo_inurba_marseille","lat":43.29262,"lon":5.38449,"is_reserved":false,"is_disabled":false,"rental_uris":{"android":"levelo://app?vid=d48729f3-7776-48ad-bcc1-2422920cbff2","ios":"levelo://app?vid=d48729f3-7776-48ad-bcc1-2422920cbff2"},"vehicle_type_id":"4","last_reported":1740229933,"current_range_meters":15200,"station_id":"ce4bh692rcd13ifvqea0","pricing_plan_id":"cebpf4jnsgd1na2vs0mg"},{"bike_id":"b0013211-3314-4847-a061-40b396ec2dd9","system_id":"levelo_inurba_marseille","lat":43.31538,"lon":5.38015,"is_reserved":false,"is_disabled":false,"rental_uris":{"android":"levelo://app?vid=b0013211-3314-4847-a061-40b396ec2dd9","ios":"levelo://app?vid=b0013211-3314-4847-a061-40b396ec2dd9"},"vehicle_type_id":"4","last_reported":1740229933,"current_range_meters":15200,"station_id":"ce4bha92rcd13ifvqeg0","pricing_plan_id":"cebpf4jnsgd1na2vs0mg"},{"bike_id":"7617cc73-d38c-471f-a7cf-374bd8bf0ab4","system_id":"levelo_inurba_marseille","lat":43.26493,"lon":5.39534,"is_reserved":false,"is_disabled":false,"rental_uris":{"android":"levelo://app?vid=7617cc73-d38c-471f-a7cf-374bd8bf0ab4","ios":"levelo://app?vid=7617cc73-d38c-471f-a7cf-374bd8bf0ab4"},"vehicle_type_id":"4","last_reported":1740229933,"current_range_meters":15200,"station_id":"ce4bhi12rcd13ifvqfq0","pricing_plan_id":"cebpf4jnsgd1na2vs0mg"},{"bike_id":"ede7caf8-5ff6-4d3b-bc2a-1d8eac7ba4f6","system_id":"levelo_inurba_marseille","lat":43.28857,"lon":5.39297,"is_reserved":false,"is_disabled":false,"rental_uris":{"android":"levelo://app?vid=ede7caf8-5ff6-4d3b-bc2a-1d8eac7ba4f6","ios":"levelo://app?vid=ede7caf8-5ff6-4d3b-bc2a-1d8eac7ba4f6"},"vehicle_type_id":"4","last_reported":1740229933,"current_range_meters":15200,"station_id":"ce4bh2p2rcd13ifvqdi0","pricing_plan_id":"cebpf4jnsgd1na2vs0mg"},{"bike_id":"60fee9d5-73c0-43e4-84ca-629643d08618","system_id":"levelo_inurba_marseille","lat":43.29604,"lon":5.37735,"is_reserved":false,"is_disabled":false,"rental_uris":{"android":"levelo://app?vid=60fee9d5-73c0-43e4-84ca-629643d08618","ios":"levelo://app?vid=60fee9d5-73c0-43e4-84ca-629643d08618"},"vehicle_type_id":"4","last_reported":1740229933,"current_range_meters":15200,"station_id":"ce4bgi92rcd13ifvqb90","pricing_plan_id":"cebpf4jnsgd1na2vs0mg"},{"bike_id":"aa2bc768-7edc-4fb5-bf43-d53dd5fac575","system_id":"levelo_inurba_marseille","lat":43.30165,"lon":5.38107,"is_reserved":false,"is_disabled":false,"rental_uris":{"android":"levelo://app?vid=aa2bc768-7edc-4fb5-bf43-d53dd5fac575","ios":"levelo://app?vid=aa2bc768-7edc-4fb5-bf43-d53dd5fac575"},"vehicle_type_id":"4","last_reported":1740229933,"current_range_meters":16000,"station_id":"ce4bgjp2rcd13ifvqbh0","pricing_plan_id":"cebpf4jnsgd1na2vs0mg"},{"bike_id":"ed09d760-d066-4e38-bc85-3b895c50bdb6","system_id":"levelo_inurba_marseille","lat":43.27211,"lon":5.39167,"is_reserved":false,"is_disabled":false,"rental_uris":{"android":"levelo://app?vid=ed09d760-d066-4e38-bc85-3b895c50bdb6","ios":"levelo://app?vid=ed09d760-d066-4e38-bc85-3b895c50bdb6"},"vehicle_type_id":"4","last_reported":1740229933,"current_range_meters":16000,"station_id":"ce4bhhp2rcd13ifvqfm0","pricing_plan_id":"cebpf4jnsgd1na2vs0mg"},{"bike_id":"cf5ce759-b554-42cc-af52-5607a474120d","system_id":"levelo_inurba_marseille","lat":43.31476,"lon":5.37281,"is_reserved":false,"is_disabled":false,"rental_uris":{"android":"levelo://app?vid=cf5ce759-b554-42cc-af52-5607a474120d","ios":"levelo://app?vid=cf5ce759-b554-42cc-af52-5607a474120d"},"vehicle_type_id":"4","last_reported":1740229933,"current_range_meters":16000,"station_id":"ce4bgt12rcd13ifvqcd0","pricing_plan_id":"cebpf4jnsgd1na2vs0mg"},{"bike_id":"3fd2a98c-7939-498c-8625-9658300a849b","system_id":"levelo_inurba_marseille","lat":43.25938,"lon":5.40897,"is_reserved":false,"is_disabled":false,"rental_uris":{"android":"levelo://app?vid=3fd2a98c-7939-498c-8625-9658300a849b","ios":"levelo://app?vid=3fd2a98c-7939-498c-8625-9658300a849b"},"vehicle_type_id":"4","last_reported":1740229933,"current_range_meters":16000,"station_id":"ce4bhm92rcd13ifvqglg","pricing_plan_id":"cebpf4jnsgd1na2vs0mg"},{"bike_id":"893db85a-5a83-4269-9ee6-e9d9e2059e92","system_id":"levelo_inurba_marseille","lat":43.29568,"lon":5.3752,"is_reserved":false,"is_disabled":false,"rental_uris":{"android":"levelo://app?vid=893db85a-5a83-4269-9ee6-e9d9e2059e92","ios":"levelo://app?vid=893db85a-5a83-4269-9ee6-e9d9e2059e92"},"vehicle_type_id":"4","last_reported":1740229933,"current_range_meters":16000,"station_id":"ce4bgh92rcd13ifvqb50","pricing_plan_id":"cebpf4jnsgd1na2vs0mg"},{"bike_id":"ed951166-bf8c-40d6-b333-d54717cc6eaa","system_id":"levelo_inurba_marseille","lat":43.30141,"lon":5.38079,"is_reserved":false,"is_disabled":false,"rental_uris":{"android":"levelo://app?vid=ed951166-bf8c-40d6-b333-d54717cc6eaa","ios":"levelo://app?vid=ed951166-bf8c-40d6-b333-d54717cc6eaa"},"vehicle_type_id":"4","last_reported":1740229933,"current_range_meters":16000,"station_id":"ce4bgjp2rcd13ifvqbh0","pricing_plan_id":"cebpf4jnsgd1na2vs0mg"},{"bike_id":"1157bfa7-9d87-452b-ae24-2e1804c0d157","system_id":"levelo_inurba_marseille","lat":43.28261,"lon":5.3506,"is_reserved":false,"is_disabled":false,"rental_uris":{"android":"levelo://app?vid=1157bfa7-9d87-452b-ae24-2e1804c0d157","ios":"levelo://app?vid=1157bfa7-9d87-452b-ae24-2e1804c0d157"},"vehicle_type_id":"4","last_reported":1740229933,"current_range_meters":16000,"station_id":"ce4bhbp2rcd13ifvqerg","pricing_plan_id":"cebpf4jnsgd1na2vs0mg"},{"bike_id":"91efc2dc-1111-44e4-b79e-3190be8084f8","system_id":"levelo_inurba_marseille","lat":43.29569,"lon":5.37509,"is_reserved":false,"is_disabled":false,"rental_uris":{"android":"levelo://app?vid=91efc2dc-1111-44e4-b79e-3190be8084f8","ios":"levelo://app?vid=91efc2dc-1111-44e4-b79e-3190be8084f8"},"vehicle_type_id":"4","last_reported":1740229933,"current_range_meters":16000,"station_id":"ce4bgh92rcd13ifvqb50","pricing_plan_id":"cebpf4jnsgd1na2vs0mg"},{"bike_id":"8e403f8a-b998-4fb1-bb90-54bf70e024a5","system_id":"levelo_inurba_marseille","lat":43.26935,"lon":5.389166,"is_reserved":false,"is_disabled":false,"rental_uris":{"android":"levelo://app?vid=8e403f8a-b998-4fb1-bb90-54bf70e024a5","ios":"levelo://app?vid=8e403f8a-b998-4fb1-bb90-54bf70e024a5"},"vehicle_type_id":"4","last_reported":1740229933,"current_range_meters":16000,"station_id":"ce4bhhh2rcd13ifvqfl0","pricing_plan_id":"cebpf4jnsgd1na2vs0mg"},{"bike_id":"ad5d970e-426b-4f89-94bd-e7196f45d370","system_id":"levelo_inurba_marseille","lat":43.32116,"lon":5.36779,"is_reserved":false,"is_disabled":false,"rental_uris":{"android":"levelo://app?vid=ad5d970e-426b-4f89-94bd-e7196f45d370","ios":"levelo://app?vid=ad5d970e-426b-4f89-94bd-e7196f45d370"},"vehicle_type_id":"4","last_reported":1740229933,"current_range_meters":16000,"station_id":"ce4bhrh2rcd13ifvqhug","pricing_plan_id":"cebpf4jnsgd1na2vs0mg"},{"bike_id":"0c4e9570-f6bb-4f05-be6e-71ae5f22ee20","system_id":"levelo_inurba_marseille","lat":43.29412,"lon":5.38624,"is_reserved":false,"is_disabled":false,"rental_uris":{"android":"levelo://app?vid=0c4e9570-f6bb-4f05-be6e-71ae5f22ee20","ios":"levelo://app?vid=0c4e9570-f6bb-4f05-be6e-71ae5f22ee20"},"vehicle_type_id":"4","last_reported":1740229933,"current_range_meters":16400,"station_id":"ce4bh2h2rcd13ifvqdh0","pricing_plan_id":"cebpf4jnsgd1na2vs0mg"},{"bike_id":"78fe07a5-d3dd-4632-bf2a-0a9edf1d3fee","system_id":"levelo_inurba_marseille","lat":43.281981,"lon":5.350995,"is_reserved":false,"is_disabled":false,"rental_uris":{"android":"levelo://app?vid=78fe07a5-d3dd-4632-bf2a-0a9edf1d3fee","ios":"levelo://app?vid=78fe07a5-d3dd-4632-bf2a-0a9edf1d3fee"},"vehicle_type_id":"4","last_reported":1740229933,"current_range_meters":16400,"station_id":"ce4bgj92rcd13ifvqbe0","pricing_plan_id":"cebpf4jnsgd1na2vs0mg"},{"bike_id":"4ecc2f43-8b9a-4596-9cf8-a379d7864702","system_id":"levelo_inurba_marseille","lat":43.258661,"lon":5.398949,"is_reserved":false,"is_disabled":false,"rental_uris":{"android":"levelo://app?vid=4ecc2f43-8b9a-4596-9cf8-a379d7864702","ios":"levelo://app?vid=4ecc2f43-8b9a-4596-9cf8-a379d7864702"},"vehicle_type_id":"4","last_reported":1740229933,"current_range_meters":16400,"station_id":"ce4bhl92rcd13ifvqghg","pricing_plan_id":"cebpf4jnsgd1na2vs0mg"},{"bike_id":"02a649cd-5ac9-459e-815b-a5dea0d7cbd3","system_id":"levelo_inurba_marseille","lat":43.23191,"lon":5.35555,"is_reserved":false,"is_disabled":false,"rental_uris":{"android":"levelo://app?vid=02a649cd-5ac9-459e-815b-a5dea0d7cbd3","ios":"levelo://app?vid=02a649cd-5ac9-459e-815b-a5dea0d7cbd3"},"vehicle_type_id":"4","last_reported":1740229933,"current_range_meters":16400,"station_id":"ce4bhu92rcd13ifvqi70","pricing_plan_id":"cebpf4jnsgd1na2vs0mg"},{"bike_id":"0c33f1f1-9de2-4635-88dd-5b3b6f2bb3a3","system_id":"levelo_inurba_marseille","lat":43.30158,"lon":5.38107,"is_reserved":false,"is_disabled":false,"rental_uris":{"android":"levelo://app?vid=0c33f1f1-9de2-4635-88dd-5b3b6f2bb3a3","ios":"levelo://app?vid=0c33f1f1-9de2-4635-88dd-5b3b6f2bb3a3"},"vehicle_type_id":"4","last_reported":1740229933,"current_range_meters":16400,"station_id":"ce4bgjp2rcd13ifvqbh0","pricing_plan_id":"cebpf4jnsgd1na2vs0mg"},{"bike_id":"4262437a-7f00-4b16-8724-a70cfff4e6b1","system_id":"levelo_inurba_marseille","lat":43.29602,"lon":5.37709,"is_reserved":false,"is_disabled":false,"rental_uris":{"android":"levelo://app?vid=4262437a-7f00-4b16-8724-a70cfff4e6b1","ios":"levelo://app?vid=4262437a-7f00-4b16-8724-a70cfff4e6b1"},"vehicle_type_id":"4","last_reported":1740229933,"current_range_meters":16800,"station_id":"ce4bgi92rcd13ifvqb90","pricing_plan_id":"cebpf4jnsgd1na2vs0mg"},{"bike_id":"19d1a5ab-670e-4386-875b-41b8b46ee488","system_id":"levelo_inurba_marseille","lat":43.23969,"lon":5.36639,"is_reserved":false,"is_disabled":false,"rental_uris":{"android":"levelo://app?vid=19d1a5ab-670e-4386-875b-41b8b46ee488","ios":"levelo://app?vid=19d1a5ab-670e-4386-875b-41b8b46ee488"},"vehicle_type_id":"4","last_reported":1740229933,"current_range_meters":16800,"station_id":"ce4bhi12rcd13ifvqfp0","pricing_plan_id":"cebpf4jnsgd1na2vs0mg"},{"bike_id":"299ff637-8f42-4bc6-8403-f99119dc6441","system_id":"levelo_inurba_marseille","lat":43.27367,"lon":5.3626,"is_reserved":false,"is_disabled":false,"rental_uris":{"android":"levelo://app?vid=299ff637-8f42-4bc6-8403-f99119dc6441","ios":"levelo://app?vid=299ff637-8f42-4bc6-8403-f99119dc6441"},"vehicle_type_id":"4","last_reported":1740229933,"current_range_meters":16800,"station_id":"ce4bhbh2rcd13ifvqeo0","pricing_plan_id":"cebpf4jnsgd1na2vs0mg"},{"bike_id":"9cacf6bb-e360-4094-8d62-4c532b715f2e","system_id":"levelo_inurba_marseille","lat":43.28264,"lon":5.35073,"is_reserved":false,"is_disabled":false,"rental_uris":{"android":"levelo://app?vid=9cacf6bb-e360-4094-8d62-4c532b715f2e","ios":"levelo://app?vid=9cacf6bb-e360-4094-8d62-4c532b715f2e"},"vehicle_type_id":"4","last_reported":1740229933,"current_range_meters":14400,"station_id":"ce4bhbp2rcd13ifvqerg","pricing_plan_id":"cebpf4jnsgd1na2vs0mg"},{"bike_id":"fb221c44-5b4d-422c-ad6e-d0f23e7524e9","system_id":"levelo_inurba_marseille","lat":43.29846,"lon":5.36281,"is_reserved":false,"is_disabled":false,"rental_uris":{"android":"levelo://app?vid=fb221c44-5b4d-422c-ad6e-d0f23e7524e9","ios":"levelo://app?vid=fb221c44-5b4d-422c-ad6e-d0f23e7524e9"},"vehicle_type_id":"4","last_reported":1740229933,"current_range_meters":17200,"station_id":"ce4bgpp2rcd13ifvqc3g","pricing_plan_id":"cebpf4jnsgd1na2vs0mg"},{"bike_id":"7d01ed45-064b-418b-a80f-60a44c6d11ba","system_id":"levelo_inurba_marseille","lat":43.23062,"lon":5.35492,"is_reserved":false,"is_disabled":false,"rental_uris":{"android":"levelo://app?vid=7d01ed45-064b-418b-a80f-60a44c6d11ba","ios":"levelo://app?vid=7d01ed45-064b-418b-a80f-60a44c6d11ba"},"vehicle_type_id":"4","last_reported":1740229933,"current_range_meters":17200,"station_id":"cpo3342slgdg3j2ifvpg","pricing_plan_id":"cebpf4jnsgd1na2vs0mg"},{"bike_id":"f368ba6d-57b2-4d5c-bc5c-ada2ec051b6e","system_id":"levelo_inurba_marseille","lat":43.28661,"lon":5.36356,"is_reserved":false,"is_disabled":false,"rental_uris":{"android":"levelo://app?vid=f368ba6d-57b2-4d5c-bc5c-ada2ec051b6e","ios":"levelo://app?vid=f368ba6d-57b2-4d5c-bc5c-ada2ec051b6e"},"vehicle_type_id":"4","last_reported":1740229933,"current_range_meters":17200,"station_id":"ce4bhah2rcd13ifvqej0","pricing_plan_id":"cebpf4jnsgd1na2vs0mg"},{"bike_id":"1da37378-c6dd-44e4-8275-1820924a4487","system_id":"levelo_inurba_marseille","lat":43.27174,"lon":5.40994,"is_reserved":false,"is_disabled":false,"rental_uris":{"android":"levelo://app?vid=1da37378-c6dd-44e4-8275-1820924a4487","ios":"levelo://app?vid=1da37378-c6dd-44e4-8275-1820924a4487"},"vehicle_type_id":"4","last_reported":1740229933,"current_range_meters":17200,"station_id":"ce4bhl12rcd13ifvqgf0","pricing_plan_id":"cebpf4jnsgd1na2vs0mg"},{"bike_id":"33cc0fcb-f6e1-44bc-9328-d3f75a5791c5","system_id":"levelo_inurba_marseille","lat":43.23192,"lon":5.35565,"is_reserved":false,"is_disabled":false,"rental_uris":{"android":"levelo://app?vid=33cc0fcb-f6e1-44bc-9328-d3f75a5791c5","ios":"levelo://app?vid=33cc0fcb-f6e1-44bc-9328-d3f75a5791c5"},"vehicle_type_id":"4","last_reported":1740229933,"current_range_meters":17200,"station_id":"ce4bhu92rcd13ifvqi70","pricing_plan_id":"cebpf4jnsgd1na2vs0mg"},{"bike_id":"b7677faf-e488-4b34-88f0-5ea19fe12a28","system_id":"levelo_inurba_marseille","lat":43.28657,"lon":5.3636,"is_reserved":false,"is_disabled":false,"rental_uris":{"android":"levelo://app?vid=b7677faf-e488-4b34-88f0-5ea19fe12a28","ios":"levelo://app?vid=b7677faf-e488-4b34-88f0-5ea19fe12a28"},"vehicle_type_id":"4","last_reported":1740229933,"current_range_meters":17200,"station_id":"ce4bhah2rcd13ifvqej0","pricing_plan_id":"cebpf4jnsgd1na2vs0mg"},{"bike_id":"02445705-b28e-4bad-a8c7-119716b51b7b","system_id":"levelo_inurba_marseille","lat":43.30328,"lon":5.40428,"is_reserved":false,"is_disabled":false,"rental_uris":{"android":"levelo://app?vid=02445705-b28e-4bad-a8c7-119716b51b7b","ios":"levelo://app?vid=02445705-b28e-4bad-a8c7-119716b51b7b"},"vehicle_type_id":"4","last_reported":1740229933,"current_range_meters":17600,"station_id":"ce4bh012rcd13ifvqd10","pricing_plan_id":"cebpf4jnsgd1na2vs0mg"},{"bike_id":"9ccb67ea-e201-4936-8148-5397b45cf300","system_id":"levelo_inurba_marseille","lat":43.28417,"lon":5.37499,"is_reserved":false,"is_disabled":false,"rental_uris":{"android":"levelo://app?vid=9ccb67ea-e201-4936-8148-5397b45cf300","ios":"levelo://app?vid=9ccb67ea-e201-4936-8148-5397b45cf300"},"vehicle_type_id":"4","last_reported":1740229933,"current_range_meters":17600,"station_id":"ce4bh412rcd13ifvqds0","pricing_plan_id":"cebpf4jnsgd1na2vs0mg"},{"bike_id":"e114ce83-08ec-4256-8ea3-9926c87ba10a","system_id":"levelo_inurba_marseille","lat":43.29965,"lon":5.41326,"is_reserved":false,"is_disabled":false,"rental_uris":{"android":"levelo://app?vid=e114ce83-08ec-4256-8ea3-9926c87ba10a","ios":"levelo://app?vid=e114ce83-08ec-4256-8ea3-9926c87ba10a"},"vehicle_type_id":"4","last_reported":1740229933,"current_range_meters":18000,"station_id":"ce4bhp12rcd13ifvqh9g","pricing_plan_id":"cebpf4jnsgd1na2vs0mg"},{"bike_id":"4caf490d-10e5-4073-8dae-a68a285775aa","system_id":"levelo_inurba_marseille","lat":43.24384,"lon":5.37048,"is_reserved":false,"is_disabled":false,"rental_uris":{"android":"levelo://app?vid=4caf490d-10e5-4073-8dae-a68a285775aa","ios":"levelo://app?vid=4caf490d-10e5-4073-8dae-a68a285775aa"},"vehicle_type_id":"4","last_reported":1740229933,"current_range_meters":18000,"station_id":"ce4bhhh2rcd13ifvqfk0","pricing_plan_id":"cebpf4jnsgd1na2vs0mg"},{"bike_id":"e636832d-d31d-492b-9bcd-b899a106503d","system_id":"levelo_inurba_marseille","lat":43.2417,"lon":5.3639,"is_reserved":false,"is_disabled":false,"rental_uris":{"android":"levelo://app?vid=e636832d-d31d-492b-9bcd-b899a106503d","ios":"levelo://app?vid=e636832d-d31d-492b-9bcd-b899a106503d"},"vehicle_type_id":"4","last_reported":1740229933,"current_range_meters":18000,"station_id":"cpo36qri1sfpv3e86is0","pricing_plan_id":"cebpf4jnsgd1na2vs0mg"},{"bike_id":"7d4b257a-c60d-48e8-85d7-7dc3f985241e","system_id":"levelo_inurba_marseille","lat":43.29629,"lon":5.38562,"is_reserved":false,"is_disabled":false,"rental_uris":{"android":"levelo://app?vid=7d4b257a-c60d-48e8-85d7-7dc3f985241e","ios":"levelo://app?vid=7d4b257a-c60d-48e8-85d7-7dc3f985241e"},"vehicle_type_id":"4","last_reported":1740229933,"current_range_meters":18000,"station_id":"","pricing_plan_id":"cebpf4jnsgd1na2vs0mg"},{"bike_id":"ea53bd35-5c61-4d25-b8c0-b995d5767195","system_id":"levelo_inurba_marseille","lat":43.3043,"lon":5.3974,"is_reserved":false,"is_disabled":false,"rental_uris":{"android":"levelo://app?vid=ea53bd35-5c61-4d25-b8c0-b995d5767195","ios":"levelo://app?vid=ea53bd35-5c61-4d25-b8c0-b995d5767195"},"vehicle_type_id":"4","last_reported":1740229933,"current_range_meters":18000,"station_id":"ce4bh092rcd13ifvqd20","pricing_plan_id":"cebpf4jnsgd1na2vs0mg"},{"bike_id":"2b5bd5b0-9c76-44c4-b7c6-e5a46b44435a","system_id":"levelo_inurba_marseille","lat":43.24395,"lon":5.37056,"is_reserved":false,"is_disabled":false,"rental_uris":{"android":"levelo://app?vid=2b5bd5b0-9c76-44c4-b7c6-e5a46b44435a","ios":"levelo://app?vid=2b5bd5b0-9c76-44c4-b7c6-e5a46b44435a"},"vehicle_type_id":"4","last_reported":1740229933,"current_range_meters":18800,"station_id":"ce4bhhh2rcd13ifvqfk0","pricing_plan_id":"cebpf4jnsgd1na2vs0mg"},{"bike_id":"63a3343c-910e-4904-b1a7-a75ac1dcabd3","system_id":"levelo_inurba_marseille","lat":43.23143,"lon":5.43705,"is_reserved":false,"is_disabled":false,"rental_uris":{"android":"levelo://app?vid=63a3343c-910e-4904-b1a7-a75ac1dcabd3","ios":"levelo://app?vid=63a3343c-910e-4904-b1a7-a75ac1dcabd3"},"vehicle_type_id":"4","last_reported":1740229933,"current_range_meters":18800,"station_id":"ce4bhmp2rcd13ifvqgog","pricing_plan_id":"cebpf4jnsgd1na2vs0mg"},{"bike_id":"e9881abb-8c73-43fb-958c-c9a14669644d","system_id":"levelo_inurba_marseille","lat":43.26923,"lon":5.40275,"is_reserved":false,"is_disabled":false,"rental_uris":{"android":"levelo://app?vid=e9881abb-8c73-43fb-958c-c9a14669644d","ios":"levelo://app?vid=e9881abb-8c73-43fb-958c-c9a14669644d"},"vehicle_type_id":"4","last_reported":1740229933,"current_range_meters":18800,"station_id":"cjm6bp8fraef2m0cb0m0","pricing_plan_id":"cebpf4jnsgd1na2vs0mg"},{"bike_id":"c4a3f5dd-b8d8-4d73-8a8f-ea8b0e26e290","system_id":"levelo_inurba_marseille","lat":43.29976,"lon":5.41317,"is_reserved":false,"is_disabled":false,"rental_uris":{"android":"levelo://app?vid=c4a3f5dd-b8d8-4d73-8a8f-ea8b0e26e290","ios":"levelo://app?vid=c4a3f5dd-b8d8-4d73-8a8f-ea8b0e26e290"},"vehicle_type_id":"4","last_reported":1740229933,"current_range_meters":18800,"station_id":"ce4bhp12rcd13ifvqh9g","pricing_plan_id":"cebpf4jnsgd1na2vs0mg"},{"bike_id":"1720b3f4-1795-4773-8c89-8c50ac5a7ef5","system_id":"levelo_inurba_marseille","lat":43.3028,"lon":5.36699,"is_reserved":false,"is_disabled":false,"rental_uris":{"android":"levelo://app?vid=1720b3f4-1795-4773-8c89-8c50ac5a7ef5","ios":"levelo://app?vid=1720b3f4-1795-4773-8c89-8c50ac5a7ef5"},"vehicle_type_id":"4","last_reported":1740229933,"current_range_meters":18800,"station_id":"","pricing_plan_id":"cebpf4jnsgd1na2vs0mg"},{"bike_id":"87f2b594-5f67-45d7-ac61-d8925d3709fd","system_id":"levelo_inurba_marseille","lat":43.28597,"lon":5.37059,"is_reserved":false,"is_disabled":false,"rental_uris":{"android":"levelo://app?vid=87f2b594-5f67-45d7-ac61-d8925d3709fd","ios":"levelo://app?vid=87f2b594-5f67-45d7-ac61-d8925d3709fd"},"vehicle_type_id":"4","last_reported":1740229933,"current_range_meters":18800,"station_id":"ce4bht12rcd13ifvqi60","pricing_plan_id":"cebpf4jnsgd1na2vs0mg"},{"bike_id":"88e9cee7-3b24-4939-93d9-f04a89aca274","system_id":"levelo_inurba_marseille","lat":43.30643,"lon":5.40068,"is_reserved":false,"is_disabled":false,"rental_uris":{"android":"levelo://app?vid=88e9cee7-3b24-4939-93d9-f04a89aca274","ios":"levelo://app?vid=88e9cee7-3b24-4939-93d9-f04a89aca274"},"vehicle_type_id":"4","last_reported":1740229933,"current_range_meters":18800,"station_id":"ce4bh112rcd13ifvqda0","pricing_plan_id":"cebpf4jnsgd1na2vs0mg"},{"bike_id":"5f96a413-92d9-4a6e-94e7-5d88ded7c66c","system_id":"levelo_inurba_marseille","lat":43.26561,"lon":5.39006,"is_reserved":false,"is_disabled":false,"rental_uris":{"android":"levelo://app?vid=5f96a413-92d9-4a6e-94e7-5d88ded7c66c","ios":"levelo://app?vid=5f96a413-92d9-4a6e-94e7-5d88ded7c66c"},"vehicle_type_id":"4","last_reported":1740229933,"current_range_meters":18800,"station_id":"ce4bhe12rcd13ifvqf30","pricing_plan_id":"cebpf4jnsgd1na2vs0mg"},{"bike_id":"d98cbd04-61b0-4e8f-ba84-baafcf13ab86","system_id":"levelo_inurba_marseille","lat":43.25492,"lon":5.37647,"is_reserved":false,"is_disabled":false,"rental_uris":{"android":"levelo://app?vid=d98cbd04-61b0-4e8f-ba84-baafcf13ab86","ios":"levelo://app?vid=d98cbd04-61b0-4e8f-ba84-baafcf13ab86"},"vehicle_type_id":"4","last_reported":1740229933,"current_range_meters":18800,"station_id":"ce4bhh12rcd13ifvqff0","pricing_plan_id":"cebpf4jnsgd1na2vs0mg"},{"bike_id":"80e30e07-59ff-4807-b06b-c6dc1a9e08e2","system_id":"levelo_inurba_marseille","lat":43.33627,"lon":5.41008,"is_reserved":false,"is_disabled":true,"rental_uris":{"android":"levelo://app?vid=80e30e07-59ff-4807-b06b-c6dc1a9e08e2","ios":"levelo://app?vid=80e30e07-59ff-4807-b06b-c6dc1a9e08e2"},"vehicle_type_id":"4","last_reported":1740229933,"current_range_meters":19200,"station_id":"ce4bhqh2rcd13ifvqhmg","pricing_plan_id":"cebpf4jnsgd1na2vs0mg"},{"bike_id":"cc1b7999-9998-4db2-a493-e32f10d38773","system_id":"levelo_inurba_marseille","lat":43.3064,"lon":5.40093,"is_reserved":false,"is_disabled":false,"rental_uris":{"android":"levelo://app?vid=cc1b7999-9998-4db2-a493-e32f10d38773","ios":"levelo://app?vid=cc1b7999-9998-4db2-a493-e32f10d38773"},"vehicle_type_id":"4","last_reported":1740229933,"current_range_meters":19200,"station_id":"ce4bh112rcd13ifvqda0","pricing_plan_id":"cebpf4jnsgd1na2vs0mg"},{"bike_id":"662c73fa-1cf8-42de-a60a-b465c2c3adb6","system_id":"levelo_inurba_marseille","lat":43.272078,"lon":5.391662,"is_reserved":false,"is_disabled":false,"rental_uris":{"android":"levelo://app?vid=662c73fa-1cf8-42de-a60a-b465c2c3adb6","ios":"levelo://app?vid=662c73fa-1cf8-42de-a60a-b465c2c3adb6"},"vehicle_type_id":"4","last_reported":1740229933,"current_range_meters":19200,"station_id":"ce4bhhp2rcd13ifvqfm0","pricing_plan_id":"cebpf4jnsgd1na2vs0mg"},{"bike_id":"1d66fbd7-7f71-4b62-88d7-ea910dcd2fac","system_id":"levelo_inurba_marseille","lat":43.23059,"lon":5.35488,"is_reserved":false,"is_disabled":false,"rental_uris":{"android":"levelo://app?vid=1d66fbd7-7f71-4b62-88d7-ea910dcd2fac","ios":"levelo://app?vid=1d66fbd7-7f71-4b62-88d7-ea910dcd2fac"},"vehicle_type_id":"4","last_reported":1740229933,"current_range_meters":19200,"station_id":"cpo3342slgdg3j2ifvpg","pricing_plan_id":"cebpf4jnsgd1na2vs0mg"},{"bike_id":"47c58b1f-0f04-4a95-ba73-4d794abee5f2","system_id":"levelo_inurba_marseille","lat":43.30432,"lon":5.3889,"is_reserved":false,"is_disabled":true,"rental_uris":{"android":"levelo://app?vid=47c58b1f-0f04-4a95-ba73-4d794abee5f2","ios":"levelo://app?vid=47c58b1f-0f04-4a95-ba73-4d794abee5f2"},"vehicle_type_id":"4","last_reported":1740229933,"current_range_meters":19600,"station_id":"ce4bgk12rcd13ifvqbi0","pricing_plan_id":"cebpf4jnsgd1na2vs0mg"},{"bike_id":"abd86540-d237-46dd-b4da-11f1eb29b529","system_id":"levelo_inurba_marseille","lat":43.30167,"lon":5.38069,"is_reserved":false,"is_disabled":false,"rental_uris":{"android":"levelo://app?vid=abd86540-d237-46dd-b4da-11f1eb29b529","ios":"levelo://app?vid=abd86540-d237-46dd-b4da-11f1eb29b529"},"vehicle_type_id":"4","last_reported":1740229933,"current_range_meters":19600,"station_id":"ce4bgjp2rcd13ifvqbh0","pricing_plan_id":"cebpf4jnsgd1na2vs0mg"},{"bike_id":"0c8ca389-b168-42bc-a11d-c1d0ac96f8d7","system_id":"levelo_inurba_marseille","lat":43.29527,"lon":5.38543,"is_reserved":false,"is_disabled":false,"rental_uris":{"android":"levelo://app?vid=0c8ca389-b168-42bc-a11d-c1d0ac96f8d7","ios":"levelo://app?vid=0c8ca389-b168-42bc-a11d-c1d0ac96f8d7"},"vehicle_type_id":"4","last_reported":1740229933,"current_range_meters":19600,"station_id":"ce4bgih2rcd13ifvqba0","pricing_plan_id":"cebpf4jnsgd1na2vs0mg"},{"bike_id":"bbdb232f-3fe7-4d9d-a015-ad4368e0fbb7","system_id":"levelo_inurba_marseille","lat":43.30537,"lon":5.36546,"is_reserved":false,"is_disabled":false,"rental_uris":{"android":"levelo://app?vid=bbdb232f-3fe7-4d9d-a015-ad4368e0fbb7","ios":"levelo://app?vid=bbdb232f-3fe7-4d9d-a015-ad4368e0fbb7"},"vehicle_type_id":"4","last_reported":1740229933,"current_range_meters":19600,"station_id":"ce4bgs12rcd13ifvqcag","pricing_plan_id":"cebpf4jnsgd1na2vs0mg"},{"bike_id":"de81591b-6e66-45cd-ac7e-e72f16bc7a0f","system_id":"levelo_inurba_marseille","lat":43.29611,"lon":5.37721,"is_reserved":false,"is_disabled":false,"rental_uris":{"android":"levelo://app?vid=de81591b-6e66-45cd-ac7e-e72f16bc7a0f","ios":"levelo://app?vid=de81591b-6e66-45cd-ac7e-e72f16bc7a0f"},"vehicle_type_id":"4","last_reported":1740229933,"current_range_meters":19600,"station_id":"ce4bgi92rcd13ifvqb90","pricing_plan_id":"cebpf4jnsgd1na2vs0mg"},{"bike_id":"4e1ba07c-5962-4a37-9273-de51affd8e0d","system_id":"levelo_inurba_marseille","lat":43.29263,"lon":5.3844,"is_reserved":false,"is_disabled":false,"rental_uris":{"android":"levelo://app?vid=4e1ba07c-5962-4a37-9273-de51affd8e0d","ios":"levelo://app?vid=4e1ba07c-5962-4a37-9273-de51affd8e0d"},"vehicle_type_id":"4","last_reported":1740229933,"current_range_meters":19600,"station_id":"ce4bh692rcd13ifvqea0","pricing_plan_id":"cebpf4jnsgd1na2vs0mg"},{"bike_id":"fe589375-3cf7-41ec-8799-fad97e2946be","system_id":"levelo_inurba_marseille","lat":43.30927,"lon":5.40147,"is_reserved":false,"is_disabled":false,"rental_uris":{"android":"levelo://app?vid=fe589375-3cf7-41ec-8799-fad97e2946be","ios":"levelo://app?vid=fe589375-3cf7-41ec-8799-fad97e2946be"},"vehicle_type_id":"4","last_reported":1740229933,"current_range_meters":19600,"station_id":"ce4bgvp2rcd13ifvqct0","pricing_plan_id":"cebpf4jnsgd1na2vs0mg"},{"bike_id":"8b6a98b1-b494-4060-b000-20a7e9c0b8cf","system_id":"levelo_inurba_marseille","lat":43.22937,"lon":5.35358,"is_reserved":false,"is_disabled":false,"rental_uris":{"android":"levelo://app?vid=8b6a98b1-b494-4060-b000-20a7e9c0b8cf","ios":"levelo://app?vid=8b6a98b1-b494-4060-b000-20a7e9c0b8cf"},"vehicle_type_id":"4","last_reported":1740229933,"current_range_meters":19600,"station_id":"cpo3532slgdg3j2ikp40","pricing_plan_id":"cebpf4jnsgd1na2vs0mg"},{"bike_id":"0346110d-694d-42b6-b62e-3b63b864fa0d","system_id":"levelo_inurba_marseille","lat":43.30164,"lon":5.38079,"is_reserved":false,"is_disabled":false,"rental_uris":{"android":"levelo://app?vid=0346110d-694d-42b6-b62e-3b63b864fa0d","ios":"levelo://app?vid=0346110d-694d-42b6-b62e-3b63b864fa0d"},"vehicle_type_id":"4","last_reported":1740229933,"current_range_meters":19600,"station_id":"ce4bgjp2rcd13ifvqbh0","pricing_plan_id":"cebpf4jnsgd1na2vs0mg"},{"bike_id":"9faf844a-413f-419f-bdea-64830f7f2bfb","system_id":"levelo_inurba_marseille","lat":43.2994,"lon":5.37914,"is_reserved":false,"is_disabled":false,"rental_uris":{"android":"levelo://app?vid=9faf844a-413f-419f-bdea-64830f7f2bfb","ios":"levelo://app?vid=9faf844a-413f-419f-bdea-64830f7f2bfb"},"vehicle_type_id":"4","last_reported":1740229933,"current_range_meters":19600,"station_id":"","pricing_plan_id":"cebpf4jnsgd1na2vs0mg"},{"bike_id":"22c1b8fb-0767-4728-a9da-209ededc4d74","system_id":"levelo_inurba_marseille","lat":43.28154,"lon":5.42643,"is_reserved":false,"is_disabled":false,"rental_uris":{"android":"levelo://app?vid=22c1b8fb-0767-4728-a9da-209ededc4d74","ios":"levelo://app?vid=22c1b8fb-0767-4728-a9da-209ededc4d74"},"vehicle_type_id":"4","last_reported":1740229933,"current_range_meters":19600,"station_id":"ce4bhnh2rcd13ifvqgug","pricing_plan_id":"cebpf4jnsgd1na2vs0mg"},{"bike_id":"32fa3d90-5c3b-41f1-9e6d-619f7704d141","system_id":"levelo_inurba_marseille","lat":43.30637,"lon":5.4008,"is_reserved":false,"is_disabled":false,"rental_uris":{"android":"levelo://app?vid=32fa3d90-5c3b-41f1-9e6d-619f7704d141","ios":"levelo://app?vid=32fa3d90-5c3b-41f1-9e6d-619f7704d141"},"vehicle_type_id":"4","last_reported":1740229933,"current_range_meters":19600,"station_id":"ce4bh112rcd13ifvqda0","pricing_plan_id":"cebpf4jnsgd1na2vs0mg"},{"bike_id":"9dea2a42-ec5c-4692-a247-464afb8a4732","system_id":"levelo_inurba_marseille","lat":43.2954,"lon":5.38552,"is_reserved":false,"is_disabled":false,"rental_uris":{"android":"levelo://app?vid=9dea2a42-ec5c-4692-a247-464afb8a4732","ios":"levelo://app?vid=9dea2a42-ec5c-4692-a247-464afb8a4732"},"vehicle_type_id":"4","last_reported":1740229933,"current_range_meters":19600,"station_id":"ce4bgih2rcd13ifvqba0","pricing_plan_id":"cebpf4jnsgd1na2vs0mg"},{"bike_id":"7edad6f1-bb02-4747-8467-5494540e990b","system_id":"levelo_inurba_marseille","lat":43.25005,"lon":5.38914,"is_reserved":false,"is_disabled":false,"rental_uris":{"android":"levelo://app?vid=7edad6f1-bb02-4747-8467-5494540e990b","ios":"levelo://app?vid=7edad6f1-bb02-4747-8467-5494540e990b"},"vehicle_type_id":"4","last_reported":1740229933,"current_range_meters":19600,"station_id":"ce4bhgp2rcd13ifvqfd0","pricing_plan_id":"cebpf4jnsgd1na2vs0mg"},{"bike_id":"4a0c889e-f497-4640-a461-190dc6de655f","system_id":"levelo_inurba_marseille","lat":43.27567,"lon":5.38427,"is_reserved":false,"is_disabled":false,"rental_uris":{"android":"levelo://app?vid=4a0c889e-f497-4640-a461-190dc6de655f","ios":"levelo://app?vid=4a0c889e-f497-4640-a461-190dc6de655f"},"vehicle_type_id":"4","last_reported":1740229933,"current_range_meters":19600,"station_id":"ce4bhh92rcd13ifvqfi0","pricing_plan_id":"cebpf4jnsgd1na2vs0mg"},{"bike_id":"da7498fd-42c6-4441-9120-29e31c52e816","system_id":"levelo_inurba_marseille","lat":43.30953,"lon":5.39027,"is_reserved":false,"is_disabled":false,"rental_uris":{"android":"levelo://app?vid=da7498fd-42c6-4441-9120-29e31c52e816","ios":"levelo://app?vid=da7498fd-42c6-4441-9120-29e31c52e816"},"vehicle_type_id":"4","last_reported":1740229933,"current_range_meters":19600,"station_id":"ce4bgup2rcd13ifvqco0","pricing_plan_id":"cebpf4jnsgd1na2vs0mg"},{"bike_id":"a0c4f69f-70ef-42bd-b80b-a7978c40e5c8","system_id":"levelo_inurba_marseille","lat":43.23064,"lon":5.35489,"is_reserved":false,"is_disabled":false,"rental_uris":{"android":"levelo://app?vid=a0c4f69f-70ef-42bd-b80b-a7978c40e5c8","ios":"levelo://app?vid=a0c4f69f-70ef-42bd-b80b-a7978c40e5c8"},"vehicle_type_id":"4","last_reported":1740229933,"current_range_meters":19600,"station_id":"cpo3342slgdg3j2ifvpg","pricing_plan_id":"cebpf4jnsgd1na2vs0mg"},{"bike_id":"8814187a-467f-4d17-9736-fc6d62a15fc6","system_id":"levelo_inurba_marseille","lat":43.29186,"lon":5.39304,"is_reserved":false,"is_disabled":false,"rental_uris":{"android":"levelo://app?vid=8814187a-467f-4d17-9736-fc6d62a15fc6","ios":"levelo://app?vid=8814187a-467f-4d17-9736-fc6d62a15fc6"},"vehicle_type_id":"4","last_reported":1740229933,"current_range_meters":20000,"station_id":"ce4bh192rcd13ifvqdd0","pricing_plan_id":"cebpf4jnsgd1na2vs0mg"},{"bike_id":"0f40208a-8450-4edd-8c30-fc698c9dd8e1","system_id":"levelo_inurba_marseille","lat":43.29584,"lon":5.38101,"is_reserved":false,"is_disabled":true,"rental_uris":{"android":"levelo://app?vid=0f40208a-8450-4edd-8c30-fc698c9dd8e1","ios":"levelo://app?vid=0f40208a-8450-4edd-8c30-fc698c9dd8e1"},"vehicle_type_id":"4","last_reported":1740229933,"current_range_meters":20000,"station_id":"ce4bgl12rcd13ifvqbo0","pricing_plan_id":"cebpf4jnsgd1na2vs0mg"},{"bike_id":"e672cd00-72b0-400a-8535-9ab04e4611c6","system_id":"levelo_inurba_marseille","lat":43.24388,"lon":5.37058,"is_reserved":false,"is_disabled":false,"rental_uris":{"android":"levelo://app?vid=e672cd00-72b0-400a-8535-9ab04e4611c6","ios":"levelo://app?vid=e672cd00-72b0-400a-8535-9ab04e4611c6"},"vehicle_type_id":"4","last_reported":1740229933,"current_range_meters":20000,"station_id":"ce4bhhh2rcd13ifvqfk0","pricing_plan_id":"cebpf4jnsgd1na2vs0mg"},{"bike_id":"c1448b16-d4a2-42d0-b06a-1e3589551b20","system_id":"levelo_inurba_marseille","lat":43.29029,"lon":5.38646,"is_reserved":false,"is_disabled":false,"rental_uris":{"android":"levelo://app?vid=c1448b16-d4a2-42d0-b06a-1e3589551b20","ios":"levelo://app?vid=c1448b16-d4a2-42d0-b06a-1e3589551b20"},"vehicle_type_id":"4","last_reported":1740229933,"current_range_meters":20000,"station_id":"ce4bh4p2rcd13ifvqe0g","pricing_plan_id":"cebpf4jnsgd1na2vs0mg"},{"bike_id":"4983e26b-86f1-41a7-89f0-af14c12f469e","system_id":"levelo_inurba_marseille","lat":43.23967,"lon":5.36631,"is_reserved":false,"is_disabled":false,"rental_uris":{"android":"levelo://app?vid=4983e26b-86f1-41a7-89f0-af14c12f469e","ios":"levelo://app?vid=4983e26b-86f1-41a7-89f0-af14c12f469e"},"vehicle_type_id":"4","last_reported":1740229933,"current_range_meters":20000,"station_id":"ce4bhi12rcd13ifvqfp0","pricing_plan_id":"cebpf4jnsgd1na2vs0mg"},{"bike_id":"0ae32f3b-a97c-4018-be38-2c0cc2e3bcf6","system_id":"levelo_inurba_marseille","lat":43.308895,"lon":5.371909,"is_reserved":false,"is_disabled":false,"rental_uris":{"android":"levelo://app?vid=0ae32f3b-a97c-4018-be38-2c0cc2e3bcf6","ios":"levelo://app?vid=0ae32f3b-a97c-4018-be38-2c0cc2e3bcf6"},"vehicle_type_id":"4","last_reported":1740229933,"current_range_meters":20000,"station_id":"ce4bguh2rcd13ifvqckg","pricing_plan_id":"cebpf4jnsgd1na2vs0mg"},{"bike_id":"96db459e-6b1d-49e0-a6b2-6087c2f32855","system_id":"levelo_inurba_marseille","lat":43.30154,"lon":5.38076,"is_reserved":false,"is_disabled":false,"rental_uris":{"android":"levelo://app?vid=96db459e-6b1d-49e0-a6b2-6087c2f32855","ios":"levelo://app?vid=96db459e-6b1d-49e0-a6b2-6087c2f32855"},"vehicle_type_id":"4","last_reported":1740229933,"current_range_meters":20400,"station_id":"ce4bgjp2rcd13ifvqbh0","pricing_plan_id":"cebpf4jnsgd1na2vs0mg"},{"bike_id":"f8c577bc-1b89-44a8-821a-f306cb8c1512","system_id":"levelo_inurba_marseille","lat":43.28485,"lon":5.38557,"is_reserved":false,"is_disabled":false,"rental_uris":{"android":"levelo://app?vid=f8c577bc-1b89-44a8-821a-f306cb8c1512","ios":"levelo://app?vid=f8c577bc-1b89-44a8-821a-f306cb8c1512"},"vehicle_type_id":"4","last_reported":1740229933,"current_range_meters":20400,"station_id":"ce4bh8p2rcd13ifvqeb0","pricing_plan_id":"cebpf4jnsgd1na2vs0mg"},{"bike_id":"6d6a30a8-2614-4fb4-aeda-2b697d6d1406","system_id":"levelo_inurba_marseille","lat":43.23143,"lon":5.43709,"is_reserved":false,"is_disabled":false,"rental_uris":{"android":"levelo://app?vid=6d6a30a8-2614-4fb4-aeda-2b697d6d1406","ios":"levelo://app?vid=6d6a30a8-2614-4fb4-aeda-2b697d6d1406"},"vehicle_type_id":"4","last_reported":1740229933,"current_range_meters":20400,"station_id":"ce4bhmp2rcd13ifvqgog","pricing_plan_id":"cebpf4jnsgd1na2vs0mg"},{"bike_id":"48a25272-842c-4e4f-b72a-72e6d311f530","system_id":"levelo_inurba_marseille","lat":43.23161,"lon":5.43696,"is_reserved":false,"is_disabled":false,"rental_uris":{"android":"levelo://app?vid=48a25272-842c-4e4f-b72a-72e6d311f530","ios":"levelo://app?vid=48a25272-842c-4e4f-b72a-72e6d311f530"},"vehicle_type_id":"4","last_reported":1740229933,"current_range_meters":20400,"station_id":"ce4bhmp2rcd13ifvqgog","pricing_plan_id":"cebpf4jnsgd1na2vs0mg"},{"bike_id":"7f6a49ad-1e87-43e4-8833-09174604d668","system_id":"levelo_inurba_marseille","lat":43.27066,"lon":5.42269,"is_reserved":false,"is_disabled":false,"rental_uris":{"android":"levelo://app?vid=7f6a49ad-1e87-43e4-8833-09174604d668","ios":"levelo://app?vid=7f6a49ad-1e87-43e4-8833-09174604d668"},"vehicle_type_id":"4","last_reported":1740229933,"current_range_meters":20400,"station_id":"ce4bhk92rcd13ifvqgb0","pricing_plan_id":"cebpf4jnsgd1na2vs0mg"},{"bike_id":"5e2bf6ba-aebc-4cb7-87e1-c8de6d900a74","system_id":"levelo_inurba_marseille","lat":43.2749,"lon":5.42455,"is_reserved":false,"is_disabled":false,"rental_uris":{"android":"levelo://app?vid=5e2bf6ba-aebc-4cb7-87e1-c8de6d900a74","ios":"levelo://app?vid=5e2bf6ba-aebc-4cb7-87e1-c8de6d900a74"},"vehicle_type_id":"4","last_reported":1740229933,"current_range_meters":20400,"station_id":"ce4bhn92rcd13ifvqgrg","pricing_plan_id":"cebpf4jnsgd1na2vs0mg"},{"bike_id":"8a8152df-e4f3-4027-9f47-6deb7c85f05c","system_id":"levelo_inurba_marseille","lat":43.29705,"lon":5.377,"is_reserved":false,"is_disabled":false,"rental_uris":{"android":"levelo://app?vid=8a8152df-e4f3-4027-9f47-6deb7c85f05c","ios":"levelo://app?vid=8a8152df-e4f3-4027-9f47-6deb7c85f05c"},"vehicle_type_id":"4","last_reported":1740229933,"current_range_meters":20400,"station_id":"ce4bgkh2rcd13ifvqbl0","pricing_plan_id":"cebpf4jnsgd1na2vs0mg"},{"bike_id":"4d1abb98-f4a9-49cc-b1b0-aace543e06c0","system_id":"levelo_inurba_marseille","lat":43.24678,"lon":5.38889,"is_reserved":false,"is_disabled":false,"rental_uris":{"android":"levelo://app?vid=4d1abb98-f4a9-49cc-b1b0-aace543e06c0","ios":"levelo://app?vid=4d1abb98-f4a9-49cc-b1b0-aace543e06c0"},"vehicle_type_id":"4","last_reported":1740229933,"current_range_meters":20400,"station_id":"ce4bhg12rcd13ifvqf60","pricing_plan_id":"cebpf4jnsgd1na2vs0mg"},{"bike_id":"0c1b53ab-3072-400a-8ae0-6b6cf23e96c7","system_id":"levelo_inurba_marseille","lat":43.27368,"lon":5.36262,"is_reserved":false,"is_disabled":false,"rental_uris":{"android":"levelo://app?vid=0c1b53ab-3072-400a-8ae0-6b6cf23e96c7","ios":"levelo://app?vid=0c1b53ab-3072-400a-8ae0-6b6cf23e96c7"},"vehicle_type_id":"4","last_reported":1740229933,"current_range_meters":20400,"station_id":"ce4bhbh2rcd13ifvqeo0","pricing_plan_id":"cebpf4jnsgd1na2vs0mg"},{"bike_id":"127a22bf-07c9-4aa0-9afd-e09bcafeaa9b","system_id":"levelo_inurba_marseille","lat":43.28345,"lon":5.38105,"is_reserved":false,"is_disabled":false,"rental_uris":{"android":"levelo://app?vid=127a22bf-07c9-4aa0-9afd-e09bcafeaa9b","ios":"levelo://app?vid=127a22bf-07c9-4aa0-9afd-e09bcafeaa9b"},"vehicle_type_id":"4","last_reported":1740229933,"current_range_meters":20400,"station_id":"ce4bh412rcd13ifvqdr0","pricing_plan_id":"cebpf4jnsgd1na2vs0mg"},{"bike_id":"59c12208-8115-4139-9856-170426cb0f95","system_id":"levelo_inurba_marseille","lat":43.23187,"lon":5.35542,"is_reserved":false,"is_disabled":false,"rental_uris":{"android":"levelo://app?vid=59c12208-8115-4139-9856-170426cb0f95","ios":"levelo://app?vid=59c12208-8115-4139-9856-170426cb0f95"},"vehicle_type_id":"4","last_reported":1740229933,"current_range_meters":20800,"station_id":"ce4bhu92rcd13ifvqi70","pricing_plan_id":"cebpf4jnsgd1na2vs0mg"},{"bike_id":"eb3ddca7-4512-4288-b444-07970d06cb92","system_id":"levelo_inurba_marseille","lat":43.28151,"lon":5.42636,"is_reserved":false,"is_disabled":false,"rental_uris":{"android":"levelo://app?vid=eb3ddca7-4512-4288-b444-07970d06cb92","ios":"levelo://app?vid=eb3ddca7-4512-4288-b444-07970d06cb92"},"vehicle_type_id":"4","last_reported":1740229933,"current_range_meters":20800,"station_id":"ce4bhnh2rcd13ifvqgug","pricing_plan_id":"cebpf4jnsgd1na2vs0mg"},{"bike_id":"a70694c5-1e52-413b-b2aa-7ab24f5ce06a","system_id":"levelo_inurba_marseille","lat":43.23197,"lon":5.35555,"is_reserved":false,"is_disabled":false,"rental_uris":{"android":"levelo://app?vid=a70694c5-1e52-413b-b2aa-7ab24f5ce06a","ios":"levelo://app?vid=a70694c5-1e52-413b-b2aa-7ab24f5ce06a"},"vehicle_type_id":"4","last_reported":1740229933,"current_range_meters":20800,"station_id":"ce4bhu92rcd13ifvqi70","pricing_plan_id":"cebpf4jnsgd1na2vs0mg"},{"bike_id":"2377a1c2-937f-4e6d-8d47-a2b7a46ecba4","system_id":"levelo_inurba_marseille","lat":43.24392,"lon":5.3706,"is_reserved":false,"is_disabled":false,"rental_uris":{"android":"levelo://app?vid=2377a1c2-937f-4e6d-8d47-a2b7a46ecba4","ios":"levelo://app?vid=2377a1c2-937f-4e6d-8d47-a2b7a46ecba4"},"vehicle_type_id":"4","last_reported":1740229933,"current_range_meters":20800,"station_id":"ce4bhhh2rcd13ifvqfk0","pricing_plan_id":"cebpf4jnsgd1na2vs0mg"},{"bike_id":"764ffdb1-63aa-40d3-a326-62aa0e4f28e6","system_id":"levelo_inurba_marseille","lat":43.28277,"lon":5.35078,"is_reserved":false,"is_disabled":false,"rental_uris":{"android":"levelo://app?vid=764ffdb1-63aa-40d3-a326-62aa0e4f28e6","ios":"levelo://app?vid=764ffdb1-63aa-40d3-a326-62aa0e4f28e6"},"vehicle_type_id":"4","last_reported":1740229933,"current_range_meters":21600,"station_id":"ce4bhbp2rcd13ifvqerg","pricing_plan_id":"cebpf4jnsgd1na2vs0mg"},{"bike_id":"080ed472-59de-49d7-8153-60fe48e3331b","system_id":"levelo_inurba_marseille","lat":43.29225,"lon":5.36065,"is_reserved":false,"is_disabled":false,"rental_uris":{"android":"levelo://app?vid=080ed472-59de-49d7-8153-60fe48e3331b","ios":"levelo://app?vid=080ed472-59de-49d7-8153-60fe48e3331b"},"vehicle_type_id":"4","last_reported":1740229933,"current_range_meters":21600,"station_id":"ce4bhbh2rcd13ifvqeqg","pricing_plan_id":"cebpf4jnsgd1na2vs0mg"},{"bike_id":"ddbffa5c-70fe-423a-a060-5527c91fe7c7","system_id":"levelo_inurba_marseille","lat":43.29871,"lon":5.39732,"is_reserved":false,"is_disabled":false,"rental_uris":{"android":"levelo://app?vid=ddbffa5c-70fe-423a-a060-5527c91fe7c7","ios":"levelo://app?vid=ddbffa5c-70fe-423a-a060-5527c91fe7c7"},"vehicle_type_id":"4","last_reported":1740229933,"current_range_meters":21600,"station_id":"ce4bh0h2rcd13ifvqd50","pricing_plan_id":"cebpf4jnsgd1na2vs0mg"},{"bike_id":"0ab8f8c4-7aa8-4128-a2cd-ff233900785f","system_id":"levelo_inurba_marseille","lat":43.30549,"lon":5.37155,"is_reserved":false,"is_disabled":false,"rental_uris":{"android":"levelo://app?vid=0ab8f8c4-7aa8-4128-a2cd-ff233900785f","ios":"levelo://app?vid=0ab8f8c4-7aa8-4128-a2cd-ff233900785f"},"vehicle_type_id":"4","last_reported":1740229933,"current_range_meters":21600,"station_id":"ce4bgqh2rcd13ifvqc4g","pricing_plan_id":"cebpf4jnsgd1na2vs0mg"},{"bike_id":"878eeab7-85f8-4b35-af45-e333465941cd","system_id":"levelo_inurba_marseille","lat":43.27235,"lon":5.39151,"is_reserved":false,"is_disabled":false,"rental_uris":{"android":"levelo://app?vid=878eeab7-85f8-4b35-af45-e333465941cd","ios":"levelo://app?vid=878eeab7-85f8-4b35-af45-e333465941cd"},"vehicle_type_id":"4","last_reported":1740229933,"current_range_meters":21600,"station_id":"ce4bhhp2rcd13ifvqfm0","pricing_plan_id":"cebpf4jnsgd1na2vs0mg"},{"bike_id":"af96b03d-0d49-4935-9dec-3825e6f44ffa","system_id":"levelo_inurba_marseille","lat":43.30638,"lon":5.40092,"is_reserved":false,"is_disabled":false,"rental_uris":{"android":"levelo://app?vid=af96b03d-0d49-4935-9dec-3825e6f44ffa","ios":"levelo://app?vid=af96b03d-0d49-4935-9dec-3825e6f44ffa"},"vehicle_type_id":"4","last_reported":1740229933,"current_range_meters":21600,"station_id":"ce4bh112rcd13ifvqda0","pricing_plan_id":"cebpf4jnsgd1na2vs0mg"},{"bike_id":"27d812ca-258f-4023-8e7a-e287d89d3d63","system_id":"levelo_inurba_marseille","lat":43.27371,"lon":5.36256,"is_reserved":false,"is_disabled":false,"rental_uris":{"android":"levelo://app?vid=27d812ca-258f-4023-8e7a-e287d89d3d63","ios":"levelo://app?vid=27d812ca-258f-4023-8e7a-e287d89d3d63"},"vehicle_type_id":"4","last_reported":1740229933,"current_range_meters":21600,"station_id":"ce4bhbh2rcd13ifvqeo0","pricing_plan_id":"cebpf4jnsgd1na2vs0mg"},