{"last_updated":1747649517,"ttl":60,"version":"2.2","data":{"bikes":[{"bike_id":"b5d695ca-16b4-4304-9c14-fd06e1bddef9","system_id":"levelo_inurba_marseille","lat":43.27205,"lon":5.39186,"is_reserved":false,"is_disabled":false,"rental_uris":{"android":"levelo://app?vid=b5d695ca-16b4-4304-9c14-fd06e1bddef9","ios":"levelo://app?vid=b5d695ca-16b4-4304-9c14-fd06e1bddef9"},"vehicle_type_id":"4","last_reported":1747649517,"current_range_meters":2800,"station_id":"ce4bhhp2rcd13ifvqfm0","pricing_plan_id":"cebpf4jnsgd1na2vs0mg"},{"bike_id":"398a8fd1-747d-4b0d-84d1-22519fee4719","system_id":"levelo_inurba_marseille","lat":43.27378,"lon":5.36249,"is_reserved":false,"is_disabled":false,"rental_uris":{"android":"levelo://app?vid=398a8fd1-747d-4b0d-84d1-22519fee4719","ios":"levelo://app?vid=398a8fd1-747d-4b0d-84d1-22519fee4719"},"vehicle_type_id":"4","last_reported":1747649517,"current_range_meters":2800,"station_id":"ce4bhbh2rcd13ifvqeo0","pricing_plan_id":"cebpf4jnsgd1na2vs0mg"},{"bike_id":"f9959153-3089-40b1-9d3f-1ff2d88cc263","system_id":"levelo_inurba_marseille","lat":43.282708,"lon":5.350535,"is_reserved":false,"is_disabled":false,"rental_uris":{"android":"levelo://app?vid=f9959153-3089-40b1-9d3f-1ff2d88cc263","ios":"levelo://app?vid=f9959153-3089-40b1-9d3f-1ff2d88cc263"},"vehicle_type_id":"4","last_reported":1747649517,"current_range_meters":2800,"station_id":"","pricing_plan_id":"cebpf4jnsgd1na2vs0mg"},{"bike_id":"2e40c260-d56c-4adf-aa0d-9258c0d1a2e5","system_id":"levelo_inurba_marseille","lat":43.248085,"lon":5.374445,"is_reserved":false,"is_disabled":false,"rental_uris":{"android":"levelo://app?vid=2e40c260-d56c-4adf-aa0d-9258c0d1a2e5","ios":"levelo://app?vid=2e40c260-d56c-4adf-aa0d-9258c0d1a2e5"},"vehicle_type_id":"4","last_reported":1747649517,"current_range_meters":2800,"station_id":"ce4bhgh2rcd13ifvqfb0","pricing_plan_id":"cebpf4jnsgd1na2vs0mg"},{"bike_id":"af2f3908-848e-4879-9c80-b3ddea1b7f0a","system_id":"levelo_inurba_marseille","lat":43.31192,"lon":5.38691,"is_reserved":false,"is_disabled":true,"rental_uris":{"android":"levelo://app?vid=af2f3908-848e-4879-9c80-b3ddea1b7f0a","ios":"levelo://app?vid=af2f3908-848e-4879-9c80-b3ddea1b7f0a"},"vehicle_type_id":"4","last_reported":1747649517,"current_range_meters":2800,"station_id":"ce4bgv12rcd13ifvqcp0","pricing_plan_id":"cebpf4jnsgd1na2vs0mg"},{"bike_id":"1e8557b4-c361-4b06-bbcf-fe63a1538c75","system_id":"levelo_inurba_marseille","lat":43.30147,"lon":5.38085,"is_reserved":false,"is_disabled":false,"rental_uris":{"android":"levelo://app?vid=1e8557b4-c361-4b06-bbcf-fe63a1538c75","ios":"levelo://app?vid=1e8557b4-c361-4b06-bbcf-fe63a1538c75"},"vehicle_type_id":"4","last_reported":1747649517,"current_range_meters":2800,"station_id":"ce4bgjp2rcd13ifvqbh0","pricing_plan_id":"cebpf4jnsgd1na2vs0mg"},{"bike_id":"4f459198-a592-4314-a5e3-950a35951fff","system_id":"levelo_inurba_marseille","lat":43.27072,"lon":5.42278,"is_reserved":false,"is_disabled":false,"rental_uris":{"android":"levelo://app?vid=4f459198-a592-4314-a5e3-950a35951fff","ios":"levelo://app?vid=4f459198-a592-4314-a5e3-950a35951fff"},"vehicle_type_id":"4","last_reported":1747649517,"current_range_meters":3200,"station_id":"ce4bhk92rcd13ifvqgb0","pricing_plan_id":"cebpf4jnsgd1na2vs0mg"},{"bike_id":"03b5ad59-64c1-44ee-a613-d829bc577358","system_id":"levelo_inurba_marseille","lat":43.267208,"lon":5.396715,"is_reserved":false,"is_disabled":false,"rental_uris":{"android":"levelo://app?vid=03b5ad59-64c1-44ee-a613-d829bc577358","ios":"levelo://app?vid=03b5ad59-64c1-44ee-a613-d829bc577358"},"vehicle_type_id":"4","last_reported":1747649517,"current_range_meters":4000,"station_id":"ce4bhmp2rcd13ifvqgog","pricing_plan_id":"cebpf4jnsgd1na2vs0mg"},{"bike_id":"b934e6da-efb5-4ac5-a51a-eb50220f6e1b","system_id":"levelo_inurba_marseille","lat":43.269842,"lon":5.405899,"is_reserved":false,"is_disabled":true,"rental_uris":{"android":"levelo://app?vid=b934e6da-efb5-4ac5-a51a-eb50220f6e1b","ios":"levelo://app?vid=b934e6da-efb5-4ac5-a51a-eb50220f6e1b"},"vehicle_type_id":"4","last_reported":1747649517,"current_range_meters":4400,"station_id":"","pricing_plan_id":"cebpf4jnsgd1na2vs0mg"},{"bike_id":"c0db4030-ef30-480b-a735-af5435a471ed","system_id":"levelo_inurba_marseille","lat":43.27749,"lon":5.42671,"is_reserved":false,"is_disabled":false,"rental_uris":{"android":"levelo://app?vid=c0db4030-ef30-480b-a735-af5435a471ed","ios":"levelo://app?vid=c0db4030-ef30-480b-a735-af5435a471ed"},"vehicle_type_id":"4","last_reported":1747649517,"current_range_meters":4400,"station_id":"","pricing_plan_id":"cebpf4jnsgd1na2vs0mg"},{"bike_id":"9be12a09-efe5-495b-8ec3-e7e0d7473370","system_id":"levelo_inurba_marseille","lat":43.296173,"lon":0,"is_reserved":false,"is_disabled":true,"rental_uris":{"android":"levelo://app?vid=9be12a09-efe5-495b-8ec3-e7e0d7473370","ios":"levelo://app?vid=9be12a09-efe5-495b-8ec3-e7e0d7473370"},"vehicle_type_id":"4","last_reported":1747649517,"current_range_meters":4400,"station_id":"ce4bgl12rcd13ifvqbo0","pricing_plan_id":"cebpf4jnsgd1na2vs0mg"},{"bike_id":"64a67e39-e7aa-410d-a057-e28b1f3dcfb0","system_id":"levelo_inurba_marseille","lat":43.25948,"lon":5.40896,"is_reserved":false,"is_disabled":false,"rental_uris":{"android":"levelo://app?vid=64a67e39-e7aa-410d-a057-e28b1f3dcfb0","ios":"levelo://app?vid=64a67e39-e7aa-410d-a057-e28b1f3dcfb0"},"vehicle_type_id":"4","last_reported":1747649517,"current_range_meters":4400,"station_id":"ce4bhm92rcd13ifvqglg","pricing_plan_id":"cebpf4jnsgd1na2vs0mg"},{"bike_id":"fc5b7a63-c3b8-4cf8-a23b-779434eae7e6","system_id":"levelo_inurba_marseille","lat":43.28464,"lon":5.35895,"is_reserved":false,"is_disabled":false,"rental_uris":{"android":"levelo://app?vid=fc5b7a63-c3b8-4cf8-a23b-779434eae7e6","ios":"levelo://app?vid=fc5b7a63-c3b8-4cf8-a23b-779434eae7e6"},"vehicle_type_id":"4","last_reported":1747649517,"current_range_meters":4400,"station_id":"ce4bhah2rcd13ifvqei0","pricing_plan_id":"cebpf4jnsgd1na2vs0mg"},{"bike_id":"57cfba66-c47c-4647-be3d-0ccd36e48a3d","system_id":"levelo_inurba_marseille","lat":43.293668,"lon":5.378483,"is_reserved":false,"is_disabled":false,"rental_uris":{"android":"levelo://app?vid=57cfba66-c47c-4647-be3d-0ccd36e48a3d","ios":"levelo://app?vid=57cfba66-c47c-4647-be3d-0ccd36e48a3d"},"vehicle_type_id":"4","last_reported":1747649517,"current_range_meters":3200,"station_id":"ce4bgjh2rcd13ifvqbf0","pricing_plan_id":"cebpf4jnsgd1na2vs0mg"},{"bike_id":"e7a18df1-1581-4f77-9178-6eb9545f3ccb","system_id":"levelo_inurba_marseille","lat":43.24168,"lon":5.36394,"is_reserved":false,"is_disabled":false,"rental_uris":{"android":"levelo://app?vid=e7a18df1-1581-4f77-9178-6eb9545f3ccb","ios":"levelo://app?vid=e7a18df1-1581-4f77-9178-6eb9545f3ccb"},"vehicle_type_id":"4","last_reported":1747649517,"current_range_meters":5600,"station_id":"cpo36qri1sfpv3e86is0","pricing_plan_id":"cebpf4jnsgd1na2vs0mg"},{"bike_id":"0fb02880-5c6e-4026-9e4a-07529c572b44","system_id":"levelo_inurba_marseille","lat":43.254901,"lon":5.373956,"is_reserved":false,"is_disabled":false,"rental_uris":{"android":"levelo://app?vid=0fb02880-5c6e-4026-9e4a-07529c572b44","ios":"levelo://app?vid=0fb02880-5c6e-4026-9e4a-07529c572b44"},"vehicle_type_id":"4","last_reported":1747649517,"current_range_meters":6000,"station_id":"","pricing_plan_id":"cebpf4jnsgd1na2vs0mg"},{"bike_id":"b911233e-8409-41d1-91ef-b6e7736d6a2b","system_id":"levelo_inurba_marseille","lat":43.2926,"lon":5.37623,"is_reserved":false,"is_disabled":false,"rental_uris":{"android":"levelo://app?vid=b911233e-8409-41d1-91ef-b6e7736d6a2b","ios":"levelo://app?vid=b911233e-8409-41d1-91ef-b6e7736d6a2b"},"vehicle_type_id":"4","last_reported":1747649517,"current_range_meters":6000,"station_id":"ce4bgi12rcd13ifvqb80","pricing_plan_id":"cebpf4jnsgd1na2vs0mg"},{"bike_id":"14603e41-b2dd-4757-a53c-2e366aa4f983","system_id":"levelo_inurba_marseille","lat":43.26997,"lon":5.42833,"is_reserved":false,"is_disabled":false,"rental_uris":{"android":"levelo://app?vid=14603e41-b2dd-4757-a53c-2e366aa4f983","ios":"levelo://app?vid=14603e41-b2dd-4757-a53c-2e366aa4f983"},"vehicle_type_id":"4","last_reported":1747649517,"current_range_meters":6000,"station_id":"","pricing_plan_id":"cebpf4jnsgd1na2vs0mg"},{"bike_id":"0a80dab0-019f-412e-9426-7c721bdddfca","system_id":"levelo_inurba_marseille","lat":43.24659,"lon":5.3814,"is_reserved":false,"is_disabled":false,"rental_uris":{"android":"levelo://app?vid=0a80dab0-019f-412e-9426-7c721bdddfca","ios":"levelo://app?vid=0a80dab0-019f-412e-9426-7c721bdddfca"},"vehicle_type_id":"4","last_reported":1747649517,"current_range_meters":6400,"station_id":"ce4bhih2rcd13ifvqfr0","pricing_plan_id":"cebpf4jnsgd1na2vs0mg"},{"bike_id":"2eab994d-a378-4391-894b-b62d11a34041","system_id":"levelo_inurba_marseille","lat":43.23216,"lon":5.43723,"is_reserved":false,"is_disabled":true,"rental_uris":{"android":"levelo://app?vid=2eab994d-a378-4391-894b-b62d11a34041","ios":"levelo://app?vid=2eab994d-a378-4391-894b-b62d11a34041"},"vehicle_type_id":"4","last_reported":1747649517,"current_range_meters":6400,"station_id":"","pricing_plan_id":"cebpf4jnsgd1na2vs0mg"},{"bike_id":"d2dfe6ea-66b4-4a74-b929-1c295ac8636c","system_id":"levelo_inurba_marseille","lat":43.33606,"lon":5.41025,"is_reserved":false,"is_disabled":false,"rental_uris":{"android":"levelo://app?vid=d2dfe6ea-66b4-4a74-b929-1c295ac8636c","ios":"levelo://app?vid=d2dfe6ea-66b4-4a74-b929-1c295ac8636c"},"vehicle_type_id":"4","last_reported":1747649517,"current_range_meters":6400,"station_id":"ce4bhqh2rcd13ifvqhmg","pricing_plan_id":"cebpf4jnsgd1na2vs0mg"},{"bike_id":"dcd60d4c-2473-47d4-acab-a2e28c53876b","system_id":"levelo_inurba_marseille","lat":43.30372,"lon":5.42481,"is_reserved":false,"is_disabled":false,"rental_uris":{"android":"levelo://app?vid=dcd60d4c-2473-47d4-acab-a2e28c53876b","ios":"levelo://app?vid=dcd60d4c-2473-47d4-acab-a2e28c53876b"},"vehicle_type_id":"4","last_reported":1747649517,"current_range_meters":6400,"station_id":"ce4bhoh2rcd13ifvqh6g","pricing_plan_id":"cebpf4jnsgd1na2vs0mg"},{"bike_id":"93adb21e-0831-48f3-8e4e-6045d2a8de73","system_id":"levelo_inurba_marseille","lat":43.2466,"lon":5.38146,"is_reserved":false,"is_disabled":false,"rental_uris":{"android":"levelo://app?vid=93adb21e-0831-48f3-8e4e-6045d2a8de73","ios":"levelo://app?vid=93adb21e-0831-48f3-8e4e-6045d2a8de73"},"vehicle_type_id":"4","last_reported":1747649517,"current_range_meters":6800,"station_id":"ce4bhih2rcd13ifvqfr0","pricing_plan_id":"cebpf4jnsgd1na2vs0mg"},{"bike_id":"424c130a-dd6b-43c5-9adf-8e936ccf5500","system_id":"levelo_inurba_marseille","lat":43.25138,"lon":5.40328,"is_reserved":false,"is_disabled":false,"rental_uris":{"android":"levelo://app?vid=424c130a-dd6b-43c5-9adf-8e936ccf5500","ios":"levelo://app?vid=424c130a-dd6b-43c5-9adf-8e936ccf5500"},"vehicle_type_id":"4","last_reported":1747649517,"current_range_meters":6800,"station_id":"ce4bhlh2rcd13ifvqgig","pricing_plan_id":"cebpf4jnsgd1na2vs0mg"},{"bike_id":"86d58893-487c-4fc8-9a5f-e0f5dcd35d76","system_id":"levelo_inurba_marseille","lat":43.29039,"lon":5.375575,"is_reserved":false,"is_disabled":false,"rental_uris":{"android":"levelo://app?vid=86d58893-487c-4fc8-9a5f-e0f5dcd35d76","ios":"levelo://app?vid=86d58893-487c-4fc8-9a5f-e0f5dcd35d76"},"vehicle_type_id":"4","last_reported":1747649517,"current_range_meters":6800,"station_id":"ce4bh692rcd13ifvqe90","pricing_plan_id":"cebpf4jnsgd1na2vs0mg"},{"bike_id":"d9eaa0f6-4087-4be3-a893-44ae5dfdd35d","system_id":"levelo_inurba_marseille","lat":43.2848,"lon":5.38436,"is_reserved":false,"is_disabled":false,"rental_uris":{"android":"levelo://app?vid=d9eaa0f6-4087-4be3-a893-44ae5dfdd35d","ios":"levelo://app?vid=d9eaa0f6-4087-4be3-a893-44ae5dfdd35d"},"vehicle_type_id":"4","last_reported":1747649517,"current_range_meters":6800,"station_id":"ce4bh512rcd13ifvqe3g","pricing_plan_id":"cebpf4jnsgd1na2vs0mg"},{"bike_id":"9dbadacf-fbbb-4744-b239-0fae16a8ed75","system_id":"levelo_inurba_marseille","lat":43.270522,"lon":5.402546,"is_reserved":false,"is_disabled":true,"rental_uris":{"android":"levelo://app?vid=9dbadacf-fbbb-4744-b239-0fae16a8ed75","ios":"levelo://app?vid=9dbadacf-fbbb-4744-b239-0fae16a8ed75"},"vehicle_type_id":"4","last_reported":1747649517,"current_range_meters":7200,"station_id":"","pricing_plan_id":"cebpf4jnsgd1na2vs0mg"},{"bike_id":"887a8389-3396-447e-9711-c8383bd9e476","system_id":"levelo_inurba_marseille","lat":43.3046,"lon":5.37901,"is_reserved":false,"is_disabled":false,"rental_uris":{"android":"levelo://app?vid=887a8389-3396-447e-9711-c8383bd9e476","ios":"levelo://app?vid=887a8389-3396-447e-9711-c8383bd9e476"},"vehicle_type_id":"4","last_reported":1747649517,"current_range_meters":7200,"station_id":"ce4bgup2rcd13ifvqcn0","pricing_plan_id":"cebpf4jnsgd1na2vs0mg"},{"bike_id":"7c2f31a5-29a4-4b38-92a3-a37e6e9acbd5","system_id":"levelo_inurba_marseille","lat":43.2572,"lon":5.41103,"is_reserved":false,"is_disabled":false,"rental_uris":{"android":"levelo://app?vid=7c2f31a5-29a4-4b38-92a3-a37e6e9acbd5","ios":"levelo://app?vid=7c2f31a5-29a4-4b38-92a3-a37e6e9acbd5"},"vehicle_type_id":"4","last_reported":1747649517,"current_range_meters":7200,"station_id":"ce4bhkp2rcd13ifvqgd0","pricing_plan_id":"cebpf4jnsgd1na2vs0mg"},{"bike_id":"9e9bf122-002d-4b2b-80cf-72cefc9e6351","system_id":"levelo_inurba_marseille","lat":43.25942,"lon":5.40899,"is_reserved":false,"is_disabled":true,"rental_uris":{"android":"levelo://app?vid=9e9bf122-002d-4b2b-80cf-72cefc9e6351","ios":"levelo://app?vid=9e9bf122-002d-4b2b-80cf-72cefc9e6351"},"vehicle_type_id":"4","last_reported":1747649517,"current_range_meters":8000,"station_id":"ce4bhm92rcd13ifvqglg","pricing_plan_id":"cebpf4jnsgd1na2vs0mg"},{"bike_id":"a6a52f98-55e1-49ae-b063-496e30df6bf6","system_id":"levelo_inurba_marseille","lat":43.2293,"lon":5.35397,"is_reserved":false,"is_disabled":false,"rental_uris":{"android":"levelo://app?vid=a6a52f98-55e1-49ae-b063-496e30df6bf6","ios":"levelo://app?vid=a6a52f98-55e1-49ae-b063-496e30df6bf6"},"vehicle_type_id":"4","last_reported":1747649517,"current_range_meters":8000,"station_id":"cpo3532slgdg3j2ikp40","pricing_plan_id":"cebpf4jnsgd1na2vs0mg"},{"bike_id":"021440a5-ccbb-464b-9b2e-3e42ce706ec0","system_id":"levelo_inurba_marseille","lat":43.30462,"lon":5.37909,"is_reserved":false,"is_disabled":false,"rental_uris":{"android":"levelo://app?vid=021440a5-ccbb-464b-9b2e-3e42ce706ec0","ios":"levelo://app?vid=021440a5-ccbb-464b-9b2e-3e42ce706ec0"},"vehicle_type_id":"4","last_reported":1747649517,"current_range_meters":8400,"station_id":"ce4bgup2rcd13ifvqcn0","pricing_plan_id":"cebpf4jnsgd1na2vs0mg"},{"bike_id":"3a226170-7da3-41b6-a4ba-14e9690bd45b","system_id":"levelo_inurba_marseille","lat":43.29637,"lon":5.40598,"is_reserved":false,"is_disabled":false,"rental_uris":{"android":"levelo://app?vid=3a226170-7da3-41b6-a4ba-14e9690bd45b","ios":"levelo://app?vid=3a226170-7da3-41b6-a4ba-14e9690bd45b"},"vehicle_type_id":"4","last_reported":1747649517,"current_range_meters":8400,"station_id":"ce4bh0h2rcd13ifvqd60","pricing_plan_id":"cebpf4jnsgd1na2vs0mg"},{"bike_id":"0e4be12c-830a-4cbe-bc0c-dbe3be483ab7","system_id":"levelo_inurba_marseille","lat":43.32102,"lon":5.36767,"is_reserved":false,"is_disabled":false,"rental_uris":{"android":"levelo://app?vid=0e4be12c-830a-4cbe-bc0c-dbe3be483ab7","ios":"levelo://app?vid=0e4be12c-830a-4cbe-bc0c-dbe3be483ab7"},"vehicle_type_id":"4","last_reported":1747649517,"current_range_meters":8400,"station_id":"ce4bhrh2rcd13ifvqhug","pricing_plan_id":"cebpf4jnsgd1na2vs0mg"},{"bike_id":"4106f574-ab9b-40b2-b34e-1758475aa72b","system_id":"levelo_inurba_marseille","lat":43.31351,"lon":5.36727,"is_reserved":false,"is_disabled":false,"rental_uris":{"android":"levelo://app?vid=4106f574-ab9b-40b2-b34e-1758475aa72b","ios":"levelo://app?vid=4106f574-ab9b-40b2-b34e-1758475aa72b"},"vehicle_type_id":"4","last_reported":1747649517,"current_range_meters":8400,"station_id":"ce4bgr92rcd13ifvqc6g","pricing_plan_id":"cebpf4jnsgd1na2vs0mg"},{"bike_id":"06e452b4-00bd-4194-8cf0-97e51cbae02e","system_id":"levelo_inurba_marseille","lat":43.23181,"lon":5.39989,"is_reserved":false,"is_disabled":false,"rental_uris":{"android":"levelo://app?vid=06e452b4-00bd-4194-8cf0-97e51cbae02e","ios":"levelo://app?vid=06e452b4-00bd-4194-8cf0-97e51cbae02e"},"vehicle_type_id":"4","last_reported":1747649517,"current_range_meters":8800,"station_id":"ce4bhn12rcd13ifvqgqg","pricing_plan_id":"cebpf4jnsgd1na2vs0mg"},{"bike_id":"6ee7001e-07ad-49d2-9902-4e2095457f59","system_id":"levelo_inurba_marseille","lat":43.27068,"lon":5.42278,"is_reserved":false,"is_disabled":false,"rental_uris":{"android":"levelo://app?vid=6ee7001e-07ad-49d2-9902-4e2095457f59","ios":"levelo://app?vid=6ee7001e-07ad-49d2-9902-4e2095457f59"},"vehicle_type_id":"4","last_reported":1747649517,"current_range_meters":8800,"station_id":"ce4bhk92rcd13ifvqgb0","pricing_plan_id":"cebpf4jnsgd1na2vs0mg"},{"bike_id":"012904f8-8c9e-4c86-af5f-f7eb945b74aa","system_id":"levelo_inurba_marseille","lat":43.24641,"lon":5.38919,"is_reserved":false,"is_disabled":false,"rental_uris":{"android":"levelo://app?vid=012904f8-8c9e-4c86-af5f-f7eb945b74aa","ios":"levelo://app?vid=012904f8-8c9e-4c86-af5f-f7eb945b74aa"},"vehicle_type_id":"4","last_reported":1747649517,"current_range_meters":8800,"station_id":"ce4bhg12rcd13ifvqf60","pricing_plan_id":"cebpf4jnsgd1na2vs0mg"},{"bike_id":"4ff5357a-992b-44c4-8d52-511b0d87e59e","system_id":"levelo_inurba_marseille","lat":43.21753,"lon":5.34602,"is_reserved":false,"is_disabled":false,"rental_uris":{"android":"levelo://app?vid=4ff5357a-992b-44c4-8d52-511b0d87e59e","ios":"levelo://app?vid=4ff5357a-992b-44c4-8d52-511b0d87e59e"},"vehicle_type_id":"4","last_reported":1747649517,"current_range_meters":9200,"station_id":"st_cvj6r9ubvosntc0bgbag","pricing_plan_id":"cebpf4jnsgd1na2vs0mg"},{"bike_id":"fc2867fb-ae9a-4427-927b-6d90be05849a","system_id":"levelo_inurba_marseille","lat":43.29979,"lon":5.38497,"is_reserved":false,"is_disabled":false,"rental_uris":{"android":"levelo://app?vid=fc2867fb-ae9a-4427-927b-6d90be05849a","ios":"levelo://app?vid=fc2867fb-ae9a-4427-927b-6d90be05849a"},"vehicle_type_id":"4","last_reported":1747649517,"current_range_meters":9200,"station_id":"ce4bgj92rcd13ifvqbd0","pricing_plan_id":"cebpf4jnsgd1na2vs0mg"},{"bike_id":"1251f3e6-f78a-418d-9e0a-7474b2b1d8ac","system_id":"levelo_inurba_marseille","lat":43.25937,"lon":5.40905,"is_reserved":false,"is_disabled":false,"rental_uris":{"android":"levelo://app?vid=1251f3e6-f78a-418d-9e0a-7474b2b1d8ac","ios":"levelo://app?vid=1251f3e6-f78a-418d-9e0a-7474b2b1d8ac"},"vehicle_type_id":"4","last_reported":1747649517,"current_range_meters":9600,"station_id":"ce4bhm92rcd13ifvqglg","pricing_plan_id":"cebpf4jnsgd1na2vs0mg"},{"bike_id":"10060988-3632-4061-8c28-f32a68cdc17c","system_id":"levelo_inurba_marseille","lat":43.24669,"lon":5.38129,"is_reserved":false,"is_disabled":false,"rental_uris":{"android":"levelo://app?vid=10060988-3632-4061-8c28-f32a68cdc17c","ios":"levelo://app?vid=10060988-3632-4061-8c28-f32a68cdc17c"},"vehicle_type_id":"4","last_reported":1747649517,"current_range_meters":9600,"station_id":"ce4bhih2rcd13ifvqfr0","pricing_plan_id":"cebpf4jnsgd1na2vs0mg"},{"bike_id":"12c4d802-2c6a-4c71-888e-000ffe312a3f","system_id":"levelo_inurba_marseille","lat":43.32361,"lon":5.36725,"is_reserved":false,"is_disabled":false,"rental_uris":{"android":"levelo://app?vid=12c4d802-2c6a-4c71-888e-000ffe312a3f","ios":"levelo://app?vid=12c4d802-2c6a-4c71-888e-000ffe312a3f"},"vehicle_type_id":"4","last_reported":1747649517,"current_range_meters":9600,"station_id":"ce4bhsh2rcd13ifvqi2g","pricing_plan_id":"cebpf4jnsgd1na2vs0mg"},{"bike_id":"854573d9-33df-410d-8747-0fdc4de832f0","system_id":"levelo_inurba_marseille","lat":43.2512,"lon":5.40322,"is_reserved":false,"is_disabled":false,"rental_uris":{"android":"levelo://app?vid=854573d9-33df-410d-8747-0fdc4de832f0","ios":"levelo://app?vid=854573d9-33df-410d-8747-0fdc4de832f0"},"vehicle_type_id":"4","last_reported":1747649517,"current_range_meters":9600,"station_id":"ce4bhlh2rcd13ifvqgig","pricing_plan_id":"cebpf4jnsgd1na2vs0mg"},{"bike_id":"814e2930-a412-47af-849d-26da2abc07f6","system_id":"levelo_inurba_marseille","lat":43.27822,"lon":5.40725,"is_reserved":false,"is_disabled":true,"rental_uris":{"android":"levelo://app?vid=814e2930-a412-47af-849d-26da2abc07f6","ios":"levelo://app?vid=814e2930-a412-47af-849d-26da2abc07f6"},"vehicle_type_id":"4","last_reported":1747649517,"current_range_meters":9600,"station_id":"ce4bhnh2rcd13ifvqgtg","pricing_plan_id":"cebpf4jnsgd1na2vs0mg"},{"bike_id":"6c8b6528-afb9-49d9-8653-3d1843b32ea5","system_id":"levelo_inurba_marseille","lat":43.2314,"lon":5.43715,"is_reserved":false,"is_disabled":false,"rental_uris":{"android":"levelo://app?vid=6c8b6528-afb9-49d9-8653-3d1843b32ea5","ios":"levelo://app?vid=6c8b6528-afb9-49d9-8653-3d1843b32ea5"},"vehicle_type_id":"4","last_reported":1747649517,"current_range_meters":10000,"station_id":"ce4bhmp2rcd13ifvqgog","pricing_plan_id":"cebpf4jnsgd1na2vs0mg"},{"bike_id":"ec2daf00-8007-481a-ac23-9ece28733a28","system_id":"levelo_inurba_marseille","lat":43.29275,"lon":5.36845,"is_reserved":false,"is_disabled":false,"rental_uris":{"android":"levelo://app?vid=ec2daf00-8007-481a-ac23-9ece28733a28","ios":"levelo://app?vid=ec2daf00-8007-481a-ac23-9ece28733a28"},"vehicle_type_id":"4","last_reported":1747649517,"current_range_meters":10000,"station_id":"ce4bhbp2rcd13ifvqesg","pricing_plan_id":"cebpf4jnsgd1na2vs0mg"},{"bike_id":"10719f3a-a971-4c4c-84af-ef5cbb103b90","system_id":"levelo_inurba_marseille","lat":43.315697,"lon":5.380573,"is_reserved":false,"is_disabled":false,"rental_uris":{"android":"levelo://app?vid=10719f3a-a971-4c4c-84af-ef5cbb103b90","ios":"levelo://app?vid=10719f3a-a971-4c4c-84af-ef5cbb103b90"},"vehicle_type_id":"4","last_reported":1747649517,"current_range_meters":13600,"station_id":"ce4bhsp2rcd13ifvqi50","pricing_plan_id":"cebpf4jnsgd1na2vs0mg"},{"bike_id":"b2d8cb22-bb08-445b-9edd-971005f2f520","system_id":"levelo_inurba_marseille","lat":43.30538,"lon":5.36726,"is_reserved":false,"is_disabled":false,"rental_uris":{"android":"levelo://app?vid=b2d8cb22-bb08-445b-9edd-971005f2f520","ios":"levelo://app?vid=b2d8cb22-bb08-445b-9edd-971005f2f520"},"vehicle_type_id":"4","last_reported":1747649517,"current_range_meters":10000,"station_id":"ce4bgrp2rcd13ifvqc9g","pricing_plan_id":"cebpf4jnsgd1na2vs0mg"},{"bike_id":"aacfb246-9ebb-4ffc-99fb-dce1fb7b558d","system_id":"levelo_inurba_marseille","lat":43.21747,"lon":5.34595,"is_reserved":false,"is_disabled":false,"rental_uris":{"android":"levelo://app?vid=aacfb246-9ebb-4ffc-99fb-dce1fb7b558d","ios":"levelo://app?vid=aacfb246-9ebb-4ffc-99fb-dce1fb7b558d"},"vehicle_type_id":"4","last_reported":1747649517,"current_range_meters":10000,"station_id":"st_cvj6r9ubvosntc0bgbag","pricing_plan_id":"cebpf4jnsgd1na2vs0mg"},{"bike_id":"3ca34b46-4b9e-4b56-a126-096597cd005d","system_id":"levelo_inurba_marseille","lat":43.31325,"lon":5.36674,"is_reserved":false,"is_disabled":false,"rental_uris":{"android":"levelo://app?vid=3ca34b46-4b9e-4b56-a126-096597cd005d","ios":"levelo://app?vid=3ca34b46-4b9e-4b56-a126-096597cd005d"},"vehicle_type_id":"4","last_reported":1747649517,"current_range_meters":10000,"station_id":"ce4bgr92rcd13ifvqc6g","pricing_plan_id":"cebpf4jnsgd1na2vs0mg"},{"bike_id":"2d43dba1-6ff7-4289-91c8-c617d5aac932","system_id":"levelo_inurba_marseille","lat":43.29579,"lon":5.37502,"is_reserved":false,"is_disabled":true,"rental_uris":{"android":"levelo://app?vid=2d43dba1-6ff7-4289-91c8-c617d5aac932","ios":"levelo://app?vid=2d43dba1-6ff7-4289-91c8-c617d5aac932"},"vehicle_type_id":"4","last_reported":1747649517,"current_range_meters":10800,"station_id":"ce4bgh92rcd13ifvqb50","pricing_plan_id":"cebpf4jnsgd1na2vs0mg"},{"bike_id":"b34fd6b4-30ad-45a9-a9e0-3d5302caf866","system_id":"levelo_inurba_marseille","lat":43.274909,"lon":5.424602,"is_reserved":false,"is_disabled":false,"rental_uris":{"android":"levelo://app?vid=b34fd6b4-30ad-45a9-a9e0-3d5302caf866","ios":"levelo://app?vid=b34fd6b4-30ad-45a9-a9e0-3d5302caf866"},"vehicle_type_id":"4","last_reported":1747649517,"current_range_meters":10800,"station_id":"ce4bhn92rcd13ifvqgrg","pricing_plan_id":"cebpf4jnsgd1na2vs0mg"},{"bike_id":"201476c2-6270-46bd-a5f5-e47f4ad7efa4","system_id":"levelo_inurba_marseille","lat":43.23153,"lon":5.43722,"is_reserved":false,"is_disabled":false,"rental_uris":{"android":"levelo://app?vid=201476c2-6270-46bd-a5f5-e47f4ad7efa4","ios":"levelo://app?vid=201476c2-6270-46bd-a5f5-e47f4ad7efa4"},"vehicle_type_id":"4","last_reported":1747649517,"current_range_meters":10800,"station_id":"ce4bhmp2rcd13ifvqgog","pricing_plan_id":"cebpf4jnsgd1na2vs0mg"},{"bike_id":"e2483e33-e22f-4969-8812-f7cdcc75c59a","system_id":"levelo_inurba_marseille","lat":43.32362,"lon":5.367711,"is_reserved":false,"is_disabled":false,"rental_uris":{"android":"levelo://app?vid=e2483e33-e22f-4969-8812-f7cdcc75c59a","ios":"levelo://app?vid=e2483e33-e22f-4969-8812-f7cdcc75c59a"},"vehicle_type_id":"4","last_reported":1747649517,"current_range_meters":11200,"station_id":"ce4bhsh2rcd13ifvqi2g","pricing_plan_id":"cebpf4jnsgd1na2vs0mg"},{"bike_id":"3347e92f-19a6-4dc9-bf1f-d804d0835e42","system_id":"levelo_inurba_marseille","lat":43.21185,"lon":5.35075,"is_reserved":false,"is_disabled":false,"rental_uris":{"android":"levelo://app?vid=3347e92f-19a6-4dc9-bf1f-d804d0835e42","ios":"levelo://app?vid=3347e92f-19a6-4dc9-bf1f-d804d0835e42"},"vehicle_type_id":"4","last_reported":1747649517,"current_range_meters":11200,"station_id":"st_cvj6sg6p6f1abm77japg","pricing_plan_id":"cebpf4jnsgd1na2vs0mg"},{"bike_id":"cb403e01-63af-4c90-8790-9db8dcaacd91","system_id":"levelo_inurba_marseille","lat":43.31343,"lon":5.36725,"is_reserved":false,"is_disabled":false,"rental_uris":{"android":"levelo://app?vid=cb403e01-63af-4c90-8790-9db8dcaacd91","ios":"levelo://app?vid=cb403e01-63af-4c90-8790-9db8dcaacd91"},"vehicle_type_id":"4","last_reported":1747649517,"current_range_meters":11200,"station_id":"ce4bgr92rcd13ifvqc6g","pricing_plan_id":"cebpf4jnsgd1na2vs0mg"},{"bike_id":"a637fe44-bb94-48f7-bc5f-3862c2e2756c","system_id":"levelo_inurba_marseille","lat":43.31171,"lon":5.38719,"is_reserved":false,"is_disabled":false,"rental_uris":{"android":"levelo://app?vid=a637fe44-bb94-48f7-bc5f-3862c2e2756c","ios":"levelo://app?vid=a637fe44-bb94-48f7-bc5f-3862c2e2756c"},"vehicle_type_id":"4","last_reported":1747649517,"current_range_meters":11200,"station_id":"ce4bgv12rcd13ifvqcp0","pricing_plan_id":"cebpf4jnsgd1na2vs0mg"},{"bike_id":"b9140084-1d14-4eb5-966d-eb4d1e4bfd19","system_id":"levelo_inurba_marseille","lat":43.2937,"lon":5.37847,"is_reserved":false,"is_disabled":false,"rental_uris":{"android":"levelo://app?vid=b9140084-1d14-4eb5-966d-eb4d1e4bfd19","ios":"levelo://app?vid=b9140084-1d14-4eb5-966d-eb4d1e4bfd19"},"vehicle_type_id":"4","last_reported":1747649517,"current_range_meters":11200,"station_id":"ce4bgjh2rcd13ifvqbf0","pricing_plan_id":"cebpf4jnsgd1na2vs0mg"},{"bike_id":"26c3e9e3-aa88-402f-917b-ab80500e56b5","system_id":"levelo_inurba_marseille","lat":43.27817,"lon":5.40721,"is_reserved":false,"is_disabled":false,"rental_uris":{"android":"levelo://app?vid=26c3e9e3-aa88-402f-917b-ab80500e56b5","ios":"levelo://app?vid=26c3e9e3-aa88-402f-917b-ab80500e56b5"},"vehicle_type_id":"4","last_reported":1747649517,"current_range_meters":11200,"station_id":"ce4bhnh2rcd13ifvqgtg","pricing_plan_id":"cebpf4jnsgd1na2vs0mg"},{"bike_id":"bcbdbd69-7be8-42f8-a855-a4358565de8f","system_id":"levelo_inurba_marseille","lat":43.2769,"lon":5.41406,"is_reserved":false,"is_disabled":false,"rental_uris":{"android":"levelo://app?vid=bcbdbd69-7be8-42f8-a855-a4358565de8f","ios":"levelo://app?vid=bcbdbd69-7be8-42f8-a855-a4358565de8f"},"vehicle_type_id":"4","last_reported":1747649517,"current_range_meters":11600,"station_id":"","pricing_plan_id":"cebpf4jnsgd1na2vs0mg"},{"bike_id":"957eb41e-8449-4a3e-855c-035ed556f052","system_id":"levelo_inurba_marseille","lat":43.28716,"lon":5.36086,"is_reserved":false,"is_disabled":false,"rental_uris":{"android":"levelo://app?vid=957eb41e-8449-4a3e-855c-035ed556f052","ios":"levelo://app?vid=957eb41e-8449-4a3e-855c-035ed556f052"},"vehicle_type_id":"4","last_reported":1747649517,"current_range_meters":11600,"station_id":"cki0cbj6b192h4jlfktg","pricing_plan_id":"cebpf4jnsgd1na2vs0mg"},{"bike_id":"7f9d9e62-e5f7-4bf4-9e9a-630c9f1fab46","system_id":"levelo_inurba_marseille","lat":43.29914,"lon":5.37487,"is_reserved":false,"is_disabled":false,"rental_uris":{"android":"levelo://app?vid=7f9d9e62-e5f7-4bf4-9e9a-630c9f1fab46","ios":"levelo://app?vid=7f9d9e62-e5f7-4bf4-9e9a-630c9f1fab46"},"vehicle_type_id":"4","last_reported":1747649517,"current_range_meters":9200,"station_id":"ce4bgjh2rcd13ifvqbg0","pricing_plan_id":"cebpf4jnsgd1na2vs0mg"},{"bike_id":"a0ef91e8-eab4-4e92-9764-f8b59bed148c","system_id":"levelo_inurba_marseille","lat":43.3136,"lon":5.38483,"is_reserved":false,"is_disabled":false,"rental_uris":{"android":"levelo://app?vid=a0ef91e8-eab4-4e92-9764-f8b59bed148c","ios":"levelo://app?vid=a0ef91e8-eab4-4e92-9764-f8b59bed148c"},"vehicle_type_id":"4","last_reported":1747649517,"current_range_meters":12000,"station_id":"ce4bgt92rcd13ifvqcf0","pricing_plan_id":"cebpf4jnsgd1na2vs0mg"},{"bike_id":"d5457729-18fe-4b05-b6fd-8904df4d14e1","system_id":"levelo_inurba_marseille","lat":43.25119,"lon":5.40322,"is_reserved":false,"is_disabled":false,"rental_uris":{"android":"levelo://app?vid=d5457729-18fe-4b05-b6fd-8904df4d14e1","ios":"levelo://app?vid=d5457729-18fe-4b05-b6fd-8904df4d14e1"},"vehicle_type_id":"4","last_reported":1747649517,"current_range_meters":11600,"station_id":"ce4bhlh2rcd13ifvqgig","pricing_plan_id":"cebpf4jnsgd1na2vs0mg"},{"bike_id":"77e18201-bd36-4acf-9137-533f7de36782","system_id":"levelo_inurba_marseille","lat":43.24549,"lon":5.39528,"is_reserved":false,"is_disabled":false,"rental_uris":{"android":"levelo://app?vid=77e18201-bd36-4acf-9137-533f7de36782","ios":"levelo://app?vid=77e18201-bd36-4acf-9137-533f7de36782"},"vehicle_type_id":"4","last_reported":1747649517,"current_range_meters":12400,"station_id":"ce4bhlp2rcd13ifvqgjg","pricing_plan_id":"cebpf4jnsgd1na2vs0mg"},{"bike_id":"cb19383d-c121-44a5-8060-e89aed46878c","system_id":"levelo_inurba_marseille","lat":43.2573,"lon":5.4111,"is_reserved":false,"is_disabled":false,"rental_uris":{"android":"levelo://app?vid=cb19383d-c121-44a5-8060-e89aed46878c","ios":"levelo://app?vid=cb19383d-c121-44a5-8060-e89aed46878c"},"vehicle_type_id":"4","last_reported":1747649517,"current_range_meters":12400,"station_id":"ce4bhkp2rcd13ifvqgd0","pricing_plan_id":"cebpf4jnsgd1na2vs0mg"},{"bike_id":"99597e42-86ab-4762-83c3-3f6a8b406bef","system_id":"levelo_inurba_marseille","lat":43.2842,"lon":5.34973,"is_reserved":false,"is_disabled":false,"rental_uris":{"android":"levelo://app?vid=99597e42-86ab-4762-83c3-3f6a8b406bef","ios":"levelo://app?vid=99597e42-86ab-4762-83c3-3f6a8b406bef"},"vehicle_type_id":"4","last_reported":1747649517,"current_range_meters":12400,"station_id":"ce4bhbh2rcd13ifvqepg","pricing_plan_id":"cebpf4jnsgd1na2vs0mg"},{"bike_id":"9ceed656-7255-40fd-b473-baf2d748742a","system_id":"levelo_inurba_marseille","lat":43.27816,"lon":5.40719,"is_reserved":false,"is_disabled":false,"rental_uris":{"android":"levelo://app?vid=9ceed656-7255-40fd-b473-baf2d748742a","ios":"levelo://app?vid=9ceed656-7255-40fd-b473-baf2d748742a"},"vehicle_type_id":"4","last_reported":1747649517,"current_range_meters":12400,"station_id":"ce4bhnh2rcd13ifvqgtg","pricing_plan_id":"cebpf4jnsgd1na2vs0mg"},{"bike_id":"0f8d59c0-cea0-4132-bd7a-48b90c8367d2","system_id":"levelo_inurba_marseille","lat":43.29803,"lon":5.40399,"is_reserved":false,"is_disabled":false,"rental_uris":{"android":"levelo://app?vid=0f8d59c0-cea0-4132-bd7a-48b90c8367d2","ios":"levelo://app?vid=0f8d59c0-cea0-4132-bd7a-48b90c8367d2"},"vehicle_type_id":"4","last_reported":1747649517,"current_range_meters":12400,"station_id":"ce4bh112rcd13ifvqd90","pricing_plan_id":"cebpf4jnsgd1na2vs0mg"},{"bike_id":"4cba696e-1bc1-46cf-b2ae-88f1ebbbcbda","system_id":"levelo_inurba_marseille","lat":43.30865,"lon":5.37804,"is_reserved":false,"is_disabled":false,"rental_uris":{"android":"levelo://app?vid=4cba696e-1bc1-46cf-b2ae-88f1ebbbcbda","ios":"levelo://app?vid=4cba696e-1bc1-46cf-b2ae-88f1ebbbcbda"},"vehicle_type_id":"4","last_reported":1747649517,"current_range_meters":12800,"station_id":"","pricing_plan_id":"cebpf4jnsgd1na2vs0mg"},{"bike_id":"648fbe5a-fd42-43fe-9fdf-b05958d5259d","system_id":"levelo_inurba_marseille","lat":43.3013,"lon":5.39843,"is_reserved":false,"is_disabled":false,"rental_uris":{"android":"levelo://app?vid=648fbe5a-fd42-43fe-9fdf-b05958d5259d","ios":"levelo://app?vid=648fbe5a-fd42-43fe-9fdf-b05958d5259d"},"vehicle_type_id":"4","last_reported":1747649517,"current_range_meters":12800,"station_id":"ce4bh0h2rcd13ifvqd40","pricing_plan_id":"cebpf4jnsgd1na2vs0mg"},{"bike_id":"2379d698-ae39-485f-bbe5-6915e912dbcb","system_id":"levelo_inurba_marseille","lat":43.27494,"lon":5.42454,"is_reserved":false,"is_disabled":false,"rental_uris":{"android":"levelo://app?vid=2379d698-ae39-485f-bbe5-6915e912dbcb","ios":"levelo://app?vid=2379d698-ae39-485f-bbe5-6915e912dbcb"},"vehicle_type_id":"4","last_reported":1747649517,"current_range_meters":12800,"station_id":"ce4bhn92rcd13ifvqgrg","pricing_plan_id":"cebpf4jnsgd1na2vs0mg"},{"bike_id":"6ecc5705-acc9-4a68-9f69-8d9a89140232","system_id":"levelo_inurba_marseille","lat":43.27498,"lon":5.42448,"is_reserved":false,"is_disabled":false,"rental_uris":{"android":"levelo://app?vid=6ecc5705-acc9-4a68-9f69-8d9a89140232","ios":"levelo://app?vid=6ecc5705-acc9-4a68-9f69-8d9a89140232"},"vehicle_type_id":"4","last_reported":1747649517,"current_range_meters":12800,"station_id":"ce4bhn92rcd13ifvqgrg","pricing_plan_id":"cebpf4jnsgd1na2vs0mg"},{"bike_id":"cff8ff58-047a-4e45-89da-68f5f4acd81e","system_id":"levelo_inurba_marseille","lat":43.31253,"lon":5.36835,"is_reserved":false,"is_disabled":false,"rental_uris":{"android":"levelo://app?vid=cff8ff58-047a-4e45-89da-68f5f4acd81e","ios":"levelo://app?vid=cff8ff58-047a-4e45-89da-68f5f4acd81e"},"vehicle_type_id":"4","last_reported":1747649517,"current_range_meters":12800,"station_id":"ce4bgl92rcd13ifvqbq0","pricing_plan_id":"cebpf4jnsgd1na2vs0mg"},{"bike_id":"c3c11b11-8507-45b4-bd48-1e3bdd46fbbe","system_id":"levelo_inurba_marseille","lat":43.23185,"lon":5.39978,"is_reserved":false,"is_disabled":false,"rental_uris":{"android":"levelo://app?vid=c3c11b11-8507-45b4-bd48-1e3bdd46fbbe","ios":"levelo://app?vid=c3c11b11-8507-45b4-bd48-1e3bdd46fbbe"},"vehicle_type_id":"4","last_reported":1747649517,"current_range_meters":12800,"station_id":"ce4bhn12rcd13ifvqgqg","pricing_plan_id":"cebpf4jnsgd1na2vs0mg"},{"bike_id":"fba103a6-30ce-481c-a05a-9411e513bfcf","system_id":"levelo_inurba_marseille","lat":43.25929,"lon":5.40903,"is_reserved":false,"is_disabled":false,"rental_uris":{"android":"levelo://app?vid=fba103a6-30ce-481c-a05a-9411e513bfcf","ios":"levelo://app?vid=fba103a6-30ce-481c-a05a-9411e513bfcf"},"vehicle_type_id":"4","last_reported":1747649517,"current_range_meters":12800,"station_id":"ce4bhm92rcd13ifvqglg","pricing_plan_id":"cebpf4jnsgd1na2vs0mg"},{"bike_id":"90bb7a19-74dd-4320-94b3-1629a4028834","system_id":"levelo_inurba_marseille","lat":43.21738,"lon":5.34615,"is_reserved":false,"is_disabled":true,"rental_uris":{"android":"levelo://app?vid=90bb7a19-74dd-4320-94b3-1629a4028834","ios":"levelo://app?vid=90bb7a19-74dd-4320-94b3-1629a4028834"},"vehicle_type_id":"4","last_reported":1747649517,"current_range_meters":13600,"station_id":"st_cvj6r9ubvosntc0bgbag","pricing_plan_id":"cebpf4jnsgd1na2vs0mg"},{"bike_id":"cf0e6672-79f3-49bc-ae81-5a367314a352","system_id":"levelo_inurba_marseille","lat":43.3123,"lon":5.3686,"is_reserved":false,"is_disabled":false,"rental_uris":{"android":"levelo://app?vid=cf0e6672-79f3-49bc-ae81-5a367314a352","ios":"levelo://app?vid=cf0e6672-79f3-49bc-ae81-5a367314a352"},"vehicle_type_id":"4","last_reported":1747649517,"current_range_meters":13600,"station_id":"ce4bgl92rcd13ifvqbq0","pricing_plan_id":"cebpf4jnsgd1na2vs0mg"},{"bike_id":"7f7faa6d-8425-4b05-9dc0-7f3aeb46d39d","system_id":"levelo_inurba_marseille","lat":43.28383,"lon":5.38644,"is_reserved":false,"is_disabled":false,"rental_uris":{"android":"levelo://app?vid=7f7faa6d-8425-4b05-9dc0-7f3aeb46d39d","ios":"levelo://app?vid=7f7faa6d-8425-4b05-9dc0-7f3aeb46d39d"},"vehicle_type_id":"4","last_reported":1747649517,"current_range_meters":14000,"station_id":"ce4bh492rcd13ifvqdvg","pricing_plan_id":"cebpf4jnsgd1na2vs0mg"},{"bike_id":"f4ba9c6e-bcad-41c7-8d4e-bca01364d190","system_id":"levelo_inurba_marseille","lat":43.25936,"lon":5.40916,"is_reserved":false,"is_disabled":false,"rental_uris":{"android":"levelo://app?vid=f4ba9c6e-bcad-41c7-8d4e-bca01364d190","ios":"levelo://app?vid=f4ba9c6e-bcad-41c7-8d4e-bca01364d190"},"vehicle_type_id":"4","last_reported":1747649517,"current_range_meters":14000,"station_id":"ce4bhm92rcd13ifvqglg","pricing_plan_id":"cebpf4jnsgd1na2vs0mg"},{"bike_id":"a486c409-50e3-4319-942b-256cc6c595ab","system_id":"levelo_inurba_marseille","lat":43.31254,"lon":5.36853,"is_reserved":false,"is_disabled":false,"rental_uris":{"android":"levelo://app?vid=a486c409-50e3-4319-942b-256cc6c595ab","ios":"levelo://app?vid=a486c409-50e3-4319-942b-256cc6c595ab"},"vehicle_type_id":"4","last_reported":1747649517,"current_range_meters":14000,"station_id":"ce4bgl92rcd13ifvqbq0","pricing_plan_id":"cebpf4jnsgd1na2vs0mg"},{"bike_id":"747f32cb-6b90-41cb-af47-7cc48fc9a982","system_id":"levelo_inurba_marseille","lat":43.21746,"lon":5.34629,"is_reserved":false,"is_disabled":false,"rental_uris":{"android":"levelo://app?vid=747f32cb-6b90-41cb-af47-7cc48fc9a982","ios":"levelo://app?vid=747f32cb-6b90-41cb-af47-7cc48fc9a982"},"vehicle_type_id":"4","last_reported":1747649517,"current_range_meters":14400,"station_id":"st_cvj6r9ubvosntc0bgbag","pricing_plan_id":"cebpf4jnsgd1na2vs0mg"},{"bike_id":"4d84e95c-d2af-4324-b46f-888d9bc5478f","system_id":"levelo_inurba_marseille","lat":43.312143,"lon":5.368634,"is_reserved":false,"is_disabled":false,"rental_uris":{"android":"levelo://app?vid=4d84e95c-d2af-4324-b46f-888d9bc5478f","ios":"levelo://app?vid=4d84e95c-d2af-4324-b46f-888d9bc5478f"},"vehicle_type_id":"4","last_reported":1747649517,"current_range_meters":14400,"station_id":"ce4bgl92rcd13ifvqbq0","pricing_plan_id":"cebpf4jnsgd1na2vs0mg"},{"bike_id":"bffbaf88-357a-4e87-a68c-a9a27a6e01e6","system_id":"levelo_inurba_marseille","lat":43.262309,"lon":5.42127,"is_reserved":false,"is_disabled":false,"rental_uris":{"android":"levelo://app?vid=bffbaf88-357a-4e87-a68c-a9a27a6e01e6","ios":"levelo://app?vid=bffbaf88-357a-4e87-a68c-a9a27a6e01e6"},"vehicle_type_id":"4","last_reported":1747649517,"current_range_meters":14400,"station_id":"","pricing_plan_id":"cebpf4jnsgd1na2vs0mg"},{"bike_id":"fca86a55-22f2-4b7a-b972-9f8946fa6983","system_id":"levelo_inurba_marseille","lat":43.30302,"lon":5.39208,"is_reserved":false,"is_disabled":true,"rental_uris":{"android":"levelo://app?vid=fca86a55-22f2-4b7a-b972-9f8946fa6983","ios":"levelo://app?vid=fca86a55-22f2-4b7a-b972-9f8946fa6983"},"vehicle_type_id":"4","last_reported":1747649517,"current_range_meters":14400,"station_id":"ce4bgkh2rcd13ifvqbk0","pricing_plan_id":"cebpf4jnsgd1na2vs0mg"},{"bike_id":"6c0481be-1d38-46a6-983f-2cb6a293456d","system_id":"levelo_inurba_marseille","lat":43.2985,"lon":5.37403,"is_reserved":false,"is_disabled":false,"rental_uris":{"android":"levelo://app?vid=6c0481be-1d38-46a6-983f-2cb6a293456d","ios":"levelo://app?vid=6c0481be-1d38-46a6-983f-2cb6a293456d"},"vehicle_type_id":"4","last_reported":1747649517,"current_range_meters":15200,"station_id":"","pricing_plan_id":"cebpf4jnsgd1na2vs0mg"},{"bike_id":"d39cae16-34b5-4b82-8fc6-cac28c889070","system_id":"levelo_inurba_marseille","lat":43.29452,"lon":5.38658,"is_reserved":false,"is_disabled":true,"rental_uris":{"android":"levelo://app?vid=d39cae16-34b5-4b82-8fc6-cac28c889070","ios":"levelo://app?vid=d39cae16-34b5-4b82-8fc6-cac28c889070"},"vehicle_type_id":"4","last_reported":1747649517,"current_range_meters":14400,"station_id":"ce4bh2h2rcd13ifvqdh0","pricing_plan_id":"cebpf4jnsgd1na2vs0mg"},{"bike_id":"e71ec1c9-f6a8-4b79-bd5a-453b9dadbf64","system_id":"levelo_inurba_marseille","lat":43.2705,"lon":5.40258,"is_reserved":false,"is_disabled":false,"rental_uris":{"android":"levelo://app?vid=e71ec1c9-f6a8-4b79-bd5a-453b9dadbf64","ios":"levelo://app?vid=e71ec1c9-f6a8-4b79-bd5a-453b9dadbf64"},"vehicle_type_id":"4","last_reported":1747649517,"current_range_meters":14400,"station_id":"ce4bhk92rcd13ifvqgc0","pricing_plan_id":"cebpf4jnsgd1na2vs0mg"},{"bike_id":"f0be192c-ae4f-446a-8b5a-34019ce7051f","system_id":"levelo_inurba_marseille","lat":43.298382,"lon":5.362665,"is_reserved":false,"is_disabled":false,"rental_uris":{"android":"levelo://app?vid=f0be192c-ae4f-446a-8b5a-34019ce7051f","ios":"levelo://app?vid=f0be192c-ae4f-446a-8b5a-34019ce7051f"},"vehicle_type_id":"4","last_reported":1747649517,"current_range_meters":14400,"station_id":"ce4bgpp2rcd13ifvqc3g","pricing_plan_id":"cebpf4jnsgd1na2vs0mg"},{"bike_id":"dc46bf9a-d758-41d1-bda7-66099081b117","system_id":"levelo_inurba_marseille","lat":43.267243,"lon":5.372249,"is_reserved":false,"is_disabled":false,"rental_uris":{"android":"levelo://app?vid=dc46bf9a-d758-41d1-bda7-66099081b117","ios":"levelo://app?vid=dc46bf9a-d758-41d1-bda7-66099081b117"},"vehicle_type_id":"4","last_reported":1747649517,"current_range_meters":14400,"station_id":"ce4bhgp2rcd13ifvqfc0","pricing_plan_id":"cebpf4jnsgd1na2vs0mg"},{"bike_id":"313f4982-5a69-40ef-90f0-2f461afc1bde","system_id":"levelo_inurba_marseille","lat":43.28711,"lon":5.39994,"is_reserved":false,"is_disabled":false,"rental_uris":{"android":"levelo://app?vid=313f4982-5a69-40ef-90f0-2f461afc1bde","ios":"levelo://app?vid=313f4982-5a69-40ef-90f0-2f461afc1bde"},"vehicle_type_id":"4","last_reported":1747649517,"current_range_meters":14400,"station_id":"ce4bho92rcd13ifvqh3g","pricing_plan_id":"cebpf4jnsgd1na2vs0mg"},{"bike_id":"5b9a3589-4ad5-487e-a090-4a9dda22cd50","system_id":"levelo_inurba_marseille","lat":43.29077,"lon":5.37175,"is_reserved":false,"is_disabled":false,"rental_uris":{"android":"levelo://app?vid=5b9a3589-4ad5-487e-a090-4a9dda22cd50","ios":"levelo://app?vid=5b9a3589-4ad5-487e-a090-4a9dda22cd50"},"vehicle_type_id":"4","last_reported":1747649517,"current_range_meters":14800,"station_id":"ce4bh5p2rcd13ifvqe4g","pricing_plan_id":"cebpf4jnsgd1na2vs0mg"},{"bike_id":"94bdc35b-713b-4ae7-9fdb-b1e4bed922c2","system_id":"levelo_inurba_marseille","lat":43.27493,"lon":5.42449,"is_reserved":false,"is_disabled":false,"rental_uris":{"android":"levelo://app?vid=94bdc35b-713b-4ae7-9fdb-b1e4bed922c2","ios":"levelo://app?vid=94bdc35b-713b-4ae7-9fdb-b1e4bed922c2"},"vehicle_type_id":"4","last_reported":1747649517,"current_range_meters":14800,"station_id":"ce4bhn92rcd13ifvqgrg","pricing_plan_id":"cebpf4jnsgd1na2vs0mg"},{"bike_id":"74779d32-87cf-4f23-b047-7955c944ddd2","system_id":"levelo_inurba_marseille","lat":43.2979,"lon":5.38111,"is_reserved":false,"is_disabled":true,"rental_uris":{"android":"levelo://app?vid=74779d32-87cf-4f23-b047-7955c944ddd2","ios":"levelo://app?vid=74779d32-87cf-4f23-b047-7955c944ddd2"},"vehicle_type_id":"4","last_reported":1747649517,"current_range_meters":14800,"station_id":"ce4bgip2rcd13ifvqbb0","pricing_plan_id":"cebpf4jnsgd1na2vs0mg"},{"bike_id":"f63c9346-f5de-4472-920c-b0cafb41a135","system_id":"levelo_inurba_marseille","lat":43.270803,"lon":5.402738,"is_reserved":false,"is_disabled":true,"rental_uris":{"android":"levelo://app?vid=f63c9346-f5de-4472-920c-b0cafb41a135","ios":"levelo://app?vid=f63c9346-f5de-4472-920c-b0cafb41a135"},"vehicle_type_id":"4","last_reported":1747649517,"current_range_meters":14800,"station_id":"ce4bhk92rcd13ifvqgc0","pricing_plan_id":"cebpf4jnsgd1na2vs0mg"},{"bike_id":"710241c1-46a3-4954-9e50-bd4b0b3c4335","system_id":"levelo_inurba_marseille","lat":43.31364,"lon":5.38511,"is_reserved":false,"is_disabled":true,"rental_uris":{"android":"levelo://app?vid=710241c1-46a3-4954-9e50-bd4b0b3c4335","ios":"levelo://app?vid=710241c1-46a3-4954-9e50-bd4b0b3c4335"},"vehicle_type_id":"4","last_reported":1747649517,"current_range_meters":15200,"station_id":"ce4bgt92rcd13ifvqcf0","pricing_plan_id":"cebpf4jnsgd1na2vs0mg"},{"bike_id":"147f0919-b4f4-4da5-a06b-5f70c1438bc0","system_id":"levelo_inurba_marseille","lat":43.25952,"lon":5.40889,"is_reserved":false,"is_disabled":false,"rental_uris":{"android":"levelo://app?vid=147f0919-b4f4-4da5-a06b-5f70c1438bc0","ios":"levelo://app?vid=147f0919-b4f4-4da5-a06b-5f70c1438bc0"},"vehicle_type_id":"4","last_reported":1747649517,"current_range_meters":15200,"station_id":"ce4bhm92rcd13ifvqglg","pricing_plan_id":"cebpf4jnsgd1na2vs0mg"},{"bike_id":"122599a7-c3d2-4bf9-9296-d48d6a468b06","system_id":"levelo_inurba_marseille","lat":43.27563,"lon":5.38415,"is_reserved":false,"is_disabled":false,"rental_uris":{"android":"levelo://app?vid=122599a7-c3d2-4bf9-9296-d48d6a468b06","ios":"levelo://app?vid=122599a7-c3d2-4bf9-9296-d48d6a468b06"},"vehicle_type_id":"4","last_reported":1747649517,"current_range_meters":15200,"station_id":"ce4bhh92rcd13ifvqfi0","pricing_plan_id":"cebpf4jnsgd1na2vs0mg"},{"bike_id":"08129706-0840-4cc7-a7e9-4dbc2d7407ba","system_id":"levelo_inurba_marseille","lat":43.23188,"lon":5.3998,"is_reserved":false,"is_disabled":false,"rental_uris":{"android":"levelo://app?vid=08129706-0840-4cc7-a7e9-4dbc2d7407ba","ios":"levelo://app?vid=08129706-0840-4cc7-a7e9-4dbc2d7407ba"},"vehicle_type_id":"4","last_reported":1747649517,"current_range_meters":15200,"station_id":"ce4bhn12rcd13ifvqgqg","pricing_plan_id":"cebpf4jnsgd1na2vs0mg"},{"bike_id":"5569cee7-fc98-4236-a97c-66ae22213eac","system_id":"levelo_inurba_marseille","lat":43.23149,"lon":5.43705,"is_reserved":false,"is_disabled":false,"rental_uris":{"android":"levelo://app?vid=5569cee7-fc98-4236-a97c-66ae22213eac","ios":"levelo://app?vid=5569cee7-fc98-4236-a97c-66ae22213eac"},"vehicle_type_id":"4","last_reported":1747649517,"current_range_meters":15200,"station_id":"ce4bhmp2rcd13ifvqgog","pricing_plan_id":"cebpf4jnsgd1na2vs0mg"},{"bike_id":"027dd2ef-6eb0-42b4-82bf-a8f11cbb8433","system_id":"levelo_inurba_marseille","lat":43.23156,"lon":5.43703,"is_reserved":false,"is_disabled":false,"rental_uris":{"android":"levelo://app?vid=027dd2ef-6eb0-42b4-82bf-a8f11cbb8433","ios":"levelo://app?vid=027dd2ef-6eb0-42b4-82bf-a8f11cbb8433"},"vehicle_type_id":"4","last_reported":1747649517,"current_range_meters":16000,"station_id":"ce4bhmp2rcd13ifvqgog","pricing_plan_id":"cebpf4jnsgd1na2vs0mg"},{"bike_id":"293589fd-7658-4273-9fdd-35b57ad2d7ce","system_id":"levelo_inurba_marseille","lat":43.3134,"lon":5.36646,"is_reserved":false,"is_disabled":false,"rental_uris":{"android":"levelo://app?vid=293589fd-7658-4273-9fdd-35b57ad2d7ce","ios":"levelo://app?vid=293589fd-7658-4273-9fdd-35b57ad2d7ce"},"vehicle_type_id":"4","last_reported":1747649517,"current_range_meters":16000,"station_id":"","pricing_plan_id":"cebpf4jnsgd1na2vs0mg"},{"bike_id":"47e833c7-b34c-476b-bfe7-81bdb4db04e4","system_id":"levelo_inurba_marseille","lat":43.25935,"lon":5.40905,"is_reserved":false,"is_disabled":false,"rental_uris":{"android":"levelo://app?vid=47e833c7-b34c-476b-bfe7-81bdb4db04e4","ios":"levelo://app?vid=47e833c7-b34c-476b-bfe7-81bdb4db04e4"},"vehicle_type_id":"4","last_reported":1747649517,"current_range_meters":16000,"station_id":"ce4bhm92rcd13ifvqglg","pricing_plan_id":"cebpf4jnsgd1na2vs0mg"},{"bike_id":"de183e09-7f45-47e5-8da1-9e8e6ec73094","system_id":"levelo_inurba_marseille","lat":43.24549,"lon":5.39524,"is_reserved":false,"is_disabled":false,"rental_uris":{"android":"levelo://app?vid=de183e09-7f45-47e5-8da1-9e8e6ec73094","ios":"levelo://app?vid=de183e09-7f45-47e5-8da1-9e8e6ec73094"},"vehicle_type_id":"4","last_reported":1747649517,"current_range_meters":14800,"station_id":"ce4bhlp2rcd13ifvqgjg","pricing_plan_id":"cebpf4jnsgd1na2vs0mg"},{"bike_id":"e88e25b5-d8ac-4bb1-9ea7-2893f1b26f63","system_id":"levelo_inurba_marseille","lat":43.324868,"lon":5.365738,"is_reserved":false,"is_disabled":false,"rental_uris":{"android":"levelo://app?vid=e88e25b5-d8ac-4bb1-9ea7-2893f1b26f63","ios":"levelo://app?vid=e88e25b5-d8ac-4bb1-9ea7-2893f1b26f63"},"vehicle_type_id":"4","last_reported":1747649517,"current_range_meters":16000,"station_id":"ce4bhs12rcd13ifvqhvg","pricing_plan_id":"cebpf4jnsgd1na2vs0mg"},{"bike_id":"5f227862-d2e6-471b-bc7a-2e508e8b8acf","system_id":"levelo_inurba_marseille","lat":43.25828,"lon":5.39441,"is_reserved":false,"is_disabled":false,"rental_uris":{"android":"levelo://app?vid=5f227862-d2e6-471b-bc7a-2e508e8b8acf","ios":"levelo://app?vid=5f227862-d2e6-471b-bc7a-2e508e8b8acf"},"vehicle_type_id":"4","last_reported":1747649517,"current_range_meters":16000,"station_id":"ce4bhip2rcd13ifvqft0","pricing_plan_id":"cebpf4jnsgd1na2vs0mg"},{"bike_id":"e8162579-a5ad-485f-ad83-fec8a2ebe7e1","system_id":"levelo_inurba_marseille","lat":43.26826,"lon":5.39099,"is_reserved":false,"is_disabled":false,"rental_uris":{"android":"levelo://app?vid=e8162579-a5ad-485f-ad83-fec8a2ebe7e1","ios":"levelo://app?vid=e8162579-a5ad-485f-ad83-fec8a2ebe7e1"},"vehicle_type_id":"4","last_reported":1747649517,"current_range_meters":16800,"station_id":"","pricing_plan_id":"cebpf4jnsgd1na2vs0mg"},{"bike_id":"1844f55d-0b4f-4ef0-bf3a-b0b9b8d26988","system_id":"levelo_inurba_marseille","lat":43.32475,"lon":5.36595,"is_reserved":false,"is_disabled":false,"rental_uris":{"android":"levelo://app?vid=1844f55d-0b4f-4ef0-bf3a-b0b9b8d26988","ios":"levelo://app?vid=1844f55d-0b4f-4ef0-bf3a-b0b9b8d26988"},"vehicle_type_id":"4","last_reported":1747649517,"current_range_meters":16800,"station_id":"ce4bhs12rcd13ifvqhvg","pricing_plan_id":"cebpf4jnsgd1na2vs0mg"},{"bike_id":"28f45564-465a-406a-9f7f-ac04ecf5329b","system_id":"levelo_inurba_marseille","lat":43.32487,"lon":5.36568,"is_reserved":false,"is_disabled":false,"rental_uris":{"android":"levelo://app?vid=28f45564-465a-406a-9f7f-ac04ecf5329b","ios":"levelo://app?vid=28f45564-465a-406a-9f7f-ac04ecf5329b"},"vehicle_type_id":"4","last_reported":1747649517,"current_range_meters":16800,"station_id":"ce4bhs12rcd13ifvqhvg","pricing_plan_id":"cebpf4jnsgd1na2vs0mg"},{"bike_id":"e7ac663d-310b-41f1-9c9e-38449b2c1be3","system_id":"levelo_inurba_marseille","lat":43.30324,"lon":5.40435,"is_reserved":false,"is_disabled":false,"rental_uris":{"android":"levelo://app?vid=e7ac663d-310b-41f1-9c9e-38449b2c1be3","ios":"levelo://app?vid=e7ac663d-310b-41f1-9c9e-38449b2c1be3"},"vehicle_type_id":"4","last_reported":1747649517,"current_range_meters":16800,"station_id":"ce4bh012rcd13ifvqd10","pricing_plan_id":"cebpf4jnsgd1na2vs0mg"},{"bike_id":"ec5696db-b3a4-4ace-9494-c5ae12f4361d","system_id":"levelo_inurba_marseille","lat":43.27462,"lon":5.36074,"is_reserved":false,"is_disabled":true,"rental_uris":{"android":"levelo://app?vid=ec5696db-b3a4-4ace-9494-c5ae12f4361d","ios":"levelo://app?vid=ec5696db-b3a4-4ace-9494-c5ae12f4361d"},"vehicle_type_id":"4","last_reported":1747649517,"current_range_meters":16800,"station_id":"","pricing_plan_id":"cebpf4jnsgd1na2vs0mg"},{"bike_id":"0f5c92df-9eb3-43f2-ab31-5fe4585d1334","system_id":"levelo_inurba_marseille","lat":43.33775,"lon":5.37436,"is_reserved":false,"is_disabled":false,"rental_uris":{"android":"levelo://app?vid=0f5c92df-9eb3-43f2-ab31-5fe4585d1334","ios":"levelo://app?vid=0f5c92df-9eb3-43f2-ab31-5fe4585d1334"},"vehicle_type_id":"4","last_reported":1747649517,"current_range_meters":17200,"station_id":"","pricing_plan_id":"cebpf4jnsgd1na2vs0mg"},{"bike_id":"ab7d1ddb-c6ab-4c47-831b-69e06fb8bb1b","system_id":"levelo_inurba_marseille","lat":43.21748,"lon":5.34602,"is_reserved":false,"is_disabled":false,"rental_uris":{"android":"levelo://app?vid=ab7d1ddb-c6ab-4c47-831b-69e06fb8bb1b","ios":"levelo://app?vid=ab7d1ddb-c6ab-4c47-831b-69e06fb8bb1b"},"vehicle_type_id":"4","last_reported":1747649517,"current_range_meters":17200,"station_id":"st_cvj6r9ubvosntc0bgbag","pricing_plan_id":"cebpf4jnsgd1na2vs0mg"},{"bike_id":"99d624d1-b838-4730-a163-41f258a0b11e","system_id":"levelo_inurba_marseille","lat":43.31236,"lon":5.36868,"is_reserved":false,"is_disabled":false,"rental_uris":{"android":"levelo://app?vid=99d624d1-b838-4730-a163-41f258a0b11e","ios":"levelo://app?vid=99d624d1-b838-4730-a163-41f258a0b11e"},"vehicle_type_id":"4","last_reported":1747649517,"current_range_meters":17200,"station_id":"ce4bgl92rcd13ifvqbq0","pricing_plan_id":"cebpf4jnsgd1na2vs0mg"},{"bike_id":"e4aa2242-c0d3-446a-87c6-36dcfdba0794","system_id":"levelo_inurba_marseille","lat":43.31084,"lon":5.42433,"is_reserved":false,"is_disabled":false,"rental_uris":{"android":"levelo://app?vid=e4aa2242-c0d3-446a-87c6-36dcfdba0794","ios":"levelo://app?vid=e4aa2242-c0d3-446a-87c6-36dcfdba0794"},"vehicle_type_id":"4","last_reported":1747649517,"current_range_meters":17200,"station_id":"ce4bhp92rcd13ifvqhag","pricing_plan_id":"cebpf4jnsgd1na2vs0mg"},{"bike_id":"2a4b3516-2bab-4f78-a10c-03363976888b","system_id":"levelo_inurba_marseille","lat":43.24673,"lon":5.38156,"is_reserved":false,"is_disabled":false,"rental_uris":{"android":"levelo://app?vid=2a4b3516-2bab-4f78-a10c-03363976888b","ios":"levelo://app?vid=2a4b3516-2bab-4f78-a10c-03363976888b"},"vehicle_type_id":"4","last_reported":1747649517,"current_range_meters":17200,"station_id":"ce4bhih2rcd13ifvqfr0","pricing_plan_id":"cebpf4jnsgd1na2vs0mg"},{"bike_id":"a73e6b8f-227f-455c-8988-dae9916dcd66","system_id":"levelo_inurba_marseille","lat":43.27073,"lon":5.42264,"is_reserved":false,"is_disabled":false,"rental_uris":{"android":"levelo://app?vid=a73e6b8f-227f-455c-8988-dae9916dcd66","ios":"levelo://app?vid=a73e6b8f-227f-455c-8988-dae9916dcd66"},"vehicle_type_id":"4","last_reported":1747649517,"current_range_meters":17200,"station_id":"ce4bhk92rcd13ifvqgb0","pricing_plan_id":"cebpf4jnsgd1na2vs0mg"},{"bike_id":"a5fbda63-723d-4a0f-968f-b97363a065d3","system_id":"levelo_inurba_marseille","lat":43.28282,"lon":5.35063,"is_reserved":false,"is_disabled":false,"rental_uris":{"android":"levelo://app?vid=a5fbda63-723d-4a0f-968f-b97363a065d3","ios":"levelo://app?vid=a5fbda63-723d-4a0f-968f-b97363a065d3"},"vehicle_type_id":"4","last_reported":1747649517,"current_range_meters":17200,"station_id":"ce4bhbp2rcd13ifvqerg","pricing_plan_id":"cebpf4jnsgd1na2vs0mg"},{"bike_id":"30dde2a1-91e0-46af-a7e6-5a508e928a14","system_id":"levelo_inurba_marseille","lat":43.26202,"lon":5.37445,"is_reserved":false,"is_disabled":false,"rental_uris":{"android":"levelo://app?vid=30dde2a1-91e0-46af-a7e6-5a508e928a14","ios":"levelo://app?vid=30dde2a1-91e0-46af-a7e6-5a508e928a14"},"vehicle_type_id":"4","last_reported":1747649517,"current_range_meters":17200,"station_id":"ce4bhgp2rcd13ifvqfc0","pricing_plan_id":"cebpf4jnsgd1na2vs0mg"},{"bike_id":"53882ed9-e061-4498-98dc-917b66609f40","system_id":"levelo_inurba_marseille","lat":43.25912,"lon":5.40894,"is_reserved":false,"is_disabled":false,"rental_uris":{"android":"levelo://app?vid=53882ed9-e061-4498-98dc-917b66609f40","ios":"levelo://app?vid=53882ed9-e061-4498-98dc-917b66609f40"},"vehicle_type_id":"4","last_reported":1747649517,"current_range_meters":17200,"station_id":"ce4bhm92rcd13ifvqglg","pricing_plan_id":"cebpf4jnsgd1na2vs0mg"},{"bike_id":"9bdf0737-d311-462f-a91b-e24949ab91ba","system_id":"levelo_inurba_marseille","lat":43.28726,"lon":5.36099,"is_reserved":false,"is_disabled":false,"rental_uris":{"android":"levelo://app?vid=9bdf0737-d311-462f-a91b-e24949ab91ba","ios":"levelo://app?vid=9bdf0737-d311-462f-a91b-e24949ab91ba"},"vehicle_type_id":"4","last_reported":1747649517,"current_range_meters":17600,"station_id":"cki0cbj6b192h4jlfktg","pricing_plan_id":"cebpf4jnsgd1na2vs0mg"},{"bike_id":"65b05e62-1155-47a7-b5a7-3d8242137a17","system_id":"levelo_inurba_marseille","lat":43.30549,"lon":5.36695,"is_reserved":false,"is_disabled":false,"rental_uris":{"android":"levelo://app?vid=65b05e62-1155-47a7-b5a7-3d8242137a17","ios":"levelo://app?vid=65b05e62-1155-47a7-b5a7-3d8242137a17"},"vehicle_type_id":"4","last_reported":1747649517,"current_range_meters":17200,"station_id":"ce4bgrp2rcd13ifvqc9g","pricing_plan_id":"cebpf4jnsgd1na2vs0mg"},{"bike_id":"c2621727-2a3e-4c0d-8a76-d0b21655c733","system_id":"levelo_inurba_marseille","lat":43.29231,"lon":5.36071,"is_reserved":false,"is_disabled":false,"rental_uris":{"android":"levelo://app?vid=c2621727-2a3e-4c0d-8a76-d0b21655c733","ios":"levelo://app?vid=c2621727-2a3e-4c0d-8a76-d0b21655c733"},"vehicle_type_id":"4","last_reported":1747649517,"current_range_meters":17200,"station_id":"ce4bhbh2rcd13ifvqeqg","pricing_plan_id":"cebpf4jnsgd1na2vs0mg"},{"bike_id":"512cad48-a180-4060-b1f1-89c6ef5852f2","system_id":"levelo_inurba_marseille","lat":43.337444,"lon":5.374475,"is_reserved":false,"is_disabled":false,"rental_uris":{"android":"levelo://app?vid=512cad48-a180-4060-b1f1-89c6ef5852f2","ios":"levelo://app?vid=512cad48-a180-4060-b1f1-89c6ef5852f2"},"vehicle_type_id":"4","last_reported":1747649517,"current_range_meters":17200,"station_id":"ce4bhn12rcd13ifvqgqg","pricing_plan_id":"cebpf4jnsgd1na2vs0mg"},{"bike_id":"43dee8ab-d7cc-4e0d-9240-3001cad729f9","system_id":"levelo_inurba_marseille","lat":43.29629,"lon":5.40597,"is_reserved":false,"is_disabled":false,"rental_uris":{"android":"levelo://app?vid=43dee8ab-d7cc-4e0d-9240-3001cad729f9","ios":"levelo://app?vid=43dee8ab-d7cc-4e0d-9240-3001cad729f9"},"vehicle_type_id":"4","last_reported":1747649517,"current_range_meters":17200,"station_id":"ce4bh0h2rcd13ifvqd60","pricing_plan_id":"cebpf4jnsgd1na2vs0mg"},{"bike_id":"9c8038dc-1156-4130-8a24-62a9599816af","system_id":"levelo_inurba_marseille","lat":43.32358,"lon":5.36753,"is_reserved":false,"is_disabled":false,"rental_uris":{"android":"levelo://app?vid=9c8038dc-1156-4130-8a24-62a9599816af","ios":"levelo://app?vid=9c8038dc-1156-4130-8a24-62a9599816af"},"vehicle_type_id":"4","last_reported":1747649517,"current_range_meters":17600,"station_id":"ce4bhsh2rcd13ifvqi2g","pricing_plan_id":"cebpf4jnsgd1na2vs0mg"},{"bike_id":"e2e3a6f6-0f08-4185-b27b-75bc9500a96d","system_id":"levelo_inurba_marseille","lat":43.211921,"lon":5.350748,"is_reserved":false,"is_disabled":false,"rental_uris":{"android":"levelo://app?vid=e2e3a6f6-0f08-4185-b27b-75bc9500a96d","ios":"levelo://app?vid=e2e3a6f6-0f08-4185-b27b-75bc9500a96d"},"vehicle_type_id":"4","last_reported":1747649517,"current_range_meters":17600,"station_id":"st_cvj6sg6p6f1abm77japg","pricing_plan_id":"cebpf4jnsgd1na2vs0mg"},{"bike_id":"3552fbf2-b43a-446f-93f5-d695fc251b73","system_id":"levelo_inurba_marseille","lat":43.25173,"lon":5.375206,"is_reserved":false,"is_disabled":false,"rental_uris":{"android":"levelo://app?vid=3552fbf2-b43a-446f-93f5-d695fc251b73","ios":"levelo://app?vid=3552fbf2-b43a-446f-93f5-d695fc251b73"},"vehicle_type_id":"4","last_reported":1747649517,"current_range_meters":17600,"station_id":"","pricing_plan_id":"cebpf4jnsgd1na2vs0mg"},{"bike_id":"2107886c-e27d-46a0-b94e-0cf078e3db4a","system_id":"levelo_inurba_marseille","lat":43.26199,"lon":5.37445,"is_reserved":false,"is_disabled":false,"rental_uris":{"android":"levelo://app?vid=2107886c-e27d-46a0-b94e-0cf078e3db4a","ios":"levelo://app?vid=2107886c-e27d-46a0-b94e-0cf078e3db4a"},"vehicle_type_id":"4","last_reported":1747649517,"current_range_meters":17600,"station_id":"ce4bhgp2rcd13ifvqfc0","pricing_plan_id":"cebpf4jnsgd1na2vs0mg"},{"bike_id":"ead550e1-fd54-467c-9c20-02577cc380d6","system_id":"levelo_inurba_marseille","lat":43.246494,"lon":5.388884,"is_reserved":false,"is_disabled":false,"rental_uris":{"android":"levelo://app?vid=ead550e1-fd54-467c-9c20-02577cc380d6","ios":"levelo://app?vid=ead550e1-fd54-467c-9c20-02577cc380d6"},"vehicle_type_id":"4","last_reported":1747649517,"current_range_meters":17600,"station_id":"ce4bhg12rcd13ifvqf60","pricing_plan_id":"cebpf4jnsgd1na2vs0mg"},{"bike_id":"677ce4f0-2027-4faf-ad67-006be1ba409d","system_id":"levelo_inurba_marseille","lat":43.31713,"lon":5.43722,"is_reserved":false,"is_disabled":false,"rental_uris":{"android":"levelo://app?vid=677ce4f0-2027-4faf-ad67-006be1ba409d","ios":"levelo://app?vid=677ce4f0-2027-4faf-ad67-006be1ba409d"},"vehicle_type_id":"4","last_reported":1747649517,"current_range_meters":18000,"station_id":"ce4bhp92rcd13ifvqhcg","pricing_plan_id":"cebpf4jnsgd1na2vs0mg"},{"bike_id":"b4092363-ce05-481e-b8a5-74f257327df5","system_id":"levelo_inurba_marseille","lat":43.250869,"lon":5.395242,"is_reserved":false,"is_disabled":false,"rental_uris":{"android":"levelo://app?vid=b4092363-ce05-481e-b8a5-74f257327df5","ios":"levelo://app?vid=b4092363-ce05-481e-b8a5-74f257327df5"},"vehicle_type_id":"4","last_reported":1747649517,"current_range_meters":18000,"station_id":"ce4bhm12rcd13ifvqgkg","pricing_plan_id":"cebpf4jnsgd1na2vs0mg"},{"bike_id":"cd09287d-8d90-47c5-b120-5db6c474d8ee","system_id":"levelo_inurba_marseille","lat":43.28361,"lon":5.38654,"is_reserved":false,"is_disabled":false,"rental_uris":{"android":"levelo://app?vid=cd09287d-8d90-47c5-b120-5db6c474d8ee","ios":"levelo://app?vid=cd09287d-8d90-47c5-b120-5db6c474d8ee"},"vehicle_type_id":"4","last_reported":1747649517,"current_range_meters":17600,"station_id":"ce4bh492rcd13ifvqdvg","pricing_plan_id":"cebpf4jnsgd1na2vs0mg"},{"bike_id":"856e1621-6ab6-41f8-b3bb-25a2d12d9b9f","system_id":"levelo_inurba_marseille","lat":43.31235,"lon":5.368724,"is_reserved":false,"is_disabled":false,"rental_uris":{"android":"levelo://app?vid=856e1621-6ab6-41f8-b3bb-25a2d12d9b9f","ios":"levelo://app?vid=856e1621-6ab6-41f8-b3bb-25a2d12d9b9f"},"vehicle_type_id":"4","last_reported":1747649517,"current_range_meters":18000,"station_id":"ce4bgl92rcd13ifvqbq0","pricing_plan_id":"cebpf4jnsgd1na2vs0mg"},{"bike_id":"e0cef50a-4ece-4e74-b256-2b6f863bd396","system_id":"levelo_inurba_marseille","lat":43.25936,"lon":5.40872,"is_reserved":false,"is_disabled":false,"rental_uris":{"android":"levelo://app?vid=e0cef50a-4ece-4e74-b256-2b6f863bd396","ios":"levelo://app?vid=e0cef50a-4ece-4e74-b256-2b6f863bd396"},"vehicle_type_id":"4","last_reported":1747649517,"current_range_meters":18800,"station_id":"ce4bhm92rcd13ifvqglg","pricing_plan_id":"cebpf4jnsgd1na2vs0mg"},{"bike_id":"8675cc91-343d-4f04-a5ab-d440461b07f3","system_id":"levelo_inurba_marseille","lat":43.25946,"lon":5.40916,"is_reserved":false,"is_disabled":false,"rental_uris":{"android":"levelo://app?vid=8675cc91-343d-4f04-a5ab-d440461b07f3","ios":"levelo://app?vid=8675cc91-343d-4f04-a5ab-d440461b07f3"},"vehicle_type_id":"4","last_reported":1747649517,"current_range_meters":18800,"station_id":"ce4bhm92rcd13ifvqglg","pricing_plan_id":"cebpf4jnsgd1na2vs0mg"},{"bike_id":"26283993-e9c8-469b-b1ea-05a027988f4d","system_id":"levelo_inurba_marseille","lat":43.25493,"lon":5.37654,"is_reserved":false,"is_disabled":true,"rental_uris":{"android":"levelo://app?vid=26283993-e9c8-469b-b1ea-05a027988f4d","ios":"levelo://app?vid=26283993-e9c8-469b-b1ea-05a027988f4d"},"vehicle_type_id":"4","last_reported":1747649517,"current_range_meters":18800,"station_id":"","pricing_plan_id":"cebpf4jnsgd1na2vs0mg"},{"bike_id":"143383ab-df8a-4bfb-bc09-4c05e3617dc8","system_id":"levelo_inurba_marseille","lat":43.3117,"lon":5.38716,"is_reserved":false,"is_disabled":false,"rental_uris":{"android":"levelo://app?vid=143383ab-df8a-4bfb-bc09-4c05e3617dc8","ios":"levelo://app?vid=143383ab-df8a-4bfb-bc09-4c05e3617dc8"},"vehicle_type_id":"4","last_reported":1747649517,"current_range_meters":18800,"station_id":"ce4bgv12rcd13ifvqcp0","pricing_plan_id":"cebpf4jnsgd1na2vs0mg"},{"bike_id":"cd657597-6ceb-4adf-97ea-411cc0416492","system_id":"levelo_inurba_marseille","lat":43.30541,"lon":5.36552,"is_reserved":false,"is_disabled":false,"rental_uris":{"android":"levelo://app?vid=cd657597-6ceb-4adf-97ea-411cc0416492","ios":"levelo://app?vid=cd657597-6ceb-4adf-97ea-411cc0416492"},"vehicle_type_id":"4","last_reported":1747649517,"current_range_meters":18800,"station_id":"ce4bgs12rcd13ifvqcag","pricing_plan_id":"cebpf4jnsgd1na2vs0mg"},{"bike_id":"3f7fe803-6821-4217-89f8-fc9b77e464f6","system_id":"levelo_inurba_marseille","lat":43.31326,"lon":5.36746,"is_reserved":false,"is_disabled":false,"rental_uris":{"android":"levelo://app?vid=3f7fe803-6821-4217-89f8-fc9b77e464f6","ios":"levelo://app?vid=3f7fe803-6821-4217-89f8-fc9b77e464f6"},"vehicle_type_id":"4","last_reported":1747649517,"current_range_meters":18800,"station_id":"ce4bgr92rcd13ifvqc6g","pricing_plan_id":"cebpf4jnsgd1na2vs0mg"},{"bike_id":"85d0eee4-7023-4816-8341-7b198d182543","system_id":"levelo_inurba_marseille","lat":43.25935,"lon":5.40838,"is_reserved":false,"is_disabled":false,"rental_uris":{"android":"levelo://app?vid=85d0eee4-7023-4816-8341-7b198d182543","ios":"levelo://app?vid=85d0eee4-7023-4816-8341-7b198d182543"},"vehicle_type_id":"4","last_reported":1747649517,"current_range_meters":18800,"station_id":"ce4bhm92rcd13ifvqglg","pricing_plan_id":"cebpf4jnsgd1na2vs0mg"},{"bike_id":"74caece3-0366-45d1-ad29-c4f1a1a87b31","system_id":"levelo_inurba_marseille","lat":43.2175,"lon":5.34597,"is_reserved":false,"is_disabled":false,"rental_uris":{"android":"levelo://app?vid=74caece3-0366-45d1-ad29-c4f1a1a87b31","ios":"levelo://app?vid=74caece3-0366-45d1-ad29-c4f1a1a87b31"},"vehicle_type_id":"4","last_reported":1747649517,"current_range_meters":19200,"station_id":"st_cvj6r9ubvosntc0bgbag","pricing_plan_id":"cebpf4jnsgd1na2vs0mg"},{"bike_id":"dc61c065-6ed1-487e-9ecf-5a93a8f61ca7","system_id":"levelo_inurba_marseille","lat":43.231822,"lon":5.399822,"is_reserved":false,"is_disabled":false,"rental_uris":{"android":"levelo://app?vid=dc61c065-6ed1-487e-9ecf-5a93a8f61ca7","ios":"levelo://app?vid=dc61c065-6ed1-487e-9ecf-5a93a8f61ca7"},"vehicle_type_id":"4","last_reported":1747649517,"current_range_meters":19200,"station_id":"ce4bhn12rcd13ifvqgqg","pricing_plan_id":"cebpf4jnsgd1na2vs0mg"},{"bike_id":"dfdf3930-43e0-47e1-9839-43933c7fe818","system_id":"levelo_inurba_marseille","lat":43.27949,"lon":5.41049,"is_reserved":false,"is_disabled":false,"rental_uris":{"android":"levelo://app?vid=dfdf3930-43e0-47e1-9839-43933c7fe818","ios":"levelo://app?vid=dfdf3930-43e0-47e1-9839-43933c7fe818"},"vehicle_type_id":"4","last_reported":1747649517,"current_range_meters":19200,"station_id":"ce4bhnp2rcd13ifvqh0g","pricing_plan_id":"cebpf4jnsgd1na2vs0mg"},{"bike_id":"b2fb9e5b-0ba4-4789-9013-8b0cfd242aea","system_id":"levelo_inurba_marseille","lat":43.28603,"lon":5.37057,"is_reserved":false,"is_disabled":false,"rental_uris":{"android":"levelo://app?vid=b2fb9e5b-0ba4-4789-9013-8b0cfd242aea","ios":"levelo://app?vid=b2fb9e5b-0ba4-4789-9013-8b0cfd242aea"},"vehicle_type_id":"4","last_reported":1747649517,"current_range_meters":19200,"station_id":"ce4bht12rcd13ifvqi60","pricing_plan_id":"cebpf4jnsgd1na2vs0mg"},{"bike_id":"a162cffd-ee20-4551-903b-8d20a74c4973","system_id":"levelo_inurba_marseille","lat":43.3055,"lon":5.36715,"is_reserved":false,"is_disabled":false,"rental_uris":{"android":"levelo://app?vid=a162cffd-ee20-4551-903b-8d20a74c4973","ios":"levelo://app?vid=a162cffd-ee20-4551-903b-8d20a74c4973"},"vehicle_type_id":"4","last_reported":1747649517,"current_range_meters":19200,"station_id":"ce4bgrp2rcd13ifvqc9g","pricing_plan_id":"cebpf4jnsgd1na2vs0mg"},{"bike_id":"546f94e5-ca4c-4103-9119-b0017fc6f515","system_id":"levelo_inurba_marseille","lat":43.32114,"lon":5.3677,"is_reserved":false,"is_disabled":false,"rental_uris":{"android":"levelo://app?vid=546f94e5-ca4c-4103-9119-b0017fc6f515","ios":"levelo://app?vid=546f94e5-ca4c-4103-9119-b0017fc6f515"},"vehicle_type_id":"4","last_reported":1747649517,"current_range_meters":19200,"station_id":"ce4bhrh2rcd13ifvqhug","pricing_plan_id":"cebpf4jnsgd1na2vs0mg"},{"bike_id":"297bb6c3-641c-4644-b187-042fdcedffb1","system_id":"levelo_inurba_marseille","lat":43.336,"lon":5.41006,"is_reserved":false,"is_disabled":false,"rental_uris":{"android":"levelo://app?vid=297bb6c3-641c-4644-b187-042fdcedffb1","ios":"levelo://app?vid=297bb6c3-641c-4644-b187-042fdcedffb1"},"vehicle_type_id":"4","last_reported":1747649517,"current_range_meters":18800,"station_id":"ce4bhqh2rcd13ifvqhmg","pricing_plan_id":"cebpf4jnsgd1na2vs0mg"},{"bike_id":"8003f1f1-aabc-4a95-af5a-f8124d5a7728","system_id":"levelo_inurba_marseille","lat":43.23175,"lon":5.39973,"is_reserved":false,"is_disabled":false,"rental_uris":{"android":"levelo://app?vid=8003f1f1-aabc-4a95-af5a-f8124d5a7728","ios":"levelo://app?vid=8003f1f1-aabc-4a95-af5a-f8124d5a7728"},"vehicle_type_id":"4","last_reported":1747649517,"current_range_meters":19600,"station_id":"ce4bhn12rcd13ifvqgqg","pricing_plan_id":"cebpf4jnsgd1na2vs0mg"},{"bike_id":"800b18d5-afe7-4aab-9e9d-52557b959315","system_id":"levelo_inurba_marseille","lat":43.29858,"lon":5.36274,"is_reserved":false,"is_disabled":false,"rental_uris":{"android":"levelo://app?vid=800b18d5-afe7-4aab-9e9d-52557b959315","ios":"levelo://app?vid=800b18d5-afe7-4aab-9e9d-52557b959315"},"vehicle_type_id":"4","last_reported":1747649517,"current_range_meters":19600,"station_id":"ce4bgpp2rcd13ifvqc3g","pricing_plan_id":"cebpf4jnsgd1na2vs0mg"},{"bike_id":"092089d5-64a2-499e-8b8a-c2f097e0c5b7","system_id":"levelo_inurba_marseille","lat":43.28363,"lon":5.38636,"is_reserved":false,"is_disabled":false,"rental_uris":{"android":"levelo://app?vid=092089d5-64a2-499e-8b8a-c2f097e0c5b7","ios":"levelo://app?vid=092089d5-64a2-499e-8b8a-c2f097e0c5b7"},"vehicle_type_id":"4","last_reported":1747649517,"current_range_meters":20000,"station_id":"ce4bh492rcd13ifvqdvg","pricing_plan_id":"cebpf4jnsgd1na2vs0mg"},{"bike_id":"33899e46-89e9-4858-b04b-b3ebb2691aed","system_id":"levelo_inurba_marseille","lat":43.288882,"lon":5.400087,"is_reserved":false,"is_disabled":false,"rental_uris":{"android":"levelo://app?vid=33899e46-89e9-4858-b04b-b3ebb2691aed","ios":"levelo://app?vid=33899e46-89e9-4858-b04b-b3ebb2691aed"},"vehicle_type_id":"4","last_reported":1747649517,"current_range_meters":20400,"station_id":"cjm6bp8fraef2m0cb0m0","pricing_plan_id":"cebpf4jnsgd1na2vs0mg"},{"bike_id":"183627e5-df15-4e3b-beb0-eaccbc5e43df","system_id":"levelo_inurba_marseille","lat":43.27821,"lon":5.40724,"is_reserved":false,"is_disabled":false,"rental_uris":{"android":"levelo://app?vid=183627e5-df15-4e3b-beb0-eaccbc5e43df","ios":"levelo://app?vid=183627e5-df15-4e3b-beb0-eaccbc5e43df"},"vehicle_type_id":"4","last_reported":1747649517,"current_range_meters":20000,"station_id":"ce4bhnh2rcd13ifvqgtg","pricing_plan_id":"cebpf4jnsgd1na2vs0mg"},{"bike_id":"9133c162-e3bb-4c19-9d27-2a8b3ed805f1","system_id":"levelo_inurba_marseille","lat":43.25086,"lon":5.39508,"is_reserved":false,"is_disabled":false,"rental_uris":{"android":"levelo://app?vid=9133c162-e3bb-4c19-9d27-2a8b3ed805f1","ios":"levelo://app?vid=9133c162-e3bb-4c19-9d27-2a8b3ed805f1"},"vehicle_type_id":"4","last_reported":1747649517,"current_range_meters":20000,"station_id":"ce4bhm12rcd13ifvqgkg","pricing_plan_id":"cebpf4jnsgd1na2vs0mg"},{"bike_id":"bbae9470-c4e6-406c-8e2e-0ffe5e843b63","system_id":"levelo_inurba_marseille","lat":43.21756,"lon":5.346,"is_reserved":false,"is_disabled":false,"rental_uris":{"android":"levelo://app?vid=bbae9470-c4e6-406c-8e2e-0ffe5e843b63","ios":"levelo://app?vid=bbae9470-c4e6-406c-8e2e-0ffe5e843b63"},"vehicle_type_id":"4","last_reported":1747649517,"current_range_meters":20400,"station_id":"st_cvj6r9ubvosntc0bgbag","pricing_plan_id":"cebpf4jnsgd1na2vs0mg"},{"bike_id":"14885091-98ca-4d80-b8d7-7e5a1860bd77","system_id":"levelo_inurba_marseille","lat":43.30436,"lon":5.4122,"is_reserved":false,"is_disabled":true,"rental_uris":{"android":"levelo://app?vid=14885091-98ca-4d80-b8d7-7e5a1860bd77","ios":"levelo://app?vid=14885091-98ca-4d80-b8d7-7e5a1860bd77"},"vehicle_type_id":"4","last_reported":1747649517,"current_range_meters":20400,"station_id":"ce4bhop2rcd13ifvqh8g","pricing_plan_id":"cebpf4jnsgd1na2vs0mg"},{"bike_id":"07cad049-bb8a-49bd-a7c4-8693a4714c17","system_id":"levelo_inurba_marseille","lat":43.30537,"lon":5.3654,"is_reserved":false,"is_disabled":false,"rental_uris":{"android":"levelo://app?vid=07cad049-bb8a-49bd-a7c4-8693a4714c17","ios":"levelo://app?vid=07cad049-bb8a-49bd-a7c4-8693a4714c17"},"vehicle_type_id":"4","last_reported":1747649517,"current_range_meters":20400,"station_id":"ce4bgs12rcd13ifvqcag","pricing_plan_id":"cebpf4jnsgd1na2vs0mg"},{"bike_id":"41880bb9-9877-4742-9862-6229b975cf2c","system_id":"levelo_inurba_marseille","lat":43.30961,"lon":5.39042,"is_reserved":false,"is_disabled":false,"rental_uris":{"android":"levelo://app?vid=41880bb9-9877-4742-9862-6229b975cf2c","ios":"levelo://app?vid=41880bb9-9877-4742-9862-6229b975cf2c"},"vehicle_type_id":"4","last_reported":1747649517,"current_range_meters":20400,"station_id":"ce4bgup2rcd13ifvqco0","pricing_plan_id":"cebpf4jnsgd1na2vs0mg"},{"bike_id":"fc4a4847-ad95-4aaf-b035-6a6ffa6542f8","system_id":"levelo_inurba_marseille","lat":43.296057,"lon":5.38092,"is_reserved":false,"is_disabled":false,"rental_uris":{"android":"levelo://app?vid=fc4a4847-ad95-4aaf-b035-6a6ffa6542f8","ios":"levelo://app?vid=fc4a4847-ad95-4aaf-b035-6a6ffa6542f8"},"vehicle_type_id":"4","last_reported":1747649517,"current_range_meters":20400,"station_id":"ce4bgl12rcd13ifvqbo0","pricing_plan_id":"cebpf4jnsgd1na2vs0mg"},{"bike_id":"16b1468f-1618-4383-a6e6-528ea12abd80","system_id":"levelo_inurba_marseille","lat":43.25087,"lon":5.39531,"is_reserved":false,"is_disabled":false,"rental_uris":{"android":"levelo://app?vid=16b1468f-1618-4383-a6e6-528ea12abd80","ios":"levelo://app?vid=16b1468f-1618-4383-a6e6-528ea12abd80"},"vehicle_type_id":"4","last_reported":1747649517,"current_range_meters":20800,"station_id":"ce4bhm12rcd13ifvqgkg","pricing_plan_id":"cebpf4jnsgd1na2vs0mg"},{"bike_id":"97a86dc9-cdbb-4884-892e-ffc3c535da38","system_id":"levelo_inurba_marseille","lat":43.24081,"lon":5.38163,"is_reserved":false,"is_disabled":false,"rental_uris":{"android":"levelo://app?vid=97a86dc9-cdbb-4884-892e-ffc3c535da38","ios":"levelo://app?vid=97a86dc9-cdbb-4884-892e-ffc3c535da38"},"vehicle_type_id":"4","last_reported":1747649517,"current_range_meters":20800,"station_id":"","pricing_plan_id":"cebpf4jnsgd1na2vs0mg"},{"bike_id":"c7fa045b-8abd-4bd8-ac58-69864d07dca7","system_id":"levelo_inurba_marseille","lat":43.32114,"lon":5.36794,"is_reserved":false,"is_disabled":false,"rental_uris":{"android":"levelo://app?vid=c7fa045b-8abd-4bd8-ac58-69864d07dca7","ios":"levelo://app?vid=c7fa045b-8abd-4bd8-ac58-69864d07dca7"},"vehicle_type_id":"4","last_reported":1747649517,"current_range_meters":20800,"station_id":"ce4bhrh2rcd13ifvqhug","pricing_plan_id":"cebpf4jnsgd1na2vs0mg"},{"bike_id":"6b30b3ae-69a8-47a0-8c82-3a3f70d8e96a","system_id":"levelo_inurba_marseille","lat":43.27495,"lon":5.4246,"is_reserved":false,"is_disabled":false,"rental_uris":{"android":"levelo://app?vid=6b30b3ae-69a8-47a0-8c82-3a3f70d8e96a","ios":"levelo://app?vid=6b30b3ae-69a8-47a0-8c82-3a3f70d8e96a"},"vehicle_type_id":"4","last_reported":1747649517,"current_range_meters":20800,"station_id":"ce4bhn92rcd13ifvqgrg","pricing_plan_id":"cebpf4jnsgd1na2vs0mg"},{"bike_id":"2a86bdfd-06a0-4801-b3cd-4b7f3afb0acb","system_id":"levelo_inurba_marseille","lat":43.29896,"lon":5.374,"is_reserved":false,"is_disabled":false,"rental_uris":{"android":"levelo://app?vid=2a86bdfd-06a0-4801-b3cd-4b7f3afb0acb","ios":"levelo://app?vid=2a86bdfd-06a0-4801-b3cd-4b7f3afb0acb"},"vehicle_type_id":"4","last_reported":1747649517,"current_range_meters":21600,"station_id":"","pricing_plan_id":"cebpf4jnsgd1na2vs0mg"},{"bike_id":"3bf0d25a-addf-4c9a-8347-9f78c6c286b7","system_id":"levelo_inurba_marseille","lat":43.27571,"lon":5.38419,"is_reserved":false,"is_disabled":false,"rental_uris":{"android":"levelo://app?vid=3bf0d25a-addf-4c9a-8347-9f78c6c286b7","ios":"levelo://app?vid=3bf0d25a-addf-4c9a-8347-9f78c6c286b7"},"vehicle_type_id":"4","last_reported":1747649517,"current_range_meters":20800,"station_id":"ce4bhh92rcd13ifvqfi0","pricing_plan_id":"cebpf4jnsgd1na2vs0mg"},{"bike_id":"3a4d4d5c-85a5-447c-a965-2c9423f6fd09","system_id":"levelo_inurba_marseille","lat":43.21752,"lon":5.34603,"is_reserved":false,"is_disabled":false,"rental_uris":{"android":"levelo://app?vid=3a4d4d5c-85a5-447c-a965-2c9423f6fd09","ios":"levelo://app?vid=3a4d4d5c-85a5-447c-a965-2c9423f6fd09"},"vehicle_type_id":"4","last_reported":1747649517,"current_range_meters":20800,"station_id":"st_cvj6r9ubvosntc0bgbag","pricing_plan_id":"cebpf4jnsgd1na2vs0mg"},{"bike_id":"dbdfe072-8312-48db-8317-eca4e4fa0c2b","system_id":"levelo_inurba_marseille","lat":43.29918,"lon":5.37487,"is_reserved":false,"is_disabled":false,"rental_uris":{"android":"levelo://app?vid=dbdfe072-8312-48db-8317-eca4e4fa0c2b","ios":"levelo://app?vid=dbdfe072-8312-48db-8317-eca4e4fa0c2b"},"vehicle_type_id":"4","last_reported":1747649517,"current_range_meters":22800,"station_id":"ce4bgjh2rcd13ifvqbg0","pricing_plan_id":"cebpf4jnsgd1na2vs0mg"},{"bike_id":"2d9676ab-1078-4067-bd23-e844dab2c154","system_id":"levelo_inurba_marseille","lat":43.29702,"lon":5.36602,"is_reserved":false,"is_disabled":false,"rental_uris":{"android":"levelo://app?vid=2d9676ab-1078-4067-bd23-e844dab2c154","ios":"levelo://app?vid=2d9676ab-1078-4067-bd23-e844dab2c154"},"vehicle_type_id":"4","last_reported":1747649517,"current_range_meters":21600,"station_id":"ce4bgn12rcd13ifvqbt0","pricing_plan_id":"cebpf4jnsgd1na2vs0mg"},{"bike_id":"7cff6a3c-9d8f-4188-8e11-88a308f2a451","system_id":"levelo_inurba_marseille","lat":43.30804,"lon":5.37894,"is_reserved":false,"is_disabled":false,"rental_uris":{"android":"levelo://app?vid=7cff6a3c-9d8f-4188-8e11-88a308f2a451","ios":"levelo://app?vid=7cff6a3c-9d8f-4188-8e11-88a308f2a451"},"vehicle_type_id":"4","last_reported":1747649517,"current_range_meters":21600,"station_id":"","pricing_plan_id":"cebpf4jnsgd1na2vs0mg"},{"bike_id":"92ef944c-1a0e-450e-99e1-92f2e35359e3","system_id":"levelo_inurba_marseille","lat":43.27435,"lon":5.39418,"is_reserved":false,"is_disabled":false,"rental_uris":{"android":"levelo://app?vid=92ef944c-1a0e-450e-99e1-92f2e35359e3","ios":"levelo://app?vid=92ef944c-1a0e-450e-99e1-92f2e35359e3"},"vehicle_type_id":"4","last_reported":1747649517,"current_range_meters":21600,"station_id":"ce4bhdp2rcd13ifvqf20","pricing_plan_id":"cebpf4jnsgd1na2vs0mg"},{"bike_id":"2a05b11c-d4a1-4ac8-bd6f-4ec852cd3f64","system_id":"levelo_inurba_marseille","lat":43.28002,"lon":5.39997,"is_reserved":false,"is_disabled":false,"rental_uris":{"android":"levelo://app?vid=2a05b11c-d4a1-4ac8-bd6f-4ec852cd3f64","ios":"levelo://app?vid=2a05b11c-d4a1-4ac8-bd6f-4ec852cd3f64"},"vehicle_type_id":"4","last_reported":1747649517,"current_range_meters":21600,"station_id":"ce4bho92rcd13ifvqh4g","pricing_plan_id":"cebpf4jnsgd1na2vs0mg"},{"bike_id":"704ea015-f11e-4ad9-8dcb-3aa820a9c231","system_id":"levelo_inurba_marseille","lat":43.305621,"lon":5.36552,"is_reserved":false,"is_disabled":false,"rental_uris":{"android":"levelo://app?vid=704ea015-f11e-4ad9-8dcb-3aa820a9c231","ios":"levelo://app?vid=704ea015-f11e-4ad9-8dcb-3aa820a9c231"},"vehicle_type_id":"4","last_reported":1747649517,"current_range_meters":21600,"station_id":"ce4bgs12rcd13ifvqcag","pricing_plan_id":"cebpf4jnsgd1na2vs0mg"},{"bike_id":"1f0690f4-b8d7-437f-b026-58075e2484d3","system_id":"levelo_inurba_marseille","lat":43.31749,"lon":5.38998,"is_reserved":false,"is_disabled":false,"rental_uris":{"android":"levelo://app?vid=1f0690f4-b8d7-437f-b026-58075e2484d3","ios":"levelo://app?vid=1f0690f4-b8d7-437f-b026-58075e2484d3"},"vehicle_type_id":"4","last_reported":1747649517,"current_range_meters":21600,"station_id":"ce4bhqp2rcd13ifvqhng","pricing_plan_id":"cebpf4jnsgd1na2vs0mg"},{"bike_id":"6bf9a0f9-6619-41bb-a135-f9d0073c713f","system_id":"levelo_inurba_marseille","lat":43.30902,"lon":5.36885,"is_reserved":false,"is_disabled":false,"rental_uris":{"android":"levelo://app?vid=6bf9a0f9-6619-41bb-a135-f9d0073c713f","ios":"levelo://app?vid=6bf9a0f9-6619-41bb-a135-f9d0073c713f"},"vehicle_type_id":"4","last_reported":1747649517,"current_range_meters":22000,"station_id":"ce4bgn92rcd13ifvqbvg","pricing_plan_id":"cebpf4jnsgd1na2vs0mg"},{"bike_id":"5b007d52-9ce2-42ac-a2e8-93c9d70f267d","system_id":"levelo_inurba_marseille","lat":43.26058,"lon":5.394,"is_reserved":false,"is_disabled":false,"rental_uris":{"android":"levelo://app?vid=5b007d52-9ce2-42ac-a2e8-93c9d70f267d","ios":"levelo://app?vid=5b007d52-9ce2-42ac-a2e8-93c9d70f267d"},"vehicle_type_id":"4","last_reported":1747649517,"current_range_meters":22000,"station_id":"ce4bhh92rcd13ifvqfj0","pricing_plan_id":"cebpf4jnsgd1na2vs0mg"},{"bike_id":"d07a0fc5-510c-40e1-aa13-edcc0682502f","system_id":"levelo_inurba_marseille","lat":43.26051,"lon":5.39385,"is_reserved":false,"is_disabled":false,"rental_uris":{"android":"levelo://app?vid=d07a0fc5-510c-40e1-aa13-edcc0682502f","ios":"levelo://app?vid=d07a0fc5-510c-40e1-aa13-edcc0682502f"},"vehicle_type_id":"4","last_reported":1747649517,"current_range_meters":22000,"station_id":"ce4bhh92rcd13ifvqfj0","pricing_plan_id":"cebpf4jnsgd1na2vs0mg"},{"bike_id":"78c2f669-f912-4bea-bae8-9c99fb8cb3d3","system_id":"levelo_inurba_marseille","lat":43.26973,"lon":5.38664,"is_reserved":false,"is_disabled":false,"rental_uris":{"android":"levelo://app?vid=78c2f669-f912-4bea-bae8-9c99fb8cb3d3","ios":"levelo://app?vid=78c2f669-f912-4bea-bae8-9c99fb8cb3d3"},"vehicle_type_id":"4","last_reported":1747649517,"current_range_meters":22000,"station_id":"ce4bhh92rcd13ifvqfh0","pricing_plan_id":"cebpf4jnsgd1na2vs0mg"},{"bike_id":"c7bb0dfb-9f56-4d16-bd41-669f02cf50ad","system_id":"levelo_inurba_marseille","lat":43.30322,"lon":5.40436,"is_reserved":false,"is_disabled":true,"rental_uris":{"android":"levelo://app?vid=c7bb0dfb-9f56-4d16-bd41-669f02cf50ad","ios":"levelo://app?vid=c7bb0dfb-9f56-4d16-bd41-669f02cf50ad"},"vehicle_type_id":"4","last_reported":1747649517,"current_range_meters":22000,"station_id":"ce4bh012rcd13ifvqd10","pricing_plan_id":"cebpf4jnsgd1na2vs0mg"},{"bike_id":"dd786a91-fa08-4b27-a89b-0e456b691334","system_id":"levelo_inurba_marseille","lat":43.28149,"lon":5.42631,"is_reserved":false,"is_disabled":false,"rental_uris":{"android":"levelo://app?vid=dd786a91-fa08-4b27-a89b-0e456b691334","ios":"levelo://app?vid=dd786a91-fa08-4b27-a89b-0e456b691334"},"vehicle_type_id":"4","last_reported":1747649517,"current_range_meters":21600,"station_id":"ce4bhnh2rcd13ifvqgug","pricing_plan_id":"cebpf4jnsgd1na2vs0mg"},{"bike_id":"8b46ddfb-da43-4c3d-a95f-5dd00e3d74d3","system_id":"levelo_inurba_marseille","lat":43.29511,"lon":5.37515,"is_reserved":false,"is_disabled":false,"rental_uris":{"android":"levelo://app?vid=8b46ddfb-da43-4c3d-a95f-5dd00e3d74d3","ios":"levelo://app?vid=8b46ddfb-da43-4c3d-a95f-5dd00e3d74d3"},"vehicle_type_id":"4","last_reported":1747649517,"current_range_meters":22800,"station_id":"ce4bgkp2rcd13ifvqbmg","pricing_plan_id":"cebpf4jnsgd1na2vs0mg"},{"bike_id":"58edc354-c183-4da4-b527-1ba0f2d395e0","system_id":"levelo_inurba_marseille","lat":43.27875,"lon":5.35411,"is_reserved":false,"is_disabled":false,"rental_uris":{"android":"levelo://app?vid=58edc354-c183-4da4-b527-1ba0f2d395e0","ios":"levelo://app?vid=58edc354-c183-4da4-b527-1ba0f2d395e0"},"vehicle_type_id":"4","last_reported":1747649517,"current_range_meters":22400,"station_id":"","pricing_plan_id":"cebpf4jnsgd1na2vs0mg"},{"bike_id":"18c0878a-8caa-48a1-b8c5-12dc58136a1e","system_id":"levelo_inurba_marseille","lat":43.2707,"lon":5.42264,"is_reserved":false,"is_disabled":true,"rental_uris":{"android":"levelo://app?vid=18c0878a-8caa-48a1-b8c5-12dc58136a1e","ios":"levelo://app?vid=18c0878a-8caa-48a1-b8c5-12dc58136a1e"},"vehicle_type_id":"4","last_reported":1747649517,"current_range_meters":22400,"station_id":"ce4bhk92rcd13ifvqgb0","pricing_plan_id":"cebpf4jnsgd1na2vs0mg"},{"bike_id":"6cc8067e-3a79-4a52-af44-619677dcd1d4","system_id":"levelo_inurba_marseille","lat":43.28264,"lon":5.3507,"is_reserved":false,"is_disabled":false,"rental_uris":{"android":"levelo://app?vid=6cc8067e-3a79-4a52-af44-619677dcd1d4","ios":"levelo://app?vid=6cc8067e-3a79-4a52-af44-619677dcd1d4"},"vehicle_type_id":"4","last_reported":1747649517,"current_range_meters":22400,"station_id":"ce4bhbp2rcd13ifvqerg","pricing_plan_id":"cebpf4jnsgd1na2vs0mg"},{"bike_id":"24dc12dd-e0a1-4ccc-b473-486d35ddca69","system_id":"levelo_inurba_marseille","lat":43.31714,"lon":5.43703,"is_reserved":false,"is_disabled":false,"rental_uris":{"android":"levelo://app?vid=24dc12dd-e0a1-4ccc-b473-486d35ddca69","ios":"levelo://app?vid=24dc12dd-e0a1-4ccc-b473-486d35ddca69"},"vehicle_type_id":"4","last_reported":1747649517,"current_range_meters":22400,"station_id":"ce4bhp92rcd13ifvqhcg","pricing_plan_id":"cebpf4jnsgd1na2vs0mg"},{"bike_id":"d1da3b6a-d8f2-40bd-8ccb-20c89aca0588","system_id":"levelo_inurba_marseille","lat":43.28,"lon":5.41662,"is_reserved":false,"is_disabled":false,"rental_uris":{"android":"levelo://app?vid=d1da3b6a-d8f2-40bd-8ccb-20c89aca0588","ios":"levelo://app?vid=d1da3b6a-d8f2-40bd-8ccb-20c89aca0588"},"vehicle_type_id":"4","last_reported":1747649517,"current_range_meters":22400,"station_id":"ce4bho12rcd13ifvqh1g","pricing_plan_id":"cebpf4jnsgd1na2vs0mg"},{"bike_id":"7ded2839-f843-4576-ac1c-72c17607db07","system_id":"levelo_inurba_marseille","lat":43.26691,"lon":5.38261,"is_reserved":false,"is_disabled":false,"rental_uris":{"android":"levelo://app?vid=7ded2839-f843-4576-ac1c-72c17607db07","ios":"levelo://app?vid=7ded2839-f843-4576-ac1c-72c17607db07"},"vehicle_type_id":"4","last_reported":1747649517,"current_range_meters":22400,"station_id":"ce4bhg92rcd13ifvqf90","pricing_plan_id":"cebpf4jnsgd1na2vs0mg"},{"bike_id":"a26a94df-e076-4336-b4dc-ffcaa92fd706","system_id":"levelo_inurba_marseille","lat":43.29568,"lon":5.37518,"is_reserved":false,"is_disabled":false,"rental_uris":{"android":"levelo://app?vid=a26a94df-e076-4336-b4dc-ffcaa92fd706","ios":"levelo://app?vid=a26a94df-e076-4336-b4dc-ffcaa92fd706"},"vehicle_type_id":"4","last_reported":1747649517,"current_range_meters":22400,"station_id":"ce4bgh92rcd13ifvqb50","pricing_plan_id":"cebpf4jnsgd1na2vs0mg"},{"bike_id":"d2c6b43e-73b6-4e1e-9b83-c94e993195bc","system_id":"levelo_inurba_marseille","lat":43.337614,"lon":5.374528,"is_reserved":false,"is_disabled":false,"rental_uris":{"android":"levelo://app?vid=d2c6b43e-73b6-4e1e-9b83-c94e993195bc","ios":"levelo://app?vid=d2c6b43e-73b6-4e1e-9b83-c94e993195bc"},"vehicle_type_id":"4","last_reported":1747649517,"current_range_meters":22400,"station_id":"","pricing_plan_id":"cebpf4jnsgd1na2vs0mg"},{"bike_id":"b01e0d3d-377f-4ad7-9415-cb2124695c1e","system_id":"levelo_inurba_marseille","lat":43.25819,"lon":5.3944,"is_reserved":false,"is_disabled":false,"rental_uris":{"android":"levelo://app?vid=b01e0d3d-377f-4ad7-9415-cb2124695c1e","ios":"levelo://app?vid=b01e0d3d-377f-4ad7-9415-cb2124695c1e"},"vehicle_type_id":"4","last_reported":1747649517,"current_range_meters":24400,"station_id":"ce4bhip2rcd13ifvqft0","pricing_plan_id":"cebpf4jnsgd1na2vs0mg"},{"bike_id":"60630da3-46bf-41aa-952a-6c5acaeb381f","system_id":"levelo_inurba_marseille","lat":43.2696,"lon":5.38623,"is_reserved":false,"is_disabled":false,"rental_uris":{"android":"levelo://app?vid=60630da3-46bf-41aa-952a-6c5acaeb381f","ios":"levelo://app?vid=60630da3-46bf-41aa-952a-6c5acaeb381f"},"vehicle_type_id":"4","last_reported":1747649517,"current_range_meters":22400,"station_id":"ce4bhh92rcd13ifvqfh0","pricing_plan_id":"cebpf4jnsgd1na2vs0mg"},{"bike_id":"1227de3c-ee24-4738-be08-b6cd418f640e","system_id":"levelo_inurba_marseille","lat":43.25722,"lon":5.41108,"is_reserved":false,"is_disabled":false,"rental_uris":{"android":"levelo://app?vid=1227de3c-ee24-4738-be08-b6cd418f640e","ios":"levelo://app?vid=1227de3c-ee24-4738-be08-b6cd418f640e"},"vehicle_type_id":"4","last_reported":1747649517,"current_range_meters":22800,"station_id":"ce4bhkp2rcd13ifvqgd0","pricing_plan_id":"cebpf4jnsgd1na2vs0mg"},{"bike_id":"a4b70814-fd59-4154-885f-0774e1c03d17","system_id":"levelo_inurba_marseille","lat":43.31325,"lon":5.39694,"is_reserved":false,"is_disabled":false,"rental_uris":{"android":"levelo://app?vid=a4b70814-fd59-4154-885f-0774e1c03d17","ios":"levelo://app?vid=a4b70814-fd59-4154-885f-0774e1c03d17"},"vehicle_type_id":"4","last_reported":1747649517,"current_range_meters":21600,"station_id":"ce4bgvp2rcd13ifvqcu0","pricing_plan_id":"cebpf4jnsgd1na2vs0mg"},{"bike_id":"f11457a2-b0a1-4b47-93bc-55c75a402bf3","system_id":"levelo_inurba_marseille","lat":43.24651,"lon":5.38166,"is_reserved":false,"is_disabled":false,"rental_uris":{"android":"levelo://app?vid=f11457a2-b0a1-4b47-93bc-55c75a402bf3","ios":"levelo://app?vid=f11457a2-b0a1-4b47-93bc-55c75a402bf3"},"vehicle_type_id":"4","last_reported":1747649517,"current_range_meters":22800,"station_id":"ce4bhih2rcd13ifvqfr0","pricing_plan_id":"cebpf4jnsgd1na2vs0mg"},{"bike_id":"3284b626-d2bc-4022-a757-1197de91a037","system_id":"levelo_inurba_marseille","lat":43.29518,"lon":5.37509,"is_reserved":false,"is_disabled":false,"rental_uris":{"android":"levelo://app?vid=3284b626-d2bc-4022-a757-1197de91a037","ios":"levelo://app?vid=3284b626-d2bc-4022-a757-1197de91a037"},"vehicle_type_id":"4","last_reported":1747649517,"current_range_meters":22800,"station_id":"ce4bgkp2rcd13ifvqbmg","pricing_plan_id":"cebpf4jnsgd1na2vs0mg"},{"bike_id":"09b6c432-b6ca-431b-8bf4-2cdc90a76c38","system_id":"levelo_inurba_marseille","lat":43.29025,"lon":5.37189,"is_reserved":false,"is_disabled":false,"rental_uris":{"android":"levelo://app?vid=09b6c432-b6ca-431b-8bf4-2cdc90a76c38","ios":"levelo://app?vid=09b6c432-b6ca-431b-8bf4-2cdc90a76c38"},"vehicle_type_id":"4","last_reported":1747649517,"current_range_meters":22800,"station_id":"ce4bh5p2rcd13ifvqe4g","pricing_plan_id":"cebpf4jnsgd1na2vs0mg"},{"bike_id":"44ea7d7e-b672-48d0-8652-b03b0cee4931","system_id":"levelo_inurba_marseille","lat":43.23193,"lon":5.35551,"is_reserved":false,"is_disabled":false,"rental_uris":{"android":"levelo://app?vid=44ea7d7e-b672-48d0-8652-b03b0cee4931","ios":"levelo://app?vid=44ea7d7e-b672-48d0-8652-b03b0cee4931"},"vehicle_type_id":"4","last_reported":1747649517,"current_range_meters":22800,"station_id":"ce4bhu92rcd13ifvqi70","pricing_plan_id":"cebpf4jnsgd1na2vs0mg"},{"bike_id":"d4775663-5c52-4182-a533-6f7af95b9b93","system_id":"levelo_inurba_marseille","lat":43.29086,"lon":5.3816,"is_reserved":false,"is_disabled":true,"rental_uris":{"android":"levelo://app?vid=d4775663-5c52-4182-a533-6f7af95b9b93","ios":"levelo://app?vid=d4775663-5c52-4182-a533-6f7af95b9b93"},"vehicle_type_id":"4","last_reported":1747649517,"current_range_meters":23200,"station_id":"ce4bh512rcd13ifvqe2g","pricing_plan_id":"cebpf4jnsgd1na2vs0mg"},{"bike_id":"c8b0cc80-0067-4b79-b7e4-85617d7fb35d","system_id":"levelo_inurba_marseille","lat":43.30159,"lon":5.38078,"is_reserved":false,"is_disabled":false,"rental_uris":{"android":"levelo://app?vid=c8b0cc80-0067-4b79-b7e4-85617d7fb35d","ios":"levelo://app?vid=c8b0cc80-0067-4b79-b7e4-85617d7fb35d"},"vehicle_type_id":"4","last_reported":1747649517,"current_range_meters":23200,"station_id":"ce4bgjp2rcd13ifvqbh0","pricing_plan_id":"cebpf4jnsgd1na2vs0mg"},{"bike_id":"6c600390-4eb2-42dc-b6ed-0489f61ce439","system_id":"levelo_inurba_marseille","lat":43.29189,"lon":5.35821,"is_reserved":false,"is_disabled":false,"rental_uris":{"android":"levelo://app?vid=6c600390-4eb2-42dc-b6ed-0489f61ce439","ios":"levelo://app?vid=6c600390-4eb2-42dc-b6ed-0489f61ce439"},"vehicle_type_id":"4","last_reported":1747649517,"current_range_meters":23200,"station_id":"ce4bhb12rcd13ifvqel0","pricing_plan_id":"cebpf4jnsgd1na2vs0mg"},{"bike_id":"7a31403f-c0fe-49fd-9e0c-e84918638976","system_id":"levelo_inurba_marseille","lat":43.26694,"lon":5.38265,"is_reserved":false,"is_disabled":false,"rental_uris":{"android":"levelo://app?vid=7a31403f-c0fe-49fd-9e0c-e84918638976","ios":"levelo://app?vid=7a31403f-c0fe-49fd-9e0c-e84918638976"},"vehicle_type_id":"4","last_reported":1747649517,"current_range_meters":23200,"station_id":"ce4bhg92rcd13ifvqf90","pricing_plan_id":"cebpf4jnsgd1na2vs0mg"},{"bike_id":"d72c7dc5-4435-4791-8844-6a8d2b2bb97b","system_id":"levelo_inurba_marseille","lat":43.30532,"lon":5.3653,"is_reserved":false,"is_disabled":false,"rental_uris":{"android":"levelo://app?vid=d72c7dc5-4435-4791-8844-6a8d2b2bb97b","ios":"levelo://app?vid=d72c7dc5-4435-4791-8844-6a8d2b2bb97b"},"vehicle_type_id":"4","last_reported":1747649517,"current_range_meters":23200,"station_id":"ce4bgs12rcd13ifvqcag","pricing_plan_id":"cebpf4jnsgd1na2vs0mg"},{"bike_id":"04ceb55b-d378-48a6-803f-0b69e0fbfeb8","system_id":"levelo_inurba_marseille","lat":43.25721,"lon":5.41109,"is_reserved":false,"is_disabled":false,"rental_uris":{"android":"levelo://app?vid=04ceb55b-d378-48a6-803f-0b69e0fbfeb8","ios":"levelo://app?vid=04ceb55b-d378-48a6-803f-0b69e0fbfeb8"},"vehicle_type_id":"4","last_reported":1747649517,"current_range_meters":24000,"station_id":"ce4bhkp2rcd13ifvqgd0","pricing_plan_id":"cebpf4jnsgd1na2vs0mg"},{"bike_id":"15f178c0-ae84-4856-ae0e-aaef582799d5","system_id":"levelo_inurba_marseille","lat":43.2175,"lon":5.346,"is_reserved":false,"is_disabled":false,"rental_uris":{"android":"levelo://app?vid=15f178c0-ae84-4856-ae0e-aaef582799d5","ios":"levelo://app?vid=15f178c0-ae84-4856-ae0e-aaef582799d5"},"vehicle_type_id":"4","last_reported":1747649517,"current_range_meters":24000,"station_id":"st_cvj6r9ubvosntc0bgbag","pricing_plan_id":"cebpf4jnsgd1na2vs0mg"},{"bike_id":"8da44370-a435-48f7-9bf8-4043a5db973f","system_id":"levelo_inurba_marseille","lat":43.26096,"lon":5.37856,"is_reserved":false,"is_disabled":false,"rental_uris":{"android":"levelo://app?vid=8da44370-a435-48f7-9bf8-4043a5db973f","ios":"levelo://app?vid=8da44370-a435-48f7-9bf8-4043a5db973f"},"vehicle_type_id":"4","last_reported":1747649517,"current_range_meters":24000,"station_id":"","pricing_plan_id":"cebpf4jnsgd1na2vs0mg"},{"bike_id":"7c2b4a6f-78ab-458e-a25b-6e279126757a","system_id":"levelo_inurba_marseille","lat":43.27377,"lon":5.36258,"is_reserved":false,"is_disabled":false,"rental_uris":{"android":"levelo://app?vid=7c2b4a6f-78ab-458e-a25b-6e279126757a","ios":"levelo://app?vid=7c2b4a6f-78ab-458e-a25b-6e279126757a"},"vehicle_type_id":"4","last_reported":1747649517,"current_range_meters":22400,"station_id":"ce4bhbh2rcd13ifvqeo0","pricing_plan_id":"cebpf4jnsgd1na2vs0mg"},{"bike_id":"3eec3339-3f6b-465d-8896-15d72acb2186","system_id":"levelo_inurba_marseille","lat":43.25003,"lon":5.38937,"is_reserved":false,"is_disabled":false,"rental_uris":{"android":"levelo://app?vid=3eec3339-3f6b-465d-8896-15d72acb2186","ios":"levelo://app?vid=3eec3339-3f6b-465d-8896-15d72acb2186"},"vehicle_type_id":"4","last_reported":1747649517,"current_range_meters":24000,"station_id":"ce4bhgp2rcd13ifvqfd0","pricing_plan_id":"cebpf4jnsgd1na2vs0mg"},{"bike_id":"31e80b91-12db-45fc-9b2d-bfa94709eee7","system_id":"levelo_inurba_marseille","lat":43.298518,"lon":5.362855,"is_reserved":false,"is_disabled":false,"rental_uris":{"android":"levelo://app?vid=31e80b91-12db-45fc-9b2d-bfa94709eee7","ios":"levelo://app?vid=31e80b91-12db-45fc-9b2d-bfa94709eee7"},"vehicle_type_id":"4","last_reported":1747649517,"current_range_meters":24000,"station_id":"ce4bgpp2rcd13ifvqc3g","pricing_plan_id":"cebpf4jnsgd1na2vs0mg"},{"bike_id":"7e804ebf-40e6-4202-91bf-5ea2f9e92ceb","system_id":"levelo_inurba_marseille","lat":43.28363,"lon":5.38633,"is_reserved":false,"is_disabled":false,"rental_uris":{"android":"levelo://app?vid=7e804ebf-40e6-4202-91bf-5ea2f9e92ceb","ios":"levelo://app?vid=7e804ebf-40e6-4202-91bf-5ea2f9e92ceb"},"vehicle_type_id":"4","last_reported":1747649517,"current_range_meters":24000,"station_id":"ce4bh492rcd13ifvqdvg","pricing_plan_id":"cebpf4jnsgd1na2vs0mg"},{"bike_id":"b92aafda-5034-45a6-b200-ed5647d8c367","system_id":"levelo_inurba_marseille","lat":43.31332,"lon":5.36716,"is_reserved":false,"is_disabled":false,"rental_uris":{"android":"levelo://app?vid=b92aafda-5034-45a6-b200-ed5647d8c367","ios":"levelo://app?vid=b92aafda-5034-45a6-b200-ed5647d8c367"},"vehicle_type_id":"4","last_reported":1747649517,"current_range_meters":24000,"station_id":"ce4bgr92rcd13ifvqc6g","pricing_plan_id":"cebpf4jnsgd1na2vs0mg"},{"bike_id":"de084230-7b5b-4d37-98f1-21d01455c60d","system_id":"levelo_inurba_marseille","lat":43.273755,"lon":5.362553,"is_reserved":false,"is_disabled":false,"rental_uris":{"android":"levelo://app?vid=de084230-7b5b-4d37-98f1-21d01455c60d","ios":"levelo://app?vid=de084230-7b5b-4d37-98f1-21d01455c60d"},"vehicle_type_id":"4","last_reported":1747649517,"current_range_meters":24000,"station_id":"ce4bhbh2rcd13ifvqeo0","pricing_plan_id":"cebpf4jnsgd1na2vs0mg"},{"bike_id":"e211515e-5b60-4f5b-a1a5-6782d003dccb","system_id":"levelo_inurba_marseille","lat":43.23962,"lon":5.36633,"is_reserved":false,"is_disabled":false,"rental_uris":{"android":"levelo://app?vid=e211515e-5b60-4f5b-a1a5-6782d003dccb","ios":"levelo://app?vid=e211515e-5b60-4f5b-a1a5-6782d003dccb"},"vehicle_type_id":"4","last_reported":1747649517,"current_range_meters":24000,"station_id":"ce4bhi12rcd13ifvqfp0","pricing_plan_id":"cebpf4jnsgd1na2vs0mg"},{"bike_id":"90194d80-71c8-4145-aacf-b318db9a1138","system_id":"levelo_inurba_marseille","lat":43.28571,"lon":5.39489,"is_reserved":false,"is_disabled":false,"rental_uris":{"android":"levelo://app?vid=90194d80-71c8-4145-aacf-b318db9a1138","ios":"levelo://app?vid=90194d80-71c8-4145-aacf-b318db9a1138"},"vehicle_type_id":"4","last_reported":1747649517,"current_range_meters":24400,"station_id":"ce4bh292rcd13ifvqdg0","pricing_plan_id":"cebpf4jnsgd1na2vs0mg"},{"bike_id":"48d38226-80d0-4df8-9f41-d7eeff7010bd","system_id":"levelo_inurba_marseille","lat":43.28614,"lon":5.37056,"is_reserved":false,"is_disabled":false,"rental_uris":{"android":"levelo://app?vid=48d38226-80d0-4df8-9f41-d7eeff7010bd","ios":"levelo://app?vid=48d38226-80d0-4df8-9f41-d7eeff7010bd"},"vehicle_type_id":"4","last_reported":1747649517,"current_range_meters":24000,"station_id":"ce4bht12rcd13ifvqi60","pricing_plan_id":"cebpf4jnsgd1na2vs0mg"},{"bike_id":"693de1a8-ab2c-4f15-9d1e-7ac2f4db02af","system_id":"levelo_inurba_marseille","lat":43.29848,"lon":5.36297,"is_reserved":false,"is_disabled":false,"rental_uris":{"android":"levelo://app?vid=693de1a8-ab2c-4f15-9d1e-7ac2f4db02af","ios":"levelo://app?vid=693de1a8-ab2c-4f15-9d1e-7ac2f4db02af"},"vehicle_type_id":"4","last_reported":1747649517,"current_range_meters":24000,"station_id":"ce4bgpp2rcd13ifvqc3g","pricing_plan_id":"cebpf4jnsgd1na2vs0mg"},{"bike_id":"f3fce466-f263-4658-b2d0-7d5870b6e1dc","system_id":"levelo_inurba_marseille","lat":43.313527,"lon":5.367062,"is_reserved":false,"is_disabled":false,"rental_uris":{"android":"levelo://app?vid=f3fce466-f263-4658-b2d0-7d5870b6e1dc","ios":"levelo://app?vid=f3fce466-f263-4658-b2d0-7d5870b6e1dc"},"vehicle_type_id":"4","last_reported":1747649517,"current_range_meters":24000,"station_id":"","pricing_plan_id":"cebpf4jnsgd1na2vs0mg"},{"bike_id":"7f5f437f-8e88-4bb3-b956-5382be72e1e4","system_id":"levelo_inurba_marseille","lat":43.28477,"lon":5.38571,"is_reserved":false,"is_disabled":false,"rental_uris":{"android":"levelo://app?vid=7f5f437f-8e88-4bb3-b956-5382be72e1e4","ios":"levelo://app?vid=7f5f437f-8e88-4bb3-b956-5382be72e1e4"},"vehicle_type_id":"4","last_reported":1747649517,"current_range_meters":24000,"station_id":"ce4bh8p2rcd13ifvqeb0","pricing_plan_id":"cebpf4jnsgd1na2vs0mg"},{"bike_id":"e31833c9-3629-4b2f-810c-c09df0eb266c","system_id":"levelo_inurba_marseille","lat":43.33751,"lon":5.37509,"is_reserved":false,"is_disabled":false,"rental_uris":{"android":"levelo://app?vid=e31833c9-3629-4b2f-810c-c09df0eb266c","ios":"levelo://app?vid=e31833c9-3629-4b2f-810c-c09df0eb266c"},"vehicle_type_id":"4","last_reported":1747649517,"current_range_meters":24000,"station_id":"","pricing_plan_id":"cebpf4jnsgd1na2vs0mg"},{"bike_id":"27ff7099-bce5-4ab0-8ce1-26a447d502c9","system_id":"levelo_inurba_marseille","lat":43.30373,"lon":5.42455,"is_reserved":false,"is_disabled":false,"rental_uris":{"android":"levelo://app?vid=27ff7099-bce5-4ab0-8ce1-26a447d502c9","ios":"levelo://app?vid=27ff7099-bce5-4ab0-8ce1-26a447d502c9"},"vehicle_type_id":"4","last_reported":1747649517,"current_range_meters":24400,"station_id":"ce4bhoh2rcd13ifvqh6g","pricing_plan_id":"cebpf4jnsgd1na2vs0mg"},{"bike_id":"761fb7c5-4b61-4fb1-aa00-a47754808762","system_id":"levelo_inurba_marseille","lat":43.25708,"lon":5.41054,"is_reserved":false,"is_disabled":false,"rental_uris":{"android":"levelo://app?vid=761fb7c5-4b61-4fb1-aa00-a47754808762","ios":"levelo://app?vid=761fb7c5-4b61-4fb1-aa00-a47754808762"},