{"last_updated":1746713396,"ttl":60,"version":"2.2","data":{"bikes":[{"bike_id":"eb512911-7972-467b-bcff-5002ea7b68fd","system_id":"levelo_inurba_marseille","lat":43.24394,"lon":5.37067,"is_reserved":false,"is_disabled":false,"rental_uris":{"android":"levelo://app?vid=eb512911-7972-467b-bcff-5002ea7b68fd","ios":"levelo://app?vid=eb512911-7972-467b-bcff-5002ea7b68fd"},"vehicle_type_id":"4","last_reported":1746713397,"current_range_meters":2800,"station_id":"ce4bhhh2rcd13ifvqfk0","pricing_plan_id":"cebpf4jnsgd1na2vs0mg"},{"bike_id":"5cd00660-2823-4ee6-801d-c5fe1df477e3","system_id":"levelo_inurba_marseille","lat":43.24655,"lon":5.38893,"is_reserved":false,"is_disabled":false,"rental_uris":{"android":"levelo://app?vid=5cd00660-2823-4ee6-801d-c5fe1df477e3","ios":"levelo://app?vid=5cd00660-2823-4ee6-801d-c5fe1df477e3"},"vehicle_type_id":"4","last_reported":1746713397,"current_range_meters":2800,"station_id":"ce4bhg12rcd13ifvqf60","pricing_plan_id":"cebpf4jnsgd1na2vs0mg"},{"bike_id":"0ec98b17-3b19-4779-918f-244bbc3df524","system_id":"levelo_inurba_marseille","lat":43.25586,"lon":5.3825,"is_reserved":false,"is_disabled":false,"rental_uris":{"android":"levelo://app?vid=0ec98b17-3b19-4779-918f-244bbc3df524","ios":"levelo://app?vid=0ec98b17-3b19-4779-918f-244bbc3df524"},"vehicle_type_id":"4","last_reported":1746713397,"current_range_meters":2800,"station_id":"ce4bhih2rcd13ifvqfs0","pricing_plan_id":"cebpf4jnsgd1na2vs0mg"},{"bike_id":"d82bd560-c907-4cfa-ad2a-b4f6c684eb77","system_id":"levelo_inurba_marseille","lat":43.24657,"lon":5.3817,"is_reserved":false,"is_disabled":false,"rental_uris":{"android":"levelo://app?vid=d82bd560-c907-4cfa-ad2a-b4f6c684eb77","ios":"levelo://app?vid=d82bd560-c907-4cfa-ad2a-b4f6c684eb77"},"vehicle_type_id":"4","last_reported":1746713397,"current_range_meters":3200,"station_id":"ce4bhih2rcd13ifvqfr0","pricing_plan_id":"cebpf4jnsgd1na2vs0mg"},{"bike_id":"14909d78-1376-4dba-a9cd-6cdfed40535c","system_id":"levelo_inurba_marseille","lat":43.29275,"lon":5.36853,"is_reserved":false,"is_disabled":false,"rental_uris":{"android":"levelo://app?vid=14909d78-1376-4dba-a9cd-6cdfed40535c","ios":"levelo://app?vid=14909d78-1376-4dba-a9cd-6cdfed40535c"},"vehicle_type_id":"4","last_reported":1746713397,"current_range_meters":3200,"station_id":"ce4bhbp2rcd13ifvqesg","pricing_plan_id":"cebpf4jnsgd1na2vs0mg"},{"bike_id":"d914fa0d-978f-4b47-8190-7017e4f6046c","system_id":"levelo_inurba_marseille","lat":43.26032,"lon":5.37551,"is_reserved":false,"is_disabled":false,"rental_uris":{"android":"levelo://app?vid=d914fa0d-978f-4b47-8190-7017e4f6046c","ios":"levelo://app?vid=d914fa0d-978f-4b47-8190-7017e4f6046c"},"vehicle_type_id":"4","last_reported":1746713397,"current_range_meters":3200,"station_id":"ce4bhgh2rcd13ifvqfa0","pricing_plan_id":"cebpf4jnsgd1na2vs0mg"},{"bike_id":"9e0c05f6-d785-4f0b-bed3-7fbf18cfa918","system_id":"levelo_inurba_marseille","lat":43.23065,"lon":5.35488,"is_reserved":false,"is_disabled":false,"rental_uris":{"android":"levelo://app?vid=9e0c05f6-d785-4f0b-bed3-7fbf18cfa918","ios":"levelo://app?vid=9e0c05f6-d785-4f0b-bed3-7fbf18cfa918"},"vehicle_type_id":"4","last_reported":1746713397,"current_range_meters":3600,"station_id":"cpo3342slgdg3j2ifvpg","pricing_plan_id":"cebpf4jnsgd1na2vs0mg"},{"bike_id":"db604c58-83e4-46fd-83f7-665cebe46b2c","system_id":"levelo_inurba_marseille","lat":43.29288,"lon":5.36844,"is_reserved":false,"is_disabled":false,"rental_uris":{"android":"levelo://app?vid=db604c58-83e4-46fd-83f7-665cebe46b2c","ios":"levelo://app?vid=db604c58-83e4-46fd-83f7-665cebe46b2c"},"vehicle_type_id":"4","last_reported":1746713397,"current_range_meters":3600,"station_id":"ce4bhbp2rcd13ifvqesg","pricing_plan_id":"cebpf4jnsgd1na2vs0mg"},{"bike_id":"99d8786b-0736-4ab7-9641-8af44010695b","system_id":"levelo_inurba_marseille","lat":43.225002,"lon":5.347806,"is_reserved":false,"is_disabled":false,"rental_uris":{"android":"levelo://app?vid=99d8786b-0736-4ab7-9641-8af44010695b","ios":"levelo://app?vid=99d8786b-0736-4ab7-9641-8af44010695b"},"vehicle_type_id":"4","last_reported":1746713397,"current_range_meters":3600,"station_id":"st_cvj5dfep6f1abm77gieg","pricing_plan_id":"cebpf4jnsgd1na2vs0mg"},{"bike_id":"39a87d74-036c-4795-82ae-b7d27f47df1a","system_id":"levelo_inurba_marseille","lat":43.281,"lon":5.37832,"is_reserved":false,"is_disabled":false,"rental_uris":{"android":"levelo://app?vid=39a87d74-036c-4795-82ae-b7d27f47df1a","ios":"levelo://app?vid=39a87d74-036c-4795-82ae-b7d27f47df1a"},"vehicle_type_id":"4","last_reported":1746713397,"current_range_meters":3600,"station_id":"ce4bha12rcd13ifvqee0","pricing_plan_id":"cebpf4jnsgd1na2vs0mg"},{"bike_id":"e2658998-2b45-42ba-a17b-8ad8516bd3dc","system_id":"levelo_inurba_marseille","lat":43.23964,"lon":5.36634,"is_reserved":false,"is_disabled":false,"rental_uris":{"android":"levelo://app?vid=e2658998-2b45-42ba-a17b-8ad8516bd3dc","ios":"levelo://app?vid=e2658998-2b45-42ba-a17b-8ad8516bd3dc"},"vehicle_type_id":"4","last_reported":1746713397,"current_range_meters":3600,"station_id":"ce4bhi12rcd13ifvqfp0","pricing_plan_id":"cebpf4jnsgd1na2vs0mg"},{"bike_id":"3693790a-8aad-4c36-8310-40b1299c2e6f","system_id":"levelo_inurba_marseille","lat":43.30434,"lon":5.39743,"is_reserved":false,"is_disabled":false,"rental_uris":{"android":"levelo://app?vid=3693790a-8aad-4c36-8310-40b1299c2e6f","ios":"levelo://app?vid=3693790a-8aad-4c36-8310-40b1299c2e6f"},"vehicle_type_id":"4","last_reported":1746713397,"current_range_meters":3600,"station_id":"ce4bh092rcd13ifvqd20","pricing_plan_id":"cebpf4jnsgd1na2vs0mg"},{"bike_id":"2de1200f-ca54-4f6b-927a-bf8d9aa5f044","system_id":"levelo_inurba_marseille","lat":43.28438,"lon":5.35002,"is_reserved":false,"is_disabled":false,"rental_uris":{"android":"levelo://app?vid=2de1200f-ca54-4f6b-927a-bf8d9aa5f044","ios":"levelo://app?vid=2de1200f-ca54-4f6b-927a-bf8d9aa5f044"},"vehicle_type_id":"4","last_reported":1746713397,"current_range_meters":3600,"station_id":"ce4bhbh2rcd13ifvqepg","pricing_plan_id":"cebpf4jnsgd1na2vs0mg"},{"bike_id":"5e507869-6493-468e-8508-ab1ed99c058f","system_id":"levelo_inurba_marseille","lat":43.31079,"lon":5.42429,"is_reserved":false,"is_disabled":false,"rental_uris":{"android":"levelo://app?vid=5e507869-6493-468e-8508-ab1ed99c058f","ios":"levelo://app?vid=5e507869-6493-468e-8508-ab1ed99c058f"},"vehicle_type_id":"4","last_reported":1746713397,"current_range_meters":9200,"station_id":"ce4bhp92rcd13ifvqhag","pricing_plan_id":"cebpf4jnsgd1na2vs0mg"},{"bike_id":"68b13bed-72de-4ece-bb40-aba1c457c425","system_id":"levelo_inurba_marseille","lat":43.28419,"lon":5.34973,"is_reserved":false,"is_disabled":false,"rental_uris":{"android":"levelo://app?vid=68b13bed-72de-4ece-bb40-aba1c457c425","ios":"levelo://app?vid=68b13bed-72de-4ece-bb40-aba1c457c425"},"vehicle_type_id":"4","last_reported":1746713397,"current_range_meters":4000,"station_id":"ce4bhbh2rcd13ifvqepg","pricing_plan_id":"cebpf4jnsgd1na2vs0mg"},{"bike_id":"1f2e6423-7106-4804-8800-38ddf80b2814","system_id":"levelo_inurba_marseille","lat":43.27052,"lon":5.4026,"is_reserved":false,"is_disabled":false,"rental_uris":{"android":"levelo://app?vid=1f2e6423-7106-4804-8800-38ddf80b2814","ios":"levelo://app?vid=1f2e6423-7106-4804-8800-38ddf80b2814"},"vehicle_type_id":"4","last_reported":1746713397,"current_range_meters":4000,"station_id":"ce4bhk92rcd13ifvqgc0","pricing_plan_id":"cebpf4jnsgd1na2vs0mg"},{"bike_id":"cb37898e-575a-431e-abde-8c172dfbb98f","system_id":"levelo_inurba_marseille","lat":43.29939,"lon":5.36561,"is_reserved":false,"is_disabled":false,"rental_uris":{"android":"levelo://app?vid=cb37898e-575a-431e-abde-8c172dfbb98f","ios":"levelo://app?vid=cb37898e-575a-431e-abde-8c172dfbb98f"},"vehicle_type_id":"4","last_reported":1746713397,"current_range_meters":4000,"station_id":"ce4bgm92rcd13ifvqbr0","pricing_plan_id":"cebpf4jnsgd1na2vs0mg"},{"bike_id":"ffe914b1-fa4e-4f49-ac67-30e35308b3cb","system_id":"levelo_inurba_marseille","lat":43.29935,"lon":5.36542,"is_reserved":false,"is_disabled":false,"rental_uris":{"android":"levelo://app?vid=ffe914b1-fa4e-4f49-ac67-30e35308b3cb","ios":"levelo://app?vid=ffe914b1-fa4e-4f49-ac67-30e35308b3cb"},"vehicle_type_id":"4","last_reported":1746713397,"current_range_meters":4400,"station_id":"ce4bgm92rcd13ifvqbr0","pricing_plan_id":"cebpf4jnsgd1na2vs0mg"},{"bike_id":"4fe375fa-a73d-4353-97c4-f78413eb177e","system_id":"levelo_inurba_marseille","lat":43.29711,"lon":5.36612,"is_reserved":false,"is_disabled":false,"rental_uris":{"android":"levelo://app?vid=4fe375fa-a73d-4353-97c4-f78413eb177e","ios":"levelo://app?vid=4fe375fa-a73d-4353-97c4-f78413eb177e"},"vehicle_type_id":"4","last_reported":1746713397,"current_range_meters":4000,"station_id":"ce4bgn12rcd13ifvqbt0","pricing_plan_id":"cebpf4jnsgd1na2vs0mg"},{"bike_id":"31537f68-c355-4a5c-85ab-5ead5b424fc5","system_id":"levelo_inurba_marseille","lat":43.25496,"lon":5.37649,"is_reserved":false,"is_disabled":false,"rental_uris":{"android":"levelo://app?vid=31537f68-c355-4a5c-85ab-5ead5b424fc5","ios":"levelo://app?vid=31537f68-c355-4a5c-85ab-5ead5b424fc5"},"vehicle_type_id":"4","last_reported":1746713397,"current_range_meters":4000,"station_id":"ce4bhh12rcd13ifvqff0","pricing_plan_id":"cebpf4jnsgd1na2vs0mg"},{"bike_id":"c070064e-8ea6-4590-8617-42e724f3488e","system_id":"levelo_inurba_marseille","lat":43.30594,"lon":5.37233,"is_reserved":false,"is_disabled":false,"rental_uris":{"android":"levelo://app?vid=c070064e-8ea6-4590-8617-42e724f3488e","ios":"levelo://app?vid=c070064e-8ea6-4590-8617-42e724f3488e"},"vehicle_type_id":"4","last_reported":1746713397,"current_range_meters":3600,"station_id":"ce4bgqh2rcd13ifvqc4g","pricing_plan_id":"cebpf4jnsgd1na2vs0mg"},{"bike_id":"f3a9ceeb-bfdc-475c-aae2-fe6f337a394c","system_id":"levelo_inurba_marseille","lat":43.28041,"lon":5.36951,"is_reserved":false,"is_disabled":false,"rental_uris":{"android":"levelo://app?vid=f3a9ceeb-bfdc-475c-aae2-fe6f337a394c","ios":"levelo://app?vid=f3a9ceeb-bfdc-475c-aae2-fe6f337a394c"},"vehicle_type_id":"4","last_reported":1746713397,"current_range_meters":4400,"station_id":"ce4bha12rcd13ifvqef0","pricing_plan_id":"cebpf4jnsgd1na2vs0mg"},{"bike_id":"e81f990b-57a2-464b-bf87-629a53c1633f","system_id":"levelo_inurba_marseille","lat":43.21193,"lon":5.35074,"is_reserved":false,"is_disabled":false,"rental_uris":{"android":"levelo://app?vid=e81f990b-57a2-464b-bf87-629a53c1633f","ios":"levelo://app?vid=e81f990b-57a2-464b-bf87-629a53c1633f"},"vehicle_type_id":"4","last_reported":1746713397,"current_range_meters":4400,"station_id":"st_cvj6sg6p6f1abm77japg","pricing_plan_id":"cebpf4jnsgd1na2vs0mg"},{"bike_id":"8548cb73-456b-4d6e-b84c-82d3978737f9","system_id":"levelo_inurba_marseille","lat":43.27826,"lon":5.40737,"is_reserved":false,"is_disabled":false,"rental_uris":{"android":"levelo://app?vid=8548cb73-456b-4d6e-b84c-82d3978737f9","ios":"levelo://app?vid=8548cb73-456b-4d6e-b84c-82d3978737f9"},"vehicle_type_id":"4","last_reported":1746713397,"current_range_meters":4800,"station_id":"ce4bhnh2rcd13ifvqgtg","pricing_plan_id":"cebpf4jnsgd1na2vs0mg"},{"bike_id":"d86d5f8c-c498-4431-a0a5-ef2e9e032f1e","system_id":"levelo_inurba_marseille","lat":43.27558,"lon":5.38437,"is_reserved":false,"is_disabled":false,"rental_uris":{"android":"levelo://app?vid=d86d5f8c-c498-4431-a0a5-ef2e9e032f1e","ios":"levelo://app?vid=d86d5f8c-c498-4431-a0a5-ef2e9e032f1e"},"vehicle_type_id":"4","last_reported":1746713397,"current_range_meters":4400,"station_id":"ce4bhh92rcd13ifvqfi0","pricing_plan_id":"cebpf4jnsgd1na2vs0mg"},{"bike_id":"c087bd71-eef2-40eb-a72e-cbb41cc21ad2","system_id":"levelo_inurba_marseille","lat":43.24073,"lon":5.37768,"is_reserved":false,"is_disabled":false,"rental_uris":{"android":"levelo://app?vid=c087bd71-eef2-40eb-a72e-cbb41cc21ad2","ios":"levelo://app?vid=c087bd71-eef2-40eb-a72e-cbb41cc21ad2"},"vehicle_type_id":"4","last_reported":1746713397,"current_range_meters":4800,"station_id":"ce4bhnp2rcd13ifvqgvg","pricing_plan_id":"cebpf4jnsgd1na2vs0mg"},{"bike_id":"40275f0a-dd68-4a3b-8447-04173b9033f0","system_id":"levelo_inurba_marseille","lat":43.241702,"lon":5.363959,"is_reserved":false,"is_disabled":false,"rental_uris":{"android":"levelo://app?vid=40275f0a-dd68-4a3b-8447-04173b9033f0","ios":"levelo://app?vid=40275f0a-dd68-4a3b-8447-04173b9033f0"},"vehicle_type_id":"4","last_reported":1746713397,"current_range_meters":4800,"station_id":"cpo36qri1sfpv3e86is0","pricing_plan_id":"cebpf4jnsgd1na2vs0mg"},{"bike_id":"96e0fdcd-5fdd-422a-949e-be3e38b67ee4","system_id":"levelo_inurba_marseille","lat":43.24171,"lon":5.36394,"is_reserved":false,"is_disabled":false,"rental_uris":{"android":"levelo://app?vid=96e0fdcd-5fdd-422a-949e-be3e38b67ee4","ios":"levelo://app?vid=96e0fdcd-5fdd-422a-949e-be3e38b67ee4"},"vehicle_type_id":"4","last_reported":1746713397,"current_range_meters":5600,"station_id":"cpo36qri1sfpv3e86is0","pricing_plan_id":"cebpf4jnsgd1na2vs0mg"},{"bike_id":"4b04c7d7-1afc-417c-9d85-f2beeae4cad0","system_id":"levelo_inurba_marseille","lat":43.23069,"lon":5.35489,"is_reserved":false,"is_disabled":false,"rental_uris":{"android":"levelo://app?vid=4b04c7d7-1afc-417c-9d85-f2beeae4cad0","ios":"levelo://app?vid=4b04c7d7-1afc-417c-9d85-f2beeae4cad0"},"vehicle_type_id":"4","last_reported":1746713397,"current_range_meters":12400,"station_id":"cpo3342slgdg3j2ifvpg","pricing_plan_id":"cebpf4jnsgd1na2vs0mg"},{"bike_id":"c6beb9df-f03a-4680-a88d-d67c4b03bebc","system_id":"levelo_inurba_marseille","lat":43.28268,"lon":5.35038,"is_reserved":false,"is_disabled":false,"rental_uris":{"android":"levelo://app?vid=c6beb9df-f03a-4680-a88d-d67c4b03bebc","ios":"levelo://app?vid=c6beb9df-f03a-4680-a88d-d67c4b03bebc"},"vehicle_type_id":"4","last_reported":1746713397,"current_range_meters":5600,"station_id":"ce4bhbp2rcd13ifvqerg","pricing_plan_id":"cebpf4jnsgd1na2vs0mg"},{"bike_id":"570450de-6567-42e5-b64c-4e705e1f7676","system_id":"levelo_inurba_marseille","lat":43.255807,"lon":5.382319,"is_reserved":false,"is_disabled":false,"rental_uris":{"android":"levelo://app?vid=570450de-6567-42e5-b64c-4e705e1f7676","ios":"levelo://app?vid=570450de-6567-42e5-b64c-4e705e1f7676"},"vehicle_type_id":"4","last_reported":1746713397,"current_range_meters":5600,"station_id":"ce4bhih2rcd13ifvqfs0","pricing_plan_id":"cebpf4jnsgd1na2vs0mg"},{"bike_id":"6a6e6444-9d87-4520-88cf-7ff058e2242e","system_id":"levelo_inurba_marseille","lat":43.27903,"lon":5.38019,"is_reserved":false,"is_disabled":false,"rental_uris":{"android":"levelo://app?vid=6a6e6444-9d87-4520-88cf-7ff058e2242e","ios":"levelo://app?vid=6a6e6444-9d87-4520-88cf-7ff058e2242e"},"vehicle_type_id":"4","last_reported":1746713397,"current_range_meters":5600,"station_id":"ce4bhf92rcd13ifvqf50","pricing_plan_id":"cebpf4jnsgd1na2vs0mg"},{"bike_id":"1b1f6bea-8f1d-4f69-bb63-1e9c635e6620","system_id":"levelo_inurba_marseille","lat":43.229262,"lon":5.353753,"is_reserved":false,"is_disabled":false,"rental_uris":{"android":"levelo://app?vid=1b1f6bea-8f1d-4f69-bb63-1e9c635e6620","ios":"levelo://app?vid=1b1f6bea-8f1d-4f69-bb63-1e9c635e6620"},"vehicle_type_id":"4","last_reported":1746713397,"current_range_meters":6000,"station_id":"cpo3532slgdg3j2ikp40","pricing_plan_id":"cebpf4jnsgd1na2vs0mg"},{"bike_id":"e8e6db53-ddaf-46e4-bfa7-876afadf284e","system_id":"levelo_inurba_marseille","lat":43.29967,"lon":5.41324,"is_reserved":false,"is_disabled":false,"rental_uris":{"android":"levelo://app?vid=e8e6db53-ddaf-46e4-bfa7-876afadf284e","ios":"levelo://app?vid=e8e6db53-ddaf-46e4-bfa7-876afadf284e"},"vehicle_type_id":"4","last_reported":1746713397,"current_range_meters":6000,"station_id":"ce4bhp12rcd13ifvqh9g","pricing_plan_id":"cebpf4jnsgd1na2vs0mg"},{"bike_id":"4f5418b0-78a8-4a6e-834e-b464d3b8ea41","system_id":"levelo_inurba_marseille","lat":43.22933,"lon":5.35376,"is_reserved":false,"is_disabled":false,"rental_uris":{"android":"levelo://app?vid=4f5418b0-78a8-4a6e-834e-b464d3b8ea41","ios":"levelo://app?vid=4f5418b0-78a8-4a6e-834e-b464d3b8ea41"},"vehicle_type_id":"4","last_reported":1746713397,"current_range_meters":6000,"station_id":"cpo3532slgdg3j2ikp40","pricing_plan_id":"cebpf4jnsgd1na2vs0mg"},{"bike_id":"e07a4576-9080-4697-9d6b-9a11e8bf2b19","system_id":"levelo_inurba_marseille","lat":43.21192,"lon":5.35076,"is_reserved":false,"is_disabled":false,"rental_uris":{"android":"levelo://app?vid=e07a4576-9080-4697-9d6b-9a11e8bf2b19","ios":"levelo://app?vid=e07a4576-9080-4697-9d6b-9a11e8bf2b19"},"vehicle_type_id":"4","last_reported":1746713397,"current_range_meters":6000,"station_id":"st_cvj6sg6p6f1abm77japg","pricing_plan_id":"cebpf4jnsgd1na2vs0mg"},{"bike_id":"4cc88e52-d9f0-4328-9d1b-a7e0ce9e2621","system_id":"levelo_inurba_marseille","lat":43.31883,"lon":5.40744,"is_reserved":false,"is_disabled":false,"rental_uris":{"android":"levelo://app?vid=4cc88e52-d9f0-4328-9d1b-a7e0ce9e2621","ios":"levelo://app?vid=4cc88e52-d9f0-4328-9d1b-a7e0ce9e2621"},"vehicle_type_id":"4","last_reported":1746713397,"current_range_meters":5600,"station_id":"ce4bhq12rcd13ifvqhig","pricing_plan_id":"cebpf4jnsgd1na2vs0mg"},{"bike_id":"8ca03f25-d806-4d6a-8933-67f9813949c5","system_id":"levelo_inurba_marseille","lat":43.301205,"lon":5.387907,"is_reserved":false,"is_disabled":false,"rental_uris":{"android":"levelo://app?vid=8ca03f25-d806-4d6a-8933-67f9813949c5","ios":"levelo://app?vid=8ca03f25-d806-4d6a-8933-67f9813949c5"},"vehicle_type_id":"4","last_reported":1746713397,"current_range_meters":6000,"station_id":"ce4bghh2rcd13ifvqb60","pricing_plan_id":"cebpf4jnsgd1na2vs0mg"},{"bike_id":"8fc6980d-0bbb-4b21-8b90-1c68ea220dba","system_id":"levelo_inurba_marseille","lat":43.25579,"lon":5.3823,"is_reserved":false,"is_disabled":false,"rental_uris":{"android":"levelo://app?vid=8fc6980d-0bbb-4b21-8b90-1c68ea220dba","ios":"levelo://app?vid=8fc6980d-0bbb-4b21-8b90-1c68ea220dba"},"vehicle_type_id":"4","last_reported":1746713397,"current_range_meters":6000,"station_id":"ce4bhih2rcd13ifvqfs0","pricing_plan_id":"cebpf4jnsgd1na2vs0mg"},{"bike_id":"3bad184a-1567-45eb-bc31-e7ea1f0e01fc","system_id":"levelo_inurba_marseille","lat":43.22925,"lon":5.3538,"is_reserved":false,"is_disabled":false,"rental_uris":{"android":"levelo://app?vid=3bad184a-1567-45eb-bc31-e7ea1f0e01fc","ios":"levelo://app?vid=3bad184a-1567-45eb-bc31-e7ea1f0e01fc"},"vehicle_type_id":"4","last_reported":1746713397,"current_range_meters":6400,"station_id":"cpo3532slgdg3j2ikp40","pricing_plan_id":"cebpf4jnsgd1na2vs0mg"},{"bike_id":"bb6685c6-8835-42f7-8cdb-57288ab49efe","system_id":"levelo_inurba_marseille","lat":43.21179,"lon":5.35087,"is_reserved":false,"is_disabled":false,"rental_uris":{"android":"levelo://app?vid=bb6685c6-8835-42f7-8cdb-57288ab49efe","ios":"levelo://app?vid=bb6685c6-8835-42f7-8cdb-57288ab49efe"},"vehicle_type_id":"4","last_reported":1746713397,"current_range_meters":6400,"station_id":"st_cvj6sg6p6f1abm77japg","pricing_plan_id":"cebpf4jnsgd1na2vs0mg"},{"bike_id":"e43bab80-8704-42c6-9f77-beccb5e1b57e","system_id":"levelo_inurba_marseille","lat":43.28251,"lon":5.35079,"is_reserved":false,"is_disabled":false,"rental_uris":{"android":"levelo://app?vid=e43bab80-8704-42c6-9f77-beccb5e1b57e","ios":"levelo://app?vid=e43bab80-8704-42c6-9f77-beccb5e1b57e"},"vehicle_type_id":"4","last_reported":1746713397,"current_range_meters":6400,"station_id":"ce4bhbp2rcd13ifvqerg","pricing_plan_id":"cebpf4jnsgd1na2vs0mg"},{"bike_id":"84e7f3a2-aec7-4966-b486-a481551cd986","system_id":"levelo_inurba_marseille","lat":43.26034,"lon":5.37561,"is_reserved":false,"is_disabled":false,"rental_uris":{"android":"levelo://app?vid=84e7f3a2-aec7-4966-b486-a481551cd986","ios":"levelo://app?vid=84e7f3a2-aec7-4966-b486-a481551cd986"},"vehicle_type_id":"4","last_reported":1746713397,"current_range_meters":6400,"station_id":"ce4bhgh2rcd13ifvqfa0","pricing_plan_id":"cebpf4jnsgd1na2vs0mg"},{"bike_id":"17ff3818-f9be-4b32-b247-8ed9c7394c74","system_id":"levelo_inurba_marseille","lat":43.2396,"lon":5.36633,"is_reserved":false,"is_disabled":false,"rental_uris":{"android":"levelo://app?vid=17ff3818-f9be-4b32-b247-8ed9c7394c74","ios":"levelo://app?vid=17ff3818-f9be-4b32-b247-8ed9c7394c74"},"vehicle_type_id":"4","last_reported":1746713397,"current_range_meters":6400,"station_id":"ce4bhi12rcd13ifvqfp0","pricing_plan_id":"cebpf4jnsgd1na2vs0mg"},{"bike_id":"d3ce4daa-a24b-4298-bfee-d22fd4fae126","system_id":"levelo_inurba_marseille","lat":43.27842,"lon":5.39206,"is_reserved":false,"is_disabled":false,"rental_uris":{"android":"levelo://app?vid=d3ce4daa-a24b-4298-bfee-d22fd4fae126","ios":"levelo://app?vid=d3ce4daa-a24b-4298-bfee-d22fd4fae126"},"vehicle_type_id":"4","last_reported":1746713397,"current_range_meters":6800,"station_id":"ce4bhjp2rcd13ifvqga0","pricing_plan_id":"cebpf4jnsgd1na2vs0mg"},{"bike_id":"5d97afa3-75c8-4720-9690-7157f6b19de8","system_id":"levelo_inurba_marseille","lat":43.33625,"lon":5.40995,"is_reserved":false,"is_disabled":false,"rental_uris":{"android":"levelo://app?vid=5d97afa3-75c8-4720-9690-7157f6b19de8","ios":"levelo://app?vid=5d97afa3-75c8-4720-9690-7157f6b19de8"},"vehicle_type_id":"4","last_reported":1746713397,"current_range_meters":6800,"station_id":"ce4bhqh2rcd13ifvqhmg","pricing_plan_id":"cebpf4jnsgd1na2vs0mg"},{"bike_id":"ddda1e7e-2780-4187-b2fe-c09599a440f7","system_id":"levelo_inurba_marseille","lat":43.23167,"lon":5.43734,"is_reserved":false,"is_disabled":false,"rental_uris":{"android":"levelo://app?vid=ddda1e7e-2780-4187-b2fe-c09599a440f7","ios":"levelo://app?vid=ddda1e7e-2780-4187-b2fe-c09599a440f7"},"vehicle_type_id":"4","last_reported":1746713397,"current_range_meters":6800,"station_id":"ce4bhmp2rcd13ifvqgog","pricing_plan_id":"cebpf4jnsgd1na2vs0mg"},{"bike_id":"f48b6b1b-1f22-4f31-b873-44a168fb005d","system_id":"levelo_inurba_marseille","lat":43.29929,"lon":5.36549,"is_reserved":false,"is_disabled":false,"rental_uris":{"android":"levelo://app?vid=f48b6b1b-1f22-4f31-b873-44a168fb005d","ios":"levelo://app?vid=f48b6b1b-1f22-4f31-b873-44a168fb005d"},"vehicle_type_id":"4","last_reported":1746713397,"current_range_meters":6800,"station_id":"ce4bgm92rcd13ifvqbr0","pricing_plan_id":"cebpf4jnsgd1na2vs0mg"},{"bike_id":"481c477f-5285-4df6-bf62-57efd836465f","system_id":"levelo_inurba_marseille","lat":43.26209,"lon":5.37442,"is_reserved":false,"is_disabled":false,"rental_uris":{"android":"levelo://app?vid=481c477f-5285-4df6-bf62-57efd836465f","ios":"levelo://app?vid=481c477f-5285-4df6-bf62-57efd836465f"},"vehicle_type_id":"4","last_reported":1746713397,"current_range_meters":6800,"station_id":"ce4bhgp2rcd13ifvqfc0","pricing_plan_id":"cebpf4jnsgd1na2vs0mg"},{"bike_id":"f5993ec3-da6c-4349-9dc7-94c7a233fb08","system_id":"levelo_inurba_marseille","lat":43.292722,"lon":5.384336,"is_reserved":false,"is_disabled":false,"rental_uris":{"android":"levelo://app?vid=f5993ec3-da6c-4349-9dc7-94c7a233fb08","ios":"levelo://app?vid=f5993ec3-da6c-4349-9dc7-94c7a233fb08"},"vehicle_type_id":"4","last_reported":1746713397,"current_range_meters":8400,"station_id":"ce4bh692rcd13ifvqea0","pricing_plan_id":"cebpf4jnsgd1na2vs0mg"},{"bike_id":"f5b005cf-fb1c-4d8d-b229-df6da9637604","system_id":"levelo_inurba_marseille","lat":43.25499,"lon":5.37647,"is_reserved":false,"is_disabled":false,"rental_uris":{"android":"levelo://app?vid=f5b005cf-fb1c-4d8d-b229-df6da9637604","ios":"levelo://app?vid=f5b005cf-fb1c-4d8d-b229-df6da9637604"},"vehicle_type_id":"4","last_reported":1746713397,"current_range_meters":6800,"station_id":"ce4bhh12rcd13ifvqff0","pricing_plan_id":"cebpf4jnsgd1na2vs0mg"},{"bike_id":"a297e50c-bb28-4d8d-97f5-57738833cd8f","system_id":"levelo_inurba_marseille","lat":43.225,"lon":5.34786,"is_reserved":false,"is_disabled":false,"rental_uris":{"android":"levelo://app?vid=a297e50c-bb28-4d8d-97f5-57738833cd8f","ios":"levelo://app?vid=a297e50c-bb28-4d8d-97f5-57738833cd8f"},"vehicle_type_id":"4","last_reported":1746713397,"current_range_meters":6800,"station_id":"st_cvj5dfep6f1abm77gieg","pricing_plan_id":"cebpf4jnsgd1na2vs0mg"},{"bike_id":"b7bdbe3a-b7ec-4256-908f-dfa71835a5d1","system_id":"levelo_inurba_marseille","lat":43.291645,"lon":5.38106,"is_reserved":false,"is_disabled":false,"rental_uris":{"android":"levelo://app?vid=b7bdbe3a-b7ec-4256-908f-dfa71835a5d1","ios":"levelo://app?vid=b7bdbe3a-b7ec-4256-908f-dfa71835a5d1"},"vehicle_type_id":"4","last_reported":1746713397,"current_range_meters":6800,"station_id":"","pricing_plan_id":"cebpf4jnsgd1na2vs0mg"},{"bike_id":"c7791827-a677-4f4b-8411-f5d97f923332","system_id":"levelo_inurba_marseille","lat":43.26034,"lon":5.37545,"is_reserved":false,"is_disabled":false,"rental_uris":{"android":"levelo://app?vid=c7791827-a677-4f4b-8411-f5d97f923332","ios":"levelo://app?vid=c7791827-a677-4f4b-8411-f5d97f923332"},"vehicle_type_id":"4","last_reported":1746713397,"current_range_meters":6800,"station_id":"ce4bhgh2rcd13ifvqfa0","pricing_plan_id":"cebpf4jnsgd1na2vs0mg"},{"bike_id":"daef9e2e-5ccc-4f74-a787-26f17b6fe3d5","system_id":"levelo_inurba_marseille","lat":43.23195,"lon":5.35552,"is_reserved":false,"is_disabled":false,"rental_uris":{"android":"levelo://app?vid=daef9e2e-5ccc-4f74-a787-26f17b6fe3d5","ios":"levelo://app?vid=daef9e2e-5ccc-4f74-a787-26f17b6fe3d5"},"vehicle_type_id":"4","last_reported":1746713397,"current_range_meters":6800,"station_id":"ce4bhu92rcd13ifvqi70","pricing_plan_id":"cebpf4jnsgd1na2vs0mg"},{"bike_id":"be3a2ed9-e107-46dc-8066-89cfcff50847","system_id":"levelo_inurba_marseille","lat":43.292331,"lon":5.371255,"is_reserved":false,"is_disabled":false,"rental_uris":{"android":"levelo://app?vid=be3a2ed9-e107-46dc-8066-89cfcff50847","ios":"levelo://app?vid=be3a2ed9-e107-46dc-8066-89cfcff50847"},"vehicle_type_id":"4","last_reported":1746713397,"current_range_meters":7200,"station_id":"","pricing_plan_id":"cebpf4jnsgd1na2vs0mg"},{"bike_id":"be037950-501b-4cab-89bb-e2e737a2965d","system_id":"levelo_inurba_marseille","lat":43.34153,"lon":5.40905,"is_reserved":false,"is_disabled":false,"rental_uris":{"android":"levelo://app?vid=be037950-501b-4cab-89bb-e2e737a2965d","ios":"levelo://app?vid=be037950-501b-4cab-89bb-e2e737a2965d"},"vehicle_type_id":"4","last_reported":1746713397,"current_range_meters":6800,"station_id":"ce4bhqh2rcd13ifvqhlg","pricing_plan_id":"cebpf4jnsgd1na2vs0mg"},{"bike_id":"56f6c96d-8015-47c6-91fc-9c46aac8ffb9","system_id":"levelo_inurba_marseille","lat":43.274979,"lon":5.424568,"is_reserved":false,"is_disabled":false,"rental_uris":{"android":"levelo://app?vid=56f6c96d-8015-47c6-91fc-9c46aac8ffb9","ios":"levelo://app?vid=56f6c96d-8015-47c6-91fc-9c46aac8ffb9"},"vehicle_type_id":"4","last_reported":1746713397,"current_range_meters":7200,"station_id":"ce4bhn92rcd13ifvqgrg","pricing_plan_id":"cebpf4jnsgd1na2vs0mg"},{"bike_id":"bb510fb8-9db8-408b-a690-1a400b064efe","system_id":"levelo_inurba_marseille","lat":43.24647,"lon":5.38897,"is_reserved":false,"is_disabled":false,"rental_uris":{"android":"levelo://app?vid=bb510fb8-9db8-408b-a690-1a400b064efe","ios":"levelo://app?vid=bb510fb8-9db8-408b-a690-1a400b064efe"},"vehicle_type_id":"4","last_reported":1746713397,"current_range_meters":7200,"station_id":"ce4bhg12rcd13ifvqf60","pricing_plan_id":"cebpf4jnsgd1na2vs0mg"},{"bike_id":"1a473cc9-917d-40f6-bd9e-7471938b69c8","system_id":"levelo_inurba_marseille","lat":43.26485,"lon":5.3955,"is_reserved":false,"is_disabled":false,"rental_uris":{"android":"levelo://app?vid=1a473cc9-917d-40f6-bd9e-7471938b69c8","ios":"levelo://app?vid=1a473cc9-917d-40f6-bd9e-7471938b69c8"},"vehicle_type_id":"4","last_reported":1746713397,"current_range_meters":8000,"station_id":"ce4bhi12rcd13ifvqfq0","pricing_plan_id":"cebpf4jnsgd1na2vs0mg"},{"bike_id":"442b2db5-a80c-4943-81e5-a15077290d0c","system_id":"levelo_inurba_marseille","lat":43.29271,"lon":5.36848,"is_reserved":false,"is_disabled":false,"rental_uris":{"android":"levelo://app?vid=442b2db5-a80c-4943-81e5-a15077290d0c","ios":"levelo://app?vid=442b2db5-a80c-4943-81e5-a15077290d0c"},"vehicle_type_id":"4","last_reported":1746713397,"current_range_meters":8000,"station_id":"ce4bhbp2rcd13ifvqesg","pricing_plan_id":"cebpf4jnsgd1na2vs0mg"},{"bike_id":"896d3462-4257-48d2-a1bc-723f0dd22e77","system_id":"levelo_inurba_marseille","lat":43.24387,"lon":5.37074,"is_reserved":false,"is_disabled":false,"rental_uris":{"android":"levelo://app?vid=896d3462-4257-48d2-a1bc-723f0dd22e77","ios":"levelo://app?vid=896d3462-4257-48d2-a1bc-723f0dd22e77"},"vehicle_type_id":"4","last_reported":1746713397,"current_range_meters":8000,"station_id":"ce4bhhh2rcd13ifvqfk0","pricing_plan_id":"cebpf4jnsgd1na2vs0mg"},{"bike_id":"2ec539a2-c7b8-4e30-8ec2-272a5ac5462b","system_id":"levelo_inurba_marseille","lat":43.23057,"lon":5.35491,"is_reserved":false,"is_disabled":false,"rental_uris":{"android":"levelo://app?vid=2ec539a2-c7b8-4e30-8ec2-272a5ac5462b","ios":"levelo://app?vid=2ec539a2-c7b8-4e30-8ec2-272a5ac5462b"},"vehicle_type_id":"4","last_reported":1746713397,"current_range_meters":8000,"station_id":"cpo3342slgdg3j2ifvpg","pricing_plan_id":"cebpf4jnsgd1na2vs0mg"},{"bike_id":"48ef3103-9348-43d9-84dc-a6c3ffacafe6","system_id":"levelo_inurba_marseille","lat":43.28041,"lon":5.36947,"is_reserved":false,"is_disabled":false,"rental_uris":{"android":"levelo://app?vid=48ef3103-9348-43d9-84dc-a6c3ffacafe6","ios":"levelo://app?vid=48ef3103-9348-43d9-84dc-a6c3ffacafe6"},"vehicle_type_id":"4","last_reported":1746713397,"current_range_meters":7200,"station_id":"ce4bha12rcd13ifvqef0","pricing_plan_id":"cebpf4jnsgd1na2vs0mg"},{"bike_id":"ffaf7abf-4cb1-4866-ac3c-102e314cafc8","system_id":"levelo_inurba_marseille","lat":43.24184,"lon":5.397076,"is_reserved":false,"is_disabled":false,"rental_uris":{"android":"levelo://app?vid=ffaf7abf-4cb1-4866-ac3c-102e314cafc8","ios":"levelo://app?vid=ffaf7abf-4cb1-4866-ac3c-102e314cafc8"},"vehicle_type_id":"4","last_reported":1746713397,"current_range_meters":8000,"station_id":"ce4bhn12rcd13ifvqgpg","pricing_plan_id":"cebpf4jnsgd1na2vs0mg"},{"bike_id":"b6949c3b-07ea-4cc2-a89a-10877333494b","system_id":"levelo_inurba_marseille","lat":43.2417,"lon":5.39738,"is_reserved":false,"is_disabled":false,"rental_uris":{"android":"levelo://app?vid=b6949c3b-07ea-4cc2-a89a-10877333494b","ios":"levelo://app?vid=b6949c3b-07ea-4cc2-a89a-10877333494b"},"vehicle_type_id":"4","last_reported":1746713397,"current_range_meters":8000,"station_id":"ce4bhn12rcd13ifvqgpg","pricing_plan_id":"cebpf4jnsgd1na2vs0mg"},{"bike_id":"b1da6861-bde4-4aff-bfa1-feb92e0f3ab6","system_id":"levelo_inurba_marseille","lat":43.29638,"lon":5.40579,"is_reserved":false,"is_disabled":false,"rental_uris":{"android":"levelo://app?vid=b1da6861-bde4-4aff-bfa1-feb92e0f3ab6","ios":"levelo://app?vid=b1da6861-bde4-4aff-bfa1-feb92e0f3ab6"},"vehicle_type_id":"4","last_reported":1746713397,"current_range_meters":8000,"station_id":"ce4bh0h2rcd13ifvqd60","pricing_plan_id":"cebpf4jnsgd1na2vs0mg"},{"bike_id":"b07a70c4-a3b2-4d0b-987a-77fde00b32c3","system_id":"levelo_inurba_marseille","lat":43.2558,"lon":5.38228,"is_reserved":false,"is_disabled":false,"rental_uris":{"android":"levelo://app?vid=b07a70c4-a3b2-4d0b-987a-77fde00b32c3","ios":"levelo://app?vid=b07a70c4-a3b2-4d0b-987a-77fde00b32c3"},"vehicle_type_id":"4","last_reported":1746713397,"current_range_meters":7200,"station_id":"ce4bhih2rcd13ifvqfs0","pricing_plan_id":"cebpf4jnsgd1na2vs0mg"},{"bike_id":"9e48197a-a1a4-456e-8229-7bbe1bb71309","system_id":"levelo_inurba_marseille","lat":43.23196,"lon":5.39979,"is_reserved":false,"is_disabled":false,"rental_uris":{"android":"levelo://app?vid=9e48197a-a1a4-456e-8229-7bbe1bb71309","ios":"levelo://app?vid=9e48197a-a1a4-456e-8229-7bbe1bb71309"},"vehicle_type_id":"4","last_reported":1746713397,"current_range_meters":8400,"station_id":"ce4bhn12rcd13ifvqgqg","pricing_plan_id":"cebpf4jnsgd1na2vs0mg"},{"bike_id":"16aa8862-559f-48a2-81f4-54f66f7f53ae","system_id":"levelo_inurba_marseille","lat":43.24395,"lon":5.37051,"is_reserved":false,"is_disabled":false,"rental_uris":{"android":"levelo://app?vid=16aa8862-559f-48a2-81f4-54f66f7f53ae","ios":"levelo://app?vid=16aa8862-559f-48a2-81f4-54f66f7f53ae"},"vehicle_type_id":"4","last_reported":1746713397,"current_range_meters":8400,"station_id":"ce4bhhh2rcd13ifvqfk0","pricing_plan_id":"cebpf4jnsgd1na2vs0mg"},{"bike_id":"80fb3476-eda5-4d1c-bbdb-0797f2ba1fde","system_id":"levelo_inurba_marseille","lat":43.23189,"lon":5.35557,"is_reserved":false,"is_disabled":false,"rental_uris":{"android":"levelo://app?vid=80fb3476-eda5-4d1c-bbdb-0797f2ba1fde","ios":"levelo://app?vid=80fb3476-eda5-4d1c-bbdb-0797f2ba1fde"},"vehicle_type_id":"4","last_reported":1746713397,"current_range_meters":8400,"station_id":"ce4bhu92rcd13ifvqi70","pricing_plan_id":"cebpf4jnsgd1na2vs0mg"},{"bike_id":"b4b1df3b-9c8d-4198-8224-a23943bf6651","system_id":"levelo_inurba_marseille","lat":43.29971,"lon":5.41316,"is_reserved":false,"is_disabled":false,"rental_uris":{"android":"levelo://app?vid=b4b1df3b-9c8d-4198-8224-a23943bf6651","ios":"levelo://app?vid=b4b1df3b-9c8d-4198-8224-a23943bf6651"},"vehicle_type_id":"4","last_reported":1746713397,"current_range_meters":8400,"station_id":"ce4bhp12rcd13ifvqh9g","pricing_plan_id":"cebpf4jnsgd1na2vs0mg"},{"bike_id":"4ae7a83c-4508-4420-bdfc-fc011c19b67a","system_id":"levelo_inurba_marseille","lat":43.337699,"lon":5.374899,"is_reserved":false,"is_disabled":false,"rental_uris":{"android":"levelo://app?vid=4ae7a83c-4508-4420-bdfc-fc011c19b67a","ios":"levelo://app?vid=4ae7a83c-4508-4420-bdfc-fc011c19b67a"},"vehicle_type_id":"4","last_reported":1746713397,"current_range_meters":8400,"station_id":"","pricing_plan_id":"cebpf4jnsgd1na2vs0mg"},{"bike_id":"f2265f2b-0eb3-47c5-81df-72d4c60e9b77","system_id":"levelo_inurba_marseille","lat":43.23181,"lon":5.3999,"is_reserved":false,"is_disabled":false,"rental_uris":{"android":"levelo://app?vid=f2265f2b-0eb3-47c5-81df-72d4c60e9b77","ios":"levelo://app?vid=f2265f2b-0eb3-47c5-81df-72d4c60e9b77"},"vehicle_type_id":"4","last_reported":1746713397,"current_range_meters":8400,"station_id":"ce4bhn12rcd13ifvqgqg","pricing_plan_id":"cebpf4jnsgd1na2vs0mg"},{"bike_id":"b3256411-177f-41bf-a311-53aaad5a8b50","system_id":"levelo_inurba_marseille","lat":43.28619,"lon":5.35105,"is_reserved":false,"is_disabled":false,"rental_uris":{"android":"levelo://app?vid=b3256411-177f-41bf-a311-53aaad5a8b50","ios":"levelo://app?vid=b3256411-177f-41bf-a311-53aaad5a8b50"},"vehicle_type_id":"4","last_reported":1746713397,"current_range_meters":8400,"station_id":"ce4bhch2rcd13ifvqeug","pricing_plan_id":"cebpf4jnsgd1na2vs0mg"},{"bike_id":"a67c00d2-a554-466c-b52e-2b15a5298d5a","system_id":"levelo_inurba_marseille","lat":43.27057,"lon":5.40257,"is_reserved":false,"is_disabled":false,"rental_uris":{"android":"levelo://app?vid=a67c00d2-a554-466c-b52e-2b15a5298d5a","ios":"levelo://app?vid=a67c00d2-a554-466c-b52e-2b15a5298d5a"},"vehicle_type_id":"4","last_reported":1746713397,"current_range_meters":8400,"station_id":"ce4bhk92rcd13ifvqgc0","pricing_plan_id":"cebpf4jnsgd1na2vs0mg"},{"bike_id":"fc93c29f-4a98-4dcd-9392-8bf9e3159ba4","system_id":"levelo_inurba_marseille","lat":43.30144,"lon":5.38055,"is_reserved":false,"is_disabled":false,"rental_uris":{"android":"levelo://app?vid=fc93c29f-4a98-4dcd-9392-8bf9e3159ba4","ios":"levelo://app?vid=fc93c29f-4a98-4dcd-9392-8bf9e3159ba4"},"vehicle_type_id":"4","last_reported":1746713397,"current_range_meters":14800,"station_id":"ce4bgjp2rcd13ifvqbh0","pricing_plan_id":"cebpf4jnsgd1na2vs0mg"},{"bike_id":"9720c27d-7c05-4c0d-9770-78b6f24279ef","system_id":"levelo_inurba_marseille","lat":43.31484,"lon":5.37305,"is_reserved":false,"is_disabled":false,"rental_uris":{"android":"levelo://app?vid=9720c27d-7c05-4c0d-9770-78b6f24279ef","ios":"levelo://app?vid=9720c27d-7c05-4c0d-9770-78b6f24279ef"},"vehicle_type_id":"4","last_reported":1746713397,"current_range_meters":8800,"station_id":"ce4bgt12rcd13ifvqcd0","pricing_plan_id":"cebpf4jnsgd1na2vs0mg"},{"bike_id":"d5fd40f9-eed1-4eba-989e-7147d682a795","system_id":"levelo_inurba_marseille","lat":43.29537,"lon":5.38542,"is_reserved":false,"is_disabled":false,"rental_uris":{"android":"levelo://app?vid=d5fd40f9-eed1-4eba-989e-7147d682a795","ios":"levelo://app?vid=d5fd40f9-eed1-4eba-989e-7147d682a795"},"vehicle_type_id":"4","last_reported":1746713397,"current_range_meters":8800,"station_id":"ce4bgih2rcd13ifvqba0","pricing_plan_id":"cebpf4jnsgd1na2vs0mg"},{"bike_id":"5a6db143-4498-48d8-9b5c-8994d3ba704a","system_id":"levelo_inurba_marseille","lat":43.21184,"lon":5.35097,"is_reserved":false,"is_disabled":false,"rental_uris":{"android":"levelo://app?vid=5a6db143-4498-48d8-9b5c-8994d3ba704a","ios":"levelo://app?vid=5a6db143-4498-48d8-9b5c-8994d3ba704a"},"vehicle_type_id":"4","last_reported":1746713397,"current_range_meters":8800,"station_id":"st_cvj6sg6p6f1abm77japg","pricing_plan_id":"cebpf4jnsgd1na2vs0mg"},{"bike_id":"77794816-fef1-45e7-bf65-0fa65a9e6934","system_id":"levelo_inurba_marseille","lat":43.29035,"lon":5.37566,"is_reserved":false,"is_disabled":false,"rental_uris":{"android":"levelo://app?vid=77794816-fef1-45e7-bf65-0fa65a9e6934","ios":"levelo://app?vid=77794816-fef1-45e7-bf65-0fa65a9e6934"},"vehicle_type_id":"4","last_reported":1746713397,"current_range_meters":8800,"station_id":"ce4bh692rcd13ifvqe90","pricing_plan_id":"cebpf4jnsgd1na2vs0mg"},{"bike_id":"31aed136-8dd2-42f2-8eb7-1e4fbc111f37","system_id":"levelo_inurba_marseille","lat":43.29051,"lon":5.35909,"is_reserved":false,"is_disabled":false,"rental_uris":{"android":"levelo://app?vid=31aed136-8dd2-42f2-8eb7-1e4fbc111f37","ios":"levelo://app?vid=31aed136-8dd2-42f2-8eb7-1e4fbc111f37"},"vehicle_type_id":"4","last_reported":1746713397,"current_range_meters":8800,"station_id":"ce4bha92rcd13ifvqeg0","pricing_plan_id":"cebpf4jnsgd1na2vs0mg"},{"bike_id":"e2dc1361-624b-4267-86dd-7d5d8668fc4b","system_id":"levelo_inurba_marseille","lat":43.32335,"lon":5.40601,"is_reserved":false,"is_disabled":false,"rental_uris":{"android":"levelo://app?vid=e2dc1361-624b-4267-86dd-7d5d8668fc4b","ios":"levelo://app?vid=e2dc1361-624b-4267-86dd-7d5d8668fc4b"},"vehicle_type_id":"4","last_reported":1746713397,"current_range_meters":8800,"station_id":"ce4bhq92rcd13ifvqhjg","pricing_plan_id":"cebpf4jnsgd1na2vs0mg"},{"bike_id":"8b321d41-502b-4a34-b09b-d40dc6592eb7","system_id":"levelo_inurba_marseille","lat":43.283473,"lon":5.381026,"is_reserved":false,"is_disabled":false,"rental_uris":{"android":"levelo://app?vid=8b321d41-502b-4a34-b09b-d40dc6592eb7","ios":"levelo://app?vid=8b321d41-502b-4a34-b09b-d40dc6592eb7"},"vehicle_type_id":"4","last_reported":1746713397,"current_range_meters":8800,"station_id":"ce4bh412rcd13ifvqdr0","pricing_plan_id":"cebpf4jnsgd1na2vs0mg"},{"bike_id":"b15fe93b-1059-4d75-abd3-040e349ce402","system_id":"levelo_inurba_marseille","lat":43.30104,"lon":5.36987,"is_reserved":false,"is_disabled":false,"rental_uris":{"android":"levelo://app?vid=b15fe93b-1059-4d75-abd3-040e349ce402","ios":"levelo://app?vid=b15fe93b-1059-4d75-abd3-040e349ce402"},"vehicle_type_id":"4","last_reported":1746713397,"current_range_meters":8800,"station_id":"","pricing_plan_id":"cebpf4jnsgd1na2vs0mg"},{"bike_id":"2306782a-d272-4eff-8aa6-4c2c0227e78d","system_id":"levelo_inurba_marseille","lat":43.23064,"lon":5.3549,"is_reserved":false,"is_disabled":false,"rental_uris":{"android":"levelo://app?vid=2306782a-d272-4eff-8aa6-4c2c0227e78d","ios":"levelo://app?vid=2306782a-d272-4eff-8aa6-4c2c0227e78d"},"vehicle_type_id":"4","last_reported":1746713397,"current_range_meters":8800,"station_id":"cpo3342slgdg3j2ifvpg","pricing_plan_id":"cebpf4jnsgd1na2vs0mg"},{"bike_id":"4ac68346-faff-423f-9c45-b54bcb02143f","system_id":"levelo_inurba_marseille","lat":43.29037,"lon":5.35899,"is_reserved":false,"is_disabled":false,"rental_uris":{"android":"levelo://app?vid=4ac68346-faff-423f-9c45-b54bcb02143f","ios":"levelo://app?vid=4ac68346-faff-423f-9c45-b54bcb02143f"},"vehicle_type_id":"4","last_reported":1746713397,"current_range_meters":8800,"station_id":"ce4bha92rcd13ifvqeg0","pricing_plan_id":"cebpf4jnsgd1na2vs0mg"},{"bike_id":"9deb0f71-3aff-4860-8a45-0d4cf8b9b97d","system_id":"levelo_inurba_marseille","lat":43.21747,"lon":5.34602,"is_reserved":false,"is_disabled":false,"rental_uris":{"android":"levelo://app?vid=9deb0f71-3aff-4860-8a45-0d4cf8b9b97d","ios":"levelo://app?vid=9deb0f71-3aff-4860-8a45-0d4cf8b9b97d"},"vehicle_type_id":"4","last_reported":1746713397,"current_range_meters":8400,"station_id":"st_cvj6r9ubvosntc0bgbag","pricing_plan_id":"cebpf4jnsgd1na2vs0mg"},{"bike_id":"1b34466f-a118-46f6-a5f5-227f007ae3a7","system_id":"levelo_inurba_marseille","lat":43.23195,"lon":5.35551,"is_reserved":false,"is_disabled":false,"rental_uris":{"android":"levelo://app?vid=1b34466f-a118-46f6-a5f5-227f007ae3a7","ios":"levelo://app?vid=1b34466f-a118-46f6-a5f5-227f007ae3a7"},"vehicle_type_id":"4","last_reported":1746713397,"current_range_meters":9200,"station_id":"ce4bhu92rcd13ifvqi70","pricing_plan_id":"cebpf4jnsgd1na2vs0mg"},{"bike_id":"aecc2400-6f65-4a59-ae54-f262d7ba9f6c","system_id":"levelo_inurba_marseille","lat":43.25579,"lon":5.38252,"is_reserved":false,"is_disabled":false,"rental_uris":{"android":"levelo://app?vid=aecc2400-6f65-4a59-ae54-f262d7ba9f6c","ios":"levelo://app?vid=aecc2400-6f65-4a59-ae54-f262d7ba9f6c"},"vehicle_type_id":"4","last_reported":1746713397,"current_range_meters":9200,"station_id":"ce4bhih2rcd13ifvqfs0","pricing_plan_id":"cebpf4jnsgd1na2vs0mg"},{"bike_id":"8e9e3bb5-bc72-4edc-9fed-c7865fd7c6fa","system_id":"levelo_inurba_marseille","lat":43.253057,"lon":5.402269,"is_reserved":false,"is_disabled":false,"rental_uris":{"android":"levelo://app?vid=8e9e3bb5-bc72-4edc-9fed-c7865fd7c6fa","ios":"levelo://app?vid=8e9e3bb5-bc72-4edc-9fed-c7865fd7c6fa"},"vehicle_type_id":"4","last_reported":1746713397,"current_range_meters":9200,"station_id":"ce4bhh12rcd13ifvqfg0","pricing_plan_id":"cebpf4jnsgd1na2vs0mg"},{"bike_id":"c33020c2-1c30-4d24-8327-1fd7c2fc51f8","system_id":"levelo_inurba_marseille","lat":43.30436,"lon":5.39748,"is_reserved":false,"is_disabled":false,"rental_uris":{"android":"levelo://app?vid=c33020c2-1c30-4d24-8327-1fd7c2fc51f8","ios":"levelo://app?vid=c33020c2-1c30-4d24-8327-1fd7c2fc51f8"},"vehicle_type_id":"4","last_reported":1746713397,"current_range_meters":9200,"station_id":"ce4bh092rcd13ifvqd20","pricing_plan_id":"cebpf4jnsgd1na2vs0mg"},{"bike_id":"613cf487-190d-4d6b-bd73-408df5911b92","system_id":"levelo_inurba_marseille","lat":43.323645,"lon":5.367238,"is_reserved":false,"is_disabled":false,"rental_uris":{"android":"levelo://app?vid=613cf487-190d-4d6b-bd73-408df5911b92","ios":"levelo://app?vid=613cf487-190d-4d6b-bd73-408df5911b92"},"vehicle_type_id":"4","last_reported":1746713397,"current_range_meters":9200,"station_id":"ce4bhsh2rcd13ifvqi2g","pricing_plan_id":"cebpf4jnsgd1na2vs0mg"},{"bike_id":"7ea51322-62fc-4e9e-8623-aabf66da7b46","system_id":"levelo_inurba_marseille","lat":43.2558,"lon":5.38247,"is_reserved":false,"is_disabled":false,"rental_uris":{"android":"levelo://app?vid=7ea51322-62fc-4e9e-8623-aabf66da7b46","ios":"levelo://app?vid=7ea51322-62fc-4e9e-8623-aabf66da7b46"},"vehicle_type_id":"4","last_reported":1746713397,"current_range_meters":10000,"station_id":"ce4bhih2rcd13ifvqfs0","pricing_plan_id":"cebpf4jnsgd1na2vs0mg"},{"bike_id":"c908759f-edbe-4c07-bb2b-50b5cd8a6a88","system_id":"levelo_inurba_marseille","lat":43.2293,"lon":5.35373,"is_reserved":false,"is_disabled":false,"rental_uris":{"android":"levelo://app?vid=c908759f-edbe-4c07-bb2b-50b5cd8a6a88","ios":"levelo://app?vid=c908759f-edbe-4c07-bb2b-50b5cd8a6a88"},"vehicle_type_id":"4","last_reported":1746713397,"current_range_meters":10000,"station_id":"cpo3532slgdg3j2ikp40","pricing_plan_id":"cebpf4jnsgd1na2vs0mg"},{"bike_id":"1c03a611-9999-416e-af8f-b7f6f336aba6","system_id":"levelo_inurba_marseille","lat":43.27216,"lon":5.39172,"is_reserved":false,"is_disabled":false,"rental_uris":{"android":"levelo://app?vid=1c03a611-9999-416e-af8f-b7f6f336aba6","ios":"levelo://app?vid=1c03a611-9999-416e-af8f-b7f6f336aba6"},"vehicle_type_id":"4","last_reported":1746713397,"current_range_meters":10000,"station_id":"ce4bhhp2rcd13ifvqfm0","pricing_plan_id":"cebpf4jnsgd1na2vs0mg"},{"bike_id":"89e0bf27-f3f4-4c48-899e-43928dff0d19","system_id":"levelo_inurba_marseille","lat":43.21167,"lon":5.35159,"is_reserved":false,"is_disabled":false,"rental_uris":{"android":"levelo://app?vid=89e0bf27-f3f4-4c48-899e-43928dff0d19","ios":"levelo://app?vid=89e0bf27-f3f4-4c48-899e-43928dff0d19"},"vehicle_type_id":"4","last_reported":1746713397,"current_range_meters":10000,"station_id":"","pricing_plan_id":"cebpf4jnsgd1na2vs0mg"},{"bike_id":"1cbc8f52-2fe3-4109-9bf0-2bdd581f4268","system_id":"levelo_inurba_marseille","lat":43.299445,"lon":5.371845,"is_reserved":false,"is_disabled":false,"rental_uris":{"android":"levelo://app?vid=1cbc8f52-2fe3-4109-9bf0-2bdd581f4268","ios":"levelo://app?vid=1cbc8f52-2fe3-4109-9bf0-2bdd581f4268"},"vehicle_type_id":"4","last_reported":1746713397,"current_range_meters":10000,"station_id":"ce4bgr92rcd13ifvqc7g","pricing_plan_id":"cebpf4jnsgd1na2vs0mg"},{"bike_id":"82b70d31-5e65-49ec-a303-a26b8f5941a4","system_id":"levelo_inurba_marseille","lat":43.211967,"lon":5.35071,"is_reserved":false,"is_disabled":false,"rental_uris":{"android":"levelo://app?vid=82b70d31-5e65-49ec-a303-a26b8f5941a4","ios":"levelo://app?vid=82b70d31-5e65-49ec-a303-a26b8f5941a4"},"vehicle_type_id":"4","last_reported":1746713397,"current_range_meters":10000,"station_id":"st_cvj6sg6p6f1abm77japg","pricing_plan_id":"cebpf4jnsgd1na2vs0mg"},{"bike_id":"764f7530-c324-4cb7-bc97-9325e8135a76","system_id":"levelo_inurba_marseille","lat":43.23194,"lon":5.39987,"is_reserved":false,"is_disabled":false,"rental_uris":{"android":"levelo://app?vid=764f7530-c324-4cb7-bc97-9325e8135a76","ios":"levelo://app?vid=764f7530-c324-4cb7-bc97-9325e8135a76"},"vehicle_type_id":"4","last_reported":1746713397,"current_range_meters":10800,"station_id":"ce4bhn12rcd13ifvqgqg","pricing_plan_id":"cebpf4jnsgd1na2vs0mg"},{"bike_id":"31f79961-ef7d-43a7-836f-5186f737d09b","system_id":"levelo_inurba_marseille","lat":43.28278,"lon":5.35075,"is_reserved":false,"is_disabled":false,"rental_uris":{"android":"levelo://app?vid=31f79961-ef7d-43a7-836f-5186f737d09b","ios":"levelo://app?vid=31f79961-ef7d-43a7-836f-5186f737d09b"},"vehicle_type_id":"4","last_reported":1746713397,"current_range_meters":10800,"station_id":"ce4bhbp2rcd13ifvqerg","pricing_plan_id":"cebpf4jnsgd1na2vs0mg"},{"bike_id":"b2942380-56b9-4fa3-9081-2bcb00947f75","system_id":"levelo_inurba_marseille","lat":43.29534,"lon":5.39041,"is_reserved":false,"is_disabled":false,"rental_uris":{"android":"levelo://app?vid=b2942380-56b9-4fa3-9081-2bcb00947f75","ios":"levelo://app?vid=b2942380-56b9-4fa3-9081-2bcb00947f75"},"vehicle_type_id":"4","last_reported":1746713397,"current_range_meters":10800,"station_id":"ce4bh3p2rcd13ifvqdp0","pricing_plan_id":"cebpf4jnsgd1na2vs0mg"},{"bike_id":"21754c23-72a4-4765-a5f9-f651955e98ef","system_id":"levelo_inurba_marseille","lat":43.27495,"lon":5.42452,"is_reserved":false,"is_disabled":false,"rental_uris":{"android":"levelo://app?vid=21754c23-72a4-4765-a5f9-f651955e98ef","ios":"levelo://app?vid=21754c23-72a4-4765-a5f9-f651955e98ef"},"vehicle_type_id":"4","last_reported":1746713397,"current_range_meters":10800,"station_id":"ce4bhn92rcd13ifvqgrg","pricing_plan_id":"cebpf4jnsgd1na2vs0mg"},{"bike_id":"62856542-7a0b-40f5-9cfb-826a4eb14eb8","system_id":"levelo_inurba_marseille","lat":43.2973,"lon":5.37693,"is_reserved":false,"is_disabled":false,"rental_uris":{"android":"levelo://app?vid=62856542-7a0b-40f5-9cfb-826a4eb14eb8","ios":"levelo://app?vid=62856542-7a0b-40f5-9cfb-826a4eb14eb8"},"vehicle_type_id":"4","last_reported":1746713397,"current_range_meters":11200,"station_id":"ce4bgkh2rcd13ifvqbl0","pricing_plan_id":"cebpf4jnsgd1na2vs0mg"},{"bike_id":"b993bfc3-7b06-4f3c-acf1-d5ff0d7234ba","system_id":"levelo_inurba_marseille","lat":43.2175,"lon":5.34621,"is_reserved":false,"is_disabled":false,"rental_uris":{"android":"levelo://app?vid=b993bfc3-7b06-4f3c-acf1-d5ff0d7234ba","ios":"levelo://app?vid=b993bfc3-7b06-4f3c-acf1-d5ff0d7234ba"},"vehicle_type_id":"4","last_reported":1746713397,"current_range_meters":11200,"station_id":"st_cvj6r9ubvosntc0bgbag","pricing_plan_id":"cebpf4jnsgd1na2vs0mg"},{"bike_id":"0a773982-561c-4e07-98cf-96f5dd99173d","system_id":"levelo_inurba_marseille","lat":43.28942,"lon":5.36383,"is_reserved":false,"is_disabled":false,"rental_uris":{"android":"levelo://app?vid=0a773982-561c-4e07-98cf-96f5dd99173d","ios":"levelo://app?vid=0a773982-561c-4e07-98cf-96f5dd99173d"},"vehicle_type_id":"4","last_reported":1746713397,"current_range_meters":11200,"station_id":"ce4bhc92rcd13ifvqetg","pricing_plan_id":"cebpf4jnsgd1na2vs0mg"},{"bike_id":"56f81f81-f136-4019-8412-1397bb561dcd","system_id":"levelo_inurba_marseille","lat":43.29259,"lon":5.409,"is_reserved":false,"is_disabled":false,"rental_uris":{"android":"levelo://app?vid=56f81f81-f136-4019-8412-1397bb561dcd","ios":"levelo://app?vid=56f81f81-f136-4019-8412-1397bb561dcd"},"vehicle_type_id":"4","last_reported":1746713397,"current_range_meters":15200,"station_id":"ce4bh192rcd13ifvqdc0","pricing_plan_id":"cebpf4jnsgd1na2vs0mg"},{"bike_id":"130871ff-fdcb-495d-a54c-230bd12b6e16","system_id":"levelo_inurba_marseille","lat":43.30305,"lon":5.36873,"is_reserved":false,"is_disabled":false,"rental_uris":{"android":"levelo://app?vid=130871ff-fdcb-495d-a54c-230bd12b6e16","ios":"levelo://app?vid=130871ff-fdcb-495d-a54c-230bd12b6e16"},"vehicle_type_id":"4","last_reported":1746713397,"current_range_meters":11600,"station_id":"ce4bgqh2rcd13ifvqc5g","pricing_plan_id":"cebpf4jnsgd1na2vs0mg"},{"bike_id":"0cc4c5b6-30ce-4cee-9a91-39e4ac7c5115","system_id":"levelo_inurba_marseille","lat":43.282695,"lon":5.35053,"is_reserved":false,"is_disabled":false,"rental_uris":{"android":"levelo://app?vid=0cc4c5b6-30ce-4cee-9a91-39e4ac7c5115","ios":"levelo://app?vid=0cc4c5b6-30ce-4cee-9a91-39e4ac7c5115"},"vehicle_type_id":"4","last_reported":1746713397,"current_range_meters":11600,"station_id":"ce4bhbp2rcd13ifvqerg","pricing_plan_id":"cebpf4jnsgd1na2vs0mg"},{"bike_id":"cf5a4ced-4be9-407d-bac5-ee64522368ee","system_id":"levelo_inurba_marseille","lat":43.3112,"lon":5.37769,"is_reserved":false,"is_disabled":false,"rental_uris":{"android":"levelo://app?vid=cf5a4ced-4be9-407d-bac5-ee64522368ee","ios":"levelo://app?vid=cf5a4ced-4be9-407d-bac5-ee64522368ee"},"vehicle_type_id":"4","last_reported":1746713397,"current_range_meters":11200,"station_id":"ce4bgt92rcd13ifvqcg0","pricing_plan_id":"cebpf4jnsgd1na2vs0mg"},{"bike_id":"4ebd5f60-dfcf-404a-a727-aecc1f3ecbbc","system_id":"levelo_inurba_marseille","lat":43.29923,"lon":5.37479,"is_reserved":false,"is_disabled":false,"rental_uris":{"android":"levelo://app?vid=4ebd5f60-dfcf-404a-a727-aecc1f3ecbbc","ios":"levelo://app?vid=4ebd5f60-dfcf-404a-a727-aecc1f3ecbbc"},"vehicle_type_id":"4","last_reported":1746713397,"current_range_meters":11600,"station_id":"ce4bgjh2rcd13ifvqbg0","pricing_plan_id":"cebpf4jnsgd1na2vs0mg"},{"bike_id":"c461bae5-c90a-41bf-a070-193814deff2e","system_id":"levelo_inurba_marseille","lat":43.2926,"lon":5.40916,"is_reserved":false,"is_disabled":false,"rental_uris":{"android":"levelo://app?vid=c461bae5-c90a-41bf-a070-193814deff2e","ios":"levelo://app?vid=c461bae5-c90a-41bf-a070-193814deff2e"},"vehicle_type_id":"4","last_reported":1746713397,"current_range_meters":12000,"station_id":"ce4bh192rcd13ifvqdc0","pricing_plan_id":"cebpf4jnsgd1na2vs0mg"},{"bike_id":"809c8673-c032-46b9-aa07-62c38e26d44e","system_id":"levelo_inurba_marseille","lat":43.250613,"lon":5.38786,"is_reserved":false,"is_disabled":false,"rental_uris":{"android":"levelo://app?vid=809c8673-c032-46b9-aa07-62c38e26d44e","ios":"levelo://app?vid=809c8673-c032-46b9-aa07-62c38e26d44e"},"vehicle_type_id":"4","last_reported":1746713397,"current_range_meters":12000,"station_id":"","pricing_plan_id":"cebpf4jnsgd1na2vs0mg"},{"bike_id":"5966a493-613f-4419-a9c9-06aa5a23dfad","system_id":"levelo_inurba_marseille","lat":43.23186,"lon":5.39983,"is_reserved":false,"is_disabled":false,"rental_uris":{"android":"levelo://app?vid=5966a493-613f-4419-a9c9-06aa5a23dfad","ios":"levelo://app?vid=5966a493-613f-4419-a9c9-06aa5a23dfad"},"vehicle_type_id":"4","last_reported":1746713397,"current_range_meters":12000,"station_id":"ce4bhn12rcd13ifvqgqg","pricing_plan_id":"cebpf4jnsgd1na2vs0mg"},{"bike_id":"19f55957-fe78-425e-9436-3acf0489256c","system_id":"levelo_inurba_marseille","lat":43.218262,"lon":5.345787,"is_reserved":false,"is_disabled":false,"rental_uris":{"android":"levelo://app?vid=19f55957-fe78-425e-9436-3acf0489256c","ios":"levelo://app?vid=19f55957-fe78-425e-9436-3acf0489256c"},"vehicle_type_id":"4","last_reported":1746713397,"current_range_meters":12000,"station_id":"","pricing_plan_id":"cebpf4jnsgd1na2vs0mg"},{"bike_id":"b1199efd-1094-4994-a099-0800ce67719f","system_id":"levelo_inurba_marseille","lat":43.23193,"lon":5.35553,"is_reserved":false,"is_disabled":false,"rental_uris":{"android":"levelo://app?vid=b1199efd-1094-4994-a099-0800ce67719f","ios":"levelo://app?vid=b1199efd-1094-4994-a099-0800ce67719f"},"vehicle_type_id":"4","last_reported":1746713397,"current_range_meters":12000,"station_id":"ce4bhu92rcd13ifvqi70","pricing_plan_id":"cebpf4jnsgd1na2vs0mg"},{"bike_id":"27c30134-07cf-43cc-be8b-1965864c310d","system_id":"levelo_inurba_marseille","lat":43.23064,"lon":5.35488,"is_reserved":false,"is_disabled":false,"rental_uris":{"android":"levelo://app?vid=27c30134-07cf-43cc-be8b-1965864c310d","ios":"levelo://app?vid=27c30134-07cf-43cc-be8b-1965864c310d"},"vehicle_type_id":"4","last_reported":1746713397,"current_range_meters":12400,"station_id":"cpo3342slgdg3j2ifvpg","pricing_plan_id":"cebpf4jnsgd1na2vs0mg"},{"bike_id":"ebad05e8-f447-4538-81dc-2edb600ef8bc","system_id":"levelo_inurba_marseille","lat":43.28627,"lon":5.37073,"is_reserved":false,"is_disabled":false,"rental_uris":{"android":"levelo://app?vid=ebad05e8-f447-4538-81dc-2edb600ef8bc","ios":"levelo://app?vid=ebad05e8-f447-4538-81dc-2edb600ef8bc"},"vehicle_type_id":"4","last_reported":1746713397,"current_range_meters":12400,"station_id":"ce4bht12rcd13ifvqi60","pricing_plan_id":"cebpf4jnsgd1na2vs0mg"},{"bike_id":"a9768435-b1ad-4bc8-b98b-50672f05146d","system_id":"levelo_inurba_marseille","lat":43.26551,"lon":5.37278,"is_reserved":false,"is_disabled":false,"rental_uris":{"android":"levelo://app?vid=a9768435-b1ad-4bc8-b98b-50672f05146d","ios":"levelo://app?vid=a9768435-b1ad-4bc8-b98b-50672f05146d"},"vehicle_type_id":"4","last_reported":1746713397,"current_range_meters":12400,"station_id":"ce4bhg12rcd13ifvqf70","pricing_plan_id":"cebpf4jnsgd1na2vs0mg"},{"bike_id":"f7c0691e-b2a3-40f7-87eb-ab7bde533771","system_id":"levelo_inurba_marseille","lat":43.29563,"lon":5.42285,"is_reserved":false,"is_disabled":false,"rental_uris":{"android":"levelo://app?vid=f7c0691e-b2a3-40f7-87eb-ab7bde533771","ios":"levelo://app?vid=f7c0691e-b2a3-40f7-87eb-ab7bde533771"},"vehicle_type_id":"4","last_reported":1746713397,"current_range_meters":12400,"station_id":"ce4bhph2rcd13ifvqhdg","pricing_plan_id":"cebpf4jnsgd1na2vs0mg"},{"bike_id":"4c14cdf4-1df8-419e-bad1-a2ce8451fa82","system_id":"levelo_inurba_marseille","lat":43.29887,"lon":5.38904,"is_reserved":false,"is_disabled":false,"rental_uris":{"android":"levelo://app?vid=4c14cdf4-1df8-419e-bad1-a2ce8451fa82","ios":"levelo://app?vid=4c14cdf4-1df8-419e-bad1-a2ce8451fa82"},"vehicle_type_id":"4","last_reported":1746713397,"current_range_meters":12400,"station_id":"","pricing_plan_id":"cebpf4jnsgd1na2vs0mg"},{"bike_id":"cbf1ecd5-3495-4e96-bf3a-786df4753fed","system_id":"levelo_inurba_marseille","lat":43.30138,"lon":5.37423,"is_reserved":false,"is_disabled":false,"rental_uris":{"android":"levelo://app?vid=cbf1ecd5-3495-4e96-bf3a-786df4753fed","ios":"levelo://app?vid=cbf1ecd5-3495-4e96-bf3a-786df4753fed"},"vehicle_type_id":"4","last_reported":1746713397,"current_range_meters":12400,"station_id":"ce4bgs92rcd13ifvqcc0","pricing_plan_id":"cebpf4jnsgd1na2vs0mg"},{"bike_id":"b6829737-d685-4442-abc3-35d86d795337","system_id":"levelo_inurba_marseille","lat":43.31078,"lon":5.38352,"is_reserved":false,"is_disabled":false,"rental_uris":{"android":"levelo://app?vid=b6829737-d685-4442-abc3-35d86d795337","ios":"levelo://app?vid=b6829737-d685-4442-abc3-35d86d795337"},"vehicle_type_id":"4","last_reported":1746713397,"current_range_meters":12800,"station_id":"ce4bgv92rcd13ifvqcr0","pricing_plan_id":"cebpf4jnsgd1na2vs0mg"},{"bike_id":"45e601c7-6bbe-4f66-bf6d-40e5c693b333","system_id":"levelo_inurba_marseille","lat":43.26214,"lon":5.37442,"is_reserved":false,"is_disabled":false,"rental_uris":{"android":"levelo://app?vid=45e601c7-6bbe-4f66-bf6d-40e5c693b333","ios":"levelo://app?vid=45e601c7-6bbe-4f66-bf6d-40e5c693b333"},"vehicle_type_id":"4","last_reported":1746713397,"current_range_meters":12800,"station_id":"ce4bhgp2rcd13ifvqfc0","pricing_plan_id":"cebpf4jnsgd1na2vs0mg"},{"bike_id":"b19366c5-a2e2-433f-8873-7030a12c134b","system_id":"levelo_inurba_marseille","lat":43.29938,"lon":5.36545,"is_reserved":false,"is_disabled":false,"rental_uris":{"android":"levelo://app?vid=b19366c5-a2e2-433f-8873-7030a12c134b","ios":"levelo://app?vid=b19366c5-a2e2-433f-8873-7030a12c134b"},"vehicle_type_id":"4","last_reported":1746713397,"current_range_meters":12800,"station_id":"ce4bgm92rcd13ifvqbr0","pricing_plan_id":"cebpf4jnsgd1na2vs0mg"},{"bike_id":"3f2a7bbc-7eba-4322-887b-52f423dda887","system_id":"levelo_inurba_marseille","lat":43.26805,"lon":5.40269,"is_reserved":false,"is_disabled":false,"rental_uris":{"android":"levelo://app?vid=3f2a7bbc-7eba-4322-887b-52f423dda887","ios":"levelo://app?vid=3f2a7bbc-7eba-4322-887b-52f423dda887"},"vehicle_type_id":"4","last_reported":1746713397,"current_range_meters":12800,"station_id":"ce501612rcd8frsf0b60","pricing_plan_id":"cebpf4jnsgd1na2vs0mg"},{"bike_id":"367a666c-a401-45e7-8bb3-67b1483de700","system_id":"levelo_inurba_marseille","lat":43.28407,"lon":5.37516,"is_reserved":false,"is_disabled":false,"rental_uris":{"android":"levelo://app?vid=367a666c-a401-45e7-8bb3-67b1483de700","ios":"levelo://app?vid=367a666c-a401-45e7-8bb3-67b1483de700"},"vehicle_type_id":"4","last_reported":1746713397,"current_range_meters":12800,"station_id":"ce4bh412rcd13ifvqds0","pricing_plan_id":"cebpf4jnsgd1na2vs0mg"},{"bike_id":"eff6117b-977c-4724-8ce7-bb12c4efbdc3","system_id":"levelo_inurba_marseille","lat":43.292718,"lon":5.368716,"is_reserved":false,"is_disabled":false,"rental_uris":{"android":"levelo://app?vid=eff6117b-977c-4724-8ce7-bb12c4efbdc3","ios":"levelo://app?vid=eff6117b-977c-4724-8ce7-bb12c4efbdc3"},"vehicle_type_id":"4","last_reported":1746713397,"current_range_meters":12800,"station_id":"ce4bhbp2rcd13ifvqesg","pricing_plan_id":"cebpf4jnsgd1na2vs0mg"},{"bike_id":"b5285f38-a05a-4311-96a5-b241372dd9a5","system_id":"levelo_inurba_marseille","lat":43.28948,"lon":5.36379,"is_reserved":false,"is_disabled":false,"rental_uris":{"android":"levelo://app?vid=b5285f38-a05a-4311-96a5-b241372dd9a5","ios":"levelo://app?vid=b5285f38-a05a-4311-96a5-b241372dd9a5"},"vehicle_type_id":"4","last_reported":1746713397,"current_range_meters":13600,"station_id":"ce4bhc92rcd13ifvqetg","pricing_plan_id":"cebpf4jnsgd1na2vs0mg"},{"bike_id":"6971f759-8594-489e-a8f6-9153c9a9c438","system_id":"levelo_inurba_marseille","lat":43.27688,"lon":5.41968,"is_reserved":false,"is_disabled":false,"rental_uris":{"android":"levelo://app?vid=6971f759-8594-489e-a8f6-9153c9a9c438","ios":"levelo://app?vid=6971f759-8594-489e-a8f6-9153c9a9c438"},"vehicle_type_id":"4","last_reported":1746713397,"current_range_meters":12800,"station_id":"","pricing_plan_id":"cebpf4jnsgd1na2vs0mg"},{"bike_id":"e904dacf-1eb4-476e-a4bb-27ec964143ea","system_id":"levelo_inurba_marseille","lat":43.305603,"lon":5.382106,"is_reserved":false,"is_disabled":false,"rental_uris":{"android":"levelo://app?vid=e904dacf-1eb4-476e-a4bb-27ec964143ea","ios":"levelo://app?vid=e904dacf-1eb4-476e-a4bb-27ec964143ea"},"vehicle_type_id":"4","last_reported":1746713397,"current_range_meters":12800,"station_id":"ce4bgg92rcd13ifvqb30","pricing_plan_id":"cebpf4jnsgd1na2vs0mg"},{"bike_id":"d15455a8-8d0d-4d7d-96b7-79834aae2fa5","system_id":"levelo_inurba_marseille","lat":43.28418,"lon":5.34995,"is_reserved":false,"is_disabled":false,"rental_uris":{"android":"levelo://app?vid=d15455a8-8d0d-4d7d-96b7-79834aae2fa5","ios":"levelo://app?vid=d15455a8-8d0d-4d7d-96b7-79834aae2fa5"},"vehicle_type_id":"4","last_reported":1746713397,"current_range_meters":13600,"station_id":"ce4bhbh2rcd13ifvqepg","pricing_plan_id":"cebpf4jnsgd1na2vs0mg"},{"bike_id":"ff869d47-2f00-48c8-ae15-717d41bccdbf","system_id":"levelo_inurba_marseille","lat":43.24171,"lon":5.36397,"is_reserved":false,"is_disabled":false,"rental_uris":{"android":"levelo://app?vid=ff869d47-2f00-48c8-ae15-717d41bccdbf","ios":"levelo://app?vid=ff869d47-2f00-48c8-ae15-717d41bccdbf"},"vehicle_type_id":"4","last_reported":1746713397,"current_range_meters":13600,"station_id":"cpo36qri1sfpv3e86is0","pricing_plan_id":"cebpf4jnsgd1na2vs0mg"},{"bike_id":"caccb556-2ad0-45b8-84b8-819024dd44e6","system_id":"levelo_inurba_marseille","lat":43.2979,"lon":5.36784,"is_reserved":false,"is_disabled":false,"rental_uris":{"android":"levelo://app?vid=caccb556-2ad0-45b8-84b8-819024dd44e6","ios":"levelo://app?vid=caccb556-2ad0-45b8-84b8-819024dd44e6"},"vehicle_type_id":"4","last_reported":1746713397,"current_range_meters":14000,"station_id":"","pricing_plan_id":"cebpf4jnsgd1na2vs0mg"},{"bike_id":"f7b5bd90-8c2d-4c93-baa6-dd4ae9cb183c","system_id":"levelo_inurba_marseille","lat":43.251015,"lon":5.403177,"is_reserved":false,"is_disabled":false,"rental_uris":{"android":"levelo://app?vid=f7b5bd90-8c2d-4c93-baa6-dd4ae9cb183c","ios":"levelo://app?vid=f7b5bd90-8c2d-4c93-baa6-dd4ae9cb183c"},"vehicle_type_id":"4","last_reported":1746713397,"current_range_meters":14000,"station_id":"ce4bhlh2rcd13ifvqgig","pricing_plan_id":"cebpf4jnsgd1na2vs0mg"},{"bike_id":"f8b7e2f3-439c-46af-81b7-485d680e7767","system_id":"levelo_inurba_marseille","lat":43.28464,"lon":5.35887,"is_reserved":false,"is_disabled":false,"rental_uris":{"android":"levelo://app?vid=f8b7e2f3-439c-46af-81b7-485d680e7767","ios":"levelo://app?vid=f8b7e2f3-439c-46af-81b7-485d680e7767"},"vehicle_type_id":"4","last_reported":1746713397,"current_range_meters":14000,"station_id":"ce4bhah2rcd13ifvqei0","pricing_plan_id":"cebpf4jnsgd1na2vs0mg"},{"bike_id":"2da561a7-383d-4649-8be7-d2f63295edb0","system_id":"levelo_inurba_marseille","lat":43.30147,"lon":5.38067,"is_reserved":false,"is_disabled":false,"rental_uris":{"android":"levelo://app?vid=2da561a7-383d-4649-8be7-d2f63295edb0","ios":"levelo://app?vid=2da561a7-383d-4649-8be7-d2f63295edb0"},"vehicle_type_id":"4","last_reported":1746713397,"current_range_meters":14000,"station_id":"ce4bgjp2rcd13ifvqbh0","pricing_plan_id":"cebpf4jnsgd1na2vs0mg"},{"bike_id":"8fb24680-214a-4cec-9d83-1d4e1da9591e","system_id":"levelo_inurba_marseille","lat":43.29042,"lon":5.39961,"is_reserved":false,"is_disabled":false,"rental_uris":{"android":"levelo://app?vid=8fb24680-214a-4cec-9d83-1d4e1da9591e","ios":"levelo://app?vid=8fb24680-214a-4cec-9d83-1d4e1da9591e"},"vehicle_type_id":"4","last_reported":1746713397,"current_range_meters":15200,"station_id":"ce4bh392rcd13ifvqdm0","pricing_plan_id":"cebpf4jnsgd1na2vs0mg"},{"bike_id":"fcb60d48-d01d-4d33-be73-0d8b5f6f848e","system_id":"levelo_inurba_marseille","lat":43.23071,"lon":5.35492,"is_reserved":false,"is_disabled":false,"rental_uris":{"android":"levelo://app?vid=fcb60d48-d01d-4d33-be73-0d8b5f6f848e","ios":"levelo://app?vid=fcb60d48-d01d-4d33-be73-0d8b5f6f848e"},"vehicle_type_id":"4","last_reported":1746713397,"current_range_meters":14400,"station_id":"cpo3342slgdg3j2ifvpg","pricing_plan_id":"cebpf4jnsgd1na2vs0mg"},{"bike_id":"5c00bf00-d2ca-4e22-abd7-2d3041c20d5e","system_id":"levelo_inurba_marseille","lat":43.32346,"lon":5.40621,"is_reserved":false,"is_disabled":false,"rental_uris":{"android":"levelo://app?vid=5c00bf00-d2ca-4e22-abd7-2d3041c20d5e","ios":"levelo://app?vid=5c00bf00-d2ca-4e22-abd7-2d3041c20d5e"},"vehicle_type_id":"4","last_reported":1746713397,"current_range_meters":14000,"station_id":"ce4bhq92rcd13ifvqhjg","pricing_plan_id":"cebpf4jnsgd1na2vs0mg"},{"bike_id":"f7c20756-0ea8-4a32-8575-25679b52684e","system_id":"levelo_inurba_marseille","lat":43.30512,"lon":5.36542,"is_reserved":false,"is_disabled":false,"rental_uris":{"android":"levelo://app?vid=f7c20756-0ea8-4a32-8575-25679b52684e","ios":"levelo://app?vid=f7c20756-0ea8-4a32-8575-25679b52684e"},"vehicle_type_id":"4","last_reported":1746713397,"current_range_meters":14000,"station_id":"ce4bgs12rcd13ifvqcag","pricing_plan_id":"cebpf4jnsgd1na2vs0mg"},{"bike_id":"b40f4bc5-fe3a-4544-ba63-da19b2e7a3e1","system_id":"levelo_inurba_marseille","lat":43.23966,"lon":5.36629,"is_reserved":false,"is_disabled":false,"rental_uris":{"android":"levelo://app?vid=b40f4bc5-fe3a-4544-ba63-da19b2e7a3e1","ios":"levelo://app?vid=b40f4bc5-fe3a-4544-ba63-da19b2e7a3e1"},"vehicle_type_id":"4","last_reported":1746713397,"current_range_meters":14400,"station_id":"ce4bhi12rcd13ifvqfp0","pricing_plan_id":"cebpf4jnsgd1na2vs0mg"},{"bike_id":"ab0ddab5-ee69-47fb-9193-86b37f284c34","system_id":"levelo_inurba_marseille","lat":43.28076,"lon":5.39659,"is_reserved":false,"is_disabled":false,"rental_uris":{"android":"levelo://app?vid=ab0ddab5-ee69-47fb-9193-86b37f284c34","ios":"levelo://app?vid=ab0ddab5-ee69-47fb-9193-86b37f284c34"},"vehicle_type_id":"4","last_reported":1746713397,"current_range_meters":14400,"station_id":"ce4bho12rcd13ifvqh2g","pricing_plan_id":"cebpf4jnsgd1na2vs0mg"},{"bike_id":"e6282093-23fb-41a9-859d-c0d9ad966535","system_id":"levelo_inurba_marseille","lat":43.3174,"lon":5.37837,"is_reserved":false,"is_disabled":false,"rental_uris":{"android":"levelo://app?vid=e6282093-23fb-41a9-859d-c0d9ad966535","ios":"levelo://app?vid=e6282093-23fb-41a9-859d-c0d9ad966535"},"vehicle_type_id":"4","last_reported":1746713397,"current_range_meters":14400,"station_id":"","pricing_plan_id":"cebpf4jnsgd1na2vs0mg"},{"bike_id":"f05b8c28-2949-42ee-a5e5-28dd4c27608f","system_id":"levelo_inurba_marseille","lat":43.28609,"lon":5.3509,"is_reserved":false,"is_disabled":false,"rental_uris":{"android":"levelo://app?vid=f05b8c28-2949-42ee-a5e5-28dd4c27608f","ios":"levelo://app?vid=f05b8c28-2949-42ee-a5e5-28dd4c27608f"},"vehicle_type_id":"4","last_reported":1746713397,"current_range_meters":14400,"station_id":"ce4bhch2rcd13ifvqeug","pricing_plan_id":"cebpf4jnsgd1na2vs0mg"},{"bike_id":"e5448ed6-478b-4e5a-8b5b-7ef215e5d024","system_id":"levelo_inurba_marseille","lat":43.27059,"lon":5.40258,"is_reserved":false,"is_disabled":false,"rental_uris":{"android":"levelo://app?vid=e5448ed6-478b-4e5a-8b5b-7ef215e5d024","ios":"levelo://app?vid=e5448ed6-478b-4e5a-8b5b-7ef215e5d024"},"vehicle_type_id":"4","last_reported":1746713397,"current_range_meters":14400,"station_id":"ce4bhk92rcd13ifvqgc0","pricing_plan_id":"cebpf4jnsgd1na2vs0mg"},{"bike_id":"6b8d4193-824a-4974-a07b-74f4afda1ecc","system_id":"levelo_inurba_marseille","lat":43.28255,"lon":5.35091,"is_reserved":false,"is_disabled":false,"rental_uris":{"android":"levelo://app?vid=6b8d4193-824a-4974-a07b-74f4afda1ecc","ios":"levelo://app?vid=6b8d4193-824a-4974-a07b-74f4afda1ecc"},"vehicle_type_id":"4","last_reported":1746713397,"current_range_meters":14400,"station_id":"ce4bhbp2rcd13ifvqerg","pricing_plan_id":"cebpf4jnsgd1na2vs0mg"},{"bike_id":"c2121006-e010-4fc4-86c4-99a41820f5ee","system_id":"levelo_inurba_marseille","lat":43.31124,"lon":5.3778,"is_reserved":false,"is_disabled":false,"rental_uris":{"android":"levelo://app?vid=c2121006-e010-4fc4-86c4-99a41820f5ee","ios":"levelo://app?vid=c2121006-e010-4fc4-86c4-99a41820f5ee"},"vehicle_type_id":"4","last_reported":1746713397,"current_range_meters":14400,"station_id":"ce4bgt92rcd13ifvqcg0","pricing_plan_id":"cebpf4jnsgd1na2vs0mg"},{"bike_id":"a2309e80-b2ba-42c9-9c60-147f0babf9f9","system_id":"levelo_inurba_marseille","lat":43.30838,"lon":5.3703,"is_reserved":false,"is_disabled":false,"rental_uris":{"android":"levelo://app?vid=a2309e80-b2ba-42c9-9c60-147f0babf9f9","ios":"levelo://app?vid=a2309e80-b2ba-42c9-9c60-147f0babf9f9"},"vehicle_type_id":"4","last_reported":1746713397,"current_range_meters":14800,"station_id":"","pricing_plan_id":"cebpf4jnsgd1na2vs0mg"},{"bike_id":"89f953df-2061-408d-8f0d-6a2938e5443a","system_id":"levelo_inurba_marseille","lat":43.23667,"lon":5.40356,"is_reserved":false,"is_disabled":false,"rental_uris":{"android":"levelo://app?vid=89f953df-2061-408d-8f0d-6a2938e5443a","ios":"levelo://app?vid=89f953df-2061-408d-8f0d-6a2938e5443a"},"vehicle_type_id":"4","last_reported":1746713397,"current_range_meters":14800,"station_id":"","pricing_plan_id":"cebpf4jnsgd1na2vs0mg"},{"bike_id":"22d1f17c-ac80-4ec2-a4f8-cbc0680016c4","system_id":"levelo_inurba_marseille","lat":43.21753,"lon":5.34599,"is_reserved":false,"is_disabled":false,"rental_uris":{"android":"levelo://app?vid=22d1f17c-ac80-4ec2-a4f8-cbc0680016c4","ios":"levelo://app?vid=22d1f17c-ac80-4ec2-a4f8-cbc0680016c4"},"vehicle_type_id":"4","last_reported":1746713397,"current_range_meters":14800,"station_id":"st_cvj6r9ubvosntc0bgbag","pricing_plan_id":"cebpf4jnsgd1na2vs0mg"},{"bike_id":"579169cd-fd04-4495-a109-f2f1a71bf9a4","system_id":"levelo_inurba_marseille","lat":43.21754,"lon":5.34626,"is_reserved":false,"is_disabled":false,"rental_uris":{"android":"levelo://app?vid=579169cd-fd04-4495-a109-f2f1a71bf9a4","ios":"levelo://app?vid=579169cd-fd04-4495-a109-f2f1a71bf9a4"},"vehicle_type_id":"4","last_reported":1746713397,"current_range_meters":14800,"station_id":"st_cvj6r9ubvosntc0bgbag","pricing_plan_id":"cebpf4jnsgd1na2vs0mg"},{"bike_id":"61dc49b4-0073-4b2e-85ff-3a5af469affb","system_id":"levelo_inurba_marseille","lat":43.225083,"lon":5.347863,"is_reserved":false,"is_disabled":false,"rental_uris":{"android":"levelo://app?vid=61dc49b4-0073-4b2e-85ff-3a5af469affb","ios":"levelo://app?vid=61dc49b4-0073-4b2e-85ff-3a5af469affb"},"vehicle_type_id":"4","last_reported":1746713397,"current_range_meters":14800,"station_id":"st_cvj5dfep6f1abm77gieg","pricing_plan_id":"cebpf4jnsgd1na2vs0mg"},{"bike_id":"3b4f92cb-0e94-497f-85aa-a5349239c894","system_id":"levelo_inurba_marseille","lat":43.31488,"lon":5.37292,"is_reserved":false,"is_disabled":false,"rental_uris":{"android":"levelo://app?vid=3b4f92cb-0e94-497f-85aa-a5349239c894","ios":"levelo://app?vid=3b4f92cb-0e94-497f-85aa-a5349239c894"},"vehicle_type_id":"4","last_reported":1746713397,"current_range_meters":15200,"station_id":"ce4bgt12rcd13ifvqcd0","pricing_plan_id":"cebpf4jnsgd1na2vs0mg"},{"bike_id":"3895cb9d-38b9-4699-ad99-e9c14abbec52","system_id":"levelo_inurba_marseille","lat":43.25579,"lon":5.38221,"is_reserved":false,"is_disabled":false,"rental_uris":{"android":"levelo://app?vid=3895cb9d-38b9-4699-ad99-e9c14abbec52","ios":"levelo://app?vid=3895cb9d-38b9-4699-ad99-e9c14abbec52"},"vehicle_type_id":"4","last_reported":1746713397,"current_range_meters":15200,"station_id":"ce4bhih2rcd13ifvqfs0","pricing_plan_id":"cebpf4jnsgd1na2vs0mg"},{"bike_id":"386441d1-d0cd-4783-a499-3625d3e469b1","system_id":"levelo_inurba_marseille","lat":43.28195,"lon":5.36347,"is_reserved":false,"is_disabled":false,"rental_uris":{"android":"levelo://app?vid=386441d1-d0cd-4783-a499-3625d3e469b1","ios":"levelo://app?vid=386441d1-d0cd-4783-a499-3625d3e469b1"},"vehicle_type_id":"4","last_reported":1746713397,"current_range_meters":15200,"station_id":"","pricing_plan_id":"cebpf4jnsgd1na2vs0mg"},{"bike_id":"aa068a9e-fb34-4880-aac0-04bdc385a077","system_id":"levelo_inurba_marseille","lat":43.29947,"lon":5.36551,"is_reserved":false,"is_disabled":false,"rental_uris":{"android":"levelo://app?vid=aa068a9e-fb34-4880-aac0-04bdc385a077","ios":"levelo://app?vid=aa068a9e-fb34-4880-aac0-04bdc385a077"},"vehicle_type_id":"4","last_reported":1746713397,"current_range_meters":15200,"station_id":"ce4bgm92rcd13ifvqbr0","pricing_plan_id":"cebpf4jnsgd1na2vs0mg"},{"bike_id":"ac1ddd42-b2b2-4d2b-bee2-a5f648559394","system_id":"levelo_inurba_marseille","lat":43.23197,"lon":5.35552,"is_reserved":false,"is_disabled":false,"rental_uris":{"android":"levelo://app?vid=ac1ddd42-b2b2-4d2b-bee2-a5f648559394","ios":"levelo://app?vid=ac1ddd42-b2b2-4d2b-bee2-a5f648559394"},"vehicle_type_id":"4","last_reported":1746713397,"current_range_meters":15200,"station_id":"ce4bhu92rcd13ifvqi70","pricing_plan_id":"cebpf4jnsgd1na2vs0mg"},{"bike_id":"f0c3ec59-a14f-4292-8d16-30b306c2f5e0","system_id":"levelo_inurba_marseille","lat":43.240721,"lon":5.377617,"is_reserved":false,"is_disabled":false,"rental_uris":{"android":"levelo://app?vid=f0c3ec59-a14f-4292-8d16-30b306c2f5e0","ios":"levelo://app?vid=f0c3ec59-a14f-4292-8d16-30b306c2f5e0"},"vehicle_type_id":"4","last_reported":1746713397,"current_range_meters":16000,"station_id":"","pricing_plan_id":"cebpf4jnsgd1na2vs0mg"},{"bike_id":"1fcb7ae1-ab02-4bd7-b143-1e8ff06952ce","system_id":"levelo_inurba_marseille","lat":43.260338,"lon":5.375476,"is_reserved":false,"is_disabled":false,"rental_uris":{"android":"levelo://app?vid=1fcb7ae1-ab02-4bd7-b143-1e8ff06952ce","ios":"levelo://app?vid=1fcb7ae1-ab02-4bd7-b143-1e8ff06952ce"},"vehicle_type_id":"4","last_reported":1746713397,"current_range_meters":16000,"station_id":"ce4bhgh2rcd13ifvqfa0","pricing_plan_id":"cebpf4jnsgd1na2vs0mg"},{"bike_id":"4ac1038d-905c-4995-87e3-2124352f9be3","system_id":"levelo_inurba_marseille","lat":43.225029,"lon":5.348086,"is_reserved":false,"is_disabled":false,"rental_uris":{"android":"levelo://app?vid=4ac1038d-905c-4995-87e3-2124352f9be3","ios":"levelo://app?vid=4ac1038d-905c-4995-87e3-2124352f9be3"},"vehicle_type_id":"4","last_reported":1746713397,"current_range_meters":16000,"station_id":"st_cvj5dfep6f1abm77gieg","pricing_plan_id":"cebpf4jnsgd1na2vs0mg"},{"bike_id":"815b6d15-dd9a-4ec4-927d-ef722e37d67b","system_id":"levelo_inurba_marseille","lat":43.286133,"lon":5.35095,"is_reserved":false,"is_disabled":false,"rental_uris":{"android":"levelo://app?vid=815b6d15-dd9a-4ec4-927d-ef722e37d67b","ios":"levelo://app?vid=815b6d15-dd9a-4ec4-927d-ef722e37d67b"},"vehicle_type_id":"4","last_reported":1746713397,"current_range_meters":16000,"station_id":"ce4bhb12rcd13ifvqel0","pricing_plan_id":"cebpf4jnsgd1na2vs0mg"},{"bike_id":"4cd3a911-b468-4766-83d0-21b4a755ba9b","system_id":"levelo_inurba_marseille","lat":43.30729,"lon":5.37373,"is_reserved":false,"is_disabled":false,"rental_uris":{"android":"levelo://app?vid=4cd3a911-b468-4766-83d0-21b4a755ba9b","ios":"levelo://app?vid=4cd3a911-b468-4766-83d0-21b4a755ba9b"},"vehicle_type_id":"4","last_reported":1746713397,"current_range_meters":16400,"station_id":"","pricing_plan_id":"cebpf4jnsgd1na2vs0mg"},{"bike_id":"da7b03bf-05dc-4f90-b4bb-2a859ddf6c3b","system_id":"levelo_inurba_marseille","lat":43.23057,"lon":5.3549,"is_reserved":false,"is_disabled":false,"rental_uris":{"android":"levelo://app?vid=da7b03bf-05dc-4f90-b4bb-2a859ddf6c3b","ios":"levelo://app?vid=da7b03bf-05dc-4f90-b4bb-2a859ddf6c3b"},"vehicle_type_id":"4","last_reported":1746713397,"current_range_meters":16400,"station_id":"cpo3342slgdg3j2ifvpg","pricing_plan_id":"cebpf4jnsgd1na2vs0mg"},{"bike_id":"cb66b0bb-b708-4c07-af18-bb5249a5bfe1","system_id":"levelo_inurba_marseille","lat":43.21747,"lon":5.34601,"is_reserved":false,"is_disabled":false,"rental_uris":{"android":"levelo://app?vid=cb66b0bb-b708-4c07-af18-bb5249a5bfe1","ios":"levelo://app?vid=cb66b0bb-b708-4c07-af18-bb5249a5bfe1"},"vehicle_type_id":"4","last_reported":1746713397,"current_range_meters":16400,"station_id":"st_cvj6r9ubvosntc0bgbag","pricing_plan_id":"cebpf4jnsgd1na2vs0mg"},{"bike_id":"10e0630b-f32e-414e-a112-acd9a0b41e87","system_id":"levelo_inurba_marseille","lat":43.27817,"lon":5.40712,"is_reserved":false,"is_disabled":false,"rental_uris":{"android":"levelo://app?vid=10e0630b-f32e-414e-a112-acd9a0b41e87","ios":"levelo://app?vid=10e0630b-f32e-414e-a112-acd9a0b41e87"},"vehicle_type_id":"4","last_reported":1746713397,"current_range_meters":16400,"station_id":"ce4bhnh2rcd13ifvqgtg","pricing_plan_id":"cebpf4jnsgd1na2vs0mg"},{"bike_id":"215c1639-805b-42d9-8cab-84af91eaff0b","system_id":"levelo_inurba_marseille","lat":43.27375,"lon":5.36262,"is_reserved":false,"is_disabled":false,"rental_uris":{"android":"levelo://app?vid=215c1639-805b-42d9-8cab-84af91eaff0b","ios":"levelo://app?vid=215c1639-805b-42d9-8cab-84af91eaff0b"},"vehicle_type_id":"4","last_reported":1746713397,"current_range_meters":16400,"station_id":"ce4bhbh2rcd13ifvqeo0","pricing_plan_id":"cebpf4jnsgd1na2vs0mg"},{"bike_id":"b2779877-c23f-48f5-abb4-6c44027aef17","system_id":"levelo_inurba_marseille","lat":43.225097,"lon":5.347634,"is_reserved":false,"is_disabled":false,"rental_uris":{"android":"levelo://app?vid=b2779877-c23f-48f5-abb4-6c44027aef17","ios":"levelo://app?vid=b2779877-c23f-48f5-abb4-6c44027aef17"},"vehicle_type_id":"4","last_reported":1746713397,"current_range_meters":16800,"station_id":"","pricing_plan_id":"cebpf4jnsgd1na2vs0mg"},{"bike_id":"8799f683-c329-411d-9118-4884c7a4700e","system_id":"levelo_inurba_marseille","lat":43.30153,"lon":5.38087,"is_reserved":false,"is_disabled":false,"rental_uris":{"android":"levelo://app?vid=8799f683-c329-411d-9118-4884c7a4700e","ios":"levelo://app?vid=8799f683-c329-411d-9118-4884c7a4700e"},"vehicle_type_id":"4","last_reported":1746713397,"current_range_meters":16800,"station_id":"ce4bgjp2rcd13ifvqbh0","pricing_plan_id":"cebpf4jnsgd1na2vs0mg"},{"bike_id":"69d1de8f-c963-47a1-8889-cb3aefc7af71","system_id":"levelo_inurba_marseille","lat":43.240706,"lon":5.377637,"is_reserved":false,"is_disabled":false,"rental_uris":{"android":"levelo://app?vid=69d1de8f-c963-47a1-8889-cb3aefc7af71","ios":"levelo://app?vid=69d1de8f-c963-47a1-8889-cb3aefc7af71"},"vehicle_type_id":"4","last_reported":1746713397,"current_range_meters":16800,"station_id":"st_cvj5dfep6f1abm77gieg","pricing_plan_id":"cebpf4jnsgd1na2vs0mg"},{"bike_id":"38bdd155-492a-488c-a7fa-0a1c1a34eecf","system_id":"levelo_inurba_marseille","lat":43.22934,"lon":5.3538,"is_reserved":false,"is_disabled":false,"rental_uris":{"android":"levelo://app?vid=38bdd155-492a-488c-a7fa-0a1c1a34eecf","ios":"levelo://app?vid=38bdd155-492a-488c-a7fa-0a1c1a34eecf"},"vehicle_type_id":"4","last_reported":1746713397,"current_range_meters":16800,"station_id":"cpo3532slgdg3j2ikp40","pricing_plan_id":"cebpf4jnsgd1na2vs0mg"},{"bike_id":"ab5a4dac-03e5-4589-b66b-0dd27c0a243d","system_id":"levelo_inurba_marseille","lat":43.26201,"lon":5.37445,"is_reserved":false,"is_disabled":false,"rental_uris":{"android":"levelo://app?vid=ab5a4dac-03e5-4589-b66b-0dd27c0a243d","ios":"levelo://app?vid=ab5a4dac-03e5-4589-b66b-0dd27c0a243d"},"vehicle_type_id":"4","last_reported":1746713397,"current_range_meters":16800,"station_id":"ce4bhgp2rcd13ifvqfc0","pricing_plan_id":"cebpf4jnsgd1na2vs0mg"},{"bike_id":"ff807334-3ad3-4e40-bbde-648eb2b1c45b","system_id":"levelo_inurba_marseille","lat":43.21207,"lon":5.35095,"is_reserved":false,"is_disabled":false,"rental_uris":{"android":"levelo://app?vid=ff807334-3ad3-4e40-bbde-648eb2b1c45b","ios":"levelo://app?vid=ff807334-3ad3-4e40-bbde-648eb2b1c45b"},"vehicle_type_id":"4","last_reported":1746713397,"current_range_meters":16800,"station_id":"st_cvj6sg6p6f1abm77japg","pricing_plan_id":"cebpf4jnsgd1na2vs0mg"},{"bike_id":"d53f71b4-3d98-49dd-9669-b16d566d02b6","system_id":"levelo_inurba_marseille","lat":43.295541,"lon":5.365228,"is_reserved":false,"is_disabled":false,"rental_uris":{"android":"levelo://app?vid=d53f71b4-3d98-49dd-9669-b16d566d02b6","ios":"levelo://app?vid=d53f71b4-3d98-49dd-9669-b16d566d02b6"},"vehicle_type_id":"4","last_reported":1746713397,"current_range_meters":17200,"station_id":"","pricing_plan_id":"cebpf4jnsgd1na2vs0mg"},{"bike_id":"b9091330-fe07-4527-b7fb-d087e91dcfae","system_id":"levelo_inurba_marseille","lat":43.225075,"lon":5.34775,"is_reserved":false,"is_disabled":false,"rental_uris":{"android":"levelo://app?vid=b9091330-fe07-4527-b7fb-d087e91dcfae","ios":"levelo://app?vid=b9091330-fe07-4527-b7fb-d087e91dcfae"},"vehicle_type_id":"4","last_reported":1746713397,"current_range_meters":17200,"station_id":"st_cvj5dfep6f1abm77gieg","pricing_plan_id":"cebpf4jnsgd1na2vs0mg"},{"bike_id":"8484a3c1-d10e-4af3-bd94-9208b0b3dac8","system_id":"levelo_inurba_marseille","lat":43.24168,"lon":5.36409,"is_reserved":false,"is_disabled":false,"rental_uris":{"android":"levelo://app?vid=8484a3c1-d10e-4af3-bd94-9208b0b3dac8","ios":"levelo://app?vid=8484a3c1-d10e-4af3-bd94-9208b0b3dac8"},"vehicle_type_id":"4","last_reported":1746713397,"current_range_meters":17200,"station_id":"cpo36qri1sfpv3e86is0","pricing_plan_id":"cebpf4jnsgd1na2vs0mg"},{"bike_id":"cb5561fb-3ed2-49bf-bd58-7c8862116c78","system_id":"levelo_inurba_marseille","lat":43.212149,"lon":5.35043,"is_reserved":false,"is_disabled":false,"rental_uris":{"android":"levelo://app?vid=cb5561fb-3ed2-49bf-bd58-7c8862116c78","ios":"levelo://app?vid=cb5561fb-3ed2-49bf-bd58-7c8862116c78"},"vehicle_type_id":"4","last_reported":1746713397,"current_range_meters":17200,"station_id":"","pricing_plan_id":"cebpf4jnsgd1na2vs0mg"},{"bike_id":"b3d5f702-96b7-4836-83bf-bbca60f76380","system_id":"levelo_inurba_marseille","lat":43.231861,"lon":5.399874,"is_reserved":false,"is_disabled":false,"rental_uris":{"android":"levelo://app?vid=b3d5f702-96b7-4836-83bf-bbca60f76380","ios":"levelo://app?vid=b3d5f702-96b7-4836-83bf-bbca60f76380"},"vehicle_type_id":"4","last_reported":1746713397,"current_range_meters":17200,"station_id":"ce4bhn12rcd13ifvqgqg","pricing_plan_id":"cebpf4jnsgd1na2vs0mg"},{"bike_id":"ebe9de8c-19e2-4b8a-adec-180ba0c58af9","system_id":"levelo_inurba_marseille","lat":43.28417,"lon":5.35008,"is_reserved":false,"is_disabled":false,"rental_uris":{"android":"levelo://app?vid=ebe9de8c-19e2-4b8a-adec-180ba0c58af9","ios":"levelo://app?vid=ebe9de8c-19e2-4b8a-adec-180ba0c58af9"},"vehicle_type_id":"4","last_reported":1746713397,"current_range_meters":17200,"station_id":"ce4bhbh2rcd13ifvqepg","pricing_plan_id":"cebpf4jnsgd1na2vs0mg"},{"bike_id":"b95df79e-1f1a-4148-9169-34fbba2ec528","system_id":"levelo_inurba_marseille","lat":43.27379,"lon":5.36252,"is_reserved":false,"is_disabled":false,"rental_uris":{"android":"levelo://app?vid=b95df79e-1f1a-4148-9169-34fbba2ec528","ios":"levelo://app?vid=b95df79e-1f1a-4148-9169-34fbba2ec528"},"vehicle_type_id":"4","last_reported":1746713397,"current_range_meters":17200,"station_id":"ce4bhbh2rcd13ifvqeo0","pricing_plan_id":"cebpf4jnsgd1na2vs0mg"},{"bike_id":"c821e32e-d925-441c-80d2-d5a984744aba","system_id":"levelo_inurba_marseille","lat":43.211932,"lon":5.350748,"is_reserved":false,"is_disabled":false,"rental_uris":{"android":"levelo://app?vid=c821e32e-d925-441c-80d2-d5a984744aba","ios":"levelo://app?vid=c821e32e-d925-441c-80d2-d5a984744aba"},"vehicle_type_id":"4","last_reported":1746713397,"current_range_meters":17600,"station_id":"st_cvj6sg6p6f1abm77japg","pricing_plan_id":"cebpf4jnsgd1na2vs0mg"},{"bike_id":"dea0bdd5-3a10-4354-a55c-ae54affd36bb","system_id":"levelo_inurba_marseille","lat":43.29036,"lon":5.39971,"is_reserved":false,"is_disabled":false,"rental_uris":{"android":"levelo://app?vid=dea0bdd5-3a10-4354-a55c-ae54affd36bb","ios":"levelo://app?vid=dea0bdd5-3a10-4354-a55c-ae54affd36bb"},"vehicle_type_id":"4","last_reported":1746713397,"current_range_meters":17600,"station_id":"ce4bh392rcd13ifvqdm0","pricing_plan_id":"cebpf4jnsgd1na2vs0mg"},{"bike_id":"76bbb0dd-cd61-4b07-8de3-b442554dc865","system_id":"levelo_inurba_marseille","lat":43.3043,"lon":5.38881,"is_reserved":false,"is_disabled":false,"rental_uris":{"android":"levelo://app?vid=76bbb0dd-cd61-4b07-8de3-b442554dc865","ios":"levelo://app?vid=76bbb0dd-cd61-4b07-8de3-b442554dc865"},"vehicle_type_id":"4","last_reported":1746713397,"current_range_meters":17600,"station_id":"ce4bgk12rcd13ifvqbi0","pricing_plan_id":"cebpf4jnsgd1na2vs0mg"},{"bike_id":"95407fdd-6b53-4c42-85f7-ee3e66f21b13","system_id":"levelo_inurba_marseille","lat":43.24331,"lon":5.38005,"is_reserved":false,"is_disabled":false,"rental_uris":{"android":"levelo://app?vid=95407fdd-6b53-4c42-85f7-ee3e66f21b13","ios":"levelo://app?vid=95407fdd-6b53-4c42-85f7-ee3e66f21b13"},"vehicle_type_id":"4","last_reported":1746713397,"current_range_meters":18000,"station_id":"","pricing_plan_id":"cebpf4jnsgd1na2vs0mg"},{"bike_id":"90dd7ece-e0e3-4e3f-8585-4f4f345a0f96","system_id":"levelo_inurba_marseille","lat":43.31719,"lon":5.40461,"is_reserved":false,"is_disabled":false,"rental_uris":{"android":"levelo://app?vid=90dd7ece-e0e3-4e3f-8585-4f4f345a0f96","ios":"levelo://app?vid=90dd7ece-e0e3-4e3f-8585-4f4f345a0f96"},"vehicle_type_id":"4","last_reported":1746713397,"current_range_meters":18000,"station_id":"ce4bh012rcd13ifvqd00","pricing_plan_id":"cebpf4jnsgd1na2vs0mg"},{"bike_id":"568ade89-84eb-46d8-b9a2-cf4e4d6171d9","system_id":"levelo_inurba_marseille","lat":43.22504,"lon":5.34784,"is_reserved":false,"is_disabled":false,"rental_uris":{"android":"levelo://app?vid=568ade89-84eb-46d8-b9a2-cf4e4d6171d9","ios":"levelo://app?vid=568ade89-84eb-46d8-b9a2-cf4e4d6171d9"},"vehicle_type_id":"4","last_reported":1746713397,"current_range_meters":18000,"station_id":"st_cvj5dfep6f1abm77gieg","pricing_plan_id":"cebpf4jnsgd1na2vs0mg"},{"bike_id":"577911b5-2dfb-4e8c-8e61-c74ee46eaa95","system_id":"levelo_inurba_marseille","lat":43.2441,"lon":5.37062,"is_reserved":false,"is_disabled":false,"rental_uris":{"android":"levelo://app?vid=577911b5-2dfb-4e8c-8e61-c74ee46eaa95","ios":"levelo://app?vid=577911b5-2dfb-4e8c-8e61-c74ee46eaa95"},"vehicle_type_id":"4","last_reported":1746713397,"current_range_meters":18800,"station_id":"ce4bhhh2rcd13ifvqfk0","pricing_plan_id":"cebpf4jnsgd1na2vs0mg"},{"bike_id":"bdc5d253-9b2e-4c7f-8e74-fa472f36ea00","system_id":"levelo_inurba_marseille","lat":43.21189,"lon":5.35078,"is_reserved":false,"is_disabled":false,"rental_uris":{"android":"levelo://app?vid=bdc5d253-9b2e-4c7f-8e74-fa472f36ea00","ios":"levelo://app?vid=bdc5d253-9b2e-4c7f-8e74-fa472f36ea00"},"vehicle_type_id":"4","last_reported":1746713397,"current_range_meters":18800,"station_id":"st_cvj6sg6p6f1abm77japg","pricing_plan_id":"cebpf4jnsgd1na2vs0mg"},{"bike_id":"1dd622ec-7717-4e16-9b33-5fae65b6d06d","system_id":"levelo_inurba_marseille","lat":43.25097,"lon":5.3954,"is_reserved":false,"is_disabled":false,"rental_uris":{"android":"levelo://app?vid=1dd622ec-7717-4e16-9b33-5fae65b6d06d","ios":"levelo://app?vid=1dd622ec-7717-4e16-9b33-5fae65b6d06d"},"vehicle_type_id":"4","last_reported":1746713397,"current_range_meters":18800,"station_id":"ce4bhm12rcd13ifvqgkg","pricing_plan_id":"cebpf4jnsgd1na2vs0mg"},{"bike_id":"f26ac97d-9561-4964-bb88-fcc708a33528","system_id":"levelo_inurba_marseille","lat":43.28027,"lon":5.36941,"is_reserved":false,"is_disabled":false,"rental_uris":{"android":"levelo://app?vid=f26ac97d-9561-4964-bb88-fcc708a33528","ios":"levelo://app?vid=f26ac97d-9561-4964-bb88-fcc708a33528"},"vehicle_type_id":"4","last_reported":1746713397,"current_range_meters":18800,"station_id":"ce4bha12rcd13ifvqef0","pricing_plan_id":"cebpf4jnsgd1na2vs0mg"},{"bike_id":"6cc77014-be96-467c-8ae9-a1019ee36bb3","system_id":"levelo_inurba_marseille","lat":43.25825,"lon":5.39409,"is_reserved":false,"is_disabled":false,"rental_uris":{"android":"levelo://app?vid=6cc77014-be96-467c-8ae9-a1019ee36bb3","ios":"levelo://app?vid=6cc77014-be96-467c-8ae9-a1019ee36bb3"},"vehicle_type_id":"4","last_reported":1746713397,"current_range_meters":19200,"station_id":"ce4bhip2rcd13ifvqft0","pricing_plan_id":"cebpf4jnsgd1na2vs0mg"},{"bike_id":"769d3c30-3f3e-4835-b18b-693e2728f099","system_id":"levelo_inurba_marseille","lat":43.24809,"lon":5.37459,"is_reserved":false,"is_disabled":false,"rental_uris":{"android":"levelo://app?vid=769d3c30-3f3e-4835-b18b-693e2728f099","ios":"levelo://app?vid=769d3c30-3f3e-4835-b18b-693e2728f099"},"vehicle_type_id":"4","last_reported":1746713397,"current_range_meters":18800,"station_id":"ce4bhgh2rcd13ifvqfb0","pricing_plan_id":"cebpf4jnsgd1na2vs0mg"},{"bike_id":"a5e93638-fd65-4041-acd2-1fa408a23755","system_id":"levelo_inurba_marseille","lat":43.30638,"lon":5.3721,"is_reserved":false,"is_disabled":false,"rental_uris":{"android":"levelo://app?vid=a5e93638-fd65-4041-acd2-1fa408a23755","ios":"levelo://app?vid=a5e93638-fd65-4041-acd2-1fa408a23755"},"vehicle_type_id":"4","last_reported":1746713397,"current_range_meters":18800,"station_id":"ce4bgqh2rcd13ifvqc4g","pricing_plan_id":"cebpf4jnsgd1na2vs0mg"},{"bike_id":"72c714fe-a0de-42e3-a30e-f198dc7536fd","system_id":"levelo_inurba_marseille","lat":43.21761,"lon":5.34598,"is_reserved":false,"is_disabled":false,"rental_uris":{"android":"levelo://app?vid=72c714fe-a0de-42e3-a30e-f198dc7536fd","ios":"levelo://app?vid=72c714fe-a0de-42e3-a30e-f198dc7536fd"},"vehicle_type_id":"4","last_reported":1746713397,"current_range_meters":19200,"station_id":"st_cvj6r9ubvosntc0bgbag","pricing_plan_id":"cebpf4jnsgd1na2vs0mg"},{"bike_id":"ddda9be5-8495-4441-93b9-d1781506a90e","system_id":"levelo_inurba_marseille","lat":43.30802,"lon":5.38156,"is_reserved":false,"is_disabled":true,"rental_uris":{"android":"levelo://app?vid=ddda9be5-8495-4441-93b9-d1781506a90e","ios":"levelo://app?vid=ddda9be5-8495-4441-93b9-d1781506a90e"},"vehicle_type_id":"4","last_reported":1746713397,"current_range_meters":19200,"station_id":"ce4bgt12rcd13ifvqce0","pricing_plan_id":"cebpf4jnsgd1na2vs0mg"},{"bike_id":"92be8114-117c-4137-827e-3621ccc7e97a","system_id":"levelo_inurba_marseille","lat":43.28264,"lon":5.35068,"is_reserved":false,"is_disabled":false,"rental_uris":{"android":"levelo://app?vid=92be8114-117c-4137-827e-3621ccc7e97a","ios":"levelo://app?vid=92be8114-117c-4137-827e-3621ccc7e97a"},"vehicle_type_id":"4","last_reported":1746713397,"current_range_meters":19200,"station_id":"ce4bhbp2rcd13ifvqerg","pricing_plan_id":"cebpf4jnsgd1na2vs0mg"},{"bike_id":"b02b9ca6-af13-48be-b7ef-a70d6ba53083","system_id":"levelo_inurba_marseille","lat":43.29269,"lon":5.40913,"is_reserved":false,"is_disabled":false,"rental_uris":{"android":"levelo://app?vid=b02b9ca6-af13-48be-b7ef-a70d6ba53083","ios":"levelo://app?vid=b02b9ca6-af13-48be-b7ef-a70d6ba53083"},"vehicle_type_id":"4","last_reported":1746713397,"current_range_meters":19200,"station_id":"ce4bh192rcd13ifvqdc0","pricing_plan_id":"cebpf4jnsgd1na2vs0mg"},{"bike_id":"5755c318-0dff-4b65-a43c-2c53bcecf4f9","system_id":"levelo_inurba_marseille","lat":43.28619,"lon":5.351,"is_reserved":false,"is_disabled":false,"rental_uris":{"android":"levelo://app?vid=5755c318-0dff-4b65-a43c-2c53bcecf4f9","ios":"levelo://app?vid=5755c318-0dff-4b65-a43c-2c53bcecf4f9"},"vehicle_type_id":"4","last_reported":1746713397,"current_range_meters":19200,"station_id":"ce4bhch2rcd13ifvqeug","pricing_plan_id":"cebpf4jnsgd1na2vs0mg"},{"bike_id":"7e791725-d757-45cd-8633-aec04deac51a","system_id":"levelo_inurba_marseille","lat":43.30154,"lon":5.39849,"is_reserved":false,"is_disabled":false,"rental_uris":{"android":"levelo://app?vid=7e791725-d757-45cd-8633-aec04deac51a","ios":"levelo://app?vid=7e791725-d757-45cd-8633-aec04deac51a"},"vehicle_type_id":"4","last_reported":1746713397,"current_range_meters":19600,"station_id":"ce4bh0h2rcd13ifvqd40","pricing_plan_id":"cebpf4jnsgd1na2vs0mg"},{"bike_id":"70b091ba-67b8-4caf-b652-1f6344ec0976","system_id":"levelo_inurba_marseille","lat":43.33601,"lon":5.41032,"is_reserved":false,"is_disabled":false,"rental_uris":{"android":"levelo://app?vid=70b091ba-67b8-4caf-b652-1f6344ec0976","ios":"levelo://app?vid=70b091ba-67b8-4caf-b652-1f6344ec0976"},"vehicle_type_id":"4","last_reported":1746713397,"current_range_meters":19600,"station_id":"ce4bhqh2rcd13ifvqhmg","pricing_plan_id":"cebpf4jnsgd1na2vs0mg"},{"bike_id":"5ed18b6b-f0db-4f69-a428-8608a651fb52","system_id":"levelo_inurba_marseille","lat":43.30819,"lon":5.36983,"is_reserved":false,"is_disabled":false,"rental_uris":{"android":"levelo://app?vid=5ed18b6b-f0db-4f69-a428-8608a651fb52","ios":"levelo://app?vid=5ed18b6b-f0db-4f69-a428-8608a651fb52"},"vehicle_type_id":"4","last_reported":1746713397,"current_range_meters":19600,"station_id":"","pricing_plan_id":"cebpf4jnsgd1na2vs0mg"},{"bike_id":"a6387b1c-5c3c-4c1b-b459-cfb1b3e2bfe9","system_id":"levelo_inurba_marseille","lat":43.25728,"lon":5.41112,"is_reserved":false,"is_disabled":false,"rental_uris":{"android":"levelo://app?vid=a6387b1c-5c3c-4c1b-b459-cfb1b3e2bfe9","ios":"levelo://app?vid=a6387b1c-5c3c-4c1b-b459-cfb1b3e2bfe9"},"vehicle_type_id":"4","last_reported":1746713397,"current_range_meters":19600,"station_id":"ce4bhkp2rcd13ifvqgd0","pricing_plan_id":"cebpf4jnsgd1na2vs0mg"},{"bike_id":"fc6b34a1-0c69-4976-96d0-b3b9c56a43be","system_id":"levelo_inurba_marseille","lat":43.28468,"lon":5.35895,"is_reserved":false,"is_disabled":false,"rental_uris":{"android":"levelo://app?vid=fc6b34a1-0c69-4976-96d0-b3b9c56a43be","ios":"levelo://app?vid=fc6b34a1-0c69-4976-96d0-b3b9c56a43be"},"vehicle_type_id":"4","last_reported":1746713397,"current_range_meters":19600,"station_id":"ce4bhah2rcd13ifvqei0","pricing_plan_id":"cebpf4jnsgd1na2vs0mg"},{"bike_id":"8909d45b-5ec6-4b31-bbb7-55e12301d5eb","system_id":"levelo_inurba_marseille","lat":43.211921,"lon":5.350731,"is_reserved":false,"is_disabled":false,"rental_uris":{"android":"levelo://app?vid=8909d45b-5ec6-4b31-bbb7-55e12301d5eb","ios":"levelo://app?vid=8909d45b-5ec6-4b31-bbb7-55e12301d5eb"},"vehicle_type_id":"4","last_reported":1746713397,"current_range_meters":19600,"station_id":"st_cvj6sg6p6f1abm77japg","pricing_plan_id":"cebpf4jnsgd1na2vs0mg"},{"bike_id":"8c03f2dd-2b66-470d-823d-3aeaf09a06f3","system_id":"levelo_inurba_marseille","lat":43.28467,"lon":5.35879,"is_reserved":false,"is_disabled":false,"rental_uris":{"android":"levelo://app?vid=8c03f2dd-2b66-470d-823d-3aeaf09a06f3","ios":"levelo://app?vid=8c03f2dd-2b66-470d-823d-3aeaf09a06f3"},"vehicle_type_id":"4","last_reported":1746713397,"current_range_meters":20000,"station_id":"ce4bhah2rcd13ifvqei0","pricing_plan_id":"cebpf4jnsgd1na2vs0mg"},{"bike_id":"f1dd7bf4-aed1-47a1-a798-92e38ddd2af5","system_id":"levelo_inurba_marseille","lat":43.26562,"lon":5.3731,"is_reserved":false,"is_disabled":false,"rental_uris":{"android":"levelo://app?vid=f1dd7bf4-aed1-47a1-a798-92e38ddd2af5","ios":"levelo://app?vid=f1dd7bf4-aed1-47a1-a798-92e38ddd2af5"},"vehicle_type_id":"4","last_reported":1746713397,"current_range_meters":20000,"station_id":"ce4bhg12rcd13ifvqf70","pricing_plan_id":"cebpf4jnsgd1na2vs0mg"},{"bike_id":"a2c2cdcd-9fbc-4694-ab5b-810a2763584e","system_id":"levelo_inurba_marseille","lat":43.25722,"lon":5.41113,"is_reserved":false,"is_disabled":false,"rental_uris":{"android":"levelo://app?vid=a2c2cdcd-9fbc-4694-ab5b-810a2763584e","ios":"levelo://app?vid=a2c2cdcd-9fbc-4694-ab5b-810a2763584e"},"vehicle_type_id":"4","last_reported":1746713397,"current_range_meters":16800,"station_id":"ce4bhkp2rcd13ifvqgd0","pricing_plan_id":"cebpf4jnsgd1na2vs0mg"},{"bike_id":"da5c49e8-962e-470a-865c-6b965c4564d1","system_id":"levelo_inurba_marseille","lat":43.22506,"lon":5.34784,"is_reserved":false,"is_disabled":false,"rental_uris":{"android":"levelo://app?vid=da5c49e8-962e-470a-865c-6b965c4564d1","ios":"levelo://app?vid=da5c49e8-962e-470a-865c-6b965c4564d1"},"vehicle_type_id":"4","last_reported":1746713397,"current_range_meters":20400,"station_id":"st_cvj5dfep6f1abm77gieg","pricing_plan_id":"cebpf4jnsgd1na2vs0mg"},{"bike_id":"ac200bda-244f-4037-a4c8-fa84bbc3662a","system_id":"levelo_inurba_marseille","lat":43.23183,"lon":5.39989,"is_reserved":false,"is_disabled":false,"rental_uris":{"android":"levelo://app?vid=ac200bda-244f-4037-a4c8-fa84bbc3662a","ios":"levelo://app?vid=ac200bda-244f-4037-a4c8-fa84bbc3662a"},"vehicle_type_id":"4","last_reported":1746713397,"current_range_meters":20400,"station_id":"ce4bhn12rcd13ifvqgqg","pricing_plan_id":"cebpf4jnsgd1na2vs0mg"},{"bike_id":"95793904-2959-49ee-94ea-d665c6a2342b","system_id":"levelo_inurba_marseille","lat":43.28617,"lon":5.351013,"is_reserved":false,"is_disabled":false,"rental_uris":{"android":"levelo://app?vid=95793904-2959-49ee-94ea-d665c6a2342b","ios":"levelo://app?vid=95793904-2959-49ee-94ea-d665c6a2342b"},"vehicle_type_id":"4","last_reported":1746713397,"current_range_meters":20400,"station_id":"ce4bhch2rcd13ifvqeug","pricing_plan_id":"cebpf4jnsgd1na2vs0mg"},{"bike_id":"2c2b81c8-3e84-4487-a6b9-4ab49d846588","system_id":"levelo_inurba_marseille","lat":43.29872,"lon":5.36265,"is_reserved":false,"is_disabled":false,"rental_uris":{"android":"levelo://app?vid=2c2b81c8-3e84-4487-a6b9-4ab49d846588","ios":"levelo://app?vid=2c2b81c8-3e84-4487-a6b9-4ab49d846588"},"vehicle_type_id":"4","last_reported":1746713397,"current_range_meters":20400,"station_id":"ce4bgpp2rcd13ifvqc3g","pricing_plan_id":"cebpf4jnsgd1na2vs0mg"},{"bike_id":"8e1f30d9-bb21-4482-9811-ac1d7d71c326","system_id":"levelo_inurba_marseille","lat":43.21767,"lon":5.34608,"is_reserved":false,"is_disabled":false,"rental_uris":{"android":"levelo://app?vid=8e1f30d9-bb21-4482-9811-ac1d7d71c326","ios":"levelo://app?vid=8e1f30d9-bb21-4482-9811-ac1d7d71c326"},"vehicle_type_id":"4","last_reported":1746713397,"current_range_meters":20400,"station_id":"st_cvj6r9ubvosntc0bgbag","pricing_plan_id":"cebpf4jnsgd1na2vs0mg"},{"bike_id":"6c3d6142-3219-47ff-9165-f1e3f9530c60","system_id":"levelo_inurba_marseille","lat":43.25582,"lon":5.38229,"is_reserved":false,"is_disabled":false,"rental_uris":{"android":"levelo://app?vid=6c3d6142-3219-47ff-9165-f1e3f9530c60","ios":"levelo://app?vid=6c3d6142-3219-47ff-9165-f1e3f9530c60"},"vehicle_type_id":"4","last_reported":1746713397,"current_range_meters":20000,"station_id":"ce4bhih2rcd13ifvqfs0","pricing_plan_id":"cebpf4jnsgd1na2vs0mg"},{"bike_id":"13dcf47e-4a64-4b90-9425-15abaa7b6175","system_id":"levelo_inurba_marseille","lat":43.23057,"lon":5.35493,"is_reserved":false,"is_disabled":false,"rental_uris":{"android":"levelo://app?vid=13dcf47e-4a64-4b90-9425-15abaa7b6175","ios":"levelo://app?vid=13dcf47e-4a64-4b90-9425-15abaa7b6175"},"vehicle_type_id":"4","last_reported":1746713397,"current_range_meters":20400,"station_id":"cpo3342slgdg3j2ifvpg","pricing_plan_id":"cebpf4jnsgd1na2vs0mg"},{"bike_id":"4057c94e-3384-425c-974e-d5a1504c85ce","system_id":"levelo_inurba_marseille","lat":43.22504,"lon":5.34778,"is_reserved":false,"is_disabled":false,"rental_uris":{"android":"levelo://app?vid=4057c94e-3384-425c-974e-d5a1504c85ce","ios":"levelo://app?vid=4057c94e-3384-425c-974e-d5a1504c85ce"},"vehicle_type_id":"4","last_reported":1746713397,"current_range_meters":20800,"station_id":"st_cvj5dfep6f1abm77gieg","pricing_plan_id":"cebpf4jnsgd1na2vs0mg"},{"bike_id":"e136f682-01d4-4f0e-8251-8ef082c7619b","system_id":"levelo_inurba_marseille","lat":43.286163,"lon":5.351018,"is_reserved":false,"is_disabled":false,"rental_uris":{"android":"levelo://app?vid=e136f682-01d4-4f0e-8251-8ef082c7619b","ios":"levelo://app?vid=e136f682-01d4-4f0e-8251-8ef082c7619b"},"vehicle_type_id":"4","last_reported":1746713397,"current_range_meters":20800,"station_id":"ce4bhch2rcd13ifvqeug","pricing_plan_id":"cebpf4jnsgd1na2vs0mg"},{"bike_id":"faa6089e-04d5-488f-92fb-85fe7c006a62","system_id":"levelo_inurba_marseille","lat":43.29252,"lon":5.38446,"is_reserved":false,"is_disabled":false,"rental_uris":{"android":"levelo://app?vid=faa6089e-04d5-488f-92fb-85fe7c006a62","ios":"levelo://app?vid=faa6089e-04d5-488f-92fb-85fe7c006a62"},"vehicle_type_id":"4","last_reported":1746713397,"current_range_meters":20800,"station_id":"ce4bh692rcd13ifvqea0","pricing_plan_id":"cebpf4jnsgd1na2vs0mg"},{"bike_id":"42214fb2-73d5-4e03-bab0-481940e19042","system_id":"levelo_inurba_marseille","lat":43.225051,"lon":5.347861,"is_reserved":false,"is_disabled":false,"rental_uris":{"android":"levelo://app?vid=42214fb2-73d5-4e03-bab0-481940e19042","ios":"levelo://app?vid=42214fb2-73d5-4e03-bab0-481940e19042"},"vehicle_type_id":"4","last_reported":1746713397,"current_range_meters":21600,"station_id":"st_cvj5dfep6f1abm77gieg","pricing_plan_id":"cebpf4jnsgd1na2vs0mg"},{"bike_id":"94f123b5-46c6-4ca2-a512-0f9908fea193","system_id":"levelo_inurba_marseille","lat":43.21748,"lon":5.34599,"is_reserved":false,"is_disabled":false,"rental_uris":{"android":"levelo://app?vid=94f123b5-46c6-4ca2-a512-0f9908fea193","ios":"levelo://app?vid=94f123b5-46c6-4ca2-a512-0f9908fea193"},"vehicle_type_id":"4","last_reported":1746713397,"current_range_meters":21600,"station_id":"st_cvj6r9ubvosntc0bgbag","pricing_plan_id":"cebpf4jnsgd1na2vs0mg"},