{"last_updated":1756300856,"ttl":60,"version":"2.2","data":{"bikes":[{"bike_id":"bee06144-d917-4587-8cd4-4266e06c4c3b","system_id":"levelo_inurba_marseille","lat":43.30551,"lon":5.38416,"is_reserved":false,"is_disabled":false,"rental_uris":{"android":"levelo://app?vid=bee06144-d917-4587-8cd4-4266e06c4c3b","ios":"levelo://app?vid=bee06144-d917-4587-8cd4-4266e06c4c3b"},"vehicle_type_id":"4","last_reported":1756300856,"current_range_meters":2800,"station_id":"ce4bgg92rcd13ifvqb30","pricing_plan_id":"cebpf4jnsgd1na2vs0mg"},{"bike_id":"c57776e6-9ac3-432e-8460-118a2d87971c","system_id":"levelo_inurba_marseille","lat":43.24167,"lon":5.36389,"is_reserved":false,"is_disabled":false,"rental_uris":{"android":"levelo://app?vid=c57776e6-9ac3-432e-8460-118a2d87971c","ios":"levelo://app?vid=c57776e6-9ac3-432e-8460-118a2d87971c"},"vehicle_type_id":"4","last_reported":1756300856,"current_range_meters":2800,"station_id":"cpo36qri1sfpv3e86is0","pricing_plan_id":"cebpf4jnsgd1na2vs0mg"},{"bike_id":"09c686b5-a849-4f33-b26d-ab9508991ca2","system_id":"levelo_inurba_marseille","lat":43.29158,"lon":5.35794,"is_reserved":false,"is_disabled":false,"rental_uris":{"android":"levelo://app?vid=09c686b5-a849-4f33-b26d-ab9508991ca2","ios":"levelo://app?vid=09c686b5-a849-4f33-b26d-ab9508991ca2"},"vehicle_type_id":"4","last_reported":1756300856,"current_range_meters":2800,"station_id":"ce4bhb12rcd13ifvqel0","pricing_plan_id":"cebpf4jnsgd1na2vs0mg"},{"bike_id":"3cfe81f6-8b06-4d31-8232-cb37cf305979","system_id":"levelo_inurba_marseille","lat":43.28935,"lon":5.36642,"is_reserved":false,"is_disabled":false,"rental_uris":{"android":"levelo://app?vid=3cfe81f6-8b06-4d31-8232-cb37cf305979","ios":"levelo://app?vid=3cfe81f6-8b06-4d31-8232-cb37cf305979"},"vehicle_type_id":"4","last_reported":1756300856,"current_range_meters":2800,"station_id":"ce4bhap2rcd13ifvqek0","pricing_plan_id":"cebpf4jnsgd1na2vs0mg"},{"bike_id":"236f1a17-bd84-4b8e-977f-7df7d8cf402c","system_id":"levelo_inurba_marseille","lat":43.307982,"lon":5.435216,"is_reserved":false,"is_disabled":true,"rental_uris":{"android":"levelo://app?vid=236f1a17-bd84-4b8e-977f-7df7d8cf402c","ios":"levelo://app?vid=236f1a17-bd84-4b8e-977f-7df7d8cf402c"},"vehicle_type_id":"4","last_reported":1756300856,"current_range_meters":3200,"station_id":"ce4bhph2rcd13ifvqheg","pricing_plan_id":"cebpf4jnsgd1na2vs0mg"},{"bike_id":"cb9f4110-023f-4882-aadb-aacb9958db56","system_id":"levelo_inurba_marseille","lat":43.26207,"lon":5.37444,"is_reserved":false,"is_disabled":false,"rental_uris":{"android":"levelo://app?vid=cb9f4110-023f-4882-aadb-aacb9958db56","ios":"levelo://app?vid=cb9f4110-023f-4882-aadb-aacb9958db56"},"vehicle_type_id":"4","last_reported":1756300856,"current_range_meters":3200,"station_id":"ce4bhgp2rcd13ifvqfc0","pricing_plan_id":"cebpf4jnsgd1na2vs0mg"},{"bike_id":"f1aa9282-9b36-4f1f-a8c3-4068b59a4e2b","system_id":"levelo_inurba_marseille","lat":43.23961,"lon":5.36641,"is_reserved":false,"is_disabled":false,"rental_uris":{"android":"levelo://app?vid=f1aa9282-9b36-4f1f-a8c3-4068b59a4e2b","ios":"levelo://app?vid=f1aa9282-9b36-4f1f-a8c3-4068b59a4e2b"},"vehicle_type_id":"4","last_reported":1756300856,"current_range_meters":3600,"station_id":"ce4bhi12rcd13ifvqfp0","pricing_plan_id":"cebpf4jnsgd1na2vs0mg"},{"bike_id":"a327f9e7-30a9-42bf-9b6e-448220a6aeeb","system_id":"levelo_inurba_marseille","lat":43.287,"lon":5.39983,"is_reserved":false,"is_disabled":false,"rental_uris":{"android":"levelo://app?vid=a327f9e7-30a9-42bf-9b6e-448220a6aeeb","ios":"levelo://app?vid=a327f9e7-30a9-42bf-9b6e-448220a6aeeb"},"vehicle_type_id":"4","last_reported":1756300856,"current_range_meters":3600,"station_id":"ce4bho92rcd13ifvqh3g","pricing_plan_id":"cebpf4jnsgd1na2vs0mg"},{"bike_id":"9bd6a93f-44d0-40a5-91bf-bfce61623c80","system_id":"levelo_inurba_marseille","lat":43.28422,"lon":5.34986,"is_reserved":false,"is_disabled":false,"rental_uris":{"android":"levelo://app?vid=9bd6a93f-44d0-40a5-91bf-bfce61623c80","ios":"levelo://app?vid=9bd6a93f-44d0-40a5-91bf-bfce61623c80"},"vehicle_type_id":"4","last_reported":1756300856,"current_range_meters":3600,"station_id":"ce4bhbh2rcd13ifvqepg","pricing_plan_id":"cebpf4jnsgd1na2vs0mg"},{"bike_id":"f6bd5b86-eb54-487c-8a4e-3da908b177ef","system_id":"levelo_inurba_marseille","lat":43.29743,"lon":5.37123,"is_reserved":false,"is_disabled":false,"rental_uris":{"android":"levelo://app?vid=f6bd5b86-eb54-487c-8a4e-3da908b177ef","ios":"levelo://app?vid=f6bd5b86-eb54-487c-8a4e-3da908b177ef"},"vehicle_type_id":"4","last_reported":1756300856,"current_range_meters":3600,"station_id":"ce4bgop2rcd13ifvqc1g","pricing_plan_id":"cebpf4jnsgd1na2vs0mg"},{"bike_id":"03be758f-3e6d-4c72-8876-95a4359600d6","system_id":"levelo_inurba_marseille","lat":43.337919,"lon":5.374972,"is_reserved":false,"is_disabled":false,"rental_uris":{"android":"levelo://app?vid=03be758f-3e6d-4c72-8876-95a4359600d6","ios":"levelo://app?vid=03be758f-3e6d-4c72-8876-95a4359600d6"},"vehicle_type_id":"4","last_reported":1756300856,"current_range_meters":3600,"station_id":"","pricing_plan_id":"cebpf4jnsgd1na2vs0mg"},{"bike_id":"281f0c5c-9822-46ca-a289-22b145b075cf","system_id":"levelo_inurba_marseille","lat":43.27373,"lon":5.36264,"is_reserved":false,"is_disabled":false,"rental_uris":{"android":"levelo://app?vid=281f0c5c-9822-46ca-a289-22b145b075cf","ios":"levelo://app?vid=281f0c5c-9822-46ca-a289-22b145b075cf"},"vehicle_type_id":"4","last_reported":1756300856,"current_range_meters":3600,"station_id":"ce4bhbh2rcd13ifvqeo0","pricing_plan_id":"cebpf4jnsgd1na2vs0mg"},{"bike_id":"bcda1df0-9c66-4f5a-9640-469486e4fc61","system_id":"levelo_inurba_marseille","lat":43.28664,"lon":5.38655,"is_reserved":false,"is_disabled":false,"rental_uris":{"android":"levelo://app?vid=bcda1df0-9c66-4f5a-9640-469486e4fc61","ios":"levelo://app?vid=bcda1df0-9c66-4f5a-9640-469486e4fc61"},"vehicle_type_id":"4","last_reported":1756300856,"current_range_meters":3600,"station_id":"ce4bh492rcd13ifvqdug","pricing_plan_id":"cebpf4jnsgd1na2vs0mg"},{"bike_id":"863b11e6-2bbd-422e-8ef2-57db4e6b01e8","system_id":"levelo_inurba_marseille","lat":43.272056,"lon":5.391861,"is_reserved":false,"is_disabled":false,"rental_uris":{"android":"levelo://app?vid=863b11e6-2bbd-422e-8ef2-57db4e6b01e8","ios":"levelo://app?vid=863b11e6-2bbd-422e-8ef2-57db4e6b01e8"},"vehicle_type_id":"4","last_reported":1756300856,"current_range_meters":4000,"station_id":"ce4bhhp2rcd13ifvqfm0","pricing_plan_id":"cebpf4jnsgd1na2vs0mg"},{"bike_id":"5952d60e-eda6-4650-aad4-6376002e4cf6","system_id":"levelo_inurba_marseille","lat":43.32112,"lon":5.36766,"is_reserved":false,"is_disabled":false,"rental_uris":{"android":"levelo://app?vid=5952d60e-eda6-4650-aad4-6376002e4cf6","ios":"levelo://app?vid=5952d60e-eda6-4650-aad4-6376002e4cf6"},"vehicle_type_id":"4","last_reported":1756300856,"current_range_meters":4000,"station_id":"ce4bhrh2rcd13ifvqhug","pricing_plan_id":"cebpf4jnsgd1na2vs0mg"},{"bike_id":"5fec5f2d-ea0b-400c-a862-f1d1f15747a4","system_id":"levelo_inurba_marseille","lat":43.29528,"lon":5.37507,"is_reserved":false,"is_disabled":false,"rental_uris":{"android":"levelo://app?vid=5fec5f2d-ea0b-400c-a862-f1d1f15747a4","ios":"levelo://app?vid=5fec5f2d-ea0b-400c-a862-f1d1f15747a4"},"vehicle_type_id":"4","last_reported":1756300856,"current_range_meters":4400,"station_id":"ce4bgkp2rcd13ifvqbmg","pricing_plan_id":"cebpf4jnsgd1na2vs0mg"},{"bike_id":"9b63bc92-39cb-485d-afbe-29666dbfe14c","system_id":"levelo_inurba_marseille","lat":43.305959,"lon":5.393234,"is_reserved":false,"is_disabled":false,"rental_uris":{"android":"levelo://app?vid=9b63bc92-39cb-485d-afbe-29666dbfe14c","ios":"levelo://app?vid=9b63bc92-39cb-485d-afbe-29666dbfe14c"},"vehicle_type_id":"4","last_reported":1756300856,"current_range_meters":4400,"station_id":"ce4bh0p2rcd13ifvqd80","pricing_plan_id":"cebpf4jnsgd1na2vs0mg"},{"bike_id":"d5f1c4b0-ce52-43ea-94fe-d0e5b5f52af9","system_id":"levelo_inurba_marseille","lat":43.23964,"lon":5.36634,"is_reserved":false,"is_disabled":false,"rental_uris":{"android":"levelo://app?vid=d5f1c4b0-ce52-43ea-94fe-d0e5b5f52af9","ios":"levelo://app?vid=d5f1c4b0-ce52-43ea-94fe-d0e5b5f52af9"},"vehicle_type_id":"4","last_reported":1756300856,"current_range_meters":4400,"station_id":"ce4bhi12rcd13ifvqfp0","pricing_plan_id":"cebpf4jnsgd1na2vs0mg"},{"bike_id":"e9791b0c-163f-4353-9c98-b2f6ef497d27","system_id":"levelo_inurba_marseille","lat":43.31273,"lon":5.40166,"is_reserved":false,"is_disabled":false,"rental_uris":{"android":"levelo://app?vid=e9791b0c-163f-4353-9c98-b2f6ef497d27","ios":"levelo://app?vid=e9791b0c-163f-4353-9c98-b2f6ef497d27"},"vehicle_type_id":"4","last_reported":1756300856,"current_range_meters":4000,"station_id":"ce4bh092rcd13ifvqd30","pricing_plan_id":"cebpf4jnsgd1na2vs0mg"},{"bike_id":"3a95040e-54e9-4475-9fe8-c67a71bcc9b1","system_id":"levelo_inurba_marseille","lat":43.2318,"lon":5.39987,"is_reserved":false,"is_disabled":false,"rental_uris":{"android":"levelo://app?vid=3a95040e-54e9-4475-9fe8-c67a71bcc9b1","ios":"levelo://app?vid=3a95040e-54e9-4475-9fe8-c67a71bcc9b1"},"vehicle_type_id":"4","last_reported":1756300856,"current_range_meters":4800,"station_id":"ce4bhn12rcd13ifvqgqg","pricing_plan_id":"cebpf4jnsgd1na2vs0mg"},{"bike_id":"b46639d3-0e19-46be-a590-754abfdbb7c9","system_id":"levelo_inurba_marseille","lat":43.295337,"lon":5.38546,"is_reserved":false,"is_disabled":true,"rental_uris":{"android":"levelo://app?vid=b46639d3-0e19-46be-a590-754abfdbb7c9","ios":"levelo://app?vid=b46639d3-0e19-46be-a590-754abfdbb7c9"},"vehicle_type_id":"4","last_reported":1756300856,"current_range_meters":4800,"station_id":"ce4bgih2rcd13ifvqba0","pricing_plan_id":"cebpf4jnsgd1na2vs0mg"},{"bike_id":"e5cbf544-e553-4e10-bb19-e24cfd958dee","system_id":"levelo_inurba_marseille","lat":43.23966,"lon":5.36629,"is_reserved":false,"is_disabled":false,"rental_uris":{"android":"levelo://app?vid=e5cbf544-e553-4e10-bb19-e24cfd958dee","ios":"levelo://app?vid=e5cbf544-e553-4e10-bb19-e24cfd958dee"},"vehicle_type_id":"4","last_reported":1756300856,"current_range_meters":4400,"station_id":"ce4bhi12rcd13ifvqfp0","pricing_plan_id":"cebpf4jnsgd1na2vs0mg"},{"bike_id":"5078e4e4-5cee-48e4-9a64-0c549be290de","system_id":"levelo_inurba_marseille","lat":43.30545,"lon":5.36717,"is_reserved":false,"is_disabled":false,"rental_uris":{"android":"levelo://app?vid=5078e4e4-5cee-48e4-9a64-0c549be290de","ios":"levelo://app?vid=5078e4e4-5cee-48e4-9a64-0c549be290de"},"vehicle_type_id":"4","last_reported":1756300856,"current_range_meters":5600,"station_id":"ce4bgrp2rcd13ifvqc9g","pricing_plan_id":"cebpf4jnsgd1na2vs0mg"},{"bike_id":"2f4e8b28-6095-4b3f-ae0a-f9f0c872541a","system_id":"levelo_inurba_marseille","lat":43.29035,"lon":5.37571,"is_reserved":false,"is_disabled":false,"rental_uris":{"android":"levelo://app?vid=2f4e8b28-6095-4b3f-ae0a-f9f0c872541a","ios":"levelo://app?vid=2f4e8b28-6095-4b3f-ae0a-f9f0c872541a"},"vehicle_type_id":"4","last_reported":1756300856,"current_range_meters":5600,"station_id":"ce4bh692rcd13ifvqe90","pricing_plan_id":"cebpf4jnsgd1na2vs0mg"},{"bike_id":"cae9e503-97b9-421a-a2dd-4058a984c08e","system_id":"levelo_inurba_marseille","lat":43.21745,"lon":5.3461,"is_reserved":false,"is_disabled":false,"rental_uris":{"android":"levelo://app?vid=cae9e503-97b9-421a-a2dd-4058a984c08e","ios":"levelo://app?vid=cae9e503-97b9-421a-a2dd-4058a984c08e"},"vehicle_type_id":"4","last_reported":1756300856,"current_range_meters":5600,"station_id":"st_cvj6r9ubvosntc0bgbag","pricing_plan_id":"cebpf4jnsgd1na2vs0mg"},{"bike_id":"3add44d8-49b4-46c3-a778-11b696c2bd26","system_id":"levelo_inurba_marseille","lat":43.21182,"lon":5.35081,"is_reserved":false,"is_disabled":false,"rental_uris":{"android":"levelo://app?vid=3add44d8-49b4-46c3-a778-11b696c2bd26","ios":"levelo://app?vid=3add44d8-49b4-46c3-a778-11b696c2bd26"},"vehicle_type_id":"4","last_reported":1756300856,"current_range_meters":5600,"station_id":"st_cvj6sg6p6f1abm77japg","pricing_plan_id":"cebpf4jnsgd1na2vs0mg"},{"bike_id":"9a56ff7e-e477-458c-90a5-1f5f46eb00ee","system_id":"levelo_inurba_marseille","lat":43.24169,"lon":5.364,"is_reserved":false,"is_disabled":false,"rental_uris":{"android":"levelo://app?vid=9a56ff7e-e477-458c-90a5-1f5f46eb00ee","ios":"levelo://app?vid=9a56ff7e-e477-458c-90a5-1f5f46eb00ee"},"vehicle_type_id":"4","last_reported":1756300856,"current_range_meters":6000,"station_id":"cpo36qri1sfpv3e86is0","pricing_plan_id":"cebpf4jnsgd1na2vs0mg"},{"bike_id":"81116bfd-0784-4976-9b6b-0faba717b22f","system_id":"levelo_inurba_marseille","lat":43.31356,"lon":5.38497,"is_reserved":false,"is_disabled":false,"rental_uris":{"android":"levelo://app?vid=81116bfd-0784-4976-9b6b-0faba717b22f","ios":"levelo://app?vid=81116bfd-0784-4976-9b6b-0faba717b22f"},"vehicle_type_id":"4","last_reported":1756300856,"current_range_meters":6000,"station_id":"ce4bgt92rcd13ifvqcf0","pricing_plan_id":"cebpf4jnsgd1na2vs0mg"},{"bike_id":"50f08e4a-13d1-464f-85b8-142aeef06773","system_id":"levelo_inurba_marseille","lat":43.28067,"lon":5.39675,"is_reserved":false,"is_disabled":false,"rental_uris":{"android":"levelo://app?vid=50f08e4a-13d1-464f-85b8-142aeef06773","ios":"levelo://app?vid=50f08e4a-13d1-464f-85b8-142aeef06773"},"vehicle_type_id":"4","last_reported":1756300856,"current_range_meters":6000,"station_id":"ce4bho12rcd13ifvqh2g","pricing_plan_id":"cebpf4jnsgd1na2vs0mg"},{"bike_id":"c4bf9eb6-66a9-4b11-8715-596cd5384c0b","system_id":"levelo_inurba_marseille","lat":43.24171,"lon":5.36399,"is_reserved":false,"is_disabled":false,"rental_uris":{"android":"levelo://app?vid=c4bf9eb6-66a9-4b11-8715-596cd5384c0b","ios":"levelo://app?vid=c4bf9eb6-66a9-4b11-8715-596cd5384c0b"},"vehicle_type_id":"4","last_reported":1756300856,"current_range_meters":6000,"station_id":"cpo36qri1sfpv3e86is0","pricing_plan_id":"cebpf4jnsgd1na2vs0mg"},{"bike_id":"78fef23a-8de3-426a-ba4b-ded8d9686105","system_id":"levelo_inurba_marseille","lat":43.28675,"lon":5.38663,"is_reserved":false,"is_disabled":false,"rental_uris":{"android":"levelo://app?vid=78fef23a-8de3-426a-ba4b-ded8d9686105","ios":"levelo://app?vid=78fef23a-8de3-426a-ba4b-ded8d9686105"},"vehicle_type_id":"4","last_reported":1756300856,"current_range_meters":6400,"station_id":"ce4bh492rcd13ifvqdug","pricing_plan_id":"cebpf4jnsgd1na2vs0mg"},{"bike_id":"edc4c588-4db1-4b48-bddb-0eba1d72ba9f","system_id":"levelo_inurba_marseille","lat":43.2119,"lon":5.35083,"is_reserved":false,"is_disabled":false,"rental_uris":{"android":"levelo://app?vid=edc4c588-4db1-4b48-bddb-0eba1d72ba9f","ios":"levelo://app?vid=edc4c588-4db1-4b48-bddb-0eba1d72ba9f"},"vehicle_type_id":"4","last_reported":1756300856,"current_range_meters":6400,"station_id":"st_cvj6sg6p6f1abm77japg","pricing_plan_id":"cebpf4jnsgd1na2vs0mg"},{"bike_id":"cd1627b1-b91b-4e9a-b090-4fdfe64b2cd1","system_id":"levelo_inurba_marseille","lat":43.29111,"lon":5.38137,"is_reserved":false,"is_disabled":false,"rental_uris":{"android":"levelo://app?vid=cd1627b1-b91b-4e9a-b090-4fdfe64b2cd1","ios":"levelo://app?vid=cd1627b1-b91b-4e9a-b090-4fdfe64b2cd1"},"vehicle_type_id":"4","last_reported":1756300856,"current_range_meters":6400,"station_id":"ce4bh512rcd13ifvqe2g","pricing_plan_id":"cebpf4jnsgd1na2vs0mg"},{"bike_id":"c8d6a27b-9225-4e64-a647-2f27c1eea5b8","system_id":"levelo_inurba_marseille","lat":43.23966,"lon":5.36629,"is_reserved":false,"is_disabled":false,"rental_uris":{"android":"levelo://app?vid=c8d6a27b-9225-4e64-a647-2f27c1eea5b8","ios":"levelo://app?vid=c8d6a27b-9225-4e64-a647-2f27c1eea5b8"},"vehicle_type_id":"4","last_reported":1756300856,"current_range_meters":6400,"station_id":"ce4bhi12rcd13ifvqfp0","pricing_plan_id":"cebpf4jnsgd1na2vs0mg"},{"bike_id":"30b8f6cc-96c4-48a0-b6b7-aeab09ee1f11","system_id":"levelo_inurba_marseille","lat":43.31264,"lon":5.40165,"is_reserved":false,"is_disabled":false,"rental_uris":{"android":"levelo://app?vid=30b8f6cc-96c4-48a0-b6b7-aeab09ee1f11","ios":"levelo://app?vid=30b8f6cc-96c4-48a0-b6b7-aeab09ee1f11"},"vehicle_type_id":"4","last_reported":1756300856,"current_range_meters":6800,"station_id":"ce4bh092rcd13ifvqd30","pricing_plan_id":"cebpf4jnsgd1na2vs0mg"},{"bike_id":"d7024f65-b22d-4b75-a41f-a429ac87fa72","system_id":"levelo_inurba_marseille","lat":43.29714,"lon":5.37694,"is_reserved":false,"is_disabled":false,"rental_uris":{"android":"levelo://app?vid=d7024f65-b22d-4b75-a41f-a429ac87fa72","ios":"levelo://app?vid=d7024f65-b22d-4b75-a41f-a429ac87fa72"},"vehicle_type_id":"4","last_reported":1756300856,"current_range_meters":6800,"station_id":"ce4bgkh2rcd13ifvqbl0","pricing_plan_id":"cebpf4jnsgd1na2vs0mg"},{"bike_id":"3dd16e03-3123-4aad-b97d-9afe41dcbad7","system_id":"levelo_inurba_marseille","lat":43.29846,"lon":5.36279,"is_reserved":false,"is_disabled":false,"rental_uris":{"android":"levelo://app?vid=3dd16e03-3123-4aad-b97d-9afe41dcbad7","ios":"levelo://app?vid=3dd16e03-3123-4aad-b97d-9afe41dcbad7"},"vehicle_type_id":"4","last_reported":1756300856,"current_range_meters":6800,"station_id":"ce4bgpp2rcd13ifvqc3g","pricing_plan_id":"cebpf4jnsgd1na2vs0mg"},{"bike_id":"6f0840a2-e280-4039-a99f-4cb7b19e1e63","system_id":"levelo_inurba_marseille","lat":43.29576,"lon":5.36739,"is_reserved":false,"is_disabled":false,"rental_uris":{"android":"levelo://app?vid=6f0840a2-e280-4039-a99f-4cb7b19e1e63","ios":"levelo://app?vid=6f0840a2-e280-4039-a99f-4cb7b19e1e63"},"vehicle_type_id":"4","last_reported":1756300856,"current_range_meters":6800,"station_id":"ce4bgph2rcd13ifvqc2g","pricing_plan_id":"cebpf4jnsgd1na2vs0mg"},{"bike_id":"25c9cae4-61ff-4c7d-8fc8-f7bf27f72b1b","system_id":"levelo_inurba_marseille","lat":43.292693,"lon":5.368353,"is_reserved":false,"is_disabled":true,"rental_uris":{"android":"levelo://app?vid=25c9cae4-61ff-4c7d-8fc8-f7bf27f72b1b","ios":"levelo://app?vid=25c9cae4-61ff-4c7d-8fc8-f7bf27f72b1b"},"vehicle_type_id":"4","last_reported":1756300856,"current_range_meters":6800,"station_id":"ce4bhbp2rcd13ifvqesg","pricing_plan_id":"cebpf4jnsgd1na2vs0mg"},{"bike_id":"86144b03-6fce-4de4-8318-7eec00e4127c","system_id":"levelo_inurba_marseille","lat":43.24545,"lon":5.39529,"is_reserved":false,"is_disabled":false,"rental_uris":{"android":"levelo://app?vid=86144b03-6fce-4de4-8318-7eec00e4127c","ios":"levelo://app?vid=86144b03-6fce-4de4-8318-7eec00e4127c"},"vehicle_type_id":"4","last_reported":1756300856,"current_range_meters":6800,"station_id":"ce4bhlp2rcd13ifvqgjg","pricing_plan_id":"cebpf4jnsgd1na2vs0mg"},{"bike_id":"6635039d-2798-4046-87ea-bc8c9219973d","system_id":"levelo_inurba_marseille","lat":43.27209,"lon":5.39187,"is_reserved":false,"is_disabled":false,"rental_uris":{"android":"levelo://app?vid=6635039d-2798-4046-87ea-bc8c9219973d","ios":"levelo://app?vid=6635039d-2798-4046-87ea-bc8c9219973d"},"vehicle_type_id":"4","last_reported":1756300856,"current_range_meters":7200,"station_id":"ce4bhhp2rcd13ifvqfm0","pricing_plan_id":"cebpf4jnsgd1na2vs0mg"},{"bike_id":"41d649be-ebec-4c0c-905c-b9cdcb5521f9","system_id":"levelo_inurba_marseille","lat":43.31489,"lon":5.37302,"is_reserved":false,"is_disabled":false,"rental_uris":{"android":"levelo://app?vid=41d649be-ebec-4c0c-905c-b9cdcb5521f9","ios":"levelo://app?vid=41d649be-ebec-4c0c-905c-b9cdcb5521f9"},"vehicle_type_id":"4","last_reported":1756300856,"current_range_meters":7200,"station_id":"ce4bgt12rcd13ifvqcd0","pricing_plan_id":"cebpf4jnsgd1na2vs0mg"},{"bike_id":"d7b50c3b-e360-47ed-b11c-9b55cd50d976","system_id":"levelo_inurba_marseille","lat":43.26032,"lon":5.3755,"is_reserved":false,"is_disabled":false,"rental_uris":{"android":"levelo://app?vid=d7b50c3b-e360-47ed-b11c-9b55cd50d976","ios":"levelo://app?vid=d7b50c3b-e360-47ed-b11c-9b55cd50d976"},"vehicle_type_id":"4","last_reported":1756300856,"current_range_meters":7200,"station_id":"ce4bhgh2rcd13ifvqfa0","pricing_plan_id":"cebpf4jnsgd1na2vs0mg"},{"bike_id":"a22dad06-da6a-4d4b-892c-351b7389a96b","system_id":"levelo_inurba_marseille","lat":43.25874,"lon":5.39892,"is_reserved":false,"is_disabled":false,"rental_uris":{"android":"levelo://app?vid=a22dad06-da6a-4d4b-892c-351b7389a96b","ios":"levelo://app?vid=a22dad06-da6a-4d4b-892c-351b7389a96b"},"vehicle_type_id":"4","last_reported":1756300856,"current_range_meters":8000,"station_id":"ce4bhl92rcd13ifvqghg","pricing_plan_id":"cebpf4jnsgd1na2vs0mg"},{"bike_id":"95d2e177-6c6c-4608-b1f1-ff651bf795ca","system_id":"levelo_inurba_marseille","lat":43.26551,"lon":5.37292,"is_reserved":false,"is_disabled":true,"rental_uris":{"android":"levelo://app?vid=95d2e177-6c6c-4608-b1f1-ff651bf795ca","ios":"levelo://app?vid=95d2e177-6c6c-4608-b1f1-ff651bf795ca"},"vehicle_type_id":"4","last_reported":1756300856,"current_range_meters":8000,"station_id":"ce4bhg12rcd13ifvqf70","pricing_plan_id":"cebpf4jnsgd1na2vs0mg"},{"bike_id":"2732b203-8d34-41ae-80bd-b4f151d77aad","system_id":"levelo_inurba_marseille","lat":43.30257,"lon":5.40547,"is_reserved":false,"is_disabled":false,"rental_uris":{"android":"levelo://app?vid=2732b203-8d34-41ae-80bd-b4f151d77aad","ios":"levelo://app?vid=2732b203-8d34-41ae-80bd-b4f151d77aad"},"vehicle_type_id":"4","last_reported":1756300856,"current_range_meters":8000,"station_id":"","pricing_plan_id":"cebpf4jnsgd1na2vs0mg"},{"bike_id":"0d502687-08ef-4491-8893-8a03d8688be8","system_id":"levelo_inurba_marseille","lat":43.296125,"lon":5.361352,"is_reserved":false,"is_disabled":false,"rental_uris":{"android":"levelo://app?vid=0d502687-08ef-4491-8893-8a03d8688be8","ios":"levelo://app?vid=0d502687-08ef-4491-8893-8a03d8688be8"},"vehicle_type_id":"4","last_reported":1756300856,"current_range_meters":8000,"station_id":"","pricing_plan_id":"cebpf4jnsgd1na2vs0mg"},{"bike_id":"adf2858a-f6b9-45fb-b2e7-8d1012726fd7","system_id":"levelo_inurba_marseille","lat":43.21748,"lon":5.34605,"is_reserved":false,"is_disabled":false,"rental_uris":{"android":"levelo://app?vid=adf2858a-f6b9-45fb-b2e7-8d1012726fd7","ios":"levelo://app?vid=adf2858a-f6b9-45fb-b2e7-8d1012726fd7"},"vehicle_type_id":"4","last_reported":1756300856,"current_range_meters":8000,"station_id":"","pricing_plan_id":"cebpf4jnsgd1na2vs0mg"},{"bike_id":"c2b16306-dc24-42cf-b247-15918b913c07","system_id":"levelo_inurba_marseille","lat":43.30572,"lon":5.36556,"is_reserved":false,"is_disabled":false,"rental_uris":{"android":"levelo://app?vid=c2b16306-dc24-42cf-b247-15918b913c07","ios":"levelo://app?vid=c2b16306-dc24-42cf-b247-15918b913c07"},"vehicle_type_id":"4","last_reported":1756300856,"current_range_meters":8400,"station_id":"ce4bgs12rcd13ifvqcag","pricing_plan_id":"cebpf4jnsgd1na2vs0mg"},{"bike_id":"e1e86b23-3b36-4831-9e28-6b7ee288c19c","system_id":"levelo_inurba_marseille","lat":43.28614,"lon":5.35106,"is_reserved":false,"is_disabled":false,"rental_uris":{"android":"levelo://app?vid=e1e86b23-3b36-4831-9e28-6b7ee288c19c","ios":"levelo://app?vid=e1e86b23-3b36-4831-9e28-6b7ee288c19c"},"vehicle_type_id":"4","last_reported":1756300856,"current_range_meters":8400,"station_id":"ce4bhch2rcd13ifvqeug","pricing_plan_id":"cebpf4jnsgd1na2vs0mg"},{"bike_id":"b4355a8b-6620-41c5-aaa4-2b969fb59e8f","system_id":"levelo_inurba_marseille","lat":43.261938,"lon":5.374494,"is_reserved":false,"is_disabled":true,"rental_uris":{"android":"levelo://app?vid=b4355a8b-6620-41c5-aaa4-2b969fb59e8f","ios":"levelo://app?vid=b4355a8b-6620-41c5-aaa4-2b969fb59e8f"},"vehicle_type_id":"4","last_reported":1756300856,"current_range_meters":8400,"station_id":"ce4bhgp2rcd13ifvqfc0","pricing_plan_id":"cebpf4jnsgd1na2vs0mg"},{"bike_id":"d6ba5407-3238-4878-a489-6da30e042b64","system_id":"levelo_inurba_marseille","lat":43.296269,"lon":5.371379,"is_reserved":false,"is_disabled":false,"rental_uris":{"android":"levelo://app?vid=d6ba5407-3238-4878-a489-6da30e042b64","ios":"levelo://app?vid=d6ba5407-3238-4878-a489-6da30e042b64"},"vehicle_type_id":"4","last_reported":1756300856,"current_range_meters":8400,"station_id":"ce4bgnh2rcd13ifvqc0g","pricing_plan_id":"cebpf4jnsgd1na2vs0mg"},{"bike_id":"d412a35a-8223-4ec4-a0a7-626a0ccec697","system_id":"levelo_inurba_marseille","lat":43.26027,"lon":5.37557,"is_reserved":false,"is_disabled":false,"rental_uris":{"android":"levelo://app?vid=d412a35a-8223-4ec4-a0a7-626a0ccec697","ios":"levelo://app?vid=d412a35a-8223-4ec4-a0a7-626a0ccec697"},"vehicle_type_id":"4","last_reported":1756300856,"current_range_meters":8800,"station_id":"ce4bhgh2rcd13ifvqfa0","pricing_plan_id":"cebpf4jnsgd1na2vs0mg"},{"bike_id":"62a2e4a3-34e8-4936-ba8c-9d719ba46973","system_id":"levelo_inurba_marseille","lat":43.27323,"lon":5.3908,"is_reserved":false,"is_disabled":true,"rental_uris":{"android":"levelo://app?vid=62a2e4a3-34e8-4936-ba8c-9d719ba46973","ios":"levelo://app?vid=62a2e4a3-34e8-4936-ba8c-9d719ba46973"},"vehicle_type_id":"4","last_reported":1756300856,"current_range_meters":8800,"station_id":"ce4bhgp2rcd13ifvqfe0","pricing_plan_id":"cebpf4jnsgd1na2vs0mg"},{"bike_id":"f9bf373c-7ab8-433d-b890-3c4dc73de55b","system_id":"levelo_inurba_marseille","lat":43.29202,"lon":5.39318,"is_reserved":false,"is_disabled":false,"rental_uris":{"android":"levelo://app?vid=f9bf373c-7ab8-433d-b890-3c4dc73de55b","ios":"levelo://app?vid=f9bf373c-7ab8-433d-b890-3c4dc73de55b"},"vehicle_type_id":"4","last_reported":1756300856,"current_range_meters":8400,"station_id":"ce4bh192rcd13ifvqdd0","pricing_plan_id":"cebpf4jnsgd1na2vs0mg"},{"bike_id":"cd556600-c60a-412f-aa9e-db3952c7a442","system_id":"levelo_inurba_marseille","lat":43.28857,"lon":5.35854,"is_reserved":false,"is_disabled":false,"rental_uris":{"android":"levelo://app?vid=cd556600-c60a-412f-aa9e-db3952c7a442","ios":"levelo://app?vid=cd556600-c60a-412f-aa9e-db3952c7a442"},"vehicle_type_id":"4","last_reported":1756300856,"current_range_meters":8400,"station_id":"ce4bhb12rcd13ifvqem0","pricing_plan_id":"cebpf4jnsgd1na2vs0mg"},{"bike_id":"69a01144-4cb0-4f43-b8a7-d8bba1210d75","system_id":"levelo_inurba_marseille","lat":43.31592,"lon":5.37437,"is_reserved":false,"is_disabled":false,"rental_uris":{"android":"levelo://app?vid=69a01144-4cb0-4f43-b8a7-d8bba1210d75","ios":"levelo://app?vid=69a01144-4cb0-4f43-b8a7-d8bba1210d75"},"vehicle_type_id":"4","last_reported":1756300856,"current_range_meters":8800,"station_id":"","pricing_plan_id":"cebpf4jnsgd1na2vs0mg"},{"bike_id":"31613c7d-7401-4b11-b1c2-62eee4b9bdca","system_id":"levelo_inurba_marseille","lat":43.23195,"lon":5.35555,"is_reserved":false,"is_disabled":false,"rental_uris":{"android":"levelo://app?vid=31613c7d-7401-4b11-b1c2-62eee4b9bdca","ios":"levelo://app?vid=31613c7d-7401-4b11-b1c2-62eee4b9bdca"},"vehicle_type_id":"4","last_reported":1756300856,"current_range_meters":8800,"station_id":"ce4bhu92rcd13ifvqi70","pricing_plan_id":"cebpf4jnsgd1na2vs0mg"},{"bike_id":"2c31fb6b-dce2-4967-9ac2-430a96de4da0","system_id":"levelo_inurba_marseille","lat":43.284792,"lon":5.385617,"is_reserved":false,"is_disabled":false,"rental_uris":{"android":"levelo://app?vid=2c31fb6b-dce2-4967-9ac2-430a96de4da0","ios":"levelo://app?vid=2c31fb6b-dce2-4967-9ac2-430a96de4da0"},"vehicle_type_id":"4","last_reported":1756300856,"current_range_meters":9200,"station_id":"ce4bh8p2rcd13ifvqeb0","pricing_plan_id":"cebpf4jnsgd1na2vs0mg"},{"bike_id":"178b59d8-d13f-40a5-9e48-eb6285ce95ec","system_id":"levelo_inurba_marseille","lat":43.28275,"lon":5.35067,"is_reserved":false,"is_disabled":false,"rental_uris":{"android":"levelo://app?vid=178b59d8-d13f-40a5-9e48-eb6285ce95ec","ios":"levelo://app?vid=178b59d8-d13f-40a5-9e48-eb6285ce95ec"},"vehicle_type_id":"4","last_reported":1756300856,"current_range_meters":9200,"station_id":"ce4bhbp2rcd13ifvqerg","pricing_plan_id":"cebpf4jnsgd1na2vs0mg"},{"bike_id":"51842e17-ef10-4624-a23e-c8a182427991","system_id":"levelo_inurba_marseille","lat":43.31644,"lon":5.38217,"is_reserved":false,"is_disabled":false,"rental_uris":{"android":"levelo://app?vid=51842e17-ef10-4624-a23e-c8a182427991","ios":"levelo://app?vid=51842e17-ef10-4624-a23e-c8a182427991"},"vehicle_type_id":"4","last_reported":1756300856,"current_range_meters":9200,"station_id":"","pricing_plan_id":"cebpf4jnsgd1na2vs0mg"},{"bike_id":"47c77e34-ccb8-4e24-a166-6c7bf05bc5a9","system_id":"levelo_inurba_marseille","lat":43.28372,"lon":5.38634,"is_reserved":false,"is_disabled":false,"rental_uris":{"android":"levelo://app?vid=47c77e34-ccb8-4e24-a166-6c7bf05bc5a9","ios":"levelo://app?vid=47c77e34-ccb8-4e24-a166-6c7bf05bc5a9"},"vehicle_type_id":"4","last_reported":1756300856,"current_range_meters":9200,"station_id":"ce4bh492rcd13ifvqdvg","pricing_plan_id":"cebpf4jnsgd1na2vs0mg"},{"bike_id":"84893157-8922-402e-8923-dcaa56cda3dd","system_id":"levelo_inurba_marseille","lat":43.28412,"lon":5.35,"is_reserved":false,"is_disabled":false,"rental_uris":{"android":"levelo://app?vid=84893157-8922-402e-8923-dcaa56cda3dd","ios":"levelo://app?vid=84893157-8922-402e-8923-dcaa56cda3dd"},"vehicle_type_id":"4","last_reported":1756300856,"current_range_meters":9600,"station_id":"ce4bhbh2rcd13ifvqepg","pricing_plan_id":"cebpf4jnsgd1na2vs0mg"},{"bike_id":"0f2017f4-e5c1-46a2-a7d8-e957ce265a72","system_id":"levelo_inurba_marseille","lat":43.22344,"lon":5.34658,"is_reserved":false,"is_disabled":false,"rental_uris":{"android":"levelo://app?vid=0f2017f4-e5c1-46a2-a7d8-e957ce265a72","ios":"levelo://app?vid=0f2017f4-e5c1-46a2-a7d8-e957ce265a72"},"vehicle_type_id":"4","last_reported":1756300856,"current_range_meters":9600,"station_id":"","pricing_plan_id":"cebpf4jnsgd1na2vs0mg"},{"bike_id":"49c80a62-a154-4a35-89e2-dd168b96a6cc","system_id":"levelo_inurba_marseille","lat":43.27912,"lon":5.39585,"is_reserved":false,"is_disabled":false,"rental_uris":{"android":"levelo://app?vid=49c80a62-a154-4a35-89e2-dd168b96a6cc","ios":"levelo://app?vid=49c80a62-a154-4a35-89e2-dd168b96a6cc"},"vehicle_type_id":"4","last_reported":1756300856,"current_range_meters":9600,"station_id":"ce4bhf92rcd13ifvqf40","pricing_plan_id":"cebpf4jnsgd1na2vs0mg"},{"bike_id":"6034672e-5719-489f-966d-e36e26a2269b","system_id":"levelo_inurba_marseille","lat":43.21747,"lon":5.34601,"is_reserved":false,"is_disabled":false,"rental_uris":{"android":"levelo://app?vid=6034672e-5719-489f-966d-e36e26a2269b","ios":"levelo://app?vid=6034672e-5719-489f-966d-e36e26a2269b"},"vehicle_type_id":"4","last_reported":1756300856,"current_range_meters":9600,"station_id":"st_cvj6r9ubvosntc0bgbag","pricing_plan_id":"cebpf4jnsgd1na2vs0mg"},{"bike_id":"39002f5b-a23e-4630-90a0-e2481b8443c4","system_id":"levelo_inurba_marseille","lat":43.25006,"lon":5.389113,"is_reserved":false,"is_disabled":false,"rental_uris":{"android":"levelo://app?vid=39002f5b-a23e-4630-90a0-e2481b8443c4","ios":"levelo://app?vid=39002f5b-a23e-4630-90a0-e2481b8443c4"},"vehicle_type_id":"4","last_reported":1756300856,"current_range_meters":9600,"station_id":"","pricing_plan_id":"cebpf4jnsgd1na2vs0mg"},{"bike_id":"63026e5d-895a-4ecf-9e83-8b3cb4d62143","system_id":"levelo_inurba_marseille","lat":43.27316,"lon":5.3909,"is_reserved":false,"is_disabled":false,"rental_uris":{"android":"levelo://app?vid=63026e5d-895a-4ecf-9e83-8b3cb4d62143","ios":"levelo://app?vid=63026e5d-895a-4ecf-9e83-8b3cb4d62143"},"vehicle_type_id":"4","last_reported":1756300856,"current_range_meters":9600,"station_id":"ce4bhgp2rcd13ifvqfe0","pricing_plan_id":"cebpf4jnsgd1na2vs0mg"},{"bike_id":"f8888a8d-372e-402f-b164-d13c1398aeec","system_id":"levelo_inurba_marseille","lat":43.30088,"lon":5.39081,"is_reserved":false,"is_disabled":false,"rental_uris":{"android":"levelo://app?vid=f8888a8d-372e-402f-b164-d13c1398aeec","ios":"levelo://app?vid=f8888a8d-372e-402f-b164-d13c1398aeec"},"vehicle_type_id":"4","last_reported":1756300856,"current_range_meters":10000,"station_id":"ce4bh192rcd13ifvqdb0","pricing_plan_id":"cebpf4jnsgd1na2vs0mg"},{"bike_id":"919403d1-9d41-4322-8f42-253c1dba9d3b","system_id":"levelo_inurba_marseille","lat":43.21748,"lon":5.34623,"is_reserved":false,"is_disabled":false,"rental_uris":{"android":"levelo://app?vid=919403d1-9d41-4322-8f42-253c1dba9d3b","ios":"levelo://app?vid=919403d1-9d41-4322-8f42-253c1dba9d3b"},"vehicle_type_id":"4","last_reported":1756300856,"current_range_meters":10000,"station_id":"st_cvj6r9ubvosntc0bgbag","pricing_plan_id":"cebpf4jnsgd1na2vs0mg"},{"bike_id":"c73d9183-822c-4a14-a8c1-53bf72c04baf","system_id":"levelo_inurba_marseille","lat":43.294178,"lon":5.432372,"is_reserved":false,"is_disabled":false,"rental_uris":{"android":"levelo://app?vid=c73d9183-822c-4a14-a8c1-53bf72c04baf","ios":"levelo://app?vid=c73d9183-822c-4a14-a8c1-53bf72c04baf"},"vehicle_type_id":"4","last_reported":1756300856,"current_range_meters":10000,"station_id":"","pricing_plan_id":"cebpf4jnsgd1na2vs0mg"},{"bike_id":"a6ef8657-5b8a-423b-993f-c3df43dec0a0","system_id":"levelo_inurba_marseille","lat":43.326998,"lon":5.392208,"is_reserved":false,"is_disabled":false,"rental_uris":{"android":"levelo://app?vid=a6ef8657-5b8a-423b-993f-c3df43dec0a0","ios":"levelo://app?vid=a6ef8657-5b8a-423b-993f-c3df43dec0a0"},"vehicle_type_id":"4","last_reported":1756300856,"current_range_meters":10000,"station_id":"","pricing_plan_id":"cebpf4jnsgd1na2vs0mg"},{"bike_id":"eb22dec0-bfff-46be-ac9e-3150673df06e","system_id":"levelo_inurba_marseille","lat":43.26222,"lon":5.37446,"is_reserved":false,"is_disabled":false,"rental_uris":{"android":"levelo://app?vid=eb22dec0-bfff-46be-ac9e-3150673df06e","ios":"levelo://app?vid=eb22dec0-bfff-46be-ac9e-3150673df06e"},"vehicle_type_id":"4","last_reported":1756300856,"current_range_meters":10000,"station_id":"ce4bhgp2rcd13ifvqfc0","pricing_plan_id":"cebpf4jnsgd1na2vs0mg"},{"bike_id":"3c27b005-25ac-4dc8-b5b3-6196b706529f","system_id":"levelo_inurba_marseille","lat":43.24808,"lon":5.37452,"is_reserved":false,"is_disabled":false,"rental_uris":{"android":"levelo://app?vid=3c27b005-25ac-4dc8-b5b3-6196b706529f","ios":"levelo://app?vid=3c27b005-25ac-4dc8-b5b3-6196b706529f"},"vehicle_type_id":"4","last_reported":1756300856,"current_range_meters":10000,"station_id":"ce4bhgh2rcd13ifvqfb0","pricing_plan_id":"cebpf4jnsgd1na2vs0mg"},{"bike_id":"0561f6f7-4de8-48ea-a332-2e16d7c4fab4","system_id":"levelo_inurba_marseille","lat":43.21754,"lon":5.34604,"is_reserved":false,"is_disabled":false,"rental_uris":{"android":"levelo://app?vid=0561f6f7-4de8-48ea-a332-2e16d7c4fab4","ios":"levelo://app?vid=0561f6f7-4de8-48ea-a332-2e16d7c4fab4"},"vehicle_type_id":"4","last_reported":1756300856,"current_range_meters":10000,"station_id":"st_cvj6r9ubvosntc0bgbag","pricing_plan_id":"cebpf4jnsgd1na2vs0mg"},{"bike_id":"6bf766fa-e6a4-4b3b-8676-4ae53a79682b","system_id":"levelo_inurba_marseille","lat":43.30288,"lon":5.37702,"is_reserved":false,"is_disabled":false,"rental_uris":{"android":"levelo://app?vid=6bf766fa-e6a4-4b3b-8676-4ae53a79682b","ios":"levelo://app?vid=6bf766fa-e6a4-4b3b-8676-4ae53a79682b"},"vehicle_type_id":"4","last_reported":1756300856,"current_range_meters":10000,"station_id":"ce4bguh2rcd13ifvqcj0","pricing_plan_id":"cebpf4jnsgd1na2vs0mg"},{"bike_id":"1c3055e6-ca6d-47a7-899b-dff0faa08ad6","system_id":"levelo_inurba_marseille","lat":43.305506,"lon":5.365526,"is_reserved":false,"is_disabled":false,"rental_uris":{"android":"levelo://app?vid=1c3055e6-ca6d-47a7-899b-dff0faa08ad6","ios":"levelo://app?vid=1c3055e6-ca6d-47a7-899b-dff0faa08ad6"},"vehicle_type_id":"4","last_reported":1756300856,"current_range_meters":10800,"station_id":"ce4bgs12rcd13ifvqcag","pricing_plan_id":"cebpf4jnsgd1na2vs0mg"},{"bike_id":"ed56c123-b773-4b78-984e-b5eaaa54a58a","system_id":"levelo_inurba_marseille","lat":43.24073,"lon":5.3777,"is_reserved":false,"is_disabled":false,"rental_uris":{"android":"levelo://app?vid=ed56c123-b773-4b78-984e-b5eaaa54a58a","ios":"levelo://app?vid=ed56c123-b773-4b78-984e-b5eaaa54a58a"},"vehicle_type_id":"4","last_reported":1756300856,"current_range_meters":10800,"station_id":"ce4bhnp2rcd13ifvqgvg","pricing_plan_id":"cebpf4jnsgd1na2vs0mg"},{"bike_id":"25e83664-f909-4a0a-bcfd-41b9a19d1090","system_id":"levelo_inurba_marseille","lat":43.33026,"lon":5.39045,"is_reserved":false,"is_disabled":false,"rental_uris":{"android":"levelo://app?vid=25e83664-f909-4a0a-bcfd-41b9a19d1090","ios":"levelo://app?vid=25e83664-f909-4a0a-bcfd-41b9a19d1090"},"vehicle_type_id":"4","last_reported":1756300856,"current_range_meters":10800,"station_id":"ce4bhr92rcd13ifvqhrg","pricing_plan_id":"cebpf4jnsgd1na2vs0mg"},{"bike_id":"1d7023ef-959e-48df-b075-0a4bd90cc9ae","system_id":"levelo_inurba_marseille","lat":43.27365,"lon":5.36253,"is_reserved":false,"is_disabled":true,"rental_uris":{"android":"levelo://app?vid=1d7023ef-959e-48df-b075-0a4bd90cc9ae","ios":"levelo://app?vid=1d7023ef-959e-48df-b075-0a4bd90cc9ae"},"vehicle_type_id":"4","last_reported":1756300856,"current_range_meters":10800,"station_id":"ce4bhbh2rcd13ifvqeo0","pricing_plan_id":"cebpf4jnsgd1na2vs0mg"},{"bike_id":"14947f10-51c9-4538-82c8-53a5bc644a0e","system_id":"levelo_inurba_marseille","lat":43.320744,"lon":5.415208,"is_reserved":false,"is_disabled":false,"rental_uris":{"android":"levelo://app?vid=14947f10-51c9-4538-82c8-53a5bc644a0e","ios":"levelo://app?vid=14947f10-51c9-4538-82c8-53a5bc644a0e"},"vehicle_type_id":"4","last_reported":1756300856,"current_range_meters":10800,"station_id":"ce4bhq92rcd13ifvqhkg","pricing_plan_id":"cebpf4jnsgd1na2vs0mg"},{"bike_id":"0fb8ed40-6cb1-4997-9f26-dbd5737acffa","system_id":"levelo_inurba_marseille","lat":43.26025,"lon":5.37559,"is_reserved":false,"is_disabled":false,"rental_uris":{"android":"levelo://app?vid=0fb8ed40-6cb1-4997-9f26-dbd5737acffa","ios":"levelo://app?vid=0fb8ed40-6cb1-4997-9f26-dbd5737acffa"},"vehicle_type_id":"4","last_reported":1756300856,"current_range_meters":10800,"station_id":"ce4bhgh2rcd13ifvqfa0","pricing_plan_id":"cebpf4jnsgd1na2vs0mg"},{"bike_id":"777a8c83-aed8-4881-84b6-34465956e738","system_id":"levelo_inurba_marseille","lat":43.25782,"lon":5.41071,"is_reserved":false,"is_disabled":false,"rental_uris":{"android":"levelo://app?vid=777a8c83-aed8-4881-84b6-34465956e738","ios":"levelo://app?vid=777a8c83-aed8-4881-84b6-34465956e738"},"vehicle_type_id":"4","last_reported":1756300856,"current_range_meters":10800,"station_id":"","pricing_plan_id":"cebpf4jnsgd1na2vs0mg"},{"bike_id":"1546df9e-d1cb-482b-8d1f-d121540fd829","system_id":"levelo_inurba_marseille","lat":43.21189,"lon":5.35071,"is_reserved":false,"is_disabled":false,"rental_uris":{"android":"levelo://app?vid=1546df9e-d1cb-482b-8d1f-d121540fd829","ios":"levelo://app?vid=1546df9e-d1cb-482b-8d1f-d121540fd829"},"vehicle_type_id":"4","last_reported":1756300856,"current_range_meters":10800,"station_id":"st_cvj6sg6p6f1abm77japg","pricing_plan_id":"cebpf4jnsgd1na2vs0mg"},{"bike_id":"13687e4e-cdcd-4dad-a4eb-ee47e73b9181","system_id":"levelo_inurba_marseille","lat":43.29719,"lon":5.3661,"is_reserved":false,"is_disabled":false,"rental_uris":{"android":"levelo://app?vid=13687e4e-cdcd-4dad-a4eb-ee47e73b9181","ios":"levelo://app?vid=13687e4e-cdcd-4dad-a4eb-ee47e73b9181"},"vehicle_type_id":"4","last_reported":1756300856,"current_range_meters":10800,"station_id":"ce4bgn12rcd13ifvqbt0","pricing_plan_id":"cebpf4jnsgd1na2vs0mg"},{"bike_id":"756a7abe-0d20-4b7e-9623-79738401eb0b","system_id":"levelo_inurba_marseille","lat":43.26031,"lon":5.37552,"is_reserved":false,"is_disabled":false,"rental_uris":{"android":"levelo://app?vid=756a7abe-0d20-4b7e-9623-79738401eb0b","ios":"levelo://app?vid=756a7abe-0d20-4b7e-9623-79738401eb0b"},"vehicle_type_id":"4","last_reported":1756300856,"current_range_meters":11200,"station_id":"ce4bhgh2rcd13ifvqfa0","pricing_plan_id":"cebpf4jnsgd1na2vs0mg"},{"bike_id":"8e7b1d79-9b06-424d-a396-c72233a4d2a9","system_id":"levelo_inurba_marseille","lat":43.30551,"lon":5.36548,"is_reserved":false,"is_disabled":false,"rental_uris":{"android":"levelo://app?vid=8e7b1d79-9b06-424d-a396-c72233a4d2a9","ios":"levelo://app?vid=8e7b1d79-9b06-424d-a396-c72233a4d2a9"},"vehicle_type_id":"4","last_reported":1756300856,"current_range_meters":10800,"station_id":"ce4bgs12rcd13ifvqcag","pricing_plan_id":"cebpf4jnsgd1na2vs0mg"},{"bike_id":"654e8a62-0b0b-49dc-b109-872be763b417","system_id":"levelo_inurba_marseille","lat":43.24165,"lon":5.36393,"is_reserved":false,"is_disabled":false,"rental_uris":{"android":"levelo://app?vid=654e8a62-0b0b-49dc-b109-872be763b417","ios":"levelo://app?vid=654e8a62-0b0b-49dc-b109-872be763b417"},"vehicle_type_id":"4","last_reported":1756300856,"current_range_meters":11200,"station_id":"cpo36qri1sfpv3e86is0","pricing_plan_id":"cebpf4jnsgd1na2vs0mg"},{"bike_id":"e337d582-364a-4312-af91-67d0c81052aa","system_id":"levelo_inurba_marseille","lat":43.32531,"lon":5.36449,"is_reserved":false,"is_disabled":false,"rental_uris":{"android":"levelo://app?vid=e337d582-364a-4312-af91-67d0c81052aa","ios":"levelo://app?vid=e337d582-364a-4312-af91-67d0c81052aa"},"vehicle_type_id":"4","last_reported":1756300856,"current_range_meters":11200,"station_id":"","pricing_plan_id":"cebpf4jnsgd1na2vs0mg"},{"bike_id":"b93b207e-cec3-497e-a858-017df2c2c58a","system_id":"levelo_inurba_marseille","lat":43.25493,"lon":5.37649,"is_reserved":false,"is_disabled":false,"rental_uris":{"android":"levelo://app?vid=b93b207e-cec3-497e-a858-017df2c2c58a","ios":"levelo://app?vid=b93b207e-cec3-497e-a858-017df2c2c58a"},"vehicle_type_id":"4","last_reported":1756300856,"current_range_meters":11600,"station_id":"ce4bhh12rcd13ifvqff0","pricing_plan_id":"cebpf4jnsgd1na2vs0mg"},{"bike_id":"5bce688b-fc81-4596-8277-b66f54be87c1","system_id":"levelo_inurba_marseille","lat":43.33768,"lon":5.37438,"is_reserved":false,"is_disabled":false,"rental_uris":{"android":"levelo://app?vid=5bce688b-fc81-4596-8277-b66f54be87c1","ios":"levelo://app?vid=5bce688b-fc81-4596-8277-b66f54be87c1"},"vehicle_type_id":"4","last_reported":1756300856,"current_range_meters":11600,"station_id":"","pricing_plan_id":"cebpf4jnsgd1na2vs0mg"},{"bike_id":"d5844988-421a-4cf0-bbe2-f95540a0dbae","system_id":"levelo_inurba_marseille","lat":43.28417,"lon":5.34993,"is_reserved":false,"is_disabled":false,"rental_uris":{"android":"levelo://app?vid=d5844988-421a-4cf0-bbe2-f95540a0dbae","ios":"levelo://app?vid=d5844988-421a-4cf0-bbe2-f95540a0dbae"},"vehicle_type_id":"4","last_reported":1756300856,"current_range_meters":11600,"station_id":"ce4bhbh2rcd13ifvqepg","pricing_plan_id":"cebpf4jnsgd1na2vs0mg"},{"bike_id":"99beffcf-e8ce-4976-a68c-85192fcfccfe","system_id":"levelo_inurba_marseille","lat":43.30377,"lon":5.42486,"is_reserved":false,"is_disabled":false,"rental_uris":{"android":"levelo://app?vid=99beffcf-e8ce-4976-a68c-85192fcfccfe","ios":"levelo://app?vid=99beffcf-e8ce-4976-a68c-85192fcfccfe"},"vehicle_type_id":"4","last_reported":1756300856,"current_range_meters":11600,"station_id":"ce4bhoh2rcd13ifvqh6g","pricing_plan_id":"cebpf4jnsgd1na2vs0mg"},{"bike_id":"01a922d5-7fc5-480d-900f-35d4a4ab1e99","system_id":"levelo_inurba_marseille","lat":43.30544,"lon":5.3656,"is_reserved":false,"is_disabled":false,"rental_uris":{"android":"levelo://app?vid=01a922d5-7fc5-480d-900f-35d4a4ab1e99","ios":"levelo://app?vid=01a922d5-7fc5-480d-900f-35d4a4ab1e99"},"vehicle_type_id":"4","last_reported":1756300856,"current_range_meters":11600,"station_id":"ce4bgs12rcd13ifvqcag","pricing_plan_id":"cebpf4jnsgd1na2vs0mg"},{"bike_id":"2a7932fe-2e19-47b4-b535-f886bbb8472f","system_id":"levelo_inurba_marseille","lat":43.30376,"lon":5.42489,"is_reserved":false,"is_disabled":false,"rental_uris":{"android":"levelo://app?vid=2a7932fe-2e19-47b4-b535-f886bbb8472f","ios":"levelo://app?vid=2a7932fe-2e19-47b4-b535-f886bbb8472f"},"vehicle_type_id":"4","last_reported":1756300856,"current_range_meters":12000,"station_id":"ce4bhoh2rcd13ifvqh6g","pricing_plan_id":"cebpf4jnsgd1na2vs0mg"},{"bike_id":"bc930ca8-f479-4bdf-9042-5d91f3b9297e","system_id":"levelo_inurba_marseille","lat":43.28274,"lon":5.35077,"is_reserved":false,"is_disabled":false,"rental_uris":{"android":"levelo://app?vid=bc930ca8-f479-4bdf-9042-5d91f3b9297e","ios":"levelo://app?vid=bc930ca8-f479-4bdf-9042-5d91f3b9297e"},"vehicle_type_id":"4","last_reported":1756300856,"current_range_meters":12000,"station_id":"ce4bhbp2rcd13ifvqerg","pricing_plan_id":"cebpf4jnsgd1na2vs0mg"},{"bike_id":"900573f6-c63d-408e-b858-11a6ab5a1d2c","system_id":"levelo_inurba_marseille","lat":43.26213,"lon":5.37436,"is_reserved":false,"is_disabled":false,"rental_uris":{"android":"levelo://app?vid=900573f6-c63d-408e-b858-11a6ab5a1d2c","ios":"levelo://app?vid=900573f6-c63d-408e-b858-11a6ab5a1d2c"},"vehicle_type_id":"4","last_reported":1756300856,"current_range_meters":12000,"station_id":"ce4bhgp2rcd13ifvqfc0","pricing_plan_id":"cebpf4jnsgd1na2vs0mg"},{"bike_id":"64c06664-1c5d-4f3e-9408-ac6396da34e2","system_id":"levelo_inurba_marseille","lat":43.26196,"lon":5.37461,"is_reserved":false,"is_disabled":false,"rental_uris":{"android":"levelo://app?vid=64c06664-1c5d-4f3e-9408-ac6396da34e2","ios":"levelo://app?vid=64c06664-1c5d-4f3e-9408-ac6396da34e2"},"vehicle_type_id":"4","last_reported":1756300856,"current_range_meters":12400,"station_id":"ce4bhgp2rcd13ifvqfc0","pricing_plan_id":"cebpf4jnsgd1na2vs0mg"},{"bike_id":"0170726d-5c09-4b4f-965d-d2ee4b9a9090","system_id":"levelo_inurba_marseille","lat":43.2721,"lon":5.39191,"is_reserved":false,"is_disabled":false,"rental_uris":{"android":"levelo://app?vid=0170726d-5c09-4b4f-965d-d2ee4b9a9090","ios":"levelo://app?vid=0170726d-5c09-4b4f-965d-d2ee4b9a9090"},"vehicle_type_id":"4","last_reported":1756300856,"current_range_meters":12400,"station_id":"ce4bhhp2rcd13ifvqfm0","pricing_plan_id":"cebpf4jnsgd1na2vs0mg"},{"bike_id":"b79f626f-4cce-45e0-9b7e-79f3f3a6033f","system_id":"levelo_inurba_marseille","lat":43.246151,"lon":5.431521,"is_reserved":false,"is_disabled":false,"rental_uris":{"android":"levelo://app?vid=b79f626f-4cce-45e0-9b7e-79f3f3a6033f","ios":"levelo://app?vid=b79f626f-4cce-45e0-9b7e-79f3f3a6033f"},"vehicle_type_id":"4","last_reported":1756300856,"current_range_meters":12400,"station_id":"st_d2m6c4gdas8pm72e190g","pricing_plan_id":"cebpf4jnsgd1na2vs0mg"},{"bike_id":"4aa04cf0-c98a-4b86-9c20-0afc960e7cd0","system_id":"levelo_inurba_marseille","lat":43.26207,"lon":5.37446,"is_reserved":false,"is_disabled":false,"rental_uris":{"android":"levelo://app?vid=4aa04cf0-c98a-4b86-9c20-0afc960e7cd0","ios":"levelo://app?vid=4aa04cf0-c98a-4b86-9c20-0afc960e7cd0"},"vehicle_type_id":"4","last_reported":1756300856,"current_range_meters":12400,"station_id":"ce4bhgp2rcd13ifvqfc0","pricing_plan_id":"cebpf4jnsgd1na2vs0mg"},{"bike_id":"8c710130-20a4-404c-8681-41398fb72893","system_id":"levelo_inurba_marseille","lat":43.26684,"lon":5.38263,"is_reserved":false,"is_disabled":false,"rental_uris":{"android":"levelo://app?vid=8c710130-20a4-404c-8681-41398fb72893","ios":"levelo://app?vid=8c710130-20a4-404c-8681-41398fb72893"},"vehicle_type_id":"4","last_reported":1756300856,"current_range_meters":12400,"station_id":"ce4bhg92rcd13ifvqf90","pricing_plan_id":"cebpf4jnsgd1na2vs0mg"},{"bike_id":"c6e9da1f-a55c-4b8a-bca4-e49dcab0b341","system_id":"levelo_inurba_marseille","lat":43.24389,"lon":5.37065,"is_reserved":false,"is_disabled":false,"rental_uris":{"android":"levelo://app?vid=c6e9da1f-a55c-4b8a-bca4-e49dcab0b341","ios":"levelo://app?vid=c6e9da1f-a55c-4b8a-bca4-e49dcab0b341"},"vehicle_type_id":"4","last_reported":1756300856,"current_range_meters":12400,"station_id":"ce4bhhh2rcd13ifvqfk0","pricing_plan_id":"cebpf4jnsgd1na2vs0mg"},{"bike_id":"88619cb8-a8e3-4092-9831-b559a3328496","system_id":"levelo_inurba_marseille","lat":43.279717,"lon":5.387353,"is_reserved":false,"is_disabled":false,"rental_uris":{"android":"levelo://app?vid=88619cb8-a8e3-4092-9831-b559a3328496","ios":"levelo://app?vid=88619cb8-a8e3-4092-9831-b559a3328496"},"vehicle_type_id":"4","last_reported":1756300856,"current_range_meters":12800,"station_id":"ce4bhg12rcd13ifvqf80","pricing_plan_id":"cebpf4jnsgd1na2vs0mg"},{"bike_id":"902da873-3945-4023-9231-261a13c62aaf","system_id":"levelo_inurba_marseille","lat":43.301312,"lon":5.398729,"is_reserved":false,"is_disabled":false,"rental_uris":{"android":"levelo://app?vid=902da873-3945-4023-9231-261a13c62aaf","ios":"levelo://app?vid=902da873-3945-4023-9231-261a13c62aaf"},"vehicle_type_id":"4","last_reported":1756300856,"current_range_meters":13600,"station_id":"ce4bh0h2rcd13ifvqd40","pricing_plan_id":"cebpf4jnsgd1na2vs0mg"},{"bike_id":"e5eabf25-4e1c-476e-b130-9f83cdcfc80c","system_id":"levelo_inurba_marseille","lat":43.298,"lon":5.41709,"is_reserved":false,"is_disabled":false,"rental_uris":{"android":"levelo://app?vid=e5eabf25-4e1c-476e-b130-9f83cdcfc80c","ios":"levelo://app?vid=e5eabf25-4e1c-476e-b130-9f83cdcfc80c"},"vehicle_type_id":"4","last_reported":1756300856,"current_range_meters":13600,"station_id":"","pricing_plan_id":"cebpf4jnsgd1na2vs0mg"},{"bike_id":"3448e159-471f-45cf-b0bc-dcb672574311","system_id":"levelo_inurba_marseille","lat":43.26195,"lon":5.37456,"is_reserved":false,"is_disabled":true,"rental_uris":{"android":"levelo://app?vid=3448e159-471f-45cf-b0bc-dcb672574311","ios":"levelo://app?vid=3448e159-471f-45cf-b0bc-dcb672574311"},"vehicle_type_id":"4","last_reported":1756300856,"current_range_meters":13600,"station_id":"ce4bhgp2rcd13ifvqfc0","pricing_plan_id":"cebpf4jnsgd1na2vs0mg"},{"bike_id":"9f3e3411-7f57-4b0b-8d34-5b95cd2d42a5","system_id":"levelo_inurba_marseille","lat":43.3149,"lon":5.37316,"is_reserved":false,"is_disabled":false,"rental_uris":{"android":"levelo://app?vid=9f3e3411-7f57-4b0b-8d34-5b95cd2d42a5","ios":"levelo://app?vid=9f3e3411-7f57-4b0b-8d34-5b95cd2d42a5"},"vehicle_type_id":"4","last_reported":1756300856,"current_range_meters":13600,"station_id":"ce4bgt12rcd13ifvqcd0","pricing_plan_id":"cebpf4jnsgd1na2vs0mg"},{"bike_id":"dcdec33f-cc37-43c5-ac1c-ef95be66d9a7","system_id":"levelo_inurba_marseille","lat":43.31694,"lon":5.40478,"is_reserved":false,"is_disabled":false,"rental_uris":{"android":"levelo://app?vid=dcdec33f-cc37-43c5-ac1c-ef95be66d9a7","ios":"levelo://app?vid=dcdec33f-cc37-43c5-ac1c-ef95be66d9a7"},"vehicle_type_id":"4","last_reported":1756300856,"current_range_meters":13600,"station_id":"ce4bh012rcd13ifvqd00","pricing_plan_id":"cebpf4jnsgd1na2vs0mg"},{"bike_id":"b5ae0016-67e1-4c37-91cb-4d986fbc09a4","system_id":"levelo_inurba_marseille","lat":43.24627,"lon":5.43147,"is_reserved":false,"is_disabled":false,"rental_uris":{"android":"levelo://app?vid=b5ae0016-67e1-4c37-91cb-4d986fbc09a4","ios":"levelo://app?vid=b5ae0016-67e1-4c37-91cb-4d986fbc09a4"},"vehicle_type_id":"4","last_reported":1756300856,"current_range_meters":14000,"station_id":"st_d2m6c4gdas8pm72e190g","pricing_plan_id":"cebpf4jnsgd1na2vs0mg"},{"bike_id":"d9d572f7-d811-4b4d-9ec5-cb85e6210f42","system_id":"levelo_inurba_marseille","lat":43.32121,"lon":5.36763,"is_reserved":false,"is_disabled":false,"rental_uris":{"android":"levelo://app?vid=d9d572f7-d811-4b4d-9ec5-cb85e6210f42","ios":"levelo://app?vid=d9d572f7-d811-4b4d-9ec5-cb85e6210f42"},"vehicle_type_id":"4","last_reported":1756300856,"current_range_meters":14000,"station_id":"ce4bhrh2rcd13ifvqhug","pricing_plan_id":"cebpf4jnsgd1na2vs0mg"},{"bike_id":"5e9b0e69-77f5-45a7-ab32-3c9d6e030a97","system_id":"levelo_inurba_marseille","lat":43.23193,"lon":5.3556,"is_reserved":false,"is_disabled":false,"rental_uris":{"android":"levelo://app?vid=5e9b0e69-77f5-45a7-ab32-3c9d6e030a97","ios":"levelo://app?vid=5e9b0e69-77f5-45a7-ab32-3c9d6e030a97"},"vehicle_type_id":"4","last_reported":1756300856,"current_range_meters":14000,"station_id":"ce4bhu92rcd13ifvqi70","pricing_plan_id":"cebpf4jnsgd1na2vs0mg"},{"bike_id":"deea2183-4297-45dc-b252-5e5dabf475d9","system_id":"levelo_inurba_marseille","lat":43.26194,"lon":5.37448,"is_reserved":false,"is_disabled":false,"rental_uris":{"android":"levelo://app?vid=deea2183-4297-45dc-b252-5e5dabf475d9","ios":"levelo://app?vid=deea2183-4297-45dc-b252-5e5dabf475d9"},"vehicle_type_id":"4","last_reported":1756300856,"current_range_meters":14400,"station_id":"ce4bhgp2rcd13ifvqfc0","pricing_plan_id":"cebpf4jnsgd1na2vs0mg"},{"bike_id":"1dec5f96-d953-4203-b13d-0ce3f02e61a0","system_id":"levelo_inurba_marseille","lat":43.27093,"lon":5.42271,"is_reserved":false,"is_disabled":false,"rental_uris":{"android":"levelo://app?vid=1dec5f96-d953-4203-b13d-0ce3f02e61a0","ios":"levelo://app?vid=1dec5f96-d953-4203-b13d-0ce3f02e61a0"},"vehicle_type_id":"4","last_reported":1756300856,"current_range_meters":14400,"station_id":"ce4bhk92rcd13ifvqgb0","pricing_plan_id":"cebpf4jnsgd1na2vs0mg"},{"bike_id":"3ce18fbc-ec38-4f9e-9dd9-9a3dee5c503d","system_id":"levelo_inurba_marseille","lat":43.26034,"lon":5.37554,"is_reserved":false,"is_disabled":true,"rental_uris":{"android":"levelo://app?vid=3ce18fbc-ec38-4f9e-9dd9-9a3dee5c503d","ios":"levelo://app?vid=3ce18fbc-ec38-4f9e-9dd9-9a3dee5c503d"},"vehicle_type_id":"4","last_reported":1756300856,"current_range_meters":14400,"station_id":"ce4bhgh2rcd13ifvqfa0","pricing_plan_id":"cebpf4jnsgd1na2vs0mg"},{"bike_id":"3dff11d5-3872-4ffe-8cce-b5631d6c6058","system_id":"levelo_inurba_marseille","lat":43.33033,"lon":5.39035,"is_reserved":false,"is_disabled":false,"rental_uris":{"android":"levelo://app?vid=3dff11d5-3872-4ffe-8cce-b5631d6c6058","ios":"levelo://app?vid=3dff11d5-3872-4ffe-8cce-b5631d6c6058"},"vehicle_type_id":"4","last_reported":1756300856,"current_range_meters":14400,"station_id":"ce4bhr92rcd13ifvqhrg","pricing_plan_id":"cebpf4jnsgd1na2vs0mg"},{"bike_id":"52cc0835-0024-4065-8b8a-9f4448a426dc","system_id":"levelo_inurba_marseille","lat":43.217516,"lon":5.346,"is_reserved":false,"is_disabled":false,"rental_uris":{"android":"levelo://app?vid=52cc0835-0024-4065-8b8a-9f4448a426dc","ios":"levelo://app?vid=52cc0835-0024-4065-8b8a-9f4448a426dc"},"vehicle_type_id":"4","last_reported":1756300856,"current_range_meters":14400,"station_id":"st_cvj6r9ubvosntc0bgbag","pricing_plan_id":"cebpf4jnsgd1na2vs0mg"},{"bike_id":"685105d1-bcda-4899-9d64-d94adf158a64","system_id":"levelo_inurba_marseille","lat":43.314676,"lon":5.373608,"is_reserved":false,"is_disabled":true,"rental_uris":{"android":"levelo://app?vid=685105d1-bcda-4899-9d64-d94adf158a64","ios":"levelo://app?vid=685105d1-bcda-4899-9d64-d94adf158a64"},"vehicle_type_id":"4","last_reported":1756300856,"current_range_meters":14800,"station_id":"","pricing_plan_id":"cebpf4jnsgd1na2vs0mg"},{"bike_id":"fd571024-89d5-49c5-b42f-02452ef2553a","system_id":"levelo_inurba_marseille","lat":43.2757,"lon":5.38431,"is_reserved":false,"is_disabled":false,"rental_uris":{"android":"levelo://app?vid=fd571024-89d5-49c5-b42f-02452ef2553a","ios":"levelo://app?vid=fd571024-89d5-49c5-b42f-02452ef2553a"},"vehicle_type_id":"4","last_reported":1756300856,"current_range_meters":14800,"station_id":"ce4bhh92rcd13ifvqfi0","pricing_plan_id":"cebpf4jnsgd1na2vs0mg"},{"bike_id":"289d577a-cef8-40ea-a18b-c2fef868e0ba","system_id":"levelo_inurba_marseille","lat":43.28414,"lon":5.35,"is_reserved":false,"is_disabled":false,"rental_uris":{"android":"levelo://app?vid=289d577a-cef8-40ea-a18b-c2fef868e0ba","ios":"levelo://app?vid=289d577a-cef8-40ea-a18b-c2fef868e0ba"},"vehicle_type_id":"4","last_reported":1756300856,"current_range_meters":14800,"station_id":"ce4bhbh2rcd13ifvqepg","pricing_plan_id":"cebpf4jnsgd1na2vs0mg"},{"bike_id":"879c6322-73eb-445f-b18c-e8a9307f2e39","system_id":"levelo_inurba_marseille","lat":43.29258,"lon":5.37621,"is_reserved":false,"is_disabled":false,"rental_uris":{"android":"levelo://app?vid=879c6322-73eb-445f-b18c-e8a9307f2e39","ios":"levelo://app?vid=879c6322-73eb-445f-b18c-e8a9307f2e39"},"vehicle_type_id":"4","last_reported":1756300856,"current_range_meters":14800,"station_id":"ce4bgi12rcd13ifvqb80","pricing_plan_id":"cebpf4jnsgd1na2vs0mg"},{"bike_id":"ae8385ca-a519-49d3-8713-f7749251572a","system_id":"levelo_inurba_marseille","lat":43.29047,"lon":5.35917,"is_reserved":false,"is_disabled":false,"rental_uris":{"android":"levelo://app?vid=ae8385ca-a519-49d3-8713-f7749251572a","ios":"levelo://app?vid=ae8385ca-a519-49d3-8713-f7749251572a"},"vehicle_type_id":"4","last_reported":1756300856,"current_range_meters":14800,"station_id":"ce4bha92rcd13ifvqeg0","pricing_plan_id":"cebpf4jnsgd1na2vs0mg"},{"bike_id":"70725e45-1278-4337-bab4-392de6291b76","system_id":"levelo_inurba_marseille","lat":43.2782,"lon":5.407097,"is_reserved":false,"is_disabled":false,"rental_uris":{"android":"levelo://app?vid=70725e45-1278-4337-bab4-392de6291b76","ios":"levelo://app?vid=70725e45-1278-4337-bab4-392de6291b76"},"vehicle_type_id":"4","last_reported":1756300856,"current_range_meters":14800,"station_id":"ce4bhnh2rcd13ifvqgtg","pricing_plan_id":"cebpf4jnsgd1na2vs0mg"},{"bike_id":"30b13a2f-7373-482c-863e-8040d30dece6","system_id":"levelo_inurba_marseille","lat":43.26197,"lon":5.37457,"is_reserved":false,"is_disabled":false,"rental_uris":{"android":"levelo://app?vid=30b13a2f-7373-482c-863e-8040d30dece6","ios":"levelo://app?vid=30b13a2f-7373-482c-863e-8040d30dece6"},"vehicle_type_id":"4","last_reported":1756300856,"current_range_meters":14800,"station_id":"ce4bhgp2rcd13ifvqfc0","pricing_plan_id":"cebpf4jnsgd1na2vs0mg"},{"bike_id":"851053e8-d3be-4f09-af43-d2598eb82f5e","system_id":"levelo_inurba_marseille","lat":43.2656,"lon":5.37285,"is_reserved":false,"is_disabled":false,"rental_uris":{"android":"levelo://app?vid=851053e8-d3be-4f09-af43-d2598eb82f5e","ios":"levelo://app?vid=851053e8-d3be-4f09-af43-d2598eb82f5e"},"vehicle_type_id":"4","last_reported":1756300856,"current_range_meters":14800,"station_id":"ce4bhg12rcd13ifvqf70","pricing_plan_id":"cebpf4jnsgd1na2vs0mg"},{"bike_id":"5984ccfb-3024-408e-8b54-c7399ac73c75","system_id":"levelo_inurba_marseille","lat":43.24168,"lon":5.36396,"is_reserved":false,"is_disabled":false,"rental_uris":{"android":"levelo://app?vid=5984ccfb-3024-408e-8b54-c7399ac73c75","ios":"levelo://app?vid=5984ccfb-3024-408e-8b54-c7399ac73c75"},"vehicle_type_id":"4","last_reported":1756300856,"current_range_meters":15200,"station_id":"cpo36qri1sfpv3e86is0","pricing_plan_id":"cebpf4jnsgd1na2vs0mg"},{"bike_id":"db526668-1205-422f-99f2-dc09210cda94","system_id":"levelo_inurba_marseille","lat":43.29275,"lon":5.36813,"is_reserved":false,"is_disabled":false,"rental_uris":{"android":"levelo://app?vid=db526668-1205-422f-99f2-dc09210cda94","ios":"levelo://app?vid=db526668-1205-422f-99f2-dc09210cda94"},"vehicle_type_id":"4","last_reported":1756300856,"current_range_meters":15200,"station_id":"ce4bhbp2rcd13ifvqesg","pricing_plan_id":"cebpf4jnsgd1na2vs0mg"},{"bike_id":"f67c8e5e-7af8-4847-a4ce-1e12088b4291","system_id":"levelo_inurba_marseille","lat":43.33026,"lon":5.39247,"is_reserved":false,"is_disabled":false,"rental_uris":{"android":"levelo://app?vid=f67c8e5e-7af8-4847-a4ce-1e12088b4291","ios":"levelo://app?vid=f67c8e5e-7af8-4847-a4ce-1e12088b4291"},"vehicle_type_id":"4","last_reported":1756300856,"current_range_meters":15200,"station_id":"","pricing_plan_id":"cebpf4jnsgd1na2vs0mg"},{"bike_id":"b7ee4414-f1f6-4748-b2c7-6f690de92d81","system_id":"levelo_inurba_marseille","lat":43.21191,"lon":5.35078,"is_reserved":false,"is_disabled":false,"rental_uris":{"android":"levelo://app?vid=b7ee4414-f1f6-4748-b2c7-6f690de92d81","ios":"levelo://app?vid=b7ee4414-f1f6-4748-b2c7-6f690de92d81"},"vehicle_type_id":"4","last_reported":1756300856,"current_range_meters":15200,"station_id":"st_cvj6sg6p6f1abm77japg","pricing_plan_id":"cebpf4jnsgd1na2vs0mg"},{"bike_id":"2e55c538-508e-4fef-8f5f-62b4ad8b5b85","system_id":"levelo_inurba_marseille","lat":43.21755,"lon":5.34627,"is_reserved":false,"is_disabled":false,"rental_uris":{"android":"levelo://app?vid=2e55c538-508e-4fef-8f5f-62b4ad8b5b85","ios":"levelo://app?vid=2e55c538-508e-4fef-8f5f-62b4ad8b5b85"},"vehicle_type_id":"4","last_reported":1756300856,"current_range_meters":15200,"station_id":"st_cvj6r9ubvosntc0bgbag","pricing_plan_id":"cebpf4jnsgd1na2vs0mg"},{"bike_id":"5c26a54e-1e97-4ad3-a16d-614ad930b130","system_id":"levelo_inurba_marseille","lat":43.321073,"lon":5.367789,"is_reserved":false,"is_disabled":false,"rental_uris":{"android":"levelo://app?vid=5c26a54e-1e97-4ad3-a16d-614ad930b130","ios":"levelo://app?vid=5c26a54e-1e97-4ad3-a16d-614ad930b130"},"vehicle_type_id":"4","last_reported":1756300856,"current_range_meters":16000,"station_id":"ce4bhrh2rcd13ifvqhug","pricing_plan_id":"cebpf4jnsgd1na2vs0mg"},{"bike_id":"182848e1-c128-499b-944e-cad0c910e9fb","system_id":"levelo_inurba_marseille","lat":43.21192,"lon":5.35066,"is_reserved":false,"is_disabled":false,"rental_uris":{"android":"levelo://app?vid=182848e1-c128-499b-944e-cad0c910e9fb","ios":"levelo://app?vid=182848e1-c128-499b-944e-cad0c910e9fb"},"vehicle_type_id":"4","last_reported":1756300856,"current_range_meters":16000,"station_id":"st_cvj6sg6p6f1abm77japg","pricing_plan_id":"cebpf4jnsgd1na2vs0mg"},{"bike_id":"cc9d5b3c-23b0-48ad-ac6f-c04c6a53ee7e","system_id":"levelo_inurba_marseille","lat":43.27943,"lon":5.41049,"is_reserved":false,"is_disabled":false,"rental_uris":{"android":"levelo://app?vid=cc9d5b3c-23b0-48ad-ac6f-c04c6a53ee7e","ios":"levelo://app?vid=cc9d5b3c-23b0-48ad-ac6f-c04c6a53ee7e"},"vehicle_type_id":"4","last_reported":1756300856,"current_range_meters":16000,"station_id":"ce4bhnp2rcd13ifvqh0g","pricing_plan_id":"cebpf4jnsgd1na2vs0mg"},{"bike_id":"96207dea-7bbf-4883-ab9a-820d9c447ab3","system_id":"levelo_inurba_marseille","lat":43.28447,"lon":5.3499,"is_reserved":false,"is_disabled":false,"rental_uris":{"android":"levelo://app?vid=96207dea-7bbf-4883-ab9a-820d9c447ab3","ios":"levelo://app?vid=96207dea-7bbf-4883-ab9a-820d9c447ab3"},"vehicle_type_id":"4","last_reported":1756300856,"current_range_meters":16000,"station_id":"ce4bhbh2rcd13ifvqepg","pricing_plan_id":"cebpf4jnsgd1na2vs0mg"},{"bike_id":"4614306e-9b38-480e-a6a3-d85295c3f1ff","system_id":"levelo_inurba_marseille","lat":43.23967,"lon":5.36623,"is_reserved":false,"is_disabled":false,"rental_uris":{"android":"levelo://app?vid=4614306e-9b38-480e-a6a3-d85295c3f1ff","ios":"levelo://app?vid=4614306e-9b38-480e-a6a3-d85295c3f1ff"},"vehicle_type_id":"4","last_reported":1756300856,"current_range_meters":16000,"station_id":"ce4bhi12rcd13ifvqfp0","pricing_plan_id":"cebpf4jnsgd1na2vs0mg"},{"bike_id":"0c814877-7b51-4575-a655-22fd4b3ac358","system_id":"levelo_inurba_marseille","lat":43.30933,"lon":5.40145,"is_reserved":false,"is_disabled":false,"rental_uris":{"android":"levelo://app?vid=0c814877-7b51-4575-a655-22fd4b3ac358","ios":"levelo://app?vid=0c814877-7b51-4575-a655-22fd4b3ac358"},"vehicle_type_id":"4","last_reported":1756300856,"current_range_meters":16000,"station_id":"ce4bgvp2rcd13ifvqct0","pricing_plan_id":"cebpf4jnsgd1na2vs0mg"},{"bike_id":"2df6ec39-c877-4e21-a359-9f6c7165ec97","system_id":"levelo_inurba_marseille","lat":43.29537,"lon":5.38535,"is_reserved":false,"is_disabled":false,"rental_uris":{"android":"levelo://app?vid=2df6ec39-c877-4e21-a359-9f6c7165ec97","ios":"levelo://app?vid=2df6ec39-c877-4e21-a359-9f6c7165ec97"},"vehicle_type_id":"4","last_reported":1756300856,"current_range_meters":16000,"station_id":"ce4bgih2rcd13ifvqba0","pricing_plan_id":"cebpf4jnsgd1na2vs0mg"},{"bike_id":"814645c9-7af5-4408-879c-1836489b0342","system_id":"levelo_inurba_marseille","lat":43.26555,"lon":5.37278,"is_reserved":false,"is_disabled":false,"rental_uris":{"android":"levelo://app?vid=814645c9-7af5-4408-879c-1836489b0342","ios":"levelo://app?vid=814645c9-7af5-4408-879c-1836489b0342"},"vehicle_type_id":"4","last_reported":1756300856,"current_range_meters":16000,"station_id":"ce4bhg12rcd13ifvqf70","pricing_plan_id":"cebpf4jnsgd1na2vs0mg"},{"bike_id":"dd7083cc-5aa5-45e8-aa01-f809713272d1","system_id":"levelo_inurba_marseille","lat":43.21188,"lon":5.35075,"is_reserved":false,"is_disabled":false,"rental_uris":{"android":"levelo://app?vid=dd7083cc-5aa5-45e8-aa01-f809713272d1","ios":"levelo://app?vid=dd7083cc-5aa5-45e8-aa01-f809713272d1"},"vehicle_type_id":"4","last_reported":1756300856,"current_range_meters":16000,"station_id":"st_cvj6sg6p6f1abm77japg","pricing_plan_id":"cebpf4jnsgd1na2vs0mg"},{"bike_id":"3e8aa453-2604-4123-85f7-915062da8e13","system_id":"levelo_inurba_marseille","lat":43.27968,"lon":5.38714,"is_reserved":false,"is_disabled":false,"rental_uris":{"android":"levelo://app?vid=3e8aa453-2604-4123-85f7-915062da8e13","ios":"levelo://app?vid=3e8aa453-2604-4123-85f7-915062da8e13"},"vehicle_type_id":"4","last_reported":1756300856,"current_range_meters":16400,"station_id":"ce4bhg12rcd13ifvqf80","pricing_plan_id":"cebpf4jnsgd1na2vs0mg"},{"bike_id":"5ccf7b1d-6ecc-44d6-b649-a78373ac5a2b","system_id":"levelo_inurba_marseille","lat":43.28625,"lon":5.35097,"is_reserved":false,"is_disabled":false,"rental_uris":{"android":"levelo://app?vid=5ccf7b1d-6ecc-44d6-b649-a78373ac5a2b","ios":"levelo://app?vid=5ccf7b1d-6ecc-44d6-b649-a78373ac5a2b"},"vehicle_type_id":"4","last_reported":1756300856,"current_range_meters":16400,"station_id":"ce4bhch2rcd13ifvqeug","pricing_plan_id":"cebpf4jnsgd1na2vs0mg"},{"bike_id":"c409c94b-337e-4a5a-85de-964e2f894da3","system_id":"levelo_inurba_marseille","lat":43.25822,"lon":5.39435,"is_reserved":false,"is_disabled":false,"rental_uris":{"android":"levelo://app?vid=c409c94b-337e-4a5a-85de-964e2f894da3","ios":"levelo://app?vid=c409c94b-337e-4a5a-85de-964e2f894da3"},"vehicle_type_id":"4","last_reported":1756300856,"current_range_meters":16400,"station_id":"ce4bhip2rcd13ifvqft0","pricing_plan_id":"cebpf4jnsgd1na2vs0mg"},{"bike_id":"ffd21136-ae47-45ee-8fc5-e7f85ea84802","system_id":"levelo_inurba_marseille","lat":43.29821,"lon":5.38252,"is_reserved":false,"is_disabled":false,"rental_uris":{"android":"levelo://app?vid=ffd21136-ae47-45ee-8fc5-e7f85ea84802","ios":"levelo://app?vid=ffd21136-ae47-45ee-8fc5-e7f85ea84802"},"vehicle_type_id":"4","last_reported":1756300856,"current_range_meters":16400,"station_id":"","pricing_plan_id":"cebpf4jnsgd1na2vs0mg"},{"bike_id":"273037f0-33ec-41f6-8203-5f65c5d222ff","system_id":"levelo_inurba_marseille","lat":43.29271,"lon":5.36843,"is_reserved":false,"is_disabled":false,"rental_uris":{"android":"levelo://app?vid=273037f0-33ec-41f6-8203-5f65c5d222ff","ios":"levelo://app?vid=273037f0-33ec-41f6-8203-5f65c5d222ff"},"vehicle_type_id":"4","last_reported":1756300856,"current_range_meters":16400,"station_id":"ce4bhbp2rcd13ifvqesg","pricing_plan_id":"cebpf4jnsgd1na2vs0mg"},{"bike_id":"33db383b-5b27-4ee3-b77f-51489812521c","system_id":"levelo_inurba_marseille","lat":43.30521,"lon":5.36675,"is_reserved":false,"is_disabled":false,"rental_uris":{"android":"levelo://app?vid=33db383b-5b27-4ee3-b77f-51489812521c","ios":"levelo://app?vid=33db383b-5b27-4ee3-b77f-51489812521c"},"vehicle_type_id":"4","last_reported":1756300856,"current_range_meters":16400,"station_id":"","pricing_plan_id":"cebpf4jnsgd1na2vs0mg"},{"bike_id":"c561b3be-23f4-46ed-8d38-1fc2450f503d","system_id":"levelo_inurba_marseille","lat":43.236537,"lon":5.362166,"is_reserved":false,"is_disabled":false,"rental_uris":{"android":"levelo://app?vid=c561b3be-23f4-46ed-8d38-1fc2450f503d","ios":"levelo://app?vid=c561b3be-23f4-46ed-8d38-1fc2450f503d"},"vehicle_type_id":"4","last_reported":1756300856,"current_range_meters":16400,"station_id":"","pricing_plan_id":"cebpf4jnsgd1na2vs0mg"},{"bike_id":"d810acf0-5bd2-4bf1-848d-31cd30d105e6","system_id":"levelo_inurba_marseille","lat":43.269831,"lon":5.392782,"is_reserved":false,"is_disabled":false,"rental_uris":{"android":"levelo://app?vid=d810acf0-5bd2-4bf1-848d-31cd30d105e6","ios":"levelo://app?vid=d810acf0-5bd2-4bf1-848d-31cd30d105e6"},"vehicle_type_id":"4","last_reported":1756300856,"current_range_meters":16800,"station_id":"","pricing_plan_id":"cebpf4jnsgd1na2vs0mg"},{"bike_id":"5dd83fad-2449-4d56-be74-c8599abb9a5e","system_id":"levelo_inurba_marseille","lat":43.26217,"lon":5.37446,"is_reserved":false,"is_disabled":false,"rental_uris":{"android":"levelo://app?vid=5dd83fad-2449-4d56-be74-c8599abb9a5e","ios":"levelo://app?vid=5dd83fad-2449-4d56-be74-c8599abb9a5e"},"vehicle_type_id":"4","last_reported":1756300856,"current_range_meters":16800,"station_id":"ce4bhgp2rcd13ifvqfc0","pricing_plan_id":"cebpf4jnsgd1na2vs0mg"},{"bike_id":"19b31aa5-e088-4984-a636-05dfc317a7e0","system_id":"levelo_inurba_marseille","lat":43.273733,"lon":5.362664,"is_reserved":false,"is_disabled":false,"rental_uris":{"android":"levelo://app?vid=19b31aa5-e088-4984-a636-05dfc317a7e0","ios":"levelo://app?vid=19b31aa5-e088-4984-a636-05dfc317a7e0"},"vehicle_type_id":"4","last_reported":1756300856,"current_range_meters":16800,"station_id":"ce4bhbh2rcd13ifvqeo0","pricing_plan_id":"cebpf4jnsgd1na2vs0mg"},{"bike_id":"bf73e424-4cd4-4fbb-83b5-6f8dcecca412","system_id":"levelo_inurba_marseille","lat":43.33025,"lon":5.39043,"is_reserved":false,"is_disabled":false,"rental_uris":{"android":"levelo://app?vid=bf73e424-4cd4-4fbb-83b5-6f8dcecca412","ios":"levelo://app?vid=bf73e424-4cd4-4fbb-83b5-6f8dcecca412"},"vehicle_type_id":"4","last_reported":1756300856,"current_range_meters":16400,"station_id":"ce4bhr92rcd13ifvqhrg","pricing_plan_id":"cebpf4jnsgd1na2vs0mg"},{"bike_id":"4e9e705b-7667-42c6-adf5-4a09a858987f","system_id":"levelo_inurba_marseille","lat":43.21187,"lon":5.35076,"is_reserved":false,"is_disabled":false,"rental_uris":{"android":"levelo://app?vid=4e9e705b-7667-42c6-adf5-4a09a858987f","ios":"levelo://app?vid=4e9e705b-7667-42c6-adf5-4a09a858987f"},"vehicle_type_id":"4","last_reported":1756300856,"current_range_meters":16800,"station_id":"st_cvj6sg6p6f1abm77japg","pricing_plan_id":"cebpf4jnsgd1na2vs0mg"},{"bike_id":"94c44f36-d45b-48d8-9eb0-02cde482dcfd","system_id":"levelo_inurba_marseille","lat":43.26025,"lon":5.37543,"is_reserved":false,"is_disabled":false,"rental_uris":{"android":"levelo://app?vid=94c44f36-d45b-48d8-9eb0-02cde482dcfd","ios":"levelo://app?vid=94c44f36-d45b-48d8-9eb0-02cde482dcfd"},"vehicle_type_id":"4","last_reported":1756300856,"current_range_meters":16800,"station_id":"ce4bhgh2rcd13ifvqfa0","pricing_plan_id":"cebpf4jnsgd1na2vs0mg"},{"bike_id":"f1dc74ce-4f4a-4851-9ba9-15138160c706","system_id":"levelo_inurba_marseille","lat":43.31175,"lon":5.38714,"is_reserved":false,"is_disabled":false,"rental_uris":{"android":"levelo://app?vid=f1dc74ce-4f4a-4851-9ba9-15138160c706","ios":"levelo://app?vid=f1dc74ce-4f4a-4851-9ba9-15138160c706"},"vehicle_type_id":"4","last_reported":1756300856,"current_range_meters":16800,"station_id":"ce4bgv12rcd13ifvqcp0","pricing_plan_id":"cebpf4jnsgd1na2vs0mg"},{"bike_id":"77764e47-34f0-4cb6-898a-460959e665cb","system_id":"levelo_inurba_marseille","lat":43.24665,"lon":5.38164,"is_reserved":false,"is_disabled":false,"rental_uris":{"android":"levelo://app?vid=77764e47-34f0-4cb6-898a-460959e665cb","ios":"levelo://app?vid=77764e47-34f0-4cb6-898a-460959e665cb"},"vehicle_type_id":"4","last_reported":1756300856,"current_range_meters":16400,"station_id":"ce4bhih2rcd13ifvqfr0","pricing_plan_id":"cebpf4jnsgd1na2vs0mg"},{"bike_id":"8f11f16e-1ed8-4cf9-ae9f-02a2c8371c35","system_id":"levelo_inurba_marseille","lat":43.29533,"lon":5.38549,"is_reserved":false,"is_disabled":false,"rental_uris":{"android":"levelo://app?vid=8f11f16e-1ed8-4cf9-ae9f-02a2c8371c35","ios":"levelo://app?vid=8f11f16e-1ed8-4cf9-ae9f-02a2c8371c35"},"vehicle_type_id":"4","last_reported":1756300856,"current_range_meters":17200,"station_id":"ce4bgih2rcd13ifvqba0","pricing_plan_id":"cebpf4jnsgd1na2vs0mg"},{"bike_id":"e6c593a6-25b4-4483-b874-06f613c8942f","system_id":"levelo_inurba_marseille","lat":43.2174,"lon":5.34607,"is_reserved":false,"is_disabled":false,"rental_uris":{"android":"levelo://app?vid=e6c593a6-25b4-4483-b874-06f613c8942f","ios":"levelo://app?vid=e6c593a6-25b4-4483-b874-06f613c8942f"},"vehicle_type_id":"4","last_reported":1756300856,"current_range_meters":17200,"station_id":"st_cvj6r9ubvosntc0bgbag","pricing_plan_id":"cebpf4jnsgd1na2vs0mg"},{"bike_id":"988a3a4a-cfe5-420c-ab04-11b5c843cfc8","system_id":"levelo_inurba_marseille","lat":43.28268,"lon":5.35066,"is_reserved":false,"is_disabled":false,"rental_uris":{"android":"levelo://app?vid=988a3a4a-cfe5-420c-ab04-11b5c843cfc8","ios":"levelo://app?vid=988a3a4a-cfe5-420c-ab04-11b5c843cfc8"},"vehicle_type_id":"4","last_reported":1756300856,"current_range_meters":17200,"station_id":"ce4bhbp2rcd13ifvqerg","pricing_plan_id":"cebpf4jnsgd1na2vs0mg"},{"bike_id":"7558b440-1ee7-4da9-91a4-b58bd6acd925","system_id":"levelo_inurba_marseille","lat":43.2455,"lon":5.39521,"is_reserved":false,"is_disabled":false,"rental_uris":{"android":"levelo://app?vid=7558b440-1ee7-4da9-91a4-b58bd6acd925","ios":"levelo://app?vid=7558b440-1ee7-4da9-91a4-b58bd6acd925"},"vehicle_type_id":"4","last_reported":1756300856,"current_range_meters":17200,"station_id":"ce4bhlp2rcd13ifvqgjg","pricing_plan_id":"cebpf4jnsgd1na2vs0mg"},{"bike_id":"394fd99f-4cfd-47b1-b29f-c8025ff12410","system_id":"levelo_inurba_marseille","lat":43.27991,"lon":5.40019,"is_reserved":false,"is_disabled":false,"rental_uris":{"android":"levelo://app?vid=394fd99f-4cfd-47b1-b29f-c8025ff12410","ios":"levelo://app?vid=394fd99f-4cfd-47b1-b29f-c8025ff12410"},"vehicle_type_id":"4","last_reported":1756300856,"current_range_meters":17200,"station_id":"ce4bho92rcd13ifvqh4g","pricing_plan_id":"cebpf4jnsgd1na2vs0mg"},{"bike_id":"651c04c7-c2f3-4258-98c4-2abdeb471500","system_id":"levelo_inurba_marseille","lat":43.2657,"lon":5.37302,"is_reserved":false,"is_disabled":false,"rental_uris":{"android":"levelo://app?vid=651c04c7-c2f3-4258-98c4-2abdeb471500","ios":"levelo://app?vid=651c04c7-c2f3-4258-98c4-2abdeb471500"},"vehicle_type_id":"4","last_reported":1756300856,"current_range_meters":17200,"station_id":"ce4bhg12rcd13ifvqf70","pricing_plan_id":"cebpf4jnsgd1na2vs0mg"},{"bike_id":"2ddde0e2-2088-418b-9262-4b0d6e96e416","system_id":"levelo_inurba_marseille","lat":43.26031,"lon":5.37546,"is_reserved":false,"is_disabled":false,"rental_uris":{"android":"levelo://app?vid=2ddde0e2-2088-418b-9262-4b0d6e96e416","ios":"levelo://app?vid=2ddde0e2-2088-418b-9262-4b0d6e96e416"},"vehicle_type_id":"4","last_reported":1756300856,"current_range_meters":17600,"station_id":"ce4bhgh2rcd13ifvqfa0","pricing_plan_id":"cebpf4jnsgd1na2vs0mg"},{"bike_id":"bc4c6e1c-d694-4a7d-b3af-90d3bb1a77a1","system_id":"levelo_inurba_marseille","lat":43.21184,"lon":5.35059,"is_reserved":false,"is_disabled":false,"rental_uris":{"android":"levelo://app?vid=bc4c6e1c-d694-4a7d-b3af-90d3bb1a77a1","ios":"levelo://app?vid=bc4c6e1c-d694-4a7d-b3af-90d3bb1a77a1"},"vehicle_type_id":"4","last_reported":1756300856,"current_range_meters":17600,"station_id":"st_cvj6sg6p6f1abm77japg","pricing_plan_id":"cebpf4jnsgd1na2vs0mg"},{"bike_id":"ffe6df59-3fc1-4d81-9326-f6f6418e7718","system_id":"levelo_inurba_marseille","lat":43.29738,"lon":5.37313,"is_reserved":false,"is_disabled":false,"rental_uris":{"android":"levelo://app?vid=ffe6df59-3fc1-4d81-9326-f6f6418e7718","ios":"levelo://app?vid=ffe6df59-3fc1-4d81-9326-f6f6418e7718"},"vehicle_type_id":"4","last_reported":1756300856,"current_range_meters":17600,"station_id":"","pricing_plan_id":"cebpf4jnsgd1na2vs0mg"},{"bike_id":"19bf8938-c3ac-477a-9c27-edd856e98aab","system_id":"levelo_inurba_marseille","lat":43.28117,"lon":5.37836,"is_reserved":false,"is_disabled":false,"rental_uris":{"android":"levelo://app?vid=19bf8938-c3ac-477a-9c27-edd856e98aab","ios":"levelo://app?vid=19bf8938-c3ac-477a-9c27-edd856e98aab"},"vehicle_type_id":"4","last_reported":1756300856,"current_range_meters":17600,"station_id":"ce4bha12rcd13ifvqee0","pricing_plan_id":"cebpf4jnsgd1na2vs0mg"},{"bike_id":"23ae6fed-deff-411b-8b6e-f95e32ccd4d0","system_id":"levelo_inurba_marseille","lat":43.32133,"lon":5.36782,"is_reserved":false,"is_disabled":false,"rental_uris":{"android":"levelo://app?vid=23ae6fed-deff-411b-8b6e-f95e32ccd4d0","ios":"levelo://app?vid=23ae6fed-deff-411b-8b6e-f95e32ccd4d0"},"vehicle_type_id":"4","last_reported":1756300856,"current_range_meters":17600,"station_id":"ce4bhrh2rcd13ifvqhug","pricing_plan_id":"cebpf4jnsgd1na2vs0mg"},{"bike_id":"81c34132-16a4-4c52-b1f1-84e975214106","system_id":"levelo_inurba_marseille","lat":43.27213,"lon":5.39187,"is_reserved":false,"is_disabled":false,"rental_uris":{"android":"levelo://app?vid=81c34132-16a4-4c52-b1f1-84e975214106","ios":"levelo://app?vid=81c34132-16a4-4c52-b1f1-84e975214106"},"vehicle_type_id":"4","last_reported":1756300856,"current_range_meters":17600,"station_id":"ce4bhhp2rcd13ifvqfm0","pricing_plan_id":"cebpf4jnsgd1na2vs0mg"},{"bike_id":"c1968fbf-12d4-4df0-9440-f7a56cc2364e","system_id":"levelo_inurba_marseille","lat":43.28623,"lon":5.35105,"is_reserved":false,"is_disabled":false,"rental_uris":{"android":"levelo://app?vid=c1968fbf-12d4-4df0-9440-f7a56cc2364e","ios":"levelo://app?vid=c1968fbf-12d4-4df0-9440-f7a56cc2364e"},"vehicle_type_id":"4","last_reported":1756300856,"current_range_meters":17600,"station_id":"ce4bhch2rcd13ifvqeug","pricing_plan_id":"cebpf4jnsgd1na2vs0mg"},{"bike_id":"8df4d72a-2534-4225-b0d0-5b48bd4c7385","system_id":"levelo_inurba_marseille","lat":43.294381,"lon":5.397646,"is_reserved":false,"is_disabled":false,"rental_uris":{"android":"levelo://app?vid=8df4d72a-2534-4225-b0d0-5b48bd4c7385","ios":"levelo://app?vid=8df4d72a-2534-4225-b0d0-5b48bd4c7385"},"vehicle_type_id":"4","last_reported":1756300856,"current_range_meters":18000,"station_id":"ce4bh3h2rcd13ifvqdo0","pricing_plan_id":"cebpf4jnsgd1na2vs0mg"},{"bike_id":"1091f287-02ee-4a66-888b-59c35fd65791","system_id":"levelo_inurba_marseille","lat":43.23193,"lon":5.35555,"is_reserved":false,"is_disabled":false,"rental_uris":{"android":"levelo://app?vid=1091f287-02ee-4a66-888b-59c35fd65791","ios":"levelo://app?vid=1091f287-02ee-4a66-888b-59c35fd65791"},"vehicle_type_id":"4","last_reported":1756300856,"current_range_meters":18000,"station_id":"ce4bhu92rcd13ifvqi70","pricing_plan_id":"cebpf4jnsgd1na2vs0mg"},{"bike_id":"273eac3d-362a-419b-83a2-2423e6e318c7","system_id":"levelo_inurba_marseille","lat":43.2721,"lon":5.3919,"is_reserved":false,"is_disabled":false,"rental_uris":{"android":"levelo://app?vid=273eac3d-362a-419b-83a2-2423e6e318c7","ios":"levelo://app?vid=273eac3d-362a-419b-83a2-2423e6e318c7"},"vehicle_type_id":"4","last_reported":1756300856,"current_range_meters":18000,"station_id":"","pricing_plan_id":"cebpf4jnsgd1na2vs0mg"},{"bike_id":"ec0f9f0d-0796-42ac-9cf5-bb8596cdf342","system_id":"levelo_inurba_marseille","lat":43.21192,"lon":5.35075,"is_reserved":false,"is_disabled":false,"rental_uris":{"android":"levelo://app?vid=ec0f9f0d-0796-42ac-9cf5-bb8596cdf342","ios":"levelo://app?vid=ec0f9f0d-0796-42ac-9cf5-bb8596cdf342"},"vehicle_type_id":"4","last_reported":1756300856,"current_range_meters":18000,"station_id":"","pricing_plan_id":"cebpf4jnsgd1na2vs0mg"},{"bike_id":"95973e18-1339-4596-a205-8df1bd7fef1f","system_id":"levelo_inurba_marseille","lat":43.23194,"lon":5.35561,"is_reserved":false,"is_disabled":false,"rental_uris":{"android":"levelo://app?vid=95973e18-1339-4596-a205-8df1bd7fef1f","ios":"levelo://app?vid=95973e18-1339-4596-a205-8df1bd7fef1f"},"vehicle_type_id":"4","last_reported":1756300856,"current_range_meters":18000,"station_id":"ce4bhu92rcd13ifvqi70","pricing_plan_id":"cebpf4jnsgd1na2vs0mg"},{"bike_id":"05d97e45-19dc-4128-88fe-ffa6fa61464f","system_id":"levelo_inurba_marseille","lat":43.26224,"lon":5.37464,"is_reserved":false,"is_disabled":false,"rental_uris":{"android":"levelo://app?vid=05d97e45-19dc-4128-88fe-ffa6fa61464f","ios":"levelo://app?vid=05d97e45-19dc-4128-88fe-ffa6fa61464f"},"vehicle_type_id":"4","last_reported":1756300856,"current_range_meters":18000,"station_id":"ce4bhgp2rcd13ifvqfc0","pricing_plan_id":"cebpf4jnsgd1na2vs0mg"},{"bike_id":"0bc83380-7bbb-4e56-85d7-55cf8aba3bcf","system_id":"levelo_inurba_marseille","lat":43.2836,"lon":5.38103,"is_reserved":false,"is_disabled":false,"rental_uris":{"android":"levelo://app?vid=0bc83380-7bbb-4e56-85d7-55cf8aba3bcf","ios":"levelo://app?vid=0bc83380-7bbb-4e56-85d7-55cf8aba3bcf"},"vehicle_type_id":"4","last_reported":1756300856,"current_range_meters":18000,"station_id":"ce4bh412rcd13ifvqdr0","pricing_plan_id":"cebpf4jnsgd1na2vs0mg"},{"bike_id":"c7947910-f6df-4351-95cb-ad7cab6a3f07","system_id":"levelo_inurba_marseille","lat":43.30802,"lon":5.37667,"is_reserved":false,"is_disabled":true,"rental_uris":{"android":"levelo://app?vid=c7947910-f6df-4351-95cb-ad7cab6a3f07","ios":"levelo://app?vid=c7947910-f6df-4351-95cb-ad7cab6a3f07"},"vehicle_type_id":"4","last_reported":1756300856,"current_range_meters":18000,"station_id":"ce4bgv92rcd13ifvqcq0","pricing_plan_id":"cebpf4jnsgd1na2vs0mg"},{"bike_id":"4352e598-d3c3-46b2-b4ea-24672f4d3baa","system_id":"levelo_inurba_marseille","lat":43.24998,"lon":5.38932,"is_reserved":false,"is_disabled":false,"rental_uris":{"android":"levelo://app?vid=4352e598-d3c3-46b2-b4ea-24672f4d3baa","ios":"levelo://app?vid=4352e598-d3c3-46b2-b4ea-24672f4d3baa"},"vehicle_type_id":"4","last_reported":1756300856,"current_range_meters":17600,"station_id":"ce4bhgp2rcd13ifvqfd0","pricing_plan_id":"cebpf4jnsgd1na2vs0mg"},{"bike_id":"a5111d90-7a2c-4331-ac7f-caad20168099","system_id":"levelo_inurba_marseille","lat":43.261916,"lon":5.374507,"is_reserved":false,"is_disabled":false,"rental_uris":{"android":"levelo://app?vid=a5111d90-7a2c-4331-ac7f-caad20168099","ios":"levelo://app?vid=a5111d90-7a2c-4331-ac7f-caad20168099"},"vehicle_type_id":"4","last_reported":1756300856,"current_range_meters":18000,"station_id":"ce4bhgp2rcd13ifvqfc0","pricing_plan_id":"cebpf4jnsgd1na2vs0mg"},{"bike_id":"3835e7c6-a4c1-47eb-86ad-79a726f5ae12","system_id":"levelo_inurba_marseille","lat":43.25502,"lon":5.37653,"is_reserved":false,"is_disabled":false,"rental_uris":{"android":"levelo://app?vid=3835e7c6-a4c1-47eb-86ad-79a726f5ae12","ios":"levelo://app?vid=3835e7c6-a4c1-47eb-86ad-79a726f5ae12"},"vehicle_type_id":"4","last_reported":1756300856,"current_range_meters":18000,"station_id":"ce4bhh12rcd13ifvqff0","pricing_plan_id":"cebpf4jnsgd1na2vs0mg"},{"bike_id":"9b5696f5-eaeb-4bc1-afd7-6587a4fe4c64","system_id":"levelo_inurba_marseille","lat":43.28283,"lon":5.35086,"is_reserved":false,"is_disabled":false,"rental_uris":{"android":"levelo://app?vid=9b5696f5-eaeb-4bc1-afd7-6587a4fe4c64","ios":"levelo://app?vid=9b5696f5-eaeb-4bc1-afd7-6587a4fe4c64"},"vehicle_type_id":"4","last_reported":1756300856,"current_range_meters":18000,"station_id":"ce4bhbp2rcd13ifvqerg","pricing_plan_id":"cebpf4jnsgd1na2vs0mg"},{"bike_id":"71561e1a-9cf4-4b0a-96c5-52ec7b9a0803","system_id":"levelo_inurba_marseille","lat":43.26683,"lon":5.38277,"is_reserved":false,"is_disabled":false,"rental_uris":{"android":"levelo://app?vid=71561e1a-9cf4-4b0a-96c5-52ec7b9a0803","ios":"levelo://app?vid=71561e1a-9cf4-4b0a-96c5-52ec7b9a0803"},"vehicle_type_id":"4","last_reported":1756300856,"current_range_meters":18800,"station_id":"ce4bhg92rcd13ifvqf90","pricing_plan_id":"cebpf4jnsgd1na2vs0mg"},{"bike_id":"80a4f60b-c516-4ada-8e5b-89aff3b9fe52","system_id":"levelo_inurba_marseille","lat":43.26506,"lon":5.39533,"is_reserved":false,"is_disabled":false,"rental_uris":{"android":"levelo://app?vid=80a4f60b-c516-4ada-8e5b-89aff3b9fe52","ios":"levelo://app?vid=80a4f60b-c516-4ada-8e5b-89aff3b9fe52"},"vehicle_type_id":"4","last_reported":1756300856,"current_range_meters":18800,"station_id":"ce4bhi12rcd13ifvqfq0","pricing_plan_id":"cebpf4jnsgd1na2vs0mg"},{"bike_id":"1afc9436-7d01-4b74-85fe-08c8b8ca3dc2","system_id":"levelo_inurba_marseille","lat":43.30532,"lon":5.36549,"is_reserved":false,"is_disabled":false,"rental_uris":{"android":"levelo://app?vid=1afc9436-7d01-4b74-85fe-08c8b8ca3dc2","ios":"levelo://app?vid=1afc9436-7d01-4b74-85fe-08c8b8ca3dc2"},"vehicle_type_id":"4","last_reported":1756300856,"current_range_meters":18800,"station_id":"ce4bgs12rcd13ifvqcag","pricing_plan_id":"cebpf4jnsgd1na2vs0mg"},{"bike_id":"2c246624-962d-4f72-8341-3c6523db29ef","system_id":"levelo_inurba_marseille","lat":43.26553,"lon":5.37293,"is_reserved":false,"is_disabled":true,"rental_uris":{"android":"levelo://app?vid=2c246624-962d-4f72-8341-3c6523db29ef","ios":"levelo://app?vid=2c246624-962d-4f72-8341-3c6523db29ef"},"vehicle_type_id":"4","last_reported":1756300856,"current_range_meters":18800,"station_id":"ce4bhg12rcd13ifvqf70","pricing_plan_id":"cebpf4jnsgd1na2vs0mg"},{"bike_id":"7f96cfc7-6b62-4cd3-a164-5a1ee471a17d","system_id":"levelo_inurba_marseille","lat":43.30554,"lon":5.36564,"is_reserved":false,"is_disabled":false,"rental_uris":{"android":"levelo://app?vid=7f96cfc7-6b62-4cd3-a164-5a1ee471a17d","ios":"levelo://app?vid=7f96cfc7-6b62-4cd3-a164-5a1ee471a17d"},"vehicle_type_id":"4","last_reported":1756300856,"current_range_meters":18800,"station_id":"ce4bgs12rcd13ifvqcag","pricing_plan_id":"cebpf4jnsgd1na2vs0mg"},{"bike_id":"e6355257-0814-4cf5-8dbe-cf3412b6ec52","system_id":"levelo_inurba_marseille","lat":43.27182,"lon":5.40995,"is_reserved":false,"is_disabled":false,"rental_uris":{"android":"levelo://app?vid=e6355257-0814-4cf5-8dbe-cf3412b6ec52","ios":"levelo://app?vid=e6355257-0814-4cf5-8dbe-cf3412b6ec52"},"vehicle_type_id":"4","last_reported":1756300856,"current_range_meters":18800,"station_id":"ce4bhl12rcd13ifvqgf0","pricing_plan_id":"cebpf4jnsgd1na2vs0mg"},{"bike_id":"aaad8acc-f862-48ae-879c-9b0399375cef","system_id":"levelo_inurba_marseille","lat":43.29586,"lon":5.375227,"is_reserved":false,"is_disabled":false,"rental_uris":{"android":"levelo://app?vid=aaad8acc-f862-48ae-879c-9b0399375cef","ios":"levelo://app?vid=aaad8acc-f862-48ae-879c-9b0399375cef"},"vehicle_type_id":"4","last_reported":1756300856,"current_range_meters":19200,"station_id":"","pricing_plan_id":"cebpf4jnsgd1na2vs0mg"},{"bike_id":"9cde41de-8f1e-4e7c-9a7b-60b13310d61f","system_id":"levelo_inurba_marseille","lat":43.2417,"lon":5.36396,"is_reserved":false,"is_disabled":false,"rental_uris":{"android":"levelo://app?vid=9cde41de-8f1e-4e7c-9a7b-60b13310d61f","ios":"levelo://app?vid=9cde41de-8f1e-4e7c-9a7b-60b13310d61f"},"vehicle_type_id":"4","last_reported":1756300856,"current_range_meters":19200,"station_id":"cpo36qri1sfpv3e86is0","pricing_plan_id":"cebpf4jnsgd1na2vs0mg"},{"bike_id":"131927a1-aedf-47d1-a070-2e9836467902","system_id":"levelo_inurba_marseille","lat":43.26031,"lon":5.37548,"is_reserved":false,"is_disabled":false,"rental_uris":{"android":"levelo://app?vid=131927a1-aedf-47d1-a070-2e9836467902","ios":"levelo://app?vid=131927a1-aedf-47d1-a070-2e9836467902"},"vehicle_type_id":"4","last_reported":1756300856,"current_range_meters":19200,"station_id":"ce4bhgh2rcd13ifvqfa0","pricing_plan_id":"cebpf4jnsgd1na2vs0mg"},{"bike_id":"c682957f-cef5-4193-962b-fadf3b3c70c1","system_id":"levelo_inurba_marseille","lat":43.27211,"lon":5.39197,"is_reserved":false,"is_disabled":false,"rental_uris":{"android":"levelo://app?vid=c682957f-cef5-4193-962b-fadf3b3c70c1","ios":"levelo://app?vid=c682957f-cef5-4193-962b-fadf3b3c70c1"},"vehicle_type_id":"4","last_reported":1756300856,"current_range_meters":19200,"station_id":"ce4bhhp2rcd13ifvqfm0","pricing_plan_id":"cebpf4jnsgd1na2vs0mg"},{"bike_id":"831a2354-0919-4530-8e5a-84c32dcc2c03","system_id":"levelo_inurba_marseille","lat":43.272052,"lon":5.391826,"is_reserved":false,"is_disabled":false,"rental_uris":{"android":"levelo://app?vid=831a2354-0919-4530-8e5a-84c32dcc2c03","ios":"levelo://app?vid=831a2354-0919-4530-8e5a-84c32dcc2c03"},"vehicle_type_id":"4","last_reported":1756300856,"current_range_meters":19200,"station_id":"","pricing_plan_id":"cebpf4jnsgd1na2vs0mg"},{"bike_id":"41206d24-710d-406c-91e0-c06bb1a64813","system_id":"levelo_inurba_marseille","lat":43.30559,"lon":5.36537,"is_reserved":false,"is_disabled":false,"rental_uris":{"android":"levelo://app?vid=41206d24-710d-406c-91e0-c06bb1a64813","ios":"levelo://app?vid=41206d24-710d-406c-91e0-c06bb1a64813"},"vehicle_type_id":"4","last_reported":1756300856,"current_range_meters":19200,"station_id":"ce4bgs12rcd13ifvqcag","pricing_plan_id":"cebpf4jnsgd1na2vs0mg"},{"bike_id":"18c2dbf5-b3c7-42de-98b2-35778edfed3e","system_id":"levelo_inurba_marseille","lat":43.31112,"lon":5.37763,"is_reserved":false,"is_disabled":false,"rental_uris":{"android":"levelo://app?vid=18c2dbf5-b3c7-42de-98b2-35778edfed3e","ios":"levelo://app?vid=18c2dbf5-b3c7-42de-98b2-35778edfed3e"},"vehicle_type_id":"4","last_reported":1756300856,"current_range_meters":19200,"station_id":"ce4bgt92rcd13ifvqcg0","pricing_plan_id":"cebpf4jnsgd1na2vs0mg"},{"bike_id":"e0d943fc-6cb5-418b-84a5-6f385478697e","system_id":"levelo_inurba_marseille","lat":43.25501,"lon":5.37657,"is_reserved":false,"is_disabled":false,"rental_uris":{"android":"levelo://app?vid=e0d943fc-6cb5-418b-84a5-6f385478697e","ios":"levelo://app?vid=e0d943fc-6cb5-418b-84a5-6f385478697e"},"vehicle_type_id":"4","last_reported":1756300856,"current_range_meters":19200,"station_id":"ce4bhh12rcd13ifvqff0","pricing_plan_id":"cebpf4jnsgd1na2vs0mg"},{"bike_id":"48c8ebb6-3125-4800-9673-fad0b5cbf562","system_id":"levelo_inurba_marseille","lat":43.29374,"lon":5.37832,"is_reserved":false,"is_disabled":false,"rental_uris":{"android":"levelo://app?vid=48c8ebb6-3125-4800-9673-fad0b5cbf562","ios":"levelo://app?vid=48c8ebb6-3125-4800-9673-fad0b5cbf562"},"vehicle_type_id":"4","last_reported":1756300856,"current_range_meters":19200,"station_id":"ce4bgjh2rcd13ifvqbf0","pricing_plan_id":"cebpf4jnsgd1na2vs0mg"},{"bike_id":"a71d0bca-bc7c-4692-bf55-794c9f5c67fc","system_id":"levelo_inurba_marseille","lat":43.30516,"lon":5.36542,"is_reserved":false,"is_disabled":false,"rental_uris":{"android":"levelo://app?vid=a71d0bca-bc7c-4692-bf55-794c9f5c67fc","ios":"levelo://app?vid=a71d0bca-bc7c-4692-bf55-794c9f5c67fc"},"vehicle_type_id":"4","last_reported":1756300856,"current_range_meters":19200,"station_id":"","pricing_plan_id":"cebpf4jnsgd1na2vs0mg"},{"bike_id":"03080dce-1f55-4d92-8992-940a7cb2a486","system_id":"levelo_inurba_marseille","lat":43.21759,"lon":5.34592,"is_reserved":false,"is_disabled":false,"rental_uris":{"android":"levelo://app?vid=03080dce-1f55-4d92-8992-940a7cb2a486","ios":"levelo://app?vid=03080dce-1f55-4d92-8992-940a7cb2a486"},"vehicle_type_id":"4","last_reported":1756300856,"current_range_meters":19600,"station_id":"st_cvj6r9ubvosntc0bgbag","pricing_plan_id":"cebpf4jnsgd1na2vs0mg"},{"bike_id":"d1af3fe4-f8c0-4e19-908c-1db27fe6a6ca","system_id":"levelo_inurba_marseille","lat":43.26809,"lon":5.40275,"is_reserved":false,"is_disabled":false,"rental_uris":{"android":"levelo://app?vid=d1af3fe4-f8c0-4e19-908c-1db27fe6a6ca","ios":"levelo://app?vid=d1af3fe4-f8c0-4e19-908c-1db27fe6a6ca"},"vehicle_type_id":"4","last_reported":1756300856,"current_range_meters":19200,"station_id":"ce501612rcd8frsf0b60","pricing_plan_id":"cebpf4jnsgd1na2vs0mg"},{"bike_id":"cc5c5f36-6d13-4a70-a3ad-1166e31dcade","system_id":"levelo_inurba_marseille","lat":43.26947,"lon":5.38644,"is_reserved":false,"is_disabled":false,"rental_uris":{"android":"levelo://app?vid=cc5c5f36-6d13-4a70-a3ad-1166e31dcade","ios":"levelo://app?vid=cc5c5f36-6d13-4a70-a3ad-1166e31dcade"},"vehicle_type_id":"4","last_reported":1756300856,"current_range_meters":19600,"station_id":"ce4bhh92rcd13ifvqfh0","pricing_plan_id":"cebpf4jnsgd1na2vs0mg"},{"bike_id":"d5ddba13-42df-4115-9aa1-5bdce53e55a3","system_id":"levelo_inurba_marseille","lat":43.30563,"lon":5.36498,"is_reserved":false,"is_disabled":false,"rental_uris":{"android":"levelo://app?vid=d5ddba13-42df-4115-9aa1-5bdce53e55a3","ios":"levelo://app?vid=d5ddba13-42df-4115-9aa1-5bdce53e55a3"},"vehicle_type_id":"4","last_reported":1756300856,"current_range_meters":19600,"station_id":"","pricing_plan_id":"cebpf4jnsgd1na2vs0mg"},{"bike_id":"20c40bc5-0fe7-4d2a-aeac-3e4dba377090","system_id":"levelo_inurba_marseille","lat":43.31491,"lon":5.37285,"is_reserved":false,"is_disabled":false,"rental_uris":{"android":"levelo://app?vid=20c40bc5-0fe7-4d2a-aeac-3e4dba377090","ios":"levelo://app?vid=20c40bc5-0fe7-4d2a-aeac-3e4dba377090"},"vehicle_type_id":"4","last_reported":1756300856,"current_range_meters":19600,"station_id":"ce4bgt12rcd13ifvqcd0","pricing_plan_id":"cebpf4jnsgd1na2vs0mg"},{"bike_id":"731ff345-1377-45e9-acf9-0825f15b172a","system_id":"levelo_inurba_marseille","lat":43.22932,"lon":5.3538,"is_reserved":false,"is_disabled":false,"rental_uris":{"android":"levelo://app?vid=731ff345-1377-45e9-acf9-0825f15b172a","ios":"levelo://app?vid=731ff345-1377-45e9-acf9-0825f15b172a"},"vehicle_type_id":"4","last_reported":1756300856,"current_range_meters":19600,"station_id":"cpo3532slgdg3j2ikp40","pricing_plan_id":"cebpf4jnsgd1na2vs0mg"},{"bike_id":"13e2e704-84dd-4958-b7be-c940f9c199ff","system_id":"levelo_inurba_marseille","lat":43.27948,"lon":5.41047,"is_reserved":false,"is_disabled":false,"rental_uris":{"android":"levelo://app?vid=13e2e704-84dd-4958-b7be-c940f9c199ff","ios":"levelo://app?vid=13e2e704-84dd-4958-b7be-c940f9c199ff"},"vehicle_type_id":"4","last_reported":1756300856,"current_range_meters":19600,"station_id":"ce4bhnp2rcd13ifvqh0g","pricing_plan_id":"cebpf4jnsgd1na2vs0mg"},{"bike_id":"c23caf68-a488-4334-9d78-a65d808efa33","system_id":"levelo_inurba_marseille","lat":43.27368,"lon":5.36251,"is_reserved":false,"is_disabled":false,"rental_uris":{"android":"levelo://app?vid=c23caf68-a488-4334-9d78-a65d808efa33","ios":"levelo://app?vid=c23caf68-a488-4334-9d78-a65d808efa33"},"vehicle_type_id":"4","last_reported":1756300856,"current_range_meters":19600,"station_id":"ce4bhbh2rcd13ifvqeo0","pricing_plan_id":"cebpf4jnsgd1na2vs0mg"},{"bike_id":"280809cf-19ef-4a4c-b0e5-ef44b8c3a8ad","system_id":"levelo_inurba_marseille","lat":43.296131,"lon":5.381295,"is_reserved":false,"is_disabled":false,"rental_uris":{"android":"levelo://app?vid=280809cf-19ef-4a4c-b0e5-ef44b8c3a8ad","ios":"levelo://app?vid=280809cf-19ef-4a4c-b0e5-ef44b8c3a8ad"},"vehicle_type_id":"4","last_reported":1756300856,"current_range_meters":19600,"station_id":"ce4bgl12rcd13ifvqbo0","pricing_plan_id":"cebpf4jnsgd1na2vs0mg"},{"bike_id":"00865bff-72de-47be-acda-9cf6ec16a836","system_id":"levelo_inurba_marseille","lat":43.32094,"lon":5.367768,"is_reserved":false,"is_disabled":false,"rental_uris":{"android":"levelo://app?vid=00865bff-72de-47be-acda-9cf6ec16a836","ios":"levelo://app?vid=00865bff-72de-47be-acda-9cf6ec16a836"},"vehicle_type_id":"4","last_reported":1756300856,"current_range_meters":19600,"station_id":"ce4bhrh2rcd13ifvqhug","pricing_plan_id":"cebpf4jnsgd1na2vs0mg"},{"bike_id":"07acbabb-a1df-46e2-9840-66020c3aea0b","system_id":"levelo_inurba_marseille","lat":43.26511,"lon":5.39549,"is_reserved":false,"is_disabled":false,"rental_uris":{"android":"levelo://app?vid=07acbabb-a1df-46e2-9840-66020c3aea0b","ios":"levelo://app?vid=07acbabb-a1df-46e2-9840-66020c3aea0b"},"vehicle_type_id":"4","last_reported":1756300856,"current_range_meters":19600,"station_id":"ce4bhi12rcd13ifvqfq0","pricing_plan_id":"cebpf4jnsgd1na2vs0mg"},{"bike_id":"ca0a4932-263e-4f8c-bedf-d3db98b41c4a","system_id":"levelo_inurba_marseille","lat":43.301469,"lon":5.398762,"is_reserved":false,"is_disabled":false,"rental_uris":{"android":"levelo://app?vid=ca0a4932-263e-4f8c-bedf-d3db98b41c4a","ios":"levelo://app?vid=ca0a4932-263e-4f8c-bedf-d3db98b41c4a"},"vehicle_type_id":"4","last_reported":1756300856,"current_range_meters":19600,"station_id":"ce4bh0h2rcd13ifvqd40","pricing_plan_id":"cebpf4jnsgd1na2vs0mg"},{"bike_id":"64872d47-b093-430f-9b60-e64a9b488537","system_id":"levelo_inurba_marseille","lat":43.2893,"lon":5.384,"is_reserved":false,"is_disabled":false,"rental_uris":{"android":"levelo://app?vid=64872d47-b093-430f-9b60-e64a9b488537","ios":"levelo://app?vid=64872d47-b093-430f-9b60-e64a9b488537"},"vehicle_type_id":"4","last_reported":1756300856,"current_range_meters":19600,"station_id":"ce4bh612rcd13ifvqe6g","pricing_plan_id":"cebpf4jnsgd1na2vs0mg"},{"bike_id":"a17974ad-12f1-477c-b042-7ea7bc0fc667","system_id":"levelo_inurba_marseille","lat":43.231391,"lon":5.354867,"is_reserved":false,"is_disabled":false,"rental_uris":{"android":"levelo://app?vid=a17974ad-12f1-477c-b042-7ea7bc0fc667","ios":"levelo://app?vid=a17974ad-12f1-477c-b042-7ea7bc0fc667"},"vehicle_type_id":"4","last_reported":1756300856,"current_range_meters":19600,"station_id":"cpo3342slgdg3j2ifvpg","pricing_plan_id":"cebpf4jnsgd1na2vs0mg"},{"bike_id":"91e19827-9fe1-4a80-95e4-d427fe05cf21","system_id":"levelo_inurba_marseille","lat":43.29818,"lon":5.38122,"is_reserved":false,"is_disabled":false,"rental_uris":{"android":"levelo://app?vid=91e19827-9fe1-4a80-95e4-d427fe05cf21","ios":"levelo://app?vid=91e19827-9fe1-4a80-95e4-d427fe05cf21"},"vehicle_type_id":"4","last_reported":1756300856,"current_range_meters":19600,"station_id":"ce4bgip2rcd13ifvqbb0","pricing_plan_id":"cebpf4jnsgd1na2vs0mg"},{"bike_id":"07296681-3400-48d5-88e2-c863a00e5bf3","system_id":"levelo_inurba_marseille","lat":43.22922,"lon":5.35377,"is_reserved":false,"is_disabled":false,"rental_uris":{"android":"levelo://app?vid=07296681-3400-48d5-88e2-c863a00e5bf3","ios":"levelo://app?vid=07296681-3400-48d5-88e2-c863a00e5bf3"},"vehicle_type_id":"4","last_reported":1756300856,"current_range_meters":19600,"station_id":"cpo3532slgdg3j2ikp40","pricing_plan_id":"cebpf4jnsgd1na2vs0mg"},{"bike_id":"29c55d68-58c5-4ef2-b442-72bb9c55ddb0","system_id":"levelo_inurba_marseille","lat":43.323697,"lon":5.367517,"is_reserved":false,"is_disabled":false,"rental_uris":{"android":"levelo://app?vid=29c55d68-58c5-4ef2-b442-72bb9c55ddb0","ios":"levelo://app?vid=29c55d68-58c5-4ef2-b442-72bb9c55ddb0"},"vehicle_type_id":"4","last_reported":1756300856,"current_range_meters":19600,"station_id":"ce4bhsh2rcd13ifvqi2g","pricing_plan_id":"cebpf4jnsgd1na2vs0mg"},{"bike_id":"bdd86ffd-46e8-4feb-813f-7169b616458e","system_id":"levelo_inurba_marseille","lat":43.26569,"lon":5.39015,"is_reserved":false,"is_disabled":false,"rental_uris":{"android":"levelo://app?vid=bdd86ffd-46e8-4feb-813f-7169b616458e","ios":"levelo://app?vid=bdd86ffd-46e8-4feb-813f-7169b616458e"},"vehicle_type_id":"4","last_reported":1756300856,"current_range_meters":20000,"station_id":"ce4bhe12rcd13ifvqf30","pricing_plan_id":"cebpf4jnsgd1na2vs0mg"},{"bike_id":"43fb1eda-8f7d-4377-9b57-f38a0ecb5909","system_id":"levelo_inurba_marseille","lat":43.26189,"lon":5.37443,"is_reserved":false,"is_disabled":false,"rental_uris":{"android":"levelo://app?vid=43fb1eda-8f7d-4377-9b57-f38a0ecb5909","ios":"levelo://app?vid=43fb1eda-8f7d-4377-9b57-f38a0ecb5909"},"vehicle_type_id":"4","last_reported":1756300856,"current_range_meters":20000,"station_id":"ce4bhgp2rcd13ifvqfc0","pricing_plan_id":"cebpf4jnsgd1na2vs0mg"},{"bike_id":"1b97e243-555c-42c8-8b1c-92d08706a6ba","system_id":"levelo_inurba_marseille","lat":43.269567,"lon":5.386173,"is_reserved":false,"is_disabled":false,"rental_uris":{"android":"levelo://app?vid=1b97e243-555c-42c8-8b1c-92d08706a6ba","ios":"levelo://app?vid=1b97e243-555c-42c8-8b1c-92d08706a6ba"},"vehicle_type_id":"4","last_reported":1756300856,"current_range_meters":20000,"station_id":"","pricing_plan_id":"cebpf4jnsgd1na2vs0mg"},{"bike_id":"fad509bb-f53b-44b6-a94f-044ddb828f7d","system_id":"levelo_inurba_marseille","lat":43.27064,"lon":5.40258,"is_reserved":false,"is_disabled":true,"rental_uris":{"android":"levelo://app?vid=fad509bb-f53b-44b6-a94f-044ddb828f7d","ios":"levelo://app?vid=fad509bb-f53b-44b6-a94f-044ddb828f7d"},"vehicle_type_id":"4","last_reported":1756300856,"current_range_meters":20000,"station_id":"cjm6bp8fraef2m0cb0m0","pricing_plan_id":"cebpf4jnsgd1na2vs0mg"},{"bike_id":"a9a86a0d-03aa-42c4-8dc7-5f62015d82c5","system_id":"levelo_inurba_marseille","lat":43.24165,"lon":5.36397,"is_reserved":false,"is_disabled":false,"rental_uris":{"android":"levelo://app?vid=a9a86a0d-03aa-42c4-8dc7-5f62015d82c5","ios":"levelo://app?vid=a9a86a0d-03aa-42c4-8dc7-5f62015d82c5"},"vehicle_type_id":"4","last_reported":1756300856,"current_range_meters":20000,"station_id":"cpo36qri1sfpv3e86is0","pricing_plan_id":"cebpf4jnsgd1na2vs0mg"},{"bike_id":"04f94f1c-fbdb-44d6-bdef-30c9f4ae0feb","system_id":"levelo_inurba_marseille","lat":43.21189,"lon":5.35075,"is_reserved":false,"is_disabled":false,"rental_uris":{"android":"levelo://app?vid=04f94f1c-fbdb-44d6-bdef-30c9f4ae0feb","ios":"levelo://app?vid=04f94f1c-fbdb-44d6-bdef-30c9f4ae0feb"},"vehicle_type_id":"4","last_reported":1756300856,"current_range_meters":20000,"station_id":"st_cvj6sg6p6f1abm77japg","pricing_plan_id":"cebpf4jnsgd1na2vs0mg"},{"bike_id":"d1f1d146-6e05-413d-b48c-d5704130a5dd","system_id":"levelo_inurba_marseille","lat":43.33725,"lon":5.39194,"is_reserved":false,"is_disabled":false,"rental_uris":{"android":"levelo://app?vid=d1f1d146-6e05-413d-b48c-d5704130a5dd","ios":"levelo://app?vid=d1f1d146-6e05-413d-b48c-d5704130a5dd"},"vehicle_type_id":"4","last_reported":1756300856,"current_range_meters":19600,"station_id":"ce4bhr92rcd13ifvqhsg","pricing_plan_id":"cebpf4jnsgd1na2vs0mg"},{"bike_id":"aea7927c-80c4-496d-a247-6b04cc22d70b","system_id":"levelo_inurba_marseille","lat":43.27828,"lon":5.40723,"is_reserved":false,"is_disabled":false,"rental_uris":{"android":"levelo://app?vid=aea7927c-80c4-496d-a247-6b04cc22d70b","ios":"levelo://app?vid=aea7927c-80c4-496d-a247-6b04cc22d70b"},