{"last_updated":1778681075,"ttl":60,"version":"2.2","data":{"bikes":[{"bike_id":"9fda1f94-962d-474b-83e6-a15dfd299e99","system_id":"levelo_inurba_marseille","lat":43.262254,"lon":5.40451,"is_reserved":false,"is_disabled":false,"rental_uris":{"android":"levelo://app?vid=9fda1f94-962d-474b-83e6-a15dfd299e99","ios":"levelo://app?vid=9fda1f94-962d-474b-83e6-a15dfd299e99"},"vehicle_type_id":"4","last_reported":1778681076,"current_range_meters":400,"station_id":"ce4bhmh2rcd13ifvqgmg","pricing_plan_id":"cebpf4jnsgd1na2vs0mg"},{"bike_id":"77ee52ad-99c2-4568-ae81-79f01eedb7d5","system_id":"levelo_inurba_marseille","lat":43.298679,"lon":5.397315,"is_reserved":false,"is_disabled":false,"rental_uris":{"android":"levelo://app?vid=77ee52ad-99c2-4568-ae81-79f01eedb7d5","ios":"levelo://app?vid=77ee52ad-99c2-4568-ae81-79f01eedb7d5"},"vehicle_type_id":"4","last_reported":1778681076,"current_range_meters":400,"station_id":"ce4bh0h2rcd13ifvqd50","pricing_plan_id":"cebpf4jnsgd1na2vs0mg"},{"bike_id":"e56feb03-8ac7-4fce-accf-899a6a569174","system_id":"levelo_inurba_marseille","lat":43.28934,"lon":5.3963,"is_reserved":false,"is_disabled":false,"rental_uris":{"android":"levelo://app?vid=e56feb03-8ac7-4fce-accf-899a6a569174","ios":"levelo://app?vid=e56feb03-8ac7-4fce-accf-899a6a569174"},"vehicle_type_id":"4","last_reported":1778681076,"current_range_meters":400,"station_id":"ce4bh3h2rcd13ifvqdn0","pricing_plan_id":"cebpf4jnsgd1na2vs0mg"},{"bike_id":"17bffdcd-bdb0-4c3d-8111-09cc48adefdb","system_id":"levelo_inurba_marseille","lat":43.3015,"lon":5.38087,"is_reserved":false,"is_disabled":false,"rental_uris":{"android":"levelo://app?vid=17bffdcd-bdb0-4c3d-8111-09cc48adefdb","ios":"levelo://app?vid=17bffdcd-bdb0-4c3d-8111-09cc48adefdb"},"vehicle_type_id":"4","last_reported":1778681076,"current_range_meters":800,"station_id":"ce4bgjp2rcd13ifvqbh0","pricing_plan_id":"cebpf4jnsgd1na2vs0mg"},{"bike_id":"56aa3777-5c73-49cb-b27f-d7e4ca259c3e","system_id":"levelo_inurba_marseille","lat":43.250915,"lon":5.395244,"is_reserved":false,"is_disabled":false,"rental_uris":{"android":"levelo://app?vid=56aa3777-5c73-49cb-b27f-d7e4ca259c3e","ios":"levelo://app?vid=56aa3777-5c73-49cb-b27f-d7e4ca259c3e"},"vehicle_type_id":"4","last_reported":1778681076,"current_range_meters":800,"station_id":"ce4bhm12rcd13ifvqgkg","pricing_plan_id":"cebpf4jnsgd1na2vs0mg"},{"bike_id":"7e834ca7-f1ec-4a60-916c-a76c39442969","system_id":"levelo_inurba_marseille","lat":43.297098,"lon":5.366144,"is_reserved":false,"is_disabled":false,"rental_uris":{"android":"levelo://app?vid=7e834ca7-f1ec-4a60-916c-a76c39442969","ios":"levelo://app?vid=7e834ca7-f1ec-4a60-916c-a76c39442969"},"vehicle_type_id":"4","last_reported":1778681076,"current_range_meters":800,"station_id":"ce4bgn12rcd13ifvqbt0","pricing_plan_id":"cebpf4jnsgd1na2vs0mg"},{"bike_id":"71e99bac-4933-435b-a87c-5438a9a2eb9b","system_id":"levelo_inurba_marseille","lat":43.3014,"lon":5.38778,"is_reserved":false,"is_disabled":false,"rental_uris":{"android":"levelo://app?vid=71e99bac-4933-435b-a87c-5438a9a2eb9b","ios":"levelo://app?vid=71e99bac-4933-435b-a87c-5438a9a2eb9b"},"vehicle_type_id":"4","last_reported":1778681076,"current_range_meters":1200,"station_id":"ce4bghh2rcd13ifvqb60","pricing_plan_id":"cebpf4jnsgd1na2vs0mg"},{"bike_id":"3634727c-0a64-4006-b522-00514c24ae45","system_id":"levelo_inurba_marseille","lat":43.31377,"lon":5.36711,"is_reserved":false,"is_disabled":false,"rental_uris":{"android":"levelo://app?vid=3634727c-0a64-4006-b522-00514c24ae45","ios":"levelo://app?vid=3634727c-0a64-4006-b522-00514c24ae45"},"vehicle_type_id":"4","last_reported":1778681076,"current_range_meters":1600,"station_id":"ce4bgr92rcd13ifvqc6g","pricing_plan_id":"cebpf4jnsgd1na2vs0mg"},{"bike_id":"ff1cea20-0910-4d2d-b32a-06551177425b","system_id":"levelo_inurba_marseille","lat":43.27628,"lon":5.36096,"is_reserved":false,"is_disabled":false,"rental_uris":{"android":"levelo://app?vid=ff1cea20-0910-4d2d-b32a-06551177425b","ios":"levelo://app?vid=ff1cea20-0910-4d2d-b32a-06551177425b"},"vehicle_type_id":"4","last_reported":1778681076,"current_range_meters":2800,"station_id":"ce4bgj92rcd13ifvqbe0","pricing_plan_id":"cebpf4jnsgd1na2vs0mg"},{"bike_id":"1fb136bb-3cc6-48f7-af4f-974b5baf2852","system_id":"levelo_inurba_marseille","lat":43.23953,"lon":5.36633,"is_reserved":false,"is_disabled":false,"rental_uris":{"android":"levelo://app?vid=1fb136bb-3cc6-48f7-af4f-974b5baf2852","ios":"levelo://app?vid=1fb136bb-3cc6-48f7-af4f-974b5baf2852"},"vehicle_type_id":"4","last_reported":1778681076,"current_range_meters":2800,"station_id":"ce4bhi12rcd13ifvqfp0","pricing_plan_id":"cebpf4jnsgd1na2vs0mg"},{"bike_id":"0fe5211a-c7e2-4915-8727-69eb2b781698","system_id":"levelo_inurba_marseille","lat":43.31678,"lon":5.40475,"is_reserved":false,"is_disabled":false,"rental_uris":{"android":"levelo://app?vid=0fe5211a-c7e2-4915-8727-69eb2b781698","ios":"levelo://app?vid=0fe5211a-c7e2-4915-8727-69eb2b781698"},"vehicle_type_id":"4","last_reported":1778681076,"current_range_meters":2800,"station_id":"ce4bh012rcd13ifvqd00","pricing_plan_id":"cebpf4jnsgd1na2vs0mg"},{"bike_id":"a3931dae-05f0-4e1d-8b68-01fdd7d05951","system_id":"levelo_inurba_marseille","lat":43.27497,"lon":5.41597,"is_reserved":false,"is_disabled":true,"rental_uris":{"android":"levelo://app?vid=a3931dae-05f0-4e1d-8b68-01fdd7d05951","ios":"levelo://app?vid=a3931dae-05f0-4e1d-8b68-01fdd7d05951"},"vehicle_type_id":"4","last_reported":1778681076,"current_range_meters":2800,"station_id":"st_d6im8g6chgec73a5pndg","pricing_plan_id":"cebpf4jnsgd1na2vs0mg"},{"bike_id":"7d465340-338c-4603-bd4e-63d8e3bd07d4","system_id":"levelo_inurba_marseille","lat":43.28721,"lon":5.37942,"is_reserved":false,"is_disabled":false,"rental_uris":{"android":"levelo://app?vid=7d465340-338c-4603-bd4e-63d8e3bd07d4","ios":"levelo://app?vid=7d465340-338c-4603-bd4e-63d8e3bd07d4"},"vehicle_type_id":"4","last_reported":1778681076,"current_range_meters":2800,"station_id":"ce4bh9p2rcd13ifvqec0","pricing_plan_id":"cebpf4jnsgd1na2vs0mg"},{"bike_id":"1e34be49-8e79-49f4-978a-b8ee394c7bb0","system_id":"levelo_inurba_marseille","lat":43.29305,"lon":5.37477,"is_reserved":false,"is_disabled":false,"rental_uris":{"android":"levelo://app?vid=1e34be49-8e79-49f4-978a-b8ee394c7bb0","ios":"levelo://app?vid=1e34be49-8e79-49f4-978a-b8ee394c7bb0"},"vehicle_type_id":"4","last_reported":1778681076,"current_range_meters":2800,"station_id":"ce4bgi12rcd13ifvqb70","pricing_plan_id":"cebpf4jnsgd1na2vs0mg"},{"bike_id":"2715e20d-0628-4a00-9f0f-6f958103b60e","system_id":"levelo_inurba_marseille","lat":43.29873,"lon":5.39752,"is_reserved":false,"is_disabled":false,"rental_uris":{"android":"levelo://app?vid=2715e20d-0628-4a00-9f0f-6f958103b60e","ios":"levelo://app?vid=2715e20d-0628-4a00-9f0f-6f958103b60e"},"vehicle_type_id":"4","last_reported":1778681076,"current_range_meters":2800,"station_id":"ce4bh0h2rcd13ifvqd50","pricing_plan_id":"cebpf4jnsgd1na2vs0mg"},{"bike_id":"e5f2e3c4-95c9-404f-bf4a-d0f8b36a0d08","system_id":"levelo_inurba_marseille","lat":43.30158,"lon":5.39878,"is_reserved":false,"is_disabled":false,"rental_uris":{"android":"levelo://app?vid=e5f2e3c4-95c9-404f-bf4a-d0f8b36a0d08","ios":"levelo://app?vid=e5f2e3c4-95c9-404f-bf4a-d0f8b36a0d08"},"vehicle_type_id":"4","last_reported":1778681076,"current_range_meters":3200,"station_id":"ce4bh0h2rcd13ifvqd40","pricing_plan_id":"cebpf4jnsgd1na2vs0mg"},{"bike_id":"be73bf98-84d8-48ce-85f1-475073435854","system_id":"levelo_inurba_marseille","lat":43.307989,"lon":5.381486,"is_reserved":false,"is_disabled":false,"rental_uris":{"android":"levelo://app?vid=be73bf98-84d8-48ce-85f1-475073435854","ios":"levelo://app?vid=be73bf98-84d8-48ce-85f1-475073435854"},"vehicle_type_id":"4","last_reported":1778681076,"current_range_meters":3200,"station_id":"ce4bgt12rcd13ifvqce0","pricing_plan_id":"cebpf4jnsgd1na2vs0mg"},{"bike_id":"0d5a6d54-dad4-453d-9b1a-d94782ee22c6","system_id":"levelo_inurba_marseille","lat":43.32345,"lon":5.36544,"is_reserved":false,"is_disabled":false,"rental_uris":{"android":"levelo://app?vid=0d5a6d54-dad4-453d-9b1a-d94782ee22c6","ios":"levelo://app?vid=0d5a6d54-dad4-453d-9b1a-d94782ee22c6"},"vehicle_type_id":"4","last_reported":1778681076,"current_range_meters":3200,"station_id":"","pricing_plan_id":"cebpf4jnsgd1na2vs0mg"},{"bike_id":"f1199c7e-7903-4188-bbb9-ee8e51dbcbaf","system_id":"levelo_inurba_marseille","lat":43.24704,"lon":5.38192,"is_reserved":false,"is_disabled":false,"rental_uris":{"android":"levelo://app?vid=f1199c7e-7903-4188-bbb9-ee8e51dbcbaf","ios":"levelo://app?vid=f1199c7e-7903-4188-bbb9-ee8e51dbcbaf"},"vehicle_type_id":"4","last_reported":1778681076,"current_range_meters":3200,"station_id":"ce4bhih2rcd13ifvqfr0","pricing_plan_id":"cebpf4jnsgd1na2vs0mg"},{"bike_id":"2da99328-8bec-4b7f-a3ad-ce2398ca97e5","system_id":"levelo_inurba_marseille","lat":43.26804,"lon":5.4027,"is_reserved":false,"is_disabled":true,"rental_uris":{"android":"levelo://app?vid=2da99328-8bec-4b7f-a3ad-ce2398ca97e5","ios":"levelo://app?vid=2da99328-8bec-4b7f-a3ad-ce2398ca97e5"},"vehicle_type_id":"4","last_reported":1778681076,"current_range_meters":3200,"station_id":"ce501612rcd8frsf0b60","pricing_plan_id":"cebpf4jnsgd1na2vs0mg"},{"bike_id":"0afc19bd-870b-45df-877b-3dfc4785d202","system_id":"levelo_inurba_marseille","lat":43.30156,"lon":5.38075,"is_reserved":false,"is_disabled":false,"rental_uris":{"android":"levelo://app?vid=0afc19bd-870b-45df-877b-3dfc4785d202","ios":"levelo://app?vid=0afc19bd-870b-45df-877b-3dfc4785d202"},"vehicle_type_id":"4","last_reported":1778681076,"current_range_meters":3200,"station_id":"ce4bgjp2rcd13ifvqbh0","pricing_plan_id":"cebpf4jnsgd1na2vs0mg"},{"bike_id":"6463def7-e9ea-460f-861c-fb7066886407","system_id":"levelo_inurba_marseille","lat":43.28677,"lon":5.3867,"is_reserved":false,"is_disabled":false,"rental_uris":{"android":"levelo://app?vid=6463def7-e9ea-460f-861c-fb7066886407","ios":"levelo://app?vid=6463def7-e9ea-460f-861c-fb7066886407"},"vehicle_type_id":"4","last_reported":1778681076,"current_range_meters":3200,"station_id":"ce4bh492rcd13ifvqdug","pricing_plan_id":"cebpf4jnsgd1na2vs0mg"},{"bike_id":"e3e6a269-338b-482e-8c7f-7dca167d167b","system_id":"levelo_inurba_marseille","lat":43.27492,"lon":5.41617,"is_reserved":false,"is_disabled":true,"rental_uris":{"android":"levelo://app?vid=e3e6a269-338b-482e-8c7f-7dca167d167b","ios":"levelo://app?vid=e3e6a269-338b-482e-8c7f-7dca167d167b"},"vehicle_type_id":"4","last_reported":1778681076,"current_range_meters":3200,"station_id":"st_d6im8g6chgec73a5pndg","pricing_plan_id":"cebpf4jnsgd1na2vs0mg"},{"bike_id":"7d495a91-4757-4bd7-b72f-ad237a9371f1","system_id":"levelo_inurba_marseille","lat":43.21194,"lon":5.35073,"is_reserved":false,"is_disabled":false,"rental_uris":{"android":"levelo://app?vid=7d495a91-4757-4bd7-b72f-ad237a9371f1","ios":"levelo://app?vid=7d495a91-4757-4bd7-b72f-ad237a9371f1"},"vehicle_type_id":"4","last_reported":1778681076,"current_range_meters":3200,"station_id":"st_cvj6sg6p6f1abm77japg","pricing_plan_id":"cebpf4jnsgd1na2vs0mg"},{"bike_id":"cbd94ce0-7f21-418a-aa1f-7dde0278722b","system_id":"levelo_inurba_marseille","lat":43.29039,"lon":5.40145,"is_reserved":false,"is_disabled":false,"rental_uris":{"android":"levelo://app?vid=cbd94ce0-7f21-418a-aa1f-7dde0278722b","ios":"levelo://app?vid=cbd94ce0-7f21-418a-aa1f-7dde0278722b"},"vehicle_type_id":"4","last_reported":1778681076,"current_range_meters":3600,"station_id":"","pricing_plan_id":"cebpf4jnsgd1na2vs0mg"},{"bike_id":"20b7bb3e-75fa-4a8c-adda-a9ee75a0b72d","system_id":"levelo_inurba_marseille","lat":43.301465,"lon":5.374249,"is_reserved":false,"is_disabled":false,"rental_uris":{"android":"levelo://app?vid=20b7bb3e-75fa-4a8c-adda-a9ee75a0b72d","ios":"levelo://app?vid=20b7bb3e-75fa-4a8c-adda-a9ee75a0b72d"},"vehicle_type_id":"4","last_reported":1778681076,"current_range_meters":3600,"station_id":"ce4bgs92rcd13ifvqcc0","pricing_plan_id":"cebpf4jnsgd1na2vs0mg"},{"bike_id":"7b10c580-cf75-45b9-9bf6-b92e8544203a","system_id":"levelo_inurba_marseille","lat":43.29771,"lon":5.38155,"is_reserved":false,"is_disabled":false,"rental_uris":{"android":"levelo://app?vid=7b10c580-cf75-45b9-9bf6-b92e8544203a","ios":"levelo://app?vid=7b10c580-cf75-45b9-9bf6-b92e8544203a"},"vehicle_type_id":"4","last_reported":1778681076,"current_range_meters":3600,"station_id":"","pricing_plan_id":"cebpf4jnsgd1na2vs0mg"},{"bike_id":"7982ee08-ca4c-460e-8773-7bc0d1d44524","system_id":"levelo_inurba_marseille","lat":43.24807,"lon":5.374599,"is_reserved":false,"is_disabled":false,"rental_uris":{"android":"levelo://app?vid=7982ee08-ca4c-460e-8773-7bc0d1d44524","ios":"levelo://app?vid=7982ee08-ca4c-460e-8773-7bc0d1d44524"},"vehicle_type_id":"4","last_reported":1778681076,"current_range_meters":3600,"station_id":"ce4bhgh2rcd13ifvqfb0","pricing_plan_id":"cebpf4jnsgd1na2vs0mg"},{"bike_id":"906ef886-0921-4b71-955b-1ea0bdbf3de9","system_id":"levelo_inurba_marseille","lat":43.2869,"lon":5.46691,"is_reserved":false,"is_disabled":false,"rental_uris":{"android":"levelo://app?vid=906ef886-0921-4b71-955b-1ea0bdbf3de9","ios":"levelo://app?vid=906ef886-0921-4b71-955b-1ea0bdbf3de9"},"vehicle_type_id":"4","last_reported":1778681076,"current_range_meters":3600,"station_id":"st_d6tc3vkotcvc738tfjhg","pricing_plan_id":"cebpf4jnsgd1na2vs0mg"},{"bike_id":"67cf9b17-eee2-4618-842e-9e4fef38dbf0","system_id":"levelo_inurba_marseille","lat":43.29258,"lon":5.38449,"is_reserved":false,"is_disabled":false,"rental_uris":{"android":"levelo://app?vid=67cf9b17-eee2-4618-842e-9e4fef38dbf0","ios":"levelo://app?vid=67cf9b17-eee2-4618-842e-9e4fef38dbf0"},"vehicle_type_id":"4","last_reported":1778681076,"current_range_meters":3600,"station_id":"ce4bh692rcd13ifvqea0","pricing_plan_id":"cebpf4jnsgd1na2vs0mg"},{"bike_id":"86c436a1-9dfe-4c36-89c1-eba3ef592e26","system_id":"levelo_inurba_marseille","lat":43.26218,"lon":5.40469,"is_reserved":false,"is_disabled":false,"rental_uris":{"android":"levelo://app?vid=86c436a1-9dfe-4c36-89c1-eba3ef592e26","ios":"levelo://app?vid=86c436a1-9dfe-4c36-89c1-eba3ef592e26"},"vehicle_type_id":"4","last_reported":1778681076,"current_range_meters":3600,"station_id":"ce4bhmh2rcd13ifvqgmg","pricing_plan_id":"cebpf4jnsgd1na2vs0mg"},{"bike_id":"5504e92c-3620-4f18-a449-fe8e5a4ca3d2","system_id":"levelo_inurba_marseille","lat":43.29603,"lon":5.381,"is_reserved":false,"is_disabled":false,"rental_uris":{"android":"levelo://app?vid=5504e92c-3620-4f18-a449-fe8e5a4ca3d2","ios":"levelo://app?vid=5504e92c-3620-4f18-a449-fe8e5a4ca3d2"},"vehicle_type_id":"4","last_reported":1778681076,"current_range_meters":3600,"station_id":"ce4bgl12rcd13ifvqbo0","pricing_plan_id":"cebpf4jnsgd1na2vs0mg"},{"bike_id":"95552473-a32b-49e5-a6c9-92815a2ac96e","system_id":"levelo_inurba_marseille","lat":43.32819,"lon":5.42608,"is_reserved":false,"is_disabled":false,"rental_uris":{"android":"levelo://app?vid=95552473-a32b-49e5-a6c9-92815a2ac96e","ios":"levelo://app?vid=95552473-a32b-49e5-a6c9-92815a2ac96e"},"vehicle_type_id":"4","last_reported":1778681076,"current_range_meters":3600,"station_id":"","pricing_plan_id":"cebpf4jnsgd1na2vs0mg"},{"bike_id":"be42f1e5-484e-446e-82ee-e6f4ad782e50","system_id":"levelo_inurba_marseille","lat":43.31706,"lon":5.40486,"is_reserved":false,"is_disabled":false,"rental_uris":{"android":"levelo://app?vid=be42f1e5-484e-446e-82ee-e6f4ad782e50","ios":"levelo://app?vid=be42f1e5-484e-446e-82ee-e6f4ad782e50"},"vehicle_type_id":"4","last_reported":1778681076,"current_range_meters":3600,"station_id":"ce4bh012rcd13ifvqd00","pricing_plan_id":"cebpf4jnsgd1na2vs0mg"},{"bike_id":"29c0ca2b-ffae-4040-9176-140c30035163","system_id":"levelo_inurba_marseille","lat":43.24404,"lon":5.37034,"is_reserved":false,"is_disabled":false,"rental_uris":{"android":"levelo://app?vid=29c0ca2b-ffae-4040-9176-140c30035163","ios":"levelo://app?vid=29c0ca2b-ffae-4040-9176-140c30035163"},"vehicle_type_id":"4","last_reported":1778681076,"current_range_meters":3600,"station_id":"ce4bhhh2rcd13ifvqfk0","pricing_plan_id":"cebpf4jnsgd1na2vs0mg"},{"bike_id":"d70c20af-9ae5-4724-9f00-1a8a70a9b269","system_id":"levelo_inurba_marseille","lat":43.29582,"lon":5.36737,"is_reserved":false,"is_disabled":false,"rental_uris":{"android":"levelo://app?vid=d70c20af-9ae5-4724-9f00-1a8a70a9b269","ios":"levelo://app?vid=d70c20af-9ae5-4724-9f00-1a8a70a9b269"},"vehicle_type_id":"4","last_reported":1778681076,"current_range_meters":3600,"station_id":"ce4bgph2rcd13ifvqc2g","pricing_plan_id":"cebpf4jnsgd1na2vs0mg"},{"bike_id":"e77fafa2-2538-4e22-9f89-363d5208c403","system_id":"levelo_inurba_marseille","lat":43.28263,"lon":5.35068,"is_reserved":false,"is_disabled":false,"rental_uris":{"android":"levelo://app?vid=e77fafa2-2538-4e22-9f89-363d5208c403","ios":"levelo://app?vid=e77fafa2-2538-4e22-9f89-363d5208c403"},"vehicle_type_id":"4","last_reported":1778681076,"current_range_meters":3600,"station_id":"ce4bhbp2rcd13ifvqerg","pricing_plan_id":"cebpf4jnsgd1na2vs0mg"},{"bike_id":"4305922b-886a-4e10-98c5-9db56042926a","system_id":"levelo_inurba_marseille","lat":43.29752,"lon":5.37967,"is_reserved":false,"is_disabled":false,"rental_uris":{"android":"levelo://app?vid=4305922b-886a-4e10-98c5-9db56042926a","ios":"levelo://app?vid=4305922b-886a-4e10-98c5-9db56042926a"},"vehicle_type_id":"4","last_reported":1778681076,"current_range_meters":4000,"station_id":"","pricing_plan_id":"cebpf4jnsgd1na2vs0mg"},{"bike_id":"7b7e4070-6455-4906-a522-075453494fb9","system_id":"levelo_inurba_marseille","lat":43.29271,"lon":5.37623,"is_reserved":false,"is_disabled":false,"rental_uris":{"android":"levelo://app?vid=7b7e4070-6455-4906-a522-075453494fb9","ios":"levelo://app?vid=7b7e4070-6455-4906-a522-075453494fb9"},"vehicle_type_id":"4","last_reported":1778681076,"current_range_meters":4000,"station_id":"ce4bgi12rcd13ifvqb80","pricing_plan_id":"cebpf4jnsgd1na2vs0mg"},{"bike_id":"311561ef-88ed-4c2f-95fd-94091e55f93f","system_id":"levelo_inurba_marseille","lat":43.28607,"lon":5.37068,"is_reserved":false,"is_disabled":false,"rental_uris":{"android":"levelo://app?vid=311561ef-88ed-4c2f-95fd-94091e55f93f","ios":"levelo://app?vid=311561ef-88ed-4c2f-95fd-94091e55f93f"},"vehicle_type_id":"4","last_reported":1778681076,"current_range_meters":4000,"station_id":"ce4bht12rcd13ifvqi60","pricing_plan_id":"cebpf4jnsgd1na2vs0mg"},{"bike_id":"6047f9ce-9986-4c5b-ba83-35a47d4e3126","system_id":"levelo_inurba_marseille","lat":43.26208,"lon":5.37444,"is_reserved":false,"is_disabled":false,"rental_uris":{"android":"levelo://app?vid=6047f9ce-9986-4c5b-ba83-35a47d4e3126","ios":"levelo://app?vid=6047f9ce-9986-4c5b-ba83-35a47d4e3126"},"vehicle_type_id":"4","last_reported":1778681076,"current_range_meters":4000,"station_id":"ce4bhgp2rcd13ifvqfc0","pricing_plan_id":"cebpf4jnsgd1na2vs0mg"},{"bike_id":"5ab7a965-1425-4114-b723-d60e489ebb25","system_id":"levelo_inurba_marseille","lat":43.2785,"lon":5.39195,"is_reserved":false,"is_disabled":false,"rental_uris":{"android":"levelo://app?vid=5ab7a965-1425-4114-b723-d60e489ebb25","ios":"levelo://app?vid=5ab7a965-1425-4114-b723-d60e489ebb25"},"vehicle_type_id":"4","last_reported":1778681076,"current_range_meters":4000,"station_id":"ce4bhjp2rcd13ifvqga0","pricing_plan_id":"cebpf4jnsgd1na2vs0mg"},{"bike_id":"4886c252-2728-4a7b-8055-7bc754291d67","system_id":"levelo_inurba_marseille","lat":43.2618,"lon":5.40394,"is_reserved":false,"is_disabled":false,"rental_uris":{"android":"levelo://app?vid=4886c252-2728-4a7b-8055-7bc754291d67","ios":"levelo://app?vid=4886c252-2728-4a7b-8055-7bc754291d67"},"vehicle_type_id":"4","last_reported":1778681076,"current_range_meters":4400,"station_id":"","pricing_plan_id":"cebpf4jnsgd1na2vs0mg"},{"bike_id":"d858709d-9330-43f4-91d0-fd630f14a189","system_id":"levelo_inurba_marseille","lat":43.28924,"lon":5.36646,"is_reserved":false,"is_disabled":false,"rental_uris":{"android":"levelo://app?vid=d858709d-9330-43f4-91d0-fd630f14a189","ios":"levelo://app?vid=d858709d-9330-43f4-91d0-fd630f14a189"},"vehicle_type_id":"4","last_reported":1778681076,"current_range_meters":4400,"station_id":"ce4bhap2rcd13ifvqek0","pricing_plan_id":"cebpf4jnsgd1na2vs0mg"},{"bike_id":"5058c965-f074-42fe-ae90-77d3aff09749","system_id":"levelo_inurba_marseille","lat":43.24377,"lon":5.38394,"is_reserved":false,"is_disabled":false,"rental_uris":{"android":"levelo://app?vid=5058c965-f074-42fe-ae90-77d3aff09749","ios":"levelo://app?vid=5058c965-f074-42fe-ae90-77d3aff09749"},"vehicle_type_id":"4","last_reported":1778681076,"current_range_meters":4400,"station_id":"","pricing_plan_id":"cebpf4jnsgd1na2vs0mg"},{"bike_id":"d257960a-edb4-4348-90b0-b5fd8baf1634","system_id":"levelo_inurba_marseille","lat":43.31573,"lon":5.37793,"is_reserved":false,"is_disabled":true,"rental_uris":{"android":"levelo://app?vid=d257960a-edb4-4348-90b0-b5fd8baf1634","ios":"levelo://app?vid=d257960a-edb4-4348-90b0-b5fd8baf1634"},"vehicle_type_id":"4","last_reported":1778681076,"current_range_meters":4400,"station_id":"ce4bgth2rcd13ifvqch0","pricing_plan_id":"cebpf4jnsgd1na2vs0mg"},{"bike_id":"17301570-8005-4012-9b37-30a3caf04a03","system_id":"levelo_inurba_marseille","lat":43.28418,"lon":5.34982,"is_reserved":false,"is_disabled":false,"rental_uris":{"android":"levelo://app?vid=17301570-8005-4012-9b37-30a3caf04a03","ios":"levelo://app?vid=17301570-8005-4012-9b37-30a3caf04a03"},"vehicle_type_id":"4","last_reported":1778681076,"current_range_meters":4400,"station_id":"ce4bhbh2rcd13ifvqepg","pricing_plan_id":"cebpf4jnsgd1na2vs0mg"},{"bike_id":"c2a550eb-2fed-4bf8-b049-2c6eca7d91b8","system_id":"levelo_inurba_marseille","lat":43.25581,"lon":5.38228,"is_reserved":false,"is_disabled":false,"rental_uris":{"android":"levelo://app?vid=c2a550eb-2fed-4bf8-b049-2c6eca7d91b8","ios":"levelo://app?vid=c2a550eb-2fed-4bf8-b049-2c6eca7d91b8"},"vehicle_type_id":"4","last_reported":1778681076,"current_range_meters":4400,"station_id":"ce4bhih2rcd13ifvqfs0","pricing_plan_id":"cebpf4jnsgd1na2vs0mg"},{"bike_id":"01c0bb30-c523-461b-895f-60bd070bab7c","system_id":"levelo_inurba_marseille","lat":43.30911,"lon":5.41625,"is_reserved":false,"is_disabled":false,"rental_uris":{"android":"levelo://app?vid=01c0bb30-c523-461b-895f-60bd070bab7c","ios":"levelo://app?vid=01c0bb30-c523-461b-895f-60bd070bab7c"},"vehicle_type_id":"4","last_reported":1778681076,"current_range_meters":4400,"station_id":"","pricing_plan_id":"cebpf4jnsgd1na2vs0mg"},{"bike_id":"81a6fdad-8a1e-4b90-942e-ccbedb6e2b04","system_id":"levelo_inurba_marseille","lat":43.25525,"lon":5.37642,"is_reserved":false,"is_disabled":false,"rental_uris":{"android":"levelo://app?vid=81a6fdad-8a1e-4b90-942e-ccbedb6e2b04","ios":"levelo://app?vid=81a6fdad-8a1e-4b90-942e-ccbedb6e2b04"},"vehicle_type_id":"4","last_reported":1778681076,"current_range_meters":4400,"station_id":"ce4bhh12rcd13ifvqff0","pricing_plan_id":"cebpf4jnsgd1na2vs0mg"},{"bike_id":"69cb515d-715c-489f-b5d9-d966ae532b28","system_id":"levelo_inurba_marseille","lat":43.28953,"lon":5.36395,"is_reserved":false,"is_disabled":false,"rental_uris":{"android":"levelo://app?vid=69cb515d-715c-489f-b5d9-d966ae532b28","ios":"levelo://app?vid=69cb515d-715c-489f-b5d9-d966ae532b28"},"vehicle_type_id":"4","last_reported":1778681076,"current_range_meters":4400,"station_id":"ce4bhc92rcd13ifvqetg","pricing_plan_id":"cebpf4jnsgd1na2vs0mg"},{"bike_id":"6674b3ad-e1ed-4129-8e13-bee99d17050e","system_id":"levelo_inurba_marseille","lat":43.30137,"lon":5.39856,"is_reserved":false,"is_disabled":false,"rental_uris":{"android":"levelo://app?vid=6674b3ad-e1ed-4129-8e13-bee99d17050e","ios":"levelo://app?vid=6674b3ad-e1ed-4129-8e13-bee99d17050e"},"vehicle_type_id":"4","last_reported":1778681076,"current_range_meters":4400,"station_id":"ce4bh0h2rcd13ifvqd40","pricing_plan_id":"cebpf4jnsgd1na2vs0mg"},{"bike_id":"d81f348a-5a0d-4a29-b6c6-358f9d732682","system_id":"levelo_inurba_marseille","lat":43.26023,"lon":5.37563,"is_reserved":false,"is_disabled":false,"rental_uris":{"android":"levelo://app?vid=d81f348a-5a0d-4a29-b6c6-358f9d732682","ios":"levelo://app?vid=d81f348a-5a0d-4a29-b6c6-358f9d732682"},"vehicle_type_id":"4","last_reported":1778681076,"current_range_meters":4800,"station_id":"ce4bhgh2rcd13ifvqfa0","pricing_plan_id":"cebpf4jnsgd1na2vs0mg"},{"bike_id":"71c83927-4073-46e1-b223-8bfd7f6cf9e4","system_id":"levelo_inurba_marseille","lat":43.32496,"lon":5.38288,"is_reserved":false,"is_disabled":false,"rental_uris":{"android":"levelo://app?vid=71c83927-4073-46e1-b223-8bfd7f6cf9e4","ios":"levelo://app?vid=71c83927-4073-46e1-b223-8bfd7f6cf9e4"},"vehicle_type_id":"4","last_reported":1778681076,"current_range_meters":4800,"station_id":"st_d4asgbiv49dc73anf9m0","pricing_plan_id":"cebpf4jnsgd1na2vs0mg"},{"bike_id":"2aaf8d3d-dddc-4659-85e7-34b3b97fa5bc","system_id":"levelo_inurba_marseille","lat":43.21195,"lon":5.35108,"is_reserved":false,"is_disabled":false,"rental_uris":{"android":"levelo://app?vid=2aaf8d3d-dddc-4659-85e7-34b3b97fa5bc","ios":"levelo://app?vid=2aaf8d3d-dddc-4659-85e7-34b3b97fa5bc"},"vehicle_type_id":"4","last_reported":1778681076,"current_range_meters":4800,"station_id":"st_cvj6sg6p6f1abm77japg","pricing_plan_id":"cebpf4jnsgd1na2vs0mg"},{"bike_id":"6396c1d0-3f17-438d-b787-76e1e859f783","system_id":"levelo_inurba_marseille","lat":43.29367,"lon":5.37836,"is_reserved":false,"is_disabled":false,"rental_uris":{"android":"levelo://app?vid=6396c1d0-3f17-438d-b787-76e1e859f783","ios":"levelo://app?vid=6396c1d0-3f17-438d-b787-76e1e859f783"},"vehicle_type_id":"4","last_reported":1778681076,"current_range_meters":4800,"station_id":"ce4bgjh2rcd13ifvqbf0","pricing_plan_id":"cebpf4jnsgd1na2vs0mg"},{"bike_id":"4aad697a-91b2-4fed-aee3-9939aca7631b","system_id":"levelo_inurba_marseille","lat":43.3134,"lon":5.37918,"is_reserved":false,"is_disabled":false,"rental_uris":{"android":"levelo://app?vid=4aad697a-91b2-4fed-aee3-9939aca7631b","ios":"levelo://app?vid=4aad697a-91b2-4fed-aee3-9939aca7631b"},"vehicle_type_id":"4","last_reported":1778681076,"current_range_meters":4800,"station_id":"","pricing_plan_id":"cebpf4jnsgd1na2vs0mg"},{"bike_id":"50f65ead-d1b4-4678-b4de-27cea66897de","system_id":"levelo_inurba_marseille","lat":43.24163,"lon":5.39814,"is_reserved":false,"is_disabled":false,"rental_uris":{"android":"levelo://app?vid=50f65ead-d1b4-4678-b4de-27cea66897de","ios":"levelo://app?vid=50f65ead-d1b4-4678-b4de-27cea66897de"},"vehicle_type_id":"4","last_reported":1778681076,"current_range_meters":4800,"station_id":"ce4bhn12rcd13ifvqgpg","pricing_plan_id":"cebpf4jnsgd1na2vs0mg"},{"bike_id":"00f9e8e9-a796-4063-972a-6a13a52bcfd2","system_id":"levelo_inurba_marseille","lat":43.28661,"lon":5.36257,"is_reserved":false,"is_disabled":false,"rental_uris":{"android":"levelo://app?vid=00f9e8e9-a796-4063-972a-6a13a52bcfd2","ios":"levelo://app?vid=00f9e8e9-a796-4063-972a-6a13a52bcfd2"},"vehicle_type_id":"4","last_reported":1778681076,"current_range_meters":4800,"station_id":"","pricing_plan_id":"cebpf4jnsgd1na2vs0mg"},{"bike_id":"e092dc8c-1f0f-4f44-ab6b-bcbec7d4db1e","system_id":"levelo_inurba_marseille","lat":43.29544,"lon":5.39407,"is_reserved":false,"is_disabled":false,"rental_uris":{"android":"levelo://app?vid=e092dc8c-1f0f-4f44-ab6b-bcbec7d4db1e","ios":"levelo://app?vid=e092dc8c-1f0f-4f44-ab6b-bcbec7d4db1e"},"vehicle_type_id":"4","last_reported":1778681076,"current_range_meters":4800,"station_id":"ce4bh292rcd13ifvqdf0","pricing_plan_id":"cebpf4jnsgd1na2vs0mg"},{"bike_id":"ada98f66-4abc-4ee6-a9f2-f7b518c4294f","system_id":"levelo_inurba_marseille","lat":43.28697,"lon":5.46688,"is_reserved":false,"is_disabled":false,"rental_uris":{"android":"levelo://app?vid=ada98f66-4abc-4ee6-a9f2-f7b518c4294f","ios":"levelo://app?vid=ada98f66-4abc-4ee6-a9f2-f7b518c4294f"},"vehicle_type_id":"4","last_reported":1778681076,"current_range_meters":4800,"station_id":"st_d6tc3vkotcvc738tfjhg","pricing_plan_id":"cebpf4jnsgd1na2vs0mg"},{"bike_id":"acdc7f9f-c208-4d71-8aab-07abf62efdc3","system_id":"levelo_inurba_marseille","lat":43.33761,"lon":5.37453,"is_reserved":false,"is_disabled":false,"rental_uris":{"android":"levelo://app?vid=acdc7f9f-c208-4d71-8aab-07abf62efdc3","ios":"levelo://app?vid=acdc7f9f-c208-4d71-8aab-07abf62efdc3"},"vehicle_type_id":"4","last_reported":1778681076,"current_range_meters":5600,"station_id":"","pricing_plan_id":"cebpf4jnsgd1na2vs0mg"},{"bike_id":"dd1cf2c7-593b-4038-bf9d-78d4c4e22f6b","system_id":"levelo_inurba_marseille","lat":43.30811,"lon":5.3767,"is_reserved":false,"is_disabled":false,"rental_uris":{"android":"levelo://app?vid=dd1cf2c7-593b-4038-bf9d-78d4c4e22f6b","ios":"levelo://app?vid=dd1cf2c7-593b-4038-bf9d-78d4c4e22f6b"},"vehicle_type_id":"4","last_reported":1778681076,"current_range_meters":5600,"station_id":"ce4bgv92rcd13ifvqcq0","pricing_plan_id":"cebpf4jnsgd1na2vs0mg"},{"bike_id":"be516926-fe12-4374-9b96-0a5d95fc4532","system_id":"levelo_inurba_marseille","lat":43.225323,"lon":5.348352,"is_reserved":false,"is_disabled":false,"rental_uris":{"android":"levelo://app?vid=be516926-fe12-4374-9b96-0a5d95fc4532","ios":"levelo://app?vid=be516926-fe12-4374-9b96-0a5d95fc4532"},"vehicle_type_id":"4","last_reported":1778681076,"current_range_meters":5600,"station_id":"st_cvj5dfep6f1abm77gieg","pricing_plan_id":"cebpf4jnsgd1na2vs0mg"},{"bike_id":"7cabc6ed-b654-4db5-9d0d-f19dc7ef1370","system_id":"levelo_inurba_marseille","lat":43.2657,"lon":5.40317,"is_reserved":false,"is_disabled":false,"rental_uris":{"android":"levelo://app?vid=7cabc6ed-b654-4db5-9d0d-f19dc7ef1370","ios":"levelo://app?vid=7cabc6ed-b654-4db5-9d0d-f19dc7ef1370"},"vehicle_type_id":"4","last_reported":1778681076,"current_range_meters":5600,"station_id":"ce4bhmp2rcd13ifvqgng","pricing_plan_id":"cebpf4jnsgd1na2vs0mg"},{"bike_id":"f96c72da-1adc-427e-a4c0-30afefc40d90","system_id":"levelo_inurba_marseille","lat":43.28532,"lon":5.44107,"is_reserved":false,"is_disabled":true,"rental_uris":{"android":"levelo://app?vid=f96c72da-1adc-427e-a4c0-30afefc40d90","ios":"levelo://app?vid=f96c72da-1adc-427e-a4c0-30afefc40d90"},"vehicle_type_id":"4","last_reported":1778681076,"current_range_meters":5600,"station_id":"st_d3j3df2ikq2c7380ej80","pricing_plan_id":"cebpf4jnsgd1na2vs0mg"},{"bike_id":"1dc8fb19-cb6c-4499-89d4-2ac8bf634625","system_id":"levelo_inurba_marseille","lat":43.27328,"lon":5.39107,"is_reserved":false,"is_disabled":false,"rental_uris":{"android":"levelo://app?vid=1dc8fb19-cb6c-4499-89d4-2ac8bf634625","ios":"levelo://app?vid=1dc8fb19-cb6c-4499-89d4-2ac8bf634625"},"vehicle_type_id":"4","last_reported":1778681076,"current_range_meters":5600,"station_id":"ce4bhgp2rcd13ifvqfe0","pricing_plan_id":"cebpf4jnsgd1na2vs0mg"},{"bike_id":"32a5d091-bcee-4531-92cb-88ffad686d3e","system_id":"levelo_inurba_marseille","lat":43.29094,"lon":5.38149,"is_reserved":false,"is_disabled":false,"rental_uris":{"android":"levelo://app?vid=32a5d091-bcee-4531-92cb-88ffad686d3e","ios":"levelo://app?vid=32a5d091-bcee-4531-92cb-88ffad686d3e"},"vehicle_type_id":"4","last_reported":1778681076,"current_range_meters":5600,"station_id":"ce4bh512rcd13ifvqe2g","pricing_plan_id":"cebpf4jnsgd1na2vs0mg"},{"bike_id":"c8b7cde2-e1ca-4365-ba07-d7284a4263e0","system_id":"levelo_inurba_marseille","lat":43.29125,"lon":5.38086,"is_reserved":false,"is_disabled":false,"rental_uris":{"android":"levelo://app?vid=c8b7cde2-e1ca-4365-ba07-d7284a4263e0","ios":"levelo://app?vid=c8b7cde2-e1ca-4365-ba07-d7284a4263e0"},"vehicle_type_id":"4","last_reported":1778681076,"current_range_meters":5600,"station_id":"ce4bh512rcd13ifvqe2g","pricing_plan_id":"cebpf4jnsgd1na2vs0mg"},{"bike_id":"f2489e2a-acbb-4157-bb53-722731d8ed9a","system_id":"levelo_inurba_marseille","lat":43.29977,"lon":5.36738,"is_reserved":false,"is_disabled":false,"rental_uris":{"android":"levelo://app?vid=f2489e2a-acbb-4157-bb53-722731d8ed9a","ios":"levelo://app?vid=f2489e2a-acbb-4157-bb53-722731d8ed9a"},"vehicle_type_id":"4","last_reported":1778681076,"current_range_meters":5600,"station_id":"","pricing_plan_id":"cebpf4jnsgd1na2vs0mg"},{"bike_id":"a582fa00-9f05-480f-b92d-ac13b69a6512","system_id":"levelo_inurba_marseille","lat":43.26212,"lon":5.37445,"is_reserved":false,"is_disabled":false,"rental_uris":{"android":"levelo://app?vid=a582fa00-9f05-480f-b92d-ac13b69a6512","ios":"levelo://app?vid=a582fa00-9f05-480f-b92d-ac13b69a6512"},"vehicle_type_id":"4","last_reported":1778681076,"current_range_meters":5600,"station_id":"ce4bhgp2rcd13ifvqfc0","pricing_plan_id":"cebpf4jnsgd1na2vs0mg"},{"bike_id":"44a62851-e959-4639-bf21-77ed8b52d10c","system_id":"levelo_inurba_marseille","lat":43.28416,"lon":5.37527,"is_reserved":false,"is_disabled":false,"rental_uris":{"android":"levelo://app?vid=44a62851-e959-4639-bf21-77ed8b52d10c","ios":"levelo://app?vid=44a62851-e959-4639-bf21-77ed8b52d10c"},"vehicle_type_id":"4","last_reported":1778681076,"current_range_meters":5600,"station_id":"ce4bh412rcd13ifvqds0","pricing_plan_id":"cebpf4jnsgd1na2vs0mg"},{"bike_id":"d9595856-f6af-4f93-8cc9-f464c6231b4d","system_id":"levelo_inurba_marseille","lat":43.30954,"lon":5.39032,"is_reserved":false,"is_disabled":false,"rental_uris":{"android":"levelo://app?vid=d9595856-f6af-4f93-8cc9-f464c6231b4d","ios":"levelo://app?vid=d9595856-f6af-4f93-8cc9-f464c6231b4d"},"vehicle_type_id":"4","last_reported":1778681076,"current_range_meters":5600,"station_id":"ce4bgup2rcd13ifvqco0","pricing_plan_id":"cebpf4jnsgd1na2vs0mg"},{"bike_id":"e1fa0b0e-6697-446d-877d-6bdbed4328df","system_id":"levelo_inurba_marseille","lat":43.27494,"lon":5.42453,"is_reserved":false,"is_disabled":false,"rental_uris":{"android":"levelo://app?vid=e1fa0b0e-6697-446d-877d-6bdbed4328df","ios":"levelo://app?vid=e1fa0b0e-6697-446d-877d-6bdbed4328df"},"vehicle_type_id":"4","last_reported":1778681076,"current_range_meters":5600,"station_id":"ce4bhn92rcd13ifvqgrg","pricing_plan_id":"cebpf4jnsgd1na2vs0mg"},{"bike_id":"3eb3686d-2628-4a87-b1bd-6a263a2866c0","system_id":"levelo_inurba_marseille","lat":43.30798,"lon":5.3818,"is_reserved":false,"is_disabled":false,"rental_uris":{"android":"levelo://app?vid=3eb3686d-2628-4a87-b1bd-6a263a2866c0","ios":"levelo://app?vid=3eb3686d-2628-4a87-b1bd-6a263a2866c0"},"vehicle_type_id":"4","last_reported":1778681076,"current_range_meters":6000,"station_id":"ce4bgt12rcd13ifvqce0","pricing_plan_id":"cebpf4jnsgd1na2vs0mg"},{"bike_id":"337e5d15-9f6d-40f1-b4d5-6db4068e7fee","system_id":"levelo_inurba_marseille","lat":43.3018,"lon":5.36877,"is_reserved":false,"is_disabled":false,"rental_uris":{"android":"levelo://app?vid=337e5d15-9f6d-40f1-b4d5-6db4068e7fee","ios":"levelo://app?vid=337e5d15-9f6d-40f1-b4d5-6db4068e7fee"},"vehicle_type_id":"4","last_reported":1778681076,"current_range_meters":6000,"station_id":"","pricing_plan_id":"cebpf4jnsgd1na2vs0mg"},{"bike_id":"2aad52d5-6a56-4a4d-b89e-2cdd466252cd","system_id":"levelo_inurba_marseille","lat":43.2882,"lon":5.40052,"is_reserved":false,"is_disabled":true,"rental_uris":{"android":"levelo://app?vid=2aad52d5-6a56-4a4d-b89e-2cdd466252cd","ios":"levelo://app?vid=2aad52d5-6a56-4a4d-b89e-2cdd466252cd"},"vehicle_type_id":"4","last_reported":1778681076,"current_range_meters":6000,"station_id":"","pricing_plan_id":"cebpf4jnsgd1na2vs0mg"},{"bike_id":"3e8f476a-2f44-402a-b9a8-f5eaa220c28f","system_id":"levelo_inurba_marseille","lat":43.27306,"lon":5.39116,"is_reserved":false,"is_disabled":false,"rental_uris":{"android":"levelo://app?vid=3e8f476a-2f44-402a-b9a8-f5eaa220c28f","ios":"levelo://app?vid=3e8f476a-2f44-402a-b9a8-f5eaa220c28f"},"vehicle_type_id":"4","last_reported":1778681076,"current_range_meters":6000,"station_id":"ce4bhgp2rcd13ifvqfe0","pricing_plan_id":"cebpf4jnsgd1na2vs0mg"},{"bike_id":"cc35d2bb-6d25-489d-94f5-d5160311de4c","system_id":"levelo_inurba_marseille","lat":43.288594,"lon":5.425146,"is_reserved":false,"is_disabled":true,"rental_uris":{"android":"levelo://app?vid=cc35d2bb-6d25-489d-94f5-d5160311de4c","ios":"levelo://app?vid=cc35d2bb-6d25-489d-94f5-d5160311de4c"},"vehicle_type_id":"4","last_reported":1778681076,"current_range_meters":6000,"station_id":"","pricing_plan_id":"cebpf4jnsgd1na2vs0mg"},{"bike_id":"8daf255b-0513-4163-bc9d-401e1639777b","system_id":"levelo_inurba_marseille","lat":43.24957,"lon":5.40498,"is_reserved":false,"is_disabled":false,"rental_uris":{"android":"levelo://app?vid=8daf255b-0513-4163-bc9d-401e1639777b","ios":"levelo://app?vid=8daf255b-0513-4163-bc9d-401e1639777b"},"vehicle_type_id":"4","last_reported":1778681076,"current_range_meters":6000,"station_id":"st_d2ngiaodas8pm72gd1h0","pricing_plan_id":"cebpf4jnsgd1na2vs0mg"},{"bike_id":"3d18b0dc-9824-468d-893e-e74feae646ea","system_id":"levelo_inurba_marseille","lat":43.27196,"lon":5.39195,"is_reserved":false,"is_disabled":false,"rental_uris":{"android":"levelo://app?vid=3d18b0dc-9824-468d-893e-e74feae646ea","ios":"levelo://app?vid=3d18b0dc-9824-468d-893e-e74feae646ea"},"vehicle_type_id":"4","last_reported":1778681076,"current_range_meters":6000,"station_id":"ce4bhhp2rcd13ifvqfm0","pricing_plan_id":"cebpf4jnsgd1na2vs0mg"},{"bike_id":"494e0f53-a137-4652-b071-f0f61a244817","system_id":"levelo_inurba_marseille","lat":43.32097,"lon":5.3681,"is_reserved":false,"is_disabled":false,"rental_uris":{"android":"levelo://app?vid=494e0f53-a137-4652-b071-f0f61a244817","ios":"levelo://app?vid=494e0f53-a137-4652-b071-f0f61a244817"},"vehicle_type_id":"4","last_reported":1778681076,"current_range_meters":6000,"station_id":"ce4bhrh2rcd13ifvqhug","pricing_plan_id":"cebpf4jnsgd1na2vs0mg"},{"bike_id":"44e86de4-bf79-4d5b-9fc6-96592ffd7c56","system_id":"levelo_inurba_marseille","lat":43.29276,"lon":5.4012,"is_reserved":false,"is_disabled":false,"rental_uris":{"android":"levelo://app?vid=44e86de4-bf79-4d5b-9fc6-96592ffd7c56","ios":"levelo://app?vid=44e86de4-bf79-4d5b-9fc6-96592ffd7c56"},"vehicle_type_id":"4","last_reported":1778681076,"current_range_meters":6000,"station_id":"ce4bh312rcd13ifvqdk0","pricing_plan_id":"cebpf4jnsgd1na2vs0mg"},{"bike_id":"f1e84b0a-01d2-41aa-b967-6d116bd52b1c","system_id":"levelo_inurba_marseille","lat":43.290064,"lon":5.356081,"is_reserved":false,"is_disabled":false,"rental_uris":{"android":"levelo://app?vid=f1e84b0a-01d2-41aa-b967-6d116bd52b1c","ios":"levelo://app?vid=f1e84b0a-01d2-41aa-b967-6d116bd52b1c"},"vehicle_type_id":"4","last_reported":1778681076,"current_range_meters":6000,"station_id":"ce4bhb92rcd13ifvqen0","pricing_plan_id":"cebpf4jnsgd1na2vs0mg"},{"bike_id":"0c047790-6226-43ee-bbcf-b080e7781393","system_id":"levelo_inurba_marseille","lat":43.3074,"lon":5.42444,"is_reserved":false,"is_disabled":false,"rental_uris":{"android":"levelo://app?vid=0c047790-6226-43ee-bbcf-b080e7781393","ios":"levelo://app?vid=0c047790-6226-43ee-bbcf-b080e7781393"},"vehicle_type_id":"4","last_reported":1778681076,"current_range_meters":6000,"station_id":"st_cvj6ca6bvosntc0bfgr0","pricing_plan_id":"cebpf4jnsgd1na2vs0mg"},{"bike_id":"2d10e514-f837-4317-bc95-e55fd58ee1f4","system_id":"levelo_inurba_marseille","lat":43.279918,"lon":5.416497,"is_reserved":false,"is_disabled":false,"rental_uris":{"android":"levelo://app?vid=2d10e514-f837-4317-bc95-e55fd58ee1f4","ios":"levelo://app?vid=2d10e514-f837-4317-bc95-e55fd58ee1f4"},"vehicle_type_id":"4","last_reported":1778681076,"current_range_meters":6000,"station_id":"ce4bho12rcd13ifvqh1g","pricing_plan_id":"cebpf4jnsgd1na2vs0mg"},{"bike_id":"1da6257b-f1af-4a48-8996-6c5a6ab19545","system_id":"levelo_inurba_marseille","lat":43.24687,"lon":5.38216,"is_reserved":false,"is_disabled":false,"rental_uris":{"android":"levelo://app?vid=1da6257b-f1af-4a48-8996-6c5a6ab19545","ios":"levelo://app?vid=1da6257b-f1af-4a48-8996-6c5a6ab19545"},"vehicle_type_id":"4","last_reported":1778681076,"current_range_meters":6000,"station_id":"ce4bhih2rcd13ifvqfr0","pricing_plan_id":"cebpf4jnsgd1na2vs0mg"},{"bike_id":"956d3970-513d-4d3e-b0cb-de78e752c34d","system_id":"levelo_inurba_marseille","lat":43.28166,"lon":5.40385,"is_reserved":false,"is_disabled":false,"rental_uris":{"android":"levelo://app?vid=956d3970-513d-4d3e-b0cb-de78e752c34d","ios":"levelo://app?vid=956d3970-513d-4d3e-b0cb-de78e752c34d"},"vehicle_type_id":"4","last_reported":1778681076,"current_range_meters":6000,"station_id":"","pricing_plan_id":"cebpf4jnsgd1na2vs0mg"},{"bike_id":"0390e088-2786-42df-b69f-8934c11d513f","system_id":"levelo_inurba_marseille","lat":43.29723,"lon":5.36624,"is_reserved":false,"is_disabled":false,"rental_uris":{"android":"levelo://app?vid=0390e088-2786-42df-b69f-8934c11d513f","ios":"levelo://app?vid=0390e088-2786-42df-b69f-8934c11d513f"},"vehicle_type_id":"4","last_reported":1778681076,"current_range_meters":6400,"station_id":"ce4bgn12rcd13ifvqbt0","pricing_plan_id":"cebpf4jnsgd1na2vs0mg"},{"bike_id":"0f1807cc-9d93-4021-8b9a-9457f4117b8b","system_id":"levelo_inurba_marseille","lat":43.32111,"lon":5.36784,"is_reserved":false,"is_disabled":false,"rental_uris":{"android":"levelo://app?vid=0f1807cc-9d93-4021-8b9a-9457f4117b8b","ios":"levelo://app?vid=0f1807cc-9d93-4021-8b9a-9457f4117b8b"},"vehicle_type_id":"4","last_reported":1778681076,"current_range_meters":6400,"station_id":"ce4bhrh2rcd13ifvqhug","pricing_plan_id":"cebpf4jnsgd1na2vs0mg"},{"bike_id":"19e877fd-e015-4a86-8008-1a0d333eea65","system_id":"levelo_inurba_marseille","lat":43.33541,"lon":5.3747,"is_reserved":false,"is_disabled":false,"rental_uris":{"android":"levelo://app?vid=19e877fd-e015-4a86-8008-1a0d333eea65","ios":"levelo://app?vid=19e877fd-e015-4a86-8008-1a0d333eea65"},"vehicle_type_id":"4","last_reported":1778681076,"current_range_meters":6400,"station_id":"st_d46tts09ee8s73dlu43g","pricing_plan_id":"cebpf4jnsgd1na2vs0mg"},{"bike_id":"1ae3456e-4feb-4e6e-b875-003634ca9869","system_id":"levelo_inurba_marseille","lat":43.30523,"lon":5.3653,"is_reserved":false,"is_disabled":false,"rental_uris":{"android":"levelo://app?vid=1ae3456e-4feb-4e6e-b875-003634ca9869","ios":"levelo://app?vid=1ae3456e-4feb-4e6e-b875-003634ca9869"},"vehicle_type_id":"4","last_reported":1778681076,"current_range_meters":6400,"station_id":"","pricing_plan_id":"cebpf4jnsgd1na2vs0mg"},{"bike_id":"a073844e-70ad-469b-9486-00db4f8e69dc","system_id":"levelo_inurba_marseille","lat":43.3144,"lon":5.37392,"is_reserved":false,"is_disabled":false,"rental_uris":{"android":"levelo://app?vid=a073844e-70ad-469b-9486-00db4f8e69dc","ios":"levelo://app?vid=a073844e-70ad-469b-9486-00db4f8e69dc"},"vehicle_type_id":"4","last_reported":1778681076,"current_range_meters":6400,"station_id":"","pricing_plan_id":"cebpf4jnsgd1na2vs0mg"},{"bike_id":"499cf116-1dff-4936-959c-23c1b14f6a2b","system_id":"levelo_inurba_marseille","lat":43.29094,"lon":5.37143,"is_reserved":false,"is_disabled":false,"rental_uris":{"android":"levelo://app?vid=499cf116-1dff-4936-959c-23c1b14f6a2b","ios":"levelo://app?vid=499cf116-1dff-4936-959c-23c1b14f6a2b"},"vehicle_type_id":"4","last_reported":1778681076,"current_range_meters":6400,"station_id":"ce4bh5p2rcd13ifvqe4g","pricing_plan_id":"cebpf4jnsgd1na2vs0mg"},{"bike_id":"f66b159e-0a40-4bd2-9e6a-f14e2d8ac06c","system_id":"levelo_inurba_marseille","lat":43.28409,"lon":5.37521,"is_reserved":false,"is_disabled":false,"rental_uris":{"android":"levelo://app?vid=f66b159e-0a40-4bd2-9e6a-f14e2d8ac06c","ios":"levelo://app?vid=f66b159e-0a40-4bd2-9e6a-f14e2d8ac06c"},"vehicle_type_id":"4","last_reported":1778681076,"current_range_meters":6400,"station_id":"ce4bh412rcd13ifvqds0","pricing_plan_id":"cebpf4jnsgd1na2vs0mg"},{"bike_id":"6cc55069-2f7f-428e-9d15-661ba41acf1f","system_id":"levelo_inurba_marseille","lat":43.29536,"lon":5.38539,"is_reserved":false,"is_disabled":false,"rental_uris":{"android":"levelo://app?vid=6cc55069-2f7f-428e-9d15-661ba41acf1f","ios":"levelo://app?vid=6cc55069-2f7f-428e-9d15-661ba41acf1f"},"vehicle_type_id":"4","last_reported":1778681076,"current_range_meters":6400,"station_id":"ce4bgih2rcd13ifvqba0","pricing_plan_id":"cebpf4jnsgd1na2vs0mg"},{"bike_id":"69f708b7-6479-4548-a5c4-b3cfaa66123e","system_id":"levelo_inurba_marseille","lat":43.29023,"lon":5.35605,"is_reserved":false,"is_disabled":false,"rental_uris":{"android":"levelo://app?vid=69f708b7-6479-4548-a5c4-b3cfaa66123e","ios":"levelo://app?vid=69f708b7-6479-4548-a5c4-b3cfaa66123e"},"vehicle_type_id":"4","last_reported":1778681076,"current_range_meters":6400,"station_id":"ce4bhb92rcd13ifvqen0","pricing_plan_id":"cebpf4jnsgd1na2vs0mg"},{"bike_id":"f9e11440-deb3-451b-8f73-de151eac06ed","system_id":"levelo_inurba_marseille","lat":43.29699,"lon":5.36603,"is_reserved":false,"is_disabled":false,"rental_uris":{"android":"levelo://app?vid=f9e11440-deb3-451b-8f73-de151eac06ed","ios":"levelo://app?vid=f9e11440-deb3-451b-8f73-de151eac06ed"},"vehicle_type_id":"4","last_reported":1778681076,"current_range_meters":6400,"station_id":"ce4bgn12rcd13ifvqbt0","pricing_plan_id":"cebpf4jnsgd1na2vs0mg"},{"bike_id":"45436511-7d00-4cfc-9258-a15059dbb105","system_id":"levelo_inurba_marseille","lat":43.30141,"lon":5.37433,"is_reserved":false,"is_disabled":true,"rental_uris":{"android":"levelo://app?vid=45436511-7d00-4cfc-9258-a15059dbb105","ios":"levelo://app?vid=45436511-7d00-4cfc-9258-a15059dbb105"},"vehicle_type_id":"4","last_reported":1778681076,"current_range_meters":6400,"station_id":"ce4bgs92rcd13ifvqcc0","pricing_plan_id":"cebpf4jnsgd1na2vs0mg"},{"bike_id":"bcc32e3e-1638-4841-a525-e4ec029bd951","system_id":"levelo_inurba_marseille","lat":43.29969,"lon":5.38499,"is_reserved":false,"is_disabled":false,"rental_uris":{"android":"levelo://app?vid=bcc32e3e-1638-4841-a525-e4ec029bd951","ios":"levelo://app?vid=bcc32e3e-1638-4841-a525-e4ec029bd951"},"vehicle_type_id":"4","last_reported":1778681076,"current_range_meters":6400,"station_id":"ce4bgj92rcd13ifvqbd0","pricing_plan_id":"cebpf4jnsgd1na2vs0mg"},{"bike_id":"e88123da-821e-43ec-b0c0-2420f640e7a6","system_id":"levelo_inurba_marseille","lat":43.290009,"lon":5.356123,"is_reserved":false,"is_disabled":false,"rental_uris":{"android":"levelo://app?vid=e88123da-821e-43ec-b0c0-2420f640e7a6","ios":"levelo://app?vid=e88123da-821e-43ec-b0c0-2420f640e7a6"},"vehicle_type_id":"4","last_reported":1778681076,"current_range_meters":6400,"station_id":"ce4bhb92rcd13ifvqen0","pricing_plan_id":"cebpf4jnsgd1na2vs0mg"},{"bike_id":"66753501-1dea-49a1-a9b2-fc86536c9571","system_id":"levelo_inurba_marseille","lat":43.2927,"lon":5.36842,"is_reserved":false,"is_disabled":false,"rental_uris":{"android":"levelo://app?vid=66753501-1dea-49a1-a9b2-fc86536c9571","ios":"levelo://app?vid=66753501-1dea-49a1-a9b2-fc86536c9571"},"vehicle_type_id":"4","last_reported":1778681076,"current_range_meters":6800,"station_id":"ce4bhbp2rcd13ifvqesg","pricing_plan_id":"cebpf4jnsgd1na2vs0mg"},{"bike_id":"bab941fc-f7cc-4362-a0cc-9b708da032ab","system_id":"levelo_inurba_marseille","lat":43.30145,"lon":5.36645,"is_reserved":false,"is_disabled":false,"rental_uris":{"android":"levelo://app?vid=bab941fc-f7cc-4362-a0cc-9b708da032ab","ios":"levelo://app?vid=bab941fc-f7cc-4362-a0cc-9b708da032ab"},"vehicle_type_id":"4","last_reported":1778681076,"current_range_meters":6800,"station_id":"","pricing_plan_id":"cebpf4jnsgd1na2vs0mg"},{"bike_id":"b477be1e-64c7-4e90-bc42-6fe97cda14a2","system_id":"levelo_inurba_marseille","lat":43.2982,"lon":5.42058,"is_reserved":false,"is_disabled":false,"rental_uris":{"android":"levelo://app?vid=b477be1e-64c7-4e90-bc42-6fe97cda14a2","ios":"levelo://app?vid=b477be1e-64c7-4e90-bc42-6fe97cda14a2"},"vehicle_type_id":"4","last_reported":1778681076,"current_range_meters":6800,"station_id":"","pricing_plan_id":"cebpf4jnsgd1na2vs0mg"},{"bike_id":"ce67f17c-d168-4475-b0c1-fabf17a86c69","system_id":"levelo_inurba_marseille","lat":43.29627,"lon":5.37163,"is_reserved":false,"is_disabled":false,"rental_uris":{"android":"levelo://app?vid=ce67f17c-d168-4475-b0c1-fabf17a86c69","ios":"levelo://app?vid=ce67f17c-d168-4475-b0c1-fabf17a86c69"},"vehicle_type_id":"4","last_reported":1778681076,"current_range_meters":6800,"station_id":"ce4bgnh2rcd13ifvqc0g","pricing_plan_id":"cebpf4jnsgd1na2vs0mg"},{"bike_id":"68bbdbe7-9f72-4642-9f37-9ae265a9daa7","system_id":"levelo_inurba_marseille","lat":43.24466,"lon":5.42539,"is_reserved":false,"is_disabled":false,"rental_uris":{"android":"levelo://app?vid=68bbdbe7-9f72-4642-9f37-9ae265a9daa7","ios":"levelo://app?vid=68bbdbe7-9f72-4642-9f37-9ae265a9daa7"},"vehicle_type_id":"4","last_reported":1778681076,"current_range_meters":6800,"station_id":"st_d4a3vfp97mjs738cd8kg","pricing_plan_id":"cebpf4jnsgd1na2vs0mg"},{"bike_id":"4196c41d-8bac-4f59-809d-20c5bacf0921","system_id":"levelo_inurba_marseille","lat":43.28684,"lon":5.46728,"is_reserved":false,"is_disabled":false,"rental_uris":{"android":"levelo://app?vid=4196c41d-8bac-4f59-809d-20c5bacf0921","ios":"levelo://app?vid=4196c41d-8bac-4f59-809d-20c5bacf0921"},"vehicle_type_id":"4","last_reported":1778681076,"current_range_meters":6800,"station_id":"st_d6tc3vkotcvc738tfjhg","pricing_plan_id":"cebpf4jnsgd1na2vs0mg"},{"bike_id":"33365701-971b-4be5-98fb-721102a7c62f","system_id":"levelo_inurba_marseille","lat":43.31367,"lon":5.38517,"is_reserved":false,"is_disabled":false,"rental_uris":{"android":"levelo://app?vid=33365701-971b-4be5-98fb-721102a7c62f","ios":"levelo://app?vid=33365701-971b-4be5-98fb-721102a7c62f"},"vehicle_type_id":"4","last_reported":1778681076,"current_range_meters":6800,"station_id":"ce4bgt92rcd13ifvqcf0","pricing_plan_id":"cebpf4jnsgd1na2vs0mg"},{"bike_id":"2f0eb61d-9fef-48b1-934d-b32dd59cd710","system_id":"levelo_inurba_marseille","lat":43.25733,"lon":5.41163,"is_reserved":false,"is_disabled":false,"rental_uris":{"android":"levelo://app?vid=2f0eb61d-9fef-48b1-934d-b32dd59cd710","ios":"levelo://app?vid=2f0eb61d-9fef-48b1-934d-b32dd59cd710"},"vehicle_type_id":"4","last_reported":1778681076,"current_range_meters":6800,"station_id":"","pricing_plan_id":"cebpf4jnsgd1na2vs0mg"},{"bike_id":"886a3e2b-d54d-4ba8-b468-a78a4a40f909","system_id":"levelo_inurba_marseille","lat":43.26374,"lon":5.41082,"is_reserved":false,"is_disabled":false,"rental_uris":{"android":"levelo://app?vid=886a3e2b-d54d-4ba8-b468-a78a4a40f909","ios":"levelo://app?vid=886a3e2b-d54d-4ba8-b468-a78a4a40f909"},"vehicle_type_id":"4","last_reported":1778681076,"current_range_meters":6800,"station_id":"st_d4e5ca6na9uc73bfl5fg","pricing_plan_id":"cebpf4jnsgd1na2vs0mg"},{"bike_id":"5b609fbc-1a63-4ded-9ebd-cf0154201962","system_id":"levelo_inurba_marseille","lat":43.31041,"lon":5.37176,"is_reserved":false,"is_disabled":false,"rental_uris":{"android":"levelo://app?vid=5b609fbc-1a63-4ded-9ebd-cf0154201962","ios":"levelo://app?vid=5b609fbc-1a63-4ded-9ebd-cf0154201962"},"vehicle_type_id":"4","last_reported":1778681076,"current_range_meters":6800,"station_id":"st_d4kl2rp97mjs73e7tdfg","pricing_plan_id":"cebpf4jnsgd1na2vs0mg"},{"bike_id":"56c9e722-db1b-4221-9ca7-7e9d5c290fcd","system_id":"levelo_inurba_marseille","lat":43.26221,"lon":5.4044,"is_reserved":false,"is_disabled":false,"rental_uris":{"android":"levelo://app?vid=56c9e722-db1b-4221-9ca7-7e9d5c290fcd","ios":"levelo://app?vid=56c9e722-db1b-4221-9ca7-7e9d5c290fcd"},"vehicle_type_id":"4","last_reported":1778681076,"current_range_meters":6800,"station_id":"ce4bhmh2rcd13ifvqgmg","pricing_plan_id":"cebpf4jnsgd1na2vs0mg"},{"bike_id":"0ad9f56c-0cb1-4ddd-bfff-c7b211f4a077","system_id":"levelo_inurba_marseille","lat":43.23479,"lon":5.37236,"is_reserved":false,"is_disabled":false,"rental_uris":{"android":"levelo://app?vid=0ad9f56c-0cb1-4ddd-bfff-c7b211f4a077","ios":"levelo://app?vid=0ad9f56c-0cb1-4ddd-bfff-c7b211f4a077"},"vehicle_type_id":"4","last_reported":1778681076,"current_range_meters":6800,"station_id":"","pricing_plan_id":"cebpf4jnsgd1na2vs0mg"},{"bike_id":"493a0385-1bd7-4c7c-b44d-5cb32023d209","system_id":"levelo_inurba_marseille","lat":43.28464,"lon":5.35887,"is_reserved":false,"is_disabled":false,"rental_uris":{"android":"levelo://app?vid=493a0385-1bd7-4c7c-b44d-5cb32023d209","ios":"levelo://app?vid=493a0385-1bd7-4c7c-b44d-5cb32023d209"},"vehicle_type_id":"4","last_reported":1778681076,"current_range_meters":6800,"station_id":"ce4bhah2rcd13ifvqei0","pricing_plan_id":"cebpf4jnsgd1na2vs0mg"},{"bike_id":"190e1df1-9ae7-4b10-8f66-3bf16b4ae39c","system_id":"levelo_inurba_marseille","lat":43.25091,"lon":5.39527,"is_reserved":false,"is_disabled":false,"rental_uris":{"android":"levelo://app?vid=190e1df1-9ae7-4b10-8f66-3bf16b4ae39c","ios":"levelo://app?vid=190e1df1-9ae7-4b10-8f66-3bf16b4ae39c"},"vehicle_type_id":"4","last_reported":1778681076,"current_range_meters":6800,"station_id":"ce4bhm12rcd13ifvqgkg","pricing_plan_id":"cebpf4jnsgd1na2vs0mg"},{"bike_id":"6f8b0d63-4a27-4c64-8991-130a8e2c7266","system_id":"levelo_inurba_marseille","lat":43.33163,"lon":5.37696,"is_reserved":false,"is_disabled":false,"rental_uris":{"android":"levelo://app?vid=6f8b0d63-4a27-4c64-8991-130a8e2c7266","ios":"levelo://app?vid=6f8b0d63-4a27-4c64-8991-130a8e2c7266"},"vehicle_type_id":"4","last_reported":1778681076,"current_range_meters":6800,"station_id":"st_d46cu089ee8s73dldbu0","pricing_plan_id":"cebpf4jnsgd1na2vs0mg"},{"bike_id":"6ce9189e-3bcd-44c8-90a0-8435ca9bae4a","system_id":"levelo_inurba_marseille","lat":43.28004,"lon":5.39336,"is_reserved":false,"is_disabled":false,"rental_uris":{"android":"levelo://app?vid=6ce9189e-3bcd-44c8-90a0-8435ca9bae4a","ios":"levelo://app?vid=6ce9189e-3bcd-44c8-90a0-8435ca9bae4a"},"vehicle_type_id":"4","last_reported":1778681076,"current_range_meters":6800,"station_id":"","pricing_plan_id":"cebpf4jnsgd1na2vs0mg"},{"bike_id":"64b62b18-b814-4dc3-8090-c8c0105a73f8","system_id":"levelo_inurba_marseille","lat":43.299713,"lon":5.37188,"is_reserved":false,"is_disabled":false,"rental_uris":{"android":"levelo://app?vid=64b62b18-b814-4dc3-8090-c8c0105a73f8","ios":"levelo://app?vid=64b62b18-b814-4dc3-8090-c8c0105a73f8"},"vehicle_type_id":"4","last_reported":1778681076,"current_range_meters":7200,"station_id":"ce4bgr92rcd13ifvqc7g","pricing_plan_id":"cebpf4jnsgd1na2vs0mg"},{"bike_id":"0aa26d60-579b-4a0a-878e-0f9323c7c1cf","system_id":"levelo_inurba_marseille","lat":43.25731,"lon":5.41102,"is_reserved":false,"is_disabled":false,"rental_uris":{"android":"levelo://app?vid=0aa26d60-579b-4a0a-878e-0f9323c7c1cf","ios":"levelo://app?vid=0aa26d60-579b-4a0a-878e-0f9323c7c1cf"},"vehicle_type_id":"4","last_reported":1778681076,"current_range_meters":7200,"station_id":"ce4bhkp2rcd13ifvqgd0","pricing_plan_id":"cebpf4jnsgd1na2vs0mg"},{"bike_id":"9a91aa84-8393-4a6f-a253-872e60fa6449","system_id":"levelo_inurba_marseille","lat":43.30142,"lon":5.38781,"is_reserved":false,"is_disabled":false,"rental_uris":{"android":"levelo://app?vid=9a91aa84-8393-4a6f-a253-872e60fa6449","ios":"levelo://app?vid=9a91aa84-8393-4a6f-a253-872e60fa6449"},"vehicle_type_id":"4","last_reported":1778681076,"current_range_meters":7200,"station_id":"ce4bghh2rcd13ifvqb60","pricing_plan_id":"cebpf4jnsgd1na2vs0mg"},{"bike_id":"a790a6ce-a159-4f93-8d3e-5ce0fb35421c","system_id":"levelo_inurba_marseille","lat":43.30202,"lon":5.38062,"is_reserved":false,"is_disabled":false,"rental_uris":{"android":"levelo://app?vid=a790a6ce-a159-4f93-8d3e-5ce0fb35421c","ios":"levelo://app?vid=a790a6ce-a159-4f93-8d3e-5ce0fb35421c"},"vehicle_type_id":"4","last_reported":1778681076,"current_range_meters":7200,"station_id":"","pricing_plan_id":"cebpf4jnsgd1na2vs0mg"},{"bike_id":"638f0fd9-8092-4d8b-9b9b-e7a2a736b653","system_id":"levelo_inurba_marseille","lat":43.27512,"lon":5.41575,"is_reserved":false,"is_disabled":true,"rental_uris":{"android":"levelo://app?vid=638f0fd9-8092-4d8b-9b9b-e7a2a736b653","ios":"levelo://app?vid=638f0fd9-8092-4d8b-9b9b-e7a2a736b653"},"vehicle_type_id":"4","last_reported":1778681076,"current_range_meters":7200,"station_id":"st_d6im8g6chgec73a5pndg","pricing_plan_id":"cebpf4jnsgd1na2vs0mg"},{"bike_id":"7c642d40-bb03-4c1b-b89f-2852bbe13825","system_id":"levelo_inurba_marseille","lat":43.24244,"lon":5.39277,"is_reserved":false,"is_disabled":false,"rental_uris":{"android":"levelo://app?vid=7c642d40-bb03-4c1b-b89f-2852bbe13825","ios":"levelo://app?vid=7c642d40-bb03-4c1b-b89f-2852bbe13825"},"vehicle_type_id":"4","last_reported":1778681076,"current_range_meters":7200,"station_id":"","pricing_plan_id":"cebpf4jnsgd1na2vs0mg"},{"bike_id":"cd3bf1fa-127b-48f3-b4b1-cec37ebb83c9","system_id":"levelo_inurba_marseille","lat":43.23791,"lon":5.36652,"is_reserved":false,"is_disabled":false,"rental_uris":{"android":"levelo://app?vid=cd3bf1fa-127b-48f3-b4b1-cec37ebb83c9","ios":"levelo://app?vid=cd3bf1fa-127b-48f3-b4b1-cec37ebb83c9"},"vehicle_type_id":"4","last_reported":1778681076,"current_range_meters":7200,"station_id":"st_d3nk18o9ro0c73en2l3g","pricing_plan_id":"cebpf4jnsgd1na2vs0mg"},{"bike_id":"319b5d55-0fac-4501-b6c8-1114f7649a2c","system_id":"levelo_inurba_marseille","lat":43.26771,"lon":5.3943,"is_reserved":false,"is_disabled":false,"rental_uris":{"android":"levelo://app?vid=319b5d55-0fac-4501-b6c8-1114f7649a2c","ios":"levelo://app?vid=319b5d55-0fac-4501-b6c8-1114f7649a2c"},"vehicle_type_id":"4","last_reported":1778681076,"current_range_meters":7200,"station_id":"ce4bhh12rcd13ifvqfg0","pricing_plan_id":"cebpf4jnsgd1na2vs0mg"},{"bike_id":"72ab6bd9-b373-427a-abe3-e9b8a158d0c3","system_id":"levelo_inurba_marseille","lat":43.284846,"lon":5.384163,"is_reserved":false,"is_disabled":false,"rental_uris":{"android":"levelo://app?vid=72ab6bd9-b373-427a-abe3-e9b8a158d0c3","ios":"levelo://app?vid=72ab6bd9-b373-427a-abe3-e9b8a158d0c3"},"vehicle_type_id":"4","last_reported":1778681076,"current_range_meters":7200,"station_id":"ce4bh512rcd13ifvqe3g","pricing_plan_id":"cebpf4jnsgd1na2vs0mg"},{"bike_id":"94ad0b25-5e51-427b-975e-dbf854287092","system_id":"levelo_inurba_marseille","lat":43.27323,"lon":5.39143,"is_reserved":false,"is_disabled":false,"rental_uris":{"android":"levelo://app?vid=94ad0b25-5e51-427b-975e-dbf854287092","ios":"levelo://app?vid=94ad0b25-5e51-427b-975e-dbf854287092"},"vehicle_type_id":"4","last_reported":1778681076,"current_range_meters":7200,"station_id":"","pricing_plan_id":"cebpf4jnsgd1na2vs0mg"},{"bike_id":"9170cb62-7464-4665-9d47-62ee9a1d92c2","system_id":"levelo_inurba_marseille","lat":43.24656,"lon":5.38206,"is_reserved":false,"is_disabled":false,"rental_uris":{"android":"levelo://app?vid=9170cb62-7464-4665-9d47-62ee9a1d92c2","ios":"levelo://app?vid=9170cb62-7464-4665-9d47-62ee9a1d92c2"},"vehicle_type_id":"4","last_reported":1778681076,"current_range_meters":7200,"station_id":"ce4bhih2rcd13ifvqfr0","pricing_plan_id":"cebpf4jnsgd1na2vs0mg"},{"bike_id":"7e0e624a-e7c5-438d-98e8-19ad2e58f270","system_id":"levelo_inurba_marseille","lat":43.26787,"lon":5.39415,"is_reserved":false,"is_disabled":false,"rental_uris":{"android":"levelo://app?vid=7e0e624a-e7c5-438d-98e8-19ad2e58f270","ios":"levelo://app?vid=7e0e624a-e7c5-438d-98e8-19ad2e58f270"},"vehicle_type_id":"4","last_reported":1778681076,"current_range_meters":7200,"station_id":"ce4bhh12rcd13ifvqfg0","pricing_plan_id":"cebpf4jnsgd1na2vs0mg"},{"bike_id":"b7e92096-5e0a-4b06-9d1c-641dd87d564c","system_id":"levelo_inurba_marseille","lat":43.299144,"lon":5.381463,"is_reserved":false,"is_disabled":false,"rental_uris":{"android":"levelo://app?vid=b7e92096-5e0a-4b06-9d1c-641dd87d564c","ios":"levelo://app?vid=b7e92096-5e0a-4b06-9d1c-641dd87d564c"},"vehicle_type_id":"4","last_reported":1778681076,"current_range_meters":7200,"station_id":"ce4bgj12rcd13ifvqbc0","pricing_plan_id":"cebpf4jnsgd1na2vs0mg"},{"bike_id":"1fa6c2e5-6369-44b0-932a-52ae09b7a491","system_id":"levelo_inurba_marseille","lat":43.25572,"lon":5.38244,"is_reserved":false,"is_disabled":false,"rental_uris":{"android":"levelo://app?vid=1fa6c2e5-6369-44b0-932a-52ae09b7a491","ios":"levelo://app?vid=1fa6c2e5-6369-44b0-932a-52ae09b7a491"},"vehicle_type_id":"4","last_reported":1778681076,"current_range_meters":7200,"station_id":"ce4bhih2rcd13ifvqfs0","pricing_plan_id":"cebpf4jnsgd1na2vs0mg"},{"bike_id":"9a58ca7c-e3f1-470f-aa1d-a424d69785bb","system_id":"levelo_inurba_marseille","lat":43.21758,"lon":5.34605,"is_reserved":false,"is_disabled":false,"rental_uris":{"android":"levelo://app?vid=9a58ca7c-e3f1-470f-aa1d-a424d69785bb","ios":"levelo://app?vid=9a58ca7c-e3f1-470f-aa1d-a424d69785bb"},"vehicle_type_id":"4","last_reported":1778681076,"current_range_meters":7200,"station_id":"st_cvj6r9ubvosntc0bgbag","pricing_plan_id":"cebpf4jnsgd1na2vs0mg"},{"bike_id":"4ed34391-f5d4-4f34-9e81-72d6a65ff383","system_id":"levelo_inurba_marseille","lat":43.27921,"lon":5.39583,"is_reserved":false,"is_disabled":true,"rental_uris":{"android":"levelo://app?vid=4ed34391-f5d4-4f34-9e81-72d6a65ff383","ios":"levelo://app?vid=4ed34391-f5d4-4f34-9e81-72d6a65ff383"},"vehicle_type_id":"4","last_reported":1778681076,"current_range_meters":7200,"station_id":"ce4bhf92rcd13ifvqf40","pricing_plan_id":"cebpf4jnsgd1na2vs0mg"},{"bike_id":"30f8e6d4-83a6-4a92-a859-a35a296eed10","system_id":"levelo_inurba_marseille","lat":43.24089,"lon":5.37731,"is_reserved":false,"is_disabled":false,"rental_uris":{"android":"levelo://app?vid=30f8e6d4-83a6-4a92-a859-a35a296eed10","ios":"levelo://app?vid=30f8e6d4-83a6-4a92-a859-a35a296eed10"},"vehicle_type_id":"4","last_reported":1778681076,"current_range_meters":7200,"station_id":"ce4bhnp2rcd13ifvqgvg","pricing_plan_id":"cebpf4jnsgd1na2vs0mg"},{"bike_id":"6f9a9a97-64fd-4c09-9fd5-fce787af8bd3","system_id":"levelo_inurba_marseille","lat":43.31321,"lon":5.39697,"is_reserved":false,"is_disabled":false,"rental_uris":{"android":"levelo://app?vid=6f9a9a97-64fd-4c09-9fd5-fce787af8bd3","ios":"levelo://app?vid=6f9a9a97-64fd-4c09-9fd5-fce787af8bd3"},"vehicle_type_id":"4","last_reported":1778681076,"current_range_meters":7200,"station_id":"ce4bgvp2rcd13ifvqcu0","pricing_plan_id":"cebpf4jnsgd1na2vs0mg"},{"bike_id":"ddee2f36-3b1a-47d8-9fea-ec2535d470b6","system_id":"levelo_inurba_marseille","lat":43.29538,"lon":5.39024,"is_reserved":false,"is_disabled":false,"rental_uris":{"android":"levelo://app?vid=ddee2f36-3b1a-47d8-9fea-ec2535d470b6","ios":"levelo://app?vid=ddee2f36-3b1a-47d8-9fea-ec2535d470b6"},"vehicle_type_id":"4","last_reported":1778681076,"current_range_meters":7200,"station_id":"ce4bh3p2rcd13ifvqdp0","pricing_plan_id":"cebpf4jnsgd1na2vs0mg"},{"bike_id":"6571a48f-2613-4d23-8622-e8883c1f3d55","system_id":"levelo_inurba_marseille","lat":43.23963,"lon":5.36636,"is_reserved":false,"is_disabled":false,"rental_uris":{"android":"levelo://app?vid=6571a48f-2613-4d23-8622-e8883c1f3d55","ios":"levelo://app?vid=6571a48f-2613-4d23-8622-e8883c1f3d55"},"vehicle_type_id":"4","last_reported":1778681076,"current_range_meters":7200,"station_id":"ce4bhi12rcd13ifvqfp0","pricing_plan_id":"cebpf4jnsgd1na2vs0mg"},{"bike_id":"dd9124d2-eae5-4f60-ad7a-7ef70e61f6d7","system_id":"levelo_inurba_marseille","lat":43.3353,"lon":5.37462,"is_reserved":false,"is_disabled":false,"rental_uris":{"android":"levelo://app?vid=dd9124d2-eae5-4f60-ad7a-7ef70e61f6d7","ios":"levelo://app?vid=dd9124d2-eae5-4f60-ad7a-7ef70e61f6d7"},"vehicle_type_id":"4","last_reported":1778681076,"current_range_meters":8000,"station_id":"st_d46tts09ee8s73dlu43g","pricing_plan_id":"cebpf4jnsgd1na2vs0mg"},{"bike_id":"ba0d6435-d551-4229-ae87-ed472a0a2e59","system_id":"levelo_inurba_marseille","lat":43.2949,"lon":5.43285,"is_reserved":false,"is_disabled":false,"rental_uris":{"android":"levelo://app?vid=ba0d6435-d551-4229-ae87-ed472a0a2e59","ios":"levelo://app?vid=ba0d6435-d551-4229-ae87-ed472a0a2e59"},"vehicle_type_id":"4","last_reported":1778681076,"current_range_meters":8000,"station_id":"st_d3j5ugp08ojc73fj9d10","pricing_plan_id":"cebpf4jnsgd1na2vs0mg"},{"bike_id":"3a0a303a-4c01-46ad-ba0b-98f8b7c8e79f","system_id":"levelo_inurba_marseille","lat":43.31331,"lon":5.36736,"is_reserved":false,"is_disabled":false,"rental_uris":{"android":"levelo://app?vid=3a0a303a-4c01-46ad-ba0b-98f8b7c8e79f","ios":"levelo://app?vid=3a0a303a-4c01-46ad-ba0b-98f8b7c8e79f"},"vehicle_type_id":"4","last_reported":1778681076,"current_range_meters":8000,"station_id":"ce4bgr92rcd13ifvqc6g","pricing_plan_id":"cebpf4jnsgd1na2vs0mg"},{"bike_id":"a0f7cefe-fc71-464a-aa1c-a531dfe3833d","system_id":"levelo_inurba_marseille","lat":43.30541,"lon":5.36592,"is_reserved":false,"is_disabled":false,"rental_uris":{"android":"levelo://app?vid=a0f7cefe-fc71-464a-aa1c-a531dfe3833d","ios":"levelo://app?vid=a0f7cefe-fc71-464a-aa1c-a531dfe3833d"},"vehicle_type_id":"4","last_reported":1778681076,"current_range_meters":8000,"station_id":"ce4bgs12rcd13ifvqcag","pricing_plan_id":"cebpf4jnsgd1na2vs0mg"},{"bike_id":"44769a63-2434-4160-917d-9d5801eaf9ed","system_id":"levelo_inurba_marseille","lat":43.23959,"lon":5.36645,"is_reserved":false,"is_disabled":false,"rental_uris":{"android":"levelo://app?vid=44769a63-2434-4160-917d-9d5801eaf9ed","ios":"levelo://app?vid=44769a63-2434-4160-917d-9d5801eaf9ed"},"vehicle_type_id":"4","last_reported":1778681076,"current_range_meters":8000,"station_id":"ce4bhi12rcd13ifvqfp0","pricing_plan_id":"cebpf4jnsgd1na2vs0mg"},{"bike_id":"b49695fe-dce9-4e2a-aa09-517ac9f3c6d9","system_id":"levelo_inurba_marseille","lat":43.262125,"lon":5.374393,"is_reserved":false,"is_disabled":false,"rental_uris":{"android":"levelo://app?vid=b49695fe-dce9-4e2a-aa09-517ac9f3c6d9","ios":"levelo://app?vid=b49695fe-dce9-4e2a-aa09-517ac9f3c6d9"},"vehicle_type_id":"4","last_reported":1778681076,"current_range_meters":8000,"station_id":"ce4bhgp2rcd13ifvqfc0","pricing_plan_id":"cebpf4jnsgd1na2vs0mg"},{"bike_id":"0466b201-3fc7-4f76-9cf6-e04e59b647fb","system_id":"levelo_inurba_marseille","lat":43.24403,"lon":5.37065,"is_reserved":false,"is_disabled":false,"rental_uris":{"android":"levelo://app?vid=0466b201-3fc7-4f76-9cf6-e04e59b647fb","ios":"levelo://app?vid=0466b201-3fc7-4f76-9cf6-e04e59b647fb"},"vehicle_type_id":"4","last_reported":1778681076,"current_range_meters":8000,"station_id":"ce4bhhh2rcd13ifvqfk0","pricing_plan_id":"cebpf4jnsgd1na2vs0mg"},{"bike_id":"4126dba0-03fb-42b7-ba68-0a296c63b790","system_id":"levelo_inurba_marseille","lat":43.290007,"lon":5.356125,"is_reserved":false,"is_disabled":false,"rental_uris":{"android":"levelo://app?vid=4126dba0-03fb-42b7-ba68-0a296c63b790","ios":"levelo://app?vid=4126dba0-03fb-42b7-ba68-0a296c63b790"},"vehicle_type_id":"4","last_reported":1778681076,"current_range_meters":8000,"station_id":"ce4bhb92rcd13ifvqen0","pricing_plan_id":"cebpf4jnsgd1na2vs0mg"},{"bike_id":"0ca51679-944e-4c38-ad98-9b7b5affb644","system_id":"levelo_inurba_marseille","lat":43.30609,"lon":5.36503,"is_reserved":false,"is_disabled":false,"rental_uris":{"android":"levelo://app?vid=0ca51679-944e-4c38-ad98-9b7b5affb644","ios":"levelo://app?vid=0ca51679-944e-4c38-ad98-9b7b5affb644"},"vehicle_type_id":"4","last_reported":1778681076,"current_range_meters":8000,"station_id":"","pricing_plan_id":"cebpf4jnsgd1na2vs0mg"},{"bike_id":"3d10bf0f-0f6d-4a75-86ad-26901373ecca","system_id":"levelo_inurba_marseille","lat":43.33161,"lon":5.37693,"is_reserved":false,"is_disabled":false,"rental_uris":{"android":"levelo://app?vid=3d10bf0f-0f6d-4a75-86ad-26901373ecca","ios":"levelo://app?vid=3d10bf0f-0f6d-4a75-86ad-26901373ecca"},"vehicle_type_id":"4","last_reported":1778681076,"current_range_meters":8000,"station_id":"st_d46cu089ee8s73dldbu0","pricing_plan_id":"cebpf4jnsgd1na2vs0mg"},{"bike_id":"dd9d2dfb-afdd-4bed-aa38-8b17dff351c8","system_id":"levelo_inurba_marseille","lat":43.26944,"lon":5.40281,"is_reserved":false,"is_disabled":true,"rental_uris":{"android":"levelo://app?vid=dd9d2dfb-afdd-4bed-aa38-8b17dff351c8","ios":"levelo://app?vid=dd9d2dfb-afdd-4bed-aa38-8b17dff351c8"},"vehicle_type_id":"4","last_reported":1778681076,"current_range_meters":8000,"station_id":"cjm6bp8fraef2m0cb0m0","pricing_plan_id":"cebpf4jnsgd1na2vs0mg"},{"bike_id":"c12802cd-0d3b-437f-8251-de5da46a4f0b","system_id":"levelo_inurba_marseille","lat":43.31193,"lon":5.40157,"is_reserved":false,"is_disabled":false,"rental_uris":{"android":"levelo://app?vid=c12802cd-0d3b-437f-8251-de5da46a4f0b","ios":"levelo://app?vid=c12802cd-0d3b-437f-8251-de5da46a4f0b"},"vehicle_type_id":"4","last_reported":1778681076,"current_range_meters":8000,"station_id":"","pricing_plan_id":"cebpf4jnsgd1na2vs0mg"},{"bike_id":"e5c04703-81b7-47d9-a859-f5a694af719d","system_id":"levelo_inurba_marseille","lat":43.2894,"lon":5.36628,"is_reserved":false,"is_disabled":false,"rental_uris":{"android":"levelo://app?vid=e5c04703-81b7-47d9-a859-f5a694af719d","ios":"levelo://app?vid=e5c04703-81b7-47d9-a859-f5a694af719d"},"vehicle_type_id":"4","last_reported":1778681076,"current_range_meters":8000,"station_id":"ce4bhap2rcd13ifvqek0","pricing_plan_id":"cebpf4jnsgd1na2vs0mg"},{"bike_id":"ca7657d2-803b-4369-811e-fa48dad0241b","system_id":"levelo_inurba_marseille","lat":43.295178,"lon":5.390498,"is_reserved":false,"is_disabled":false,"rental_uris":{"android":"levelo://app?vid=ca7657d2-803b-4369-811e-fa48dad0241b","ios":"levelo://app?vid=ca7657d2-803b-4369-811e-fa48dad0241b"},"vehicle_type_id":"4","last_reported":1778681076,"current_range_meters":8000,"station_id":"ce4bh3p2rcd13ifvqdp0","pricing_plan_id":"cebpf4jnsgd1na2vs0mg"},{"bike_id":"5ea0a8a1-6919-4f26-a399-0d9507e41581","system_id":"levelo_inurba_marseille","lat":43.29309,"lon":5.37179,"is_reserved":false,"is_disabled":false,"rental_uris":{"android":"levelo://app?vid=5ea0a8a1-6919-4f26-a399-0d9507e41581","ios":"levelo://app?vid=5ea0a8a1-6919-4f26-a399-0d9507e41581"},"vehicle_type_id":"4","last_reported":1778681076,"current_range_meters":8000,"station_id":"ce4bgh92rcd13ifvqb40","pricing_plan_id":"cebpf4jnsgd1na2vs0mg"},{"bike_id":"628fe210-30f7-46d7-a69f-4949132189e9","system_id":"levelo_inurba_marseille","lat":43.30805,"lon":5.38143,"is_reserved":false,"is_disabled":false,"rental_uris":{"android":"levelo://app?vid=628fe210-30f7-46d7-a69f-4949132189e9","ios":"levelo://app?vid=628fe210-30f7-46d7-a69f-4949132189e9"},"vehicle_type_id":"4","last_reported":1778681076,"current_range_meters":8000,"station_id":"ce4bgt12rcd13ifvqce0","pricing_plan_id":"cebpf4jnsgd1na2vs0mg"},{"bike_id":"0263c50b-f210-4cc6-9792-dd578a79a19d","system_id":"levelo_inurba_marseille","lat":43.23896,"lon":5.3745,"is_reserved":false,"is_disabled":false,"rental_uris":{"android":"levelo://app?vid=0263c50b-f210-4cc6-9792-dd578a79a19d","ios":"levelo://app?vid=0263c50b-f210-4cc6-9792-dd578a79a19d"},"vehicle_type_id":"4","last_reported":1778681076,"current_range_meters":8000,"station_id":"st_d6sm7csbq4hs73f8fpjg","pricing_plan_id":"cebpf4jnsgd1na2vs0mg"},{"bike_id":"537d4411-5030-4572-ac33-d1ccb81e4b1b","system_id":"levelo_inurba_marseille","lat":43.29108,"lon":5.38133,"is_reserved":false,"is_disabled":false,"rental_uris":{"android":"levelo://app?vid=537d4411-5030-4572-ac33-d1ccb81e4b1b","ios":"levelo://app?vid=537d4411-5030-4572-ac33-d1ccb81e4b1b"},"vehicle_type_id":"4","last_reported":1778681076,"current_range_meters":8000,"station_id":"ce4bh512rcd13ifvqe2g","pricing_plan_id":"cebpf4jnsgd1na2vs0mg"},{"bike_id":"e9fdd7c4-fea5-413d-a006-c77dc66cc2d0","system_id":"levelo_inurba_marseille","lat":43.24649,"lon":5.38892,"is_reserved":false,"is_disabled":false,"rental_uris":{"android":"levelo://app?vid=e9fdd7c4-fea5-413d-a006-c77dc66cc2d0","ios":"levelo://app?vid=e9fdd7c4-fea5-413d-a006-c77dc66cc2d0"},"vehicle_type_id":"4","last_reported":1778681076,"current_range_meters":8000,"station_id":"ce4bhg12rcd13ifvqf60","pricing_plan_id":"cebpf4jnsgd1na2vs0mg"},{"bike_id":"079f1509-fbc4-4bf6-98a2-7fdd01a05902","system_id":"levelo_inurba_marseille","lat":43.29053,"lon":5.4001,"is_reserved":false,"is_disabled":false,"rental_uris":{"android":"levelo://app?vid=079f1509-fbc4-4bf6-98a2-7fdd01a05902","ios":"levelo://app?vid=079f1509-fbc4-4bf6-98a2-7fdd01a05902"},"vehicle_type_id":"4","last_reported":1778681076,"current_range_meters":8400,"station_id":"ce4bh392rcd13ifvqdm0","pricing_plan_id":"cebpf4jnsgd1na2vs0mg"},{"bike_id":"a31c3251-27ec-4293-8a8b-1e4a34df05a5","system_id":"levelo_inurba_marseille","lat":43.270776,"lon":5.422738,"is_reserved":false,"is_disabled":false,"rental_uris":{"android":"levelo://app?vid=a31c3251-27ec-4293-8a8b-1e4a34df05a5","ios":"levelo://app?vid=a31c3251-27ec-4293-8a8b-1e4a34df05a5"},"vehicle_type_id":"4","last_reported":1778681076,"current_range_meters":8400,"station_id":"ce4bhk92rcd13ifvqgb0","pricing_plan_id":"cebpf4jnsgd1na2vs0mg"},{"bike_id":"66932e16-c230-4fbd-b816-a1b7511001b1","system_id":"levelo_inurba_marseille","lat":43.3016,"lon":5.3808,"is_reserved":false,"is_disabled":false,"rental_uris":{"android":"levelo://app?vid=66932e16-c230-4fbd-b816-a1b7511001b1","ios":"levelo://app?vid=66932e16-c230-4fbd-b816-a1b7511001b1"},"vehicle_type_id":"4","last_reported":1778681076,"current_range_meters":8400,"station_id":"ce4bgjp2rcd13ifvqbh0","pricing_plan_id":"cebpf4jnsgd1na2vs0mg"},{"bike_id":"4e528f4c-3558-4ea0-8fad-771eb4a0d8d7","system_id":"levelo_inurba_marseille","lat":43.27222,"lon":5.3928,"is_reserved":false,"is_disabled":false,"rental_uris":{"android":"levelo://app?vid=4e528f4c-3558-4ea0-8fad-771eb4a0d8d7","ios":"levelo://app?vid=4e528f4c-3558-4ea0-8fad-771eb4a0d8d7"},"vehicle_type_id":"4","last_reported":1778681076,"current_range_meters":8400,"station_id":"","pricing_plan_id":"cebpf4jnsgd1na2vs0mg"},{"bike_id":"e674830d-86a6-4c46-932e-e768241a2330","system_id":"levelo_inurba_marseille","lat":43.28932,"lon":5.36646,"is_reserved":false,"is_disabled":false,"rental_uris":{"android":"levelo://app?vid=e674830d-86a6-4c46-932e-e768241a2330","ios":"levelo://app?vid=e674830d-86a6-4c46-932e-e768241a2330"},"vehicle_type_id":"4","last_reported":1778681076,"current_range_meters":8400,"station_id":"","pricing_plan_id":"cebpf4jnsgd1na2vs0mg"},{"bike_id":"c46684d1-5ff3-4377-a130-32a769e15593","system_id":"levelo_inurba_marseille","lat":43.26554,"lon":5.3728,"is_reserved":false,"is_disabled":false,"rental_uris":{"android":"levelo://app?vid=c46684d1-5ff3-4377-a130-32a769e15593","ios":"levelo://app?vid=c46684d1-5ff3-4377-a130-32a769e15593"},"vehicle_type_id":"4","last_reported":1778681076,"current_range_meters":8400,"station_id":"ce4bhg12rcd13ifvqf70","pricing_plan_id":"cebpf4jnsgd1na2vs0mg"},{"bike_id":"05fe614c-6253-402e-ba57-fd40ea858015","system_id":"levelo_inurba_marseille","lat":43.270561,"lon":5.383132,"is_reserved":false,"is_disabled":false,"rental_uris":{"android":"levelo://app?vid=05fe614c-6253-402e-ba57-fd40ea858015","ios":"levelo://app?vid=05fe614c-6253-402e-ba57-fd40ea858015"},"vehicle_type_id":"4","last_reported":1778681076,"current_range_meters":8400,"station_id":"st_d3n2fo6cfp8s73cte1j0","pricing_plan_id":"cebpf4jnsgd1na2vs0mg"},{"bike_id":"009f7492-dda4-4f67-b993-289f0d8cc22d","system_id":"levelo_inurba_marseille","lat":43.31119,"lon":5.37762,"is_reserved":false,"is_disabled":false,"rental_uris":{"android":"levelo://app?vid=009f7492-dda4-4f67-b993-289f0d8cc22d","ios":"levelo://app?vid=009f7492-dda4-4f67-b993-289f0d8cc22d"},"vehicle_type_id":"4","last_reported":1778681076,"current_range_meters":8400,"station_id":"ce4bgt92rcd13ifvqcg0","pricing_plan_id":"cebpf4jnsgd1na2vs0mg"},{"bike_id":"9318fa1c-4cc8-444b-997a-7a44b36741bf","system_id":"levelo_inurba_marseille","lat":43.30265,"lon":5.3773,"is_reserved":false,"is_disabled":false,"rental_uris":{"android":"levelo://app?vid=9318fa1c-4cc8-444b-997a-7a44b36741bf","ios":"levelo://app?vid=9318fa1c-4cc8-444b-997a-7a44b36741bf"},"vehicle_type_id":"4","last_reported":1778681076,"current_range_meters":8400,"station_id":"ce4bguh2rcd13ifvqcj0","pricing_plan_id":"cebpf4jnsgd1na2vs0mg"},{"bike_id":"83882020-be4a-49e6-b54f-fdc3a3a68d4d","system_id":"levelo_inurba_marseille","lat":43.29522,"lon":5.38539,"is_reserved":false,"is_disabled":false,"rental_uris":{"android":"levelo://app?vid=83882020-be4a-49e6-b54f-fdc3a3a68d4d","ios":"levelo://app?vid=83882020-be4a-49e6-b54f-fdc3a3a68d4d"},"vehicle_type_id":"4","last_reported":1778681076,"current_range_meters":8400,"station_id":"ce4bgih2rcd13ifvqba0","pricing_plan_id":"cebpf4jnsgd1na2vs0mg"},{"bike_id":"d43c8038-a5ad-42c8-8e18-e51fec3d3965","system_id":"levelo_inurba_marseille","lat":43.33542,"lon":5.37469,"is_reserved":false,"is_disabled":false,"rental_uris":{"android":"levelo://app?vid=d43c8038-a5ad-42c8-8e18-e51fec3d3965","ios":"levelo://app?vid=d43c8038-a5ad-42c8-8e18-e51fec3d3965"},"vehicle_type_id":"4","last_reported":1778681076,"current_range_meters":8400,"station_id":"st_d46tts09ee8s73dlu43g","pricing_plan_id":"cebpf4jnsgd1na2vs0mg"},{"bike_id":"a01394ad-f23b-4d15-98e3-74772d28c7d8","system_id":"levelo_inurba_marseille","lat":43.26556,"lon":5.37293,"is_reserved":false,"is_disabled":false,"rental_uris":{"android":"levelo://app?vid=a01394ad-f23b-4d15-98e3-74772d28c7d8","ios":"levelo://app?vid=a01394ad-f23b-4d15-98e3-74772d28c7d8"},"vehicle_type_id":"4","last_reported":1778681076,"current_range_meters":8400,"station_id":"ce4bhg12rcd13ifvqf70","pricing_plan_id":"cebpf4jnsgd1na2vs0mg"},{"bike_id":"91d5ec01-2658-4e1f-af1a-245fb7ea3595","system_id":"levelo_inurba_marseille","lat":43.28681,"lon":5.46675,"is_reserved":false,"is_disabled":false,"rental_uris":{"android":"levelo://app?vid=91d5ec01-2658-4e1f-af1a-245fb7ea3595","ios":"levelo://app?vid=91d5ec01-2658-4e1f-af1a-245fb7ea3595"},"vehicle_type_id":"4","last_reported":1778681076,"current_range_meters":8400,"station_id":"st_d6tc3vkotcvc738tfjhg","pricing_plan_id":"cebpf4jnsgd1na2vs0mg"},{"bike_id":"1ce89602-7cb0-4cc5-a3c5-fbcf4bd6e324","system_id":"levelo_inurba_marseille","lat":43.263742,"lon":5.410775,"is_reserved":false,"is_disabled":false,"rental_uris":{"android":"levelo://app?vid=1ce89602-7cb0-4cc5-a3c5-fbcf4bd6e324","ios":"levelo://app?vid=1ce89602-7cb0-4cc5-a3c5-fbcf4bd6e324"},"vehicle_type_id":"4","last_reported":1778681076,"current_range_meters":8400,"station_id":"st_d4e5ca6na9uc73bfl5fg","pricing_plan_id":"cebpf4jnsgd1na2vs0mg"},{"bike_id":"3fc67ff4-1be9-4da4-be8f-9ec5bd95e554","system_id":"levelo_inurba_marseille","lat":43.3354,"lon":5.37474,"is_reserved":false,"is_disabled":false,"rental_uris":{"android":"levelo://app?vid=3fc67ff4-1be9-4da4-be8f-9ec5bd95e554","ios":"levelo://app?vid=3fc67ff4-1be9-4da4-be8f-9ec5bd95e554"},"vehicle_type_id":"4","last_reported":1778681076,"current_range_meters":8400,"station_id":"st_d46tts09ee8s73dlu43g","pricing_plan_id":"cebpf4jnsgd1na2vs0mg"},{"bike_id":"2db0ffab-6bdd-4726-8016-a3a2ddff536d","system_id":"levelo_inurba_marseille","lat":43.22557,"lon":5.41629,"is_reserved":false,"is_disabled":false,"rental_uris":{"android":"levelo://app?vid=2db0ffab-6bdd-4726-8016-a3a2ddff536d","ios":"levelo://app?vid=2db0ffab-6bdd-4726-8016-a3a2ddff536d"},"vehicle_type_id":"4","last_reported":1778681076,"current_range_meters":8400,"station_id":"st_d2o4gvlbi1j2169b742g","pricing_plan_id":"cebpf4jnsgd1na2vs0mg"},{"bike_id":"cb24cee4-8709-45bc-aaaa-dffa24576452","system_id":"levelo_inurba_marseille","lat":43.255,"lon":5.37669,"is_reserved":false,"is_disabled":false,"rental_uris":{"android":"levelo://app?vid=cb24cee4-8709-45bc-aaaa-dffa24576452","ios":"levelo://app?vid=cb24cee4-8709-45bc-aaaa-dffa24576452"},"vehicle_type_id":"4","last_reported":1778681076,"current_range_meters":8400,"station_id":"ce4bhh12rcd13ifvqff0","pricing_plan_id":"cebpf4jnsgd1na2vs0mg"},{"bike_id":"015bfd6b-736a-4e44-a42d-948980700872","system_id":"levelo_inurba_marseille","lat":43.24645,"lon":5.38974,"is_reserved":false,"is_disabled":false,"rental_uris":{"android":"levelo://app?vid=015bfd6b-736a-4e44-a42d-948980700872","ios":"levelo://app?vid=015bfd6b-736a-4e44-a42d-948980700872"},"vehicle_type_id":"4","last_reported":1778681076,"current_range_meters":8400,"station_id":"","pricing_plan_id":"cebpf4jnsgd1na2vs0mg"},{"bike_id":"ecd63aba-fed9-4282-b8dc-32fd9dcfff2b","system_id":"levelo_inurba_marseille","lat":43.28946,"lon":5.38342,"is_reserved":false,"is_disabled":false,"rental_uris":{"android":"levelo://app?vid=ecd63aba-fed9-4282-b8dc-32fd9dcfff2b","ios":"levelo://app?vid=ecd63aba-fed9-4282-b8dc-32fd9dcfff2b"},"vehicle_type_id":"4","last_reported":1778681076,"current_range_meters":8800,"station_id":"ce4bh612rcd13ifvqe6g","pricing_plan_id":"cebpf4jnsgd1na2vs0mg"},{"bike_id":"47eafea1-2f37-4389-a0ca-895e8bcf5c4a","system_id":"levelo_inurba_marseille","lat":43.27956,"lon":5.39553,"is_reserved":false,"is_disabled":false,"rental_uris":{"android":"levelo://app?vid=47eafea1-2f37-4389-a0ca-895e8bcf5c4a","ios":"levelo://app?vid=47eafea1-2f37-4389-a0ca-895e8bcf5c4a"},"vehicle_type_id":"4","last_reported":1778681076,"current_range_meters":8800,"station_id":"ce4bhf92rcd13ifvqf40","pricing_plan_id":"cebpf4jnsgd1na2vs0mg"},{"bike_id":"e0f2d823-a278-4400-9444-d44158f5dbc1","system_id":"levelo_inurba_marseille","lat":43.31032,"lon":5.37176,"is_reserved":false,"is_disabled":false,"rental_uris":{"android":"levelo://app?vid=e0f2d823-a278-4400-9444-d44158f5dbc1","ios":"levelo://app?vid=e0f2d823-a278-4400-9444-d44158f5dbc1"},"vehicle_type_id":"4","last_reported":1778681076,"current_range_meters":8800,"station_id":"st_d4kl2rp97mjs73e7tdfg","pricing_plan_id":"cebpf4jnsgd1na2vs0mg"},{"bike_id":"071219c0-2e9b-4f78-bfd1-1dd39002c782","system_id":"levelo_inurba_marseille","lat":43.28977,"lon":5.37829,"is_reserved":false,"is_disabled":true,"rental_uris":{"android":"levelo://app?vid=071219c0-2e9b-4f78-bfd1-1dd39002c782","ios":"levelo://app?vid=071219c0-2e9b-4f78-bfd1-1dd39002c782"},"vehicle_type_id":"4","last_reported":1778681076,"current_range_meters":8800,"station_id":"ce4bh9p2rcd13ifvqed0","pricing_plan_id":"cebpf4jnsgd1na2vs0mg"},{"bike_id":"59a6e24a-9db4-402e-8b5e-049f3595c118","system_id":"levelo_inurba_marseille","lat":43.29576,"lon":5.39998,"is_reserved":false,"is_disabled":true,"rental_uris":{"android":"levelo://app?vid=59a6e24a-9db4-402e-8b5e-049f3595c118","ios":"levelo://app?vid=59a6e24a-9db4-402e-8b5e-049f3595c118"},"vehicle_type_id":"4","last_reported":1778681076,"current_range_meters":8800,"station_id":"ce4bh312rcd13ifvqdj0","pricing_plan_id":"cebpf4jnsgd1na2vs0mg"},{"bike_id":"7ddad0e4-370f-4446-947f-4d7f83d2f87d","system_id":"levelo_inurba_marseille","lat":43.27972,"lon":5.38726,"is_reserved":false,"is_disabled":true,"rental_uris":{"android":"levelo://app?vid=7ddad0e4-370f-4446-947f-4d7f83d2f87d","ios":"levelo://app?vid=7ddad0e4-370f-4446-947f-4d7f83d2f87d"},"vehicle_type_id":"4","last_reported":1778681076,"current_range_meters":8800,"station_id":"","pricing_plan_id":"cebpf4jnsgd1na2vs0mg"},{"bike_id":"730935d3-6868-4d7c-a454-bbea4152c4ff","system_id":"levelo_inurba_marseille","lat":43.23967,"lon":5.36632,"is_reserved":false,"is_disabled":false,"rental_uris":{"android":"levelo://app?vid=730935d3-6868-4d7c-a454-bbea4152c4ff","ios":"levelo://app?vid=730935d3-6868-4d7c-a454-bbea4152c4ff"},"vehicle_type_id":"4","last_reported":1778681076,"current_range_meters":8800,"station_id":"ce4bhi12rcd13ifvqfp0","pricing_plan_id":"cebpf4jnsgd1na2vs0mg"},{"bike_id":"fbba74b7-eab2-4a7a-8a6c-9cb4af886d78","system_id":"levelo_inurba_marseille","lat":43.33604,"lon":5.41033,"is_reserved":false,"is_disabled":false,"rental_uris":{"android":"levelo://app?vid=fbba74b7-eab2-4a7a-8a6c-9cb4af886d78","ios":"levelo://app?vid=fbba74b7-eab2-4a7a-8a6c-9cb4af886d78"},"vehicle_type_id":"4","last_reported":1778681076,"current_range_meters":8800,"station_id":"ce4bhqh2rcd13ifvqhmg","pricing_plan_id":"cebpf4jnsgd1na2vs0mg"},{"bike_id":"c09926ef-6243-44a8-8f84-163c78b8face","system_id":"levelo_inurba_marseille","lat":43.28536,"lon":5.44094,"is_reserved":false,"is_disabled":false,"rental_uris":{"android":"levelo://app?vid=c09926ef-6243-44a8-8f84-163c78b8face","ios":"levelo://app?vid=c09926ef-6243-44a8-8f84-163c78b8face"},"vehicle_type_id":"4","last_reported":1778681076,"current_range_meters":8800,"station_id":"st_d3j3df2ikq2c7380ej80","pricing_plan_id":"cebpf4jnsgd1na2vs0mg"},{"bike_id":"f5ef1d5d-a83a-4de6-a56d-3d414007232e","system_id":"levelo_inurba_marseille","lat":43.25095,"lon":5.39524,"is_reserved":false,"is_disabled":false,"rental_uris":{"android":"levelo://app?vid=f5ef1d5d-a83a-4de6-a56d-3d414007232e","ios":"levelo://app?vid=f5ef1d5d-a83a-4de6-a56d-3d414007232e"},"vehicle_type_id":"4","last_reported":1778681076,"current_range_meters":8800,"station_id":"ce4bhm12rcd13ifvqgkg","pricing_plan_id":"cebpf4jnsgd1na2vs0mg"},{"bike_id":"6e6118e0-d7b8-42ba-a2c6-79786f3c704d","system_id":"levelo_inurba_marseille","lat":43.25095,"lon":5.40404,"is_reserved":false,"is_disabled":false,"rental_uris":{"android":"levelo://app?vid=6e6118e0-d7b8-42ba-a2c6-79786f3c704d","ios":"levelo://app?vid=6e6118e0-d7b8-42ba-a2c6-79786f3c704d"},"vehicle_type_id":"4","last_reported":1778681076,"current_range_meters":8800,"station_id":"","pricing_plan_id":"cebpf4jnsgd1na2vs0mg"},{"bike_id":"4c4ead43-13a3-4149-95b3-e3a66f804ab5","system_id":"levelo_inurba_marseille","lat":43.32439,"lon":5.37468,"is_reserved":false,"is_disabled":false,"rental_uris":{"android":"levelo://app?vid=4c4ead43-13a3-4149-95b3-e3a66f804ab5","ios":"levelo://app?vid=4c4ead43-13a3-4149-95b3-e3a66f804ab5"},"vehicle_type_id":"4","last_reported":1778681076,"current_range_meters":8800,"station_id":"","pricing_plan_id":"cebpf4jnsgd1na2vs0mg"},{"bike_id":"40f20fb3-2ec0-4889-aace-d04f9e4ba72d","system_id":"levelo_inurba_marseille","lat":43.27208,"lon":5.3919,"is_reserved":false,"is_disabled":false,"rental_uris":{"android":"levelo://app?vid=40f20fb3-2ec0-4889-aace-d04f9e4ba72d","ios":"levelo://app?vid=40f20fb3-2ec0-4889-aace-d04f9e4ba72d"},"vehicle_type_id":"4","last_reported":1778681076,"current_range_meters":8800,"station_id":"ce4bhhp2rcd13ifvqfm0","pricing_plan_id":"cebpf4jnsgd1na2vs0mg"},{"bike_id":"ba4ea8ec-23dc-4165-8d64-4ba023e96683","system_id":"levelo_inurba_marseille","lat":43.291005,"lon":5.381421,"is_reserved":false,"is_disabled":false,"rental_uris":{"android":"levelo://app?vid=ba4ea8ec-23dc-4165-8d64-4ba023e96683","ios":"levelo://app?vid=ba4ea8ec-23dc-4165-8d64-4ba023e96683"},"vehicle_type_id":"4","last_reported":1778681076,"current_range_meters":8800,"station_id":"ce4bh512rcd13ifvqe2g","pricing_plan_id":"cebpf4jnsgd1na2vs0mg"},{"bike_id":"f866b4ae-c870-49cf-9a8c-f7f6622d7dab","system_id":"levelo_inurba_marseille","lat":43.28505,"lon":5.48357,"is_reserved":false,"is_disabled":false,"rental_uris":{"android":"levelo://app?vid=f866b4ae-c870-49cf-9a8c-f7f6622d7dab","ios":"levelo://app?vid=f866b4ae-c870-49cf-9a8c-f7f6622d7dab"},"vehicle_type_id":"4","last_reported":1778681076,"current_range_meters":8800,"station_id":"","pricing_plan_id":"cebpf4jnsgd1na2vs0mg"},{"bike_id":"6eae4a88-94a2-4e66-b6c6-6c099c5c2681","system_id":"levelo_inurba_marseille","lat":43.28935,"lon":5.36644,"is_reserved":false,"is_disabled":false,"rental_uris":{"android":"levelo://app?vid=6eae4a88-94a2-4e66-b6c6-6c099c5c2681","ios":"levelo://app?vid=6eae4a88-94a2-4e66-b6c6-6c099c5c2681"},"vehicle_type_id":"4","last_reported":1778681076,"current_range_meters":8800,"station_id":"ce4bhap2rcd13ifvqek0","pricing_plan_id":"cebpf4jnsgd1na2vs0mg"},{"bike_id":"dc47e34d-705e-4a47-bd25-45695e6fe269","system_id":"levelo_inurba_marseille","lat":43.24388,"lon":5.37059,"is_reserved":false,"is_disabled":false,"rental_uris":{"android":"levelo://app?vid=dc47e34d-705e-4a47-bd25-45695e6fe269","ios":"levelo://app?vid=dc47e34d-705e-4a47-bd25-45695e6fe269"},"vehicle_type_id":"4","last_reported":1778681076,"current_range_meters":8800,"station_id":"ce4bhhh2rcd13ifvqfk0","pricing_plan_id":"cebpf4jnsgd1na2vs0mg"},{"bike_id":"bec40d96-72b7-4509-b47a-782b7a5724f1","system_id":"levelo_inurba_marseille","lat":43.30532,"lon":5.36572,"is_reserved":false,"is_disabled":false,"rental_uris":{"android":"levelo://app?vid=bec40d96-72b7-4509-b47a-782b7a5724f1","ios":"levelo://app?vid=bec40d96-72b7-4509-b47a-782b7a5724f1"},"vehicle_type_id":"4","last_reported":1778681076,"current_range_meters":8800,"station_id":"ce4bgs12rcd13ifvqcag","pricing_plan_id":"cebpf4jnsgd1na2vs0mg"},{"bike_id":"7b47abc5-cad3-429d-ad0d-31166e5cc436","system_id":"levelo_inurba_marseille","lat":43.275073,"lon":5.424397,"is_reserved":false,"is_disabled":false,"rental_uris":{"android":"levelo://app?vid=7b47abc5-cad3-429d-ad0d-31166e5cc436","ios":"levelo://app?vid=7b47abc5-cad3-429d-ad0d-31166e5cc436"},"vehicle_type_id":"4","last_reported":1778681076,"current_range_meters":8800,"station_id":"ce4bhn92rcd13ifvqgrg","pricing_plan_id":"cebpf4jnsgd1na2vs0mg"},{"bike_id":"8b47becf-a8f7-4ffb-a915-79c4ea31e23e","system_id":"levelo_inurba_marseille","lat":43.23197,"lon":5.40016,"is_reserved":false,"is_disabled":false,"rental_uris":{"android":"levelo://app?vid=8b47becf-a8f7-4ffb-a915-79c4ea31e23e","ios":"levelo://app?vid=8b47becf-a8f7-4ffb-a915-79c4ea31e23e"},"vehicle_type_id":"4","last_reported":1778681076,"current_range_meters":8800,"station_id":"ce4bhn12rcd13ifvqgqg","pricing_plan_id":"cebpf4jnsgd1na2vs0mg"},{"bike_id":"42e9dc0c-5719-4acc-a938-55c1e40e3401","system_id":"levelo_inurba_marseille","lat":43.30271,"lon":5.41869,"is_reserved":false,"is_disabled":false,"rental_uris":{"android":"levelo://app?vid=42e9dc0c-5719-4acc-a938-55c1e40e3401","ios":"levelo://app?vid=42e9dc0c-5719-4acc-a938-55c1e40e3401"},"vehicle_type_id":"4","last_reported":1778681076,"current_range_meters":8800,"station_id":"","pricing_plan_id":"cebpf4jnsgd1na2vs0mg"},{"bike_id":"6acda846-787e-4f7b-aaac-ace346d60146","system_id":"levelo_inurba_marseille","lat":43.31356,"lon":5.36723,"is_reserved":false,"is_disabled":false,"rental_uris":{"android":"levelo://app?vid=6acda846-787e-4f7b-aaac-ace346d60146","ios":"levelo://app?vid=6acda846-787e-4f7b-aaac-ace346d60146"},"vehicle_type_id":"4","last_reported":1778681076,"current_range_meters":9200,"station_id":"ce4bgr92rcd13ifvqc6g","pricing_plan_id":"cebpf4jnsgd1na2vs0mg"},{"bike_id":"71f3be5a-6aeb-40a3-860a-e43d38f46f17","system_id":"levelo_inurba_marseille","lat":43.33165,"lon":5.37697,"is_reserved":false,"is_disabled":false,"rental_uris":{"android":"levelo://app?vid=71f3be5a-6aeb-40a3-860a-e43d38f46f17","ios":"levelo://app?vid=71f3be5a-6aeb-40a3-860a-e43d38f46f17"},"vehicle_type_id":"4","last_reported":1778681076,"current_range_meters":9200,"station_id":"st_d46cu089ee8s73dldbu0","pricing_plan_id":"cebpf4jnsgd1na2vs0mg"},{"bike_id":"2f379505-ad2b-4696-a942-a32043d530f2","system_id":"levelo_inurba_marseille","lat":43.25579,"lon":5.38235,"is_reserved":false,"is_disabled":false,"rental_uris":{"android":"levelo://app?vid=2f379505-ad2b-4696-a942-a32043d530f2","ios":"levelo://app?vid=2f379505-ad2b-4696-a942-a32043d530f2"},"vehicle_type_id":"4","last_reported":1778681076,"current_range_meters":9200,"station_id":"ce4bhih2rcd13ifvqfs0","pricing_plan_id":"cebpf4jnsgd1na2vs0mg"},{"bike_id":"88175b16-1dfd-4b23-8b40-1d8c9f3f124c","system_id":"levelo_inurba_marseille","lat":43.28034,"lon":5.36951,"is_reserved":false,"is_disabled":false,"rental_uris":{"android":"levelo://app?vid=88175b16-1dfd-4b23-8b40-1d8c9f3f124c","ios":"levelo://app?vid=88175b16-1dfd-4b23-8b40-1d8c9f3f124c"},"vehicle_type_id":"4","last_reported":1778681076,"current_range_meters":9200,"station_id":"ce4bha12rcd13ifvqef0","pricing_plan_id":"cebpf4jnsgd1na2vs0mg"},{"bike_id":"7c2dc92a-7b80-497a-89f9-b64e06295f05","system_id":"levelo_inurba_marseille","lat":43.27943,"lon":5.41045,"is_reserved":false,"is_disabled":false,"rental_uris":{"android":"levelo://app?vid=7c2dc92a-7b80-497a-89f9-b64e06295f05","ios":"levelo://app?vid=7c2dc92a-7b80-497a-89f9-b64e06295f05"},"vehicle_type_id":"4","last_reported":1778681076,"current_range_meters":9200,"station_id":"ce4bhnp2rcd13ifvqh0g","pricing_plan_id":"cebpf4jnsgd1na2vs0mg"},{"bike_id":"71ad1e0e-62cc-4028-964f-35b510cc9604","system_id":"levelo_inurba_marseille","lat":43.28118,"lon":5.37721,"is_reserved":false,"is_disabled":false,"rental_uris":{"android":"levelo://app?vid=71ad1e0e-62cc-4028-964f-35b510cc9604","ios":"levelo://app?vid=71ad1e0e-62cc-4028-964f-35b510cc9604"},"vehicle_type_id":"4","last_reported":1778681076,"current_range_meters":9200,"station_id":"","pricing_plan_id":"cebpf4jnsgd1na2vs0mg"},{"bike_id":"75a9731b-7cd4-4710-91c9-784e82163ebe","system_id":"levelo_inurba_marseille","lat":43.337742,"lon":5.374345,"is_reserved":false,"is_disabled":false,"rental_uris":{"android":"levelo://app?vid=75a9731b-7cd4-4710-91c9-784e82163ebe","ios":"levelo://app?vid=75a9731b-7cd4-4710-91c9-784e82163ebe"},"vehicle_type_id":"4","last_reported":1778681076,"current_range_meters":9200,"station_id":"","pricing_plan_id":"cebpf4jnsgd1na2vs0mg"},{"bike_id":"7170c5f3-b962-449b-acc3-c350995b0888","system_id":"levelo_inurba_marseille","lat":43.27323,"lon":5.39107,"is_reserved":false,"is_disabled":true,"rental_uris":{"android":"levelo://app?vid=7170c5f3-b962-449b-acc3-c350995b0888","ios":"levelo://app?vid=7170c5f3-b962-449b-acc3-c350995b0888"},"vehicle_type_id":"4","last_reported":1778681076,"current_range_meters":9200,"station_id":"ce4bhgp2rcd13ifvqfe0","pricing_plan_id":"cebpf4jnsgd1na2vs0mg"},{"bike_id":"33fbc1a0-b50a-4f68-89ad-82f55e26181b","system_id":"levelo_inurba_marseille","lat":43.23151,"lon":5.43715,"is_reserved":false,"is_disabled":false,"rental_uris":{"android":"levelo://app?vid=33fbc1a0-b50a-4f68-89ad-82f55e26181b","ios":"levelo://app?vid=33fbc1a0-b50a-4f68-89ad-82f55e26181b"},"vehicle_type_id":"4","last_reported":1778681076,"current_range_meters":9200,"station_id":"ce4bhmp2rcd13ifvqgog","pricing_plan_id":"cebpf4jnsgd1na2vs0mg"},{"bike_id":"502ed8e7-d3eb-4351-8189-62885ae4e68d","system_id":"levelo_inurba_marseille","lat":43.29918,"lon":5.37471,"is_reserved":false,"is_disabled":false,"rental_uris":{"android":"levelo://app?vid=502ed8e7-d3eb-4351-8189-62885ae4e68d","ios":"levelo://app?vid=502ed8e7-d3eb-4351-8189-62885ae4e68d"},"vehicle_type_id":"4","last_reported":1778681076,"current_range_meters":9200,"station_id":"ce4bgjh2rcd13ifvqbg0","pricing_plan_id":"cebpf4jnsgd1na2vs0mg"},{"bike_id":"0e00baf3-6dd5-4c31-aa26-a6ee527f45a9","system_id":"levelo_inurba_marseille","lat":43.24952,"lon":5.4048,"is_reserved":false,"is_disabled":false,"rental_uris":{"android":"levelo://app?vid=0e00baf3-6dd5-4c31-aa26-a6ee527f45a9","ios":"levelo://app?vid=0e00baf3-6dd5-4c31-aa26-a6ee527f45a9"},"vehicle_type_id":"4","last_reported":1778681076,"current_range_meters":9200,"station_id":"st_d2ngiaodas8pm72gd1h0","pricing_plan_id":"cebpf4jnsgd1na2vs0mg"},{"bike_id":"5f6e429d-ed0f-4b74-931b-cf2c877dc0d9","system_id":"levelo_inurba_marseille","lat":43.24166,"lon":5.36409,"is_reserved":false,"is_disabled":false,"rental_uris":{"android":"levelo://app?vid=5f6e429d-ed0f-4b74-931b-cf2c877dc0d9","ios":"levelo://app?vid=5f6e429d-ed0f-4b74-931b-cf2c877dc0d9"},"vehicle_type_id":"4","last_reported":1778681076,"current_range_meters":9200,"station_id":"cpo36qri1sfpv3e86is0","pricing_plan_id":"cebpf4jnsgd1na2vs0mg"},{"bike_id":"52ab9d0d-9e35-4a85-b761-e90befddf3ee","system_id":"levelo_inurba_marseille","lat":43.24656,"lon":5.389,"is_reserved":false,"is_disabled":false,"rental_uris":{"android":"levelo://app?vid=52ab9d0d-9e35-4a85-b761-e90befddf3ee","ios":"levelo://app?vid=52ab9d0d-9e35-4a85-b761-e90befddf3ee"},"vehicle_type_id":"4","last_reported":1778681076,"current_range_meters":9200,"station_id":"ce4bhg12rcd13ifvqf60","pricing_plan_id":"cebpf4jnsgd1na2vs0mg"},{"bike_id":"df314130-7792-4427-995a-e466ee869292","system_id":"levelo_inurba_marseille","lat":43.29704,"lon":5.37728,"is_reserved":false,"is_disabled":false,"rental_uris":{"android":"levelo://app?vid=df314130-7792-4427-995a-e466ee869292","ios":"levelo://app?vid=df314130-7792-4427-995a-e466ee869292"},"vehicle_type_id":"4","last_reported":1778681076,"current_range_meters":9200,"station_id":"ce4bgkh2rcd13ifvqbl0","pricing_plan_id":"cebpf4jnsgd1na2vs0mg"},{"bike_id":"a313d30c-9c11-4750-befb-24c77ac6b376","system_id":"levelo_inurba_marseille","lat":43.21753,"lon":5.34647,"is_reserved":false,"is_disabled":true,"rental_uris":{"android":"levelo://app?vid=a313d30c-9c11-4750-befb-24c77ac6b376","ios":"levelo://app?vid=a313d30c-9c11-4750-befb-24c77ac6b376"},"vehicle_type_id":"4","last_reported":1778681076,"current_range_meters":9200,"station_id":"st_cvj6r9ubvosntc0bgbag","pricing_plan_id":"cebpf4jnsgd1na2vs0mg"},{"bike_id":"d2da92e5-c04a-4084-9143-b92a982a1f04","system_id":"levelo_inurba_marseille","lat":43.24808,"lon":5.40114,"is_reserved":false,"is_disabled":false,"rental_uris":{"android":"levelo://app?vid=d2da92e5-c04a-4084-9143-b92a982a1f04","ios":"levelo://app?vid=d2da92e5-c04a-4084-9143-b92a982a1f04"},"vehicle_type_id":"4","last_reported":1778681076,"current_range_meters":9200,"station_id":"","pricing_plan_id":"cebpf4jnsgd1na2vs0mg"},{"bike_id":"5f406018-9cf7-4c1a-83da-ddd593a25cea","system_id":"levelo_inurba_marseille","lat":43.2756,"lon":5.38446,"is_reserved":false,"is_disabled":false,"rental_uris":{"android":"levelo://app?vid=5f406018-9cf7-4c1a-83da-ddd593a25cea","ios":"levelo://app?vid=5f406018-9cf7-4c1a-83da-ddd593a25cea"},"vehicle_type_id":"4","last_reported":1778681076,"current_range_meters":9200,"station_id":"ce4bhh92rcd13ifvqfi0","pricing_plan_id":"cebpf4jnsgd1na2vs0mg"},{"bike_id":"8a11dce3-1f06-40be-8eca-79524f2d8a71","system_id":"levelo_inurba_marseille","lat":43.2721,"lon":5.39197,"is_reserved":false,"is_disabled":false,"rental_uris":{"android":"levelo://app?vid=8a11dce3-1f06-40be-8eca-79524f2d8a71","ios":"levelo://app?vid=8a11dce3-1f06-40be-8eca-79524f2d8a71"},"vehicle_type_id":"4","last_reported":1778681076,"current_range_meters":9200,"station_id":"ce4bhhp2rcd13ifvqfm0","pricing_plan_id":"cebpf4jnsgd1na2vs0mg"},{"bike_id":"968a2c85-1263-41b4-8ee5-1862c3ef50d1","system_id":"levelo_inurba_marseille","lat":43.21749,"lon":5.34601,"is_reserved":false,"is_disabled":false,"rental_uris":{"android":"levelo://app?vid=968a2c85-1263-41b4-8ee5-1862c3ef50d1","ios":"levelo://app?vid=968a2c85-1263-41b4-8ee5-1862c3ef50d1"},"vehicle_type_id":"4","last_reported":1778681076,"current_range_meters":9600,"station_id":"st_cvj6r9ubvosntc0bgbag","pricing_plan_id":"cebpf4jnsgd1na2vs0mg"},{"bike_id":"c206aa84-7330-4ed3-965c-a76882628d82","system_id":"levelo_inurba_marseille","lat":43.32354,"lon":5.36728,"is_reserved":false,"is_disabled":false,"rental_uris":{"android":"levelo://app?vid=c206aa84-7330-4ed3-965c-a76882628d82","ios":"levelo://app?vid=c206aa84-7330-4ed3-965c-a76882628d82"},"vehicle_type_id":"4","last_reported":1778681076,"current_range_meters":9600,"station_id":"ce4bhsh2rcd13ifvqi2g","pricing_plan_id":"cebpf4jnsgd1na2vs0mg"},{"bike_id":"a3e5c805-901c-4625-95ba-e3051c9c6c64","system_id":"levelo_inurba_marseille","lat":43.28154,"lon":5.42636,"is_reserved":false,"is_disabled":true,"rental_uris":{"android":"levelo://app?vid=a3e5c805-901c-4625-95ba-e3051c9c6c64","ios":"levelo://app?vid=a3e5c805-901c-4625-95ba-e3051c9c6c64"},"vehicle_type_id":"4","last_reported":1778681076,"current_range_meters":9600,"station_id":"ce4bhnh2rcd13ifvqgug","pricing_plan_id":"cebpf4jnsgd1na2vs0mg"},{"bike_id":"20a1c5e6-bb45-4e2c-bd52-690c76cda26f","system_id":"levelo_inurba_marseille","lat":43.31487,"lon":5.37333,"is_reserved":false,"is_disabled":false,"rental_uris":{"android":"levelo://app?vid=20a1c5e6-bb45-4e2c-bd52-690c76cda26f","ios":"levelo://app?vid=20a1c5e6-bb45-4e2c-bd52-690c76cda26f"},"vehicle_type_id":"4","last_reported":1778681076,"current_range_meters":9600,"station_id":"ce4bgt12rcd13ifvqcd0","pricing_plan_id":"cebpf4jnsgd1na2vs0mg"},{"bike_id":"b291d52c-ad1f-43d0-9485-84239deb9fc6","system_id":"levelo_inurba_marseille","lat":43.2588,"lon":5.40518,"is_reserved":false,"is_disabled":false,"rental_uris":{"android":"levelo://app?vid=b291d52c-ad1f-43d0-9485-84239deb9fc6","ios":"levelo://app?vid=b291d52c-ad1f-43d0-9485-84239deb9fc6"},"vehicle_type_id":"4","last_reported":1778681076,"current_range_meters":9600,"station_id":"","pricing_plan_id":"cebpf4jnsgd1na2vs0mg"},{"bike_id":"50b8d7d2-a7a1-435b-9d11-e2c1a6d6dec1","system_id":"levelo_inurba_marseille","lat":43.25571,"lon":5.3824,"is_reserved":false,"is_disabled":false,"rental_uris":{"android":"levelo://app?vid=50b8d7d2-a7a1-435b-9d11-e2c1a6d6dec1","ios":"levelo://app?vid=50b8d7d2-a7a1-435b-9d11-e2c1a6d6dec1"},"vehicle_type_id":"4","last_reported":1778681076,"current_range_meters":9600,"station_id":"ce4bhih2rcd13ifvqfs0","pricing_plan_id":"cebpf4jnsgd1na2vs0mg"},{"bike_id":"ba367ad2-3216-4f62-8778-69e230a9fac8","system_id":"levelo_inurba_marseille","lat":43.29159,"lon":5.37162,"is_reserved":false,"is_disabled":false,"rental_uris":{"android":"levelo://app?vid=ba367ad2-3216-4f62-8778-69e230a9fac8","ios":"levelo://app?vid=ba367ad2-3216-4f62-8778-69e230a9fac8"},"vehicle_type_id":"4","last_reported":1778681076,"current_range_meters":9600,"station_id":"ce4bha92rcd13ifvqeh0","pricing_plan_id":"cebpf4jnsgd1na2vs0mg"},{"bike_id":"83d42d4e-dcf9-412b-b017-1bfd0f79858e","system_id":"levelo_inurba_marseille","lat":43.26682,"lon":5.38245,"is_reserved":false,"is_disabled":false,"rental_uris":{"android":"levelo://app?vid=83d42d4e-dcf9-412b-b017-1bfd0f79858e","ios":"levelo://app?vid=83d42d4e-dcf9-412b-b017-1bfd0f79858e"},