{"last_updated":1761660644,"ttl":60,"version":"2.2","data":{"bikes":[{"bike_id":"5804c510-2b18-4388-bc39-38f2c0799396","system_id":"levelo_inurba_marseille","lat":43.22925,"lon":5.35381,"is_reserved":false,"is_disabled":true,"rental_uris":{"android":"levelo://app?vid=5804c510-2b18-4388-bc39-38f2c0799396","ios":"levelo://app?vid=5804c510-2b18-4388-bc39-38f2c0799396"},"vehicle_type_id":"4","last_reported":1761660644,"current_range_meters":2800,"station_id":"cpo3532slgdg3j2ikp40","pricing_plan_id":"cebpf4jnsgd1na2vs0mg"},{"bike_id":"c9ddae23-8e24-4c41-aece-c65ae5fb9f59","system_id":"levelo_inurba_marseille","lat":43.28847,"lon":5.39312,"is_reserved":false,"is_disabled":false,"rental_uris":{"android":"levelo://app?vid=c9ddae23-8e24-4c41-aece-c65ae5fb9f59","ios":"levelo://app?vid=c9ddae23-8e24-4c41-aece-c65ae5fb9f59"},"vehicle_type_id":"4","last_reported":1761660644,"current_range_meters":2800,"station_id":"ce4bh2p2rcd13ifvqdi0","pricing_plan_id":"cebpf4jnsgd1na2vs0mg"},{"bike_id":"dd191eb0-ec3f-4508-a112-16bc394bb2d1","system_id":"levelo_inurba_marseille","lat":43.28927,"lon":5.36641,"is_reserved":false,"is_disabled":false,"rental_uris":{"android":"levelo://app?vid=dd191eb0-ec3f-4508-a112-16bc394bb2d1","ios":"levelo://app?vid=dd191eb0-ec3f-4508-a112-16bc394bb2d1"},"vehicle_type_id":"4","last_reported":1761660644,"current_range_meters":2800,"station_id":"ce4bhap2rcd13ifvqek0","pricing_plan_id":"cebpf4jnsgd1na2vs0mg"},{"bike_id":"dc37e570-9f72-4c07-9cca-5b20cc12fc64","system_id":"levelo_inurba_marseille","lat":43.30793,"lon":5.38164,"is_reserved":false,"is_disabled":false,"rental_uris":{"android":"levelo://app?vid=dc37e570-9f72-4c07-9cca-5b20cc12fc64","ios":"levelo://app?vid=dc37e570-9f72-4c07-9cca-5b20cc12fc64"},"vehicle_type_id":"4","last_reported":1761660644,"current_range_meters":2800,"station_id":"ce4bgt12rcd13ifvqce0","pricing_plan_id":"cebpf4jnsgd1na2vs0mg"},{"bike_id":"a98545d2-eea7-434b-b091-a0e1b4554ff0","system_id":"levelo_inurba_marseille","lat":43.2861,"lon":5.35111,"is_reserved":false,"is_disabled":false,"rental_uris":{"android":"levelo://app?vid=a98545d2-eea7-434b-b091-a0e1b4554ff0","ios":"levelo://app?vid=a98545d2-eea7-434b-b091-a0e1b4554ff0"},"vehicle_type_id":"4","last_reported":1761660644,"current_range_meters":2800,"station_id":"ce4bhch2rcd13ifvqeug","pricing_plan_id":"cebpf4jnsgd1na2vs0mg"},{"bike_id":"e9ffda98-820a-4975-9d69-e45e269c5f38","system_id":"levelo_inurba_marseille","lat":43.29963,"lon":5.38488,"is_reserved":false,"is_disabled":false,"rental_uris":{"android":"levelo://app?vid=e9ffda98-820a-4975-9d69-e45e269c5f38","ios":"levelo://app?vid=e9ffda98-820a-4975-9d69-e45e269c5f38"},"vehicle_type_id":"4","last_reported":1761660644,"current_range_meters":3200,"station_id":"ce4bgj92rcd13ifvqbd0","pricing_plan_id":"cebpf4jnsgd1na2vs0mg"},{"bike_id":"d86f700b-639a-4384-bebe-ff623d3ce5df","system_id":"levelo_inurba_marseille","lat":43.30189,"lon":5.3662,"is_reserved":false,"is_disabled":false,"rental_uris":{"android":"levelo://app?vid=d86f700b-639a-4384-bebe-ff623d3ce5df","ios":"levelo://app?vid=d86f700b-639a-4384-bebe-ff623d3ce5df"},"vehicle_type_id":"4","last_reported":1761660644,"current_range_meters":3200,"station_id":"ce4bgrh2rcd13ifvqc8g","pricing_plan_id":"cebpf4jnsgd1na2vs0mg"},{"bike_id":"5fc7ec4a-9bc1-4ea9-86f1-7e8ee9176567","system_id":"levelo_inurba_marseille","lat":43.25115,"lon":5.40317,"is_reserved":false,"is_disabled":false,"rental_uris":{"android":"levelo://app?vid=5fc7ec4a-9bc1-4ea9-86f1-7e8ee9176567","ios":"levelo://app?vid=5fc7ec4a-9bc1-4ea9-86f1-7e8ee9176567"},"vehicle_type_id":"4","last_reported":1761660644,"current_range_meters":3200,"station_id":"ce4bhlh2rcd13ifvqgig","pricing_plan_id":"cebpf4jnsgd1na2vs0mg"},{"bike_id":"ddf030df-bd33-4522-8ff7-4f02fb45a6a8","system_id":"levelo_inurba_marseille","lat":43.276217,"lon":5.361057,"is_reserved":false,"is_disabled":false,"rental_uris":{"android":"levelo://app?vid=ddf030df-bd33-4522-8ff7-4f02fb45a6a8","ios":"levelo://app?vid=ddf030df-bd33-4522-8ff7-4f02fb45a6a8"},"vehicle_type_id":"4","last_reported":1761660644,"current_range_meters":3600,"station_id":"ce4bgj92rcd13ifvqbe0","pricing_plan_id":"cebpf4jnsgd1na2vs0mg"},{"bike_id":"dbc0e999-85bd-4a1d-a4d4-696c0adb85db","system_id":"levelo_inurba_marseille","lat":43.29856,"lon":5.36288,"is_reserved":false,"is_disabled":true,"rental_uris":{"android":"levelo://app?vid=dbc0e999-85bd-4a1d-a4d4-696c0adb85db","ios":"levelo://app?vid=dbc0e999-85bd-4a1d-a4d4-696c0adb85db"},"vehicle_type_id":"4","last_reported":1761660644,"current_range_meters":3600,"station_id":"ce4bgpp2rcd13ifvqc3g","pricing_plan_id":"cebpf4jnsgd1na2vs0mg"},{"bike_id":"1d79a993-29a1-4042-bb9c-69fc15bbabb1","system_id":"levelo_inurba_marseille","lat":43.217531,"lon":5.346204,"is_reserved":false,"is_disabled":false,"rental_uris":{"android":"levelo://app?vid=1d79a993-29a1-4042-bb9c-69fc15bbabb1","ios":"levelo://app?vid=1d79a993-29a1-4042-bb9c-69fc15bbabb1"},"vehicle_type_id":"4","last_reported":1761660644,"current_range_meters":3600,"station_id":"st_cvj6r9ubvosntc0bgbag","pricing_plan_id":"cebpf4jnsgd1na2vs0mg"},{"bike_id":"a76dce09-a24e-4b20-92c1-bd458f359460","system_id":"levelo_inurba_marseille","lat":43.28942,"lon":5.39633,"is_reserved":false,"is_disabled":false,"rental_uris":{"android":"levelo://app?vid=a76dce09-a24e-4b20-92c1-bd458f359460","ios":"levelo://app?vid=a76dce09-a24e-4b20-92c1-bd458f359460"},"vehicle_type_id":"4","last_reported":1761660644,"current_range_meters":3600,"station_id":"ce4bh3h2rcd13ifvqdn0","pricing_plan_id":"cebpf4jnsgd1na2vs0mg"},{"bike_id":"c5670090-28e4-4a30-8b52-6f97e9f95071","system_id":"levelo_inurba_marseille","lat":43.29639,"lon":5.39179,"is_reserved":false,"is_disabled":false,"rental_uris":{"android":"levelo://app?vid=c5670090-28e4-4a30-8b52-6f97e9f95071","ios":"levelo://app?vid=c5670090-28e4-4a30-8b52-6f97e9f95071"},"vehicle_type_id":"4","last_reported":1761660644,"current_range_meters":3600,"station_id":"","pricing_plan_id":"cebpf4jnsgd1na2vs0mg"},{"bike_id":"41d45b45-3a52-4b5a-b2b3-1e62d5490ada","system_id":"levelo_inurba_marseille","lat":43.28527,"lon":5.44102,"is_reserved":false,"is_disabled":false,"rental_uris":{"android":"levelo://app?vid=41d45b45-3a52-4b5a-b2b3-1e62d5490ada","ios":"levelo://app?vid=41d45b45-3a52-4b5a-b2b3-1e62d5490ada"},"vehicle_type_id":"4","last_reported":1761660644,"current_range_meters":4000,"station_id":"st_d3j3df2ikq2c7380ej80","pricing_plan_id":"cebpf4jnsgd1na2vs0mg"},{"bike_id":"64b75b4a-3497-4861-8cc2-90dd62cd9f5e","system_id":"levelo_inurba_marseille","lat":43.29303,"lon":5.4345,"is_reserved":false,"is_disabled":false,"rental_uris":{"android":"levelo://app?vid=64b75b4a-3497-4861-8cc2-90dd62cd9f5e","ios":"levelo://app?vid=64b75b4a-3497-4861-8cc2-90dd62cd9f5e"},"vehicle_type_id":"4","last_reported":1761660644,"current_range_meters":4400,"station_id":"","pricing_plan_id":"cebpf4jnsgd1na2vs0mg"},{"bike_id":"1b8b63ec-7548-4816-b198-44e2162337ac","system_id":"levelo_inurba_marseille","lat":43.306438,"lon":5.400786,"is_reserved":false,"is_disabled":true,"rental_uris":{"android":"levelo://app?vid=1b8b63ec-7548-4816-b198-44e2162337ac","ios":"levelo://app?vid=1b8b63ec-7548-4816-b198-44e2162337ac"},"vehicle_type_id":"4","last_reported":1761660644,"current_range_meters":4400,"station_id":"ce4bh112rcd13ifvqda0","pricing_plan_id":"cebpf4jnsgd1na2vs0mg"},{"bike_id":"de5cece4-6186-4ccb-b70e-a25e8bd3fc86","system_id":"levelo_inurba_marseille","lat":43.337444,"lon":5.374475,"is_reserved":false,"is_disabled":false,"rental_uris":{"android":"levelo://app?vid=de5cece4-6186-4ccb-b70e-a25e8bd3fc86","ios":"levelo://app?vid=de5cece4-6186-4ccb-b70e-a25e8bd3fc86"},"vehicle_type_id":"4","last_reported":1761660644,"current_range_meters":4800,"station_id":"","pricing_plan_id":"cebpf4jnsgd1na2vs0mg"},{"bike_id":"087e25fa-551f-4c6f-9878-7e1aa091b9aa","system_id":"levelo_inurba_marseille","lat":43.23051,"lon":5.35501,"is_reserved":false,"is_disabled":false,"rental_uris":{"android":"levelo://app?vid=087e25fa-551f-4c6f-9878-7e1aa091b9aa","ios":"levelo://app?vid=087e25fa-551f-4c6f-9878-7e1aa091b9aa"},"vehicle_type_id":"4","last_reported":1761660644,"current_range_meters":5600,"station_id":"cpo3342slgdg3j2ifvpg","pricing_plan_id":"cebpf4jnsgd1na2vs0mg"},{"bike_id":"1b003ff3-138a-43b4-a513-c4c7d4bb7889","system_id":"levelo_inurba_marseille","lat":43.290131,"lon":5.355923,"is_reserved":false,"is_disabled":false,"rental_uris":{"android":"levelo://app?vid=1b003ff3-138a-43b4-a513-c4c7d4bb7889","ios":"levelo://app?vid=1b003ff3-138a-43b4-a513-c4c7d4bb7889"},"vehicle_type_id":"4","last_reported":1761660644,"current_range_meters":5600,"station_id":"ce4bhb92rcd13ifvqen0","pricing_plan_id":"cebpf4jnsgd1na2vs0mg"},{"bike_id":"3ea13603-c9ad-4550-9948-b83f47812af6","system_id":"levelo_inurba_marseille","lat":43.2909,"lon":5.36642,"is_reserved":false,"is_disabled":false,"rental_uris":{"android":"levelo://app?vid=3ea13603-c9ad-4550-9948-b83f47812af6","ios":"levelo://app?vid=3ea13603-c9ad-4550-9948-b83f47812af6"},"vehicle_type_id":"4","last_reported":1761660644,"current_range_meters":5600,"station_id":"","pricing_plan_id":"cebpf4jnsgd1na2vs0mg"},{"bike_id":"67f8857f-0853-46d2-b9ef-96c5ce2639bc","system_id":"levelo_inurba_marseille","lat":43.2305,"lon":5.35499,"is_reserved":false,"is_disabled":false,"rental_uris":{"android":"levelo://app?vid=67f8857f-0853-46d2-b9ef-96c5ce2639bc","ios":"levelo://app?vid=67f8857f-0853-46d2-b9ef-96c5ce2639bc"},"vehicle_type_id":"4","last_reported":1761660644,"current_range_meters":5600,"station_id":"cpo3342slgdg3j2ifvpg","pricing_plan_id":"cebpf4jnsgd1na2vs0mg"},{"bike_id":"4ade9d83-f2d5-4d19-a54e-74fbd9ec2b53","system_id":"levelo_inurba_marseille","lat":43.31195,"lon":5.40092,"is_reserved":false,"is_disabled":false,"rental_uris":{"android":"levelo://app?vid=4ade9d83-f2d5-4d19-a54e-74fbd9ec2b53","ios":"levelo://app?vid=4ade9d83-f2d5-4d19-a54e-74fbd9ec2b53"},"vehicle_type_id":"4","last_reported":1761660644,"current_range_meters":5600,"station_id":"","pricing_plan_id":"cebpf4jnsgd1na2vs0mg"},{"bike_id":"e4ccce50-4824-4895-aa8c-033835526f23","system_id":"levelo_inurba_marseille","lat":43.318768,"lon":5.39982,"is_reserved":false,"is_disabled":false,"rental_uris":{"android":"levelo://app?vid=e4ccce50-4824-4895-aa8c-033835526f23","ios":"levelo://app?vid=e4ccce50-4824-4895-aa8c-033835526f23"},"vehicle_type_id":"4","last_reported":1761660644,"current_range_meters":5600,"station_id":"","pricing_plan_id":"cebpf4jnsgd1na2vs0mg"},{"bike_id":"8847af5d-c1ad-4d8d-a5c1-273c3b41c105","system_id":"levelo_inurba_marseille","lat":43.34464,"lon":5.37828,"is_reserved":false,"is_disabled":false,"rental_uris":{"android":"levelo://app?vid=8847af5d-c1ad-4d8d-a5c1-273c3b41c105","ios":"levelo://app?vid=8847af5d-c1ad-4d8d-a5c1-273c3b41c105"},"vehicle_type_id":"4","last_reported":1761660644,"current_range_meters":6000,"station_id":"","pricing_plan_id":"cebpf4jnsgd1na2vs0mg"},{"bike_id":"12532c92-a1a4-455e-b88e-06567ba23feb","system_id":"levelo_inurba_marseille","lat":43.2976,"lon":5.37658,"is_reserved":false,"is_disabled":false,"rental_uris":{"android":"levelo://app?vid=12532c92-a1a4-455e-b88e-06567ba23feb","ios":"levelo://app?vid=12532c92-a1a4-455e-b88e-06567ba23feb"},"vehicle_type_id":"4","last_reported":1761660644,"current_range_meters":6000,"station_id":"ce4bgkh2rcd13ifvqbl0","pricing_plan_id":"cebpf4jnsgd1na2vs0mg"},{"bike_id":"aed612f3-f193-4579-bc1c-d240fceed433","system_id":"levelo_inurba_marseille","lat":43.295858,"lon":5.400102,"is_reserved":false,"is_disabled":false,"rental_uris":{"android":"levelo://app?vid=aed612f3-f193-4579-bc1c-d240fceed433","ios":"levelo://app?vid=aed612f3-f193-4579-bc1c-d240fceed433"},"vehicle_type_id":"4","last_reported":1761660644,"current_range_meters":6000,"station_id":"ce4bh192rcd13ifvqdc0","pricing_plan_id":"cebpf4jnsgd1na2vs0mg"},{"bike_id":"d1f76c1d-d1d4-43dc-ad44-2a033155cae1","system_id":"levelo_inurba_marseille","lat":43.24178,"lon":5.39737,"is_reserved":false,"is_disabled":false,"rental_uris":{"android":"levelo://app?vid=d1f76c1d-d1d4-43dc-ad44-2a033155cae1","ios":"levelo://app?vid=d1f76c1d-d1d4-43dc-ad44-2a033155cae1"},"vehicle_type_id":"4","last_reported":1761660644,"current_range_meters":6400,"station_id":"ce4bhn12rcd13ifvqgpg","pricing_plan_id":"cebpf4jnsgd1na2vs0mg"},{"bike_id":"2d1f9d0e-b581-4639-9765-77a6299cbc29","system_id":"levelo_inurba_marseille","lat":43.27421,"lon":5.39417,"is_reserved":false,"is_disabled":false,"rental_uris":{"android":"levelo://app?vid=2d1f9d0e-b581-4639-9765-77a6299cbc29","ios":"levelo://app?vid=2d1f9d0e-b581-4639-9765-77a6299cbc29"},"vehicle_type_id":"4","last_reported":1761660644,"current_range_meters":6400,"station_id":"ce4bhdp2rcd13ifvqf20","pricing_plan_id":"cebpf4jnsgd1na2vs0mg"},{"bike_id":"c5bb853f-d274-4eb2-b0f9-c9b5b41fea56","system_id":"levelo_inurba_marseille","lat":43.231508,"lon":5.437138,"is_reserved":false,"is_disabled":false,"rental_uris":{"android":"levelo://app?vid=c5bb853f-d274-4eb2-b0f9-c9b5b41fea56","ios":"levelo://app?vid=c5bb853f-d274-4eb2-b0f9-c9b5b41fea56"},"vehicle_type_id":"4","last_reported":1761660644,"current_range_meters":6400,"station_id":"ce4bhmp2rcd13ifvqgog","pricing_plan_id":"cebpf4jnsgd1na2vs0mg"},{"bike_id":"5ba6aae0-5ed8-4fcf-b731-e692a96b24f5","system_id":"levelo_inurba_marseille","lat":43.25325,"lon":5.42158,"is_reserved":false,"is_disabled":false,"rental_uris":{"android":"levelo://app?vid=5ba6aae0-5ed8-4fcf-b731-e692a96b24f5","ios":"levelo://app?vid=5ba6aae0-5ed8-4fcf-b731-e692a96b24f5"},"vehicle_type_id":"4","last_reported":1761660644,"current_range_meters":6400,"station_id":"st_d2m65c5bi1j21697t3ng","pricing_plan_id":"cebpf4jnsgd1na2vs0mg"},{"bike_id":"1cbc2e1d-b15b-4605-a97d-21fdec1fe0d9","system_id":"levelo_inurba_marseille","lat":43.28613,"lon":5.35105,"is_reserved":false,"is_disabled":false,"rental_uris":{"android":"levelo://app?vid=1cbc2e1d-b15b-4605-a97d-21fdec1fe0d9","ios":"levelo://app?vid=1cbc2e1d-b15b-4605-a97d-21fdec1fe0d9"},"vehicle_type_id":"4","last_reported":1761660644,"current_range_meters":6800,"station_id":"ce4bhch2rcd13ifvqeug","pricing_plan_id":"cebpf4jnsgd1na2vs0mg"},{"bike_id":"ab1de962-1cf8-4493-89ab-8203963e992d","system_id":"levelo_inurba_marseille","lat":43.26553,"lon":5.372527,"is_reserved":false,"is_disabled":false,"rental_uris":{"android":"levelo://app?vid=ab1de962-1cf8-4493-89ab-8203963e992d","ios":"levelo://app?vid=ab1de962-1cf8-4493-89ab-8203963e992d"},"vehicle_type_id":"4","last_reported":1761660644,"current_range_meters":6800,"station_id":"ce4bhbh2rcd13ifvqeo0","pricing_plan_id":"cebpf4jnsgd1na2vs0mg"},{"bike_id":"03828e25-5d50-4e50-9746-54250b5fcf8c","system_id":"levelo_inurba_marseille","lat":43.28618,"lon":5.35118,"is_reserved":false,"is_disabled":false,"rental_uris":{"android":"levelo://app?vid=03828e25-5d50-4e50-9746-54250b5fcf8c","ios":"levelo://app?vid=03828e25-5d50-4e50-9746-54250b5fcf8c"},"vehicle_type_id":"4","last_reported":1761660644,"current_range_meters":6800,"station_id":"ce4bhch2rcd13ifvqeug","pricing_plan_id":"cebpf4jnsgd1na2vs0mg"},{"bike_id":"21a603d2-4063-4f0e-ad8c-67b7c4a24adc","system_id":"levelo_inurba_marseille","lat":43.309283,"lon":5.401387,"is_reserved":false,"is_disabled":false,"rental_uris":{"android":"levelo://app?vid=21a603d2-4063-4f0e-ad8c-67b7c4a24adc","ios":"levelo://app?vid=21a603d2-4063-4f0e-ad8c-67b7c4a24adc"},"vehicle_type_id":"4","last_reported":1761660644,"current_range_meters":6800,"station_id":"ce4bgvp2rcd13ifvqct0","pricing_plan_id":"cebpf4jnsgd1na2vs0mg"},{"bike_id":"28acdb62-84a4-448a-977b-edff968d6736","system_id":"levelo_inurba_marseille","lat":43.29555,"lon":5.42291,"is_reserved":false,"is_disabled":false,"rental_uris":{"android":"levelo://app?vid=28acdb62-84a4-448a-977b-edff968d6736","ios":"levelo://app?vid=28acdb62-84a4-448a-977b-edff968d6736"},"vehicle_type_id":"4","last_reported":1761660644,"current_range_meters":6800,"station_id":"ce4bhph2rcd13ifvqhdg","pricing_plan_id":"cebpf4jnsgd1na2vs0mg"},{"bike_id":"aba6b563-5093-4f2c-abdc-45b501f05388","system_id":"levelo_inurba_marseille","lat":43.27052,"lon":5.38283,"is_reserved":false,"is_disabled":true,"rental_uris":{"android":"levelo://app?vid=aba6b563-5093-4f2c-abdc-45b501f05388","ios":"levelo://app?vid=aba6b563-5093-4f2c-abdc-45b501f05388"},"vehicle_type_id":"4","last_reported":1761660644,"current_range_meters":6800,"station_id":"st_d3n2fo6cfp8s73cte1j0","pricing_plan_id":"cebpf4jnsgd1na2vs0mg"},{"bike_id":"a183586c-5347-43fd-a11b-e67f57c87356","system_id":"levelo_inurba_marseille","lat":43.23955,"lon":5.36636,"is_reserved":false,"is_disabled":false,"rental_uris":{"android":"levelo://app?vid=a183586c-5347-43fd-a11b-e67f57c87356","ios":"levelo://app?vid=a183586c-5347-43fd-a11b-e67f57c87356"},"vehicle_type_id":"4","last_reported":1761660644,"current_range_meters":6800,"station_id":"ce4bhi12rcd13ifvqfp0","pricing_plan_id":"cebpf4jnsgd1na2vs0mg"},{"bike_id":"c4a6a5ab-f472-4bff-80e2-092ca4fca1a0","system_id":"levelo_inurba_marseille","lat":43.29514,"lon":5.39028,"is_reserved":false,"is_disabled":true,"rental_uris":{"android":"levelo://app?vid=c4a6a5ab-f472-4bff-80e2-092ca4fca1a0","ios":"levelo://app?vid=c4a6a5ab-f472-4bff-80e2-092ca4fca1a0"},"vehicle_type_id":"4","last_reported":1761660644,"current_range_meters":7200,"station_id":"ce4bh3p2rcd13ifvqdp0","pricing_plan_id":"cebpf4jnsgd1na2vs0mg"},{"bike_id":"6cc61a69-6f54-48d2-bb03-3d81045e56ce","system_id":"levelo_inurba_marseille","lat":43.28405,"lon":5.34984,"is_reserved":false,"is_disabled":false,"rental_uris":{"android":"levelo://app?vid=6cc61a69-6f54-48d2-bb03-3d81045e56ce","ios":"levelo://app?vid=6cc61a69-6f54-48d2-bb03-3d81045e56ce"},"vehicle_type_id":"4","last_reported":1761660644,"current_range_meters":7200,"station_id":"ce4bhbh2rcd13ifvqepg","pricing_plan_id":"cebpf4jnsgd1na2vs0mg"},{"bike_id":"8f378852-6fbf-40e3-bb5f-0eaf458a448e","system_id":"levelo_inurba_marseille","lat":43.265562,"lon":5.372812,"is_reserved":false,"is_disabled":false,"rental_uris":{"android":"levelo://app?vid=8f378852-6fbf-40e3-bb5f-0eaf458a448e","ios":"levelo://app?vid=8f378852-6fbf-40e3-bb5f-0eaf458a448e"},"vehicle_type_id":"4","last_reported":1761660644,"current_range_meters":7200,"station_id":"ce4bhg12rcd13ifvqf70","pricing_plan_id":"cebpf4jnsgd1na2vs0mg"},{"bike_id":"f6f21438-2f6d-48c6-baeb-2c5b1f4c5a3b","system_id":"levelo_inurba_marseille","lat":43.29032,"lon":5.37563,"is_reserved":false,"is_disabled":false,"rental_uris":{"android":"levelo://app?vid=f6f21438-2f6d-48c6-baeb-2c5b1f4c5a3b","ios":"levelo://app?vid=f6f21438-2f6d-48c6-baeb-2c5b1f4c5a3b"},"vehicle_type_id":"4","last_reported":1761660644,"current_range_meters":7200,"station_id":"ce4bh692rcd13ifvqe90","pricing_plan_id":"cebpf4jnsgd1na2vs0mg"},{"bike_id":"f9fced10-2217-4325-ad10-99d5d178bf96","system_id":"levelo_inurba_marseille","lat":43.30533,"lon":5.36537,"is_reserved":false,"is_disabled":false,"rental_uris":{"android":"levelo://app?vid=f9fced10-2217-4325-ad10-99d5d178bf96","ios":"levelo://app?vid=f9fced10-2217-4325-ad10-99d5d178bf96"},"vehicle_type_id":"4","last_reported":1761660644,"current_range_meters":8000,"station_id":"ce4bgs12rcd13ifvqcag","pricing_plan_id":"cebpf4jnsgd1na2vs0mg"},{"bike_id":"f4bcf084-a0ff-4cd0-a83f-a71a64e177e3","system_id":"levelo_inurba_marseille","lat":43.27364,"lon":5.36251,"is_reserved":false,"is_disabled":false,"rental_uris":{"android":"levelo://app?vid=f4bcf084-a0ff-4cd0-a83f-a71a64e177e3","ios":"levelo://app?vid=f4bcf084-a0ff-4cd0-a83f-a71a64e177e3"},"vehicle_type_id":"4","last_reported":1761660644,"current_range_meters":8000,"station_id":"ce4bhbh2rcd13ifvqeo0","pricing_plan_id":"cebpf4jnsgd1na2vs0mg"},{"bike_id":"9731ce69-981c-467b-a67b-0ab4a1920263","system_id":"levelo_inurba_marseille","lat":43.28263,"lon":5.3508,"is_reserved":false,"is_disabled":false,"rental_uris":{"android":"levelo://app?vid=9731ce69-981c-467b-a67b-0ab4a1920263","ios":"levelo://app?vid=9731ce69-981c-467b-a67b-0ab4a1920263"},"vehicle_type_id":"4","last_reported":1761660644,"current_range_meters":8000,"station_id":"ce4bhbp2rcd13ifvqerg","pricing_plan_id":"cebpf4jnsgd1na2vs0mg"},{"bike_id":"843c5140-9df4-46e4-9bd1-acd66227edcb","system_id":"levelo_inurba_marseille","lat":43.305364,"lon":5.365402,"is_reserved":false,"is_disabled":false,"rental_uris":{"android":"levelo://app?vid=843c5140-9df4-46e4-9bd1-acd66227edcb","ios":"levelo://app?vid=843c5140-9df4-46e4-9bd1-acd66227edcb"},"vehicle_type_id":"4","last_reported":1761660644,"current_range_meters":8000,"station_id":"ce4bgs12rcd13ifvqcag","pricing_plan_id":"cebpf4jnsgd1na2vs0mg"},{"bike_id":"ce4af739-90fa-494a-80af-6571d93194d6","system_id":"levelo_inurba_marseille","lat":43.21746,"lon":5.34595,"is_reserved":false,"is_disabled":false,"rental_uris":{"android":"levelo://app?vid=ce4af739-90fa-494a-80af-6571d93194d6","ios":"levelo://app?vid=ce4af739-90fa-494a-80af-6571d93194d6"},"vehicle_type_id":"4","last_reported":1761660644,"current_range_meters":8000,"station_id":"st_cvj6r9ubvosntc0bgbag","pricing_plan_id":"cebpf4jnsgd1na2vs0mg"},{"bike_id":"689d7b3b-faed-4f4c-8880-e9fcdcda8915","system_id":"levelo_inurba_marseille","lat":43.30141,"lon":5.37423,"is_reserved":false,"is_disabled":false,"rental_uris":{"android":"levelo://app?vid=689d7b3b-faed-4f4c-8880-e9fcdcda8915","ios":"levelo://app?vid=689d7b3b-faed-4f4c-8880-e9fcdcda8915"},"vehicle_type_id":"4","last_reported":1761660644,"current_range_meters":8000,"station_id":"ce4bgs92rcd13ifvqcc0","pricing_plan_id":"cebpf4jnsgd1na2vs0mg"},{"bike_id":"acee65c5-d1cb-4bf2-8938-c5892470f21f","system_id":"levelo_inurba_marseille","lat":43.302968,"lon":5.377855,"is_reserved":false,"is_disabled":false,"rental_uris":{"android":"levelo://app?vid=acee65c5-d1cb-4bf2-8938-c5892470f21f","ios":"levelo://app?vid=acee65c5-d1cb-4bf2-8938-c5892470f21f"},"vehicle_type_id":"4","last_reported":1761660644,"current_range_meters":8400,"station_id":"ce4bguh2rcd13ifvqcj0","pricing_plan_id":"cebpf4jnsgd1na2vs0mg"},{"bike_id":"95560b5f-8ea8-4033-94ba-80ee0a78620c","system_id":"levelo_inurba_marseille","lat":43.30357,"lon":5.42492,"is_reserved":false,"is_disabled":false,"rental_uris":{"android":"levelo://app?vid=95560b5f-8ea8-4033-94ba-80ee0a78620c","ios":"levelo://app?vid=95560b5f-8ea8-4033-94ba-80ee0a78620c"},"vehicle_type_id":"4","last_reported":1761660644,"current_range_meters":8400,"station_id":"ce4bhoh2rcd13ifvqh6g","pricing_plan_id":"cebpf4jnsgd1na2vs0mg"},{"bike_id":"fa3ae082-7360-4c2b-95b6-227bc246daa1","system_id":"levelo_inurba_marseille","lat":43.21751,"lon":5.34591,"is_reserved":false,"is_disabled":false,"rental_uris":{"android":"levelo://app?vid=fa3ae082-7360-4c2b-95b6-227bc246daa1","ios":"levelo://app?vid=fa3ae082-7360-4c2b-95b6-227bc246daa1"},"vehicle_type_id":"4","last_reported":1761660644,"current_range_meters":8400,"station_id":"st_cvj6r9ubvosntc0bgbag","pricing_plan_id":"cebpf4jnsgd1na2vs0mg"},{"bike_id":"bbbf3dbb-fbe2-4b7e-bfad-c027ca4e1c25","system_id":"levelo_inurba_marseille","lat":43.2847,"lon":5.48404,"is_reserved":false,"is_disabled":false,"rental_uris":{"android":"levelo://app?vid=bbbf3dbb-fbe2-4b7e-bfad-c027ca4e1c25","ios":"levelo://app?vid=bbbf3dbb-fbe2-4b7e-bfad-c027ca4e1c25"},"vehicle_type_id":"4","last_reported":1761660644,"current_range_meters":8800,"station_id":"st_d3svhcjqgbts73a3dn0g","pricing_plan_id":"cebpf4jnsgd1na2vs0mg"},{"bike_id":"f4720977-680d-4cc0-a9f6-c87b0f862dd9","system_id":"levelo_inurba_marseille","lat":43.30141,"lon":5.37436,"is_reserved":false,"is_disabled":false,"rental_uris":{"android":"levelo://app?vid=f4720977-680d-4cc0-a9f6-c87b0f862dd9","ios":"levelo://app?vid=f4720977-680d-4cc0-a9f6-c87b0f862dd9"},"vehicle_type_id":"4","last_reported":1761660644,"current_range_meters":8800,"station_id":"ce4bgs92rcd13ifvqcc0","pricing_plan_id":"cebpf4jnsgd1na2vs0mg"},{"bike_id":"eea3c3c3-734f-4fd3-8061-ed84cfe47b38","system_id":"levelo_inurba_marseille","lat":43.32569,"lon":5.39143,"is_reserved":false,"is_disabled":false,"rental_uris":{"android":"levelo://app?vid=eea3c3c3-734f-4fd3-8061-ed84cfe47b38","ios":"levelo://app?vid=eea3c3c3-734f-4fd3-8061-ed84cfe47b38"},"vehicle_type_id":"4","last_reported":1761660644,"current_range_meters":8800,"station_id":"","pricing_plan_id":"cebpf4jnsgd1na2vs0mg"},{"bike_id":"f5adc0f6-8f78-420c-a3cc-2381696afa4a","system_id":"levelo_inurba_marseille","lat":43.28849,"lon":5.42516,"is_reserved":false,"is_disabled":false,"rental_uris":{"android":"levelo://app?vid=f5adc0f6-8f78-420c-a3cc-2381696afa4a","ios":"levelo://app?vid=f5adc0f6-8f78-420c-a3cc-2381696afa4a"},"vehicle_type_id":"4","last_reported":1761660644,"current_range_meters":8800,"station_id":"st_d3b462108ojc7389ooeg","pricing_plan_id":"cebpf4jnsgd1na2vs0mg"},{"bike_id":"a8e7fee9-4b47-487f-aa96-53bac735c567","system_id":"levelo_inurba_marseille","lat":43.29844,"lon":5.36278,"is_reserved":false,"is_disabled":false,"rental_uris":{"android":"levelo://app?vid=a8e7fee9-4b47-487f-aa96-53bac735c567","ios":"levelo://app?vid=a8e7fee9-4b47-487f-aa96-53bac735c567"},"vehicle_type_id":"4","last_reported":1761660644,"current_range_meters":8800,"station_id":"ce4bgpp2rcd13ifvqc3g","pricing_plan_id":"cebpf4jnsgd1na2vs0mg"},{"bike_id":"b20e62a2-3026-49d5-ae80-3020d9d91cb0","system_id":"levelo_inurba_marseille","lat":43.29928,"lon":5.36539,"is_reserved":false,"is_disabled":false,"rental_uris":{"android":"levelo://app?vid=b20e62a2-3026-49d5-ae80-3020d9d91cb0","ios":"levelo://app?vid=b20e62a2-3026-49d5-ae80-3020d9d91cb0"},"vehicle_type_id":"4","last_reported":1761660644,"current_range_meters":9200,"station_id":"ce4bgm92rcd13ifvqbr0","pricing_plan_id":"cebpf4jnsgd1na2vs0mg"},{"bike_id":"8062c369-ff3b-4a48-b2ef-d270e82c4cf4","system_id":"levelo_inurba_marseille","lat":43.23055,"lon":5.35494,"is_reserved":false,"is_disabled":false,"rental_uris":{"android":"levelo://app?vid=8062c369-ff3b-4a48-b2ef-d270e82c4cf4","ios":"levelo://app?vid=8062c369-ff3b-4a48-b2ef-d270e82c4cf4"},"vehicle_type_id":"4","last_reported":1761660644,"current_range_meters":9200,"station_id":"cpo3342slgdg3j2ifvpg","pricing_plan_id":"cebpf4jnsgd1na2vs0mg"},{"bike_id":"cbd38848-fdb7-4872-b3dd-2fd64c9fe1d2","system_id":"levelo_inurba_marseille","lat":43.30534,"lon":5.36543,"is_reserved":false,"is_disabled":false,"rental_uris":{"android":"levelo://app?vid=cbd38848-fdb7-4872-b3dd-2fd64c9fe1d2","ios":"levelo://app?vid=cbd38848-fdb7-4872-b3dd-2fd64c9fe1d2"},"vehicle_type_id":"4","last_reported":1761660644,"current_range_meters":9200,"station_id":"ce4bgs12rcd13ifvqcag","pricing_plan_id":"cebpf4jnsgd1na2vs0mg"},{"bike_id":"41a00f58-1623-4d06-9e9a-1481d9cd6dd4","system_id":"levelo_inurba_marseille","lat":43.27367,"lon":5.36266,"is_reserved":false,"is_disabled":false,"rental_uris":{"android":"levelo://app?vid=41a00f58-1623-4d06-9e9a-1481d9cd6dd4","ios":"levelo://app?vid=41a00f58-1623-4d06-9e9a-1481d9cd6dd4"},"vehicle_type_id":"4","last_reported":1761660644,"current_range_meters":9200,"station_id":"ce4bhbh2rcd13ifvqeo0","pricing_plan_id":"cebpf4jnsgd1na2vs0mg"},{"bike_id":"71fe0d6a-f99e-45a0-9c75-e294b78524b2","system_id":"levelo_inurba_marseille","lat":43.23058,"lon":5.35493,"is_reserved":false,"is_disabled":false,"rental_uris":{"android":"levelo://app?vid=71fe0d6a-f99e-45a0-9c75-e294b78524b2","ios":"levelo://app?vid=71fe0d6a-f99e-45a0-9c75-e294b78524b2"},"vehicle_type_id":"4","last_reported":1761660644,"current_range_meters":9600,"station_id":"cpo3342slgdg3j2ifvpg","pricing_plan_id":"cebpf4jnsgd1na2vs0mg"},{"bike_id":"35ca73ae-b669-4bb0-a59c-28d9fb3b9013","system_id":"levelo_inurba_marseille","lat":43.21749,"lon":5.34611,"is_reserved":false,"is_disabled":false,"rental_uris":{"android":"levelo://app?vid=35ca73ae-b669-4bb0-a59c-28d9fb3b9013","ios":"levelo://app?vid=35ca73ae-b669-4bb0-a59c-28d9fb3b9013"},"vehicle_type_id":"4","last_reported":1761660644,"current_range_meters":9600,"station_id":"st_cvj6r9ubvosntc0bgbag","pricing_plan_id":"cebpf4jnsgd1na2vs0mg"},{"bike_id":"acdfd7de-930a-46bf-93ce-aaff731fc1e5","system_id":"levelo_inurba_marseille","lat":43.29261,"lon":5.37632,"is_reserved":false,"is_disabled":false,"rental_uris":{"android":"levelo://app?vid=acdfd7de-930a-46bf-93ce-aaff731fc1e5","ios":"levelo://app?vid=acdfd7de-930a-46bf-93ce-aaff731fc1e5"},"vehicle_type_id":"4","last_reported":1761660644,"current_range_meters":9600,"station_id":"ce4bgi12rcd13ifvqb80","pricing_plan_id":"cebpf4jnsgd1na2vs0mg"},{"bike_id":"efbb9712-7054-4f05-aad1-6913b9e3154d","system_id":"levelo_inurba_marseille","lat":43.28414,"lon":5.34989,"is_reserved":false,"is_disabled":false,"rental_uris":{"android":"levelo://app?vid=efbb9712-7054-4f05-aad1-6913b9e3154d","ios":"levelo://app?vid=efbb9712-7054-4f05-aad1-6913b9e3154d"},"vehicle_type_id":"4","last_reported":1761660644,"current_range_meters":9600,"station_id":"ce4bhbh2rcd13ifvqepg","pricing_plan_id":"cebpf4jnsgd1na2vs0mg"},{"bike_id":"1880ebb9-7edb-463e-976b-226e958b9ebe","system_id":"levelo_inurba_marseille","lat":43.31097,"lon":5.37487,"is_reserved":false,"is_disabled":false,"rental_uris":{"android":"levelo://app?vid=1880ebb9-7edb-463e-976b-226e958b9ebe","ios":"levelo://app?vid=1880ebb9-7edb-463e-976b-226e958b9ebe"},"vehicle_type_id":"4","last_reported":1761660644,"current_range_meters":10000,"station_id":"ce4bgt12rcd13ifvqce0","pricing_plan_id":"cebpf4jnsgd1na2vs0mg"},{"bike_id":"fe99afd6-e3fd-422a-ab42-6b4d1a78b724","system_id":"levelo_inurba_marseille","lat":43.284517,"lon":5.349507,"is_reserved":false,"is_disabled":false,"rental_uris":{"android":"levelo://app?vid=fe99afd6-e3fd-422a-ab42-6b4d1a78b724","ios":"levelo://app?vid=fe99afd6-e3fd-422a-ab42-6b4d1a78b724"},"vehicle_type_id":"4","last_reported":1761660644,"current_range_meters":10000,"station_id":"","pricing_plan_id":"cebpf4jnsgd1na2vs0mg"},{"bike_id":"bb8b07d9-0188-4976-8aa9-383736f8231a","system_id":"levelo_inurba_marseille","lat":43.26026,"lon":5.37547,"is_reserved":false,"is_disabled":false,"rental_uris":{"android":"levelo://app?vid=bb8b07d9-0188-4976-8aa9-383736f8231a","ios":"levelo://app?vid=bb8b07d9-0188-4976-8aa9-383736f8231a"},"vehicle_type_id":"4","last_reported":1761660644,"current_range_meters":10000,"station_id":"ce4bhgh2rcd13ifvqfa0","pricing_plan_id":"cebpf4jnsgd1na2vs0mg"},{"bike_id":"c896b697-d7c3-47ea-81cb-50811f76c96f","system_id":"levelo_inurba_marseille","lat":43.25077,"lon":5.39518,"is_reserved":false,"is_disabled":false,"rental_uris":{"android":"levelo://app?vid=c896b697-d7c3-47ea-81cb-50811f76c96f","ios":"levelo://app?vid=c896b697-d7c3-47ea-81cb-50811f76c96f"},"vehicle_type_id":"4","last_reported":1761660644,"current_range_meters":10000,"station_id":"ce4bhm12rcd13ifvqgkg","pricing_plan_id":"cebpf4jnsgd1na2vs0mg"},{"bike_id":"f9484733-c07f-4293-8628-46871c65b913","system_id":"levelo_inurba_marseille","lat":43.25456,"lon":5.38104,"is_reserved":false,"is_disabled":false,"rental_uris":{"android":"levelo://app?vid=f9484733-c07f-4293-8628-46871c65b913","ios":"levelo://app?vid=f9484733-c07f-4293-8628-46871c65b913"},"vehicle_type_id":"4","last_reported":1761660644,"current_range_meters":10000,"station_id":"","pricing_plan_id":"cebpf4jnsgd1na2vs0mg"},{"bike_id":"f3673a60-efd2-465f-aa18-cb0baaf105f7","system_id":"levelo_inurba_marseille","lat":43.31054,"lon":5.40095,"is_reserved":false,"is_disabled":false,"rental_uris":{"android":"levelo://app?vid=f3673a60-efd2-465f-aa18-cb0baaf105f7","ios":"levelo://app?vid=f3673a60-efd2-465f-aa18-cb0baaf105f7"},"vehicle_type_id":"4","last_reported":1761660644,"current_range_meters":10000,"station_id":"","pricing_plan_id":"cebpf4jnsgd1na2vs0mg"},{"bike_id":"aae2869b-900b-4e16-b51e-3b91a63279e4","system_id":"levelo_inurba_marseille","lat":43.32361,"lon":5.38885,"is_reserved":false,"is_disabled":false,"rental_uris":{"android":"levelo://app?vid=aae2869b-900b-4e16-b51e-3b91a63279e4","ios":"levelo://app?vid=aae2869b-900b-4e16-b51e-3b91a63279e4"},"vehicle_type_id":"4","last_reported":1761660644,"current_range_meters":10000,"station_id":"ce4bhqp2rcd13ifvqhog","pricing_plan_id":"cebpf4jnsgd1na2vs0mg"},{"bike_id":"fcce6eef-0d64-4c91-8a24-fc5df6e13e80","system_id":"levelo_inurba_marseille","lat":43.311465,"lon":5.385214,"is_reserved":false,"is_disabled":false,"rental_uris":{"android":"levelo://app?vid=fcce6eef-0d64-4c91-8a24-fc5df6e13e80","ios":"levelo://app?vid=fcce6eef-0d64-4c91-8a24-fc5df6e13e80"},"vehicle_type_id":"4","last_reported":1761660644,"current_range_meters":10800,"station_id":"ce4bgup2rcd13ifvqco0","pricing_plan_id":"cebpf4jnsgd1na2vs0mg"},{"bike_id":"dbcbcef0-4b5f-446e-9d2e-80d991993c2b","system_id":"levelo_inurba_marseille","lat":43.295305,"lon":5.402275,"is_reserved":false,"is_disabled":false,"rental_uris":{"android":"levelo://app?vid=dbcbcef0-4b5f-446e-9d2e-80d991993c2b","ios":"levelo://app?vid=dbcbcef0-4b5f-446e-9d2e-80d991993c2b"},"vehicle_type_id":"4","last_reported":1761660644,"current_range_meters":10800,"station_id":"","pricing_plan_id":"cebpf4jnsgd1na2vs0mg"},{"bike_id":"d840e009-d66a-4263-964b-f2c1c855217d","system_id":"levelo_inurba_marseille","lat":43.297527,"lon":5.427812,"is_reserved":false,"is_disabled":false,"rental_uris":{"android":"levelo://app?vid=d840e009-d66a-4263-964b-f2c1c855217d","ios":"levelo://app?vid=d840e009-d66a-4263-964b-f2c1c855217d"},"vehicle_type_id":"4","last_reported":1761660644,"current_range_meters":10800,"station_id":"st_d3md5207bmas73dh9klg","pricing_plan_id":"cebpf4jnsgd1na2vs0mg"},{"bike_id":"4bf9d265-8b82-4e6d-af96-57b56fdfaed3","system_id":"levelo_inurba_marseille","lat":43.29751,"lon":5.4278,"is_reserved":false,"is_disabled":false,"rental_uris":{"android":"levelo://app?vid=4bf9d265-8b82-4e6d-af96-57b56fdfaed3","ios":"levelo://app?vid=4bf9d265-8b82-4e6d-af96-57b56fdfaed3"},"vehicle_type_id":"4","last_reported":1761660644,"current_range_meters":11200,"station_id":"st_d3md5207bmas73dh9klg","pricing_plan_id":"cebpf4jnsgd1na2vs0mg"},{"bike_id":"d94806bd-d31d-4b00-ad3b-2b71edb174ca","system_id":"levelo_inurba_marseille","lat":43.24381,"lon":5.37048,"is_reserved":false,"is_disabled":false,"rental_uris":{"android":"levelo://app?vid=d94806bd-d31d-4b00-ad3b-2b71edb174ca","ios":"levelo://app?vid=d94806bd-d31d-4b00-ad3b-2b71edb174ca"},"vehicle_type_id":"4","last_reported":1761660644,"current_range_meters":11200,"station_id":"ce4bhhh2rcd13ifvqfk0","pricing_plan_id":"cebpf4jnsgd1na2vs0mg"},{"bike_id":"3b82aff6-7cb9-43aa-944c-0f02fe4ef9fa","system_id":"levelo_inurba_marseille","lat":43.27948,"lon":5.38706,"is_reserved":false,"is_disabled":true,"rental_uris":{"android":"levelo://app?vid=3b82aff6-7cb9-43aa-944c-0f02fe4ef9fa","ios":"levelo://app?vid=3b82aff6-7cb9-43aa-944c-0f02fe4ef9fa"},"vehicle_type_id":"4","last_reported":1761660644,"current_range_meters":11200,"station_id":"ce4bhg12rcd13ifvqf80","pricing_plan_id":"cebpf4jnsgd1na2vs0mg"},{"bike_id":"72f04c40-2057-4d07-b99b-f2e14f0637b1","system_id":"levelo_inurba_marseille","lat":43.29519,"lon":5.37503,"is_reserved":false,"is_disabled":false,"rental_uris":{"android":"levelo://app?vid=72f04c40-2057-4d07-b99b-f2e14f0637b1","ios":"levelo://app?vid=72f04c40-2057-4d07-b99b-f2e14f0637b1"},"vehicle_type_id":"4","last_reported":1761660644,"current_range_meters":11200,"station_id":"ce4bgkp2rcd13ifvqbmg","pricing_plan_id":"cebpf4jnsgd1na2vs0mg"},{"bike_id":"7b1b6fda-acbf-4bcc-9c4e-eb02a7bb672a","system_id":"levelo_inurba_marseille","lat":43.24162,"lon":5.36392,"is_reserved":false,"is_disabled":false,"rental_uris":{"android":"levelo://app?vid=7b1b6fda-acbf-4bcc-9c4e-eb02a7bb672a","ios":"levelo://app?vid=7b1b6fda-acbf-4bcc-9c4e-eb02a7bb672a"},"vehicle_type_id":"4","last_reported":1761660644,"current_range_meters":11600,"station_id":"cpo36qri1sfpv3e86is0","pricing_plan_id":"cebpf4jnsgd1na2vs0mg"},{"bike_id":"9eb27e8b-0951-4c08-8214-6e629081e2a3","system_id":"levelo_inurba_marseille","lat":43.24165,"lon":5.36397,"is_reserved":false,"is_disabled":false,"rental_uris":{"android":"levelo://app?vid=9eb27e8b-0951-4c08-8214-6e629081e2a3","ios":"levelo://app?vid=9eb27e8b-0951-4c08-8214-6e629081e2a3"},"vehicle_type_id":"4","last_reported":1761660644,"current_range_meters":11600,"station_id":"cpo36qri1sfpv3e86is0","pricing_plan_id":"cebpf4jnsgd1na2vs0mg"},{"bike_id":"e9238dd2-2fa9-4bd4-8dc8-c2497b5258fb","system_id":"levelo_inurba_marseille","lat":43.28266,"lon":5.35075,"is_reserved":false,"is_disabled":false,"rental_uris":{"android":"levelo://app?vid=e9238dd2-2fa9-4bd4-8dc8-c2497b5258fb","ios":"levelo://app?vid=e9238dd2-2fa9-4bd4-8dc8-c2497b5258fb"},"vehicle_type_id":"4","last_reported":1761660644,"current_range_meters":12000,"station_id":"ce4bhbp2rcd13ifvqerg","pricing_plan_id":"cebpf4jnsgd1na2vs0mg"},{"bike_id":"6abb9e09-33f3-43f3-9417-8cc0cf0144f6","system_id":"levelo_inurba_marseille","lat":43.299046,"lon":5.374652,"is_reserved":false,"is_disabled":true,"rental_uris":{"android":"levelo://app?vid=6abb9e09-33f3-43f3-9417-8cc0cf0144f6","ios":"levelo://app?vid=6abb9e09-33f3-43f3-9417-8cc0cf0144f6"},"vehicle_type_id":"4","last_reported":1761660644,"current_range_meters":12000,"station_id":"ce4bgjh2rcd13ifvqbg0","pricing_plan_id":"cebpf4jnsgd1na2vs0mg"},{"bike_id":"9fd57f5d-d82d-4009-b0fe-2d623daa33e5","system_id":"levelo_inurba_marseille","lat":43.288569,"lon":5.358503,"is_reserved":false,"is_disabled":false,"rental_uris":{"android":"levelo://app?vid=9fd57f5d-d82d-4009-b0fe-2d623daa33e5","ios":"levelo://app?vid=9fd57f5d-d82d-4009-b0fe-2d623daa33e5"},"vehicle_type_id":"4","last_reported":1761660644,"current_range_meters":12000,"station_id":"ce4bhb12rcd13ifvqem0","pricing_plan_id":"cebpf4jnsgd1na2vs0mg"},{"bike_id":"f703cde2-595a-4176-bab0-7d10ee4056a7","system_id":"levelo_inurba_marseille","lat":43.21744,"lon":5.34605,"is_reserved":false,"is_disabled":false,"rental_uris":{"android":"levelo://app?vid=f703cde2-595a-4176-bab0-7d10ee4056a7","ios":"levelo://app?vid=f703cde2-595a-4176-bab0-7d10ee4056a7"},"vehicle_type_id":"4","last_reported":1761660644,"current_range_meters":12000,"station_id":"","pricing_plan_id":"cebpf4jnsgd1na2vs0mg"},{"bike_id":"70be375b-63de-4579-b813-0e6b0c48da1b","system_id":"levelo_inurba_marseille","lat":43.286748,"lon":5.369983,"is_reserved":false,"is_disabled":false,"rental_uris":{"android":"levelo://app?vid=70be375b-63de-4579-b813-0e6b0c48da1b","ios":"levelo://app?vid=70be375b-63de-4579-b813-0e6b0c48da1b"},"vehicle_type_id":"4","last_reported":1761660644,"current_range_meters":12000,"station_id":"ce4bht12rcd13ifvqi60","pricing_plan_id":"cebpf4jnsgd1na2vs0mg"},{"bike_id":"b5e5ca93-bac9-4e3e-90fd-2ab20ee6702f","system_id":"levelo_inurba_marseille","lat":43.21742,"lon":5.34614,"is_reserved":false,"is_disabled":false,"rental_uris":{"android":"levelo://app?vid=b5e5ca93-bac9-4e3e-90fd-2ab20ee6702f","ios":"levelo://app?vid=b5e5ca93-bac9-4e3e-90fd-2ab20ee6702f"},"vehicle_type_id":"4","last_reported":1761660644,"current_range_meters":12400,"station_id":"st_cvj6r9ubvosntc0bgbag","pricing_plan_id":"cebpf4jnsgd1na2vs0mg"},{"bike_id":"41e5e4f2-44dd-4c18-8344-1b66a6f1c8d9","system_id":"levelo_inurba_marseille","lat":43.23781,"lon":5.36637,"is_reserved":false,"is_disabled":false,"rental_uris":{"android":"levelo://app?vid=41e5e4f2-44dd-4c18-8344-1b66a6f1c8d9","ios":"levelo://app?vid=41e5e4f2-44dd-4c18-8344-1b66a6f1c8d9"},"vehicle_type_id":"4","last_reported":1761660644,"current_range_meters":12400,"station_id":"st_d3nk18o9ro0c73en2l3g","pricing_plan_id":"cebpf4jnsgd1na2vs0mg"},{"bike_id":"bf38cac9-e9d0-4311-8395-f78fa746e742","system_id":"levelo_inurba_marseille","lat":43.29249,"lon":5.40905,"is_reserved":false,"is_disabled":false,"rental_uris":{"android":"levelo://app?vid=bf38cac9-e9d0-4311-8395-f78fa746e742","ios":"levelo://app?vid=bf38cac9-e9d0-4311-8395-f78fa746e742"},"vehicle_type_id":"4","last_reported":1761660644,"current_range_meters":12400,"station_id":"ce4bh192rcd13ifvqdc0","pricing_plan_id":"cebpf4jnsgd1na2vs0mg"},{"bike_id":"fe7446d6-e79b-4cea-a26d-f0b0ca54a597","system_id":"levelo_inurba_marseille","lat":43.217516,"lon":5.346139,"is_reserved":false,"is_disabled":false,"rental_uris":{"android":"levelo://app?vid=fe7446d6-e79b-4cea-a26d-f0b0ca54a597","ios":"levelo://app?vid=fe7446d6-e79b-4cea-a26d-f0b0ca54a597"},"vehicle_type_id":"4","last_reported":1761660644,"current_range_meters":12800,"station_id":"","pricing_plan_id":"cebpf4jnsgd1na2vs0mg"},{"bike_id":"da1ab5c2-f93c-4e38-ab02-3398697b4587","system_id":"levelo_inurba_marseille","lat":43.24386,"lon":5.37055,"is_reserved":false,"is_disabled":false,"rental_uris":{"android":"levelo://app?vid=da1ab5c2-f93c-4e38-ab02-3398697b4587","ios":"levelo://app?vid=da1ab5c2-f93c-4e38-ab02-3398697b4587"},"vehicle_type_id":"4","last_reported":1761660644,"current_range_meters":12800,"station_id":"ce4bhhh2rcd13ifvqfk0","pricing_plan_id":"cebpf4jnsgd1na2vs0mg"},{"bike_id":"7a0ca891-5538-4f1c-858f-28c8d36f603c","system_id":"levelo_inurba_marseille","lat":43.28573,"lon":5.39494,"is_reserved":false,"is_disabled":false,"rental_uris":{"android":"levelo://app?vid=7a0ca891-5538-4f1c-858f-28c8d36f603c","ios":"levelo://app?vid=7a0ca891-5538-4f1c-858f-28c8d36f603c"},"vehicle_type_id":"4","last_reported":1761660644,"current_range_meters":12800,"station_id":"ce4bh292rcd13ifvqdg0","pricing_plan_id":"cebpf4jnsgd1na2vs0mg"},{"bike_id":"346d6f79-04b0-4e22-920d-e52df028ef66","system_id":"levelo_inurba_marseille","lat":43.23965,"lon":5.36632,"is_reserved":false,"is_disabled":false,"rental_uris":{"android":"levelo://app?vid=346d6f79-04b0-4e22-920d-e52df028ef66","ios":"levelo://app?vid=346d6f79-04b0-4e22-920d-e52df028ef66"},"vehicle_type_id":"4","last_reported":1761660644,"current_range_meters":12800,"station_id":"ce4bhi12rcd13ifvqfp0","pricing_plan_id":"cebpf4jnsgd1na2vs0mg"},{"bike_id":"d5ca831f-8041-403e-ada8-7b4196c3d5be","system_id":"levelo_inurba_marseille","lat":43.293714,"lon":5.379385,"is_reserved":false,"is_disabled":false,"rental_uris":{"android":"levelo://app?vid=d5ca831f-8041-403e-ada8-7b4196c3d5be","ios":"levelo://app?vid=d5ca831f-8041-403e-ada8-7b4196c3d5be"},"vehicle_type_id":"4","last_reported":1761660644,"current_range_meters":12800,"station_id":"","pricing_plan_id":"cebpf4jnsgd1na2vs0mg"},{"bike_id":"897d1025-cdde-48ec-9b73-6418bafdbbc5","system_id":"levelo_inurba_marseille","lat":43.28089,"lon":5.34779,"is_reserved":false,"is_disabled":false,"rental_uris":{"android":"levelo://app?vid=897d1025-cdde-48ec-9b73-6418bafdbbc5","ios":"levelo://app?vid=897d1025-cdde-48ec-9b73-6418bafdbbc5"},"vehicle_type_id":"4","last_reported":1761660644,"current_range_meters":12800,"station_id":"","pricing_plan_id":"cebpf4jnsgd1na2vs0mg"},{"bike_id":"e1ca1064-3ac1-495e-b8d2-df8047d11b2e","system_id":"levelo_inurba_marseille","lat":43.284844,"lon":5.484061,"is_reserved":false,"is_disabled":false,"rental_uris":{"android":"levelo://app?vid=e1ca1064-3ac1-495e-b8d2-df8047d11b2e","ios":"levelo://app?vid=e1ca1064-3ac1-495e-b8d2-df8047d11b2e"},"vehicle_type_id":"4","last_reported":1761660644,"current_range_meters":12800,"station_id":"st_d3svhcjqgbts73a3dn0g","pricing_plan_id":"cebpf4jnsgd1na2vs0mg"},{"bike_id":"dccef0b1-edb3-49b5-866c-43e10e5763cc","system_id":"levelo_inurba_marseille","lat":43.28884,"lon":5.43794,"is_reserved":false,"is_disabled":false,"rental_uris":{"android":"levelo://app?vid=dccef0b1-edb3-49b5-866c-43e10e5763cc","ios":"levelo://app?vid=dccef0b1-edb3-49b5-866c-43e10e5763cc"},"vehicle_type_id":"4","last_reported":1761660644,"current_range_meters":13600,"station_id":"","pricing_plan_id":"cebpf4jnsgd1na2vs0mg"},{"bike_id":"d0c592fc-3d48-4530-886c-8a5722f0b758","system_id":"levelo_inurba_marseille","lat":43.31347,"lon":5.36714,"is_reserved":false,"is_disabled":false,"rental_uris":{"android":"levelo://app?vid=d0c592fc-3d48-4530-886c-8a5722f0b758","ios":"levelo://app?vid=d0c592fc-3d48-4530-886c-8a5722f0b758"},"vehicle_type_id":"4","last_reported":1761660644,"current_range_meters":13600,"station_id":"ce4bgr92rcd13ifvqc6g","pricing_plan_id":"cebpf4jnsgd1na2vs0mg"},{"bike_id":"1fd266e2-e6c9-4a7e-8908-3af2fd2d0233","system_id":"levelo_inurba_marseille","lat":43.23795,"lon":5.36409,"is_reserved":false,"is_disabled":false,"rental_uris":{"android":"levelo://app?vid=1fd266e2-e6c9-4a7e-8908-3af2fd2d0233","ios":"levelo://app?vid=1fd266e2-e6c9-4a7e-8908-3af2fd2d0233"},"vehicle_type_id":"4","last_reported":1761660644,"current_range_meters":13600,"station_id":"","pricing_plan_id":"cebpf4jnsgd1na2vs0mg"},{"bike_id":"0514a3f3-67b0-4c2b-ad12-4e0494958384","system_id":"levelo_inurba_marseille","lat":43.24171,"lon":5.39725,"is_reserved":false,"is_disabled":false,"rental_uris":{"android":"levelo://app?vid=0514a3f3-67b0-4c2b-ad12-4e0494958384","ios":"levelo://app?vid=0514a3f3-67b0-4c2b-ad12-4e0494958384"},"vehicle_type_id":"4","last_reported":1761660644,"current_range_meters":14000,"station_id":"ce4bhn12rcd13ifvqgpg","pricing_plan_id":"cebpf4jnsgd1na2vs0mg"},{"bike_id":"db88a8a5-5637-4384-a6d7-41d8f099747a","system_id":"levelo_inurba_marseille","lat":43.312379,"lon":5.368484,"is_reserved":false,"is_disabled":false,"rental_uris":{"android":"levelo://app?vid=db88a8a5-5637-4384-a6d7-41d8f099747a","ios":"levelo://app?vid=db88a8a5-5637-4384-a6d7-41d8f099747a"},"vehicle_type_id":"4","last_reported":1761660644,"current_range_meters":14000,"station_id":"ce4bgr92rcd13ifvqc6g","pricing_plan_id":"cebpf4jnsgd1na2vs0mg"},{"bike_id":"a60cb070-d57c-4cd2-8d5d-f1d4b549ff3a","system_id":"levelo_inurba_marseille","lat":43.32314,"lon":5.36732,"is_reserved":false,"is_disabled":false,"rental_uris":{"android":"levelo://app?vid=a60cb070-d57c-4cd2-8d5d-f1d4b549ff3a","ios":"levelo://app?vid=a60cb070-d57c-4cd2-8d5d-f1d4b549ff3a"},"vehicle_type_id":"4","last_reported":1761660644,"current_range_meters":14000,"station_id":"ce4bhsh2rcd13ifvqi2g","pricing_plan_id":"cebpf4jnsgd1na2vs0mg"},{"bike_id":"49ed0d39-51fe-4cd4-8527-50556baa8749","system_id":"levelo_inurba_marseille","lat":43.22531,"lon":5.348321,"is_reserved":false,"is_disabled":false,"rental_uris":{"android":"levelo://app?vid=49ed0d39-51fe-4cd4-8527-50556baa8749","ios":"levelo://app?vid=49ed0d39-51fe-4cd4-8527-50556baa8749"},"vehicle_type_id":"4","last_reported":1761660644,"current_range_meters":14000,"station_id":"","pricing_plan_id":"cebpf4jnsgd1na2vs0mg"},{"bike_id":"17d67783-4f3b-41d6-9b7c-e1597e51e064","system_id":"levelo_inurba_marseille","lat":43.26935,"lon":5.40253,"is_reserved":false,"is_disabled":false,"rental_uris":{"android":"levelo://app?vid=17d67783-4f3b-41d6-9b7c-e1597e51e064","ios":"levelo://app?vid=17d67783-4f3b-41d6-9b7c-e1597e51e064"},"vehicle_type_id":"4","last_reported":1761660644,"current_range_meters":14000,"station_id":"cjm6bp8fraef2m0cb0m0","pricing_plan_id":"cebpf4jnsgd1na2vs0mg"},{"bike_id":"0954906c-101c-4476-a985-e1b43801b267","system_id":"levelo_inurba_marseille","lat":43.22565,"lon":5.41636,"is_reserved":false,"is_disabled":false,"rental_uris":{"android":"levelo://app?vid=0954906c-101c-4476-a985-e1b43801b267","ios":"levelo://app?vid=0954906c-101c-4476-a985-e1b43801b267"},"vehicle_type_id":"4","last_reported":1761660644,"current_range_meters":14000,"station_id":"st_d2o4gvlbi1j2169b742g","pricing_plan_id":"cebpf4jnsgd1na2vs0mg"},{"bike_id":"8e95fc5a-d6f8-4fbd-8c6d-856f0af0f2e5","system_id":"levelo_inurba_marseille","lat":43.29925,"lon":5.36507,"is_reserved":false,"is_disabled":false,"rental_uris":{"android":"levelo://app?vid=8e95fc5a-d6f8-4fbd-8c6d-856f0af0f2e5","ios":"levelo://app?vid=8e95fc5a-d6f8-4fbd-8c6d-856f0af0f2e5"},"vehicle_type_id":"4","last_reported":1761660644,"current_range_meters":14000,"station_id":"ce4bgm92rcd13ifvqbr0","pricing_plan_id":"cebpf4jnsgd1na2vs0mg"},{"bike_id":"743e5eb1-4edc-4cb7-ac0f-e1b7c5ffad24","system_id":"levelo_inurba_marseille","lat":43.28848,"lon":5.35853,"is_reserved":false,"is_disabled":false,"rental_uris":{"android":"levelo://app?vid=743e5eb1-4edc-4cb7-ac0f-e1b7c5ffad24","ios":"levelo://app?vid=743e5eb1-4edc-4cb7-ac0f-e1b7c5ffad24"},"vehicle_type_id":"4","last_reported":1761660644,"current_range_meters":14400,"station_id":"ce4bhb12rcd13ifvqem0","pricing_plan_id":"cebpf4jnsgd1na2vs0mg"},{"bike_id":"07b66ac4-7c4e-4484-a9be-f79316621d0f","system_id":"levelo_inurba_marseille","lat":43.299129,"lon":5.374733,"is_reserved":false,"is_disabled":false,"rental_uris":{"android":"levelo://app?vid=07b66ac4-7c4e-4484-a9be-f79316621d0f","ios":"levelo://app?vid=07b66ac4-7c4e-4484-a9be-f79316621d0f"},"vehicle_type_id":"4","last_reported":1761660644,"current_range_meters":14400,"station_id":"ce4bgjh2rcd13ifvqbg0","pricing_plan_id":"cebpf4jnsgd1na2vs0mg"},{"bike_id":"d07f7e4d-6c2b-48a6-bf9b-210c65ca42d5","system_id":"levelo_inurba_marseille","lat":43.29247,"lon":5.38434,"is_reserved":false,"is_disabled":false,"rental_uris":{"android":"levelo://app?vid=d07f7e4d-6c2b-48a6-bf9b-210c65ca42d5","ios":"levelo://app?vid=d07f7e4d-6c2b-48a6-bf9b-210c65ca42d5"},"vehicle_type_id":"4","last_reported":1761660644,"current_range_meters":14400,"station_id":"ce4bh692rcd13ifvqea0","pricing_plan_id":"cebpf4jnsgd1na2vs0mg"},{"bike_id":"dced2bcc-e95f-44ce-b7d8-7bb47def612a","system_id":"levelo_inurba_marseille","lat":43.230592,"lon":5.354898,"is_reserved":false,"is_disabled":false,"rental_uris":{"android":"levelo://app?vid=dced2bcc-e95f-44ce-b7d8-7bb47def612a","ios":"levelo://app?vid=dced2bcc-e95f-44ce-b7d8-7bb47def612a"},"vehicle_type_id":"4","last_reported":1761660644,"current_range_meters":14400,"station_id":"cpo3342slgdg3j2ifvpg","pricing_plan_id":"cebpf4jnsgd1na2vs0mg"},{"bike_id":"391ea9da-1fb3-409b-be1f-2afa93e0e963","system_id":"levelo_inurba_marseille","lat":43.30532,"lon":5.3654,"is_reserved":false,"is_disabled":false,"rental_uris":{"android":"levelo://app?vid=391ea9da-1fb3-409b-be1f-2afa93e0e963","ios":"levelo://app?vid=391ea9da-1fb3-409b-be1f-2afa93e0e963"},"vehicle_type_id":"4","last_reported":1761660644,"current_range_meters":14400,"station_id":"ce4bgs12rcd13ifvqcag","pricing_plan_id":"cebpf4jnsgd1na2vs0mg"},{"bike_id":"11e3b1d8-bc5f-4d34-a464-c461aa021f63","system_id":"levelo_inurba_marseille","lat":43.30881,"lon":5.39659,"is_reserved":false,"is_disabled":false,"rental_uris":{"android":"levelo://app?vid=11e3b1d8-bc5f-4d34-a464-c461aa021f63","ios":"levelo://app?vid=11e3b1d8-bc5f-4d34-a464-c461aa021f63"},"vehicle_type_id":"4","last_reported":1761660644,"current_range_meters":14400,"station_id":"ce4bh012rcd13ifvqcv0","pricing_plan_id":"cebpf4jnsgd1na2vs0mg"},{"bike_id":"f0e92081-7a93-4d76-8582-adf39cbaf116","system_id":"levelo_inurba_marseille","lat":43.25944,"lon":5.40895,"is_reserved":false,"is_disabled":false,"rental_uris":{"android":"levelo://app?vid=f0e92081-7a93-4d76-8582-adf39cbaf116","ios":"levelo://app?vid=f0e92081-7a93-4d76-8582-adf39cbaf116"},"vehicle_type_id":"4","last_reported":1761660644,"current_range_meters":14400,"station_id":"ce4bhm92rcd13ifvqglg","pricing_plan_id":"cebpf4jnsgd1na2vs0mg"},{"bike_id":"d17c3cf5-f7f3-4773-a3da-0e5ca931cb84","system_id":"levelo_inurba_marseille","lat":43.29547,"lon":5.3749,"is_reserved":false,"is_disabled":false,"rental_uris":{"android":"levelo://app?vid=d17c3cf5-f7f3-4773-a3da-0e5ca931cb84","ios":"levelo://app?vid=d17c3cf5-f7f3-4773-a3da-0e5ca931cb84"},"vehicle_type_id":"4","last_reported":1761660644,"current_range_meters":14400,"station_id":"ce4bgkp2rcd13ifvqbmg","pricing_plan_id":"cebpf4jnsgd1na2vs0mg"},{"bike_id":"94e6b0aa-f8c9-477e-8091-c3a189e0f238","system_id":"levelo_inurba_marseille","lat":43.29668,"lon":5.38135,"is_reserved":false,"is_disabled":false,"rental_uris":{"android":"levelo://app?vid=94e6b0aa-f8c9-477e-8091-c3a189e0f238","ios":"levelo://app?vid=94e6b0aa-f8c9-477e-8091-c3a189e0f238"},"vehicle_type_id":"4","last_reported":1761660644,"current_range_meters":14800,"station_id":"","pricing_plan_id":"cebpf4jnsgd1na2vs0mg"},{"bike_id":"cc378080-c3ba-4c1f-a63d-10c7f6d20bea","system_id":"levelo_inurba_marseille","lat":43.29712,"lon":5.37691,"is_reserved":false,"is_disabled":false,"rental_uris":{"android":"levelo://app?vid=cc378080-c3ba-4c1f-a63d-10c7f6d20bea","ios":"levelo://app?vid=cc378080-c3ba-4c1f-a63d-10c7f6d20bea"},"vehicle_type_id":"4","last_reported":1761660644,"current_range_meters":14800,"station_id":"ce4bgkh2rcd13ifvqbl0","pricing_plan_id":"cebpf4jnsgd1na2vs0mg"},{"bike_id":"8bf4574f-74ca-4680-b44b-3a3d3ebf6733","system_id":"levelo_inurba_marseille","lat":43.3127,"lon":5.40162,"is_reserved":false,"is_disabled":false,"rental_uris":{"android":"levelo://app?vid=8bf4574f-74ca-4680-b44b-3a3d3ebf6733","ios":"levelo://app?vid=8bf4574f-74ca-4680-b44b-3a3d3ebf6733"},"vehicle_type_id":"4","last_reported":1761660644,"current_range_meters":14800,"station_id":"ce4bh092rcd13ifvqd30","pricing_plan_id":"cebpf4jnsgd1na2vs0mg"},{"bike_id":"83cb3fa2-71c7-4dc0-9d13-ee451a3d913a","system_id":"levelo_inurba_marseille","lat":43.30526,"lon":5.36709,"is_reserved":false,"is_disabled":false,"rental_uris":{"android":"levelo://app?vid=83cb3fa2-71c7-4dc0-9d13-ee451a3d913a","ios":"levelo://app?vid=83cb3fa2-71c7-4dc0-9d13-ee451a3d913a"},"vehicle_type_id":"4","last_reported":1761660644,"current_range_meters":14800,"station_id":"ce4bgrp2rcd13ifvqc9g","pricing_plan_id":"cebpf4jnsgd1na2vs0mg"},{"bike_id":"2be3bf9b-39f4-4c37-8c01-9e9bcabe1c53","system_id":"levelo_inurba_marseille","lat":43.33741,"lon":5.37444,"is_reserved":false,"is_disabled":false,"rental_uris":{"android":"levelo://app?vid=2be3bf9b-39f4-4c37-8c01-9e9bcabe1c53","ios":"levelo://app?vid=2be3bf9b-39f4-4c37-8c01-9e9bcabe1c53"},"vehicle_type_id":"4","last_reported":1761660644,"current_range_meters":14800,"station_id":"","pricing_plan_id":"cebpf4jnsgd1na2vs0mg"},{"bike_id":"aa5b1d8b-20e7-4441-963d-a37d782ea6dc","system_id":"levelo_inurba_marseille","lat":43.24997,"lon":5.38936,"is_reserved":false,"is_disabled":false,"rental_uris":{"android":"levelo://app?vid=aa5b1d8b-20e7-4441-963d-a37d782ea6dc","ios":"levelo://app?vid=aa5b1d8b-20e7-4441-963d-a37d782ea6dc"},"vehicle_type_id":"4","last_reported":1761660644,"current_range_meters":14800,"station_id":"ce4bhgp2rcd13ifvqfd0","pricing_plan_id":"cebpf4jnsgd1na2vs0mg"},{"bike_id":"b5821bab-7159-4d11-ae27-a8bfd4f60bfb","system_id":"levelo_inurba_marseille","lat":43.26201,"lon":5.3747,"is_reserved":false,"is_disabled":false,"rental_uris":{"android":"levelo://app?vid=b5821bab-7159-4d11-ae27-a8bfd4f60bfb","ios":"levelo://app?vid=b5821bab-7159-4d11-ae27-a8bfd4f60bfb"},"vehicle_type_id":"4","last_reported":1761660644,"current_range_meters":14800,"station_id":"ce4bhgp2rcd13ifvqfc0","pricing_plan_id":"cebpf4jnsgd1na2vs0mg"},{"bike_id":"a1d36066-483f-4245-8f71-981873efc5f9","system_id":"levelo_inurba_marseille","lat":43.240677,"lon":5.377631,"is_reserved":false,"is_disabled":false,"rental_uris":{"android":"levelo://app?vid=a1d36066-483f-4245-8f71-981873efc5f9","ios":"levelo://app?vid=a1d36066-483f-4245-8f71-981873efc5f9"},"vehicle_type_id":"4","last_reported":1761660644,"current_range_meters":14800,"station_id":"ce4bhnp2rcd13ifvqgvg","pricing_plan_id":"cebpf4jnsgd1na2vs0mg"},{"bike_id":"579f1058-891a-4ce3-b709-070d35308f6a","system_id":"levelo_inurba_marseille","lat":43.284377,"lon":5.374899,"is_reserved":false,"is_disabled":false,"rental_uris":{"android":"levelo://app?vid=579f1058-891a-4ce3-b709-070d35308f6a","ios":"levelo://app?vid=579f1058-891a-4ce3-b709-070d35308f6a"},"vehicle_type_id":"4","last_reported":1761660644,"current_range_meters":14800,"station_id":"ce4bh412rcd13ifvqds0","pricing_plan_id":"cebpf4jnsgd1na2vs0mg"},{"bike_id":"9fd285d9-8a07-4803-865f-56673cf834f4","system_id":"levelo_inurba_marseille","lat":43.30169,"lon":5.36608,"is_reserved":false,"is_disabled":false,"rental_uris":{"android":"levelo://app?vid=9fd285d9-8a07-4803-865f-56673cf834f4","ios":"levelo://app?vid=9fd285d9-8a07-4803-865f-56673cf834f4"},"vehicle_type_id":"4","last_reported":1761660644,"current_range_meters":14800,"station_id":"ce4bgrh2rcd13ifvqc8g","pricing_plan_id":"cebpf4jnsgd1na2vs0mg"},{"bike_id":"d2ce14a1-e9f5-407b-a0c3-2e69d0a16a79","system_id":"levelo_inurba_marseille","lat":43.28196,"lon":5.39051,"is_reserved":false,"is_disabled":true,"rental_uris":{"android":"levelo://app?vid=d2ce14a1-e9f5-407b-a0c3-2e69d0a16a79","ios":"levelo://app?vid=d2ce14a1-e9f5-407b-a0c3-2e69d0a16a79"},"vehicle_type_id":"4","last_reported":1761660644,"current_range_meters":15200,"station_id":"ce4bhn92rcd13ifvqgsg","pricing_plan_id":"cebpf4jnsgd1na2vs0mg"},{"bike_id":"6e0b849b-e9ae-4a04-a9d7-267dd091bca4","system_id":"levelo_inurba_marseille","lat":43.308823,"lon":5.36813,"is_reserved":false,"is_disabled":false,"rental_uris":{"android":"levelo://app?vid=6e0b849b-e9ae-4a04-a9d7-267dd091bca4","ios":"levelo://app?vid=6e0b849b-e9ae-4a04-a9d7-267dd091bca4"},"vehicle_type_id":"4","last_reported":1761660644,"current_range_meters":15200,"station_id":"ce4bgn92rcd13ifvqbvg","pricing_plan_id":"cebpf4jnsgd1na2vs0mg"},{"bike_id":"f202aef9-db9c-4b5f-b19b-62f40b9a9dba","system_id":"levelo_inurba_marseille","lat":43.2406,"lon":5.37738,"is_reserved":false,"is_disabled":false,"rental_uris":{"android":"levelo://app?vid=f202aef9-db9c-4b5f-b19b-62f40b9a9dba","ios":"levelo://app?vid=f202aef9-db9c-4b5f-b19b-62f40b9a9dba"},"vehicle_type_id":"4","last_reported":1761660644,"current_range_meters":15200,"station_id":"ce4bhnp2rcd13ifvqgvg","pricing_plan_id":"cebpf4jnsgd1na2vs0mg"},{"bike_id":"1913a789-e2a3-4ef5-b102-a62c96f6249e","system_id":"levelo_inurba_marseille","lat":43.3199,"lon":5.38166,"is_reserved":false,"is_disabled":false,"rental_uris":{"android":"levelo://app?vid=1913a789-e2a3-4ef5-b102-a62c96f6249e","ios":"levelo://app?vid=1913a789-e2a3-4ef5-b102-a62c96f6249e"},"vehicle_type_id":"4","last_reported":1761660644,"current_range_meters":15200,"station_id":"ce4bhr12rcd13ifvqhpg","pricing_plan_id":"cebpf4jnsgd1na2vs0mg"},{"bike_id":"4ddfb4bb-556a-4528-9867-2221062f07d7","system_id":"levelo_inurba_marseille","lat":43.25924,"lon":5.40897,"is_reserved":false,"is_disabled":false,"rental_uris":{"android":"levelo://app?vid=4ddfb4bb-556a-4528-9867-2221062f07d7","ios":"levelo://app?vid=4ddfb4bb-556a-4528-9867-2221062f07d7"},"vehicle_type_id":"4","last_reported":1761660644,"current_range_meters":15200,"station_id":"ce4bhm92rcd13ifvqglg","pricing_plan_id":"cebpf4jnsgd1na2vs0mg"},{"bike_id":"01cae031-3e14-4cbf-8a85-3edb10b462f6","system_id":"levelo_inurba_marseille","lat":43.30542,"lon":5.36701,"is_reserved":false,"is_disabled":false,"rental_uris":{"android":"levelo://app?vid=01cae031-3e14-4cbf-8a85-3edb10b462f6","ios":"levelo://app?vid=01cae031-3e14-4cbf-8a85-3edb10b462f6"},"vehicle_type_id":"4","last_reported":1761660644,"current_range_meters":15200,"station_id":"ce4bgrp2rcd13ifvqc9g","pricing_plan_id":"cebpf4jnsgd1na2vs0mg"},{"bike_id":"ae8ebe94-fc0f-4409-8f77-39eb5c613a67","system_id":"levelo_inurba_marseille","lat":43.337444,"lon":5.374475,"is_reserved":false,"is_disabled":false,"rental_uris":{"android":"levelo://app?vid=ae8ebe94-fc0f-4409-8f77-39eb5c613a67","ios":"levelo://app?vid=ae8ebe94-fc0f-4409-8f77-39eb5c613a67"},"vehicle_type_id":"4","last_reported":1761660644,"current_range_meters":16000,"station_id":"","pricing_plan_id":"cebpf4jnsgd1na2vs0mg"},{"bike_id":"32d7653e-b033-4183-b4c0-f44169bb9067","system_id":"levelo_inurba_marseille","lat":43.32707,"lon":5.39225,"is_reserved":false,"is_disabled":false,"rental_uris":{"android":"levelo://app?vid=32d7653e-b033-4183-b4c0-f44169bb9067","ios":"levelo://app?vid=32d7653e-b033-4183-b4c0-f44169bb9067"},"vehicle_type_id":"4","last_reported":1761660644,"current_range_meters":16000,"station_id":"","pricing_plan_id":"cebpf4jnsgd1na2vs0mg"},{"bike_id":"452e8e6e-6805-4d8b-9b13-79df7a637126","system_id":"levelo_inurba_marseille","lat":43.24399,"lon":5.37079,"is_reserved":false,"is_disabled":false,"rental_uris":{"android":"levelo://app?vid=452e8e6e-6805-4d8b-9b13-79df7a637126","ios":"levelo://app?vid=452e8e6e-6805-4d8b-9b13-79df7a637126"},"vehicle_type_id":"4","last_reported":1761660644,"current_range_meters":16400,"station_id":"ce4bhhh2rcd13ifvqfk0","pricing_plan_id":"cebpf4jnsgd1na2vs0mg"},{"bike_id":"cd0c84ba-521c-4dab-84db-462f9bd1c17f","system_id":"levelo_inurba_marseille","lat":43.28415,"lon":5.3499,"is_reserved":false,"is_disabled":false,"rental_uris":{"android":"levelo://app?vid=cd0c84ba-521c-4dab-84db-462f9bd1c17f","ios":"levelo://app?vid=cd0c84ba-521c-4dab-84db-462f9bd1c17f"},"vehicle_type_id":"4","last_reported":1761660644,"current_range_meters":16400,"station_id":"ce4bhbh2rcd13ifvqepg","pricing_plan_id":"cebpf4jnsgd1na2vs0mg"},{"bike_id":"69930069-e70d-492f-864f-9204a708fb20","system_id":"levelo_inurba_marseille","lat":43.26781,"lon":5.39418,"is_reserved":false,"is_disabled":false,"rental_uris":{"android":"levelo://app?vid=69930069-e70d-492f-864f-9204a708fb20","ios":"levelo://app?vid=69930069-e70d-492f-864f-9204a708fb20"},"vehicle_type_id":"4","last_reported":1761660644,"current_range_meters":16400,"station_id":"ce4bhh12rcd13ifvqfg0","pricing_plan_id":"cebpf4jnsgd1na2vs0mg"},{"bike_id":"f3671794-6f15-43c5-baa8-7c171ed25769","system_id":"levelo_inurba_marseille","lat":43.25913,"lon":5.40924,"is_reserved":false,"is_disabled":false,"rental_uris":{"android":"levelo://app?vid=f3671794-6f15-43c5-baa8-7c171ed25769","ios":"levelo://app?vid=f3671794-6f15-43c5-baa8-7c171ed25769"},"vehicle_type_id":"4","last_reported":1761660644,"current_range_meters":16400,"station_id":"ce4bhm92rcd13ifvqglg","pricing_plan_id":"cebpf4jnsgd1na2vs0mg"},{"bike_id":"f47abfbc-2254-430d-8da5-c0f391f34667","system_id":"levelo_inurba_marseille","lat":43.251159,"lon":5.394979,"is_reserved":false,"is_disabled":false,"rental_uris":{"android":"levelo://app?vid=f47abfbc-2254-430d-8da5-c0f391f34667","ios":"levelo://app?vid=f47abfbc-2254-430d-8da5-c0f391f34667"},"vehicle_type_id":"4","last_reported":1761660644,"current_range_meters":16800,"station_id":"ce4bhm12rcd13ifvqgkg","pricing_plan_id":"cebpf4jnsgd1na2vs0mg"},{"bike_id":"facb2444-b910-4eae-bdfa-be231ba2cd33","system_id":"levelo_inurba_marseille","lat":43.22933,"lon":5.35374,"is_reserved":false,"is_disabled":false,"rental_uris":{"android":"levelo://app?vid=facb2444-b910-4eae-bdfa-be231ba2cd33","ios":"levelo://app?vid=facb2444-b910-4eae-bdfa-be231ba2cd33"},"vehicle_type_id":"4","last_reported":1761660644,"current_range_meters":16800,"station_id":"cpo3532slgdg3j2ikp40","pricing_plan_id":"cebpf4jnsgd1na2vs0mg"},{"bike_id":"31f57ff6-6be6-4ae3-942c-ae0f33d8f6bb","system_id":"levelo_inurba_marseille","lat":43.28407,"lon":5.34999,"is_reserved":false,"is_disabled":false,"rental_uris":{"android":"levelo://app?vid=31f57ff6-6be6-4ae3-942c-ae0f33d8f6bb","ios":"levelo://app?vid=31f57ff6-6be6-4ae3-942c-ae0f33d8f6bb"},"vehicle_type_id":"4","last_reported":1761660644,"current_range_meters":16800,"station_id":"ce4bhbh2rcd13ifvqepg","pricing_plan_id":"cebpf4jnsgd1na2vs0mg"},{"bike_id":"ff525cae-1154-49b6-ab7a-0facc492bf88","system_id":"levelo_inurba_marseille","lat":43.29931,"lon":5.3655,"is_reserved":false,"is_disabled":false,"rental_uris":{"android":"levelo://app?vid=ff525cae-1154-49b6-ab7a-0facc492bf88","ios":"levelo://app?vid=ff525cae-1154-49b6-ab7a-0facc492bf88"},"vehicle_type_id":"4","last_reported":1761660644,"current_range_meters":16800,"station_id":"ce4bgm92rcd13ifvqbr0","pricing_plan_id":"cebpf4jnsgd1na2vs0mg"},{"bike_id":"8093a899-62fd-4a70-8f8f-a9b12543841d","system_id":"levelo_inurba_marseille","lat":43.217456,"lon":5.346001,"is_reserved":false,"is_disabled":false,"rental_uris":{"android":"levelo://app?vid=8093a899-62fd-4a70-8f8f-a9b12543841d","ios":"levelo://app?vid=8093a899-62fd-4a70-8f8f-a9b12543841d"},"vehicle_type_id":"4","last_reported":1761660644,"current_range_meters":16800,"station_id":"st_cvj6r9ubvosntc0bgbag","pricing_plan_id":"cebpf4jnsgd1na2vs0mg"},{"bike_id":"edefeba8-c1c5-46aa-ac6a-0bd640d22408","system_id":"levelo_inurba_marseille","lat":43.29595,"lon":5.38103,"is_reserved":false,"is_disabled":false,"rental_uris":{"android":"levelo://app?vid=edefeba8-c1c5-46aa-ac6a-0bd640d22408","ios":"levelo://app?vid=edefeba8-c1c5-46aa-ac6a-0bd640d22408"},"vehicle_type_id":"4","last_reported":1761660644,"current_range_meters":16800,"station_id":"ce4bgl12rcd13ifvqbo0","pricing_plan_id":"cebpf4jnsgd1na2vs0mg"},{"bike_id":"02dd205b-e97c-4104-9683-066d2523fd3f","system_id":"levelo_inurba_marseille","lat":43.23069,"lon":5.35503,"is_reserved":false,"is_disabled":false,"rental_uris":{"android":"levelo://app?vid=02dd205b-e97c-4104-9683-066d2523fd3f","ios":"levelo://app?vid=02dd205b-e97c-4104-9683-066d2523fd3f"},"vehicle_type_id":"4","last_reported":1761660644,"current_range_meters":16800,"station_id":"cpo3342slgdg3j2ifvpg","pricing_plan_id":"cebpf4jnsgd1na2vs0mg"},{"bike_id":"f79a84f4-55d0-4441-8119-340765a2973b","system_id":"levelo_inurba_marseille","lat":43.25927,"lon":5.40907,"is_reserved":false,"is_disabled":false,"rental_uris":{"android":"levelo://app?vid=f79a84f4-55d0-4441-8119-340765a2973b","ios":"levelo://app?vid=f79a84f4-55d0-4441-8119-340765a2973b"},"vehicle_type_id":"4","last_reported":1761660644,"current_range_meters":17200,"station_id":"ce4bhm92rcd13ifvqglg","pricing_plan_id":"cebpf4jnsgd1na2vs0mg"},{"bike_id":"4273273a-e91b-4d3d-b46f-78d9316df093","system_id":"levelo_inurba_marseille","lat":43.28031,"lon":5.36945,"is_reserved":false,"is_disabled":false,"rental_uris":{"android":"levelo://app?vid=4273273a-e91b-4d3d-b46f-78d9316df093","ios":"levelo://app?vid=4273273a-e91b-4d3d-b46f-78d9316df093"},"vehicle_type_id":"4","last_reported":1761660644,"current_range_meters":17200,"station_id":"ce4bha12rcd13ifvqef0","pricing_plan_id":"cebpf4jnsgd1na2vs0mg"},{"bike_id":"aa0e7e4b-f890-4f53-a40a-615d9f77115a","system_id":"levelo_inurba_marseille","lat":43.32103,"lon":5.36773,"is_reserved":false,"is_disabled":false,"rental_uris":{"android":"levelo://app?vid=aa0e7e4b-f890-4f53-a40a-615d9f77115a","ios":"levelo://app?vid=aa0e7e4b-f890-4f53-a40a-615d9f77115a"},"vehicle_type_id":"4","last_reported":1761660644,"current_range_meters":17200,"station_id":"ce4bhrh2rcd13ifvqhug","pricing_plan_id":"cebpf4jnsgd1na2vs0mg"},{"bike_id":"6a826629-3363-4110-867c-2ceb75617e56","system_id":"levelo_inurba_marseille","lat":43.29721,"lon":5.37692,"is_reserved":false,"is_disabled":false,"rental_uris":{"android":"levelo://app?vid=6a826629-3363-4110-867c-2ceb75617e56","ios":"levelo://app?vid=6a826629-3363-4110-867c-2ceb75617e56"},"vehicle_type_id":"4","last_reported":1761660644,"current_range_meters":17200,"station_id":"ce4bgkh2rcd13ifvqbl0","pricing_plan_id":"cebpf4jnsgd1na2vs0mg"},{"bike_id":"380b27fc-c957-4ab8-b8bb-cad2a785c738","system_id":"levelo_inurba_marseille","lat":43.30459,"lon":5.37917,"is_reserved":false,"is_disabled":false,"rental_uris":{"android":"levelo://app?vid=380b27fc-c957-4ab8-b8bb-cad2a785c738","ios":"levelo://app?vid=380b27fc-c957-4ab8-b8bb-cad2a785c738"},"vehicle_type_id":"4","last_reported":1761660644,"current_range_meters":17200,"station_id":"ce4bgup2rcd13ifvqcn0","pricing_plan_id":"cebpf4jnsgd1na2vs0mg"},{"bike_id":"1f423b4b-7313-4496-aa7c-f50ef4391689","system_id":"levelo_inurba_marseille","lat":43.24395,"lon":5.37065,"is_reserved":false,"is_disabled":false,"rental_uris":{"android":"levelo://app?vid=1f423b4b-7313-4496-aa7c-f50ef4391689","ios":"levelo://app?vid=1f423b4b-7313-4496-aa7c-f50ef4391689"},"vehicle_type_id":"4","last_reported":1761660644,"current_range_meters":17200,"station_id":"ce4bhhh2rcd13ifvqfk0","pricing_plan_id":"cebpf4jnsgd1na2vs0mg"},{"bike_id":"b9430502-a795-45f0-9358-8aa029f70cf5","system_id":"levelo_inurba_marseille","lat":43.30463,"lon":5.37908,"is_reserved":false,"is_disabled":false,"rental_uris":{"android":"levelo://app?vid=b9430502-a795-45f0-9358-8aa029f70cf5","ios":"levelo://app?vid=b9430502-a795-45f0-9358-8aa029f70cf5"},"vehicle_type_id":"4","last_reported":1761660644,"current_range_meters":17200,"station_id":"ce4bgup2rcd13ifvqcn0","pricing_plan_id":"cebpf4jnsgd1na2vs0mg"},{"bike_id":"99373ff4-c6ad-47a3-8ec0-acdae6a78daf","system_id":"levelo_inurba_marseille","lat":43.30538,"lon":5.36526,"is_reserved":false,"is_disabled":false,"rental_uris":{"android":"levelo://app?vid=99373ff4-c6ad-47a3-8ec0-acdae6a78daf","ios":"levelo://app?vid=99373ff4-c6ad-47a3-8ec0-acdae6a78daf"},"vehicle_type_id":"4","last_reported":1761660644,"current_range_meters":17200,"station_id":"ce4bgs12rcd13ifvqcag","pricing_plan_id":"cebpf4jnsgd1na2vs0mg"},{"bike_id":"6cb49c48-422d-4f4d-a7e2-6aee1b4ff018","system_id":"levelo_inurba_marseille","lat":43.26188,"lon":5.37452,"is_reserved":false,"is_disabled":false,"rental_uris":{"android":"levelo://app?vid=6cb49c48-422d-4f4d-a7e2-6aee1b4ff018","ios":"levelo://app?vid=6cb49c48-422d-4f4d-a7e2-6aee1b4ff018"},"vehicle_type_id":"4","last_reported":1761660644,"current_range_meters":17200,"station_id":"ce4bhgp2rcd13ifvqfc0","pricing_plan_id":"cebpf4jnsgd1na2vs0mg"},{"bike_id":"81a1b6fb-1f88-4713-82cd-8758a38cffd9","system_id":"levelo_inurba_marseille","lat":43.23072,"lon":5.35502,"is_reserved":false,"is_disabled":false,"rental_uris":{"android":"levelo://app?vid=81a1b6fb-1f88-4713-82cd-8758a38cffd9","ios":"levelo://app?vid=81a1b6fb-1f88-4713-82cd-8758a38cffd9"},"vehicle_type_id":"4","last_reported":1761660644,"current_range_meters":17200,"station_id":"cpo3342slgdg3j2ifvpg","pricing_plan_id":"cebpf4jnsgd1na2vs0mg"},{"bike_id":"3dbbdcb0-6feb-4ab6-bfa3-4195b34b8f7e","system_id":"levelo_inurba_marseille","lat":43.2293,"lon":5.353744,"is_reserved":false,"is_disabled":false,"rental_uris":{"android":"levelo://app?vid=3dbbdcb0-6feb-4ab6-bfa3-4195b34b8f7e","ios":"levelo://app?vid=3dbbdcb0-6feb-4ab6-bfa3-4195b34b8f7e"},"vehicle_type_id":"4","last_reported":1761660644,"current_range_meters":17200,"station_id":"ce4bhb12rcd13ifvqel0","pricing_plan_id":"cebpf4jnsgd1na2vs0mg"},{"bike_id":"36a27f4f-99e2-48dc-bcf9-b8b55328982e","system_id":"levelo_inurba_marseille","lat":43.27365,"lon":5.36253,"is_reserved":false,"is_disabled":false,"rental_uris":{"android":"levelo://app?vid=36a27f4f-99e2-48dc-bcf9-b8b55328982e","ios":"levelo://app?vid=36a27f4f-99e2-48dc-bcf9-b8b55328982e"},"vehicle_type_id":"4","last_reported":1761660644,"current_range_meters":17600,"station_id":"ce4bhbh2rcd13ifvqeo0","pricing_plan_id":"cebpf4jnsgd1na2vs0mg"},{"bike_id":"1ff14011-1bb3-49a1-9941-97d38a0c81be","system_id":"levelo_inurba_marseille","lat":43.25073,"lon":5.39573,"is_reserved":false,"is_disabled":false,"rental_uris":{"android":"levelo://app?vid=1ff14011-1bb3-49a1-9941-97d38a0c81be","ios":"levelo://app?vid=1ff14011-1bb3-49a1-9941-97d38a0c81be"},"vehicle_type_id":"4","last_reported":1761660644,"current_range_meters":17600,"station_id":"ce4bhm12rcd13ifvqgkg","pricing_plan_id":"cebpf4jnsgd1na2vs0mg"},{"bike_id":"e03c5507-9d41-4b0d-8dab-4bfce55c5e0b","system_id":"levelo_inurba_marseille","lat":43.29567,"lon":5.37523,"is_reserved":false,"is_disabled":false,"rental_uris":{"android":"levelo://app?vid=e03c5507-9d41-4b0d-8dab-4bfce55c5e0b","ios":"levelo://app?vid=e03c5507-9d41-4b0d-8dab-4bfce55c5e0b"},"vehicle_type_id":"4","last_reported":1761660644,"current_range_meters":17600,"station_id":"ce4bgh92rcd13ifvqb50","pricing_plan_id":"cebpf4jnsgd1na2vs0mg"},{"bike_id":"8743deb1-3e1b-4fe6-ab63-b75dc0a57f17","system_id":"levelo_inurba_marseille","lat":43.230654,"lon":5.35488,"is_reserved":false,"is_disabled":false,"rental_uris":{"android":"levelo://app?vid=8743deb1-3e1b-4fe6-ab63-b75dc0a57f17","ios":"levelo://app?vid=8743deb1-3e1b-4fe6-ab63-b75dc0a57f17"},"vehicle_type_id":"4","last_reported":1761660644,"current_range_meters":17600,"station_id":"cpo3342slgdg3j2ifvpg","pricing_plan_id":"cebpf4jnsgd1na2vs0mg"},{"bike_id":"83bd686c-30e2-4aae-8f48-fe5c9fe3f6ce","system_id":"levelo_inurba_marseille","lat":43.25507,"lon":5.37654,"is_reserved":false,"is_disabled":false,"rental_uris":{"android":"levelo://app?vid=83bd686c-30e2-4aae-8f48-fe5c9fe3f6ce","ios":"levelo://app?vid=83bd686c-30e2-4aae-8f48-fe5c9fe3f6ce"},"vehicle_type_id":"4","last_reported":1761660644,"current_range_meters":17600,"station_id":"ce4bhh12rcd13ifvqff0","pricing_plan_id":"cebpf4jnsgd1na2vs0mg"},{"bike_id":"d2f4ea73-d40d-4278-869d-326caa328ad0","system_id":"levelo_inurba_marseille","lat":43.26194,"lon":5.37454,"is_reserved":false,"is_disabled":false,"rental_uris":{"android":"levelo://app?vid=d2f4ea73-d40d-4278-869d-326caa328ad0","ios":"levelo://app?vid=d2f4ea73-d40d-4278-869d-326caa328ad0"},"vehicle_type_id":"4","last_reported":1761660644,"current_range_meters":18000,"station_id":"ce4bhgp2rcd13ifvqfc0","pricing_plan_id":"cebpf4jnsgd1na2vs0mg"},{"bike_id":"821eafb5-4dae-4ee5-8a34-d756425ae908","system_id":"levelo_inurba_marseille","lat":43.27372,"lon":5.36256,"is_reserved":false,"is_disabled":false,"rental_uris":{"android":"levelo://app?vid=821eafb5-4dae-4ee5-8a34-d756425ae908","ios":"levelo://app?vid=821eafb5-4dae-4ee5-8a34-d756425ae908"},"vehicle_type_id":"4","last_reported":1761660644,"current_range_meters":18000,"station_id":"ce4bhbh2rcd13ifvqeo0","pricing_plan_id":"cebpf4jnsgd1na2vs0mg"},{"bike_id":"ce60183d-a811-401e-b0b4-6004e80e7b1d","system_id":"levelo_inurba_marseille","lat":43.28415,"lon":5.34979,"is_reserved":false,"is_disabled":false,"rental_uris":{"android":"levelo://app?vid=ce60183d-a811-401e-b0b4-6004e80e7b1d","ios":"levelo://app?vid=ce60183d-a811-401e-b0b4-6004e80e7b1d"},"vehicle_type_id":"4","last_reported":1761660644,"current_range_meters":18000,"station_id":"ce4bhbh2rcd13ifvqepg","pricing_plan_id":"cebpf4jnsgd1na2vs0mg"},{"bike_id":"96b93a83-82f2-4d31-acb8-139fbce4500d","system_id":"levelo_inurba_marseille","lat":43.229275,"lon":5.353647,"is_reserved":false,"is_disabled":false,"rental_uris":{"android":"levelo://app?vid=96b93a83-82f2-4d31-acb8-139fbce4500d","ios":"levelo://app?vid=96b93a83-82f2-4d31-acb8-139fbce4500d"},"vehicle_type_id":"4","last_reported":1761660644,"current_range_meters":18000,"station_id":"cpo3532slgdg3j2ikp40","pricing_plan_id":"cebpf4jnsgd1na2vs0mg"},{"bike_id":"6ce8387a-7217-4885-b90c-41215d188545","system_id":"levelo_inurba_marseille","lat":43.28866,"lon":5.40937,"is_reserved":false,"is_disabled":false,"rental_uris":{"android":"levelo://app?vid=6ce8387a-7217-4885-b90c-41215d188545","ios":"levelo://app?vid=6ce8387a-7217-4885-b90c-41215d188545"},"vehicle_type_id":"4","last_reported":1761660644,"current_range_meters":18000,"station_id":"","pricing_plan_id":"cebpf4jnsgd1na2vs0mg"},{"bike_id":"3c172d5e-4be3-4447-81d6-5d4b4efa8bc0","system_id":"levelo_inurba_marseille","lat":43.26533,"lon":5.38535,"is_reserved":false,"is_disabled":false,"rental_uris":{"android":"levelo://app?vid=3c172d5e-4be3-4447-81d6-5d4b4efa8bc0","ios":"levelo://app?vid=3c172d5e-4be3-4447-81d6-5d4b4efa8bc0"},"vehicle_type_id":"4","last_reported":1761660644,"current_range_meters":18000,"station_id":"","pricing_plan_id":"cebpf4jnsgd1na2vs0mg"},{"bike_id":"09884e49-b43c-4ec9-85a5-6243e16f6787","system_id":"levelo_inurba_marseille","lat":43.305539,"lon":5.365068,"is_reserved":false,"is_disabled":false,"rental_uris":{"android":"levelo://app?vid=09884e49-b43c-4ec9-85a5-6243e16f6787","ios":"levelo://app?vid=09884e49-b43c-4ec9-85a5-6243e16f6787"},"vehicle_type_id":"4","last_reported":1761660644,"current_range_meters":18800,"station_id":"ce4bgs12rcd13ifvqcag","pricing_plan_id":"cebpf4jnsgd1na2vs0mg"},{"bike_id":"08f6cbac-140e-4241-adbc-18d48ade9bcd","system_id":"levelo_inurba_marseille","lat":43.282,"lon":5.39045,"is_reserved":false,"is_disabled":false,"rental_uris":{"android":"levelo://app?vid=08f6cbac-140e-4241-adbc-18d48ade9bcd","ios":"levelo://app?vid=08f6cbac-140e-4241-adbc-18d48ade9bcd"},"vehicle_type_id":"4","last_reported":1761660644,"current_range_meters":18800,"station_id":"ce4bhn92rcd13ifvqgsg","pricing_plan_id":"cebpf4jnsgd1na2vs0mg"},{"bike_id":"6d8da19b-0143-43ba-a2b6-b774a32597d4","system_id":"levelo_inurba_marseille","lat":43.2815,"lon":5.34768,"is_reserved":false,"is_disabled":false,"rental_uris":{"android":"levelo://app?vid=6d8da19b-0143-43ba-a2b6-b774a32597d4","ios":"levelo://app?vid=6d8da19b-0143-43ba-a2b6-b774a32597d4"},"vehicle_type_id":"4","last_reported":1761660644,"current_range_meters":18800,"station_id":"","pricing_plan_id":"cebpf4jnsgd1na2vs0mg"},{"bike_id":"9a1a6e01-0efd-4e7a-8361-16e3b429b5d9","system_id":"levelo_inurba_marseille","lat":43.290035,"lon":5.356171,"is_reserved":false,"is_disabled":false,"rental_uris":{"android":"levelo://app?vid=9a1a6e01-0efd-4e7a-8361-16e3b429b5d9","ios":"levelo://app?vid=9a1a6e01-0efd-4e7a-8361-16e3b429b5d9"},"vehicle_type_id":"4","last_reported":1761660644,"current_range_meters":18800,"station_id":"ce4bhb92rcd13ifvqen0","pricing_plan_id":"cebpf4jnsgd1na2vs0mg"},{"bike_id":"04b716dc-bd6a-467b-a53f-4e4bb747b91e","system_id":"levelo_inurba_marseille","lat":43.21745,"lon":5.34605,"is_reserved":false,"is_disabled":false,"rental_uris":{"android":"levelo://app?vid=04b716dc-bd6a-467b-a53f-4e4bb747b91e","ios":"levelo://app?vid=04b716dc-bd6a-467b-a53f-4e4bb747b91e"},"vehicle_type_id":"4","last_reported":1761660644,"current_range_meters":18800,"station_id":"st_cvj6r9ubvosntc0bgbag","pricing_plan_id":"cebpf4jnsgd1na2vs0mg"},{"bike_id":"dd552137-b706-4de5-8f96-a3bb485b6bda","system_id":"levelo_inurba_marseille","lat":43.31154,"lon":5.38755,"is_reserved":false,"is_disabled":false,"rental_uris":{"android":"levelo://app?vid=dd552137-b706-4de5-8f96-a3bb485b6bda","ios":"levelo://app?vid=dd552137-b706-4de5-8f96-a3bb485b6bda"},"vehicle_type_id":"4","last_reported":1761660644,"current_range_meters":18800,"station_id":"ce4bgv12rcd13ifvqcp0","pricing_plan_id":"cebpf4jnsgd1na2vs0mg"},{"bike_id":"9f060ac9-2b9b-49e2-a0d4-ca83839e62e9","system_id":"levelo_inurba_marseille","lat":43.3049,"lon":5.37907,"is_reserved":false,"is_disabled":false,"rental_uris":{"android":"levelo://app?vid=9f060ac9-2b9b-49e2-a0d4-ca83839e62e9","ios":"levelo://app?vid=9f060ac9-2b9b-49e2-a0d4-ca83839e62e9"},"vehicle_type_id":"4","last_reported":1761660644,"current_range_meters":18800,"station_id":"ce4bgup2rcd13ifvqcn0","pricing_plan_id":"cebpf4jnsgd1na2vs0mg"},{"bike_id":"7247a565-4fec-4343-adbc-95ebcf0a93c3","system_id":"levelo_inurba_marseille","lat":43.29003,"lon":5.35613,"is_reserved":false,"is_disabled":false,"rental_uris":{"android":"levelo://app?vid=7247a565-4fec-4343-adbc-95ebcf0a93c3","ios":"levelo://app?vid=7247a565-4fec-4343-adbc-95ebcf0a93c3"},"vehicle_type_id":"4","last_reported":1761660644,"current_range_meters":18800,"station_id":"ce4bhb92rcd13ifvqen0","pricing_plan_id":"cebpf4jnsgd1na2vs0mg"},{"bike_id":"a1c91810-159f-4f9d-8205-34b490758ddf","system_id":"levelo_inurba_marseille","lat":43.28613,"lon":5.37054,"is_reserved":false,"is_disabled":false,"rental_uris":{"android":"levelo://app?vid=a1c91810-159f-4f9d-8205-34b490758ddf","ios":"levelo://app?vid=a1c91810-159f-4f9d-8205-34b490758ddf"},"vehicle_type_id":"4","last_reported":1761660644,"current_range_meters":18800,"station_id":"ce4bht12rcd13ifvqi60","pricing_plan_id":"cebpf4jnsgd1na2vs0mg"},{"bike_id":"856b78c4-2955-4ba2-ad1a-fb754690a552","system_id":"levelo_inurba_marseille","lat":43.21744,"lon":5.34599,"is_reserved":false,"is_disabled":false,"rental_uris":{"android":"levelo://app?vid=856b78c4-2955-4ba2-ad1a-fb754690a552","ios":"levelo://app?vid=856b78c4-2955-4ba2-ad1a-fb754690a552"},"vehicle_type_id":"4","last_reported":1761660644,"current_range_meters":18800,"station_id":"st_cvj6r9ubvosntc0bgbag","pricing_plan_id":"cebpf4jnsgd1na2vs0mg"},{"bike_id":"f6adb9c1-4a78-4322-baec-aa5f6f5d93b6","system_id":"levelo_inurba_marseille","lat":43.225321,"lon":5.348302,"is_reserved":false,"is_disabled":false,"rental_uris":{"android":"levelo://app?vid=f6adb9c1-4a78-4322-baec-aa5f6f5d93b6","ios":"levelo://app?vid=f6adb9c1-4a78-4322-baec-aa5f6f5d93b6"},"vehicle_type_id":"4","last_reported":1761660644,"current_range_meters":18800,"station_id":"","pricing_plan_id":"cebpf4jnsgd1na2vs0mg"},{"bike_id":"941eca81-61b6-4376-acbb-773a2fc9f625","system_id":"levelo_inurba_marseille","lat":43.320936,"lon":5.367755,"is_reserved":false,"is_disabled":false,"rental_uris":{"android":"levelo://app?vid=941eca81-61b6-4376-acbb-773a2fc9f625","ios":"levelo://app?vid=941eca81-61b6-4376-acbb-773a2fc9f625"},"vehicle_type_id":"4","last_reported":1761660644,"current_range_meters":19200,"station_id":"ce4bhrh2rcd13ifvqhug","pricing_plan_id":"cebpf4jnsgd1na2vs0mg"},{"bike_id":"8e2dcd31-6a9c-4b7f-a366-5e2640173d3c","system_id":"levelo_inurba_marseille","lat":43.22944,"lon":5.35381,"is_reserved":false,"is_disabled":false,"rental_uris":{"android":"levelo://app?vid=8e2dcd31-6a9c-4b7f-a366-5e2640173d3c","ios":"levelo://app?vid=8e2dcd31-6a9c-4b7f-a366-5e2640173d3c"},"vehicle_type_id":"4","last_reported":1761660644,"current_range_meters":19200,"station_id":"cpo3532slgdg3j2ikp40","pricing_plan_id":"cebpf4jnsgd1na2vs0mg"},{"bike_id":"52a67fc0-7eaf-49b6-9b05-e09a5497aafa","system_id":"levelo_inurba_marseille","lat":43.28546,"lon":5.35124,"is_reserved":false,"is_disabled":false,"rental_uris":{"android":"levelo://app?vid=52a67fc0-7eaf-49b6-9b05-e09a5497aafa","ios":"levelo://app?vid=52a67fc0-7eaf-49b6-9b05-e09a5497aafa"},"vehicle_type_id":"4","last_reported":1761660644,"current_range_meters":19200,"station_id":"","pricing_plan_id":"cebpf4jnsgd1na2vs0mg"},{"bike_id":"68fb8eb8-a4bc-4ad1-8fdc-7879d671900c","system_id":"levelo_inurba_marseille","lat":43.28419,"lon":5.34992,"is_reserved":false,"is_disabled":false,"rental_uris":{"android":"levelo://app?vid=68fb8eb8-a4bc-4ad1-8fdc-7879d671900c","ios":"levelo://app?vid=68fb8eb8-a4bc-4ad1-8fdc-7879d671900c"},"vehicle_type_id":"4","last_reported":1761660644,"current_range_meters":19200,"station_id":"ce4bhbh2rcd13ifvqepg","pricing_plan_id":"cebpf4jnsgd1na2vs0mg"},{"bike_id":"14fed8bf-0e52-4b67-9780-8d00ed00b796","system_id":"levelo_inurba_marseille","lat":43.25079,"lon":5.39507,"is_reserved":false,"is_disabled":false,"rental_uris":{"android":"levelo://app?vid=14fed8bf-0e52-4b67-9780-8d00ed00b796","ios":"levelo://app?vid=14fed8bf-0e52-4b67-9780-8d00ed00b796"},"vehicle_type_id":"4","last_reported":1761660644,"current_range_meters":19200,"station_id":"ce4bhm12rcd13ifvqgkg","pricing_plan_id":"cebpf4jnsgd1na2vs0mg"},{"bike_id":"faee4aed-34d1-4e59-9f3e-bc2337688920","system_id":"levelo_inurba_marseille","lat":43.31724,"lon":5.4372,"is_reserved":false,"is_disabled":true,"rental_uris":{"android":"levelo://app?vid=faee4aed-34d1-4e59-9f3e-bc2337688920","ios":"levelo://app?vid=faee4aed-34d1-4e59-9f3e-bc2337688920"},"vehicle_type_id":"4","last_reported":1761660644,"current_range_meters":19200,"station_id":"ce4bhp92rcd13ifvqhcg","pricing_plan_id":"cebpf4jnsgd1na2vs0mg"},{"bike_id":"b5733d8b-34ae-4650-897a-d0cd9cf8ff28","system_id":"levelo_inurba_marseille","lat":43.29356,"lon":5.37827,"is_reserved":false,"is_disabled":false,"rental_uris":{"android":"levelo://app?vid=b5733d8b-34ae-4650-897a-d0cd9cf8ff28","ios":"levelo://app?vid=b5733d8b-34ae-4650-897a-d0cd9cf8ff28"},"vehicle_type_id":"4","last_reported":1761660644,"current_range_meters":19200,"station_id":"ce4bgjh2rcd13ifvqbf0","pricing_plan_id":"cebpf4jnsgd1na2vs0mg"},{"bike_id":"f0d3919f-cc34-4f25-b181-75cda797f017","system_id":"levelo_inurba_marseille","lat":43.25717,"lon":5.41116,"is_reserved":false,"is_disabled":false,"rental_uris":{"android":"levelo://app?vid=f0d3919f-cc34-4f25-b181-75cda797f017","ios":"levelo://app?vid=f0d3919f-cc34-4f25-b181-75cda797f017"},"vehicle_type_id":"4","last_reported":1761660644,"current_range_meters":19200,"station_id":"ce4bhkp2rcd13ifvqgd0","pricing_plan_id":"cebpf4jnsgd1na2vs0mg"},{"bike_id":"4f24d0df-7b9a-48fa-a400-a6a0ae0f4ff8","system_id":"levelo_inurba_marseille","lat":43.24176,"lon":5.39743,"is_reserved":false,"is_disabled":false,"rental_uris":{"android":"levelo://app?vid=4f24d0df-7b9a-48fa-a400-a6a0ae0f4ff8","ios":"levelo://app?vid=4f24d0df-7b9a-48fa-a400-a6a0ae0f4ff8"},"vehicle_type_id":"4","last_reported":1761660644,"current_range_meters":19200,"station_id":"ce4bhn12rcd13ifvqgpg","pricing_plan_id":"cebpf4jnsgd1na2vs0mg"},{"bike_id":"e3260d53-1f31-4048-a6b1-57d9b1375877","system_id":"levelo_inurba_marseille","lat":43.28528,"lon":5.44099,"is_reserved":false,"is_disabled":false,"rental_uris":{"android":"levelo://app?vid=e3260d53-1f31-4048-a6b1-57d9b1375877","ios":"levelo://app?vid=e3260d53-1f31-4048-a6b1-57d9b1375877"},"vehicle_type_id":"4","last_reported":1761660644,"current_range_meters":19600,"station_id":"st_d3j3df2ikq2c7380ej80","pricing_plan_id":"cebpf4jnsgd1na2vs0mg"},{"bike_id":"e46d0da7-b2c9-46bf-84fc-49f0a5153612","system_id":"levelo_inurba_marseille","lat":43.29572,"lon":5.3752,"is_reserved":false,"is_disabled":false,"rental_uris":{"android":"levelo://app?vid=e46d0da7-b2c9-46bf-84fc-49f0a5153612","ios":"levelo://app?vid=e46d0da7-b2c9-46bf-84fc-49f0a5153612"},"vehicle_type_id":"4","last_reported":1761660644,"current_range_meters":19600,"station_id":"ce4bgh92rcd13ifvqb50","pricing_plan_id":"cebpf4jnsgd1na2vs0mg"},{"bike_id":"aef18226-b002-45d5-ba0c-5d465a2c460e","system_id":"levelo_inurba_marseille","lat":43.22531,"lon":5.34836,"is_reserved":false,"is_disabled":false,"rental_uris":{"android":"levelo://app?vid=aef18226-b002-45d5-ba0c-5d465a2c460e","ios":"levelo://app?vid=aef18226-b002-45d5-ba0c-5d465a2c460e"},"vehicle_type_id":"4","last_reported":1761660644,"current_range_meters":19600,"station_id":"","pricing_plan_id":"cebpf4jnsgd1na2vs0mg"},{"bike_id":"8dafbf37-a2e6-4177-baf2-d33c935c68b1","system_id":"levelo_inurba_marseille","lat":43.27615,"lon":5.36114,"is_reserved":false,"is_disabled":false,"rental_uris":{"android":"levelo://app?vid=8dafbf37-a2e6-4177-baf2-d33c935c68b1","ios":"levelo://app?vid=8dafbf37-a2e6-4177-baf2-d33c935c68b1"},"vehicle_type_id":"4","last_reported":1761660644,"current_range_meters":19600,"station_id":"ce4bgj92rcd13ifvqbe0","pricing_plan_id":"cebpf4jnsgd1na2vs0mg"},{"bike_id":"8b281b6b-0add-42e1-ad10-eae89f0db3a0","system_id":"levelo_inurba_marseille","lat":43.2679,"lon":5.39413,"is_reserved":false,"is_disabled":false,"rental_uris":{"android":"levelo://app?vid=8b281b6b-0add-42e1-ad10-eae89f0db3a0","ios":"levelo://app?vid=8b281b6b-0add-42e1-ad10-eae89f0db3a0"},"vehicle_type_id":"4","last_reported":1761660644,"current_range_meters":19600,"station_id":"ce4bhh12rcd13ifvqfg0","pricing_plan_id":"cebpf4jnsgd1na2vs0mg"},{"bike_id":"17b54b23-d60b-4af1-8ead-39989afbcfba","system_id":"levelo_inurba_marseille","lat":43.24994,"lon":5.38934,"is_reserved":false,"is_disabled":false,"rental_uris":{"android":"levelo://app?vid=17b54b23-d60b-4af1-8ead-39989afbcfba","ios":"levelo://app?vid=17b54b23-d60b-4af1-8ead-39989afbcfba"},"vehicle_type_id":"4","last_reported":1761660644,"current_range_meters":19600,"station_id":"ce4bhgp2rcd13ifvqfd0","pricing_plan_id":"cebpf4jnsgd1na2vs0mg"},{"bike_id":"1d2f5121-1156-406d-9bfb-6de607efd7cf","system_id":"levelo_inurba_marseille","lat":43.25938,"lon":5.40911,"is_reserved":false,"is_disabled":false,"rental_uris":{"android":"levelo://app?vid=1d2f5121-1156-406d-9bfb-6de607efd7cf","ios":"levelo://app?vid=1d2f5121-1156-406d-9bfb-6de607efd7cf"},"vehicle_type_id":"4","last_reported":1761660644,"current_range_meters":19600,"station_id":"ce4bhm92rcd13ifvqglg","pricing_plan_id":"cebpf4jnsgd1na2vs0mg"},{"bike_id":"2456b005-c34c-4aee-9f79-1101a681a09d","system_id":"levelo_inurba_marseille","lat":43.27809,"lon":5.40714,"is_reserved":false,"is_disabled":false,"rental_uris":{"android":"levelo://app?vid=2456b005-c34c-4aee-9f79-1101a681a09d","ios":"levelo://app?vid=2456b005-c34c-4aee-9f79-1101a681a09d"},"vehicle_type_id":"4","last_reported":1761660644,"current_range_meters":19600,"station_id":"ce4bhnh2rcd13ifvqgtg","pricing_plan_id":"cebpf4jnsgd1na2vs0mg"},{"bike_id":"7787ad57-5717-4e2e-96af-4fdc16d60b50","system_id":"levelo_inurba_marseille","lat":43.24382,"lon":5.37065,"is_reserved":false,"is_disabled":false,"rental_uris":{"android":"levelo://app?vid=7787ad57-5717-4e2e-96af-4fdc16d60b50","ios":"levelo://app?vid=7787ad57-5717-4e2e-96af-4fdc16d60b50"},"vehicle_type_id":"4","last_reported":1761660644,"current_range_meters":19600,"station_id":"ce4bhhh2rcd13ifvqfk0","pricing_plan_id":"cebpf4jnsgd1na2vs0mg"},{"bike_id":"75dc66b3-0d26-400d-85b7-e985f64e2136","system_id":"levelo_inurba_marseille","lat":43.28999,"lon":5.43705,"is_reserved":false,"is_disabled":false,"rental_uris":{"android":"levelo://app?vid=75dc66b3-0d26-400d-85b7-e985f64e2136","ios":"levelo://app?vid=75dc66b3-0d26-400d-85b7-e985f64e2136"},"vehicle_type_id":"4","last_reported":1761660644,"current_range_meters":20000,"station_id":"","pricing_plan_id":"cebpf4jnsgd1na2vs0mg"},{"bike_id":"3d00cf23-a66b-47a1-8eb3-f05af16b09a1","system_id":"levelo_inurba_marseille","lat":43.24404,"lon":5.3707,"is_reserved":false,"is_disabled":false,"rental_uris":{"android":"levelo://app?vid=3d00cf23-a66b-47a1-8eb3-f05af16b09a1","ios":"levelo://app?vid=3d00cf23-a66b-47a1-8eb3-f05af16b09a1"},"vehicle_type_id":"4","last_reported":1761660644,"current_range_meters":20000,"station_id":"ce4bhhh2rcd13ifvqfk0","pricing_plan_id":"cebpf4jnsgd1na2vs0mg"},{"bike_id":"1a34b5a4-3c1e-479b-b6f5-76f97d5c5c52","system_id":"levelo_inurba_marseille","lat":43.28527,"lon":5.44097,"is_reserved":false,"is_disabled":false,"rental_uris":{"android":"levelo://app?vid=1a34b5a4-3c1e-479b-b6f5-76f97d5c5c52","ios":"levelo://app?vid=1a34b5a4-3c1e-479b-b6f5-76f97d5c5c52"},"vehicle_type_id":"4","last_reported":1761660644,"current_range_meters":20000,"station_id":"st_d3j3df2ikq2c7380ej80","pricing_plan_id":"cebpf4jnsgd1na2vs0mg"},{"bike_id":"47784201-b0ce-40bf-8ead-59e2e7cf3d5a","system_id":"levelo_inurba_marseille","lat":43.29361,"lon":5.37833,"is_reserved":false,"is_disabled":false,"rental_uris":{"android":"levelo://app?vid=47784201-b0ce-40bf-8ead-59e2e7cf3d5a","ios":"levelo://app?vid=47784201-b0ce-40bf-8ead-59e2e7cf3d5a"},"vehicle_type_id":"4","last_reported":1761660644,"current_range_meters":20000,"station_id":"ce4bgjh2rcd13ifvqbf0","pricing_plan_id":"cebpf4jnsgd1na2vs0mg"},{"bike_id":"bd220bfc-6dbb-42ba-9349-fd4d90ddacfb","system_id":"levelo_inurba_marseille","lat":43.29518,"lon":5.38538,"is_reserved":false,"is_disabled":false,"rental_uris":{"android":"levelo://app?vid=bd220bfc-6dbb-42ba-9349-fd4d90ddacfb","ios":"levelo://app?vid=bd220bfc-6dbb-42ba-9349-fd4d90ddacfb"},"vehicle_type_id":"4","last_reported":1761660644,"current_range_meters":20000,"station_id":"ce4bgih2rcd13ifvqba0","pricing_plan_id":"cebpf4jnsgd1na2vs0mg"},{"bike_id":"a049967b-d347-4414-83a8-1154d36b087e","system_id":"levelo_inurba_marseille","lat":43.24396,"lon":5.37072,"is_reserved":false,"is_disabled":false,"rental_uris":{"android":"levelo://app?vid=a049967b-d347-4414-83a8-1154d36b087e","ios":"levelo://app?vid=a049967b-d347-4414-83a8-1154d36b087e"},"vehicle_type_id":"4","last_reported":1761660644,"current_range_meters":20000,"station_id":"ce4bhhh2rcd13ifvqfk0","pricing_plan_id":"cebpf4jnsgd1na2vs0mg"},{"bike_id":"a5c56734-aacf-4d9e-a1f9-7450f867f83f","system_id":"levelo_inurba_marseille","lat":43.24174,"lon":5.39731,"is_reserved":false,"is_disabled":false,"rental_uris":{"android":"levelo://app?vid=a5c56734-aacf-4d9e-a1f9-7450f867f83f","ios":"levelo://app?vid=a5c56734-aacf-4d9e-a1f9-7450f867f83f"},"vehicle_type_id":"4","last_reported":1761660644,"current_range_meters":20000,"station_id":"ce4bhn12rcd13ifvqgpg","pricing_plan_id":"cebpf4jnsgd1na2vs0mg"},{"bike_id":"1905fd32-4302-499a-a2d7-7f8a7bd30679","system_id":"levelo_inurba_marseille","lat":43.29625,"lon":5.37714,"is_reserved":false,"is_disabled":false,"rental_uris":{"android":"levelo://app?vid=1905fd32-4302-499a-a2d7-7f8a7bd30679","ios":"levelo://app?vid=1905fd32-4302-499a-a2d7-7f8a7bd30679"},"vehicle_type_id":"4","last_reported":1761660644,"current_range_meters":20000,"station_id":"ce4bgi92rcd13ifvqb90","pricing_plan_id":"cebpf4jnsgd1na2vs0mg"},{"bike_id":"ac09ac33-bfa6-47b5-8ad1-0849cd6b024c","system_id":"levelo_inurba_marseille","lat":43.31334,"lon":5.3673,"is_reserved":false,"is_disabled":false,"rental_uris":{"android":"levelo://app?vid=ac09ac33-bfa6-47b5-8ad1-0849cd6b024c","ios":"levelo://app?vid=ac09ac33-bfa6-47b5-8ad1-0849cd6b024c"},"vehicle_type_id":"4","last_reported":1761660644,"current_range_meters":20000,"station_id":"ce4bgr92rcd13ifvqc6g","pricing_plan_id":"cebpf4jnsgd1na2vs0mg"},{"bike_id":"8e67285f-db4b-45a7-baca-4db0136999f7","system_id":"levelo_inurba_marseille","lat":43.297987,"lon":5.381124,"is_reserved":false,"is_disabled":false,"rental_uris":{"android":"levelo://app?vid=8e67285f-db4b-45a7-baca-4db0136999f7","ios":"levelo://app?vid=8e67285f-db4b-45a7-baca-4db0136999f7"},"vehicle_type_id":"4","last_reported":1761660644,"current_range_meters":20000,"station_id":"ce4bgip2rcd13ifvqbb0","pricing_plan_id":"cebpf4jnsgd1na2vs0mg"},{"bike_id":"66f35c71-7548-4c33-9bb7-97e77983d5f2","system_id":"levelo_inurba_marseille","lat":43.30235,"lon":5.40053,"is_reserved":false,"is_disabled":true,"rental_uris":{"android":"levelo://app?vid=66f35c71-7548-4c33-9bb7-97e77983d5f2","ios":"levelo://app?vid=66f35c71-7548-4c33-9bb7-97e77983d5f2"},"vehicle_type_id":"4","last_reported":1761660644,"current_range_meters":20400,"station_id":"ce4bgvh2rcd13ifvqcs0","pricing_plan_id":"cebpf4jnsgd1na2vs0mg"},{"bike_id":"723a003b-69e7-40c1-8770-b8861d0b490a","system_id":"levelo_inurba_marseille","lat":43.229316,"lon":5.353788,"is_reserved":false,"is_disabled":false,"rental_uris":{"android":"levelo://app?vid=723a003b-69e7-40c1-8770-b8861d0b490a","ios":"levelo://app?vid=723a003b-69e7-40c1-8770-b8861d0b490a"},"vehicle_type_id":"4","last_reported":1761660644,"current_range_meters":20400,"station_id":"cpo3532slgdg3j2ikp40","pricing_plan_id":"cebpf4jnsgd1na2vs0mg"},{"bike_id":"54b14a5b-1cb9-4119-885b-796c26f33979","system_id":"levelo_inurba_marseille","lat":43.33023,"lon":5.39039,"is_reserved":false,"is_disabled":false,"rental_uris":{"android":"levelo://app?vid=54b14a5b-1cb9-4119-885b-796c26f33979","ios":"levelo://app?vid=54b14a5b-1cb9-4119-885b-796c26f33979"},"vehicle_type_id":"4","last_reported":1761660644,"current_range_meters":20400,"station_id":"ce4bhr92rcd13ifvqhrg","pricing_plan_id":"cebpf4jnsgd1na2vs0mg"},{"bike_id":"26fe4e43-6685-4528-a529-fbd524981758","system_id":"levelo_inurba_marseille","lat":43.24066,"lon":5.3775,"is_reserved":false,"is_disabled":false,"rental_uris":{"android":"levelo://app?vid=26fe4e43-6685-4528-a529-fbd524981758","ios":"levelo://app?vid=26fe4e43-6685-4528-a529-fbd524981758"},"vehicle_type_id":"4","last_reported":1761660644,"current_range_meters":20400,"station_id":"ce4bhnp2rcd13ifvqgvg","pricing_plan_id":"cebpf4jnsgd1na2vs0mg"},{"bike_id":"738b53ec-805d-4b26-ab7c-ea6a04d27fe8","system_id":"levelo_inurba_marseille","lat":43.30309,"lon":5.36903,"is_reserved":false,"is_disabled":false,"rental_uris":{"android":"levelo://app?vid=738b53ec-805d-4b26-ab7c-ea6a04d27fe8","ios":"levelo://app?vid=738b53ec-805d-4b26-ab7c-ea6a04d27fe8"},"vehicle_type_id":"4","last_reported":1761660644,"current_range_meters":20800,"station_id":"ce4bgqh2rcd13ifvqc5g","pricing_plan_id":"cebpf4jnsgd1na2vs0mg"},{"bike_id":"db0d7fd2-78fb-49f2-88b1-362741a795cb","system_id":"levelo_inurba_marseille","lat":43.337444,"lon":5.374475,"is_reserved":false,"is_disabled":false,"rental_uris":{"android":"levelo://app?vid=db0d7fd2-78fb-49f2-88b1-362741a795cb","ios":"levelo://app?vid=db0d7fd2-78fb-49f2-88b1-362741a795cb"},"vehicle_type_id":"4","last_reported":1761660644,"current_range_meters":20800,"station_id":"","pricing_plan_id":"cebpf4jnsgd1na2vs0mg"},{"bike_id":"0602564c-db2c-4e85-83ef-7f3443980e23","system_id":"levelo_inurba_marseille","lat":43.29062,"lon":5.37169,"is_reserved":false,"is_disabled":false,"rental_uris":{"android":"levelo://app?vid=0602564c-db2c-4e85-83ef-7f3443980e23","ios":"levelo://app?vid=0602564c-db2c-4e85-83ef-7f3443980e23"},"vehicle_type_id":"4","last_reported":1761660644,"current_range_meters":20800,"station_id":"ce4bh5p2rcd13ifvqe4g","pricing_plan_id":"cebpf4jnsgd1na2vs0mg"},{"bike_id":"a0474314-7ae2-4494-9e0f-783c40c1c91a","system_id":"levelo_inurba_marseille","lat":43.28845,"lon":5.35857,"is_reserved":false,"is_disabled":false,"rental_uris":{"android":"levelo://app?vid=a0474314-7ae2-4494-9e0f-783c40c1c91a","ios":"levelo://app?vid=a0474314-7ae2-4494-9e0f-783c40c1c91a"},"vehicle_type_id":"4","last_reported":1761660644,"current_range_meters":20800,"station_id":"ce4bhb12rcd13ifvqem0","pricing_plan_id":"cebpf4jnsgd1na2vs0mg"},{"bike_id":"ba114d3f-72ba-4206-9261-91474b162231","system_id":"levelo_inurba_marseille","lat":43.27176,"lon":5.40999,"is_reserved":false,"is_disabled":false,"rental_uris":{"android":"levelo://app?vid=ba114d3f-72ba-4206-9261-91474b162231","ios":"levelo://app?vid=ba114d3f-72ba-4206-9261-91474b162231"},"vehicle_type_id":"4","last_reported":1761660644,"current_range_meters":20800,"station_id":"ce4bhl12rcd13ifvqgf0","pricing_plan_id":"cebpf4jnsgd1na2vs0mg"},{"bike_id":"556c95c4-e39d-4a50-b32b-6e1b11658636","system_id":"levelo_inurba_marseille","lat":43.2417,"lon":5.3639,"is_reserved":false,"is_disabled":false,"rental_uris":{"android":"levelo://app?vid=556c95c4-e39d-4a50-b32b-6e1b11658636","ios":"levelo://app?vid=556c95c4-e39d-4a50-b32b-6e1b11658636"},"vehicle_type_id":"4","last_reported":1761660644,"current_range_meters":20800,"station_id":"cpo36qri1sfpv3e86is0","pricing_plan_id":"cebpf4jnsgd1na2vs0mg"},{"bike_id":"6eab395f-908f-4e05-896e-00982c676b97","system_id":"levelo_inurba_marseille","lat":43.26553,"lon":5.37279,"is_reserved":false,"is_disabled":false,"rental_uris":{"android":"levelo://app?vid=6eab395f-908f-4e05-896e-00982c676b97","ios":"levelo://app?vid=6eab395f-908f-4e05-896e-00982c676b97"},"vehicle_type_id":"4","last_reported":1761660644,"current_range_meters":20800,"station_id":"ce4bhg12rcd13ifvqf70","pricing_plan_id":"cebpf4jnsgd1na2vs0mg"},{"bike_id":"a1eacc37-5cbe-4b6e-bc8d-dd6051825950","system_id":"levelo_inurba_marseille","lat":43.27912,"lon":5.39578,"is_reserved":false,"is_disabled":false,"rental_uris":{"android":"levelo://app?vid=a1eacc37-5cbe-4b6e-bc8d-dd6051825950","ios":"levelo://app?vid=a1eacc37-5cbe-4b6e-bc8d-dd6051825950"},"vehicle_type_id":"4","last_reported":1761660644,"current_range_meters":20800,"station_id":"ce4bhf92rcd13ifvqf40","pricing_plan_id":"cebpf4jnsgd1na2vs0mg"},{"bike_id":"7e8c1e26-ecbd-4814-afed-2c8de011139c","system_id":"levelo_inurba_marseille","lat":43.26682,"lon":5.38286,"is_reserved":false,"is_disabled":false,"rental_uris":{"android":"levelo://app?vid=7e8c1e26-ecbd-4814-afed-2c8de011139c","ios":"levelo://app?vid=7e8c1e26-ecbd-4814-afed-2c8de011139c"},"vehicle_type_id":"4","last_reported":1761660644,"current_range_meters":21600,"station_id":"ce4bhg92rcd13ifvqf90","pricing_plan_id":"cebpf4jnsgd1na2vs0mg"},{"bike_id":"d9a6a1f6-ad3e-4d83-b3dd-5f0ef903b947","system_id":"levelo_inurba_marseille","lat":43.230866,"lon":5.354803,"is_reserved":false,"is_disabled":false,"rental_uris":{"android":"levelo://app?vid=d9a6a1f6-ad3e-4d83-b3dd-5f0ef903b947","ios":"levelo://app?vid=d9a6a1f6-ad3e-4d83-b3dd-5f0ef903b947"},"vehicle_type_id":"4","last_reported":1761660644,"current_range_meters":21600,"station_id":"","pricing_plan_id":"cebpf4jnsgd1na2vs0mg"},{"bike_id":"51f5d3a4-5ca4-428d-8c3a-6dc58c961bd7","system_id":"levelo_inurba_marseille","lat":43.31253,"lon":5.36881,"is_reserved":false,"is_disabled":false,"rental_uris":{"android":"levelo://app?vid=51f5d3a4-5ca4-428d-8c3a-6dc58c961bd7","ios":"levelo://app?vid=51f5d3a4-5ca4-428d-8c3a-6dc58c961bd7"},"vehicle_type_id":"4","last_reported":1761660644,"current_range_meters":21600,"station_id":"ce4bgl92rcd13ifvqbq0","pricing_plan_id":"cebpf4jnsgd1na2vs0mg"},{"bike_id":"0d271a3a-bc46-4902-9f81-c8d07acfd3bc","system_id":"levelo_inurba_marseille","lat":43.29626,"lon":5.37731,"is_reserved":false,"is_disabled":false,"rental_uris":{"android":"levelo://app?vid=0d271a3a-bc46-4902-9f81-c8d07acfd3bc","ios":"levelo://app?vid=0d271a3a-bc46-4902-9f81-c8d07acfd3bc"},"vehicle_type_id":"4","last_reported":1761660644,"current_range_meters":21600,"station_id":"ce4bgi92rcd13ifvqb90","pricing_plan_id":"cebpf4jnsgd1na2vs0mg"},{"bike_id":"e0fbdcc5-6675-4290-bb45-c9c73d698af6","system_id":"levelo_inurba_marseille","lat":43.22565,"lon":5.41634,"is_reserved":false,"is_disabled":false,"rental_uris":{"android":"levelo://app?vid=e0fbdcc5-6675-4290-bb45-c9c73d698af6","ios":"levelo://app?vid=e0fbdcc5-6675-4290-bb45-c9c73d698af6"},"vehicle_type_id":"4","last_reported":1761660644,"current_range_meters":21600,"station_id":"st_d2o4gvlbi1j2169b742g","pricing_plan_id":"cebpf4jnsgd1na2vs0mg"},{"bike_id":"273c5cef-0b97-4b98-93b4-cc328b3d4d27","system_id":"levelo_inurba_marseille","lat":43.29604,"lon":5.38095,"is_reserved":false,"is_disabled":false,"rental_uris":{"android":"levelo://app?vid=273c5cef-0b97-4b98-93b4-cc328b3d4d27","ios":"levelo://app?vid=273c5cef-0b97-4b98-93b4-cc328b3d4d27"},