{"last_updated":1741712968,"ttl":60,"version":"2.2","data":{"bikes":[{"bike_id":"e3565dcf-4d34-49d7-919b-1234920ea466","system_id":"levelo_inurba_marseille","lat":43.33746,"lon":5.3745,"is_reserved":false,"is_disabled":false,"rental_uris":{"android":"levelo://app?vid=e3565dcf-4d34-49d7-919b-1234920ea466","ios":"levelo://app?vid=e3565dcf-4d34-49d7-919b-1234920ea466"},"vehicle_type_id":"4","last_reported":1741712968,"current_range_meters":21600,"station_id":"","pricing_plan_id":"cebpf4jnsgd1na2vs0mg"},{"bike_id":"62b3a7b8-8202-4684-8ab1-a7c1ed31d3f6","system_id":"levelo_inurba_marseille","lat":43.31092,"lon":5.37522,"is_reserved":false,"is_disabled":true,"rental_uris":{"android":"levelo://app?vid=62b3a7b8-8202-4684-8ab1-a7c1ed31d3f6","ios":"levelo://app?vid=62b3a7b8-8202-4684-8ab1-a7c1ed31d3f6"},"vehicle_type_id":"4","last_reported":1741712968,"current_range_meters":0,"station_id":"","pricing_plan_id":"cebpf4jnsgd1na2vs0mg"},{"bike_id":"ee1d2ad1-36ca-49dd-a328-f2a9a9994ecb","system_id":"levelo_inurba_marseille","lat":43.310869,"lon":5.38131,"is_reserved":false,"is_disabled":true,"rental_uris":{"android":"levelo://app?vid=ee1d2ad1-36ca-49dd-a328-f2a9a9994ecb","ios":"levelo://app?vid=ee1d2ad1-36ca-49dd-a328-f2a9a9994ecb"},"vehicle_type_id":"4","last_reported":1741712968,"current_range_meters":0,"station_id":"","pricing_plan_id":"cebpf4jnsgd1na2vs0mg"},{"bike_id":"6a00c328-746a-424c-873d-9d91f3d92b69","system_id":"levelo_inurba_marseille","lat":43.31332,"lon":5.37605,"is_reserved":false,"is_disabled":true,"rental_uris":{"android":"levelo://app?vid=6a00c328-746a-424c-873d-9d91f3d92b69","ios":"levelo://app?vid=6a00c328-746a-424c-873d-9d91f3d92b69"},"vehicle_type_id":"4","last_reported":1741712968,"current_range_meters":0,"station_id":"","pricing_plan_id":"cebpf4jnsgd1na2vs0mg"},{"bike_id":"7db2bed0-948d-42ad-b603-a86e7c469dcf","system_id":"levelo_inurba_marseille","lat":43.2972,"lon":5.37691,"is_reserved":false,"is_disabled":true,"rental_uris":{"android":"levelo://app?vid=7db2bed0-948d-42ad-b603-a86e7c469dcf","ios":"levelo://app?vid=7db2bed0-948d-42ad-b603-a86e7c469dcf"},"vehicle_type_id":"4","last_reported":1741712968,"current_range_meters":0,"station_id":"ce4bgkh2rcd13ifvqbl0","pricing_plan_id":"cebpf4jnsgd1na2vs0mg"},{"bike_id":"c2f91234-9a6b-4ed3-988d-f60d5f481325","system_id":"levelo_inurba_marseille","lat":43.29788,"lon":5.37102,"is_reserved":false,"is_disabled":true,"rental_uris":{"android":"levelo://app?vid=c2f91234-9a6b-4ed3-988d-f60d5f481325","ios":"levelo://app?vid=c2f91234-9a6b-4ed3-988d-f60d5f481325"},"vehicle_type_id":"4","last_reported":1741712968,"current_range_meters":0,"station_id":"ce4bgop2rcd13ifvqc1g","pricing_plan_id":"cebpf4jnsgd1na2vs0mg"},{"bike_id":"d9dc7211-3c6e-4d32-8ff5-eb49c061b323","system_id":"levelo_inurba_marseille","lat":43.30792,"lon":5.38146,"is_reserved":false,"is_disabled":true,"rental_uris":{"android":"levelo://app?vid=d9dc7211-3c6e-4d32-8ff5-eb49c061b323","ios":"levelo://app?vid=d9dc7211-3c6e-4d32-8ff5-eb49c061b323"},"vehicle_type_id":"4","last_reported":1741712968,"current_range_meters":0,"station_id":"ce4bgt12rcd13ifvqce0","pricing_plan_id":"cebpf4jnsgd1na2vs0mg"},{"bike_id":"e8efdf70-cff9-4a21-a7b8-12e8378ff6eb","system_id":"levelo_inurba_marseille","lat":43.30766,"lon":5.3816,"is_reserved":false,"is_disabled":true,"rental_uris":{"android":"levelo://app?vid=e8efdf70-cff9-4a21-a7b8-12e8378ff6eb","ios":"levelo://app?vid=e8efdf70-cff9-4a21-a7b8-12e8378ff6eb"},"vehicle_type_id":"4","last_reported":1741712968,"current_range_meters":0,"station_id":"ce4bgt12rcd13ifvqce0","pricing_plan_id":"cebpf4jnsgd1na2vs0mg"},{"bike_id":"32a56be2-9b64-4191-b81f-444bf9583d07","system_id":"levelo_inurba_marseille","lat":43.31276,"lon":5.40156,"is_reserved":false,"is_disabled":true,"rental_uris":{"android":"levelo://app?vid=32a56be2-9b64-4191-b81f-444bf9583d07","ios":"levelo://app?vid=32a56be2-9b64-4191-b81f-444bf9583d07"},"vehicle_type_id":"4","last_reported":1741712968,"current_range_meters":0,"station_id":"ce4bh092rcd13ifvqd30","pricing_plan_id":"cebpf4jnsgd1na2vs0mg"},{"bike_id":"97a961b1-b7d7-4209-8d66-aa0b45c2ce95","system_id":"levelo_inurba_marseille","lat":43.30208,"lon":5.39469,"is_reserved":false,"is_disabled":true,"rental_uris":{"android":"levelo://app?vid=97a961b1-b7d7-4209-8d66-aa0b45c2ce95","ios":"levelo://app?vid=97a961b1-b7d7-4209-8d66-aa0b45c2ce95"},"vehicle_type_id":"4","last_reported":1741712968,"current_range_meters":0,"station_id":"ce4bh0p2rcd13ifvqd70","pricing_plan_id":"cebpf4jnsgd1na2vs0mg"},{"bike_id":"a1cd1ead-ad01-47fc-89dd-b8abff0ef455","system_id":"levelo_inurba_marseille","lat":43.30628,"lon":5.40068,"is_reserved":false,"is_disabled":true,"rental_uris":{"android":"levelo://app?vid=a1cd1ead-ad01-47fc-89dd-b8abff0ef455","ios":"levelo://app?vid=a1cd1ead-ad01-47fc-89dd-b8abff0ef455"},"vehicle_type_id":"4","last_reported":1741712968,"current_range_meters":0,"station_id":"ce4bh112rcd13ifvqda0","pricing_plan_id":"cebpf4jnsgd1na2vs0mg"},{"bike_id":"40a8a794-7179-40aa-a03a-3de9ad246f27","system_id":"levelo_inurba_marseille","lat":43.29438,"lon":5.39753,"is_reserved":false,"is_disabled":true,"rental_uris":{"android":"levelo://app?vid=40a8a794-7179-40aa-a03a-3de9ad246f27","ios":"levelo://app?vid=40a8a794-7179-40aa-a03a-3de9ad246f27"},"vehicle_type_id":"4","last_reported":1741712968,"current_range_meters":0,"station_id":"ce4bh3h2rcd13ifvqdo0","pricing_plan_id":"cebpf4jnsgd1na2vs0mg"},{"bike_id":"ef3eed59-5c06-43bf-8999-516841f58175","system_id":"levelo_inurba_marseille","lat":43.28458,"lon":5.35882,"is_reserved":false,"is_disabled":true,"rental_uris":{"android":"levelo://app?vid=ef3eed59-5c06-43bf-8999-516841f58175","ios":"levelo://app?vid=ef3eed59-5c06-43bf-8999-516841f58175"},"vehicle_type_id":"4","last_reported":1741712968,"current_range_meters":0,"station_id":"ce4bhah2rcd13ifvqei0","pricing_plan_id":"cebpf4jnsgd1na2vs0mg"},{"bike_id":"d39d3263-1faf-4c5b-ad42-3a5e25f886b5","system_id":"levelo_inurba_marseille","lat":43.29228,"lon":5.36071,"is_reserved":false,"is_disabled":true,"rental_uris":{"android":"levelo://app?vid=d39d3263-1faf-4c5b-ad42-3a5e25f886b5","ios":"levelo://app?vid=d39d3263-1faf-4c5b-ad42-3a5e25f886b5"},"vehicle_type_id":"4","last_reported":1741712968,"current_range_meters":0,"station_id":"ce4bhbh2rcd13ifvqeqg","pricing_plan_id":"cebpf4jnsgd1na2vs0mg"},{"bike_id":"20f4e7e4-8c18-4213-a93a-ce6efa98e1c2","system_id":"levelo_inurba_marseille","lat":43.26553,"lon":5.37279,"is_reserved":false,"is_disabled":true,"rental_uris":{"android":"levelo://app?vid=20f4e7e4-8c18-4213-a93a-ce6efa98e1c2","ios":"levelo://app?vid=20f4e7e4-8c18-4213-a93a-ce6efa98e1c2"},"vehicle_type_id":"4","last_reported":1741712968,"current_range_meters":0,"station_id":"ce4bhg12rcd13ifvqf70","pricing_plan_id":"cebpf4jnsgd1na2vs0mg"},{"bike_id":"fc07fe95-cdf4-4256-acf6-e51ae3098755","system_id":"levelo_inurba_marseille","lat":43.27568,"lon":5.384337,"is_reserved":false,"is_disabled":true,"rental_uris":{"android":"levelo://app?vid=fc07fe95-cdf4-4256-acf6-e51ae3098755","ios":"levelo://app?vid=fc07fe95-cdf4-4256-acf6-e51ae3098755"},"vehicle_type_id":"4","last_reported":1741712968,"current_range_meters":0,"station_id":"ce4bhh92rcd13ifvqfi0","pricing_plan_id":"cebpf4jnsgd1na2vs0mg"},{"bike_id":"539918e1-90f3-4145-86d3-0237a9fcbdba","system_id":"levelo_inurba_marseille","lat":43.273107,"lon":5.390669,"is_reserved":false,"is_disabled":true,"rental_uris":{"android":"levelo://app?vid=539918e1-90f3-4145-86d3-0237a9fcbdba","ios":"levelo://app?vid=539918e1-90f3-4145-86d3-0237a9fcbdba"},"vehicle_type_id":"4","last_reported":1741712968,"current_range_meters":0,"station_id":"ce4bhn12rcd13ifvqgqg","pricing_plan_id":"cebpf4jnsgd1na2vs0mg"},{"bike_id":"c2fb8f3c-6004-4561-a678-e090db67f464","system_id":"levelo_inurba_marseille","lat":43.23183,"lon":5.39989,"is_reserved":false,"is_disabled":true,"rental_uris":{"android":"levelo://app?vid=c2fb8f3c-6004-4561-a678-e090db67f464","ios":"levelo://app?vid=c2fb8f3c-6004-4561-a678-e090db67f464"},"vehicle_type_id":"4","last_reported":1741712968,"current_range_meters":0,"station_id":"ce4bhn12rcd13ifvqgqg","pricing_plan_id":"cebpf4jnsgd1na2vs0mg"},{"bike_id":"e82a54f5-54f6-4ba6-a190-976877ee0a89","system_id":"levelo_inurba_marseille","lat":43.310442,"lon":5.423948,"is_reserved":false,"is_disabled":true,"rental_uris":{"android":"levelo://app?vid=e82a54f5-54f6-4ba6-a190-976877ee0a89","ios":"levelo://app?vid=e82a54f5-54f6-4ba6-a190-976877ee0a89"},"vehicle_type_id":"4","last_reported":1741712968,"current_range_meters":0,"station_id":"ce4bhp92rcd13ifvqhag","pricing_plan_id":"cebpf4jnsgd1na2vs0mg"},{"bike_id":"c913ad42-b176-4a96-bbdf-7cd01b35e625","system_id":"levelo_inurba_marseille","lat":43.295074,"lon":5.418717,"is_reserved":false,"is_disabled":true,"rental_uris":{"android":"levelo://app?vid=c913ad42-b176-4a96-bbdf-7cd01b35e625","ios":"levelo://app?vid=c913ad42-b176-4a96-bbdf-7cd01b35e625"},"vehicle_type_id":"4","last_reported":1741712968,"current_range_meters":0,"station_id":"ce4bhph2rcd13ifvqhdg","pricing_plan_id":"cebpf4jnsgd1na2vs0mg"},{"bike_id":"d0954b10-d484-407a-90f1-d487e8fe2718","system_id":"levelo_inurba_marseille","lat":43.30877,"lon":5.39663,"is_reserved":false,"is_disabled":true,"rental_uris":{"android":"levelo://app?vid=d0954b10-d484-407a-90f1-d487e8fe2718","ios":"levelo://app?vid=d0954b10-d484-407a-90f1-d487e8fe2718"},"vehicle_type_id":"4","last_reported":1741712968,"current_range_meters":400,"station_id":"ce4bh012rcd13ifvqcv0","pricing_plan_id":"cebpf4jnsgd1na2vs0mg"},{"bike_id":"e0fca961-43ba-4cab-9be9-426992c3ad53","system_id":"levelo_inurba_marseille","lat":43.323898,"lon":5.390248,"is_reserved":false,"is_disabled":true,"rental_uris":{"android":"levelo://app?vid=e0fca961-43ba-4cab-9be9-426992c3ad53","ios":"levelo://app?vid=e0fca961-43ba-4cab-9be9-426992c3ad53"},"vehicle_type_id":"4","last_reported":1741712968,"current_range_meters":400,"station_id":"ce4bhqp2rcd13ifvqhog","pricing_plan_id":"cebpf4jnsgd1na2vs0mg"},{"bike_id":"4395e631-0f0a-4b35-a14d-bd633a004152","system_id":"levelo_inurba_marseille","lat":43.3014,"lon":5.39874,"is_reserved":false,"is_disabled":true,"rental_uris":{"android":"levelo://app?vid=4395e631-0f0a-4b35-a14d-bd633a004152","ios":"levelo://app?vid=4395e631-0f0a-4b35-a14d-bd633a004152"},"vehicle_type_id":"4","last_reported":1741712968,"current_range_meters":800,"station_id":"ce4bh0h2rcd13ifvqd40","pricing_plan_id":"cebpf4jnsgd1na2vs0mg"},{"bike_id":"43c19bfb-f82f-4289-906d-a6c76edee45c","system_id":"levelo_inurba_marseille","lat":43.287,"lon":5.37927,"is_reserved":false,"is_disabled":true,"rental_uris":{"android":"levelo://app?vid=43c19bfb-f82f-4289-906d-a6c76edee45c","ios":"levelo://app?vid=43c19bfb-f82f-4289-906d-a6c76edee45c"},"vehicle_type_id":"4","last_reported":1741712968,"current_range_meters":1200,"station_id":"ce4bh9p2rcd13ifvqec0","pricing_plan_id":"cebpf4jnsgd1na2vs0mg"},{"bike_id":"a558fc9d-15f6-4b76-9095-bbdbe17467fb","system_id":"levelo_inurba_marseille","lat":43.29621,"lon":5.37728,"is_reserved":false,"is_disabled":true,"rental_uris":{"android":"levelo://app?vid=a558fc9d-15f6-4b76-9095-bbdbe17467fb","ios":"levelo://app?vid=a558fc9d-15f6-4b76-9095-bbdbe17467fb"},"vehicle_type_id":"4","last_reported":1741712968,"current_range_meters":1600,"station_id":"ce4bgi92rcd13ifvqb90","pricing_plan_id":"cebpf4jnsgd1na2vs0mg"},{"bike_id":"1fee8ebf-7a45-4ac5-9ad3-ed9fd4a06f48","system_id":"levelo_inurba_marseille","lat":43.30428,"lon":5.39762,"is_reserved":false,"is_disabled":true,"rental_uris":{"android":"levelo://app?vid=1fee8ebf-7a45-4ac5-9ad3-ed9fd4a06f48","ios":"levelo://app?vid=1fee8ebf-7a45-4ac5-9ad3-ed9fd4a06f48"},"vehicle_type_id":"4","last_reported":1741712968,"current_range_meters":1600,"station_id":"ce4bh092rcd13ifvqd20","pricing_plan_id":"cebpf4jnsgd1na2vs0mg"},{"bike_id":"1fd84d66-831e-43e5-9874-a3003b2d7563","system_id":"levelo_inurba_marseille","lat":43.26553,"lon":5.37289,"is_reserved":false,"is_disabled":true,"rental_uris":{"android":"levelo://app?vid=1fd84d66-831e-43e5-9874-a3003b2d7563","ios":"levelo://app?vid=1fd84d66-831e-43e5-9874-a3003b2d7563"},"vehicle_type_id":"4","last_reported":1741712968,"current_range_meters":1600,"station_id":"ce4bhg12rcd13ifvqf70","pricing_plan_id":"cebpf4jnsgd1na2vs0mg"},{"bike_id":"af835a6f-0862-410f-bda6-f0c7249d7686","system_id":"levelo_inurba_marseille","lat":43.25716,"lon":5.41114,"is_reserved":false,"is_disabled":true,"rental_uris":{"android":"levelo://app?vid=af835a6f-0862-410f-bda6-f0c7249d7686","ios":"levelo://app?vid=af835a6f-0862-410f-bda6-f0c7249d7686"},"vehicle_type_id":"4","last_reported":1741712968,"current_range_meters":1600,"station_id":"ce4bhkp2rcd13ifvqgd0","pricing_plan_id":"cebpf4jnsgd1na2vs0mg"},{"bike_id":"4776310d-4605-4cf1-826d-7e1ca2879a25","system_id":"levelo_inurba_marseille","lat":43.30437,"lon":5.38877,"is_reserved":false,"is_disabled":true,"rental_uris":{"android":"levelo://app?vid=4776310d-4605-4cf1-826d-7e1ca2879a25","ios":"levelo://app?vid=4776310d-4605-4cf1-826d-7e1ca2879a25"},"vehicle_type_id":"4","last_reported":1741712968,"current_range_meters":2000,"station_id":"ce4bgk12rcd13ifvqbi0","pricing_plan_id":"cebpf4jnsgd1na2vs0mg"},{"bike_id":"b20589dc-7665-4757-b367-386eee8d5186","system_id":"levelo_inurba_marseille","lat":43.24653,"lon":5.38899,"is_reserved":false,"is_disabled":true,"rental_uris":{"android":"levelo://app?vid=b20589dc-7665-4757-b367-386eee8d5186","ios":"levelo://app?vid=b20589dc-7665-4757-b367-386eee8d5186"},"vehicle_type_id":"4","last_reported":1741712968,"current_range_meters":2000,"station_id":"ce4bhg12rcd13ifvqf60","pricing_plan_id":"cebpf4jnsgd1na2vs0mg"},{"bike_id":"b104001a-10f7-4c93-b613-2b76cb885027","system_id":"levelo_inurba_marseille","lat":43.3115,"lon":5.37108,"is_reserved":false,"is_disabled":false,"rental_uris":{"android":"levelo://app?vid=b104001a-10f7-4c93-b613-2b76cb885027","ios":"levelo://app?vid=b104001a-10f7-4c93-b613-2b76cb885027"},"vehicle_type_id":"4","last_reported":1741712968,"current_range_meters":2800,"station_id":"","pricing_plan_id":"cebpf4jnsgd1na2vs0mg"},{"bike_id":"cda77f91-f1b2-4c16-9b6a-f97132f76802","system_id":"levelo_inurba_marseille","lat":43.2998,"lon":5.37178,"is_reserved":false,"is_disabled":false,"rental_uris":{"android":"levelo://app?vid=cda77f91-f1b2-4c16-9b6a-f97132f76802","ios":"levelo://app?vid=cda77f91-f1b2-4c16-9b6a-f97132f76802"},"vehicle_type_id":"4","last_reported":1741712968,"current_range_meters":2800,"station_id":"ce4bgr92rcd13ifvqc7g","pricing_plan_id":"cebpf4jnsgd1na2vs0mg"},{"bike_id":"5de3609d-8bad-4cb4-9d18-8744aa0d425e","system_id":"levelo_inurba_marseille","lat":43.3297,"lon":5.39048,"is_reserved":false,"is_disabled":false,"rental_uris":{"android":"levelo://app?vid=5de3609d-8bad-4cb4-9d18-8744aa0d425e","ios":"levelo://app?vid=5de3609d-8bad-4cb4-9d18-8744aa0d425e"},"vehicle_type_id":"4","last_reported":1741712968,"current_range_meters":3200,"station_id":"","pricing_plan_id":"cebpf4jnsgd1na2vs0mg"},{"bike_id":"168cbdfd-bccb-4788-9213-16ff3f19dcd3","system_id":"levelo_inurba_marseille","lat":43.31063,"lon":5.38345,"is_reserved":false,"is_disabled":false,"rental_uris":{"android":"levelo://app?vid=168cbdfd-bccb-4788-9213-16ff3f19dcd3","ios":"levelo://app?vid=168cbdfd-bccb-4788-9213-16ff3f19dcd3"},"vehicle_type_id":"4","last_reported":1741712968,"current_range_meters":3200,"station_id":"ce4bgv92rcd13ifvqcr0","pricing_plan_id":"cebpf4jnsgd1na2vs0mg"},{"bike_id":"6184f323-3d2a-4ed8-8cce-e5f02c239269","system_id":"levelo_inurba_marseille","lat":43.27807,"lon":5.40702,"is_reserved":false,"is_disabled":false,"rental_uris":{"android":"levelo://app?vid=6184f323-3d2a-4ed8-8cce-e5f02c239269","ios":"levelo://app?vid=6184f323-3d2a-4ed8-8cce-e5f02c239269"},"vehicle_type_id":"4","last_reported":1741712968,"current_range_meters":3200,"station_id":"ce4bhnh2rcd13ifvqgtg","pricing_plan_id":"cebpf4jnsgd1na2vs0mg"},{"bike_id":"2fbb2f0e-b64e-445e-a2b3-ee5227dc63e4","system_id":"levelo_inurba_marseille","lat":43.269272,"lon":5.367092,"is_reserved":false,"is_disabled":false,"rental_uris":{"android":"levelo://app?vid=2fbb2f0e-b64e-445e-a2b3-ee5227dc63e4","ios":"levelo://app?vid=2fbb2f0e-b64e-445e-a2b3-ee5227dc63e4"},"vehicle_type_id":"4","last_reported":1741712968,"current_range_meters":3600,"station_id":"","pricing_plan_id":"cebpf4jnsgd1na2vs0mg"},{"bike_id":"58e520d9-2bec-4148-9fd2-863726e34c62","system_id":"levelo_inurba_marseille","lat":43.27052,"lon":5.40257,"is_reserved":false,"is_disabled":false,"rental_uris":{"android":"levelo://app?vid=58e520d9-2bec-4148-9fd2-863726e34c62","ios":"levelo://app?vid=58e520d9-2bec-4148-9fd2-863726e34c62"},"vehicle_type_id":"4","last_reported":1741712968,"current_range_meters":3600,"station_id":"ce4bhk92rcd13ifvqgc0","pricing_plan_id":"cebpf4jnsgd1na2vs0mg"},{"bike_id":"a7f62148-2eaf-4651-84ba-925581196792","system_id":"levelo_inurba_marseille","lat":43.30593,"lon":5.39362,"is_reserved":false,"is_disabled":false,"rental_uris":{"android":"levelo://app?vid=a7f62148-2eaf-4651-84ba-925581196792","ios":"levelo://app?vid=a7f62148-2eaf-4651-84ba-925581196792"},"vehicle_type_id":"4","last_reported":1741712968,"current_range_meters":4000,"station_id":"ce4bh0p2rcd13ifvqd80","pricing_plan_id":"cebpf4jnsgd1na2vs0mg"},{"bike_id":"2da8274b-002a-4d55-a745-eff731e2abf8","system_id":"levelo_inurba_marseille","lat":43.29436,"lon":5.38641,"is_reserved":false,"is_disabled":false,"rental_uris":{"android":"levelo://app?vid=2da8274b-002a-4d55-a745-eff731e2abf8","ios":"levelo://app?vid=2da8274b-002a-4d55-a745-eff731e2abf8"},"vehicle_type_id":"4","last_reported":1741712968,"current_range_meters":4000,"station_id":"ce4bh2h2rcd13ifvqdh0","pricing_plan_id":"cebpf4jnsgd1na2vs0mg"},{"bike_id":"c73cfbb8-3bfc-48d9-9559-e1dc01f09976","system_id":"levelo_inurba_marseille","lat":43.29321,"lon":5.38566,"is_reserved":false,"is_disabled":false,"rental_uris":{"android":"levelo://app?vid=c73cfbb8-3bfc-48d9-9559-e1dc01f09976","ios":"levelo://app?vid=c73cfbb8-3bfc-48d9-9559-e1dc01f09976"},"vehicle_type_id":"4","last_reported":1741712968,"current_range_meters":4000,"station_id":"ce4bh692rcd13ifvqea0","pricing_plan_id":"cebpf4jnsgd1na2vs0mg"},{"bike_id":"4db736b9-68d3-4f2a-9431-002ce7a44183","system_id":"levelo_inurba_marseille","lat":43.2315,"lon":5.43714,"is_reserved":false,"is_disabled":false,"rental_uris":{"android":"levelo://app?vid=4db736b9-68d3-4f2a-9431-002ce7a44183","ios":"levelo://app?vid=4db736b9-68d3-4f2a-9431-002ce7a44183"},"vehicle_type_id":"4","last_reported":1741712968,"current_range_meters":4400,"station_id":"ce4bhmp2rcd13ifvqgog","pricing_plan_id":"cebpf4jnsgd1na2vs0mg"},{"bike_id":"fb680515-31cd-428b-8d3e-b44c3660920e","system_id":"levelo_inurba_marseille","lat":43.31071,"lon":5.38346,"is_reserved":false,"is_disabled":false,"rental_uris":{"android":"levelo://app?vid=fb680515-31cd-428b-8d3e-b44c3660920e","ios":"levelo://app?vid=fb680515-31cd-428b-8d3e-b44c3660920e"},"vehicle_type_id":"4","last_reported":1741712968,"current_range_meters":4800,"station_id":"ce4bgv92rcd13ifvqcr0","pricing_plan_id":"cebpf4jnsgd1na2vs0mg"},{"bike_id":"49c43485-3d64-49c8-8a0b-99f4944864b8","system_id":"levelo_inurba_marseille","lat":43.29527,"lon":5.39404,"is_reserved":false,"is_disabled":false,"rental_uris":{"android":"levelo://app?vid=49c43485-3d64-49c8-8a0b-99f4944864b8","ios":"levelo://app?vid=49c43485-3d64-49c8-8a0b-99f4944864b8"},"vehicle_type_id":"4","last_reported":1741712968,"current_range_meters":4800,"station_id":"ce4bh292rcd13ifvqdf0","pricing_plan_id":"cebpf4jnsgd1na2vs0mg"},{"bike_id":"06227e1d-7115-4c25-83c9-924bd1507415","system_id":"levelo_inurba_marseille","lat":43.2621,"lon":5.37438,"is_reserved":false,"is_disabled":false,"rental_uris":{"android":"levelo://app?vid=06227e1d-7115-4c25-83c9-924bd1507415","ios":"levelo://app?vid=06227e1d-7115-4c25-83c9-924bd1507415"},"vehicle_type_id":"4","last_reported":1741712968,"current_range_meters":4800,"station_id":"ce4bhgp2rcd13ifvqfc0","pricing_plan_id":"cebpf4jnsgd1na2vs0mg"},{"bike_id":"43991684-6091-4e7b-b61b-226ca0c5b6a8","system_id":"levelo_inurba_marseille","lat":43.29901,"lon":5.4367,"is_reserved":false,"is_disabled":false,"rental_uris":{"android":"levelo://app?vid=43991684-6091-4e7b-b61b-226ca0c5b6a8","ios":"levelo://app?vid=43991684-6091-4e7b-b61b-226ca0c5b6a8"},"vehicle_type_id":"4","last_reported":1741712968,"current_range_meters":4800,"station_id":"ce4bhpp2rcd13ifvqhfg","pricing_plan_id":"cebpf4jnsgd1na2vs0mg"},{"bike_id":"7c169c1f-e0ca-49d2-bb29-827b331addc5","system_id":"levelo_inurba_marseille","lat":43.29419,"lon":5.38618,"is_reserved":false,"is_disabled":false,"rental_uris":{"android":"levelo://app?vid=7c169c1f-e0ca-49d2-bb29-827b331addc5","ios":"levelo://app?vid=7c169c1f-e0ca-49d2-bb29-827b331addc5"},"vehicle_type_id":"4","last_reported":1741712968,"current_range_meters":5600,"station_id":"ce4bh2h2rcd13ifvqdh0","pricing_plan_id":"cebpf4jnsgd1na2vs0mg"},{"bike_id":"92fd7480-f9eb-4053-9693-75f0f33bb9b5","system_id":"levelo_inurba_marseille","lat":43.28662,"lon":5.38676,"is_reserved":false,"is_disabled":false,"rental_uris":{"android":"levelo://app?vid=92fd7480-f9eb-4053-9693-75f0f33bb9b5","ios":"levelo://app?vid=92fd7480-f9eb-4053-9693-75f0f33bb9b5"},"vehicle_type_id":"4","last_reported":1741712968,"current_range_meters":5600,"station_id":"ce4bh492rcd13ifvqdug","pricing_plan_id":"cebpf4jnsgd1na2vs0mg"},{"bike_id":"68dfe17e-d961-4ae8-a679-b36a1f43a4e3","system_id":"levelo_inurba_marseille","lat":43.24652,"lon":5.38896,"is_reserved":false,"is_disabled":false,"rental_uris":{"android":"levelo://app?vid=68dfe17e-d961-4ae8-a679-b36a1f43a4e3","ios":"levelo://app?vid=68dfe17e-d961-4ae8-a679-b36a1f43a4e3"},"vehicle_type_id":"4","last_reported":1741712968,"current_range_meters":5600,"station_id":"ce4bhg12rcd13ifvqf60","pricing_plan_id":"cebpf4jnsgd1na2vs0mg"},{"bike_id":"3001f534-9f0c-4394-9e7e-3d0014ed717b","system_id":"levelo_inurba_marseille","lat":43.23179,"lon":5.39989,"is_reserved":false,"is_disabled":false,"rental_uris":{"android":"levelo://app?vid=3001f534-9f0c-4394-9e7e-3d0014ed717b","ios":"levelo://app?vid=3001f534-9f0c-4394-9e7e-3d0014ed717b"},"vehicle_type_id":"4","last_reported":1741712968,"current_range_meters":5600,"station_id":"ce4bhn12rcd13ifvqgqg","pricing_plan_id":"cebpf4jnsgd1na2vs0mg"},{"bike_id":"c0042d76-6eb9-4507-8004-d614a3b13b33","system_id":"levelo_inurba_marseille","lat":43.31075,"lon":5.38362,"is_reserved":false,"is_disabled":false,"rental_uris":{"android":"levelo://app?vid=c0042d76-6eb9-4507-8004-d614a3b13b33","ios":"levelo://app?vid=c0042d76-6eb9-4507-8004-d614a3b13b33"},"vehicle_type_id":"4","last_reported":1741712968,"current_range_meters":6000,"station_id":"ce4bgv92rcd13ifvqcr0","pricing_plan_id":"cebpf4jnsgd1na2vs0mg"},{"bike_id":"f94ac8ac-54f8-47dd-b576-9ee657295eeb","system_id":"levelo_inurba_marseille","lat":43.28366,"lon":5.43258,"is_reserved":false,"is_disabled":false,"rental_uris":{"android":"levelo://app?vid=f94ac8ac-54f8-47dd-b576-9ee657295eeb","ios":"levelo://app?vid=f94ac8ac-54f8-47dd-b576-9ee657295eeb"},"vehicle_type_id":"4","last_reported":1741712968,"current_range_meters":6800,"station_id":"","pricing_plan_id":"cebpf4jnsgd1na2vs0mg"},{"bike_id":"2767448c-f20e-4ac1-9a0a-bb4de89a2bc5","system_id":"levelo_inurba_marseille","lat":43.29573,"lon":5.37509,"is_reserved":false,"is_disabled":false,"rental_uris":{"android":"levelo://app?vid=2767448c-f20e-4ac1-9a0a-bb4de89a2bc5","ios":"levelo://app?vid=2767448c-f20e-4ac1-9a0a-bb4de89a2bc5"},"vehicle_type_id":"4","last_reported":1741712968,"current_range_meters":6800,"station_id":"ce4bgh92rcd13ifvqb50","pricing_plan_id":"cebpf4jnsgd1na2vs0mg"},{"bike_id":"cb188ccd-b718-4fe1-bebf-d2a7fcc0003e","system_id":"levelo_inurba_marseille","lat":43.30314,"lon":5.39216,"is_reserved":false,"is_disabled":false,"rental_uris":{"android":"levelo://app?vid=cb188ccd-b718-4fe1-bebf-d2a7fcc0003e","ios":"levelo://app?vid=cb188ccd-b718-4fe1-bebf-d2a7fcc0003e"},"vehicle_type_id":"4","last_reported":1741712968,"current_range_meters":6800,"station_id":"ce4bgkh2rcd13ifvqbk0","pricing_plan_id":"cebpf4jnsgd1na2vs0mg"},{"bike_id":"ac0b7ae5-91ab-42bc-9bed-df5b1880f248","system_id":"levelo_inurba_marseille","lat":43.30554,"lon":5.36529,"is_reserved":false,"is_disabled":false,"rental_uris":{"android":"levelo://app?vid=ac0b7ae5-91ab-42bc-9bed-df5b1880f248","ios":"levelo://app?vid=ac0b7ae5-91ab-42bc-9bed-df5b1880f248"},"vehicle_type_id":"4","last_reported":1741712968,"current_range_meters":6800,"station_id":"ce4bgs12rcd13ifvqcag","pricing_plan_id":"cebpf4jnsgd1na2vs0mg"},{"bike_id":"b3b9761d-de70-4255-8c81-90af5740a57d","system_id":"levelo_inurba_marseille","lat":43.26489,"lon":5.39544,"is_reserved":false,"is_disabled":false,"rental_uris":{"android":"levelo://app?vid=b3b9761d-de70-4255-8c81-90af5740a57d","ios":"levelo://app?vid=b3b9761d-de70-4255-8c81-90af5740a57d"},"vehicle_type_id":"4","last_reported":1741712968,"current_range_meters":6800,"station_id":"ce4bhi12rcd13ifvqfq0","pricing_plan_id":"cebpf4jnsgd1na2vs0mg"},{"bike_id":"38b370dd-6409-49d7-9f11-95e7a80a5309","system_id":"levelo_inurba_marseille","lat":43.25723,"lon":5.41111,"is_reserved":false,"is_disabled":false,"rental_uris":{"android":"levelo://app?vid=38b370dd-6409-49d7-9f11-95e7a80a5309","ios":"levelo://app?vid=38b370dd-6409-49d7-9f11-95e7a80a5309"},"vehicle_type_id":"4","last_reported":1741712968,"current_range_meters":6800,"station_id":"ce4bhkp2rcd13ifvqgd0","pricing_plan_id":"cebpf4jnsgd1na2vs0mg"},{"bike_id":"dc42e161-3661-4fd6-b581-259d0f327bf6","system_id":"levelo_inurba_marseille","lat":43.23185,"lon":5.3997,"is_reserved":false,"is_disabled":false,"rental_uris":{"android":"levelo://app?vid=dc42e161-3661-4fd6-b581-259d0f327bf6","ios":"levelo://app?vid=dc42e161-3661-4fd6-b581-259d0f327bf6"},"vehicle_type_id":"4","last_reported":1741712968,"current_range_meters":6800,"station_id":"ce4bhn12rcd13ifvqgqg","pricing_plan_id":"cebpf4jnsgd1na2vs0mg"},{"bike_id":"42b8606a-5a39-4c18-ab8e-ae2998dcaace","system_id":"levelo_inurba_marseille","lat":43.29901,"lon":5.43668,"is_reserved":false,"is_disabled":false,"rental_uris":{"android":"levelo://app?vid=42b8606a-5a39-4c18-ab8e-ae2998dcaace","ios":"levelo://app?vid=42b8606a-5a39-4c18-ab8e-ae2998dcaace"},"vehicle_type_id":"4","last_reported":1741712968,"current_range_meters":6800,"station_id":"ce4bhpp2rcd13ifvqhfg","pricing_plan_id":"cebpf4jnsgd1na2vs0mg"},{"bike_id":"03690356-08e9-4ea7-b9a3-8e88bf471e93","system_id":"levelo_inurba_marseille","lat":43.337444,"lon":5.374475,"is_reserved":false,"is_disabled":false,"rental_uris":{"android":"levelo://app?vid=03690356-08e9-4ea7-b9a3-8e88bf471e93","ios":"levelo://app?vid=03690356-08e9-4ea7-b9a3-8e88bf471e93"},"vehicle_type_id":"4","last_reported":1741712968,"current_range_meters":7200,"station_id":"","pricing_plan_id":"cebpf4jnsgd1na2vs0mg"},{"bike_id":"c6996658-2467-4353-a7ae-957c56342509","system_id":"levelo_inurba_marseille","lat":43.29527,"lon":5.383737,"is_reserved":false,"is_disabled":false,"rental_uris":{"android":"levelo://app?vid=c6996658-2467-4353-a7ae-957c56342509","ios":"levelo://app?vid=c6996658-2467-4353-a7ae-957c56342509"},"vehicle_type_id":"4","last_reported":1741712968,"current_range_meters":7200,"station_id":"ce4bgi92rcd13ifvqb90","pricing_plan_id":"cebpf4jnsgd1na2vs0mg"},{"bike_id":"56c04ffd-2ca2-4363-be10-06f750e0f133","system_id":"levelo_inurba_marseille","lat":43.2942,"lon":5.38625,"is_reserved":false,"is_disabled":false,"rental_uris":{"android":"levelo://app?vid=56c04ffd-2ca2-4363-be10-06f750e0f133","ios":"levelo://app?vid=56c04ffd-2ca2-4363-be10-06f750e0f133"},"vehicle_type_id":"4","last_reported":1741712968,"current_range_meters":7200,"station_id":"ce4bh2h2rcd13ifvqdh0","pricing_plan_id":"cebpf4jnsgd1na2vs0mg"},{"bike_id":"d903a03d-e39d-4af7-b28b-e7df5d1dccac","system_id":"levelo_inurba_marseille","lat":43.26064,"lon":5.39363,"is_reserved":false,"is_disabled":false,"rental_uris":{"android":"levelo://app?vid=d903a03d-e39d-4af7-b28b-e7df5d1dccac","ios":"levelo://app?vid=d903a03d-e39d-4af7-b28b-e7df5d1dccac"},"vehicle_type_id":"4","last_reported":1741712968,"current_range_meters":7200,"station_id":"ce4bhh92rcd13ifvqfj0","pricing_plan_id":"cebpf4jnsgd1na2vs0mg"},{"bike_id":"530a533a-e2f4-4a77-accb-cf20c71b4586","system_id":"levelo_inurba_marseille","lat":43.23178,"lon":5.39994,"is_reserved":false,"is_disabled":false,"rental_uris":{"android":"levelo://app?vid=530a533a-e2f4-4a77-accb-cf20c71b4586","ios":"levelo://app?vid=530a533a-e2f4-4a77-accb-cf20c71b4586"},"vehicle_type_id":"4","last_reported":1741712968,"current_range_meters":7200,"station_id":"ce4bhn12rcd13ifvqgqg","pricing_plan_id":"cebpf4jnsgd1na2vs0mg"},{"bike_id":"eedda6f3-e03e-496f-9bd0-de31bfd30ce3","system_id":"levelo_inurba_marseille","lat":43.27805,"lon":5.40705,"is_reserved":false,"is_disabled":false,"rental_uris":{"android":"levelo://app?vid=eedda6f3-e03e-496f-9bd0-de31bfd30ce3","ios":"levelo://app?vid=eedda6f3-e03e-496f-9bd0-de31bfd30ce3"},"vehicle_type_id":"4","last_reported":1741712968,"current_range_meters":7200,"station_id":"ce4bhnh2rcd13ifvqgtg","pricing_plan_id":"cebpf4jnsgd1na2vs0mg"},{"bike_id":"6b42988a-de91-4a30-b407-bb1347588844","system_id":"levelo_inurba_marseille","lat":43.27808,"lon":5.40715,"is_reserved":false,"is_disabled":false,"rental_uris":{"android":"levelo://app?vid=6b42988a-de91-4a30-b407-bb1347588844","ios":"levelo://app?vid=6b42988a-de91-4a30-b407-bb1347588844"},"vehicle_type_id":"4","last_reported":1741712968,"current_range_meters":7200,"station_id":"ce4bhnh2rcd13ifvqgtg","pricing_plan_id":"cebpf4jnsgd1na2vs0mg"},{"bike_id":"c86d68f5-55ee-4a68-ba82-758fa1373f1d","system_id":"levelo_inurba_marseille","lat":43.31713,"lon":5.43703,"is_reserved":false,"is_disabled":false,"rental_uris":{"android":"levelo://app?vid=c86d68f5-55ee-4a68-ba82-758fa1373f1d","ios":"levelo://app?vid=c86d68f5-55ee-4a68-ba82-758fa1373f1d"},"vehicle_type_id":"4","last_reported":1741712968,"current_range_meters":7200,"station_id":"ce4bhp92rcd13ifvqhcg","pricing_plan_id":"cebpf4jnsgd1na2vs0mg"},{"bike_id":"b500283f-9487-4f81-a115-c95ca75024af","system_id":"levelo_inurba_marseille","lat":43.3302,"lon":5.39038,"is_reserved":false,"is_disabled":false,"rental_uris":{"android":"levelo://app?vid=b500283f-9487-4f81-a115-c95ca75024af","ios":"levelo://app?vid=b500283f-9487-4f81-a115-c95ca75024af"},"vehicle_type_id":"4","last_reported":1741712968,"current_range_meters":7200,"station_id":"ce4bhr92rcd13ifvqhrg","pricing_plan_id":"cebpf4jnsgd1na2vs0mg"},{"bike_id":"cdcdb396-fc55-451a-941c-56476234f4c2","system_id":"levelo_inurba_marseille","lat":43.29842,"lon":5.36265,"is_reserved":false,"is_disabled":false,"rental_uris":{"android":"levelo://app?vid=cdcdb396-fc55-451a-941c-56476234f4c2","ios":"levelo://app?vid=cdcdb396-fc55-451a-941c-56476234f4c2"},"vehicle_type_id":"4","last_reported":1741712968,"current_range_meters":8000,"station_id":"ce4bgpp2rcd13ifvqc3g","pricing_plan_id":"cebpf4jnsgd1na2vs0mg"},{"bike_id":"eed5dd57-8b78-4744-85ea-10358e2aa7ad","system_id":"levelo_inurba_marseille","lat":43.29162,"lon":5.37153,"is_reserved":false,"is_disabled":false,"rental_uris":{"android":"levelo://app?vid=eed5dd57-8b78-4744-85ea-10358e2aa7ad","ios":"levelo://app?vid=eed5dd57-8b78-4744-85ea-10358e2aa7ad"},"vehicle_type_id":"4","last_reported":1741712968,"current_range_meters":8000,"station_id":"ce4bha92rcd13ifvqeh0","pricing_plan_id":"cebpf4jnsgd1na2vs0mg"},{"bike_id":"cbd6f8ee-d91a-4c06-a50f-8aefa40d8ceb","system_id":"levelo_inurba_marseille","lat":43.29899,"lon":5.4367,"is_reserved":false,"is_disabled":false,"rental_uris":{"android":"levelo://app?vid=cbd6f8ee-d91a-4c06-a50f-8aefa40d8ceb","ios":"levelo://app?vid=cbd6f8ee-d91a-4c06-a50f-8aefa40d8ceb"},"vehicle_type_id":"4","last_reported":1741712968,"current_range_meters":8000,"station_id":"ce4bhpp2rcd13ifvqhfg","pricing_plan_id":"cebpf4jnsgd1na2vs0mg"},{"bike_id":"2129e361-5aff-4286-bb3b-f380feda8bad","system_id":"levelo_inurba_marseille","lat":43.32334,"lon":5.40623,"is_reserved":false,"is_disabled":false,"rental_uris":{"android":"levelo://app?vid=2129e361-5aff-4286-bb3b-f380feda8bad","ios":"levelo://app?vid=2129e361-5aff-4286-bb3b-f380feda8bad"},"vehicle_type_id":"4","last_reported":1741712968,"current_range_meters":8000,"station_id":"ce4bhq92rcd13ifvqhjg","pricing_plan_id":"cebpf4jnsgd1na2vs0mg"},{"bike_id":"09bbb690-af86-458c-bbad-70d10e2033ee","system_id":"levelo_inurba_marseille","lat":43.23057,"lon":5.35489,"is_reserved":false,"is_disabled":false,"rental_uris":{"android":"levelo://app?vid=09bbb690-af86-458c-bbad-70d10e2033ee","ios":"levelo://app?vid=09bbb690-af86-458c-bbad-70d10e2033ee"},"vehicle_type_id":"4","last_reported":1741712968,"current_range_meters":8000,"station_id":"cpo3342slgdg3j2ifvpg","pricing_plan_id":"cebpf4jnsgd1na2vs0mg"},{"bike_id":"a750f97e-9923-49f6-85ba-96e222be5f41","system_id":"levelo_inurba_marseille","lat":43.27841,"lon":5.40632,"is_reserved":false,"is_disabled":false,"rental_uris":{"android":"levelo://app?vid=a750f97e-9923-49f6-85ba-96e222be5f41","ios":"levelo://app?vid=a750f97e-9923-49f6-85ba-96e222be5f41"},"vehicle_type_id":"4","last_reported":1741712968,"current_range_meters":8400,"station_id":"","pricing_plan_id":"cebpf4jnsgd1na2vs0mg"},{"bike_id":"bf2feb02-4272-4476-92f9-9420844c4078","system_id":"levelo_inurba_marseille","lat":43.31164,"lon":5.3758,"is_reserved":false,"is_disabled":false,"rental_uris":{"android":"levelo://app?vid=bf2feb02-4272-4476-92f9-9420844c4078","ios":"levelo://app?vid=bf2feb02-4272-4476-92f9-9420844c4078"},"vehicle_type_id":"4","last_reported":1741712968,"current_range_meters":8400,"station_id":"","pricing_plan_id":"cebpf4jnsgd1na2vs0mg"},{"bike_id":"0e40dd14-7e0e-42a4-9e1f-3a94102d2d8d","system_id":"levelo_inurba_marseille","lat":43.31707,"lon":5.37736,"is_reserved":false,"is_disabled":false,"rental_uris":{"android":"levelo://app?vid=0e40dd14-7e0e-42a4-9e1f-3a94102d2d8d","ios":"levelo://app?vid=0e40dd14-7e0e-42a4-9e1f-3a94102d2d8d"},"vehicle_type_id":"4","last_reported":1741712968,"current_range_meters":8400,"station_id":"ce4bgth2rcd13ifvqch0","pricing_plan_id":"cebpf4jnsgd1na2vs0mg"},{"bike_id":"28970cae-917c-4e7f-9009-0998c9001c6f","system_id":"levelo_inurba_marseille","lat":43.28688,"lon":5.37409,"is_reserved":false,"is_disabled":false,"rental_uris":{"android":"levelo://app?vid=28970cae-917c-4e7f-9009-0998c9001c6f","ios":"levelo://app?vid=28970cae-917c-4e7f-9009-0998c9001c6f"},"vehicle_type_id":"4","last_reported":1741712968,"current_range_meters":8400,"station_id":"ce4bh3p2rcd13ifvqdq0","pricing_plan_id":"cebpf4jnsgd1na2vs0mg"},{"bike_id":"96aef546-9392-4f0f-8928-a84b6b41a5e5","system_id":"levelo_inurba_marseille","lat":43.294487,"lon":5.397524,"is_reserved":false,"is_disabled":false,"rental_uris":{"android":"levelo://app?vid=96aef546-9392-4f0f-8928-a84b6b41a5e5","ios":"levelo://app?vid=96aef546-9392-4f0f-8928-a84b6b41a5e5"},"vehicle_type_id":"4","last_reported":1741712968,"current_range_meters":8400,"station_id":"ce4bh612rcd13ifvqe6g","pricing_plan_id":"cebpf4jnsgd1na2vs0mg"},{"bike_id":"eab0df23-632a-486c-b110-a4aeb79c46e8","system_id":"levelo_inurba_marseille","lat":43.25887,"lon":5.39887,"is_reserved":false,"is_disabled":false,"rental_uris":{"android":"levelo://app?vid=eab0df23-632a-486c-b110-a4aeb79c46e8","ios":"levelo://app?vid=eab0df23-632a-486c-b110-a4aeb79c46e8"},"vehicle_type_id":"4","last_reported":1741712968,"current_range_meters":8400,"station_id":"ce4bhl92rcd13ifvqghg","pricing_plan_id":"cebpf4jnsgd1na2vs0mg"},{"bike_id":"212cf961-5130-44e9-b4ac-56d3a2b672bf","system_id":"levelo_inurba_marseille","lat":43.24543,"lon":5.39526,"is_reserved":false,"is_disabled":false,"rental_uris":{"android":"levelo://app?vid=212cf961-5130-44e9-b4ac-56d3a2b672bf","ios":"levelo://app?vid=212cf961-5130-44e9-b4ac-56d3a2b672bf"},"vehicle_type_id":"4","last_reported":1741712968,"current_range_meters":8400,"station_id":"ce4bhlp2rcd13ifvqgjg","pricing_plan_id":"cebpf4jnsgd1na2vs0mg"},{"bike_id":"8dc2c2dc-de0f-4fd2-b739-faf253fff5e5","system_id":"levelo_inurba_marseille","lat":43.2314,"lon":5.43711,"is_reserved":false,"is_disabled":false,"rental_uris":{"android":"levelo://app?vid=8dc2c2dc-de0f-4fd2-b739-faf253fff5e5","ios":"levelo://app?vid=8dc2c2dc-de0f-4fd2-b739-faf253fff5e5"},"vehicle_type_id":"4","last_reported":1741712968,"current_range_meters":8400,"station_id":"ce4bhmp2rcd13ifvqgog","pricing_plan_id":"cebpf4jnsgd1na2vs0mg"},{"bike_id":"9b75f73b-4e4f-4d50-8655-4ca7749a5646","system_id":"levelo_inurba_marseille","lat":43.27836,"lon":5.40718,"is_reserved":false,"is_disabled":false,"rental_uris":{"android":"levelo://app?vid=9b75f73b-4e4f-4d50-8655-4ca7749a5646","ios":"levelo://app?vid=9b75f73b-4e4f-4d50-8655-4ca7749a5646"},"vehicle_type_id":"4","last_reported":1741712968,"current_range_meters":8400,"station_id":"ce4bhnh2rcd13ifvqgtg","pricing_plan_id":"cebpf4jnsgd1na2vs0mg"},{"bike_id":"d3162042-e91f-466b-bcb7-3402bb392173","system_id":"levelo_inurba_marseille","lat":43.33036,"lon":5.39056,"is_reserved":false,"is_disabled":false,"rental_uris":{"android":"levelo://app?vid=d3162042-e91f-466b-bcb7-3402bb392173","ios":"levelo://app?vid=d3162042-e91f-466b-bcb7-3402bb392173"},"vehicle_type_id":"4","last_reported":1741712968,"current_range_meters":8400,"station_id":"ce4bhr92rcd13ifvqhrg","pricing_plan_id":"cebpf4jnsgd1na2vs0mg"},{"bike_id":"80771939-f406-42f7-81c5-33180fd8a338","system_id":"levelo_inurba_marseille","lat":43.23195,"lon":5.35558,"is_reserved":false,"is_disabled":false,"rental_uris":{"android":"levelo://app?vid=80771939-f406-42f7-81c5-33180fd8a338","ios":"levelo://app?vid=80771939-f406-42f7-81c5-33180fd8a338"},"vehicle_type_id":"4","last_reported":1741712968,"current_range_meters":8400,"station_id":"ce4bhu92rcd13ifvqi70","pricing_plan_id":"cebpf4jnsgd1na2vs0mg"},{"bike_id":"b09d44a5-cea1-4a80-84fd-b3fbfaa93579","system_id":"levelo_inurba_marseille","lat":43.29586,"lon":5.37724,"is_reserved":false,"is_disabled":false,"rental_uris":{"android":"levelo://app?vid=b09d44a5-cea1-4a80-84fd-b3fbfaa93579","ios":"levelo://app?vid=b09d44a5-cea1-4a80-84fd-b3fbfaa93579"},"vehicle_type_id":"4","last_reported":1741712968,"current_range_meters":8800,"station_id":"ce4bgi92rcd13ifvqb90","pricing_plan_id":"cebpf4jnsgd1na2vs0mg"},{"bike_id":"c2888446-da1c-40b7-b9f6-8ca9536b3a55","system_id":"levelo_inurba_marseille","lat":43.29917,"lon":5.40092,"is_reserved":false,"is_disabled":false,"rental_uris":{"android":"levelo://app?vid=c2888446-da1c-40b7-b9f6-8ca9536b3a55","ios":"levelo://app?vid=c2888446-da1c-40b7-b9f6-8ca9536b3a55"},"vehicle_type_id":"4","last_reported":1741712968,"current_range_meters":8800,"station_id":"ce4bgk12rcd13ifvqbi0","pricing_plan_id":"cebpf4jnsgd1na2vs0mg"},{"bike_id":"76ccce98-afb2-4b3d-8011-197bb3238735","system_id":"levelo_inurba_marseille","lat":43.30889,"lon":5.37181,"is_reserved":false,"is_disabled":false,"rental_uris":{"android":"levelo://app?vid=76ccce98-afb2-4b3d-8011-197bb3238735","ios":"levelo://app?vid=76ccce98-afb2-4b3d-8011-197bb3238735"},"vehicle_type_id":"4","last_reported":1741712968,"current_range_meters":8800,"station_id":"ce4bguh2rcd13ifvqckg","pricing_plan_id":"cebpf4jnsgd1na2vs0mg"},{"bike_id":"4af0814d-42fd-4a73-ae9f-57b76f6e067f","system_id":"levelo_inurba_marseille","lat":43.29572,"lon":5.39984,"is_reserved":false,"is_disabled":false,"rental_uris":{"android":"levelo://app?vid=4af0814d-42fd-4a73-ae9f-57b76f6e067f","ios":"levelo://app?vid=4af0814d-42fd-4a73-ae9f-57b76f6e067f"},"vehicle_type_id":"4","last_reported":1741712968,"current_range_meters":8800,"station_id":"ce4bh312rcd13ifvqdj0","pricing_plan_id":"cebpf4jnsgd1na2vs0mg"},{"bike_id":"c6cf3ead-5eb3-44e7-90a9-224812efe439","system_id":"levelo_inurba_marseille","lat":43.27619,"lon":5.36104,"is_reserved":false,"is_disabled":false,"rental_uris":{"android":"levelo://app?vid=c6cf3ead-5eb3-44e7-90a9-224812efe439","ios":"levelo://app?vid=c6cf3ead-5eb3-44e7-90a9-224812efe439"},"vehicle_type_id":"4","last_reported":1741712968,"current_range_meters":9200,"station_id":"ce4bgj92rcd13ifvqbe0","pricing_plan_id":"cebpf4jnsgd1na2vs0mg"},{"bike_id":"0d9431e1-f868-427a-acb7-8ddd048ba317","system_id":"levelo_inurba_marseille","lat":43.2986,"lon":5.36267,"is_reserved":false,"is_disabled":false,"rental_uris":{"android":"levelo://app?vid=0d9431e1-f868-427a-acb7-8ddd048ba317","ios":"levelo://app?vid=0d9431e1-f868-427a-acb7-8ddd048ba317"},"vehicle_type_id":"4","last_reported":1741712968,"current_range_meters":9200,"station_id":"ce4bgpp2rcd13ifvqc3g","pricing_plan_id":"cebpf4jnsgd1na2vs0mg"},{"bike_id":"34f23ef9-242a-4686-8de2-4ba19c54ce50","system_id":"levelo_inurba_marseille","lat":43.279174,"lon":5.387887,"is_reserved":false,"is_disabled":false,"rental_uris":{"android":"levelo://app?vid=34f23ef9-242a-4686-8de2-4ba19c54ce50","ios":"levelo://app?vid=34f23ef9-242a-4686-8de2-4ba19c54ce50"},"vehicle_type_id":"4","last_reported":1741712968,"current_range_meters":9200,"station_id":"ce4bh2p2rcd13ifvqdi0","pricing_plan_id":"cebpf4jnsgd1na2vs0mg"},{"bike_id":"a4651500-0781-416a-b6f3-1ff032ec9869","system_id":"levelo_inurba_marseille","lat":43.2872,"lon":5.37392,"is_reserved":false,"is_disabled":false,"rental_uris":{"android":"levelo://app?vid=a4651500-0781-416a-b6f3-1ff032ec9869","ios":"levelo://app?vid=a4651500-0781-416a-b6f3-1ff032ec9869"},"vehicle_type_id":"4","last_reported":1741712968,"current_range_meters":9200,"station_id":"ce4bh3p2rcd13ifvqdq0","pricing_plan_id":"cebpf4jnsgd1na2vs0mg"},{"bike_id":"58d1b5b3-d322-4418-97d0-3066ec3d9afc","system_id":"levelo_inurba_marseille","lat":43.23202,"lon":5.35545,"is_reserved":false,"is_disabled":false,"rental_uris":{"android":"levelo://app?vid=58d1b5b3-d322-4418-97d0-3066ec3d9afc","ios":"levelo://app?vid=58d1b5b3-d322-4418-97d0-3066ec3d9afc"},"vehicle_type_id":"4","last_reported":1741712968,"current_range_meters":9200,"station_id":"ce4bhu92rcd13ifvqi70","pricing_plan_id":"cebpf4jnsgd1na2vs0mg"},{"bike_id":"c835eee2-01bf-4ff1-a164-4c90e0a065d9","system_id":"levelo_inurba_marseille","lat":43.24999,"lon":5.38941,"is_reserved":false,"is_disabled":false,"rental_uris":{"android":"levelo://app?vid=c835eee2-01bf-4ff1-a164-4c90e0a065d9","ios":"levelo://app?vid=c835eee2-01bf-4ff1-a164-4c90e0a065d9"},"vehicle_type_id":"4","last_reported":1741712968,"current_range_meters":9600,"station_id":"ce4bhgp2rcd13ifvqfd0","pricing_plan_id":"cebpf4jnsgd1na2vs0mg"},{"bike_id":"7ee72a39-c5c8-48c1-96e9-785dfe8903ed","system_id":"levelo_inurba_marseille","lat":43.2705,"lon":5.40251,"is_reserved":false,"is_disabled":false,"rental_uris":{"android":"levelo://app?vid=7ee72a39-c5c8-48c1-96e9-785dfe8903ed","ios":"levelo://app?vid=7ee72a39-c5c8-48c1-96e9-785dfe8903ed"},"vehicle_type_id":"4","last_reported":1741712968,"current_range_meters":9600,"station_id":"ce4bhk92rcd13ifvqgc0","pricing_plan_id":"cebpf4jnsgd1na2vs0mg"},{"bike_id":"bfe76b26-4cce-4a8d-8e2e-190cbae21f24","system_id":"levelo_inurba_marseille","lat":43.271961,"lon":5.409909,"is_reserved":false,"is_disabled":false,"rental_uris":{"android":"levelo://app?vid=bfe76b26-4cce-4a8d-8e2e-190cbae21f24","ios":"levelo://app?vid=bfe76b26-4cce-4a8d-8e2e-190cbae21f24"},"vehicle_type_id":"4","last_reported":1741712968,"current_range_meters":9600,"station_id":"ce4bhl12rcd13ifvqgf0","pricing_plan_id":"cebpf4jnsgd1na2vs0mg"},{"bike_id":"2b2b213a-823d-4eb7-868e-97146b595f37","system_id":"levelo_inurba_marseille","lat":43.24543,"lon":5.39525,"is_reserved":false,"is_disabled":false,"rental_uris":{"android":"levelo://app?vid=2b2b213a-823d-4eb7-868e-97146b595f37","ios":"levelo://app?vid=2b2b213a-823d-4eb7-868e-97146b595f37"},"vehicle_type_id":"4","last_reported":1741712968,"current_range_meters":9600,"station_id":"ce4bhlp2rcd13ifvqgjg","pricing_plan_id":"cebpf4jnsgd1na2vs0mg"},{"bike_id":"05388ace-665a-4114-a828-939b708a2589","system_id":"levelo_inurba_marseille","lat":43.23191,"lon":5.39973,"is_reserved":false,"is_disabled":false,"rental_uris":{"android":"levelo://app?vid=05388ace-665a-4114-a828-939b708a2589","ios":"levelo://app?vid=05388ace-665a-4114-a828-939b708a2589"},"vehicle_type_id":"4","last_reported":1741712968,"current_range_meters":9600,"station_id":"ce4bhn12rcd13ifvqgqg","pricing_plan_id":"cebpf4jnsgd1na2vs0mg"},{"bike_id":"8537c10c-b20b-40f8-8195-adb816d88a08","system_id":"levelo_inurba_marseille","lat":43.30418,"lon":5.41279,"is_reserved":false,"is_disabled":false,"rental_uris":{"android":"levelo://app?vid=8537c10c-b20b-40f8-8195-adb816d88a08","ios":"levelo://app?vid=8537c10c-b20b-40f8-8195-adb816d88a08"},"vehicle_type_id":"4","last_reported":1741712968,"current_range_meters":9600,"station_id":"ce4bhop2rcd13ifvqh8g","pricing_plan_id":"cebpf4jnsgd1na2vs0mg"},{"bike_id":"fb664ab6-4d54-40fb-bb56-47e549c2605f","system_id":"levelo_inurba_marseille","lat":43.33022,"lon":5.39034,"is_reserved":false,"is_disabled":false,"rental_uris":{"android":"levelo://app?vid=fb664ab6-4d54-40fb-bb56-47e549c2605f","ios":"levelo://app?vid=fb664ab6-4d54-40fb-bb56-47e549c2605f"},"vehicle_type_id":"4","last_reported":1741712968,"current_range_meters":9600,"station_id":"ce4bhr92rcd13ifvqhrg","pricing_plan_id":"cebpf4jnsgd1na2vs0mg"},{"bike_id":"f640465e-8c9e-425a-8e36-08d8d5201bf6","system_id":"levelo_inurba_marseille","lat":43.23192,"lon":5.35546,"is_reserved":false,"is_disabled":false,"rental_uris":{"android":"levelo://app?vid=f640465e-8c9e-425a-8e36-08d8d5201bf6","ios":"levelo://app?vid=f640465e-8c9e-425a-8e36-08d8d5201bf6"},"vehicle_type_id":"4","last_reported":1741712968,"current_range_meters":9600,"station_id":"ce4bhu92rcd13ifvqi70","pricing_plan_id":"cebpf4jnsgd1na2vs0mg"},{"bike_id":"8dee66dd-a753-4e90-9df0-a75f60b0d66f","system_id":"levelo_inurba_marseille","lat":43.28584,"lon":5.42468,"is_reserved":false,"is_disabled":false,"rental_uris":{"android":"levelo://app?vid=8dee66dd-a753-4e90-9df0-a75f60b0d66f","ios":"levelo://app?vid=8dee66dd-a753-4e90-9df0-a75f60b0d66f"},"vehicle_type_id":"4","last_reported":1741712968,"current_range_meters":10000,"station_id":"","pricing_plan_id":"cebpf4jnsgd1na2vs0mg"},{"bike_id":"c6825682-54ea-4db3-9437-5e9594505c22","system_id":"levelo_inurba_marseille","lat":43.304693,"lon":5.378986,"is_reserved":false,"is_disabled":false,"rental_uris":{"android":"levelo://app?vid=c6825682-54ea-4db3-9437-5e9594505c22","ios":"levelo://app?vid=c6825682-54ea-4db3-9437-5e9594505c22"},"vehicle_type_id":"4","last_reported":1741712968,"current_range_meters":10000,"station_id":"ce4bh0h2rcd13ifvqd50","pricing_plan_id":"cebpf4jnsgd1na2vs0mg"},{"bike_id":"6416bfba-7394-4e7b-acc5-e098541e1f9b","system_id":"levelo_inurba_marseille","lat":43.28573,"lon":5.39497,"is_reserved":false,"is_disabled":false,"rental_uris":{"android":"levelo://app?vid=6416bfba-7394-4e7b-acc5-e098541e1f9b","ios":"levelo://app?vid=6416bfba-7394-4e7b-acc5-e098541e1f9b"},"vehicle_type_id":"4","last_reported":1741712968,"current_range_meters":10000,"station_id":"ce4bh292rcd13ifvqdg0","pricing_plan_id":"cebpf4jnsgd1na2vs0mg"},{"bike_id":"bfd93df2-45fe-4718-83aa-cac65753def3","system_id":"levelo_inurba_marseille","lat":43.24068,"lon":5.37764,"is_reserved":false,"is_disabled":false,"rental_uris":{"android":"levelo://app?vid=bfd93df2-45fe-4718-83aa-cac65753def3","ios":"levelo://app?vid=bfd93df2-45fe-4718-83aa-cac65753def3"},"vehicle_type_id":"4","last_reported":1741712968,"current_range_meters":10000,"station_id":"ce4bhnp2rcd13ifvqgvg","pricing_plan_id":"cebpf4jnsgd1na2vs0mg"},{"bike_id":"376979bc-c6bb-427e-a521-4d90c0780f55","system_id":"levelo_inurba_marseille","lat":43.30901,"lon":5.36831,"is_reserved":false,"is_disabled":false,"rental_uris":{"android":"levelo://app?vid=376979bc-c6bb-427e-a521-4d90c0780f55","ios":"levelo://app?vid=376979bc-c6bb-427e-a521-4d90c0780f55"},"vehicle_type_id":"4","last_reported":1741712968,"current_range_meters":10800,"station_id":"ce4bgn92rcd13ifvqbvg","pricing_plan_id":"cebpf4jnsgd1na2vs0mg"},{"bike_id":"fb629ba8-b376-4f9a-a280-fa2aa29efcd1","system_id":"levelo_inurba_marseille","lat":43.29847,"lon":5.36284,"is_reserved":false,"is_disabled":false,"rental_uris":{"android":"levelo://app?vid=fb629ba8-b376-4f9a-a280-fa2aa29efcd1","ios":"levelo://app?vid=fb629ba8-b376-4f9a-a280-fa2aa29efcd1"},"vehicle_type_id":"4","last_reported":1741712968,"current_range_meters":10800,"station_id":"ce4bgpp2rcd13ifvqc3g","pricing_plan_id":"cebpf4jnsgd1na2vs0mg"},{"bike_id":"60ee13cf-44a1-4e0e-9eb6-02f69d58169e","system_id":"levelo_inurba_marseille","lat":43.31377,"lon":5.38486,"is_reserved":false,"is_disabled":false,"rental_uris":{"android":"levelo://app?vid=60ee13cf-44a1-4e0e-9eb6-02f69d58169e","ios":"levelo://app?vid=60ee13cf-44a1-4e0e-9eb6-02f69d58169e"},"vehicle_type_id":"4","last_reported":1741712968,"current_range_meters":10800,"station_id":"ce4bgt92rcd13ifvqcf0","pricing_plan_id":"cebpf4jnsgd1na2vs0mg"},{"bike_id":"b3f874aa-63dc-4e8e-975b-3f9672352b6e","system_id":"levelo_inurba_marseille","lat":43.28483,"lon":5.38423,"is_reserved":false,"is_disabled":false,"rental_uris":{"android":"levelo://app?vid=b3f874aa-63dc-4e8e-975b-3f9672352b6e","ios":"levelo://app?vid=b3f874aa-63dc-4e8e-975b-3f9672352b6e"},"vehicle_type_id":"4","last_reported":1741712968,"current_range_meters":10800,"station_id":"ce4bh512rcd13ifvqe3g","pricing_plan_id":"cebpf4jnsgd1na2vs0mg"},{"bike_id":"9acab34d-76c9-4fd5-bed6-0265a89df8bb","system_id":"levelo_inurba_marseille","lat":43.25687,"lon":5.41112,"is_reserved":false,"is_disabled":false,"rental_uris":{"android":"levelo://app?vid=9acab34d-76c9-4fd5-bed6-0265a89df8bb","ios":"levelo://app?vid=9acab34d-76c9-4fd5-bed6-0265a89df8bb"},"vehicle_type_id":"4","last_reported":1741712968,"current_range_meters":10800,"station_id":"ce4bhkp2rcd13ifvqgd0","pricing_plan_id":"cebpf4jnsgd1na2vs0mg"},{"bike_id":"8b247aa2-93c4-4945-a3c3-e200b81b95a3","system_id":"levelo_inurba_marseille","lat":43.32357,"lon":5.38892,"is_reserved":false,"is_disabled":false,"rental_uris":{"android":"levelo://app?vid=8b247aa2-93c4-4945-a3c3-e200b81b95a3","ios":"levelo://app?vid=8b247aa2-93c4-4945-a3c3-e200b81b95a3"},"vehicle_type_id":"4","last_reported":1741712968,"current_range_meters":10800,"station_id":"ce4bhqp2rcd13ifvqhog","pricing_plan_id":"cebpf4jnsgd1na2vs0mg"},{"bike_id":"415e7a31-245d-4ead-9f33-dad092a04302","system_id":"levelo_inurba_marseille","lat":43.230633,"lon":5.354881,"is_reserved":false,"is_disabled":false,"rental_uris":{"android":"levelo://app?vid=415e7a31-245d-4ead-9f33-dad092a04302","ios":"levelo://app?vid=415e7a31-245d-4ead-9f33-dad092a04302"},"vehicle_type_id":"4","last_reported":1741712968,"current_range_meters":10800,"station_id":"cpo3342slgdg3j2ifvpg","pricing_plan_id":"cebpf4jnsgd1na2vs0mg"},{"bike_id":"3de9f090-d450-47a6-a916-1b3395a63820","system_id":"levelo_inurba_marseille","lat":43.30434,"lon":5.38884,"is_reserved":false,"is_disabled":false,"rental_uris":{"android":"levelo://app?vid=3de9f090-d450-47a6-a916-1b3395a63820","ios":"levelo://app?vid=3de9f090-d450-47a6-a916-1b3395a63820"},"vehicle_type_id":"4","last_reported":1741712968,"current_range_meters":11200,"station_id":"ce4bgk12rcd13ifvqbi0","pricing_plan_id":"cebpf4jnsgd1na2vs0mg"},{"bike_id":"005e800d-dbd2-4ced-a8e7-775c9763515b","system_id":"levelo_inurba_marseille","lat":43.29973,"lon":5.37171,"is_reserved":false,"is_disabled":false,"rental_uris":{"android":"levelo://app?vid=005e800d-dbd2-4ced-a8e7-775c9763515b","ios":"levelo://app?vid=005e800d-dbd2-4ced-a8e7-775c9763515b"},"vehicle_type_id":"4","last_reported":1741712968,"current_range_meters":11200,"station_id":"ce4bgr92rcd13ifvqc7g","pricing_plan_id":"cebpf4jnsgd1na2vs0mg"},{"bike_id":"108bc92e-2c57-47aa-90ae-9ee1a39e90d4","system_id":"levelo_inurba_marseille","lat":43.29034,"lon":5.38653,"is_reserved":false,"is_disabled":false,"rental_uris":{"android":"levelo://app?vid=108bc92e-2c57-47aa-90ae-9ee1a39e90d4","ios":"levelo://app?vid=108bc92e-2c57-47aa-90ae-9ee1a39e90d4"},"vehicle_type_id":"4","last_reported":1741712968,"current_range_meters":11200,"station_id":"ce4bh4p2rcd13ifvqe0g","pricing_plan_id":"cebpf4jnsgd1na2vs0mg"},{"bike_id":"be14a852-0d3b-45e4-a2dc-9372273e7ec0","system_id":"levelo_inurba_marseille","lat":43.292623,"lon":5.384433,"is_reserved":false,"is_disabled":false,"rental_uris":{"android":"levelo://app?vid=be14a852-0d3b-45e4-a2dc-9372273e7ec0","ios":"levelo://app?vid=be14a852-0d3b-45e4-a2dc-9372273e7ec0"},"vehicle_type_id":"4","last_reported":1741712968,"current_range_meters":11200,"station_id":"ce4bh692rcd13ifvqea0","pricing_plan_id":"cebpf4jnsgd1na2vs0mg"},{"bike_id":"3a5f45b2-9e5f-4b8c-acda-a10ea5dadf24","system_id":"levelo_inurba_marseille","lat":43.27978,"lon":5.41644,"is_reserved":false,"is_disabled":false,"rental_uris":{"android":"levelo://app?vid=3a5f45b2-9e5f-4b8c-acda-a10ea5dadf24","ios":"levelo://app?vid=3a5f45b2-9e5f-4b8c-acda-a10ea5dadf24"},"vehicle_type_id":"4","last_reported":1741712968,"current_range_meters":11200,"station_id":"ce4bho12rcd13ifvqh1g","pricing_plan_id":"cebpf4jnsgd1na2vs0mg"},{"bike_id":"28c4d59e-e5ea-4620-a059-b9d5882a5e9f","system_id":"levelo_inurba_marseille","lat":43.24167,"lon":5.36391,"is_reserved":false,"is_disabled":false,"rental_uris":{"android":"levelo://app?vid=28c4d59e-e5ea-4620-a059-b9d5882a5e9f","ios":"levelo://app?vid=28c4d59e-e5ea-4620-a059-b9d5882a5e9f"},"vehicle_type_id":"4","last_reported":1741712968,"current_range_meters":11200,"station_id":"cpo36qri1sfpv3e86is0","pricing_plan_id":"cebpf4jnsgd1na2vs0mg"},{"bike_id":"9591e588-120f-48ec-87de-b3aa89fd0f61","system_id":"levelo_inurba_marseille","lat":43.296237,"lon":5.377269,"is_reserved":false,"is_disabled":false,"rental_uris":{"android":"levelo://app?vid=9591e588-120f-48ec-87de-b3aa89fd0f61","ios":"levelo://app?vid=9591e588-120f-48ec-87de-b3aa89fd0f61"},"vehicle_type_id":"4","last_reported":1741712968,"current_range_meters":11600,"station_id":"ce4bgj92rcd13ifvqbd0","pricing_plan_id":"cebpf4jnsgd1na2vs0mg"},{"bike_id":"c11a2c9a-450f-44c3-b178-bda9fb6726be","system_id":"levelo_inurba_marseille","lat":43.2885,"lon":5.39298,"is_reserved":false,"is_disabled":false,"rental_uris":{"android":"levelo://app?vid=c11a2c9a-450f-44c3-b178-bda9fb6726be","ios":"levelo://app?vid=c11a2c9a-450f-44c3-b178-bda9fb6726be"},"vehicle_type_id":"4","last_reported":1741712968,"current_range_meters":11600,"station_id":"ce4bh2p2rcd13ifvqdi0","pricing_plan_id":"cebpf4jnsgd1na2vs0mg"},{"bike_id":"099e8848-e71d-421b-ac58-442cdee5bd07","system_id":"levelo_inurba_marseille","lat":43.28709,"lon":5.37389,"is_reserved":false,"is_disabled":false,"rental_uris":{"android":"levelo://app?vid=099e8848-e71d-421b-ac58-442cdee5bd07","ios":"levelo://app?vid=099e8848-e71d-421b-ac58-442cdee5bd07"},"vehicle_type_id":"4","last_reported":1741712968,"current_range_meters":11600,"station_id":"ce4bh3p2rcd13ifvqdq0","pricing_plan_id":"cebpf4jnsgd1na2vs0mg"},{"bike_id":"d05f76f0-b258-46f3-9be5-ba2518660a0c","system_id":"levelo_inurba_marseille","lat":43.28481,"lon":5.38423,"is_reserved":false,"is_disabled":false,"rental_uris":{"android":"levelo://app?vid=d05f76f0-b258-46f3-9be5-ba2518660a0c","ios":"levelo://app?vid=d05f76f0-b258-46f3-9be5-ba2518660a0c"},"vehicle_type_id":"4","last_reported":1741712968,"current_range_meters":11600,"station_id":"ce4bh512rcd13ifvqe3g","pricing_plan_id":"cebpf4jnsgd1na2vs0mg"},{"bike_id":"20c1e358-1c7f-4912-9588-5a74dcb84090","system_id":"levelo_inurba_marseille","lat":43.25024,"lon":5.38933,"is_reserved":false,"is_disabled":false,"rental_uris":{"android":"levelo://app?vid=20c1e358-1c7f-4912-9588-5a74dcb84090","ios":"levelo://app?vid=20c1e358-1c7f-4912-9588-5a74dcb84090"},"vehicle_type_id":"4","last_reported":1741712968,"current_range_meters":11600,"station_id":"ce4bhgp2rcd13ifvqfd0","pricing_plan_id":"cebpf4jnsgd1na2vs0mg"},{"bike_id":"2931d81f-abb3-45b8-9224-dc3fce2fae31","system_id":"levelo_inurba_marseille","lat":43.32383,"lon":5.36716,"is_reserved":false,"is_disabled":false,"rental_uris":{"android":"levelo://app?vid=2931d81f-abb3-45b8-9224-dc3fce2fae31","ios":"levelo://app?vid=2931d81f-abb3-45b8-9224-dc3fce2fae31"},"vehicle_type_id":"4","last_reported":1741712968,"current_range_meters":11600,"station_id":"ce4bhsh2rcd13ifvqi2g","pricing_plan_id":"cebpf4jnsgd1na2vs0mg"},{"bike_id":"fbf84a88-6512-4aea-9845-46fa2369eb7b","system_id":"levelo_inurba_marseille","lat":43.27974,"lon":5.38625,"is_reserved":false,"is_disabled":false,"rental_uris":{"android":"levelo://app?vid=fbf84a88-6512-4aea-9845-46fa2369eb7b","ios":"levelo://app?vid=fbf84a88-6512-4aea-9845-46fa2369eb7b"},"vehicle_type_id":"4","last_reported":1741712968,"current_range_meters":12000,"station_id":"","pricing_plan_id":"cebpf4jnsgd1na2vs0mg"},{"bike_id":"d606a2c6-2e20-4aaf-9b4d-eb9df41334e1","system_id":"levelo_inurba_marseille","lat":43.3112,"lon":5.37772,"is_reserved":false,"is_disabled":false,"rental_uris":{"android":"levelo://app?vid=d606a2c6-2e20-4aaf-9b4d-eb9df41334e1","ios":"levelo://app?vid=d606a2c6-2e20-4aaf-9b4d-eb9df41334e1"},"vehicle_type_id":"4","last_reported":1741712968,"current_range_meters":12000,"station_id":"ce4bgt92rcd13ifvqcg0","pricing_plan_id":"cebpf4jnsgd1na2vs0mg"},{"bike_id":"191eb5a3-d10f-4928-a383-911714d2c850","system_id":"levelo_inurba_marseille","lat":43.28713,"lon":5.3741,"is_reserved":false,"is_disabled":false,"rental_uris":{"android":"levelo://app?vid=191eb5a3-d10f-4928-a383-911714d2c850","ios":"levelo://app?vid=191eb5a3-d10f-4928-a383-911714d2c850"},"vehicle_type_id":"4","last_reported":1741712968,"current_range_meters":12000,"station_id":"ce4bh3p2rcd13ifvqdq0","pricing_plan_id":"cebpf4jnsgd1na2vs0mg"},{"bike_id":"29a2eadf-a51e-4030-aaa6-2edfad4c2148","system_id":"levelo_inurba_marseille","lat":43.28454,"lon":5.35894,"is_reserved":false,"is_disabled":false,"rental_uris":{"android":"levelo://app?vid=29a2eadf-a51e-4030-aaa6-2edfad4c2148","ios":"levelo://app?vid=29a2eadf-a51e-4030-aaa6-2edfad4c2148"},"vehicle_type_id":"4","last_reported":1741712968,"current_range_meters":12000,"station_id":"ce4bhah2rcd13ifvqei0","pricing_plan_id":"cebpf4jnsgd1na2vs0mg"},{"bike_id":"4cce856f-8450-4187-bdbb-5105bd596b02","system_id":"levelo_inurba_marseille","lat":43.28616,"lon":5.3511,"is_reserved":false,"is_disabled":false,"rental_uris":{"android":"levelo://app?vid=4cce856f-8450-4187-bdbb-5105bd596b02","ios":"levelo://app?vid=4cce856f-8450-4187-bdbb-5105bd596b02"},"vehicle_type_id":"4","last_reported":1741712968,"current_range_meters":12000,"station_id":"ce4bhch2rcd13ifvqeug","pricing_plan_id":"cebpf4jnsgd1na2vs0mg"},{"bike_id":"dce68e2f-287d-420a-8336-6ffcbb38d6cc","system_id":"levelo_inurba_marseille","lat":43.33002,"lon":5.39029,"is_reserved":false,"is_disabled":false,"rental_uris":{"android":"levelo://app?vid=dce68e2f-287d-420a-8336-6ffcbb38d6cc","ios":"levelo://app?vid=dce68e2f-287d-420a-8336-6ffcbb38d6cc"},"vehicle_type_id":"4","last_reported":1741712968,"current_range_meters":12000,"station_id":"ce4bhr92rcd13ifvqhrg","pricing_plan_id":"cebpf4jnsgd1na2vs0mg"},{"bike_id":"fcfc2dce-0310-405b-b075-52e41fd2e90c","system_id":"levelo_inurba_marseille","lat":43.29718,"lon":5.37685,"is_reserved":false,"is_disabled":false,"rental_uris":{"android":"levelo://app?vid=fcfc2dce-0310-405b-b075-52e41fd2e90c","ios":"levelo://app?vid=fcfc2dce-0310-405b-b075-52e41fd2e90c"},"vehicle_type_id":"4","last_reported":1741712968,"current_range_meters":12400,"station_id":"ce4bgkh2rcd13ifvqbl0","pricing_plan_id":"cebpf4jnsgd1na2vs0mg"},{"bike_id":"4ad7de35-7143-4ca9-8c39-edb28747be6b","system_id":"levelo_inurba_marseille","lat":43.29015,"lon":5.38131,"is_reserved":false,"is_disabled":false,"rental_uris":{"android":"levelo://app?vid=4ad7de35-7143-4ca9-8c39-edb28747be6b","ios":"levelo://app?vid=4ad7de35-7143-4ca9-8c39-edb28747be6b"},"vehicle_type_id":"4","last_reported":1741712968,"current_range_meters":12400,"station_id":"ce4bh4p2rcd13ifvqe1g","pricing_plan_id":"cebpf4jnsgd1na2vs0mg"},{"bike_id":"0117055b-abaa-4782-a83e-c23d24cb8a2e","system_id":"levelo_inurba_marseille","lat":43.2465,"lon":5.38895,"is_reserved":false,"is_disabled":false,"rental_uris":{"android":"levelo://app?vid=0117055b-abaa-4782-a83e-c23d24cb8a2e","ios":"levelo://app?vid=0117055b-abaa-4782-a83e-c23d24cb8a2e"},"vehicle_type_id":"4","last_reported":1741712968,"current_range_meters":12400,"station_id":"ce4bhg12rcd13ifvqf60","pricing_plan_id":"cebpf4jnsgd1na2vs0mg"},{"bike_id":"bc37931e-6cb1-4309-b727-49bc8606128d","system_id":"levelo_inurba_marseille","lat":43.25578,"lon":5.38227,"is_reserved":false,"is_disabled":false,"rental_uris":{"android":"levelo://app?vid=bc37931e-6cb1-4309-b727-49bc8606128d","ios":"levelo://app?vid=bc37931e-6cb1-4309-b727-49bc8606128d"},"vehicle_type_id":"4","last_reported":1741712968,"current_range_meters":12400,"station_id":"ce4bhih2rcd13ifvqfs0","pricing_plan_id":"cebpf4jnsgd1na2vs0mg"},{"bike_id":"9776d519-3376-4f51-aaa3-2da63911d7cc","system_id":"levelo_inurba_marseille","lat":43.25091,"lon":5.39506,"is_reserved":false,"is_disabled":false,"rental_uris":{"android":"levelo://app?vid=9776d519-3376-4f51-aaa3-2da63911d7cc","ios":"levelo://app?vid=9776d519-3376-4f51-aaa3-2da63911d7cc"},"vehicle_type_id":"4","last_reported":1741712968,"current_range_meters":12400,"station_id":"ce4bhm12rcd13ifvqgkg","pricing_plan_id":"cebpf4jnsgd1na2vs0mg"},{"bike_id":"a5490b0d-6778-4c0c-960c-3aa0b15c8435","system_id":"levelo_inurba_marseille","lat":43.31093,"lon":5.37847,"is_reserved":false,"is_disabled":false,"rental_uris":{"android":"levelo://app?vid=a5490b0d-6778-4c0c-960c-3aa0b15c8435","ios":"levelo://app?vid=a5490b0d-6778-4c0c-960c-3aa0b15c8435"},"vehicle_type_id":"4","last_reported":1741712968,"current_range_meters":12800,"station_id":"","pricing_plan_id":"cebpf4jnsgd1na2vs0mg"},{"bike_id":"f28e1f6d-afb9-4246-ab30-0dcef5670a6c","system_id":"levelo_inurba_marseille","lat":43.29708,"lon":5.3661,"is_reserved":false,"is_disabled":false,"rental_uris":{"android":"levelo://app?vid=f28e1f6d-afb9-4246-ab30-0dcef5670a6c","ios":"levelo://app?vid=f28e1f6d-afb9-4246-ab30-0dcef5670a6c"},"vehicle_type_id":"4","last_reported":1741712968,"current_range_meters":12800,"station_id":"ce4bgn12rcd13ifvqbt0","pricing_plan_id":"cebpf4jnsgd1na2vs0mg"},{"bike_id":"a3e991cd-2936-493d-9fcb-48f77e04aeb1","system_id":"levelo_inurba_marseille","lat":43.30523,"lon":5.36533,"is_reserved":false,"is_disabled":false,"rental_uris":{"android":"levelo://app?vid=a3e991cd-2936-493d-9fcb-48f77e04aeb1","ios":"levelo://app?vid=a3e991cd-2936-493d-9fcb-48f77e04aeb1"},"vehicle_type_id":"4","last_reported":1741712968,"current_range_meters":12800,"station_id":"ce4bgs12rcd13ifvqcag","pricing_plan_id":"cebpf4jnsgd1na2vs0mg"},{"bike_id":"511a478b-16c6-4549-a89d-177a4b1ec633","system_id":"levelo_inurba_marseille","lat":43.265564,"lon":5.372875,"is_reserved":false,"is_disabled":false,"rental_uris":{"android":"levelo://app?vid=511a478b-16c6-4549-a89d-177a4b1ec633","ios":"levelo://app?vid=511a478b-16c6-4549-a89d-177a4b1ec633"},"vehicle_type_id":"4","last_reported":1741712968,"current_range_meters":12800,"station_id":"ce4bhg12rcd13ifvqf70","pricing_plan_id":"cebpf4jnsgd1na2vs0mg"},{"bike_id":"c1fdf776-5ff6-4f38-96ad-d3bee4a7cebb","system_id":"levelo_inurba_marseille","lat":43.23143,"lon":5.437,"is_reserved":false,"is_disabled":false,"rental_uris":{"android":"levelo://app?vid=c1fdf776-5ff6-4f38-96ad-d3bee4a7cebb","ios":"levelo://app?vid=c1fdf776-5ff6-4f38-96ad-d3bee4a7cebb"},"vehicle_type_id":"4","last_reported":1741712968,"current_range_meters":12800,"station_id":"ce4bhmp2rcd13ifvqgog","pricing_plan_id":"cebpf4jnsgd1na2vs0mg"},{"bike_id":"fd92b730-09c3-460a-a0ef-ad06c08a5b15","system_id":"levelo_inurba_marseille","lat":43.31221,"lon":5.36844,"is_reserved":false,"is_disabled":false,"rental_uris":{"android":"levelo://app?vid=fd92b730-09c3-460a-a0ef-ad06c08a5b15","ios":"levelo://app?vid=fd92b730-09c3-460a-a0ef-ad06c08a5b15"},"vehicle_type_id":"4","last_reported":1741712968,"current_range_meters":13600,"station_id":"ce4bgl92rcd13ifvqbq0","pricing_plan_id":"cebpf4jnsgd1na2vs0mg"},{"bike_id":"dc61adc8-72cd-4a6c-a492-53871226d21d","system_id":"levelo_inurba_marseille","lat":43.3025,"lon":5.40078,"is_reserved":false,"is_disabled":false,"rental_uris":{"android":"levelo://app?vid=dc61adc8-72cd-4a6c-a492-53871226d21d","ios":"levelo://app?vid=dc61adc8-72cd-4a6c-a492-53871226d21d"},"vehicle_type_id":"4","last_reported":1741712968,"current_range_meters":13600,"station_id":"ce4bgvh2rcd13ifvqcs0","pricing_plan_id":"cebpf4jnsgd1na2vs0mg"},{"bike_id":"1db51981-97cb-4524-901f-28266a6ea665","system_id":"levelo_inurba_marseille","lat":43.2509,"lon":5.39526,"is_reserved":false,"is_disabled":false,"rental_uris":{"android":"levelo://app?vid=1db51981-97cb-4524-901f-28266a6ea665","ios":"levelo://app?vid=1db51981-97cb-4524-901f-28266a6ea665"},"vehicle_type_id":"4","last_reported":1741712968,"current_range_meters":13600,"station_id":"ce4bhm12rcd13ifvqgkg","pricing_plan_id":"cebpf4jnsgd1na2vs0mg"},{"bike_id":"fe07787b-14aa-4204-ad44-05c45efe2a6b","system_id":"levelo_inurba_marseille","lat":43.28356,"lon":5.38079,"is_reserved":false,"is_disabled":false,"rental_uris":{"android":"levelo://app?vid=fe07787b-14aa-4204-ad44-05c45efe2a6b","ios":"levelo://app?vid=fe07787b-14aa-4204-ad44-05c45efe2a6b"},"vehicle_type_id":"4","last_reported":1741712968,"current_range_meters":14000,"station_id":"ce4bh412rcd13ifvqdr0","pricing_plan_id":"cebpf4jnsgd1na2vs0mg"},{"bike_id":"d34c486a-1f4c-4633-aedb-8d2096ade05a","system_id":"levelo_inurba_marseille","lat":43.320363,"lon":5.415436,"is_reserved":false,"is_disabled":false,"rental_uris":{"android":"levelo://app?vid=d34c486a-1f4c-4633-aedb-8d2096ade05a","ios":"levelo://app?vid=d34c486a-1f4c-4633-aedb-8d2096ade05a"},"vehicle_type_id":"4","last_reported":1741712968,"current_range_meters":14000,"station_id":"ce4bhph2rcd13ifvqheg","pricing_plan_id":"cebpf4jnsgd1na2vs0mg"},{"bike_id":"bf95f8cf-cd2a-485b-a0bf-6faeb32e0ad7","system_id":"levelo_inurba_marseille","lat":43.29571,"lon":5.39966,"is_reserved":false,"is_disabled":false,"rental_uris":{"android":"levelo://app?vid=bf95f8cf-cd2a-485b-a0bf-6faeb32e0ad7","ios":"levelo://app?vid=bf95f8cf-cd2a-485b-a0bf-6faeb32e0ad7"},"vehicle_type_id":"4","last_reported":1741712968,"current_range_meters":14400,"station_id":"ce4bh312rcd13ifvqdj0","pricing_plan_id":"cebpf4jnsgd1na2vs0mg"},{"bike_id":"d4031ff3-7df8-4153-b5c5-c6dcddcb0625","system_id":"levelo_inurba_marseille","lat":43.24551,"lon":5.39528,"is_reserved":false,"is_disabled":false,"rental_uris":{"android":"levelo://app?vid=d4031ff3-7df8-4153-b5c5-c6dcddcb0625","ios":"levelo://app?vid=d4031ff3-7df8-4153-b5c5-c6dcddcb0625"},"vehicle_type_id":"4","last_reported":1741712968,"current_range_meters":14400,"station_id":"ce4bhlp2rcd13ifvqgjg","pricing_plan_id":"cebpf4jnsgd1na2vs0mg"},{"bike_id":"f829a819-671e-4b71-9c22-56c5f8047725","system_id":"levelo_inurba_marseille","lat":43.32359,"lon":5.36765,"is_reserved":false,"is_disabled":false,"rental_uris":{"android":"levelo://app?vid=f829a819-671e-4b71-9c22-56c5f8047725","ios":"levelo://app?vid=f829a819-671e-4b71-9c22-56c5f8047725"},"vehicle_type_id":"4","last_reported":1741712968,"current_range_meters":14400,"station_id":"ce4bhsh2rcd13ifvqi2g","pricing_plan_id":"cebpf4jnsgd1na2vs0mg"},{"bike_id":"03fcef79-f017-4d15-a10d-891c5cd96db2","system_id":"levelo_inurba_marseille","lat":43.23058,"lon":5.3549,"is_reserved":false,"is_disabled":false,"rental_uris":{"android":"levelo://app?vid=03fcef79-f017-4d15-a10d-891c5cd96db2","ios":"levelo://app?vid=03fcef79-f017-4d15-a10d-891c5cd96db2"},"vehicle_type_id":"4","last_reported":1741712968,"current_range_meters":14400,"station_id":"cpo3342slgdg3j2ifvpg","pricing_plan_id":"cebpf4jnsgd1na2vs0mg"},{"bike_id":"28ddcdf4-024a-4f42-80ff-fb3bac3f5f61","system_id":"levelo_inurba_marseille","lat":43.24165,"lon":5.36408,"is_reserved":false,"is_disabled":false,"rental_uris":{"android":"levelo://app?vid=28ddcdf4-024a-4f42-80ff-fb3bac3f5f61","ios":"levelo://app?vid=28ddcdf4-024a-4f42-80ff-fb3bac3f5f61"},"vehicle_type_id":"4","last_reported":1741712968,"current_range_meters":14400,"station_id":"cpo36qri1sfpv3e86is0","pricing_plan_id":"cebpf4jnsgd1na2vs0mg"},{"bike_id":"9294a26b-c088-4208-917f-c73e3c4f5f46","system_id":"levelo_inurba_marseille","lat":43.30385,"lon":5.40774,"is_reserved":false,"is_disabled":false,"rental_uris":{"android":"levelo://app?vid=9294a26b-c088-4208-917f-c73e3c4f5f46","ios":"levelo://app?vid=9294a26b-c088-4208-917f-c73e3c4f5f46"},"vehicle_type_id":"4","last_reported":1741712968,"current_range_meters":14800,"station_id":"","pricing_plan_id":"cebpf4jnsgd1na2vs0mg"},{"bike_id":"3753ee0e-46a3-4798-96cb-d776ee46704a","system_id":"levelo_inurba_marseille","lat":43.29302,"lon":5.37158,"is_reserved":false,"is_disabled":false,"rental_uris":{"android":"levelo://app?vid=3753ee0e-46a3-4798-96cb-d776ee46704a","ios":"levelo://app?vid=3753ee0e-46a3-4798-96cb-d776ee46704a"},"vehicle_type_id":"4","last_reported":1741712968,"current_range_meters":14800,"station_id":"ce4bgh92rcd13ifvqb40","pricing_plan_id":"cebpf4jnsgd1na2vs0mg"},{"bike_id":"cbdc3752-9ea0-4f0e-9380-0c3e88d233d8","system_id":"levelo_inurba_marseille","lat":43.30778,"lon":5.37657,"is_reserved":false,"is_disabled":false,"rental_uris":{"android":"levelo://app?vid=cbdc3752-9ea0-4f0e-9380-0c3e88d233d8","ios":"levelo://app?vid=cbdc3752-9ea0-4f0e-9380-0c3e88d233d8"},"vehicle_type_id":"4","last_reported":1741712968,"current_range_meters":14800,"station_id":"ce4bgt12rcd13ifvqcd0","pricing_plan_id":"cebpf4jnsgd1na2vs0mg"},{"bike_id":"92574190-5672-42af-956f-546c757a93c5","system_id":"levelo_inurba_marseille","lat":43.29202,"lon":5.39333,"is_reserved":false,"is_disabled":false,"rental_uris":{"android":"levelo://app?vid=92574190-5672-42af-956f-546c757a93c5","ios":"levelo://app?vid=92574190-5672-42af-956f-546c757a93c5"},"vehicle_type_id":"4","last_reported":1741712968,"current_range_meters":14800,"station_id":"ce4bh192rcd13ifvqdd0","pricing_plan_id":"cebpf4jnsgd1na2vs0mg"},{"bike_id":"df77c8d6-510e-420f-8071-51af5eddb9b5","system_id":"levelo_inurba_marseille","lat":43.27035,"lon":5.3933,"is_reserved":false,"is_disabled":false,"rental_uris":{"android":"levelo://app?vid=df77c8d6-510e-420f-8071-51af5eddb9b5","ios":"levelo://app?vid=df77c8d6-510e-420f-8071-51af5eddb9b5"},"vehicle_type_id":"4","last_reported":1741712968,"current_range_meters":14800,"station_id":"ce4bhlh2rcd13ifvqgig","pricing_plan_id":"cebpf4jnsgd1na2vs0mg"},{"bike_id":"8bca6b52-28c0-4932-8ec1-82b13d2e0c6d","system_id":"levelo_inurba_marseille","lat":43.29265,"lon":5.37617,"is_reserved":false,"is_disabled":false,"rental_uris":{"android":"levelo://app?vid=8bca6b52-28c0-4932-8ec1-82b13d2e0c6d","ios":"levelo://app?vid=8bca6b52-28c0-4932-8ec1-82b13d2e0c6d"},"vehicle_type_id":"4","last_reported":1741712968,"current_range_meters":15200,"station_id":"ce4bgi12rcd13ifvqb80","pricing_plan_id":"cebpf4jnsgd1na2vs0mg"},{"bike_id":"8679fefc-1bde-44f4-9f91-6230b417411b","system_id":"levelo_inurba_marseille","lat":43.31119,"lon":5.37771,"is_reserved":false,"is_disabled":false,"rental_uris":{"android":"levelo://app?vid=8679fefc-1bde-44f4-9f91-6230b417411b","ios":"levelo://app?vid=8679fefc-1bde-44f4-9f91-6230b417411b"},"vehicle_type_id":"4","last_reported":1741712968,"current_range_meters":15200,"station_id":"ce4bgt92rcd13ifvqcg0","pricing_plan_id":"cebpf4jnsgd1na2vs0mg"},{"bike_id":"e43965ac-e7ae-4bd5-83eb-e739780c4a0c","system_id":"levelo_inurba_marseille","lat":43.29871,"lon":5.39731,"is_reserved":false,"is_disabled":false,"rental_uris":{"android":"levelo://app?vid=e43965ac-e7ae-4bd5-83eb-e739780c4a0c","ios":"levelo://app?vid=e43965ac-e7ae-4bd5-83eb-e739780c4a0c"},"vehicle_type_id":"4","last_reported":1741712968,"current_range_meters":15200,"station_id":"ce4bh0h2rcd13ifvqd50","pricing_plan_id":"cebpf4jnsgd1na2vs0mg"},{"bike_id":"be04fb7b-49e7-491b-ab49-5893cbae4799","system_id":"levelo_inurba_marseille","lat":43.24993,"lon":5.38908,"is_reserved":false,"is_disabled":false,"rental_uris":{"android":"levelo://app?vid=be04fb7b-49e7-491b-ab49-5893cbae4799","ios":"levelo://app?vid=be04fb7b-49e7-491b-ab49-5893cbae4799"},"vehicle_type_id":"4","last_reported":1741712968,"current_range_meters":15200,"station_id":"ce4bhgp2rcd13ifvqfd0","pricing_plan_id":"cebpf4jnsgd1na2vs0mg"},{"bike_id":"0eecd69f-4814-4099-9308-41706ca678d7","system_id":"levelo_inurba_marseille","lat":43.29919,"lon":5.36541,"is_reserved":false,"is_disabled":false,"rental_uris":{"android":"levelo://app?vid=0eecd69f-4814-4099-9308-41706ca678d7","ios":"levelo://app?vid=0eecd69f-4814-4099-9308-41706ca678d7"},"vehicle_type_id":"4","last_reported":1741712968,"current_range_meters":16000,"station_id":"ce4bgm92rcd13ifvqbr0","pricing_plan_id":"cebpf4jnsgd1na2vs0mg"},{"bike_id":"d8ac63e4-6939-4904-882e-91e45d80df85","system_id":"levelo_inurba_marseille","lat":43.31363,"lon":5.38474,"is_reserved":false,"is_disabled":false,"rental_uris":{"android":"levelo://app?vid=d8ac63e4-6939-4904-882e-91e45d80df85","ios":"levelo://app?vid=d8ac63e4-6939-4904-882e-91e45d80df85"},"vehicle_type_id":"4","last_reported":1741712968,"current_range_meters":16000,"station_id":"ce4bgt92rcd13ifvqcf0","pricing_plan_id":"cebpf4jnsgd1na2vs0mg"},{"bike_id":"185dd92f-5ca3-4784-9453-5f8185d1714c","system_id":"levelo_inurba_marseille","lat":43.3133,"lon":5.3971,"is_reserved":false,"is_disabled":false,"rental_uris":{"android":"levelo://app?vid=185dd92f-5ca3-4784-9453-5f8185d1714c","ios":"levelo://app?vid=185dd92f-5ca3-4784-9453-5f8185d1714c"},"vehicle_type_id":"4","last_reported":1741712968,"current_range_meters":16000,"station_id":"ce4bgvp2rcd13ifvqcu0","pricing_plan_id":"cebpf4jnsgd1na2vs0mg"},{"bike_id":"0a6985ed-b84c-4033-8e3e-05aa091718f5","system_id":"levelo_inurba_marseille","lat":43.29897,"lon":5.39762,"is_reserved":false,"is_disabled":false,"rental_uris":{"android":"levelo://app?vid=0a6985ed-b84c-4033-8e3e-05aa091718f5","ios":"levelo://app?vid=0a6985ed-b84c-4033-8e3e-05aa091718f5"},"vehicle_type_id":"4","last_reported":1741712968,"current_range_meters":16000,"station_id":"ce4bh0h2rcd13ifvqd50","pricing_plan_id":"cebpf4jnsgd1na2vs0mg"},{"bike_id":"5d687fa7-1e0f-4109-b5bb-a1ca4269ac76","system_id":"levelo_inurba_marseille","lat":43.29519,"lon":5.39392,"is_reserved":false,"is_disabled":false,"rental_uris":{"android":"levelo://app?vid=5d687fa7-1e0f-4109-b5bb-a1ca4269ac76","ios":"levelo://app?vid=5d687fa7-1e0f-4109-b5bb-a1ca4269ac76"},"vehicle_type_id":"4","last_reported":1741712968,"current_range_meters":16000,"station_id":"ce4bh292rcd13ifvqdf0","pricing_plan_id":"cebpf4jnsgd1na2vs0mg"},{"bike_id":"25937fb7-9dcc-40e4-8919-d293a5121ca0","system_id":"levelo_inurba_marseille","lat":43.28673,"lon":5.37942,"is_reserved":false,"is_disabled":false,"rental_uris":{"android":"levelo://app?vid=25937fb7-9dcc-40e4-8919-d293a5121ca0","ios":"levelo://app?vid=25937fb7-9dcc-40e4-8919-d293a5121ca0"},"vehicle_type_id":"4","last_reported":1741712968,"current_range_meters":16000,"station_id":"ce4bh9p2rcd13ifvqec0","pricing_plan_id":"cebpf4jnsgd1na2vs0mg"},{"bike_id":"0f1c86d6-17c7-4bfa-b09a-42ed23af7c93","system_id":"levelo_inurba_marseille","lat":43.24639,"lon":5.38914,"is_reserved":false,"is_disabled":false,"rental_uris":{"android":"levelo://app?vid=0f1c86d6-17c7-4bfa-b09a-42ed23af7c93","ios":"levelo://app?vid=0f1c86d6-17c7-4bfa-b09a-42ed23af7c93"},"vehicle_type_id":"4","last_reported":1741712968,"current_range_meters":16000,"station_id":"ce4bhg12rcd13ifvqf60","pricing_plan_id":"cebpf4jnsgd1na2vs0mg"},{"bike_id":"1ed1a68a-1459-44c6-8baf-85fcda1e78ae","system_id":"levelo_inurba_marseille","lat":43.24392,"lon":5.37055,"is_reserved":false,"is_disabled":false,"rental_uris":{"android":"levelo://app?vid=1ed1a68a-1459-44c6-8baf-85fcda1e78ae","ios":"levelo://app?vid=1ed1a68a-1459-44c6-8baf-85fcda1e78ae"},"vehicle_type_id":"4","last_reported":1741712968,"current_range_meters":16000,"station_id":"ce4bhhh2rcd13ifvqfk0","pricing_plan_id":"cebpf4jnsgd1na2vs0mg"},{"bike_id":"5317488a-5edb-4d42-8bda-9a2f0e18d100","system_id":"levelo_inurba_marseille","lat":43.26232,"lon":5.4045,"is_reserved":false,"is_disabled":false,"rental_uris":{"android":"levelo://app?vid=5317488a-5edb-4d42-8bda-9a2f0e18d100","ios":"levelo://app?vid=5317488a-5edb-4d42-8bda-9a2f0e18d100"},"vehicle_type_id":"4","last_reported":1741712968,"current_range_meters":16000,"station_id":"ce4bhmh2rcd13ifvqgmg","pricing_plan_id":"cebpf4jnsgd1na2vs0mg"},{"bike_id":"24b4b104-5c89-4fc6-8924-6d1684e13415","system_id":"levelo_inurba_marseille","lat":43.23147,"lon":5.43715,"is_reserved":false,"is_disabled":false,"rental_uris":{"android":"levelo://app?vid=24b4b104-5c89-4fc6-8924-6d1684e13415","ios":"levelo://app?vid=24b4b104-5c89-4fc6-8924-6d1684e13415"},"vehicle_type_id":"4","last_reported":1741712968,"current_range_meters":16000,"station_id":"ce4bhmp2rcd13ifvqgog","pricing_plan_id":"cebpf4jnsgd1na2vs0mg"},{"bike_id":"b44022d5-a3c8-45f9-9984-eaba76929c7b","system_id":"levelo_inurba_marseille","lat":43.27822,"lon":5.40694,"is_reserved":false,"is_disabled":false,"rental_uris":{"android":"levelo://app?vid=b44022d5-a3c8-45f9-9984-eaba76929c7b","ios":"levelo://app?vid=b44022d5-a3c8-45f9-9984-eaba76929c7b"},"vehicle_type_id":"4","last_reported":1741712968,"current_range_meters":16000,"station_id":"ce4bhnh2rcd13ifvqgtg","pricing_plan_id":"cebpf4jnsgd1na2vs0mg"},{"bike_id":"cffa07b6-6751-419c-8ace-8753c5883625","system_id":"levelo_inurba_marseille","lat":43.28158,"lon":5.42641,"is_reserved":false,"is_disabled":false,"rental_uris":{"android":"levelo://app?vid=cffa07b6-6751-419c-8ace-8753c5883625","ios":"levelo://app?vid=cffa07b6-6751-419c-8ace-8753c5883625"},"vehicle_type_id":"4","last_reported":1741712968,"current_range_meters":16000,"station_id":"ce4bhnh2rcd13ifvqgug","pricing_plan_id":"cebpf4jnsgd1na2vs0mg"},{"bike_id":"2f8ecfaf-2a87-4f10-80ec-10a7eb94a1da","system_id":"levelo_inurba_marseille","lat":43.31516,"lon":5.38038,"is_reserved":false,"is_disabled":false,"rental_uris":{"android":"levelo://app?vid=2f8ecfaf-2a87-4f10-80ec-10a7eb94a1da","ios":"levelo://app?vid=2f8ecfaf-2a87-4f10-80ec-10a7eb94a1da"},"vehicle_type_id":"4","last_reported":1741712968,"current_range_meters":16000,"station_id":"ce4bhsp2rcd13ifvqi50","pricing_plan_id":"cebpf4jnsgd1na2vs0mg"},{"bike_id":"45345445-a78a-493f-a730-c619602e3241","system_id":"levelo_inurba_marseille","lat":43.25613,"lon":5.38562,"is_reserved":false,"is_disabled":false,"rental_uris":{"android":"levelo://app?vid=45345445-a78a-493f-a730-c619602e3241","ios":"levelo://app?vid=45345445-a78a-493f-a730-c619602e3241"},"vehicle_type_id":"4","last_reported":1741712968,"current_range_meters":16400,"station_id":"","pricing_plan_id":"cebpf4jnsgd1na2vs0mg"},{"bike_id":"5704c340-c65b-4326-97d3-9fb9a68d84e0","system_id":"levelo_inurba_marseille","lat":43.29906,"lon":5.38133,"is_reserved":false,"is_disabled":false,"rental_uris":{"android":"levelo://app?vid=5704c340-c65b-4326-97d3-9fb9a68d84e0","ios":"levelo://app?vid=5704c340-c65b-4326-97d3-9fb9a68d84e0"},"vehicle_type_id":"4","last_reported":1741712968,"current_range_meters":16400,"station_id":"ce4bgj12rcd13ifvqbc0","pricing_plan_id":"cebpf4jnsgd1na2vs0mg"},{"bike_id":"9fcc19dc-44dc-4e2d-aa9a-39e318b7e8ec","system_id":"levelo_inurba_marseille","lat":43.30259,"lon":5.40085,"is_reserved":false,"is_disabled":false,"rental_uris":{"android":"levelo://app?vid=9fcc19dc-44dc-4e2d-aa9a-39e318b7e8ec","ios":"levelo://app?vid=9fcc19dc-44dc-4e2d-aa9a-39e318b7e8ec"},"vehicle_type_id":"4","last_reported":1741712968,"current_range_meters":16400,"station_id":"ce4bgvh2rcd13ifvqcs0","pricing_plan_id":"cebpf4jnsgd1na2vs0mg"},{"bike_id":"a903ec05-2a0a-46ac-98e4-5b497a506f81","system_id":"levelo_inurba_marseille","lat":43.31283,"lon":5.40162,"is_reserved":false,"is_disabled":false,"rental_uris":{"android":"levelo://app?vid=a903ec05-2a0a-46ac-98e4-5b497a506f81","ios":"levelo://app?vid=a903ec05-2a0a-46ac-98e4-5b497a506f81"},"vehicle_type_id":"4","last_reported":1741712968,"current_range_meters":16400,"station_id":"ce4bh092rcd13ifvqd30","pricing_plan_id":"cebpf4jnsgd1na2vs0mg"},{"bike_id":"7a989acb-a5b4-45ca-a84a-95366516cfbd","system_id":"levelo_inurba_marseille","lat":43.29526,"lon":5.39036,"is_reserved":false,"is_disabled":false,"rental_uris":{"android":"levelo://app?vid=7a989acb-a5b4-45ca-a84a-95366516cfbd","ios":"levelo://app?vid=7a989acb-a5b4-45ca-a84a-95366516cfbd"},"vehicle_type_id":"4","last_reported":1741712968,"current_range_meters":16400,"station_id":"ce4bh3p2rcd13ifvqdp0","pricing_plan_id":"cebpf4jnsgd1na2vs0mg"},{"bike_id":"eade13e6-1645-4c88-8cae-969048308a23","system_id":"levelo_inurba_marseille","lat":43.28034,"lon":5.36946,"is_reserved":false,"is_disabled":false,"rental_uris":{"android":"levelo://app?vid=eade13e6-1645-4c88-8cae-969048308a23","ios":"levelo://app?vid=eade13e6-1645-4c88-8cae-969048308a23"},"vehicle_type_id":"4","last_reported":1741712968,"current_range_meters":16400,"station_id":"ce4bha12rcd13ifvqef0","pricing_plan_id":"cebpf4jnsgd1na2vs0mg"},{"bike_id":"0a995a9a-6122-4f4b-b298-a8b06cbca7e2","system_id":"levelo_inurba_marseille","lat":43.25016,"lon":5.38907,"is_reserved":false,"is_disabled":false,"rental_uris":{"android":"levelo://app?vid=0a995a9a-6122-4f4b-b298-a8b06cbca7e2","ios":"levelo://app?vid=0a995a9a-6122-4f4b-b298-a8b06cbca7e2"},"vehicle_type_id":"4","last_reported":1741712968,"current_range_meters":16400,"station_id":"ce4bhgp2rcd13ifvqfd0","pricing_plan_id":"cebpf4jnsgd1na2vs0mg"},{"bike_id":"200c1668-b403-444f-a98b-38324d934d8b","system_id":"levelo_inurba_marseille","lat":43.31542,"lon":5.38043,"is_reserved":false,"is_disabled":false,"rental_uris":{"android":"levelo://app?vid=200c1668-b403-444f-a98b-38324d934d8b","ios":"levelo://app?vid=200c1668-b403-444f-a98b-38324d934d8b"},"vehicle_type_id":"4","last_reported":1741712968,"current_range_meters":16400,"station_id":"ce4bhsp2rcd13ifvqi50","pricing_plan_id":"cebpf4jnsgd1na2vs0mg"},{"bike_id":"61b36dc7-d069-46d8-bd56-66995b6bac39","system_id":"levelo_inurba_marseille","lat":43.29616,"lon":5.37725,"is_reserved":false,"is_disabled":false,"rental_uris":{"android":"levelo://app?vid=61b36dc7-d069-46d8-bd56-66995b6bac39","ios":"levelo://app?vid=61b36dc7-d069-46d8-bd56-66995b6bac39"},"vehicle_type_id":"4","last_reported":1741712968,"current_range_meters":16800,"station_id":"ce4bgi92rcd13ifvqb90","pricing_plan_id":"cebpf4jnsgd1na2vs0mg"},{"bike_id":"58b30f61-c9e8-4dc9-9588-01f2972f7c7a","system_id":"levelo_inurba_marseille","lat":43.289438,"lon":5.366452,"is_reserved":false,"is_disabled":false,"rental_uris":{"android":"levelo://app?vid=58b30f61-c9e8-4dc9-9588-01f2972f7c7a","ios":"levelo://app?vid=58b30f61-c9e8-4dc9-9588-01f2972f7c7a"},"vehicle_type_id":"4","last_reported":1741712968,"current_range_meters":16800,"station_id":"ce4bgj92rcd13ifvqbd0","pricing_plan_id":"cebpf4jnsgd1na2vs0mg"},{"bike_id":"bd4f393d-c78e-4515-afb5-df2dec73c5d0","system_id":"levelo_inurba_marseille","lat":43.30528,"lon":5.3654,"is_reserved":false,"is_disabled":false,"rental_uris":{"android":"levelo://app?vid=bd4f393d-c78e-4515-afb5-df2dec73c5d0","ios":"levelo://app?vid=bd4f393d-c78e-4515-afb5-df2dec73c5d0"},"vehicle_type_id":"4","last_reported":1741712968,"current_range_meters":16800,"station_id":"ce4bgs12rcd13ifvqcag","pricing_plan_id":"cebpf4jnsgd1na2vs0mg"},{"bike_id":"b0ed4326-330c-4a5e-9283-d64bc6a21a04","system_id":"levelo_inurba_marseille","lat":43.3089,"lon":5.39655,"is_reserved":false,"is_disabled":false,"rental_uris":{"android":"levelo://app?vid=b0ed4326-330c-4a5e-9283-d64bc6a21a04","ios":"levelo://app?vid=b0ed4326-330c-4a5e-9283-d64bc6a21a04"},"vehicle_type_id":"4","last_reported":1741712968,"current_range_meters":16800,"station_id":"ce4bh012rcd13ifvqcv0","pricing_plan_id":"cebpf4jnsgd1na2vs0mg"},{"bike_id":"4544e0ce-00da-4649-8829-981647ba97eb","system_id":"levelo_inurba_marseille","lat":43.2885,"lon":5.39319,"is_reserved":false,"is_disabled":false,"rental_uris":{"android":"levelo://app?vid=4544e0ce-00da-4649-8829-981647ba97eb","ios":"levelo://app?vid=4544e0ce-00da-4649-8829-981647ba97eb"},"vehicle_type_id":"4","last_reported":1741712968,"current_range_meters":16800,"station_id":"ce4bh2p2rcd13ifvqdi0","pricing_plan_id":"cebpf4jnsgd1na2vs0mg"},{"bike_id":"6ce31801-0e53-4230-a4da-c76a109f23a8","system_id":"levelo_inurba_marseille","lat":43.26776,"lon":5.39418,"is_reserved":false,"is_disabled":false,"rental_uris":{"android":"levelo://app?vid=6ce31801-0e53-4230-a4da-c76a109f23a8","ios":"levelo://app?vid=6ce31801-0e53-4230-a4da-c76a109f23a8"},"vehicle_type_id":"4","last_reported":1741712968,"current_range_meters":16800,"station_id":"ce4bhh12rcd13ifvqfg0","pricing_plan_id":"cebpf4jnsgd1na2vs0mg"},{"bike_id":"f361b9ee-3f62-474f-856b-34e1cd99ae7d","system_id":"levelo_inurba_marseille","lat":43.28443,"lon":5.39202,"is_reserved":false,"is_disabled":false,"rental_uris":{"android":"levelo://app?vid=f361b9ee-3f62-474f-856b-34e1cd99ae7d","ios":"levelo://app?vid=f361b9ee-3f62-474f-856b-34e1cd99ae7d"},"vehicle_type_id":"4","last_reported":1741712968,"current_range_meters":16800,"station_id":"ce4bhoh2rcd13ifvqh5g","pricing_plan_id":"cebpf4jnsgd1na2vs0mg"},{"bike_id":"fb55f9d1-18dc-4569-919c-3c5a2e705317","system_id":"levelo_inurba_marseille","lat":43.32491,"lon":5.36583,"is_reserved":false,"is_disabled":false,"rental_uris":{"android":"levelo://app?vid=fb55f9d1-18dc-4569-919c-3c5a2e705317","ios":"levelo://app?vid=fb55f9d1-18dc-4569-919c-3c5a2e705317"},"vehicle_type_id":"4","last_reported":1741712968,"current_range_meters":16800,"station_id":"ce4bhs12rcd13ifvqhvg","pricing_plan_id":"cebpf4jnsgd1na2vs0mg"},{"bike_id":"f6dadfba-fe65-42bb-b18e-8d8609e187a1","system_id":"levelo_inurba_marseille","lat":43.29973,"lon":5.38493,"is_reserved":false,"is_disabled":false,"rental_uris":{"android":"levelo://app?vid=f6dadfba-fe65-42bb-b18e-8d8609e187a1","ios":"levelo://app?vid=f6dadfba-fe65-42bb-b18e-8d8609e187a1"},"vehicle_type_id":"4","last_reported":1741712968,"current_range_meters":17200,"station_id":"ce4bgj92rcd13ifvqbd0","pricing_plan_id":"cebpf4jnsgd1na2vs0mg"},{"bike_id":"ebd4e792-a666-46a2-98a2-c70e9b7feb24","system_id":"levelo_inurba_marseille","lat":43.30509,"lon":5.36694,"is_reserved":false,"is_disabled":false,"rental_uris":{"android":"levelo://app?vid=ebd4e792-a666-46a2-98a2-c70e9b7feb24","ios":"levelo://app?vid=ebd4e792-a666-46a2-98a2-c70e9b7feb24"},"vehicle_type_id":"4","last_reported":1741712968,"current_range_meters":17200,"station_id":"ce4bgrp2rcd13ifvqc9g","pricing_plan_id":"cebpf4jnsgd1na2vs0mg"},{"bike_id":"3aa4708f-1fbe-4010-b42a-024b2427c80d","system_id":"levelo_inurba_marseille","lat":43.31102,"lon":5.3777,"is_reserved":false,"is_disabled":false,"rental_uris":{"android":"levelo://app?vid=3aa4708f-1fbe-4010-b42a-024b2427c80d","ios":"levelo://app?vid=3aa4708f-1fbe-4010-b42a-024b2427c80d"},"vehicle_type_id":"4","last_reported":1741712968,"current_range_meters":17200,"station_id":"ce4bgt92rcd13ifvqcg0","pricing_plan_id":"cebpf4jnsgd1na2vs0mg"},{"bike_id":"070482fa-08e5-4c92-86a2-963e7a8b42c4","system_id":"levelo_inurba_marseille","lat":43.31065,"lon":5.38342,"is_reserved":false,"is_disabled":false,"rental_uris":{"android":"levelo://app?vid=070482fa-08e5-4c92-86a2-963e7a8b42c4","ios":"levelo://app?vid=070482fa-08e5-4c92-86a2-963e7a8b42c4"},"vehicle_type_id":"4","last_reported":1741712968,"current_range_meters":17200,"station_id":"ce4bgv92rcd13ifvqcr0","pricing_plan_id":"cebpf4jnsgd1na2vs0mg"},{"bike_id":"29ed8941-3ba2-4fa6-a7dd-1cc903ae7565","system_id":"levelo_inurba_marseille","lat":43.24808,"lon":5.37455,"is_reserved":false,"is_disabled":false,"rental_uris":{"android":"levelo://app?vid=29ed8941-3ba2-4fa6-a7dd-1cc903ae7565","ios":"levelo://app?vid=29ed8941-3ba2-4fa6-a7dd-1cc903ae7565"},"vehicle_type_id":"4","last_reported":1741712968,"current_range_meters":17200,"station_id":"ce4bhgh2rcd13ifvqfb0","pricing_plan_id":"cebpf4jnsgd1na2vs0mg"},{"bike_id":"8df84fee-2149-47d0-85a1-8ddc9f4746b2","system_id":"levelo_inurba_marseille","lat":43.25717,"lon":5.41114,"is_reserved":false,"is_disabled":false,"rental_uris":{"android":"levelo://app?vid=8df84fee-2149-47d0-85a1-8ddc9f4746b2","ios":"levelo://app?vid=8df84fee-2149-47d0-85a1-8ddc9f4746b2"},"vehicle_type_id":"4","last_reported":1741712968,"current_range_meters":17200,"station_id":"ce4bhkp2rcd13ifvqgd0","pricing_plan_id":"cebpf4jnsgd1na2vs0mg"},{"bike_id":"2292d452-080d-44d7-bf0a-d0e9cf6f1d25","system_id":"levelo_inurba_marseille","lat":43.28007,"lon":5.40035,"is_reserved":false,"is_disabled":false,"rental_uris":{"android":"levelo://app?vid=2292d452-080d-44d7-bf0a-d0e9cf6f1d25","ios":"levelo://app?vid=2292d452-080d-44d7-bf0a-d0e9cf6f1d25"},"vehicle_type_id":"4","last_reported":1741712968,"current_range_meters":17200,"station_id":"ce4bho92rcd13ifvqh4g","pricing_plan_id":"cebpf4jnsgd1na2vs0mg"},{"bike_id":"8cb98100-8339-480d-872a-e2c4b7cea00c","system_id":"levelo_inurba_marseille","lat":43.28096,"lon":5.39838,"is_reserved":false,"is_disabled":false,"rental_uris":{"android":"levelo://app?vid=8cb98100-8339-480d-872a-e2c4b7cea00c","ios":"levelo://app?vid=8cb98100-8339-480d-872a-e2c4b7cea00c"},"vehicle_type_id":"4","last_reported":1741712968,"current_range_meters":17600,"station_id":"","pricing_plan_id":"cebpf4jnsgd1na2vs0mg"},{"bike_id":"e7e88df6-f1ca-46bb-bd71-ae3d4a6f7eeb","system_id":"levelo_inurba_marseille","lat":43.29904,"lon":5.37461,"is_reserved":false,"is_disabled":false,"rental_uris":{"android":"levelo://app?vid=e7e88df6-f1ca-46bb-bd71-ae3d4a6f7eeb","ios":"levelo://app?vid=e7e88df6-f1ca-46bb-bd71-ae3d4a6f7eeb"},"vehicle_type_id":"4","last_reported":1741712968,"current_range_meters":17600,"station_id":"ce4bgjh2rcd13ifvqbg0","pricing_plan_id":"cebpf4jnsgd1na2vs0mg"},{"bike_id":"a2c368b4-7d1f-4210-9979-36268faef693","system_id":"levelo_inurba_marseille","lat":43.29726,"lon":5.37671,"is_reserved":false,"is_disabled":false,"rental_uris":{"android":"levelo://app?vid=a2c368b4-7d1f-4210-9979-36268faef693","ios":"levelo://app?vid=a2c368b4-7d1f-4210-9979-36268faef693"},"vehicle_type_id":"4","last_reported":1741712968,"current_range_meters":17600,"station_id":"ce4bgkh2rcd13ifvqbl0","pricing_plan_id":"cebpf4jnsgd1na2vs0mg"},{"bike_id":"0357172e-1f48-4ea6-a862-ef4716de2e5c","system_id":"levelo_inurba_marseille","lat":43.29709,"lon":5.36611,"is_reserved":false,"is_disabled":false,"rental_uris":{"android":"levelo://app?vid=0357172e-1f48-4ea6-a862-ef4716de2e5c","ios":"levelo://app?vid=0357172e-1f48-4ea6-a862-ef4716de2e5c"},"vehicle_type_id":"4","last_reported":1741712968,"current_range_meters":17600,"station_id":"ce4bgn12rcd13ifvqbt0","pricing_plan_id":"cebpf4jnsgd1na2vs0mg"},{"bike_id":"e6aebccf-b830-480f-99e2-8dc7772071eb","system_id":"levelo_inurba_marseille","lat":43.287063,"lon":5.373744,"is_reserved":false,"is_disabled":false,"rental_uris":{"android":"levelo://app?vid=e6aebccf-b830-480f-99e2-8dc7772071eb","ios":"levelo://app?vid=e6aebccf-b830-480f-99e2-8dc7772071eb"},"vehicle_type_id":"4","last_reported":1741712968,"current_range_meters":17600,"station_id":"ce4bh3p2rcd13ifvqdq0","pricing_plan_id":"cebpf4jnsgd1na2vs0mg"},{"bike_id":"e0718395-0e2e-4a7a-a474-5a05d3f79c13","system_id":"levelo_inurba_marseille","lat":43.28411,"lon":5.37524,"is_reserved":false,"is_disabled":false,"rental_uris":{"android":"levelo://app?vid=e0718395-0e2e-4a7a-a474-5a05d3f79c13","ios":"levelo://app?vid=e0718395-0e2e-4a7a-a474-5a05d3f79c13"},"vehicle_type_id":"4","last_reported":1741712968,"current_range_meters":17600,"station_id":"ce4bh412rcd13ifvqds0","pricing_plan_id":"cebpf4jnsgd1na2vs0mg"},{"bike_id":"d1a4bc6a-254f-475e-a802-bb168c37ebc9","system_id":"levelo_inurba_marseille","lat":43.28859,"lon":5.35866,"is_reserved":false,"is_disabled":false,"rental_uris":{"android":"levelo://app?vid=d1a4bc6a-254f-475e-a802-bb168c37ebc9","ios":"levelo://app?vid=d1a4bc6a-254f-475e-a802-bb168c37ebc9"},"vehicle_type_id":"4","last_reported":1741712968,"current_range_meters":17600,"station_id":"ce4bhb12rcd13ifvqem0","pricing_plan_id":"cebpf4jnsgd1na2vs0mg"},{"bike_id":"f2fc70f8-c09f-41b8-ad24-0b5186dcd42b","system_id":"levelo_inurba_marseille","lat":43.30282,"lon":5.40067,"is_reserved":false,"is_disabled":false,"rental_uris":{"android":"levelo://app?vid=f2fc70f8-c09f-41b8-ad24-0b5186dcd42b","ios":"levelo://app?vid=f2fc70f8-c09f-41b8-ad24-0b5186dcd42b"},"vehicle_type_id":"4","last_reported":1741712968,"current_range_meters":17600,"station_id":"ce4bhq92rcd13ifvqhkg","pricing_plan_id":"cebpf4jnsgd1na2vs0mg"},{"bike_id":"0eff2f4e-3cf9-4a10-a052-d43383da7f2c","system_id":"levelo_inurba_marseille","lat":43.31754,"lon":5.3901,"is_reserved":false,"is_disabled":false,"rental_uris":{"android":"levelo://app?vid=0eff2f4e-3cf9-4a10-a052-d43383da7f2c","ios":"levelo://app?vid=0eff2f4e-3cf9-4a10-a052-d43383da7f2c"},"vehicle_type_id":"4","last_reported":1741712968,"current_range_meters":17600,"station_id":"ce4bhqp2rcd13ifvqhng","pricing_plan_id":"cebpf4jnsgd1na2vs0mg"},{"bike_id":"34ccbc74-3e4b-448e-878b-6f198e6f7b81","system_id":"levelo_inurba_marseille","lat":43.30431,"lon":5.3888,"is_reserved":false,"is_disabled":false,"rental_uris":{"android":"levelo://app?vid=34ccbc74-3e4b-448e-878b-6f198e6f7b81","ios":"levelo://app?vid=34ccbc74-3e4b-448e-878b-6f198e6f7b81"},"vehicle_type_id":"4","last_reported":1741712968,"current_range_meters":18000,"station_id":"ce4bgk12rcd13ifvqbi0","pricing_plan_id":"cebpf4jnsgd1na2vs0mg"},{"bike_id":"febafa61-9fca-4f05-8642-7cd522524da9","system_id":"levelo_inurba_marseille","lat":43.31486,"lon":5.37286,"is_reserved":false,"is_disabled":false,"rental_uris":{"android":"levelo://app?vid=febafa61-9fca-4f05-8642-7cd522524da9","ios":"levelo://app?vid=febafa61-9fca-4f05-8642-7cd522524da9"},"vehicle_type_id":"4","last_reported":1741712968,"current_range_meters":18000,"station_id":"ce4bgt12rcd13ifvqcd0","pricing_plan_id":"cebpf4jnsgd1na2vs0mg"},{"bike_id":"034d624a-df43-4eb0-8207-b3309271b8f1","system_id":"levelo_inurba_marseille","lat":43.31323,"lon":5.39701,"is_reserved":false,"is_disabled":false,"rental_uris":{"android":"levelo://app?vid=034d624a-df43-4eb0-8207-b3309271b8f1","ios":"levelo://app?vid=034d624a-df43-4eb0-8207-b3309271b8f1"},"vehicle_type_id":"4","last_reported":1741712968,"current_range_meters":18000,"station_id":"ce4bgvp2rcd13ifvqcu0","pricing_plan_id":"cebpf4jnsgd1na2vs0mg"},{"bike_id":"23e744db-3cad-49e2-83f2-4f75f95fa901","system_id":"levelo_inurba_marseille","lat":43.30883,"lon":5.39665,"is_reserved":false,"is_disabled":false,"rental_uris":{"android":"levelo://app?vid=23e744db-3cad-49e2-83f2-4f75f95fa901","ios":"levelo://app?vid=23e744db-3cad-49e2-83f2-4f75f95fa901"},"vehicle_type_id":"4","last_reported":1741712968,"current_range_meters":18000,"station_id":"ce4bh012rcd13ifvqcv0","pricing_plan_id":"cebpf4jnsgd1na2vs0mg"},{"bike_id":"7e16450a-c11b-4214-a92c-439bcd020497","system_id":"levelo_inurba_marseille","lat":43.29187,"lon":5.39309,"is_reserved":false,"is_disabled":false,"rental_uris":{"android":"levelo://app?vid=7e16450a-c11b-4214-a92c-439bcd020497","ios":"levelo://app?vid=7e16450a-c11b-4214-a92c-439bcd020497"},"vehicle_type_id":"4","last_reported":1741712968,"current_range_meters":18000,"station_id":"ce4bh192rcd13ifvqdd0","pricing_plan_id":"cebpf4jnsgd1na2vs0mg"},{"bike_id":"86394c4c-de42-4a92-abd3-69db83f47f6e","system_id":"levelo_inurba_marseille","lat":43.287,"lon":5.37401,"is_reserved":false,"is_disabled":false,"rental_uris":{"android":"levelo://app?vid=86394c4c-de42-4a92-abd3-69db83f47f6e","ios":"levelo://app?vid=86394c4c-de42-4a92-abd3-69db83f47f6e"},"vehicle_type_id":"4","last_reported":1741712968,"current_range_meters":18000,"station_id":"ce4bh3p2rcd13ifvqdq0","pricing_plan_id":"cebpf4jnsgd1na2vs0mg"},{"bike_id":"5e36b6b8-6e77-45ed-9597-025342e46c0b","system_id":"levelo_inurba_marseille","lat":43.25497,"lon":5.37651,"is_reserved":false,"is_disabled":false,"rental_uris":{"android":"levelo://app?vid=5e36b6b8-6e77-45ed-9597-025342e46c0b","ios":"levelo://app?vid=5e36b6b8-6e77-45ed-9597-025342e46c0b"},"vehicle_type_id":"4","last_reported":1741712968,"current_range_meters":18000,"station_id":"ce4bhh12rcd13ifvqff0","pricing_plan_id":"cebpf4jnsgd1na2vs0mg"},{"bike_id":"6788ac72-97ba-4670-850c-82f03a027689","system_id":"levelo_inurba_marseille","lat":43.25096,"lon":5.39513,"is_reserved":false,"is_disabled":false,"rental_uris":{"android":"levelo://app?vid=6788ac72-97ba-4670-850c-82f03a027689","ios":"levelo://app?vid=6788ac72-97ba-4670-850c-82f03a027689"},"vehicle_type_id":"4","last_reported":1741712968,"current_range_meters":18000,"station_id":"ce4bhm12rcd13ifvqgkg","pricing_plan_id":"cebpf4jnsgd1na2vs0mg"},{"bike_id":"d3ac1ba6-6349-4d47-99e4-9f85d3ef1aa5","system_id":"levelo_inurba_marseille","lat":43.28507,"lon":5.36871,"is_reserved":false,"is_disabled":false,"rental_uris":{"android":"levelo://app?vid=d3ac1ba6-6349-4d47-99e4-9f85d3ef1aa5","ios":"levelo://app?vid=d3ac1ba6-6349-4d47-99e4-9f85d3ef1aa5"},"vehicle_type_id":"4","last_reported":1741712968,"current_range_meters":18800,"station_id":"","pricing_plan_id":"cebpf4jnsgd1na2vs0mg"},{"bike_id":"99fa219c-3172-446a-acd5-9dcd98933d08","system_id":"levelo_inurba_marseille","lat":43.28479,"lon":5.38399,"is_reserved":false,"is_disabled":false,"rental_uris":{"android":"levelo://app?vid=99fa219c-3172-446a-acd5-9dcd98933d08","ios":"levelo://app?vid=99fa219c-3172-446a-acd5-9dcd98933d08"},"vehicle_type_id":"4","last_reported":1741712968,"current_range_meters":18800,"station_id":"ce4bh512rcd13ifvqe3g","pricing_plan_id":"cebpf4jnsgd1na2vs0mg"},{"bike_id":"80ed522e-a704-4033-be24-41d5f4c753ed","system_id":"levelo_inurba_marseille","lat":43.287,"lon":5.37929,"is_reserved":false,"is_disabled":false,"rental_uris":{"android":"levelo://app?vid=80ed522e-a704-4033-be24-41d5f4c753ed","ios":"levelo://app?vid=80ed522e-a704-4033-be24-41d5f4c753ed"},"vehicle_type_id":"4","last_reported":1741712968,"current_range_meters":18800,"station_id":"ce4bh9p2rcd13ifvqec0","pricing_plan_id":"cebpf4jnsgd1na2vs0mg"},{"bike_id":"0196d479-6c1f-49e4-b7c0-c2f275915119","system_id":"levelo_inurba_marseille","lat":43.28016,"lon":5.36936,"is_reserved":false,"is_disabled":false,"rental_uris":{"android":"levelo://app?vid=0196d479-6c1f-49e4-b7c0-c2f275915119","ios":"levelo://app?vid=0196d479-6c1f-49e4-b7c0-c2f275915119"},"vehicle_type_id":"4","last_reported":1741712968,"current_range_meters":18800,"station_id":"ce4bha12rcd13ifvqef0","pricing_plan_id":"cebpf4jnsgd1na2vs0mg"},{"bike_id":"ad152b09-5333-4d7a-a147-18c4ba9d0fad","system_id":"levelo_inurba_marseille","lat":43.26566,"lon":5.39008,"is_reserved":false,"is_disabled":false,"rental_uris":{"android":"levelo://app?vid=ad152b09-5333-4d7a-a147-18c4ba9d0fad","ios":"levelo://app?vid=ad152b09-5333-4d7a-a147-18c4ba9d0fad"},"vehicle_type_id":"4","last_reported":1741712968,"current_range_meters":18800,"station_id":"ce4bhe12rcd13ifvqf30","pricing_plan_id":"cebpf4jnsgd1na2vs0mg"},{"bike_id":"4e8e4d54-268e-4c0f-b975-4cff6c065937","system_id":"levelo_inurba_marseille","lat":43.26201,"lon":5.37446,"is_reserved":false,"is_disabled":false,"rental_uris":{"android":"levelo://app?vid=4e8e4d54-268e-4c0f-b975-4cff6c065937","ios":"levelo://app?vid=4e8e4d54-268e-4c0f-b975-4cff6c065937"},"vehicle_type_id":"4","last_reported":1741712968,"current_range_meters":18800,"station_id":"ce4bhgp2rcd13ifvqfc0","pricing_plan_id":"cebpf4jnsgd1na2vs0mg"},{"bike_id":"a0abc700-c0fc-4401-b3cf-652976456829","system_id":"levelo_inurba_marseille","lat":43.31708,"lon":5.37746,"is_reserved":false,"is_disabled":false,"rental_uris":{"android":"levelo://app?vid=a0abc700-c0fc-4401-b3cf-652976456829","ios":"levelo://app?vid=a0abc700-c0fc-4401-b3cf-652976456829"},"vehicle_type_id":"4","last_reported":1741712968,"current_range_meters":19200,"station_id":"ce4bgth2rcd13ifvqch0","pricing_plan_id":"cebpf4jnsgd1na2vs0mg"},{"bike_id":"3080634e-f862-424e-96aa-261fcbbea6f8","system_id":"levelo_inurba_marseille","lat":43.28664,"lon":5.38656,"is_reserved":false,"is_disabled":false,"rental_uris":{"android":"levelo://app?vid=3080634e-f862-424e-96aa-261fcbbea6f8","ios":"levelo://app?vid=3080634e-f862-424e-96aa-261fcbbea6f8"},"vehicle_type_id":"4","last_reported":1741712968,"current_range_meters":19200,"station_id":"ce4bh492rcd13ifvqdug","pricing_plan_id":"cebpf4jnsgd1na2vs0mg"},{"bike_id":"0921f6b9-8400-4cc2-989c-40702b44c39e","system_id":"levelo_inurba_marseille","lat":43.28002,"lon":5.40045,"is_reserved":false,"is_disabled":false,"rental_uris":{"android":"levelo://app?vid=0921f6b9-8400-4cc2-989c-40702b44c39e","ios":"levelo://app?vid=0921f6b9-8400-4cc2-989c-40702b44c39e"},