{"last_updated":1752268190,"ttl":60,"version":"2.2","data":{"bikes":[{"bike_id":"a4e71c09-d013-4906-bd5c-aaf1012438e0","system_id":"levelo_inurba_marseille","lat":43.309322,"lon":5.401392,"is_reserved":false,"is_disabled":true,"rental_uris":{"android":"levelo://app?vid=a4e71c09-d013-4906-bd5c-aaf1012438e0","ios":"levelo://app?vid=a4e71c09-d013-4906-bd5c-aaf1012438e0"},"vehicle_type_id":"4","last_reported":1752268190,"current_range_meters":2800,"station_id":"ce4bgvp2rcd13ifvqct0","pricing_plan_id":"cebpf4jnsgd1na2vs0mg"},{"bike_id":"e4299584-dbac-4674-b002-19df4777a563","system_id":"levelo_inurba_marseille","lat":43.30455,"lon":5.37906,"is_reserved":false,"is_disabled":false,"rental_uris":{"android":"levelo://app?vid=e4299584-dbac-4674-b002-19df4777a563","ios":"levelo://app?vid=e4299584-dbac-4674-b002-19df4777a563"},"vehicle_type_id":"4","last_reported":1752268190,"current_range_meters":2800,"station_id":"ce4bgup2rcd13ifvqcn0","pricing_plan_id":"cebpf4jnsgd1na2vs0mg"},{"bike_id":"b14d0d78-8635-433f-8305-8e2ed857c830","system_id":"levelo_inurba_marseille","lat":43.307982,"lon":5.381564,"is_reserved":false,"is_disabled":true,"rental_uris":{"android":"levelo://app?vid=b14d0d78-8635-433f-8305-8e2ed857c830","ios":"levelo://app?vid=b14d0d78-8635-433f-8305-8e2ed857c830"},"vehicle_type_id":"4","last_reported":1752268190,"current_range_meters":3200,"station_id":"","pricing_plan_id":"cebpf4jnsgd1na2vs0mg"},{"bike_id":"833789d2-719f-470f-8aa2-b69edbf07c3f","system_id":"levelo_inurba_marseille","lat":43.29634,"lon":5.39276,"is_reserved":false,"is_disabled":false,"rental_uris":{"android":"levelo://app?vid=833789d2-719f-470f-8aa2-b69edbf07c3f","ios":"levelo://app?vid=833789d2-719f-470f-8aa2-b69edbf07c3f"},"vehicle_type_id":"4","last_reported":1752268190,"current_range_meters":3200,"station_id":"","pricing_plan_id":"cebpf4jnsgd1na2vs0mg"},{"bike_id":"feec9ca5-eb53-4205-a29d-3d797c986952","system_id":"levelo_inurba_marseille","lat":43.289433,"lon":5.366422,"is_reserved":false,"is_disabled":true,"rental_uris":{"android":"levelo://app?vid=feec9ca5-eb53-4205-a29d-3d797c986952","ios":"levelo://app?vid=feec9ca5-eb53-4205-a29d-3d797c986952"},"vehicle_type_id":"4","last_reported":1752268190,"current_range_meters":3200,"station_id":"ce4bhpp2rcd13ifvqhfg","pricing_plan_id":"cebpf4jnsgd1na2vs0mg"},{"bike_id":"3a13edd7-651e-4623-8e6e-200a17a603cc","system_id":"levelo_inurba_marseille","lat":43.276134,"lon":5.358529,"is_reserved":false,"is_disabled":false,"rental_uris":{"android":"levelo://app?vid=3a13edd7-651e-4623-8e6e-200a17a603cc","ios":"levelo://app?vid=3a13edd7-651e-4623-8e6e-200a17a603cc"},"vehicle_type_id":"4","last_reported":1752268190,"current_range_meters":3200,"station_id":"","pricing_plan_id":"cebpf4jnsgd1na2vs0mg"},{"bike_id":"6cabe919-671d-451a-a671-9954a34df4da","system_id":"levelo_inurba_marseille","lat":43.31124,"lon":5.37762,"is_reserved":false,"is_disabled":false,"rental_uris":{"android":"levelo://app?vid=6cabe919-671d-451a-a671-9954a34df4da","ios":"levelo://app?vid=6cabe919-671d-451a-a671-9954a34df4da"},"vehicle_type_id":"4","last_reported":1752268190,"current_range_meters":3200,"station_id":"ce4bgt92rcd13ifvqcg0","pricing_plan_id":"cebpf4jnsgd1na2vs0mg"},{"bike_id":"492822e9-b40c-4824-8594-38c8605e1a47","system_id":"levelo_inurba_marseille","lat":43.30117,"lon":5.39842,"is_reserved":false,"is_disabled":false,"rental_uris":{"android":"levelo://app?vid=492822e9-b40c-4824-8594-38c8605e1a47","ios":"levelo://app?vid=492822e9-b40c-4824-8594-38c8605e1a47"},"vehicle_type_id":"4","last_reported":1752268190,"current_range_meters":3600,"station_id":"ce4bh0h2rcd13ifvqd40","pricing_plan_id":"cebpf4jnsgd1na2vs0mg"},{"bike_id":"80332063-c5c6-409c-b2d7-ec48e5dd45a1","system_id":"levelo_inurba_marseille","lat":43.289713,"lon":5.378369,"is_reserved":false,"is_disabled":false,"rental_uris":{"android":"levelo://app?vid=80332063-c5c6-409c-b2d7-ec48e5dd45a1","ios":"levelo://app?vid=80332063-c5c6-409c-b2d7-ec48e5dd45a1"},"vehicle_type_id":"4","last_reported":1752268190,"current_range_meters":3600,"station_id":"ce4bh9p2rcd13ifvqed0","pricing_plan_id":"cebpf4jnsgd1na2vs0mg"},{"bike_id":"d6b609dd-cabd-4efa-8f23-61c1353a764b","system_id":"levelo_inurba_marseille","lat":43.28925,"lon":5.36614,"is_reserved":false,"is_disabled":false,"rental_uris":{"android":"levelo://app?vid=d6b609dd-cabd-4efa-8f23-61c1353a764b","ios":"levelo://app?vid=d6b609dd-cabd-4efa-8f23-61c1353a764b"},"vehicle_type_id":"4","last_reported":1752268190,"current_range_meters":4000,"station_id":"ce4bhap2rcd13ifvqek0","pricing_plan_id":"cebpf4jnsgd1na2vs0mg"},{"bike_id":"09b53769-6655-45ec-838c-29ff775bc2ca","system_id":"levelo_inurba_marseille","lat":43.22932,"lon":5.35388,"is_reserved":false,"is_disabled":false,"rental_uris":{"android":"levelo://app?vid=09b53769-6655-45ec-838c-29ff775bc2ca","ios":"levelo://app?vid=09b53769-6655-45ec-838c-29ff775bc2ca"},"vehicle_type_id":"4","last_reported":1752268190,"current_range_meters":4000,"station_id":"cpo3532slgdg3j2ikp40","pricing_plan_id":"cebpf4jnsgd1na2vs0mg"},{"bike_id":"f6a869b0-1b12-4937-85cf-3c7932983573","system_id":"levelo_inurba_marseille","lat":43.30223,"lon":5.37457,"is_reserved":false,"is_disabled":false,"rental_uris":{"android":"levelo://app?vid=f6a869b0-1b12-4937-85cf-3c7932983573","ios":"levelo://app?vid=f6a869b0-1b12-4937-85cf-3c7932983573"},"vehicle_type_id":"4","last_reported":1752268190,"current_range_meters":4400,"station_id":"","pricing_plan_id":"cebpf4jnsgd1na2vs0mg"},{"bike_id":"b9feca3c-c4c0-4c3b-8593-931d9896ede3","system_id":"levelo_inurba_marseille","lat":43.30647,"lon":5.40103,"is_reserved":false,"is_disabled":false,"rental_uris":{"android":"levelo://app?vid=b9feca3c-c4c0-4c3b-8593-931d9896ede3","ios":"levelo://app?vid=b9feca3c-c4c0-4c3b-8593-931d9896ede3"},"vehicle_type_id":"4","last_reported":1752268190,"current_range_meters":4400,"station_id":"ce4bh112rcd13ifvqda0","pricing_plan_id":"cebpf4jnsgd1na2vs0mg"},{"bike_id":"63c89cef-cfdf-4de8-b86e-bf96b6782371","system_id":"levelo_inurba_marseille","lat":43.29594,"lon":5.38106,"is_reserved":false,"is_disabled":false,"rental_uris":{"android":"levelo://app?vid=63c89cef-cfdf-4de8-b86e-bf96b6782371","ios":"levelo://app?vid=63c89cef-cfdf-4de8-b86e-bf96b6782371"},"vehicle_type_id":"4","last_reported":1752268190,"current_range_meters":4400,"station_id":"ce4bgl12rcd13ifvqbo0","pricing_plan_id":"cebpf4jnsgd1na2vs0mg"},{"bike_id":"bc0ba58e-06a3-432d-8c35-ebe9130c41f9","system_id":"levelo_inurba_marseille","lat":43.337444,"lon":5.374475,"is_reserved":false,"is_disabled":false,"rental_uris":{"android":"levelo://app?vid=bc0ba58e-06a3-432d-8c35-ebe9130c41f9","ios":"levelo://app?vid=bc0ba58e-06a3-432d-8c35-ebe9130c41f9"},"vehicle_type_id":"4","last_reported":1752268190,"current_range_meters":4400,"station_id":"","pricing_plan_id":"cebpf4jnsgd1na2vs0mg"},{"bike_id":"b8d6bf6b-ecbb-4c40-8ce7-0169ef070b49","system_id":"levelo_inurba_marseille","lat":43.29655,"lon":5.37224,"is_reserved":false,"is_disabled":false,"rental_uris":{"android":"levelo://app?vid=b8d6bf6b-ecbb-4c40-8ce7-0169ef070b49","ios":"levelo://app?vid=b8d6bf6b-ecbb-4c40-8ce7-0169ef070b49"},"vehicle_type_id":"4","last_reported":1752268190,"current_range_meters":4800,"station_id":"","pricing_plan_id":"cebpf4jnsgd1na2vs0mg"},{"bike_id":"12ae95d2-446f-4b76-8b75-64d764443126","system_id":"levelo_inurba_marseille","lat":43.30603,"lon":5.372,"is_reserved":false,"is_disabled":false,"rental_uris":{"android":"levelo://app?vid=12ae95d2-446f-4b76-8b75-64d764443126","ios":"levelo://app?vid=12ae95d2-446f-4b76-8b75-64d764443126"},"vehicle_type_id":"4","last_reported":1752268190,"current_range_meters":4400,"station_id":"ce4bgqh2rcd13ifvqc4g","pricing_plan_id":"cebpf4jnsgd1na2vs0mg"},{"bike_id":"0297537f-91b5-4de2-b0b0-4fc60794574e","system_id":"levelo_inurba_marseille","lat":43.29814,"lon":5.38784,"is_reserved":false,"is_disabled":false,"rental_uris":{"android":"levelo://app?vid=0297537f-91b5-4de2-b0b0-4fc60794574e","ios":"levelo://app?vid=0297537f-91b5-4de2-b0b0-4fc60794574e"},"vehicle_type_id":"4","last_reported":1752268190,"current_range_meters":4800,"station_id":"","pricing_plan_id":"cebpf4jnsgd1na2vs0mg"},{"bike_id":"be81af2c-3723-45df-be8b-8d9f231eee70","system_id":"levelo_inurba_marseille","lat":43.309498,"lon":5.39027,"is_reserved":false,"is_disabled":true,"rental_uris":{"android":"levelo://app?vid=be81af2c-3723-45df-be8b-8d9f231eee70","ios":"levelo://app?vid=be81af2c-3723-45df-be8b-8d9f231eee70"},"vehicle_type_id":"4","last_reported":1752268190,"current_range_meters":4800,"station_id":"","pricing_plan_id":"cebpf4jnsgd1na2vs0mg"},{"bike_id":"210a4c82-ab6e-44c0-948c-e38f1130ec25","system_id":"levelo_inurba_marseille","lat":43.30956,"lon":5.39039,"is_reserved":false,"is_disabled":false,"rental_uris":{"android":"levelo://app?vid=210a4c82-ab6e-44c0-948c-e38f1130ec25","ios":"levelo://app?vid=210a4c82-ab6e-44c0-948c-e38f1130ec25"},"vehicle_type_id":"4","last_reported":1752268190,"current_range_meters":5600,"station_id":"ce4bgup2rcd13ifvqco0","pricing_plan_id":"cebpf4jnsgd1na2vs0mg"},{"bike_id":"e8fef193-4c09-48ae-8b3f-2a28cc31dc7e","system_id":"levelo_inurba_marseille","lat":43.25497,"lon":5.37654,"is_reserved":false,"is_disabled":false,"rental_uris":{"android":"levelo://app?vid=e8fef193-4c09-48ae-8b3f-2a28cc31dc7e","ios":"levelo://app?vid=e8fef193-4c09-48ae-8b3f-2a28cc31dc7e"},"vehicle_type_id":"4","last_reported":1752268190,"current_range_meters":5600,"station_id":"ce4bhh12rcd13ifvqff0","pricing_plan_id":"cebpf4jnsgd1na2vs0mg"},{"bike_id":"9c82b1c5-d025-4936-a2fd-95c30eb993b9","system_id":"levelo_inurba_marseille","lat":43.28702,"lon":5.39991,"is_reserved":false,"is_disabled":false,"rental_uris":{"android":"levelo://app?vid=9c82b1c5-d025-4936-a2fd-95c30eb993b9","ios":"levelo://app?vid=9c82b1c5-d025-4936-a2fd-95c30eb993b9"},"vehicle_type_id":"4","last_reported":1752268190,"current_range_meters":5600,"station_id":"ce4bho92rcd13ifvqh3g","pricing_plan_id":"cebpf4jnsgd1na2vs0mg"},{"bike_id":"6a5b119e-7cf2-4dc4-b7fa-68080f35defe","system_id":"levelo_inurba_marseille","lat":43.31754,"lon":5.39012,"is_reserved":false,"is_disabled":true,"rental_uris":{"android":"levelo://app?vid=6a5b119e-7cf2-4dc4-b7fa-68080f35defe","ios":"levelo://app?vid=6a5b119e-7cf2-4dc4-b7fa-68080f35defe"},"vehicle_type_id":"4","last_reported":1752268190,"current_range_meters":5600,"station_id":"ce4bhqp2rcd13ifvqhng","pricing_plan_id":"cebpf4jnsgd1na2vs0mg"},{"bike_id":"b757ffbb-2b71-4330-9f60-5f8a9d46d16e","system_id":"levelo_inurba_marseille","lat":43.29641,"lon":5.37124,"is_reserved":false,"is_disabled":false,"rental_uris":{"android":"levelo://app?vid=b757ffbb-2b71-4330-9f60-5f8a9d46d16e","ios":"levelo://app?vid=b757ffbb-2b71-4330-9f60-5f8a9d46d16e"},"vehicle_type_id":"4","last_reported":1752268190,"current_range_meters":6000,"station_id":"","pricing_plan_id":"cebpf4jnsgd1na2vs0mg"},{"bike_id":"206abb40-033c-4db4-a093-5169155ce10b","system_id":"levelo_inurba_marseille","lat":43.295751,"lon":5.375091,"is_reserved":false,"is_disabled":false,"rental_uris":{"android":"levelo://app?vid=206abb40-033c-4db4-a093-5169155ce10b","ios":"levelo://app?vid=206abb40-033c-4db4-a093-5169155ce10b"},"vehicle_type_id":"4","last_reported":1752268190,"current_range_meters":6400,"station_id":"ce4bgh92rcd13ifvqb50","pricing_plan_id":"cebpf4jnsgd1na2vs0mg"},{"bike_id":"d60d8de5-1826-4d69-99a6-c45bf18f1085","system_id":"levelo_inurba_marseille","lat":43.30307,"lon":5.36902,"is_reserved":false,"is_disabled":true,"rental_uris":{"android":"levelo://app?vid=d60d8de5-1826-4d69-99a6-c45bf18f1085","ios":"levelo://app?vid=d60d8de5-1826-4d69-99a6-c45bf18f1085"},"vehicle_type_id":"4","last_reported":1752268190,"current_range_meters":6800,"station_id":"ce4bgqh2rcd13ifvqc5g","pricing_plan_id":"cebpf4jnsgd1na2vs0mg"},{"bike_id":"a7d71d19-f9e5-4dc8-84b7-1e5989d30a59","system_id":"levelo_inurba_marseille","lat":43.29265,"lon":5.38439,"is_reserved":false,"is_disabled":false,"rental_uris":{"android":"levelo://app?vid=a7d71d19-f9e5-4dc8-84b7-1e5989d30a59","ios":"levelo://app?vid=a7d71d19-f9e5-4dc8-84b7-1e5989d30a59"},"vehicle_type_id":"4","last_reported":1752268190,"current_range_meters":6800,"station_id":"ce4bh692rcd13ifvqea0","pricing_plan_id":"cebpf4jnsgd1na2vs0mg"},{"bike_id":"98743ecd-bfcb-493c-bbd5-abf9277ad665","system_id":"levelo_inurba_marseille","lat":43.26213,"lon":5.4046,"is_reserved":false,"is_disabled":false,"rental_uris":{"android":"levelo://app?vid=98743ecd-bfcb-493c-bbd5-abf9277ad665","ios":"levelo://app?vid=98743ecd-bfcb-493c-bbd5-abf9277ad665"},"vehicle_type_id":"4","last_reported":1752268190,"current_range_meters":7200,"station_id":"ce4bhmh2rcd13ifvqgmg","pricing_plan_id":"cebpf4jnsgd1na2vs0mg"},{"bike_id":"ace64107-ef6e-4332-b6ed-06e2d53b2c22","system_id":"levelo_inurba_marseille","lat":43.2926,"lon":5.40911,"is_reserved":false,"is_disabled":false,"rental_uris":{"android":"levelo://app?vid=ace64107-ef6e-4332-b6ed-06e2d53b2c22","ios":"levelo://app?vid=ace64107-ef6e-4332-b6ed-06e2d53b2c22"},"vehicle_type_id":"4","last_reported":1752268190,"current_range_meters":7200,"station_id":"ce4bh192rcd13ifvqdc0","pricing_plan_id":"cebpf4jnsgd1na2vs0mg"},{"bike_id":"16a2990f-1c42-4cd0-a7db-96be2bb1bb10","system_id":"levelo_inurba_marseille","lat":43.29624,"lon":5.37726,"is_reserved":false,"is_disabled":false,"rental_uris":{"android":"levelo://app?vid=16a2990f-1c42-4cd0-a7db-96be2bb1bb10","ios":"levelo://app?vid=16a2990f-1c42-4cd0-a7db-96be2bb1bb10"},"vehicle_type_id":"4","last_reported":1752268190,"current_range_meters":7200,"station_id":"ce4bgi92rcd13ifvqb90","pricing_plan_id":"cebpf4jnsgd1na2vs0mg"},{"bike_id":"9d7c0b35-de8f-45be-b276-cd5d768e4c80","system_id":"levelo_inurba_marseille","lat":43.2992,"lon":5.37463,"is_reserved":false,"is_disabled":false,"rental_uris":{"android":"levelo://app?vid=9d7c0b35-de8f-45be-b276-cd5d768e4c80","ios":"levelo://app?vid=9d7c0b35-de8f-45be-b276-cd5d768e4c80"},"vehicle_type_id":"4","last_reported":1752268190,"current_range_meters":6800,"station_id":"ce4bgjh2rcd13ifvqbg0","pricing_plan_id":"cebpf4jnsgd1na2vs0mg"},{"bike_id":"ac6fa144-a58e-4c9c-88eb-747201fb9c31","system_id":"levelo_inurba_marseille","lat":43.30759,"lon":5.39295,"is_reserved":false,"is_disabled":false,"rental_uris":{"android":"levelo://app?vid=ac6fa144-a58e-4c9c-88eb-747201fb9c31","ios":"levelo://app?vid=ac6fa144-a58e-4c9c-88eb-747201fb9c31"},"vehicle_type_id":"4","last_reported":1752268190,"current_range_meters":7200,"station_id":"","pricing_plan_id":"cebpf4jnsgd1na2vs0mg"},{"bike_id":"833f97ec-e704-4051-ab3b-2e9eb58f71d0","system_id":"levelo_inurba_marseille","lat":43.30272,"lon":5.37527,"is_reserved":false,"is_disabled":false,"rental_uris":{"android":"levelo://app?vid=833f97ec-e704-4051-ab3b-2e9eb58f71d0","ios":"levelo://app?vid=833f97ec-e704-4051-ab3b-2e9eb58f71d0"},"vehicle_type_id":"4","last_reported":1752268190,"current_range_meters":7200,"station_id":"","pricing_plan_id":"cebpf4jnsgd1na2vs0mg"},{"bike_id":"95dc54ea-46c3-4487-84bf-1afbe9147869","system_id":"levelo_inurba_marseille","lat":43.31358,"lon":5.38492,"is_reserved":false,"is_disabled":false,"rental_uris":{"android":"levelo://app?vid=95dc54ea-46c3-4487-84bf-1afbe9147869","ios":"levelo://app?vid=95dc54ea-46c3-4487-84bf-1afbe9147869"},"vehicle_type_id":"4","last_reported":1752268190,"current_range_meters":8000,"station_id":"ce4bgt92rcd13ifvqcf0","pricing_plan_id":"cebpf4jnsgd1na2vs0mg"},{"bike_id":"01fbd4cb-73f8-49c4-b52c-1f6b3107ec69","system_id":"levelo_inurba_marseille","lat":43.28679,"lon":5.38665,"is_reserved":false,"is_disabled":false,"rental_uris":{"android":"levelo://app?vid=01fbd4cb-73f8-49c4-b52c-1f6b3107ec69","ios":"levelo://app?vid=01fbd4cb-73f8-49c4-b52c-1f6b3107ec69"},"vehicle_type_id":"4","last_reported":1752268190,"current_range_meters":8000,"station_id":"ce4bh492rcd13ifvqdug","pricing_plan_id":"cebpf4jnsgd1na2vs0mg"},{"bike_id":"3602a46b-c362-4b67-9a39-89cf30758e85","system_id":"levelo_inurba_marseille","lat":43.29686,"lon":5.37299,"is_reserved":false,"is_disabled":false,"rental_uris":{"android":"levelo://app?vid=3602a46b-c362-4b67-9a39-89cf30758e85","ios":"levelo://app?vid=3602a46b-c362-4b67-9a39-89cf30758e85"},"vehicle_type_id":"4","last_reported":1752268190,"current_range_meters":8400,"station_id":"ce4bgk12rcd13ifvqbj0","pricing_plan_id":"cebpf4jnsgd1na2vs0mg"},{"bike_id":"ea7f713a-f8eb-4f16-8168-36d2161084e8","system_id":"levelo_inurba_marseille","lat":43.27864,"lon":5.39487,"is_reserved":false,"is_disabled":false,"rental_uris":{"android":"levelo://app?vid=ea7f713a-f8eb-4f16-8168-36d2161084e8","ios":"levelo://app?vid=ea7f713a-f8eb-4f16-8168-36d2161084e8"},"vehicle_type_id":"4","last_reported":1752268190,"current_range_meters":8400,"station_id":"","pricing_plan_id":"cebpf4jnsgd1na2vs0mg"},{"bike_id":"f6379f47-d054-43a8-bf41-72c2d3a2fa59","system_id":"levelo_inurba_marseille","lat":43.23965,"lon":5.36638,"is_reserved":false,"is_disabled":true,"rental_uris":{"android":"levelo://app?vid=f6379f47-d054-43a8-bf41-72c2d3a2fa59","ios":"levelo://app?vid=f6379f47-d054-43a8-bf41-72c2d3a2fa59"},"vehicle_type_id":"4","last_reported":1752268190,"current_range_meters":8400,"station_id":"ce4bhi12rcd13ifvqfp0","pricing_plan_id":"cebpf4jnsgd1na2vs0mg"},{"bike_id":"07330825-ed99-4d79-b83c-9b7206933da5","system_id":"levelo_inurba_marseille","lat":43.29984,"lon":5.37277,"is_reserved":false,"is_disabled":false,"rental_uris":{"android":"levelo://app?vid=07330825-ed99-4d79-b83c-9b7206933da5","ios":"levelo://app?vid=07330825-ed99-4d79-b83c-9b7206933da5"},"vehicle_type_id":"4","last_reported":1752268190,"current_range_meters":8400,"station_id":"ce4bgr92rcd13ifvqc7g","pricing_plan_id":"cebpf4jnsgd1na2vs0mg"},{"bike_id":"61185ed5-e47c-4996-a9bb-3e4db11e444b","system_id":"levelo_inurba_marseille","lat":43.29873,"lon":5.39744,"is_reserved":false,"is_disabled":false,"rental_uris":{"android":"levelo://app?vid=61185ed5-e47c-4996-a9bb-3e4db11e444b","ios":"levelo://app?vid=61185ed5-e47c-4996-a9bb-3e4db11e444b"},"vehicle_type_id":"4","last_reported":1752268190,"current_range_meters":8400,"station_id":"ce4bh0h2rcd13ifvqd50","pricing_plan_id":"cebpf4jnsgd1na2vs0mg"},{"bike_id":"c168c4df-93fb-443f-8d95-5b5b2f62c16f","system_id":"levelo_inurba_marseille","lat":43.29271,"lon":5.36867,"is_reserved":false,"is_disabled":true,"rental_uris":{"android":"levelo://app?vid=c168c4df-93fb-443f-8d95-5b5b2f62c16f","ios":"levelo://app?vid=c168c4df-93fb-443f-8d95-5b5b2f62c16f"},"vehicle_type_id":"4","last_reported":1752268190,"current_range_meters":8400,"station_id":"ce4bhbp2rcd13ifvqesg","pricing_plan_id":"cebpf4jnsgd1na2vs0mg"},{"bike_id":"b4544312-64e4-4dd2-bd6d-e1d3f6243b40","system_id":"levelo_inurba_marseille","lat":43.28856,"lon":5.384463,"is_reserved":false,"is_disabled":false,"rental_uris":{"android":"levelo://app?vid=b4544312-64e4-4dd2-bd6d-e1d3f6243b40","ios":"levelo://app?vid=b4544312-64e4-4dd2-bd6d-e1d3f6243b40"},"vehicle_type_id":"4","last_reported":1752268190,"current_range_meters":8400,"station_id":"","pricing_plan_id":"cebpf4jnsgd1na2vs0mg"},{"bike_id":"b84efe8f-b40a-4e55-b7c2-d1e60451fba9","system_id":"levelo_inurba_marseille","lat":43.30785,"lon":5.37712,"is_reserved":false,"is_disabled":false,"rental_uris":{"android":"levelo://app?vid=b84efe8f-b40a-4e55-b7c2-d1e60451fba9","ios":"levelo://app?vid=b84efe8f-b40a-4e55-b7c2-d1e60451fba9"},"vehicle_type_id":"4","last_reported":1752268190,"current_range_meters":8800,"station_id":"","pricing_plan_id":"cebpf4jnsgd1na2vs0mg"},{"bike_id":"d611b247-8c5f-4ec0-b781-fbf0524979e3","system_id":"levelo_inurba_marseille","lat":43.27999,"lon":5.41668,"is_reserved":false,"is_disabled":false,"rental_uris":{"android":"levelo://app?vid=d611b247-8c5f-4ec0-b781-fbf0524979e3","ios":"levelo://app?vid=d611b247-8c5f-4ec0-b781-fbf0524979e3"},"vehicle_type_id":"4","last_reported":1752268190,"current_range_meters":8800,"station_id":"ce4bho12rcd13ifvqh1g","pricing_plan_id":"cebpf4jnsgd1na2vs0mg"},{"bike_id":"2711e2df-4467-499e-8fe3-b15ecca6968c","system_id":"levelo_inurba_marseille","lat":43.30652,"lon":5.4008,"is_reserved":false,"is_disabled":true,"rental_uris":{"android":"levelo://app?vid=2711e2df-4467-499e-8fe3-b15ecca6968c","ios":"levelo://app?vid=2711e2df-4467-499e-8fe3-b15ecca6968c"},"vehicle_type_id":"4","last_reported":1752268190,"current_range_meters":8800,"station_id":"ce4bh112rcd13ifvqda0","pricing_plan_id":"cebpf4jnsgd1na2vs0mg"},{"bike_id":"322a4230-c3c2-46ea-8bbd-acfe3f0df4c5","system_id":"levelo_inurba_marseille","lat":43.28932,"lon":5.36394,"is_reserved":false,"is_disabled":false,"rental_uris":{"android":"levelo://app?vid=322a4230-c3c2-46ea-8bbd-acfe3f0df4c5","ios":"levelo://app?vid=322a4230-c3c2-46ea-8bbd-acfe3f0df4c5"},"vehicle_type_id":"4","last_reported":1752268190,"current_range_meters":8800,"station_id":"ce4bhc92rcd13ifvqetg","pricing_plan_id":"cebpf4jnsgd1na2vs0mg"},{"bike_id":"94561bd0-99c3-43ed-8a73-830693fec6aa","system_id":"levelo_inurba_marseille","lat":43.2957,"lon":5.37517,"is_reserved":false,"is_disabled":false,"rental_uris":{"android":"levelo://app?vid=94561bd0-99c3-43ed-8a73-830693fec6aa","ios":"levelo://app?vid=94561bd0-99c3-43ed-8a73-830693fec6aa"},"vehicle_type_id":"4","last_reported":1752268190,"current_range_meters":9200,"station_id":"ce4bgh92rcd13ifvqb50","pricing_plan_id":"cebpf4jnsgd1na2vs0mg"},{"bike_id":"b20c9547-0449-4fae-95a6-a40a4508d54d","system_id":"levelo_inurba_marseille","lat":43.29691,"lon":5.37306,"is_reserved":false,"is_disabled":false,"rental_uris":{"android":"levelo://app?vid=b20c9547-0449-4fae-95a6-a40a4508d54d","ios":"levelo://app?vid=b20c9547-0449-4fae-95a6-a40a4508d54d"},"vehicle_type_id":"4","last_reported":1752268190,"current_range_meters":9200,"station_id":"ce4bgk12rcd13ifvqbj0","pricing_plan_id":"cebpf4jnsgd1na2vs0mg"},{"bike_id":"155319f6-82f8-44a8-917b-61a19bbae115","system_id":"levelo_inurba_marseille","lat":43.35012,"lon":5.35061,"is_reserved":false,"is_disabled":false,"rental_uris":{"android":"levelo://app?vid=155319f6-82f8-44a8-917b-61a19bbae115","ios":"levelo://app?vid=155319f6-82f8-44a8-917b-61a19bbae115"},"vehicle_type_id":"4","last_reported":1752268190,"current_range_meters":9200,"station_id":"","pricing_plan_id":"cebpf4jnsgd1na2vs0mg"},{"bike_id":"b9cf4929-967c-4f18-af73-eefc3c5a4652","system_id":"levelo_inurba_marseille","lat":43.22925,"lon":5.35378,"is_reserved":false,"is_disabled":false,"rental_uris":{"android":"levelo://app?vid=b9cf4929-967c-4f18-af73-eefc3c5a4652","ios":"levelo://app?vid=b9cf4929-967c-4f18-af73-eefc3c5a4652"},"vehicle_type_id":"4","last_reported":1752268190,"current_range_meters":9200,"station_id":"cpo3532slgdg3j2ikp40","pricing_plan_id":"cebpf4jnsgd1na2vs0mg"},{"bike_id":"4e209b0c-855f-4b51-8120-2faef8673853","system_id":"levelo_inurba_marseille","lat":43.3063,"lon":5.36897,"is_reserved":false,"is_disabled":false,"rental_uris":{"android":"levelo://app?vid=4e209b0c-855f-4b51-8120-2faef8673853","ios":"levelo://app?vid=4e209b0c-855f-4b51-8120-2faef8673853"},"vehicle_type_id":"4","last_reported":1752268190,"current_range_meters":9200,"station_id":"","pricing_plan_id":"cebpf4jnsgd1na2vs0mg"},{"bike_id":"a5ad5c41-db67-4c05-9d04-9b7351b83e54","system_id":"levelo_inurba_marseille","lat":43.29527,"lon":5.38539,"is_reserved":false,"is_disabled":false,"rental_uris":{"android":"levelo://app?vid=a5ad5c41-db67-4c05-9d04-9b7351b83e54","ios":"levelo://app?vid=a5ad5c41-db67-4c05-9d04-9b7351b83e54"},"vehicle_type_id":"4","last_reported":1752268190,"current_range_meters":9600,"station_id":"ce4bgih2rcd13ifvqba0","pricing_plan_id":"cebpf4jnsgd1na2vs0mg"},{"bike_id":"4437f937-de46-4f2d-8618-09716d9352c4","system_id":"levelo_inurba_marseille","lat":43.31167,"lon":5.38714,"is_reserved":false,"is_disabled":false,"rental_uris":{"android":"levelo://app?vid=4437f937-de46-4f2d-8618-09716d9352c4","ios":"levelo://app?vid=4437f937-de46-4f2d-8618-09716d9352c4"},"vehicle_type_id":"4","last_reported":1752268190,"current_range_meters":9600,"station_id":"ce4bgv12rcd13ifvqcp0","pricing_plan_id":"cebpf4jnsgd1na2vs0mg"},{"bike_id":"5a28472d-f80e-4015-80ff-44cee0a4152c","system_id":"levelo_inurba_marseille","lat":43.29955,"lon":5.36546,"is_reserved":false,"is_disabled":false,"rental_uris":{"android":"levelo://app?vid=5a28472d-f80e-4015-80ff-44cee0a4152c","ios":"levelo://app?vid=5a28472d-f80e-4015-80ff-44cee0a4152c"},"vehicle_type_id":"4","last_reported":1752268190,"current_range_meters":9600,"station_id":"ce4bgm92rcd13ifvqbr0","pricing_plan_id":"cebpf4jnsgd1na2vs0mg"},{"bike_id":"9e93e284-9242-4107-8ba8-2ae1dc164060","system_id":"levelo_inurba_marseille","lat":43.27908,"lon":5.39598,"is_reserved":false,"is_disabled":false,"rental_uris":{"android":"levelo://app?vid=9e93e284-9242-4107-8ba8-2ae1dc164060","ios":"levelo://app?vid=9e93e284-9242-4107-8ba8-2ae1dc164060"},"vehicle_type_id":"4","last_reported":1752268190,"current_range_meters":9600,"station_id":"ce4bhf92rcd13ifvqf40","pricing_plan_id":"cebpf4jnsgd1na2vs0mg"},{"bike_id":"441b79d5-77e2-4b78-96b0-3c288b7605b0","system_id":"levelo_inurba_marseille","lat":43.30295,"lon":5.3921,"is_reserved":false,"is_disabled":false,"rental_uris":{"android":"levelo://app?vid=441b79d5-77e2-4b78-96b0-3c288b7605b0","ios":"levelo://app?vid=441b79d5-77e2-4b78-96b0-3c288b7605b0"},"vehicle_type_id":"4","last_reported":1752268190,"current_range_meters":9600,"station_id":"ce4bgkh2rcd13ifvqbk0","pricing_plan_id":"cebpf4jnsgd1na2vs0mg"},{"bike_id":"745bd566-176c-4a5f-8144-60c52211c630","system_id":"levelo_inurba_marseille","lat":43.29584,"lon":5.3752,"is_reserved":false,"is_disabled":false,"rental_uris":{"android":"levelo://app?vid=745bd566-176c-4a5f-8144-60c52211c630","ios":"levelo://app?vid=745bd566-176c-4a5f-8144-60c52211c630"},"vehicle_type_id":"4","last_reported":1752268190,"current_range_meters":10000,"station_id":"ce4bgh92rcd13ifvqb50","pricing_plan_id":"cebpf4jnsgd1na2vs0mg"},{"bike_id":"d4d04256-37ef-4092-bae4-079c4471d714","system_id":"levelo_inurba_marseille","lat":43.2926,"lon":5.38443,"is_reserved":false,"is_disabled":false,"rental_uris":{"android":"levelo://app?vid=d4d04256-37ef-4092-bae4-079c4471d714","ios":"levelo://app?vid=d4d04256-37ef-4092-bae4-079c4471d714"},"vehicle_type_id":"4","last_reported":1752268190,"current_range_meters":10000,"station_id":"ce4bh692rcd13ifvqea0","pricing_plan_id":"cebpf4jnsgd1na2vs0mg"},{"bike_id":"5a7b57ef-a00d-4d19-853c-d49c119db95f","system_id":"levelo_inurba_marseille","lat":43.24566,"lon":5.3734,"is_reserved":false,"is_disabled":true,"rental_uris":{"android":"levelo://app?vid=5a7b57ef-a00d-4d19-853c-d49c119db95f","ios":"levelo://app?vid=5a7b57ef-a00d-4d19-853c-d49c119db95f"},"vehicle_type_id":"4","last_reported":1752268190,"current_range_meters":10000,"station_id":"","pricing_plan_id":"cebpf4jnsgd1na2vs0mg"},{"bike_id":"69a38965-d4fc-4113-8da9-c18c25832d16","system_id":"levelo_inurba_marseille","lat":43.29534,"lon":5.37504,"is_reserved":false,"is_disabled":false,"rental_uris":{"android":"levelo://app?vid=69a38965-d4fc-4113-8da9-c18c25832d16","ios":"levelo://app?vid=69a38965-d4fc-4113-8da9-c18c25832d16"},"vehicle_type_id":"4","last_reported":1752268190,"current_range_meters":10000,"station_id":"ce4bgkp2rcd13ifvqbmg","pricing_plan_id":"cebpf4jnsgd1na2vs0mg"},{"bike_id":"8330a68f-2f6e-4337-9657-35d7d87c04ca","system_id":"levelo_inurba_marseille","lat":43.25451,"lon":5.37946,"is_reserved":false,"is_disabled":false,"rental_uris":{"android":"levelo://app?vid=8330a68f-2f6e-4337-9657-35d7d87c04ca","ios":"levelo://app?vid=8330a68f-2f6e-4337-9657-35d7d87c04ca"},"vehicle_type_id":"4","last_reported":1752268190,"current_range_meters":10000,"station_id":"","pricing_plan_id":"cebpf4jnsgd1na2vs0mg"},{"bike_id":"ef7e81cb-482f-4088-a5e9-ae06d5246ba9","system_id":"levelo_inurba_marseille","lat":43.29063,"lon":5.3883,"is_reserved":false,"is_disabled":false,"rental_uris":{"android":"levelo://app?vid=ef7e81cb-482f-4088-a5e9-ae06d5246ba9","ios":"levelo://app?vid=ef7e81cb-482f-4088-a5e9-ae06d5246ba9"},"vehicle_type_id":"4","last_reported":1752268190,"current_range_meters":9600,"station_id":"ce4bh4p2rcd13ifvqe0g","pricing_plan_id":"cebpf4jnsgd1na2vs0mg"},{"bike_id":"e83614b7-1234-4bc3-b14a-b5635492649e","system_id":"levelo_inurba_marseille","lat":43.28654,"lon":5.38519,"is_reserved":false,"is_disabled":false,"rental_uris":{"android":"levelo://app?vid=e83614b7-1234-4bc3-b14a-b5635492649e","ios":"levelo://app?vid=e83614b7-1234-4bc3-b14a-b5635492649e"},"vehicle_type_id":"4","last_reported":1752268190,"current_range_meters":10000,"station_id":"","pricing_plan_id":"cebpf4jnsgd1na2vs0mg"},{"bike_id":"a82dd6e1-7dd9-4044-97f1-79ae16e1070c","system_id":"levelo_inurba_marseille","lat":43.29258,"lon":5.40915,"is_reserved":false,"is_disabled":false,"rental_uris":{"android":"levelo://app?vid=a82dd6e1-7dd9-4044-97f1-79ae16e1070c","ios":"levelo://app?vid=a82dd6e1-7dd9-4044-97f1-79ae16e1070c"},"vehicle_type_id":"4","last_reported":1752268190,"current_range_meters":10000,"station_id":"ce4bh192rcd13ifvqdc0","pricing_plan_id":"cebpf4jnsgd1na2vs0mg"},{"bike_id":"9345babd-6f44-4a51-b843-6e8bf84865df","system_id":"levelo_inurba_marseille","lat":43.24812,"lon":5.3746,"is_reserved":false,"is_disabled":false,"rental_uris":{"android":"levelo://app?vid=9345babd-6f44-4a51-b843-6e8bf84865df","ios":"levelo://app?vid=9345babd-6f44-4a51-b843-6e8bf84865df"},"vehicle_type_id":"4","last_reported":1752268190,"current_range_meters":10000,"station_id":"ce4bhgh2rcd13ifvqfb0","pricing_plan_id":"cebpf4jnsgd1na2vs0mg"},{"bike_id":"534ed68d-5ceb-43a8-968b-be30f01dfa74","system_id":"levelo_inurba_marseille","lat":43.282219,"lon":5.390614,"is_reserved":false,"is_disabled":true,"rental_uris":{"android":"levelo://app?vid=534ed68d-5ceb-43a8-968b-be30f01dfa74","ios":"levelo://app?vid=534ed68d-5ceb-43a8-968b-be30f01dfa74"},"vehicle_type_id":"4","last_reported":1752268190,"current_range_meters":10800,"station_id":"","pricing_plan_id":"cebpf4jnsgd1na2vs0mg"},{"bike_id":"b2be30fb-25de-4ba2-90f4-df7253b4a8dc","system_id":"levelo_inurba_marseille","lat":43.29369,"lon":5.37671,"is_reserved":false,"is_disabled":false,"rental_uris":{"android":"levelo://app?vid=b2be30fb-25de-4ba2-90f4-df7253b4a8dc","ios":"levelo://app?vid=b2be30fb-25de-4ba2-90f4-df7253b4a8dc"},"vehicle_type_id":"4","last_reported":1752268190,"current_range_meters":10800,"station_id":"","pricing_plan_id":"cebpf4jnsgd1na2vs0mg"},{"bike_id":"3c2d946f-cbc0-4294-9aba-0158dd157f56","system_id":"levelo_inurba_marseille","lat":43.276206,"lon":5.361088,"is_reserved":false,"is_disabled":false,"rental_uris":{"android":"levelo://app?vid=3c2d946f-cbc0-4294-9aba-0158dd157f56","ios":"levelo://app?vid=3c2d946f-cbc0-4294-9aba-0158dd157f56"},"vehicle_type_id":"4","last_reported":1752268190,"current_range_meters":10800,"station_id":"ce4bgj92rcd13ifvqbe0","pricing_plan_id":"cebpf4jnsgd1na2vs0mg"},{"bike_id":"589f0b9a-c6fb-4ec0-93f8-1c8c77954886","system_id":"levelo_inurba_marseille","lat":43.29296,"lon":5.374475,"is_reserved":false,"is_disabled":false,"rental_uris":{"android":"levelo://app?vid=589f0b9a-c6fb-4ec0-93f8-1c8c77954886","ios":"levelo://app?vid=589f0b9a-c6fb-4ec0-93f8-1c8c77954886"},"vehicle_type_id":"4","last_reported":1752268190,"current_range_meters":10800,"station_id":"ce4bgi12rcd13ifvqb70","pricing_plan_id":"cebpf4jnsgd1na2vs0mg"},{"bike_id":"deeadb7f-f54a-4d08-bb06-afe237425d78","system_id":"levelo_inurba_marseille","lat":43.30295,"lon":5.39229,"is_reserved":false,"is_disabled":false,"rental_uris":{"android":"levelo://app?vid=deeadb7f-f54a-4d08-bb06-afe237425d78","ios":"levelo://app?vid=deeadb7f-f54a-4d08-bb06-afe237425d78"},"vehicle_type_id":"4","last_reported":1752268190,"current_range_meters":10800,"station_id":"ce4bgkh2rcd13ifvqbk0","pricing_plan_id":"cebpf4jnsgd1na2vs0mg"},{"bike_id":"1797e06b-d9e5-4fb7-be0f-8230d778970b","system_id":"levelo_inurba_marseille","lat":43.29267,"lon":5.36844,"is_reserved":false,"is_disabled":true,"rental_uris":{"android":"levelo://app?vid=1797e06b-d9e5-4fb7-be0f-8230d778970b","ios":"levelo://app?vid=1797e06b-d9e5-4fb7-be0f-8230d778970b"},"vehicle_type_id":"4","last_reported":1752268190,"current_range_meters":10800,"station_id":"ce4bhbp2rcd13ifvqesg","pricing_plan_id":"cebpf4jnsgd1na2vs0mg"},{"bike_id":"93fc2913-2662-45de-9cdf-49398ba0b57d","system_id":"levelo_inurba_marseille","lat":43.29294,"lon":5.3745,"is_reserved":false,"is_disabled":false,"rental_uris":{"android":"levelo://app?vid=93fc2913-2662-45de-9cdf-49398ba0b57d","ios":"levelo://app?vid=93fc2913-2662-45de-9cdf-49398ba0b57d"},"vehicle_type_id":"4","last_reported":1752268190,"current_range_meters":11200,"station_id":"ce4bgi12rcd13ifvqb70","pricing_plan_id":"cebpf4jnsgd1na2vs0mg"},{"bike_id":"3dac38a2-19cc-4c12-b2ee-6bfed67a4bd4","system_id":"levelo_inurba_marseille","lat":43.24818,"lon":5.3746,"is_reserved":false,"is_disabled":false,"rental_uris":{"android":"levelo://app?vid=3dac38a2-19cc-4c12-b2ee-6bfed67a4bd4","ios":"levelo://app?vid=3dac38a2-19cc-4c12-b2ee-6bfed67a4bd4"},"vehicle_type_id":"4","last_reported":1752268190,"current_range_meters":11200,"station_id":"ce4bhgh2rcd13ifvqfb0","pricing_plan_id":"cebpf4jnsgd1na2vs0mg"},{"bike_id":"33ab2b3b-e110-46f8-bae0-cfb13654c964","system_id":"levelo_inurba_marseille","lat":43.280906,"lon":5.399502,"is_reserved":false,"is_disabled":false,"rental_uris":{"android":"levelo://app?vid=33ab2b3b-e110-46f8-bae0-cfb13654c964","ios":"levelo://app?vid=33ab2b3b-e110-46f8-bae0-cfb13654c964"},"vehicle_type_id":"4","last_reported":1752268190,"current_range_meters":11200,"station_id":"ce4bh292rcd13ifvqdg0","pricing_plan_id":"cebpf4jnsgd1na2vs0mg"},{"bike_id":"d849a247-c2c0-4619-bac8-f5a6994e0014","system_id":"levelo_inurba_marseille","lat":43.320325,"lon":5.41559,"is_reserved":false,"is_disabled":true,"rental_uris":{"android":"levelo://app?vid=d849a247-c2c0-4619-bac8-f5a6994e0014","ios":"levelo://app?vid=d849a247-c2c0-4619-bac8-f5a6994e0014"},"vehicle_type_id":"4","last_reported":1752268190,"current_range_meters":11200,"station_id":"ce4bhq92rcd13ifvqhkg","pricing_plan_id":"cebpf4jnsgd1na2vs0mg"},{"bike_id":"42dad90c-0aeb-4c02-9f28-cd225b3a0eb0","system_id":"levelo_inurba_marseille","lat":43.29568,"lon":5.37512,"is_reserved":false,"is_disabled":false,"rental_uris":{"android":"levelo://app?vid=42dad90c-0aeb-4c02-9f28-cd225b3a0eb0","ios":"levelo://app?vid=42dad90c-0aeb-4c02-9f28-cd225b3a0eb0"},"vehicle_type_id":"4","last_reported":1752268190,"current_range_meters":11200,"station_id":"ce4bgh92rcd13ifvqb50","pricing_plan_id":"cebpf4jnsgd1na2vs0mg"},{"bike_id":"39a9b5e6-3b40-48af-8092-556a533b8434","system_id":"levelo_inurba_marseille","lat":43.26555,"lon":5.37285,"is_reserved":false,"is_disabled":false,"rental_uris":{"android":"levelo://app?vid=39a9b5e6-3b40-48af-8092-556a533b8434","ios":"levelo://app?vid=39a9b5e6-3b40-48af-8092-556a533b8434"},"vehicle_type_id":"4","last_reported":1752268190,"current_range_meters":11600,"station_id":"ce4bhg12rcd13ifvqf70","pricing_plan_id":"cebpf4jnsgd1na2vs0mg"},{"bike_id":"cfa46a71-8e5b-40b1-b706-ab2fb30d4446","system_id":"levelo_inurba_marseille","lat":43.28443,"lon":5.39192,"is_reserved":false,"is_disabled":false,"rental_uris":{"android":"levelo://app?vid=cfa46a71-8e5b-40b1-b706-ab2fb30d4446","ios":"levelo://app?vid=cfa46a71-8e5b-40b1-b706-ab2fb30d4446"},"vehicle_type_id":"4","last_reported":1752268190,"current_range_meters":11600,"station_id":"ce4bhoh2rcd13ifvqh5g","pricing_plan_id":"cebpf4jnsgd1na2vs0mg"},{"bike_id":"b82a1ed1-24c6-4af9-9301-66e0e5e176c9","system_id":"levelo_inurba_marseille","lat":43.28105,"lon":5.37837,"is_reserved":false,"is_disabled":false,"rental_uris":{"android":"levelo://app?vid=b82a1ed1-24c6-4af9-9301-66e0e5e176c9","ios":"levelo://app?vid=b82a1ed1-24c6-4af9-9301-66e0e5e176c9"},"vehicle_type_id":"4","last_reported":1752268190,"current_range_meters":11600,"station_id":"ce4bha12rcd13ifvqee0","pricing_plan_id":"cebpf4jnsgd1na2vs0mg"},{"bike_id":"f166470a-6c77-467a-a537-4628500c78ad","system_id":"levelo_inurba_marseille","lat":43.29787,"lon":5.3709,"is_reserved":false,"is_disabled":false,"rental_uris":{"android":"levelo://app?vid=f166470a-6c77-467a-a537-4628500c78ad","ios":"levelo://app?vid=f166470a-6c77-467a-a537-4628500c78ad"},"vehicle_type_id":"4","last_reported":1752268190,"current_range_meters":12000,"station_id":"ce4bgop2rcd13ifvqc1g","pricing_plan_id":"cebpf4jnsgd1na2vs0mg"},{"bike_id":"3f50b904-8311-4781-93ab-8107c415adad","system_id":"levelo_inurba_marseille","lat":43.27622,"lon":5.36128,"is_reserved":false,"is_disabled":false,"rental_uris":{"android":"levelo://app?vid=3f50b904-8311-4781-93ab-8107c415adad","ios":"levelo://app?vid=3f50b904-8311-4781-93ab-8107c415adad"},"vehicle_type_id":"4","last_reported":1752268190,"current_range_meters":12000,"station_id":"ce4bgj92rcd13ifvqbe0","pricing_plan_id":"cebpf4jnsgd1na2vs0mg"},{"bike_id":"6e44525d-ed45-445a-a877-081b94eb5813","system_id":"levelo_inurba_marseille","lat":43.30351,"lon":5.41885,"is_reserved":false,"is_disabled":true,"rental_uris":{"android":"levelo://app?vid=6e44525d-ed45-445a-a877-081b94eb5813","ios":"levelo://app?vid=6e44525d-ed45-445a-a877-081b94eb5813"},"vehicle_type_id":"4","last_reported":1752268190,"current_range_meters":12000,"station_id":"ce4bhop2rcd13ifvqh7g","pricing_plan_id":"cebpf4jnsgd1na2vs0mg"},{"bike_id":"afb1e6e0-367f-434a-bf24-d1de558cd081","system_id":"levelo_inurba_marseille","lat":43.311751,"lon":5.387198,"is_reserved":false,"is_disabled":false,"rental_uris":{"android":"levelo://app?vid=afb1e6e0-367f-434a-bf24-d1de558cd081","ios":"levelo://app?vid=afb1e6e0-367f-434a-bf24-d1de558cd081"},"vehicle_type_id":"4","last_reported":1752268190,"current_range_meters":12000,"station_id":"ce4bgv12rcd13ifvqcp0","pricing_plan_id":"cebpf4jnsgd1na2vs0mg"},{"bike_id":"46f56060-ef82-4815-aade-b0c4dea361e2","system_id":"levelo_inurba_marseille","lat":43.250821,"lon":5.403503,"is_reserved":false,"is_disabled":false,"rental_uris":{"android":"levelo://app?vid=46f56060-ef82-4815-aade-b0c4dea361e2","ios":"levelo://app?vid=46f56060-ef82-4815-aade-b0c4dea361e2"},"vehicle_type_id":"4","last_reported":1752268190,"current_range_meters":12000,"station_id":"ce4bhlh2rcd13ifvqgig","pricing_plan_id":"cebpf4jnsgd1na2vs0mg"},{"bike_id":"17aca968-6a2c-4144-9dfb-0f0bdb286cb4","system_id":"levelo_inurba_marseille","lat":43.29254,"lon":5.38451,"is_reserved":false,"is_disabled":false,"rental_uris":{"android":"levelo://app?vid=17aca968-6a2c-4144-9dfb-0f0bdb286cb4","ios":"levelo://app?vid=17aca968-6a2c-4144-9dfb-0f0bdb286cb4"},"vehicle_type_id":"4","last_reported":1752268190,"current_range_meters":12000,"station_id":"ce4bh692rcd13ifvqea0","pricing_plan_id":"cebpf4jnsgd1na2vs0mg"},{"bike_id":"7392143f-a48d-4d17-918a-2d49b0cf2786","system_id":"levelo_inurba_marseille","lat":43.317,"lon":5.40484,"is_reserved":false,"is_disabled":true,"rental_uris":{"android":"levelo://app?vid=7392143f-a48d-4d17-918a-2d49b0cf2786","ios":"levelo://app?vid=7392143f-a48d-4d17-918a-2d49b0cf2786"},"vehicle_type_id":"4","last_reported":1752268190,"current_range_meters":12000,"station_id":"ce4bh012rcd13ifvqd00","pricing_plan_id":"cebpf4jnsgd1na2vs0mg"},{"bike_id":"17e07bba-b36b-43fd-859c-3efbf0c40e46","system_id":"levelo_inurba_marseille","lat":43.289185,"lon":5.366573,"is_reserved":false,"is_disabled":false,"rental_uris":{"android":"levelo://app?vid=17e07bba-b36b-43fd-859c-3efbf0c40e46","ios":"levelo://app?vid=17e07bba-b36b-43fd-859c-3efbf0c40e46"},"vehicle_type_id":"4","last_reported":1752268190,"current_range_meters":12400,"station_id":"ce4bhap2rcd13ifvqek0","pricing_plan_id":"cebpf4jnsgd1na2vs0mg"},{"bike_id":"1e61f73c-886c-41c3-abb7-9dff89e44e24","system_id":"levelo_inurba_marseille","lat":43.29725,"lon":5.37684,"is_reserved":false,"is_disabled":false,"rental_uris":{"android":"levelo://app?vid=1e61f73c-886c-41c3-abb7-9dff89e44e24","ios":"levelo://app?vid=1e61f73c-886c-41c3-abb7-9dff89e44e24"},"vehicle_type_id":"4","last_reported":1752268190,"current_range_meters":12400,"station_id":"ce4bgkh2rcd13ifvqbl0","pricing_plan_id":"cebpf4jnsgd1na2vs0mg"},{"bike_id":"5076ad93-b7e2-4902-b566-655c2183f3e6","system_id":"levelo_inurba_marseille","lat":43.27963,"lon":5.38684,"is_reserved":false,"is_disabled":true,"rental_uris":{"android":"levelo://app?vid=5076ad93-b7e2-4902-b566-655c2183f3e6","ios":"levelo://app?vid=5076ad93-b7e2-4902-b566-655c2183f3e6"},"vehicle_type_id":"4","last_reported":1752268190,"current_range_meters":12400,"station_id":"","pricing_plan_id":"cebpf4jnsgd1na2vs0mg"},{"bike_id":"c1937d9c-e6f4-4366-ba3d-afdccbc7e897","system_id":"levelo_inurba_marseille","lat":43.29561,"lon":5.37486,"is_reserved":false,"is_disabled":false,"rental_uris":{"android":"levelo://app?vid=c1937d9c-e6f4-4366-ba3d-afdccbc7e897","ios":"levelo://app?vid=c1937d9c-e6f4-4366-ba3d-afdccbc7e897"},"vehicle_type_id":"4","last_reported":1752268190,"current_range_meters":12400,"station_id":"ce4bgh92rcd13ifvqb50","pricing_plan_id":"cebpf4jnsgd1na2vs0mg"},{"bike_id":"df439a94-64b5-459b-b683-ea3162b31773","system_id":"levelo_inurba_marseille","lat":43.337444,"lon":5.374475,"is_reserved":false,"is_disabled":false,"rental_uris":{"android":"levelo://app?vid=df439a94-64b5-459b-b683-ea3162b31773","ios":"levelo://app?vid=df439a94-64b5-459b-b683-ea3162b31773"},"vehicle_type_id":"4","last_reported":1752268190,"current_range_meters":12800,"station_id":"","pricing_plan_id":"cebpf4jnsgd1na2vs0mg"},{"bike_id":"fd9f5c27-5d58-42e5-badc-a12a0344229e","system_id":"levelo_inurba_marseille","lat":43.28917,"lon":5.36093,"is_reserved":false,"is_disabled":false,"rental_uris":{"android":"levelo://app?vid=fd9f5c27-5d58-42e5-badc-a12a0344229e","ios":"levelo://app?vid=fd9f5c27-5d58-42e5-badc-a12a0344229e"},"vehicle_type_id":"4","last_reported":1752268190,"current_range_meters":12800,"station_id":"","pricing_plan_id":"cebpf4jnsgd1na2vs0mg"},{"bike_id":"4d4b9e28-a4f6-4d45-ac6b-64a63a768bd8","system_id":"levelo_inurba_marseille","lat":43.31516,"lon":5.37408,"is_reserved":false,"is_disabled":false,"rental_uris":{"android":"levelo://app?vid=4d4b9e28-a4f6-4d45-ac6b-64a63a768bd8","ios":"levelo://app?vid=4d4b9e28-a4f6-4d45-ac6b-64a63a768bd8"},"vehicle_type_id":"4","last_reported":1752268190,"current_range_meters":12800,"station_id":"","pricing_plan_id":"cebpf4jnsgd1na2vs0mg"},{"bike_id":"595e9351-a7ce-45de-8995-771f7d9fe86e","system_id":"levelo_inurba_marseille","lat":43.309243,"lon":5.378088,"is_reserved":false,"is_disabled":false,"rental_uris":{"android":"levelo://app?vid=595e9351-a7ce-45de-8995-771f7d9fe86e","ios":"levelo://app?vid=595e9351-a7ce-45de-8995-771f7d9fe86e"},"vehicle_type_id":"4","last_reported":1752268190,"current_range_meters":12800,"station_id":"","pricing_plan_id":"cebpf4jnsgd1na2vs0mg"},{"bike_id":"bb4ff68d-1098-4577-ae35-5dfa8158f1a5","system_id":"levelo_inurba_marseille","lat":43.31995,"lon":5.38171,"is_reserved":false,"is_disabled":false,"rental_uris":{"android":"levelo://app?vid=bb4ff68d-1098-4577-ae35-5dfa8158f1a5","ios":"levelo://app?vid=bb4ff68d-1098-4577-ae35-5dfa8158f1a5"},"vehicle_type_id":"4","last_reported":1752268190,"current_range_meters":12800,"station_id":"ce4bhr12rcd13ifvqhpg","pricing_plan_id":"cebpf4jnsgd1na2vs0mg"},{"bike_id":"b189d388-7dab-48f9-be13-60704c06c7c6","system_id":"levelo_inurba_marseille","lat":43.26209,"lon":5.37441,"is_reserved":false,"is_disabled":false,"rental_uris":{"android":"levelo://app?vid=b189d388-7dab-48f9-be13-60704c06c7c6","ios":"levelo://app?vid=b189d388-7dab-48f9-be13-60704c06c7c6"},"vehicle_type_id":"4","last_reported":1752268190,"current_range_meters":12800,"station_id":"ce4bhgp2rcd13ifvqfc0","pricing_plan_id":"cebpf4jnsgd1na2vs0mg"},{"bike_id":"a14fb487-194a-4bcb-a9a5-863e77214261","system_id":"levelo_inurba_marseille","lat":43.29531,"lon":5.38557,"is_reserved":false,"is_disabled":false,"rental_uris":{"android":"levelo://app?vid=a14fb487-194a-4bcb-a9a5-863e77214261","ios":"levelo://app?vid=a14fb487-194a-4bcb-a9a5-863e77214261"},"vehicle_type_id":"4","last_reported":1752268190,"current_range_meters":12800,"station_id":"ce4bgih2rcd13ifvqba0","pricing_plan_id":"cebpf4jnsgd1na2vs0mg"},{"bike_id":"e3a75ee9-c614-467b-8cc2-f813bcef2ab1","system_id":"levelo_inurba_marseille","lat":43.33743,"lon":5.3919,"is_reserved":false,"is_disabled":false,"rental_uris":{"android":"levelo://app?vid=e3a75ee9-c614-467b-8cc2-f813bcef2ab1","ios":"levelo://app?vid=e3a75ee9-c614-467b-8cc2-f813bcef2ab1"},"vehicle_type_id":"4","last_reported":1752268190,"current_range_meters":12800,"station_id":"ce4bhr92rcd13ifvqhsg","pricing_plan_id":"cebpf4jnsgd1na2vs0mg"},{"bike_id":"1c44757f-6290-4685-a1c7-0477b636f869","system_id":"levelo_inurba_marseille","lat":43.2957,"lon":5.37498,"is_reserved":false,"is_disabled":false,"rental_uris":{"android":"levelo://app?vid=1c44757f-6290-4685-a1c7-0477b636f869","ios":"levelo://app?vid=1c44757f-6290-4685-a1c7-0477b636f869"},"vehicle_type_id":"4","last_reported":1752268190,"current_range_meters":13600,"station_id":"ce4bgh92rcd13ifvqb50","pricing_plan_id":"cebpf4jnsgd1na2vs0mg"},{"bike_id":"5f27cee9-4808-4986-92e5-73f9f0fefbc8","system_id":"levelo_inurba_marseille","lat":43.248214,"lon":5.374506,"is_reserved":false,"is_disabled":false,"rental_uris":{"android":"levelo://app?vid=5f27cee9-4808-4986-92e5-73f9f0fefbc8","ios":"levelo://app?vid=5f27cee9-4808-4986-92e5-73f9f0fefbc8"},"vehicle_type_id":"4","last_reported":1752268190,"current_range_meters":13600,"station_id":"ce4bhgh2rcd13ifvqfb0","pricing_plan_id":"cebpf4jnsgd1na2vs0mg"},{"bike_id":"1d1a2b93-02bf-4c9c-a58e-fa3a419578eb","system_id":"levelo_inurba_marseille","lat":43.26552,"lon":5.37286,"is_reserved":false,"is_disabled":false,"rental_uris":{"android":"levelo://app?vid=1d1a2b93-02bf-4c9c-a58e-fa3a419578eb","ios":"levelo://app?vid=1d1a2b93-02bf-4c9c-a58e-fa3a419578eb"},"vehicle_type_id":"4","last_reported":1752268190,"current_range_meters":13600,"station_id":"ce4bhg12rcd13ifvqf70","pricing_plan_id":"cebpf4jnsgd1na2vs0mg"},{"bike_id":"647a1903-1834-4730-b34e-6397917620f0","system_id":"levelo_inurba_marseille","lat":43.31675,"lon":5.37016,"is_reserved":false,"is_disabled":false,"rental_uris":{"android":"levelo://app?vid=647a1903-1834-4730-b34e-6397917620f0","ios":"levelo://app?vid=647a1903-1834-4730-b34e-6397917620f0"},"vehicle_type_id":"4","last_reported":1752268190,"current_range_meters":13600,"station_id":"","pricing_plan_id":"cebpf4jnsgd1na2vs0mg"},{"bike_id":"d39e8fce-b1da-4f76-bd04-fee9d943c87e","system_id":"levelo_inurba_marseille","lat":43.29592,"lon":5.3752,"is_reserved":false,"is_disabled":false,"rental_uris":{"android":"levelo://app?vid=d39e8fce-b1da-4f76-bd04-fee9d943c87e","ios":"levelo://app?vid=d39e8fce-b1da-4f76-bd04-fee9d943c87e"},"vehicle_type_id":"4","last_reported":1752268190,"current_range_meters":13600,"station_id":"ce4bgh92rcd13ifvqb50","pricing_plan_id":"cebpf4jnsgd1na2vs0mg"},{"bike_id":"cff3cfb3-9cf3-4580-9b98-cf82a9dcd25f","system_id":"levelo_inurba_marseille","lat":43.31163,"lon":5.38724,"is_reserved":false,"is_disabled":false,"rental_uris":{"android":"levelo://app?vid=cff3cfb3-9cf3-4580-9b98-cf82a9dcd25f","ios":"levelo://app?vid=cff3cfb3-9cf3-4580-9b98-cf82a9dcd25f"},"vehicle_type_id":"4","last_reported":1752268190,"current_range_meters":13600,"station_id":"ce4bgv12rcd13ifvqcp0","pricing_plan_id":"cebpf4jnsgd1na2vs0mg"},{"bike_id":"eda0ea69-6404-43e6-9ede-2655d170d444","system_id":"levelo_inurba_marseille","lat":43.28829,"lon":5.35838,"is_reserved":false,"is_disabled":true,"rental_uris":{"android":"levelo://app?vid=eda0ea69-6404-43e6-9ede-2655d170d444","ios":"levelo://app?vid=eda0ea69-6404-43e6-9ede-2655d170d444"},"vehicle_type_id":"4","last_reported":1752268190,"current_range_meters":13600,"station_id":"ce4bhb12rcd13ifvqem0","pricing_plan_id":"cebpf4jnsgd1na2vs0mg"},{"bike_id":"650f810a-ea48-4652-b488-5274535ec11b","system_id":"levelo_inurba_marseille","lat":43.241671,"lon":5.363963,"is_reserved":false,"is_disabled":false,"rental_uris":{"android":"levelo://app?vid=650f810a-ea48-4652-b488-5274535ec11b","ios":"levelo://app?vid=650f810a-ea48-4652-b488-5274535ec11b"},"vehicle_type_id":"4","last_reported":1752268190,"current_range_meters":13600,"station_id":"cpo36qri1sfpv3e86is0","pricing_plan_id":"cebpf4jnsgd1na2vs0mg"},{"bike_id":"62811799-f446-4bdb-bbb9-ccc8aa51fc0c","system_id":"levelo_inurba_marseille","lat":43.2621,"lon":5.37441,"is_reserved":false,"is_disabled":false,"rental_uris":{"android":"levelo://app?vid=62811799-f446-4bdb-bbb9-ccc8aa51fc0c","ios":"levelo://app?vid=62811799-f446-4bdb-bbb9-ccc8aa51fc0c"},"vehicle_type_id":"4","last_reported":1752268190,"current_range_meters":13600,"station_id":"ce4bhgp2rcd13ifvqfc0","pricing_plan_id":"cebpf4jnsgd1na2vs0mg"},{"bike_id":"12962c22-c999-46c4-b70d-26925ea9fc72","system_id":"levelo_inurba_marseille","lat":43.29776,"lon":5.38165,"is_reserved":false,"is_disabled":false,"rental_uris":{"android":"levelo://app?vid=12962c22-c999-46c4-b70d-26925ea9fc72","ios":"levelo://app?vid=12962c22-c999-46c4-b70d-26925ea9fc72"},"vehicle_type_id":"4","last_reported":1752268190,"current_range_meters":13600,"station_id":"","pricing_plan_id":"cebpf4jnsgd1na2vs0mg"},{"bike_id":"e8e03632-b9d1-480f-a4da-da482a543464","system_id":"levelo_inurba_marseille","lat":43.29022,"lon":5.37564,"is_reserved":false,"is_disabled":true,"rental_uris":{"android":"levelo://app?vid=e8e03632-b9d1-480f-a4da-da482a543464","ios":"levelo://app?vid=e8e03632-b9d1-480f-a4da-da482a543464"},"vehicle_type_id":"4","last_reported":1752268190,"current_range_meters":14000,"station_id":"ce4bh692rcd13ifvqe90","pricing_plan_id":"cebpf4jnsgd1na2vs0mg"},{"bike_id":"530fdaa0-3dcf-48bd-ae6d-18f67ca1c283","system_id":"levelo_inurba_marseille","lat":43.297111,"lon":5.366155,"is_reserved":false,"is_disabled":false,"rental_uris":{"android":"levelo://app?vid=530fdaa0-3dcf-48bd-ae6d-18f67ca1c283","ios":"levelo://app?vid=530fdaa0-3dcf-48bd-ae6d-18f67ca1c283"},"vehicle_type_id":"4","last_reported":1752268190,"current_range_meters":14000,"station_id":"","pricing_plan_id":"cebpf4jnsgd1na2vs0mg"},{"bike_id":"1a43ca8c-bdd7-4b00-8700-95b0e846859b","system_id":"levelo_inurba_marseille","lat":43.29417,"lon":5.38624,"is_reserved":false,"is_disabled":false,"rental_uris":{"android":"levelo://app?vid=1a43ca8c-bdd7-4b00-8700-95b0e846859b","ios":"levelo://app?vid=1a43ca8c-bdd7-4b00-8700-95b0e846859b"},"vehicle_type_id":"4","last_reported":1752268190,"current_range_meters":14000,"station_id":"ce4bh2h2rcd13ifvqdh0","pricing_plan_id":"cebpf4jnsgd1na2vs0mg"},{"bike_id":"85758837-e8e8-429b-9b62-411361adebf1","system_id":"levelo_inurba_marseille","lat":43.317587,"lon":5.390127,"is_reserved":false,"is_disabled":true,"rental_uris":{"android":"levelo://app?vid=85758837-e8e8-429b-9b62-411361adebf1","ios":"levelo://app?vid=85758837-e8e8-429b-9b62-411361adebf1"},"vehicle_type_id":"4","last_reported":1752268190,"current_range_meters":14000,"station_id":"ce4bhqp2rcd13ifvqhng","pricing_plan_id":"cebpf4jnsgd1na2vs0mg"},{"bike_id":"46eb3779-d50e-4fbb-a2ae-d89939988e58","system_id":"levelo_inurba_marseille","lat":43.2603,"lon":5.37555,"is_reserved":false,"is_disabled":false,"rental_uris":{"android":"levelo://app?vid=46eb3779-d50e-4fbb-a2ae-d89939988e58","ios":"levelo://app?vid=46eb3779-d50e-4fbb-a2ae-d89939988e58"},"vehicle_type_id":"4","last_reported":1752268190,"current_range_meters":14000,"station_id":"ce4bhgh2rcd13ifvqfa0","pricing_plan_id":"cebpf4jnsgd1na2vs0mg"},{"bike_id":"ceb8bcf8-9e11-4102-bd78-9a687c0c96d2","system_id":"levelo_inurba_marseille","lat":43.28921,"lon":5.3838,"is_reserved":false,"is_disabled":true,"rental_uris":{"android":"levelo://app?vid=ceb8bcf8-9e11-4102-bd78-9a687c0c96d2","ios":"levelo://app?vid=ceb8bcf8-9e11-4102-bd78-9a687c0c96d2"},"vehicle_type_id":"4","last_reported":1752268190,"current_range_meters":14400,"station_id":"ce4bh612rcd13ifvqe6g","pricing_plan_id":"cebpf4jnsgd1na2vs0mg"},{"bike_id":"8929c1bf-fd4d-44e4-aa66-b3eb6538c998","system_id":"levelo_inurba_marseille","lat":43.2859,"lon":5.42981,"is_reserved":false,"is_disabled":false,"rental_uris":{"android":"levelo://app?vid=8929c1bf-fd4d-44e4-aa66-b3eb6538c998","ios":"levelo://app?vid=8929c1bf-fd4d-44e4-aa66-b3eb6538c998"},"vehicle_type_id":"4","last_reported":1752268190,"current_range_meters":14400,"station_id":"","pricing_plan_id":"cebpf4jnsgd1na2vs0mg"},{"bike_id":"09f823ff-1b79-4262-b1b5-6b44f6e3cd5b","system_id":"levelo_inurba_marseille","lat":43.30796,"lon":5.43535,"is_reserved":false,"is_disabled":false,"rental_uris":{"android":"levelo://app?vid=09f823ff-1b79-4262-b1b5-6b44f6e3cd5b","ios":"levelo://app?vid=09f823ff-1b79-4262-b1b5-6b44f6e3cd5b"},"vehicle_type_id":"4","last_reported":1752268190,"current_range_meters":14400,"station_id":"ce4bhph2rcd13ifvqheg","pricing_plan_id":"cebpf4jnsgd1na2vs0mg"},{"bike_id":"97d4bafb-1703-482a-9af9-9c0328bf232e","system_id":"levelo_inurba_marseille","lat":43.29542,"lon":5.3749,"is_reserved":false,"is_disabled":true,"rental_uris":{"android":"levelo://app?vid=97d4bafb-1703-482a-9af9-9c0328bf232e","ios":"levelo://app?vid=97d4bafb-1703-482a-9af9-9c0328bf232e"},"vehicle_type_id":"4","last_reported":1752268190,"current_range_meters":14400,"station_id":"ce4bgkp2rcd13ifvqbmg","pricing_plan_id":"cebpf4jnsgd1na2vs0mg"},{"bike_id":"1d0b6e0a-df5f-4041-9b7d-514bbf8b4a97","system_id":"levelo_inurba_marseille","lat":43.30604,"lon":5.37231,"is_reserved":false,"is_disabled":false,"rental_uris":{"android":"levelo://app?vid=1d0b6e0a-df5f-4041-9b7d-514bbf8b4a97","ios":"levelo://app?vid=1d0b6e0a-df5f-4041-9b7d-514bbf8b4a97"},"vehicle_type_id":"4","last_reported":1752268190,"current_range_meters":14000,"station_id":"ce4bgqh2rcd13ifvqc4g","pricing_plan_id":"cebpf4jnsgd1na2vs0mg"},{"bike_id":"dafa5a87-b26d-4379-9a6b-1f02133b78a6","system_id":"levelo_inurba_marseille","lat":43.21194,"lon":5.3507,"is_reserved":false,"is_disabled":false,"rental_uris":{"android":"levelo://app?vid=dafa5a87-b26d-4379-9a6b-1f02133b78a6","ios":"levelo://app?vid=dafa5a87-b26d-4379-9a6b-1f02133b78a6"},"vehicle_type_id":"4","last_reported":1752268190,"current_range_meters":14400,"station_id":"","pricing_plan_id":"cebpf4jnsgd1na2vs0mg"},{"bike_id":"7b5cd6ce-df57-4328-854d-cb2d1407ab18","system_id":"levelo_inurba_marseille","lat":43.330237,"lon":5.390423,"is_reserved":false,"is_disabled":false,"rental_uris":{"android":"levelo://app?vid=7b5cd6ce-df57-4328-854d-cb2d1407ab18","ios":"levelo://app?vid=7b5cd6ce-df57-4328-854d-cb2d1407ab18"},"vehicle_type_id":"4","last_reported":1752268190,"current_range_meters":14400,"station_id":"ce4bhr92rcd13ifvqhrg","pricing_plan_id":"cebpf4jnsgd1na2vs0mg"},{"bike_id":"48ba3ad0-e09f-4427-a7dc-e4e0812a0d85","system_id":"levelo_inurba_marseille","lat":43.32672,"lon":5.41002,"is_reserved":false,"is_disabled":false,"rental_uris":{"android":"levelo://app?vid=48ba3ad0-e09f-4427-a7dc-e4e0812a0d85","ios":"levelo://app?vid=48ba3ad0-e09f-4427-a7dc-e4e0812a0d85"},"vehicle_type_id":"4","last_reported":1752268190,"current_range_meters":14400,"station_id":"ce4bhpp2rcd13ifvqhgg","pricing_plan_id":"cebpf4jnsgd1na2vs0mg"},{"bike_id":"335e48f8-bce1-47d7-af9a-14066934fea6","system_id":"levelo_inurba_marseille","lat":43.29262,"lon":5.38445,"is_reserved":false,"is_disabled":false,"rental_uris":{"android":"levelo://app?vid=335e48f8-bce1-47d7-af9a-14066934fea6","ios":"levelo://app?vid=335e48f8-bce1-47d7-af9a-14066934fea6"},"vehicle_type_id":"4","last_reported":1752268190,"current_range_meters":14800,"station_id":"ce4bh692rcd13ifvqea0","pricing_plan_id":"cebpf4jnsgd1na2vs0mg"},{"bike_id":"7eac452f-936d-4848-949a-4cc39c421116","system_id":"levelo_inurba_marseille","lat":43.29256,"lon":5.38449,"is_reserved":false,"is_disabled":false,"rental_uris":{"android":"levelo://app?vid=7eac452f-936d-4848-949a-4cc39c421116","ios":"levelo://app?vid=7eac452f-936d-4848-949a-4cc39c421116"},"vehicle_type_id":"4","last_reported":1752268190,"current_range_meters":14800,"station_id":"ce4bh692rcd13ifvqea0","pricing_plan_id":"cebpf4jnsgd1na2vs0mg"},{"bike_id":"542e8017-df34-4c0b-8316-4d1f552f9284","system_id":"levelo_inurba_marseille","lat":43.29697,"lon":5.37289,"is_reserved":false,"is_disabled":false,"rental_uris":{"android":"levelo://app?vid=542e8017-df34-4c0b-8316-4d1f552f9284","ios":"levelo://app?vid=542e8017-df34-4c0b-8316-4d1f552f9284"},"vehicle_type_id":"4","last_reported":1752268190,"current_range_meters":14800,"station_id":"ce4bgk12rcd13ifvqbj0","pricing_plan_id":"cebpf4jnsgd1na2vs0mg"},{"bike_id":"e51da3c1-8ab5-47c5-abee-45829a7c0aac","system_id":"levelo_inurba_marseille","lat":43.27331,"lon":5.39088,"is_reserved":false,"is_disabled":true,"rental_uris":{"android":"levelo://app?vid=e51da3c1-8ab5-47c5-abee-45829a7c0aac","ios":"levelo://app?vid=e51da3c1-8ab5-47c5-abee-45829a7c0aac"},"vehicle_type_id":"4","last_reported":1752268190,"current_range_meters":14800,"station_id":"ce4bhgp2rcd13ifvqfe0","pricing_plan_id":"cebpf4jnsgd1na2vs0mg"},{"bike_id":"84aaa78c-6360-42d1-91a5-c6e1fc504f60","system_id":"levelo_inurba_marseille","lat":43.28917,"lon":5.36367,"is_reserved":false,"is_disabled":false,"rental_uris":{"android":"levelo://app?vid=84aaa78c-6360-42d1-91a5-c6e1fc504f60","ios":"levelo://app?vid=84aaa78c-6360-42d1-91a5-c6e1fc504f60"},"vehicle_type_id":"4","last_reported":1752268190,"current_range_meters":14800,"station_id":"ce4bhc92rcd13ifvqetg","pricing_plan_id":"cebpf4jnsgd1na2vs0mg"},{"bike_id":"e9fd0cf8-573b-4177-88a6-f1faf33e8aca","system_id":"levelo_inurba_marseille","lat":43.28958,"lon":5.3566,"is_reserved":false,"is_disabled":true,"rental_uris":{"android":"levelo://app?vid=e9fd0cf8-573b-4177-88a6-f1faf33e8aca","ios":"levelo://app?vid=e9fd0cf8-573b-4177-88a6-f1faf33e8aca"},"vehicle_type_id":"4","last_reported":1752268190,"current_range_meters":15200,"station_id":"ce4bhb92rcd13ifvqen0","pricing_plan_id":"cebpf4jnsgd1na2vs0mg"},{"bike_id":"43b90c82-97e0-4fa7-8b67-2448f07d529e","system_id":"levelo_inurba_marseille","lat":43.21192,"lon":5.35069,"is_reserved":false,"is_disabled":false,"rental_uris":{"android":"levelo://app?vid=43b90c82-97e0-4fa7-8b67-2448f07d529e","ios":"levelo://app?vid=43b90c82-97e0-4fa7-8b67-2448f07d529e"},"vehicle_type_id":"4","last_reported":1752268190,"current_range_meters":15200,"station_id":"","pricing_plan_id":"cebpf4jnsgd1na2vs0mg"},{"bike_id":"a1b86cd3-0f04-41ff-bd78-5908a25f1af2","system_id":"levelo_inurba_marseille","lat":43.30543,"lon":5.38428,"is_reserved":false,"is_disabled":false,"rental_uris":{"android":"levelo://app?vid=a1b86cd3-0f04-41ff-bd78-5908a25f1af2","ios":"levelo://app?vid=a1b86cd3-0f04-41ff-bd78-5908a25f1af2"},"vehicle_type_id":"4","last_reported":1752268190,"current_range_meters":15200,"station_id":"ce4bgg92rcd13ifvqb30","pricing_plan_id":"cebpf4jnsgd1na2vs0mg"},{"bike_id":"37b84a38-055a-4a6e-a56a-8ff3d0c1b2ec","system_id":"levelo_inurba_marseille","lat":43.2119,"lon":5.35079,"is_reserved":false,"is_disabled":false,"rental_uris":{"android":"levelo://app?vid=37b84a38-055a-4a6e-a56a-8ff3d0c1b2ec","ios":"levelo://app?vid=37b84a38-055a-4a6e-a56a-8ff3d0c1b2ec"},"vehicle_type_id":"4","last_reported":1752268190,"current_range_meters":15200,"station_id":"st_cvj6sg6p6f1abm77japg","pricing_plan_id":"cebpf4jnsgd1na2vs0mg"},{"bike_id":"dbba3321-20c7-4989-a7b5-ea9ab2c4b3e8","system_id":"levelo_inurba_marseille","lat":43.261935,"lon":5.374477,"is_reserved":false,"is_disabled":false,"rental_uris":{"android":"levelo://app?vid=dbba3321-20c7-4989-a7b5-ea9ab2c4b3e8","ios":"levelo://app?vid=dbba3321-20c7-4989-a7b5-ea9ab2c4b3e8"},"vehicle_type_id":"4","last_reported":1752268190,"current_range_meters":15200,"station_id":"ce4bhgp2rcd13ifvqfc0","pricing_plan_id":"cebpf4jnsgd1na2vs0mg"},{"bike_id":"89faea60-dbbc-4c4c-b128-97325d18774d","system_id":"levelo_inurba_marseille","lat":43.26211,"lon":5.37412,"is_reserved":false,"is_disabled":false,"rental_uris":{"android":"levelo://app?vid=89faea60-dbbc-4c4c-b128-97325d18774d","ios":"levelo://app?vid=89faea60-dbbc-4c4c-b128-97325d18774d"},"vehicle_type_id":"4","last_reported":1752268190,"current_range_meters":16000,"station_id":"ce4bhgp2rcd13ifvqfc0","pricing_plan_id":"cebpf4jnsgd1na2vs0mg"},{"bike_id":"8fccf46e-4269-459a-bd9a-cdd93f6b32bc","system_id":"levelo_inurba_marseille","lat":43.30354,"lon":5.41894,"is_reserved":false,"is_disabled":true,"rental_uris":{"android":"levelo://app?vid=8fccf46e-4269-459a-bd9a-cdd93f6b32bc","ios":"levelo://app?vid=8fccf46e-4269-459a-bd9a-cdd93f6b32bc"},"vehicle_type_id":"4","last_reported":1752268190,"current_range_meters":16000,"station_id":"ce4bhop2rcd13ifvqh7g","pricing_plan_id":"cebpf4jnsgd1na2vs0mg"},{"bike_id":"61198919-e72c-4fce-bc96-126627987dc0","system_id":"levelo_inurba_marseille","lat":43.29593,"lon":5.37906,"is_reserved":false,"is_disabled":false,"rental_uris":{"android":"levelo://app?vid=61198919-e72c-4fce-bc96-126627987dc0","ios":"levelo://app?vid=61198919-e72c-4fce-bc96-126627987dc0"},"vehicle_type_id":"4","last_reported":1752268190,"current_range_meters":16000,"station_id":"","pricing_plan_id":"cebpf4jnsgd1na2vs0mg"},{"bike_id":"eb6a2290-40e2-4780-bdeb-a149c699215d","system_id":"levelo_inurba_marseille","lat":43.27947,"lon":5.41067,"is_reserved":false,"is_disabled":false,"rental_uris":{"android":"levelo://app?vid=eb6a2290-40e2-4780-bdeb-a149c699215d","ios":"levelo://app?vid=eb6a2290-40e2-4780-bdeb-a149c699215d"},"vehicle_type_id":"4","last_reported":1752268190,"current_range_meters":16000,"station_id":"ce4bhnp2rcd13ifvqh0g","pricing_plan_id":"cebpf4jnsgd1na2vs0mg"},{"bike_id":"dec79083-f64d-4581-83ac-21134da7f570","system_id":"levelo_inurba_marseille","lat":43.29301,"lon":5.37431,"is_reserved":false,"is_disabled":false,"rental_uris":{"android":"levelo://app?vid=dec79083-f64d-4581-83ac-21134da7f570","ios":"levelo://app?vid=dec79083-f64d-4581-83ac-21134da7f570"},"vehicle_type_id":"4","last_reported":1752268190,"current_range_meters":16000,"station_id":"ce4bgi12rcd13ifvqb70","pricing_plan_id":"cebpf4jnsgd1na2vs0mg"},{"bike_id":"5a4ca6c3-f0f9-49db-8ec8-f2ed213e697f","system_id":"levelo_inurba_marseille","lat":43.29524,"lon":5.38542,"is_reserved":false,"is_disabled":false,"rental_uris":{"android":"levelo://app?vid=5a4ca6c3-f0f9-49db-8ec8-f2ed213e697f","ios":"levelo://app?vid=5a4ca6c3-f0f9-49db-8ec8-f2ed213e697f"},"vehicle_type_id":"4","last_reported":1752268190,"current_range_meters":16000,"station_id":"ce4bgih2rcd13ifvqba0","pricing_plan_id":"cebpf4jnsgd1na2vs0mg"},{"bike_id":"e86ba8c9-208d-482c-a826-4c100938472a","system_id":"levelo_inurba_marseille","lat":43.2119,"lon":5.35063,"is_reserved":false,"is_disabled":false,"rental_uris":{"android":"levelo://app?vid=e86ba8c9-208d-482c-a826-4c100938472a","ios":"levelo://app?vid=e86ba8c9-208d-482c-a826-4c100938472a"},"vehicle_type_id":"4","last_reported":1752268190,"current_range_meters":16000,"station_id":"st_cvj6sg6p6f1abm77japg","pricing_plan_id":"cebpf4jnsgd1na2vs0mg"},{"bike_id":"c453155a-5220-48fc-922b-600ca54f8ab5","system_id":"levelo_inurba_marseille","lat":43.28663,"lon":5.3635,"is_reserved":false,"is_disabled":true,"rental_uris":{"android":"levelo://app?vid=c453155a-5220-48fc-922b-600ca54f8ab5","ios":"levelo://app?vid=c453155a-5220-48fc-922b-600ca54f8ab5"},"vehicle_type_id":"4","last_reported":1752268190,"current_range_meters":16000,"station_id":"ce4bhah2rcd13ifvqej0","pricing_plan_id":"cebpf4jnsgd1na2vs0mg"},{"bike_id":"cb704031-1825-4322-939a-68e7562f57f6","system_id":"levelo_inurba_marseille","lat":43.29552,"lon":5.4227,"is_reserved":false,"is_disabled":false,"rental_uris":{"android":"levelo://app?vid=cb704031-1825-4322-939a-68e7562f57f6","ios":"levelo://app?vid=cb704031-1825-4322-939a-68e7562f57f6"},"vehicle_type_id":"4","last_reported":1752268190,"current_range_meters":16000,"station_id":"ce4bhph2rcd13ifvqhdg","pricing_plan_id":"cebpf4jnsgd1na2vs0mg"},{"bike_id":"9885fa76-988a-4542-9cf6-e8ded7344714","system_id":"levelo_inurba_marseille","lat":43.29556,"lon":5.37515,"is_reserved":false,"is_disabled":false,"rental_uris":{"android":"levelo://app?vid=9885fa76-988a-4542-9cf6-e8ded7344714","ios":"levelo://app?vid=9885fa76-988a-4542-9cf6-e8ded7344714"},"vehicle_type_id":"4","last_reported":1752268190,"current_range_meters":16400,"station_id":"ce4bgh92rcd13ifvqb50","pricing_plan_id":"cebpf4jnsgd1na2vs0mg"},{"bike_id":"a97312ec-c6dc-450b-b87a-bf607fe29c31","system_id":"levelo_inurba_marseille","lat":43.29275,"lon":5.38436,"is_reserved":false,"is_disabled":false,"rental_uris":{"android":"levelo://app?vid=a97312ec-c6dc-450b-b87a-bf607fe29c31","ios":"levelo://app?vid=a97312ec-c6dc-450b-b87a-bf607fe29c31"},"vehicle_type_id":"4","last_reported":1752268190,"current_range_meters":16400,"station_id":"ce4bh692rcd13ifvqea0","pricing_plan_id":"cebpf4jnsgd1na2vs0mg"},{"bike_id":"a0138538-145e-45b9-aebb-fed41925ecaf","system_id":"levelo_inurba_marseille","lat":43.23541,"lon":5.3605,"is_reserved":false,"is_disabled":false,"rental_uris":{"android":"levelo://app?vid=a0138538-145e-45b9-aebb-fed41925ecaf","ios":"levelo://app?vid=a0138538-145e-45b9-aebb-fed41925ecaf"},"vehicle_type_id":"4","last_reported":1752268190,"current_range_meters":16400,"station_id":"","pricing_plan_id":"cebpf4jnsgd1na2vs0mg"},{"bike_id":"34fd469c-2923-4e4e-9292-5101b1fa0114","system_id":"levelo_inurba_marseille","lat":43.29683,"lon":5.37314,"is_reserved":false,"is_disabled":false,"rental_uris":{"android":"levelo://app?vid=34fd469c-2923-4e4e-9292-5101b1fa0114","ios":"levelo://app?vid=34fd469c-2923-4e4e-9292-5101b1fa0114"},"vehicle_type_id":"4","last_reported":1752268190,"current_range_meters":16400,"station_id":"ce4bgk12rcd13ifvqbj0","pricing_plan_id":"cebpf4jnsgd1na2vs0mg"},{"bike_id":"1d9db105-a5f2-41f7-ba29-82a3229f2097","system_id":"levelo_inurba_marseille","lat":43.29033,"lon":5.39976,"is_reserved":false,"is_disabled":false,"rental_uris":{"android":"levelo://app?vid=1d9db105-a5f2-41f7-ba29-82a3229f2097","ios":"levelo://app?vid=1d9db105-a5f2-41f7-ba29-82a3229f2097"},"vehicle_type_id":"4","last_reported":1752268190,"current_range_meters":16400,"station_id":"ce4bh392rcd13ifvqdm0","pricing_plan_id":"cebpf4jnsgd1na2vs0mg"},{"bike_id":"452e8211-4f44-45d0-814a-3e9e25b8c44e","system_id":"levelo_inurba_marseille","lat":43.21188,"lon":5.35075,"is_reserved":false,"is_disabled":false,"rental_uris":{"android":"levelo://app?vid=452e8211-4f44-45d0-814a-3e9e25b8c44e","ios":"levelo://app?vid=452e8211-4f44-45d0-814a-3e9e25b8c44e"},"vehicle_type_id":"4","last_reported":1752268190,"current_range_meters":16400,"station_id":"st_cvj6sg6p6f1abm77japg","pricing_plan_id":"cebpf4jnsgd1na2vs0mg"},{"bike_id":"25e5f971-a9c9-4b07-bb3b-bff8f5b484ea","system_id":"levelo_inurba_marseille","lat":43.30927,"lon":5.40152,"is_reserved":false,"is_disabled":false,"rental_uris":{"android":"levelo://app?vid=25e5f971-a9c9-4b07-bb3b-bff8f5b484ea","ios":"levelo://app?vid=25e5f971-a9c9-4b07-bb3b-bff8f5b484ea"},"vehicle_type_id":"4","last_reported":1752268190,"current_range_meters":16400,"station_id":"ce4bgvp2rcd13ifvqct0","pricing_plan_id":"cebpf4jnsgd1na2vs0mg"},{"bike_id":"ed019ecd-f4ca-470f-953e-821f34892065","system_id":"levelo_inurba_marseille","lat":43.305472,"lon":5.366954,"is_reserved":false,"is_disabled":true,"rental_uris":{"android":"levelo://app?vid=ed019ecd-f4ca-470f-953e-821f34892065","ios":"levelo://app?vid=ed019ecd-f4ca-470f-953e-821f34892065"},"vehicle_type_id":"4","last_reported":1752268190,"current_range_meters":16800,"station_id":"ce4bgrp2rcd13ifvqc9g","pricing_plan_id":"cebpf4jnsgd1na2vs0mg"},{"bike_id":"5fb1fcab-8ea7-4a75-8b3a-a6567f7168ca","system_id":"levelo_inurba_marseille","lat":43.296844,"lon":5.37297,"is_reserved":false,"is_disabled":false,"rental_uris":{"android":"levelo://app?vid=5fb1fcab-8ea7-4a75-8b3a-a6567f7168ca","ios":"levelo://app?vid=5fb1fcab-8ea7-4a75-8b3a-a6567f7168ca"},"vehicle_type_id":"4","last_reported":1752268190,"current_range_meters":16800,"station_id":"ce4bgg92rcd13ifvqb30","pricing_plan_id":"cebpf4jnsgd1na2vs0mg"},{"bike_id":"8ff98f20-247a-4959-87ed-dae85312140c","system_id":"levelo_inurba_marseille","lat":43.2893,"lon":5.36635,"is_reserved":false,"is_disabled":false,"rental_uris":{"android":"levelo://app?vid=8ff98f20-247a-4959-87ed-dae85312140c","ios":"levelo://app?vid=8ff98f20-247a-4959-87ed-dae85312140c"},"vehicle_type_id":"4","last_reported":1752268190,"current_range_meters":16800,"station_id":"ce4bhap2rcd13ifvqek0","pricing_plan_id":"cebpf4jnsgd1na2vs0mg"},{"bike_id":"4450c7f7-0557-48d5-ac8b-18d5fbf818c4","system_id":"levelo_inurba_marseille","lat":43.30151,"lon":5.38093,"is_reserved":false,"is_disabled":false,"rental_uris":{"android":"levelo://app?vid=4450c7f7-0557-48d5-ac8b-18d5fbf818c4","ios":"levelo://app?vid=4450c7f7-0557-48d5-ac8b-18d5fbf818c4"},"vehicle_type_id":"4","last_reported":1752268190,"current_range_meters":16800,"station_id":"ce4bgjp2rcd13ifvqbh0","pricing_plan_id":"cebpf4jnsgd1na2vs0mg"},{"bike_id":"9930d4e1-af5c-4e2c-ad26-3d6fc89a8fed","system_id":"levelo_inurba_marseille","lat":43.29689,"lon":5.37302,"is_reserved":false,"is_disabled":false,"rental_uris":{"android":"levelo://app?vid=9930d4e1-af5c-4e2c-ad26-3d6fc89a8fed","ios":"levelo://app?vid=9930d4e1-af5c-4e2c-ad26-3d6fc89a8fed"},"vehicle_type_id":"4","last_reported":1752268190,"current_range_meters":16800,"station_id":"ce4bgk12rcd13ifvqbj0","pricing_plan_id":"cebpf4jnsgd1na2vs0mg"},{"bike_id":"a581eef9-f0fb-4e5d-8be0-84b96bfd2d41","system_id":"levelo_inurba_marseille","lat":43.29386,"lon":5.37862,"is_reserved":false,"is_disabled":true,"rental_uris":{"android":"levelo://app?vid=a581eef9-f0fb-4e5d-8be0-84b96bfd2d41","ios":"levelo://app?vid=a581eef9-f0fb-4e5d-8be0-84b96bfd2d41"},"vehicle_type_id":"4","last_reported":1752268190,"current_range_meters":16800,"station_id":"ce4bgjh2rcd13ifvqbf0","pricing_plan_id":"cebpf4jnsgd1na2vs0mg"},{"bike_id":"598555b4-3749-44cc-8e11-87c397e89037","system_id":"levelo_inurba_marseille","lat":43.248132,"lon":5.374521,"is_reserved":false,"is_disabled":false,"rental_uris":{"android":"levelo://app?vid=598555b4-3749-44cc-8e11-87c397e89037","ios":"levelo://app?vid=598555b4-3749-44cc-8e11-87c397e89037"},"vehicle_type_id":"4","last_reported":1752268190,"current_range_meters":16800,"station_id":"ce4bhgh2rcd13ifvqfb0","pricing_plan_id":"cebpf4jnsgd1na2vs0mg"},{"bike_id":"a100566b-d122-47f7-b059-1aae620ff9b3","system_id":"levelo_inurba_marseille","lat":43.24063,"lon":5.3776,"is_reserved":false,"is_disabled":false,"rental_uris":{"android":"levelo://app?vid=a100566b-d122-47f7-b059-1aae620ff9b3","ios":"levelo://app?vid=a100566b-d122-47f7-b059-1aae620ff9b3"},"vehicle_type_id":"4","last_reported":1752268190,"current_range_meters":16800,"station_id":"ce4bhnp2rcd13ifvqgvg","pricing_plan_id":"cebpf4jnsgd1na2vs0mg"},{"bike_id":"069fee19-c699-476c-9530-a535f5235ea9","system_id":"levelo_inurba_marseille","lat":43.30159,"lon":5.3809,"is_reserved":false,"is_disabled":false,"rental_uris":{"android":"levelo://app?vid=069fee19-c699-476c-9530-a535f5235ea9","ios":"levelo://app?vid=069fee19-c699-476c-9530-a535f5235ea9"},"vehicle_type_id":"4","last_reported":1752268190,"current_range_meters":16800,"station_id":"ce4bgjp2rcd13ifvqbh0","pricing_plan_id":"cebpf4jnsgd1na2vs0mg"},{"bike_id":"a81ede20-43a9-47cd-942d-8fb15c54f5f7","system_id":"levelo_inurba_marseille","lat":43.30049,"lon":5.45163,"is_reserved":false,"is_disabled":false,"rental_uris":{"android":"levelo://app?vid=a81ede20-43a9-47cd-942d-8fb15c54f5f7","ios":"levelo://app?vid=a81ede20-43a9-47cd-942d-8fb15c54f5f7"},"vehicle_type_id":"4","last_reported":1752268190,"current_range_meters":17200,"station_id":"","pricing_plan_id":"cebpf4jnsgd1na2vs0mg"},{"bike_id":"3b4e7580-4868-42e5-9dff-2013d763558c","system_id":"levelo_inurba_marseille","lat":43.25506,"lon":5.37653,"is_reserved":false,"is_disabled":false,"rental_uris":{"android":"levelo://app?vid=3b4e7580-4868-42e5-9dff-2013d763558c","ios":"levelo://app?vid=3b4e7580-4868-42e5-9dff-2013d763558c"},"vehicle_type_id":"4","last_reported":1752268190,"current_range_meters":17200,"station_id":"ce4bhh12rcd13ifvqff0","pricing_plan_id":"cebpf4jnsgd1na2vs0mg"},{"bike_id":"709c9beb-13f1-45e2-bbd1-0f71d60cf8b2","system_id":"levelo_inurba_marseille","lat":43.30921,"lon":5.40148,"is_reserved":false,"is_disabled":true,"rental_uris":{"android":"levelo://app?vid=709c9beb-13f1-45e2-bbd1-0f71d60cf8b2","ios":"levelo://app?vid=709c9beb-13f1-45e2-bbd1-0f71d60cf8b2"},"vehicle_type_id":"4","last_reported":1752268190,"current_range_meters":17200,"station_id":"ce4bgvp2rcd13ifvqct0","pricing_plan_id":"cebpf4jnsgd1na2vs0mg"},{"bike_id":"f05b8bfe-6934-41c1-8e7b-6912b26dbed6","system_id":"levelo_inurba_marseille","lat":43.26563,"lon":5.39019,"is_reserved":false,"is_disabled":false,"rental_uris":{"android":"levelo://app?vid=f05b8bfe-6934-41c1-8e7b-6912b26dbed6","ios":"levelo://app?vid=f05b8bfe-6934-41c1-8e7b-6912b26dbed6"},"vehicle_type_id":"4","last_reported":1752268190,"current_range_meters":17200,"station_id":"ce4bhe12rcd13ifvqf30","pricing_plan_id":"cebpf4jnsgd1na2vs0mg"},{"bike_id":"58c86ff8-b444-4637-8b8c-414b4195493a","system_id":"levelo_inurba_marseille","lat":43.28092,"lon":5.39667,"is_reserved":false,"is_disabled":false,"rental_uris":{"android":"levelo://app?vid=58c86ff8-b444-4637-8b8c-414b4195493a","ios":"levelo://app?vid=58c86ff8-b444-4637-8b8c-414b4195493a"},"vehicle_type_id":"4","last_reported":1752268190,"current_range_meters":17200,"station_id":"ce4bho12rcd13ifvqh2g","pricing_plan_id":"cebpf4jnsgd1na2vs0mg"},{"bike_id":"294b7f5c-3552-4be5-b017-0d6cef38e997","system_id":"levelo_inurba_marseille","lat":43.29533,"lon":5.37528,"is_reserved":false,"is_disabled":false,"rental_uris":{"android":"levelo://app?vid=294b7f5c-3552-4be5-b017-0d6cef38e997","ios":"levelo://app?vid=294b7f5c-3552-4be5-b017-0d6cef38e997"},"vehicle_type_id":"4","last_reported":1752268190,"current_range_meters":17200,"station_id":"ce4bgkp2rcd13ifvqbmg","pricing_plan_id":"cebpf4jnsgd1na2vs0mg"},{"bike_id":"4a2c6920-44c5-49af-a757-e8305b5f4fb7","system_id":"levelo_inurba_marseille","lat":43.305993,"lon":5.372262,"is_reserved":false,"is_disabled":false,"rental_uris":{"android":"levelo://app?vid=4a2c6920-44c5-49af-a757-e8305b5f4fb7","ios":"levelo://app?vid=4a2c6920-44c5-49af-a757-e8305b5f4fb7"},"vehicle_type_id":"4","last_reported":1752268190,"current_range_meters":17200,"station_id":"ce4bgqh2rcd13ifvqc4g","pricing_plan_id":"cebpf4jnsgd1na2vs0mg"},{"bike_id":"c8002e10-c62c-4ea0-9295-9885790c6215","system_id":"levelo_inurba_marseille","lat":43.28272,"lon":5.35043,"is_reserved":false,"is_disabled":true,"rental_uris":{"android":"levelo://app?vid=c8002e10-c62c-4ea0-9295-9885790c6215","ios":"levelo://app?vid=c8002e10-c62c-4ea0-9295-9885790c6215"},"vehicle_type_id":"4","last_reported":1752268190,"current_range_meters":17200,"station_id":"ce4bhbp2rcd13ifvqerg","pricing_plan_id":"cebpf4jnsgd1na2vs0mg"},{"bike_id":"e4df975b-7e2b-47ed-a649-bc33041151c8","system_id":"levelo_inurba_marseille","lat":43.31717,"lon":5.42401,"is_reserved":false,"is_disabled":false,"rental_uris":{"android":"levelo://app?vid=e4df975b-7e2b-47ed-a649-bc33041151c8","ios":"levelo://app?vid=e4df975b-7e2b-47ed-a649-bc33041151c8"},"vehicle_type_id":"4","last_reported":1752268190,"current_range_meters":17200,"station_id":"ce4bhp92rcd13ifvqhbg","pricing_plan_id":"cebpf4jnsgd1na2vs0mg"},{"bike_id":"f51f994c-3d8d-42f0-8137-295062a37402","system_id":"levelo_inurba_marseille","lat":43.24826,"lon":5.37501,"is_reserved":false,"is_disabled":false,"rental_uris":{"android":"levelo://app?vid=f51f994c-3d8d-42f0-8137-295062a37402","ios":"levelo://app?vid=f51f994c-3d8d-42f0-8137-295062a37402"},"vehicle_type_id":"4","last_reported":1752268190,"current_range_meters":17200,"station_id":"","pricing_plan_id":"cebpf4jnsgd1na2vs0mg"},{"bike_id":"363ef5ac-4365-4008-8b7f-e8e2b403179f","system_id":"levelo_inurba_marseille","lat":43.29529,"lon":5.38549,"is_reserved":false,"is_disabled":false,"rental_uris":{"android":"levelo://app?vid=363ef5ac-4365-4008-8b7f-e8e2b403179f","ios":"levelo://app?vid=363ef5ac-4365-4008-8b7f-e8e2b403179f"},"vehicle_type_id":"4","last_reported":1752268190,"current_range_meters":17200,"station_id":"ce4bgih2rcd13ifvqba0","pricing_plan_id":"cebpf4jnsgd1na2vs0mg"},{"bike_id":"84c33a43-ab91-403e-aa4e-31638ca6b05c","system_id":"levelo_inurba_marseille","lat":43.30255,"lon":5.40059,"is_reserved":false,"is_disabled":false,"rental_uris":{"android":"levelo://app?vid=84c33a43-ab91-403e-aa4e-31638ca6b05c","ios":"levelo://app?vid=84c33a43-ab91-403e-aa4e-31638ca6b05c"},"vehicle_type_id":"4","last_reported":1752268190,"current_range_meters":16800,"station_id":"ce4bgvh2rcd13ifvqcs0","pricing_plan_id":"cebpf4jnsgd1na2vs0mg"},{"bike_id":"4f2bffd5-43cc-47cd-acbd-330dd5efe017","system_id":"levelo_inurba_marseille","lat":43.32651,"lon":5.40997,"is_reserved":false,"is_disabled":false,"rental_uris":{"android":"levelo://app?vid=4f2bffd5-43cc-47cd-acbd-330dd5efe017","ios":"levelo://app?vid=4f2bffd5-43cc-47cd-acbd-330dd5efe017"},"vehicle_type_id":"4","last_reported":1752268190,"current_range_meters":17600,"station_id":"ce4bhpp2rcd13ifvqhgg","pricing_plan_id":"cebpf4jnsgd1na2vs0mg"},{"bike_id":"ba7e3217-8069-471e-8907-7c5152d45243","system_id":"levelo_inurba_marseille","lat":43.26241,"lon":5.40488,"is_reserved":false,"is_disabled":false,"rental_uris":{"android":"levelo://app?vid=ba7e3217-8069-471e-8907-7c5152d45243","ios":"levelo://app?vid=ba7e3217-8069-471e-8907-7c5152d45243"},"vehicle_type_id":"4","last_reported":1752268190,"current_range_meters":17600,"station_id":"ce4bhmh2rcd13ifvqgmg","pricing_plan_id":"cebpf4jnsgd1na2vs0mg"},{"bike_id":"19499ad1-b65b-470b-8fe5-974010ab7063","system_id":"levelo_inurba_marseille","lat":43.29781,"lon":5.37095,"is_reserved":false,"is_disabled":false,"rental_uris":{"android":"levelo://app?vid=19499ad1-b65b-470b-8fe5-974010ab7063","ios":"levelo://app?vid=19499ad1-b65b-470b-8fe5-974010ab7063"},"vehicle_type_id":"4","last_reported":1752268190,"current_range_meters":17600,"station_id":"ce4bgop2rcd13ifvqc1g","pricing_plan_id":"cebpf4jnsgd1na2vs0mg"},{"bike_id":"852e660a-89a0-4c3e-be25-8462103a74fd","system_id":"levelo_inurba_marseille","lat":43.29578,"lon":5.38667,"is_reserved":false,"is_disabled":false,"rental_uris":{"android":"levelo://app?vid=852e660a-89a0-4c3e-be25-8462103a74fd","ios":"levelo://app?vid=852e660a-89a0-4c3e-be25-8462103a74fd"},"vehicle_type_id":"4","last_reported":1752268190,"current_range_meters":17600,"station_id":"","pricing_plan_id":"cebpf4jnsgd1na2vs0mg"},{"bike_id":"b9d87e5d-11d5-4c34-9f04-4e8afd578ff4","system_id":"levelo_inurba_marseille","lat":43.31704,"lon":5.37757,"is_reserved":false,"is_disabled":false,"rental_uris":{"android":"levelo://app?vid=b9d87e5d-11d5-4c34-9f04-4e8afd578ff4","ios":"levelo://app?vid=b9d87e5d-11d5-4c34-9f04-4e8afd578ff4"},"vehicle_type_id":"4","last_reported":1752268190,"current_range_meters":17600,"station_id":"ce4bgth2rcd13ifvqch0","pricing_plan_id":"cebpf4jnsgd1na2vs0mg"},{"bike_id":"2607f954-0b2d-45dc-9ae5-e9bbd3ff0cdb","system_id":"levelo_inurba_marseille","lat":43.26027,"lon":5.3756,"is_reserved":false,"is_disabled":false,"rental_uris":{"android":"levelo://app?vid=2607f954-0b2d-45dc-9ae5-e9bbd3ff0cdb","ios":"levelo://app?vid=2607f954-0b2d-45dc-9ae5-e9bbd3ff0cdb"},"vehicle_type_id":"4","last_reported":1752268190,"current_range_meters":17600,"station_id":"ce4bhgh2rcd13ifvqfa0","pricing_plan_id":"cebpf4jnsgd1na2vs0mg"},{"bike_id":"ad023729-3d33-44a6-99ca-a047715b7f88","system_id":"levelo_inurba_marseille","lat":43.21193,"lon":5.35075,"is_reserved":false,"is_disabled":false,"rental_uris":{"android":"levelo://app?vid=ad023729-3d33-44a6-99ca-a047715b7f88","ios":"levelo://app?vid=ad023729-3d33-44a6-99ca-a047715b7f88"},"vehicle_type_id":"4","last_reported":1752268190,"current_range_meters":17600,"station_id":"st_cvj6sg6p6f1abm77japg","pricing_plan_id":"cebpf4jnsgd1na2vs0mg"},{"bike_id":"77340a65-4abc-426b-8303-0ed4b4de4e6a","system_id":"levelo_inurba_marseille","lat":43.26789,"lon":5.39421,"is_reserved":false,"is_disabled":false,"rental_uris":{"android":"levelo://app?vid=77340a65-4abc-426b-8303-0ed4b4de4e6a","ios":"levelo://app?vid=77340a65-4abc-426b-8303-0ed4b4de4e6a"},"vehicle_type_id":"4","last_reported":1752268190,"current_range_meters":17600,"station_id":"ce4bhh12rcd13ifvqfg0","pricing_plan_id":"cebpf4jnsgd1na2vs0mg"},{"bike_id":"bd780b9f-2638-45b0-81a5-171acb11391a","system_id":"levelo_inurba_marseille","lat":43.24814,"lon":5.37471,"is_reserved":false,"is_disabled":false,"rental_uris":{"android":"levelo://app?vid=bd780b9f-2638-45b0-81a5-171acb11391a","ios":"levelo://app?vid=bd780b9f-2638-45b0-81a5-171acb11391a"},"vehicle_type_id":"4","last_reported":1752268190,"current_range_meters":17600,"station_id":"ce4bhgh2rcd13ifvqfb0","pricing_plan_id":"cebpf4jnsgd1na2vs0mg"},{"bike_id":"d68ca6bb-00b4-4264-baa1-5a5036be73a9","system_id":"levelo_inurba_marseille","lat":43.29253,"lon":5.38439,"is_reserved":false,"is_disabled":false,"rental_uris":{"android":"levelo://app?vid=d68ca6bb-00b4-4264-baa1-5a5036be73a9","ios":"levelo://app?vid=d68ca6bb-00b4-4264-baa1-5a5036be73a9"},"vehicle_type_id":"4","last_reported":1752268190,"current_range_meters":17600,"station_id":"ce4bh692rcd13ifvqea0","pricing_plan_id":"cebpf4jnsgd1na2vs0mg"},{"bike_id":"dfb324bb-b3fa-42ac-af97-fcb3ac59c854","system_id":"levelo_inurba_marseille","lat":43.29798,"lon":5.37121,"is_reserved":false,"is_disabled":false,"rental_uris":{"android":"levelo://app?vid=dfb324bb-b3fa-42ac-af97-fcb3ac59c854","ios":"levelo://app?vid=dfb324bb-b3fa-42ac-af97-fcb3ac59c854"},"vehicle_type_id":"4","last_reported":1752268190,"current_range_meters":18000,"station_id":"ce4bgop2rcd13ifvqc1g","pricing_plan_id":"cebpf4jnsgd1na2vs0mg"},{"bike_id":"db2690f4-eb5c-4bb7-a073-68e2f29c4ad8","system_id":"levelo_inurba_marseille","lat":43.24804,"lon":5.37467,"is_reserved":false,"is_disabled":false,"rental_uris":{"android":"levelo://app?vid=db2690f4-eb5c-4bb7-a073-68e2f29c4ad8","ios":"levelo://app?vid=db2690f4-eb5c-4bb7-a073-68e2f29c4ad8"},"vehicle_type_id":"4","last_reported":1752268190,"current_range_meters":18000,"station_id":"ce4bhgh2rcd13ifvqfb0","pricing_plan_id":"cebpf4jnsgd1na2vs0mg"},{"bike_id":"2d98c144-979b-4cdc-9c63-d39d433bf790","system_id":"levelo_inurba_marseille","lat":43.26776,"lon":5.39457,"is_reserved":false,"is_disabled":true,"rental_uris":{"android":"levelo://app?vid=2d98c144-979b-4cdc-9c63-d39d433bf790","ios":"levelo://app?vid=2d98c144-979b-4cdc-9c63-d39d433bf790"},"vehicle_type_id":"4","last_reported":1752268190,"current_range_meters":18000,"station_id":"","pricing_plan_id":"cebpf4jnsgd1na2vs0mg"},{"bike_id":"5b525b84-d091-45be-ab08-b86f9ee2f4d9","system_id":"levelo_inurba_marseille","lat":43.28972,"lon":5.37829,"is_reserved":false,"is_disabled":false,"rental_uris":{"android":"levelo://app?vid=5b525b84-d091-45be-ab08-b86f9ee2f4d9","ios":"levelo://app?vid=5b525b84-d091-45be-ab08-b86f9ee2f4d9"},"vehicle_type_id":"4","last_reported":1752268190,"current_range_meters":18000,"station_id":"ce4bh9p2rcd13ifvqed0","pricing_plan_id":"cebpf4jnsgd1na2vs0mg"},{"bike_id":"919e600e-ebda-4ca0-9126-38ed65a36143","system_id":"levelo_inurba_marseille","lat":43.21188,"lon":5.35107,"is_reserved":false,"is_disabled":false,"rental_uris":{"android":"levelo://app?vid=919e600e-ebda-4ca0-9126-38ed65a36143","ios":"levelo://app?vid=919e600e-ebda-4ca0-9126-38ed65a36143"},"vehicle_type_id":"4","last_reported":1752268190,"current_range_meters":18000,"station_id":"st_cvj6sg6p6f1abm77japg","pricing_plan_id":"cebpf4jnsgd1na2vs0mg"},{"bike_id":"80068acc-29b4-4fc6-9b91-5e7fb490ab33","system_id":"levelo_inurba_marseille","lat":43.29302,"lon":5.37468,"is_reserved":false,"is_disabled":false,"rental_uris":{"android":"levelo://app?vid=80068acc-29b4-4fc6-9b91-5e7fb490ab33","ios":"levelo://app?vid=80068acc-29b4-4fc6-9b91-5e7fb490ab33"},"vehicle_type_id":"4","last_reported":1752268190,"current_range_meters":18000,"station_id":"ce4bgi12rcd13ifvqb70","pricing_plan_id":"cebpf4jnsgd1na2vs0mg"},{"bike_id":"f19ead5c-f9f0-4541-963c-aa69a2a2b8bc","system_id":"levelo_inurba_marseille","lat":43.29528,"lon":5.38553,"is_reserved":false,"is_disabled":false,"rental_uris":{"android":"levelo://app?vid=f19ead5c-f9f0-4541-963c-aa69a2a2b8bc","ios":"levelo://app?vid=f19ead5c-f9f0-4541-963c-aa69a2a2b8bc"},"vehicle_type_id":"4","last_reported":1752268190,"current_range_meters":18800,"station_id":"ce4bgih2rcd13ifvqba0","pricing_plan_id":"cebpf4jnsgd1na2vs0mg"},{"bike_id":"fe37623e-9810-482b-8c34-b95de749a5bb","system_id":"levelo_inurba_marseille","lat":43.26033,"lon":5.37545,"is_reserved":false,"is_disabled":false,"rental_uris":{"android":"levelo://app?vid=fe37623e-9810-482b-8c34-b95de749a5bb","ios":"levelo://app?vid=fe37623e-9810-482b-8c34-b95de749a5bb"},"vehicle_type_id":"4","last_reported":1752268190,"current_range_meters":18800,"station_id":"ce4bhgh2rcd13ifvqfa0","pricing_plan_id":"cebpf4jnsgd1na2vs0mg"},{"bike_id":"606476a6-ca93-445b-85f4-519d2709c787","system_id":"levelo_inurba_marseille","lat":43.29264,"lon":5.38455,"is_reserved":false,"is_disabled":false,"rental_uris":{"android":"levelo://app?vid=606476a6-ca93-445b-85f4-519d2709c787","ios":"levelo://app?vid=606476a6-ca93-445b-85f4-519d2709c787"},"vehicle_type_id":"4","last_reported":1752268190,"current_range_meters":18800,"station_id":"ce4bh692rcd13ifvqea0","pricing_plan_id":"cebpf4jnsgd1na2vs0mg"},{"bike_id":"e78bb9c5-bc85-43ba-bb84-8ac7aa747cf0","system_id":"levelo_inurba_marseille","lat":43.24801,"lon":5.37493,"is_reserved":false,"is_disabled":false,"rental_uris":{"android":"levelo://app?vid=e78bb9c5-bc85-43ba-bb84-8ac7aa747cf0","ios":"levelo://app?vid=e78bb9c5-bc85-43ba-bb84-8ac7aa747cf0"},"vehicle_type_id":"4","last_reported":1752268190,"current_range_meters":18800,"station_id":"ce4bhgh2rcd13ifvqfb0","pricing_plan_id":"cebpf4jnsgd1na2vs0mg"},{"bike_id":"57e28344-2764-422f-8006-c1e266e189c2","system_id":"levelo_inurba_marseille","lat":43.26953,"lon":5.38644,"is_reserved":false,"is_disabled":false,"rental_uris":{"android":"levelo://app?vid=57e28344-2764-422f-8006-c1e266e189c2","ios":"levelo://app?vid=57e28344-2764-422f-8006-c1e266e189c2"},"vehicle_type_id":"4","last_reported":1752268190,"current_range_meters":18800,"station_id":"ce4bhh92rcd13ifvqfh0","pricing_plan_id":"cebpf4jnsgd1na2vs0mg"},{"bike_id":"76edc1ec-9c02-42fd-b08c-c01d8ccf9e0a","system_id":"levelo_inurba_marseille","lat":43.302964,"lon":5.392139,"is_reserved":false,"is_disabled":false,"rental_uris":{"android":"levelo://app?vid=76edc1ec-9c02-42fd-b08c-c01d8ccf9e0a","ios":"levelo://app?vid=76edc1ec-9c02-42fd-b08c-c01d8ccf9e0a"},"vehicle_type_id":"4","last_reported":1752268190,"current_range_meters":21600,"station_id":"ce4bgkh2rcd13ifvqbk0","pricing_plan_id":"cebpf4jnsgd1na2vs0mg"},{"bike_id":"2246e185-ebd5-44fe-93be-6b9e19d0be02","system_id":"levelo_inurba_marseille","lat":43.29612,"lon":5.38102,"is_reserved":false,"is_disabled":false,"rental_uris":{"android":"levelo://app?vid=2246e185-ebd5-44fe-93be-6b9e19d0be02","ios":"levelo://app?vid=2246e185-ebd5-44fe-93be-6b9e19d0be02"},"vehicle_type_id":"4","last_reported":1752268190,"current_range_meters":18800,"station_id":"ce4bgl12rcd13ifvqbo0","pricing_plan_id":"cebpf4jnsgd1na2vs0mg"},{"bike_id":"c6f7dabd-b092-4554-a710-07eb4af96a4c","system_id":"levelo_inurba_marseille","lat":43.2118,"lon":5.35062,"is_reserved":false,"is_disabled":false,"rental_uris":{"android":"levelo://app?vid=c6f7dabd-b092-4554-a710-07eb4af96a4c","ios":"levelo://app?vid=c6f7dabd-b092-4554-a710-07eb4af96a4c"},"vehicle_type_id":"4","last_reported":1752268190,"current_range_meters":18800,"station_id":"st_cvj6sg6p6f1abm77japg","pricing_plan_id":"cebpf4jnsgd1na2vs0mg"},{"bike_id":"527c622e-f6d1-4699-b817-40d486cea5f9","system_id":"levelo_inurba_marseille","lat":43.296311,"lon":5.377241,"is_reserved":false,"is_disabled":false,"rental_uris":{"android":"levelo://app?vid=527c622e-f6d1-4699-b817-40d486cea5f9","ios":"levelo://app?vid=527c622e-f6d1-4699-b817-40d486cea5f9"},"vehicle_type_id":"4","last_reported":1752268190,"current_range_meters":18800,"station_id":"ce4bgi92rcd13ifvqb90","pricing_plan_id":"cebpf4jnsgd1na2vs0mg"},{"bike_id":"a88ad0f9-4dc9-4f3f-841b-ae01ad57516a","system_id":"levelo_inurba_marseille","lat":43.26687,"lon":5.38269,"is_reserved":false,"is_disabled":true,"rental_uris":{"android":"levelo://app?vid=a88ad0f9-4dc9-4f3f-841b-ae01ad57516a","ios":"levelo://app?vid=a88ad0f9-4dc9-4f3f-841b-ae01ad57516a"},"vehicle_type_id":"4","last_reported":1752268190,"current_range_meters":19200,"station_id":"ce4bhg92rcd13ifvqf90","pricing_plan_id":"cebpf4jnsgd1na2vs0mg"},{"bike_id":"00bc0b3b-e317-4a17-a011-a3a9a29d816a","system_id":"levelo_inurba_marseille","lat":43.21209,"lon":5.35093,"is_reserved":false,"is_disabled":false,"rental_uris":{"android":"levelo://app?vid=00bc0b3b-e317-4a17-a011-a3a9a29d816a","ios":"levelo://app?vid=00bc0b3b-e317-4a17-a011-a3a9a29d816a"},"vehicle_type_id":"4","last_reported":1752268190,"current_range_meters":19200,"station_id":"st_cvj6sg6p6f1abm77japg","pricing_plan_id":"cebpf4jnsgd1na2vs0mg"},{"bike_id":"57943c27-05a4-4be3-a2cb-ccdfb4d1678c","system_id":"levelo_inurba_marseille","lat":43.27188,"lon":5.4098,"is_reserved":false,"is_disabled":false,"rental_uris":{"android":"levelo://app?vid=57943c27-05a4-4be3-a2cb-ccdfb4d1678c","ios":"levelo://app?vid=57943c27-05a4-4be3-a2cb-ccdfb4d1678c"},"vehicle_type_id":"4","last_reported":1752268190,"current_range_meters":19200,"station_id":"ce4bhl12rcd13ifvqgf0","pricing_plan_id":"cebpf4jnsgd1na2vs0mg"},{"bike_id":"c7526e22-c032-485e-bd45-301a6593499f","system_id":"levelo_inurba_marseille","lat":43.3044,"lon":5.38889,"is_reserved":false,"is_disabled":false,"rental_uris":{"android":"levelo://app?vid=c7526e22-c032-485e-bd45-301a6593499f","ios":"levelo://app?vid=c7526e22-c032-485e-bd45-301a6593499f"},"vehicle_type_id":"4","last_reported":1752268190,"current_range_meters":19200,"station_id":"ce4bgk12rcd13ifvqbi0","pricing_plan_id":"cebpf4jnsgd1na2vs0mg"},{"bike_id":"72e3a4e1-e3b1-4da5-a4bf-90c501bb4405","system_id":"levelo_inurba_marseille","lat":43.29734,"lon":5.37712,"is_reserved":false,"is_disabled":false,"rental_uris":{"android":"levelo://app?vid=72e3a4e1-e3b1-4da5-a4bf-90c501bb4405","ios":"levelo://app?vid=72e3a4e1-e3b1-4da5-a4bf-90c501bb4405"},"vehicle_type_id":"4","last_reported":1752268190,"current_range_meters":19200,"station_id":"ce4bgkh2rcd13ifvqbl0","pricing_plan_id":"cebpf4jnsgd1na2vs0mg"},{"bike_id":"51890362-46b0-4ee7-9f02-afbf036d064e","system_id":"levelo_inurba_marseille","lat":43.21162,"lon":5.35063,"is_reserved":false,"is_disabled":false,"rental_uris":{"android":"levelo://app?vid=51890362-46b0-4ee7-9f02-afbf036d064e","ios":"levelo://app?vid=51890362-46b0-4ee7-9f02-afbf036d064e"},"vehicle_type_id":"4","last_reported":1752268190,"current_range_meters":19200,"station_id":"st_cvj6sg6p6f1abm77japg","pricing_plan_id":"cebpf4jnsgd1na2vs0mg"},{"bike_id":"648f0a38-3b92-40fe-8aee-b1d88aee6fe7","system_id":"levelo_inurba_marseille","lat":43.29561,"lon":5.37508,"is_reserved":false,"is_disabled":false,"rental_uris":{"android":"levelo://app?vid=648f0a38-3b92-40fe-8aee-b1d88aee6fe7","ios":"levelo://app?vid=648f0a38-3b92-40fe-8aee-b1d88aee6fe7"},"vehicle_type_id":"4","last_reported":1752268190,"current_range_meters":19200,"station_id":"ce4bgh92rcd13ifvqb50","pricing_plan_id":"cebpf4jnsgd1na2vs0mg"},{"bike_id":"8e96cc1c-7c1c-42f1-8e93-5f09751459d9","system_id":"levelo_inurba_marseille","lat":43.29304,"lon":5.3745,"is_reserved":false,"is_disabled":true,"rental_uris":{"android":"levelo://app?vid=8e96cc1c-7c1c-42f1-8e93-5f09751459d9","ios":"levelo://app?vid=8e96cc1c-7c1c-42f1-8e93-5f09751459d9"},"vehicle_type_id":"4","last_reported":1752268190,"current_range_meters":19200,"station_id":"ce4bgi12rcd13ifvqb70","pricing_plan_id":"cebpf4jnsgd1na2vs0mg"},{"bike_id":"a0137104-c9f4-434a-a5e3-80725cd5a2b4","system_id":"levelo_inurba_marseille","lat":43.21211,"lon":5.35091,"is_reserved":false,"is_disabled":false,"rental_uris":{"android":"levelo://app?vid=a0137104-c9f4-434a-a5e3-80725cd5a2b4","ios":"levelo://app?vid=a0137104-c9f4-434a-a5e3-80725cd5a2b4"},"vehicle_type_id":"4","last_reported":1752268190,"current_range_meters":19200,"station_id":"st_cvj6sg6p6f1abm77japg","pricing_plan_id":"cebpf4jnsgd1na2vs0mg"},{"bike_id":"1d3e1e0f-444c-4d4e-8bc2-51cc157faf1b","system_id":"levelo_inurba_marseille","lat":43.30791,"lon":5.3816,"is_reserved":false,"is_disabled":false,"rental_uris":{"android":"levelo://app?vid=1d3e1e0f-444c-4d4e-8bc2-51cc157faf1b","ios":"levelo://app?vid=1d3e1e0f-444c-4d4e-8bc2-51cc157faf1b"},"vehicle_type_id":"4","last_reported":1752268190,"current_range_meters":19200,"station_id":"ce4bgt12rcd13ifvqce0","pricing_plan_id":"cebpf4jnsgd1na2vs0mg"},{"bike_id":"ee5338dd-18a1-4b48-a5b0-f8c72f7b1319","system_id":"levelo_inurba_marseille","lat":43.31803,"lon":5.36851,"is_reserved":false,"is_disabled":false,"rental_uris":{"android":"levelo://app?vid=ee5338dd-18a1-4b48-a5b0-f8c72f7b1319","ios":"levelo://app?vid=ee5338dd-18a1-4b48-a5b0-f8c72f7b1319"},"vehicle_type_id":"4","last_reported":1752268190,"current_range_meters":19600,"station_id":"","pricing_plan_id":"cebpf4jnsgd1na2vs0mg"},{"bike_id":"3fd452d5-fa9e-4770-aa68-8c5a015a4ed7","system_id":"levelo_inurba_marseille","lat":43.283513,"lon":5.38101,"is_reserved":false,"is_disabled":false,"rental_uris":{"android":"levelo://app?vid=3fd452d5-fa9e-4770-aa68-8c5a015a4ed7","ios":"levelo://app?vid=3fd452d5-fa9e-4770-aa68-8c5a015a4ed7"},"vehicle_type_id":"4","last_reported":1752268190,"current_range_meters":19600,"station_id":"ce4bh412rcd13ifvqdr0","pricing_plan_id":"cebpf4jnsgd1na2vs0mg"},{"bike_id":"e79e8a7e-ae35-4e54-a9d7-7bbd386aa9ac","system_id":"levelo_inurba_marseille","lat":43.30587,"lon":5.39353,"is_reserved":false,"is_disabled":false,"rental_uris":{"android":"levelo://app?vid=e79e8a7e-ae35-4e54-a9d7-7bbd386aa9ac","ios":"levelo://app?vid=e79e8a7e-ae35-4e54-a9d7-7bbd386aa9ac"},"vehicle_type_id":"4","last_reported":1752268190,"current_range_meters":19600,"station_id":"ce4bh0p2rcd13ifvqd80","pricing_plan_id":"cebpf4jnsgd1na2vs0mg"},{"bike_id":"1cef150b-b548-4c02-ad02-bbeb0cc85422","system_id":"levelo_inurba_marseille","lat":43.24808,"lon":5.37441,"is_reserved":false,"is_disabled":false,"rental_uris":{"android":"levelo://app?vid=1cef150b-b548-4c02-ad02-bbeb0cc85422","ios":"levelo://app?vid=1cef150b-b548-4c02-ad02-bbeb0cc85422"},"vehicle_type_id":"4","last_reported":1752268190,"current_range_meters":19600,"station_id":"ce4bhgh2rcd13ifvqfb0","pricing_plan_id":"cebpf4jnsgd1na2vs0mg"},{"bike_id":"2a7ce4f7-5b8f-4cc2-bcc0-4444e9f55895","system_id":"levelo_inurba_marseille","lat":43.29917,"lon":5.37476,"is_reserved":false,"is_disabled":false,"rental_uris":{"android":"levelo://app?vid=2a7ce4f7-5b8f-4cc2-bcc0-4444e9f55895","ios":"levelo://app?vid=2a7ce4f7-5b8f-4cc2-bcc0-4444e9f55895"},"vehicle_type_id":"4","last_reported":1752268190,"current_range_meters":19600,"station_id":"ce4bgjh2rcd13ifvqbg0","pricing_plan_id":"cebpf4jnsgd1na2vs0mg"},{"bike_id":"08ab3e9e-385c-4113-9f12-0844c32f1b39","system_id":"levelo_inurba_marseille","lat":43.29688,"lon":5.36607,"is_reserved":false,"is_disabled":false,"rental_uris":{"android":"levelo://app?vid=08ab3e9e-385c-4113-9f12-0844c32f1b39","ios":"levelo://app?vid=08ab3e9e-385c-4113-9f12-0844c32f1b39"},"vehicle_type_id":"4","last_reported":1752268190,"current_range_meters":19600,"station_id":"ce4bgn12rcd13ifvqbt0","pricing_plan_id":"cebpf4jnsgd1na2vs0mg"},{"bike_id":"c275e2db-6984-4e8d-b3c6-f96b7a0ab29d","system_id":"levelo_inurba_marseille","lat":43.29875,"lon":5.38873,"is_reserved":false,"is_disabled":false,"rental_uris":{"android":"levelo://app?vid=c275e2db-6984-4e8d-b3c6-f96b7a0ab29d","ios":"levelo://app?vid=c275e2db-6984-4e8d-b3c6-f96b7a0ab29d"},"vehicle_type_id":"4","last_reported":1752268190,"current_range_meters":19600,"station_id":"ce4bh392rcd13ifvqdl0","pricing_plan_id":"cebpf4jnsgd1na2vs0mg"},{"bike_id":"486ee436-dc2c-4cbf-b133-565f554ddb1e","system_id":"levelo_inurba_marseille","lat":43.2512,"lon":5.40314,"is_reserved":false,"is_disabled":false,"rental_uris":{"android":"levelo://app?vid=486ee436-dc2c-4cbf-b133-565f554ddb1e","ios":"levelo://app?vid=486ee436-dc2c-4cbf-b133-565f554ddb1e"},"vehicle_type_id":"4","last_reported":1752268190,"current_range_meters":19600,"station_id":"ce4bhlh2rcd13ifvqgig","pricing_plan_id":"cebpf4jnsgd1na2vs0mg"},{"bike_id":"1550d62c-ac23-4182-a92a-927896c39981","system_id":"levelo_inurba_marseille","lat":43.33052,"lon":5.38087,"is_reserved":false,"is_disabled":false,"rental_uris":{"android":"levelo://app?vid=1550d62c-ac23-4182-a92a-927896c39981","ios":"levelo://app?vid=1550d62c-ac23-4182-a92a-927896c39981"},"vehicle_type_id":"4","last_reported":1752268190,"current_range_meters":19600,"station_id":"","pricing_plan_id":"cebpf4jnsgd1na2vs0mg"},{"bike_id":"4676b70b-a793-42b3-b222-c7aeffcffb22","system_id":"levelo_inurba_marseille","lat":43.24104,"lon":5.37746,"is_reserved":false,"is_disabled":false,"rental_uris":{"android":"levelo://app?vid=4676b70b-a793-42b3-b222-c7aeffcffb22","ios":"levelo://app?vid=4676b70b-a793-42b3-b222-c7aeffcffb22"},"vehicle_type_id":"4","last_reported":1752268190,"current_range_meters":19600,"station_id":"ce4bhnp2rcd13ifvqgvg","pricing_plan_id":"cebpf4jnsgd1na2vs0mg"},{"bike_id":"d799b321-3a7d-4201-b46e-ffe2ad124f19","system_id":"levelo_inurba_marseille","lat":43.32879,"lon":5.38394,"is_reserved":false,"is_disabled":false,"rental_uris":{"android":"levelo://app?vid=d799b321-3a7d-4201-b46e-ffe2ad124f19","ios":"levelo://app?vid=d799b321-3a7d-4201-b46e-ffe2ad124f19"},"vehicle_type_id":"4","last_reported":1752268190,"current_range_meters":20000,"station_id":"","pricing_plan_id":"cebpf4jnsgd1na2vs0mg"},{"bike_id":"cbb3fb96-68c0-4bfa-9071-b5c660d2a820","system_id":"levelo_inurba_marseille","lat":43.31173,"lon":5.38722,"is_reserved":false,"is_disabled":false,"rental_uris":{"android":"levelo://app?vid=cbb3fb96-68c0-4bfa-9071-b5c660d2a820","ios":"levelo://app?vid=cbb3fb96-68c0-4bfa-9071-b5c660d2a820"},"vehicle_type_id":"4","last_reported":1752268190,"current_range_meters":20000,"station_id":"ce4bgv12rcd13ifvqcp0","pricing_plan_id":"cebpf4jnsgd1na2vs0mg"},{"bike_id":"e0f8b86b-e00b-45f4-99bd-5c578f2a9be2","system_id":"levelo_inurba_marseille","lat":43.29565,"lon":5.37509,"is_reserved":false,"is_disabled":false,"rental_uris":{"android":"levelo://app?vid=e0f8b86b-e00b-45f4-99bd-5c578f2a9be2","ios":"levelo://app?vid=e0f8b86b-e00b-45f4-99bd-5c578f2a9be2"},"vehicle_type_id":"4","last_reported":1752268190,"current_range_meters":20000,"station_id":"ce4bgh92rcd13ifvqb50","pricing_plan_id":"cebpf4jnsgd1na2vs0mg"},{"bike_id":"184cae7b-bfa9-4467-bccd-d43d4e60e36d","system_id":"levelo_inurba_marseille","lat":43.29711,"lon":5.37694,"is_reserved":false,"is_disabled":false,"rental_uris":{"android":"levelo://app?vid=184cae7b-bfa9-4467-bccd-d43d4e60e36d","ios":"levelo://app?vid=184cae7b-bfa9-4467-bccd-d43d4e60e36d"},"vehicle_type_id":"4","last_reported":1752268190,"current_range_meters":20000,"station_id":"ce4bgkh2rcd13ifvqbl0","pricing_plan_id":"cebpf4jnsgd1na2vs0mg"},{"bike_id":"f5d89ce4-85ae-4688-a242-75904860b875","system_id":"levelo_inurba_marseille","lat":43.262176,"lon":5.374401,"is_reserved":false,"is_disabled":false,"rental_uris":{"android":"levelo://app?vid=f5d89ce4-85ae-4688-a242-75904860b875","ios":"levelo://app?vid=f5d89ce4-85ae-4688-a242-75904860b875"},"vehicle_type_id":"4","last_reported":1752268190,"current_range_meters":20000,"station_id":"ce4bhgp2rcd13ifvqfc0","pricing_plan_id":"cebpf4jnsgd1na2vs0mg"},{"bike_id":"319225f2-7459-44d7-a84e-41d93244a074","system_id":"levelo_inurba_marseille","lat":43.29568,"lon":5.42329,"is_reserved":false,"is_disabled":false,"rental_uris":{"android":"levelo://app?vid=319225f2-7459-44d7-a84e-41d93244a074","ios":"levelo://app?vid=319225f2-7459-44d7-a84e-41d93244a074"},"vehicle_type_id":"4","last_reported":1752268190,"current_range_meters":20000,"station_id":"ce4bhph2rcd13ifvqhdg","pricing_plan_id":"cebpf4jnsgd1na2vs0mg"},{"bike_id":"676d4644-226b-4b01-b9f7-8fb599ea6173","system_id":"levelo_inurba_marseille","lat":43.29687,"lon":5.37296,"is_reserved":false,"is_disabled":false,"rental_uris":{"android":"levelo://app?vid=676d4644-226b-4b01-b9f7-8fb599ea6173","ios":"levelo://app?vid=676d4644-226b-4b01-b9f7-8fb599ea6173"},"vehicle_type_id":"4","last_reported":1752268190,"current_range_meters":20000,"station_id":"ce4bgk12rcd13ifvqbj0","pricing_plan_id":"cebpf4jnsgd1na2vs0mg"},