{"last_updated":1752444618,"ttl":60,"version":"2.2","data":{"bikes":[{"bike_id":"e5372016-0404-4ecd-88db-97ac9f049ba4","system_id":"levelo_inurba_marseille","lat":43.29728,"lon":5.37674,"is_reserved":false,"is_disabled":false,"rental_uris":{"android":"levelo://app?vid=e5372016-0404-4ecd-88db-97ac9f049ba4","ios":"levelo://app?vid=e5372016-0404-4ecd-88db-97ac9f049ba4"},"vehicle_type_id":"4","last_reported":1752444618,"current_range_meters":2800,"station_id":"ce4bgkh2rcd13ifvqbl0","pricing_plan_id":"cebpf4jnsgd1na2vs0mg"},{"bike_id":"2f0ba75c-aff3-43f4-857b-fc7c66f4e426","system_id":"levelo_inurba_marseille","lat":43.30952,"lon":5.39022,"is_reserved":false,"is_disabled":true,"rental_uris":{"android":"levelo://app?vid=2f0ba75c-aff3-43f4-857b-fc7c66f4e426","ios":"levelo://app?vid=2f0ba75c-aff3-43f4-857b-fc7c66f4e426"},"vehicle_type_id":"4","last_reported":1752444618,"current_range_meters":3200,"station_id":"ce4bgup2rcd13ifvqco0","pricing_plan_id":"cebpf4jnsgd1na2vs0mg"},{"bike_id":"4f25b010-bb0b-4e2d-aff7-d4f5558e0651","system_id":"levelo_inurba_marseille","lat":43.26203,"lon":5.37447,"is_reserved":false,"is_disabled":true,"rental_uris":{"android":"levelo://app?vid=4f25b010-bb0b-4e2d-aff7-d4f5558e0651","ios":"levelo://app?vid=4f25b010-bb0b-4e2d-aff7-d4f5558e0651"},"vehicle_type_id":"4","last_reported":1752444618,"current_range_meters":3200,"station_id":"ce4bhgp2rcd13ifvqfc0","pricing_plan_id":"cebpf4jnsgd1na2vs0mg"},{"bike_id":"69a98ef8-9b4f-490a-b1e7-11ae49fc387b","system_id":"levelo_inurba_marseille","lat":43.21183,"lon":5.35087,"is_reserved":false,"is_disabled":false,"rental_uris":{"android":"levelo://app?vid=69a98ef8-9b4f-490a-b1e7-11ae49fc387b","ios":"levelo://app?vid=69a98ef8-9b4f-490a-b1e7-11ae49fc387b"},"vehicle_type_id":"4","last_reported":1752444618,"current_range_meters":3600,"station_id":"st_cvj6sg6p6f1abm77japg","pricing_plan_id":"cebpf4jnsgd1na2vs0mg"},{"bike_id":"c448c1fd-79d9-481b-8824-11cea0b8f0a7","system_id":"levelo_inurba_marseille","lat":43.29396,"lon":5.38813,"is_reserved":false,"is_disabled":false,"rental_uris":{"android":"levelo://app?vid=c448c1fd-79d9-481b-8824-11cea0b8f0a7","ios":"levelo://app?vid=c448c1fd-79d9-481b-8824-11cea0b8f0a7"},"vehicle_type_id":"4","last_reported":1752444618,"current_range_meters":4000,"station_id":"","pricing_plan_id":"cebpf4jnsgd1na2vs0mg"},{"bike_id":"e3a75ee9-c614-467b-8cc2-f813bcef2ab1","system_id":"levelo_inurba_marseille","lat":43.33743,"lon":5.3919,"is_reserved":false,"is_disabled":true,"rental_uris":{"android":"levelo://app?vid=e3a75ee9-c614-467b-8cc2-f813bcef2ab1","ios":"levelo://app?vid=e3a75ee9-c614-467b-8cc2-f813bcef2ab1"},"vehicle_type_id":"4","last_reported":1752444618,"current_range_meters":4000,"station_id":"ce4bhr92rcd13ifvqhsg","pricing_plan_id":"cebpf4jnsgd1na2vs0mg"},{"bike_id":"36cb2f1d-db21-4eae-8417-fa1e874e8c92","system_id":"levelo_inurba_marseille","lat":43.309326,"lon":5.382311,"is_reserved":false,"is_disabled":false,"rental_uris":{"android":"levelo://app?vid=36cb2f1d-db21-4eae-8417-fa1e874e8c92","ios":"levelo://app?vid=36cb2f1d-db21-4eae-8417-fa1e874e8c92"},"vehicle_type_id":"4","last_reported":1752444618,"current_range_meters":4400,"station_id":"","pricing_plan_id":"cebpf4jnsgd1na2vs0mg"},{"bike_id":"f30ebf27-61b6-4b5f-b973-c0f7ab556345","system_id":"levelo_inurba_marseille","lat":43.29144,"lon":5.382982,"is_reserved":false,"is_disabled":false,"rental_uris":{"android":"levelo://app?vid=f30ebf27-61b6-4b5f-b973-c0f7ab556345","ios":"levelo://app?vid=f30ebf27-61b6-4b5f-b973-c0f7ab556345"},"vehicle_type_id":"4","last_reported":1752444618,"current_range_meters":4800,"station_id":"ce4bhbh2rcd13ifvqeqg","pricing_plan_id":"cebpf4jnsgd1na2vs0mg"},{"bike_id":"df61839a-7a72-4634-9960-e8ea0d9a8d35","system_id":"levelo_inurba_marseille","lat":43.239474,"lon":5.366089,"is_reserved":false,"is_disabled":true,"rental_uris":{"android":"levelo://app?vid=df61839a-7a72-4634-9960-e8ea0d9a8d35","ios":"levelo://app?vid=df61839a-7a72-4634-9960-e8ea0d9a8d35"},"vehicle_type_id":"4","last_reported":1752444618,"current_range_meters":4800,"station_id":"","pricing_plan_id":"cebpf4jnsgd1na2vs0mg"},{"bike_id":"87991947-21b8-4b64-b6d4-5bae920498b7","system_id":"levelo_inurba_marseille","lat":43.30955,"lon":5.39021,"is_reserved":false,"is_disabled":true,"rental_uris":{"android":"levelo://app?vid=87991947-21b8-4b64-b6d4-5bae920498b7","ios":"levelo://app?vid=87991947-21b8-4b64-b6d4-5bae920498b7"},"vehicle_type_id":"4","last_reported":1752444618,"current_range_meters":4800,"station_id":"ce4bgup2rcd13ifvqco0","pricing_plan_id":"cebpf4jnsgd1na2vs0mg"},{"bike_id":"8929c1bf-fd4d-44e4-aa66-b3eb6538c998","system_id":"levelo_inurba_marseille","lat":43.2857,"lon":5.42941,"is_reserved":false,"is_disabled":false,"rental_uris":{"android":"levelo://app?vid=8929c1bf-fd4d-44e4-aa66-b3eb6538c998","ios":"levelo://app?vid=8929c1bf-fd4d-44e4-aa66-b3eb6538c998"},"vehicle_type_id":"4","last_reported":1752444618,"current_range_meters":5600,"station_id":"","pricing_plan_id":"cebpf4jnsgd1na2vs0mg"},{"bike_id":"f8d3c417-3e1d-4ae4-ad9d-f996d8620e50","system_id":"levelo_inurba_marseille","lat":43.30637,"lon":5.40103,"is_reserved":false,"is_disabled":false,"rental_uris":{"android":"levelo://app?vid=f8d3c417-3e1d-4ae4-ad9d-f996d8620e50","ios":"levelo://app?vid=f8d3c417-3e1d-4ae4-ad9d-f996d8620e50"},"vehicle_type_id":"4","last_reported":1752444618,"current_range_meters":4800,"station_id":"ce4bh112rcd13ifvqda0","pricing_plan_id":"cebpf4jnsgd1na2vs0mg"},{"bike_id":"b685fa59-d467-4819-b908-c703ff8dc78b","system_id":"levelo_inurba_marseille","lat":43.28354,"lon":5.38637,"is_reserved":false,"is_disabled":false,"rental_uris":{"android":"levelo://app?vid=b685fa59-d467-4819-b908-c703ff8dc78b","ios":"levelo://app?vid=b685fa59-d467-4819-b908-c703ff8dc78b"},"vehicle_type_id":"4","last_reported":1752444618,"current_range_meters":5600,"station_id":"ce4bh492rcd13ifvqdvg","pricing_plan_id":"cebpf4jnsgd1na2vs0mg"},{"bike_id":"3440e539-2a25-45a6-91a1-9c3e29b7b1e2","system_id":"levelo_inurba_marseille","lat":43.3136,"lon":5.38518,"is_reserved":false,"is_disabled":true,"rental_uris":{"android":"levelo://app?vid=3440e539-2a25-45a6-91a1-9c3e29b7b1e2","ios":"levelo://app?vid=3440e539-2a25-45a6-91a1-9c3e29b7b1e2"},"vehicle_type_id":"4","last_reported":1752444618,"current_range_meters":5600,"station_id":"ce4bgt92rcd13ifvqcf0","pricing_plan_id":"cebpf4jnsgd1na2vs0mg"},{"bike_id":"7d979f4d-837d-4923-bea4-9309987ed4f7","system_id":"levelo_inurba_marseille","lat":43.27921,"lon":5.39608,"is_reserved":false,"is_disabled":true,"rental_uris":{"android":"levelo://app?vid=7d979f4d-837d-4923-bea4-9309987ed4f7","ios":"levelo://app?vid=7d979f4d-837d-4923-bea4-9309987ed4f7"},"vehicle_type_id":"4","last_reported":1752444618,"current_range_meters":6000,"station_id":"ce4bhf92rcd13ifvqf40","pricing_plan_id":"cebpf4jnsgd1na2vs0mg"},{"bike_id":"718c5c30-99ff-4049-b8c6-489de4df2e5b","system_id":"levelo_inurba_marseille","lat":43.24804,"lon":5.37458,"is_reserved":false,"is_disabled":false,"rental_uris":{"android":"levelo://app?vid=718c5c30-99ff-4049-b8c6-489de4df2e5b","ios":"levelo://app?vid=718c5c30-99ff-4049-b8c6-489de4df2e5b"},"vehicle_type_id":"4","last_reported":1752444618,"current_range_meters":6000,"station_id":"ce4bhgh2rcd13ifvqfb0","pricing_plan_id":"cebpf4jnsgd1na2vs0mg"},{"bike_id":"791bfdd5-7428-4c9b-bb7d-51b8c3211181","system_id":"levelo_inurba_marseille","lat":43.31882,"lon":5.40736,"is_reserved":false,"is_disabled":false,"rental_uris":{"android":"levelo://app?vid=791bfdd5-7428-4c9b-bb7d-51b8c3211181","ios":"levelo://app?vid=791bfdd5-7428-4c9b-bb7d-51b8c3211181"},"vehicle_type_id":"4","last_reported":1752444618,"current_range_meters":6400,"station_id":"ce4bhq12rcd13ifvqhig","pricing_plan_id":"cebpf4jnsgd1na2vs0mg"},{"bike_id":"1ea9c7a6-643b-4ffb-bab7-a071282a48c3","system_id":"levelo_inurba_marseille","lat":43.26222,"lon":5.40452,"is_reserved":false,"is_disabled":false,"rental_uris":{"android":"levelo://app?vid=1ea9c7a6-643b-4ffb-bab7-a071282a48c3","ios":"levelo://app?vid=1ea9c7a6-643b-4ffb-bab7-a071282a48c3"},"vehicle_type_id":"4","last_reported":1752444618,"current_range_meters":6400,"station_id":"ce4bhmh2rcd13ifvqgmg","pricing_plan_id":"cebpf4jnsgd1na2vs0mg"},{"bike_id":"ae6b9bb3-31c8-4302-91c6-0e6b059eb0f3","system_id":"levelo_inurba_marseille","lat":43.33807,"lon":5.37399,"is_reserved":false,"is_disabled":true,"rental_uris":{"android":"levelo://app?vid=ae6b9bb3-31c8-4302-91c6-0e6b059eb0f3","ios":"levelo://app?vid=ae6b9bb3-31c8-4302-91c6-0e6b059eb0f3"},"vehicle_type_id":"4","last_reported":1752444618,"current_range_meters":6400,"station_id":"","pricing_plan_id":"cebpf4jnsgd1na2vs0mg"},{"bike_id":"422ac485-bc7b-4361-b00c-af28364f94e4","system_id":"levelo_inurba_marseille","lat":43.22918,"lon":5.34976,"is_reserved":false,"is_disabled":false,"rental_uris":{"android":"levelo://app?vid=422ac485-bc7b-4361-b00c-af28364f94e4","ios":"levelo://app?vid=422ac485-bc7b-4361-b00c-af28364f94e4"},"vehicle_type_id":"4","last_reported":1752444618,"current_range_meters":6400,"station_id":"","pricing_plan_id":"cebpf4jnsgd1na2vs0mg"},{"bike_id":"f285dac2-3dba-405a-b878-50d36f984fdb","system_id":"levelo_inurba_marseille","lat":43.281542,"lon":5.426434,"is_reserved":false,"is_disabled":false,"rental_uris":{"android":"levelo://app?vid=f285dac2-3dba-405a-b878-50d36f984fdb","ios":"levelo://app?vid=f285dac2-3dba-405a-b878-50d36f984fdb"},"vehicle_type_id":"4","last_reported":1752444618,"current_range_meters":6400,"station_id":"ce4bhnh2rcd13ifvqgug","pricing_plan_id":"cebpf4jnsgd1na2vs0mg"},{"bike_id":"fe3ec8ff-9879-4b22-8f8f-6581800be8ba","system_id":"levelo_inurba_marseille","lat":43.309509,"lon":5.390242,"is_reserved":false,"is_disabled":false,"rental_uris":{"android":"levelo://app?vid=fe3ec8ff-9879-4b22-8f8f-6581800be8ba","ios":"levelo://app?vid=fe3ec8ff-9879-4b22-8f8f-6581800be8ba"},"vehicle_type_id":"4","last_reported":1752444618,"current_range_meters":6400,"station_id":"ce4bgup2rcd13ifvqco0","pricing_plan_id":"cebpf4jnsgd1na2vs0mg"},{"bike_id":"5d49d68c-6e44-46ab-9231-7d746025e7d7","system_id":"levelo_inurba_marseille","lat":43.28411,"lon":5.37524,"is_reserved":false,"is_disabled":false,"rental_uris":{"android":"levelo://app?vid=5d49d68c-6e44-46ab-9231-7d746025e7d7","ios":"levelo://app?vid=5d49d68c-6e44-46ab-9231-7d746025e7d7"},"vehicle_type_id":"4","last_reported":1752444618,"current_range_meters":6400,"station_id":"ce4bh412rcd13ifvqds0","pricing_plan_id":"cebpf4jnsgd1na2vs0mg"},{"bike_id":"dbba3321-20c7-4989-a7b5-ea9ab2c4b3e8","system_id":"levelo_inurba_marseille","lat":43.261935,"lon":5.374477,"is_reserved":false,"is_disabled":true,"rental_uris":{"android":"levelo://app?vid=dbba3321-20c7-4989-a7b5-ea9ab2c4b3e8","ios":"levelo://app?vid=dbba3321-20c7-4989-a7b5-ea9ab2c4b3e8"},"vehicle_type_id":"4","last_reported":1752444618,"current_range_meters":6400,"station_id":"ce4bhgp2rcd13ifvqfc0","pricing_plan_id":"cebpf4jnsgd1na2vs0mg"},{"bike_id":"5a71ab42-51f6-4d74-8942-e5c8339f2255","system_id":"levelo_inurba_marseille","lat":43.31729,"lon":5.39142,"is_reserved":false,"is_disabled":true,"rental_uris":{"android":"levelo://app?vid=5a71ab42-51f6-4d74-8942-e5c8339f2255","ios":"levelo://app?vid=5a71ab42-51f6-4d74-8942-e5c8339f2255"},"vehicle_type_id":"4","last_reported":1752444618,"current_range_meters":6800,"station_id":"","pricing_plan_id":"cebpf4jnsgd1na2vs0mg"},{"bike_id":"b9e98ccf-2edd-4bf2-8e0d-8b432fbb1f00","system_id":"levelo_inurba_marseille","lat":43.26228,"lon":5.40456,"is_reserved":false,"is_disabled":false,"rental_uris":{"android":"levelo://app?vid=b9e98ccf-2edd-4bf2-8e0d-8b432fbb1f00","ios":"levelo://app?vid=b9e98ccf-2edd-4bf2-8e0d-8b432fbb1f00"},"vehicle_type_id":"4","last_reported":1752444618,"current_range_meters":6800,"station_id":"ce4bhmh2rcd13ifvqgmg","pricing_plan_id":"cebpf4jnsgd1na2vs0mg"},{"bike_id":"cd1abc90-e81c-4f79-8f7b-8249f49ed91a","system_id":"levelo_inurba_marseille","lat":43.30252,"lon":5.40084,"is_reserved":false,"is_disabled":false,"rental_uris":{"android":"levelo://app?vid=cd1abc90-e81c-4f79-8f7b-8249f49ed91a","ios":"levelo://app?vid=cd1abc90-e81c-4f79-8f7b-8249f49ed91a"},"vehicle_type_id":"4","last_reported":1752444618,"current_range_meters":6800,"station_id":"ce4bgvh2rcd13ifvqcs0","pricing_plan_id":"cebpf4jnsgd1na2vs0mg"},{"bike_id":"7b624790-b21b-46d1-a9ca-774e836eea2b","system_id":"levelo_inurba_marseille","lat":43.29704,"lon":5.36603,"is_reserved":false,"is_disabled":true,"rental_uris":{"android":"levelo://app?vid=7b624790-b21b-46d1-a9ca-774e836eea2b","ios":"levelo://app?vid=7b624790-b21b-46d1-a9ca-774e836eea2b"},"vehicle_type_id":"4","last_reported":1752444618,"current_range_meters":6800,"station_id":"ce4bgn12rcd13ifvqbt0","pricing_plan_id":"cebpf4jnsgd1na2vs0mg"},{"bike_id":"4e18f6a0-cf0a-4e54-823e-14d073e25d70","system_id":"levelo_inurba_marseille","lat":43.28039,"lon":5.36931,"is_reserved":false,"is_disabled":true,"rental_uris":{"android":"levelo://app?vid=4e18f6a0-cf0a-4e54-823e-14d073e25d70","ios":"levelo://app?vid=4e18f6a0-cf0a-4e54-823e-14d073e25d70"},"vehicle_type_id":"4","last_reported":1752444618,"current_range_meters":6800,"station_id":"ce4bha12rcd13ifvqef0","pricing_plan_id":"cebpf4jnsgd1na2vs0mg"},{"bike_id":"02883b92-225f-428d-a8a6-4844ec1f2d26","system_id":"levelo_inurba_marseille","lat":43.30592,"lon":5.37262,"is_reserved":false,"is_disabled":true,"rental_uris":{"android":"levelo://app?vid=02883b92-225f-428d-a8a6-4844ec1f2d26","ios":"levelo://app?vid=02883b92-225f-428d-a8a6-4844ec1f2d26"},"vehicle_type_id":"4","last_reported":1752444618,"current_range_meters":6800,"station_id":"ce4bgqh2rcd13ifvqc4g","pricing_plan_id":"cebpf4jnsgd1na2vs0mg"},{"bike_id":"ffb2c2a4-3503-4814-9c93-aa87a655271a","system_id":"levelo_inurba_marseille","lat":43.295235,"lon":5.39038,"is_reserved":false,"is_disabled":false,"rental_uris":{"android":"levelo://app?vid=ffb2c2a4-3503-4814-9c93-aa87a655271a","ios":"levelo://app?vid=ffb2c2a4-3503-4814-9c93-aa87a655271a"},"vehicle_type_id":"4","last_reported":1752444618,"current_range_meters":7200,"station_id":"ce4bh3p2rcd13ifvqdp0","pricing_plan_id":"cebpf4jnsgd1na2vs0mg"},{"bike_id":"8650facc-58e4-47db-8da4-d3936b919632","system_id":"levelo_inurba_marseille","lat":43.306152,"lon":5.393508,"is_reserved":false,"is_disabled":true,"rental_uris":{"android":"levelo://app?vid=8650facc-58e4-47db-8da4-d3936b919632","ios":"levelo://app?vid=8650facc-58e4-47db-8da4-d3936b919632"},"vehicle_type_id":"4","last_reported":1752444618,"current_range_meters":7200,"station_id":"ce4bh0p2rcd13ifvqd80","pricing_plan_id":"cebpf4jnsgd1na2vs0mg"},{"bike_id":"c943f36c-53e9-4486-b306-d9d59d955d5c","system_id":"levelo_inurba_marseille","lat":43.30419,"lon":5.39748,"is_reserved":false,"is_disabled":false,"rental_uris":{"android":"levelo://app?vid=c943f36c-53e9-4486-b306-d9d59d955d5c","ios":"levelo://app?vid=c943f36c-53e9-4486-b306-d9d59d955d5c"},"vehicle_type_id":"4","last_reported":1752444618,"current_range_meters":7200,"station_id":"ce4bh092rcd13ifvqd20","pricing_plan_id":"cebpf4jnsgd1na2vs0mg"},{"bike_id":"42f7eefd-f06e-4d0d-bf4e-538f0d0d277d","system_id":"levelo_inurba_marseille","lat":43.29527,"lon":5.38548,"is_reserved":false,"is_disabled":false,"rental_uris":{"android":"levelo://app?vid=42f7eefd-f06e-4d0d-bf4e-538f0d0d277d","ios":"levelo://app?vid=42f7eefd-f06e-4d0d-bf4e-538f0d0d277d"},"vehicle_type_id":"4","last_reported":1752444618,"current_range_meters":8000,"station_id":"ce4bgih2rcd13ifvqba0","pricing_plan_id":"cebpf4jnsgd1na2vs0mg"},{"bike_id":"680e3f36-d9bf-4d6b-aefe-1a8d61a2db93","system_id":"levelo_inurba_marseille","lat":43.30311,"lon":5.36899,"is_reserved":false,"is_disabled":false,"rental_uris":{"android":"levelo://app?vid=680e3f36-d9bf-4d6b-aefe-1a8d61a2db93","ios":"levelo://app?vid=680e3f36-d9bf-4d6b-aefe-1a8d61a2db93"},"vehicle_type_id":"4","last_reported":1752444618,"current_range_meters":8000,"station_id":"ce4bgqh2rcd13ifvqc5g","pricing_plan_id":"cebpf4jnsgd1na2vs0mg"},{"bike_id":"e1b0dd82-2670-4a1d-b258-1722b39aa0ec","system_id":"levelo_inurba_marseille","lat":43.29245,"lon":5.36864,"is_reserved":false,"is_disabled":false,"rental_uris":{"android":"levelo://app?vid=e1b0dd82-2670-4a1d-b258-1722b39aa0ec","ios":"levelo://app?vid=e1b0dd82-2670-4a1d-b258-1722b39aa0ec"},"vehicle_type_id":"4","last_reported":1752444618,"current_range_meters":8000,"station_id":"","pricing_plan_id":"cebpf4jnsgd1na2vs0mg"},{"bike_id":"6dac0c5e-7db4-4c42-81e9-46077c30dbbc","system_id":"levelo_inurba_marseille","lat":43.2869,"lon":5.37382,"is_reserved":false,"is_disabled":false,"rental_uris":{"android":"levelo://app?vid=6dac0c5e-7db4-4c42-81e9-46077c30dbbc","ios":"levelo://app?vid=6dac0c5e-7db4-4c42-81e9-46077c30dbbc"},"vehicle_type_id":"4","last_reported":1752444618,"current_range_meters":8000,"station_id":"ce4bh3p2rcd13ifvqdq0","pricing_plan_id":"cebpf4jnsgd1na2vs0mg"},{"bike_id":"203d9ebe-3f7c-473d-af9f-66dcde8d2665","system_id":"levelo_inurba_marseille","lat":43.243904,"lon":5.370536,"is_reserved":false,"is_disabled":false,"rental_uris":{"android":"levelo://app?vid=203d9ebe-3f7c-473d-af9f-66dcde8d2665","ios":"levelo://app?vid=203d9ebe-3f7c-473d-af9f-66dcde8d2665"},"vehicle_type_id":"4","last_reported":1752444618,"current_range_meters":8000,"station_id":"ce4bhhh2rcd13ifvqfk0","pricing_plan_id":"cebpf4jnsgd1na2vs0mg"},{"bike_id":"696aca5a-f985-42f2-b5f7-74ca3a442dcb","system_id":"levelo_inurba_marseille","lat":43.30875,"lon":5.37342,"is_reserved":false,"is_disabled":false,"rental_uris":{"android":"levelo://app?vid=696aca5a-f985-42f2-b5f7-74ca3a442dcb","ios":"levelo://app?vid=696aca5a-f985-42f2-b5f7-74ca3a442dcb"},"vehicle_type_id":"4","last_reported":1752444618,"current_range_meters":8000,"station_id":"","pricing_plan_id":"cebpf4jnsgd1na2vs0mg"},{"bike_id":"f28952b5-5cfa-4705-909c-54dcb75647b9","system_id":"levelo_inurba_marseille","lat":43.3127,"lon":5.4017,"is_reserved":false,"is_disabled":false,"rental_uris":{"android":"levelo://app?vid=f28952b5-5cfa-4705-909c-54dcb75647b9","ios":"levelo://app?vid=f28952b5-5cfa-4705-909c-54dcb75647b9"},"vehicle_type_id":"4","last_reported":1752444618,"current_range_meters":8000,"station_id":"ce4bh092rcd13ifvqd30","pricing_plan_id":"cebpf4jnsgd1na2vs0mg"},{"bike_id":"44dd919c-32df-4fe9-8b1c-c9988fb68d5b","system_id":"levelo_inurba_marseille","lat":43.26942,"lon":5.40334,"is_reserved":false,"is_disabled":true,"rental_uris":{"android":"levelo://app?vid=44dd919c-32df-4fe9-8b1c-c9988fb68d5b","ios":"levelo://app?vid=44dd919c-32df-4fe9-8b1c-c9988fb68d5b"},"vehicle_type_id":"4","last_reported":1752444618,"current_range_meters":8400,"station_id":"cjm6bp8fraef2m0cb0m0","pricing_plan_id":"cebpf4jnsgd1na2vs0mg"},{"bike_id":"df2fd875-355d-48a5-a10d-f5c8164c3c58","system_id":"levelo_inurba_marseille","lat":43.29597,"lon":5.378105,"is_reserved":false,"is_disabled":false,"rental_uris":{"android":"levelo://app?vid=df2fd875-355d-48a5-a10d-f5c8164c3c58","ios":"levelo://app?vid=df2fd875-355d-48a5-a10d-f5c8164c3c58"},"vehicle_type_id":"4","last_reported":1752444618,"current_range_meters":8400,"station_id":"ce4bh0h2rcd13ifvqd40","pricing_plan_id":"cebpf4jnsgd1na2vs0mg"},{"bike_id":"96d54fdb-5835-4cd8-9827-093c0b08e4ca","system_id":"levelo_inurba_marseille","lat":43.21191,"lon":5.35085,"is_reserved":false,"is_disabled":false,"rental_uris":{"android":"levelo://app?vid=96d54fdb-5835-4cd8-9827-093c0b08e4ca","ios":"levelo://app?vid=96d54fdb-5835-4cd8-9827-093c0b08e4ca"},"vehicle_type_id":"4","last_reported":1752444618,"current_range_meters":8400,"station_id":"st_cvj6sg6p6f1abm77japg","pricing_plan_id":"cebpf4jnsgd1na2vs0mg"},{"bike_id":"f79d9d1f-bff9-43cf-ab5b-7db46b4335b5","system_id":"levelo_inurba_marseille","lat":43.28445,"lon":5.39205,"is_reserved":false,"is_disabled":false,"rental_uris":{"android":"levelo://app?vid=f79d9d1f-bff9-43cf-ab5b-7db46b4335b5","ios":"levelo://app?vid=f79d9d1f-bff9-43cf-ab5b-7db46b4335b5"},"vehicle_type_id":"4","last_reported":1752444618,"current_range_meters":8400,"station_id":"ce4bhoh2rcd13ifvqh5g","pricing_plan_id":"cebpf4jnsgd1na2vs0mg"},{"bike_id":"470d1e9d-8c05-40b8-a6b2-039f183b9f6a","system_id":"levelo_inurba_marseille","lat":43.23186,"lon":5.35567,"is_reserved":false,"is_disabled":true,"rental_uris":{"android":"levelo://app?vid=470d1e9d-8c05-40b8-a6b2-039f183b9f6a","ios":"levelo://app?vid=470d1e9d-8c05-40b8-a6b2-039f183b9f6a"},"vehicle_type_id":"4","last_reported":1752444618,"current_range_meters":8400,"station_id":"ce4bhu92rcd13ifvqi70","pricing_plan_id":"cebpf4jnsgd1na2vs0mg"},{"bike_id":"1a807fbf-2537-414c-b4af-f48c3c8f903e","system_id":"levelo_inurba_marseille","lat":43.27165,"lon":5.40928,"is_reserved":false,"is_disabled":false,"rental_uris":{"android":"levelo://app?vid=1a807fbf-2537-414c-b4af-f48c3c8f903e","ios":"levelo://app?vid=1a807fbf-2537-414c-b4af-f48c3c8f903e"},"vehicle_type_id":"4","last_reported":1752444618,"current_range_meters":8400,"station_id":"","pricing_plan_id":"cebpf4jnsgd1na2vs0mg"},{"bike_id":"0b0f1962-1ccb-4bc3-895b-70f8484b3602","system_id":"levelo_inurba_marseille","lat":43.28723,"lon":5.36105,"is_reserved":false,"is_disabled":true,"rental_uris":{"android":"levelo://app?vid=0b0f1962-1ccb-4bc3-895b-70f8484b3602","ios":"levelo://app?vid=0b0f1962-1ccb-4bc3-895b-70f8484b3602"},"vehicle_type_id":"4","last_reported":1752444618,"current_range_meters":8800,"station_id":"cki0cbj6b192h4jlfktg","pricing_plan_id":"cebpf4jnsgd1na2vs0mg"},{"bike_id":"6070c3be-7535-4c90-8ef1-277f2efabd61","system_id":"levelo_inurba_marseille","lat":43.29237,"lon":5.400678,"is_reserved":false,"is_disabled":false,"rental_uris":{"android":"levelo://app?vid=6070c3be-7535-4c90-8ef1-277f2efabd61","ios":"levelo://app?vid=6070c3be-7535-4c90-8ef1-277f2efabd61"},"vehicle_type_id":"4","last_reported":1752444618,"current_range_meters":8800,"station_id":"","pricing_plan_id":"cebpf4jnsgd1na2vs0mg"},{"bike_id":"79c3059b-23ae-4eba-a288-c035e60ff0fd","system_id":"levelo_inurba_marseille","lat":43.28705,"lon":5.39986,"is_reserved":false,"is_disabled":false,"rental_uris":{"android":"levelo://app?vid=79c3059b-23ae-4eba-a288-c035e60ff0fd","ios":"levelo://app?vid=79c3059b-23ae-4eba-a288-c035e60ff0fd"},"vehicle_type_id":"4","last_reported":1752444618,"current_range_meters":8800,"station_id":"ce4bho92rcd13ifvqh3g","pricing_plan_id":"cebpf4jnsgd1na2vs0mg"},{"bike_id":"1dbb5602-bc5d-4f0b-86bc-32a95b0b72c5","system_id":"levelo_inurba_marseille","lat":43.2794,"lon":5.41051,"is_reserved":false,"is_disabled":false,"rental_uris":{"android":"levelo://app?vid=1dbb5602-bc5d-4f0b-86bc-32a95b0b72c5","ios":"levelo://app?vid=1dbb5602-bc5d-4f0b-86bc-32a95b0b72c5"},"vehicle_type_id":"4","last_reported":1752444618,"current_range_meters":9200,"station_id":"ce4bhnp2rcd13ifvqh0g","pricing_plan_id":"cebpf4jnsgd1na2vs0mg"},{"bike_id":"5d522e77-ec27-4fd6-a510-ea7d6f16223a","system_id":"levelo_inurba_marseille","lat":43.27589,"lon":5.37092,"is_reserved":false,"is_disabled":false,"rental_uris":{"android":"levelo://app?vid=5d522e77-ec27-4fd6-a510-ea7d6f16223a","ios":"levelo://app?vid=5d522e77-ec27-4fd6-a510-ea7d6f16223a"},"vehicle_type_id":"4","last_reported":1752444618,"current_range_meters":9200,"station_id":"","pricing_plan_id":"cebpf4jnsgd1na2vs0mg"},{"bike_id":"afb3e3b0-3b35-40a1-a3d9-2a416ca6d8c0","system_id":"levelo_inurba_marseille","lat":43.27368,"lon":5.36258,"is_reserved":false,"is_disabled":true,"rental_uris":{"android":"levelo://app?vid=afb3e3b0-3b35-40a1-a3d9-2a416ca6d8c0","ios":"levelo://app?vid=afb3e3b0-3b35-40a1-a3d9-2a416ca6d8c0"},"vehicle_type_id":"4","last_reported":1752444618,"current_range_meters":9200,"station_id":"ce4bhbh2rcd13ifvqeo0","pricing_plan_id":"cebpf4jnsgd1na2vs0mg"},{"bike_id":"1bfa1b76-fa6d-4cdd-aff5-612b86c512c4","system_id":"levelo_inurba_marseille","lat":43.26552,"lon":5.39008,"is_reserved":false,"is_disabled":true,"rental_uris":{"android":"levelo://app?vid=1bfa1b76-fa6d-4cdd-aff5-612b86c512c4","ios":"levelo://app?vid=1bfa1b76-fa6d-4cdd-aff5-612b86c512c4"},"vehicle_type_id":"4","last_reported":1752444618,"current_range_meters":9200,"station_id":"ce4bhe12rcd13ifvqf30","pricing_plan_id":"cebpf4jnsgd1na2vs0mg"},{"bike_id":"3969163a-ce84-4f86-970d-59b31b264b1c","system_id":"levelo_inurba_marseille","lat":43.28719,"lon":5.39957,"is_reserved":false,"is_disabled":false,"rental_uris":{"android":"levelo://app?vid=3969163a-ce84-4f86-970d-59b31b264b1c","ios":"levelo://app?vid=3969163a-ce84-4f86-970d-59b31b264b1c"},"vehicle_type_id":"4","last_reported":1752444618,"current_range_meters":9200,"station_id":"ce4bho92rcd13ifvqh3g","pricing_plan_id":"cebpf4jnsgd1na2vs0mg"},{"bike_id":"fc88c49a-96b4-44c6-9c16-71760b2a189f","system_id":"levelo_inurba_marseille","lat":43.30596,"lon":5.37261,"is_reserved":false,"is_disabled":false,"rental_uris":{"android":"levelo://app?vid=fc88c49a-96b4-44c6-9c16-71760b2a189f","ios":"levelo://app?vid=fc88c49a-96b4-44c6-9c16-71760b2a189f"},"vehicle_type_id":"4","last_reported":1752444618,"current_range_meters":9200,"station_id":"ce4bgqh2rcd13ifvqc4g","pricing_plan_id":"cebpf4jnsgd1na2vs0mg"},{"bike_id":"7a888645-4b0c-4379-98d8-380a5347b74c","system_id":"levelo_inurba_marseille","lat":43.27371,"lon":5.3625,"is_reserved":false,"is_disabled":true,"rental_uris":{"android":"levelo://app?vid=7a888645-4b0c-4379-98d8-380a5347b74c","ios":"levelo://app?vid=7a888645-4b0c-4379-98d8-380a5347b74c"},"vehicle_type_id":"4","last_reported":1752444618,"current_range_meters":9600,"station_id":"ce4bhbh2rcd13ifvqeo0","pricing_plan_id":"cebpf4jnsgd1na2vs0mg"},{"bike_id":"90dd2348-9910-4173-896f-8c5bb7ad8ae6","system_id":"levelo_inurba_marseille","lat":43.264939,"lon":5.395354,"is_reserved":false,"is_disabled":false,"rental_uris":{"android":"levelo://app?vid=90dd2348-9910-4173-896f-8c5bb7ad8ae6","ios":"levelo://app?vid=90dd2348-9910-4173-896f-8c5bb7ad8ae6"},"vehicle_type_id":"4","last_reported":1752444618,"current_range_meters":9600,"station_id":"ce4bhi12rcd13ifvqfq0","pricing_plan_id":"cebpf4jnsgd1na2vs0mg"},{"bike_id":"279fb5e8-e5bd-4894-8a04-966bfcafc260","system_id":"levelo_inurba_marseille","lat":43.28698,"lon":5.39979,"is_reserved":false,"is_disabled":false,"rental_uris":{"android":"levelo://app?vid=279fb5e8-e5bd-4894-8a04-966bfcafc260","ios":"levelo://app?vid=279fb5e8-e5bd-4894-8a04-966bfcafc260"},"vehicle_type_id":"4","last_reported":1752444618,"current_range_meters":9600,"station_id":"ce4bho92rcd13ifvqh3g","pricing_plan_id":"cebpf4jnsgd1na2vs0mg"},{"bike_id":"49801dc2-618a-44b8-84ae-416cd87fdbe9","system_id":"levelo_inurba_marseille","lat":43.33769,"lon":5.3749,"is_reserved":false,"is_disabled":false,"rental_uris":{"android":"levelo://app?vid=49801dc2-618a-44b8-84ae-416cd87fdbe9","ios":"levelo://app?vid=49801dc2-618a-44b8-84ae-416cd87fdbe9"},"vehicle_type_id":"4","last_reported":1752444618,"current_range_meters":9600,"station_id":"","pricing_plan_id":"cebpf4jnsgd1na2vs0mg"},{"bike_id":"31f76825-7b9f-439a-a66c-521eb63e58c1","system_id":"levelo_inurba_marseille","lat":43.29465,"lon":5.43845,"is_reserved":false,"is_disabled":false,"rental_uris":{"android":"levelo://app?vid=31f76825-7b9f-439a-a66c-521eb63e58c1","ios":"levelo://app?vid=31f76825-7b9f-439a-a66c-521eb63e58c1"},"vehicle_type_id":"4","last_reported":1752444618,"current_range_meters":9600,"station_id":"","pricing_plan_id":"cebpf4jnsgd1na2vs0mg"},{"bike_id":"9a8b0931-f754-41b1-83c6-b9eee7982ee0","system_id":"levelo_inurba_marseille","lat":43.30346,"lon":5.41898,"is_reserved":false,"is_disabled":true,"rental_uris":{"android":"levelo://app?vid=9a8b0931-f754-41b1-83c6-b9eee7982ee0","ios":"levelo://app?vid=9a8b0931-f754-41b1-83c6-b9eee7982ee0"},"vehicle_type_id":"4","last_reported":1752444618,"current_range_meters":10000,"station_id":"ce4bhop2rcd13ifvqh7g","pricing_plan_id":"cebpf4jnsgd1na2vs0mg"},{"bike_id":"54bd51ef-b12f-4a07-b4ee-a1ba9a64d3ab","system_id":"levelo_inurba_marseille","lat":43.26205,"lon":5.40497,"is_reserved":false,"is_disabled":false,"rental_uris":{"android":"levelo://app?vid=54bd51ef-b12f-4a07-b4ee-a1ba9a64d3ab","ios":"levelo://app?vid=54bd51ef-b12f-4a07-b4ee-a1ba9a64d3ab"},"vehicle_type_id":"4","last_reported":1752444618,"current_range_meters":10000,"station_id":"ce4bhmh2rcd13ifvqgmg","pricing_plan_id":"cebpf4jnsgd1na2vs0mg"},{"bike_id":"a645d6c0-dcdf-402b-b506-c70f20c3f081","system_id":"levelo_inurba_marseille","lat":43.31354,"lon":5.38494,"is_reserved":false,"is_disabled":true,"rental_uris":{"android":"levelo://app?vid=a645d6c0-dcdf-402b-b506-c70f20c3f081","ios":"levelo://app?vid=a645d6c0-dcdf-402b-b506-c70f20c3f081"},"vehicle_type_id":"4","last_reported":1752444618,"current_range_meters":10800,"station_id":"ce4bgt92rcd13ifvqcf0","pricing_plan_id":"cebpf4jnsgd1na2vs0mg"},{"bike_id":"8b37f03f-f226-4bbc-8648-b109da7ba145","system_id":"levelo_inurba_marseille","lat":43.30536,"lon":5.366999,"is_reserved":false,"is_disabled":false,"rental_uris":{"android":"levelo://app?vid=8b37f03f-f226-4bbc-8648-b109da7ba145","ios":"levelo://app?vid=8b37f03f-f226-4bbc-8648-b109da7ba145"},"vehicle_type_id":"4","last_reported":1752444618,"current_range_meters":10800,"station_id":"","pricing_plan_id":"cebpf4jnsgd1na2vs0mg"},{"bike_id":"18f2ba16-d750-4aad-951c-d99a17d41586","system_id":"levelo_inurba_marseille","lat":43.281535,"lon":5.426415,"is_reserved":false,"is_disabled":false,"rental_uris":{"android":"levelo://app?vid=18f2ba16-d750-4aad-951c-d99a17d41586","ios":"levelo://app?vid=18f2ba16-d750-4aad-951c-d99a17d41586"},"vehicle_type_id":"4","last_reported":1752444618,"current_range_meters":11200,"station_id":"ce4bhnh2rcd13ifvqgug","pricing_plan_id":"cebpf4jnsgd1na2vs0mg"},{"bike_id":"51378491-c452-4b69-ae2c-0fff777f9f92","system_id":"levelo_inurba_marseille","lat":43.30095,"lon":5.39079,"is_reserved":false,"is_disabled":false,"rental_uris":{"android":"levelo://app?vid=51378491-c452-4b69-ae2c-0fff777f9f92","ios":"levelo://app?vid=51378491-c452-4b69-ae2c-0fff777f9f92"},"vehicle_type_id":"4","last_reported":1752444618,"current_range_meters":11200,"station_id":"ce4bh192rcd13ifvqdb0","pricing_plan_id":"cebpf4jnsgd1na2vs0mg"},{"bike_id":"f116a9b2-5f21-4747-9f15-48f8aca33d71","system_id":"levelo_inurba_marseille","lat":43.31074,"lon":5.38354,"is_reserved":false,"is_disabled":false,"rental_uris":{"android":"levelo://app?vid=f116a9b2-5f21-4747-9f15-48f8aca33d71","ios":"levelo://app?vid=f116a9b2-5f21-4747-9f15-48f8aca33d71"},"vehicle_type_id":"4","last_reported":1752444618,"current_range_meters":11200,"station_id":"ce4bgv92rcd13ifvqcr0","pricing_plan_id":"cebpf4jnsgd1na2vs0mg"},{"bike_id":"f23760ff-ab61-4853-aa67-28aac93822c1","system_id":"levelo_inurba_marseille","lat":43.337444,"lon":5.374475,"is_reserved":false,"is_disabled":false,"rental_uris":{"android":"levelo://app?vid=f23760ff-ab61-4853-aa67-28aac93822c1","ios":"levelo://app?vid=f23760ff-ab61-4853-aa67-28aac93822c1"},"vehicle_type_id":"4","last_reported":1752444618,"current_range_meters":11200,"station_id":"","pricing_plan_id":"cebpf4jnsgd1na2vs0mg"},{"bike_id":"64e7258d-bb72-497e-be6e-23d0ba7dd3c5","system_id":"levelo_inurba_marseille","lat":43.32351,"lon":5.40615,"is_reserved":false,"is_disabled":false,"rental_uris":{"android":"levelo://app?vid=64e7258d-bb72-497e-be6e-23d0ba7dd3c5","ios":"levelo://app?vid=64e7258d-bb72-497e-be6e-23d0ba7dd3c5"},"vehicle_type_id":"4","last_reported":1752444618,"current_range_meters":11200,"station_id":"ce4bhq92rcd13ifvqhjg","pricing_plan_id":"cebpf4jnsgd1na2vs0mg"},{"bike_id":"034ad247-602e-433a-b217-d143e18cabe4","system_id":"levelo_inurba_marseille","lat":43.26566,"lon":5.39022,"is_reserved":false,"is_disabled":false,"rental_uris":{"android":"levelo://app?vid=034ad247-602e-433a-b217-d143e18cabe4","ios":"levelo://app?vid=034ad247-602e-433a-b217-d143e18cabe4"},"vehicle_type_id":"4","last_reported":1752444618,"current_range_meters":11200,"station_id":"ce4bhe12rcd13ifvqf30","pricing_plan_id":"cebpf4jnsgd1na2vs0mg"},{"bike_id":"de3a84dc-052f-4d41-862a-2edcb8d593e2","system_id":"levelo_inurba_marseille","lat":43.27923,"lon":5.39591,"is_reserved":false,"is_disabled":false,"rental_uris":{"android":"levelo://app?vid=de3a84dc-052f-4d41-862a-2edcb8d593e2","ios":"levelo://app?vid=de3a84dc-052f-4d41-862a-2edcb8d593e2"},"vehicle_type_id":"4","last_reported":1752444618,"current_range_meters":11600,"station_id":"ce4bhf92rcd13ifvqf40","pricing_plan_id":"cebpf4jnsgd1na2vs0mg"},{"bike_id":"29912b0d-96bb-43c0-90ab-168b4f4dfd4d","system_id":"levelo_inurba_marseille","lat":43.31361,"lon":5.38496,"is_reserved":false,"is_disabled":false,"rental_uris":{"android":"levelo://app?vid=29912b0d-96bb-43c0-90ab-168b4f4dfd4d","ios":"levelo://app?vid=29912b0d-96bb-43c0-90ab-168b4f4dfd4d"},"vehicle_type_id":"4","last_reported":1752444618,"current_range_meters":11600,"station_id":"ce4bgt92rcd13ifvqcf0","pricing_plan_id":"cebpf4jnsgd1na2vs0mg"},{"bike_id":"59bd944e-8158-4d03-98d6-e97af0707782","system_id":"levelo_inurba_marseille","lat":43.21203,"lon":5.35069,"is_reserved":false,"is_disabled":false,"rental_uris":{"android":"levelo://app?vid=59bd944e-8158-4d03-98d6-e97af0707782","ios":"levelo://app?vid=59bd944e-8158-4d03-98d6-e97af0707782"},"vehicle_type_id":"4","last_reported":1752444618,"current_range_meters":11600,"station_id":"st_cvj6sg6p6f1abm77japg","pricing_plan_id":"cebpf4jnsgd1na2vs0mg"},{"bike_id":"6b3293f2-e2fc-4f63-87d0-720eb9a8aefd","system_id":"levelo_inurba_marseille","lat":43.292967,"lon":5.374723,"is_reserved":false,"is_disabled":false,"rental_uris":{"android":"levelo://app?vid=6b3293f2-e2fc-4f63-87d0-720eb9a8aefd","ios":"levelo://app?vid=6b3293f2-e2fc-4f63-87d0-720eb9a8aefd"},"vehicle_type_id":"4","last_reported":1752444618,"current_range_meters":12000,"station_id":"ce4bh512rcd13ifvqe2g","pricing_plan_id":"cebpf4jnsgd1na2vs0mg"},{"bike_id":"986afcbb-ade7-4e12-b353-beab1ebb75db","system_id":"levelo_inurba_marseille","lat":43.29268,"lon":5.38457,"is_reserved":false,"is_disabled":false,"rental_uris":{"android":"levelo://app?vid=986afcbb-ade7-4e12-b353-beab1ebb75db","ios":"levelo://app?vid=986afcbb-ade7-4e12-b353-beab1ebb75db"},"vehicle_type_id":"4","last_reported":1752444618,"current_range_meters":12000,"station_id":"ce4bh692rcd13ifvqea0","pricing_plan_id":"cebpf4jnsgd1na2vs0mg"},{"bike_id":"c6831e47-16b3-420c-b036-b32c6f9f7658","system_id":"levelo_inurba_marseille","lat":43.24162,"lon":5.39403,"is_reserved":false,"is_disabled":false,"rental_uris":{"android":"levelo://app?vid=c6831e47-16b3-420c-b036-b32c6f9f7658","ios":"levelo://app?vid=c6831e47-16b3-420c-b036-b32c6f9f7658"},"vehicle_type_id":"4","last_reported":1752444618,"current_range_meters":12000,"station_id":"","pricing_plan_id":"cebpf4jnsgd1na2vs0mg"},{"bike_id":"f3986f93-b660-4624-a3e4-8123f8638454","system_id":"levelo_inurba_marseille","lat":43.30514,"lon":5.36749,"is_reserved":false,"is_disabled":false,"rental_uris":{"android":"levelo://app?vid=f3986f93-b660-4624-a3e4-8123f8638454","ios":"levelo://app?vid=f3986f93-b660-4624-a3e4-8123f8638454"},"vehicle_type_id":"4","last_reported":1752444618,"current_range_meters":12000,"station_id":"ce4bgrp2rcd13ifvqc9g","pricing_plan_id":"cebpf4jnsgd1na2vs0mg"},{"bike_id":"e2ce6e8a-ef9f-4211-8776-042780e4931d","system_id":"levelo_inurba_marseille","lat":43.28429,"lon":5.34994,"is_reserved":false,"is_disabled":true,"rental_uris":{"android":"levelo://app?vid=e2ce6e8a-ef9f-4211-8776-042780e4931d","ios":"levelo://app?vid=e2ce6e8a-ef9f-4211-8776-042780e4931d"},"vehicle_type_id":"4","last_reported":1752444618,"current_range_meters":12000,"station_id":"ce4bhbh2rcd13ifvqepg","pricing_plan_id":"cebpf4jnsgd1na2vs0mg"},{"bike_id":"e903d47d-0c24-4867-95a1-d876a093ef49","system_id":"levelo_inurba_marseille","lat":43.29056,"lon":5.35924,"is_reserved":false,"is_disabled":false,"rental_uris":{"android":"levelo://app?vid=e903d47d-0c24-4867-95a1-d876a093ef49","ios":"levelo://app?vid=e903d47d-0c24-4867-95a1-d876a093ef49"},"vehicle_type_id":"4","last_reported":1752444618,"current_range_meters":11600,"station_id":"ce4bha92rcd13ifvqeg0","pricing_plan_id":"cebpf4jnsgd1na2vs0mg"},{"bike_id":"eebfaf48-5522-46cb-bde7-1b4dd4068573","system_id":"levelo_inurba_marseille","lat":43.29784,"lon":5.3934,"is_reserved":false,"is_disabled":false,"rental_uris":{"android":"levelo://app?vid=eebfaf48-5522-46cb-bde7-1b4dd4068573","ios":"levelo://app?vid=eebfaf48-5522-46cb-bde7-1b4dd4068573"},"vehicle_type_id":"4","last_reported":1752444618,"current_range_meters":12000,"station_id":"chh1huq6cuj3fo74tm60","pricing_plan_id":"cebpf4jnsgd1na2vs0mg"},{"bike_id":"e1bac56d-8d30-4436-a6e5-e51a97265e69","system_id":"levelo_inurba_marseille","lat":43.27214,"lon":5.39183,"is_reserved":false,"is_disabled":false,"rental_uris":{"android":"levelo://app?vid=e1bac56d-8d30-4436-a6e5-e51a97265e69","ios":"levelo://app?vid=e1bac56d-8d30-4436-a6e5-e51a97265e69"},"vehicle_type_id":"4","last_reported":1752444618,"current_range_meters":11600,"station_id":"ce4bhhp2rcd13ifvqfm0","pricing_plan_id":"cebpf4jnsgd1na2vs0mg"},{"bike_id":"90aa84a6-0427-4abb-8b3c-6c42a992ad92","system_id":"levelo_inurba_marseille","lat":43.264156,"lon":5.392292,"is_reserved":false,"is_disabled":false,"rental_uris":{"android":"levelo://app?vid=90aa84a6-0427-4abb-8b3c-6c42a992ad92","ios":"levelo://app?vid=90aa84a6-0427-4abb-8b3c-6c42a992ad92"},"vehicle_type_id":"4","last_reported":1752444618,"current_range_meters":12400,"station_id":"","pricing_plan_id":"cebpf4jnsgd1na2vs0mg"},{"bike_id":"601412b0-6528-47af-965e-1711a93589ae","system_id":"levelo_inurba_marseille","lat":43.29551,"lon":5.42276,"is_reserved":false,"is_disabled":false,"rental_uris":{"android":"levelo://app?vid=601412b0-6528-47af-965e-1711a93589ae","ios":"levelo://app?vid=601412b0-6528-47af-965e-1711a93589ae"},"vehicle_type_id":"4","last_reported":1752444618,"current_range_meters":12400,"station_id":"ce4bhph2rcd13ifvqhdg","pricing_plan_id":"cebpf4jnsgd1na2vs0mg"},{"bike_id":"755f5a2b-ffe3-41e3-b53b-f76d7bf8470a","system_id":"levelo_inurba_marseille","lat":43.27939,"lon":5.4104,"is_reserved":false,"is_disabled":false,"rental_uris":{"android":"levelo://app?vid=755f5a2b-ffe3-41e3-b53b-f76d7bf8470a","ios":"levelo://app?vid=755f5a2b-ffe3-41e3-b53b-f76d7bf8470a"},"vehicle_type_id":"4","last_reported":1752444618,"current_range_meters":12400,"station_id":"ce4bhnp2rcd13ifvqh0g","pricing_plan_id":"cebpf4jnsgd1na2vs0mg"},{"bike_id":"1366d683-1ebd-44a1-9e66-5d68d4b85ee8","system_id":"levelo_inurba_marseille","lat":43.25699,"lon":5.41122,"is_reserved":false,"is_disabled":false,"rental_uris":{"android":"levelo://app?vid=1366d683-1ebd-44a1-9e66-5d68d4b85ee8","ios":"levelo://app?vid=1366d683-1ebd-44a1-9e66-5d68d4b85ee8"},"vehicle_type_id":"4","last_reported":1752444618,"current_range_meters":12400,"station_id":"ce4bhkp2rcd13ifvqgd0","pricing_plan_id":"cebpf4jnsgd1na2vs0mg"},{"bike_id":"08d804b1-df6f-4e13-8de0-b91da5966c34","system_id":"levelo_inurba_marseille","lat":43.32342,"lon":5.40618,"is_reserved":false,"is_disabled":false,"rental_uris":{"android":"levelo://app?vid=08d804b1-df6f-4e13-8de0-b91da5966c34","ios":"levelo://app?vid=08d804b1-df6f-4e13-8de0-b91da5966c34"},"vehicle_type_id":"4","last_reported":1752444618,"current_range_meters":12400,"station_id":"ce4bhq92rcd13ifvqhjg","pricing_plan_id":"cebpf4jnsgd1na2vs0mg"},{"bike_id":"a44f68aa-b920-4eb6-845e-df1183944a6b","system_id":"levelo_inurba_marseille","lat":43.28564,"lon":5.35065,"is_reserved":false,"is_disabled":true,"rental_uris":{"android":"levelo://app?vid=a44f68aa-b920-4eb6-845e-df1183944a6b","ios":"levelo://app?vid=a44f68aa-b920-4eb6-845e-df1183944a6b"},"vehicle_type_id":"4","last_reported":1752444618,"current_range_meters":12400,"station_id":"","pricing_plan_id":"cebpf4jnsgd1na2vs0mg"},{"bike_id":"7048b274-bb73-4f78-bd84-2dffe4927289","system_id":"levelo_inurba_marseille","lat":43.29783,"lon":5.39376,"is_reserved":false,"is_disabled":true,"rental_uris":{"android":"levelo://app?vid=7048b274-bb73-4f78-bd84-2dffe4927289","ios":"levelo://app?vid=7048b274-bb73-4f78-bd84-2dffe4927289"},"vehicle_type_id":"4","last_reported":1752444618,"current_range_meters":12400,"station_id":"chh1huq6cuj3fo74tm60","pricing_plan_id":"cebpf4jnsgd1na2vs0mg"},{"bike_id":"70f0a553-21ba-4d8a-a955-57fe361f131f","system_id":"levelo_inurba_marseille","lat":43.31272,"lon":5.40182,"is_reserved":false,"is_disabled":false,"rental_uris":{"android":"levelo://app?vid=70f0a553-21ba-4d8a-a955-57fe361f131f","ios":"levelo://app?vid=70f0a553-21ba-4d8a-a955-57fe361f131f"},"vehicle_type_id":"4","last_reported":1752444618,"current_range_meters":12400,"station_id":"ce4bh092rcd13ifvqd30","pricing_plan_id":"cebpf4jnsgd1na2vs0mg"},{"bike_id":"62fac614-47b6-4ccf-9920-6cea6ff3d419","system_id":"levelo_inurba_marseille","lat":43.230594,"lon":5.35491,"is_reserved":false,"is_disabled":true,"rental_uris":{"android":"levelo://app?vid=62fac614-47b6-4ccf-9920-6cea6ff3d419","ios":"levelo://app?vid=62fac614-47b6-4ccf-9920-6cea6ff3d419"},"vehicle_type_id":"4","last_reported":1752444618,"current_range_meters":12400,"station_id":"cpo3532slgdg3j2ikp40","pricing_plan_id":"cebpf4jnsgd1na2vs0mg"},{"bike_id":"bd6600f4-1058-4041-b41e-b1fea56f6cb4","system_id":"levelo_inurba_marseille","lat":43.28397,"lon":5.37519,"is_reserved":false,"is_disabled":false,"rental_uris":{"android":"levelo://app?vid=bd6600f4-1058-4041-b41e-b1fea56f6cb4","ios":"levelo://app?vid=bd6600f4-1058-4041-b41e-b1fea56f6cb4"},"vehicle_type_id":"4","last_reported":1752444618,"current_range_meters":12400,"station_id":"ce4bh412rcd13ifvqds0","pricing_plan_id":"cebpf4jnsgd1na2vs0mg"},{"bike_id":"b05aa32e-7099-49f9-ac6e-e5ce1f60d62e","system_id":"levelo_inurba_marseille","lat":43.29522,"lon":5.38544,"is_reserved":false,"is_disabled":false,"rental_uris":{"android":"levelo://app?vid=b05aa32e-7099-49f9-ac6e-e5ce1f60d62e","ios":"levelo://app?vid=b05aa32e-7099-49f9-ac6e-e5ce1f60d62e"},"vehicle_type_id":"4","last_reported":1752444618,"current_range_meters":12800,"station_id":"ce4bgih2rcd13ifvqba0","pricing_plan_id":"cebpf4jnsgd1na2vs0mg"},{"bike_id":"b43b2136-b460-4889-aedd-7488171725a4","system_id":"levelo_inurba_marseille","lat":43.29538,"lon":5.38544,"is_reserved":false,"is_disabled":false,"rental_uris":{"android":"levelo://app?vid=b43b2136-b460-4889-aedd-7488171725a4","ios":"levelo://app?vid=b43b2136-b460-4889-aedd-7488171725a4"},"vehicle_type_id":"4","last_reported":1752444618,"current_range_meters":12800,"station_id":"ce4bgih2rcd13ifvqba0","pricing_plan_id":"cebpf4jnsgd1na2vs0mg"},{"bike_id":"116ab867-6d4c-4afd-97f7-a02b1218134c","system_id":"levelo_inurba_marseille","lat":43.29414,"lon":5.38629,"is_reserved":false,"is_disabled":false,"rental_uris":{"android":"levelo://app?vid=116ab867-6d4c-4afd-97f7-a02b1218134c","ios":"levelo://app?vid=116ab867-6d4c-4afd-97f7-a02b1218134c"},"vehicle_type_id":"4","last_reported":1752444618,"current_range_meters":12800,"station_id":"ce4bh2h2rcd13ifvqdh0","pricing_plan_id":"cebpf4jnsgd1na2vs0mg"},{"bike_id":"947f6994-5216-4191-afd1-9c7412197203","system_id":"levelo_inurba_marseille","lat":43.28401,"lon":5.37523,"is_reserved":false,"is_disabled":false,"rental_uris":{"android":"levelo://app?vid=947f6994-5216-4191-afd1-9c7412197203","ios":"levelo://app?vid=947f6994-5216-4191-afd1-9c7412197203"},"vehicle_type_id":"4","last_reported":1752444618,"current_range_meters":12800,"station_id":"ce4bh412rcd13ifvqds0","pricing_plan_id":"cebpf4jnsgd1na2vs0mg"},{"bike_id":"bcbf738f-1bc3-4516-85da-8f9c93fbde21","system_id":"levelo_inurba_marseille","lat":43.29596,"lon":5.38081,"is_reserved":false,"is_disabled":false,"rental_uris":{"android":"levelo://app?vid=bcbf738f-1bc3-4516-85da-8f9c93fbde21","ios":"levelo://app?vid=bcbf738f-1bc3-4516-85da-8f9c93fbde21"},"vehicle_type_id":"4","last_reported":1752444618,"current_range_meters":12800,"station_id":"ce4bgl12rcd13ifvqbo0","pricing_plan_id":"cebpf4jnsgd1na2vs0mg"},{"bike_id":"4e668ccc-52b2-4670-93cb-9c8695885132","system_id":"levelo_inurba_marseille","lat":43.32365,"lon":5.38888,"is_reserved":false,"is_disabled":false,"rental_uris":{"android":"levelo://app?vid=4e668ccc-52b2-4670-93cb-9c8695885132","ios":"levelo://app?vid=4e668ccc-52b2-4670-93cb-9c8695885132"},"vehicle_type_id":"4","last_reported":1752444618,"current_range_meters":12800,"station_id":"ce4bhqp2rcd13ifvqhog","pricing_plan_id":"cebpf4jnsgd1na2vs0mg"},{"bike_id":"1371ac69-4547-41ac-b87e-162e257832cb","system_id":"levelo_inurba_marseille","lat":43.30522,"lon":5.36717,"is_reserved":false,"is_disabled":false,"rental_uris":{"android":"levelo://app?vid=1371ac69-4547-41ac-b87e-162e257832cb","ios":"levelo://app?vid=1371ac69-4547-41ac-b87e-162e257832cb"},"vehicle_type_id":"4","last_reported":1752444618,"current_range_meters":12800,"station_id":"ce4bgrp2rcd13ifvqc9g","pricing_plan_id":"cebpf4jnsgd1na2vs0mg"},{"bike_id":"dea3164d-47be-461d-b7bf-c2d9faf5d041","system_id":"levelo_inurba_marseille","lat":43.301403,"lon":5.387814,"is_reserved":false,"is_disabled":false,"rental_uris":{"android":"levelo://app?vid=dea3164d-47be-461d-b7bf-c2d9faf5d041","ios":"levelo://app?vid=dea3164d-47be-461d-b7bf-c2d9faf5d041"},"vehicle_type_id":"4","last_reported":1752444618,"current_range_meters":12800,"station_id":"ce4bghh2rcd13ifvqb60","pricing_plan_id":"cebpf4jnsgd1na2vs0mg"},{"bike_id":"9a46b9ab-a60b-45fc-88a3-caad63ae5b94","system_id":"levelo_inurba_marseille","lat":43.337745,"lon":5.374764,"is_reserved":false,"is_disabled":true,"rental_uris":{"android":"levelo://app?vid=9a46b9ab-a60b-45fc-88a3-caad63ae5b94","ios":"levelo://app?vid=9a46b9ab-a60b-45fc-88a3-caad63ae5b94"},"vehicle_type_id":"4","last_reported":1752444618,"current_range_meters":13600,"station_id":"","pricing_plan_id":"cebpf4jnsgd1na2vs0mg"},{"bike_id":"5fe3ceee-686d-40ab-b007-7120b2e61bb9","system_id":"levelo_inurba_marseille","lat":43.29253,"lon":5.38451,"is_reserved":false,"is_disabled":false,"rental_uris":{"android":"levelo://app?vid=5fe3ceee-686d-40ab-b007-7120b2e61bb9","ios":"levelo://app?vid=5fe3ceee-686d-40ab-b007-7120b2e61bb9"},"vehicle_type_id":"4","last_reported":1752444618,"current_range_meters":13600,"station_id":"ce4bh692rcd13ifvqea0","pricing_plan_id":"cebpf4jnsgd1na2vs0mg"},{"bike_id":"322ca960-1198-4535-a3fb-6492b65e12b6","system_id":"levelo_inurba_marseille","lat":43.30094,"lon":5.39072,"is_reserved":false,"is_disabled":false,"rental_uris":{"android":"levelo://app?vid=322ca960-1198-4535-a3fb-6492b65e12b6","ios":"levelo://app?vid=322ca960-1198-4535-a3fb-6492b65e12b6"},"vehicle_type_id":"4","last_reported":1752444618,"current_range_meters":14000,"station_id":"ce4bh192rcd13ifvqdb0","pricing_plan_id":"cebpf4jnsgd1na2vs0mg"},{"bike_id":"4a363f4c-7fdb-40d4-a5e1-7ce76340cec0","system_id":"levelo_inurba_marseille","lat":43.29246,"lon":5.40914,"is_reserved":false,"is_disabled":false,"rental_uris":{"android":"levelo://app?vid=4a363f4c-7fdb-40d4-a5e1-7ce76340cec0","ios":"levelo://app?vid=4a363f4c-7fdb-40d4-a5e1-7ce76340cec0"},"vehicle_type_id":"4","last_reported":1752444618,"current_range_meters":14000,"station_id":"ce4bh192rcd13ifvqdc0","pricing_plan_id":"cebpf4jnsgd1na2vs0mg"},{"bike_id":"5a387878-cf33-4efb-8ce6-b36fc05b3fe9","system_id":"levelo_inurba_marseille","lat":43.23182,"lon":5.39989,"is_reserved":false,"is_disabled":false,"rental_uris":{"android":"levelo://app?vid=5a387878-cf33-4efb-8ce6-b36fc05b3fe9","ios":"levelo://app?vid=5a387878-cf33-4efb-8ce6-b36fc05b3fe9"},"vehicle_type_id":"4","last_reported":1752444618,"current_range_meters":14000,"station_id":"ce4bhn12rcd13ifvqgqg","pricing_plan_id":"cebpf4jnsgd1na2vs0mg"},{"bike_id":"1a469edf-5352-481f-91e3-cfaef6ee1547","system_id":"levelo_inurba_marseille","lat":43.21178,"lon":5.35067,"is_reserved":false,"is_disabled":false,"rental_uris":{"android":"levelo://app?vid=1a469edf-5352-481f-91e3-cfaef6ee1547","ios":"levelo://app?vid=1a469edf-5352-481f-91e3-cfaef6ee1547"},"vehicle_type_id":"4","last_reported":1752444618,"current_range_meters":14400,"station_id":"st_cvj6sg6p6f1abm77japg","pricing_plan_id":"cebpf4jnsgd1na2vs0mg"},{"bike_id":"2ee4bceb-5e6b-4926-882e-97629c7a5539","system_id":"levelo_inurba_marseille","lat":43.297813,"lon":5.381196,"is_reserved":false,"is_disabled":false,"rental_uris":{"android":"levelo://app?vid=2ee4bceb-5e6b-4926-882e-97629c7a5539","ios":"levelo://app?vid=2ee4bceb-5e6b-4926-882e-97629c7a5539"},"vehicle_type_id":"4","last_reported":1752444618,"current_range_meters":14400,"station_id":"ce4bgip2rcd13ifvqbb0","pricing_plan_id":"cebpf4jnsgd1na2vs0mg"},{"bike_id":"79ac9d5c-87ca-42a3-a25e-34606432c125","system_id":"levelo_inurba_marseille","lat":43.21186,"lon":5.35092,"is_reserved":false,"is_disabled":false,"rental_uris":{"android":"levelo://app?vid=79ac9d5c-87ca-42a3-a25e-34606432c125","ios":"levelo://app?vid=79ac9d5c-87ca-42a3-a25e-34606432c125"},"vehicle_type_id":"4","last_reported":1752444618,"current_range_meters":14400,"station_id":"st_cvj6sg6p6f1abm77japg","pricing_plan_id":"cebpf4jnsgd1na2vs0mg"},{"bike_id":"fd02a53e-53b0-490b-8b10-9816343291dc","system_id":"levelo_inurba_marseille","lat":43.26224,"lon":5.40451,"is_reserved":false,"is_disabled":false,"rental_uris":{"android":"levelo://app?vid=fd02a53e-53b0-490b-8b10-9816343291dc","ios":"levelo://app?vid=fd02a53e-53b0-490b-8b10-9816343291dc"},"vehicle_type_id":"4","last_reported":1752444618,"current_range_meters":14400,"station_id":"ce4bhmh2rcd13ifvqgmg","pricing_plan_id":"cebpf4jnsgd1na2vs0mg"},{"bike_id":"bfa12c31-1a7d-4ff9-9e9a-e56395392d12","system_id":"levelo_inurba_marseille","lat":43.23199,"lon":5.35569,"is_reserved":false,"is_disabled":true,"rental_uris":{"android":"levelo://app?vid=bfa12c31-1a7d-4ff9-9e9a-e56395392d12","ios":"levelo://app?vid=bfa12c31-1a7d-4ff9-9e9a-e56395392d12"},"vehicle_type_id":"4","last_reported":1752444618,"current_range_meters":14400,"station_id":"ce4bhu92rcd13ifvqi70","pricing_plan_id":"cebpf4jnsgd1na2vs0mg"},{"bike_id":"4c7b8b0f-88b0-4aff-9ba3-6dc72c40a219","system_id":"levelo_inurba_marseille","lat":43.256738,"lon":5.410729,"is_reserved":false,"is_disabled":false,"rental_uris":{"android":"levelo://app?vid=4c7b8b0f-88b0-4aff-9ba3-6dc72c40a219","ios":"levelo://app?vid=4c7b8b0f-88b0-4aff-9ba3-6dc72c40a219"},"vehicle_type_id":"4","last_reported":1752444618,"current_range_meters":14800,"station_id":"ce4bhch2rcd13ifvqeug","pricing_plan_id":"cebpf4jnsgd1na2vs0mg"},{"bike_id":"f7f3f179-db57-479b-84b0-b81ef8fb39c4","system_id":"levelo_inurba_marseille","lat":43.29531,"lon":5.38535,"is_reserved":false,"is_disabled":false,"rental_uris":{"android":"levelo://app?vid=f7f3f179-db57-479b-84b0-b81ef8fb39c4","ios":"levelo://app?vid=f7f3f179-db57-479b-84b0-b81ef8fb39c4"},"vehicle_type_id":"4","last_reported":1752444618,"current_range_meters":14800,"station_id":"ce4bgih2rcd13ifvqba0","pricing_plan_id":"cebpf4jnsgd1na2vs0mg"},{"bike_id":"58375fde-ca97-4dab-be52-59caf98323d3","system_id":"levelo_inurba_marseille","lat":43.26546,"lon":5.37304,"is_reserved":false,"is_disabled":true,"rental_uris":{"android":"levelo://app?vid=58375fde-ca97-4dab-be52-59caf98323d3","ios":"levelo://app?vid=58375fde-ca97-4dab-be52-59caf98323d3"},"vehicle_type_id":"4","last_reported":1752444618,"current_range_meters":14800,"station_id":"ce4bhg12rcd13ifvqf70","pricing_plan_id":"cebpf4jnsgd1na2vs0mg"},{"bike_id":"034241eb-9676-4f31-b266-a4e40bfabb6d","system_id":"levelo_inurba_marseille","lat":43.30097,"lon":5.39074,"is_reserved":false,"is_disabled":false,"rental_uris":{"android":"levelo://app?vid=034241eb-9676-4f31-b266-a4e40bfabb6d","ios":"levelo://app?vid=034241eb-9676-4f31-b266-a4e40bfabb6d"},"vehicle_type_id":"4","last_reported":1752444618,"current_range_meters":14800,"station_id":"ce4bh192rcd13ifvqdb0","pricing_plan_id":"cebpf4jnsgd1na2vs0mg"},{"bike_id":"aa4a5cfc-64aa-4b42-8580-c550ae29b540","system_id":"levelo_inurba_marseille","lat":43.29605,"lon":5.38083,"is_reserved":false,"is_disabled":false,"rental_uris":{"android":"levelo://app?vid=aa4a5cfc-64aa-4b42-8580-c550ae29b540","ios":"levelo://app?vid=aa4a5cfc-64aa-4b42-8580-c550ae29b540"},"vehicle_type_id":"4","last_reported":1752444618,"current_range_meters":14800,"station_id":"ce4bgl12rcd13ifvqbo0","pricing_plan_id":"cebpf4jnsgd1na2vs0mg"},{"bike_id":"5d6a3c90-ebf3-4775-82aa-a4f1132751f8","system_id":"levelo_inurba_marseille","lat":43.30439,"lon":5.3887,"is_reserved":false,"is_disabled":false,"rental_uris":{"android":"levelo://app?vid=5d6a3c90-ebf3-4775-82aa-a4f1132751f8","ios":"levelo://app?vid=5d6a3c90-ebf3-4775-82aa-a4f1132751f8"},"vehicle_type_id":"4","last_reported":1752444618,"current_range_meters":14800,"station_id":"ce4bgk12rcd13ifvqbi0","pricing_plan_id":"cebpf4jnsgd1na2vs0mg"},{"bike_id":"1700fcd6-30ad-4b74-a158-50e5dcb60b9b","system_id":"levelo_inurba_marseille","lat":43.289419,"lon":5.366367,"is_reserved":false,"is_disabled":true,"rental_uris":{"android":"levelo://app?vid=1700fcd6-30ad-4b74-a158-50e5dcb60b9b","ios":"levelo://app?vid=1700fcd6-30ad-4b74-a158-50e5dcb60b9b"},"vehicle_type_id":"4","last_reported":1752444618,"current_range_meters":14800,"station_id":"ce4bhap2rcd13ifvqek0","pricing_plan_id":"cebpf4jnsgd1na2vs0mg"},{"bike_id":"3fb04514-ae9e-4e32-9c2c-443c01388200","system_id":"levelo_inurba_marseille","lat":43.28408,"lon":5.37515,"is_reserved":false,"is_disabled":false,"rental_uris":{"android":"levelo://app?vid=3fb04514-ae9e-4e32-9c2c-443c01388200","ios":"levelo://app?vid=3fb04514-ae9e-4e32-9c2c-443c01388200"},"vehicle_type_id":"4","last_reported":1752444618,"current_range_meters":14800,"station_id":"ce4bh412rcd13ifvqds0","pricing_plan_id":"cebpf4jnsgd1na2vs0mg"},{"bike_id":"a18169ac-e65a-49b0-b67b-60034da00a8e","system_id":"levelo_inurba_marseille","lat":43.27807,"lon":5.40709,"is_reserved":false,"is_disabled":false,"rental_uris":{"android":"levelo://app?vid=a18169ac-e65a-49b0-b67b-60034da00a8e","ios":"levelo://app?vid=a18169ac-e65a-49b0-b67b-60034da00a8e"},"vehicle_type_id":"4","last_reported":1752444618,"current_range_meters":15200,"station_id":"ce4bhnh2rcd13ifvqgtg","pricing_plan_id":"cebpf4jnsgd1na2vs0mg"},{"bike_id":"d5441d88-c136-450c-9018-33609e69fdf3","system_id":"levelo_inurba_marseille","lat":43.30537,"lon":5.36708,"is_reserved":false,"is_disabled":false,"rental_uris":{"android":"levelo://app?vid=d5441d88-c136-450c-9018-33609e69fdf3","ios":"levelo://app?vid=d5441d88-c136-450c-9018-33609e69fdf3"},"vehicle_type_id":"4","last_reported":1752444618,"current_range_meters":14800,"station_id":"ce4bgrp2rcd13ifvqc9g","pricing_plan_id":"cebpf4jnsgd1na2vs0mg"},{"bike_id":"061408af-072c-45f1-ae7e-6fa1af4891f8","system_id":"levelo_inurba_marseille","lat":43.29266,"lon":5.38451,"is_reserved":false,"is_disabled":false,"rental_uris":{"android":"levelo://app?vid=061408af-072c-45f1-ae7e-6fa1af4891f8","ios":"levelo://app?vid=061408af-072c-45f1-ae7e-6fa1af4891f8"},"vehicle_type_id":"4","last_reported":1752444618,"current_range_meters":15200,"station_id":"ce4bh692rcd13ifvqea0","pricing_plan_id":"cebpf4jnsgd1na2vs0mg"},{"bike_id":"4cb26dbe-6d80-496b-98e8-35b251d4cd57","system_id":"levelo_inurba_marseille","lat":43.29542,"lon":5.39388,"is_reserved":false,"is_disabled":false,"rental_uris":{"android":"levelo://app?vid=4cb26dbe-6d80-496b-98e8-35b251d4cd57","ios":"levelo://app?vid=4cb26dbe-6d80-496b-98e8-35b251d4cd57"},"vehicle_type_id":"4","last_reported":1752444618,"current_range_meters":14800,"station_id":"ce4bh292rcd13ifvqdf0","pricing_plan_id":"cebpf4jnsgd1na2vs0mg"},{"bike_id":"53a7c5a0-bf42-4a71-a975-ed65973eff06","system_id":"levelo_inurba_marseille","lat":43.30227,"lon":5.40061,"is_reserved":false,"is_disabled":false,"rental_uris":{"android":"levelo://app?vid=53a7c5a0-bf42-4a71-a975-ed65973eff06","ios":"levelo://app?vid=53a7c5a0-bf42-4a71-a975-ed65973eff06"},"vehicle_type_id":"4","last_reported":1752444618,"current_range_meters":15200,"station_id":"","pricing_plan_id":"cebpf4jnsgd1na2vs0mg"},{"bike_id":"79724c7a-8951-4858-8e03-5dd8592df824","system_id":"levelo_inurba_marseille","lat":43.30306,"lon":5.36924,"is_reserved":false,"is_disabled":true,"rental_uris":{"android":"levelo://app?vid=79724c7a-8951-4858-8e03-5dd8592df824","ios":"levelo://app?vid=79724c7a-8951-4858-8e03-5dd8592df824"},"vehicle_type_id":"4","last_reported":1752444618,"current_range_meters":16000,"station_id":"ce4bgqh2rcd13ifvqc5g","pricing_plan_id":"cebpf4jnsgd1na2vs0mg"},{"bike_id":"7b60e2b3-fe60-4caf-8d3e-4c917054d448","system_id":"levelo_inurba_marseille","lat":43.284313,"lon":5.349507,"is_reserved":false,"is_disabled":true,"rental_uris":{"android":"levelo://app?vid=7b60e2b3-fe60-4caf-8d3e-4c917054d448","ios":"levelo://app?vid=7b60e2b3-fe60-4caf-8d3e-4c917054d448"},"vehicle_type_id":"4","last_reported":1752444618,"current_range_meters":16000,"station_id":"ce4bhbh2rcd13ifvqepg","pricing_plan_id":"cebpf4jnsgd1na2vs0mg"},{"bike_id":"28f6661f-fa05-4b8f-8f5e-cb4158aac2c7","system_id":"levelo_inurba_marseille","lat":43.29417,"lon":5.37835,"is_reserved":false,"is_disabled":true,"rental_uris":{"android":"levelo://app?vid=28f6661f-fa05-4b8f-8f5e-cb4158aac2c7","ios":"levelo://app?vid=28f6661f-fa05-4b8f-8f5e-cb4158aac2c7"},"vehicle_type_id":"4","last_reported":1752444618,"current_range_meters":16000,"station_id":"ce4bgjh2rcd13ifvqbf0","pricing_plan_id":"cebpf4jnsgd1na2vs0mg"},{"bike_id":"31c710b8-59c4-4592-9629-b8ad795fae60","system_id":"levelo_inurba_marseille","lat":43.302475,"lon":5.400695,"is_reserved":false,"is_disabled":true,"rental_uris":{"android":"levelo://app?vid=31c710b8-59c4-4592-9629-b8ad795fae60","ios":"levelo://app?vid=31c710b8-59c4-4592-9629-b8ad795fae60"},"vehicle_type_id":"4","last_reported":1752444618,"current_range_meters":16000,"station_id":"ce4bgvh2rcd13ifvqcs0","pricing_plan_id":"cebpf4jnsgd1na2vs0mg"},{"bike_id":"b053f929-7efb-49cd-9959-74ef096980bb","system_id":"levelo_inurba_marseille","lat":43.33771,"lon":5.37447,"is_reserved":false,"is_disabled":true,"rental_uris":{"android":"levelo://app?vid=b053f929-7efb-49cd-9959-74ef096980bb","ios":"levelo://app?vid=b053f929-7efb-49cd-9959-74ef096980bb"},"vehicle_type_id":"4","last_reported":1752444618,"current_range_meters":16000,"station_id":"","pricing_plan_id":"cebpf4jnsgd1na2vs0mg"},{"bike_id":"5af5aa39-7620-442d-b98c-160e57f94184","system_id":"levelo_inurba_marseille","lat":43.29933,"lon":5.36528,"is_reserved":false,"is_disabled":false,"rental_uris":{"android":"levelo://app?vid=5af5aa39-7620-442d-b98c-160e57f94184","ios":"levelo://app?vid=5af5aa39-7620-442d-b98c-160e57f94184"},"vehicle_type_id":"4","last_reported":1752444618,"current_range_meters":16000,"station_id":"ce4bgm92rcd13ifvqbr0","pricing_plan_id":"cebpf4jnsgd1na2vs0mg"},{"bike_id":"0075684b-a504-453b-9132-a72c307964f4","system_id":"levelo_inurba_marseille","lat":43.29466,"lon":5.38622,"is_reserved":false,"is_disabled":false,"rental_uris":{"android":"levelo://app?vid=0075684b-a504-453b-9132-a72c307964f4","ios":"levelo://app?vid=0075684b-a504-453b-9132-a72c307964f4"},"vehicle_type_id":"4","last_reported":1752444618,"current_range_meters":16000,"station_id":"","pricing_plan_id":"cebpf4jnsgd1na2vs0mg"},{"bike_id":"0412e698-2c90-421f-91ef-12a3630eb8f1","system_id":"levelo_inurba_marseille","lat":43.25582,"lon":5.38233,"is_reserved":false,"is_disabled":false,"rental_uris":{"android":"levelo://app?vid=0412e698-2c90-421f-91ef-12a3630eb8f1","ios":"levelo://app?vid=0412e698-2c90-421f-91ef-12a3630eb8f1"},"vehicle_type_id":"4","last_reported":1752444618,"current_range_meters":16000,"station_id":"ce4bhih2rcd13ifvqfs0","pricing_plan_id":"cebpf4jnsgd1na2vs0mg"},{"bike_id":"d2502190-b2df-46cb-b065-d7de42450b14","system_id":"levelo_inurba_marseille","lat":43.30353,"lon":5.38595,"is_reserved":false,"is_disabled":false,"rental_uris":{"android":"levelo://app?vid=d2502190-b2df-46cb-b065-d7de42450b14","ios":"levelo://app?vid=d2502190-b2df-46cb-b065-d7de42450b14"},"vehicle_type_id":"4","last_reported":1752444618,"current_range_meters":16000,"station_id":"","pricing_plan_id":"cebpf4jnsgd1na2vs0mg"},{"bike_id":"8025cacd-e463-4562-af95-2b73c4c5be7e","system_id":"levelo_inurba_marseille","lat":43.30095,"lon":5.39066,"is_reserved":false,"is_disabled":false,"rental_uris":{"android":"levelo://app?vid=8025cacd-e463-4562-af95-2b73c4c5be7e","ios":"levelo://app?vid=8025cacd-e463-4562-af95-2b73c4c5be7e"},"vehicle_type_id":"4","last_reported":1752444618,"current_range_meters":16000,"station_id":"ce4bh192rcd13ifvqdb0","pricing_plan_id":"cebpf4jnsgd1na2vs0mg"},{"bike_id":"95263674-6383-4f36-b819-d255b1977ec6","system_id":"levelo_inurba_marseille","lat":43.2319,"lon":5.35551,"is_reserved":false,"is_disabled":false,"rental_uris":{"android":"levelo://app?vid=95263674-6383-4f36-b819-d255b1977ec6","ios":"levelo://app?vid=95263674-6383-4f36-b819-d255b1977ec6"},"vehicle_type_id":"4","last_reported":1752444618,"current_range_meters":16000,"station_id":"ce4bhu92rcd13ifvqi70","pricing_plan_id":"cebpf4jnsgd1na2vs0mg"},{"bike_id":"ce239e25-b977-4937-96c3-d705541602d1","system_id":"levelo_inurba_marseille","lat":43.29579,"lon":5.39955,"is_reserved":false,"is_disabled":false,"rental_uris":{"android":"levelo://app?vid=ce239e25-b977-4937-96c3-d705541602d1","ios":"levelo://app?vid=ce239e25-b977-4937-96c3-d705541602d1"},"vehicle_type_id":"4","last_reported":1752444618,"current_range_meters":16400,"station_id":"ce4bh312rcd13ifvqdj0","pricing_plan_id":"cebpf4jnsgd1na2vs0mg"},{"bike_id":"2ec427da-b403-4a7e-86be-3f48ba535d18","system_id":"levelo_inurba_marseille","lat":43.212017,"lon":5.350753,"is_reserved":false,"is_disabled":false,"rental_uris":{"android":"levelo://app?vid=2ec427da-b403-4a7e-86be-3f48ba535d18","ios":"levelo://app?vid=2ec427da-b403-4a7e-86be-3f48ba535d18"},"vehicle_type_id":"4","last_reported":1752444618,"current_range_meters":16400,"station_id":"st_cvj6sg6p6f1abm77japg","pricing_plan_id":"cebpf4jnsgd1na2vs0mg"},{"bike_id":"caf871db-67b1-46df-ae74-ea04e84dd4ac","system_id":"levelo_inurba_marseille","lat":43.297072,"lon":5.366059,"is_reserved":false,"is_disabled":false,"rental_uris":{"android":"levelo://app?vid=caf871db-67b1-46df-ae74-ea04e84dd4ac","ios":"levelo://app?vid=caf871db-67b1-46df-ae74-ea04e84dd4ac"},"vehicle_type_id":"4","last_reported":1752444618,"current_range_meters":16400,"station_id":"ce4bhf92rcd13ifvqf40","pricing_plan_id":"cebpf4jnsgd1na2vs0mg"},{"bike_id":"350baf57-19b6-4304-9c57-75c381c047e9","system_id":"levelo_inurba_marseille","lat":43.30307,"lon":5.36913,"is_reserved":false,"is_disabled":false,"rental_uris":{"android":"levelo://app?vid=350baf57-19b6-4304-9c57-75c381c047e9","ios":"levelo://app?vid=350baf57-19b6-4304-9c57-75c381c047e9"},"vehicle_type_id":"4","last_reported":1752444618,"current_range_meters":16400,"station_id":"ce4bgqh2rcd13ifvqc5g","pricing_plan_id":"cebpf4jnsgd1na2vs0mg"},{"bike_id":"91e36618-f857-45af-ac89-91d909da2db3","system_id":"levelo_inurba_marseille","lat":43.29425,"lon":5.3861,"is_reserved":false,"is_disabled":true,"rental_uris":{"android":"levelo://app?vid=91e36618-f857-45af-ac89-91d909da2db3","ios":"levelo://app?vid=91e36618-f857-45af-ac89-91d909da2db3"},"vehicle_type_id":"4","last_reported":1752444618,"current_range_meters":16400,"station_id":"ce4bh2h2rcd13ifvqdh0","pricing_plan_id":"cebpf4jnsgd1na2vs0mg"},{"bike_id":"f5a47db5-6fb2-46bd-a2de-efa4ad13bf60","system_id":"levelo_inurba_marseille","lat":43.21186,"lon":5.35082,"is_reserved":false,"is_disabled":false,"rental_uris":{"android":"levelo://app?vid=f5a47db5-6fb2-46bd-a2de-efa4ad13bf60","ios":"levelo://app?vid=f5a47db5-6fb2-46bd-a2de-efa4ad13bf60"},"vehicle_type_id":"4","last_reported":1752444618,"current_range_meters":16400,"station_id":"st_cvj6sg6p6f1abm77japg","pricing_plan_id":"cebpf4jnsgd1na2vs0mg"},{"bike_id":"7269d02a-d339-42f2-9268-579d2d090d90","system_id":"levelo_inurba_marseille","lat":43.2813,"lon":5.43873,"is_reserved":false,"is_disabled":false,"rental_uris":{"android":"levelo://app?vid=7269d02a-d339-42f2-9268-579d2d090d90","ios":"levelo://app?vid=7269d02a-d339-42f2-9268-579d2d090d90"},"vehicle_type_id":"4","last_reported":1752444618,"current_range_meters":16400,"station_id":"","pricing_plan_id":"cebpf4jnsgd1na2vs0mg"},{"bike_id":"268930da-9d37-4914-b585-89fdd7d69257","system_id":"levelo_inurba_marseille","lat":43.30554,"lon":5.3841,"is_reserved":false,"is_disabled":false,"rental_uris":{"android":"levelo://app?vid=268930da-9d37-4914-b585-89fdd7d69257","ios":"levelo://app?vid=268930da-9d37-4914-b585-89fdd7d69257"},"vehicle_type_id":"4","last_reported":1752444618,"current_range_meters":16400,"station_id":"ce4bgg92rcd13ifvqb30","pricing_plan_id":"cebpf4jnsgd1na2vs0mg"},{"bike_id":"e91ced2f-2041-4b38-8446-0d5d97adec95","system_id":"levelo_inurba_marseille","lat":43.2557,"lon":5.38263,"is_reserved":false,"is_disabled":true,"rental_uris":{"android":"levelo://app?vid=e91ced2f-2041-4b38-8446-0d5d97adec95","ios":"levelo://app?vid=e91ced2f-2041-4b38-8446-0d5d97adec95"},"vehicle_type_id":"4","last_reported":1752444618,"current_range_meters":16400,"station_id":"ce4bhih2rcd13ifvqfs0","pricing_plan_id":"cebpf4jnsgd1na2vs0mg"},{"bike_id":"1aedaa42-1f03-48cc-8e38-d983e72f730b","system_id":"levelo_inurba_marseille","lat":43.27095,"lon":5.42272,"is_reserved":false,"is_disabled":false,"rental_uris":{"android":"levelo://app?vid=1aedaa42-1f03-48cc-8e38-d983e72f730b","ios":"levelo://app?vid=1aedaa42-1f03-48cc-8e38-d983e72f730b"},"vehicle_type_id":"4","last_reported":1752444618,"current_range_meters":16400,"station_id":"ce4bhk92rcd13ifvqgb0","pricing_plan_id":"cebpf4jnsgd1na2vs0mg"},{"bike_id":"822fcf79-ea0c-4e5e-a5c4-014b3c33bd74","system_id":"levelo_inurba_marseille","lat":43.29521,"lon":5.38519,"is_reserved":false,"is_disabled":false,"rental_uris":{"android":"levelo://app?vid=822fcf79-ea0c-4e5e-a5c4-014b3c33bd74","ios":"levelo://app?vid=822fcf79-ea0c-4e5e-a5c4-014b3c33bd74"},"vehicle_type_id":"4","last_reported":1752444618,"current_range_meters":16400,"station_id":"ce4bgih2rcd13ifvqba0","pricing_plan_id":"cebpf4jnsgd1na2vs0mg"},{"bike_id":"6e4696eb-2f08-479d-86c9-95b434deaa02","system_id":"levelo_inurba_marseille","lat":43.32002,"lon":5.38132,"is_reserved":false,"is_disabled":true,"rental_uris":{"android":"levelo://app?vid=6e4696eb-2f08-479d-86c9-95b434deaa02","ios":"levelo://app?vid=6e4696eb-2f08-479d-86c9-95b434deaa02"},"vehicle_type_id":"4","last_reported":1752444618,"current_range_meters":16400,"station_id":"ce4bhr12rcd13ifvqhpg","pricing_plan_id":"cebpf4jnsgd1na2vs0mg"},{"bike_id":"40392a3b-1d10-4dd5-b1d6-6477ad9a4c60","system_id":"levelo_inurba_marseille","lat":43.29076,"lon":5.38203,"is_reserved":false,"is_disabled":false,"rental_uris":{"android":"levelo://app?vid=40392a3b-1d10-4dd5-b1d6-6477ad9a4c60","ios":"levelo://app?vid=40392a3b-1d10-4dd5-b1d6-6477ad9a4c60"},"vehicle_type_id":"4","last_reported":1752444618,"current_range_meters":16400,"station_id":"","pricing_plan_id":"cebpf4jnsgd1na2vs0mg"},{"bike_id":"c8c4de1a-846f-4f5b-aace-9fb14bf7ad52","system_id":"levelo_inurba_marseille","lat":43.2119,"lon":5.35081,"is_reserved":false,"is_disabled":false,"rental_uris":{"android":"levelo://app?vid=c8c4de1a-846f-4f5b-aace-9fb14bf7ad52","ios":"levelo://app?vid=c8c4de1a-846f-4f5b-aace-9fb14bf7ad52"},"vehicle_type_id":"4","last_reported":1752444618,"current_range_meters":16400,"station_id":"st_cvj6sg6p6f1abm77japg","pricing_plan_id":"cebpf4jnsgd1na2vs0mg"},{"bike_id":"c43a93c9-d183-455f-9d49-d17d97a22e05","system_id":"levelo_inurba_marseille","lat":43.25499,"lon":5.37651,"is_reserved":false,"is_disabled":false,"rental_uris":{"android":"levelo://app?vid=c43a93c9-d183-455f-9d49-d17d97a22e05","ios":"levelo://app?vid=c43a93c9-d183-455f-9d49-d17d97a22e05"},"vehicle_type_id":"4","last_reported":1752444618,"current_range_meters":16400,"station_id":"ce4bhh12rcd13ifvqff0","pricing_plan_id":"cebpf4jnsgd1na2vs0mg"},{"bike_id":"a6316907-5b67-4a63-beb2-7cb17fb7e147","system_id":"levelo_inurba_marseille","lat":43.30797,"lon":5.37646,"is_reserved":false,"is_disabled":false,"rental_uris":{"android":"levelo://app?vid=a6316907-5b67-4a63-beb2-7cb17fb7e147","ios":"levelo://app?vid=a6316907-5b67-4a63-beb2-7cb17fb7e147"},"vehicle_type_id":"4","last_reported":1752444618,"current_range_meters":16400,"station_id":"ce4bgv92rcd13ifvqcq0","pricing_plan_id":"cebpf4jnsgd1na2vs0mg"},{"bike_id":"80c89492-ae6c-4ac6-bff6-b334be9db8d7","system_id":"levelo_inurba_marseille","lat":43.29715,"lon":5.36628,"is_reserved":false,"is_disabled":false,"rental_uris":{"android":"levelo://app?vid=80c89492-ae6c-4ac6-bff6-b334be9db8d7","ios":"levelo://app?vid=80c89492-ae6c-4ac6-bff6-b334be9db8d7"},"vehicle_type_id":"4","last_reported":1752444618,"current_range_meters":16800,"station_id":"ce4bgn12rcd13ifvqbt0","pricing_plan_id":"cebpf4jnsgd1na2vs0mg"},{"bike_id":"45583b9b-98ff-4d18-a778-0d792c89bae3","system_id":"levelo_inurba_marseille","lat":43.28547,"lon":5.39502,"is_reserved":false,"is_disabled":true,"rental_uris":{"android":"levelo://app?vid=45583b9b-98ff-4d18-a778-0d792c89bae3","ios":"levelo://app?vid=45583b9b-98ff-4d18-a778-0d792c89bae3"},"vehicle_type_id":"4","last_reported":1752444618,"current_range_meters":16800,"station_id":"ce4bh292rcd13ifvqdg0","pricing_plan_id":"cebpf4jnsgd1na2vs0mg"},{"bike_id":"b1f565f2-83c4-4631-9b4d-1d683a0261ef","system_id":"levelo_inurba_marseille","lat":43.21189,"lon":5.35082,"is_reserved":false,"is_disabled":false,"rental_uris":{"android":"levelo://app?vid=b1f565f2-83c4-4631-9b4d-1d683a0261ef","ios":"levelo://app?vid=b1f565f2-83c4-4631-9b4d-1d683a0261ef"},"vehicle_type_id":"4","last_reported":1752444618,"current_range_meters":16800,"station_id":"st_cvj6sg6p6f1abm77japg","pricing_plan_id":"cebpf4jnsgd1na2vs0mg"},{"bike_id":"fa0b5054-aa24-4ac5-ad2b-667dd260d073","system_id":"levelo_inurba_marseille","lat":43.29543,"lon":5.38528,"is_reserved":false,"is_disabled":false,"rental_uris":{"android":"levelo://app?vid=fa0b5054-aa24-4ac5-ad2b-667dd260d073","ios":"levelo://app?vid=fa0b5054-aa24-4ac5-ad2b-667dd260d073"},"vehicle_type_id":"4","last_reported":1752444618,"current_range_meters":16800,"station_id":"ce4bgih2rcd13ifvqba0","pricing_plan_id":"cebpf4jnsgd1na2vs0mg"},{"bike_id":"e83439d2-4642-48a2-8689-7a894582417f","system_id":"levelo_inurba_marseille","lat":43.21179,"lon":5.35097,"is_reserved":false,"is_disabled":false,"rental_uris":{"android":"levelo://app?vid=e83439d2-4642-48a2-8689-7a894582417f","ios":"levelo://app?vid=e83439d2-4642-48a2-8689-7a894582417f"},"vehicle_type_id":"4","last_reported":1752444618,"current_range_meters":16800,"station_id":"st_cvj6sg6p6f1abm77japg","pricing_plan_id":"cebpf4jnsgd1na2vs0mg"},{"bike_id":"8a01e88a-8371-4085-9838-47ae11897cd3","system_id":"levelo_inurba_marseille","lat":43.28143,"lon":5.42649,"is_reserved":false,"is_disabled":true,"rental_uris":{"android":"levelo://app?vid=8a01e88a-8371-4085-9838-47ae11897cd3","ios":"levelo://app?vid=8a01e88a-8371-4085-9838-47ae11897cd3"},"vehicle_type_id":"4","last_reported":1752444618,"current_range_meters":17200,"station_id":"ce4bhnh2rcd13ifvqgug","pricing_plan_id":"cebpf4jnsgd1na2vs0mg"},{"bike_id":"146f14b9-7082-4175-86da-dd65fe0f0448","system_id":"levelo_inurba_marseille","lat":43.28349,"lon":5.38646,"is_reserved":false,"is_disabled":false,"rental_uris":{"android":"levelo://app?vid=146f14b9-7082-4175-86da-dd65fe0f0448","ios":"levelo://app?vid=146f14b9-7082-4175-86da-dd65fe0f0448"},"vehicle_type_id":"4","last_reported":1752444618,"current_range_meters":16800,"station_id":"ce4bh492rcd13ifvqdvg","pricing_plan_id":"cebpf4jnsgd1na2vs0mg"},{"bike_id":"887940fc-83e5-4b3c-96ed-d15319ee164c","system_id":"levelo_inurba_marseille","lat":43.27672,"lon":5.38876,"is_reserved":false,"is_disabled":false,"rental_uris":{"android":"levelo://app?vid=887940fc-83e5-4b3c-96ed-d15319ee164c","ios":"levelo://app?vid=887940fc-83e5-4b3c-96ed-d15319ee164c"},"vehicle_type_id":"4","last_reported":1752444618,"current_range_meters":16400,"station_id":"ce4bhi12rcd13ifvqfo0","pricing_plan_id":"cebpf4jnsgd1na2vs0mg"},{"bike_id":"697d5fc4-b988-4a4e-8323-c1ce5ed61a61","system_id":"levelo_inurba_marseille","lat":43.21191,"lon":5.35071,"is_reserved":false,"is_disabled":false,"rental_uris":{"android":"levelo://app?vid=697d5fc4-b988-4a4e-8323-c1ce5ed61a61","ios":"levelo://app?vid=697d5fc4-b988-4a4e-8323-c1ce5ed61a61"},"vehicle_type_id":"4","last_reported":1752444618,"current_range_meters":17200,"station_id":"st_cvj6sg6p6f1abm77japg","pricing_plan_id":"cebpf4jnsgd1na2vs0mg"},{"bike_id":"9ddedd2b-52d5-46cb-816f-32b6969f9f19","system_id":"levelo_inurba_marseille","lat":43.285222,"lon":5.395039,"is_reserved":false,"is_disabled":false,"rental_uris":{"android":"levelo://app?vid=9ddedd2b-52d5-46cb-816f-32b6969f9f19","ios":"levelo://app?vid=9ddedd2b-52d5-46cb-816f-32b6969f9f19"},"vehicle_type_id":"4","last_reported":1752444618,"current_range_meters":17200,"station_id":"ce4bh292rcd13ifvqdg0","pricing_plan_id":"cebpf4jnsgd1na2vs0mg"},{"bike_id":"59911a73-7c26-496b-80e3-453d2d820264","system_id":"levelo_inurba_marseille","lat":43.2927,"lon":5.38431,"is_reserved":false,"is_disabled":false,"rental_uris":{"android":"levelo://app?vid=59911a73-7c26-496b-80e3-453d2d820264","ios":"levelo://app?vid=59911a73-7c26-496b-80e3-453d2d820264"},"vehicle_type_id":"4","last_reported":1752444618,"current_range_meters":17200,"station_id":"ce4bh692rcd13ifvqea0","pricing_plan_id":"cebpf4jnsgd1na2vs0mg"},{"bike_id":"5ff0ad3c-2cd5-4733-920a-68c4bd92182f","system_id":"levelo_inurba_marseille","lat":43.24549,"lon":5.39523,"is_reserved":false,"is_disabled":false,"rental_uris":{"android":"levelo://app?vid=5ff0ad3c-2cd5-4733-920a-68c4bd92182f","ios":"levelo://app?vid=5ff0ad3c-2cd5-4733-920a-68c4bd92182f"},"vehicle_type_id":"4","last_reported":1752444618,"current_range_meters":17200,"station_id":"ce4bhlp2rcd13ifvqgjg","pricing_plan_id":"cebpf4jnsgd1na2vs0mg"},{"bike_id":"1c416625-c572-4dbc-b026-d6f3e5a132e8","system_id":"levelo_inurba_marseille","lat":43.309479,"lon":5.390318,"is_reserved":false,"is_disabled":false,"rental_uris":{"android":"levelo://app?vid=1c416625-c572-4dbc-b026-d6f3e5a132e8","ios":"levelo://app?vid=1c416625-c572-4dbc-b026-d6f3e5a132e8"},"vehicle_type_id":"4","last_reported":1752444618,"current_range_meters":17200,"station_id":"ce4bgup2rcd13ifvqco0","pricing_plan_id":"cebpf4jnsgd1na2vs0mg"},{"bike_id":"23a0fc67-4c39-4b74-8a86-2903d79b1606","system_id":"levelo_inurba_marseille","lat":43.23203,"lon":5.35563,"is_reserved":false,"is_disabled":true,"rental_uris":{"android":"levelo://app?vid=23a0fc67-4c39-4b74-8a86-2903d79b1606","ios":"levelo://app?vid=23a0fc67-4c39-4b74-8a86-2903d79b1606"},"vehicle_type_id":"4","last_reported":1752444618,"current_range_meters":17200,"station_id":"ce4bhu92rcd13ifvqi70","pricing_plan_id":"cebpf4jnsgd1na2vs0mg"},{"bike_id":"ff55f06c-8e73-4009-98c1-a4c62eb65d05","system_id":"levelo_inurba_marseille","lat":43.30549,"lon":5.36707,"is_reserved":false,"is_disabled":false,"rental_uris":{"android":"levelo://app?vid=ff55f06c-8e73-4009-98c1-a4c62eb65d05","ios":"levelo://app?vid=ff55f06c-8e73-4009-98c1-a4c62eb65d05"},"vehicle_type_id":"4","last_reported":1752444618,"current_range_meters":17200,"station_id":"ce4bgrp2rcd13ifvqc9g","pricing_plan_id":"cebpf4jnsgd1na2vs0mg"},{"bike_id":"a4d07f45-19f9-4df9-9728-be6623530a64","system_id":"levelo_inurba_marseille","lat":43.23698,"lon":5.38803,"is_reserved":false,"is_disabled":false,"rental_uris":{"android":"levelo://app?vid=a4d07f45-19f9-4df9-9728-be6623530a64","ios":"levelo://app?vid=a4d07f45-19f9-4df9-9728-be6623530a64"},"vehicle_type_id":"4","last_reported":1752444618,"current_range_meters":17600,"station_id":"","pricing_plan_id":"cebpf4jnsgd1na2vs0mg"},{"bike_id":"f7cf9aab-0ed3-4931-a48c-8d0743d0c0b9","system_id":"levelo_inurba_marseille","lat":43.229218,"lon":5.353821,"is_reserved":false,"is_disabled":true,"rental_uris":{"android":"levelo://app?vid=f7cf9aab-0ed3-4931-a48c-8d0743d0c0b9","ios":"levelo://app?vid=f7cf9aab-0ed3-4931-a48c-8d0743d0c0b9"},"vehicle_type_id":"4","last_reported":1752444618,"current_range_meters":17200,"station_id":"cpo3532slgdg3j2ikp40","pricing_plan_id":"cebpf4jnsgd1na2vs0mg"},{"bike_id":"bf67854a-fc75-4bbe-84b3-70a770694533","system_id":"levelo_inurba_marseille","lat":43.28936,"lon":5.39668,"is_reserved":false,"is_disabled":true,"rental_uris":{"android":"levelo://app?vid=bf67854a-fc75-4bbe-84b3-70a770694533","ios":"levelo://app?vid=bf67854a-fc75-4bbe-84b3-70a770694533"},"vehicle_type_id":"4","last_reported":1752444618,"current_range_meters":17200,"station_id":"ce4bh3h2rcd13ifvqdn0","pricing_plan_id":"cebpf4jnsgd1na2vs0mg"},{"bike_id":"6c5208e4-7c58-4709-95fc-ef95571ca273","system_id":"levelo_inurba_marseille","lat":43.29527,"lon":5.38543,"is_reserved":false,"is_disabled":false,"rental_uris":{"android":"levelo://app?vid=6c5208e4-7c58-4709-95fc-ef95571ca273","ios":"levelo://app?vid=6c5208e4-7c58-4709-95fc-ef95571ca273"},"vehicle_type_id":"4","last_reported":1752444618,"current_range_meters":17200,"station_id":"ce4bgih2rcd13ifvqba0","pricing_plan_id":"cebpf4jnsgd1na2vs0mg"},{"bike_id":"3b13cfd5-12f7-42bf-9953-7edf0f317910","system_id":"levelo_inurba_marseille","lat":43.32368,"lon":5.38884,"is_reserved":false,"is_disabled":false,"rental_uris":{"android":"levelo://app?vid=3b13cfd5-12f7-42bf-9953-7edf0f317910","ios":"levelo://app?vid=3b13cfd5-12f7-42bf-9953-7edf0f317910"},"vehicle_type_id":"4","last_reported":1752444618,"current_range_meters":17200,"station_id":"ce4bhqp2rcd13ifvqhog","pricing_plan_id":"cebpf4jnsgd1na2vs0mg"},{"bike_id":"088e6b1d-8a81-47e0-9ad0-36233ed399c0","system_id":"levelo_inurba_marseille","lat":43.279177,"lon":5.395728,"is_reserved":false,"is_disabled":true,"rental_uris":{"android":"levelo://app?vid=088e6b1d-8a81-47e0-9ad0-36233ed399c0","ios":"levelo://app?vid=088e6b1d-8a81-47e0-9ad0-36233ed399c0"},"vehicle_type_id":"4","last_reported":1752444618,"current_range_meters":17200,"station_id":"ce4bhf92rcd13ifvqf40","pricing_plan_id":"cebpf4jnsgd1na2vs0mg"},{"bike_id":"69155cc0-cb55-4439-bbd9-4488e3fc6bb5","system_id":"levelo_inurba_marseille","lat":43.28701,"lon":5.39986,"is_reserved":false,"is_disabled":false,"rental_uris":{"android":"levelo://app?vid=69155cc0-cb55-4439-bbd9-4488e3fc6bb5","ios":"levelo://app?vid=69155cc0-cb55-4439-bbd9-4488e3fc6bb5"},"vehicle_type_id":"4","last_reported":1752444618,"current_range_meters":17600,"station_id":"ce4bho92rcd13ifvqh3g","pricing_plan_id":"cebpf4jnsgd1na2vs0mg"},{"bike_id":"12d48e4d-a291-49bb-ab45-967804b53d7b","system_id":"levelo_inurba_marseille","lat":43.2762,"lon":5.36113,"is_reserved":false,"is_disabled":true,"rental_uris":{"android":"levelo://app?vid=12d48e4d-a291-49bb-ab45-967804b53d7b","ios":"levelo://app?vid=12d48e4d-a291-49bb-ab45-967804b53d7b"},"vehicle_type_id":"4","last_reported":1752444618,"current_range_meters":17600,"station_id":"ce4bgj92rcd13ifvqbe0","pricing_plan_id":"cebpf4jnsgd1na2vs0mg"},{"bike_id":"e1442ff3-c767-4bb3-901d-e5f60873ad13","system_id":"levelo_inurba_marseille","lat":43.23189,"lon":5.39983,"is_reserved":false,"is_disabled":false,"rental_uris":{"android":"levelo://app?vid=e1442ff3-c767-4bb3-901d-e5f60873ad13","ios":"levelo://app?vid=e1442ff3-c767-4bb3-901d-e5f60873ad13"},"vehicle_type_id":"4","last_reported":1752444618,"current_range_meters":17600,"station_id":"ce4bhn12rcd13ifvqgqg","pricing_plan_id":"cebpf4jnsgd1na2vs0mg"},{"bike_id":"e1928b01-bff5-4cea-b60c-f8d9223daef3","system_id":"levelo_inurba_marseille","lat":43.27072,"lon":5.42297,"is_reserved":false,"is_disabled":false,"rental_uris":{"android":"levelo://app?vid=e1928b01-bff5-4cea-b60c-f8d9223daef3","ios":"levelo://app?vid=e1928b01-bff5-4cea-b60c-f8d9223daef3"},"vehicle_type_id":"4","last_reported":1752444618,"current_range_meters":17600,"station_id":"ce4bhk92rcd13ifvqgb0","pricing_plan_id":"cebpf4jnsgd1na2vs0mg"},{"bike_id":"6ac174d4-75c5-4a9c-9699-97cd631c6e65","system_id":"levelo_inurba_marseille","lat":43.25497,"lon":5.39922,"is_reserved":false,"is_disabled":false,"rental_uris":{"android":"levelo://app?vid=6ac174d4-75c5-4a9c-9699-97cd631c6e65","ios":"levelo://app?vid=6ac174d4-75c5-4a9c-9699-97cd631c6e65"},"vehicle_type_id":"4","last_reported":1752444618,"current_range_meters":17600,"station_id":"","pricing_plan_id":"cebpf4jnsgd1na2vs0mg"},{"bike_id":"52df209e-a96c-4640-89f1-9949431b3363","system_id":"levelo_inurba_marseille","lat":43.29533,"lon":5.38539,"is_reserved":false,"is_disabled":false,"rental_uris":{"android":"levelo://app?vid=52df209e-a96c-4640-89f1-9949431b3363","ios":"levelo://app?vid=52df209e-a96c-4640-89f1-9949431b3363"},"vehicle_type_id":"4","last_reported":1752444618,"current_range_meters":17600,"station_id":"ce4bgih2rcd13ifvqba0","pricing_plan_id":"cebpf4jnsgd1na2vs0mg"},{"bike_id":"1578a68a-cc35-4839-ba7b-f3c58a0a0b0f","system_id":"levelo_inurba_marseille","lat":43.25138,"lon":5.40302,"is_reserved":false,"is_disabled":false,"rental_uris":{"android":"levelo://app?vid=1578a68a-cc35-4839-ba7b-f3c58a0a0b0f","ios":"levelo://app?vid=1578a68a-cc35-4839-ba7b-f3c58a0a0b0f"},"vehicle_type_id":"4","last_reported":1752444618,"current_range_meters":17600,"station_id":"ce4bhlh2rcd13ifvqgig","pricing_plan_id":"cebpf4jnsgd1na2vs0mg"},{"bike_id":"3fe12894-5c6e-4969-9825-6e38cace598e","system_id":"levelo_inurba_marseille","lat":43.29382,"lon":5.38463,"is_reserved":false,"is_disabled":false,"rental_uris":{"android":"levelo://app?vid=3fe12894-5c6e-4969-9825-6e38cace598e","ios":"levelo://app?vid=3fe12894-5c6e-4969-9825-6e38cace598e"},"vehicle_type_id":"4","last_reported":1752444618,"current_range_meters":17600,"station_id":"","pricing_plan_id":"cebpf4jnsgd1na2vs0mg"},{"bike_id":"5f48d587-f9d0-43e5-b0b2-bf2fb17b1a3c","system_id":"levelo_inurba_marseille","lat":43.29417,"lon":5.38614,"is_reserved":false,"is_disabled":true,"rental_uris":{"android":"levelo://app?vid=5f48d587-f9d0-43e5-b0b2-bf2fb17b1a3c","ios":"levelo://app?vid=5f48d587-f9d0-43e5-b0b2-bf2fb17b1a3c"},"vehicle_type_id":"4","last_reported":1752444618,"current_range_meters":17600,"station_id":"ce4bh2h2rcd13ifvqdh0","pricing_plan_id":"cebpf4jnsgd1na2vs0mg"},{"bike_id":"38dd303a-0435-44e7-a2c1-8e10e0e96750","system_id":"levelo_inurba_marseille","lat":43.321107,"lon":5.36771,"is_reserved":false,"is_disabled":false,"rental_uris":{"android":"levelo://app?vid=38dd303a-0435-44e7-a2c1-8e10e0e96750","ios":"levelo://app?vid=38dd303a-0435-44e7-a2c1-8e10e0e96750"},"vehicle_type_id":"4","last_reported":1752444618,"current_range_meters":17600,"station_id":"ce4bhrh2rcd13ifvqhug","pricing_plan_id":"cebpf4jnsgd1na2vs0mg"},{"bike_id":"7ce50aa9-fb46-499f-bf35-1bc8f67c6be2","system_id":"levelo_inurba_marseille","lat":43.269474,"lon":5.402458,"is_reserved":false,"is_disabled":false,"rental_uris":{"android":"levelo://app?vid=7ce50aa9-fb46-499f-bf35-1bc8f67c6be2","ios":"levelo://app?vid=7ce50aa9-fb46-499f-bf35-1bc8f67c6be2"},"vehicle_type_id":"4","last_reported":1752444618,"current_range_meters":17600,"station_id":"cjm6bp8fraef2m0cb0m0","pricing_plan_id":"cebpf4jnsgd1na2vs0mg"},{"bike_id":"4c31753d-e341-4d3b-b419-0344d08c3720","system_id":"levelo_inurba_marseille","lat":43.2963,"lon":5.37731,"is_reserved":false,"is_disabled":false,"rental_uris":{"android":"levelo://app?vid=4c31753d-e341-4d3b-b419-0344d08c3720","ios":"levelo://app?vid=4c31753d-e341-4d3b-b419-0344d08c3720"},"vehicle_type_id":"4","last_reported":1752444618,"current_range_meters":17600,"station_id":"ce4bgi92rcd13ifvqb90","pricing_plan_id":"cebpf4jnsgd1na2vs0mg"},{"bike_id":"0327ba3d-56c5-40a2-9b87-fb20780bb2cf","system_id":"levelo_inurba_marseille","lat":43.28474,"lon":5.38426,"is_reserved":false,"is_disabled":true,"rental_uris":{"android":"levelo://app?vid=0327ba3d-56c5-40a2-9b87-fb20780bb2cf","ios":"levelo://app?vid=0327ba3d-56c5-40a2-9b87-fb20780bb2cf"},"vehicle_type_id":"4","last_reported":1752444618,"current_range_meters":17600,"station_id":"ce4bh512rcd13ifvqe3g","pricing_plan_id":"cebpf4jnsgd1na2vs0mg"},{"bike_id":"8011b9b0-1e3b-4734-a6ce-caae6bf620cf","system_id":"levelo_inurba_marseille","lat":43.30788,"lon":5.3764,"is_reserved":false,"is_disabled":false,"rental_uris":{"android":"levelo://app?vid=8011b9b0-1e3b-4734-a6ce-caae6bf620cf","ios":"levelo://app?vid=8011b9b0-1e3b-4734-a6ce-caae6bf620cf"},"vehicle_type_id":"4","last_reported":1752444618,"current_range_meters":17600,"station_id":"ce4bgv92rcd13ifvqcq0","pricing_plan_id":"cebpf4jnsgd1na2vs0mg"},{"bike_id":"2aed0715-f717-4393-92de-e66dd3145356","system_id":"levelo_inurba_marseille","lat":43.3053,"lon":5.38434,"is_reserved":false,"is_disabled":false,"rental_uris":{"android":"levelo://app?vid=2aed0715-f717-4393-92de-e66dd3145356","ios":"levelo://app?vid=2aed0715-f717-4393-92de-e66dd3145356"},"vehicle_type_id":"4","last_reported":1752444618,"current_range_meters":18000,"station_id":"ce4bgg92rcd13ifvqb30","pricing_plan_id":"cebpf4jnsgd1na2vs0mg"},{"bike_id":"e1ad510f-d23e-4051-a0c6-a6e162620aed","system_id":"levelo_inurba_marseille","lat":43.24162,"lon":5.36402,"is_reserved":false,"is_disabled":false,"rental_uris":{"android":"levelo://app?vid=e1ad510f-d23e-4051-a0c6-a6e162620aed","ios":"levelo://app?vid=e1ad510f-d23e-4051-a0c6-a6e162620aed"},"vehicle_type_id":"4","last_reported":1752444618,"current_range_meters":18000,"station_id":"cpo36qri1sfpv3e86is0","pricing_plan_id":"cebpf4jnsgd1na2vs0mg"},{"bike_id":"55774bdb-47b9-4c2a-ba58-c7e9af75c5ea","system_id":"levelo_inurba_marseille","lat":43.29021,"lon":5.38631,"is_reserved":false,"is_disabled":false,"rental_uris":{"android":"levelo://app?vid=55774bdb-47b9-4c2a-ba58-c7e9af75c5ea","ios":"levelo://app?vid=55774bdb-47b9-4c2a-ba58-c7e9af75c5ea"},"vehicle_type_id":"4","last_reported":1752444618,"current_range_meters":18000,"station_id":"ce4bh4p2rcd13ifvqe0g","pricing_plan_id":"cebpf4jnsgd1na2vs0mg"},{"bike_id":"eb7335a0-fd73-4f50-9b5e-646b48036290","system_id":"levelo_inurba_marseille","lat":43.28429,"lon":5.39207,"is_reserved":false,"is_disabled":false,"rental_uris":{"android":"levelo://app?vid=eb7335a0-fd73-4f50-9b5e-646b48036290","ios":"levelo://app?vid=eb7335a0-fd73-4f50-9b5e-646b48036290"},"vehicle_type_id":"4","last_reported":1752444618,"current_range_meters":18000,"station_id":"ce4bhoh2rcd13ifvqh5g","pricing_plan_id":"cebpf4jnsgd1na2vs0mg"},{"bike_id":"2c81c752-b139-48bc-a4ee-7fa7f8526278","system_id":"levelo_inurba_marseille","lat":43.21744,"lon":5.34613,"is_reserved":false,"is_disabled":true,"rental_uris":{"android":"levelo://app?vid=2c81c752-b139-48bc-a4ee-7fa7f8526278","ios":"levelo://app?vid=2c81c752-b139-48bc-a4ee-7fa7f8526278"},"vehicle_type_id":"4","last_reported":1752444618,"current_range_meters":18000,"station_id":"st_cvj6r9ubvosntc0bgbag","pricing_plan_id":"cebpf4jnsgd1na2vs0mg"},{"bike_id":"3e43a855-2332-43c7-8cd6-aff7da678113","system_id":"levelo_inurba_marseille","lat":43.24166,"lon":5.36399,"is_reserved":false,"is_disabled":false,"rental_uris":{"android":"levelo://app?vid=3e43a855-2332-43c7-8cd6-aff7da678113","ios":"levelo://app?vid=3e43a855-2332-43c7-8cd6-aff7da678113"},"vehicle_type_id":"4","last_reported":1752444618,"current_range_meters":18000,"station_id":"cpo36qri1sfpv3e86is0","pricing_plan_id":"cebpf4jnsgd1na2vs0mg"},{"bike_id":"bdc49db2-6585-46e4-82b5-a7658cda662b","system_id":"levelo_inurba_marseille","lat":43.31328,"lon":5.39696,"is_reserved":false,"is_disabled":false,"rental_uris":{"android":"levelo://app?vid=bdc49db2-6585-46e4-82b5-a7658cda662b","ios":"levelo://app?vid=bdc49db2-6585-46e4-82b5-a7658cda662b"},"vehicle_type_id":"4","last_reported":1752444618,"current_range_meters":17600,"station_id":"ce4bgvp2rcd13ifvqcu0","pricing_plan_id":"cebpf4jnsgd1na2vs0mg"},{"bike_id":"2af24088-cc8c-4b0e-8248-9128f141f3d7","system_id":"levelo_inurba_marseille","lat":43.29535,"lon":5.38552,"is_reserved":false,"is_disabled":false,"rental_uris":{"android":"levelo://app?vid=2af24088-cc8c-4b0e-8248-9128f141f3d7","ios":"levelo://app?vid=2af24088-cc8c-4b0e-8248-9128f141f3d7"},"vehicle_type_id":"4","last_reported":1752444618,"current_range_meters":18000,"station_id":"ce4bgih2rcd13ifvqba0","pricing_plan_id":"cebpf4jnsgd1na2vs0mg"},{"bike_id":"6f0cc715-0222-4975-b205-ce1a1d2e82fc","system_id":"levelo_inurba_marseille","lat":43.27906,"lon":5.38013,"is_reserved":false,"is_disabled":false,"rental_uris":{"android":"levelo://app?vid=6f0cc715-0222-4975-b205-ce1a1d2e82fc","ios":"levelo://app?vid=6f0cc715-0222-4975-b205-ce1a1d2e82fc"},"vehicle_type_id":"4","last_reported":1752444618,"current_range_meters":17600,"station_id":"ce4bhf92rcd13ifvqf50","pricing_plan_id":"cebpf4jnsgd1na2vs0mg"},{"bike_id":"763d0609-9e23-4eb9-bae3-097dc9a53f95","system_id":"levelo_inurba_marseille","lat":43.27899,"lon":5.38006,"is_reserved":false,"is_disabled":false,"rental_uris":{"android":"levelo://app?vid=763d0609-9e23-4eb9-bae3-097dc9a53f95","ios":"levelo://app?vid=763d0609-9e23-4eb9-bae3-097dc9a53f95"},"vehicle_type_id":"4","last_reported":1752444618,"current_range_meters":18000,"station_id":"ce4bhf92rcd13ifvqf50","pricing_plan_id":"cebpf4jnsgd1na2vs0mg"},{"bike_id":"242155de-0c6b-4e40-9e1a-662dacf03fe8","system_id":"levelo_inurba_marseille","lat":43.27173,"lon":5.40999,"is_reserved":false,"is_disabled":false,"rental_uris":{"android":"levelo://app?vid=242155de-0c6b-4e40-9e1a-662dacf03fe8","ios":"levelo://app?vid=242155de-0c6b-4e40-9e1a-662dacf03fe8"},"vehicle_type_id":"4","last_reported":1752444618,"current_range_meters":18000,"station_id":"ce4bhl12rcd13ifvqgf0","pricing_plan_id":"cebpf4jnsgd1na2vs0mg"},{"bike_id":"bca2f619-c570-42c8-ac2d-5cc3658b58e5","system_id":"levelo_inurba_marseille","lat":43.28098,"lon":5.37838,"is_reserved":false,"is_disabled":false,"rental_uris":{"android":"levelo://app?vid=bca2f619-c570-42c8-ac2d-5cc3658b58e5","ios":"levelo://app?vid=bca2f619-c570-42c8-ac2d-5cc3658b58e5"},"vehicle_type_id":"4","last_reported":1752444618,"current_range_meters":18000,"station_id":"ce4bha12rcd13ifvqee0","pricing_plan_id":"cebpf4jnsgd1na2vs0mg"},{"bike_id":"85746b25-9607-4040-a24f-615457740aee","system_id":"levelo_inurba_marseille","lat":43.29447,"lon":5.39759,"is_reserved":false,"is_disabled":false,"rental_uris":{"android":"levelo://app?vid=85746b25-9607-4040-a24f-615457740aee","ios":"levelo://app?vid=85746b25-9607-4040-a24f-615457740aee"},"vehicle_type_id":"4","last_reported":1752444618,"current_range_meters":18000,"station_id":"ce4bh3h2rcd13ifvqdo0","pricing_plan_id":"cebpf4jnsgd1na2vs0mg"},{"bike_id":"fceb66d7-78cd-4fd0-89b8-276acb02bbfa","system_id":"levelo_inurba_marseille","lat":43.29366,"lon":5.3784,"is_reserved":false,"is_disabled":false,"rental_uris":{"android":"levelo://app?vid=fceb66d7-78cd-4fd0-89b8-276acb02bbfa","ios":"levelo://app?vid=fceb66d7-78cd-4fd0-89b8-276acb02bbfa"},"vehicle_type_id":"4","last_reported":1752444618,"current_range_meters":18000,"station_id":"ce4bgjh2rcd13ifvqbf0","pricing_plan_id":"cebpf4jnsgd1na2vs0mg"},{"bike_id":"9b59b22f-5f4b-432f-be59-c16459c4633a","system_id":"levelo_inurba_marseille","lat":43.28036,"lon":5.36953,"is_reserved":false,"is_disabled":false,"rental_uris":{"android":"levelo://app?vid=9b59b22f-5f4b-432f-be59-c16459c4633a","ios":"levelo://app?vid=9b59b22f-5f4b-432f-be59-c16459c4633a"},"vehicle_type_id":"4","last_reported":1752444618,"current_range_meters":18800,"station_id":"ce4bha12rcd13ifvqef0","pricing_plan_id":"cebpf4jnsgd1na2vs0mg"},{"bike_id":"7dfdc2c3-57a0-4a69-ae23-de970b88e6dd","system_id":"levelo_inurba_marseille","lat":43.25726,"lon":5.41111,"is_reserved":false,"is_disabled":false,"rental_uris":{"android":"levelo://app?vid=7dfdc2c3-57a0-4a69-ae23-de970b88e6dd","ios":"levelo://app?vid=7dfdc2c3-57a0-4a69-ae23-de970b88e6dd"},"vehicle_type_id":"4","last_reported":1752444618,"current_range_meters":18800,"station_id":"ce4bhkp2rcd13ifvqgd0","pricing_plan_id":"cebpf4jnsgd1na2vs0mg"},{"bike_id":"9b2b055d-55f5-4966-8f85-a04291a0bc3f","system_id":"levelo_inurba_marseille","lat":43.29067,"lon":5.37174,"is_reserved":false,"is_disabled":false,"rental_uris":{"android":"levelo://app?vid=9b2b055d-55f5-4966-8f85-a04291a0bc3f","ios":"levelo://app?vid=9b2b055d-55f5-4966-8f85-a04291a0bc3f"},"vehicle_type_id":"4","last_reported":1752444618,"current_range_meters":18000,"station_id":"ce4bh5p2rcd13ifvqe4g","pricing_plan_id":"cebpf4jnsgd1na2vs0mg"},{"bike_id":"0be8b6ff-89df-4994-876a-5f9632d04ae6","system_id":"levelo_inurba_marseille","lat":43.25101,"lon":5.40331,"is_reserved":false,"is_disabled":false,"rental_uris":{"android":"levelo://app?vid=0be8b6ff-89df-4994-876a-5f9632d04ae6","ios":"levelo://app?vid=0be8b6ff-89df-4994-876a-5f9632d04ae6"},"vehicle_type_id":"4","last_reported":1752444618,"current_range_meters":18800,"station_id":"ce4bhlh2rcd13ifvqgig","pricing_plan_id":"cebpf4jnsgd1na2vs0mg"},{"bike_id":"ff273063-b26e-410d-a8db-735ccf894b50","system_id":"levelo_inurba_marseille","lat":43.24082,"lon":5.37767,"is_reserved":false,"is_disabled":false,"rental_uris":{"android":"levelo://app?vid=ff273063-b26e-410d-a8db-735ccf894b50","ios":"levelo://app?vid=ff273063-b26e-410d-a8db-735ccf894b50"},"vehicle_type_id":"4","last_reported":1752444618,"current_range_meters":18800,"station_id":"ce4bhnp2rcd13ifvqgvg","pricing_plan_id":"cebpf4jnsgd1na2vs0mg"},{"bike_id":"d4d09814-bfb5-45f2-8280-ce5d7b12bead","system_id":"levelo_inurba_marseille","lat":43.2794,"lon":5.41047,"is_reserved":false,"is_disabled":false,"rental_uris":{"android":"levelo://app?vid=d4d09814-bfb5-45f2-8280-ce5d7b12bead","ios":"levelo://app?vid=d4d09814-bfb5-45f2-8280-ce5d7b12bead"},"vehicle_type_id":"4","last_reported":1752444618,"current_range_meters":18800,"station_id":"ce4bhnp2rcd13ifvqh0g","pricing_plan_id":"cebpf4jnsgd1na2vs0mg"},{"bike_id":"aa260077-cb0d-43c9-8e67-329c1b69779f","system_id":"levelo_inurba_marseille","lat":43.211926,"lon":5.350751,"is_reserved":false,"is_disabled":false,"rental_uris":{"android":"levelo://app?vid=aa260077-cb0d-43c9-8e67-329c1b69779f","ios":"levelo://app?vid=aa260077-cb0d-43c9-8e67-329c1b69779f"},"vehicle_type_id":"4","last_reported":1752444618,"current_range_meters":18800,"station_id":"st_cvj6sg6p6f1abm77japg","pricing_plan_id":"cebpf4jnsgd1na2vs0mg"},{"bike_id":"50da49e5-20e4-4619-9d7a-f0b2ff779a86","system_id":"levelo_inurba_marseille","lat":43.28701,"lon":5.39978,"is_reserved":false,"is_disabled":false,"rental_uris":{"android":"levelo://app?vid=50da49e5-20e4-4619-9d7a-f0b2ff779a86","ios":"levelo://app?vid=50da49e5-20e4-4619-9d7a-f0b2ff779a86"},"vehicle_type_id":"4","last_reported":1752444618,"current_range_meters":18800,"station_id":"ce4bho92rcd13ifvqh3g","pricing_plan_id":"cebpf4jnsgd1na2vs0mg"},{"bike_id":"08e67338-a2ff-42fc-a939-92ad435f118e","system_id":"levelo_inurba_marseille","lat":43.27674,"lon":5.35714,"is_reserved":false,"is_disabled":false,"rental_uris":{"android":"levelo://app?vid=08e67338-a2ff-42fc-a939-92ad435f118e","ios":"levelo://app?vid=08e67338-a2ff-42fc-a939-92ad435f118e"},"vehicle_type_id":"4","last_reported":1752444618,"current_range_meters":18800,"station_id":"","pricing_plan_id":"cebpf4jnsgd1na2vs0mg"},{"bike_id":"c7fc6e8e-d994-4cc0-b5dd-9feefacd6416","system_id":"levelo_inurba_marseille","lat":43.31217,"lon":5.36853,"is_reserved":false,"is_disabled":false,"rental_uris":{"android":"levelo://app?vid=c7fc6e8e-d994-4cc0-b5dd-9feefacd6416","ios":"levelo://app?vid=c7fc6e8e-d994-4cc0-b5dd-9feefacd6416"},"vehicle_type_id":"4","last_reported":1752444618,"current_range_meters":18800,"station_id":"ce4bgl92rcd13ifvqbq0","pricing_plan_id":"cebpf4jnsgd1na2vs0mg"},{"bike_id":"59dc860f-0223-40b3-875a-edb77fe02177","system_id":"levelo_inurba_marseille","lat":43.30951,"lon":5.39034,"is_reserved":false,"is_disabled":false,"rental_uris":{"android":"levelo://app?vid=59dc860f-0223-40b3-875a-edb77fe02177","ios":"levelo://app?vid=59dc860f-0223-40b3-875a-edb77fe02177"},"vehicle_type_id":"4","last_reported":1752444618,"current_range_meters":18800,"station_id":"ce4bgup2rcd13ifvqco0","pricing_plan_id":"cebpf4jnsgd1na2vs0mg"},{"bike_id":"bbbd7405-0e12-4512-b62c-d8d1cbbecf09","system_id":"levelo_inurba_marseille","lat":43.29972,"lon":5.38515,"is_reserved":false,"is_disabled":true,"rental_uris":{"android":"levelo://app?vid=bbbd7405-0e12-4512-b62c-d8d1cbbecf09","ios":"levelo://app?vid=bbbd7405-0e12-4512-b62c-d8d1cbbecf09"},"vehicle_type_id":"4","last_reported":1752444618,"current_range_meters":18800,"station_id":"ce4bgj92rcd13ifvqbd0","pricing_plan_id":"cebpf4jnsgd1na2vs0mg"},{"bike_id":"fd45ce6f-4b8c-407a-91aa-8c33650e607a","system_id":"levelo_inurba_marseille","lat":43.27995,"lon":5.41666,"is_reserved":false,"is_disabled":false,"rental_uris":{"android":"levelo://app?vid=fd45ce6f-4b8c-407a-91aa-8c33650e607a","ios":"levelo://app?vid=fd45ce6f-4b8c-407a-91aa-8c33650e607a"},"vehicle_type_id":"4","last_reported":1752444618,"current_range_meters":19200,"station_id":"ce4bho12rcd13ifvqh1g","pricing_plan_id":"cebpf4jnsgd1na2vs0mg"},{"bike_id":"fdf41f87-deb0-46b3-9de1-6dd73b263487","system_id":"levelo_inurba_marseille","lat":43.254929,"lon":5.376496,"is_reserved":false,"is_disabled":true,"rental_uris":{"android":"levelo://app?vid=fdf41f87-deb0-46b3-9de1-6dd73b263487","ios":"levelo://app?vid=fdf41f87-deb0-46b3-9de1-6dd73b263487"},"vehicle_type_id":"4","last_reported":1752444618,"current_range_meters":19200,"station_id":"ce4bhh12rcd13ifvqff0","pricing_plan_id":"cebpf4jnsgd1na2vs0mg"},{"bike_id":"71e479f4-838c-44c9-a19e-d1950cd099a6","system_id":"levelo_inurba_marseille","lat":43.27618,"lon":5.42393,"is_reserved":false,"is_disabled":false,"rental_uris":{"android":"levelo://app?vid=71e479f4-838c-44c9-a19e-d1950cd099a6","ios":"levelo://app?vid=71e479f4-838c-44c9-a19e-d1950cd099a6"},"vehicle_type_id":"4","last_reported":1752444618,"current_range_meters":19200,"station_id":"","pricing_plan_id":"cebpf4jnsgd1na2vs0mg"},{"bike_id":"eeadecd9-8133-4be7-8345-2e0eda17a6a6","system_id":"levelo_inurba_marseille","lat":43.258673,"lon":5.39897,"is_reserved":false,"is_disabled":false,"rental_uris":{"android":"levelo://app?vid=eeadecd9-8133-4be7-8345-2e0eda17a6a6","ios":"levelo://app?vid=eeadecd9-8133-4be7-8345-2e0eda17a6a6"},"vehicle_type_id":"4","last_reported":1752444618,"current_range_meters":19200,"station_id":"ce4bhl92rcd13ifvqghg","pricing_plan_id":"cebpf4jnsgd1na2vs0mg"},{"bike_id":"79d94112-7169-431a-bd8f-418b14716bd4","system_id":"levelo_inurba_marseille","lat":43.29455,"lon":5.39745,"is_reserved":false,"is_disabled":false,"rental_uris":{"android":"levelo://app?vid=79d94112-7169-431a-bd8f-418b14716bd4","ios":"levelo://app?vid=79d94112-7169-431a-bd8f-418b14716bd4"},"vehicle_type_id":"4","last_reported":1752444618,"current_range_meters":19200,"station_id":"ce4bh3h2rcd13ifvqdo0","pricing_plan_id":"cebpf4jnsgd1na2vs0mg"},{"bike_id":"7f7247e0-776e-4438-ba41-21148d15d578","system_id":"levelo_inurba_marseille","lat":43.29285,"lon":5.40126,"is_reserved":false,"is_disabled":false,"rental_uris":{"android":"levelo://app?vid=7f7247e0-776e-4438-ba41-21148d15d578","ios":"levelo://app?vid=7f7247e0-776e-4438-ba41-21148d15d578"},"vehicle_type_id":"4","last_reported":1752444618,"current_range_meters":19200,"station_id":"ce4bh312rcd13ifvqdk0","pricing_plan_id":"cebpf4jnsgd1na2vs0mg"},{"bike_id":"62421124-559e-4604-840a-9e4f0af4f157","system_id":"levelo_inurba_marseille","lat":43.27427,"lon":5.39419,"is_reserved":false,"is_disabled":false,"rental_uris":{"android":"levelo://app?vid=62421124-559e-4604-840a-9e4f0af4f157","ios":"levelo://app?vid=62421124-559e-4604-840a-9e4f0af4f157"},"vehicle_type_id":"4","last_reported":1752444618,"current_range_meters":19200,"station_id":"ce4bhdp2rcd13ifvqf20","pricing_plan_id":"cebpf4jnsgd1na2vs0mg"},{"bike_id":"1cbad25b-29d2-4267-9cb2-d8884be99ac2","system_id":"levelo_inurba_marseille","lat":43.31343,"lon":5.385,"is_reserved":false,"is_disabled":false,"rental_uris":{"android":"levelo://app?vid=1cbad25b-29d2-4267-9cb2-d8884be99ac2","ios":"levelo://app?vid=1cbad25b-29d2-4267-9cb2-d8884be99ac2"},"vehicle_type_id":"4","last_reported":1752444618,"current_range_meters":19200,"station_id":"ce4bgt92rcd13ifvqcf0","pricing_plan_id":"cebpf4jnsgd1na2vs0mg"},{"bike_id":"44afe9cd-3774-4da6-a01b-8c8a79575d2d","system_id":"levelo_inurba_marseille","lat":43.29523,"lon":5.38539,"is_reserved":false,"is_disabled":false,"rental_uris":{"android":"levelo://app?vid=44afe9cd-3774-4da6-a01b-8c8a79575d2d","ios":"levelo://app?vid=44afe9cd-3774-4da6-a01b-8c8a79575d2d"},"vehicle_type_id":"4","last_reported":1752444618,"current_range_meters":19200,"station_id":"ce4bgih2rcd13ifvqba0","pricing_plan_id":"cebpf4jnsgd1na2vs0mg"},{"bike_id":"6b709f20-8c1b-467d-911c-16baafb0e489","system_id":"levelo_inurba_marseille","lat":43.29269,"lon":5.38432,"is_reserved":false,"is_disabled":false,"rental_uris":{"android":"levelo://app?vid=6b709f20-8c1b-467d-911c-16baafb0e489","ios":"levelo://app?vid=6b709f20-8c1b-467d-911c-16baafb0e489"},"vehicle_type_id":"4","last_reported":1752444618,"current_range_meters":19200,"station_id":"ce4bh692rcd13ifvqea0","pricing_plan_id":"cebpf4jnsgd1na2vs0mg"},