{"last_updated":1711296464,"ttl":30,"version":"2.2","data":{"bikes":[{"bike_id":"46620f86-fc25-45e3-9c09-2d6ab8714e0f","system_id":"levelo_inurba_marseille","lat":43.31232,"lon":5.36864,"is_reserved":false,"is_disabled":false,"rental_uris":{"android":"levelo://app?vid=46620f86-fc25-45e3-9c09-2d6ab8714e0f","ios":"levelo://app?vid=46620f86-fc25-45e3-9c09-2d6ab8714e0f"},"vehicle_type_id":"4","last_reported":1711296464,"current_range_meters":6400,"station_id":"ce4bgl92rcd13ifvqbq0","pricing_plan_id":"cebpf4jnsgd1na2vs0mg"},{"bike_id":"e0116b04-0823-4203-b68d-5895ef6198d4","system_id":"levelo_inurba_marseille","lat":43.31225,"lon":5.36865,"is_reserved":false,"is_disabled":false,"rental_uris":{"android":"levelo://app?vid=e0116b04-0823-4203-b68d-5895ef6198d4","ios":"levelo://app?vid=e0116b04-0823-4203-b68d-5895ef6198d4"},"vehicle_type_id":"4","last_reported":1711296464,"current_range_meters":2800,"station_id":"ce4bgl92rcd13ifvqbq0","pricing_plan_id":"cebpf4jnsgd1na2vs0mg"},{"bike_id":"86ff44b1-8cf4-46b1-89db-315c8dfb3ddf","system_id":"levelo_inurba_marseille","lat":43.312239,"lon":5.368562,"is_reserved":false,"is_disabled":false,"rental_uris":{"android":"levelo://app?vid=86ff44b1-8cf4-46b1-89db-315c8dfb3ddf","ios":"levelo://app?vid=86ff44b1-8cf4-46b1-89db-315c8dfb3ddf"},"vehicle_type_id":"4","last_reported":1711296464,"current_range_meters":20000,"station_id":"ce4bgl92rcd13ifvqbq0","pricing_plan_id":"cebpf4jnsgd1na2vs0mg"},{"bike_id":"cef17289-211c-44d0-9b56-ed855f2f9d47","system_id":"levelo_inurba_marseille","lat":43.314811,"lon":5.373103,"is_reserved":false,"is_disabled":false,"rental_uris":{"android":"levelo://app?vid=cef17289-211c-44d0-9b56-ed855f2f9d47","ios":"levelo://app?vid=cef17289-211c-44d0-9b56-ed855f2f9d47"},"vehicle_type_id":"4","last_reported":1711296464,"current_range_meters":12000,"station_id":"ce4bgt12rcd13ifvqcd0","pricing_plan_id":"cebpf4jnsgd1na2vs0mg"},{"bike_id":"1ca70ee7-3dc6-44bd-9ad4-bf485087f510","system_id":"levelo_inurba_marseille","lat":43.314811,"lon":5.373103,"is_reserved":false,"is_disabled":false,"rental_uris":{"android":"levelo://app?vid=1ca70ee7-3dc6-44bd-9ad4-bf485087f510","ios":"levelo://app?vid=1ca70ee7-3dc6-44bd-9ad4-bf485087f510"},"vehicle_type_id":"4","last_reported":1711296464,"current_range_meters":12400,"station_id":"ce4bgt12rcd13ifvqcd0","pricing_plan_id":"cebpf4jnsgd1na2vs0mg"},{"bike_id":"aac9bebc-68fa-4aff-90b2-12a0c80594c9","system_id":"levelo_inurba_marseille","lat":43.314811,"lon":5.373104,"is_reserved":false,"is_disabled":false,"rental_uris":{"android":"levelo://app?vid=aac9bebc-68fa-4aff-90b2-12a0c80594c9","ios":"levelo://app?vid=aac9bebc-68fa-4aff-90b2-12a0c80594c9"},"vehicle_type_id":"4","last_reported":1711296464,"current_range_meters":5600,"station_id":"ce4bgt12rcd13ifvqcd0","pricing_plan_id":"cebpf4jnsgd1na2vs0mg"},{"bike_id":"ddf12f87-b294-438d-8693-3697daec2de3","system_id":"levelo_inurba_marseille","lat":43.309039,"lon":5.371797,"is_reserved":false,"is_disabled":false,"rental_uris":{"android":"levelo://app?vid=ddf12f87-b294-438d-8693-3697daec2de3","ios":"levelo://app?vid=ddf12f87-b294-438d-8693-3697daec2de3"},"vehicle_type_id":"4","last_reported":1711296464,"current_range_meters":8000,"station_id":"ce4bguh2rcd13ifvqckg","pricing_plan_id":"cebpf4jnsgd1na2vs0mg"},{"bike_id":"44c0776c-64dc-4e4f-8169-6e74ad528b7d","system_id":"levelo_inurba_marseille","lat":43.309039,"lon":5.371797,"is_reserved":false,"is_disabled":false,"rental_uris":{"android":"levelo://app?vid=44c0776c-64dc-4e4f-8169-6e74ad528b7d","ios":"levelo://app?vid=44c0776c-64dc-4e4f-8169-6e74ad528b7d"},"vehicle_type_id":"4","last_reported":1711296464,"current_range_meters":8000,"station_id":"ce4bguh2rcd13ifvqckg","pricing_plan_id":"cebpf4jnsgd1na2vs0mg"},{"bike_id":"98d6f15c-c0f9-4205-8470-726b1b7203ea","system_id":"levelo_inurba_marseille","lat":43.309034,"lon":5.371783,"is_reserved":false,"is_disabled":false,"rental_uris":{"android":"levelo://app?vid=98d6f15c-c0f9-4205-8470-726b1b7203ea","ios":"levelo://app?vid=98d6f15c-c0f9-4205-8470-726b1b7203ea"},"vehicle_type_id":"4","last_reported":1711296464,"current_range_meters":4800,"station_id":"ce4bguh2rcd13ifvqckg","pricing_plan_id":"cebpf4jnsgd1na2vs0mg"},{"bike_id":"4f006df7-4021-4894-a978-e7fbd68140e6","system_id":"levelo_inurba_marseille","lat":43.313627,"lon":5.37686,"is_reserved":false,"is_disabled":false,"rental_uris":{"android":"levelo://app?vid=4f006df7-4021-4894-a978-e7fbd68140e6","ios":"levelo://app?vid=4f006df7-4021-4894-a978-e7fbd68140e6"},"vehicle_type_id":"4","last_reported":1711296464,"current_range_meters":7600,"station_id":"","pricing_plan_id":"cebpf4jnsgd1na2vs0mg"},{"bike_id":"af746882-eb8a-471f-995c-e5e1fe371f6f","system_id":"levelo_inurba_marseille","lat":43.305714,"lon":5.365633,"is_reserved":false,"is_disabled":false,"rental_uris":{"android":"levelo://app?vid=af746882-eb8a-471f-995c-e5e1fe371f6f","ios":"levelo://app?vid=af746882-eb8a-471f-995c-e5e1fe371f6f"},"vehicle_type_id":"4","last_reported":1711296464,"current_range_meters":0,"station_id":"ce4bgs12rcd13ifvqcag","pricing_plan_id":"cebpf4jnsgd1na2vs0mg"},{"bike_id":"1f3a9f86-641f-4f24-a4cd-610dfb2c0a11","system_id":"levelo_inurba_marseille","lat":43.31121,"lon":5.37751,"is_reserved":false,"is_disabled":false,"rental_uris":{"android":"levelo://app?vid=1f3a9f86-641f-4f24-a4cd-610dfb2c0a11","ios":"levelo://app?vid=1f3a9f86-641f-4f24-a4cd-610dfb2c0a11"},"vehicle_type_id":"4","last_reported":1711296464,"current_range_meters":0,"station_id":"ce4bgth2rcd13ifvqch0","pricing_plan_id":"cebpf4jnsgd1na2vs0mg"},{"bike_id":"46fd0756-63c9-443a-9379-4adf32e5fbc8","system_id":"levelo_inurba_marseille","lat":43.311131,"lon":5.377651,"is_reserved":false,"is_disabled":false,"rental_uris":{"android":"levelo://app?vid=46fd0756-63c9-443a-9379-4adf32e5fbc8","ios":"levelo://app?vid=46fd0756-63c9-443a-9379-4adf32e5fbc8"},"vehicle_type_id":"4","last_reported":1711296464,"current_range_meters":21600,"station_id":"ce4bgt92rcd13ifvqcg0","pricing_plan_id":"cebpf4jnsgd1na2vs0mg"},{"bike_id":"a2421090-3220-4118-8a21-33f3df72d885","system_id":"levelo_inurba_marseille","lat":43.311131,"lon":5.377651,"is_reserved":false,"is_disabled":false,"rental_uris":{"android":"levelo://app?vid=a2421090-3220-4118-8a21-33f3df72d885","ios":"levelo://app?vid=a2421090-3220-4118-8a21-33f3df72d885"},"vehicle_type_id":"4","last_reported":1711296464,"current_range_meters":9200,"station_id":"ce4bgt92rcd13ifvqcg0","pricing_plan_id":"cebpf4jnsgd1na2vs0mg"},{"bike_id":"d8fb0bce-42f1-48a1-9300-854469927870","system_id":"levelo_inurba_marseille","lat":43.307945,"lon":5.376487,"is_reserved":false,"is_disabled":false,"rental_uris":{"android":"levelo://app?vid=d8fb0bce-42f1-48a1-9300-854469927870","ios":"levelo://app?vid=d8fb0bce-42f1-48a1-9300-854469927870"},"vehicle_type_id":"4","last_reported":1711296464,"current_range_meters":25600,"station_id":"ce4bgv92rcd13ifvqcq0","pricing_plan_id":"cebpf4jnsgd1na2vs0mg"},{"bike_id":"3bf40f28-65db-4994-8742-ef4e4063f23f","system_id":"levelo_inurba_marseille","lat":43.30776,"lon":5.37651,"is_reserved":false,"is_disabled":false,"rental_uris":{"android":"levelo://app?vid=3bf40f28-65db-4994-8742-ef4e4063f23f","ios":"levelo://app?vid=3bf40f28-65db-4994-8742-ef4e4063f23f"},"vehicle_type_id":"4","last_reported":1711296464,"current_range_meters":0,"station_id":"ce4bgv92rcd13ifvqcq0","pricing_plan_id":"cebpf4jnsgd1na2vs0mg"},{"bike_id":"b916e65d-9470-4670-a63f-7acc05595928","system_id":"levelo_inurba_marseille","lat":43.31954,"lon":5.37412,"is_reserved":false,"is_disabled":false,"rental_uris":{"android":"levelo://app?vid=b916e65d-9470-4670-a63f-7acc05595928","ios":"levelo://app?vid=b916e65d-9470-4670-a63f-7acc05595928"},"vehicle_type_id":"4","last_reported":1711296464,"current_range_meters":21200,"station_id":"","pricing_plan_id":"cebpf4jnsgd1na2vs0mg"},{"bike_id":"6488f3de-3644-4fda-805b-57a4aee8b263","system_id":"levelo_inurba_marseille","lat":43.30777,"lon":5.37654,"is_reserved":false,"is_disabled":false,"rental_uris":{"android":"levelo://app?vid=6488f3de-3644-4fda-805b-57a4aee8b263","ios":"levelo://app?vid=6488f3de-3644-4fda-805b-57a4aee8b263"},"vehicle_type_id":"4","last_reported":1711296464,"current_range_meters":0,"station_id":"ce4bgv92rcd13ifvqcq0","pricing_plan_id":"cebpf4jnsgd1na2vs0mg"},{"bike_id":"238ecaa1-31b2-4d16-b3bb-7e6befbf3378","system_id":"levelo_inurba_marseille","lat":43.313724,"lon":5.379312,"is_reserved":false,"is_disabled":false,"rental_uris":{"android":"levelo://app?vid=238ecaa1-31b2-4d16-b3bb-7e6befbf3378","ios":"levelo://app?vid=238ecaa1-31b2-4d16-b3bb-7e6befbf3378"},"vehicle_type_id":"4","last_reported":1711296464,"current_range_meters":12400,"station_id":"","pricing_plan_id":"cebpf4jnsgd1na2vs0mg"},{"bike_id":"f997c335-4b60-4199-a051-6f3e3b5cc1d6","system_id":"levelo_inurba_marseille","lat":43.315289,"lon":5.380349,"is_reserved":false,"is_disabled":false,"rental_uris":{"android":"levelo://app?vid=f997c335-4b60-4199-a051-6f3e3b5cc1d6","ios":"levelo://app?vid=f997c335-4b60-4199-a051-6f3e3b5cc1d6"},"vehicle_type_id":"4","last_reported":1711296464,"current_range_meters":5200,"station_id":"ce4bhsp2rcd13ifvqi50","pricing_plan_id":"cebpf4jnsgd1na2vs0mg"},{"bike_id":"9db12367-56c0-4744-be43-c88c2c01819b","system_id":"levelo_inurba_marseille","lat":43.315289,"lon":5.380349,"is_reserved":false,"is_disabled":false,"rental_uris":{"android":"levelo://app?vid=9db12367-56c0-4744-be43-c88c2c01819b","ios":"levelo://app?vid=9db12367-56c0-4744-be43-c88c2c01819b"},"vehicle_type_id":"4","last_reported":1711296464,"current_range_meters":23200,"station_id":"ce4bhsp2rcd13ifvqi50","pricing_plan_id":"cebpf4jnsgd1na2vs0mg"},{"bike_id":"538c0eb7-fcbf-48bd-8de5-676ac55de2bc","system_id":"levelo_inurba_marseille","lat":43.315289,"lon":5.380349,"is_reserved":false,"is_disabled":false,"rental_uris":{"android":"levelo://app?vid=538c0eb7-fcbf-48bd-8de5-676ac55de2bc","ios":"levelo://app?vid=538c0eb7-fcbf-48bd-8de5-676ac55de2bc"},"vehicle_type_id":"4","last_reported":1711296464,"current_range_meters":28000,"station_id":"ce4bhsp2rcd13ifvqi50","pricing_plan_id":"cebpf4jnsgd1na2vs0mg"},{"bike_id":"f53f139f-107d-4a1a-a1f0-0ebc0262f1db","system_id":"levelo_inurba_marseille","lat":43.303227,"lon":5.375892,"is_reserved":false,"is_disabled":false,"rental_uris":{"android":"levelo://app?vid=f53f139f-107d-4a1a-a1f0-0ebc0262f1db","ios":"levelo://app?vid=f53f139f-107d-4a1a-a1f0-0ebc0262f1db"},"vehicle_type_id":"4","last_reported":1711296464,"current_range_meters":5600,"station_id":"","pricing_plan_id":"cebpf4jnsgd1na2vs0mg"},{"bike_id":"720fbd49-3a93-4e02-a1ef-87c42693441c","system_id":"levelo_inurba_marseille","lat":43.308012,"lon":5.381511,"is_reserved":false,"is_disabled":false,"rental_uris":{"android":"levelo://app?vid=720fbd49-3a93-4e02-a1ef-87c42693441c","ios":"levelo://app?vid=720fbd49-3a93-4e02-a1ef-87c42693441c"},"vehicle_type_id":"4","last_reported":1711296464,"current_range_meters":8800,"station_id":"ce4bgt12rcd13ifvqce0","pricing_plan_id":"cebpf4jnsgd1na2vs0mg"},{"bike_id":"e2fcd617-8197-478f-8e7c-b29717e1b8af","system_id":"levelo_inurba_marseille","lat":43.308012,"lon":5.381511,"is_reserved":false,"is_disabled":false,"rental_uris":{"android":"levelo://app?vid=e2fcd617-8197-478f-8e7c-b29717e1b8af","ios":"levelo://app?vid=e2fcd617-8197-478f-8e7c-b29717e1b8af"},"vehicle_type_id":"4","last_reported":1711296464,"current_range_meters":0,"station_id":"ce4bgt12rcd13ifvqce0","pricing_plan_id":"cebpf4jnsgd1na2vs0mg"},{"bike_id":"4d63faba-bc87-4e9a-9b56-2ba5d39274c3","system_id":"levelo_inurba_marseille","lat":43.308012,"lon":5.381511,"is_reserved":false,"is_disabled":false,"rental_uris":{"android":"levelo://app?vid=4d63faba-bc87-4e9a-9b56-2ba5d39274c3","ios":"levelo://app?vid=4d63faba-bc87-4e9a-9b56-2ba5d39274c3"},"vehicle_type_id":"4","last_reported":1711296464,"current_range_meters":2000,"station_id":"ce4bgt12rcd13ifvqce0","pricing_plan_id":"cebpf4jnsgd1na2vs0mg"},{"bike_id":"fa05d3e5-f409-4e05-ace7-f6f819e528e8","system_id":"levelo_inurba_marseille","lat":43.32472,"lon":5.36572,"is_reserved":false,"is_disabled":false,"rental_uris":{"android":"levelo://app?vid=fa05d3e5-f409-4e05-ace7-f6f819e528e8","ios":"levelo://app?vid=fa05d3e5-f409-4e05-ace7-f6f819e528e8"},"vehicle_type_id":"4","last_reported":1711296464,"current_range_meters":400,"station_id":"ce4bhs12rcd13ifvqhvg","pricing_plan_id":"cebpf4jnsgd1na2vs0mg"},{"bike_id":"95b12901-e7d8-4424-a160-ec375a178231","system_id":"levelo_inurba_marseille","lat":43.304606,"lon":5.379026,"is_reserved":false,"is_disabled":false,"rental_uris":{"android":"levelo://app?vid=95b12901-e7d8-4424-a160-ec375a178231","ios":"levelo://app?vid=95b12901-e7d8-4424-a160-ec375a178231"},"vehicle_type_id":"4","last_reported":1711296464,"current_range_meters":13200,"station_id":"ce4bgup2rcd13ifvqcn0","pricing_plan_id":"cebpf4jnsgd1na2vs0mg"},{"bike_id":"cb6a724e-6fc0-4886-919f-43c5028fc52c","system_id":"levelo_inurba_marseille","lat":43.324771,"lon":5.36557,"is_reserved":false,"is_disabled":false,"rental_uris":{"android":"levelo://app?vid=cb6a724e-6fc0-4886-919f-43c5028fc52c","ios":"levelo://app?vid=cb6a724e-6fc0-4886-919f-43c5028fc52c"},"vehicle_type_id":"4","last_reported":1711296464,"current_range_meters":0,"station_id":"ce4bhs12rcd13ifvqhvg","pricing_plan_id":"cebpf4jnsgd1na2vs0mg"},{"bike_id":"599fdd68-1ffd-46fe-8adb-244452779a36","system_id":"levelo_inurba_marseille","lat":43.324771,"lon":5.36557,"is_reserved":false,"is_disabled":false,"rental_uris":{"android":"levelo://app?vid=599fdd68-1ffd-46fe-8adb-244452779a36","ios":"levelo://app?vid=599fdd68-1ffd-46fe-8adb-244452779a36"},"vehicle_type_id":"4","last_reported":1711296464,"current_range_meters":13600,"station_id":"ce4bhs12rcd13ifvqhvg","pricing_plan_id":"cebpf4jnsgd1na2vs0mg"},{"bike_id":"ca7e6977-44ec-4b1f-8fe2-f0a04aa8303f","system_id":"levelo_inurba_marseille","lat":43.324771,"lon":5.36557,"is_reserved":false,"is_disabled":false,"rental_uris":{"android":"levelo://app?vid=ca7e6977-44ec-4b1f-8fe2-f0a04aa8303f","ios":"levelo://app?vid=ca7e6977-44ec-4b1f-8fe2-f0a04aa8303f"},"vehicle_type_id":"4","last_reported":1711296464,"current_range_meters":24000,"station_id":"ce4bhs12rcd13ifvqhvg","pricing_plan_id":"cebpf4jnsgd1na2vs0mg"},{"bike_id":"1da5e40e-58a0-4d1b-a7e7-2641b7356d14","system_id":"levelo_inurba_marseille","lat":43.324833,"lon":5.365657,"is_reserved":false,"is_disabled":false,"rental_uris":{"android":"levelo://app?vid=1da5e40e-58a0-4d1b-a7e7-2641b7356d14","ios":"levelo://app?vid=1da5e40e-58a0-4d1b-a7e7-2641b7356d14"},"vehicle_type_id":"4","last_reported":1711296464,"current_range_meters":0,"station_id":"ce4bhs12rcd13ifvqhvg","pricing_plan_id":"cebpf4jnsgd1na2vs0mg"},{"bike_id":"b88553c7-39de-4a84-8d1f-6c11f9d43ddb","system_id":"levelo_inurba_marseille","lat":43.324771,"lon":5.36557,"is_reserved":false,"is_disabled":false,"rental_uris":{"android":"levelo://app?vid=b88553c7-39de-4a84-8d1f-6c11f9d43ddb","ios":"levelo://app?vid=b88553c7-39de-4a84-8d1f-6c11f9d43ddb"},"vehicle_type_id":"4","last_reported":1711296464,"current_range_meters":0,"station_id":"ce4bhs12rcd13ifvqhvg","pricing_plan_id":"cebpf4jnsgd1na2vs0mg"},{"bike_id":"3aacaf08-9deb-470c-aff0-c811ea4c9093","system_id":"levelo_inurba_marseille","lat":43.324771,"lon":5.36557,"is_reserved":false,"is_disabled":false,"rental_uris":{"android":"levelo://app?vid=3aacaf08-9deb-470c-aff0-c811ea4c9093","ios":"levelo://app?vid=3aacaf08-9deb-470c-aff0-c811ea4c9093"},"vehicle_type_id":"4","last_reported":1711296464,"current_range_meters":29200,"station_id":"ce4bhs12rcd13ifvqhvg","pricing_plan_id":"cebpf4jnsgd1na2vs0mg"},{"bike_id":"6cc20f86-eab6-4635-8f90-6882d139dbf5","system_id":"levelo_inurba_marseille","lat":43.324771,"lon":5.36557,"is_reserved":false,"is_disabled":false,"rental_uris":{"android":"levelo://app?vid=6cc20f86-eab6-4635-8f90-6882d139dbf5","ios":"levelo://app?vid=6cc20f86-eab6-4635-8f90-6882d139dbf5"},"vehicle_type_id":"4","last_reported":1711296464,"current_range_meters":24000,"station_id":"ce4bhs12rcd13ifvqhvg","pricing_plan_id":"cebpf4jnsgd1na2vs0mg"},{"bike_id":"7da53701-90d3-4a38-995f-79eab59d821c","system_id":"levelo_inurba_marseille","lat":43.324771,"lon":5.36557,"is_reserved":false,"is_disabled":false,"rental_uris":{"android":"levelo://app?vid=7da53701-90d3-4a38-995f-79eab59d821c","ios":"levelo://app?vid=7da53701-90d3-4a38-995f-79eab59d821c"},"vehicle_type_id":"4","last_reported":1711296464,"current_range_meters":11200,"station_id":"ce4bhs12rcd13ifvqhvg","pricing_plan_id":"cebpf4jnsgd1na2vs0mg"},{"bike_id":"891b0779-ede4-45b9-b9cd-ec3f50e06509","system_id":"levelo_inurba_marseille","lat":43.304197,"lon":5.378898,"is_reserved":false,"is_disabled":false,"rental_uris":{"android":"levelo://app?vid=891b0779-ede4-45b9-b9cd-ec3f50e06509","ios":"levelo://app?vid=891b0779-ede4-45b9-b9cd-ec3f50e06509"},"vehicle_type_id":"4","last_reported":1711296464,"current_range_meters":0,"station_id":"ce4bgup2rcd13ifvqcn0","pricing_plan_id":"cebpf4jnsgd1na2vs0mg"},{"bike_id":"10827d88-3ce2-49d6-ba24-4064271fb189","system_id":"levelo_inurba_marseille","lat":43.324944,"lon":5.365546,"is_reserved":false,"is_disabled":false,"rental_uris":{"android":"levelo://app?vid=10827d88-3ce2-49d6-ba24-4064271fb189","ios":"levelo://app?vid=10827d88-3ce2-49d6-ba24-4064271fb189"},"vehicle_type_id":"4","last_reported":1711296464,"current_range_meters":0,"station_id":"ce4bhs12rcd13ifvqhvg","pricing_plan_id":"cebpf4jnsgd1na2vs0mg"},{"bike_id":"8c6b2f5f-352c-4c04-ab35-3075bbf03e98","system_id":"levelo_inurba_marseille","lat":43.3108,"lon":5.38365,"is_reserved":false,"is_disabled":false,"rental_uris":{"android":"levelo://app?vid=8c6b2f5f-352c-4c04-ab35-3075bbf03e98","ios":"levelo://app?vid=8c6b2f5f-352c-4c04-ab35-3075bbf03e98"},"vehicle_type_id":"4","last_reported":1711296464,"current_range_meters":0,"station_id":"ce4bgv92rcd13ifvqcr0","pricing_plan_id":"cebpf4jnsgd1na2vs0mg"},{"bike_id":"32e9811e-c6c9-436c-9252-849b2b385203","system_id":"levelo_inurba_marseille","lat":43.310804,"lon":5.38359,"is_reserved":false,"is_disabled":false,"rental_uris":{"android":"levelo://app?vid=32e9811e-c6c9-436c-9252-849b2b385203","ios":"levelo://app?vid=32e9811e-c6c9-436c-9252-849b2b385203"},"vehicle_type_id":"4","last_reported":1711296464,"current_range_meters":15200,"station_id":"ce4bgv92rcd13ifvqcr0","pricing_plan_id":"cebpf4jnsgd1na2vs0mg"},{"bike_id":"9fee9b9b-a740-46c5-96bd-8f0e79a39c23","system_id":"levelo_inurba_marseille","lat":43.319935,"lon":5.381699,"is_reserved":false,"is_disabled":false,"rental_uris":{"android":"levelo://app?vid=9fee9b9b-a740-46c5-96bd-8f0e79a39c23","ios":"levelo://app?vid=9fee9b9b-a740-46c5-96bd-8f0e79a39c23"},"vehicle_type_id":"4","last_reported":1711296464,"current_range_meters":0,"station_id":"ce4bhr12rcd13ifvqhpg","pricing_plan_id":"cebpf4jnsgd1na2vs0mg"},{"bike_id":"6c1e3c51-cd5a-469b-a350-c7f83832aa8a","system_id":"levelo_inurba_marseille","lat":43.319935,"lon":5.381699,"is_reserved":false,"is_disabled":false,"rental_uris":{"android":"levelo://app?vid=6c1e3c51-cd5a-469b-a350-c7f83832aa8a","ios":"levelo://app?vid=6c1e3c51-cd5a-469b-a350-c7f83832aa8a"},"vehicle_type_id":"4","last_reported":1711296464,"current_range_meters":4400,"station_id":"ce4bhr12rcd13ifvqhpg","pricing_plan_id":"cebpf4jnsgd1na2vs0mg"},{"bike_id":"23b0f80a-60c5-4f7d-be9c-858f81c52a7d","system_id":"levelo_inurba_marseille","lat":43.300138,"lon":5.371186,"is_reserved":false,"is_disabled":false,"rental_uris":{"android":"levelo://app?vid=23b0f80a-60c5-4f7d-be9c-858f81c52a7d","ios":"levelo://app?vid=23b0f80a-60c5-4f7d-be9c-858f81c52a7d"},"vehicle_type_id":"4","last_reported":1711296464,"current_range_meters":0,"station_id":"ce4bgrp2rcd13ifvqc9g","pricing_plan_id":"cebpf4jnsgd1na2vs0mg"},{"bike_id":"d0582870-158e-44f8-87d1-c215b1119565","system_id":"levelo_inurba_marseille","lat":43.299222,"lon":5.365554,"is_reserved":false,"is_disabled":false,"rental_uris":{"android":"levelo://app?vid=d0582870-158e-44f8-87d1-c215b1119565","ios":"levelo://app?vid=d0582870-158e-44f8-87d1-c215b1119565"},"vehicle_type_id":"4","last_reported":1711296464,"current_range_meters":0,"station_id":"ce4bgm92rcd13ifvqbr0","pricing_plan_id":"cebpf4jnsgd1na2vs0mg"},{"bike_id":"ba709437-82b5-4c74-974c-4c50a356b816","system_id":"levelo_inurba_marseille","lat":43.319935,"lon":5.381699,"is_reserved":false,"is_disabled":false,"rental_uris":{"android":"levelo://app?vid=ba709437-82b5-4c74-974c-4c50a356b816","ios":"levelo://app?vid=ba709437-82b5-4c74-974c-4c50a356b816"},"vehicle_type_id":"4","last_reported":1711296464,"current_range_meters":14800,"station_id":"ce4bhr12rcd13ifvqhpg","pricing_plan_id":"cebpf4jnsgd1na2vs0mg"},{"bike_id":"87e73152-e8f1-41c2-9e0c-697b60c394f3","system_id":"levelo_inurba_marseille","lat":43.29974,"lon":5.37176,"is_reserved":false,"is_disabled":false,"rental_uris":{"android":"levelo://app?vid=87e73152-e8f1-41c2-9e0c-697b60c394f3","ios":"levelo://app?vid=87e73152-e8f1-41c2-9e0c-697b60c394f3"},"vehicle_type_id":"4","last_reported":1711296464,"current_range_meters":0,"station_id":"ce4bgr92rcd13ifvqc7g","pricing_plan_id":"cebpf4jnsgd1na2vs0mg"},{"bike_id":"6848551d-5946-422e-82a1-569f13a98db2","system_id":"levelo_inurba_marseille","lat":43.29846,"lon":5.36277,"is_reserved":false,"is_disabled":false,"rental_uris":{"android":"levelo://app?vid=6848551d-5946-422e-82a1-569f13a98db2","ios":"levelo://app?vid=6848551d-5946-422e-82a1-569f13a98db2"},"vehicle_type_id":"4","last_reported":1711296464,"current_range_meters":0,"station_id":"ce4bgpp2rcd13ifvqc3g","pricing_plan_id":"cebpf4jnsgd1na2vs0mg"},{"bike_id":"b8d059d4-2c25-43b0-bc6b-7043f0330c88","system_id":"levelo_inurba_marseille","lat":43.299243,"lon":5.374807,"is_reserved":false,"is_disabled":false,"rental_uris":{"android":"levelo://app?vid=b8d059d4-2c25-43b0-bc6b-7043f0330c88","ios":"levelo://app?vid=b8d059d4-2c25-43b0-bc6b-7043f0330c88"},"vehicle_type_id":"4","last_reported":1711296464,"current_range_meters":10400,"station_id":"ce4bgjh2rcd13ifvqbg0","pricing_plan_id":"cebpf4jnsgd1na2vs0mg"},{"bike_id":"e7644eb4-4caa-45c9-aa1f-83e2a1c8f37f","system_id":"levelo_inurba_marseille","lat":43.299243,"lon":5.37481,"is_reserved":false,"is_disabled":false,"rental_uris":{"android":"levelo://app?vid=e7644eb4-4caa-45c9-aa1f-83e2a1c8f37f","ios":"levelo://app?vid=e7644eb4-4caa-45c9-aa1f-83e2a1c8f37f"},"vehicle_type_id":"4","last_reported":1711296464,"current_range_meters":3600,"station_id":"ce4bgjh2rcd13ifvqbg0","pricing_plan_id":"cebpf4jnsgd1na2vs0mg"},{"bike_id":"d9c4384d-3e00-49f9-84c8-23ee2e479584","system_id":"levelo_inurba_marseille","lat":43.311722,"lon":5.387247,"is_reserved":false,"is_disabled":false,"rental_uris":{"android":"levelo://app?vid=d9c4384d-3e00-49f9-84c8-23ee2e479584","ios":"levelo://app?vid=d9c4384d-3e00-49f9-84c8-23ee2e479584"},"vehicle_type_id":"4","last_reported":1711296464,"current_range_meters":7200,"station_id":"ce4bgv12rcd13ifvqcp0","pricing_plan_id":"cebpf4jnsgd1na2vs0mg"},{"bike_id":"1d11b82e-ed4d-4dc7-a2af-92b22cc1ecc6","system_id":"levelo_inurba_marseille","lat":43.299243,"lon":5.374807,"is_reserved":false,"is_disabled":false,"rental_uris":{"android":"levelo://app?vid=1d11b82e-ed4d-4dc7-a2af-92b22cc1ecc6","ios":"levelo://app?vid=1d11b82e-ed4d-4dc7-a2af-92b22cc1ecc6"},"vehicle_type_id":"4","last_reported":1711296464,"current_range_meters":8000,"station_id":"ce4bgjh2rcd13ifvqbg0","pricing_plan_id":"cebpf4jnsgd1na2vs0mg"},{"bike_id":"feead7e7-9cee-4c57-94a6-da647512767c","system_id":"levelo_inurba_marseille","lat":43.322896,"lon":5.382515,"is_reserved":false,"is_disabled":false,"rental_uris":{"android":"levelo://app?vid=feead7e7-9cee-4c57-94a6-da647512767c","ios":"levelo://app?vid=feead7e7-9cee-4c57-94a6-da647512767c"},"vehicle_type_id":"4","last_reported":1711296464,"current_range_meters":2800,"station_id":"ce4bhr12rcd13ifvqhqg","pricing_plan_id":"cebpf4jnsgd1na2vs0mg"},{"bike_id":"5f24820b-6f11-4d7d-800a-ef3c0874d7ec","system_id":"levelo_inurba_marseille","lat":43.3229,"lon":5.38263,"is_reserved":false,"is_disabled":false,"rental_uris":{"android":"levelo://app?vid=5f24820b-6f11-4d7d-800a-ef3c0874d7ec","ios":"levelo://app?vid=5f24820b-6f11-4d7d-800a-ef3c0874d7ec"},"vehicle_type_id":"4","last_reported":1711296464,"current_range_meters":17200,"station_id":"ce4bhr12rcd13ifvqhqg","pricing_plan_id":"cebpf4jnsgd1na2vs0mg"},{"bike_id":"3ff125a5-dff1-4591-b6cc-449dc2424878","system_id":"levelo_inurba_marseille","lat":43.32289,"lon":5.382673,"is_reserved":false,"is_disabled":false,"rental_uris":{"android":"levelo://app?vid=3ff125a5-dff1-4591-b6cc-449dc2424878","ios":"levelo://app?vid=3ff125a5-dff1-4591-b6cc-449dc2424878"},"vehicle_type_id":"4","last_reported":1711296464,"current_range_meters":1600,"station_id":"ce4bhr12rcd13ifvqhqg","pricing_plan_id":"cebpf4jnsgd1na2vs0mg"},{"bike_id":"8b004ee8-7400-4db7-97a8-7a3b78ef5c51","system_id":"levelo_inurba_marseille","lat":43.32295,"lon":5.382602,"is_reserved":false,"is_disabled":false,"rental_uris":{"android":"levelo://app?vid=8b004ee8-7400-4db7-97a8-7a3b78ef5c51","ios":"levelo://app?vid=8b004ee8-7400-4db7-97a8-7a3b78ef5c51"},"vehicle_type_id":"4","last_reported":1711296464,"current_range_meters":24000,"station_id":"ce4bhr12rcd13ifvqhqg","pricing_plan_id":"cebpf4jnsgd1na2vs0mg"},{"bike_id":"a7e62bc6-8c2b-459e-9b1c-8a3ce905028e","system_id":"levelo_inurba_marseille","lat":43.322872,"lon":5.382756,"is_reserved":false,"is_disabled":false,"rental_uris":{"android":"levelo://app?vid=a7e62bc6-8c2b-459e-9b1c-8a3ce905028e","ios":"levelo://app?vid=a7e62bc6-8c2b-459e-9b1c-8a3ce905028e"},"vehicle_type_id":"4","last_reported":1711296464,"current_range_meters":8400,"station_id":"ce4bhr12rcd13ifvqhqg","pricing_plan_id":"cebpf4jnsgd1na2vs0mg"},{"bike_id":"9607cebd-f2b1-4cda-94e6-b812c1eeae5d","system_id":"levelo_inurba_marseille","lat":43.322872,"lon":5.382756,"is_reserved":false,"is_disabled":false,"rental_uris":{"android":"levelo://app?vid=9607cebd-f2b1-4cda-94e6-b812c1eeae5d","ios":"levelo://app?vid=9607cebd-f2b1-4cda-94e6-b812c1eeae5d"},"vehicle_type_id":"4","last_reported":1711296464,"current_range_meters":28800,"station_id":"ce4bhr12rcd13ifvqhqg","pricing_plan_id":"cebpf4jnsgd1na2vs0mg"},{"bike_id":"5d8768c3-c16c-4f03-812d-0467d2c881f1","system_id":"levelo_inurba_marseille","lat":43.322872,"lon":5.382756,"is_reserved":false,"is_disabled":false,"rental_uris":{"android":"levelo://app?vid=5d8768c3-c16c-4f03-812d-0467d2c881f1","ios":"levelo://app?vid=5d8768c3-c16c-4f03-812d-0467d2c881f1"},"vehicle_type_id":"4","last_reported":1711296464,"current_range_meters":19600,"station_id":"ce4bhr12rcd13ifvqhqg","pricing_plan_id":"cebpf4jnsgd1na2vs0mg"},{"bike_id":"452f5a12-5840-4928-8e50-d0aee6036731","system_id":"levelo_inurba_marseille","lat":43.322913,"lon":5.38271,"is_reserved":false,"is_disabled":false,"rental_uris":{"android":"levelo://app?vid=452f5a12-5840-4928-8e50-d0aee6036731","ios":"levelo://app?vid=452f5a12-5840-4928-8e50-d0aee6036731"},"vehicle_type_id":"4","last_reported":1711296464,"current_range_meters":6800,"station_id":"ce4bhr12rcd13ifvqhqg","pricing_plan_id":"cebpf4jnsgd1na2vs0mg"},{"bike_id":"85d4d71c-b2c1-426a-b0b8-be8461195f7e","system_id":"levelo_inurba_marseille","lat":43.322872,"lon":5.382756,"is_reserved":false,"is_disabled":false,"rental_uris":{"android":"levelo://app?vid=85d4d71c-b2c1-426a-b0b8-be8461195f7e","ios":"levelo://app?vid=85d4d71c-b2c1-426a-b0b8-be8461195f7e"},"vehicle_type_id":"4","last_reported":1711296464,"current_range_meters":30800,"station_id":"ce4bhr12rcd13ifvqhqg","pricing_plan_id":"cebpf4jnsgd1na2vs0mg"},{"bike_id":"a2ee1e43-dd55-4286-9b87-053cf67c3419","system_id":"levelo_inurba_marseille","lat":43.322872,"lon":5.382756,"is_reserved":false,"is_disabled":false,"rental_uris":{"android":"levelo://app?vid=a2ee1e43-dd55-4286-9b87-053cf67c3419","ios":"levelo://app?vid=a2ee1e43-dd55-4286-9b87-053cf67c3419"},"vehicle_type_id":"4","last_reported":1711296464,"current_range_meters":26400,"station_id":"ce4bhr12rcd13ifvqhqg","pricing_plan_id":"cebpf4jnsgd1na2vs0mg"},{"bike_id":"41212434-82ed-4999-82cd-fb52d58b8b75","system_id":"levelo_inurba_marseille","lat":43.29708,"lon":5.36611,"is_reserved":false,"is_disabled":false,"rental_uris":{"android":"levelo://app?vid=41212434-82ed-4999-82cd-fb52d58b8b75","ios":"levelo://app?vid=41212434-82ed-4999-82cd-fb52d58b8b75"},"vehicle_type_id":"4","last_reported":1711296464,"current_range_meters":0,"station_id":"ce4bgn12rcd13ifvqbt0","pricing_plan_id":"cebpf4jnsgd1na2vs0mg"},{"bike_id":"0cc4be99-f3fc-4eb1-8b9c-5ee1e894b8fb","system_id":"levelo_inurba_marseille","lat":43.297163,"lon":5.365866,"is_reserved":false,"is_disabled":false,"rental_uris":{"android":"levelo://app?vid=0cc4be99-f3fc-4eb1-8b9c-5ee1e894b8fb","ios":"levelo://app?vid=0cc4be99-f3fc-4eb1-8b9c-5ee1e894b8fb"},"vehicle_type_id":"4","last_reported":1711296464,"current_range_meters":0,"station_id":"ce4bgn12rcd13ifvqbt0","pricing_plan_id":"cebpf4jnsgd1na2vs0mg"},{"bike_id":"b0af47dd-2f53-4661-9eb3-9ec80e37c67c","system_id":"levelo_inurba_marseille","lat":43.296129,"lon":5.370777,"is_reserved":false,"is_disabled":false,"rental_uris":{"android":"levelo://app?vid=b0af47dd-2f53-4661-9eb3-9ec80e37c67c","ios":"levelo://app?vid=b0af47dd-2f53-4661-9eb3-9ec80e37c67c"},"vehicle_type_id":"4","last_reported":1711296464,"current_range_meters":0,"station_id":"ce4bgnh2rcd13ifvqc0g","pricing_plan_id":"cebpf4jnsgd1na2vs0mg"},{"bike_id":"7eb03494-245d-4d7f-bbd4-19fb56121861","system_id":"levelo_inurba_marseille","lat":43.29583,"lon":5.36748,"is_reserved":false,"is_disabled":false,"rental_uris":{"android":"levelo://app?vid=7eb03494-245d-4d7f-bbd4-19fb56121861","ios":"levelo://app?vid=7eb03494-245d-4d7f-bbd4-19fb56121861"},"vehicle_type_id":"4","last_reported":1711296464,"current_range_meters":0,"station_id":"ce4bgph2rcd13ifvqc2g","pricing_plan_id":"cebpf4jnsgd1na2vs0mg"},{"bike_id":"a026393f-4f86-41bb-8a1f-902076802231","system_id":"levelo_inurba_marseille","lat":43.296131,"lon":5.370773,"is_reserved":false,"is_disabled":false,"rental_uris":{"android":"levelo://app?vid=a026393f-4f86-41bb-8a1f-902076802231","ios":"levelo://app?vid=a026393f-4f86-41bb-8a1f-902076802231"},"vehicle_type_id":"4","last_reported":1711296464,"current_range_meters":1600,"station_id":"ce4bgnh2rcd13ifvqc0g","pricing_plan_id":"cebpf4jnsgd1na2vs0mg"},{"bike_id":"08deff4d-00c8-49eb-83f9-e8401eb2e297","system_id":"levelo_inurba_marseille","lat":43.29573,"lon":5.367355,"is_reserved":false,"is_disabled":false,"rental_uris":{"android":"levelo://app?vid=08deff4d-00c8-49eb-83f9-e8401eb2e297","ios":"levelo://app?vid=08deff4d-00c8-49eb-83f9-e8401eb2e297"},"vehicle_type_id":"4","last_reported":1711296464,"current_range_meters":1200,"station_id":"ce4bgph2rcd13ifvqc2g","pricing_plan_id":"cebpf4jnsgd1na2vs0mg"},{"bike_id":"d79f6b31-df6f-462e-a4d3-1297fc28a42a","system_id":"levelo_inurba_marseille","lat":43.299028,"lon":5.381509,"is_reserved":false,"is_disabled":false,"rental_uris":{"android":"levelo://app?vid=d79f6b31-df6f-462e-a4d3-1297fc28a42a","ios":"levelo://app?vid=d79f6b31-df6f-462e-a4d3-1297fc28a42a"},"vehicle_type_id":"4","last_reported":1711296464,"current_range_meters":3200,"station_id":"ce4bgj12rcd13ifvqbc0","pricing_plan_id":"cebpf4jnsgd1na2vs0mg"},{"bike_id":"56b4044a-fcbe-44a0-b598-38feeace77e2","system_id":"levelo_inurba_marseille","lat":43.309589,"lon":5.390258,"is_reserved":false,"is_disabled":false,"rental_uris":{"android":"levelo://app?vid=56b4044a-fcbe-44a0-b598-38feeace77e2","ios":"levelo://app?vid=56b4044a-fcbe-44a0-b598-38feeace77e2"},"vehicle_type_id":"4","last_reported":1711296464,"current_range_meters":19200,"station_id":"ce4bgup2rcd13ifvqco0","pricing_plan_id":"cebpf4jnsgd1na2vs0mg"},{"bike_id":"106a8d98-d539-42d9-a6eb-e9d6c9c2609d","system_id":"levelo_inurba_marseille","lat":43.309589,"lon":5.390258,"is_reserved":false,"is_disabled":false,"rental_uris":{"android":"levelo://app?vid=106a8d98-d539-42d9-a6eb-e9d6c9c2609d","ios":"levelo://app?vid=106a8d98-d539-42d9-a6eb-e9d6c9c2609d"},"vehicle_type_id":"4","last_reported":1711296464,"current_range_meters":800,"station_id":"ce4bgup2rcd13ifvqco0","pricing_plan_id":"cebpf4jnsgd1na2vs0mg"},{"bike_id":"024aa13f-dadc-410c-ae43-f75a179b8a3e","system_id":"levelo_inurba_marseille","lat":43.299028,"lon":5.381509,"is_reserved":false,"is_disabled":false,"rental_uris":{"android":"levelo://app?vid=024aa13f-dadc-410c-ae43-f75a179b8a3e","ios":"levelo://app?vid=024aa13f-dadc-410c-ae43-f75a179b8a3e"},"vehicle_type_id":"4","last_reported":1711296464,"current_range_meters":3600,"station_id":"ce4bgj12rcd13ifvqbc0","pricing_plan_id":"cebpf4jnsgd1na2vs0mg"},{"bike_id":"81eceba1-b065-487f-a86a-a273d25abeee","system_id":"levelo_inurba_marseille","lat":43.309589,"lon":5.390258,"is_reserved":false,"is_disabled":false,"rental_uris":{"android":"levelo://app?vid=81eceba1-b065-487f-a86a-a273d25abeee","ios":"levelo://app?vid=81eceba1-b065-487f-a86a-a273d25abeee"},"vehicle_type_id":"4","last_reported":1711296464,"current_range_meters":0,"station_id":"ce4bgup2rcd13ifvqco0","pricing_plan_id":"cebpf4jnsgd1na2vs0mg"},{"bike_id":"2127399f-d128-416b-8ad4-76d643702b2b","system_id":"levelo_inurba_marseille","lat":43.317557,"lon":5.390173,"is_reserved":false,"is_disabled":false,"rental_uris":{"android":"levelo://app?vid=2127399f-d128-416b-8ad4-76d643702b2b","ios":"levelo://app?vid=2127399f-d128-416b-8ad4-76d643702b2b"},"vehicle_type_id":"4","last_reported":1711296464,"current_range_meters":8800,"station_id":"ce4bhqp2rcd13ifvqhng","pricing_plan_id":"cebpf4jnsgd1na2vs0mg"},{"bike_id":"6754a9e9-66e4-4669-85ef-d70f15e7e6a9","system_id":"levelo_inurba_marseille","lat":43.31751,"lon":5.39018,"is_reserved":false,"is_disabled":false,"rental_uris":{"android":"levelo://app?vid=6754a9e9-66e4-4669-85ef-d70f15e7e6a9","ios":"levelo://app?vid=6754a9e9-66e4-4669-85ef-d70f15e7e6a9"},"vehicle_type_id":"4","last_reported":1711296464,"current_range_meters":4800,"station_id":"ce4bhqp2rcd13ifvqhng","pricing_plan_id":"cebpf4jnsgd1na2vs0mg"},{"bike_id":"655aa1d0-cd5b-4fe3-baa3-fa62dfaf2660","system_id":"levelo_inurba_marseille","lat":43.317557,"lon":5.390173,"is_reserved":false,"is_disabled":false,"rental_uris":{"android":"levelo://app?vid=655aa1d0-cd5b-4fe3-baa3-fa62dfaf2660","ios":"levelo://app?vid=655aa1d0-cd5b-4fe3-baa3-fa62dfaf2660"},"vehicle_type_id":"4","last_reported":1711296464,"current_range_meters":14400,"station_id":"ce4bhqp2rcd13ifvqhng","pricing_plan_id":"cebpf4jnsgd1na2vs0mg"},{"bike_id":"a84494ff-e488-44c6-9347-0b89aeb12141","system_id":"levelo_inurba_marseille","lat":43.317553,"lon":5.39025,"is_reserved":false,"is_disabled":false,"rental_uris":{"android":"levelo://app?vid=a84494ff-e488-44c6-9347-0b89aeb12141","ios":"levelo://app?vid=a84494ff-e488-44c6-9347-0b89aeb12141"},"vehicle_type_id":"4","last_reported":1711296464,"current_range_meters":4800,"station_id":"ce4bhqp2rcd13ifvqhng","pricing_plan_id":"cebpf4jnsgd1na2vs0mg"},{"bike_id":"b1dadc66-7bb5-4eef-ae53-cd6d60eb4035","system_id":"levelo_inurba_marseille","lat":43.31768,"lon":5.3902,"is_reserved":false,"is_disabled":false,"rental_uris":{"android":"levelo://app?vid=b1dadc66-7bb5-4eef-ae53-cd6d60eb4035","ios":"levelo://app?vid=b1dadc66-7bb5-4eef-ae53-cd6d60eb4035"},"vehicle_type_id":"4","last_reported":1711296464,"current_range_meters":11600,"station_id":"ce4bhqp2rcd13ifvqhng","pricing_plan_id":"cebpf4jnsgd1na2vs0mg"},{"bike_id":"64faaf0e-8299-47ab-9335-1274f7d2f7f6","system_id":"levelo_inurba_marseille","lat":43.317564,"lon":5.390315,"is_reserved":false,"is_disabled":false,"rental_uris":{"android":"levelo://app?vid=64faaf0e-8299-47ab-9335-1274f7d2f7f6","ios":"levelo://app?vid=64faaf0e-8299-47ab-9335-1274f7d2f7f6"},"vehicle_type_id":"4","last_reported":1711296464,"current_range_meters":7200,"station_id":"ce4bhqp2rcd13ifvqhng","pricing_plan_id":"cebpf4jnsgd1na2vs0mg"},{"bike_id":"9c00e332-e493-41ed-bbf7-57fae36097c1","system_id":"levelo_inurba_marseille","lat":43.31752,"lon":5.39034,"is_reserved":false,"is_disabled":false,"rental_uris":{"android":"levelo://app?vid=9c00e332-e493-41ed-bbf7-57fae36097c1","ios":"levelo://app?vid=9c00e332-e493-41ed-bbf7-57fae36097c1"},"vehicle_type_id":"4","last_reported":1711296464,"current_range_meters":0,"station_id":"ce4bhqp2rcd13ifvqhng","pricing_plan_id":"cebpf4jnsgd1na2vs0mg"},{"bike_id":"1ee8f471-cf0e-4190-88ea-1f0d8520c9bd","system_id":"levelo_inurba_marseille","lat":43.297357,"lon":5.379077,"is_reserved":false,"is_disabled":false,"rental_uris":{"android":"levelo://app?vid=1ee8f471-cf0e-4190-88ea-1f0d8520c9bd","ios":"levelo://app?vid=1ee8f471-cf0e-4190-88ea-1f0d8520c9bd"},"vehicle_type_id":"4","last_reported":1711296464,"current_range_meters":8400,"station_id":"","pricing_plan_id":"cebpf4jnsgd1na2vs0mg"},{"bike_id":"e9fc54cb-5712-4cef-9edd-1248036c8de5","system_id":"levelo_inurba_marseille","lat":43.298037,"lon":5.381066,"is_reserved":false,"is_disabled":false,"rental_uris":{"android":"levelo://app?vid=e9fc54cb-5712-4cef-9edd-1248036c8de5","ios":"levelo://app?vid=e9fc54cb-5712-4cef-9edd-1248036c8de5"},"vehicle_type_id":"4","last_reported":1711296464,"current_range_meters":28000,"station_id":"ce4bgip2rcd13ifvqbb0","pricing_plan_id":"cebpf4jnsgd1na2vs0mg"},{"bike_id":"e65e3541-bc50-4d32-8a54-28d1593ff37e","system_id":"levelo_inurba_marseille","lat":43.29572,"lon":5.37511,"is_reserved":false,"is_disabled":false,"rental_uris":{"android":"levelo://app?vid=e65e3541-bc50-4d32-8a54-28d1593ff37e","ios":"levelo://app?vid=e65e3541-bc50-4d32-8a54-28d1593ff37e"},"vehicle_type_id":"4","last_reported":1711296464,"current_range_meters":0,"station_id":"ce4bgh92rcd13ifvqb50","pricing_plan_id":"cebpf4jnsgd1na2vs0mg"},{"bike_id":"2af85501-30fd-477c-b0eb-f5926292e7f1","system_id":"levelo_inurba_marseille","lat":43.298037,"lon":5.381066,"is_reserved":false,"is_disabled":false,"rental_uris":{"android":"levelo://app?vid=2af85501-30fd-477c-b0eb-f5926292e7f1","ios":"levelo://app?vid=2af85501-30fd-477c-b0eb-f5926292e7f1"},"vehicle_type_id":"4","last_reported":1711296464,"current_range_meters":12800,"station_id":"ce4bgip2rcd13ifvqbb0","pricing_plan_id":"cebpf4jnsgd1na2vs0mg"},{"bike_id":"8aa208a3-8fe4-47dc-b676-a5f0a24138ac","system_id":"levelo_inurba_marseille","lat":43.304321,"lon":5.388864,"is_reserved":false,"is_disabled":false,"rental_uris":{"android":"levelo://app?vid=8aa208a3-8fe4-47dc-b676-a5f0a24138ac","ios":"levelo://app?vid=8aa208a3-8fe4-47dc-b676-a5f0a24138ac"},"vehicle_type_id":"4","last_reported":1711296464,"current_range_meters":0,"station_id":"ce4bgk12rcd13ifvqbi0","pricing_plan_id":"cebpf4jnsgd1na2vs0mg"},{"bike_id":"fe3dfbc8-2751-4836-a95d-39a5e3e1ec61","system_id":"levelo_inurba_marseille","lat":43.295748,"lon":5.37522,"is_reserved":false,"is_disabled":false,"rental_uris":{"android":"levelo://app?vid=fe3dfbc8-2751-4836-a95d-39a5e3e1ec61","ios":"levelo://app?vid=fe3dfbc8-2751-4836-a95d-39a5e3e1ec61"},"vehicle_type_id":"4","last_reported":1711296464,"current_range_meters":0,"station_id":"ce4bgh92rcd13ifvqb50","pricing_plan_id":"cebpf4jnsgd1na2vs0mg"},{"bike_id":"88d4b793-e80b-4bc5-845d-b73ea077933c","system_id":"levelo_inurba_marseille","lat":43.29566,"lon":5.3752,"is_reserved":false,"is_disabled":false,"rental_uris":{"android":"levelo://app?vid=88d4b793-e80b-4bc5-845d-b73ea077933c","ios":"levelo://app?vid=88d4b793-e80b-4bc5-845d-b73ea077933c"},"vehicle_type_id":"4","last_reported":1711296464,"current_range_meters":0,"station_id":"ce4bgh92rcd13ifvqb50","pricing_plan_id":"cebpf4jnsgd1na2vs0mg"},{"bike_id":"afcd0d49-cc0c-4c16-b737-014445afff22","system_id":"levelo_inurba_marseille","lat":43.296277,"lon":5.377108,"is_reserved":false,"is_disabled":false,"rental_uris":{"android":"levelo://app?vid=afcd0d49-cc0c-4c16-b737-014445afff22","ios":"levelo://app?vid=afcd0d49-cc0c-4c16-b737-014445afff22"},"vehicle_type_id":"4","last_reported":1711296464,"current_range_meters":0,"station_id":"ce4bgi92rcd13ifvqb90","pricing_plan_id":"cebpf4jnsgd1na2vs0mg"},{"bike_id":"c4ca4048-4c6f-4842-bd22-70f5eb3d01b2","system_id":"levelo_inurba_marseille","lat":43.296111,"lon":5.377387,"is_reserved":false,"is_disabled":false,"rental_uris":{"android":"levelo://app?vid=c4ca4048-4c6f-4842-bd22-70f5eb3d01b2","ios":"levelo://app?vid=c4ca4048-4c6f-4842-bd22-70f5eb3d01b2"},"vehicle_type_id":"4","last_reported":1711296464,"current_range_meters":0,"station_id":"ce4bgi92rcd13ifvqb90","pricing_plan_id":"cebpf4jnsgd1na2vs0mg"},{"bike_id":"bf9bf615-bce6-4b76-a67d-ae2385bcd89c","system_id":"levelo_inurba_marseille","lat":43.31461,"lon":5.39217,"is_reserved":false,"is_disabled":false,"rental_uris":{"android":"levelo://app?vid=bf9bf615-bce6-4b76-a67d-ae2385bcd89c","ios":"levelo://app?vid=bf9bf615-bce6-4b76-a67d-ae2385bcd89c"},"vehicle_type_id":"4","last_reported":1711296464,"current_range_meters":31200,"station_id":"","pricing_plan_id":"cebpf4jnsgd1na2vs0mg"},{"bike_id":"617b0e6f-676e-40f0-bbaf-c9395e5b4dcd","system_id":"levelo_inurba_marseille","lat":43.314679,"lon":5.392173,"is_reserved":false,"is_disabled":false,"rental_uris":{"android":"levelo://app?vid=617b0e6f-676e-40f0-bbaf-c9395e5b4dcd","ios":"levelo://app?vid=617b0e6f-676e-40f0-bbaf-c9395e5b4dcd"},"vehicle_type_id":"4","last_reported":1711296464,"current_range_meters":6800,"station_id":"","pricing_plan_id":"cebpf4jnsgd1na2vs0mg"},{"bike_id":"1ce2726e-1c0b-474b-8d4b-eaa4a4052289","system_id":"levelo_inurba_marseille","lat":43.299724,"lon":5.384848,"is_reserved":false,"is_disabled":false,"rental_uris":{"android":"levelo://app?vid=1ce2726e-1c0b-474b-8d4b-eaa4a4052289","ios":"levelo://app?vid=1ce2726e-1c0b-474b-8d4b-eaa4a4052289"},"vehicle_type_id":"4","last_reported":1711296464,"current_range_meters":0,"station_id":"ce4bgj92rcd13ifvqbd0","pricing_plan_id":"cebpf4jnsgd1na2vs0mg"},{"bike_id":"1e60e3dd-45c7-40ca-a287-51a1fc84a76d","system_id":"levelo_inurba_marseille","lat":43.299576,"lon":5.385072,"is_reserved":false,"is_disabled":false,"rental_uris":{"android":"levelo://app?vid=1e60e3dd-45c7-40ca-a287-51a1fc84a76d","ios":"levelo://app?vid=1e60e3dd-45c7-40ca-a287-51a1fc84a76d"},"vehicle_type_id":"4","last_reported":1711296464,"current_range_meters":400,"station_id":"ce4bgj92rcd13ifvqbd0","pricing_plan_id":"cebpf4jnsgd1na2vs0mg"},{"bike_id":"cd3ad0dd-115f-4e17-bc69-39e1287d5727","system_id":"levelo_inurba_marseille","lat":43.32365,"lon":5.38879,"is_reserved":false,"is_disabled":false,"rental_uris":{"android":"levelo://app?vid=cd3ad0dd-115f-4e17-bc69-39e1287d5727","ios":"levelo://app?vid=cd3ad0dd-115f-4e17-bc69-39e1287d5727"},"vehicle_type_id":"4","last_reported":1711296464,"current_range_meters":1600,"station_id":"ce4bhqp2rcd13ifvqhog","pricing_plan_id":"cebpf4jnsgd1na2vs0mg"},{"bike_id":"8d336fd5-4cce-4087-a3c2-d44fd8da2767","system_id":"levelo_inurba_marseille","lat":43.293009,"lon":5.374584,"is_reserved":false,"is_disabled":false,"rental_uris":{"android":"levelo://app?vid=8d336fd5-4cce-4087-a3c2-d44fd8da2767","ios":"levelo://app?vid=8d336fd5-4cce-4087-a3c2-d44fd8da2767"},"vehicle_type_id":"4","last_reported":1711296464,"current_range_meters":0,"station_id":"ce4bgi12rcd13ifvqb70","pricing_plan_id":"cebpf4jnsgd1na2vs0mg"},{"bike_id":"0e85be10-fe2f-41de-9905-4441187efc49","system_id":"levelo_inurba_marseille","lat":43.32367,"lon":5.388836,"is_reserved":false,"is_disabled":false,"rental_uris":{"android":"levelo://app?vid=0e85be10-fe2f-41de-9905-4441187efc49","ios":"levelo://app?vid=0e85be10-fe2f-41de-9905-4441187efc49"},"vehicle_type_id":"4","last_reported":1711296464,"current_range_meters":21600,"station_id":"ce4bhqp2rcd13ifvqhog","pricing_plan_id":"cebpf4jnsgd1na2vs0mg"},{"bike_id":"db828875-21fa-4b20-9fa7-83b075a0b53e","system_id":"levelo_inurba_marseille","lat":43.32369,"lon":5.38883,"is_reserved":false,"is_disabled":false,"rental_uris":{"android":"levelo://app?vid=db828875-21fa-4b20-9fa7-83b075a0b53e","ios":"levelo://app?vid=db828875-21fa-4b20-9fa7-83b075a0b53e"},"vehicle_type_id":"4","last_reported":1711296464,"current_range_meters":3200,"station_id":"ce4bhqp2rcd13ifvqhog","pricing_plan_id":"cebpf4jnsgd1na2vs0mg"},{"bike_id":"881d57d0-77c3-4365-998f-069b7cd8031d","system_id":"levelo_inurba_marseille","lat":43.32367,"lon":5.388836,"is_reserved":false,"is_disabled":false,"rental_uris":{"android":"levelo://app?vid=881d57d0-77c3-4365-998f-069b7cd8031d","ios":"levelo://app?vid=881d57d0-77c3-4365-998f-069b7cd8031d"},"vehicle_type_id":"4","last_reported":1711296464,"current_range_meters":22400,"station_id":"ce4bhqp2rcd13ifvqhog","pricing_plan_id":"cebpf4jnsgd1na2vs0mg"},{"bike_id":"c9a3c98e-7cac-4856-b507-897618b57146","system_id":"levelo_inurba_marseille","lat":43.32367,"lon":5.38889,"is_reserved":false,"is_disabled":false,"rental_uris":{"android":"levelo://app?vid=c9a3c98e-7cac-4856-b507-897618b57146","ios":"levelo://app?vid=c9a3c98e-7cac-4856-b507-897618b57146"},"vehicle_type_id":"4","last_reported":1711296464,"current_range_meters":4800,"station_id":"ce4bhqp2rcd13ifvqhog","pricing_plan_id":"cebpf4jnsgd1na2vs0mg"},{"bike_id":"d28f1c0b-6efc-4711-90b7-7fa644e25120","system_id":"levelo_inurba_marseille","lat":43.32367,"lon":5.388836,"is_reserved":false,"is_disabled":false,"rental_uris":{"android":"levelo://app?vid=d28f1c0b-6efc-4711-90b7-7fa644e25120","ios":"levelo://app?vid=d28f1c0b-6efc-4711-90b7-7fa644e25120"},"vehicle_type_id":"4","last_reported":1711296464,"current_range_meters":6400,"station_id":"ce4bhqp2rcd13ifvqhog","pricing_plan_id":"cebpf4jnsgd1na2vs0mg"},{"bike_id":"c0d8d07a-ce05-4c46-a1a6-9d9c58fb0567","system_id":"levelo_inurba_marseille","lat":43.32367,"lon":5.388836,"is_reserved":false,"is_disabled":false,"rental_uris":{"android":"levelo://app?vid=c0d8d07a-ce05-4c46-a1a6-9d9c58fb0567","ios":"levelo://app?vid=c0d8d07a-ce05-4c46-a1a6-9d9c58fb0567"},"vehicle_type_id":"4","last_reported":1711296464,"current_range_meters":28800,"station_id":"ce4bhqp2rcd13ifvqhog","pricing_plan_id":"cebpf4jnsgd1na2vs0mg"},{"bike_id":"8f3fc8a8-7324-4963-9c1e-4ea330f05d3c","system_id":"levelo_inurba_marseille","lat":43.2928,"lon":5.36851,"is_reserved":false,"is_disabled":false,"rental_uris":{"android":"levelo://app?vid=8f3fc8a8-7324-4963-9c1e-4ea330f05d3c","ios":"levelo://app?vid=8f3fc8a8-7324-4963-9c1e-4ea330f05d3c"},"vehicle_type_id":"4","last_reported":1711296464,"current_range_meters":13600,"station_id":"ce4bhbp2rcd13ifvqesg","pricing_plan_id":"cebpf4jnsgd1na2vs0mg"},{"bike_id":"e2269f4c-884c-4fa0-8625-8ee9d1f3d8e7","system_id":"levelo_inurba_marseille","lat":43.293259,"lon":5.371586,"is_reserved":false,"is_disabled":false,"rental_uris":{"android":"levelo://app?vid=e2269f4c-884c-4fa0-8625-8ee9d1f3d8e7","ios":"levelo://app?vid=e2269f4c-884c-4fa0-8625-8ee9d1f3d8e7"},"vehicle_type_id":"4","last_reported":1711296464,"current_range_meters":1600,"station_id":"ce4bgh92rcd13ifvqb40","pricing_plan_id":"cebpf4jnsgd1na2vs0mg"},{"bike_id":"79a305bf-7ab8-45c0-a0e5-de2a9a32498f","system_id":"levelo_inurba_marseille","lat":43.29276,"lon":5.3684,"is_reserved":false,"is_disabled":false,"rental_uris":{"android":"levelo://app?vid=79a305bf-7ab8-45c0-a0e5-de2a9a32498f","ios":"levelo://app?vid=79a305bf-7ab8-45c0-a0e5-de2a9a32498f"},"vehicle_type_id":"4","last_reported":1711296464,"current_range_meters":5600,"station_id":"ce4bhbp2rcd13ifvqesg","pricing_plan_id":"cebpf4jnsgd1na2vs0mg"},{"bike_id":"f6e5b1e3-2ae1-4208-813c-31307758dad7","system_id":"levelo_inurba_marseille","lat":43.293259,"lon":5.371586,"is_reserved":false,"is_disabled":false,"rental_uris":{"android":"levelo://app?vid=f6e5b1e3-2ae1-4208-813c-31307758dad7","ios":"levelo://app?vid=f6e5b1e3-2ae1-4208-813c-31307758dad7"},"vehicle_type_id":"4","last_reported":1711296464,"current_range_meters":1200,"station_id":"ce4bgh92rcd13ifvqb40","pricing_plan_id":"cebpf4jnsgd1na2vs0mg"},{"bike_id":"55607cb5-c66c-402a-aab4-77256fc63fd2","system_id":"levelo_inurba_marseille","lat":43.293249,"lon":5.371578,"is_reserved":false,"is_disabled":false,"rental_uris":{"android":"levelo://app?vid=55607cb5-c66c-402a-aab4-77256fc63fd2","ios":"levelo://app?vid=55607cb5-c66c-402a-aab4-77256fc63fd2"},"vehicle_type_id":"4","last_reported":1711296464,"current_range_meters":2400,"station_id":"ce4bgh92rcd13ifvqb40","pricing_plan_id":"cebpf4jnsgd1na2vs0mg"},{"bike_id":"699603cf-97e5-4d45-85ff-f1f0655b2524","system_id":"levelo_inurba_marseille","lat":43.2927,"lon":5.36845,"is_reserved":false,"is_disabled":false,"rental_uris":{"android":"levelo://app?vid=699603cf-97e5-4d45-85ff-f1f0655b2524","ios":"levelo://app?vid=699603cf-97e5-4d45-85ff-f1f0655b2524"},"vehicle_type_id":"4","last_reported":1711296464,"current_range_meters":1200,"station_id":"ce4bhbp2rcd13ifvqesg","pricing_plan_id":"cebpf4jnsgd1na2vs0mg"},{"bike_id":"46e920d5-6600-4eb2-a275-67a72d935d7e","system_id":"levelo_inurba_marseille","lat":43.305994,"lon":5.393687,"is_reserved":false,"is_disabled":false,"rental_uris":{"android":"levelo://app?vid=46e920d5-6600-4eb2-a275-67a72d935d7e","ios":"levelo://app?vid=46e920d5-6600-4eb2-a275-67a72d935d7e"},"vehicle_type_id":"4","last_reported":1711296464,"current_range_meters":800,"station_id":"ce4bh0p2rcd13ifvqd80","pricing_plan_id":"cebpf4jnsgd1na2vs0mg"},{"bike_id":"69e46d8f-4396-43d6-aaa4-2a05d4d1f902","system_id":"levelo_inurba_marseille","lat":43.30311,"lon":5.39209,"is_reserved":false,"is_disabled":false,"rental_uris":{"android":"levelo://app?vid=69e46d8f-4396-43d6-aaa4-2a05d4d1f902","ios":"levelo://app?vid=69e46d8f-4396-43d6-aaa4-2a05d4d1f902"},"vehicle_type_id":"4","last_reported":1711296464,"current_range_meters":8400,"station_id":"ce4bgkh2rcd13ifvqbk0","pricing_plan_id":"cebpf4jnsgd1na2vs0mg"},{"bike_id":"63482667-7a12-48bc-99ca-1fe141d4acc4","system_id":"levelo_inurba_marseille","lat":43.303002,"lon":5.392142,"is_reserved":false,"is_disabled":false,"rental_uris":{"android":"levelo://app?vid=63482667-7a12-48bc-99ca-1fe141d4acc4","ios":"levelo://app?vid=63482667-7a12-48bc-99ca-1fe141d4acc4"},"vehicle_type_id":"4","last_reported":1711296464,"current_range_meters":12000,"station_id":"ce4bgkh2rcd13ifvqbk0","pricing_plan_id":"cebpf4jnsgd1na2vs0mg"},{"bike_id":"791e3967-b026-4494-a9c1-78b157881770","system_id":"levelo_inurba_marseille","lat":43.29366,"lon":5.3784,"is_reserved":false,"is_disabled":false,"rental_uris":{"android":"levelo://app?vid=791e3967-b026-4494-a9c1-78b157881770","ios":"levelo://app?vid=791e3967-b026-4494-a9c1-78b157881770"},"vehicle_type_id":"4","last_reported":1711296464,"current_range_meters":20000,"station_id":"ce4bgjh2rcd13ifvqbf0","pricing_plan_id":"cebpf4jnsgd1na2vs0mg"},{"bike_id":"0b21c118-0089-4530-999a-a2388537ea2b","system_id":"levelo_inurba_marseille","lat":43.292311,"lon":5.360731,"is_reserved":false,"is_disabled":false,"rental_uris":{"android":"levelo://app?vid=0b21c118-0089-4530-999a-a2388537ea2b","ios":"levelo://app?vid=0b21c118-0089-4530-999a-a2388537ea2b"},"vehicle_type_id":"4","last_reported":1711296464,"current_range_meters":31200,"station_id":"ce4bhbh2rcd13ifvqeqg","pricing_plan_id":"cebpf4jnsgd1na2vs0mg"},{"bike_id":"40ed396c-d6ae-4d40-aea1-035d62d53900","system_id":"levelo_inurba_marseille","lat":43.292311,"lon":5.360731,"is_reserved":false,"is_disabled":false,"rental_uris":{"android":"levelo://app?vid=40ed396c-d6ae-4d40-aea1-035d62d53900","ios":"levelo://app?vid=40ed396c-d6ae-4d40-aea1-035d62d53900"},"vehicle_type_id":"4","last_reported":1711296464,"current_range_meters":5600,"station_id":"ce4bhbh2rcd13ifvqeqg","pricing_plan_id":"cebpf4jnsgd1na2vs0mg"},{"bike_id":"b37b1a49-a0e5-4220-8fef-aae38cc8740d","system_id":"levelo_inurba_marseille","lat":43.300852,"lon":5.390859,"is_reserved":false,"is_disabled":false,"rental_uris":{"android":"levelo://app?vid=b37b1a49-a0e5-4220-8fef-aae38cc8740d","ios":"levelo://app?vid=b37b1a49-a0e5-4220-8fef-aae38cc8740d"},"vehicle_type_id":"4","last_reported":1711296464,"current_range_meters":14800,"station_id":"ce4bh192rcd13ifvqdb0","pricing_plan_id":"cebpf4jnsgd1na2vs0mg"},{"bike_id":"d3b852b8-ff89-4cde-9015-e30f1efd4726","system_id":"levelo_inurba_marseille","lat":43.30085,"lon":5.390856,"is_reserved":false,"is_disabled":false,"rental_uris":{"android":"levelo://app?vid=d3b852b8-ff89-4cde-9015-e30f1efd4726","ios":"levelo://app?vid=d3b852b8-ff89-4cde-9015-e30f1efd4726"},"vehicle_type_id":"4","last_reported":1711296464,"current_range_meters":6400,"station_id":"ce4bh192rcd13ifvqdb0","pricing_plan_id":"cebpf4jnsgd1na2vs0mg"},{"bike_id":"d451ee90-b1b0-43ff-a9fb-03231125795a","system_id":"levelo_inurba_marseille","lat":43.298764,"lon":5.388973,"is_reserved":false,"is_disabled":false,"rental_uris":{"android":"levelo://app?vid=d451ee90-b1b0-43ff-a9fb-03231125795a","ios":"levelo://app?vid=d451ee90-b1b0-43ff-a9fb-03231125795a"},"vehicle_type_id":"4","last_reported":1711296464,"current_range_meters":0,"station_id":"ce4bh392rcd13ifvqdl0","pricing_plan_id":"cebpf4jnsgd1na2vs0mg"},{"bike_id":"f3a6efd7-e073-44bc-8310-75ccbcadc4d1","system_id":"levelo_inurba_marseille","lat":43.29173,"lon":5.3715,"is_reserved":false,"is_disabled":false,"rental_uris":{"android":"levelo://app?vid=f3a6efd7-e073-44bc-8310-75ccbcadc4d1","ios":"levelo://app?vid=f3a6efd7-e073-44bc-8310-75ccbcadc4d1"},"vehicle_type_id":"4","last_reported":1711296464,"current_range_meters":0,"station_id":"ce4bha92rcd13ifvqeh0","pricing_plan_id":"cebpf4jnsgd1na2vs0mg"},{"bike_id":"6618b29a-336b-4259-8da9-e142dc7fc3cb","system_id":"levelo_inurba_marseille","lat":43.291675,"lon":5.371583,"is_reserved":false,"is_disabled":false,"rental_uris":{"android":"levelo://app?vid=6618b29a-336b-4259-8da9-e142dc7fc3cb","ios":"levelo://app?vid=6618b29a-336b-4259-8da9-e142dc7fc3cb"},"vehicle_type_id":"4","last_reported":1711296464,"current_range_meters":6000,"station_id":"ce4bha92rcd13ifvqeh0","pricing_plan_id":"cebpf4jnsgd1na2vs0mg"},{"bike_id":"4f483415-c0d6-45d2-a1e9-04f05ae59b0f","system_id":"levelo_inurba_marseille","lat":43.291671,"lon":5.371575,"is_reserved":false,"is_disabled":false,"rental_uris":{"android":"levelo://app?vid=4f483415-c0d6-45d2-a1e9-04f05ae59b0f","ios":"levelo://app?vid=4f483415-c0d6-45d2-a1e9-04f05ae59b0f"},"vehicle_type_id":"4","last_reported":1711296464,"current_range_meters":0,"station_id":"ce4bha92rcd13ifvqeh0","pricing_plan_id":"cebpf4jnsgd1na2vs0mg"},{"bike_id":"271da28c-3fae-4ad4-88bd-2c6996299f21","system_id":"levelo_inurba_marseille","lat":43.29153,"lon":5.37147,"is_reserved":false,"is_disabled":false,"rental_uris":{"android":"levelo://app?vid=271da28c-3fae-4ad4-88bd-2c6996299f21","ios":"levelo://app?vid=271da28c-3fae-4ad4-88bd-2c6996299f21"},"vehicle_type_id":"4","last_reported":1711296464,"current_range_meters":4000,"station_id":"ce4bha92rcd13ifvqeh0","pricing_plan_id":"cebpf4jnsgd1na2vs0mg"},{"bike_id":"7bc28cdd-ea61-47be-8183-22819250a0b8","system_id":"levelo_inurba_marseille","lat":43.291987,"lon":5.35796,"is_reserved":false,"is_disabled":false,"rental_uris":{"android":"levelo://app?vid=7bc28cdd-ea61-47be-8183-22819250a0b8","ios":"levelo://app?vid=7bc28cdd-ea61-47be-8183-22819250a0b8"},"vehicle_type_id":"4","last_reported":1711296464,"current_range_meters":17200,"station_id":"ce4bhb12rcd13ifvqel0","pricing_plan_id":"cebpf4jnsgd1na2vs0mg"},{"bike_id":"92ec4798-41ba-4a88-b910-301985538bc4","system_id":"levelo_inurba_marseille","lat":43.291994,"lon":5.357886,"is_reserved":false,"is_disabled":false,"rental_uris":{"android":"levelo://app?vid=92ec4798-41ba-4a88-b910-301985538bc4","ios":"levelo://app?vid=92ec4798-41ba-4a88-b910-301985538bc4"},"vehicle_type_id":"4","last_reported":1711296464,"current_range_meters":31200,"station_id":"ce4bhb12rcd13ifvqel0","pricing_plan_id":"cebpf4jnsgd1na2vs0mg"},{"bike_id":"4a36abf1-120a-4b0d-ab00-c01cd40c4106","system_id":"levelo_inurba_marseille","lat":43.291994,"lon":5.357886,"is_reserved":false,"is_disabled":false,"rental_uris":{"android":"levelo://app?vid=4a36abf1-120a-4b0d-ab00-c01cd40c4106","ios":"levelo://app?vid=4a36abf1-120a-4b0d-ab00-c01cd40c4106"},"vehicle_type_id":"4","last_reported":1711296464,"current_range_meters":26400,"station_id":"ce4bhb12rcd13ifvqel0","pricing_plan_id":"cebpf4jnsgd1na2vs0mg"},{"bike_id":"d4f30dee-824d-4087-8a28-3639c17d5929","system_id":"levelo_inurba_marseille","lat":43.291994,"lon":5.357886,"is_reserved":false,"is_disabled":false,"rental_uris":{"android":"levelo://app?vid=d4f30dee-824d-4087-8a28-3639c17d5929","ios":"levelo://app?vid=d4f30dee-824d-4087-8a28-3639c17d5929"},"vehicle_type_id":"4","last_reported":1711296464,"current_range_meters":4800,"station_id":"ce4bhb12rcd13ifvqel0","pricing_plan_id":"cebpf4jnsgd1na2vs0mg"},{"bike_id":"068c660c-adff-40f8-9f3b-049896108ad7","system_id":"levelo_inurba_marseille","lat":43.291994,"lon":5.357886,"is_reserved":false,"is_disabled":false,"rental_uris":{"android":"levelo://app?vid=068c660c-adff-40f8-9f3b-049896108ad7","ios":"levelo://app?vid=068c660c-adff-40f8-9f3b-049896108ad7"},"vehicle_type_id":"4","last_reported":1711296464,"current_range_meters":8800,"station_id":"ce4bhb12rcd13ifvqel0","pricing_plan_id":"cebpf4jnsgd1na2vs0mg"},{"bike_id":"29c56b89-0a68-45db-8891-ed8c738b2f59","system_id":"levelo_inurba_marseille","lat":43.291994,"lon":5.357886,"is_reserved":false,"is_disabled":false,"rental_uris":{"android":"levelo://app?vid=29c56b89-0a68-45db-8891-ed8c738b2f59","ios":"levelo://app?vid=29c56b89-0a68-45db-8891-ed8c738b2f59"},"vehicle_type_id":"4","last_reported":1711296464,"current_range_meters":11200,"station_id":"ce4bhb12rcd13ifvqel0","pricing_plan_id":"cebpf4jnsgd1na2vs0mg"},{"bike_id":"bb53f293-2892-4533-b107-94a794cbbc77","system_id":"levelo_inurba_marseille","lat":43.291994,"lon":5.357886,"is_reserved":false,"is_disabled":false,"rental_uris":{"android":"levelo://app?vid=bb53f293-2892-4533-b107-94a794cbbc77","ios":"levelo://app?vid=bb53f293-2892-4533-b107-94a794cbbc77"},"vehicle_type_id":"4","last_reported":1711296464,"current_range_meters":26400,"station_id":"ce4bhb12rcd13ifvqel0","pricing_plan_id":"cebpf4jnsgd1na2vs0mg"},{"bike_id":"f304b888-0349-4204-8748-d72744edbc01","system_id":"levelo_inurba_marseille","lat":43.29187,"lon":5.35803,"is_reserved":false,"is_disabled":false,"rental_uris":{"android":"levelo://app?vid=f304b888-0349-4204-8748-d72744edbc01","ios":"levelo://app?vid=f304b888-0349-4204-8748-d72744edbc01"},"vehicle_type_id":"4","last_reported":1711296464,"current_range_meters":0,"station_id":"ce4bhb12rcd13ifvqel0","pricing_plan_id":"cebpf4jnsgd1na2vs0mg"},{"bike_id":"95e0bf54-606f-4af7-951d-275c80275b7b","system_id":"levelo_inurba_marseille","lat":43.29179,"lon":5.35799,"is_reserved":false,"is_disabled":false,"rental_uris":{"android":"levelo://app?vid=95e0bf54-606f-4af7-951d-275c80275b7b","ios":"levelo://app?vid=95e0bf54-606f-4af7-951d-275c80275b7b"},"vehicle_type_id":"4","last_reported":1711296464,"current_range_meters":0,"station_id":"ce4bhb12rcd13ifvqel0","pricing_plan_id":"cebpf4jnsgd1na2vs0mg"},{"bike_id":"3c3f5ef0-1c02-43d6-badb-0e63d1614c86","system_id":"levelo_inurba_marseille","lat":43.29529,"lon":5.385581,"is_reserved":false,"is_disabled":false,"rental_uris":{"android":"levelo://app?vid=3c3f5ef0-1c02-43d6-badb-0e63d1614c86","ios":"levelo://app?vid=3c3f5ef0-1c02-43d6-badb-0e63d1614c86"},"vehicle_type_id":"4","last_reported":1711296464,"current_range_meters":4800,"station_id":"ce4bgih2rcd13ifvqba0","pricing_plan_id":"cebpf4jnsgd1na2vs0mg"},{"bike_id":"98282c81-6597-464f-9ffe-41e82628f85d","system_id":"levelo_inurba_marseille","lat":43.29529,"lon":5.385581,"is_reserved":false,"is_disabled":false,"rental_uris":{"android":"levelo://app?vid=98282c81-6597-464f-9ffe-41e82628f85d","ios":"levelo://app?vid=98282c81-6597-464f-9ffe-41e82628f85d"},"vehicle_type_id":"4","last_reported":1711296464,"current_range_meters":11200,"station_id":"ce4bgih2rcd13ifvqba0","pricing_plan_id":"cebpf4jnsgd1na2vs0mg"},{"bike_id":"553be6ba-c65d-4cef-80a9-9bd5e9dea82e","system_id":"levelo_inurba_marseille","lat":43.328077,"lon":5.388815,"is_reserved":false,"is_disabled":false,"rental_uris":{"android":"levelo://app?vid=553be6ba-c65d-4cef-80a9-9bd5e9dea82e","ios":"levelo://app?vid=553be6ba-c65d-4cef-80a9-9bd5e9dea82e"},"vehicle_type_id":"4","last_reported":1711296464,"current_range_meters":30000,"station_id":"","pricing_plan_id":"cebpf4jnsgd1na2vs0mg"},{"bike_id":"8bc91653-44bc-4e8d-9461-dae6438d1123","system_id":"levelo_inurba_marseille","lat":43.296375,"lon":5.387806,"is_reserved":false,"is_disabled":false,"rental_uris":{"android":"levelo://app?vid=8bc91653-44bc-4e8d-9461-dae6438d1123","ios":"levelo://app?vid=8bc91653-44bc-4e8d-9461-dae6438d1123"},"vehicle_type_id":"4","last_reported":1711296464,"current_range_meters":19200,"station_id":"","pricing_plan_id":"cebpf4jnsgd1na2vs0mg"},{"bike_id":"65efec69-27cf-4d45-ac0c-98556f38f4e6","system_id":"levelo_inurba_marseille","lat":43.289542,"lon":5.366379,"is_reserved":false,"is_disabled":false,"rental_uris":{"android":"levelo://app?vid=65efec69-27cf-4d45-ac0c-98556f38f4e6","ios":"levelo://app?vid=65efec69-27cf-4d45-ac0c-98556f38f4e6"},"vehicle_type_id":"4","last_reported":1711296464,"current_range_meters":0,"station_id":"ce4bhap2rcd13ifvqek0","pricing_plan_id":"cebpf4jnsgd1na2vs0mg"},{"bike_id":"cf8e97d0-69de-42ff-a0bb-ce011ffad961","system_id":"levelo_inurba_marseille","lat":43.290327,"lon":5.375711,"is_reserved":false,"is_disabled":false,"rental_uris":{"android":"levelo://app?vid=cf8e97d0-69de-42ff-a0bb-ce011ffad961","ios":"levelo://app?vid=cf8e97d0-69de-42ff-a0bb-ce011ffad961"},"vehicle_type_id":"4","last_reported":1711296464,"current_range_meters":3600,"station_id":"ce4bh692rcd13ifvqe90","pricing_plan_id":"cebpf4jnsgd1na2vs0mg"},{"bike_id":"fece1ae6-b0c1-4a61-b61d-d8fe127852dd","system_id":"levelo_inurba_marseille","lat":43.290327,"lon":5.375711,"is_reserved":false,"is_disabled":false,"rental_uris":{"android":"levelo://app?vid=fece1ae6-b0c1-4a61-b61d-d8fe127852dd","ios":"levelo://app?vid=fece1ae6-b0c1-4a61-b61d-d8fe127852dd"},"vehicle_type_id":"4","last_reported":1711296464,"current_range_meters":0,"station_id":"ce4bh692rcd13ifvqe90","pricing_plan_id":"cebpf4jnsgd1na2vs0mg"},{"bike_id":"65d1a4f2-20ef-43a5-a47b-ca3b566ddf19","system_id":"levelo_inurba_marseille","lat":43.294162,"lon":5.386292,"is_reserved":false,"is_disabled":false,"rental_uris":{"android":"levelo://app?vid=65d1a4f2-20ef-43a5-a47b-ca3b566ddf19","ios":"levelo://app?vid=65d1a4f2-20ef-43a5-a47b-ca3b566ddf19"},"vehicle_type_id":"4","last_reported":1711296464,"current_range_meters":0,"station_id":"ce4bh2h2rcd13ifvqdh0","pricing_plan_id":"cebpf4jnsgd1na2vs0mg"},{"bike_id":"4ddd92d7-d051-40d2-b533-8ac7ad34a619","system_id":"levelo_inurba_marseille","lat":43.290327,"lon":5.375711,"is_reserved":false,"is_disabled":false,"rental_uris":{"android":"levelo://app?vid=4ddd92d7-d051-40d2-b533-8ac7ad34a619","ios":"levelo://app?vid=4ddd92d7-d051-40d2-b533-8ac7ad34a619"},"vehicle_type_id":"4","last_reported":1711296464,"current_range_meters":2000,"station_id":"ce4bh692rcd13ifvqe90","pricing_plan_id":"cebpf4jnsgd1na2vs0mg"},{"bike_id":"4b6c3d49-a909-41e9-9fe8-1cbb2730cee8","system_id":"levelo_inurba_marseille","lat":43.292644,"lon":5.384257,"is_reserved":false,"is_disabled":false,"rental_uris":{"android":"levelo://app?vid=4b6c3d49-a909-41e9-9fe8-1cbb2730cee8","ios":"levelo://app?vid=4b6c3d49-a909-41e9-9fe8-1cbb2730cee8"},"vehicle_type_id":"4","last_reported":1711296464,"current_range_meters":5600,"station_id":"ce4bh692rcd13ifvqea0","pricing_plan_id":"cebpf4jnsgd1na2vs0mg"},{"bike_id":"7ddfa0e9-8c2c-49f6-bcc4-d2c012e0df15","system_id":"levelo_inurba_marseille","lat":43.2901,"lon":5.35611,"is_reserved":false,"is_disabled":false,"rental_uris":{"android":"levelo://app?vid=7ddfa0e9-8c2c-49f6-bcc4-d2c012e0df15","ios":"levelo://app?vid=7ddfa0e9-8c2c-49f6-bcc4-d2c012e0df15"},"vehicle_type_id":"4","last_reported":1711296464,"current_range_meters":0,"station_id":"ce4bhb92rcd13ifvqen0","pricing_plan_id":"cebpf4jnsgd1na2vs0mg"},{"bike_id":"507b9375-48ce-44f7-a562-a75a6fd01de7","system_id":"levelo_inurba_marseille","lat":43.2901,"lon":5.381269,"is_reserved":false,"is_disabled":false,"rental_uris":{"android":"levelo://app?vid=507b9375-48ce-44f7-a562-a75a6fd01de7","ios":"levelo://app?vid=507b9375-48ce-44f7-a562-a75a6fd01de7"},"vehicle_type_id":"4","last_reported":1711296464,"current_range_meters":3200,"station_id":"ce4bh4p2rcd13ifvqe1g","pricing_plan_id":"cebpf4jnsgd1na2vs0mg"},{"bike_id":"39bc399c-bbec-4609-a5a2-0868ce4bba19","system_id":"levelo_inurba_marseille","lat":43.290104,"lon":5.356111,"is_reserved":false,"is_disabled":false,"rental_uris":{"android":"levelo://app?vid=39bc399c-bbec-4609-a5a2-0868ce4bba19","ios":"levelo://app?vid=39bc399c-bbec-4609-a5a2-0868ce4bba19"},"vehicle_type_id":"4","last_reported":1711296464,"current_range_meters":0,"station_id":"ce4bhb92rcd13ifvqen0","pricing_plan_id":"cebpf4jnsgd1na2vs0mg"},{"bike_id":"90dacc23-adc9-4b7d-8c3f-0a14f121e24b","system_id":"levelo_inurba_marseille","lat":43.290104,"lon":5.356111,"is_reserved":false,"is_disabled":false,"rental_uris":{"android":"levelo://app?vid=90dacc23-adc9-4b7d-8c3f-0a14f121e24b","ios":"levelo://app?vid=90dacc23-adc9-4b7d-8c3f-0a14f121e24b"},"vehicle_type_id":"4","last_reported":1711296464,"current_range_meters":12800,"station_id":"ce4bhb92rcd13ifvqen0","pricing_plan_id":"cebpf4jnsgd1na2vs0mg"},{"bike_id":"125c130f-3f6d-4dab-be6d-21fde9d9c28f","system_id":"levelo_inurba_marseille","lat":43.290104,"lon":5.356111,"is_reserved":false,"is_disabled":false,"rental_uris":{"android":"levelo://app?vid=125c130f-3f6d-4dab-be6d-21fde9d9c28f","ios":"levelo://app?vid=125c130f-3f6d-4dab-be6d-21fde9d9c28f"},"vehicle_type_id":"4","last_reported":1711296464,"current_range_meters":0,"station_id":"ce4bhb92rcd13ifvqen0","pricing_plan_id":"cebpf4jnsgd1na2vs0mg"},{"bike_id":"811bd1e2-3c42-4723-a542-be35ae32aaf1","system_id":"levelo_inurba_marseille","lat":43.297854,"lon":5.392822,"is_reserved":false,"is_disabled":false,"rental_uris":{"android":"levelo://app?vid=811bd1e2-3c42-4723-a542-be35ae32aaf1","ios":"levelo://app?vid=811bd1e2-3c42-4723-a542-be35ae32aaf1"},"vehicle_type_id":"4","last_reported":1711296464,"current_range_meters":0,"station_id":"","pricing_plan_id":"cebpf4jnsgd1na2vs0mg"},{"bike_id":"7e5ce9a3-6e0c-4262-a2f4-5289384f27b1","system_id":"levelo_inurba_marseille","lat":43.29003,"lon":5.35617,"is_reserved":false,"is_disabled":false,"rental_uris":{"android":"levelo://app?vid=7e5ce9a3-6e0c-4262-a2f4-5289384f27b1","ios":"levelo://app?vid=7e5ce9a3-6e0c-4262-a2f4-5289384f27b1"},"vehicle_type_id":"4","last_reported":1711296464,"current_range_meters":800,"station_id":"ce4bhb92rcd13ifvqen0","pricing_plan_id":"cebpf4jnsgd1na2vs0mg"},{"bike_id":"0396ae94-edb4-4921-bc86-9e9fb1380b08","system_id":"levelo_inurba_marseille","lat":43.29003,"lon":5.35616,"is_reserved":false,"is_disabled":false,"rental_uris":{"android":"levelo://app?vid=0396ae94-edb4-4921-bc86-9e9fb1380b08","ios":"levelo://app?vid=0396ae94-edb4-4921-bc86-9e9fb1380b08"},"vehicle_type_id":"4","last_reported":1711296464,"current_range_meters":0,"station_id":"ce4bhb92rcd13ifvqen0","pricing_plan_id":"cebpf4jnsgd1na2vs0mg"},{"bike_id":"0ff424c0-4ec0-4822-a5ee-83c0ba79c50f","system_id":"levelo_inurba_marseille","lat":43.29003,"lon":5.35609,"is_reserved":false,"is_disabled":false,"rental_uris":{"android":"levelo://app?vid=0ff424c0-4ec0-4822-a5ee-83c0ba79c50f","ios":"levelo://app?vid=0ff424c0-4ec0-4822-a5ee-83c0ba79c50f"},"vehicle_type_id":"4","last_reported":1711296464,"current_range_meters":0,"station_id":"ce4bhb92rcd13ifvqen0","pricing_plan_id":"cebpf4jnsgd1na2vs0mg"},{"bike_id":"c4ed669e-9a6c-4427-98e0-3dc01782179a","system_id":"levelo_inurba_marseille","lat":43.309038,"lon":5.396546,"is_reserved":false,"is_disabled":false,"rental_uris":{"android":"levelo://app?vid=c4ed669e-9a6c-4427-98e0-3dc01782179a","ios":"levelo://app?vid=c4ed669e-9a6c-4427-98e0-3dc01782179a"},"vehicle_type_id":"4","last_reported":1711296464,"current_range_meters":0,"station_id":"ce4bh012rcd13ifvqcv0","pricing_plan_id":"cebpf4jnsgd1na2vs0mg"},{"bike_id":"d6599b1c-af21-4467-b16c-547628d62939","system_id":"levelo_inurba_marseille","lat":43.289741,"lon":5.378306,"is_reserved":false,"is_disabled":false,"rental_uris":{"android":"levelo://app?vid=d6599b1c-af21-4467-b16c-547628d62939","ios":"levelo://app?vid=d6599b1c-af21-4467-b16c-547628d62939"},"vehicle_type_id":"4","last_reported":1711296464,"current_range_meters":12000,"station_id":"ce4bh9p2rcd13ifvqed0","pricing_plan_id":"cebpf4jnsgd1na2vs0mg"},{"bike_id":"b936aa08-1447-4a5e-99ae-f6d3c8dfba2e","system_id":"levelo_inurba_marseille","lat":43.330442,"lon":5.389148,"is_reserved":false,"is_disabled":false,"rental_uris":{"android":"levelo://app?vid=b936aa08-1447-4a5e-99ae-f6d3c8dfba2e","ios":"levelo://app?vid=b936aa08-1447-4a5e-99ae-f6d3c8dfba2e"},"vehicle_type_id":"4","last_reported":1711296464,"current_range_meters":23600,"station_id":"ce4bhr92rcd13ifvqhrg","pricing_plan_id":"cebpf4jnsgd1na2vs0mg"},{"bike_id":"71cb1d59-c297-4a56-adb8-cc6999f0cbe6","system_id":"levelo_inurba_marseille","lat":43.330442,"lon":5.389148,"is_reserved":false,"is_disabled":false,"rental_uris":{"android":"levelo://app?vid=71cb1d59-c297-4a56-adb8-cc6999f0cbe6","ios":"levelo://app?vid=71cb1d59-c297-4a56-adb8-cc6999f0cbe6"},"vehicle_type_id":"4","last_reported":1711296464,"current_range_meters":30800,"station_id":"ce4bhr92rcd13ifvqhrg","pricing_plan_id":"cebpf4jnsgd1na2vs0mg"},{"bike_id":"92728e31-94f4-4791-8fa8-8be1c8ff688d","system_id":"levelo_inurba_marseille","lat":43.330442,"lon":5.389148,"is_reserved":false,"is_disabled":false,"rental_uris":{"android":"levelo://app?vid=92728e31-94f4-4791-8fa8-8be1c8ff688d","ios":"levelo://app?vid=92728e31-94f4-4791-8fa8-8be1c8ff688d"},"vehicle_type_id":"4","last_reported":1711296464,"current_range_meters":28000,"station_id":"ce4bhr92rcd13ifvqhrg","pricing_plan_id":"cebpf4jnsgd1na2vs0mg"},{"bike_id":"3feeeb67-39a7-42d0-8d61-cd997e16e5fd","system_id":"levelo_inurba_marseille","lat":43.2901,"lon":5.381269,"is_reserved":false,"is_disabled":false,"rental_uris":{"android":"levelo://app?vid=3feeeb67-39a7-42d0-8d61-cd997e16e5fd","ios":"levelo://app?vid=3feeeb67-39a7-42d0-8d61-cd997e16e5fd"},"vehicle_type_id":"4","last_reported":1711296464,"current_range_meters":6000,"station_id":"ce4bh4p2rcd13ifvqe1g","pricing_plan_id":"cebpf4jnsgd1na2vs0mg"},{"bike_id":"935c4b1c-2f94-4e22-a32e-96a18168851e","system_id":"levelo_inurba_marseille","lat":43.28856,"lon":5.358371,"is_reserved":false,"is_disabled":false,"rental_uris":{"android":"levelo://app?vid=935c4b1c-2f94-4e22-a32e-96a18168851e","ios":"levelo://app?vid=935c4b1c-2f94-4e22-a32e-96a18168851e"},"vehicle_type_id":"4","last_reported":1711296464,"current_range_meters":9600,"station_id":"ce4bhb12rcd13ifvqem0","pricing_plan_id":"cebpf4jnsgd1na2vs0mg"},{"bike_id":"a1639bd6-3da4-456d-ad63-61ab1a04a064","system_id":"levelo_inurba_marseille","lat":43.28856,"lon":5.358371,"is_reserved":false,"is_disabled":false,"rental_uris":{"android":"levelo://app?vid=a1639bd6-3da4-456d-ad63-61ab1a04a064","ios":"levelo://app?vid=a1639bd6-3da4-456d-ad63-61ab1a04a064"},"vehicle_type_id":"4","last_reported":1711296464,"current_range_meters":10800,"station_id":"ce4bhb12rcd13ifvqem0","pricing_plan_id":"cebpf4jnsgd1na2vs0mg"},{"bike_id":"b1d02f0e-8fcc-4cc0-ab5f-6bc9258f5f5b","system_id":"levelo_inurba_marseille","lat":43.301117,"lon":5.398795,"is_reserved":false,"is_disabled":false,"rental_uris":{"android":"levelo://app?vid=b1d02f0e-8fcc-4cc0-ab5f-6bc9258f5f5b","ios":"levelo://app?vid=b1d02f0e-8fcc-4cc0-ab5f-6bc9258f5f5b"},"vehicle_type_id":"4","last_reported":1711296464,"current_range_meters":19200,"station_id":"ce4bh0h2rcd13ifvqd40","pricing_plan_id":"cebpf4jnsgd1na2vs0mg"},{"bike_id":"0a511bf8-403b-4835-a69d-8845b0587042","system_id":"levelo_inurba_marseille","lat":43.33743,"lon":5.37474,"is_reserved":false,"is_disabled":false,"rental_uris":{"android":"levelo://app?vid=0a511bf8-403b-4835-a69d-8845b0587042","ios":"levelo://app?vid=0a511bf8-403b-4835-a69d-8845b0587042"},"vehicle_type_id":"4","last_reported":1711296464,"current_range_meters":10400,"station_id":"","pricing_plan_id":"cebpf4jnsgd1na2vs0mg"},{"bike_id":"75339998-d785-4345-b877-3f52540151fc","system_id":"levelo_inurba_marseille","lat":43.301117,"lon":5.398795,"is_reserved":false,"is_disabled":false,"rental_uris":{"android":"levelo://app?vid=75339998-d785-4345-b877-3f52540151fc","ios":"levelo://app?vid=75339998-d785-4345-b877-3f52540151fc"},"vehicle_type_id":"4","last_reported":1711296464,"current_range_meters":12400,"station_id":"ce4bh0h2rcd13ifvqd40","pricing_plan_id":"cebpf4jnsgd1na2vs0mg"},{"bike_id":"5fb7387d-0295-4bb7-b0e3-190b15df4b24","system_id":"levelo_inurba_marseille","lat":43.287185,"lon":5.379373,"is_reserved":false,"is_disabled":false,"rental_uris":{"android":"levelo://app?vid=5fb7387d-0295-4bb7-b0e3-190b15df4b24","ios":"levelo://app?vid=5fb7387d-0295-4bb7-b0e3-190b15df4b24"},"vehicle_type_id":"4","last_reported":1711296464,"current_range_meters":2000,"station_id":"ce4bh9p2rcd13ifvqec0","pricing_plan_id":"cebpf4jnsgd1na2vs0mg"},{"bike_id":"2e0c6865-b91a-4288-a08d-249a704efb8d","system_id":"levelo_inurba_marseille","lat":43.28727,"lon":5.36078,"is_reserved":false,"is_disabled":false,"rental_uris":{"android":"levelo://app?vid=2e0c6865-b91a-4288-a08d-249a704efb8d","ios":"levelo://app?vid=2e0c6865-b91a-4288-a08d-249a704efb8d"},"vehicle_type_id":"4","last_reported":1711296464,"current_range_meters":28800,"station_id":"cki0cbj6b192h4jlfktg","pricing_plan_id":"cebpf4jnsgd1na2vs0mg"},{"bike_id":"bfc189be-1376-4c7c-bccc-89d53600cb83","system_id":"levelo_inurba_marseille","lat":43.28727,"lon":5.36078,"is_reserved":false,"is_disabled":false,"rental_uris":{"android":"levelo://app?vid=bfc189be-1376-4c7c-bccc-89d53600cb83","ios":"levelo://app?vid=bfc189be-1376-4c7c-bccc-89d53600cb83"},"vehicle_type_id":"4","last_reported":1711296464,"current_range_meters":4000,"station_id":"cki0cbj6b192h4jlfktg","pricing_plan_id":"cebpf4jnsgd1na2vs0mg"},{"bike_id":"c67b11cc-4820-46d9-9ff1-d614ee15488e","system_id":"levelo_inurba_marseille","lat":43.28727,"lon":5.36078,"is_reserved":false,"is_disabled":false,"rental_uris":{"android":"levelo://app?vid=c67b11cc-4820-46d9-9ff1-d614ee15488e","ios":"levelo://app?vid=c67b11cc-4820-46d9-9ff1-d614ee15488e"},"vehicle_type_id":"4","last_reported":1711296464,"current_range_meters":2400,"station_id":"cki0cbj6b192h4jlfktg","pricing_plan_id":"cebpf4jnsgd1na2vs0mg"},{"bike_id":"6be2dc67-75a6-4e2a-a663-4a11af87ef12","system_id":"levelo_inurba_marseille","lat":43.286591,"lon":5.363346,"is_reserved":false,"is_disabled":false,"rental_uris":{"android":"levelo://app?vid=6be2dc67-75a6-4e2a-a663-4a11af87ef12","ios":"levelo://app?vid=6be2dc67-75a6-4e2a-a663-4a11af87ef12"},"vehicle_type_id":"4","last_reported":1711296464,"current_range_meters":2800,"station_id":"ce4bhah2rcd13ifvqej0","pricing_plan_id":"cebpf4jnsgd1na2vs0mg"},{"bike_id":"e93b4173-2c22-4dde-9d81-a2a6558b6ac8","system_id":"levelo_inurba_marseille","lat":43.286591,"lon":5.363346,"is_reserved":false,"is_disabled":false,"rental_uris":{"android":"levelo://app?vid=e93b4173-2c22-4dde-9d81-a2a6558b6ac8","ios":"levelo://app?vid=e93b4173-2c22-4dde-9d81-a2a6558b6ac8"},"vehicle_type_id":"4","last_reported":1711296464,"current_range_meters":1600,"station_id":"ce4bhah2rcd13ifvqej0","pricing_plan_id":"cebpf4jnsgd1na2vs0mg"},{"bike_id":"b3d28df4-18ec-4ae4-82fa-c5cdda763adc","system_id":"levelo_inurba_marseille","lat":43.286961,"lon":5.373785,"is_reserved":false,"is_disabled":false,"rental_uris":{"android":"levelo://app?vid=b3d28df4-18ec-4ae4-82fa-c5cdda763adc","ios":"levelo://app?vid=b3d28df4-18ec-4ae4-82fa-c5cdda763adc"},"vehicle_type_id":"4","last_reported":1711296464,"current_range_meters":0,"station_id":"ce4bh3p2rcd13ifvqdq0","pricing_plan_id":"cebpf4jnsgd1na2vs0mg"},{"bike_id":"1e177deb-a4ba-4fa7-8b3e-2009559eda0c","system_id":"levelo_inurba_marseille","lat":43.286591,"lon":5.363346,"is_reserved":false,"is_disabled":false,"rental_uris":{"android":"levelo://app?vid=1e177deb-a4ba-4fa7-8b3e-2009559eda0c","ios":"levelo://app?vid=1e177deb-a4ba-4fa7-8b3e-2009559eda0c"},"vehicle_type_id":"4","last_reported":1711296464,"current_range_meters":6000,"station_id":"ce4bhah2rcd13ifvqej0","pricing_plan_id":"cebpf4jnsgd1na2vs0mg"},{"bike_id":"c98b4530-1993-46a9-b940-7e05dbe76d33","system_id":"levelo_inurba_marseille","lat":43.298681,"lon":5.397225,"is_reserved":false,"is_disabled":false,"rental_uris":{"android":"levelo://app?vid=c98b4530-1993-46a9-b940-7e05dbe76d33","ios":"levelo://app?vid=c98b4530-1993-46a9-b940-7e05dbe76d33"},"vehicle_type_id":"4","last_reported":1711296464,"current_range_meters":0,"station_id":"ce4bh0h2rcd13ifvqd50","pricing_plan_id":"cebpf4jnsgd1na2vs0mg"},{"bike_id":"4c777209-568e-4e19-870b-ae5fbf09023a","system_id":"levelo_inurba_marseille","lat":43.298681,"lon":5.397225,"is_reserved":false,"is_disabled":false,"rental_uris":{"android":"levelo://app?vid=4c777209-568e-4e19-870b-ae5fbf09023a","ios":"levelo://app?vid=4c777209-568e-4e19-870b-ae5fbf09023a"},"vehicle_type_id":"4","last_reported":1711296464,"current_range_meters":11200,"station_id":"ce4bh0h2rcd13ifvqd50","pricing_plan_id":"cebpf4jnsgd1na2vs0mg"},{"bike_id":"5ecc5411-e212-4e8d-b6a1-652bfdf01b55","system_id":"levelo_inurba_marseille","lat":43.29512,"lon":5.39398,"is_reserved":false,"is_disabled":false,"rental_uris":{"android":"levelo://app?vid=5ecc5411-e212-4e8d-b6a1-652bfdf01b55","ios":"levelo://app?vid=5ecc5411-e212-4e8d-b6a1-652bfdf01b55"},"vehicle_type_id":"4","last_reported":1711296464,"current_range_meters":0,"station_id":"ce4bh292rcd13ifvqdf0","pricing_plan_id":"cebpf4jnsgd1na2vs0mg"},{"bike_id":"25225db3-a410-4708-b6ae-ee9323faa7f4","system_id":"levelo_inurba_marseille","lat":43.295194,"lon":5.39397,"is_reserved":false,"is_disabled":false,"rental_uris":{"android":"levelo://app?vid=25225db3-a410-4708-b6ae-ee9323faa7f4","ios":"levelo://app?vid=25225db3-a410-4708-b6ae-ee9323faa7f4"},"vehicle_type_id":"4","last_reported":1711296464,"current_range_meters":0,"station_id":"ce4bh292rcd13ifvqdf0","pricing_plan_id":"cebpf4jnsgd1na2vs0mg"},{"bike_id":"0f57cb68-0166-47ee-b9a7-646d2e6b431b","system_id":"levelo_inurba_marseille","lat":43.29033,"lon":5.38646,"is_reserved":false,"is_disabled":false,"rental_uris":{"android":"levelo://app?vid=0f57cb68-0166-47ee-b9a7-646d2e6b431b","ios":"levelo://app?vid=0f57cb68-0166-47ee-b9a7-646d2e6b431b"},"vehicle_type_id":"4","last_reported":1711296464,"current_range_meters":0,"station_id":"ce4bh4p2rcd13ifvqe0g","pricing_plan_id":"cebpf4jnsgd1na2vs0mg"},{"bike_id":"168dbeaa-6ab7-4f56-8f1c-aee67a22aa35","system_id":"levelo_inurba_marseille","lat":43.290345,"lon":5.38646,"is_reserved":false,"is_disabled":false,"rental_uris":{"android":"levelo://app?vid=168dbeaa-6ab7-4f56-8f1c-aee67a22aa35","ios":"levelo://app?vid=168dbeaa-6ab7-4f56-8f1c-aee67a22aa35"},"vehicle_type_id":"4","last_reported":1711296464,"current_range_meters":28800,"station_id":"ce4bh4p2rcd13ifvqe0g","pricing_plan_id":"cebpf4jnsgd1na2vs0mg"},{"bike_id":"68e85c7f-ea42-4ad9-b0ab-36f224618b61","system_id":"levelo_inurba_marseille","lat":43.284534,"lon":5.358662,"is_reserved":false,"is_disabled":false,"rental_uris":{"android":"levelo://app?vid=68e85c7f-ea42-4ad9-b0ab-36f224618b61","ios":"levelo://app?vid=68e85c7f-ea42-4ad9-b0ab-36f224618b61"},"vehicle_type_id":"4","last_reported":1711296464,"current_range_meters":0,"station_id":"ce4bhah2rcd13ifvqei0","pricing_plan_id":"cebpf4jnsgd1na2vs0mg"},{"bike_id":"33b4870a-b0f2-4574-b5a1-484e64acc09d","system_id":"levelo_inurba_marseille","lat":43.286039,"lon":5.370679,"is_reserved":false,"is_disabled":false,"rental_uris":{"android":"levelo://app?vid=33b4870a-b0f2-4574-b5a1-484e64acc09d","ios":"levelo://app?vid=33b4870a-b0f2-4574-b5a1-484e64acc09d"},"vehicle_type_id":"4","last_reported":1711296464,"current_range_meters":4800,"station_id":"ce4bht12rcd13ifvqi60","pricing_plan_id":"cebpf4jnsgd1na2vs0mg"},{"bike_id":"6a97c8ed-5b8e-42e3-a098-14131f942177","system_id":"levelo_inurba_marseille","lat":43.286039,"lon":5.370679,"is_reserved":false,"is_disabled":false,"rental_uris":{"android":"levelo://app?vid=6a97c8ed-5b8e-42e3-a098-14131f942177","ios":"levelo://app?vid=6a97c8ed-5b8e-42e3-a098-14131f942177"},"vehicle_type_id":"4","last_reported":1711296464,"current_range_meters":31200,"station_id":"ce4bht12rcd13ifvqi60","pricing_plan_id":"cebpf4jnsgd1na2vs0mg"},{"bike_id":"f2d7bf7e-db66-4d0b-9737-e052753d4418","system_id":"levelo_inurba_marseille","lat":43.287184,"lon":5.37937,"is_reserved":false,"is_disabled":false,"rental_uris":{"android":"levelo://app?vid=f2d7bf7e-db66-4d0b-9737-e052753d4418","ios":"levelo://app?vid=f2d7bf7e-db66-4d0b-9737-e052753d4418"},"vehicle_type_id":"4","last_reported":1711296464,"current_range_meters":14400,"station_id":"ce4bh9p2rcd13ifvqec0","pricing_plan_id":"cebpf4jnsgd1na2vs0mg"},{"bike_id":"6cdd680b-8e3c-471e-b2af-df1c6b891776","system_id":"levelo_inurba_marseille","lat":43.284534,"lon":5.358662,"is_reserved":false,"is_disabled":false,"rental_uris":{"android":"levelo://app?vid=6cdd680b-8e3c-471e-b2af-df1c6b891776","ios":"levelo://app?vid=6cdd680b-8e3c-471e-b2af-df1c6b891776"},"vehicle_type_id":"4","last_reported":1711296464,"current_range_meters":0,"station_id":"ce4bhah2rcd13ifvqei0","pricing_plan_id":"cebpf4jnsgd1na2vs0mg"},{"bike_id":"0c24c2f2-f87b-4ecb-89f6-e0782e49189f","system_id":"levelo_inurba_marseille","lat":43.286219,"lon":5.351098,"is_reserved":false,"is_disabled":false,"rental_uris":{"android":"levelo://app?vid=0c24c2f2-f87b-4ecb-89f6-e0782e49189f","ios":"levelo://app?vid=0c24c2f2-f87b-4ecb-89f6-e0782e49189f"},"vehicle_type_id":"4","last_reported":1711296464,"current_range_meters":0,"station_id":"ce4bhch2rcd13ifvqeug","pricing_plan_id":"cebpf4jnsgd1na2vs0mg"},{"bike_id":"c4b80e64-7f74-401f-93c2-94f4156a7739","system_id":"levelo_inurba_marseille","lat":43.285856,"lon":5.350771,"is_reserved":false,"is_disabled":false,"rental_uris":{"android":"levelo://app?vid=c4b80e64-7f74-401f-93c2-94f4156a7739","ios":"levelo://app?vid=c4b80e64-7f74-401f-93c2-94f4156a7739"},"vehicle_type_id":"4","last_reported":1711296464,"current_range_meters":0,"station_id":"ce4bhch2rcd13ifvqeug","pricing_plan_id":"cebpf4jnsgd1na2vs0mg"},{"bike_id":"e1400d4c-63e1-496b-976b-a5729b42e7e8","system_id":"levelo_inurba_marseille","lat":43.28618,"lon":5.35103,"is_reserved":false,"is_disabled":false,"rental_uris":{"android":"levelo://app?vid=e1400d4c-63e1-496b-976b-a5729b42e7e8","ios":"levelo://app?vid=e1400d4c-63e1-496b-976b-a5729b42e7e8"},"vehicle_type_id":"4","last_reported":1711296464,"current_range_meters":0,"station_id":"ce4bhch2rcd13ifvqeug","pricing_plan_id":"cebpf4jnsgd1na2vs0mg"},{"bike_id":"0e7914c1-540f-49ab-98b2-0f5f8b9940c9","system_id":"levelo_inurba_marseille","lat":43.28616,"lon":5.35101,"is_reserved":false,"is_disabled":false,"rental_uris":{"android":"levelo://app?vid=0e7914c1-540f-49ab-98b2-0f5f8b9940c9","ios":"levelo://app?vid=0e7914c1-540f-49ab-98b2-0f5f8b9940c9"},"vehicle_type_id":"4","last_reported":1711296464,"current_range_meters":0,"station_id":"ce4bhch2rcd13ifvqeug","pricing_plan_id":"cebpf4jnsgd1na2vs0mg"},{"bike_id":"b26d8f0b-6afc-4276-9109-940adc8ad051","system_id":"levelo_inurba_marseille","lat":43.285856,"lon":5.350771,"is_reserved":false,"is_disabled":false,"rental_uris":{"android":"levelo://app?vid=b26d8f0b-6afc-4276-9109-940adc8ad051","ios":"levelo://app?vid=b26d8f0b-6afc-4276-9109-940adc8ad051"},"vehicle_type_id":"4","last_reported":1711296464,"current_range_meters":0,"station_id":"ce4bhch2rcd13ifvqeug","pricing_plan_id":"cebpf4jnsgd1na2vs0mg"},{"bike_id":"93244332-34a4-41a0-9cad-b32add1e1ff2","system_id":"levelo_inurba_marseille","lat":43.28613,"lon":5.35096,"is_reserved":false,"is_disabled":false,"rental_uris":{"android":"levelo://app?vid=93244332-34a4-41a0-9cad-b32add1e1ff2","ios":"levelo://app?vid=93244332-34a4-41a0-9cad-b32add1e1ff2"},"vehicle_type_id":"4","last_reported":1711296464,"current_range_meters":10400,"station_id":"ce4bhch2rcd13ifvqeug","pricing_plan_id":"cebpf4jnsgd1na2vs0mg"},{"bike_id":"8148c380-311f-4d9b-9e9a-bbb24500c4df","system_id":"levelo_inurba_marseille","lat":43.283998,"lon":5.375062,"is_reserved":false,"is_disabled":false,"rental_uris":{"android":"levelo://app?vid=8148c380-311f-4d9b-9e9a-bbb24500c4df","ios":"levelo://app?vid=8148c380-311f-4d9b-9e9a-bbb24500c4df"},"vehicle_type_id":"4","last_reported":1711296464,"current_range_meters":0,"station_id":"ce4bh412rcd13ifvqds0","pricing_plan_id":"cebpf4jnsgd1na2vs0mg"},{"bike_id":"f6f7838c-2a2b-4a18-b894-099d3c191f7b","system_id":"levelo_inurba_marseille","lat":43.286595,"lon":5.386795,"is_reserved":false,"is_disabled":false,"rental_uris":{"android":"levelo://app?vid=f6f7838c-2a2b-4a18-b894-099d3c191f7b","ios":"levelo://app?vid=f6f7838c-2a2b-4a18-b894-099d3c191f7b"},"vehicle_type_id":"4","last_reported":1711296464,"current_range_meters":0,"station_id":"ce4bh492rcd13ifvqdug","pricing_plan_id":"cebpf4jnsgd1na2vs0mg"},{"bike_id":"9c72135d-c458-41b0-893f-8a6f2477be54","system_id":"levelo_inurba_marseille","lat":43.319179,"lon":5.407725,"is_reserved":false,"is_disabled":false,"rental_uris":{"android":"levelo://app?vid=9c72135d-c458-41b0-893f-8a6f2477be54","ios":"levelo://app?vid=9c72135d-c458-41b0-893f-8a6f2477be54"},"vehicle_type_id":"4","last_reported":1711296464,"current_range_meters":5200,"station_id":"ce4bhq12rcd13ifvqhig","pricing_plan_id":"cebpf4jnsgd1na2vs0mg"},{"bike_id":"6e7f57d7-686a-465f-9d85-9d0765dd5a14","system_id":"levelo_inurba_marseille","lat":43.337241,"lon":5.3918,"is_reserved":false,"is_disabled":false,"rental_uris":{"android":"levelo://app?vid=6e7f57d7-686a-465f-9d85-9d0765dd5a14","ios":"levelo://app?vid=6e7f57d7-686a-465f-9d85-9d0765dd5a14"},"vehicle_type_id":"4","last_reported":1711296464,"current_range_meters":21200,"station_id":"ce4bhr92rcd13ifvqhsg","pricing_plan_id":"cebpf4jnsgd1na2vs0mg"},{"bike_id":"ade27055-c65d-4e9d-8412-72da0beac548","system_id":"levelo_inurba_marseille","lat":43.323404,"lon":5.406212,"is_reserved":false,"is_disabled":false,"rental_uris":{"android":"levelo://app?vid=ade27055-c65d-4e9d-8412-72da0beac548","ios":"levelo://app?vid=ade27055-c65d-4e9d-8412-72da0beac548"},"vehicle_type_id":"4","last_reported":1711296464,"current_range_meters":30400,"station_id":"ce4bhq92rcd13ifvqhjg","pricing_plan_id":"cebpf4jnsgd1na2vs0mg"},{"bike_id":"58638f4c-852c-4606-8fed-9441c2a8ce4d","system_id":"levelo_inurba_marseille","lat":43.284787,"lon":5.384116,"is_reserved":false,"is_disabled":false,"rental_uris":{"android":"levelo://app?vid=58638f4c-852c-4606-8fed-9441c2a8ce4d","ios":"levelo://app?vid=58638f4c-852c-4606-8fed-9441c2a8ce4d"},"vehicle_type_id":"4","last_reported":1711296464,"current_range_meters":0,"station_id":"ce4bh512rcd13ifvqe3g","pricing_plan_id":"cebpf4jnsgd1na2vs0mg"},{"bike_id":"9812c698-a52e-445b-ab53-49e16bc75b2a","system_id":"levelo_inurba_marseille","lat":43.28481,"lon":5.38412,"is_reserved":false,"is_disabled":false,"rental_uris":{"android":"levelo://app?vid=9812c698-a52e-445b-ab53-49e16bc75b2a","ios":"levelo://app?vid=9812c698-a52e-445b-ab53-49e16bc75b2a"},"vehicle_type_id":"4","last_reported":1711296464,"current_range_meters":0,"station_id":"ce4bh512rcd13ifvqe3g","pricing_plan_id":"cebpf4jnsgd1na2vs0mg"},{"bike_id":"24df9817-b640-450b-8f26-99cb8713d49e","system_id":"levelo_inurba_marseille","lat":43.284172,"lon":5.350102,"is_reserved":false,"is_disabled":false,"rental_uris":{"android":"levelo://app?vid=24df9817-b640-450b-8f26-99cb8713d49e","ios":"levelo://app?vid=24df9817-b640-450b-8f26-99cb8713d49e"},"vehicle_type_id":"4","last_reported":1711296464,"current_range_meters":8000,"station_id":"","pricing_plan_id":"cebpf4jnsgd1na2vs0mg"},{"bike_id":"9d7a5d99-dfba-4ddb-a0e2-bc954f2d8968","system_id":"levelo_inurba_marseille","lat":43.28421,"lon":5.34997,"is_reserved":false,"is_disabled":false,"rental_uris":{"android":"levelo://app?vid=9d7a5d99-dfba-4ddb-a0e2-bc954f2d8968","ios":"levelo://app?vid=9d7a5d99-dfba-4ddb-a0e2-bc954f2d8968"},"vehicle_type_id":"4","last_reported":1711296464,"current_range_meters":18000,"station_id":"ce4bhbh2rcd13ifvqepg","pricing_plan_id":"cebpf4jnsgd1na2vs0mg"},{"bike_id":"d7ff8121-6654-4a5c-a94f-bff989d5ff38","system_id":"levelo_inurba_marseille","lat":43.284219,"lon":5.3497,"is_reserved":false,"is_disabled":false,"rental_uris":{"android":"levelo://app?vid=d7ff8121-6654-4a5c-a94f-bff989d5ff38","ios":"levelo://app?vid=d7ff8121-6654-4a5c-a94f-bff989d5ff38"},"vehicle_type_id":"4","last_reported":1711296464,"current_range_meters":27600,"station_id":"ce4bhbh2rcd13ifvqepg","pricing_plan_id":"cebpf4jnsgd1na2vs0mg"},{"bike_id":"ecdc1546-a8c5-4358-a5a0-7069ee2b624f","system_id":"levelo_inurba_marseille","lat":43.28418,"lon":5.34996,"is_reserved":false,"is_disabled":false,"rental_uris":{"android":"levelo://app?vid=ecdc1546-a8c5-4358-a5a0-7069ee2b624f","ios":"levelo://app?vid=ecdc1546-a8c5-4358-a5a0-7069ee2b624f"},"vehicle_type_id":"4","last_reported":1711296464,"current_range_meters":0,"station_id":"ce4bhbh2rcd13ifvqepg","pricing_plan_id":"cebpf4jnsgd1na2vs0mg"},{"bike_id":"47896df3-daa9-4202-9067-02f81419992c","system_id":"levelo_inurba_marseille","lat":43.284214,"lon":5.349706,"is_reserved":false,"is_disabled":false,"rental_uris":{"android":"levelo://app?vid=47896df3-daa9-4202-9067-02f81419992c","ios":"levelo://app?vid=47896df3-daa9-4202-9067-02f81419992c"},"vehicle_type_id":"4","last_reported":1711296464,"current_range_meters":11200,"station_id":"ce4bhbh2rcd13ifvqepg","pricing_plan_id":"cebpf4jnsgd1na2vs0mg"},{"bike_id":"bb6c966f-bbf2-4cf5-b982-11426dd7ebae","system_id":"levelo_inurba_marseille","lat":43.284214,"lon":5.349706,"is_reserved":false,"is_disabled":false,"rental_uris":{"android":"levelo://app?vid=bb6c966f-bbf2-4cf5-b982-11426dd7ebae","ios":"levelo://app?vid=bb6c966f-bbf2-4cf5-b982-11426dd7ebae"},"vehicle_type_id":"4","last_reported":1711296464,"current_range_meters":23200,"station_id":"ce4bhbh2rcd13ifvqepg","pricing_plan_id":"cebpf4jnsgd1na2vs0mg"},{"bike_id":"7f541f3a-7851-4141-afcf-b7efe405df8c","system_id":"levelo_inurba_marseille","lat":43.284169,"lon":5.349915,"is_reserved":false,"is_disabled":false,"rental_uris":{"android":"levelo://app?vid=7f541f3a-7851-4141-afcf-b7efe405df8c","ios":"levelo://app?vid=7f541f3a-7851-4141-afcf-b7efe405df8c"},"vehicle_type_id":"4","last_reported":1711296464,"current_range_meters":25200,"station_id":"ce4bhbh2rcd13ifvqepg","pricing_plan_id":"cebpf4jnsgd1na2vs0mg"},{"bike_id":"4be7cb49-be41-4c64-8e56-4baed80d4cb1","system_id":"levelo_inurba_marseille","lat":43.28417,"lon":5.3499,"is_reserved":false,"is_disabled":false,"rental_uris":{"android":"levelo://app?vid=4be7cb49-be41-4c64-8e56-4baed80d4cb1","ios":"levelo://app?vid=4be7cb49-be41-4c64-8e56-4baed80d4cb1"},"vehicle_type_id":"4","last_reported":1711296464,"current_range_meters":3200,"station_id":"ce4bhbh2rcd13ifvqepg","pricing_plan_id":"cebpf4jnsgd1na2vs0mg"},{"bike_id":"c8188893-2274-4fbc-883b-92da23a772d0","system_id":"levelo_inurba_marseille","lat":43.28416,"lon":5.34992,"is_reserved":false,"is_disabled":false,"rental_uris":{"android":"levelo://app?vid=c8188893-2274-4fbc-883b-92da23a772d0","ios":"levelo://app?vid=c8188893-2274-4fbc-883b-92da23a772d0"},"vehicle_type_id":"4","last_reported":1711296464,"current_range_meters":10400,"station_id":"ce4bhbh2rcd13ifvqepg","pricing_plan_id":"cebpf4jnsgd1na2vs0mg"},{"bike_id":"9d33a5b0-1828-4d00-96cc-9b48f83b837f","system_id":"levelo_inurba_marseille","lat":43.284186,"lon":5.349816,"is_reserved":false,"is_disabled":false,"rental_uris":{"android":"levelo://app?vid=9d33a5b0-1828-4d00-96cc-9b48f83b837f","ios":"levelo://app?vid=9d33a5b0-1828-4d00-96cc-9b48f83b837f"},"vehicle_type_id":"4","last_reported":1711296464,"current_range_meters":0,"station_id":"ce4bhbh2rcd13ifvqepg","pricing_plan_id":"cebpf4jnsgd1na2vs0mg"},{"bike_id":"160eb966-d451-477c-96db-dee7da572644","system_id":"levelo_inurba_marseille","lat":43.284188,"lon":5.349804,"is_reserved":false,"is_disabled":false,"rental_uris":{"android":"levelo://app?vid=160eb966-d451-477c-96db-dee7da572644","ios":"levelo://app?vid=160eb966-d451-477c-96db-dee7da572644"},"vehicle_type_id":"4","last_reported":1711296464,"current_range_meters":13600,"station_id":"ce4bhbh2rcd13ifvqepg","pricing_plan_id":"cebpf4jnsgd1na2vs0mg"},{"bike_id":"65283e1f-97db-40c2-8f2d-01e83bde18a1","system_id":"levelo_inurba_marseille","lat":43.284217,"lon":5.349697,"is_reserved":false,"is_disabled":false,"rental_uris":{"android":"levelo://app?vid=65283e1f-97db-40c2-8f2d-01e83bde18a1","ios":"levelo://app?vid=65283e1f-97db-40c2-8f2d-01e83bde18a1"},"vehicle_type_id":"4","last_reported":1711296464,"current_range_meters":23600,"station_id":"ce4bhbh2rcd13ifvqepg","pricing_plan_id":"cebpf4jnsgd1na2vs0mg"},{"bike_id":"ab188af7-8e06-4ebe-8d7b-2f7681d2326d","system_id":"levelo_inurba_marseille","lat":43.284137,"lon":5.349937,"is_reserved":false,"is_disabled":false,"rental_uris":{"android":"levelo://app?vid=ab188af7-8e06-4ebe-8d7b-2f7681d2326d","ios":"levelo://app?vid=ab188af7-8e06-4ebe-8d7b-2f7681d2326d"},"vehicle_type_id":"4","last_reported":1711296464,"current_range_meters":18400,"station_id":"ce4bhbh2rcd13ifvqepg","pricing_plan_id":"cebpf4jnsgd1na2vs0mg"},{"bike_id":"3cf29f5d-3e3c-4b04-9d01-d2fee8718525","system_id":"levelo_inurba_marseille","lat":43.284146,"lon":5.349904,"is_reserved":false,"is_disabled":false,"rental_uris":{"android":"levelo://app?vid=3cf29f5d-3e3c-4b04-9d01-d2fee8718525","ios":"levelo://app?vid=3cf29f5d-3e3c-4b04-9d01-d2fee8718525"},"vehicle_type_id":"4","last_reported":1711296464,"current_range_meters":2400,"station_id":"ce4bhbh2rcd13ifvqepg","pricing_plan_id":"cebpf4jnsgd1na2vs0mg"},{"bike_id":"673b5f58-63db-429a-8223-4f7b842f5638","system_id":"levelo_inurba_marseille","lat":43.284169,"lon":5.349822,"is_reserved":false,"is_disabled":false,"rental_uris":{"android":"levelo://app?vid=673b5f58-63db-429a-8223-4f7b842f5638","ios":"levelo://app?vid=673b5f58-63db-429a-8223-4f7b842f5638"},"vehicle_type_id":"4","last_reported":1711296464,"current_range_meters":3600,"station_id":"ce4bhbh2rcd13ifvqepg","pricing_plan_id":"cebpf4jnsgd1na2vs0mg"},{"bike_id":"5d1f3aaa-a08a-45cf-9675-6451dd4dc516","system_id":"levelo_inurba_marseille","lat":43.28413,"lon":5.34991,"is_reserved":false,"is_disabled":false,"rental_uris":{"android":"levelo://app?vid=5d1f3aaa-a08a-45cf-9675-6451dd4dc516","ios":"levelo://app?vid=5d1f3aaa-a08a-45cf-9675-6451dd4dc516"},"vehicle_type_id":"4","last_reported":1711296464,"current_range_meters":5600,"station_id":"ce4bhbh2rcd13ifvqepg","pricing_plan_id":"cebpf4jnsgd1na2vs0mg"},{"bike_id":"8f3a1737-eedc-4156-91ac-6c14b30e4b99","system_id":"levelo_inurba_marseille","lat":43.284149,"lon":5.349839,"is_reserved":false,"is_disabled":false,"rental_uris":{"android":"levelo://app?vid=8f3a1737-eedc-4156-91ac-6c14b30e4b99","ios":"levelo://app?vid=8f3a1737-eedc-4156-91ac-6c14b30e4b99"},"vehicle_type_id":"4","last_reported":1711296464,"current_range_meters":16800,"station_id":"ce4bhbh2rcd13ifvqepg","pricing_plan_id":"cebpf4jnsgd1na2vs0mg"},{"bike_id":"54f47b3f-df24-4f13-a3eb-7ab0caa4bfa5","system_id":"levelo_inurba_marseille","lat":43.284219,"lon":5.3497,"is_reserved":false,"is_disabled":false,"rental_uris":{"android":"levelo://app?vid=54f47b3f-df24-4f13-a3eb-7ab0caa4bfa5","ios":"levelo://app?vid=54f47b3f-df24-4f13-a3eb-7ab0caa4bfa5"},"vehicle_type_id":"4","last_reported":1711296464,"current_range_meters":1200,"station_id":"ce4bhbh2rcd13ifvqepg","pricing_plan_id":"cebpf4jnsgd1na2vs0mg"},{"bike_id":"d602ac63-312e-4a7e-833f-9bd0e7c9e8f0","system_id":"levelo_inurba_marseille","lat":43.284121,"lon":5.349911,"is_reserved":false,"is_disabled":false,"rental_uris":{"android":"levelo://app?vid=d602ac63-312e-4a7e-833f-9bd0e7c9e8f0","ios":"levelo://app?vid=d602ac63-312e-4a7e-833f-9bd0e7c9e8f0"},"vehicle_type_id":"4","last_reported":1711296464,"current_range_meters":30800,"station_id":"ce4bhbh2rcd13ifvqepg","pricing_plan_id":"cebpf4jnsgd1na2vs0mg"},{"bike_id":"50482a5a-84a9-46ca-b3b9-26da48d3c056","system_id":"levelo_inurba_marseille","lat":43.292724,"lon":5.401131,"is_reserved":false,"is_disabled":false,"rental_uris":{"android":"levelo://app?vid=50482a5a-84a9-46ca-b3b9-26da48d3c056","ios":"levelo://app?vid=50482a5a-84a9-46ca-b3b9-26da48d3c056"},"vehicle_type_id":"4","last_reported":1711296464,"current_range_meters":0,"station_id":"ce4bh312rcd13ifvqdk0","pricing_plan_id":"cebpf4jnsgd1na2vs0mg"},{"bike_id":"4e238365-56a1-4ce6-aab7-f768b859dd9f","system_id":"levelo_inurba_marseille","lat":43.292698,"lon":5.401111,"is_reserved":false,"is_disabled":false,"rental_uris":{"android":"levelo://app?vid=4e238365-56a1-4ce6-aab7-f768b859dd9f","ios":"levelo://app?vid=4e238365-56a1-4ce6-aab7-f768b859dd9f"},"vehicle_type_id":"4","last_reported":1711296464,"current_range_meters":4400,"station_id":"ce4bh312rcd13ifvqdk0","pricing_plan_id":"cebpf4jnsgd1na2vs0mg"},{"bike_id":"244e9cb4-f5de-42b7-80e6-ffb3f7715a6e","system_id":"levelo_inurba_marseille","lat":43.29281,"lon":5.40124,"is_reserved":false,"is_disabled":false,"rental_uris":{"android":"levelo://app?vid=244e9cb4-f5de-42b7-80e6-ffb3f7715a6e","ios":"levelo://app?vid=244e9cb4-f5de-42b7-80e6-ffb3f7715a6e"},"vehicle_type_id":"4","last_reported":1711296464,"current_range_meters":0,"station_id":"ce4bh312rcd13ifvqdk0","pricing_plan_id":"cebpf4jnsgd1na2vs0mg"},{"bike_id":"7fadcf25-2547-40da-aa2c-06bfe9dec57a","system_id":"levelo_inurba_marseille","lat":43.282723,"lon":5.350617,"is_reserved":false,"is_disabled":false,"rental_uris":{"android":"levelo://app?vid=7fadcf25-2547-40da-aa2c-06bfe9dec57a","ios":"levelo://app?vid=7fadcf25-2547-40da-aa2c-06bfe9dec57a"},"vehicle_type_id":"4","last_reported":1711296464,"current_range_meters":0,"station_id":"ce4bhbp2rcd13ifvqerg","pricing_plan_id":"cebpf4jnsgd1na2vs0mg"},{"bike_id":"6175d772-1347-45d3-ae6e-2116362f7990","system_id":"levelo_inurba_marseille","lat":43.282744,"lon":5.350533,"is_reserved":false,"is_disabled":false,"rental_uris":{"android":"levelo://app?vid=6175d772-1347-45d3-ae6e-2116362f7990","ios":"levelo://app?vid=6175d772-1347-45d3-ae6e-2116362f7990"},"vehicle_type_id":"4","last_reported":1711296464,"current_range_meters":0,"station_id":"ce4bhbp2rcd13ifvqerg","pricing_plan_id":"cebpf4jnsgd1na2vs0mg"},{"bike_id":"6b711d3a-d96b-409a-a6c2-3f96b4bf79d8","system_id":"levelo_inurba_marseille","lat":43.28264,"lon":5.35078,"is_reserved":false,"is_disabled":false,"rental_uris":{"android":"levelo://app?vid=6b711d3a-d96b-409a-a6c2-3f96b4bf79d8","ios":"levelo://app?vid=6b711d3a-d96b-409a-a6c2-3f96b4bf79d8"},"vehicle_type_id":"4","last_reported":1711296464,"current_range_meters":0,"station_id":"ce4bhbp2rcd13ifvqerg","pricing_plan_id":"cebpf4jnsgd1na2vs0mg"},{"bike_id":"32c37032-634c-4cc6-9243-e12de6cec8c9","system_id":"levelo_inurba_marseille","lat":43.282672,"lon":5.350668,"is_reserved":false,"is_disabled":false,"rental_uris":{"android":"levelo://app?vid=32c37032-634c-4cc6-9243-e12de6cec8c9","ios":"levelo://app?vid=32c37032-634c-4cc6-9243-e12de6cec8c9"},"vehicle_type_id":"4","last_reported":1711296464,"current_range_meters":0,"station_id":"ce4bhbp2rcd13ifvqerg","pricing_plan_id":"cebpf4jnsgd1na2vs0mg"},{"bike_id":"7867b683-7d10-4f8e-95bc-2a6cfcc989fd","system_id":"levelo_inurba_marseille","lat":43.28266,"lon":5.35066,"is_reserved":false,"is_disabled":false,"rental_uris":{"android":"levelo://app?vid=7867b683-7d10-4f8e-95bc-2a6cfcc989fd","ios":"levelo://app?vid=7867b683-7d10-4f8e-95bc-2a6cfcc989fd"},"vehicle_type_id":"4","last_reported":1711296464,"current_range_meters":0,"station_id":"ce4bhbp2rcd13ifvqerg","pricing_plan_id":"cebpf4jnsgd1na2vs0mg"},{"bike_id":"d5b48c41-87a4-4b82-bb1c-1947d152b606","system_id":"levelo_inurba_marseille","lat":43.282754,"lon":5.350519,"is_reserved":false,"is_disabled":false,"rental_uris":{"android":"levelo://app?vid=d5b48c41-87a4-4b82-bb1c-1947d152b606","ios":"levelo://app?vid=d5b48c41-87a4-4b82-bb1c-1947d152b606"},"vehicle_type_id":"4","last_reported":1711296464,"current_range_meters":0,"station_id":"ce4bhbp2rcd13ifvqerg","pricing_plan_id":"cebpf4jnsgd1na2vs0mg"},{"bike_id":"ac64a89c-839c-44af-9b93-9e2e1be1662a","system_id":"levelo_inurba_marseille","lat":43.282628,"lon":5.350766,"is_reserved":false,"is_disabled":false,"rental_uris":{"android":"levelo://app?vid=ac64a89c-839c-44af-9b93-9e2e1be1662a","ios":"levelo://app?vid=ac64a89c-839c-44af-9b93-9e2e1be1662a"},"vehicle_type_id":"4","last_reported":1711296464,"current_range_meters":0,"station_id":"ce4bhbp2rcd13ifvqerg","pricing_plan_id":"cebpf4jnsgd1na2vs0mg"},