{"last_updated":1706367953,"ttl":30,"version":"2.2","data":{"bikes":[{"bike_id":"5d539538-ebaf-463c-9048-8024b2f92059","system_id":"levelo_inurba_marseille","lat":43.308937,"lon":5.371863,"is_reserved":false,"is_disabled":false,"rental_uris":{"android":"levelo://app?vid=5d539538-ebaf-463c-9048-8024b2f92059","ios":"levelo://app?vid=5d539538-ebaf-463c-9048-8024b2f92059"},"vehicle_type_id":"4","last_reported":1706367953,"current_range_meters":3200,"station_id":"ce4bguh2rcd13ifvqckg","pricing_plan_id":"free"},{"bike_id":"f8b27a6a-ba14-4fea-87ef-13bd828b6842","system_id":"levelo_inurba_marseille","lat":43.308945,"lon":5.371926,"is_reserved":false,"is_disabled":false,"rental_uris":{"android":"levelo://app?vid=f8b27a6a-ba14-4fea-87ef-13bd828b6842","ios":"levelo://app?vid=f8b27a6a-ba14-4fea-87ef-13bd828b6842"},"vehicle_type_id":"4","last_reported":1706367953,"current_range_meters":26000,"station_id":"","pricing_plan_id":"free"},{"bike_id":"81cd66a4-cfe1-47a6-9709-392b328ede2e","system_id":"levelo_inurba_marseille","lat":43.309034,"lon":5.371783,"is_reserved":false,"is_disabled":false,"rental_uris":{"android":"levelo://app?vid=81cd66a4-cfe1-47a6-9709-392b328ede2e","ios":"levelo://app?vid=81cd66a4-cfe1-47a6-9709-392b328ede2e"},"vehicle_type_id":"4","last_reported":1706367953,"current_range_meters":28000,"station_id":"ce4bguh2rcd13ifvqckg","pricing_plan_id":"free"},{"bike_id":"9eba90a6-c067-40b0-9cde-94498860895c","system_id":"levelo_inurba_marseille","lat":43.305706,"lon":5.365654,"is_reserved":false,"is_disabled":false,"rental_uris":{"android":"levelo://app?vid=9eba90a6-c067-40b0-9cde-94498860895c","ios":"levelo://app?vid=9eba90a6-c067-40b0-9cde-94498860895c"},"vehicle_type_id":"4","last_reported":1706367953,"current_range_meters":1200,"station_id":"ce4bgs12rcd13ifvqcag","pricing_plan_id":"free"},{"bike_id":"42681257-95c6-472b-ab92-1ae8670728a8","system_id":"levelo_inurba_marseille","lat":43.30591,"lon":5.37227,"is_reserved":false,"is_disabled":false,"rental_uris":{"android":"levelo://app?vid=42681257-95c6-472b-ab92-1ae8670728a8","ios":"levelo://app?vid=42681257-95c6-472b-ab92-1ae8670728a8"},"vehicle_type_id":"4","last_reported":1706367953,"current_range_meters":20800,"station_id":"","pricing_plan_id":"free"},{"bike_id":"96a1aa84-8101-471f-976b-0319fd257f16","system_id":"levelo_inurba_marseille","lat":43.31128,"lon":5.37754,"is_reserved":false,"is_disabled":false,"rental_uris":{"android":"levelo://app?vid=96a1aa84-8101-471f-976b-0319fd257f16","ios":"levelo://app?vid=96a1aa84-8101-471f-976b-0319fd257f16"},"vehicle_type_id":"4","last_reported":1706367953,"current_range_meters":0,"station_id":"ce4bgt92rcd13ifvqcg0","pricing_plan_id":"free"},{"bike_id":"e8d784f6-0a8e-4995-8c20-772d1bc40d36","system_id":"levelo_inurba_marseille","lat":43.31142,"lon":5.37765,"is_reserved":false,"is_disabled":false,"rental_uris":{"android":"levelo://app?vid=e8d784f6-0a8e-4995-8c20-772d1bc40d36","ios":"levelo://app?vid=e8d784f6-0a8e-4995-8c20-772d1bc40d36"},"vehicle_type_id":"4","last_reported":1706367953,"current_range_meters":16000,"station_id":"ce4bgt92rcd13ifvqcg0","pricing_plan_id":"free"},{"bike_id":"2c9bc55b-7862-4fee-93cf-332da9ff1878","system_id":"levelo_inurba_marseille","lat":43.317075,"lon":5.377367,"is_reserved":false,"is_disabled":false,"rental_uris":{"android":"levelo://app?vid=2c9bc55b-7862-4fee-93cf-332da9ff1878","ios":"levelo://app?vid=2c9bc55b-7862-4fee-93cf-332da9ff1878"},"vehicle_type_id":"4","last_reported":1706367953,"current_range_meters":22800,"station_id":"ce4bgth2rcd13ifvqch0","pricing_plan_id":"free"},{"bike_id":"b83daeb9-a39c-4884-86e2-16a37c651f7f","system_id":"levelo_inurba_marseille","lat":43.32006,"lon":5.37615,"is_reserved":false,"is_disabled":false,"rental_uris":{"android":"levelo://app?vid=b83daeb9-a39c-4884-86e2-16a37c651f7f","ios":"levelo://app?vid=b83daeb9-a39c-4884-86e2-16a37c651f7f"},"vehicle_type_id":"4","last_reported":1706367953,"current_range_meters":10400,"station_id":"","pricing_plan_id":"free"},{"bike_id":"014d3d87-17d1-48ec-8971-ee83baddd4b3","system_id":"levelo_inurba_marseille","lat":43.308016,"lon":5.381426,"is_reserved":false,"is_disabled":false,"rental_uris":{"android":"levelo://app?vid=014d3d87-17d1-48ec-8971-ee83baddd4b3","ios":"levelo://app?vid=014d3d87-17d1-48ec-8971-ee83baddd4b3"},"vehicle_type_id":"4","last_reported":1706367953,"current_range_meters":8000,"station_id":"ce4bgt12rcd13ifvqce0","pricing_plan_id":"free"},{"bike_id":"5f12d30d-faa2-4f0c-afe1-e1ca4d096636","system_id":"levelo_inurba_marseille","lat":43.30812,"lon":5.38153,"is_reserved":false,"is_disabled":false,"rental_uris":{"android":"levelo://app?vid=5f12d30d-faa2-4f0c-afe1-e1ca4d096636","ios":"levelo://app?vid=5f12d30d-faa2-4f0c-afe1-e1ca4d096636"},"vehicle_type_id":"4","last_reported":1706367953,"current_range_meters":4400,"station_id":"ce4bgt12rcd13ifvqce0","pricing_plan_id":"free"},{"bike_id":"bc3dd7b7-d293-4c8b-a5b8-da5ee8c9a2af","system_id":"levelo_inurba_marseille","lat":43.30471,"lon":5.379,"is_reserved":false,"is_disabled":false,"rental_uris":{"android":"levelo://app?vid=bc3dd7b7-d293-4c8b-a5b8-da5ee8c9a2af","ios":"levelo://app?vid=bc3dd7b7-d293-4c8b-a5b8-da5ee8c9a2af"},"vehicle_type_id":"4","last_reported":1706367953,"current_range_meters":12400,"station_id":"ce4bgup2rcd13ifvqcn0","pricing_plan_id":"free"},{"bike_id":"d462dd8f-aec3-445c-89f6-947e7a4e9853","system_id":"levelo_inurba_marseille","lat":43.304606,"lon":5.379026,"is_reserved":false,"is_disabled":false,"rental_uris":{"android":"levelo://app?vid=d462dd8f-aec3-445c-89f6-947e7a4e9853","ios":"levelo://app?vid=d462dd8f-aec3-445c-89f6-947e7a4e9853"},"vehicle_type_id":"4","last_reported":1706367953,"current_range_meters":0,"station_id":"ce4bgup2rcd13ifvqcn0","pricing_plan_id":"free"},{"bike_id":"a6b6c3b1-f865-43e4-a228-33d4cf3abd36","system_id":"levelo_inurba_marseille","lat":43.30463,"lon":5.37901,"is_reserved":false,"is_disabled":false,"rental_uris":{"android":"levelo://app?vid=a6b6c3b1-f865-43e4-a228-33d4cf3abd36","ios":"levelo://app?vid=a6b6c3b1-f865-43e4-a228-33d4cf3abd36"},"vehicle_type_id":"4","last_reported":1706367953,"current_range_meters":23600,"station_id":"ce4bgup2rcd13ifvqcn0","pricing_plan_id":"free"},{"bike_id":"86d4df1c-8a93-45a8-af3f-2f4e9388b4dd","system_id":"levelo_inurba_marseille","lat":43.302934,"lon":5.376974,"is_reserved":false,"is_disabled":false,"rental_uris":{"android":"levelo://app?vid=86d4df1c-8a93-45a8-af3f-2f4e9388b4dd","ios":"levelo://app?vid=86d4df1c-8a93-45a8-af3f-2f4e9388b4dd"},"vehicle_type_id":"4","last_reported":1706367953,"current_range_meters":0,"station_id":"ce4bguh2rcd13ifvqcj0","pricing_plan_id":"free"},{"bike_id":"006aaca8-523f-4c86-945d-1200600b772a","system_id":"levelo_inurba_marseille","lat":43.30285,"lon":5.37695,"is_reserved":false,"is_disabled":false,"rental_uris":{"android":"levelo://app?vid=006aaca8-523f-4c86-945d-1200600b772a","ios":"levelo://app?vid=006aaca8-523f-4c86-945d-1200600b772a"},"vehicle_type_id":"4","last_reported":1706367953,"current_range_meters":14400,"station_id":"ce4bguh2rcd13ifvqcj0","pricing_plan_id":"free"},{"bike_id":"ae7ab608-8fac-4c0d-9f43-8ffacb07a49d","system_id":"levelo_inurba_marseille","lat":43.319935,"lon":5.381699,"is_reserved":false,"is_disabled":false,"rental_uris":{"android":"levelo://app?vid=ae7ab608-8fac-4c0d-9f43-8ffacb07a49d","ios":"levelo://app?vid=ae7ab608-8fac-4c0d-9f43-8ffacb07a49d"},"vehicle_type_id":"4","last_reported":1706367953,"current_range_meters":2800,"station_id":"ce4bhr12rcd13ifvqhpg","pricing_plan_id":"free"},{"bike_id":"be024971-d37d-482d-8c1c-a4d0be70068c","system_id":"levelo_inurba_marseille","lat":43.319935,"lon":5.381699,"is_reserved":false,"is_disabled":false,"rental_uris":{"android":"levelo://app?vid=be024971-d37d-482d-8c1c-a4d0be70068c","ios":"levelo://app?vid=be024971-d37d-482d-8c1c-a4d0be70068c"},"vehicle_type_id":"4","last_reported":1706367953,"current_range_meters":0,"station_id":"ce4bhr12rcd13ifvqhpg","pricing_plan_id":"free"},{"bike_id":"5f7ec9ca-defa-4048-96f4-b62ebd1a927a","system_id":"levelo_inurba_marseille","lat":43.319935,"lon":5.381699,"is_reserved":false,"is_disabled":false,"rental_uris":{"android":"levelo://app?vid=5f7ec9ca-defa-4048-96f4-b62ebd1a927a","ios":"levelo://app?vid=5f7ec9ca-defa-4048-96f4-b62ebd1a927a"},"vehicle_type_id":"4","last_reported":1706367953,"current_range_meters":18800,"station_id":"ce4bhr12rcd13ifvqhpg","pricing_plan_id":"free"},{"bike_id":"fbd1c7c8-59f4-40f3-bd13-92a41198f404","system_id":"levelo_inurba_marseille","lat":43.319935,"lon":5.381699,"is_reserved":false,"is_disabled":false,"rental_uris":{"android":"levelo://app?vid=fbd1c7c8-59f4-40f3-bd13-92a41198f404","ios":"levelo://app?vid=fbd1c7c8-59f4-40f3-bd13-92a41198f404"},"vehicle_type_id":"4","last_reported":1706367953,"current_range_meters":16000,"station_id":"ce4bhr12rcd13ifvqhpg","pricing_plan_id":"free"},{"bike_id":"28e2fabb-9930-4cfd-b231-94a7b3dd30d7","system_id":"levelo_inurba_marseille","lat":43.313571,"lon":5.384829,"is_reserved":false,"is_disabled":false,"rental_uris":{"android":"levelo://app?vid=28e2fabb-9930-4cfd-b231-94a7b3dd30d7","ios":"levelo://app?vid=28e2fabb-9930-4cfd-b231-94a7b3dd30d7"},"vehicle_type_id":"4","last_reported":1706367953,"current_range_meters":7200,"station_id":"ce4bgt92rcd13ifvqcf0","pricing_plan_id":"free"},{"bike_id":"abda7936-e16e-4f29-8121-4c71b096d8fa","system_id":"levelo_inurba_marseille","lat":43.299724,"lon":5.371829,"is_reserved":false,"is_disabled":false,"rental_uris":{"android":"levelo://app?vid=abda7936-e16e-4f29-8121-4c71b096d8fa","ios":"levelo://app?vid=abda7936-e16e-4f29-8121-4c71b096d8fa"},"vehicle_type_id":"4","last_reported":1706367953,"current_range_meters":15200,"station_id":"ce4bgr92rcd13ifvqc7g","pricing_plan_id":"free"},{"bike_id":"bd9839f6-5813-48da-b048-c82da255d722","system_id":"levelo_inurba_marseille","lat":43.299222,"lon":5.365554,"is_reserved":false,"is_disabled":false,"rental_uris":{"android":"levelo://app?vid=bd9839f6-5813-48da-b048-c82da255d722","ios":"levelo://app?vid=bd9839f6-5813-48da-b048-c82da255d722"},"vehicle_type_id":"4","last_reported":1706367953,"current_range_meters":800,"station_id":"ce4bgm92rcd13ifvqbr0","pricing_plan_id":"free"},{"bike_id":"35be57aa-0dbd-441d-8194-c082e4f36312","system_id":"levelo_inurba_marseille","lat":43.299222,"lon":5.365554,"is_reserved":false,"is_disabled":false,"rental_uris":{"android":"levelo://app?vid=35be57aa-0dbd-441d-8194-c082e4f36312","ios":"levelo://app?vid=35be57aa-0dbd-441d-8194-c082e4f36312"},"vehicle_type_id":"4","last_reported":1706367953,"current_range_meters":0,"station_id":"ce4bgm92rcd13ifvqbr0","pricing_plan_id":"free"},{"bike_id":"029d1edc-c531-402f-8385-40de0e770dc7","system_id":"levelo_inurba_marseille","lat":43.298433,"lon":5.362774,"is_reserved":false,"is_disabled":false,"rental_uris":{"android":"levelo://app?vid=029d1edc-c531-402f-8385-40de0e770dc7","ios":"levelo://app?vid=029d1edc-c531-402f-8385-40de0e770dc7"},"vehicle_type_id":"4","last_reported":1706367953,"current_range_meters":0,"station_id":"ce4bgpp2rcd13ifvqc3g","pricing_plan_id":"free"},{"bike_id":"0b800db3-cc96-4a2f-b67a-a9258356acc2","system_id":"levelo_inurba_marseille","lat":43.299243,"lon":5.37481,"is_reserved":false,"is_disabled":false,"rental_uris":{"android":"levelo://app?vid=0b800db3-cc96-4a2f-b67a-a9258356acc2","ios":"levelo://app?vid=0b800db3-cc96-4a2f-b67a-a9258356acc2"},"vehicle_type_id":"4","last_reported":1706367953,"current_range_meters":23200,"station_id":"ce4bgjh2rcd13ifvqbg0","pricing_plan_id":"free"},{"bike_id":"965a5dab-e227-4efc-b518-9780186a9de9","system_id":"levelo_inurba_marseille","lat":43.322867,"lon":5.382606,"is_reserved":false,"is_disabled":false,"rental_uris":{"android":"levelo://app?vid=965a5dab-e227-4efc-b518-9780186a9de9","ios":"levelo://app?vid=965a5dab-e227-4efc-b518-9780186a9de9"},"vehicle_type_id":"4","last_reported":1706367953,"current_range_meters":23200,"station_id":"ce4bhr12rcd13ifvqhqg","pricing_plan_id":"free"},{"bike_id":"416475d6-ef00-46bd-9618-e51e0a232531","system_id":"levelo_inurba_marseille","lat":43.32285,"lon":5.3827,"is_reserved":false,"is_disabled":false,"rental_uris":{"android":"levelo://app?vid=416475d6-ef00-46bd-9618-e51e0a232531","ios":"levelo://app?vid=416475d6-ef00-46bd-9618-e51e0a232531"},"vehicle_type_id":"4","last_reported":1706367953,"current_range_meters":31200,"station_id":"ce4bhr12rcd13ifvqhqg","pricing_plan_id":"free"},{"bike_id":"5e98879a-df25-42d7-a72e-59c9369b5f46","system_id":"levelo_inurba_marseille","lat":43.322882,"lon":5.382693,"is_reserved":false,"is_disabled":false,"rental_uris":{"android":"levelo://app?vid=5e98879a-df25-42d7-a72e-59c9369b5f46","ios":"levelo://app?vid=5e98879a-df25-42d7-a72e-59c9369b5f46"},"vehicle_type_id":"4","last_reported":1706367953,"current_range_meters":31200,"station_id":"ce4bhr12rcd13ifvqhqg","pricing_plan_id":"free"},{"bike_id":"c0bacbb9-2761-4491-a8c1-93af05373d9b","system_id":"levelo_inurba_marseille","lat":43.32829,"lon":5.36677,"is_reserved":false,"is_disabled":false,"rental_uris":{"android":"levelo://app?vid=c0bacbb9-2761-4491-a8c1-93af05373d9b","ios":"levelo://app?vid=c0bacbb9-2761-4491-a8c1-93af05373d9b"},"vehicle_type_id":"4","last_reported":1706367953,"current_range_meters":20000,"station_id":"ce4bhs92rcd13ifvqi0g","pricing_plan_id":"free"},{"bike_id":"12edd8fe-ac42-424b-86a0-ddbc64b4f114","system_id":"levelo_inurba_marseille","lat":43.32833,"lon":5.366783,"is_reserved":false,"is_disabled":false,"rental_uris":{"android":"levelo://app?vid=12edd8fe-ac42-424b-86a0-ddbc64b4f114","ios":"levelo://app?vid=12edd8fe-ac42-424b-86a0-ddbc64b4f114"},"vehicle_type_id":"4","last_reported":1706367953,"current_range_meters":17600,"station_id":"ce4bhs92rcd13ifvqi0g","pricing_plan_id":"free"},{"bike_id":"31c884b6-24f3-4ad2-b153-4d91b407eb8c","system_id":"levelo_inurba_marseille","lat":43.32833,"lon":5.36675,"is_reserved":false,"is_disabled":false,"rental_uris":{"android":"levelo://app?vid=31c884b6-24f3-4ad2-b153-4d91b407eb8c","ios":"levelo://app?vid=31c884b6-24f3-4ad2-b153-4d91b407eb8c"},"vehicle_type_id":"4","last_reported":1706367953,"current_range_meters":20800,"station_id":"ce4bhs92rcd13ifvqi0g","pricing_plan_id":"free"},{"bike_id":"84e0b6b6-be76-442b-9c18-b27d69cb6bc1","system_id":"levelo_inurba_marseille","lat":43.297163,"lon":5.365866,"is_reserved":false,"is_disabled":false,"rental_uris":{"android":"levelo://app?vid=84e0b6b6-be76-442b-9c18-b27d69cb6bc1","ios":"levelo://app?vid=84e0b6b6-be76-442b-9c18-b27d69cb6bc1"},"vehicle_type_id":"4","last_reported":1706367953,"current_range_meters":2400,"station_id":"ce4bgn12rcd13ifvqbt0","pricing_plan_id":"free"},{"bike_id":"419770a0-4a5f-4b49-a4bc-fe1f93efa0b5","system_id":"levelo_inurba_marseille","lat":43.29573,"lon":5.367355,"is_reserved":false,"is_disabled":false,"rental_uris":{"android":"levelo://app?vid=419770a0-4a5f-4b49-a4bc-fe1f93efa0b5","ios":"levelo://app?vid=419770a0-4a5f-4b49-a4bc-fe1f93efa0b5"},"vehicle_type_id":"4","last_reported":1706367953,"current_range_meters":0,"station_id":"ce4bgph2rcd13ifvqc2g","pricing_plan_id":"free"},{"bike_id":"f7303dc0-32b3-4d89-ae42-53394cfa59b1","system_id":"levelo_inurba_marseille","lat":43.29573,"lon":5.367355,"is_reserved":false,"is_disabled":false,"rental_uris":{"android":"levelo://app?vid=f7303dc0-32b3-4d89-ae42-53394cfa59b1","ios":"levelo://app?vid=f7303dc0-32b3-4d89-ae42-53394cfa59b1"},"vehicle_type_id":"4","last_reported":1706367953,"current_range_meters":16400,"station_id":"ce4bgph2rcd13ifvqc2g","pricing_plan_id":"free"},{"bike_id":"aa528fe7-3fa1-4b03-a1c5-bad7904113b7","system_id":"levelo_inurba_marseille","lat":43.29573,"lon":5.367355,"is_reserved":false,"is_disabled":false,"rental_uris":{"android":"levelo://app?vid=aa528fe7-3fa1-4b03-a1c5-bad7904113b7","ios":"levelo://app?vid=aa528fe7-3fa1-4b03-a1c5-bad7904113b7"},"vehicle_type_id":"4","last_reported":1706367953,"current_range_meters":10400,"station_id":"ce4bgph2rcd13ifvqc2g","pricing_plan_id":"free"},{"bike_id":"5849c8f1-de07-480c-ab10-c023b55280ba","system_id":"levelo_inurba_marseille","lat":43.322183,"lon":5.386894,"is_reserved":false,"is_disabled":false,"rental_uris":{"android":"levelo://app?vid=5849c8f1-de07-480c-ab10-c023b55280ba","ios":"levelo://app?vid=5849c8f1-de07-480c-ab10-c023b55280ba"},"vehicle_type_id":"4","last_reported":1706367953,"current_range_meters":2000,"station_id":"","pricing_plan_id":"free"},{"bike_id":"8865910b-c3a7-4419-84b3-da17a33ca084","system_id":"levelo_inurba_marseille","lat":43.304274,"lon":5.388873,"is_reserved":false,"is_disabled":false,"rental_uris":{"android":"levelo://app?vid=8865910b-c3a7-4419-84b3-da17a33ca084","ios":"levelo://app?vid=8865910b-c3a7-4419-84b3-da17a33ca084"},"vehicle_type_id":"4","last_reported":1706367953,"current_range_meters":18000,"station_id":"ce4bgk12rcd13ifvqbi0","pricing_plan_id":"free"},{"bike_id":"a49d45ad-6c82-4f77-b117-472c87073e5a","system_id":"levelo_inurba_marseille","lat":43.296263,"lon":5.377094,"is_reserved":false,"is_disabled":false,"rental_uris":{"android":"levelo://app?vid=a49d45ad-6c82-4f77-b117-472c87073e5a","ios":"levelo://app?vid=a49d45ad-6c82-4f77-b117-472c87073e5a"},"vehicle_type_id":"4","last_reported":1706367953,"current_range_meters":19200,"station_id":"ce4bgi92rcd13ifvqb90","pricing_plan_id":"free"},{"bike_id":"9df19d97-5e76-4d22-b07e-5cf4be719d97","system_id":"levelo_inurba_marseille","lat":43.296263,"lon":5.377094,"is_reserved":false,"is_disabled":false,"rental_uris":{"android":"levelo://app?vid=9df19d97-5e76-4d22-b07e-5cf4be719d97","ios":"levelo://app?vid=9df19d97-5e76-4d22-b07e-5cf4be719d97"},"vehicle_type_id":"4","last_reported":1706367953,"current_range_meters":13600,"station_id":"ce4bgi92rcd13ifvqb90","pricing_plan_id":"free"},{"bike_id":"f7dde526-2914-4aac-9e03-9410413986c1","system_id":"levelo_inurba_marseille","lat":43.313571,"lon":5.384829,"is_reserved":false,"is_disabled":false,"rental_uris":{"android":"levelo://app?vid=f7dde526-2914-4aac-9e03-9410413986c1","ios":"levelo://app?vid=f7dde526-2914-4aac-9e03-9410413986c1"},"vehicle_type_id":"4","last_reported":1706367953,"current_range_meters":12000,"station_id":"ce4bgt92rcd13ifvqcf0","pricing_plan_id":"free"},{"bike_id":"9e741cab-87d2-4463-9071-ef91d2672bc2","system_id":"levelo_inurba_marseille","lat":43.295238,"lon":5.374983,"is_reserved":false,"is_disabled":false,"rental_uris":{"android":"levelo://app?vid=9e741cab-87d2-4463-9071-ef91d2672bc2","ios":"levelo://app?vid=9e741cab-87d2-4463-9071-ef91d2672bc2"},"vehicle_type_id":"4","last_reported":1706367953,"current_range_meters":0,"station_id":"ce4bgkp2rcd13ifvqbmg","pricing_plan_id":"free"},{"bike_id":"c40ffc90-9b5c-4aec-987b-82db1bdf474a","system_id":"levelo_inurba_marseille","lat":43.29601,"lon":5.381084,"is_reserved":false,"is_disabled":false,"rental_uris":{"android":"levelo://app?vid=c40ffc90-9b5c-4aec-987b-82db1bdf474a","ios":"levelo://app?vid=c40ffc90-9b5c-4aec-987b-82db1bdf474a"},"vehicle_type_id":"4","last_reported":1706367953,"current_range_meters":16000,"station_id":"ce4bgl12rcd13ifvqbo0","pricing_plan_id":"free"},{"bike_id":"7dda11ea-2529-4ad6-b04e-872c5c2b1cc7","system_id":"levelo_inurba_marseille","lat":43.293009,"lon":5.374584,"is_reserved":false,"is_disabled":false,"rental_uris":{"android":"levelo://app?vid=7dda11ea-2529-4ad6-b04e-872c5c2b1cc7","ios":"levelo://app?vid=7dda11ea-2529-4ad6-b04e-872c5c2b1cc7"},"vehicle_type_id":"4","last_reported":1706367953,"current_range_meters":6800,"station_id":"ce4bgi12rcd13ifvqb70","pricing_plan_id":"free"},{"bike_id":"837d276b-aab7-4080-aec2-af0f887a99f4","system_id":"levelo_inurba_marseille","lat":43.293009,"lon":5.374584,"is_reserved":false,"is_disabled":false,"rental_uris":{"android":"levelo://app?vid=837d276b-aab7-4080-aec2-af0f887a99f4","ios":"levelo://app?vid=837d276b-aab7-4080-aec2-af0f887a99f4"},"vehicle_type_id":"4","last_reported":1706367953,"current_range_meters":12800,"station_id":"ce4bgi12rcd13ifvqb70","pricing_plan_id":"free"},{"bike_id":"237d28e1-8925-4c02-9cf8-71c88c916f1a","system_id":"levelo_inurba_marseille","lat":43.302992,"lon":5.392136,"is_reserved":false,"is_disabled":false,"rental_uris":{"android":"levelo://app?vid=237d28e1-8925-4c02-9cf8-71c88c916f1a","ios":"levelo://app?vid=237d28e1-8925-4c02-9cf8-71c88c916f1a"},"vehicle_type_id":"4","last_reported":1706367953,"current_range_meters":800,"station_id":"ce4bgkh2rcd13ifvqbk0","pricing_plan_id":"free"},{"bike_id":"7150fae4-0d69-4de8-a8b9-80aec80a825d","system_id":"levelo_inurba_marseille","lat":43.298764,"lon":5.388973,"is_reserved":false,"is_disabled":false,"rental_uris":{"android":"levelo://app?vid=7150fae4-0d69-4de8-a8b9-80aec80a825d","ios":"levelo://app?vid=7150fae4-0d69-4de8-a8b9-80aec80a825d"},"vehicle_type_id":"4","last_reported":1706367953,"current_range_meters":12000,"station_id":"ce4bh392rcd13ifvqdl0","pricing_plan_id":"free"},{"bike_id":"2cdd5039-e8ec-441b-9bd5-4c34b690b828","system_id":"levelo_inurba_marseille","lat":43.30494,"lon":5.394214,"is_reserved":false,"is_disabled":false,"rental_uris":{"android":"levelo://app?vid=2cdd5039-e8ec-441b-9bd5-4c34b690b828","ios":"levelo://app?vid=2cdd5039-e8ec-441b-9bd5-4c34b690b828"},"vehicle_type_id":"4","last_reported":1706367953,"current_range_meters":20000,"station_id":"","pricing_plan_id":"free"},{"bike_id":"8771997e-fe9f-4c25-86f0-026e8ea593ba","system_id":"levelo_inurba_marseille","lat":43.291671,"lon":5.371575,"is_reserved":false,"is_disabled":false,"rental_uris":{"android":"levelo://app?vid=8771997e-fe9f-4c25-86f0-026e8ea593ba","ios":"levelo://app?vid=8771997e-fe9f-4c25-86f0-026e8ea593ba"},"vehicle_type_id":"4","last_reported":1706367953,"current_range_meters":24000,"station_id":"ce4bha92rcd13ifvqeh0","pricing_plan_id":"free"},{"bike_id":"764018bc-9a85-4429-a73f-383edb8194c4","system_id":"levelo_inurba_marseille","lat":43.309038,"lon":5.396546,"is_reserved":false,"is_disabled":false,"rental_uris":{"android":"levelo://app?vid=764018bc-9a85-4429-a73f-383edb8194c4","ios":"levelo://app?vid=764018bc-9a85-4429-a73f-383edb8194c4"},"vehicle_type_id":"4","last_reported":1706367953,"current_range_meters":10800,"station_id":"ce4bh012rcd13ifvqcv0","pricing_plan_id":"free"},{"bike_id":"4aedc959-bcce-4795-8e4e-fa51314d0ee2","system_id":"levelo_inurba_marseille","lat":43.302008,"lon":5.394694,"is_reserved":false,"is_disabled":false,"rental_uris":{"android":"levelo://app?vid=4aedc959-bcce-4795-8e4e-fa51314d0ee2","ios":"levelo://app?vid=4aedc959-bcce-4795-8e4e-fa51314d0ee2"},"vehicle_type_id":"4","last_reported":1706367953,"current_range_meters":0,"station_id":"ce4bh0p2rcd13ifvqd70","pricing_plan_id":"free"},{"bike_id":"be470bb2-77b0-433a-9afe-7d1db00aa078","system_id":"levelo_inurba_marseille","lat":43.290441,"lon":5.359123,"is_reserved":false,"is_disabled":false,"rental_uris":{"android":"levelo://app?vid=be470bb2-77b0-433a-9afe-7d1db00aa078","ios":"levelo://app?vid=be470bb2-77b0-433a-9afe-7d1db00aa078"},"vehicle_type_id":"4","last_reported":1706367953,"current_range_meters":29200,"station_id":"","pricing_plan_id":"free"},{"bike_id":"dc76c99f-3fe4-40b9-9c85-02f244c676d0","system_id":"levelo_inurba_marseille","lat":43.294153,"lon":5.386305,"is_reserved":false,"is_disabled":false,"rental_uris":{"android":"levelo://app?vid=dc76c99f-3fe4-40b9-9c85-02f244c676d0","ios":"levelo://app?vid=dc76c99f-3fe4-40b9-9c85-02f244c676d0"},"vehicle_type_id":"4","last_reported":1706367953,"current_range_meters":28400,"station_id":"ce4bh2h2rcd13ifvqdh0","pricing_plan_id":"free"},{"bike_id":"19817646-dd1f-47b1-b9fe-0b38c3ba7b34","system_id":"levelo_inurba_marseille","lat":43.290319,"lon":5.375732,"is_reserved":false,"is_disabled":false,"rental_uris":{"android":"levelo://app?vid=19817646-dd1f-47b1-b9fe-0b38c3ba7b34","ios":"levelo://app?vid=19817646-dd1f-47b1-b9fe-0b38c3ba7b34"},"vehicle_type_id":"4","last_reported":1706367953,"current_range_meters":15600,"station_id":"ce4bh692rcd13ifvqe90","pricing_plan_id":"free"},{"bike_id":"e721f738-37a4-400c-a69d-8cdbe3ff6fc2","system_id":"levelo_inurba_marseille","lat":43.290631,"lon":5.359244,"is_reserved":false,"is_disabled":false,"rental_uris":{"android":"levelo://app?vid=e721f738-37a4-400c-a69d-8cdbe3ff6fc2","ios":"levelo://app?vid=e721f738-37a4-400c-a69d-8cdbe3ff6fc2"},"vehicle_type_id":"4","last_reported":1706367953,"current_range_meters":4800,"station_id":"ce4bha92rcd13ifvqeg0","pricing_plan_id":"free"},{"bike_id":"aff719d4-7bd9-42cb-8515-078691e73525","system_id":"levelo_inurba_marseille","lat":43.290327,"lon":5.375711,"is_reserved":false,"is_disabled":false,"rental_uris":{"android":"levelo://app?vid=aff719d4-7bd9-42cb-8515-078691e73525","ios":"levelo://app?vid=aff719d4-7bd9-42cb-8515-078691e73525"},"vehicle_type_id":"4","last_reported":1706367953,"current_range_meters":6000,"station_id":"ce4bh692rcd13ifvqe90","pricing_plan_id":"free"},{"bike_id":"23062f4d-5b22-4ebd-a0df-84fade826dc9","system_id":"levelo_inurba_marseille","lat":43.289184,"lon":5.366408,"is_reserved":false,"is_disabled":false,"rental_uris":{"android":"levelo://app?vid=23062f4d-5b22-4ebd-a0df-84fade826dc9","ios":"levelo://app?vid=23062f4d-5b22-4ebd-a0df-84fade826dc9"},"vehicle_type_id":"4","last_reported":1706367953,"current_range_meters":17600,"station_id":"ce4bhap2rcd13ifvqek0","pricing_plan_id":"free"},{"bike_id":"62d1d715-e128-4306-b451-2949958c6d5b","system_id":"levelo_inurba_marseille","lat":43.292642,"lon":5.384254,"is_reserved":false,"is_disabled":false,"rental_uris":{"android":"levelo://app?vid=62d1d715-e128-4306-b451-2949958c6d5b","ios":"levelo://app?vid=62d1d715-e128-4306-b451-2949958c6d5b"},"vehicle_type_id":"4","last_reported":1706367953,"current_range_meters":4400,"station_id":"ce4bh692rcd13ifvqea0","pricing_plan_id":"free"},{"bike_id":"389f8088-d85b-4dd6-b019-9e610dbc5a26","system_id":"levelo_inurba_marseille","lat":43.292644,"lon":5.384257,"is_reserved":false,"is_disabled":false,"rental_uris":{"android":"levelo://app?vid=389f8088-d85b-4dd6-b019-9e610dbc5a26","ios":"levelo://app?vid=389f8088-d85b-4dd6-b019-9e610dbc5a26"},"vehicle_type_id":"4","last_reported":1706367953,"current_range_meters":18400,"station_id":"ce4bh692rcd13ifvqea0","pricing_plan_id":"free"},{"bike_id":"6cf13035-e95f-41c8-966e-edaec4d2b644","system_id":"levelo_inurba_marseille","lat":43.292642,"lon":5.384254,"is_reserved":false,"is_disabled":false,"rental_uris":{"android":"levelo://app?vid=6cf13035-e95f-41c8-966e-edaec4d2b644","ios":"levelo://app?vid=6cf13035-e95f-41c8-966e-edaec4d2b644"},"vehicle_type_id":"4","last_reported":1706367953,"current_range_meters":1200,"station_id":"ce4bh692rcd13ifvqea0","pricing_plan_id":"free"},{"bike_id":"fe594ab8-bd39-4803-93c5-6a9f993317da","system_id":"levelo_inurba_marseille","lat":43.290104,"lon":5.356111,"is_reserved":false,"is_disabled":false,"rental_uris":{"android":"levelo://app?vid=fe594ab8-bd39-4803-93c5-6a9f993317da","ios":"levelo://app?vid=fe594ab8-bd39-4803-93c5-6a9f993317da"},"vehicle_type_id":"4","last_reported":1706367953,"current_range_meters":16800,"station_id":"ce4bhb92rcd13ifvqen0","pricing_plan_id":"free"},{"bike_id":"79a06bed-b6fc-45a1-82f5-4c17f490d569","system_id":"levelo_inurba_marseille","lat":43.309215,"lon":5.399509,"is_reserved":false,"is_disabled":false,"rental_uris":{"android":"levelo://app?vid=79a06bed-b6fc-45a1-82f5-4c17f490d569","ios":"levelo://app?vid=79a06bed-b6fc-45a1-82f5-4c17f490d569"},"vehicle_type_id":"4","last_reported":1706367953,"current_range_meters":21200,"station_id":"","pricing_plan_id":"free"},{"bike_id":"e1a79906-3eed-4755-b739-d323aaec8283","system_id":"levelo_inurba_marseille","lat":43.290995,"lon":5.381361,"is_reserved":false,"is_disabled":false,"rental_uris":{"android":"levelo://app?vid=e1a79906-3eed-4755-b739-d323aaec8283","ios":"levelo://app?vid=e1a79906-3eed-4755-b739-d323aaec8283"},"vehicle_type_id":"4","last_reported":1706367953,"current_range_meters":2000,"station_id":"ce4bh512rcd13ifvqe2g","pricing_plan_id":"free"},{"bike_id":"6380bee0-1c2b-4927-8f95-edab8d4a5b6a","system_id":"levelo_inurba_marseille","lat":43.295169,"lon":5.390426,"is_reserved":false,"is_disabled":false,"rental_uris":{"android":"levelo://app?vid=6380bee0-1c2b-4927-8f95-edab8d4a5b6a","ios":"levelo://app?vid=6380bee0-1c2b-4927-8f95-edab8d4a5b6a"},"vehicle_type_id":"4","last_reported":1706367953,"current_range_meters":31600,"station_id":"ce4bh3p2rcd13ifvqdp0","pricing_plan_id":"free"},{"bike_id":"e40cd59e-c067-489d-817b-440f879134bb","system_id":"levelo_inurba_marseille","lat":43.33021,"lon":5.39049,"is_reserved":false,"is_disabled":false,"rental_uris":{"android":"levelo://app?vid=e40cd59e-c067-489d-817b-440f879134bb","ios":"levelo://app?vid=e40cd59e-c067-489d-817b-440f879134bb"},"vehicle_type_id":"4","last_reported":1706367953,"current_range_meters":28400,"station_id":"ce4bhr92rcd13ifvqhrg","pricing_plan_id":"free"},{"bike_id":"6ad255fe-e947-4e77-9990-c5ee2793c1cf","system_id":"levelo_inurba_marseille","lat":43.282754,"lon":5.350519,"is_reserved":false,"is_disabled":false,"rental_uris":{"android":"levelo://app?vid=6ad255fe-e947-4e77-9990-c5ee2793c1cf","ios":"levelo://app?vid=6ad255fe-e947-4e77-9990-c5ee2793c1cf"},"vehicle_type_id":"4","last_reported":1706367953,"current_range_meters":28000,"station_id":"ce4bhbp2rcd13ifvqerg","pricing_plan_id":"free"},{"bike_id":"08c9e723-80d7-4356-bd5e-6f2e6f90dbe3","system_id":"levelo_inurba_marseille","lat":43.28856,"lon":5.358371,"is_reserved":false,"is_disabled":false,"rental_uris":{"android":"levelo://app?vid=08c9e723-80d7-4356-bd5e-6f2e6f90dbe3","ios":"levelo://app?vid=08c9e723-80d7-4356-bd5e-6f2e6f90dbe3"},"vehicle_type_id":"4","last_reported":1706367953,"current_range_meters":2400,"station_id":"ce4bhb12rcd13ifvqem0","pricing_plan_id":"free"},{"bike_id":"dd73e869-9d83-4e97-867d-f43f49e84a90","system_id":"levelo_inurba_marseille","lat":43.309371,"lon":5.401449,"is_reserved":false,"is_disabled":false,"rental_uris":{"android":"levelo://app?vid=dd73e869-9d83-4e97-867d-f43f49e84a90","ios":"levelo://app?vid=dd73e869-9d83-4e97-867d-f43f49e84a90"},"vehicle_type_id":"4","last_reported":1706367953,"current_range_meters":29600,"station_id":"ce4bgvp2rcd13ifvqct0","pricing_plan_id":"free"},{"bike_id":"a563cdbf-78b8-441c-8dce-8da1c3325b92","system_id":"levelo_inurba_marseille","lat":43.3375,"lon":5.37454,"is_reserved":false,"is_disabled":false,"rental_uris":{"android":"levelo://app?vid=a563cdbf-78b8-441c-8dce-8da1c3325b92","ios":"levelo://app?vid=a563cdbf-78b8-441c-8dce-8da1c3325b92"},"vehicle_type_id":"4","last_reported":1706367953,"current_range_meters":18800,"station_id":"","pricing_plan_id":"free"},{"bike_id":"b7f12eab-e0a6-499e-87ec-2b4381c4602a","system_id":"levelo_inurba_marseille","lat":43.33752,"lon":5.37476,"is_reserved":false,"is_disabled":false,"rental_uris":{"android":"levelo://app?vid=b7f12eab-e0a6-499e-87ec-2b4381c4602a","ios":"levelo://app?vid=b7f12eab-e0a6-499e-87ec-2b4381c4602a"},"vehicle_type_id":"4","last_reported":1706367953,"current_range_meters":24000,"station_id":"","pricing_plan_id":"free"},{"bike_id":"02cc1ce4-717f-4b60-a8ae-e32a4e8fb56c","system_id":"levelo_inurba_marseille","lat":43.33761,"lon":5.3748,"is_reserved":false,"is_disabled":false,"rental_uris":{"android":"levelo://app?vid=02cc1ce4-717f-4b60-a8ae-e32a4e8fb56c","ios":"levelo://app?vid=02cc1ce4-717f-4b60-a8ae-e32a4e8fb56c"},"vehicle_type_id":"4","last_reported":1706367953,"current_range_meters":12800,"station_id":"","pricing_plan_id":"free"},{"bike_id":"a9554a78-0f9d-4cdd-9ecd-598bb2d54931","system_id":"levelo_inurba_marseille","lat":43.337625,"lon":5.374815,"is_reserved":false,"is_disabled":false,"rental_uris":{"android":"levelo://app?vid=a9554a78-0f9d-4cdd-9ecd-598bb2d54931","ios":"levelo://app?vid=a9554a78-0f9d-4cdd-9ecd-598bb2d54931"},"vehicle_type_id":"4","last_reported":1706367953,"current_range_meters":31200,"station_id":"","pricing_plan_id":"free"},{"bike_id":"b7d3b81d-d85a-44b5-a0c7-8f9c9f74639e","system_id":"levelo_inurba_marseille","lat":43.33765,"lon":5.374672,"is_reserved":false,"is_disabled":false,"rental_uris":{"android":"levelo://app?vid=b7d3b81d-d85a-44b5-a0c7-8f9c9f74639e","ios":"levelo://app?vid=b7d3b81d-d85a-44b5-a0c7-8f9c9f74639e"},"vehicle_type_id":"4","last_reported":1706367953,"current_range_meters":30400,"station_id":"","pricing_plan_id":"free"},{"bike_id":"1facbbf3-baac-42f8-85eb-cb1e36f3e4b9","system_id":"levelo_inurba_marseille","lat":43.33764,"lon":5.37485,"is_reserved":false,"is_disabled":false,"rental_uris":{"android":"levelo://app?vid=1facbbf3-baac-42f8-85eb-cb1e36f3e4b9","ios":"levelo://app?vid=1facbbf3-baac-42f8-85eb-cb1e36f3e4b9"},"vehicle_type_id":"4","last_reported":1706367953,"current_range_meters":20000,"station_id":"","pricing_plan_id":"free"},{"bike_id":"bd7c49e0-243f-4049-bc25-2de8f060bb29","system_id":"levelo_inurba_marseille","lat":43.337699,"lon":5.374718,"is_reserved":false,"is_disabled":false,"rental_uris":{"android":"levelo://app?vid=bd7c49e0-243f-4049-bc25-2de8f060bb29","ios":"levelo://app?vid=bd7c49e0-243f-4049-bc25-2de8f060bb29"},"vehicle_type_id":"4","last_reported":1706367953,"current_range_meters":24400,"station_id":"","pricing_plan_id":"free"},{"bike_id":"eaeff2f9-be33-4cbc-b315-c230be10dd9b","system_id":"levelo_inurba_marseille","lat":43.33774,"lon":5.37488,"is_reserved":false,"is_disabled":false,"rental_uris":{"android":"levelo://app?vid=eaeff2f9-be33-4cbc-b315-c230be10dd9b","ios":"levelo://app?vid=eaeff2f9-be33-4cbc-b315-c230be10dd9b"},"vehicle_type_id":"4","last_reported":1706367953,"current_range_meters":10800,"station_id":"","pricing_plan_id":"free"},{"bike_id":"36fdf3a9-6637-4abe-9106-b80fdb7b6025","system_id":"levelo_inurba_marseille","lat":43.33792,"lon":5.37415,"is_reserved":false,"is_disabled":false,"rental_uris":{"android":"levelo://app?vid=36fdf3a9-6637-4abe-9106-b80fdb7b6025","ios":"levelo://app?vid=36fdf3a9-6637-4abe-9106-b80fdb7b6025"},"vehicle_type_id":"4","last_reported":1706367953,"current_range_meters":28000,"station_id":"","pricing_plan_id":"free"},{"bike_id":"8d79da33-565e-47de-b392-f0404bba1f84","system_id":"levelo_inurba_marseille","lat":43.286591,"lon":5.363346,"is_reserved":false,"is_disabled":false,"rental_uris":{"android":"levelo://app?vid=8d79da33-565e-47de-b392-f0404bba1f84","ios":"levelo://app?vid=8d79da33-565e-47de-b392-f0404bba1f84"},"vehicle_type_id":"4","last_reported":1706367953,"current_range_meters":7200,"station_id":"ce4bhah2rcd13ifvqej0","pricing_plan_id":"free"},{"bike_id":"8cf29675-7d49-445b-a8b2-487209369981","system_id":"levelo_inurba_marseille","lat":43.289307,"lon":5.38406,"is_reserved":false,"is_disabled":false,"rental_uris":{"android":"levelo://app?vid=8cf29675-7d49-445b-a8b2-487209369981","ios":"levelo://app?vid=8cf29675-7d49-445b-a8b2-487209369981"},"vehicle_type_id":"4","last_reported":1706367953,"current_range_meters":400,"station_id":"ce4bh612rcd13ifvqe6g","pricing_plan_id":"free"},{"bike_id":"c149e71c-42a1-4354-935b-dcdf2f9cd279","system_id":"levelo_inurba_marseille","lat":43.289307,"lon":5.38406,"is_reserved":false,"is_disabled":false,"rental_uris":{"android":"levelo://app?vid=c149e71c-42a1-4354-935b-dcdf2f9cd279","ios":"levelo://app?vid=c149e71c-42a1-4354-935b-dcdf2f9cd279"},"vehicle_type_id":"4","last_reported":1706367953,"current_range_meters":0,"station_id":"ce4bh612rcd13ifvqe6g","pricing_plan_id":"free"},{"bike_id":"183bb1c1-398f-466c-b05d-327ac4efc436","system_id":"levelo_inurba_marseille","lat":43.302511,"lon":5.400653,"is_reserved":false,"is_disabled":false,"rental_uris":{"android":"levelo://app?vid=183bb1c1-398f-466c-b05d-327ac4efc436","ios":"levelo://app?vid=183bb1c1-398f-466c-b05d-327ac4efc436"},"vehicle_type_id":"4","last_reported":1706367953,"current_range_meters":14400,"station_id":"ce4bgth2rcd13ifvqch0","pricing_plan_id":"free"},{"bike_id":"cbdf36d2-5ab7-4d0b-b67e-fb899051fa89","system_id":"levelo_inurba_marseille","lat":43.302759,"lon":5.400793,"is_reserved":false,"is_disabled":false,"rental_uris":{"android":"levelo://app?vid=cbdf36d2-5ab7-4d0b-b67e-fb899051fa89","ios":"levelo://app?vid=cbdf36d2-5ab7-4d0b-b67e-fb899051fa89"},"vehicle_type_id":"4","last_reported":1706367953,"current_range_meters":8800,"station_id":"ce4bgvh2rcd13ifvqcs0","pricing_plan_id":"free"},{"bike_id":"2f316fa6-3170-4d79-8806-b6a8debc63f9","system_id":"levelo_inurba_marseille","lat":43.302759,"lon":5.400793,"is_reserved":false,"is_disabled":false,"rental_uris":{"android":"levelo://app?vid=2f316fa6-3170-4d79-8806-b6a8debc63f9","ios":"levelo://app?vid=2f316fa6-3170-4d79-8806-b6a8debc63f9"},"vehicle_type_id":"4","last_reported":1706367953,"current_range_meters":0,"station_id":"ce4bgvh2rcd13ifvqcs0","pricing_plan_id":"free"},{"bike_id":"b8162574-a33b-40b7-8d39-ab489852be72","system_id":"levelo_inurba_marseille","lat":43.302759,"lon":5.400793,"is_reserved":false,"is_disabled":false,"rental_uris":{"android":"levelo://app?vid=b8162574-a33b-40b7-8d39-ab489852be72","ios":"levelo://app?vid=b8162574-a33b-40b7-8d39-ab489852be72"},"vehicle_type_id":"4","last_reported":1706367953,"current_range_meters":0,"station_id":"ce4bgvh2rcd13ifvqcs0","pricing_plan_id":"free"},{"bike_id":"b6fa7eef-f2a0-40fc-ae0b-a09f93b631b3","system_id":"levelo_inurba_marseille","lat":43.286039,"lon":5.370679,"is_reserved":false,"is_disabled":false,"rental_uris":{"android":"levelo://app?vid=b6fa7eef-f2a0-40fc-ae0b-a09f93b631b3","ios":"levelo://app?vid=b6fa7eef-f2a0-40fc-ae0b-a09f93b631b3"},"vehicle_type_id":"4","last_reported":1706367953,"current_range_meters":16800,"station_id":"ce4bht12rcd13ifvqi60","pricing_plan_id":"free"},{"bike_id":"1fe20b03-f8cc-4045-a563-3e8c1e4d3964","system_id":"levelo_inurba_marseille","lat":43.302759,"lon":5.400793,"is_reserved":false,"is_disabled":false,"rental_uris":{"android":"levelo://app?vid=1fe20b03-f8cc-4045-a563-3e8c1e4d3964","ios":"levelo://app?vid=1fe20b03-f8cc-4045-a563-3e8c1e4d3964"},"vehicle_type_id":"4","last_reported":1706367953,"current_range_meters":1600,"station_id":"ce4bgvh2rcd13ifvqcs0","pricing_plan_id":"free"},{"bike_id":"1c80bebd-95f4-4216-9188-03a2c0c7b290","system_id":"levelo_inurba_marseille","lat":43.287184,"lon":5.37937,"is_reserved":false,"is_disabled":false,"rental_uris":{"android":"levelo://app?vid=1c80bebd-95f4-4216-9188-03a2c0c7b290","ios":"levelo://app?vid=1c80bebd-95f4-4216-9188-03a2c0c7b290"},"vehicle_type_id":"4","last_reported":1706367953,"current_range_meters":12000,"station_id":"ce4bh9p2rcd13ifvqec0","pricing_plan_id":"free"},{"bike_id":"01f2092d-f451-42df-bf91-6facccbcefda","system_id":"levelo_inurba_marseille","lat":43.302759,"lon":5.400793,"is_reserved":false,"is_disabled":false,"rental_uris":{"android":"levelo://app?vid=01f2092d-f451-42df-bf91-6facccbcefda","ios":"levelo://app?vid=01f2092d-f451-42df-bf91-6facccbcefda"},"vehicle_type_id":"4","last_reported":1706367953,"current_range_meters":6400,"station_id":"ce4bgvh2rcd13ifvqcs0","pricing_plan_id":"free"},{"bike_id":"6fa3f05d-1f6a-4fd4-968a-17cf89c00404","system_id":"levelo_inurba_marseille","lat":43.31539,"lon":5.4036,"is_reserved":false,"is_disabled":false,"rental_uris":{"android":"levelo://app?vid=6fa3f05d-1f6a-4fd4-968a-17cf89c00404","ios":"levelo://app?vid=6fa3f05d-1f6a-4fd4-968a-17cf89c00404"},"vehicle_type_id":"4","last_reported":1706367953,"current_range_meters":31200,"station_id":"","pricing_plan_id":"free"},{"bike_id":"1fb373b5-0671-4ad5-a915-9f1e829136fb","system_id":"levelo_inurba_marseille","lat":43.287184,"lon":5.37937,"is_reserved":false,"is_disabled":false,"rental_uris":{"android":"levelo://app?vid=1fb373b5-0671-4ad5-a915-9f1e829136fb","ios":"levelo://app?vid=1fb373b5-0671-4ad5-a915-9f1e829136fb"},"vehicle_type_id":"4","last_reported":1706367953,"current_range_meters":7200,"station_id":"ce4bh9p2rcd13ifvqec0","pricing_plan_id":"free"},{"bike_id":"a06794bb-88c7-4053-ae42-e744a93f367f","system_id":"levelo_inurba_marseille","lat":43.287185,"lon":5.379373,"is_reserved":false,"is_disabled":false,"rental_uris":{"android":"levelo://app?vid=a06794bb-88c7-4053-ae42-e744a93f367f","ios":"levelo://app?vid=a06794bb-88c7-4053-ae42-e744a93f367f"},"vehicle_type_id":"4","last_reported":1706367953,"current_range_meters":2400,"station_id":"ce4bh9p2rcd13ifvqec0","pricing_plan_id":"free"},{"bike_id":"2fe24097-b1c2-4583-ba1f-cf8501171a4c","system_id":"levelo_inurba_marseille","lat":43.338801,"lon":5.377998,"is_reserved":false,"is_disabled":false,"rental_uris":{"android":"levelo://app?vid=2fe24097-b1c2-4583-ba1f-cf8501171a4c","ios":"levelo://app?vid=2fe24097-b1c2-4583-ba1f-cf8501171a4c"},"vehicle_type_id":"4","last_reported":1706367953,"current_range_meters":17600,"station_id":"","pricing_plan_id":"free"},{"bike_id":"84784f5e-e9f2-42d4-85a1-145e1f3f13cf","system_id":"levelo_inurba_marseille","lat":43.316828,"lon":5.404723,"is_reserved":false,"is_disabled":false,"rental_uris":{"android":"levelo://app?vid=84784f5e-e9f2-42d4-85a1-145e1f3f13cf","ios":"levelo://app?vid=84784f5e-e9f2-42d4-85a1-145e1f3f13cf"},"vehicle_type_id":"4","last_reported":1706367953,"current_range_meters":10000,"station_id":"ce4bh012rcd13ifvqd00","pricing_plan_id":"free"},{"bike_id":"ef9d6837-2b53-498b-a0cc-0737d910a82b","system_id":"levelo_inurba_marseille","lat":43.291994,"lon":5.392907,"is_reserved":false,"is_disabled":false,"rental_uris":{"android":"levelo://app?vid=ef9d6837-2b53-498b-a0cc-0737d910a82b","ios":"levelo://app?vid=ef9d6837-2b53-498b-a0cc-0737d910a82b"},"vehicle_type_id":"4","last_reported":1706367953,"current_range_meters":5200,"station_id":"ce4bh192rcd13ifvqdd0","pricing_plan_id":"free"},{"bike_id":"8aece98b-bf21-4602-a875-ac921c382b75","system_id":"levelo_inurba_marseille","lat":43.284534,"lon":5.358662,"is_reserved":false,"is_disabled":false,"rental_uris":{"android":"levelo://app?vid=8aece98b-bf21-4602-a875-ac921c382b75","ios":"levelo://app?vid=8aece98b-bf21-4602-a875-ac921c382b75"},"vehicle_type_id":"4","last_reported":1706367953,"current_range_meters":21200,"station_id":"ce4bhah2rcd13ifvqei0","pricing_plan_id":"free"},{"bike_id":"944218a6-0138-4b8b-9698-e69628dd4c10","system_id":"levelo_inurba_marseille","lat":43.28621,"lon":5.35107,"is_reserved":false,"is_disabled":false,"rental_uris":{"android":"levelo://app?vid=944218a6-0138-4b8b-9698-e69628dd4c10","ios":"levelo://app?vid=944218a6-0138-4b8b-9698-e69628dd4c10"},"vehicle_type_id":"4","last_reported":1706367953,"current_range_meters":0,"station_id":"ce4bhch2rcd13ifvqeug","pricing_plan_id":"free"},{"bike_id":"09f5388e-0783-4268-ac23-86913e6feb93","system_id":"levelo_inurba_marseille","lat":43.285856,"lon":5.350771,"is_reserved":false,"is_disabled":false,"rental_uris":{"android":"levelo://app?vid=09f5388e-0783-4268-ac23-86913e6feb93","ios":"levelo://app?vid=09f5388e-0783-4268-ac23-86913e6feb93"},"vehicle_type_id":"4","last_reported":1706367953,"current_range_meters":3200,"station_id":"ce4bhch2rcd13ifvqeug","pricing_plan_id":"free"},{"bike_id":"a9a9a90e-e9e5-4823-8724-9e170f7a8d2d","system_id":"levelo_inurba_marseille","lat":43.285856,"lon":5.350771,"is_reserved":false,"is_disabled":false,"rental_uris":{"android":"levelo://app?vid=a9a9a90e-e9e5-4823-8724-9e170f7a8d2d","ios":"levelo://app?vid=a9a9a90e-e9e5-4823-8724-9e170f7a8d2d"},"vehicle_type_id":"4","last_reported":1706367953,"current_range_meters":0,"station_id":"ce4bhch2rcd13ifvqeug","pricing_plan_id":"free"},{"bike_id":"595587ea-a9b7-40ef-9e5b-cffdf6ce5c06","system_id":"levelo_inurba_marseille","lat":43.285856,"lon":5.350771,"is_reserved":false,"is_disabled":false,"rental_uris":{"android":"levelo://app?vid=595587ea-a9b7-40ef-9e5b-cffdf6ce5c06","ios":"levelo://app?vid=595587ea-a9b7-40ef-9e5b-cffdf6ce5c06"},"vehicle_type_id":"4","last_reported":1706367953,"current_range_meters":26400,"station_id":"ce4bhch2rcd13ifvqeug","pricing_plan_id":"free"},{"bike_id":"e6b74c63-76f5-4628-8887-1bfd49d7d401","system_id":"levelo_inurba_marseille","lat":43.286595,"lon":5.386795,"is_reserved":false,"is_disabled":false,"rental_uris":{"android":"levelo://app?vid=e6b74c63-76f5-4628-8887-1bfd49d7d401","ios":"levelo://app?vid=e6b74c63-76f5-4628-8887-1bfd49d7d401"},"vehicle_type_id":"4","last_reported":1706367953,"current_range_meters":15200,"station_id":"ce4bh492rcd13ifvqdug","pricing_plan_id":"free"},{"bike_id":"f08fe900-ae1d-40fb-b85c-080faa6a8cce","system_id":"levelo_inurba_marseille","lat":43.323464,"lon":5.406297,"is_reserved":false,"is_disabled":false,"rental_uris":{"android":"levelo://app?vid=f08fe900-ae1d-40fb-b85c-080faa6a8cce","ios":"levelo://app?vid=f08fe900-ae1d-40fb-b85c-080faa6a8cce"},"vehicle_type_id":"4","last_reported":1706367953,"current_range_meters":29600,"station_id":"ce4bhq92rcd13ifvqhjg","pricing_plan_id":"free"},{"bike_id":"23182893-9e18-480a-8378-283164dbf867","system_id":"levelo_inurba_marseille","lat":43.323464,"lon":5.406297,"is_reserved":false,"is_disabled":false,"rental_uris":{"android":"levelo://app?vid=23182893-9e18-480a-8378-283164dbf867","ios":"levelo://app?vid=23182893-9e18-480a-8378-283164dbf867"},"vehicle_type_id":"4","last_reported":1706367953,"current_range_meters":3600,"station_id":"ce4bhq92rcd13ifvqhjg","pricing_plan_id":"free"},{"bike_id":"29c971f3-912e-4f79-8c22-d20e1f4b5d74","system_id":"levelo_inurba_marseille","lat":43.337168,"lon":5.391825,"is_reserved":false,"is_disabled":false,"rental_uris":{"android":"levelo://app?vid=29c971f3-912e-4f79-8c22-d20e1f4b5d74","ios":"levelo://app?vid=29c971f3-912e-4f79-8c22-d20e1f4b5d74"},"vehicle_type_id":"4","last_reported":1706367953,"current_range_meters":20000,"station_id":"ce4bhr92rcd13ifvqhsg","pricing_plan_id":"free"},{"bike_id":"66c916d0-f247-4d84-8010-8f26f7c11b05","system_id":"levelo_inurba_marseille","lat":43.284793,"lon":5.384119,"is_reserved":false,"is_disabled":false,"rental_uris":{"android":"levelo://app?vid=66c916d0-f247-4d84-8010-8f26f7c11b05","ios":"levelo://app?vid=66c916d0-f247-4d84-8010-8f26f7c11b05"},"vehicle_type_id":"4","last_reported":1706367953,"current_range_meters":0,"station_id":"ce4bh512rcd13ifvqe3g","pricing_plan_id":"free"},{"bike_id":"cdcd7439-ba98-493f-b10b-0d2a6c6b81a1","system_id":"levelo_inurba_marseille","lat":43.28437,"lon":5.34988,"is_reserved":false,"is_disabled":false,"rental_uris":{"android":"levelo://app?vid=cdcd7439-ba98-493f-b10b-0d2a6c6b81a1","ios":"levelo://app?vid=cdcd7439-ba98-493f-b10b-0d2a6c6b81a1"},"vehicle_type_id":"4","last_reported":1706367953,"current_range_meters":1600,"station_id":"ce4bhbh2rcd13ifvqepg","pricing_plan_id":"free"},{"bike_id":"d42d291b-ed36-4c65-ace3-4f60c773bd7e","system_id":"levelo_inurba_marseille","lat":43.284219,"lon":5.3497,"is_reserved":false,"is_disabled":false,"rental_uris":{"android":"levelo://app?vid=d42d291b-ed36-4c65-ace3-4f60c773bd7e","ios":"levelo://app?vid=d42d291b-ed36-4c65-ace3-4f60c773bd7e"},"vehicle_type_id":"4","last_reported":1706367953,"current_range_meters":23200,"station_id":"ce4bhbh2rcd13ifvqepg","pricing_plan_id":"free"},{"bike_id":"4f702587-78ce-48c8-8160-e74f8ab05ebe","system_id":"levelo_inurba_marseille","lat":43.284219,"lon":5.3497,"is_reserved":false,"is_disabled":false,"rental_uris":{"android":"levelo://app?vid=4f702587-78ce-48c8-8160-e74f8ab05ebe","ios":"levelo://app?vid=4f702587-78ce-48c8-8160-e74f8ab05ebe"},"vehicle_type_id":"4","last_reported":1706367953,"current_range_meters":24800,"station_id":"ce4bhbh2rcd13ifvqepg","pricing_plan_id":"free"},{"bike_id":"92c20233-919e-485f-8391-041485e14939","system_id":"levelo_inurba_marseille","lat":43.284219,"lon":5.3497,"is_reserved":false,"is_disabled":false,"rental_uris":{"android":"levelo://app?vid=92c20233-919e-485f-8391-041485e14939","ios":"levelo://app?vid=92c20233-919e-485f-8391-041485e14939"},"vehicle_type_id":"4","last_reported":1706367953,"current_range_meters":24000,"station_id":"ce4bhbh2rcd13ifvqepg","pricing_plan_id":"free"},{"bike_id":"ad3c6411-622f-4e9b-98e5-7a2c7937d741","system_id":"levelo_inurba_marseille","lat":43.284219,"lon":5.3497,"is_reserved":false,"is_disabled":false,"rental_uris":{"android":"levelo://app?vid=ad3c6411-622f-4e9b-98e5-7a2c7937d741","ios":"levelo://app?vid=ad3c6411-622f-4e9b-98e5-7a2c7937d741"},"vehicle_type_id":"4","last_reported":1706367953,"current_range_meters":14800,"station_id":"ce4bhbh2rcd13ifvqepg","pricing_plan_id":"free"},{"bike_id":"2be7a22f-f4b7-48a6-96ba-7fc49ff17fc4","system_id":"levelo_inurba_marseille","lat":43.284214,"lon":5.349706,"is_reserved":false,"is_disabled":false,"rental_uris":{"android":"levelo://app?vid=2be7a22f-f4b7-48a6-96ba-7fc49ff17fc4","ios":"levelo://app?vid=2be7a22f-f4b7-48a6-96ba-7fc49ff17fc4"},"vehicle_type_id":"4","last_reported":1706367953,"current_range_meters":19200,"station_id":"ce4bhbh2rcd13ifvqepg","pricing_plan_id":"free"},{"bike_id":"2e78da9d-3201-4b44-bacd-f76c16d4d164","system_id":"levelo_inurba_marseille","lat":43.2843,"lon":5.34984,"is_reserved":false,"is_disabled":false,"rental_uris":{"android":"levelo://app?vid=2e78da9d-3201-4b44-bacd-f76c16d4d164","ios":"levelo://app?vid=2e78da9d-3201-4b44-bacd-f76c16d4d164"},"vehicle_type_id":"4","last_reported":1706367953,"current_range_meters":12400,"station_id":"ce4bhbh2rcd13ifvqepg","pricing_plan_id":"free"},{"bike_id":"bd299680-292f-4016-9d63-369746d390ec","system_id":"levelo_inurba_marseille","lat":43.284219,"lon":5.3497,"is_reserved":false,"is_disabled":false,"rental_uris":{"android":"levelo://app?vid=bd299680-292f-4016-9d63-369746d390ec","ios":"levelo://app?vid=bd299680-292f-4016-9d63-369746d390ec"},"vehicle_type_id":"4","last_reported":1706367953,"current_range_meters":1200,"station_id":"ce4bhbh2rcd13ifvqepg","pricing_plan_id":"free"},{"bike_id":"1d04d198-cd72-4d4a-9128-5411f3f5513d","system_id":"levelo_inurba_marseille","lat":43.28428,"lon":5.34987,"is_reserved":false,"is_disabled":false,"rental_uris":{"android":"levelo://app?vid=1d04d198-cd72-4d4a-9128-5411f3f5513d","ios":"levelo://app?vid=1d04d198-cd72-4d4a-9128-5411f3f5513d"},"vehicle_type_id":"4","last_reported":1706367953,"current_range_meters":16400,"station_id":"ce4bhbh2rcd13ifvqepg","pricing_plan_id":"free"},{"bike_id":"4eae59f1-45e4-45ef-bb68-da9ab1fd31df","system_id":"levelo_inurba_marseille","lat":43.284219,"lon":5.3497,"is_reserved":false,"is_disabled":false,"rental_uris":{"android":"levelo://app?vid=4eae59f1-45e4-45ef-bb68-da9ab1fd31df","ios":"levelo://app?vid=4eae59f1-45e4-45ef-bb68-da9ab1fd31df"},"vehicle_type_id":"4","last_reported":1706367953,"current_range_meters":30800,"station_id":"ce4bhbh2rcd13ifvqepg","pricing_plan_id":"free"},{"bike_id":"955a6116-28cb-4690-acfc-8f1efe78d27e","system_id":"levelo_inurba_marseille","lat":43.284282,"lon":5.349802,"is_reserved":false,"is_disabled":false,"rental_uris":{"android":"levelo://app?vid=955a6116-28cb-4690-acfc-8f1efe78d27e","ios":"levelo://app?vid=955a6116-28cb-4690-acfc-8f1efe78d27e"},"vehicle_type_id":"4","last_reported":1706367953,"current_range_meters":4400,"station_id":"ce4bhbh2rcd13ifvqepg","pricing_plan_id":"free"},{"bike_id":"1c7fda76-9fb1-4a7d-a516-4655d6fafbfc","system_id":"levelo_inurba_marseille","lat":43.28427,"lon":5.34983,"is_reserved":false,"is_disabled":false,"rental_uris":{"android":"levelo://app?vid=1c7fda76-9fb1-4a7d-a516-4655d6fafbfc","ios":"levelo://app?vid=1c7fda76-9fb1-4a7d-a516-4655d6fafbfc"},"vehicle_type_id":"4","last_reported":1706367953,"current_range_meters":8000,"station_id":"ce4bhbh2rcd13ifvqepg","pricing_plan_id":"free"},{"bike_id":"6cac8acd-ff1d-4dbf-909d-3dc3412ccc10","system_id":"levelo_inurba_marseille","lat":43.284219,"lon":5.3497,"is_reserved":false,"is_disabled":false,"rental_uris":{"android":"levelo://app?vid=6cac8acd-ff1d-4dbf-909d-3dc3412ccc10","ios":"levelo://app?vid=6cac8acd-ff1d-4dbf-909d-3dc3412ccc10"},"vehicle_type_id":"4","last_reported":1706367953,"current_range_meters":23200,"station_id":"ce4bhbh2rcd13ifvqepg","pricing_plan_id":"free"},{"bike_id":"7d662c4c-6b14-48b6-b4db-7c24dc77234b","system_id":"levelo_inurba_marseille","lat":43.28427,"lon":5.34982,"is_reserved":false,"is_disabled":false,"rental_uris":{"android":"levelo://app?vid=7d662c4c-6b14-48b6-b4db-7c24dc77234b","ios":"levelo://app?vid=7d662c4c-6b14-48b6-b4db-7c24dc77234b"},"vehicle_type_id":"4","last_reported":1706367953,"current_range_meters":21200,"station_id":"ce4bhbh2rcd13ifvqepg","pricing_plan_id":"free"},{"bike_id":"abf0807d-4c4b-4d14-b881-b1e29f2f4f83","system_id":"levelo_inurba_marseille","lat":43.284219,"lon":5.3497,"is_reserved":false,"is_disabled":false,"rental_uris":{"android":"levelo://app?vid=abf0807d-4c4b-4d14-b881-b1e29f2f4f83","ios":"levelo://app?vid=abf0807d-4c4b-4d14-b881-b1e29f2f4f83"},"vehicle_type_id":"4","last_reported":1706367953,"current_range_meters":12000,"station_id":"ce4bhbh2rcd13ifvqepg","pricing_plan_id":"free"},{"bike_id":"d7f38616-fac4-4771-b7ac-b8cdcb5c43bd","system_id":"levelo_inurba_marseille","lat":43.284214,"lon":5.349706,"is_reserved":false,"is_disabled":false,"rental_uris":{"android":"levelo://app?vid=d7f38616-fac4-4771-b7ac-b8cdcb5c43bd","ios":"levelo://app?vid=d7f38616-fac4-4771-b7ac-b8cdcb5c43bd"},"vehicle_type_id":"4","last_reported":1706367953,"current_range_meters":25600,"station_id":"ce4bhbh2rcd13ifvqepg","pricing_plan_id":"free"},{"bike_id":"690adc0e-cdbc-4607-a73e-fac6db933777","system_id":"levelo_inurba_marseille","lat":43.284219,"lon":5.3497,"is_reserved":false,"is_disabled":false,"rental_uris":{"android":"levelo://app?vid=690adc0e-cdbc-4607-a73e-fac6db933777","ios":"levelo://app?vid=690adc0e-cdbc-4607-a73e-fac6db933777"},"vehicle_type_id":"4","last_reported":1706367953,"current_range_meters":6400,"station_id":"ce4bhbh2rcd13ifvqepg","pricing_plan_id":"free"},{"bike_id":"e1463530-1163-44ae-99c2-0849118f2907","system_id":"levelo_inurba_marseille","lat":43.284219,"lon":5.3497,"is_reserved":false,"is_disabled":false,"rental_uris":{"android":"levelo://app?vid=e1463530-1163-44ae-99c2-0849118f2907","ios":"levelo://app?vid=e1463530-1163-44ae-99c2-0849118f2907"},"vehicle_type_id":"4","last_reported":1706367953,"current_range_meters":4400,"station_id":"ce4bhbh2rcd13ifvqepg","pricing_plan_id":"free"},{"bike_id":"0b75ab23-3097-4cbc-8c4a-39caad89c765","system_id":"levelo_inurba_marseille","lat":43.284214,"lon":5.349706,"is_reserved":false,"is_disabled":false,"rental_uris":{"android":"levelo://app?vid=0b75ab23-3097-4cbc-8c4a-39caad89c765","ios":"levelo://app?vid=0b75ab23-3097-4cbc-8c4a-39caad89c765"},"vehicle_type_id":"4","last_reported":1706367953,"current_range_meters":3600,"station_id":"ce4bhbh2rcd13ifvqepg","pricing_plan_id":"free"},{"bike_id":"879e7fe9-819d-4ba0-b606-f2359f86d113","system_id":"levelo_inurba_marseille","lat":43.284219,"lon":5.3497,"is_reserved":false,"is_disabled":false,"rental_uris":{"android":"levelo://app?vid=879e7fe9-819d-4ba0-b606-f2359f86d113","ios":"levelo://app?vid=879e7fe9-819d-4ba0-b606-f2359f86d113"},"vehicle_type_id":"4","last_reported":1706367953,"current_range_meters":17600,"station_id":"ce4bhbh2rcd13ifvqepg","pricing_plan_id":"free"},{"bike_id":"1db67312-b191-4be6-ae44-4c59a8de0356","system_id":"levelo_inurba_marseille","lat":43.284236,"lon":5.349751,"is_reserved":false,"is_disabled":false,"rental_uris":{"android":"levelo://app?vid=1db67312-b191-4be6-ae44-4c59a8de0356","ios":"levelo://app?vid=1db67312-b191-4be6-ae44-4c59a8de0356"},"vehicle_type_id":"4","last_reported":1706367953,"current_range_meters":20400,"station_id":"ce4bhbh2rcd13ifvqepg","pricing_plan_id":"free"},{"bike_id":"98eb34fb-fdf0-4105-a920-cf10472e81d8","system_id":"levelo_inurba_marseille","lat":43.2842,"lon":5.34985,"is_reserved":false,"is_disabled":false,"rental_uris":{"android":"levelo://app?vid=98eb34fb-fdf0-4105-a920-cf10472e81d8","ios":"levelo://app?vid=98eb34fb-fdf0-4105-a920-cf10472e81d8"},"vehicle_type_id":"4","last_reported":1706367953,"current_range_meters":15600,"station_id":"ce4bhbh2rcd13ifvqepg","pricing_plan_id":"free"},{"bike_id":"ebfe9909-198e-4bc3-b372-0c66aa72f84c","system_id":"levelo_inurba_marseille","lat":43.284219,"lon":5.3497,"is_reserved":false,"is_disabled":false,"rental_uris":{"android":"levelo://app?vid=ebfe9909-198e-4bc3-b372-0c66aa72f84c","ios":"levelo://app?vid=ebfe9909-198e-4bc3-b372-0c66aa72f84c"},"vehicle_type_id":"4","last_reported":1706367953,"current_range_meters":14800,"station_id":"ce4bhbh2rcd13ifvqepg","pricing_plan_id":"free"},{"bike_id":"fb3806ee-d358-4682-bd48-b6f7f51ab441","system_id":"levelo_inurba_marseille","lat":43.284219,"lon":5.3497,"is_reserved":false,"is_disabled":false,"rental_uris":{"android":"levelo://app?vid=fb3806ee-d358-4682-bd48-b6f7f51ab441","ios":"levelo://app?vid=fb3806ee-d358-4682-bd48-b6f7f51ab441"},"vehicle_type_id":"4","last_reported":1706367953,"current_range_meters":23200,"station_id":"ce4bhbh2rcd13ifvqepg","pricing_plan_id":"free"},{"bike_id":"7b8e08b1-f894-4972-a3db-df34ab5949ad","system_id":"levelo_inurba_marseille","lat":43.284214,"lon":5.349706,"is_reserved":false,"is_disabled":false,"rental_uris":{"android":"levelo://app?vid=7b8e08b1-f894-4972-a3db-df34ab5949ad","ios":"levelo://app?vid=7b8e08b1-f894-4972-a3db-df34ab5949ad"},"vehicle_type_id":"4","last_reported":1706367953,"current_range_meters":18800,"station_id":"ce4bhbh2rcd13ifvqepg","pricing_plan_id":"free"},{"bike_id":"985b2722-3224-4d9b-93a6-e72582658055","system_id":"levelo_inurba_marseille","lat":43.284219,"lon":5.3497,"is_reserved":false,"is_disabled":false,"rental_uris":{"android":"levelo://app?vid=985b2722-3224-4d9b-93a6-e72582658055","ios":"levelo://app?vid=985b2722-3224-4d9b-93a6-e72582658055"},"vehicle_type_id":"4","last_reported":1706367953,"current_range_meters":22000,"station_id":"ce4bhbh2rcd13ifvqepg","pricing_plan_id":"free"},{"bike_id":"d0114db0-d38e-4e30-8ef0-61b4aaaee3c4","system_id":"levelo_inurba_marseille","lat":43.284217,"lon":5.349697,"is_reserved":false,"is_disabled":false,"rental_uris":{"android":"levelo://app?vid=d0114db0-d38e-4e30-8ef0-61b4aaaee3c4","ios":"levelo://app?vid=d0114db0-d38e-4e30-8ef0-61b4aaaee3c4"},"vehicle_type_id":"4","last_reported":1706367953,"current_range_meters":20400,"station_id":"ce4bhbh2rcd13ifvqepg","pricing_plan_id":"free"},{"bike_id":"11dee39c-7ee2-439e-b4f5-03bd3c494c1c","system_id":"levelo_inurba_marseille","lat":43.284174,"lon":5.349815,"is_reserved":false,"is_disabled":false,"rental_uris":{"android":"levelo://app?vid=11dee39c-7ee2-439e-b4f5-03bd3c494c1c","ios":"levelo://app?vid=11dee39c-7ee2-439e-b4f5-03bd3c494c1c"},"vehicle_type_id":"4","last_reported":1706367953,"current_range_meters":11600,"station_id":"ce4bhbh2rcd13ifvqepg","pricing_plan_id":"free"},{"bike_id":"ad9e898d-6b37-4a8e-8d0d-1417dba7880a","system_id":"levelo_inurba_marseille","lat":43.284137,"lon":5.349923,"is_reserved":false,"is_disabled":false,"rental_uris":{"android":"levelo://app?vid=ad9e898d-6b37-4a8e-8d0d-1417dba7880a","ios":"levelo://app?vid=ad9e898d-6b37-4a8e-8d0d-1417dba7880a"},"vehicle_type_id":"4","last_reported":1706367953,"current_range_meters":2800,"station_id":"ce4bhbh2rcd13ifvqepg","pricing_plan_id":"free"},{"bike_id":"35cd06e5-eed7-49a3-bdd1-a24ef7ca3779","system_id":"levelo_inurba_marseille","lat":43.284219,"lon":5.3497,"is_reserved":false,"is_disabled":false,"rental_uris":{"android":"levelo://app?vid=35cd06e5-eed7-49a3-bdd1-a24ef7ca3779","ios":"levelo://app?vid=35cd06e5-eed7-49a3-bdd1-a24ef7ca3779"},"vehicle_type_id":"4","last_reported":1706367953,"current_range_meters":22400,"station_id":"ce4bhbh2rcd13ifvqepg","pricing_plan_id":"free"},{"bike_id":"3d7abb2e-a5ad-41ff-89a3-fe1142af0695","system_id":"levelo_inurba_marseille","lat":43.284165,"lon":5.349797,"is_reserved":false,"is_disabled":false,"rental_uris":{"android":"levelo://app?vid=3d7abb2e-a5ad-41ff-89a3-fe1142af0695","ios":"levelo://app?vid=3d7abb2e-a5ad-41ff-89a3-fe1142af0695"},"vehicle_type_id":"4","last_reported":1706367953,"current_range_meters":0,"station_id":"ce4bhbh2rcd13ifvqepg","pricing_plan_id":"free"},{"bike_id":"898eeaa3-4723-489a-b2c4-625997b263c1","system_id":"levelo_inurba_marseille","lat":43.28413,"lon":5.34982,"is_reserved":false,"is_disabled":false,"rental_uris":{"android":"levelo://app?vid=898eeaa3-4723-489a-b2c4-625997b263c1","ios":"levelo://app?vid=898eeaa3-4723-489a-b2c4-625997b263c1"},"vehicle_type_id":"4","last_reported":1706367953,"current_range_meters":28800,"station_id":"ce4bhbh2rcd13ifvqepg","pricing_plan_id":"free"},{"bike_id":"56716407-257a-45b0-bce5-45aa14f568c9","system_id":"levelo_inurba_marseille","lat":43.284214,"lon":5.349706,"is_reserved":false,"is_disabled":false,"rental_uris":{"android":"levelo://app?vid=56716407-257a-45b0-bce5-45aa14f568c9","ios":"levelo://app?vid=56716407-257a-45b0-bce5-45aa14f568c9"},"vehicle_type_id":"4","last_reported":1706367953,"current_range_meters":16000,"station_id":"ce4bhbh2rcd13ifvqepg","pricing_plan_id":"free"},{"bike_id":"04f3adda-9bd4-4e61-90cd-ac0be4ccfaa4","system_id":"levelo_inurba_marseille","lat":43.284214,"lon":5.349706,"is_reserved":false,"is_disabled":false,"rental_uris":{"android":"levelo://app?vid=04f3adda-9bd4-4e61-90cd-ac0be4ccfaa4","ios":"levelo://app?vid=04f3adda-9bd4-4e61-90cd-ac0be4ccfaa4"},"vehicle_type_id":"4","last_reported":1706367953,"current_range_meters":18400,"station_id":"ce4bhbh2rcd13ifvqepg","pricing_plan_id":"free"},{"bike_id":"521da81a-b628-479a-8d95-18f7b4f66f1d","system_id":"levelo_inurba_marseille","lat":43.284214,"lon":5.349706,"is_reserved":false,"is_disabled":false,"rental_uris":{"android":"levelo://app?vid=521da81a-b628-479a-8d95-18f7b4f66f1d","ios":"levelo://app?vid=521da81a-b628-479a-8d95-18f7b4f66f1d"},"vehicle_type_id":"4","last_reported":1706367953,"current_range_meters":18400,"station_id":"ce4bhbh2rcd13ifvqepg","pricing_plan_id":"free"},{"bike_id":"aa361116-d156-448a-b9ab-65cda03762a0","system_id":"levelo_inurba_marseille","lat":43.289363,"lon":5.396322,"is_reserved":false,"is_disabled":false,"rental_uris":{"android":"levelo://app?vid=aa361116-d156-448a-b9ab-65cda03762a0","ios":"levelo://app?vid=aa361116-d156-448a-b9ab-65cda03762a0"},"vehicle_type_id":"4","last_reported":1706367953,"current_range_meters":0,"station_id":"ce4bh3h2rcd13ifvqdn0","pricing_plan_id":"free"},{"bike_id":"b41bcd76-cb12-4b33-95cd-9444d1e23578","system_id":"levelo_inurba_marseille","lat":43.293556,"lon":5.401561,"is_reserved":false,"is_disabled":false,"rental_uris":{"android":"levelo://app?vid=b41bcd76-cb12-4b33-95cd-9444d1e23578","ios":"levelo://app?vid=b41bcd76-cb12-4b33-95cd-9444d1e23578"},"vehicle_type_id":"4","last_reported":1706367953,"current_range_meters":9600,"station_id":"","pricing_plan_id":"free"},{"bike_id":"765414e0-d36a-40db-a9c5-09271eb1b8c6","system_id":"levelo_inurba_marseille","lat":43.282744,"lon":5.350533,"is_reserved":false,"is_disabled":false,"rental_uris":{"android":"levelo://app?vid=765414e0-d36a-40db-a9c5-09271eb1b8c6","ios":"levelo://app?vid=765414e0-d36a-40db-a9c5-09271eb1b8c6"},"vehicle_type_id":"4","last_reported":1706367953,"current_range_meters":12000,"station_id":"ce4bhbp2rcd13ifvqerg","pricing_plan_id":"free"},{"bike_id":"c6edbd04-18e8-4207-8098-0b171f15a165","system_id":"levelo_inurba_marseille","lat":43.282744,"lon":5.350533,"is_reserved":false,"is_disabled":false,"rental_uris":{"android":"levelo://app?vid=c6edbd04-18e8-4207-8098-0b171f15a165","ios":"levelo://app?vid=c6edbd04-18e8-4207-8098-0b171f15a165"},"vehicle_type_id":"4","last_reported":1706367953,"current_range_meters":3200,"station_id":"ce4bhbp2rcd13ifvqerg","pricing_plan_id":"free"},{"bike_id":"fe813cea-829b-4f0a-8b40-0754a9d510f4","system_id":"levelo_inurba_marseille","lat":43.282744,"lon":5.350533,"is_reserved":false,"is_disabled":false,"rental_uris":{"android":"levelo://app?vid=fe813cea-829b-4f0a-8b40-0754a9d510f4","ios":"levelo://app?vid=fe813cea-829b-4f0a-8b40-0754a9d510f4"},"vehicle_type_id":"4","last_reported":1706367953,"current_range_meters":2400,"station_id":"ce4bhbp2rcd13ifvqerg","pricing_plan_id":"free"},{"bike_id":"b8d76983-e6c6-4ffb-870c-4deb364e6262","system_id":"levelo_inurba_marseille","lat":43.282754,"lon":5.350519,"is_reserved":false,"is_disabled":false,"rental_uris":{"android":"levelo://app?vid=b8d76983-e6c6-4ffb-870c-4deb364e6262","ios":"levelo://app?vid=b8d76983-e6c6-4ffb-870c-4deb364e6262"},"vehicle_type_id":"4","last_reported":1706367953,"current_range_meters":31200,"station_id":"ce4bhbp2rcd13ifvqerg","pricing_plan_id":"free"},{"bike_id":"d2964377-3ca0-4a9e-af56-d94e7e920b7b","system_id":"levelo_inurba_marseille","lat":43.282754,"lon":5.350519,"is_reserved":false,"is_disabled":false,"rental_uris":{"android":"levelo://app?vid=d2964377-3ca0-4a9e-af56-d94e7e920b7b","ios":"levelo://app?vid=d2964377-3ca0-4a9e-af56-d94e7e920b7b"},"vehicle_type_id":"4","last_reported":1706367953,"current_range_meters":0,"station_id":"ce4bhbp2rcd13ifvqerg","pricing_plan_id":"free"},{"bike_id":"c37c3f22-f080-4c9b-b141-3c09c17c5012","system_id":"levelo_inurba_marseille","lat":43.282729,"lon":5.350662,"is_reserved":false,"is_disabled":false,"rental_uris":{"android":"levelo://app?vid=c37c3f22-f080-4c9b-b141-3c09c17c5012","ios":"levelo://app?vid=c37c3f22-f080-4c9b-b141-3c09c17c5012"},"vehicle_type_id":"4","last_reported":1706367953,"current_range_meters":0,"station_id":"ce4bhbp2rcd13ifvqerg","pricing_plan_id":"free"},{"bike_id":"75d453d0-10ab-4758-8c2b-3e84f6fde22b","system_id":"levelo_inurba_marseille","lat":43.28039,"lon":5.369297,"is_reserved":false,"is_disabled":false,"rental_uris":{"android":"levelo://app?vid=75d453d0-10ab-4758-8c2b-3e84f6fde22b","ios":"levelo://app?vid=75d453d0-10ab-4758-8c2b-3e84f6fde22b"},"vehicle_type_id":"4","last_reported":1706367953,"current_range_meters":1200,"station_id":"ce4bha12rcd13ifvqef0","pricing_plan_id":"free"},{"bike_id":"c95544eb-7f47-442e-a459-f62308bc15ef","system_id":"levelo_inurba_marseille","lat":43.282754,"lon":5.350519,"is_reserved":false,"is_disabled":false,"rental_uris":{"android":"levelo://app?vid=c95544eb-7f47-442e-a459-f62308bc15ef","ios":"levelo://app?vid=c95544eb-7f47-442e-a459-f62308bc15ef"},"vehicle_type_id":"4","last_reported":1706367953,"current_range_meters":18800,"station_id":"ce4bhbp2rcd13ifvqerg","pricing_plan_id":"free"},{"bike_id":"cc973aac-a029-44a2-92f2-d77666dbf8b6","system_id":"levelo_inurba_marseille","lat":43.282744,"lon":5.350533,"is_reserved":false,"is_disabled":false,"rental_uris":{"android":"levelo://app?vid=cc973aac-a029-44a2-92f2-d77666dbf8b6","ios":"levelo://app?vid=cc973aac-a029-44a2-92f2-d77666dbf8b6"},"vehicle_type_id":"4","last_reported":1706367953,"current_range_meters":19200,"station_id":"ce4bhbp2rcd13ifvqerg","pricing_plan_id":"free"},{"bike_id":"b374fbef-53c3-49db-be70-19e83a130d42","system_id":"levelo_inurba_marseille","lat":43.282754,"lon":5.350519,"is_reserved":false,"is_disabled":false,"rental_uris":{"android":"levelo://app?vid=b374fbef-53c3-49db-be70-19e83a130d42","ios":"levelo://app?vid=b374fbef-53c3-49db-be70-19e83a130d42"},"vehicle_type_id":"4","last_reported":1706367953,"current_range_meters":3200,"station_id":"ce4bhbp2rcd13ifvqerg","pricing_plan_id":"free"},{"bike_id":"3df71be8-7d80-4ff3-9c80-39c49be6aded","system_id":"levelo_inurba_marseille","lat":43.282744,"lon":5.350533,"is_reserved":false,"is_disabled":false,"rental_uris":{"android":"levelo://app?vid=3df71be8-7d80-4ff3-9c80-39c49be6aded","ios":"levelo://app?vid=3df71be8-7d80-4ff3-9c80-39c49be6aded"},"vehicle_type_id":"4","last_reported":1706367953,"current_range_meters":12000,"station_id":"ce4bhbp2rcd13ifvqerg","pricing_plan_id":"free"},{"bike_id":"80bb12b6-bbca-4c03-802c-590faa287f52","system_id":"levelo_inurba_marseille","lat":43.282744,"lon":5.350533,"is_reserved":false,"is_disabled":false,"rental_uris":{"android":"levelo://app?vid=80bb12b6-bbca-4c03-802c-590faa287f52","ios":"levelo://app?vid=80bb12b6-bbca-4c03-802c-590faa287f52"},"vehicle_type_id":"4","last_reported":1706367953,"current_range_meters":19200,"station_id":"ce4bhbp2rcd13ifvqerg","pricing_plan_id":"free"},{"bike_id":"c311ea8c-5511-4c27-bfb7-8fd64310a88e","system_id":"levelo_inurba_marseille","lat":43.28013,"lon":5.36517,"is_reserved":false,"is_disabled":false,"rental_uris":{"android":"levelo://app?vid=c311ea8c-5511-4c27-bfb7-8fd64310a88e","ios":"levelo://app?vid=c311ea8c-5511-4c27-bfb7-8fd64310a88e"},"vehicle_type_id":"4","last_reported":1706367953,"current_range_meters":26000,"station_id":"","pricing_plan_id":"free"},{"bike_id":"14e41a42-bbf4-4e81-8d41-a79898e0a576","system_id":"levelo_inurba_marseille","lat":43.284462,"lon":5.392121,"is_reserved":false,"is_disabled":false,"rental_uris":{"android":"levelo://app?vid=14e41a42-bbf4-4e81-8d41-a79898e0a576","ios":"levelo://app?vid=14e41a42-bbf4-4e81-8d41-a79898e0a576"},"vehicle_type_id":"4","last_reported":1706367953,"current_range_meters":19600,"station_id":"ce4bhoh2rcd13ifvqh5g","pricing_plan_id":"free"},{"bike_id":"e85c009c-07d7-4bc5-8d3e-6f907a0c1f26","system_id":"levelo_inurba_marseille","lat":43.284462,"lon":5.392121,"is_reserved":false,"is_disabled":false,"rental_uris":{"android":"levelo://app?vid=e85c009c-07d7-4bc5-8d3e-6f907a0c1f26","ios":"levelo://app?vid=e85c009c-07d7-4bc5-8d3e-6f907a0c1f26"},"vehicle_type_id":"4","last_reported":1706367953,"current_range_meters":2800,"station_id":"ce4bhoh2rcd13ifvqh5g","pricing_plan_id":"free"},{"bike_id":"aed19c38-2e8e-4d7c-aee2-a4c490c931b6","system_id":"levelo_inurba_marseille","lat":43.326605,"lon":5.409903,"is_reserved":false,"is_disabled":false,"rental_uris":{"android":"levelo://app?vid=aed19c38-2e8e-4d7c-aee2-a4c490c931b6","ios":"levelo://app?vid=aed19c38-2e8e-4d7c-aee2-a4c490c931b6"},"vehicle_type_id":"4","last_reported":1706367953,"current_range_meters":20000,"station_id":"ce4bhpp2rcd13ifvqhgg","pricing_plan_id":"free"},{"bike_id":"fe3040a1-88fc-4e51-a555-a27442545771","system_id":"levelo_inurba_marseille","lat":43.326605,"lon":5.409903,"is_reserved":false,"is_disabled":false,"rental_uris":{"android":"levelo://app?vid=fe3040a1-88fc-4e51-a555-a27442545771","ios":"levelo://app?vid=fe3040a1-88fc-4e51-a555-a27442545771"},"vehicle_type_id":"4","last_reported":1706367953,"current_range_meters":26000,"station_id":"ce4bhpp2rcd13ifvqhgg","pricing_plan_id":"free"},{"bike_id":"43a6612e-33cb-49df-b89d-07089b5786a0","system_id":"levelo_inurba_marseille","lat":43.30424,"lon":5.4128,"is_reserved":false,"is_disabled":false,"rental_uris":{"android":"levelo://app?vid=43a6612e-33cb-49df-b89d-07089b5786a0","ios":"levelo://app?vid=43a6612e-33cb-49df-b89d-07089b5786a0"},"vehicle_type_id":"4","last_reported":1706367953,"current_range_meters":25200,"station_id":"ce4bhop2rcd13ifvqh8g","pricing_plan_id":"free"},{"bike_id":"9c45db94-2b90-4f8c-a245-238e67f1685a","system_id":"levelo_inurba_marseille","lat":43.279087,"lon":5.380114,"is_reserved":false,"is_disabled":false,"rental_uris":{"android":"levelo://app?vid=9c45db94-2b90-4f8c-a245-238e67f1685a","ios":"levelo://app?vid=9c45db94-2b90-4f8c-a245-238e67f1685a"},"vehicle_type_id":"4","last_reported":1706367953,"current_range_meters":27200,"station_id":"ce4bhf92rcd13ifvqf50","pricing_plan_id":"free"},{"bike_id":"e6746ac8-f937-4c83-842c-a1feb325cacb","system_id":"levelo_inurba_marseille","lat":43.278128,"lon":5.407195,"is_reserved":false,"is_disabled":false,"rental_uris":{"android":"levelo://app?vid=e6746ac8-f937-4c83-842c-a1feb325cacb","ios":"levelo://app?vid=e6746ac8-f937-4c83-842c-a1feb325cacb"},"vehicle_type_id":"4","last_reported":1706367953,"current_range_meters":24800,"station_id":"ce4bhnh2rcd13ifvqgtg","pricing_plan_id":"free"},{"bike_id":"09b6ee3e-51fd-4add-b1f5-fb3703f213ce","system_id":"levelo_inurba_marseille","lat":43.320045,"lon":5.415046,"is_reserved":false,"is_disabled":false,"rental_uris":{"android":"levelo://app?vid=09b6ee3e-51fd-4add-b1f5-fb3703f213ce","ios":"levelo://app?vid=09b6ee3e-51fd-4add-b1f5-fb3703f213ce"},"vehicle_type_id":"4","last_reported":1706367953,"current_range_meters":8000,"station_id":"ce4bhq92rcd13ifvqhkg","pricing_plan_id":"free"},{"bike_id":"f83a3a7e-1d78-42cc-a2d9-6a1634b4b2ae","system_id":"levelo_inurba_marseille","lat":43.320045,"lon":5.415046,"is_reserved":false,"is_disabled":false,"rental_uris":{"android":"levelo://app?vid=f83a3a7e-1d78-42cc-a2d9-6a1634b4b2ae","ios":"levelo://app?vid=f83a3a7e-1d78-42cc-a2d9-6a1634b4b2ae"},"vehicle_type_id":"4","last_reported":1706367953,"current_range_meters":31200,"station_id":"ce4bhq92rcd13ifvqhkg","pricing_plan_id":"free"},{"bike_id":"fcf5ad55-9d29-48f4-b96b-b5827880831a","system_id":"levelo_inurba_marseille","lat":43.320447,"lon":5.415503,"is_reserved":false,"is_disabled":false,"rental_uris":{"android":"levelo://app?vid=fcf5ad55-9d29-48f4-b96b-b5827880831a","ios":"levelo://app?vid=fcf5ad55-9d29-48f4-b96b-b5827880831a"},"vehicle_type_id":"4","last_reported":1706367953,"current_range_meters":17600,"station_id":"ce4bhq92rcd13ifvqhkg","pricing_plan_id":"free"},{"bike_id":"515a3081-a14e-4d67-b0d6-e8661054fc02","system_id":"levelo_inurba_marseille","lat":43.279742,"lon":5.38744,"is_reserved":false,"is_disabled":false,"rental_uris":{"android":"levelo://app?vid=515a3081-a14e-4d67-b0d6-e8661054fc02","ios":"levelo://app?vid=515a3081-a14e-4d67-b0d6-e8661054fc02"},"vehicle_type_id":"4","last_reported":1706367953,"current_range_meters":0,"station_id":"ce4bhg12rcd13ifvqf80","pricing_plan_id":"free"},{"bike_id":"4977dd65-369e-417b-9c52-fe977a945b82","system_id":"levelo_inurba_marseille","lat":43.320045,"lon":5.415048,"is_reserved":false,"is_disabled":false,"rental_uris":{"android":"levelo://app?vid=4977dd65-369e-417b-9c52-fe977a945b82","ios":"levelo://app?vid=4977dd65-369e-417b-9c52-fe977a945b82"},"vehicle_type_id":"4","last_reported":1706367953,"current_range_meters":29600,"station_id":"ce4bhq92rcd13ifvqhkg","pricing_plan_id":"free"},{"bike_id":"d0e33b91-a1fc-4c6e-928a-1ff79b844f3e","system_id":"levelo_inurba_marseille","lat":43.320045,"lon":5.415046,"is_reserved":false,"is_disabled":false,"rental_uris":{"android":"levelo://app?vid=d0e33b91-a1fc-4c6e-928a-1ff79b844f3e","ios":"levelo://app?vid=d0e33b91-a1fc-4c6e-928a-1ff79b844f3e"},"vehicle_type_id":"4","last_reported":1706367953,"current_range_meters":27600,"station_id":"ce4bhq92rcd13ifvqhkg","pricing_plan_id":"free"},{"bike_id":"239540cd-7c62-42a3-bb49-9dfa3eafc143","system_id":"levelo_inurba_marseille","lat":43.27618,"lon":5.361009,"is_reserved":false,"is_disabled":false,"rental_uris":{"android":"levelo://app?vid=239540cd-7c62-42a3-bb49-9dfa3eafc143","ios":"levelo://app?vid=239540cd-7c62-42a3-bb49-9dfa3eafc143"},"vehicle_type_id":"4","last_reported":1706367953,"current_range_meters":13200,"station_id":"ce4bgj92rcd13ifvqbe0","pricing_plan_id":"free"},{"bike_id":"f32134a7-23ab-4bd2-9f18-8d28a84754d3","system_id":"levelo_inurba_marseille","lat":43.276179,"lon":5.361009,"is_reserved":false,"is_disabled":false,"rental_uris":{"android":"levelo://app?vid=f32134a7-23ab-4bd2-9f18-8d28a84754d3","ios":"levelo://app?vid=f32134a7-23ab-4bd2-9f18-8d28a84754d3"},"vehicle_type_id":"4","last_reported":1706367953,"current_range_meters":21200,"station_id":"ce4bgj92rcd13ifvqbe0","pricing_plan_id":"free"},{"bike_id":"95d1494b-79a8-4a75-944d-fb0d89dbcf6c","system_id":"levelo_inurba_marseille","lat":43.27618,"lon":5.361009,"is_reserved":false,"is_disabled":false,"rental_uris":{"android":"levelo://app?vid=95d1494b-79a8-4a75-944d-fb0d89dbcf6c","ios":"levelo://app?vid=95d1494b-79a8-4a75-944d-fb0d89dbcf6c"},"vehicle_type_id":"4","last_reported":1706367953,"current_range_meters":400,"station_id":"ce4bgj92rcd13ifvqbe0","pricing_plan_id":"free"},{"bike_id":"1a482e2e-f2a0-4797-ab07-b1fa2fb4540e","system_id":"levelo_inurba_marseille","lat":43.276179,"lon":5.361009,"is_reserved":false,"is_disabled":false,"rental_uris":{"android":"levelo://app?vid=1a482e2e-f2a0-4797-ab07-b1fa2fb4540e","ios":"levelo://app?vid=1a482e2e-f2a0-4797-ab07-b1fa2fb4540e"},"vehicle_type_id":"4","last_reported":1706367953,"current_range_meters":29600,"station_id":"ce4bgj92rcd13ifvqbe0","pricing_plan_id":"free"},{"bike_id":"fecf969f-d050-4d3b-aa81-32e0fd7f0eb5","system_id":"levelo_inurba_marseille","lat":43.273851,"lon":5.362596,"is_reserved":false,"is_disabled":false,"rental_uris":{"android":"levelo://app?vid=fecf969f-d050-4d3b-aa81-32e0fd7f0eb5","ios":"levelo://app?vid=fecf969f-d050-4d3b-aa81-32e0fd7f0eb5"},"vehicle_type_id":"4","last_reported":1706367953,"current_range_meters":5600,"station_id":"ce4bhbh2rcd13ifvqeo0","pricing_plan_id":"free"},{"bike_id":"957c859e-eed2-4a93-9203-4a17432d7b91","system_id":"levelo_inurba_marseille","lat":43.273613,"lon":5.362705,"is_reserved":false,"is_disabled":false,"rental_uris":{"android":"levelo://app?vid=957c859e-eed2-4a93-9203-4a17432d7b91","ios":"levelo://app?vid=957c859e-eed2-4a93-9203-4a17432d7b91"},"vehicle_type_id":"4","last_reported":1706367953,"current_range_meters":2000,"station_id":"ce4bhbh2rcd13ifvqeo0","pricing_plan_id":"free"},{"bike_id":"cd0bbe4e-0e8f-47d9-a60d-f751ce439fa9","system_id":"levelo_inurba_marseille","lat":43.273613,"lon":5.362705,"is_reserved":false,"is_disabled":false,"rental_uris":{"android":"levelo://app?vid=cd0bbe4e-0e8f-47d9-a60d-f751ce439fa9","ios":"levelo://app?vid=cd0bbe4e-0e8f-47d9-a60d-f751ce439fa9"},"vehicle_type_id":"4","last_reported":1706367953,"current_range_meters":20000,"station_id":"ce4bhbh2rcd13ifvqeo0","pricing_plan_id":"free"},{"bike_id":"a96da645-608a-40e3-a3b0-719a6e1f9d8a","system_id":"levelo_inurba_marseille","lat":43.273613,"lon":5.362705,"is_reserved":false,"is_disabled":false,"rental_uris":{"android":"levelo://app?vid=a96da645-608a-40e3-a3b0-719a6e1f9d8a","ios":"levelo://app?vid=a96da645-608a-40e3-a3b0-719a6e1f9d8a"},"vehicle_type_id":"4","last_reported":1706367953,"current_range_meters":2400,"station_id":"ce4bhbh2rcd13ifvqeo0","pricing_plan_id":"free"},{"bike_id":"1a8adb52-58c8-491e-8d84-df481aeeb4f0","system_id":"levelo_inurba_marseille","lat":43.273613,"lon":5.362705,"is_reserved":false,"is_disabled":false,"rental_uris":{"android":"levelo://app?vid=1a8adb52-58c8-491e-8d84-df481aeeb4f0","ios":"levelo://app?vid=1a8adb52-58c8-491e-8d84-df481aeeb4f0"},"vehicle_type_id":"4","last_reported":1706367953,"current_range_meters":23600,"station_id":"ce4bhbh2rcd13ifvqeo0","pricing_plan_id":"free"},{"bike_id":"c9018451-8711-4c6f-9984-543b4bff5c95","system_id":"levelo_inurba_marseille","lat":43.273609,"lon":5.362708,"is_reserved":false,"is_disabled":false,"rental_uris":{"android":"levelo://app?vid=c9018451-8711-4c6f-9984-543b4bff5c95","ios":"levelo://app?vid=c9018451-8711-4c6f-9984-543b4bff5c95"},"vehicle_type_id":"4","last_reported":1706367953,"current_range_meters":17200,"station_id":"ce4bhbh2rcd13ifvqeo0","pricing_plan_id":"free"},{"bike_id":"7360d279-3172-4afb-a82d-7065779f089d","system_id":"levelo_inurba_marseille","lat":43.273613,"lon":5.362705,"is_reserved":false,"is_disabled":false,"rental_uris":{"android":"levelo://app?vid=7360d279-3172-4afb-a82d-7065779f089d","ios":"levelo://app?vid=7360d279-3172-4afb-a82d-7065779f089d"},"vehicle_type_id":"4","last_reported":1706367953,"current_range_meters":29600,"station_id":"ce4bhbh2rcd13ifvqeo0","pricing_plan_id":"free"},{"bike_id":"6a5915bf-f0ae-43f7-826b-9e74758b4e7d","system_id":"levelo_inurba_marseille","lat":43.273609,"lon":5.362708,"is_reserved":false,"is_disabled":false,"rental_uris":{"android":"levelo://app?vid=6a5915bf-f0ae-43f7-826b-9e74758b4e7d","ios":"levelo://app?vid=6a5915bf-f0ae-43f7-826b-9e74758b4e7d"},"vehicle_type_id":"4","last_reported":1706367953,"current_range_meters":12800,"station_id":"ce4bhbh2rcd13ifvqeo0","pricing_plan_id":"free"},{"bike_id":"c18f615e-5966-4801-ad8f-fe259bf8fb9e","system_id":"levelo_inurba_marseille","lat":43.273613,"lon":5.362705,"is_reserved":false,"is_disabled":false,"rental_uris":{"android":"levelo://app?vid=c18f615e-5966-4801-ad8f-fe259bf8fb9e","ios":"levelo://app?vid=c18f615e-5966-4801-ad8f-fe259bf8fb9e"},"vehicle_type_id":"4","last_reported":1706367953,"current_range_meters":22400,"station_id":"ce4bhbh2rcd13ifvqeo0","pricing_plan_id":"free"},{"bike_id":"57a9551b-7efd-4228-a5ba-e12c22e66737","system_id":"levelo_inurba_marseille","lat":43.273613,"lon":5.362705,"is_reserved":false,"is_disabled":false,"rental_uris":{"android":"levelo://app?vid=57a9551b-7efd-4228-a5ba-e12c22e66737","ios":"levelo://app?vid=57a9551b-7efd-4228-a5ba-e12c22e66737"},"vehicle_type_id":"4","last_reported":1706367953,"current_range_meters":31200,"station_id":"ce4bhbh2rcd13ifvqeo0","pricing_plan_id":"free"},{"bike_id":"d3ed1802-3642-4645-8a08-1420a357a1a1","system_id":"levelo_inurba_marseille","lat":43.33606,"lon":5.41017,"is_reserved":false,"is_disabled":false,"rental_uris":{"android":"levelo://app?vid=d3ed1802-3642-4645-8a08-1420a357a1a1","ios":"levelo://app?vid=d3ed1802-3642-4645-8a08-1420a357a1a1"},"vehicle_type_id":"4","last_reported":1706367953,"current_range_meters":0,"station_id":"ce4bhqh2rcd13ifvqhmg","pricing_plan_id":"free"},{"bike_id":"1e0a6806-72a4-4f0f-ac10-31b26773860d","system_id":"levelo_inurba_marseille","lat":43.273609,"lon":5.362708,"is_reserved":false,"is_disabled":false,"rental_uris":{"android":"levelo://app?vid=1e0a6806-72a4-4f0f-ac10-31b26773860d","ios":"levelo://app?vid=1e0a6806-72a4-4f0f-ac10-31b26773860d"},"vehicle_type_id":"4","last_reported":1706367953,"current_range_meters":22400,"station_id":"ce4bhbh2rcd13ifvqeo0","pricing_plan_id":"free"},{"bike_id":"63ee3fe3-6266-4f93-994d-8f55f68c1b56","system_id":"levelo_inurba_marseille","lat":43.273609,"lon":5.362708,"is_reserved":false,"is_disabled":false,"rental_uris":{"android":"levelo://app?vid=63ee3fe3-6266-4f93-994d-8f55f68c1b56","ios":"levelo://app?vid=63ee3fe3-6266-4f93-994d-8f55f68c1b56"},"vehicle_type_id":"4","last_reported":1706367953,"current_range_meters":25200,"station_id":"ce4bhbh2rcd13ifvqeo0","pricing_plan_id":"free"},{"bike_id":"47e1d2c3-0629-436f-bb41-44554e63c6da","system_id":"levelo_inurba_marseille","lat":43.336134,"lon":5.410341,"is_reserved":false,"is_disabled":false,"rental_uris":{"android":"levelo://app?vid=47e1d2c3-0629-436f-bb41-44554e63c6da","ios":"levelo://app?vid=47e1d2c3-0629-436f-bb41-44554e63c6da"},"vehicle_type_id":"4","last_reported":1706367953,"current_range_meters":21200,"station_id":"ce4bhqh2rcd13ifvqhmg","pricing_plan_id":"free"},{"bike_id":"c5d1721b-cee3-49d5-af78-92de753abde9","system_id":"levelo_inurba_marseille","lat":43.276771,"lon":5.388799,"is_reserved":false,"is_disabled":false,"rental_uris":{"android":"levelo://app?vid=c5d1721b-cee3-49d5-af78-92de753abde9","ios":"levelo://app?vid=c5d1721b-cee3-49d5-af78-92de753abde9"},"vehicle_type_id":"4","last_reported":1706367953,"current_range_meters":14000,"station_id":"ce4bhi12rcd13ifvqfo0","pricing_plan_id":"free"},{"bike_id":"b7255614-9570-41f8-9b2c-7324902e4d07","system_id":"levelo_inurba_marseille","lat":43.276771,"lon":5.388799,"is_reserved":false,"is_disabled":false,"rental_uris":{"android":"levelo://app?vid=b7255614-9570-41f8-9b2c-7324902e4d07","ios":"levelo://app?vid=b7255614-9570-41f8-9b2c-7324902e4d07"},"vehicle_type_id":"4","last_reported":1706367953,"current_range_meters":15600,"station_id":"ce4bhi12rcd13ifvqfo0","pricing_plan_id":"free"},{"bike_id":"fab7965c-43b1-47d9-ad9b-5b4130721289","system_id":"levelo_inurba_marseille","lat":43.279975,"lon":5.40009,"is_reserved":false,"is_disabled":false,"rental_uris":{"android":"levelo://app?vid=fab7965c-43b1-47d9-ad9b-5b4130721289","ios":"levelo://app?vid=fab7965c-43b1-47d9-ad9b-5b4130721289"},"vehicle_type_id":"4","last_reported":1706367953,"current_range_meters":800,"station_id":"ce4bho92rcd13ifvqh4g","pricing_plan_id":"free"},{"bike_id":"e8f83f00-e9f1-4581-9aaa-f67ba3c1276e","system_id":"levelo_inurba_marseille","lat":43.279975,"lon":5.40009,"is_reserved":false,"is_disabled":false,"rental_uris":{"android":"levelo://app?vid=e8f83f00-e9f1-4581-9aaa-f67ba3c1276e","ios":"levelo://app?vid=e8f83f00-e9f1-4581-9aaa-f67ba3c1276e"},"vehicle_type_id":"4","last_reported":1706367953,"current_range_meters":19600,"station_id":"ce4bho92rcd13ifvqh4g","pricing_plan_id":"free"},{"bike_id":"124335b6-d9c2-4041-8495-961139e27337","system_id":"levelo_inurba_marseille","lat":43.279975,"lon":5.40009,"is_reserved":false,"is_disabled":false,"rental_uris":{"android":"levelo://app?vid=124335b6-d9c2-4041-8495-961139e27337","ios":"levelo://app?vid=124335b6-d9c2-4041-8495-961139e27337"},"vehicle_type_id":"4","last_reported":1706367953,"current_range_meters":12400,"station_id":"ce4bho92rcd13ifvqh4g","pricing_plan_id":"free"},{"bike_id":"0b0b9132-9d82-4326-ab23-fabee939c7c7","system_id":"levelo_inurba_marseille","lat":43.279952,"lon":5.400085,"is_reserved":false,"is_disabled":false,"rental_uris":{"android":"levelo://app?vid=0b0b9132-9d82-4326-ab23-fabee939c7c7","ios":"levelo://app?vid=0b0b9132-9d82-4326-ab23-fabee939c7c7"},"vehicle_type_id":"4","last_reported":1706367953,"current_range_meters":15200,"station_id":"ce4bho92rcd13ifvqh4g","pricing_plan_id":"free"},{"bike_id":"4e8fb507-5b3b-49f4-9f75-234c3edc917e","system_id":"levelo_inurba_marseille","lat":43.279952,"lon":5.400085,"is_reserved":false,"is_disabled":false,"rental_uris":{"android":"levelo://app?vid=4e8fb507-5b3b-49f4-9f75-234c3edc917e","ios":"levelo://app?vid=4e8fb507-5b3b-49f4-9f75-234c3edc917e"},"vehicle_type_id":"4","last_reported":1706367953,"current_range_meters":11600,"station_id":"ce4bho92rcd13ifvqh4g","pricing_plan_id":"free"},{"bike_id":"d95bf1c5-60e0-4d9c-b6d0-a3da2aa17ae7","system_id":"levelo_inurba_marseille","lat":43.279952,"lon":5.400085,"is_reserved":false,"is_disabled":false,"rental_uris":{"android":"levelo://app?vid=d95bf1c5-60e0-4d9c-b6d0-a3da2aa17ae7","ios":"levelo://app?vid=d95bf1c5-60e0-4d9c-b6d0-a3da2aa17ae7"},"vehicle_type_id":"4","last_reported":1706367953,"current_range_meters":23200,"station_id":"ce4bho92rcd13ifvqh4g","pricing_plan_id":"free"},{"bike_id":"6f46a34b-d5d1-4592-8607-98eec5146735","system_id":"levelo_inurba_marseille","lat":43.283676,"lon":5.407094,"is_reserved":false,"is_disabled":false,"rental_uris":{"android":"levelo://app?vid=6f46a34b-d5d1-4592-8607-98eec5146735","ios":"levelo://app?vid=6f46a34b-d5d1-4592-8607-98eec5146735"},"vehicle_type_id":"4","last_reported":1706367953,"current_range_meters":6800,"station_id":"","pricing_plan_id":"free"},{"bike_id":"76a1444e-7429-4c72-9ae5-313749a04157","system_id":"levelo_inurba_marseille","lat":43.31081,"lon":5.42436,"is_reserved":false,"is_disabled":false,"rental_uris":{"android":"levelo://app?vid=76a1444e-7429-4c72-9ae5-313749a04157","ios":"levelo://app?vid=76a1444e-7429-4c72-9ae5-313749a04157"},"vehicle_type_id":"4","last_reported":1706367953,"current_range_meters":18000,"station_id":"ce4bhp92rcd13ifvqhag","pricing_plan_id":"free"},{"bike_id":"656f5d99-eb54-4a52-9139-4595384d26ba","system_id":"levelo_inurba_marseille","lat":43.273125,"lon":5.390731,"is_reserved":false,"is_disabled":false,"rental_uris":{"android":"levelo://app?vid=656f5d99-eb54-4a52-9139-4595384d26ba","ios":"levelo://app?vid=656f5d99-eb54-4a52-9139-4595384d26ba"},"vehicle_type_id":"4","last_reported":1706367953,"current_range_meters":800,"station_id":"ce4bhgp2rcd13ifvqfe0","pricing_plan_id":"free"},{"bike_id":"957fdb11-1d54-4398-a456-0fbfc6b92982","system_id":"levelo_inurba_marseille","lat":43.273125,"lon":5.390731,"is_reserved":false,"is_disabled":false,"rental_uris":{"android":"levelo://app?vid=957fdb11-1d54-4398-a456-0fbfc6b92982","ios":"levelo://app?vid=957fdb11-1d54-4398-a456-0fbfc6b92982"},"vehicle_type_id":"4","last_reported":1706367953,"current_range_meters":7200,"station_id":"ce4bhgp2rcd13ifvqfe0","pricing_plan_id":"free"},{"bike_id":"2547600e-d149-4a4d-8519-0adafb725a8e","system_id":"levelo_inurba_marseille","lat":43.295523,"lon":5.422926,"is_reserved":false,"is_disabled":false,"rental_uris":{"android":"levelo://app?vid=2547600e-d149-4a4d-8519-0adafb725a8e","ios":"levelo://app?vid=2547600e-d149-4a4d-8519-0adafb725a8e"},"vehicle_type_id":"4","last_reported":1706367953,"current_range_meters":17200,"station_id":"ce4bhph2rcd13ifvqhdg","pricing_plan_id":"free"},{"bike_id":"6666f0d6-84fe-4029-b53c-8f911fde6ae1","system_id":"levelo_inurba_marseille","lat":43.29556,"lon":5.42284,"is_reserved":false,"is_disabled":false,"rental_uris":{"android":"levelo://app?vid=6666f0d6-84fe-4029-b53c-8f911fde6ae1","ios":"levelo://app?vid=6666f0d6-84fe-4029-b53c-8f911fde6ae1"},"vehicle_type_id":"4","last_reported":1706367953,"current_range_meters":7200,"station_id":"ce4bhph2rcd13ifvqhdg","pricing_plan_id":"free"},{"bike_id":"b14eccbe-4a04-4adc-9837-27b973fdae43","system_id":"levelo_inurba_marseille","lat":43.29554,"lon":5.42284,"is_reserved":false,"is_disabled":false,"rental_uris":{"android":"levelo://app?vid=b14eccbe-4a04-4adc-9837-27b973fdae43","ios":"levelo://app?vid=b14eccbe-4a04-4adc-9837-27b973fdae43"},"vehicle_type_id":"4","last_reported":1706367953,"current_range_meters":6000,"station_id":"ce4bhph2rcd13ifvqhdg","pricing_plan_id":"free"},{"bike_id":"5b8abb81-a8e3-4bf5-9691-1cf67236940c","system_id":"levelo_inurba_marseille","lat":43.295523,"lon":5.422926,"is_reserved":false,"is_disabled":false,"rental_uris":{"android":"levelo://app?vid=5b8abb81-a8e3-4bf5-9691-1cf67236940c","ios":"levelo://app?vid=5b8abb81-a8e3-4bf5-9691-1cf67236940c"},"vehicle_type_id":"4","last_reported":1706367953,"current_range_meters":26800,"station_id":"ce4bhph2rcd13ifvqhdg","pricing_plan_id":"free"},{"bike_id":"79aba3fd-e7b6-41fe-974b-a11d6cc1ed17","system_id":"levelo_inurba_marseille","lat":43.29521,"lon":5.42268,"is_reserved":false,"is_disabled":false,"rental_uris":{"android":"levelo://app?vid=79aba3fd-e7b6-41fe-974b-a11d6cc1ed17","ios":"levelo://app?vid=79aba3fd-e7b6-41fe-974b-a11d6cc1ed17"},"vehicle_type_id":"4","last_reported":1706367953,"current_range_meters":21600,"station_id":"ce4bhph2rcd13ifvqhdg","pricing_plan_id":"free"},{"bike_id":"1e8a4928-2087-4f36-a906-ef996ea4d5ed","system_id":"levelo_inurba_marseille","lat":43.295523,"lon":5.422926,"is_reserved":false,"is_disabled":false,"rental_uris":{"android":"levelo://app?vid=1e8a4928-2087-4f36-a906-ef996ea4d5ed","ios":"levelo://app?vid=1e8a4928-2087-4f36-a906-ef996ea4d5ed"},"vehicle_type_id":"4","last_reported":1706367953,"current_range_meters":30800,"station_id":"ce4bhph2rcd13ifvqhdg","pricing_plan_id":"free"},{"bike_id":"ce9282da-17cb-43ae-9599-73ae8dd31eb7","system_id":"levelo_inurba_marseille","lat":43.295532,"lon":5.422888,"is_reserved":false,"is_disabled":false,"rental_uris":{"android":"levelo://app?vid=ce9282da-17cb-43ae-9599-73ae8dd31eb7","ios":"levelo://app?vid=ce9282da-17cb-43ae-9599-73ae8dd31eb7"},"vehicle_type_id":"4","last_reported":1706367953,"current_range_meters":20800,"station_id":"","pricing_plan_id":"free"},{"bike_id":"70c114c8-7b5e-4171-afbf-dfaf4960bad3","system_id":"levelo_inurba_marseille","lat":43.295523,"lon":5.422926,"is_reserved":false,"is_disabled":false,"rental_uris":{"android":"levelo://app?vid=70c114c8-7b5e-4171-afbf-dfaf4960bad3","ios":"levelo://app?vid=70c114c8-7b5e-4171-afbf-dfaf4960bad3"},"vehicle_type_id":"4","last_reported":1706367953,"current_range_meters":800,"station_id":"ce4bhph2rcd13ifvqhdg","pricing_plan_id":"free"},{"bike_id":"de466090-dd28-4e69-8cca-ad386bc86374","system_id":"levelo_inurba_marseille","lat":43.272124,"lon":5.391768,"is_reserved":false,"is_disabled":false,"rental_uris":{"android":"levelo://app?vid=de466090-dd28-4e69-8cca-ad386bc86374","ios":"levelo://app?vid=de466090-dd28-4e69-8cca-ad386bc86374"},"vehicle_type_id":"4","last_reported":1706367953,"current_range_meters":5600,"station_id":"ce4bhhp2rcd13ifvqfm0","pricing_plan_id":"free"},{"bike_id":"ce8546be-7ea0-4f38-904b-567ba5b62295","system_id":"levelo_inurba_marseille","lat":43.272124,"lon":5.391768,"is_reserved":false,"is_disabled":false,"rental_uris":{"android":"levelo://app?vid=ce8546be-7ea0-4f38-904b-567ba5b62295","ios":"levelo://app?vid=ce8546be-7ea0-4f38-904b-567ba5b62295"},"vehicle_type_id":"4","last_reported":1706367953,"current_range_meters":0,"station_id":"ce4bhhp2rcd13ifvqfm0","pricing_plan_id":"free"},{"bike_id":"8f32e278-00e1-4066-b794-121290b29b1c","system_id":"levelo_inurba_marseille","lat":43.272116,"lon":5.391747,"is_reserved":false,"is_disabled":false,"rental_uris":{"android":"levelo://app?vid=8f32e278-00e1-4066-b794-121290b29b1c","ios":"levelo://app?vid=8f32e278-00e1-4066-b794-121290b29b1c"},"vehicle_type_id":"4","last_reported":1706367953,"current_range_meters":19200,"station_id":"ce4bhhp2rcd13ifvqfm0","pricing_plan_id":"free"},{"bike_id":"79e70584-5270-4bcd-9f34-511ad01073d6","system_id":"levelo_inurba_marseille","lat":43.278128,"lon":5.407195,"is_reserved":false,"is_disabled":false,"rental_uris":{"android":"levelo://app?vid=79e70584-5270-4bcd-9f34-511ad01073d6","ios":"levelo://app?vid=79e70584-5270-4bcd-9f34-511ad01073d6"},"vehicle_type_id":"4","last_reported":1706367953,"current_range_meters":19600,"station_id":"ce4bhnh2rcd13ifvqgtg","pricing_plan_id":"free"},{"bike_id":"3d4df7b3-bd7d-4183-ad4d-4abd50c9890b","system_id":"levelo_inurba_marseille","lat":43.278128,"lon":5.407195,"is_reserved":false,"is_disabled":false,"rental_uris":{"android":"levelo://app?vid=3d4df7b3-bd7d-4183-ad4d-4abd50c9890b","ios":"levelo://app?vid=3d4df7b3-bd7d-4183-ad4d-4abd50c9890b"},"vehicle_type_id":"4","last_reported":1706367953,"current_range_meters":17600,"station_id":"ce4bhnh2rcd13ifvqgtg","pricing_plan_id":"free"},{"bike_id":"3b1859a3-01ad-4e37-8589-ec07e82445a7","system_id":"levelo_inurba_marseille","lat":43.269467,"lon":5.386439,"is_reserved":false,"is_disabled":false,"rental_uris":{"android":"levelo://app?vid=3b1859a3-01ad-4e37-8589-ec07e82445a7","ios":"levelo://app?vid=3b1859a3-01ad-4e37-8589-ec07e82445a7"},"vehicle_type_id":"4","last_reported":1706367953,"current_range_meters":7200,"station_id":"ce4bhh92rcd13ifvqfh0","pricing_plan_id":"free"},{"bike_id":"34af89b3-6074-49e6-8dee-ee527ac06715","system_id":"levelo_inurba_marseille","lat":43.269319,"lon":5.389397,"is_reserved":false,"is_disabled":false,"rental_uris":{"android":"levelo://app?vid=34af89b3-6074-49e6-8dee-ee527ac06715","ios":"levelo://app?vid=34af89b3-6074-49e6-8dee-ee527ac06715"},"vehicle_type_id":"4","last_reported":1706367953,"current_range_meters":4000,"station_id":"ce4bhhh2rcd13ifvqfl0","pricing_plan_id":"free"},{"bike_id":"0a54a9ff-96e6-45f6-8107-f6c5889b2c47","system_id":"levelo_inurba_marseille","lat":43.26681,"lon":5.382694,"is_reserved":false,"is_disabled":false,"rental_uris":{"android":"levelo://app?vid=0a54a9ff-96e6-45f6-8107-f6c5889b2c47","ios":"levelo://app?vid=0a54a9ff-96e6-45f6-8107-f6c5889b2c47"},"vehicle_type_id":"4","last_reported":1706367953,"current_range_meters":18800,"station_id":"ce4bhg92rcd13ifvqf90","pricing_plan_id":"free"},{"bike_id":"f8c657a5-2994-4aa2-b0f7-2de34349734d","system_id":"levelo_inurba_marseille","lat":43.27987,"lon":5.41659,"is_reserved":false,"is_disabled":false,"rental_uris":{"android":"levelo://app?vid=f8c657a5-2994-4aa2-b0f7-2de34349734d","ios":"levelo://app?vid=f8c657a5-2994-4aa2-b0f7-2de34349734d"},"vehicle_type_id":"4","last_reported":1706367953,"current_range_meters":29200,"station_id":"ce4bho12rcd13ifvqh1g","pricing_plan_id":"free"},{"bike_id":"edd16ce6-50c2-4d11-a9bf-d05357cb5ba8","system_id":"levelo_inurba_marseille","lat":43.27987,"lon":5.41659,"is_reserved":false,"is_disabled":false,"rental_uris":{"android":"levelo://app?vid=edd16ce6-50c2-4d11-a9bf-d05357cb5ba8","ios":"levelo://app?vid=edd16ce6-50c2-4d11-a9bf-d05357cb5ba8"},"vehicle_type_id":"4","last_reported":1706367953,"current_range_meters":29600,"station_id":"ce4bho12rcd13ifvqh1g","pricing_plan_id":"free"},{"bike_id":"823c3415-4bdd-4efc-9703-2618f2e36180","system_id":"levelo_inurba_marseille","lat":43.27996,"lon":5.416624,"is_reserved":false,"is_disabled":false,"rental_uris":{"android":"levelo://app?vid=823c3415-4bdd-4efc-9703-2618f2e36180","ios":"levelo://app?vid=823c3415-4bdd-4efc-9703-2618f2e36180"},"vehicle_type_id":"4","last_reported":1706367953,"current_range_meters":29200,"station_id":"ce4bho12rcd13ifvqh1g","pricing_plan_id":"free"},{"bike_id":"7999f19b-c9d4-4e69-80b5-ac5c360909ae","system_id":"levelo_inurba_marseille","lat":43.27996,"lon":5.416624,"is_reserved":false,"is_disabled":false,"rental_uris":{"android":"levelo://app?vid=7999f19b-c9d4-4e69-80b5-ac5c360909ae","ios":"levelo://app?vid=7999f19b-c9d4-4e69-80b5-ac5c360909ae"},"vehicle_type_id":"4","last_reported":1706367953,"current_range_meters":31200,"station_id":"ce4bho12rcd13ifvqh1g","pricing_plan_id":"free"},{"bike_id":"194ba551-6320-4e4f-aeee-b4a0a08a4015","system_id":"levelo_inurba_marseille","lat":43.27987,"lon":5.41663,"is_reserved":false,"is_disabled":false,"rental_uris":{"android":"levelo://app?vid=194ba551-6320-4e4f-aeee-b4a0a08a4015","ios":"levelo://app?vid=194ba551-6320-4e4f-aeee-b4a0a08a4015"},"vehicle_type_id":"4","last_reported":1706367953,"current_range_meters":24800,"station_id":"ce4bho12rcd13ifvqh1g","pricing_plan_id":"free"},{"bike_id":"821050ca-5a75-4508-b510-658898690d44","system_id":"levelo_inurba_marseille","lat":43.27988,"lon":5.41665,"is_reserved":false,"is_disabled":false,"rental_uris":{"android":"levelo://app?vid=821050ca-5a75-4508-b510-658898690d44","ios":"levelo://app?vid=821050ca-5a75-4508-b510-658898690d44"},"vehicle_type_id":"4","last_reported":1706367953,"current_range_meters":28000,"station_id":"ce4bho12rcd13ifvqh1g","pricing_plan_id":"free"},{"bike_id":"7b31f9be-5cc6-4c33-a94e-bff78a0f1b6d","system_id":"levelo_inurba_marseille","lat":43.26797,"lon":5.3941,"is_reserved":false,"is_disabled":false,"rental_uris":{"android":"levelo://app?vid=7b31f9be-5cc6-4c33-a94e-bff78a0f1b6d","ios":"levelo://app?vid=7b31f9be-5cc6-4c33-a94e-bff78a0f1b6d"},"vehicle_type_id":"4","last_reported":1706367953,"current_range_meters":16400,"station_id":"ce4bhg12rcd13ifvqf70","pricing_plan_id":"free"},{"bike_id":"28497c78-4633-41f6-a70f-761b26a0bb8c","system_id":"levelo_inurba_marseille","lat":43.26789,"lon":5.39419,"is_reserved":false,"is_disabled":false,"rental_uris":{"android":"levelo://app?vid=28497c78-4633-41f6-a70f-761b26a0bb8c","ios":"levelo://app?vid=28497c78-4633-41f6-a70f-761b26a0bb8c"},"vehicle_type_id":"4","last_reported":1706367953,"current_range_meters":2800,"station_id":"ce4bhh12rcd13ifvqfg0","pricing_plan_id":"free"},{"bike_id":"330c5234-d582-417a-9b2e-1e5e5669724c","system_id":"levelo_inurba_marseille","lat":43.26788,"lon":5.39417,"is_reserved":false,"is_disabled":false,"rental_uris":{"android":"levelo://app?vid=330c5234-d582-417a-9b2e-1e5e5669724c","ios":"levelo://app?vid=330c5234-d582-417a-9b2e-1e5e5669724c"},"vehicle_type_id":"4","last_reported":1706367953,"current_range_meters":2800,"station_id":"ce4bhh12rcd13ifvqfg0","pricing_plan_id":"free"},{"bike_id":"e515107f-d284-4a36-a195-f165f6207fc2","system_id":"levelo_inurba_marseille","lat":43.308051,"lon":5.43527,"is_reserved":false,"is_disabled":false,"rental_uris":{"android":"levelo://app?vid=e515107f-d284-4a36-a195-f165f6207fc2","ios":"levelo://app?vid=e515107f-d284-4a36-a195-f165f6207fc2"},"vehicle_type_id":"4","last_reported":1706367953,"current_range_meters":16800,"station_id":"ce4bhph2rcd13ifvqheg","pricing_plan_id":"free"},{"bike_id":"5b32a481-5f81-4d03-9b1e-fb857b5f8e4b","system_id":"levelo_inurba_marseille","lat":43.308051,"lon":5.43527,"is_reserved":false,"is_disabled":false,"rental_uris":{"android":"levelo://app?vid=5b32a481-5f81-4d03-9b1e-fb857b5f8e4b","ios":"levelo://app?vid=5b32a481-5f81-4d03-9b1e-fb857b5f8e4b"},"vehicle_type_id":"4","last_reported":1706367953,"current_range_meters":28000,"station_id":"ce4bhph2rcd13ifvqheg","pricing_plan_id":"free"},{"bike_id":"c65c11cc-cafd-4746-a014-6cb0eac4da3f","system_id":"levelo_inurba_marseille","lat":43.265569,"lon":5.390047,"is_reserved":false,"is_disabled":false,"rental_uris":{"android":"levelo://app?vid=c65c11cc-cafd-4746-a014-6cb0eac4da3f","ios":"levelo://app?vid=c65c11cc-cafd-4746-a014-6cb0eac4da3f"},"vehicle_type_id":"4","last_reported":1706367953,"current_range_meters":17200,"station_id":"ce4bhe12rcd13ifvqf30","pricing_plan_id":"free"},{"bike_id":"e7f7f2cc-0dec-4b32-b090-8948df471d1c","system_id":"levelo_inurba_marseille","lat":43.265569,"lon":5.390047,"is_reserved":false,"is_disabled":false,"rental_uris":{"android":"levelo://app?vid=e7f7f2cc-0dec-4b32-b090-8948df471d1c","ios":"levelo://app?vid=e7f7f2cc-0dec-4b32-b090-8948df471d1c"},"vehicle_type_id":"4","last_reported":1706367953,"current_range_meters":0,"station_id":"ce4bhe12rcd13ifvqf30","pricing_plan_id":"free"},{"bike_id":"c78319da-bb1b-42fa-94f3-116e16547f52","system_id":"levelo_inurba_marseille","lat":43.261782,"lon":5.374515,"is_reserved":false,"is_disabled":false,"rental_uris":{"android":"levelo://app?vid=c78319da-bb1b-42fa-94f3-116e16547f52","ios":"levelo://app?vid=c78319da-bb1b-42fa-94f3-116e16547f52"},"vehicle_type_id":"4","last_reported":1706367953,"current_range_meters":400,"station_id":"ce4bhgp2rcd13ifvqfc0","pricing_plan_id":"free"},