{"last_updated":1760835427,"ttl":60,"version":"2.2","data":{"bikes":[{"bike_id":"e257a5c9-b99e-4af1-ac4f-b017f1c8b418","system_id":"levelo_inurba_marseille","lat":43.33759,"lon":5.37438,"is_reserved":false,"is_disabled":false,"rental_uris":{"android":"levelo://app?vid=e257a5c9-b99e-4af1-ac4f-b017f1c8b418","ios":"levelo://app?vid=e257a5c9-b99e-4af1-ac4f-b017f1c8b418"},"vehicle_type_id":"4","last_reported":1760835427,"current_range_meters":2800,"station_id":"","pricing_plan_id":"cebpf4jnsgd1na2vs0mg"},{"bike_id":"2df497eb-a007-4520-a589-27a58ea84b43","system_id":"levelo_inurba_marseille","lat":43.2318,"lon":5.39993,"is_reserved":false,"is_disabled":false,"rental_uris":{"android":"levelo://app?vid=2df497eb-a007-4520-a589-27a58ea84b43","ios":"levelo://app?vid=2df497eb-a007-4520-a589-27a58ea84b43"},"vehicle_type_id":"4","last_reported":1760835427,"current_range_meters":2800,"station_id":"ce4bhn12rcd13ifvqgqg","pricing_plan_id":"cebpf4jnsgd1na2vs0mg"},{"bike_id":"8755fbcc-b92b-4ea4-affd-1edd3e5b08e7","system_id":"levelo_inurba_marseille","lat":43.27375,"lon":5.36258,"is_reserved":false,"is_disabled":false,"rental_uris":{"android":"levelo://app?vid=8755fbcc-b92b-4ea4-affd-1edd3e5b08e7","ios":"levelo://app?vid=8755fbcc-b92b-4ea4-affd-1edd3e5b08e7"},"vehicle_type_id":"4","last_reported":1760835427,"current_range_meters":2800,"station_id":"ce4bhbh2rcd13ifvqeo0","pricing_plan_id":"cebpf4jnsgd1na2vs0mg"},{"bike_id":"96574f7d-c82c-4dad-af24-a5e062fafcaf","system_id":"levelo_inurba_marseille","lat":43.23267,"lon":5.35653,"is_reserved":false,"is_disabled":false,"rental_uris":{"android":"levelo://app?vid=96574f7d-c82c-4dad-af24-a5e062fafcaf","ios":"levelo://app?vid=96574f7d-c82c-4dad-af24-a5e062fafcaf"},"vehicle_type_id":"4","last_reported":1760835427,"current_range_meters":3200,"station_id":"","pricing_plan_id":"cebpf4jnsgd1na2vs0mg"},{"bike_id":"63082f70-fa98-46e0-8302-f450ba5bce5b","system_id":"levelo_inurba_marseille","lat":43.255056,"lon":5.376504,"is_reserved":false,"is_disabled":false,"rental_uris":{"android":"levelo://app?vid=63082f70-fa98-46e0-8302-f450ba5bce5b","ios":"levelo://app?vid=63082f70-fa98-46e0-8302-f450ba5bce5b"},"vehicle_type_id":"4","last_reported":1760835427,"current_range_meters":3200,"station_id":"ce4bhh12rcd13ifvqff0","pricing_plan_id":"cebpf4jnsgd1na2vs0mg"},{"bike_id":"d252cc8b-b520-4825-b26c-dee454577024","system_id":"levelo_inurba_marseille","lat":43.30369,"lon":5.42483,"is_reserved":false,"is_disabled":false,"rental_uris":{"android":"levelo://app?vid=d252cc8b-b520-4825-b26c-dee454577024","ios":"levelo://app?vid=d252cc8b-b520-4825-b26c-dee454577024"},"vehicle_type_id":"4","last_reported":1760835427,"current_range_meters":3200,"station_id":"ce4bhoh2rcd13ifvqh6g","pricing_plan_id":"cebpf4jnsgd1na2vs0mg"},{"bike_id":"83a5c5bb-9d06-4146-9e27-b63caec2964c","system_id":"levelo_inurba_marseille","lat":43.305906,"lon":5.3721,"is_reserved":false,"is_disabled":false,"rental_uris":{"android":"levelo://app?vid=83a5c5bb-9d06-4146-9e27-b63caec2964c","ios":"levelo://app?vid=83a5c5bb-9d06-4146-9e27-b63caec2964c"},"vehicle_type_id":"4","last_reported":1760835427,"current_range_meters":3600,"station_id":"ce4bgqh2rcd13ifvqc4g","pricing_plan_id":"cebpf4jnsgd1na2vs0mg"},{"bike_id":"c9467074-4666-4f2b-a143-48d099884f9f","system_id":"levelo_inurba_marseille","lat":43.29005,"lon":5.35609,"is_reserved":false,"is_disabled":false,"rental_uris":{"android":"levelo://app?vid=c9467074-4666-4f2b-a143-48d099884f9f","ios":"levelo://app?vid=c9467074-4666-4f2b-a143-48d099884f9f"},"vehicle_type_id":"4","last_reported":1760835427,"current_range_meters":3600,"station_id":"ce4bhb92rcd13ifvqen0","pricing_plan_id":"cebpf4jnsgd1na2vs0mg"},{"bike_id":"87f519ce-a826-4312-b465-8f0e9efc9afa","system_id":"levelo_inurba_marseille","lat":43.26204,"lon":5.3793,"is_reserved":false,"is_disabled":false,"rental_uris":{"android":"levelo://app?vid=87f519ce-a826-4312-b465-8f0e9efc9afa","ios":"levelo://app?vid=87f519ce-a826-4312-b465-8f0e9efc9afa"},"vehicle_type_id":"4","last_reported":1760835427,"current_range_meters":4000,"station_id":"ce4bhjp2rcd13ifvqg90","pricing_plan_id":"cebpf4jnsgd1na2vs0mg"},{"bike_id":"24d82d64-1145-442f-a9f5-19238b0b39ef","system_id":"levelo_inurba_marseille","lat":43.272133,"lon":5.391866,"is_reserved":false,"is_disabled":false,"rental_uris":{"android":"levelo://app?vid=24d82d64-1145-442f-a9f5-19238b0b39ef","ios":"levelo://app?vid=24d82d64-1145-442f-a9f5-19238b0b39ef"},"vehicle_type_id":"4","last_reported":1760835427,"current_range_meters":4000,"station_id":"","pricing_plan_id":"cebpf4jnsgd1na2vs0mg"},{"bike_id":"c1d3ef20-8f0a-4e4a-97fa-b06f3b92c8a4","system_id":"levelo_inurba_marseille","lat":43.30774,"lon":5.37652,"is_reserved":false,"is_disabled":false,"rental_uris":{"android":"levelo://app?vid=c1d3ef20-8f0a-4e4a-97fa-b06f3b92c8a4","ios":"levelo://app?vid=c1d3ef20-8f0a-4e4a-97fa-b06f3b92c8a4"},"vehicle_type_id":"4","last_reported":1760835427,"current_range_meters":4000,"station_id":"ce4bgv92rcd13ifvqcq0","pricing_plan_id":"cebpf4jnsgd1na2vs0mg"},{"bike_id":"0029818a-94e4-4ec1-a485-42708c2a5cfb","system_id":"levelo_inurba_marseille","lat":43.30551,"lon":5.38431,"is_reserved":false,"is_disabled":false,"rental_uris":{"android":"levelo://app?vid=0029818a-94e4-4ec1-a485-42708c2a5cfb","ios":"levelo://app?vid=0029818a-94e4-4ec1-a485-42708c2a5cfb"},"vehicle_type_id":"4","last_reported":1760835427,"current_range_meters":4000,"station_id":"ce4bgg92rcd13ifvqb30","pricing_plan_id":"cebpf4jnsgd1na2vs0mg"},{"bike_id":"31031a74-27cc-4f5f-a2c4-c5d9ae180c41","system_id":"levelo_inurba_marseille","lat":43.28103,"lon":5.37841,"is_reserved":false,"is_disabled":false,"rental_uris":{"android":"levelo://app?vid=31031a74-27cc-4f5f-a2c4-c5d9ae180c41","ios":"levelo://app?vid=31031a74-27cc-4f5f-a2c4-c5d9ae180c41"},"vehicle_type_id":"4","last_reported":1760835427,"current_range_meters":4400,"station_id":"ce4bha12rcd13ifvqee0","pricing_plan_id":"cebpf4jnsgd1na2vs0mg"},{"bike_id":"355c7cfa-be79-479e-88e5-040f5fdc6941","system_id":"levelo_inurba_marseille","lat":43.280731,"lon":5.378427,"is_reserved":false,"is_disabled":false,"rental_uris":{"android":"levelo://app?vid=355c7cfa-be79-479e-88e5-040f5fdc6941","ios":"levelo://app?vid=355c7cfa-be79-479e-88e5-040f5fdc6941"},"vehicle_type_id":"4","last_reported":1760835427,"current_range_meters":4400,"station_id":"ce4bha12rcd13ifvqee0","pricing_plan_id":"cebpf4jnsgd1na2vs0mg"},{"bike_id":"b198fdae-a02e-4380-b40a-23fa0f5e4197","system_id":"levelo_inurba_marseille","lat":43.286286,"lon":5.406923,"is_reserved":false,"is_disabled":false,"rental_uris":{"android":"levelo://app?vid=b198fdae-a02e-4380-b40a-23fa0f5e4197","ios":"levelo://app?vid=b198fdae-a02e-4380-b40a-23fa0f5e4197"},"vehicle_type_id":"4","last_reported":1760835427,"current_range_meters":4400,"station_id":"","pricing_plan_id":"cebpf4jnsgd1na2vs0mg"},{"bike_id":"5cf58e81-7552-4ebd-a932-79bba6f62907","system_id":"levelo_inurba_marseille","lat":43.29027,"lon":5.38636,"is_reserved":false,"is_disabled":true,"rental_uris":{"android":"levelo://app?vid=5cf58e81-7552-4ebd-a932-79bba6f62907","ios":"levelo://app?vid=5cf58e81-7552-4ebd-a932-79bba6f62907"},"vehicle_type_id":"4","last_reported":1760835427,"current_range_meters":4800,"station_id":"ce4bh3h2rcd13ifvqdo0","pricing_plan_id":"cebpf4jnsgd1na2vs0mg"},{"bike_id":"7c1a8224-4a41-45eb-9e63-1b47a5aae640","system_id":"levelo_inurba_marseille","lat":43.28465,"lon":5.35864,"is_reserved":false,"is_disabled":false,"rental_uris":{"android":"levelo://app?vid=7c1a8224-4a41-45eb-9e63-1b47a5aae640","ios":"levelo://app?vid=7c1a8224-4a41-45eb-9e63-1b47a5aae640"},"vehicle_type_id":"4","last_reported":1760835427,"current_range_meters":4800,"station_id":"ce4bhah2rcd13ifvqei0","pricing_plan_id":"cebpf4jnsgd1na2vs0mg"},{"bike_id":"5fe6e873-dba1-40dd-bc65-77de126f2710","system_id":"levelo_inurba_marseille","lat":43.332893,"lon":5.395256,"is_reserved":false,"is_disabled":true,"rental_uris":{"android":"levelo://app?vid=5fe6e873-dba1-40dd-bc65-77de126f2710","ios":"levelo://app?vid=5fe6e873-dba1-40dd-bc65-77de126f2710"},"vehicle_type_id":"4","last_reported":1760835427,"current_range_meters":4800,"station_id":"","pricing_plan_id":"cebpf4jnsgd1na2vs0mg"},{"bike_id":"13515a04-9182-4334-b52f-8e85b77edfe8","system_id":"levelo_inurba_marseille","lat":43.29444,"lon":5.39741,"is_reserved":false,"is_disabled":false,"rental_uris":{"android":"levelo://app?vid=13515a04-9182-4334-b52f-8e85b77edfe8","ios":"levelo://app?vid=13515a04-9182-4334-b52f-8e85b77edfe8"},"vehicle_type_id":"4","last_reported":1760835427,"current_range_meters":4800,"station_id":"ce4bh3h2rcd13ifvqdo0","pricing_plan_id":"cebpf4jnsgd1na2vs0mg"},{"bike_id":"35c77582-7caa-4946-951c-4d37262a664c","system_id":"levelo_inurba_marseille","lat":43.262048,"lon":5.374385,"is_reserved":false,"is_disabled":false,"rental_uris":{"android":"levelo://app?vid=35c77582-7caa-4946-951c-4d37262a664c","ios":"levelo://app?vid=35c77582-7caa-4946-951c-4d37262a664c"},"vehicle_type_id":"4","last_reported":1760835427,"current_range_meters":5600,"station_id":"ce4bhgp2rcd13ifvqfc0","pricing_plan_id":"cebpf4jnsgd1na2vs0mg"},{"bike_id":"ad817210-8c8f-48f7-98c7-dd3be03d9809","system_id":"levelo_inurba_marseille","lat":43.28274,"lon":5.35074,"is_reserved":false,"is_disabled":false,"rental_uris":{"android":"levelo://app?vid=ad817210-8c8f-48f7-98c7-dd3be03d9809","ios":"levelo://app?vid=ad817210-8c8f-48f7-98c7-dd3be03d9809"},"vehicle_type_id":"4","last_reported":1760835427,"current_range_meters":5600,"station_id":"ce4bhbp2rcd13ifvqerg","pricing_plan_id":"cebpf4jnsgd1na2vs0mg"},{"bike_id":"9cf6275b-de5c-41c4-a6f9-24fcd325439f","system_id":"levelo_inurba_marseille","lat":43.28703,"lon":5.39985,"is_reserved":false,"is_disabled":false,"rental_uris":{"android":"levelo://app?vid=9cf6275b-de5c-41c4-a6f9-24fcd325439f","ios":"levelo://app?vid=9cf6275b-de5c-41c4-a6f9-24fcd325439f"},"vehicle_type_id":"4","last_reported":1760835427,"current_range_meters":5600,"station_id":"ce4bho92rcd13ifvqh3g","pricing_plan_id":"cebpf4jnsgd1na2vs0mg"},{"bike_id":"efbce1d0-71a2-4337-9d3c-c97340097a11","system_id":"levelo_inurba_marseille","lat":43.31488,"lon":5.37303,"is_reserved":false,"is_disabled":false,"rental_uris":{"android":"levelo://app?vid=efbce1d0-71a2-4337-9d3c-c97340097a11","ios":"levelo://app?vid=efbce1d0-71a2-4337-9d3c-c97340097a11"},"vehicle_type_id":"4","last_reported":1760835427,"current_range_meters":5600,"station_id":"ce4bgt12rcd13ifvqcd0","pricing_plan_id":"cebpf4jnsgd1na2vs0mg"},{"bike_id":"eb17ccb9-5bac-409b-8125-20ed8438031a","system_id":"levelo_inurba_marseille","lat":43.30419,"lon":5.39743,"is_reserved":false,"is_disabled":false,"rental_uris":{"android":"levelo://app?vid=eb17ccb9-5bac-409b-8125-20ed8438031a","ios":"levelo://app?vid=eb17ccb9-5bac-409b-8125-20ed8438031a"},"vehicle_type_id":"4","last_reported":1760835427,"current_range_meters":5600,"station_id":"ce4bh092rcd13ifvqd20","pricing_plan_id":"cebpf4jnsgd1na2vs0mg"},{"bike_id":"416f580b-31c7-4ade-8604-dbd86eb8155f","system_id":"levelo_inurba_marseille","lat":43.28167,"lon":5.42111,"is_reserved":false,"is_disabled":false,"rental_uris":{"android":"levelo://app?vid=416f580b-31c7-4ade-8604-dbd86eb8155f","ios":"levelo://app?vid=416f580b-31c7-4ade-8604-dbd86eb8155f"},"vehicle_type_id":"4","last_reported":1760835427,"current_range_meters":5600,"station_id":"","pricing_plan_id":"cebpf4jnsgd1na2vs0mg"},{"bike_id":"1af2e540-b5db-47ea-af6b-5b140f67f618","system_id":"levelo_inurba_marseille","lat":43.28709,"lon":5.39983,"is_reserved":false,"is_disabled":false,"rental_uris":{"android":"levelo://app?vid=1af2e540-b5db-47ea-af6b-5b140f67f618","ios":"levelo://app?vid=1af2e540-b5db-47ea-af6b-5b140f67f618"},"vehicle_type_id":"4","last_reported":1760835427,"current_range_meters":6000,"station_id":"ce4bho92rcd13ifvqh3g","pricing_plan_id":"cebpf4jnsgd1na2vs0mg"},{"bike_id":"4b08cfe7-5df1-4e29-905e-03a9992f8dfa","system_id":"levelo_inurba_marseille","lat":43.337758,"lon":5.374597,"is_reserved":false,"is_disabled":false,"rental_uris":{"android":"levelo://app?vid=4b08cfe7-5df1-4e29-905e-03a9992f8dfa","ios":"levelo://app?vid=4b08cfe7-5df1-4e29-905e-03a9992f8dfa"},"vehicle_type_id":"4","last_reported":1760835427,"current_range_meters":6000,"station_id":"","pricing_plan_id":"cebpf4jnsgd1na2vs0mg"},{"bike_id":"245a030c-0c43-41f8-a4cc-088d55252b06","system_id":"levelo_inurba_marseille","lat":43.24476,"lon":5.36933,"is_reserved":false,"is_disabled":false,"rental_uris":{"android":"levelo://app?vid=245a030c-0c43-41f8-a4cc-088d55252b06","ios":"levelo://app?vid=245a030c-0c43-41f8-a4cc-088d55252b06"},"vehicle_type_id":"4","last_reported":1760835427,"current_range_meters":6400,"station_id":"","pricing_plan_id":"cebpf4jnsgd1na2vs0mg"},{"bike_id":"0e3f5e89-9580-401a-9d09-43978c636700","system_id":"levelo_inurba_marseille","lat":43.28707,"lon":5.39978,"is_reserved":false,"is_disabled":false,"rental_uris":{"android":"levelo://app?vid=0e3f5e89-9580-401a-9d09-43978c636700","ios":"levelo://app?vid=0e3f5e89-9580-401a-9d09-43978c636700"},"vehicle_type_id":"4","last_reported":1760835427,"current_range_meters":6400,"station_id":"ce4bho92rcd13ifvqh3g","pricing_plan_id":"cebpf4jnsgd1na2vs0mg"},{"bike_id":"a817b630-bbed-48d3-97f4-9bd571b9ebab","system_id":"levelo_inurba_marseille","lat":43.30005,"lon":5.37351,"is_reserved":false,"is_disabled":false,"rental_uris":{"android":"levelo://app?vid=a817b630-bbed-48d3-97f4-9bd571b9ebab","ios":"levelo://app?vid=a817b630-bbed-48d3-97f4-9bd571b9ebab"},"vehicle_type_id":"4","last_reported":1760835427,"current_range_meters":6400,"station_id":"","pricing_plan_id":"cebpf4jnsgd1na2vs0mg"},{"bike_id":"95517d2e-464c-4bb9-8d8d-e2fba29fedbc","system_id":"levelo_inurba_marseille","lat":43.32115,"lon":5.36763,"is_reserved":false,"is_disabled":false,"rental_uris":{"android":"levelo://app?vid=95517d2e-464c-4bb9-8d8d-e2fba29fedbc","ios":"levelo://app?vid=95517d2e-464c-4bb9-8d8d-e2fba29fedbc"},"vehicle_type_id":"4","last_reported":1760835427,"current_range_meters":6800,"station_id":"ce4bhrh2rcd13ifvqhug","pricing_plan_id":"cebpf4jnsgd1na2vs0mg"},{"bike_id":"620f19db-e929-4071-8a7a-fb5114fd2597","system_id":"levelo_inurba_marseille","lat":43.2733,"lon":5.39076,"is_reserved":false,"is_disabled":true,"rental_uris":{"android":"levelo://app?vid=620f19db-e929-4071-8a7a-fb5114fd2597","ios":"levelo://app?vid=620f19db-e929-4071-8a7a-fb5114fd2597"},"vehicle_type_id":"4","last_reported":1760835427,"current_range_meters":6800,"station_id":"ce4bhgp2rcd13ifvqfe0","pricing_plan_id":"cebpf4jnsgd1na2vs0mg"},{"bike_id":"0b4e036e-2d13-4cdc-b335-af4de6bed144","system_id":"levelo_inurba_marseille","lat":43.28656,"lon":5.36365,"is_reserved":false,"is_disabled":false,"rental_uris":{"android":"levelo://app?vid=0b4e036e-2d13-4cdc-b335-af4de6bed144","ios":"levelo://app?vid=0b4e036e-2d13-4cdc-b335-af4de6bed144"},"vehicle_type_id":"4","last_reported":1760835427,"current_range_meters":7200,"station_id":"ce4bhah2rcd13ifvqej0","pricing_plan_id":"cebpf4jnsgd1na2vs0mg"},{"bike_id":"63478bc5-9a39-4cb8-a553-9b6ffeac0ad3","system_id":"levelo_inurba_marseille","lat":43.28465,"lon":5.3588,"is_reserved":false,"is_disabled":false,"rental_uris":{"android":"levelo://app?vid=63478bc5-9a39-4cb8-a553-9b6ffeac0ad3","ios":"levelo://app?vid=63478bc5-9a39-4cb8-a553-9b6ffeac0ad3"},"vehicle_type_id":"4","last_reported":1760835427,"current_range_meters":7200,"station_id":"ce4bhah2rcd13ifvqei0","pricing_plan_id":"cebpf4jnsgd1na2vs0mg"},{"bike_id":"23106cad-886f-404f-82e9-c2982189811d","system_id":"levelo_inurba_marseille","lat":43.27195,"lon":5.42815,"is_reserved":false,"is_disabled":false,"rental_uris":{"android":"levelo://app?vid=23106cad-886f-404f-82e9-c2982189811d","ios":"levelo://app?vid=23106cad-886f-404f-82e9-c2982189811d"},"vehicle_type_id":"4","last_reported":1760835427,"current_range_meters":7200,"station_id":"","pricing_plan_id":"cebpf4jnsgd1na2vs0mg"},{"bike_id":"e57f57a8-759f-4ab9-8fe1-746941a3ad0b","system_id":"levelo_inurba_marseille","lat":43.245581,"lon":5.395125,"is_reserved":false,"is_disabled":false,"rental_uris":{"android":"levelo://app?vid=e57f57a8-759f-4ab9-8fe1-746941a3ad0b","ios":"levelo://app?vid=e57f57a8-759f-4ab9-8fe1-746941a3ad0b"},"vehicle_type_id":"4","last_reported":1760835427,"current_range_meters":7200,"station_id":"ce4bhlp2rcd13ifvqgjg","pricing_plan_id":"cebpf4jnsgd1na2vs0mg"},{"bike_id":"292560fa-7dd3-4245-9945-4773c11fda58","system_id":"levelo_inurba_marseille","lat":43.28352,"lon":5.38111,"is_reserved":false,"is_disabled":false,"rental_uris":{"android":"levelo://app?vid=292560fa-7dd3-4245-9945-4773c11fda58","ios":"levelo://app?vid=292560fa-7dd3-4245-9945-4773c11fda58"},"vehicle_type_id":"4","last_reported":1760835427,"current_range_meters":8000,"station_id":"ce4bh412rcd13ifvqdr0","pricing_plan_id":"cebpf4jnsgd1na2vs0mg"},{"bike_id":"1382b748-840e-4ecc-afc5-0fb4eeaeb841","system_id":"levelo_inurba_marseille","lat":43.30599,"lon":5.37477,"is_reserved":false,"is_disabled":false,"rental_uris":{"android":"levelo://app?vid=1382b748-840e-4ecc-afc5-0fb4eeaeb841","ios":"levelo://app?vid=1382b748-840e-4ecc-afc5-0fb4eeaeb841"},"vehicle_type_id":"4","last_reported":1760835427,"current_range_meters":8000,"station_id":"","pricing_plan_id":"cebpf4jnsgd1na2vs0mg"},{"bike_id":"080fc388-107a-47d3-a487-027b46294fe5","system_id":"levelo_inurba_marseille","lat":43.302091,"lon":5.394621,"is_reserved":false,"is_disabled":false,"rental_uris":{"android":"levelo://app?vid=080fc388-107a-47d3-a487-027b46294fe5","ios":"levelo://app?vid=080fc388-107a-47d3-a487-027b46294fe5"},"vehicle_type_id":"4","last_reported":1760835427,"current_range_meters":8000,"station_id":"ce4bh0p2rcd13ifvqd70","pricing_plan_id":"cebpf4jnsgd1na2vs0mg"},{"bike_id":"f55709e0-4b78-4850-8db3-b4d73728152f","system_id":"levelo_inurba_marseille","lat":43.35163,"lon":5.36462,"is_reserved":false,"is_disabled":false,"rental_uris":{"android":"levelo://app?vid=f55709e0-4b78-4850-8db3-b4d73728152f","ios":"levelo://app?vid=f55709e0-4b78-4850-8db3-b4d73728152f"},"vehicle_type_id":"4","last_reported":1760835427,"current_range_meters":8000,"station_id":"","pricing_plan_id":"cebpf4jnsgd1na2vs0mg"},{"bike_id":"f4822065-5f59-49ca-b3af-056a3b69b63a","system_id":"levelo_inurba_marseille","lat":43.30641,"lon":5.40089,"is_reserved":false,"is_disabled":false,"rental_uris":{"android":"levelo://app?vid=f4822065-5f59-49ca-b3af-056a3b69b63a","ios":"levelo://app?vid=f4822065-5f59-49ca-b3af-056a3b69b63a"},"vehicle_type_id":"4","last_reported":1760835427,"current_range_meters":8000,"station_id":"ce4bh112rcd13ifvqda0","pricing_plan_id":"cebpf4jnsgd1na2vs0mg"},{"bike_id":"566e8aef-ba4a-459c-916a-fe3e818c70f8","system_id":"levelo_inurba_marseille","lat":43.26585,"lon":5.37276,"is_reserved":false,"is_disabled":false,"rental_uris":{"android":"levelo://app?vid=566e8aef-ba4a-459c-916a-fe3e818c70f8","ios":"levelo://app?vid=566e8aef-ba4a-459c-916a-fe3e818c70f8"},"vehicle_type_id":"4","last_reported":1760835427,"current_range_meters":8400,"station_id":"ce4bhg12rcd13ifvqf70","pricing_plan_id":"cebpf4jnsgd1na2vs0mg"},{"bike_id":"924ac669-be8b-47aa-9a8e-6f22baf815eb","system_id":"levelo_inurba_marseille","lat":43.337692,"lon":5.374734,"is_reserved":false,"is_disabled":false,"rental_uris":{"android":"levelo://app?vid=924ac669-be8b-47aa-9a8e-6f22baf815eb","ios":"levelo://app?vid=924ac669-be8b-47aa-9a8e-6f22baf815eb"},"vehicle_type_id":"4","last_reported":1760835427,"current_range_meters":8400,"station_id":"","pricing_plan_id":"cebpf4jnsgd1na2vs0mg"},{"bike_id":"36284a09-3563-4c41-833d-b321c2b42efd","system_id":"levelo_inurba_marseille","lat":43.30318,"lon":5.40433,"is_reserved":false,"is_disabled":false,"rental_uris":{"android":"levelo://app?vid=36284a09-3563-4c41-833d-b321c2b42efd","ios":"levelo://app?vid=36284a09-3563-4c41-833d-b321c2b42efd"},"vehicle_type_id":"4","last_reported":1760835427,"current_range_meters":8400,"station_id":"ce4bh012rcd13ifvqd10","pricing_plan_id":"cebpf4jnsgd1na2vs0mg"},{"bike_id":"297d13ed-f0d9-44df-8fc4-632fc1d81159","system_id":"levelo_inurba_marseille","lat":43.29815,"lon":5.40405,"is_reserved":false,"is_disabled":false,"rental_uris":{"android":"levelo://app?vid=297d13ed-f0d9-44df-8fc4-632fc1d81159","ios":"levelo://app?vid=297d13ed-f0d9-44df-8fc4-632fc1d81159"},"vehicle_type_id":"4","last_reported":1760835427,"current_range_meters":8400,"station_id":"ce4bh112rcd13ifvqd90","pricing_plan_id":"cebpf4jnsgd1na2vs0mg"},{"bike_id":"d9ff0385-d455-4cad-b189-ce7b9ec089df","system_id":"levelo_inurba_marseille","lat":43.28949,"lon":5.39627,"is_reserved":false,"is_disabled":false,"rental_uris":{"android":"levelo://app?vid=d9ff0385-d455-4cad-b189-ce7b9ec089df","ios":"levelo://app?vid=d9ff0385-d455-4cad-b189-ce7b9ec089df"},"vehicle_type_id":"4","last_reported":1760835427,"current_range_meters":8400,"station_id":"ce4bh3h2rcd13ifvqdn0","pricing_plan_id":"cebpf4jnsgd1na2vs0mg"},{"bike_id":"ce11fcf0-3241-46b7-be99-4d8a0098ce85","system_id":"levelo_inurba_marseille","lat":43.3133,"lon":5.39705,"is_reserved":false,"is_disabled":false,"rental_uris":{"android":"levelo://app?vid=ce11fcf0-3241-46b7-be99-4d8a0098ce85","ios":"levelo://app?vid=ce11fcf0-3241-46b7-be99-4d8a0098ce85"},"vehicle_type_id":"4","last_reported":1760835427,"current_range_meters":9200,"station_id":"ce4bgvp2rcd13ifvqcu0","pricing_plan_id":"cebpf4jnsgd1na2vs0mg"},{"bike_id":"228be0a7-a064-416a-aad1-c9443795ad86","system_id":"levelo_inurba_marseille","lat":43.315527,"lon":5.386111,"is_reserved":false,"is_disabled":false,"rental_uris":{"android":"levelo://app?vid=228be0a7-a064-416a-aad1-c9443795ad86","ios":"levelo://app?vid=228be0a7-a064-416a-aad1-c9443795ad86"},"vehicle_type_id":"4","last_reported":1760835427,"current_range_meters":9200,"station_id":"","pricing_plan_id":"cebpf4jnsgd1na2vs0mg"},{"bike_id":"75b02a51-1325-435e-9661-29bb451a696a","system_id":"levelo_inurba_marseille","lat":43.31448,"lon":5.38488,"is_reserved":false,"is_disabled":false,"rental_uris":{"android":"levelo://app?vid=75b02a51-1325-435e-9661-29bb451a696a","ios":"levelo://app?vid=75b02a51-1325-435e-9661-29bb451a696a"},"vehicle_type_id":"4","last_reported":1760835427,"current_range_meters":9200,"station_id":"","pricing_plan_id":"cebpf4jnsgd1na2vs0mg"},{"bike_id":"0b170382-a38a-48fc-b060-b901de311f1a","system_id":"levelo_inurba_marseille","lat":43.33047,"lon":5.39024,"is_reserved":false,"is_disabled":true,"rental_uris":{"android":"levelo://app?vid=0b170382-a38a-48fc-b060-b901de311f1a","ios":"levelo://app?vid=0b170382-a38a-48fc-b060-b901de311f1a"},"vehicle_type_id":"4","last_reported":1760835427,"current_range_meters":9600,"station_id":"ce4bhr92rcd13ifvqhrg","pricing_plan_id":"cebpf4jnsgd1na2vs0mg"},{"bike_id":"9dd1d8fe-c2a8-4a70-a175-61f5f9fe7fd2","system_id":"levelo_inurba_marseille","lat":43.3156,"lon":5.38838,"is_reserved":false,"is_disabled":false,"rental_uris":{"android":"levelo://app?vid=9dd1d8fe-c2a8-4a70-a175-61f5f9fe7fd2","ios":"levelo://app?vid=9dd1d8fe-c2a8-4a70-a175-61f5f9fe7fd2"},"vehicle_type_id":"4","last_reported":1760835427,"current_range_meters":9600,"station_id":"","pricing_plan_id":"cebpf4jnsgd1na2vs0mg"},{"bike_id":"383132c7-6568-4b3f-85e0-394f17b8ed8c","system_id":"levelo_inurba_marseille","lat":43.24632,"lon":5.38873,"is_reserved":false,"is_disabled":true,"rental_uris":{"android":"levelo://app?vid=383132c7-6568-4b3f-85e0-394f17b8ed8c","ios":"levelo://app?vid=383132c7-6568-4b3f-85e0-394f17b8ed8c"},"vehicle_type_id":"4","last_reported":1760835427,"current_range_meters":9600,"station_id":"ce4bhg12rcd13ifvqf60","pricing_plan_id":"cebpf4jnsgd1na2vs0mg"},{"bike_id":"96e1bf19-9623-4a57-b848-d121f76c4fd5","system_id":"levelo_inurba_marseille","lat":43.251131,"lon":5.403182,"is_reserved":false,"is_disabled":false,"rental_uris":{"android":"levelo://app?vid=96e1bf19-9623-4a57-b848-d121f76c4fd5","ios":"levelo://app?vid=96e1bf19-9623-4a57-b848-d121f76c4fd5"},"vehicle_type_id":"4","last_reported":1760835427,"current_range_meters":9600,"station_id":"ce4bhlh2rcd13ifvqgig","pricing_plan_id":"cebpf4jnsgd1na2vs0mg"},{"bike_id":"62a22a3e-6fa0-4bfa-b851-8c32260ebb71","system_id":"levelo_inurba_marseille","lat":43.28723,"lon":5.36081,"is_reserved":false,"is_disabled":false,"rental_uris":{"android":"levelo://app?vid=62a22a3e-6fa0-4bfa-b851-8c32260ebb71","ios":"levelo://app?vid=62a22a3e-6fa0-4bfa-b851-8c32260ebb71"},"vehicle_type_id":"4","last_reported":1760835427,"current_range_meters":9600,"station_id":"cki0cbj6b192h4jlfktg","pricing_plan_id":"cebpf4jnsgd1na2vs0mg"},{"bike_id":"d7de8a4b-054e-4f08-972f-750ba132f0ec","system_id":"levelo_inurba_marseille","lat":43.29195,"lon":5.35779,"is_reserved":false,"is_disabled":true,"rental_uris":{"android":"levelo://app?vid=d7de8a4b-054e-4f08-972f-750ba132f0ec","ios":"levelo://app?vid=d7de8a4b-054e-4f08-972f-750ba132f0ec"},"vehicle_type_id":"4","last_reported":1760835427,"current_range_meters":9600,"station_id":"ce4bhb12rcd13ifvqel0","pricing_plan_id":"cebpf4jnsgd1na2vs0mg"},{"bike_id":"5ec36f29-a595-43fb-81bc-e1f6ecf04525","system_id":"levelo_inurba_marseille","lat":43.211942,"lon":5.350735,"is_reserved":false,"is_disabled":true,"rental_uris":{"android":"levelo://app?vid=5ec36f29-a595-43fb-81bc-e1f6ecf04525","ios":"levelo://app?vid=5ec36f29-a595-43fb-81bc-e1f6ecf04525"},"vehicle_type_id":"4","last_reported":1760835427,"current_range_meters":9600,"station_id":"st_cvj6sg6p6f1abm77japg","pricing_plan_id":"cebpf4jnsgd1na2vs0mg"},{"bike_id":"0893a90a-1d21-45cc-81a6-451237ea0d7e","system_id":"levelo_inurba_marseille","lat":43.28721,"lon":5.39982,"is_reserved":false,"is_disabled":false,"rental_uris":{"android":"levelo://app?vid=0893a90a-1d21-45cc-81a6-451237ea0d7e","ios":"levelo://app?vid=0893a90a-1d21-45cc-81a6-451237ea0d7e"},"vehicle_type_id":"4","last_reported":1760835427,"current_range_meters":9600,"station_id":"ce4bho92rcd13ifvqh3g","pricing_plan_id":"cebpf4jnsgd1na2vs0mg"},{"bike_id":"a8846c10-c7ea-4a0c-bdcc-23a6ec63fd6e","system_id":"levelo_inurba_marseille","lat":43.27139,"lon":5.39174,"is_reserved":false,"is_disabled":false,"rental_uris":{"android":"levelo://app?vid=a8846c10-c7ea-4a0c-bdcc-23a6ec63fd6e","ios":"levelo://app?vid=a8846c10-c7ea-4a0c-bdcc-23a6ec63fd6e"},"vehicle_type_id":"4","last_reported":1760835427,"current_range_meters":9600,"station_id":"","pricing_plan_id":"cebpf4jnsgd1na2vs0mg"},{"bike_id":"8e6781bb-2e20-454e-8191-54182f17bdfc","system_id":"levelo_inurba_marseille","lat":43.21748,"lon":5.34593,"is_reserved":false,"is_disabled":true,"rental_uris":{"android":"levelo://app?vid=8e6781bb-2e20-454e-8191-54182f17bdfc","ios":"levelo://app?vid=8e6781bb-2e20-454e-8191-54182f17bdfc"},"vehicle_type_id":"4","last_reported":1760835427,"current_range_meters":9600,"station_id":"st_cvj6r9ubvosntc0bgbag","pricing_plan_id":"cebpf4jnsgd1na2vs0mg"},{"bike_id":"f770bc01-f2ec-4bd6-8e37-4f02eca83a56","system_id":"levelo_inurba_marseille","lat":43.31529,"lon":5.38731,"is_reserved":false,"is_disabled":false,"rental_uris":{"android":"levelo://app?vid=f770bc01-f2ec-4bd6-8e37-4f02eca83a56","ios":"levelo://app?vid=f770bc01-f2ec-4bd6-8e37-4f02eca83a56"},"vehicle_type_id":"4","last_reported":1760835427,"current_range_meters":9600,"station_id":"","pricing_plan_id":"cebpf4jnsgd1na2vs0mg"},{"bike_id":"f775c705-e91c-42b6-843f-9a21cee529df","system_id":"levelo_inurba_marseille","lat":43.28994,"lon":5.37158,"is_reserved":false,"is_disabled":false,"rental_uris":{"android":"levelo://app?vid=f775c705-e91c-42b6-843f-9a21cee529df","ios":"levelo://app?vid=f775c705-e91c-42b6-843f-9a21cee529df"},"vehicle_type_id":"4","last_reported":1760835427,"current_range_meters":9600,"station_id":"","pricing_plan_id":"cebpf4jnsgd1na2vs0mg"},{"bike_id":"2da8af00-5bde-4f68-9a63-f51b703d78e7","system_id":"levelo_inurba_marseille","lat":43.28627,"lon":5.35099,"is_reserved":false,"is_disabled":false,"rental_uris":{"android":"levelo://app?vid=2da8af00-5bde-4f68-9a63-f51b703d78e7","ios":"levelo://app?vid=2da8af00-5bde-4f68-9a63-f51b703d78e7"},"vehicle_type_id":"4","last_reported":1760835427,"current_range_meters":10000,"station_id":"ce4bhch2rcd13ifvqeug","pricing_plan_id":"cebpf4jnsgd1na2vs0mg"},{"bike_id":"9cace8d6-2b31-4ddb-8e5f-3cc6a781c58d","system_id":"levelo_inurba_marseille","lat":43.305302,"lon":5.38423,"is_reserved":false,"is_disabled":false,"rental_uris":{"android":"levelo://app?vid=9cace8d6-2b31-4ddb-8e5f-3cc6a781c58d","ios":"levelo://app?vid=9cace8d6-2b31-4ddb-8e5f-3cc6a781c58d"},"vehicle_type_id":"4","last_reported":1760835427,"current_range_meters":10000,"station_id":"ce4bgg92rcd13ifvqb30","pricing_plan_id":"cebpf4jnsgd1na2vs0mg"},{"bike_id":"676fd588-494b-4028-8203-f37ef89d1fbb","system_id":"levelo_inurba_marseille","lat":43.22562,"lon":5.41636,"is_reserved":false,"is_disabled":false,"rental_uris":{"android":"levelo://app?vid=676fd588-494b-4028-8203-f37ef89d1fbb","ios":"levelo://app?vid=676fd588-494b-4028-8203-f37ef89d1fbb"},"vehicle_type_id":"4","last_reported":1760835427,"current_range_meters":10000,"station_id":"st_d2o4gvlbi1j2169b742g","pricing_plan_id":"cebpf4jnsgd1na2vs0mg"},{"bike_id":"9b35f520-b47c-4550-9804-23f27fab5ce9","system_id":"levelo_inurba_marseille","lat":43.25522,"lon":5.37631,"is_reserved":false,"is_disabled":true,"rental_uris":{"android":"levelo://app?vid=9b35f520-b47c-4550-9804-23f27fab5ce9","ios":"levelo://app?vid=9b35f520-b47c-4550-9804-23f27fab5ce9"},"vehicle_type_id":"4","last_reported":1760835427,"current_range_meters":10000,"station_id":"ce4bhh12rcd13ifvqff0","pricing_plan_id":"cebpf4jnsgd1na2vs0mg"},{"bike_id":"f2b3f895-68c7-4d7d-9301-c31bf43a0019","system_id":"levelo_inurba_marseille","lat":43.30317,"lon":5.36897,"is_reserved":false,"is_disabled":false,"rental_uris":{"android":"levelo://app?vid=f2b3f895-68c7-4d7d-9301-c31bf43a0019","ios":"levelo://app?vid=f2b3f895-68c7-4d7d-9301-c31bf43a0019"},"vehicle_type_id":"4","last_reported":1760835427,"current_range_meters":10000,"station_id":"ce4bgqh2rcd13ifvqc5g","pricing_plan_id":"cebpf4jnsgd1na2vs0mg"},{"bike_id":"0e9dda48-c8e9-4f7d-b995-7f49226b29c0","system_id":"levelo_inurba_marseille","lat":43.28617,"lon":5.35099,"is_reserved":false,"is_disabled":false,"rental_uris":{"android":"levelo://app?vid=0e9dda48-c8e9-4f7d-b995-7f49226b29c0","ios":"levelo://app?vid=0e9dda48-c8e9-4f7d-b995-7f49226b29c0"},"vehicle_type_id":"4","last_reported":1760835427,"current_range_meters":10800,"station_id":"ce4bhch2rcd13ifvqeug","pricing_plan_id":"cebpf4jnsgd1na2vs0mg"},{"bike_id":"657f303b-2417-4a96-a979-9bb80b1500f6","system_id":"levelo_inurba_marseille","lat":43.29862,"lon":5.36277,"is_reserved":false,"is_disabled":true,"rental_uris":{"android":"levelo://app?vid=657f303b-2417-4a96-a979-9bb80b1500f6","ios":"levelo://app?vid=657f303b-2417-4a96-a979-9bb80b1500f6"},"vehicle_type_id":"4","last_reported":1760835427,"current_range_meters":10800,"station_id":"ce4bgpp2rcd13ifvqc3g","pricing_plan_id":"cebpf4jnsgd1na2vs0mg"},{"bike_id":"7efa49d6-60c4-4523-b0cb-2e2bfdef8c46","system_id":"levelo_inurba_marseille","lat":43.34896,"lon":5.36627,"is_reserved":false,"is_disabled":false,"rental_uris":{"android":"levelo://app?vid=7efa49d6-60c4-4523-b0cb-2e2bfdef8c46","ios":"levelo://app?vid=7efa49d6-60c4-4523-b0cb-2e2bfdef8c46"},"vehicle_type_id":"4","last_reported":1760835427,"current_range_meters":10800,"station_id":"","pricing_plan_id":"cebpf4jnsgd1na2vs0mg"},{"bike_id":"c6227cff-120f-49c6-93a2-5454dd916cde","system_id":"levelo_inurba_marseille","lat":43.26565,"lon":5.37303,"is_reserved":false,"is_disabled":true,"rental_uris":{"android":"levelo://app?vid=c6227cff-120f-49c6-93a2-5454dd916cde","ios":"levelo://app?vid=c6227cff-120f-49c6-93a2-5454dd916cde"},"vehicle_type_id":"4","last_reported":1760835427,"current_range_meters":10800,"station_id":"ce4bhg12rcd13ifvqf70","pricing_plan_id":"cebpf4jnsgd1na2vs0mg"},{"bike_id":"4cdb7322-4e4f-41d8-8cdf-4ddf348c8684","system_id":"levelo_inurba_marseille","lat":43.28074,"lon":5.3965,"is_reserved":false,"is_disabled":false,"rental_uris":{"android":"levelo://app?vid=4cdb7322-4e4f-41d8-8cdf-4ddf348c8684","ios":"levelo://app?vid=4cdb7322-4e4f-41d8-8cdf-4ddf348c8684"},"vehicle_type_id":"4","last_reported":1760835427,"current_range_meters":10800,"station_id":"ce4bho12rcd13ifvqh2g","pricing_plan_id":"cebpf4jnsgd1na2vs0mg"},{"bike_id":"b1db1391-3474-48f3-85bd-dfc79b190eda","system_id":"levelo_inurba_marseille","lat":43.29298,"lon":5.36104,"is_reserved":false,"is_disabled":false,"rental_uris":{"android":"levelo://app?vid=b1db1391-3474-48f3-85bd-dfc79b190eda","ios":"levelo://app?vid=b1db1391-3474-48f3-85bd-dfc79b190eda"},"vehicle_type_id":"4","last_reported":1760835427,"current_range_meters":10800,"station_id":"","pricing_plan_id":"cebpf4jnsgd1na2vs0mg"},{"bike_id":"0a414463-fe1a-4833-8a11-178a3c2c879a","system_id":"levelo_inurba_marseille","lat":43.29852,"lon":5.37897,"is_reserved":false,"is_disabled":false,"rental_uris":{"android":"levelo://app?vid=0a414463-fe1a-4833-8a11-178a3c2c879a","ios":"levelo://app?vid=0a414463-fe1a-4833-8a11-178a3c2c879a"},"vehicle_type_id":"4","last_reported":1760835427,"current_range_meters":11200,"station_id":"","pricing_plan_id":"cebpf4jnsgd1na2vs0mg"},{"bike_id":"ddb2b9bc-e02a-4792-aae2-e902e747eeed","system_id":"levelo_inurba_marseille","lat":43.288974,"lon":5.394741,"is_reserved":false,"is_disabled":false,"rental_uris":{"android":"levelo://app?vid=ddb2b9bc-e02a-4792-aae2-e902e747eeed","ios":"levelo://app?vid=ddb2b9bc-e02a-4792-aae2-e902e747eeed"},"vehicle_type_id":"4","last_reported":1760835427,"current_range_meters":11200,"station_id":"ce4bh3h2rcd13ifvqdn0","pricing_plan_id":"cebpf4jnsgd1na2vs0mg"},{"bike_id":"54c787fe-72bd-47a1-9187-7fe85cbdef1c","system_id":"levelo_inurba_marseille","lat":43.29282,"lon":5.40139,"is_reserved":false,"is_disabled":false,"rental_uris":{"android":"levelo://app?vid=54c787fe-72bd-47a1-9187-7fe85cbdef1c","ios":"levelo://app?vid=54c787fe-72bd-47a1-9187-7fe85cbdef1c"},"vehicle_type_id":"4","last_reported":1760835427,"current_range_meters":11200,"station_id":"ce4bh312rcd13ifvqdk0","pricing_plan_id":"cebpf4jnsgd1na2vs0mg"},{"bike_id":"3586afa5-19c6-4385-ae3b-80726606c1bb","system_id":"levelo_inurba_marseille","lat":43.264007,"lon":5.398816,"is_reserved":false,"is_disabled":false,"rental_uris":{"android":"levelo://app?vid=3586afa5-19c6-4385-ae3b-80726606c1bb","ios":"levelo://app?vid=3586afa5-19c6-4385-ae3b-80726606c1bb"},"vehicle_type_id":"4","last_reported":1760835427,"current_range_meters":11200,"station_id":"","pricing_plan_id":"cebpf4jnsgd1na2vs0mg"},{"bike_id":"887e0711-86db-4d03-ae0c-852685105df3","system_id":"levelo_inurba_marseille","lat":43.279605,"lon":5.379273,"is_reserved":false,"is_disabled":false,"rental_uris":{"android":"levelo://app?vid=887e0711-86db-4d03-ae0c-852685105df3","ios":"levelo://app?vid=887e0711-86db-4d03-ae0c-852685105df3"},"vehicle_type_id":"4","last_reported":1760835427,"current_range_meters":11200,"station_id":"ce4bha12rcd13ifvqee0","pricing_plan_id":"cebpf4jnsgd1na2vs0mg"},{"bike_id":"29deeaa9-e77a-408d-b13e-b6abc21d5df6","system_id":"levelo_inurba_marseille","lat":43.296509,"lon":5.386966,"is_reserved":false,"is_disabled":false,"rental_uris":{"android":"levelo://app?vid=29deeaa9-e77a-408d-b13e-b6abc21d5df6","ios":"levelo://app?vid=29deeaa9-e77a-408d-b13e-b6abc21d5df6"},"vehicle_type_id":"4","last_reported":1760835427,"current_range_meters":11200,"station_id":"","pricing_plan_id":"cebpf4jnsgd1na2vs0mg"},{"bike_id":"b6383774-d7e1-495c-a4e9-e70784fffddd","system_id":"levelo_inurba_marseille","lat":43.276255,"lon":5.361082,"is_reserved":false,"is_disabled":false,"rental_uris":{"android":"levelo://app?vid=b6383774-d7e1-495c-a4e9-e70784fffddd","ios":"levelo://app?vid=b6383774-d7e1-495c-a4e9-e70784fffddd"},"vehicle_type_id":"4","last_reported":1760835427,"current_range_meters":11200,"station_id":"ce4bgj92rcd13ifvqbe0","pricing_plan_id":"cebpf4jnsgd1na2vs0mg"},{"bike_id":"e978660f-731d-4a95-8df5-e0a54d8fe8be","system_id":"levelo_inurba_marseille","lat":43.21192,"lon":5.35074,"is_reserved":false,"is_disabled":true,"rental_uris":{"android":"levelo://app?vid=e978660f-731d-4a95-8df5-e0a54d8fe8be","ios":"levelo://app?vid=e978660f-731d-4a95-8df5-e0a54d8fe8be"},"vehicle_type_id":"4","last_reported":1760835427,"current_range_meters":11200,"station_id":"st_cvj6sg6p6f1abm77japg","pricing_plan_id":"cebpf4jnsgd1na2vs0mg"},{"bike_id":"94a80ed1-2fee-468c-bb76-25f1829c19bf","system_id":"levelo_inurba_marseille","lat":43.30474,"lon":5.37894,"is_reserved":false,"is_disabled":true,"rental_uris":{"android":"levelo://app?vid=94a80ed1-2fee-468c-bb76-25f1829c19bf","ios":"levelo://app?vid=94a80ed1-2fee-468c-bb76-25f1829c19bf"},"vehicle_type_id":"4","last_reported":1760835427,"current_range_meters":11200,"station_id":"ce4bgup2rcd13ifvqcn0","pricing_plan_id":"cebpf4jnsgd1na2vs0mg"},{"bike_id":"ae6eb0f2-4874-4ceb-8d8c-7385a8266f58","system_id":"levelo_inurba_marseille","lat":43.295145,"lon":5.379251,"is_reserved":false,"is_disabled":false,"rental_uris":{"android":"levelo://app?vid=ae6eb0f2-4874-4ceb-8d8c-7385a8266f58","ios":"levelo://app?vid=ae6eb0f2-4874-4ceb-8d8c-7385a8266f58"},"vehicle_type_id":"4","last_reported":1760835427,"current_range_meters":11200,"station_id":"","pricing_plan_id":"cebpf4jnsgd1na2vs0mg"},{"bike_id":"83348da8-a4f5-46df-865e-64326525590d","system_id":"levelo_inurba_marseille","lat":43.217539,"lon":5.346017,"is_reserved":false,"is_disabled":false,"rental_uris":{"android":"levelo://app?vid=83348da8-a4f5-46df-865e-64326525590d","ios":"levelo://app?vid=83348da8-a4f5-46df-865e-64326525590d"},"vehicle_type_id":"4","last_reported":1760835427,"current_range_meters":11600,"station_id":"st_cvj6r9ubvosntc0bgbag","pricing_plan_id":"cebpf4jnsgd1na2vs0mg"},{"bike_id":"ea883585-d0e4-4bcb-922c-57b2a3efdeac","system_id":"levelo_inurba_marseille","lat":43.30512,"lon":5.3681,"is_reserved":false,"is_disabled":false,"rental_uris":{"android":"levelo://app?vid=ea883585-d0e4-4bcb-922c-57b2a3efdeac","ios":"levelo://app?vid=ea883585-d0e4-4bcb-922c-57b2a3efdeac"},"vehicle_type_id":"4","last_reported":1760835427,"current_range_meters":11600,"station_id":"","pricing_plan_id":"cebpf4jnsgd1na2vs0mg"},{"bike_id":"61a03972-6032-4677-a33f-1ca16df398f0","system_id":"levelo_inurba_marseille","lat":43.30919,"lon":5.40141,"is_reserved":false,"is_disabled":false,"rental_uris":{"android":"levelo://app?vid=61a03972-6032-4677-a33f-1ca16df398f0","ios":"levelo://app?vid=61a03972-6032-4677-a33f-1ca16df398f0"},"vehicle_type_id":"4","last_reported":1760835427,"current_range_meters":11600,"station_id":"ce4bgvp2rcd13ifvqct0","pricing_plan_id":"cebpf4jnsgd1na2vs0mg"},{"bike_id":"e9c8911f-6661-4330-b933-c7ef20dc0f45","system_id":"levelo_inurba_marseille","lat":43.2814,"lon":5.35029,"is_reserved":false,"is_disabled":false,"rental_uris":{"android":"levelo://app?vid=e9c8911f-6661-4330-b933-c7ef20dc0f45","ios":"levelo://app?vid=e9c8911f-6661-4330-b933-c7ef20dc0f45"},"vehicle_type_id":"4","last_reported":1760835427,"current_range_meters":11600,"station_id":"","pricing_plan_id":"cebpf4jnsgd1na2vs0mg"},{"bike_id":"7cea4096-dd0a-42b5-88f1-2934cfe824e7","system_id":"levelo_inurba_marseille","lat":43.2406,"lon":5.3777,"is_reserved":false,"is_disabled":false,"rental_uris":{"android":"levelo://app?vid=7cea4096-dd0a-42b5-88f1-2934cfe824e7","ios":"levelo://app?vid=7cea4096-dd0a-42b5-88f1-2934cfe824e7"},"vehicle_type_id":"4","last_reported":1760835427,"current_range_meters":11600,"station_id":"ce4bhnp2rcd13ifvqgvg","pricing_plan_id":"cebpf4jnsgd1na2vs0mg"},{"bike_id":"e44a9fda-96bb-4edc-a9ca-3bd163b75a58","system_id":"levelo_inurba_marseille","lat":43.24067,"lon":5.37746,"is_reserved":false,"is_disabled":false,"rental_uris":{"android":"levelo://app?vid=e44a9fda-96bb-4edc-a9ca-3bd163b75a58","ios":"levelo://app?vid=e44a9fda-96bb-4edc-a9ca-3bd163b75a58"},"vehicle_type_id":"4","last_reported":1760835427,"current_range_meters":11600,"station_id":"ce4bhnp2rcd13ifvqgvg","pricing_plan_id":"cebpf4jnsgd1na2vs0mg"},{"bike_id":"9aca6410-dfe2-4f0b-8309-4bbe61aef318","system_id":"levelo_inurba_marseille","lat":43.33029,"lon":5.39052,"is_reserved":false,"is_disabled":false,"rental_uris":{"android":"levelo://app?vid=9aca6410-dfe2-4f0b-8309-4bbe61aef318","ios":"levelo://app?vid=9aca6410-dfe2-4f0b-8309-4bbe61aef318"},"vehicle_type_id":"4","last_reported":1760835427,"current_range_meters":12000,"station_id":"ce4bhr92rcd13ifvqhrg","pricing_plan_id":"cebpf4jnsgd1na2vs0mg"},{"bike_id":"bf2c3617-0e72-4f4a-8585-0c63bcbc4fce","system_id":"levelo_inurba_marseille","lat":43.2865,"lon":5.35074,"is_reserved":false,"is_disabled":true,"rental_uris":{"android":"levelo://app?vid=bf2c3617-0e72-4f4a-8585-0c63bcbc4fce","ios":"levelo://app?vid=bf2c3617-0e72-4f4a-8585-0c63bcbc4fce"},"vehicle_type_id":"4","last_reported":1760835427,"current_range_meters":12000,"station_id":"ce4bhch2rcd13ifvqeug","pricing_plan_id":"cebpf4jnsgd1na2vs0mg"},{"bike_id":"4d639fc2-fd62-4b4f-8fc3-f0ee032daac3","system_id":"levelo_inurba_marseille","lat":43.2417,"lon":5.36398,"is_reserved":false,"is_disabled":false,"rental_uris":{"android":"levelo://app?vid=4d639fc2-fd62-4b4f-8fc3-f0ee032daac3","ios":"levelo://app?vid=4d639fc2-fd62-4b4f-8fc3-f0ee032daac3"},"vehicle_type_id":"4","last_reported":1760835427,"current_range_meters":12000,"station_id":"cpo36qri1sfpv3e86is0","pricing_plan_id":"cebpf4jnsgd1na2vs0mg"},{"bike_id":"234de998-d88b-4c8d-801a-e0e06ca0ab94","system_id":"levelo_inurba_marseille","lat":43.29576,"lon":5.39707,"is_reserved":false,"is_disabled":false,"rental_uris":{"android":"levelo://app?vid=234de998-d88b-4c8d-801a-e0e06ca0ab94","ios":"levelo://app?vid=234de998-d88b-4c8d-801a-e0e06ca0ab94"},"vehicle_type_id":"4","last_reported":1760835427,"current_range_meters":12000,"station_id":"","pricing_plan_id":"cebpf4jnsgd1na2vs0mg"},{"bike_id":"6632a0ad-f43a-451e-834c-e4d64180498e","system_id":"levelo_inurba_marseille","lat":43.326638,"lon":5.409918,"is_reserved":false,"is_disabled":false,"rental_uris":{"android":"levelo://app?vid=6632a0ad-f43a-451e-834c-e4d64180498e","ios":"levelo://app?vid=6632a0ad-f43a-451e-834c-e4d64180498e"},"vehicle_type_id":"4","last_reported":1760835427,"current_range_meters":12000,"station_id":"ce4bhpp2rcd13ifvqhgg","pricing_plan_id":"cebpf4jnsgd1na2vs0mg"},{"bike_id":"074be791-6c38-4f2f-8dd0-b227e073e27e","system_id":"levelo_inurba_marseille","lat":43.241768,"lon":5.363988,"is_reserved":false,"is_disabled":false,"rental_uris":{"android":"levelo://app?vid=074be791-6c38-4f2f-8dd0-b227e073e27e","ios":"levelo://app?vid=074be791-6c38-4f2f-8dd0-b227e073e27e"},"vehicle_type_id":"4","last_reported":1760835427,"current_range_meters":12400,"station_id":"cpo36qri1sfpv3e86is0","pricing_plan_id":"cebpf4jnsgd1na2vs0mg"},{"bike_id":"3f13991a-43fd-4b49-b31a-f84d43d4b745","system_id":"levelo_inurba_marseille","lat":43.28991,"lon":5.37185,"is_reserved":false,"is_disabled":false,"rental_uris":{"android":"levelo://app?vid=3f13991a-43fd-4b49-b31a-f84d43d4b745","ios":"levelo://app?vid=3f13991a-43fd-4b49-b31a-f84d43d4b745"},"vehicle_type_id":"4","last_reported":1760835427,"current_range_meters":12400,"station_id":"","pricing_plan_id":"cebpf4jnsgd1na2vs0mg"},{"bike_id":"f2a57d4d-911d-4e80-ae79-c3cff1fc5197","system_id":"levelo_inurba_marseille","lat":43.29631,"lon":5.40593,"is_reserved":false,"is_disabled":false,"rental_uris":{"android":"levelo://app?vid=f2a57d4d-911d-4e80-ae79-c3cff1fc5197","ios":"levelo://app?vid=f2a57d4d-911d-4e80-ae79-c3cff1fc5197"},"vehicle_type_id":"4","last_reported":1760835427,"current_range_meters":12400,"station_id":"ce4bh0h2rcd13ifvqd60","pricing_plan_id":"cebpf4jnsgd1na2vs0mg"},{"bike_id":"f4b21278-7a88-4f1e-8b50-4cb4a181722f","system_id":"levelo_inurba_marseille","lat":43.285322,"lon":5.440985,"is_reserved":false,"is_disabled":false,"rental_uris":{"android":"levelo://app?vid=f4b21278-7a88-4f1e-8b50-4cb4a181722f","ios":"levelo://app?vid=f4b21278-7a88-4f1e-8b50-4cb4a181722f"},"vehicle_type_id":"4","last_reported":1760835427,"current_range_meters":12400,"station_id":"st_d3j3df2ikq2c7380ej80","pricing_plan_id":"cebpf4jnsgd1na2vs0mg"},{"bike_id":"bd4ad7e0-5393-40cd-8eb2-a0a915587900","system_id":"levelo_inurba_marseille","lat":43.29199,"lon":5.358045,"is_reserved":false,"is_disabled":false,"rental_uris":{"android":"levelo://app?vid=bd4ad7e0-5393-40cd-8eb2-a0a915587900","ios":"levelo://app?vid=bd4ad7e0-5393-40cd-8eb2-a0a915587900"},"vehicle_type_id":"4","last_reported":1760835427,"current_range_meters":12400,"station_id":"ce4bhb12rcd13ifvqel0","pricing_plan_id":"cebpf4jnsgd1na2vs0mg"},{"bike_id":"f889daa8-a867-44b4-9b46-2f206d36513c","system_id":"levelo_inurba_marseille","lat":43.257211,"lon":5.411157,"is_reserved":false,"is_disabled":false,"rental_uris":{"android":"levelo://app?vid=f889daa8-a867-44b4-9b46-2f206d36513c","ios":"levelo://app?vid=f889daa8-a867-44b4-9b46-2f206d36513c"},"vehicle_type_id":"4","last_reported":1760835427,"current_range_meters":12400,"station_id":"ce4bhkp2rcd13ifvqgd0","pricing_plan_id":"cebpf4jnsgd1na2vs0mg"},{"bike_id":"6426e4fa-7f79-410d-acfa-0a51b3b2658a","system_id":"levelo_inurba_marseille","lat":43.31276,"lon":5.40421,"is_reserved":false,"is_disabled":false,"rental_uris":{"android":"levelo://app?vid=6426e4fa-7f79-410d-acfa-0a51b3b2658a","ios":"levelo://app?vid=6426e4fa-7f79-410d-acfa-0a51b3b2658a"},"vehicle_type_id":"4","last_reported":1760835427,"current_range_meters":12800,"station_id":"","pricing_plan_id":"cebpf4jnsgd1na2vs0mg"},{"bike_id":"35b537eb-5193-4257-a03a-d89d32cbfc0e","system_id":"levelo_inurba_marseille","lat":43.245513,"lon":5.395229,"is_reserved":false,"is_disabled":false,"rental_uris":{"android":"levelo://app?vid=35b537eb-5193-4257-a03a-d89d32cbfc0e","ios":"levelo://app?vid=35b537eb-5193-4257-a03a-d89d32cbfc0e"},"vehicle_type_id":"4","last_reported":1760835427,"current_range_meters":12800,"station_id":"ce4bhlp2rcd13ifvqgjg","pricing_plan_id":"cebpf4jnsgd1na2vs0mg"},{"bike_id":"ac6d2c4d-74a8-443d-a9f9-0d9807feacda","system_id":"levelo_inurba_marseille","lat":43.33772,"lon":5.37469,"is_reserved":false,"is_disabled":false,"rental_uris":{"android":"levelo://app?vid=ac6d2c4d-74a8-443d-a9f9-0d9807feacda","ios":"levelo://app?vid=ac6d2c4d-74a8-443d-a9f9-0d9807feacda"},"vehicle_type_id":"4","last_reported":1760835427,"current_range_meters":12800,"station_id":"","pricing_plan_id":"cebpf4jnsgd1na2vs0mg"},{"bike_id":"8633551f-7b73-402d-ab1c-d42f9e24f871","system_id":"levelo_inurba_marseille","lat":43.24495,"lon":5.43097,"is_reserved":false,"is_disabled":false,"rental_uris":{"android":"levelo://app?vid=8633551f-7b73-402d-ab1c-d42f9e24f871","ios":"levelo://app?vid=8633551f-7b73-402d-ab1c-d42f9e24f871"},"vehicle_type_id":"4","last_reported":1760835427,"current_range_meters":12800,"station_id":"","pricing_plan_id":"cebpf4jnsgd1na2vs0mg"},{"bike_id":"365b1110-8604-4b2d-ad9b-3263b8a258f2","system_id":"levelo_inurba_marseille","lat":43.28655,"lon":5.3634,"is_reserved":false,"is_disabled":false,"rental_uris":{"android":"levelo://app?vid=365b1110-8604-4b2d-ad9b-3263b8a258f2","ios":"levelo://app?vid=365b1110-8604-4b2d-ad9b-3263b8a258f2"},"vehicle_type_id":"4","last_reported":1760835427,"current_range_meters":13600,"station_id":"ce4bhah2rcd13ifvqej0","pricing_plan_id":"cebpf4jnsgd1na2vs0mg"},{"bike_id":"d712d0ff-3096-41ad-87d0-b640167ff060","system_id":"levelo_inurba_marseille","lat":43.31541,"lon":5.38512,"is_reserved":false,"is_disabled":false,"rental_uris":{"android":"levelo://app?vid=d712d0ff-3096-41ad-87d0-b640167ff060","ios":"levelo://app?vid=d712d0ff-3096-41ad-87d0-b640167ff060"},"vehicle_type_id":"4","last_reported":1760835427,"current_range_meters":13600,"station_id":"","pricing_plan_id":"cebpf4jnsgd1na2vs0mg"},{"bike_id":"42c0e70b-edb2-4a4b-adf0-47cecd416238","system_id":"levelo_inurba_marseille","lat":43.30879,"lon":5.39627,"is_reserved":false,"is_disabled":false,"rental_uris":{"android":"levelo://app?vid=42c0e70b-edb2-4a4b-adf0-47cecd416238","ios":"levelo://app?vid=42c0e70b-edb2-4a4b-adf0-47cecd416238"},"vehicle_type_id":"4","last_reported":1760835427,"current_range_meters":13600,"station_id":"ce4bh012rcd13ifvqcv0","pricing_plan_id":"cebpf4jnsgd1na2vs0mg"},{"bike_id":"394213f8-a678-4fef-874f-bcb7093d4f1d","system_id":"levelo_inurba_marseille","lat":43.28157,"lon":5.42632,"is_reserved":false,"is_disabled":false,"rental_uris":{"android":"levelo://app?vid=394213f8-a678-4fef-874f-bcb7093d4f1d","ios":"levelo://app?vid=394213f8-a678-4fef-874f-bcb7093d4f1d"},"vehicle_type_id":"4","last_reported":1760835427,"current_range_meters":13600,"station_id":"ce4bhnh2rcd13ifvqgug","pricing_plan_id":"cebpf4jnsgd1na2vs0mg"},{"bike_id":"9d588e09-c5d0-4390-8f60-2938b78e37e9","system_id":"levelo_inurba_marseille","lat":43.26228,"lon":5.40455,"is_reserved":false,"is_disabled":false,"rental_uris":{"android":"levelo://app?vid=9d588e09-c5d0-4390-8f60-2938b78e37e9","ios":"levelo://app?vid=9d588e09-c5d0-4390-8f60-2938b78e37e9"},"vehicle_type_id":"4","last_reported":1760835427,"current_range_meters":13600,"station_id":"ce4bhmh2rcd13ifvqgmg","pricing_plan_id":"cebpf4jnsgd1na2vs0mg"},{"bike_id":"c3a43516-decc-43f9-8e26-5e24bd17a93e","system_id":"levelo_inurba_marseille","lat":43.31115,"lon":5.37759,"is_reserved":false,"is_disabled":false,"rental_uris":{"android":"levelo://app?vid=c3a43516-decc-43f9-8e26-5e24bd17a93e","ios":"levelo://app?vid=c3a43516-decc-43f9-8e26-5e24bd17a93e"},"vehicle_type_id":"4","last_reported":1760835427,"current_range_meters":14000,"station_id":"ce4bgt92rcd13ifvqcg0","pricing_plan_id":"cebpf4jnsgd1na2vs0mg"},{"bike_id":"cf4c14bf-7635-4f96-a4b6-ee6481db3804","system_id":"levelo_inurba_marseille","lat":43.32293,"lon":5.38287,"is_reserved":false,"is_disabled":false,"rental_uris":{"android":"levelo://app?vid=cf4c14bf-7635-4f96-a4b6-ee6481db3804","ios":"levelo://app?vid=cf4c14bf-7635-4f96-a4b6-ee6481db3804"},"vehicle_type_id":"4","last_reported":1760835427,"current_range_meters":14000,"station_id":"ce4bhr12rcd13ifvqhqg","pricing_plan_id":"cebpf4jnsgd1na2vs0mg"},{"bike_id":"a7b3764b-b896-4840-bd7e-9880973af195","system_id":"levelo_inurba_marseille","lat":43.292287,"lon":5.360602,"is_reserved":false,"is_disabled":false,"rental_uris":{"android":"levelo://app?vid=a7b3764b-b896-4840-bd7e-9880973af195","ios":"levelo://app?vid=a7b3764b-b896-4840-bd7e-9880973af195"},"vehicle_type_id":"4","last_reported":1760835427,"current_range_meters":14000,"station_id":"","pricing_plan_id":"cebpf4jnsgd1na2vs0mg"},{"bike_id":"346e3c14-3ef4-491e-839a-51dd2e3db899","system_id":"levelo_inurba_marseille","lat":43.31358,"lon":5.38502,"is_reserved":false,"is_disabled":false,"rental_uris":{"android":"levelo://app?vid=346e3c14-3ef4-491e-839a-51dd2e3db899","ios":"levelo://app?vid=346e3c14-3ef4-491e-839a-51dd2e3db899"},"vehicle_type_id":"4","last_reported":1760835427,"current_range_meters":14400,"station_id":"ce4bgt92rcd13ifvqcf0","pricing_plan_id":"cebpf4jnsgd1na2vs0mg"},{"bike_id":"e0bddec4-8f54-4ed3-9c57-1a8ef9e1fe7c","system_id":"levelo_inurba_marseille","lat":43.28728,"lon":5.36081,"is_reserved":false,"is_disabled":false,"rental_uris":{"android":"levelo://app?vid=e0bddec4-8f54-4ed3-9c57-1a8ef9e1fe7c","ios":"levelo://app?vid=e0bddec4-8f54-4ed3-9c57-1a8ef9e1fe7c"},"vehicle_type_id":"4","last_reported":1760835427,"current_range_meters":14400,"station_id":"cki0cbj6b192h4jlfktg","pricing_plan_id":"cebpf4jnsgd1na2vs0mg"},{"bike_id":"684dea98-4fa8-4451-8c5f-30e274ad7842","system_id":"levelo_inurba_marseille","lat":43.251207,"lon":5.403202,"is_reserved":false,"is_disabled":false,"rental_uris":{"android":"levelo://app?vid=684dea98-4fa8-4451-8c5f-30e274ad7842","ios":"levelo://app?vid=684dea98-4fa8-4451-8c5f-30e274ad7842"},"vehicle_type_id":"4","last_reported":1760835427,"current_range_meters":14400,"station_id":"ce4bhlh2rcd13ifvqgig","pricing_plan_id":"cebpf4jnsgd1na2vs0mg"},{"bike_id":"8aacae87-3502-4ac1-891c-6e4b0bf1af3f","system_id":"levelo_inurba_marseille","lat":43.336112,"lon":5.410306,"is_reserved":false,"is_disabled":false,"rental_uris":{"android":"levelo://app?vid=8aacae87-3502-4ac1-891c-6e4b0bf1af3f","ios":"levelo://app?vid=8aacae87-3502-4ac1-891c-6e4b0bf1af3f"},"vehicle_type_id":"4","last_reported":1760835427,"current_range_meters":14400,"station_id":"ce4bhqh2rcd13ifvqhmg","pricing_plan_id":"cebpf4jnsgd1na2vs0mg"},{"bike_id":"4cad131d-1e32-4ee7-967a-bb4575eb959b","system_id":"levelo_inurba_marseille","lat":43.278306,"lon":5.406911,"is_reserved":false,"is_disabled":false,"rental_uris":{"android":"levelo://app?vid=4cad131d-1e32-4ee7-967a-bb4575eb959b","ios":"levelo://app?vid=4cad131d-1e32-4ee7-967a-bb4575eb959b"},"vehicle_type_id":"4","last_reported":1760835427,"current_range_meters":14400,"station_id":"ce4bhnh2rcd13ifvqgtg","pricing_plan_id":"cebpf4jnsgd1na2vs0mg"},{"bike_id":"6e64c589-5ec7-4a0c-856a-96e7e72381c2","system_id":"levelo_inurba_marseille","lat":43.31384,"lon":5.38491,"is_reserved":false,"is_disabled":false,"rental_uris":{"android":"levelo://app?vid=6e64c589-5ec7-4a0c-856a-96e7e72381c2","ios":"levelo://app?vid=6e64c589-5ec7-4a0c-856a-96e7e72381c2"},"vehicle_type_id":"4","last_reported":1760835427,"current_range_meters":14400,"station_id":"ce4bgt92rcd13ifvqcf0","pricing_plan_id":"cebpf4jnsgd1na2vs0mg"},{"bike_id":"4f10ecd9-3242-410e-9dce-06f5ef86b9df","system_id":"levelo_inurba_marseille","lat":43.298998,"lon":5.386601,"is_reserved":false,"is_disabled":false,"rental_uris":{"android":"levelo://app?vid=4f10ecd9-3242-410e-9dce-06f5ef86b9df","ios":"levelo://app?vid=4f10ecd9-3242-410e-9dce-06f5ef86b9df"},"vehicle_type_id":"4","last_reported":1760835427,"current_range_meters":14800,"station_id":"","pricing_plan_id":"cebpf4jnsgd1na2vs0mg"},{"bike_id":"74a0e418-9a8a-4d6c-82ac-4bcdbfc66662","system_id":"levelo_inurba_marseille","lat":43.295371,"lon":5.385437,"is_reserved":false,"is_disabled":true,"rental_uris":{"android":"levelo://app?vid=74a0e418-9a8a-4d6c-82ac-4bcdbfc66662","ios":"levelo://app?vid=74a0e418-9a8a-4d6c-82ac-4bcdbfc66662"},"vehicle_type_id":"4","last_reported":1760835427,"current_range_meters":14800,"station_id":"ce4bgih2rcd13ifvqba0","pricing_plan_id":"cebpf4jnsgd1na2vs0mg"},{"bike_id":"3723dc20-8123-4f5f-92a0-0c3073c1e3b9","system_id":"levelo_inurba_marseille","lat":43.25319,"lon":5.42169,"is_reserved":false,"is_disabled":false,"rental_uris":{"android":"levelo://app?vid=3723dc20-8123-4f5f-92a0-0c3073c1e3b9","ios":"levelo://app?vid=3723dc20-8123-4f5f-92a0-0c3073c1e3b9"},"vehicle_type_id":"4","last_reported":1760835427,"current_range_meters":14800,"station_id":"st_d2m65c5bi1j21697t3ng","pricing_plan_id":"cebpf4jnsgd1na2vs0mg"},{"bike_id":"66fa7b7c-9c15-436f-910f-5887bcb027b4","system_id":"levelo_inurba_marseille","lat":43.29189,"lon":5.35798,"is_reserved":false,"is_disabled":false,"rental_uris":{"android":"levelo://app?vid=66fa7b7c-9c15-436f-910f-5887bcb027b4","ios":"levelo://app?vid=66fa7b7c-9c15-436f-910f-5887bcb027b4"},"vehicle_type_id":"4","last_reported":1760835427,"current_range_meters":14800,"station_id":"ce4bhb12rcd13ifvqel0","pricing_plan_id":"cebpf4jnsgd1na2vs0mg"},{"bike_id":"51539c6d-039a-4035-81b8-b9683f3fe755","system_id":"levelo_inurba_marseille","lat":43.30938,"lon":5.40144,"is_reserved":false,"is_disabled":false,"rental_uris":{"android":"levelo://app?vid=51539c6d-039a-4035-81b8-b9683f3fe755","ios":"levelo://app?vid=51539c6d-039a-4035-81b8-b9683f3fe755"},"vehicle_type_id":"4","last_reported":1760835427,"current_range_meters":14800,"station_id":"ce4bgvp2rcd13ifvqct0","pricing_plan_id":"cebpf4jnsgd1na2vs0mg"},{"bike_id":"90ba9e44-eda0-4914-aadc-c21ede29abbf","system_id":"levelo_inurba_marseille","lat":43.25328,"lon":5.42168,"is_reserved":false,"is_disabled":false,"rental_uris":{"android":"levelo://app?vid=90ba9e44-eda0-4914-aadc-c21ede29abbf","ios":"levelo://app?vid=90ba9e44-eda0-4914-aadc-c21ede29abbf"},"vehicle_type_id":"4","last_reported":1760835427,"current_range_meters":14800,"station_id":"st_d2m65c5bi1j21697t3ng","pricing_plan_id":"cebpf4jnsgd1na2vs0mg"},{"bike_id":"43b63b7d-b5c3-48a5-b5eb-4b0ca29a086a","system_id":"levelo_inurba_marseille","lat":43.29942,"lon":5.38227,"is_reserved":false,"is_disabled":false,"rental_uris":{"android":"levelo://app?vid=43b63b7d-b5c3-48a5-b5eb-4b0ca29a086a","ios":"levelo://app?vid=43b63b7d-b5c3-48a5-b5eb-4b0ca29a086a"},"vehicle_type_id":"4","last_reported":1760835427,"current_range_meters":14800,"station_id":"","pricing_plan_id":"cebpf4jnsgd1na2vs0mg"},{"bike_id":"bb9b93c1-89b6-4311-92ab-c99b58477174","system_id":"levelo_inurba_marseille","lat":43.29002,"lon":5.35607,"is_reserved":false,"is_disabled":false,"rental_uris":{"android":"levelo://app?vid=bb9b93c1-89b6-4311-92ab-c99b58477174","ios":"levelo://app?vid=bb9b93c1-89b6-4311-92ab-c99b58477174"},"vehicle_type_id":"4","last_reported":1760835427,"current_range_meters":14800,"station_id":"ce4bhb92rcd13ifvqen0","pricing_plan_id":"cebpf4jnsgd1na2vs0mg"},{"bike_id":"039e2461-f460-4ef8-a658-0a0ed3531b85","system_id":"levelo_inurba_marseille","lat":43.31125,"lon":5.37762,"is_reserved":false,"is_disabled":false,"rental_uris":{"android":"levelo://app?vid=039e2461-f460-4ef8-a658-0a0ed3531b85","ios":"levelo://app?vid=039e2461-f460-4ef8-a658-0a0ed3531b85"},"vehicle_type_id":"4","last_reported":1760835427,"current_range_meters":14800,"station_id":"ce4bgt92rcd13ifvqcg0","pricing_plan_id":"cebpf4jnsgd1na2vs0mg"},{"bike_id":"ea7560ca-5f03-426d-96e6-9f9c89122550","system_id":"levelo_inurba_marseille","lat":43.31371,"lon":5.38496,"is_reserved":false,"is_disabled":false,"rental_uris":{"android":"levelo://app?vid=ea7560ca-5f03-426d-96e6-9f9c89122550","ios":"levelo://app?vid=ea7560ca-5f03-426d-96e6-9f9c89122550"},"vehicle_type_id":"4","last_reported":1760835427,"current_range_meters":14800,"station_id":"ce4bgt92rcd13ifvqcf0","pricing_plan_id":"cebpf4jnsgd1na2vs0mg"},{"bike_id":"8cd818e3-a9e2-4f48-92b2-26306f507696","system_id":"levelo_inurba_marseille","lat":43.31349,"lon":5.37913,"is_reserved":false,"is_disabled":false,"rental_uris":{"android":"levelo://app?vid=8cd818e3-a9e2-4f48-92b2-26306f507696","ios":"levelo://app?vid=8cd818e3-a9e2-4f48-92b2-26306f507696"},"vehicle_type_id":"4","last_reported":1760835427,"current_range_meters":15200,"station_id":"","pricing_plan_id":"cebpf4jnsgd1na2vs0mg"},{"bike_id":"367c1051-7e4c-4903-8a1f-171c98150810","system_id":"levelo_inurba_marseille","lat":43.241668,"lon":5.363953,"is_reserved":false,"is_disabled":false,"rental_uris":{"android":"levelo://app?vid=367c1051-7e4c-4903-8a1f-171c98150810","ios":"levelo://app?vid=367c1051-7e4c-4903-8a1f-171c98150810"},"vehicle_type_id":"4","last_reported":1760835427,"current_range_meters":15200,"station_id":"cpo36qri1sfpv3e86is0","pricing_plan_id":"cebpf4jnsgd1na2vs0mg"},{"bike_id":"8f6c99a9-2111-4ea5-ba4d-4bb0a3b06aa1","system_id":"levelo_inurba_marseille","lat":43.29832,"lon":5.44056,"is_reserved":false,"is_disabled":false,"rental_uris":{"android":"levelo://app?vid=8f6c99a9-2111-4ea5-ba4d-4bb0a3b06aa1","ios":"levelo://app?vid=8f6c99a9-2111-4ea5-ba4d-4bb0a3b06aa1"},"vehicle_type_id":"4","last_reported":1760835427,"current_range_meters":16000,"station_id":"st_d3jp68qikq2c7381ktn0","pricing_plan_id":"cebpf4jnsgd1na2vs0mg"},{"bike_id":"4e49a6ae-5064-4404-9d8a-29fe6c76573d","system_id":"levelo_inurba_marseille","lat":43.28275,"lon":5.35076,"is_reserved":false,"is_disabled":false,"rental_uris":{"android":"levelo://app?vid=4e49a6ae-5064-4404-9d8a-29fe6c76573d","ios":"levelo://app?vid=4e49a6ae-5064-4404-9d8a-29fe6c76573d"},"vehicle_type_id":"4","last_reported":1760835427,"current_range_meters":16000,"station_id":"ce4bhbp2rcd13ifvqerg","pricing_plan_id":"cebpf4jnsgd1na2vs0mg"},{"bike_id":"aca8d1c2-63ac-4a21-8534-581b67cd3304","system_id":"levelo_inurba_marseille","lat":43.30886,"lon":5.39634,"is_reserved":false,"is_disabled":false,"rental_uris":{"android":"levelo://app?vid=aca8d1c2-63ac-4a21-8534-581b67cd3304","ios":"levelo://app?vid=aca8d1c2-63ac-4a21-8534-581b67cd3304"},"vehicle_type_id":"4","last_reported":1760835427,"current_range_meters":16000,"station_id":"ce4bh012rcd13ifvqcv0","pricing_plan_id":"cebpf4jnsgd1na2vs0mg"},{"bike_id":"301be908-0c83-42b0-ae48-fa1a94fdb987","system_id":"levelo_inurba_marseille","lat":43.31066,"lon":5.38349,"is_reserved":false,"is_disabled":false,"rental_uris":{"android":"levelo://app?vid=301be908-0c83-42b0-ae48-fa1a94fdb987","ios":"levelo://app?vid=301be908-0c83-42b0-ae48-fa1a94fdb987"},"vehicle_type_id":"4","last_reported":1760835427,"current_range_meters":16000,"station_id":"ce4bgv92rcd13ifvqcr0","pricing_plan_id":"cebpf4jnsgd1na2vs0mg"},{"bike_id":"3f9922fa-5fa2-4bb2-b6fe-411d28b8df2c","system_id":"levelo_inurba_marseille","lat":43.2849,"lon":5.38143,"is_reserved":false,"is_disabled":false,"rental_uris":{"android":"levelo://app?vid=3f9922fa-5fa2-4bb2-b6fe-411d28b8df2c","ios":"levelo://app?vid=3f9922fa-5fa2-4bb2-b6fe-411d28b8df2c"},"vehicle_type_id":"4","last_reported":1760835427,"current_range_meters":16000,"station_id":"","pricing_plan_id":"cebpf4jnsgd1na2vs0mg"},{"bike_id":"86ce52f8-f590-4694-90e1-216ddc477b29","system_id":"levelo_inurba_marseille","lat":43.30968,"lon":5.3812,"is_reserved":false,"is_disabled":false,"rental_uris":{"android":"levelo://app?vid=86ce52f8-f590-4694-90e1-216ddc477b29","ios":"levelo://app?vid=86ce52f8-f590-4694-90e1-216ddc477b29"},"vehicle_type_id":"4","last_reported":1760835427,"current_range_meters":16000,"station_id":"","pricing_plan_id":"cebpf4jnsgd1na2vs0mg"},{"bike_id":"92b855db-83ae-42a5-ae3c-3811d6f3b9c4","system_id":"levelo_inurba_marseille","lat":43.28671,"lon":5.36357,"is_reserved":false,"is_disabled":false,"rental_uris":{"android":"levelo://app?vid=92b855db-83ae-42a5-ae3c-3811d6f3b9c4","ios":"levelo://app?vid=92b855db-83ae-42a5-ae3c-3811d6f3b9c4"},"vehicle_type_id":"4","last_reported":1760835427,"current_range_meters":16000,"station_id":"ce4bhah2rcd13ifvqej0","pricing_plan_id":"cebpf4jnsgd1na2vs0mg"},{"bike_id":"dc93ad0f-026e-4bfb-a302-4b74fc9c8814","system_id":"levelo_inurba_marseille","lat":43.31373,"lon":5.38495,"is_reserved":false,"is_disabled":false,"rental_uris":{"android":"levelo://app?vid=dc93ad0f-026e-4bfb-a302-4b74fc9c8814","ios":"levelo://app?vid=dc93ad0f-026e-4bfb-a302-4b74fc9c8814"},"vehicle_type_id":"4","last_reported":1760835427,"current_range_meters":16000,"station_id":"ce4bgt92rcd13ifvqcf0","pricing_plan_id":"cebpf4jnsgd1na2vs0mg"},{"bike_id":"b9f4c452-f1a0-4b31-854c-2325a5b73556","system_id":"levelo_inurba_marseille","lat":43.21455,"lon":5.34317,"is_reserved":false,"is_disabled":false,"rental_uris":{"android":"levelo://app?vid=b9f4c452-f1a0-4b31-854c-2325a5b73556","ios":"levelo://app?vid=b9f4c452-f1a0-4b31-854c-2325a5b73556"},"vehicle_type_id":"4","last_reported":1760835427,"current_range_meters":16000,"station_id":"","pricing_plan_id":"cebpf4jnsgd1na2vs0mg"},{"bike_id":"5285ec83-cb7a-43c6-9dc2-5af097e8db22","system_id":"levelo_inurba_marseille","lat":43.284268,"lon":5.37514,"is_reserved":false,"is_disabled":false,"rental_uris":{"android":"levelo://app?vid=5285ec83-cb7a-43c6-9dc2-5af097e8db22","ios":"levelo://app?vid=5285ec83-cb7a-43c6-9dc2-5af097e8db22"},"vehicle_type_id":"4","last_reported":1760835427,"current_range_meters":16400,"station_id":"","pricing_plan_id":"cebpf4jnsgd1na2vs0mg"},{"bike_id":"7b4102bf-aba1-447f-93de-ffef7042242e","system_id":"levelo_inurba_marseille","lat":43.2776,"lon":5.37601,"is_reserved":false,"is_disabled":false,"rental_uris":{"android":"levelo://app?vid=7b4102bf-aba1-447f-93de-ffef7042242e","ios":"levelo://app?vid=7b4102bf-aba1-447f-93de-ffef7042242e"},"vehicle_type_id":"4","last_reported":1760835427,"current_range_meters":16400,"station_id":"","pricing_plan_id":"cebpf4jnsgd1na2vs0mg"},{"bike_id":"33072f8a-fdd4-421e-bff0-051872342972","system_id":"levelo_inurba_marseille","lat":43.27992,"lon":5.41663,"is_reserved":false,"is_disabled":false,"rental_uris":{"android":"levelo://app?vid=33072f8a-fdd4-421e-bff0-051872342972","ios":"levelo://app?vid=33072f8a-fdd4-421e-bff0-051872342972"},"vehicle_type_id":"4","last_reported":1760835427,"current_range_meters":16400,"station_id":"ce4bho12rcd13ifvqh1g","pricing_plan_id":"cebpf4jnsgd1na2vs0mg"},{"bike_id":"7fd36eea-805d-4dce-89b5-46f277eaf158","system_id":"levelo_inurba_marseille","lat":43.305097,"lon":5.366695,"is_reserved":false,"is_disabled":false,"rental_uris":{"android":"levelo://app?vid=7fd36eea-805d-4dce-89b5-46f277eaf158","ios":"levelo://app?vid=7fd36eea-805d-4dce-89b5-46f277eaf158"},"vehicle_type_id":"4","last_reported":1760835427,"current_range_meters":16400,"station_id":"","pricing_plan_id":"cebpf4jnsgd1na2vs0mg"},{"bike_id":"db7fe32d-1283-466a-b4d0-826963fec3bd","system_id":"levelo_inurba_marseille","lat":43.31172,"lon":5.38716,"is_reserved":false,"is_disabled":false,"rental_uris":{"android":"levelo://app?vid=db7fe32d-1283-466a-b4d0-826963fec3bd","ios":"levelo://app?vid=db7fe32d-1283-466a-b4d0-826963fec3bd"},"vehicle_type_id":"4","last_reported":1760835427,"current_range_meters":16400,"station_id":"ce4bgv12rcd13ifvqcp0","pricing_plan_id":"cebpf4jnsgd1na2vs0mg"},{"bike_id":"8fc39a68-750e-4904-a3b6-7d372c0a4269","system_id":"levelo_inurba_marseille","lat":43.30768,"lon":5.37647,"is_reserved":false,"is_disabled":false,"rental_uris":{"android":"levelo://app?vid=8fc39a68-750e-4904-a3b6-7d372c0a4269","ios":"levelo://app?vid=8fc39a68-750e-4904-a3b6-7d372c0a4269"},"vehicle_type_id":"4","last_reported":1760835427,"current_range_meters":16400,"station_id":"ce4bgv92rcd13ifvqcq0","pricing_plan_id":"cebpf4jnsgd1na2vs0mg"},{"bike_id":"fbe586dc-ebc7-45f2-b699-4812fb9ca15d","system_id":"levelo_inurba_marseille","lat":43.25493,"lon":5.37656,"is_reserved":false,"is_disabled":true,"rental_uris":{"android":"levelo://app?vid=fbe586dc-ebc7-45f2-b699-4812fb9ca15d","ios":"levelo://app?vid=fbe586dc-ebc7-45f2-b699-4812fb9ca15d"},"vehicle_type_id":"4","last_reported":1760835427,"current_range_meters":16400,"station_id":"ce4bhh12rcd13ifvqff0","pricing_plan_id":"cebpf4jnsgd1na2vs0mg"},{"bike_id":"bb243c79-09fa-40af-bf96-21135875591d","system_id":"levelo_inurba_marseille","lat":43.3089,"lon":5.371888,"is_reserved":false,"is_disabled":false,"rental_uris":{"android":"levelo://app?vid=bb243c79-09fa-40af-bf96-21135875591d","ios":"levelo://app?vid=bb243c79-09fa-40af-bf96-21135875591d"},"vehicle_type_id":"4","last_reported":1760835427,"current_range_meters":16400,"station_id":"ce4bguh2rcd13ifvqckg","pricing_plan_id":"cebpf4jnsgd1na2vs0mg"},{"bike_id":"c2109d25-d4ee-4a1f-897b-a03e90535513","system_id":"levelo_inurba_marseille","lat":43.28546,"lon":5.44109,"is_reserved":false,"is_disabled":false,"rental_uris":{"android":"levelo://app?vid=c2109d25-d4ee-4a1f-897b-a03e90535513","ios":"levelo://app?vid=c2109d25-d4ee-4a1f-897b-a03e90535513"},"vehicle_type_id":"4","last_reported":1760835427,"current_range_meters":16400,"station_id":"st_d3j3df2ikq2c7380ej80","pricing_plan_id":"cebpf4jnsgd1na2vs0mg"},{"bike_id":"0f787efd-37ca-4060-a03d-15d3c3ce389f","system_id":"levelo_inurba_marseille","lat":43.300019,"lon":5.373524,"is_reserved":false,"is_disabled":false,"rental_uris":{"android":"levelo://app?vid=0f787efd-37ca-4060-a03d-15d3c3ce389f","ios":"levelo://app?vid=0f787efd-37ca-4060-a03d-15d3c3ce389f"},"vehicle_type_id":"4","last_reported":1760835427,"current_range_meters":16400,"station_id":"","pricing_plan_id":"cebpf4jnsgd1na2vs0mg"},{"bike_id":"7a8ac50b-c3a4-490a-8f96-9c005f89ed5d","system_id":"levelo_inurba_marseille","lat":43.26521,"lon":5.39049,"is_reserved":false,"is_disabled":false,"rental_uris":{"android":"levelo://app?vid=7a8ac50b-c3a4-490a-8f96-9c005f89ed5d","ios":"levelo://app?vid=7a8ac50b-c3a4-490a-8f96-9c005f89ed5d"},"vehicle_type_id":"4","last_reported":1760835427,"current_range_meters":16800,"station_id":"","pricing_plan_id":"cebpf4jnsgd1na2vs0mg"},{"bike_id":"4b9c1302-6548-4885-87dd-02faf8afefaf","system_id":"levelo_inurba_marseille","lat":43.30587,"lon":5.39334,"is_reserved":false,"is_disabled":false,"rental_uris":{"android":"levelo://app?vid=4b9c1302-6548-4885-87dd-02faf8afefaf","ios":"levelo://app?vid=4b9c1302-6548-4885-87dd-02faf8afefaf"},"vehicle_type_id":"4","last_reported":1760835427,"current_range_meters":16800,"station_id":"ce4bh0p2rcd13ifvqd80","pricing_plan_id":"cebpf4jnsgd1na2vs0mg"},{"bike_id":"86427311-b4dd-4aef-8f66-307154232324","system_id":"levelo_inurba_marseille","lat":43.28426,"lon":5.37514,"is_reserved":false,"is_disabled":false,"rental_uris":{"android":"levelo://app?vid=86427311-b4dd-4aef-8f66-307154232324","ios":"levelo://app?vid=86427311-b4dd-4aef-8f66-307154232324"},"vehicle_type_id":"4","last_reported":1760835427,"current_range_meters":16800,"station_id":"ce4bh412rcd13ifvqds0","pricing_plan_id":"cebpf4jnsgd1na2vs0mg"},{"bike_id":"281275b0-340b-4d2d-bc29-085f43a86d4d","system_id":"levelo_inurba_marseille","lat":43.27377,"lon":5.36251,"is_reserved":false,"is_disabled":false,"rental_uris":{"android":"levelo://app?vid=281275b0-340b-4d2d-bc29-085f43a86d4d","ios":"levelo://app?vid=281275b0-340b-4d2d-bc29-085f43a86d4d"},"vehicle_type_id":"4","last_reported":1760835427,"current_range_meters":16800,"station_id":"","pricing_plan_id":"cebpf4jnsgd1na2vs0mg"},{"bike_id":"2bbefd2c-fdc3-48a1-8810-edf1e899439a","system_id":"levelo_inurba_marseille","lat":43.307825,"lon":5.376426,"is_reserved":false,"is_disabled":false,"rental_uris":{"android":"levelo://app?vid=2bbefd2c-fdc3-48a1-8810-edf1e899439a","ios":"levelo://app?vid=2bbefd2c-fdc3-48a1-8810-edf1e899439a"},"vehicle_type_id":"4","last_reported":1760835427,"current_range_meters":16800,"station_id":"ce4bgv92rcd13ifvqcq0","pricing_plan_id":"cebpf4jnsgd1na2vs0mg"},{"bike_id":"bce98ae8-dfdf-4c26-a4bd-718a9035c2fc","system_id":"levelo_inurba_marseille","lat":43.27948,"lon":5.41031,"is_reserved":false,"is_disabled":false,"rental_uris":{"android":"levelo://app?vid=bce98ae8-dfdf-4c26-a4bd-718a9035c2fc","ios":"levelo://app?vid=bce98ae8-dfdf-4c26-a4bd-718a9035c2fc"},"vehicle_type_id":"4","last_reported":1760835427,"current_range_meters":16800,"station_id":"ce4bhnp2rcd13ifvqh0g","pricing_plan_id":"cebpf4jnsgd1na2vs0mg"},{"bike_id":"4043d4c8-3788-4382-96cf-7f25c8ccb873","system_id":"levelo_inurba_marseille","lat":43.29286,"lon":5.4012,"is_reserved":false,"is_disabled":false,"rental_uris":{"android":"levelo://app?vid=4043d4c8-3788-4382-96cf-7f25c8ccb873","ios":"levelo://app?vid=4043d4c8-3788-4382-96cf-7f25c8ccb873"},"vehicle_type_id":"4","last_reported":1760835427,"current_range_meters":16800,"station_id":"ce4bh312rcd13ifvqdk0","pricing_plan_id":"cebpf4jnsgd1na2vs0mg"},{"bike_id":"3178cb75-9998-4500-a224-6bc42c1d29d5","system_id":"levelo_inurba_marseille","lat":43.286963,"lon":5.399811,"is_reserved":false,"is_disabled":false,"rental_uris":{"android":"levelo://app?vid=3178cb75-9998-4500-a224-6bc42c1d29d5","ios":"levelo://app?vid=3178cb75-9998-4500-a224-6bc42c1d29d5"},"vehicle_type_id":"4","last_reported":1760835427,"current_range_meters":16800,"station_id":"ce4bho92rcd13ifvqh3g","pricing_plan_id":"cebpf4jnsgd1na2vs0mg"},{"bike_id":"a0d88737-c6da-4c3a-b384-e15f59c2346a","system_id":"levelo_inurba_marseille","lat":43.28664,"lon":5.363544,"is_reserved":false,"is_disabled":false,"rental_uris":{"android":"levelo://app?vid=a0d88737-c6da-4c3a-b384-e15f59c2346a","ios":"levelo://app?vid=a0d88737-c6da-4c3a-b384-e15f59c2346a"},"vehicle_type_id":"4","last_reported":1760835427,"current_range_meters":16800,"station_id":"ce4bhah2rcd13ifvqej0","pricing_plan_id":"cebpf4jnsgd1na2vs0mg"},{"bike_id":"9ef55a12-0368-4b91-a372-aa4bc05cd8f3","system_id":"levelo_inurba_marseille","lat":43.265608,"lon":5.372713,"is_reserved":false,"is_disabled":false,"rental_uris":{"android":"levelo://app?vid=9ef55a12-0368-4b91-a372-aa4bc05cd8f3","ios":"levelo://app?vid=9ef55a12-0368-4b91-a372-aa4bc05cd8f3"},"vehicle_type_id":"4","last_reported":1760835427,"current_range_meters":16800,"station_id":"ce4bhg12rcd13ifvqf70","pricing_plan_id":"cebpf4jnsgd1na2vs0mg"},{"bike_id":"d1668fd5-d05d-42a9-b5d1-4388db8ac6a3","system_id":"levelo_inurba_marseille","lat":43.31764,"lon":5.39029,"is_reserved":false,"is_disabled":false,"rental_uris":{"android":"levelo://app?vid=d1668fd5-d05d-42a9-b5d1-4388db8ac6a3","ios":"levelo://app?vid=d1668fd5-d05d-42a9-b5d1-4388db8ac6a3"},"vehicle_type_id":"4","last_reported":1760835427,"current_range_meters":16800,"station_id":"ce4bhqp2rcd13ifvqhng","pricing_plan_id":"cebpf4jnsgd1na2vs0mg"},{"bike_id":"e32345b2-42c8-49e5-9197-90b6d021e018","system_id":"levelo_inurba_marseille","lat":43.2872,"lon":5.37944,"is_reserved":false,"is_disabled":false,"rental_uris":{"android":"levelo://app?vid=e32345b2-42c8-49e5-9197-90b6d021e018","ios":"levelo://app?vid=e32345b2-42c8-49e5-9197-90b6d021e018"},"vehicle_type_id":"4","last_reported":1760835427,"current_range_meters":17200,"station_id":"ce4bh9p2rcd13ifvqec0","pricing_plan_id":"cebpf4jnsgd1na2vs0mg"},{"bike_id":"c22e92c8-3fe0-4c56-ab21-210e12f7f0b4","system_id":"levelo_inurba_marseille","lat":43.31946,"lon":5.41522,"is_reserved":false,"is_disabled":false,"rental_uris":{"android":"levelo://app?vid=c22e92c8-3fe0-4c56-ab21-210e12f7f0b4","ios":"levelo://app?vid=c22e92c8-3fe0-4c56-ab21-210e12f7f0b4"},"vehicle_type_id":"4","last_reported":1760835427,"current_range_meters":17200,"station_id":"","pricing_plan_id":"cebpf4jnsgd1na2vs0mg"},{"bike_id":"4bbd6801-e86f-4670-a08c-5a08e1dabb92","system_id":"levelo_inurba_marseille","lat":43.292509,"lon":5.38401,"is_reserved":false,"is_disabled":false,"rental_uris":{"android":"levelo://app?vid=4bbd6801-e86f-4670-a08c-5a08e1dabb92","ios":"levelo://app?vid=4bbd6801-e86f-4670-a08c-5a08e1dabb92"},"vehicle_type_id":"4","last_reported":1760835427,"current_range_meters":17200,"station_id":"ce4bh692rcd13ifvqea0","pricing_plan_id":"cebpf4jnsgd1na2vs0mg"},{"bike_id":"9652283e-21f4-4490-ac9e-ffa9429f0005","system_id":"levelo_inurba_marseille","lat":43.29027,"lon":5.40443,"is_reserved":false,"is_disabled":false,"rental_uris":{"android":"levelo://app?vid=9652283e-21f4-4490-ac9e-ffa9429f0005","ios":"levelo://app?vid=9652283e-21f4-4490-ac9e-ffa9429f0005"},"vehicle_type_id":"4","last_reported":1760835427,"current_range_meters":17200,"station_id":"","pricing_plan_id":"cebpf4jnsgd1na2vs0mg"},{"bike_id":"1dc63817-9625-4a50-a558-885b6834e4c5","system_id":"levelo_inurba_marseille","lat":43.305389,"lon":5.384347,"is_reserved":false,"is_disabled":false,"rental_uris":{"android":"levelo://app?vid=1dc63817-9625-4a50-a558-885b6834e4c5","ios":"levelo://app?vid=1dc63817-9625-4a50-a558-885b6834e4c5"},"vehicle_type_id":"4","last_reported":1760835427,"current_range_meters":17200,"station_id":"ce4bgg92rcd13ifvqb30","pricing_plan_id":"cebpf4jnsgd1na2vs0mg"},{"bike_id":"277cd890-5072-494a-b427-d59bcd47d859","system_id":"levelo_inurba_marseille","lat":43.24654,"lon":5.388927,"is_reserved":false,"is_disabled":false,"rental_uris":{"android":"levelo://app?vid=277cd890-5072-494a-b427-d59bcd47d859","ios":"levelo://app?vid=277cd890-5072-494a-b427-d59bcd47d859"},"vehicle_type_id":"4","last_reported":1760835427,"current_range_meters":17200,"station_id":"ce4bhg12rcd13ifvqf60","pricing_plan_id":"cebpf4jnsgd1na2vs0mg"},{"bike_id":"28036086-9fc0-4694-90bd-3af15535beb3","system_id":"levelo_inurba_marseille","lat":43.298536,"lon":5.362591,"is_reserved":false,"is_disabled":true,"rental_uris":{"android":"levelo://app?vid=28036086-9fc0-4694-90bd-3af15535beb3","ios":"levelo://app?vid=28036086-9fc0-4694-90bd-3af15535beb3"},"vehicle_type_id":"4","last_reported":1760835427,"current_range_meters":17200,"station_id":"ce4bgpp2rcd13ifvqc3g","pricing_plan_id":"cebpf4jnsgd1na2vs0mg"},{"bike_id":"3281eb69-9f14-48d9-a8af-bd1dbcbd3dc6","system_id":"levelo_inurba_marseille","lat":43.32493,"lon":5.36562,"is_reserved":false,"is_disabled":false,"rental_uris":{"android":"levelo://app?vid=3281eb69-9f14-48d9-a8af-bd1dbcbd3dc6","ios":"levelo://app?vid=3281eb69-9f14-48d9-a8af-bd1dbcbd3dc6"},"vehicle_type_id":"4","last_reported":1760835427,"current_range_meters":17200,"station_id":"ce4bhs12rcd13ifvqhvg","pricing_plan_id":"cebpf4jnsgd1na2vs0mg"},{"bike_id":"5a35347d-1dbb-434c-8651-0148cd77cd1e","system_id":"levelo_inurba_marseille","lat":43.31538,"lon":5.38736,"is_reserved":false,"is_disabled":false,"rental_uris":{"android":"levelo://app?vid=5a35347d-1dbb-434c-8651-0148cd77cd1e","ios":"levelo://app?vid=5a35347d-1dbb-434c-8651-0148cd77cd1e"},"vehicle_type_id":"4","last_reported":1760835427,"current_range_meters":17200,"station_id":"","pricing_plan_id":"cebpf4jnsgd1na2vs0mg"},{"bike_id":"f1b8e04f-457e-461e-a0a7-0d512845fe50","system_id":"levelo_inurba_marseille","lat":43.33354,"lon":5.39859,"is_reserved":false,"is_disabled":false,"rental_uris":{"android":"levelo://app?vid=f1b8e04f-457e-461e-a0a7-0d512845fe50","ios":"levelo://app?vid=f1b8e04f-457e-461e-a0a7-0d512845fe50"},"vehicle_type_id":"4","last_reported":1760835427,"current_range_meters":17200,"station_id":"","pricing_plan_id":"cebpf4jnsgd1na2vs0mg"},{"bike_id":"a5fc564a-c489-40d8-a469-6e76c4119dc1","system_id":"levelo_inurba_marseille","lat":43.28669,"lon":5.36338,"is_reserved":false,"is_disabled":false,"rental_uris":{"android":"levelo://app?vid=a5fc564a-c489-40d8-a469-6e76c4119dc1","ios":"levelo://app?vid=a5fc564a-c489-40d8-a469-6e76c4119dc1"},"vehicle_type_id":"4","last_reported":1760835427,"current_range_meters":17200,"station_id":"ce4bhah2rcd13ifvqej0","pricing_plan_id":"cebpf4jnsgd1na2vs0mg"},{"bike_id":"bb79989d-871e-48b8-a3e7-7a297a28b04c","system_id":"levelo_inurba_marseille","lat":43.281524,"lon":5.351267,"is_reserved":false,"is_disabled":false,"rental_uris":{"android":"levelo://app?vid=bb79989d-871e-48b8-a3e7-7a297a28b04c","ios":"levelo://app?vid=bb79989d-871e-48b8-a3e7-7a297a28b04c"},"vehicle_type_id":"4","last_reported":1760835427,"current_range_meters":17600,"station_id":"","pricing_plan_id":"cebpf4jnsgd1na2vs0mg"},{"bike_id":"bf40278b-4bc5-4d5b-be65-c18872b0fe60","system_id":"levelo_inurba_marseille","lat":43.21196,"lon":5.350806,"is_reserved":false,"is_disabled":false,"rental_uris":{"android":"levelo://app?vid=bf40278b-4bc5-4d5b-be65-c18872b0fe60","ios":"levelo://app?vid=bf40278b-4bc5-4d5b-be65-c18872b0fe60"},"vehicle_type_id":"4","last_reported":1760835427,"current_range_meters":17600,"station_id":"st_cvj6sg6p6f1abm77japg","pricing_plan_id":"cebpf4jnsgd1na2vs0mg"},{"bike_id":"0a950a0d-01ce-40b2-be0e-ad7894fd72f2","system_id":"levelo_inurba_marseille","lat":43.32101,"lon":5.36755,"is_reserved":false,"is_disabled":true,"rental_uris":{"android":"levelo://app?vid=0a950a0d-01ce-40b2-be0e-ad7894fd72f2","ios":"levelo://app?vid=0a950a0d-01ce-40b2-be0e-ad7894fd72f2"},"vehicle_type_id":"4","last_reported":1760835427,"current_range_meters":17600,"station_id":"ce4bhrh2rcd13ifvqhug","pricing_plan_id":"cebpf4jnsgd1na2vs0mg"},{"bike_id":"3f8b6da1-a84d-47db-a7a0-078125906e09","system_id":"levelo_inurba_marseille","lat":43.308022,"lon":5.381475,"is_reserved":false,"is_disabled":false,"rental_uris":{"android":"levelo://app?vid=3f8b6da1-a84d-47db-a7a0-078125906e09","ios":"levelo://app?vid=3f8b6da1-a84d-47db-a7a0-078125906e09"},"vehicle_type_id":"4","last_reported":1760835427,"current_range_meters":17600,"station_id":"ce4bgt12rcd13ifvqce0","pricing_plan_id":"cebpf4jnsgd1na2vs0mg"},{"bike_id":"c1797d73-9a57-4ace-9913-3d5292c80a81","system_id":"levelo_inurba_marseille","lat":43.30321,"lon":5.40437,"is_reserved":false,"is_disabled":false,"rental_uris":{"android":"levelo://app?vid=c1797d73-9a57-4ace-9913-3d5292c80a81","ios":"levelo://app?vid=c1797d73-9a57-4ace-9913-3d5292c80a81"},"vehicle_type_id":"4","last_reported":1760835427,"current_range_meters":17600,"station_id":"ce4bh012rcd13ifvqd10","pricing_plan_id":"cebpf4jnsgd1na2vs0mg"},{"bike_id":"8c370b85-7300-4952-bf71-08899ecc1fd7","system_id":"levelo_inurba_marseille","lat":43.3108,"lon":5.38346,"is_reserved":false,"is_disabled":false,"rental_uris":{"android":"levelo://app?vid=8c370b85-7300-4952-bf71-08899ecc1fd7","ios":"levelo://app?vid=8c370b85-7300-4952-bf71-08899ecc1fd7"},"vehicle_type_id":"4","last_reported":1760835427,"current_range_meters":17600,"station_id":"ce4bgv92rcd13ifvqcr0","pricing_plan_id":"cebpf4jnsgd1na2vs0mg"},{"bike_id":"dffeadd6-2d96-439b-88a8-c779237712df","system_id":"levelo_inurba_marseille","lat":43.313636,"lon":5.38491,"is_reserved":false,"is_disabled":false,"rental_uris":{"android":"levelo://app?vid=dffeadd6-2d96-439b-88a8-c779237712df","ios":"levelo://app?vid=dffeadd6-2d96-439b-88a8-c779237712df"},"vehicle_type_id":"4","last_reported":1760835427,"current_range_meters":17600,"station_id":"ce4bgt92rcd13ifvqcf0","pricing_plan_id":"cebpf4jnsgd1na2vs0mg"},{"bike_id":"e6a7d054-152f-48ef-adea-b2903c04274b","system_id":"levelo_inurba_marseille","lat":43.31056,"lon":5.38339,"is_reserved":false,"is_disabled":false,"rental_uris":{"android":"levelo://app?vid=e6a7d054-152f-48ef-adea-b2903c04274b","ios":"levelo://app?vid=e6a7d054-152f-48ef-adea-b2903c04274b"},"vehicle_type_id":"4","last_reported":1760835427,"current_range_meters":17600,"station_id":"ce4bgv92rcd13ifvqcr0","pricing_plan_id":"cebpf4jnsgd1na2vs0mg"},{"bike_id":"5bd9155f-156c-49c8-8b0f-833732c1c592","system_id":"levelo_inurba_marseille","lat":43.28532,"lon":5.44086,"is_reserved":false,"is_disabled":false,"rental_uris":{"android":"levelo://app?vid=5bd9155f-156c-49c8-8b0f-833732c1c592","ios":"levelo://app?vid=5bd9155f-156c-49c8-8b0f-833732c1c592"},"vehicle_type_id":"4","last_reported":1760835427,"current_range_meters":18000,"station_id":"st_d3j3df2ikq2c7380ej80","pricing_plan_id":"cebpf4jnsgd1na2vs0mg"},{"bike_id":"975218b1-0233-42f1-9373-40d58585c2f5","system_id":"levelo_inurba_marseille","lat":43.31366,"lon":5.385,"is_reserved":false,"is_disabled":false,"rental_uris":{"android":"levelo://app?vid=975218b1-0233-42f1-9373-40d58585c2f5","ios":"levelo://app?vid=975218b1-0233-42f1-9373-40d58585c2f5"},"vehicle_type_id":"4","last_reported":1760835427,"current_range_meters":18000,"station_id":"ce4bgt92rcd13ifvqcf0","pricing_plan_id":"cebpf4jnsgd1na2vs0mg"},{"bike_id":"eafa47cd-6d9d-48b6-82c9-fd1faafc04d5","system_id":"levelo_inurba_marseille","lat":43.289086,"lon":5.395713,"is_reserved":false,"is_disabled":false,"rental_uris":{"android":"levelo://app?vid=eafa47cd-6d9d-48b6-82c9-fd1faafc04d5","ios":"levelo://app?vid=eafa47cd-6d9d-48b6-82c9-fd1faafc04d5"},"vehicle_type_id":"4","last_reported":1760835427,"current_range_meters":18000,"station_id":"ce4bh3h2rcd13ifvqdn0","pricing_plan_id":"cebpf4jnsgd1na2vs0mg"},{"bike_id":"09c5c7ea-a1e5-441e-9d28-941694561539","system_id":"levelo_inurba_marseille","lat":43.31168,"lon":5.38707,"is_reserved":false,"is_disabled":false,"rental_uris":{"android":"levelo://app?vid=09c5c7ea-a1e5-441e-9d28-941694561539","ios":"levelo://app?vid=09c5c7ea-a1e5-441e-9d28-941694561539"},"vehicle_type_id":"4","last_reported":1760835427,"current_range_meters":18000,"station_id":"ce4bgv12rcd13ifvqcp0","pricing_plan_id":"cebpf4jnsgd1na2vs0mg"},{"bike_id":"0efdc4b6-faae-410e-a01e-42fe021ab326","system_id":"levelo_inurba_marseille","lat":43.29189,"lon":5.39315,"is_reserved":false,"is_disabled":false,"rental_uris":{"android":"levelo://app?vid=0efdc4b6-faae-410e-a01e-42fe021ab326","ios":"levelo://app?vid=0efdc4b6-faae-410e-a01e-42fe021ab326"},"vehicle_type_id":"4","last_reported":1760835427,"current_range_meters":18000,"station_id":"ce4bh192rcd13ifvqdd0","pricing_plan_id":"cebpf4jnsgd1na2vs0mg"},{"bike_id":"62a2917a-11f1-4065-bafc-67f0f75ed065","system_id":"levelo_inurba_marseille","lat":43.313259,"lon":5.397094,"is_reserved":false,"is_disabled":false,"rental_uris":{"android":"levelo://app?vid=62a2917a-11f1-4065-bafc-67f0f75ed065","ios":"levelo://app?vid=62a2917a-11f1-4065-bafc-67f0f75ed065"},"vehicle_type_id":"4","last_reported":1760835427,"current_range_meters":18000,"station_id":"ce4bgvp2rcd13ifvqcu0","pricing_plan_id":"cebpf4jnsgd1na2vs0mg"},{"bike_id":"97a25565-1b10-4f35-b628-2f1e29f6d82b","system_id":"levelo_inurba_marseille","lat":43.29194,"lon":5.3932,"is_reserved":false,"is_disabled":false,"rental_uris":{"android":"levelo://app?vid=97a25565-1b10-4f35-b628-2f1e29f6d82b","ios":"levelo://app?vid=97a25565-1b10-4f35-b628-2f1e29f6d82b"},"vehicle_type_id":"4","last_reported":1760835427,"current_range_meters":18000,"station_id":"ce4bh192rcd13ifvqdd0","pricing_plan_id":"cebpf4jnsgd1na2vs0mg"},{"bike_id":"3d63e49a-c19e-4e35-b1c1-ade838826064","system_id":"levelo_inurba_marseille","lat":43.30548,"lon":5.38425,"is_reserved":false,"is_disabled":false,"rental_uris":{"android":"levelo://app?vid=3d63e49a-c19e-4e35-b1c1-ade838826064","ios":"levelo://app?vid=3d63e49a-c19e-4e35-b1c1-ade838826064"},"vehicle_type_id":"4","last_reported":1760835427,"current_range_meters":18000,"station_id":"ce4bgg92rcd13ifvqb30","pricing_plan_id":"cebpf4jnsgd1na2vs0mg"},{"bike_id":"605c8a23-7906-4fb2-9c0a-c6590810f681","system_id":"levelo_inurba_marseille","lat":43.24179,"lon":5.36389,"is_reserved":false,"is_disabled":false,"rental_uris":{"android":"levelo://app?vid=605c8a23-7906-4fb2-9c0a-c6590810f681","ios":"levelo://app?vid=605c8a23-7906-4fb2-9c0a-c6590810f681"},"vehicle_type_id":"4","last_reported":1760835427,"current_range_meters":18000,"station_id":"cpo36qri1sfpv3e86is0","pricing_plan_id":"cebpf4jnsgd1na2vs0mg"},{"bike_id":"da22a6bb-ece8-4168-87fa-39fdca8adc0a","system_id":"levelo_inurba_marseille","lat":43.248064,"lon":5.374574,"is_reserved":false,"is_disabled":false,"rental_uris":{"android":"levelo://app?vid=da22a6bb-ece8-4168-87fa-39fdca8adc0a","ios":"levelo://app?vid=da22a6bb-ece8-4168-87fa-39fdca8adc0a"},"vehicle_type_id":"4","last_reported":1760835427,"current_range_meters":18000,"station_id":"ce4bhgh2rcd13ifvqfb0","pricing_plan_id":"cebpf4jnsgd1na2vs0mg"},{"bike_id":"311d5b6a-2a78-40fa-b6b0-f5fc46e36810","system_id":"levelo_inurba_marseille","lat":43.28817,"lon":5.35842,"is_reserved":false,"is_disabled":false,"rental_uris":{"android":"levelo://app?vid=311d5b6a-2a78-40fa-b6b0-f5fc46e36810","ios":"levelo://app?vid=311d5b6a-2a78-40fa-b6b0-f5fc46e36810"},"vehicle_type_id":"4","last_reported":1760835427,"current_range_meters":18800,"station_id":"ce4bhb12rcd13ifvqem0","pricing_plan_id":"cebpf4jnsgd1na2vs0mg"},{"bike_id":"88979df4-35e0-4f2c-b685-7ddc1720b501","system_id":"levelo_inurba_marseille","lat":43.26592,"lon":5.39042,"is_reserved":false,"is_disabled":false,"rental_uris":{"android":"levelo://app?vid=88979df4-35e0-4f2c-b685-7ddc1720b501","ios":"levelo://app?vid=88979df4-35e0-4f2c-b685-7ddc1720b501"},"vehicle_type_id":"4","last_reported":1760835427,"current_range_meters":18800,"station_id":"ce4bhe12rcd13ifvqf30","pricing_plan_id":"cebpf4jnsgd1na2vs0mg"},{"bike_id":"f88329a3-2574-4585-8472-d2ab176b0327","system_id":"levelo_inurba_marseille","lat":43.31355,"lon":5.38467,"is_reserved":false,"is_disabled":false,"rental_uris":{"android":"levelo://app?vid=f88329a3-2574-4585-8472-d2ab176b0327","ios":"levelo://app?vid=f88329a3-2574-4585-8472-d2ab176b0327"},"vehicle_type_id":"4","last_reported":1760835427,"current_range_meters":18800,"station_id":"ce4bgt92rcd13ifvqcf0","pricing_plan_id":"cebpf4jnsgd1na2vs0mg"},{"bike_id":"c530e950-50a8-4b2f-81e6-a5f7e6f752e8","system_id":"levelo_inurba_marseille","lat":43.33759,"lon":5.37473,"is_reserved":false,"is_disabled":false,"rental_uris":{"android":"levelo://app?vid=c530e950-50a8-4b2f-81e6-a5f7e6f752e8","ios":"levelo://app?vid=c530e950-50a8-4b2f-81e6-a5f7e6f752e8"},"vehicle_type_id":"4","last_reported":1760835427,"current_range_meters":19200,"station_id":"","pricing_plan_id":"cebpf4jnsgd1na2vs0mg"},{"bike_id":"14b61eee-06ce-44bc-a99e-8bf0c35b7935","system_id":"levelo_inurba_marseille","lat":43.251212,"lon":5.403079,"is_reserved":false,"is_disabled":false,"rental_uris":{"android":"levelo://app?vid=14b61eee-06ce-44bc-a99e-8bf0c35b7935","ios":"levelo://app?vid=14b61eee-06ce-44bc-a99e-8bf0c35b7935"},"vehicle_type_id":"4","last_reported":1760835427,"current_range_meters":19200,"station_id":"ce4bhlh2rcd13ifvqgig","pricing_plan_id":"cebpf4jnsgd1na2vs0mg"},{"bike_id":"826fa334-c996-4a7a-bf5e-f56d530c0f99","system_id":"levelo_inurba_marseille","lat":43.28266,"lon":5.35058,"is_reserved":false,"is_disabled":false,"rental_uris":{"android":"levelo://app?vid=826fa334-c996-4a7a-bf5e-f56d530c0f99","ios":"levelo://app?vid=826fa334-c996-4a7a-bf5e-f56d530c0f99"},"vehicle_type_id":"4","last_reported":1760835427,"current_range_meters":19200,"station_id":"ce4bhbp2rcd13ifvqerg","pricing_plan_id":"cebpf4jnsgd1na2vs0mg"},{"bike_id":"ea0f0171-e08e-45aa-9c22-9d634a6028b5","system_id":"levelo_inurba_marseille","lat":43.28828,"lon":5.35852,"is_reserved":false,"is_disabled":false,"rental_uris":{"android":"levelo://app?vid=ea0f0171-e08e-45aa-9c22-9d634a6028b5","ios":"levelo://app?vid=ea0f0171-e08e-45aa-9c22-9d634a6028b5"},"vehicle_type_id":"4","last_reported":1760835427,"current_range_meters":19200,"station_id":"ce4bhb12rcd13ifvqem0","pricing_plan_id":"cebpf4jnsgd1na2vs0mg"},{"bike_id":"c24d670f-5fed-45a5-a99b-38e89d6542f0","system_id":"levelo_inurba_marseille","lat":43.289391,"lon":5.396255,"is_reserved":false,"is_disabled":false,"rental_uris":{"android":"levelo://app?vid=c24d670f-5fed-45a5-a99b-38e89d6542f0","ios":"levelo://app?vid=c24d670f-5fed-45a5-a99b-38e89d6542f0"},"vehicle_type_id":"4","last_reported":1760835427,"current_range_meters":19200,"station_id":"ce4bh3h2rcd13ifvqdn0","pricing_plan_id":"cebpf4jnsgd1na2vs0mg"},{"bike_id":"7bb095eb-9c08-4082-b40c-079d9d684ec1","system_id":"levelo_inurba_marseille","lat":43.28708,"lon":5.374,"is_reserved":false,"is_disabled":false,"rental_uris":{"android":"levelo://app?vid=7bb095eb-9c08-4082-b40c-079d9d684ec1","ios":"levelo://app?vid=7bb095eb-9c08-4082-b40c-079d9d684ec1"},"vehicle_type_id":"4","last_reported":1760835427,"current_range_meters":19200,"station_id":"ce4bh3p2rcd13ifvqdq0","pricing_plan_id":"cebpf4jnsgd1na2vs0mg"},{"bike_id":"443fc992-bd8f-4e48-89c4-ef1795929a1e","system_id":"levelo_inurba_marseille","lat":43.31365,"lon":5.38493,"is_reserved":false,"is_disabled":false,"rental_uris":{"android":"levelo://app?vid=443fc992-bd8f-4e48-89c4-ef1795929a1e","ios":"levelo://app?vid=443fc992-bd8f-4e48-89c4-ef1795929a1e"},"vehicle_type_id":"4","last_reported":1760835427,"current_range_meters":19600,"station_id":"ce4bgt92rcd13ifvqcf0","pricing_plan_id":"cebpf4jnsgd1na2vs0mg"},{"bike_id":"47ad36fc-1d6b-4faa-b0d4-aea7afc16122","system_id":"levelo_inurba_marseille","lat":43.30929,"lon":5.40152,"is_reserved":false,"is_disabled":false,"rental_uris":{"android":"levelo://app?vid=47ad36fc-1d6b-4faa-b0d4-aea7afc16122","ios":"levelo://app?vid=47ad36fc-1d6b-4faa-b0d4-aea7afc16122"},"vehicle_type_id":"4","last_reported":1760835427,"current_range_meters":19600,"station_id":"ce4bgvp2rcd13ifvqct0","pricing_plan_id":"cebpf4jnsgd1na2vs0mg"},{"bike_id":"8f5b4e3f-d0c8-438b-955e-3fd6c08bc9d3","system_id":"levelo_inurba_marseille","lat":43.241735,"lon":5.363907,"is_reserved":false,"is_disabled":false,"rental_uris":{"android":"levelo://app?vid=8f5b4e3f-d0c8-438b-955e-3fd6c08bc9d3","ios":"levelo://app?vid=8f5b4e3f-d0c8-438b-955e-3fd6c08bc9d3"},"vehicle_type_id":"4","last_reported":1760835427,"current_range_meters":19600,"station_id":"cpo36qri1sfpv3e86is0","pricing_plan_id":"cebpf4jnsgd1na2vs0mg"},{"bike_id":"7aae7eeb-ada1-48a3-8415-9b13ecbae171","system_id":"levelo_inurba_marseille","lat":43.25102,"lon":5.40324,"is_reserved":false,"is_disabled":false,"rental_uris":{"android":"levelo://app?vid=7aae7eeb-ada1-48a3-8415-9b13ecbae171","ios":"levelo://app?vid=7aae7eeb-ada1-48a3-8415-9b13ecbae171"},"vehicle_type_id":"4","last_reported":1760835427,"current_range_meters":19600,"station_id":"ce4bhlh2rcd13ifvqgig","pricing_plan_id":"cebpf4jnsgd1na2vs0mg"},{"bike_id":"a421a116-6856-409a-900b-89f121e7c47c","system_id":"levelo_inurba_marseille","lat":43.3105,"lon":5.40077,"is_reserved":false,"is_disabled":false,"rental_uris":{"android":"levelo://app?vid=a421a116-6856-409a-900b-89f121e7c47c","ios":"levelo://app?vid=a421a116-6856-409a-900b-89f121e7c47c"},"vehicle_type_id":"4","last_reported":1760835427,"current_range_meters":19600,"station_id":"","pricing_plan_id":"cebpf4jnsgd1na2vs0mg"},{"bike_id":"94c51fff-9dee-4eea-bbd8-6e1a11e313f7","system_id":"levelo_inurba_marseille","lat":43.28456,"lon":5.35903,"is_reserved":false,"is_disabled":false,"rental_uris":{"android":"levelo://app?vid=94c51fff-9dee-4eea-bbd8-6e1a11e313f7","ios":"levelo://app?vid=94c51fff-9dee-4eea-bbd8-6e1a11e313f7"},"vehicle_type_id":"4","last_reported":1760835427,"current_range_meters":19600,"station_id":"ce4bhah2rcd13ifvqei0","pricing_plan_id":"cebpf4jnsgd1na2vs0mg"},{"bike_id":"000ffae2-734f-491c-adc2-b06d24d3f805","system_id":"levelo_inurba_marseille","lat":43.29625,"lon":5.40592,"is_reserved":false,"is_disabled":false,"rental_uris":{"android":"levelo://app?vid=000ffae2-734f-491c-adc2-b06d24d3f805","ios":"levelo://app?vid=000ffae2-734f-491c-adc2-b06d24d3f805"},"vehicle_type_id":"4","last_reported":1760835427,"current_range_meters":19600,"station_id":"ce4bh0h2rcd13ifvqd60","pricing_plan_id":"cebpf4jnsgd1na2vs0mg"},{"bike_id":"e343fae2-abdd-419f-add3-4252cf1a7c5a","system_id":"levelo_inurba_marseille","lat":43.30482,"lon":5.40078,"is_reserved":false,"is_disabled":false,"rental_uris":{"android":"levelo://app?vid=e343fae2-abdd-419f-add3-4252cf1a7c5a","ios":"levelo://app?vid=e343fae2-abdd-419f-add3-4252cf1a7c5a"},"vehicle_type_id":"4","last_reported":1760835427,"current_range_meters":19600,"station_id":"","pricing_plan_id":"cebpf4jnsgd1na2vs0mg"},{"bike_id":"27b5581b-44ff-4718-b758-98465db337b8","system_id":"levelo_inurba_marseille","lat":43.30888,"lon":5.39647,"is_reserved":false,"is_disabled":false,"rental_uris":{"android":"levelo://app?vid=27b5581b-44ff-4718-b758-98465db337b8","ios":"levelo://app?vid=27b5581b-44ff-4718-b758-98465db337b8"},"vehicle_type_id":"4","last_reported":1760835427,"current_range_meters":19600,"station_id":"ce4bh012rcd13ifvqcv0","pricing_plan_id":"cebpf4jnsgd1na2vs0mg"},{"bike_id":"7c9134d6-f24d-43fc-b5dd-c553a4300356","system_id":"levelo_inurba_marseille","lat":43.2861,"lon":5.37064,"is_reserved":false,"is_disabled":true,"rental_uris":{"android":"levelo://app?vid=7c9134d6-f24d-43fc-b5dd-c553a4300356","ios":"levelo://app?vid=7c9134d6-f24d-43fc-b5dd-c553a4300356"},"vehicle_type_id":"4","last_reported":1760835427,"current_range_meters":19600,"station_id":"ce4bht12rcd13ifvqi60","pricing_plan_id":"cebpf4jnsgd1na2vs0mg"},{"bike_id":"78b3bdff-c8c8-4550-9ff0-18c632b07088","system_id":"levelo_inurba_marseille","lat":43.31548,"lon":5.38014,"is_reserved":false,"is_disabled":false,"rental_uris":{"android":"levelo://app?vid=78b3bdff-c8c8-4550-9ff0-18c632b07088","ios":"levelo://app?vid=78b3bdff-c8c8-4550-9ff0-18c632b07088"},"vehicle_type_id":"4","last_reported":1760835427,"current_range_meters":20000,"station_id":"ce4bhsp2rcd13ifvqi50","pricing_plan_id":"cebpf4jnsgd1na2vs0mg"},{"bike_id":"0000b6d3-e83a-4149-90d5-c0999f573ff8","system_id":"levelo_inurba_marseille","lat":43.321107,"lon":5.367804,"is_reserved":false,"is_disabled":false,"rental_uris":{"android":"levelo://app?vid=0000b6d3-e83a-4149-90d5-c0999f573ff8","ios":"levelo://app?vid=0000b6d3-e83a-4149-90d5-c0999f573ff8"},"vehicle_type_id":"4","last_reported":1760835427,"current_range_meters":20000,"station_id":"ce4bhrh2rcd13ifvqhug","pricing_plan_id":"cebpf4jnsgd1na2vs0mg"},{"bike_id":"bb211116-29a7-4e48-93ed-d4ab1a1c4665","system_id":"levelo_inurba_marseille","lat":43.25877,"lon":5.40941,"is_reserved":false,"is_disabled":false,"rental_uris":{"android":"levelo://app?vid=bb211116-29a7-4e48-93ed-d4ab1a1c4665","ios":"levelo://app?vid=bb211116-29a7-4e48-93ed-d4ab1a1c4665"},"vehicle_type_id":"4","last_reported":1760835427,"current_range_meters":20000,"station_id":"","pricing_plan_id":"cebpf4jnsgd1na2vs0mg"},{"bike_id":"348ab8cc-81cc-4702-b12d-7027572c1935","system_id":"levelo_inurba_marseille","lat":43.2738,"lon":5.36246,"is_reserved":false,"is_disabled":true,"rental_uris":{"android":"levelo://app?vid=348ab8cc-81cc-4702-b12d-7027572c1935","ios":"levelo://app?vid=348ab8cc-81cc-4702-b12d-7027572c1935"},"vehicle_type_id":"4","last_reported":1760835427,"current_range_meters":20000,"station_id":"ce4bhbh2rcd13ifvqeo0","pricing_plan_id":"cebpf4jnsgd1na2vs0mg"},{"bike_id":"dbeec6d4-9318-4fc0-90fe-b1e41aca15f7","system_id":"levelo_inurba_marseille","lat":43.30929,"lon":5.40145,"is_reserved":false,"is_disabled":false,"rental_uris":{"android":"levelo://app?vid=dbeec6d4-9318-4fc0-90fe-b1e41aca15f7","ios":"levelo://app?vid=dbeec6d4-9318-4fc0-90fe-b1e41aca15f7"},"vehicle_type_id":"4","last_reported":1760835427,"current_range_meters":20000,"station_id":"ce4bgvp2rcd13ifvqct0","pricing_plan_id":"cebpf4jnsgd1na2vs0mg"},{"bike_id":"c93b1ab0-e7d1-4294-b991-90a54d111ca2","system_id":"levelo_inurba_marseille","lat":43.26566,"lon":5.39014,"is_reserved":false,"is_disabled":false,"rental_uris":{"android":"levelo://app?vid=c93b1ab0-e7d1-4294-b991-90a54d111ca2","ios":"levelo://app?vid=c93b1ab0-e7d1-4294-b991-90a54d111ca2"},"vehicle_type_id":"4","last_reported":1760835427,"current_range_meters":20000,"station_id":"ce4bhe12rcd13ifvqf30","pricing_plan_id":"cebpf4jnsgd1na2vs0mg"},{"bike_id":"02866ecb-08af-4678-8d7d-bb9c0ec58e35","system_id":"levelo_inurba_marseille","lat":43.31387,"lon":5.38457,"is_reserved":false,"is_disabled":false,"rental_uris":{"android":"levelo://app?vid=02866ecb-08af-4678-8d7d-bb9c0ec58e35","ios":"levelo://app?vid=02866ecb-08af-4678-8d7d-bb9c0ec58e35"},"vehicle_type_id":"4","last_reported":1760835427,"current_range_meters":20000,"station_id":"ce4bgt92rcd13ifvqcf0","pricing_plan_id":"cebpf4jnsgd1na2vs0mg"},{"bike_id":"554953b6-de25-4aa6-9f05-ef7f55b390ea","system_id":"levelo_inurba_marseille","lat":43.29267,"lon":5.384284,"is_reserved":false,"is_disabled":false,"rental_uris":{"android":"levelo://app?vid=554953b6-de25-4aa6-9f05-ef7f55b390ea","ios":"levelo://app?vid=554953b6-de25-4aa6-9f05-ef7f55b390ea"},"vehicle_type_id":"4","last_reported":1760835427,"current_range_meters":20400,"station_id":"","pricing_plan_id":"cebpf4jnsgd1na2vs0mg"},{"bike_id":"21bff9ff-9ccc-4c80-8cda-4ee2b9c15949","system_id":"levelo_inurba_marseille","lat":43.28441,"lon":5.39194,"is_reserved":false,"is_disabled":false,"rental_uris":{"android":"levelo://app?vid=21bff9ff-9ccc-4c80-8cda-4ee2b9c15949","ios":"levelo://app?vid=21bff9ff-9ccc-4c80-8cda-4ee2b9c15949"},"vehicle_type_id":"4","last_reported":1760835427,"current_range_meters":20400,"station_id":"ce4bhoh2rcd13ifvqh5g","pricing_plan_id":"cebpf4jnsgd1na2vs0mg"},{"bike_id":"5aaf4735-cb3d-4d3c-b922-9654de2ca31c","system_id":"levelo_inurba_marseille","lat":43.281028,"lon":5.378423,"is_reserved":false,"is_disabled":false,"rental_uris":{"android":"levelo://app?vid=5aaf4735-cb3d-4d3c-b922-9654de2ca31c","ios":"levelo://app?vid=5aaf4735-cb3d-4d3c-b922-9654de2ca31c"},"vehicle_type_id":"4","last_reported":1760835427,"current_range_meters":20400,"station_id":"ce4bha12rcd13ifvqee0","pricing_plan_id":"cebpf4jnsgd1na2vs0mg"},{"bike_id":"7b337a6b-60f1-4325-85d3-02c30c39d179","system_id":"levelo_inurba_marseille","lat":43.29196,"lon":5.3931,"is_reserved":false,"is_disabled":false,"rental_uris":{"android":"levelo://app?vid=7b337a6b-60f1-4325-85d3-02c30c39d179","ios":"levelo://app?vid=7b337a6b-60f1-4325-85d3-02c30c39d179"},"vehicle_type_id":"4","last_reported":1760835427,"current_range_meters":20400,"station_id":"ce4bh192rcd13ifvqdd0","pricing_plan_id":"cebpf4jnsgd1na2vs0mg"},{"bike_id":"e8d6df50-48e8-4bce-b72b-a72caf55615c","system_id":"levelo_inurba_marseille","lat":43.31277,"lon":5.40156,"is_reserved":false,"is_disabled":false,"rental_uris":{"android":"levelo://app?vid=e8d6df50-48e8-4bce-b72b-a72caf55615c","ios":"levelo://app?vid=e8d6df50-48e8-4bce-b72b-a72caf55615c"},"vehicle_type_id":"4","last_reported":1760835427,"current_range_meters":20400,"station_id":"ce4bh092rcd13ifvqd30","pricing_plan_id":"cebpf4jnsgd1na2vs0mg"},{"bike_id":"8580f859-d8f4-44fb-9c0c-da0a57d43dea","system_id":"levelo_inurba_marseille","lat":43.30321,"lon":5.40446,"is_reserved":false,"is_disabled":false,"rental_uris":{"android":"levelo://app?vid=8580f859-d8f4-44fb-9c0c-da0a57d43dea","ios":"levelo://app?vid=8580f859-d8f4-44fb-9c0c-da0a57d43dea"},"vehicle_type_id":"4","last_reported":1760835427,"current_range_meters":20400,"station_id":"ce4bh012rcd13ifvqd10","pricing_plan_id":"cebpf4jnsgd1na2vs0mg"},{"bike_id":"6e8ed827-a6f7-46f1-ad28-2f0468b71691","system_id":"levelo_inurba_marseille","lat":43.32085,"lon":5.36744,"is_reserved":false,"is_disabled":true,"rental_uris":{"android":"levelo://app?vid=6e8ed827-a6f7-46f1-ad28-2f0468b71691","ios":"levelo://app?vid=6e8ed827-a6f7-46f1-ad28-2f0468b71691"},"vehicle_type_id":"4","last_reported":1760835427,"current_range_meters":20400,"station_id":"ce4bhrh2rcd13ifvqhug","pricing_plan_id":"cebpf4jnsgd1na2vs0mg"},