{"last_updated":1730804861,"ttl":60,"version":"2.2","data":{"bikes":[{"bike_id":"27c3248b-c595-4ca3-8d16-fd1fce0083ca","system_id":"levelo_inurba_marseille","lat":43.34133,"lon":5.40884,"is_reserved":false,"is_disabled":false,"rental_uris":{"android":"levelo://app?vid=27c3248b-c595-4ca3-8d16-fd1fce0083ca","ios":"levelo://app?vid=27c3248b-c595-4ca3-8d16-fd1fce0083ca"},"vehicle_type_id":"4","last_reported":1730804861,"current_range_meters":22800,"station_id":"ce4bhqh2rcd13ifvqhlg","pricing_plan_id":"cebpf4jnsgd1na2vs0mg"},{"bike_id":"ad410cfc-161b-411c-826c-ef5f5a09e4e6","system_id":"levelo_inurba_marseille","lat":43.29274,"lon":5.36843,"is_reserved":false,"is_disabled":false,"rental_uris":{"android":"levelo://app?vid=ad410cfc-161b-411c-826c-ef5f5a09e4e6","ios":"levelo://app?vid=ad410cfc-161b-411c-826c-ef5f5a09e4e6"},"vehicle_type_id":"4","last_reported":1730804861,"current_range_meters":14800,"station_id":"ce4bhbp2rcd13ifvqesg","pricing_plan_id":"cebpf4jnsgd1na2vs0mg"},{"bike_id":"dbd0dd0d-0304-4ba4-be0f-b2d5fc9d9cb6","system_id":"levelo_inurba_marseille","lat":43.28942,"lon":5.39634,"is_reserved":false,"is_disabled":false,"rental_uris":{"android":"levelo://app?vid=dbd0dd0d-0304-4ba4-be0f-b2d5fc9d9cb6","ios":"levelo://app?vid=dbd0dd0d-0304-4ba4-be0f-b2d5fc9d9cb6"},"vehicle_type_id":"4","last_reported":1730804861,"current_range_meters":2800,"station_id":"ce4bh3h2rcd13ifvqdn0","pricing_plan_id":"cebpf4jnsgd1na2vs0mg"},{"bike_id":"3675d184-4550-4970-9661-d3d7f50009e5","system_id":"levelo_inurba_marseille","lat":43.31336,"lon":5.36707,"is_reserved":false,"is_disabled":false,"rental_uris":{"android":"levelo://app?vid=3675d184-4550-4970-9661-d3d7f50009e5","ios":"levelo://app?vid=3675d184-4550-4970-9661-d3d7f50009e5"},"vehicle_type_id":"4","last_reported":1730804861,"current_range_meters":22800,"station_id":"ce4bgr92rcd13ifvqc6g","pricing_plan_id":"cebpf4jnsgd1na2vs0mg"},{"bike_id":"2f421261-a528-4395-8a49-c894b9963f0b","system_id":"levelo_inurba_marseille","lat":43.30126,"lon":5.3988,"is_reserved":false,"is_disabled":false,"rental_uris":{"android":"levelo://app?vid=2f421261-a528-4395-8a49-c894b9963f0b","ios":"levelo://app?vid=2f421261-a528-4395-8a49-c894b9963f0b"},"vehicle_type_id":"4","last_reported":1730804861,"current_range_meters":27200,"station_id":"ce4bh0h2rcd13ifvqd40","pricing_plan_id":"cebpf4jnsgd1na2vs0mg"},{"bike_id":"6c29c3c7-50f6-4ee8-bf4e-6c3e2c2d4fa8","system_id":"levelo_inurba_marseille","lat":43.307896,"lon":5.37641,"is_reserved":false,"is_disabled":false,"rental_uris":{"android":"levelo://app?vid=6c29c3c7-50f6-4ee8-bf4e-6c3e2c2d4fa8","ios":"levelo://app?vid=6c29c3c7-50f6-4ee8-bf4e-6c3e2c2d4fa8"},"vehicle_type_id":"4","last_reported":1730804861,"current_range_meters":35600,"station_id":"ce4bgv92rcd13ifvqcq0","pricing_plan_id":"cebpf4jnsgd1na2vs0mg"},{"bike_id":"6f81f16a-53f5-4e8b-9426-bc4351d9ee78","system_id":"levelo_inurba_marseille","lat":43.28415,"lon":5.34977,"is_reserved":false,"is_disabled":false,"rental_uris":{"android":"levelo://app?vid=6f81f16a-53f5-4e8b-9426-bc4351d9ee78","ios":"levelo://app?vid=6f81f16a-53f5-4e8b-9426-bc4351d9ee78"},"vehicle_type_id":"4","last_reported":1730804861,"current_range_meters":34800,"station_id":"ce4bhbh2rcd13ifvqepg","pricing_plan_id":"cebpf4jnsgd1na2vs0mg"},{"bike_id":"47188366-9ba1-4e2e-907e-c2a5c3fd8c31","system_id":"levelo_inurba_marseille","lat":43.31345,"lon":5.36722,"is_reserved":false,"is_disabled":false,"rental_uris":{"android":"levelo://app?vid=47188366-9ba1-4e2e-907e-c2a5c3fd8c31","ios":"levelo://app?vid=47188366-9ba1-4e2e-907e-c2a5c3fd8c31"},"vehicle_type_id":"4","last_reported":1730804861,"current_range_meters":6400,"station_id":"ce4bgr92rcd13ifvqc6g","pricing_plan_id":"cebpf4jnsgd1na2vs0mg"},{"bike_id":"81f6b4c0-466f-469e-9440-cacd811d84f3","system_id":"levelo_inurba_marseille","lat":43.2408,"lon":5.37752,"is_reserved":false,"is_disabled":false,"rental_uris":{"android":"levelo://app?vid=81f6b4c0-466f-469e-9440-cacd811d84f3","ios":"levelo://app?vid=81f6b4c0-466f-469e-9440-cacd811d84f3"},"vehicle_type_id":"4","last_reported":1730804861,"current_range_meters":22800,"station_id":"ce4bhnp2rcd13ifvqgvg","pricing_plan_id":"cebpf4jnsgd1na2vs0mg"},{"bike_id":"95c40018-7eca-4eaf-aa8f-17957e468643","system_id":"levelo_inurba_marseille","lat":43.268035,"lon":5.402608,"is_reserved":false,"is_disabled":false,"rental_uris":{"android":"levelo://app?vid=95c40018-7eca-4eaf-aa8f-17957e468643","ios":"levelo://app?vid=95c40018-7eca-4eaf-aa8f-17957e468643"},"vehicle_type_id":"4","last_reported":1730804861,"current_range_meters":24000,"station_id":"ce501612rcd8frsf0b60","pricing_plan_id":"cebpf4jnsgd1na2vs0mg"},{"bike_id":"b3846635-4e6d-4e01-9d97-f76890e95094","system_id":"levelo_inurba_marseille","lat":43.29566,"lon":5.37514,"is_reserved":false,"is_disabled":false,"rental_uris":{"android":"levelo://app?vid=b3846635-4e6d-4e01-9d97-f76890e95094","ios":"levelo://app?vid=b3846635-4e6d-4e01-9d97-f76890e95094"},"vehicle_type_id":"4","last_reported":1730804861,"current_range_meters":18800,"station_id":"ce4bgh92rcd13ifvqb50","pricing_plan_id":"cebpf4jnsgd1na2vs0mg"},{"bike_id":"6b4d5c8e-0241-4f7e-9c9d-39373d595141","system_id":"levelo_inurba_marseille","lat":43.30115,"lon":5.39852,"is_reserved":false,"is_disabled":false,"rental_uris":{"android":"levelo://app?vid=6b4d5c8e-0241-4f7e-9c9d-39373d595141","ios":"levelo://app?vid=6b4d5c8e-0241-4f7e-9c9d-39373d595141"},"vehicle_type_id":"4","last_reported":1730804861,"current_range_meters":35200,"station_id":"ce4bh0h2rcd13ifvqd40","pricing_plan_id":"cebpf4jnsgd1na2vs0mg"},{"bike_id":"4147bbfb-4b14-4aca-b782-8ec6c0473609","system_id":"levelo_inurba_marseille","lat":43.23598,"lon":5.40348,"is_reserved":false,"is_disabled":false,"rental_uris":{"android":"levelo://app?vid=4147bbfb-4b14-4aca-b782-8ec6c0473609","ios":"levelo://app?vid=4147bbfb-4b14-4aca-b782-8ec6c0473609"},"vehicle_type_id":"4","last_reported":1730804861,"current_range_meters":8800,"station_id":"","pricing_plan_id":"cebpf4jnsgd1na2vs0mg"},{"bike_id":"fa66adb8-19da-4b56-aeb9-ccf1206b3e1e","system_id":"levelo_inurba_marseille","lat":43.32354,"lon":5.36754,"is_reserved":false,"is_disabled":false,"rental_uris":{"android":"levelo://app?vid=fa66adb8-19da-4b56-aeb9-ccf1206b3e1e","ios":"levelo://app?vid=fa66adb8-19da-4b56-aeb9-ccf1206b3e1e"},"vehicle_type_id":"4","last_reported":1730804861,"current_range_meters":35200,"station_id":"ce4bhsh2rcd13ifvqi2g","pricing_plan_id":"cebpf4jnsgd1na2vs0mg"},{"bike_id":"26524832-8824-4bc7-95ef-aedb1815c904","system_id":"levelo_inurba_marseille","lat":43.29847,"lon":5.36285,"is_reserved":false,"is_disabled":false,"rental_uris":{"android":"levelo://app?vid=26524832-8824-4bc7-95ef-aedb1815c904","ios":"levelo://app?vid=26524832-8824-4bc7-95ef-aedb1815c904"},"vehicle_type_id":"4","last_reported":1730804861,"current_range_meters":16800,"station_id":"ce4bgpp2rcd13ifvqc3g","pricing_plan_id":"cebpf4jnsgd1na2vs0mg"},{"bike_id":"f3336ee7-3df0-4857-b6c6-13d25357c3fd","system_id":"levelo_inurba_marseille","lat":43.2558,"lon":5.38223,"is_reserved":false,"is_disabled":false,"rental_uris":{"android":"levelo://app?vid=f3336ee7-3df0-4857-b6c6-13d25357c3fd","ios":"levelo://app?vid=f3336ee7-3df0-4857-b6c6-13d25357c3fd"},"vehicle_type_id":"4","last_reported":1730804861,"current_range_meters":33600,"station_id":"ce4bhih2rcd13ifvqfs0","pricing_plan_id":"cebpf4jnsgd1na2vs0mg"},{"bike_id":"d3316a79-5388-4d1e-90a0-dc05613f7da2","system_id":"levelo_inurba_marseille","lat":43.31348,"lon":5.3672,"is_reserved":false,"is_disabled":false,"rental_uris":{"android":"levelo://app?vid=d3316a79-5388-4d1e-90a0-dc05613f7da2","ios":"levelo://app?vid=d3316a79-5388-4d1e-90a0-dc05613f7da2"},"vehicle_type_id":"4","last_reported":1730804861,"current_range_meters":30800,"station_id":"ce4bgr92rcd13ifvqc6g","pricing_plan_id":"cebpf4jnsgd1na2vs0mg"},{"bike_id":"5ad3f732-7e23-4ad9-b57d-10c8736d4e8f","system_id":"levelo_inurba_marseille","lat":43.32484,"lon":5.36573,"is_reserved":false,"is_disabled":false,"rental_uris":{"android":"levelo://app?vid=5ad3f732-7e23-4ad9-b57d-10c8736d4e8f","ios":"levelo://app?vid=5ad3f732-7e23-4ad9-b57d-10c8736d4e8f"},"vehicle_type_id":"4","last_reported":1730804861,"current_range_meters":19600,"station_id":"ce4bhs12rcd13ifvqhvg","pricing_plan_id":"cebpf4jnsgd1na2vs0mg"},{"bike_id":"aa2864fa-6de8-4bd8-aa89-b12e5b6dda53","system_id":"levelo_inurba_marseille","lat":43.28482,"lon":5.38554,"is_reserved":false,"is_disabled":false,"rental_uris":{"android":"levelo://app?vid=aa2864fa-6de8-4bd8-aa89-b12e5b6dda53","ios":"levelo://app?vid=aa2864fa-6de8-4bd8-aa89-b12e5b6dda53"},"vehicle_type_id":"4","last_reported":1730804861,"current_range_meters":8400,"station_id":"ce4bh8p2rcd13ifvqeb0","pricing_plan_id":"cebpf4jnsgd1na2vs0mg"},{"bike_id":"35d46972-faca-4525-a2d2-3f928f24f16c","system_id":"levelo_inurba_marseille","lat":43.24174,"lon":5.36394,"is_reserved":false,"is_disabled":false,"rental_uris":{"android":"levelo://app?vid=35d46972-faca-4525-a2d2-3f928f24f16c","ios":"levelo://app?vid=35d46972-faca-4525-a2d2-3f928f24f16c"},"vehicle_type_id":"4","last_reported":1730804861,"current_range_meters":37600,"station_id":"cpo36qri1sfpv3e86is0","pricing_plan_id":"cebpf4jnsgd1na2vs0mg"},{"bike_id":"d318c6e1-c410-412e-a114-e709a85263a0","system_id":"levelo_inurba_marseille","lat":43.25582,"lon":5.38232,"is_reserved":false,"is_disabled":false,"rental_uris":{"android":"levelo://app?vid=d318c6e1-c410-412e-a114-e709a85263a0","ios":"levelo://app?vid=d318c6e1-c410-412e-a114-e709a85263a0"},"vehicle_type_id":"4","last_reported":1730804861,"current_range_meters":32000,"station_id":"ce4bhih2rcd13ifvqfs0","pricing_plan_id":"cebpf4jnsgd1na2vs0mg"},{"bike_id":"d0668b08-f088-40e4-b3f6-682ce739c68e","system_id":"levelo_inurba_marseille","lat":43.306223,"lon":5.393853,"is_reserved":false,"is_disabled":false,"rental_uris":{"android":"levelo://app?vid=d0668b08-f088-40e4-b3f6-682ce739c68e","ios":"levelo://app?vid=d0668b08-f088-40e4-b3f6-682ce739c68e"},"vehicle_type_id":"4","last_reported":1730804861,"current_range_meters":18800,"station_id":"ce4bh112rcd13ifvqda0","pricing_plan_id":"cebpf4jnsgd1na2vs0mg"},{"bike_id":"2378f453-72a7-4eb2-ab3b-946285d406fd","system_id":"levelo_inurba_marseille","lat":43.29229,"lon":5.37716,"is_reserved":false,"is_disabled":false,"rental_uris":{"android":"levelo://app?vid=2378f453-72a7-4eb2-ab3b-946285d406fd","ios":"levelo://app?vid=2378f453-72a7-4eb2-ab3b-946285d406fd"},"vehicle_type_id":"4","last_reported":1730804861,"current_range_meters":3200,"station_id":"","pricing_plan_id":"cebpf4jnsgd1na2vs0mg"},{"bike_id":"3da4622c-c31c-40d3-8aab-c802043c4fb2","system_id":"levelo_inurba_marseille","lat":43.240787,"lon":5.377447,"is_reserved":false,"is_disabled":false,"rental_uris":{"android":"levelo://app?vid=3da4622c-c31c-40d3-8aab-c802043c4fb2","ios":"levelo://app?vid=3da4622c-c31c-40d3-8aab-c802043c4fb2"},"vehicle_type_id":"4","last_reported":1730804861,"current_range_meters":38800,"station_id":"ce4bhnp2rcd13ifvqgvg","pricing_plan_id":"cebpf4jnsgd1na2vs0mg"},{"bike_id":"17e8815c-2971-4cbb-b5ed-b2671eadd8e7","system_id":"levelo_inurba_marseille","lat":43.2979,"lon":5.40403,"is_reserved":false,"is_disabled":false,"rental_uris":{"android":"levelo://app?vid=17e8815c-2971-4cbb-b5ed-b2671eadd8e7","ios":"levelo://app?vid=17e8815c-2971-4cbb-b5ed-b2671eadd8e7"},"vehicle_type_id":"4","last_reported":1730804861,"current_range_meters":37600,"station_id":"ce4bh112rcd13ifvqd90","pricing_plan_id":"cebpf4jnsgd1na2vs0mg"},{"bike_id":"182e91a9-0e4e-4788-9b82-32e72e41d2da","system_id":"levelo_inurba_marseille","lat":43.30276,"lon":5.37712,"is_reserved":false,"is_disabled":false,"rental_uris":{"android":"levelo://app?vid=182e91a9-0e4e-4788-9b82-32e72e41d2da","ios":"levelo://app?vid=182e91a9-0e4e-4788-9b82-32e72e41d2da"},"vehicle_type_id":"4","last_reported":1730804861,"current_range_meters":39200,"station_id":"ce4bguh2rcd13ifvqcj0","pricing_plan_id":"cebpf4jnsgd1na2vs0mg"},{"bike_id":"842346f7-da91-4c44-a6d1-e84d0afabf42","system_id":"levelo_inurba_marseille","lat":43.29727,"lon":5.37689,"is_reserved":false,"is_disabled":false,"rental_uris":{"android":"levelo://app?vid=842346f7-da91-4c44-a6d1-e84d0afabf42","ios":"levelo://app?vid=842346f7-da91-4c44-a6d1-e84d0afabf42"},"vehicle_type_id":"4","last_reported":1730804861,"current_range_meters":20400,"station_id":"ce4bgkh2rcd13ifvqbl0","pricing_plan_id":"cebpf4jnsgd1na2vs0mg"},{"bike_id":"8f9b1417-60dc-4e25-94ce-f05731a86005","system_id":"levelo_inurba_marseille","lat":43.3028,"lon":5.37698,"is_reserved":false,"is_disabled":false,"rental_uris":{"android":"levelo://app?vid=8f9b1417-60dc-4e25-94ce-f05731a86005","ios":"levelo://app?vid=8f9b1417-60dc-4e25-94ce-f05731a86005"},"vehicle_type_id":"4","last_reported":1730804861,"current_range_meters":30400,"station_id":"ce4bguh2rcd13ifvqcj0","pricing_plan_id":"cebpf4jnsgd1na2vs0mg"},{"bike_id":"e7d19d88-9146-4e92-9c2a-cb12db34afa1","system_id":"levelo_inurba_marseille","lat":43.24077,"lon":5.37754,"is_reserved":false,"is_disabled":false,"rental_uris":{"android":"levelo://app?vid=e7d19d88-9146-4e92-9c2a-cb12db34afa1","ios":"levelo://app?vid=e7d19d88-9146-4e92-9c2a-cb12db34afa1"},"vehicle_type_id":"4","last_reported":1730804861,"current_range_meters":38800,"station_id":"ce4bhnp2rcd13ifvqgvg","pricing_plan_id":"cebpf4jnsgd1na2vs0mg"},{"bike_id":"0dc73acf-cdc5-4a09-9822-7016b02a4022","system_id":"levelo_inurba_marseille","lat":43.337444,"lon":5.374475,"is_reserved":false,"is_disabled":false,"rental_uris":{"android":"levelo://app?vid=0dc73acf-cdc5-4a09-9822-7016b02a4022","ios":"levelo://app?vid=0dc73acf-cdc5-4a09-9822-7016b02a4022"},"vehicle_type_id":"4","last_reported":1730804861,"current_range_meters":30800,"station_id":"ce4bha12rcd13ifvqee0","pricing_plan_id":"cebpf4jnsgd1na2vs0mg"},{"bike_id":"ddfa70a9-9d32-48ef-99b7-f4cb9b41791d","system_id":"levelo_inurba_marseille","lat":43.24065,"lon":5.37751,"is_reserved":false,"is_disabled":false,"rental_uris":{"android":"levelo://app?vid=ddfa70a9-9d32-48ef-99b7-f4cb9b41791d","ios":"levelo://app?vid=ddfa70a9-9d32-48ef-99b7-f4cb9b41791d"},"vehicle_type_id":"4","last_reported":1730804861,"current_range_meters":10000,"station_id":"ce4bhnp2rcd13ifvqgvg","pricing_plan_id":"cebpf4jnsgd1na2vs0mg"},{"bike_id":"51b0cc7e-772d-41e9-97a0-b689f0d0604e","system_id":"levelo_inurba_marseille","lat":43.31345,"lon":5.36717,"is_reserved":false,"is_disabled":false,"rental_uris":{"android":"levelo://app?vid=51b0cc7e-772d-41e9-97a0-b689f0d0604e","ios":"levelo://app?vid=51b0cc7e-772d-41e9-97a0-b689f0d0604e"},"vehicle_type_id":"4","last_reported":1730804861,"current_range_meters":38800,"station_id":"ce4bgr92rcd13ifvqc6g","pricing_plan_id":"cebpf4jnsgd1na2vs0mg"},{"bike_id":"763aec2a-ff2a-45f3-89ac-e1590367c1c0","system_id":"levelo_inurba_marseille","lat":43.24078,"lon":5.37756,"is_reserved":false,"is_disabled":false,"rental_uris":{"android":"levelo://app?vid=763aec2a-ff2a-45f3-89ac-e1590367c1c0","ios":"levelo://app?vid=763aec2a-ff2a-45f3-89ac-e1590367c1c0"},"vehicle_type_id":"4","last_reported":1730804861,"current_range_meters":32000,"station_id":"ce4bhnp2rcd13ifvqgvg","pricing_plan_id":"cebpf4jnsgd1na2vs0mg"},{"bike_id":"3ccc4669-f5c2-4d58-9caf-3d026f9ac26f","system_id":"levelo_inurba_marseille","lat":43.29979,"lon":5.37183,"is_reserved":false,"is_disabled":false,"rental_uris":{"android":"levelo://app?vid=3ccc4669-f5c2-4d58-9caf-3d026f9ac26f","ios":"levelo://app?vid=3ccc4669-f5c2-4d58-9caf-3d026f9ac26f"},"vehicle_type_id":"4","last_reported":1730804861,"current_range_meters":36400,"station_id":"ce4bgr92rcd13ifvqc7g","pricing_plan_id":"cebpf4jnsgd1na2vs0mg"},{"bike_id":"7dcbf618-7b81-4a8b-bf18-63d8efcda169","system_id":"levelo_inurba_marseille","lat":43.30954,"lon":5.39037,"is_reserved":false,"is_disabled":false,"rental_uris":{"android":"levelo://app?vid=7dcbf618-7b81-4a8b-bf18-63d8efcda169","ios":"levelo://app?vid=7dcbf618-7b81-4a8b-bf18-63d8efcda169"},"vehicle_type_id":"4","last_reported":1730804861,"current_range_meters":32400,"station_id":"ce4bgup2rcd13ifvqco0","pricing_plan_id":"cebpf4jnsgd1na2vs0mg"},{"bike_id":"99d78f6e-5bfc-4e99-baa1-b9137a41c134","system_id":"levelo_inurba_marseille","lat":43.28151,"lon":5.42645,"is_reserved":false,"is_disabled":false,"rental_uris":{"android":"levelo://app?vid=99d78f6e-5bfc-4e99-baa1-b9137a41c134","ios":"levelo://app?vid=99d78f6e-5bfc-4e99-baa1-b9137a41c134"},"vehicle_type_id":"4","last_reported":1730804861,"current_range_meters":36800,"station_id":"ce4bhnh2rcd13ifvqgug","pricing_plan_id":"cebpf4jnsgd1na2vs0mg"},{"bike_id":"0fb9819f-f5ed-4bc1-9006-4b1ad7d9b36e","system_id":"levelo_inurba_marseille","lat":43.32482,"lon":5.36571,"is_reserved":false,"is_disabled":false,"rental_uris":{"android":"levelo://app?vid=0fb9819f-f5ed-4bc1-9006-4b1ad7d9b36e","ios":"levelo://app?vid=0fb9819f-f5ed-4bc1-9006-4b1ad7d9b36e"},"vehicle_type_id":"4","last_reported":1730804861,"current_range_meters":14000,"station_id":"ce4bhs12rcd13ifvqhvg","pricing_plan_id":"cebpf4jnsgd1na2vs0mg"},{"bike_id":"878e1338-9921-44c7-b3fa-0c4d6e128386","system_id":"levelo_inurba_marseille","lat":43.30905,"lon":5.36849,"is_reserved":false,"is_disabled":false,"rental_uris":{"android":"levelo://app?vid=878e1338-9921-44c7-b3fa-0c4d6e128386","ios":"levelo://app?vid=878e1338-9921-44c7-b3fa-0c4d6e128386"},"vehicle_type_id":"4","last_reported":1730804861,"current_range_meters":22000,"station_id":"ce4bgn92rcd13ifvqbvg","pricing_plan_id":"cebpf4jnsgd1na2vs0mg"},{"bike_id":"c5c22aec-2d85-4437-b8e8-52528a4d9d6a","system_id":"levelo_inurba_marseille","lat":43.29903,"lon":5.37474,"is_reserved":false,"is_disabled":false,"rental_uris":{"android":"levelo://app?vid=c5c22aec-2d85-4437-b8e8-52528a4d9d6a","ios":"levelo://app?vid=c5c22aec-2d85-4437-b8e8-52528a4d9d6a"},"vehicle_type_id":"4","last_reported":1730804861,"current_range_meters":38800,"station_id":"ce4bgjh2rcd13ifvqbg0","pricing_plan_id":"cebpf4jnsgd1na2vs0mg"},{"bike_id":"037eaf0f-9112-47d3-aa8d-7a0ef0d58625","system_id":"levelo_inurba_marseille","lat":43.24167,"lon":5.36395,"is_reserved":false,"is_disabled":false,"rental_uris":{"android":"levelo://app?vid=037eaf0f-9112-47d3-aa8d-7a0ef0d58625","ios":"levelo://app?vid=037eaf0f-9112-47d3-aa8d-7a0ef0d58625"},"vehicle_type_id":"4","last_reported":1730804861,"current_range_meters":38000,"station_id":"cpo36qri1sfpv3e86is0","pricing_plan_id":"cebpf4jnsgd1na2vs0mg"},{"bike_id":"897c072c-0d21-44b6-b843-663f492b8dc4","system_id":"levelo_inurba_marseille","lat":43.25109,"lon":5.4032,"is_reserved":false,"is_disabled":false,"rental_uris":{"android":"levelo://app?vid=897c072c-0d21-44b6-b843-663f492b8dc4","ios":"levelo://app?vid=897c072c-0d21-44b6-b843-663f492b8dc4"},"vehicle_type_id":"4","last_reported":1730804861,"current_range_meters":24400,"station_id":"ce4bhlh2rcd13ifvqgig","pricing_plan_id":"cebpf4jnsgd1na2vs0mg"},{"bike_id":"f89b1eb9-d638-4b8d-bea6-355be5600701","system_id":"levelo_inurba_marseille","lat":43.27957,"lon":5.38727,"is_reserved":false,"is_disabled":false,"rental_uris":{"android":"levelo://app?vid=f89b1eb9-d638-4b8d-bea6-355be5600701","ios":"levelo://app?vid=f89b1eb9-d638-4b8d-bea6-355be5600701"},"vehicle_type_id":"4","last_reported":1730804861,"current_range_meters":38000,"station_id":"ce4bhg12rcd13ifvqf80","pricing_plan_id":"cebpf4jnsgd1na2vs0mg"},{"bike_id":"2ae32aa7-1df4-433f-9bea-437352080460","system_id":"levelo_inurba_marseille","lat":43.2791,"lon":5.39583,"is_reserved":false,"is_disabled":false,"rental_uris":{"android":"levelo://app?vid=2ae32aa7-1df4-433f-9bea-437352080460","ios":"levelo://app?vid=2ae32aa7-1df4-433f-9bea-437352080460"},"vehicle_type_id":"4","last_reported":1730804861,"current_range_meters":36000,"station_id":"ce4bhf92rcd13ifvqf40","pricing_plan_id":"cebpf4jnsgd1na2vs0mg"},{"bike_id":"d21c28b2-c174-4e9f-ad7f-35fb94eae1cd","system_id":"levelo_inurba_marseille","lat":43.30528,"lon":5.36699,"is_reserved":false,"is_disabled":false,"rental_uris":{"android":"levelo://app?vid=d21c28b2-c174-4e9f-ad7f-35fb94eae1cd","ios":"levelo://app?vid=d21c28b2-c174-4e9f-ad7f-35fb94eae1cd"},"vehicle_type_id":"4","last_reported":1730804861,"current_range_meters":39200,"station_id":"ce4bgrp2rcd13ifvqc9g","pricing_plan_id":"cebpf4jnsgd1na2vs0mg"},{"bike_id":"acdea68a-7783-4908-bf21-09a59a510c29","system_id":"levelo_inurba_marseille","lat":43.313367,"lon":5.367276,"is_reserved":false,"is_disabled":false,"rental_uris":{"android":"levelo://app?vid=acdea68a-7783-4908-bf21-09a59a510c29","ios":"levelo://app?vid=acdea68a-7783-4908-bf21-09a59a510c29"},"vehicle_type_id":"4","last_reported":1730804861,"current_range_meters":25200,"station_id":"ce4bgr92rcd13ifvqc6g","pricing_plan_id":"cebpf4jnsgd1na2vs0mg"},{"bike_id":"881d758d-d3e0-400b-b96d-62f4912249e0","system_id":"levelo_inurba_marseille","lat":43.26212,"lon":5.37437,"is_reserved":false,"is_disabled":false,"rental_uris":{"android":"levelo://app?vid=881d758d-d3e0-400b-b96d-62f4912249e0","ios":"levelo://app?vid=881d758d-d3e0-400b-b96d-62f4912249e0"},"vehicle_type_id":"4","last_reported":1730804861,"current_range_meters":14400,"station_id":"ce4bhgp2rcd13ifvqfc0","pricing_plan_id":"cebpf4jnsgd1na2vs0mg"},{"bike_id":"2208cd18-b7e1-4d15-8a96-477d4e7ba53c","system_id":"levelo_inurba_marseille","lat":43.29896,"lon":5.43665,"is_reserved":false,"is_disabled":false,"rental_uris":{"android":"levelo://app?vid=2208cd18-b7e1-4d15-8a96-477d4e7ba53c","ios":"levelo://app?vid=2208cd18-b7e1-4d15-8a96-477d4e7ba53c"},"vehicle_type_id":"4","last_reported":1730804861,"current_range_meters":24400,"station_id":"ce4bhpp2rcd13ifvqhfg","pricing_plan_id":"cebpf4jnsgd1na2vs0mg"},{"bike_id":"08b5ac60-ae3b-4572-ad0d-29de19027274","system_id":"levelo_inurba_marseille","lat":43.29929,"lon":5.36553,"is_reserved":false,"is_disabled":false,"rental_uris":{"android":"levelo://app?vid=08b5ac60-ae3b-4572-ad0d-29de19027274","ios":"levelo://app?vid=08b5ac60-ae3b-4572-ad0d-29de19027274"},"vehicle_type_id":"4","last_reported":1730804861,"current_range_meters":36400,"station_id":"ce4bgm92rcd13ifvqbr0","pricing_plan_id":"cebpf4jnsgd1na2vs0mg"},{"bike_id":"8d5faf28-e526-4d5b-93d3-399bd2cb1046","system_id":"levelo_inurba_marseille","lat":43.31753,"lon":5.39013,"is_reserved":false,"is_disabled":false,"rental_uris":{"android":"levelo://app?vid=8d5faf28-e526-4d5b-93d3-399bd2cb1046","ios":"levelo://app?vid=8d5faf28-e526-4d5b-93d3-399bd2cb1046"},"vehicle_type_id":"4","last_reported":1730804861,"current_range_meters":14400,"station_id":"ce4bhqp2rcd13ifvqhng","pricing_plan_id":"cebpf4jnsgd1na2vs0mg"},{"bike_id":"4efe1719-2091-49a9-b407-f0f4961cf2b0","system_id":"levelo_inurba_marseille","lat":43.27486,"lon":5.42458,"is_reserved":false,"is_disabled":false,"rental_uris":{"android":"levelo://app?vid=4efe1719-2091-49a9-b407-f0f4961cf2b0","ios":"levelo://app?vid=4efe1719-2091-49a9-b407-f0f4961cf2b0"},"vehicle_type_id":"4","last_reported":1730804861,"current_range_meters":24800,"station_id":"ce4bhn92rcd13ifvqgrg","pricing_plan_id":"cebpf4jnsgd1na2vs0mg"},{"bike_id":"b5285c74-98e8-4f0a-94af-92f68936c3b4","system_id":"levelo_inurba_marseille","lat":43.29584,"lon":5.36743,"is_reserved":false,"is_disabled":false,"rental_uris":{"android":"levelo://app?vid=b5285c74-98e8-4f0a-94af-92f68936c3b4","ios":"levelo://app?vid=b5285c74-98e8-4f0a-94af-92f68936c3b4"},"vehicle_type_id":"4","last_reported":1730804861,"current_range_meters":28400,"station_id":"ce4bgph2rcd13ifvqc2g","pricing_plan_id":"cebpf4jnsgd1na2vs0mg"},{"bike_id":"fc370af9-4723-4589-bd34-43e0e367fb35","system_id":"levelo_inurba_marseille","lat":43.26794,"lon":5.40267,"is_reserved":false,"is_disabled":false,"rental_uris":{"android":"levelo://app?vid=fc370af9-4723-4589-bd34-43e0e367fb35","ios":"levelo://app?vid=fc370af9-4723-4589-bd34-43e0e367fb35"},"vehicle_type_id":"4","last_reported":1730804861,"current_range_meters":30400,"station_id":"ce501612rcd8frsf0b60","pricing_plan_id":"cebpf4jnsgd1na2vs0mg"},{"bike_id":"9144c157-634d-4240-9c41-6d80b65ff913","system_id":"levelo_inurba_marseille","lat":43.30538,"lon":5.3653,"is_reserved":false,"is_disabled":false,"rental_uris":{"android":"levelo://app?vid=9144c157-634d-4240-9c41-6d80b65ff913","ios":"levelo://app?vid=9144c157-634d-4240-9c41-6d80b65ff913"},"vehicle_type_id":"4","last_reported":1730804861,"current_range_meters":30800,"station_id":"ce4bgs12rcd13ifvqcag","pricing_plan_id":"cebpf4jnsgd1na2vs0mg"},{"bike_id":"de9bc7da-0805-4f2e-a638-6f594e31fc19","system_id":"levelo_inurba_marseille","lat":43.23152,"lon":5.43703,"is_reserved":false,"is_disabled":false,"rental_uris":{"android":"levelo://app?vid=de9bc7da-0805-4f2e-a638-6f594e31fc19","ios":"levelo://app?vid=de9bc7da-0805-4f2e-a638-6f594e31fc19"},"vehicle_type_id":"4","last_reported":1730804861,"current_range_meters":21600,"station_id":"ce4bhmp2rcd13ifvqgog","pricing_plan_id":"cebpf4jnsgd1na2vs0mg"},{"bike_id":"5fb98fcb-8467-43bc-8f32-700a3dc876c9","system_id":"levelo_inurba_marseille","lat":43.23153,"lon":5.43715,"is_reserved":false,"is_disabled":false,"rental_uris":{"android":"levelo://app?vid=5fb98fcb-8467-43bc-8f32-700a3dc876c9","ios":"levelo://app?vid=5fb98fcb-8467-43bc-8f32-700a3dc876c9"},"vehicle_type_id":"4","last_reported":1730804861,"current_range_meters":24000,"station_id":"ce4bhmp2rcd13ifvqgog","pricing_plan_id":"cebpf4jnsgd1na2vs0mg"},{"bike_id":"f2c092a2-0134-4ce9-b755-7ee8d58ab87c","system_id":"levelo_inurba_marseille","lat":43.271,"lon":5.38192,"is_reserved":false,"is_disabled":false,"rental_uris":{"android":"levelo://app?vid=f2c092a2-0134-4ce9-b755-7ee8d58ab87c","ios":"levelo://app?vid=f2c092a2-0134-4ce9-b755-7ee8d58ab87c"},"vehicle_type_id":"4","last_reported":1730804861,"current_range_meters":22000,"station_id":"","pricing_plan_id":"cebpf4jnsgd1na2vs0mg"},{"bike_id":"9b88452b-f39e-4788-a074-cab00182416b","system_id":"levelo_inurba_marseille","lat":43.27904,"lon":5.38002,"is_reserved":false,"is_disabled":false,"rental_uris":{"android":"levelo://app?vid=9b88452b-f39e-4788-a074-cab00182416b","ios":"levelo://app?vid=9b88452b-f39e-4788-a074-cab00182416b"},"vehicle_type_id":"4","last_reported":1730804861,"current_range_meters":38000,"station_id":"ce4bhf92rcd13ifvqf50","pricing_plan_id":"cebpf4jnsgd1na2vs0mg"},{"bike_id":"6edcb5d2-dbf0-49f4-9f8b-5d93ccae943e","system_id":"levelo_inurba_marseille","lat":43.27905,"lon":5.38014,"is_reserved":false,"is_disabled":false,"rental_uris":{"android":"levelo://app?vid=6edcb5d2-dbf0-49f4-9f8b-5d93ccae943e","ios":"levelo://app?vid=6edcb5d2-dbf0-49f4-9f8b-5d93ccae943e"},"vehicle_type_id":"4","last_reported":1730804861,"current_range_meters":28800,"station_id":"ce4bhf92rcd13ifvqf50","pricing_plan_id":"cebpf4jnsgd1na2vs0mg"},{"bike_id":"f38b74f1-091f-4a53-be86-f11ff6a2b03b","system_id":"levelo_inurba_marseille","lat":43.24073,"lon":5.37747,"is_reserved":false,"is_disabled":false,"rental_uris":{"android":"levelo://app?vid=f38b74f1-091f-4a53-be86-f11ff6a2b03b","ios":"levelo://app?vid=f38b74f1-091f-4a53-be86-f11ff6a2b03b"},"vehicle_type_id":"4","last_reported":1730804861,"current_range_meters":35600,"station_id":"ce4bhnp2rcd13ifvqgvg","pricing_plan_id":"cebpf4jnsgd1na2vs0mg"},{"bike_id":"b1fe64db-656d-4e90-9b40-b5b616d72f80","system_id":"levelo_inurba_marseille","lat":43.29956,"lon":5.41327,"is_reserved":false,"is_disabled":false,"rental_uris":{"android":"levelo://app?vid=b1fe64db-656d-4e90-9b40-b5b616d72f80","ios":"levelo://app?vid=b1fe64db-656d-4e90-9b40-b5b616d72f80"},"vehicle_type_id":"4","last_reported":1730804861,"current_range_meters":32400,"station_id":"ce4bhp12rcd13ifvqh9g","pricing_plan_id":"cebpf4jnsgd1na2vs0mg"},{"bike_id":"5eeefd11-649c-499f-9856-2a20cd33e6cb","system_id":"levelo_inurba_marseille","lat":43.30538,"lon":5.36701,"is_reserved":false,"is_disabled":false,"rental_uris":{"android":"levelo://app?vid=5eeefd11-649c-499f-9856-2a20cd33e6cb","ios":"levelo://app?vid=5eeefd11-649c-499f-9856-2a20cd33e6cb"},"vehicle_type_id":"4","last_reported":1730804861,"current_range_meters":11200,"station_id":"ce4bgrp2rcd13ifvqc9g","pricing_plan_id":"cebpf4jnsgd1na2vs0mg"},{"bike_id":"9a1bbfa1-363b-4e8d-a8f2-52c02f44ffb9","system_id":"levelo_inurba_marseille","lat":43.29552,"lon":5.42281,"is_reserved":false,"is_disabled":false,"rental_uris":{"android":"levelo://app?vid=9a1bbfa1-363b-4e8d-a8f2-52c02f44ffb9","ios":"levelo://app?vid=9a1bbfa1-363b-4e8d-a8f2-52c02f44ffb9"},"vehicle_type_id":"4","last_reported":1730804861,"current_range_meters":12000,"station_id":"ce4bhph2rcd13ifvqhdg","pricing_plan_id":"cebpf4jnsgd1na2vs0mg"},{"bike_id":"369a5f12-4845-427c-abd8-c34a756d1c84","system_id":"levelo_inurba_marseille","lat":43.24239,"lon":5.37588,"is_reserved":false,"is_disabled":false,"rental_uris":{"android":"levelo://app?vid=369a5f12-4845-427c-abd8-c34a756d1c84","ios":"levelo://app?vid=369a5f12-4845-427c-abd8-c34a756d1c84"},"vehicle_type_id":"4","last_reported":1730804861,"current_range_meters":9200,"station_id":"","pricing_plan_id":"cebpf4jnsgd1na2vs0mg"},{"bike_id":"e7adbda9-15b0-4e40-ab43-578143af8d1c","system_id":"levelo_inurba_marseille","lat":43.24547,"lon":5.39522,"is_reserved":false,"is_disabled":false,"rental_uris":{"android":"levelo://app?vid=e7adbda9-15b0-4e40-ab43-578143af8d1c","ios":"levelo://app?vid=e7adbda9-15b0-4e40-ab43-578143af8d1c"},"vehicle_type_id":"4","last_reported":1730804861,"current_range_meters":28400,"station_id":"ce4bhlp2rcd13ifvqgjg","pricing_plan_id":"cebpf4jnsgd1na2vs0mg"},{"bike_id":"f778c2f7-56ab-4dd7-9173-cc8a9428fe19","system_id":"levelo_inurba_marseille","lat":43.29384,"lon":5.37852,"is_reserved":false,"is_disabled":false,"rental_uris":{"android":"levelo://app?vid=f778c2f7-56ab-4dd7-9173-cc8a9428fe19","ios":"levelo://app?vid=f778c2f7-56ab-4dd7-9173-cc8a9428fe19"},"vehicle_type_id":"4","last_reported":1730804861,"current_range_meters":6400,"station_id":"ce4bgjh2rcd13ifvqbf0","pricing_plan_id":"cebpf4jnsgd1na2vs0mg"},{"bike_id":"d2f548ad-805e-4c40-9013-584bdf3595a9","system_id":"levelo_inurba_marseille","lat":43.28721,"lon":5.36081,"is_reserved":false,"is_disabled":false,"rental_uris":{"android":"levelo://app?vid=d2f548ad-805e-4c40-9013-584bdf3595a9","ios":"levelo://app?vid=d2f548ad-805e-4c40-9013-584bdf3595a9"},"vehicle_type_id":"4","last_reported":1730804861,"current_range_meters":6000,"station_id":"cki0cbj6b192h4jlfktg","pricing_plan_id":"cebpf4jnsgd1na2vs0mg"},{"bike_id":"b9b12d63-3609-4a50-a2a5-e2c8dc25af4c","system_id":"levelo_inurba_marseille","lat":43.29975,"lon":5.37178,"is_reserved":false,"is_disabled":false,"rental_uris":{"android":"levelo://app?vid=b9b12d63-3609-4a50-a2a5-e2c8dc25af4c","ios":"levelo://app?vid=b9b12d63-3609-4a50-a2a5-e2c8dc25af4c"},"vehicle_type_id":"4","last_reported":1730804861,"current_range_meters":20800,"station_id":"ce4bgr92rcd13ifvqc7g","pricing_plan_id":"cebpf4jnsgd1na2vs0mg"},{"bike_id":"c65b9f24-9a8d-4816-9e3a-0a637de85f08","system_id":"levelo_inurba_marseille","lat":43.25119,"lon":5.40316,"is_reserved":false,"is_disabled":false,"rental_uris":{"android":"levelo://app?vid=c65b9f24-9a8d-4816-9e3a-0a637de85f08","ios":"levelo://app?vid=c65b9f24-9a8d-4816-9e3a-0a637de85f08"},"vehicle_type_id":"4","last_reported":1730804861,"current_range_meters":3200,"station_id":"ce4bhlh2rcd13ifvqgig","pricing_plan_id":"cebpf4jnsgd1na2vs0mg"},{"bike_id":"ae49a6f8-970e-42d1-a7ad-313c0e9ac009","system_id":"levelo_inurba_marseille","lat":43.32475,"lon":5.36562,"is_reserved":false,"is_disabled":false,"rental_uris":{"android":"levelo://app?vid=ae49a6f8-970e-42d1-a7ad-313c0e9ac009","ios":"levelo://app?vid=ae49a6f8-970e-42d1-a7ad-313c0e9ac009"},"vehicle_type_id":"4","last_reported":1730804861,"current_range_meters":8400,"station_id":"ce4bhs12rcd13ifvqhvg","pricing_plan_id":"cebpf4jnsgd1na2vs0mg"},{"bike_id":"18ce672e-f7b2-453e-8c80-e0b41ff871de","system_id":"levelo_inurba_marseille","lat":43.29722,"lon":5.37685,"is_reserved":false,"is_disabled":false,"rental_uris":{"android":"levelo://app?vid=18ce672e-f7b2-453e-8c80-e0b41ff871de","ios":"levelo://app?vid=18ce672e-f7b2-453e-8c80-e0b41ff871de"},"vehicle_type_id":"4","last_reported":1730804861,"current_range_meters":31200,"station_id":"ce4bgkh2rcd13ifvqbl0","pricing_plan_id":"cebpf4jnsgd1na2vs0mg"},{"bike_id":"d112ef64-8345-40dc-a437-a0aa8c5bd57d","system_id":"levelo_inurba_marseille","lat":43.30533,"lon":5.36695,"is_reserved":false,"is_disabled":false,"rental_uris":{"android":"levelo://app?vid=d112ef64-8345-40dc-a437-a0aa8c5bd57d","ios":"levelo://app?vid=d112ef64-8345-40dc-a437-a0aa8c5bd57d"},"vehicle_type_id":"4","last_reported":1730804861,"current_range_meters":39200,"station_id":"ce4bgrp2rcd13ifvqc9g","pricing_plan_id":"cebpf4jnsgd1na2vs0mg"},{"bike_id":"11077b42-689c-4dd0-bba0-e371d30c5902","system_id":"levelo_inurba_marseille","lat":43.24661,"lon":5.38156,"is_reserved":false,"is_disabled":false,"rental_uris":{"android":"levelo://app?vid=11077b42-689c-4dd0-bba0-e371d30c5902","ios":"levelo://app?vid=11077b42-689c-4dd0-bba0-e371d30c5902"},"vehicle_type_id":"4","last_reported":1730804861,"current_range_meters":13600,"station_id":"ce4bhih2rcd13ifvqfr0","pricing_plan_id":"cebpf4jnsgd1na2vs0mg"},{"bike_id":"5931a260-1033-4cf1-9cac-35ff1b447cb6","system_id":"levelo_inurba_marseille","lat":43.24178,"lon":5.39732,"is_reserved":false,"is_disabled":false,"rental_uris":{"android":"levelo://app?vid=5931a260-1033-4cf1-9cac-35ff1b447cb6","ios":"levelo://app?vid=5931a260-1033-4cf1-9cac-35ff1b447cb6"},"vehicle_type_id":"4","last_reported":1730804861,"current_range_meters":20400,"station_id":"ce4bhn12rcd13ifvqgpg","pricing_plan_id":"cebpf4jnsgd1na2vs0mg"},{"bike_id":"fc7fd951-1a82-461a-b2ca-f4f1fedb9d23","system_id":"levelo_inurba_marseille","lat":43.30536,"lon":5.36706,"is_reserved":false,"is_disabled":false,"rental_uris":{"android":"levelo://app?vid=fc7fd951-1a82-461a-b2ca-f4f1fedb9d23","ios":"levelo://app?vid=fc7fd951-1a82-461a-b2ca-f4f1fedb9d23"},"vehicle_type_id":"4","last_reported":1730804861,"current_range_meters":30000,"station_id":"ce4bgrp2rcd13ifvqc9g","pricing_plan_id":"cebpf4jnsgd1na2vs0mg"},{"bike_id":"adf94568-f560-4501-938c-780d1b506fa8","system_id":"levelo_inurba_marseille","lat":43.31335,"lon":5.36758,"is_reserved":false,"is_disabled":false,"rental_uris":{"android":"levelo://app?vid=adf94568-f560-4501-938c-780d1b506fa8","ios":"levelo://app?vid=adf94568-f560-4501-938c-780d1b506fa8"},"vehicle_type_id":"4","last_reported":1730804861,"current_range_meters":34800,"station_id":"ce4bgr92rcd13ifvqc6g","pricing_plan_id":"cebpf4jnsgd1na2vs0mg"},{"bike_id":"4e6332c0-3dde-44f5-a3e2-5bcb34855e85","system_id":"levelo_inurba_marseille","lat":43.24066,"lon":5.3776,"is_reserved":false,"is_disabled":false,"rental_uris":{"android":"levelo://app?vid=4e6332c0-3dde-44f5-a3e2-5bcb34855e85","ios":"levelo://app?vid=4e6332c0-3dde-44f5-a3e2-5bcb34855e85"},"vehicle_type_id":"4","last_reported":1730804861,"current_range_meters":38800,"station_id":"ce4bhnp2rcd13ifvqgvg","pricing_plan_id":"cebpf4jnsgd1na2vs0mg"},{"bike_id":"d3a2d74b-227b-43e0-a669-db2d440f7cc1","system_id":"levelo_inurba_marseille","lat":43.30532,"lon":5.36535,"is_reserved":false,"is_disabled":false,"rental_uris":{"android":"levelo://app?vid=d3a2d74b-227b-43e0-a669-db2d440f7cc1","ios":"levelo://app?vid=d3a2d74b-227b-43e0-a669-db2d440f7cc1"},"vehicle_type_id":"4","last_reported":1730804861,"current_range_meters":10800,"station_id":"ce4bgs12rcd13ifvqcag","pricing_plan_id":"cebpf4jnsgd1na2vs0mg"},{"bike_id":"a2e40f3a-3095-4e13-b735-28e6c447bc0e","system_id":"levelo_inurba_marseille","lat":43.31213,"lon":5.36855,"is_reserved":false,"is_disabled":false,"rental_uris":{"android":"levelo://app?vid=a2e40f3a-3095-4e13-b735-28e6c447bc0e","ios":"levelo://app?vid=a2e40f3a-3095-4e13-b735-28e6c447bc0e"},"vehicle_type_id":"4","last_reported":1730804861,"current_range_meters":32400,"station_id":"ce4bgl92rcd13ifvqbq0","pricing_plan_id":"cebpf4jnsgd1na2vs0mg"},{"bike_id":"15038621-f50b-4d83-b76d-65a0390ac4ac","system_id":"levelo_inurba_marseille","lat":43.27489,"lon":5.42454,"is_reserved":false,"is_disabled":false,"rental_uris":{"android":"levelo://app?vid=15038621-f50b-4d83-b76d-65a0390ac4ac","ios":"levelo://app?vid=15038621-f50b-4d83-b76d-65a0390ac4ac"},"vehicle_type_id":"4","last_reported":1730804861,"current_range_meters":28000,"station_id":"ce4bhn92rcd13ifvqgrg","pricing_plan_id":"cebpf4jnsgd1na2vs0mg"},{"bike_id":"51945d30-5564-4226-8865-7fa91eb50c78","system_id":"levelo_inurba_marseille","lat":43.337444,"lon":5.374475,"is_reserved":false,"is_disabled":false,"rental_uris":{"android":"levelo://app?vid=51945d30-5564-4226-8865-7fa91eb50c78","ios":"levelo://app?vid=51945d30-5564-4226-8865-7fa91eb50c78"},"vehicle_type_id":"4","last_reported":1730804861,"current_range_meters":39200,"station_id":"ce4bh0h2rcd13ifvqd40","pricing_plan_id":"cebpf4jnsgd1na2vs0mg"},{"bike_id":"8a4d25c5-f3c4-45af-86a3-202bff6106cb","system_id":"levelo_inurba_marseille","lat":43.28934,"lon":5.39642,"is_reserved":false,"is_disabled":false,"rental_uris":{"android":"levelo://app?vid=8a4d25c5-f3c4-45af-86a3-202bff6106cb","ios":"levelo://app?vid=8a4d25c5-f3c4-45af-86a3-202bff6106cb"},"vehicle_type_id":"4","last_reported":1730804861,"current_range_meters":36800,"station_id":"","pricing_plan_id":"cebpf4jnsgd1na2vs0mg"},{"bike_id":"2dd40e8a-347a-4069-9f04-901c41b0a3c7","system_id":"levelo_inurba_marseille","lat":43.32105,"lon":5.36767,"is_reserved":false,"is_disabled":false,"rental_uris":{"android":"levelo://app?vid=2dd40e8a-347a-4069-9f04-901c41b0a3c7","ios":"levelo://app?vid=2dd40e8a-347a-4069-9f04-901c41b0a3c7"},"vehicle_type_id":"4","last_reported":1730804861,"current_range_meters":36800,"station_id":"ce4bhrh2rcd13ifvqhug","pricing_plan_id":"cebpf4jnsgd1na2vs0mg"},{"bike_id":"38526b2a-8697-4aef-a174-e0c1be19b7a7","system_id":"levelo_inurba_marseille","lat":43.28848,"lon":5.3588,"is_reserved":false,"is_disabled":false,"rental_uris":{"android":"levelo://app?vid=38526b2a-8697-4aef-a174-e0c1be19b7a7","ios":"levelo://app?vid=38526b2a-8697-4aef-a174-e0c1be19b7a7"},"vehicle_type_id":"4","last_reported":1730804861,"current_range_meters":17200,"station_id":"ce4bhb12rcd13ifvqem0","pricing_plan_id":"cebpf4jnsgd1na2vs0mg"},{"bike_id":"a150571d-5233-44e9-861e-53835cba520b","system_id":"levelo_inurba_marseille","lat":43.27491,"lon":5.42454,"is_reserved":false,"is_disabled":false,"rental_uris":{"android":"levelo://app?vid=a150571d-5233-44e9-861e-53835cba520b","ios":"levelo://app?vid=a150571d-5233-44e9-861e-53835cba520b"},"vehicle_type_id":"4","last_reported":1730804861,"current_range_meters":25200,"station_id":"","pricing_plan_id":"cebpf4jnsgd1na2vs0mg"},{"bike_id":"67dab935-1b71-438c-83ee-d4f8ffbef4c9","system_id":"levelo_inurba_marseille","lat":43.32481,"lon":5.36567,"is_reserved":false,"is_disabled":false,"rental_uris":{"android":"levelo://app?vid=67dab935-1b71-438c-83ee-d4f8ffbef4c9","ios":"levelo://app?vid=67dab935-1b71-438c-83ee-d4f8ffbef4c9"},"vehicle_type_id":"4","last_reported":1730804861,"current_range_meters":24000,"station_id":"ce4bhs12rcd13ifvqhvg","pricing_plan_id":"cebpf4jnsgd1na2vs0mg"},{"bike_id":"aafef72a-734b-4b0d-8b0f-c07b72926a7a","system_id":"levelo_inurba_marseille","lat":43.30541,"lon":5.36531,"is_reserved":false,"is_disabled":false,"rental_uris":{"android":"levelo://app?vid=aafef72a-734b-4b0d-8b0f-c07b72926a7a","ios":"levelo://app?vid=aafef72a-734b-4b0d-8b0f-c07b72926a7a"},"vehicle_type_id":"4","last_reported":1730804861,"current_range_meters":6400,"station_id":"ce4bgs12rcd13ifvqcag","pricing_plan_id":"cebpf4jnsgd1na2vs0mg"},{"bike_id":"5f238511-032d-4992-902d-fde9715a0ce0","system_id":"levelo_inurba_marseille","lat":43.29571,"lon":5.39984,"is_reserved":false,"is_disabled":false,"rental_uris":{"android":"levelo://app?vid=5f238511-032d-4992-902d-fde9715a0ce0","ios":"levelo://app?vid=5f238511-032d-4992-902d-fde9715a0ce0"},"vehicle_type_id":"4","last_reported":1730804861,"current_range_meters":24800,"station_id":"ce4bh312rcd13ifvqdj0","pricing_plan_id":"cebpf4jnsgd1na2vs0mg"},{"bike_id":"c8a2d708-abe4-4e54-aedc-a081f8a474e1","system_id":"levelo_inurba_marseille","lat":43.24081,"lon":5.37754,"is_reserved":false,"is_disabled":false,"rental_uris":{"android":"levelo://app?vid=c8a2d708-abe4-4e54-aedc-a081f8a474e1","ios":"levelo://app?vid=c8a2d708-abe4-4e54-aedc-a081f8a474e1"},"vehicle_type_id":"4","last_reported":1730804861,"current_range_meters":28000,"station_id":"ce4bhnp2rcd13ifvqgvg","pricing_plan_id":"cebpf4jnsgd1na2vs0mg"},{"bike_id":"91250bf2-829d-44d4-9abc-97013f1fe234","system_id":"levelo_inurba_marseille","lat":43.23147,"lon":5.43706,"is_reserved":false,"is_disabled":false,"rental_uris":{"android":"levelo://app?vid=91250bf2-829d-44d4-9abc-97013f1fe234","ios":"levelo://app?vid=91250bf2-829d-44d4-9abc-97013f1fe234"},"vehicle_type_id":"4","last_reported":1730804861,"current_range_meters":14800,"station_id":"ce4bhmp2rcd13ifvqgog","pricing_plan_id":"cebpf4jnsgd1na2vs0mg"},{"bike_id":"937ce82d-a7d4-4dbe-af7d-b5b30ccf2148","system_id":"levelo_inurba_marseille","lat":43.31355,"lon":5.3672,"is_reserved":false,"is_disabled":false,"rental_uris":{"android":"levelo://app?vid=937ce82d-a7d4-4dbe-af7d-b5b30ccf2148","ios":"levelo://app?vid=937ce82d-a7d4-4dbe-af7d-b5b30ccf2148"},"vehicle_type_id":"4","last_reported":1730804861,"current_range_meters":35600,"station_id":"ce4bgr92rcd13ifvqc6g","pricing_plan_id":"cebpf4jnsgd1na2vs0mg"},{"bike_id":"6a68659c-8729-49fb-beb4-5122d29d3574","system_id":"levelo_inurba_marseille","lat":43.30539,"lon":5.36561,"is_reserved":false,"is_disabled":false,"rental_uris":{"android":"levelo://app?vid=6a68659c-8729-49fb-beb4-5122d29d3574","ios":"levelo://app?vid=6a68659c-8729-49fb-beb4-5122d29d3574"},"vehicle_type_id":"4","last_reported":1730804861,"current_range_meters":17600,"station_id":"ce4bgs12rcd13ifvqcag","pricing_plan_id":"cebpf4jnsgd1na2vs0mg"},{"bike_id":"68e82ea6-05cb-447c-801c-b7197f92bbc9","system_id":"levelo_inurba_marseille","lat":43.2315,"lon":5.43718,"is_reserved":false,"is_disabled":false,"rental_uris":{"android":"levelo://app?vid=68e82ea6-05cb-447c-801c-b7197f92bbc9","ios":"levelo://app?vid=68e82ea6-05cb-447c-801c-b7197f92bbc9"},"vehicle_type_id":"4","last_reported":1730804861,"current_range_meters":8400,"station_id":"ce4bhmp2rcd13ifvqgog","pricing_plan_id":"cebpf4jnsgd1na2vs0mg"},{"bike_id":"476b1032-3456-4e75-9225-7aec38b7121d","system_id":"levelo_inurba_marseille","lat":43.27807,"lon":5.40723,"is_reserved":false,"is_disabled":false,"rental_uris":{"android":"levelo://app?vid=476b1032-3456-4e75-9225-7aec38b7121d","ios":"levelo://app?vid=476b1032-3456-4e75-9225-7aec38b7121d"},"vehicle_type_id":"4","last_reported":1730804861,"current_range_meters":22800,"station_id":"ce4bhnh2rcd13ifvqgtg","pricing_plan_id":"cebpf4jnsgd1na2vs0mg"},{"bike_id":"98ecf52e-74c6-45bc-a5b2-06c6ca5d158c","system_id":"levelo_inurba_marseille","lat":43.30908,"lon":5.36849,"is_reserved":false,"is_disabled":false,"rental_uris":{"android":"levelo://app?vid=98ecf52e-74c6-45bc-a5b2-06c6ca5d158c","ios":"levelo://app?vid=98ecf52e-74c6-45bc-a5b2-06c6ca5d158c"},"vehicle_type_id":"4","last_reported":1730804861,"current_range_meters":38800,"station_id":"ce4bgn92rcd13ifvqbvg","pricing_plan_id":"cebpf4jnsgd1na2vs0mg"},{"bike_id":"0d6389f7-bab8-4ebf-ad74-7e0fecb405b9","system_id":"levelo_inurba_marseille","lat":43.31346,"lon":5.36712,"is_reserved":false,"is_disabled":false,"rental_uris":{"android":"levelo://app?vid=0d6389f7-bab8-4ebf-ad74-7e0fecb405b9","ios":"levelo://app?vid=0d6389f7-bab8-4ebf-ad74-7e0fecb405b9"},"vehicle_type_id":"4","last_reported":1730804861,"current_range_meters":34800,"station_id":"ce4bgr92rcd13ifvqc6g","pricing_plan_id":"cebpf4jnsgd1na2vs0mg"},{"bike_id":"a8553cc7-d553-4996-8fd6-0983ccad587a","system_id":"levelo_inurba_marseille","lat":43.26938,"lon":5.40245,"is_reserved":false,"is_disabled":false,"rental_uris":{"android":"levelo://app?vid=a8553cc7-d553-4996-8fd6-0983ccad587a","ios":"levelo://app?vid=a8553cc7-d553-4996-8fd6-0983ccad587a"},"vehicle_type_id":"4","last_reported":1730804861,"current_range_meters":37600,"station_id":"cjm6bp8fraef2m0cb0m0","pricing_plan_id":"cebpf4jnsgd1na2vs0mg"},{"bike_id":"2eac1b37-6523-49bd-a9dd-e97d9d8f39c0","system_id":"levelo_inurba_marseille","lat":43.31073,"lon":5.383554,"is_reserved":false,"is_disabled":false,"rental_uris":{"android":"levelo://app?vid=2eac1b37-6523-49bd-a9dd-e97d9d8f39c0","ios":"levelo://app?vid=2eac1b37-6523-49bd-a9dd-e97d9d8f39c0"},"vehicle_type_id":"4","last_reported":1730804861,"current_range_meters":18000,"station_id":"ce4bgv92rcd13ifvqcr0","pricing_plan_id":"cebpf4jnsgd1na2vs0mg"},{"bike_id":"03315747-e31c-4125-ba93-de8dc76db2e8","system_id":"levelo_inurba_marseille","lat":43.3116,"lon":5.38719,"is_reserved":false,"is_disabled":false,"rental_uris":{"android":"levelo://app?vid=03315747-e31c-4125-ba93-de8dc76db2e8","ios":"levelo://app?vid=03315747-e31c-4125-ba93-de8dc76db2e8"},"vehicle_type_id":"4","last_reported":1730804861,"current_range_meters":32400,"station_id":"ce4bgv12rcd13ifvqcp0","pricing_plan_id":"cebpf4jnsgd1na2vs0mg"},{"bike_id":"9b19e0fa-e638-4d60-b483-8c2809f0440b","system_id":"levelo_inurba_marseille","lat":43.27298,"lon":5.39074,"is_reserved":false,"is_disabled":false,"rental_uris":{"android":"levelo://app?vid=9b19e0fa-e638-4d60-b483-8c2809f0440b","ios":"levelo://app?vid=9b19e0fa-e638-4d60-b483-8c2809f0440b"},"vehicle_type_id":"4","last_reported":1730804861,"current_range_meters":24800,"station_id":"ce4bhgp2rcd13ifvqfe0","pricing_plan_id":"cebpf4jnsgd1na2vs0mg"},{"bike_id":"322c4a57-b893-475c-924c-a7f6c8debbb7","system_id":"levelo_inurba_marseille","lat":43.29521,"lon":5.39042,"is_reserved":false,"is_disabled":false,"rental_uris":{"android":"levelo://app?vid=322c4a57-b893-475c-924c-a7f6c8debbb7","ios":"levelo://app?vid=322c4a57-b893-475c-924c-a7f6c8debbb7"},"vehicle_type_id":"4","last_reported":1730804861,"current_range_meters":3200,"station_id":"ce4bh3p2rcd13ifvqdp0","pricing_plan_id":"cebpf4jnsgd1na2vs0mg"},{"bike_id":"8e276551-85a6-4d6f-96cf-66bbded28bbf","system_id":"levelo_inurba_marseille","lat":43.29982,"lon":5.37175,"is_reserved":false,"is_disabled":false,"rental_uris":{"android":"levelo://app?vid=8e276551-85a6-4d6f-96cf-66bbded28bbf","ios":"levelo://app?vid=8e276551-85a6-4d6f-96cf-66bbded28bbf"},"vehicle_type_id":"4","last_reported":1730804861,"current_range_meters":14000,"station_id":"ce4bgr92rcd13ifvqc7g","pricing_plan_id":"cebpf4jnsgd1na2vs0mg"},{"bike_id":"fe319810-8d53-4a22-a087-96a644f89f95","system_id":"levelo_inurba_marseille","lat":43.29846,"lon":5.36264,"is_reserved":false,"is_disabled":false,"rental_uris":{"android":"levelo://app?vid=fe319810-8d53-4a22-a087-96a644f89f95","ios":"levelo://app?vid=fe319810-8d53-4a22-a087-96a644f89f95"},"vehicle_type_id":"4","last_reported":1730804861,"current_range_meters":31200,"station_id":"ce4bgpp2rcd13ifvqc3g","pricing_plan_id":"cebpf4jnsgd1na2vs0mg"},{"bike_id":"2228c62c-f164-4c3d-b579-12743b0c4ec4","system_id":"levelo_inurba_marseille","lat":43.27306,"lon":5.39079,"is_reserved":false,"is_disabled":false,"rental_uris":{"android":"levelo://app?vid=2228c62c-f164-4c3d-b579-12743b0c4ec4","ios":"levelo://app?vid=2228c62c-f164-4c3d-b579-12743b0c4ec4"},"vehicle_type_id":"4","last_reported":1730804861,"current_range_meters":37600,"station_id":"ce4bhgp2rcd13ifvqfe0","pricing_plan_id":"cebpf4jnsgd1na2vs0mg"},{"bike_id":"f89eb688-e98e-4c0c-a5fd-fde0b6ffdde1","system_id":"levelo_inurba_marseille","lat":43.25861,"lon":5.399,"is_reserved":false,"is_disabled":false,"rental_uris":{"android":"levelo://app?vid=f89eb688-e98e-4c0c-a5fd-fde0b6ffdde1","ios":"levelo://app?vid=f89eb688-e98e-4c0c-a5fd-fde0b6ffdde1"},"vehicle_type_id":"4","last_reported":1730804861,"current_range_meters":24400,"station_id":"ce4bhl92rcd13ifvqghg","pricing_plan_id":"cebpf4jnsgd1na2vs0mg"},{"bike_id":"f89ad062-ad13-40dc-8bdc-b3ee5617823d","system_id":"levelo_inurba_marseille","lat":43.2799,"lon":5.41665,"is_reserved":false,"is_disabled":false,"rental_uris":{"android":"levelo://app?vid=f89ad062-ad13-40dc-8bdc-b3ee5617823d","ios":"levelo://app?vid=f89ad062-ad13-40dc-8bdc-b3ee5617823d"},"vehicle_type_id":"4","last_reported":1730804861,"current_range_meters":28000,"station_id":"ce4bho12rcd13ifvqh1g","pricing_plan_id":"cebpf4jnsgd1na2vs0mg"},{"bike_id":"15de2ca6-28c5-4f21-a946-3c35db8b327d","system_id":"levelo_inurba_marseille","lat":43.24068,"lon":5.37757,"is_reserved":false,"is_disabled":false,"rental_uris":{"android":"levelo://app?vid=15de2ca6-28c5-4f21-a946-3c35db8b327d","ios":"levelo://app?vid=15de2ca6-28c5-4f21-a946-3c35db8b327d"},"vehicle_type_id":"4","last_reported":1730804861,"current_range_meters":32000,"station_id":"ce4bhnp2rcd13ifvqgvg","pricing_plan_id":"cebpf4jnsgd1na2vs0mg"},{"bike_id":"89613f0f-5b27-46f7-8ae5-dc5ac8fe7e35","system_id":"levelo_inurba_marseille","lat":43.25937,"lon":5.409,"is_reserved":false,"is_disabled":false,"rental_uris":{"android":"levelo://app?vid=89613f0f-5b27-46f7-8ae5-dc5ac8fe7e35","ios":"levelo://app?vid=89613f0f-5b27-46f7-8ae5-dc5ac8fe7e35"},"vehicle_type_id":"4","last_reported":1730804861,"current_range_meters":20800,"station_id":"ce4bhm92rcd13ifvqglg","pricing_plan_id":"cebpf4jnsgd1na2vs0mg"},{"bike_id":"6d4b3823-67ef-4e35-8712-7d4875bf524d","system_id":"levelo_inurba_marseille","lat":43.29596,"lon":5.38099,"is_reserved":false,"is_disabled":false,"rental_uris":{"android":"levelo://app?vid=6d4b3823-67ef-4e35-8712-7d4875bf524d","ios":"levelo://app?vid=6d4b3823-67ef-4e35-8712-7d4875bf524d"},"vehicle_type_id":"4","last_reported":1730804861,"current_range_meters":26800,"station_id":"ce4bgl12rcd13ifvqbo0","pricing_plan_id":"cebpf4jnsgd1na2vs0mg"},{"bike_id":"16ae9290-db9a-4317-b34b-8b26fa9930fd","system_id":"levelo_inurba_marseille","lat":43.231517,"lon":5.437014,"is_reserved":false,"is_disabled":false,"rental_uris":{"android":"levelo://app?vid=16ae9290-db9a-4317-b34b-8b26fa9930fd","ios":"levelo://app?vid=16ae9290-db9a-4317-b34b-8b26fa9930fd"},"vehicle_type_id":"4","last_reported":1730804861,"current_range_meters":28000,"station_id":"ce4bhmp2rcd13ifvqgog","pricing_plan_id":"cebpf4jnsgd1na2vs0mg"},{"bike_id":"524ce7e4-6bbd-4bfb-8779-80a076ff31ae","system_id":"levelo_inurba_marseille","lat":43.28699,"lon":5.39985,"is_reserved":false,"is_disabled":false,"rental_uris":{"android":"levelo://app?vid=524ce7e4-6bbd-4bfb-8779-80a076ff31ae","ios":"levelo://app?vid=524ce7e4-6bbd-4bfb-8779-80a076ff31ae"},"vehicle_type_id":"4","last_reported":1730804861,"current_range_meters":21600,"station_id":"","pricing_plan_id":"cebpf4jnsgd1na2vs0mg"},{"bike_id":"77f75c58-df77-4d1f-b372-5b5eed455101","system_id":"levelo_inurba_marseille","lat":43.30531,"lon":5.36538,"is_reserved":false,"is_disabled":false,"rental_uris":{"android":"levelo://app?vid=77f75c58-df77-4d1f-b372-5b5eed455101","ios":"levelo://app?vid=77f75c58-df77-4d1f-b372-5b5eed455101"},"vehicle_type_id":"4","last_reported":1730804861,"current_range_meters":38800,"station_id":"ce4bgs12rcd13ifvqcag","pricing_plan_id":"cebpf4jnsgd1na2vs0mg"},{"bike_id":"23ddf6b7-63f6-41f7-a867-e52589caa855","system_id":"levelo_inurba_marseille","lat":43.32488,"lon":5.36563,"is_reserved":false,"is_disabled":false,"rental_uris":{"android":"levelo://app?vid=23ddf6b7-63f6-41f7-a867-e52589caa855","ios":"levelo://app?vid=23ddf6b7-63f6-41f7-a867-e52589caa855"},"vehicle_type_id":"4","last_reported":1730804861,"current_range_meters":25600,"station_id":"ce4bhs12rcd13ifvqhvg","pricing_plan_id":"cebpf4jnsgd1na2vs0mg"},{"bike_id":"d7eba0bc-553a-47d4-8bc6-a467f428147a","system_id":"levelo_inurba_marseille","lat":43.31347,"lon":5.36718,"is_reserved":false,"is_disabled":false,"rental_uris":{"android":"levelo://app?vid=d7eba0bc-553a-47d4-8bc6-a467f428147a","ios":"levelo://app?vid=d7eba0bc-553a-47d4-8bc6-a467f428147a"},"vehicle_type_id":"4","last_reported":1730804861,"current_range_meters":30000,"station_id":"ce4bgr92rcd13ifvqc6g","pricing_plan_id":"cebpf4jnsgd1na2vs0mg"},{"bike_id":"174a9c63-b9aa-41b3-96d0-8e2413e29aee","system_id":"levelo_inurba_marseille","lat":43.30597,"lon":5.39363,"is_reserved":false,"is_disabled":false,"rental_uris":{"android":"levelo://app?vid=174a9c63-b9aa-41b3-96d0-8e2413e29aee","ios":"levelo://app?vid=174a9c63-b9aa-41b3-96d0-8e2413e29aee"},"vehicle_type_id":"4","last_reported":1730804861,"current_range_meters":24000,"station_id":"ce4bh0p2rcd13ifvqd80","pricing_plan_id":"cebpf4jnsgd1na2vs0mg"},{"bike_id":"f094879d-cdd0-47bb-b3a9-ddaee2749e46","system_id":"levelo_inurba_marseille","lat":43.31115,"lon":5.37762,"is_reserved":false,"is_disabled":false,"rental_uris":{"android":"levelo://app?vid=f094879d-cdd0-47bb-b3a9-ddaee2749e46","ios":"levelo://app?vid=f094879d-cdd0-47bb-b3a9-ddaee2749e46"},"vehicle_type_id":"4","last_reported":1730804861,"current_range_meters":22800,"station_id":"ce4bgt92rcd13ifvqcg0","pricing_plan_id":"cebpf4jnsgd1na2vs0mg"},{"bike_id":"55c88d0d-09c6-4e51-a411-aca3fe05d038","system_id":"levelo_inurba_marseille","lat":43.25578,"lon":5.38237,"is_reserved":false,"is_disabled":false,"rental_uris":{"android":"levelo://app?vid=55c88d0d-09c6-4e51-a411-aca3fe05d038","ios":"levelo://app?vid=55c88d0d-09c6-4e51-a411-aca3fe05d038"},"vehicle_type_id":"4","last_reported":1730804861,"current_range_meters":34000,"station_id":"ce4bhih2rcd13ifvqfs0","pricing_plan_id":"cebpf4jnsgd1na2vs0mg"},{"bike_id":"bb254295-6b2f-47fa-b542-f768ed4879ee","system_id":"levelo_inurba_marseille","lat":43.23153,"lon":5.43712,"is_reserved":false,"is_disabled":false,"rental_uris":{"android":"levelo://app?vid=bb254295-6b2f-47fa-b542-f768ed4879ee","ios":"levelo://app?vid=bb254295-6b2f-47fa-b542-f768ed4879ee"},"vehicle_type_id":"4","last_reported":1730804861,"current_range_meters":17600,"station_id":"ce4bhmp2rcd13ifvqgog","pricing_plan_id":"cebpf4jnsgd1na2vs0mg"},{"bike_id":"ff667aa2-147a-4a47-b6ea-40549b50c928","system_id":"levelo_inurba_marseille","lat":43.23152,"lon":5.43717,"is_reserved":false,"is_disabled":false,"rental_uris":{"android":"levelo://app?vid=ff667aa2-147a-4a47-b6ea-40549b50c928","ios":"levelo://app?vid=ff667aa2-147a-4a47-b6ea-40549b50c928"},"vehicle_type_id":"4","last_reported":1730804861,"current_range_meters":32000,"station_id":"ce4bhmp2rcd13ifvqgog","pricing_plan_id":"cebpf4jnsgd1na2vs0mg"},{"bike_id":"3f0ac8b6-a688-4ae8-b86c-0f4e3445eb81","system_id":"levelo_inurba_marseille","lat":43.27065,"lon":5.42272,"is_reserved":false,"is_disabled":false,"rental_uris":{"android":"levelo://app?vid=3f0ac8b6-a688-4ae8-b86c-0f4e3445eb81","ios":"levelo://app?vid=3f0ac8b6-a688-4ae8-b86c-0f4e3445eb81"},"vehicle_type_id":"4","last_reported":1730804861,"current_range_meters":38800,"station_id":"ce4bhk92rcd13ifvqgb0","pricing_plan_id":"cebpf4jnsgd1na2vs0mg"},{"bike_id":"2727a84d-6767-4484-bc15-6e10789f0b2a","system_id":"levelo_inurba_marseille","lat":43.29976,"lon":5.37171,"is_reserved":false,"is_disabled":false,"rental_uris":{"android":"levelo://app?vid=2727a84d-6767-4484-bc15-6e10789f0b2a","ios":"levelo://app?vid=2727a84d-6767-4484-bc15-6e10789f0b2a"},"vehicle_type_id":"4","last_reported":1730804861,"current_range_meters":24800,"station_id":"ce4bgr92rcd13ifvqc7g","pricing_plan_id":"cebpf4jnsgd1na2vs0mg"},{"bike_id":"54bc5c04-a443-4fca-8505-bd795ddbdc06","system_id":"levelo_inurba_marseille","lat":43.24174,"lon":5.39722,"is_reserved":false,"is_disabled":false,"rental_uris":{"android":"levelo://app?vid=54bc5c04-a443-4fca-8505-bd795ddbdc06","ios":"levelo://app?vid=54bc5c04-a443-4fca-8505-bd795ddbdc06"},"vehicle_type_id":"4","last_reported":1730804861,"current_range_meters":28000,"station_id":"ce4bhn12rcd13ifvqgpg","pricing_plan_id":"cebpf4jnsgd1na2vs0mg"},{"bike_id":"206ab00b-31a9-442e-9711-d4f340d34a4e","system_id":"levelo_inurba_marseille","lat":43.33022,"lon":5.39039,"is_reserved":false,"is_disabled":false,"rental_uris":{"android":"levelo://app?vid=206ab00b-31a9-442e-9711-d4f340d34a4e","ios":"levelo://app?vid=206ab00b-31a9-442e-9711-d4f340d34a4e"},"vehicle_type_id":"4","last_reported":1730804861,"current_range_meters":24400,"station_id":"","pricing_plan_id":"cebpf4jnsgd1na2vs0mg"},{"bike_id":"9918dd2f-e023-4fe8-8992-c87189aa040d","system_id":"levelo_inurba_marseille","lat":43.28939,"lon":5.3963,"is_reserved":false,"is_disabled":false,"rental_uris":{"android":"levelo://app?vid=9918dd2f-e023-4fe8-8992-c87189aa040d","ios":"levelo://app?vid=9918dd2f-e023-4fe8-8992-c87189aa040d"},"vehicle_type_id":"4","last_reported":1730804861,"current_range_meters":24400,"station_id":"ce4bh3h2rcd13ifvqdn0","pricing_plan_id":"cebpf4jnsgd1na2vs0mg"},{"bike_id":"a3bbb043-6bb9-4f1e-adc9-58cb8bda5cf9","system_id":"levelo_inurba_marseille","lat":43.24084,"lon":5.37745,"is_reserved":false,"is_disabled":false,"rental_uris":{"android":"levelo://app?vid=a3bbb043-6bb9-4f1e-adc9-58cb8bda5cf9","ios":"levelo://app?vid=a3bbb043-6bb9-4f1e-adc9-58cb8bda5cf9"},"vehicle_type_id":"4","last_reported":1730804861,"current_range_meters":24800,"station_id":"ce4bhnp2rcd13ifvqgvg","pricing_plan_id":"cebpf4jnsgd1na2vs0mg"},{"bike_id":"64bf8cd4-f0cc-424f-a976-94420814adf3","system_id":"levelo_inurba_marseille","lat":43.29442,"lon":5.39741,"is_reserved":false,"is_disabled":false,"rental_uris":{"android":"levelo://app?vid=64bf8cd4-f0cc-424f-a976-94420814adf3","ios":"levelo://app?vid=64bf8cd4-f0cc-424f-a976-94420814adf3"},"vehicle_type_id":"4","last_reported":1730804861,"current_range_meters":27600,"station_id":"ce4bh3h2rcd13ifvqdo0","pricing_plan_id":"cebpf4jnsgd1na2vs0mg"},{"bike_id":"2f3fb672-e693-4cd7-8835-965da134d65f","system_id":"levelo_inurba_marseille","lat":43.27677,"lon":5.38915,"is_reserved":false,"is_disabled":false,"rental_uris":{"android":"levelo://app?vid=2f3fb672-e693-4cd7-8835-965da134d65f","ios":"levelo://app?vid=2f3fb672-e693-4cd7-8835-965da134d65f"},"vehicle_type_id":"4","last_reported":1730804861,"current_range_meters":36800,"station_id":"ce4bhi12rcd13ifvqfo0","pricing_plan_id":"cebpf4jnsgd1na2vs0mg"},{"bike_id":"57e7ea0d-136c-4ce7-8242-21c4b2cac819","system_id":"levelo_inurba_marseille","lat":43.30908,"lon":5.36849,"is_reserved":false,"is_disabled":false,"rental_uris":{"android":"levelo://app?vid=57e7ea0d-136c-4ce7-8242-21c4b2cac819","ios":"levelo://app?vid=57e7ea0d-136c-4ce7-8242-21c4b2cac819"},"vehicle_type_id":"4","last_reported":1730804861,"current_range_meters":31200,"station_id":"ce4bgn92rcd13ifvqbvg","pricing_plan_id":"cebpf4jnsgd1na2vs0mg"},{"bike_id":"154acfee-d67d-4e4b-8812-97f42357517d","system_id":"levelo_inurba_marseille","lat":43.27807,"lon":5.40708,"is_reserved":false,"is_disabled":false,"rental_uris":{"android":"levelo://app?vid=154acfee-d67d-4e4b-8812-97f42357517d","ios":"levelo://app?vid=154acfee-d67d-4e4b-8812-97f42357517d"},"vehicle_type_id":"4","last_reported":1730804861,"current_range_meters":20000,"station_id":"ce4bhnh2rcd13ifvqgtg","pricing_plan_id":"cebpf4jnsgd1na2vs0mg"},{"bike_id":"e20042a3-679d-432e-bbad-615f69049412","system_id":"levelo_inurba_marseille","lat":43.2315,"lon":5.43708,"is_reserved":false,"is_disabled":false,"rental_uris":{"android":"levelo://app?vid=e20042a3-679d-432e-bbad-615f69049412","ios":"levelo://app?vid=e20042a3-679d-432e-bbad-615f69049412"},"vehicle_type_id":"4","last_reported":1730804861,"current_range_meters":27600,"station_id":"ce4bhmp2rcd13ifvqgog","pricing_plan_id":"cebpf4jnsgd1na2vs0mg"},{"bike_id":"47a64d21-5ac6-4cb0-9d7a-360d0b956e6c","system_id":"levelo_inurba_marseille","lat":43.30279,"lon":5.37707,"is_reserved":false,"is_disabled":false,"rental_uris":{"android":"levelo://app?vid=47a64d21-5ac6-4cb0-9d7a-360d0b956e6c","ios":"levelo://app?vid=47a64d21-5ac6-4cb0-9d7a-360d0b956e6c"},"vehicle_type_id":"4","last_reported":1730804861,"current_range_meters":6800,"station_id":"ce4bguh2rcd13ifvqcj0","pricing_plan_id":"cebpf4jnsgd1na2vs0mg"},{"bike_id":"0364ef51-c7bc-42b0-96db-5ed05474de36","system_id":"levelo_inurba_marseille","lat":43.26799,"lon":5.40264,"is_reserved":false,"is_disabled":false,"rental_uris":{"android":"levelo://app?vid=0364ef51-c7bc-42b0-96db-5ed05474de36","ios":"levelo://app?vid=0364ef51-c7bc-42b0-96db-5ed05474de36"},"vehicle_type_id":"4","last_reported":1730804861,"current_range_meters":28000,"station_id":"ce501612rcd8frsf0b60","pricing_plan_id":"cebpf4jnsgd1na2vs0mg"},{"bike_id":"91de9abc-21c4-4a3b-9f51-ddf86b731896","system_id":"levelo_inurba_marseille","lat":43.312714,"lon":5.38513,"is_reserved":false,"is_disabled":false,"rental_uris":{"android":"levelo://app?vid=91de9abc-21c4-4a3b-9f51-ddf86b731896","ios":"levelo://app?vid=91de9abc-21c4-4a3b-9f51-ddf86b731896"},"vehicle_type_id":"4","last_reported":1730804861,"current_range_meters":27200,"station_id":"ce4bgt92rcd13ifvqcf0","pricing_plan_id":"cebpf4jnsgd1na2vs0mg"},{"bike_id":"f6fac252-bcfe-4359-8cd8-84ee90eebb7d","system_id":"levelo_inurba_marseille","lat":43.30528,"lon":5.36533,"is_reserved":false,"is_disabled":false,"rental_uris":{"android":"levelo://app?vid=f6fac252-bcfe-4359-8cd8-84ee90eebb7d","ios":"levelo://app?vid=f6fac252-bcfe-4359-8cd8-84ee90eebb7d"},"vehicle_type_id":"4","last_reported":1730804861,"current_range_meters":39200,"station_id":"ce4bgs12rcd13ifvqcag","pricing_plan_id":"cebpf4jnsgd1na2vs0mg"},{"bike_id":"660f9ab5-0ee6-45bd-9ba0-20f4579b8e99","system_id":"levelo_inurba_marseille","lat":43.33595,"lon":5.41021,"is_reserved":false,"is_disabled":false,"rental_uris":{"android":"levelo://app?vid=660f9ab5-0ee6-45bd-9ba0-20f4579b8e99","ios":"levelo://app?vid=660f9ab5-0ee6-45bd-9ba0-20f4579b8e99"},"vehicle_type_id":"4","last_reported":1730804861,"current_range_meters":38800,"station_id":"ce4bhqh2rcd13ifvqhmg","pricing_plan_id":"cebpf4jnsgd1na2vs0mg"},{"bike_id":"ae041007-e592-4090-bb3e-17b320956fec","system_id":"levelo_inurba_marseille","lat":43.2407,"lon":5.3775,"is_reserved":false,"is_disabled":false,"rental_uris":{"android":"levelo://app?vid=ae041007-e592-4090-bb3e-17b320956fec","ios":"levelo://app?vid=ae041007-e592-4090-bb3e-17b320956fec"},"vehicle_type_id":"4","last_reported":1730804861,"current_range_meters":24800,"station_id":"ce4bhnp2rcd13ifvqgvg","pricing_plan_id":"cebpf4jnsgd1na2vs0mg"},{"bike_id":"fc7e1c38-5ceb-4fb3-9afa-990ebfb95007","system_id":"levelo_inurba_marseille","lat":43.23156,"lon":5.43709,"is_reserved":false,"is_disabled":false,"rental_uris":{"android":"levelo://app?vid=fc7e1c38-5ceb-4fb3-9afa-990ebfb95007","ios":"levelo://app?vid=fc7e1c38-5ceb-4fb3-9afa-990ebfb95007"},"vehicle_type_id":"4","last_reported":1730804861,"current_range_meters":24000,"station_id":"ce4bhmp2rcd13ifvqgog","pricing_plan_id":"cebpf4jnsgd1na2vs0mg"},{"bike_id":"8d300db8-fddf-4c19-b47b-a311848031fe","system_id":"levelo_inurba_marseille","lat":43.25937,"lon":5.409,"is_reserved":false,"is_disabled":false,"rental_uris":{"android":"levelo://app?vid=8d300db8-fddf-4c19-b47b-a311848031fe","ios":"levelo://app?vid=8d300db8-fddf-4c19-b47b-a311848031fe"},"vehicle_type_id":"4","last_reported":1730804861,"current_range_meters":16400,"station_id":"ce4bhm92rcd13ifvqglg","pricing_plan_id":"cebpf4jnsgd1na2vs0mg"},{"bike_id":"94767d64-6cce-4bdd-a274-3194a009e90b","system_id":"levelo_inurba_marseille","lat":43.29928,"lon":5.36541,"is_reserved":false,"is_disabled":false,"rental_uris":{"android":"levelo://app?vid=94767d64-6cce-4bdd-a274-3194a009e90b","ios":"levelo://app?vid=94767d64-6cce-4bdd-a274-3194a009e90b"},"vehicle_type_id":"4","last_reported":1730804861,"current_range_meters":32000,"station_id":"ce4bgm92rcd13ifvqbr0","pricing_plan_id":"cebpf4jnsgd1na2vs0mg"},{"bike_id":"9f4017a7-590d-46e1-90ac-f643ab37d017","system_id":"levelo_inurba_marseille","lat":43.30449,"lon":5.37904,"is_reserved":false,"is_disabled":false,"rental_uris":{"android":"levelo://app?vid=9f4017a7-590d-46e1-90ac-f643ab37d017","ios":"levelo://app?vid=9f4017a7-590d-46e1-90ac-f643ab37d017"},"vehicle_type_id":"4","last_reported":1730804861,"current_range_meters":22400,"station_id":"ce4bgup2rcd13ifvqcn0","pricing_plan_id":"cebpf4jnsgd1na2vs0mg"},{"bike_id":"823967de-5ba0-4689-8bf8-641b466fd8b1","system_id":"levelo_inurba_marseille","lat":43.23195,"lon":5.35556,"is_reserved":false,"is_disabled":false,"rental_uris":{"android":"levelo://app?vid=823967de-5ba0-4689-8bf8-641b466fd8b1","ios":"levelo://app?vid=823967de-5ba0-4689-8bf8-641b466fd8b1"},"vehicle_type_id":"4","last_reported":1730804861,"current_range_meters":38800,"station_id":"ce4bhu92rcd13ifvqi70","pricing_plan_id":"cebpf4jnsgd1na2vs0mg"},{"bike_id":"4ff57ef4-831e-43b1-a173-1b707f06ac2c","system_id":"levelo_inurba_marseille","lat":43.30134,"lon":5.39859,"is_reserved":false,"is_disabled":false,"rental_uris":{"android":"levelo://app?vid=4ff57ef4-831e-43b1-a173-1b707f06ac2c","ios":"levelo://app?vid=4ff57ef4-831e-43b1-a173-1b707f06ac2c"},"vehicle_type_id":"4","last_reported":1730804861,"current_range_meters":26800,"station_id":"ce4bh0h2rcd13ifvqd40","pricing_plan_id":"cebpf4jnsgd1na2vs0mg"},{"bike_id":"df2000e4-7ce1-46ba-980f-a90a63f2d7a2","system_id":"levelo_inurba_marseille","lat":43.29848,"lon":5.36283,"is_reserved":false,"is_disabled":false,"rental_uris":{"android":"levelo://app?vid=df2000e4-7ce1-46ba-980f-a90a63f2d7a2","ios":"levelo://app?vid=df2000e4-7ce1-46ba-980f-a90a63f2d7a2"},"vehicle_type_id":"4","last_reported":1730804861,"current_range_meters":37600,"station_id":"ce4bgpp2rcd13ifvqc3g","pricing_plan_id":"cebpf4jnsgd1na2vs0mg"},{"bike_id":"80321231-d2f0-42fa-8d09-af9526df13b5","system_id":"levelo_inurba_marseille","lat":43.26803,"lon":5.40269,"is_reserved":false,"is_disabled":false,"rental_uris":{"android":"levelo://app?vid=80321231-d2f0-42fa-8d09-af9526df13b5","ios":"levelo://app?vid=80321231-d2f0-42fa-8d09-af9526df13b5"},"vehicle_type_id":"4","last_reported":1730804861,"current_range_meters":28800,"station_id":"ce501612rcd8frsf0b60","pricing_plan_id":"cebpf4jnsgd1na2vs0mg"},{"bike_id":"a277368d-791b-402a-832d-49a121abbb5e","system_id":"levelo_inurba_marseille","lat":43.31222,"lon":5.3685,"is_reserved":false,"is_disabled":false,"rental_uris":{"android":"levelo://app?vid=a277368d-791b-402a-832d-49a121abbb5e","ios":"levelo://app?vid=a277368d-791b-402a-832d-49a121abbb5e"},"vehicle_type_id":"4","last_reported":1730804861,"current_range_meters":19200,"station_id":"ce4bgl92rcd13ifvqbq0","pricing_plan_id":"cebpf4jnsgd1na2vs0mg"},{"bike_id":"e1e25173-2085-4298-a21b-9dc611849919","system_id":"levelo_inurba_marseille","lat":43.30129,"lon":5.39855,"is_reserved":false,"is_disabled":false,"rental_uris":{"android":"levelo://app?vid=e1e25173-2085-4298-a21b-9dc611849919","ios":"levelo://app?vid=e1e25173-2085-4298-a21b-9dc611849919"},"vehicle_type_id":"4","last_reported":1730804861,"current_range_meters":27200,"station_id":"ce4bh0h2rcd13ifvqd40","pricing_plan_id":"cebpf4jnsgd1na2vs0mg"},{"bike_id":"1d380541-9a5c-4fa2-b70d-13ad6114230c","system_id":"levelo_inurba_marseille","lat":43.27045,"lon":5.40262,"is_reserved":false,"is_disabled":false,"rental_uris":{"android":"levelo://app?vid=1d380541-9a5c-4fa2-b70d-13ad6114230c","ios":"levelo://app?vid=1d380541-9a5c-4fa2-b70d-13ad6114230c"},"vehicle_type_id":"4","last_reported":1730804861,"current_range_meters":30400,"station_id":"ce4bhk92rcd13ifvqgc0","pricing_plan_id":"cebpf4jnsgd1na2vs0mg"},{"bike_id":"12578756-eb6a-4280-9b78-0cb0122945f7","system_id":"levelo_inurba_marseille","lat":43.28948,"lon":5.35517,"is_reserved":false,"is_disabled":false,"rental_uris":{"android":"levelo://app?vid=12578756-eb6a-4280-9b78-0cb0122945f7","ios":"levelo://app?vid=12578756-eb6a-4280-9b78-0cb0122945f7"},"vehicle_type_id":"4","last_reported":1730804861,"current_range_meters":34000,"station_id":"ce4bhb92rcd13ifvqen0","pricing_plan_id":"cebpf4jnsgd1na2vs0mg"},{"bike_id":"d704f688-af5b-4e0a-927f-265937093706","system_id":"levelo_inurba_marseille","lat":43.30531,"lon":5.38427,"is_reserved":false,"is_disabled":false,"rental_uris":{"android":"levelo://app?vid=d704f688-af5b-4e0a-927f-265937093706","ios":"levelo://app?vid=d704f688-af5b-4e0a-927f-265937093706"},"vehicle_type_id":"4","last_reported":1730804861,"current_range_meters":37600,"station_id":"ce4bgg92rcd13ifvqb30","pricing_plan_id":"cebpf4jnsgd1na2vs0mg"},{"bike_id":"3eaab98d-ecf1-477b-a6f7-5cbf37f52146","system_id":"levelo_inurba_marseille","lat":43.26555,"lon":5.37284,"is_reserved":false,"is_disabled":false,"rental_uris":{"android":"levelo://app?vid=3eaab98d-ecf1-477b-a6f7-5cbf37f52146","ios":"levelo://app?vid=3eaab98d-ecf1-477b-a6f7-5cbf37f52146"},"vehicle_type_id":"4","last_reported":1730804861,"current_range_meters":4000,"station_id":"ce4bhg12rcd13ifvqf70","pricing_plan_id":"cebpf4jnsgd1na2vs0mg"},{"bike_id":"d3d5bf97-ee4e-462c-9692-ff991a12530c","system_id":"levelo_inurba_marseille","lat":43.336,"lon":5.41023,"is_reserved":false,"is_disabled":false,"rental_uris":{"android":"levelo://app?vid=d3d5bf97-ee4e-462c-9692-ff991a12530c","ios":"levelo://app?vid=d3d5bf97-ee4e-462c-9692-ff991a12530c"},"vehicle_type_id":"4","last_reported":1730804861,"current_range_meters":36800,"station_id":"ce4bhqh2rcd13ifvqhmg","pricing_plan_id":"cebpf4jnsgd1na2vs0mg"},{"bike_id":"e7874ce2-f692-46c5-87b4-56890b100158","system_id":"levelo_inurba_marseille","lat":43.23062,"lon":5.35494,"is_reserved":false,"is_disabled":false,"rental_uris":{"android":"levelo://app?vid=e7874ce2-f692-46c5-87b4-56890b100158","ios":"levelo://app?vid=e7874ce2-f692-46c5-87b4-56890b100158"},"vehicle_type_id":"4","last_reported":1730804861,"current_range_meters":38800,"station_id":"cpo3342slgdg3j2ifvpg","pricing_plan_id":"cebpf4jnsgd1na2vs0mg"},{"bike_id":"f535cfa7-af66-4581-bf1b-0b636d06197c","system_id":"levelo_inurba_marseille","lat":43.27922,"lon":5.39582,"is_reserved":false,"is_disabled":false,"rental_uris":{"android":"levelo://app?vid=f535cfa7-af66-4581-bf1b-0b636d06197c","ios":"levelo://app?vid=f535cfa7-af66-4581-bf1b-0b636d06197c"},"vehicle_type_id":"4","last_reported":1730804861,"current_range_meters":19600,"station_id":"ce4bhf92rcd13ifvqf40","pricing_plan_id":"cebpf4jnsgd1na2vs0mg"},{"bike_id":"a6b470c9-d823-44bc-baa3-d9eb5e2efbd3","system_id":"levelo_inurba_marseille","lat":43.28153,"lon":5.42635,"is_reserved":false,"is_disabled":false,"rental_uris":{"android":"levelo://app?vid=a6b470c9-d823-44bc-baa3-d9eb5e2efbd3","ios":"levelo://app?vid=a6b470c9-d823-44bc-baa3-d9eb5e2efbd3"},"vehicle_type_id":"4","last_reported":1730804861,"current_range_meters":7200,"station_id":"ce4bhnh2rcd13ifvqgug","pricing_plan_id":"cebpf4jnsgd1na2vs0mg"},{"bike_id":"1f3fd6e7-757b-4726-9105-41f3a7897102","system_id":"levelo_inurba_marseille","lat":43.29793,"lon":5.38098,"is_reserved":false,"is_disabled":false,"rental_uris":{"android":"levelo://app?vid=1f3fd6e7-757b-4726-9105-41f3a7897102","ios":"levelo://app?vid=1f3fd6e7-757b-4726-9105-41f3a7897102"},"vehicle_type_id":"4","last_reported":1730804861,"current_range_meters":24800,"station_id":"ce4bgip2rcd13ifvqbb0","pricing_plan_id":"cebpf4jnsgd1na2vs0mg"},{"bike_id":"6570b412-93b8-4466-ad30-af5dce57660f","system_id":"levelo_inurba_marseille","lat":43.29722,"lon":5.37688,"is_reserved":false,"is_disabled":false,"rental_uris":{"android":"levelo://app?vid=6570b412-93b8-4466-ad30-af5dce57660f","ios":"levelo://app?vid=6570b412-93b8-4466-ad30-af5dce57660f"},"vehicle_type_id":"4","last_reported":1730804861,"current_range_meters":39200,"station_id":"ce4bgkh2rcd13ifvqbl0","pricing_plan_id":"cebpf4jnsgd1na2vs0mg"},{"bike_id":"82ae0d8f-349c-4c7f-8f24-e4970b2c1fa8","system_id":"levelo_inurba_marseille","lat":43.337444,"lon":5.374475,"is_reserved":false,"is_disabled":false,"rental_uris":{"android":"levelo://app?vid=82ae0d8f-349c-4c7f-8f24-e4970b2c1fa8","ios":"levelo://app?vid=82ae0d8f-349c-4c7f-8f24-e4970b2c1fa8"},"vehicle_type_id":"4","last_reported":1730804861,"current_range_meters":19600,"station_id":"ce4bh3p2rcd13ifvqdp0","pricing_plan_id":"cebpf4jnsgd1na2vs0mg"},{"bike_id":"1a4b0bce-44e3-4877-8900-b60ac4d22236","system_id":"levelo_inurba_marseille","lat":43.281,"lon":5.37837,"is_reserved":false,"is_disabled":false,"rental_uris":{"android":"levelo://app?vid=1a4b0bce-44e3-4877-8900-b60ac4d22236","ios":"levelo://app?vid=1a4b0bce-44e3-4877-8900-b60ac4d22236"},"vehicle_type_id":"4","last_reported":1730804861,"current_range_meters":8000,"station_id":"ce4bhh92rcd13ifvqfh0","pricing_plan_id":"cebpf4jnsgd1na2vs0mg"},{"bike_id":"f0ab704e-7720-48a0-a2e2-28e21b0c9d2f","system_id":"levelo_inurba_marseille","lat":43.23295,"lon":5.36495,"is_reserved":false,"is_disabled":false,"rental_uris":{"android":"levelo://app?vid=f0ab704e-7720-48a0-a2e2-28e21b0c9d2f","ios":"levelo://app?vid=f0ab704e-7720-48a0-a2e2-28e21b0c9d2f"},"vehicle_type_id":"4","last_reported":1730804861,"current_range_meters":32400,"station_id":"ce4bhu92rcd13ifvqi70","pricing_plan_id":"cebpf4jnsgd1na2vs0mg"},{"bike_id":"c864c025-b3b0-4077-aaf8-410eaac1ccba","system_id":"levelo_inurba_marseille","lat":43.29846,"lon":5.36281,"is_reserved":false,"is_disabled":false,"rental_uris":{"android":"levelo://app?vid=c864c025-b3b0-4077-aaf8-410eaac1ccba","ios":"levelo://app?vid=c864c025-b3b0-4077-aaf8-410eaac1ccba"},"vehicle_type_id":"4","last_reported":1730804861,"current_range_meters":16400,"station_id":"ce4bgpp2rcd13ifvqc3g","pricing_plan_id":"cebpf4jnsgd1na2vs0mg"},{"bike_id":"386e8f4e-97a7-4f8b-bed6-4fe2299c5fdf","system_id":"levelo_inurba_marseille","lat":43.30463,"lon":5.37908,"is_reserved":false,"is_disabled":false,"rental_uris":{"android":"levelo://app?vid=386e8f4e-97a7-4f8b-bed6-4fe2299c5fdf","ios":"levelo://app?vid=386e8f4e-97a7-4f8b-bed6-4fe2299c5fdf"},"vehicle_type_id":"4","last_reported":1730804861,"current_range_meters":20000,"station_id":"ce4bgup2rcd13ifvqcn0","pricing_plan_id":"cebpf4jnsgd1na2vs0mg"},{"bike_id":"c8162795-6567-46cf-b768-e5a00f49d71a","system_id":"levelo_inurba_marseille","lat":43.29784,"lon":5.38111,"is_reserved":false,"is_disabled":false,"rental_uris":{"android":"levelo://app?vid=c8162795-6567-46cf-b768-e5a00f49d71a","ios":"levelo://app?vid=c8162795-6567-46cf-b768-e5a00f49d71a"},"vehicle_type_id":"4","last_reported":1730804861,"current_range_meters":32400,"station_id":"ce4bgip2rcd13ifvqbb0","pricing_plan_id":"cebpf4jnsgd1na2vs0mg"},{"bike_id":"b592aa30-9f80-4f5b-a0ff-da2be38dcc1f","system_id":"levelo_inurba_marseille","lat":43.32108,"lon":5.36777,"is_reserved":false,"is_disabled":false,"rental_uris":{"android":"levelo://app?vid=b592aa30-9f80-4f5b-a0ff-da2be38dcc1f","ios":"levelo://app?vid=b592aa30-9f80-4f5b-a0ff-da2be38dcc1f"},"vehicle_type_id":"4","last_reported":1730804861,"current_range_meters":38400,"station_id":"ce4bhrh2rcd13ifvqhug","pricing_plan_id":"cebpf4jnsgd1na2vs0mg"},{"bike_id":"7122bb44-c441-4dc8-b111-f9633f9fd7bb","system_id":"levelo_inurba_marseille","lat":43.29529,"lon":5.39044,"is_reserved":false,"is_disabled":false,"rental_uris":{"android":"levelo://app?vid=7122bb44-c441-4dc8-b111-f9633f9fd7bb","ios":"levelo://app?vid=7122bb44-c441-4dc8-b111-f9633f9fd7bb"},"vehicle_type_id":"4","last_reported":1730804861,"current_range_meters":28800,"station_id":"ce4bh3p2rcd13ifvqdp0","pricing_plan_id":"cebpf4jnsgd1na2vs0mg"},{"bike_id":"79dc6371-9f69-4ba8-abf4-03c6ad162c4f","system_id":"levelo_inurba_marseille","lat":43.29923,"lon":5.36543,"is_reserved":false,"is_disabled":false,"rental_uris":{"android":"levelo://app?vid=79dc6371-9f69-4ba8-abf4-03c6ad162c4f","ios":"levelo://app?vid=79dc6371-9f69-4ba8-abf4-03c6ad162c4f"},"vehicle_type_id":"4","last_reported":1730804861,"current_range_meters":30800,"station_id":"ce4bgm92rcd13ifvqbr0","pricing_plan_id":"cebpf4jnsgd1na2vs0mg"},{"bike_id":"eab47ed5-f83a-4939-80d1-ff052743bdd1","system_id":"levelo_inurba_marseille","lat":43.3211,"lon":5.36788,"is_reserved":false,"is_disabled":false,"rental_uris":{"android":"levelo://app?vid=eab47ed5-f83a-4939-80d1-ff052743bdd1","ios":"levelo://app?vid=eab47ed5-f83a-4939-80d1-ff052743bdd1"},"vehicle_type_id":"4","last_reported":1730804861,"current_range_meters":31200,"station_id":"ce4bhrh2rcd13ifvqhug","pricing_plan_id":"cebpf4jnsgd1na2vs0mg"},{"bike_id":"86aa2e0e-59eb-42a9-b04d-178b4e9cf234","system_id":"levelo_inurba_marseille","lat":43.30535,"lon":5.36695,"is_reserved":false,"is_disabled":false,"rental_uris":{"android":"levelo://app?vid=86aa2e0e-59eb-42a9-b04d-178b4e9cf234","ios":"levelo://app?vid=86aa2e0e-59eb-42a9-b04d-178b4e9cf234"},"vehicle_type_id":"4","last_reported":1730804861,"current_range_meters":26000,"station_id":"ce4bgrp2rcd13ifvqc9g","pricing_plan_id":"cebpf4jnsgd1na2vs0mg"},{"bike_id":"f88e7deb-3757-413b-8276-38cd9dd64b21","system_id":"levelo_inurba_marseille","lat":43.31353,"lon":5.36726,"is_reserved":false,"is_disabled":false,"rental_uris":{"android":"levelo://app?vid=f88e7deb-3757-413b-8276-38cd9dd64b21","ios":"levelo://app?vid=f88e7deb-3757-413b-8276-38cd9dd64b21"},"vehicle_type_id":"4","last_reported":1730804861,"current_range_meters":18800,"station_id":"ce4bgr92rcd13ifvqc6g","pricing_plan_id":"cebpf4jnsgd1na2vs0mg"},{"bike_id":"8ae8fd58-7c2f-4382-9e1c-de15f009d8bb","system_id":"levelo_inurba_marseille","lat":43.26562,"lon":5.39006,"is_reserved":false,"is_disabled":false,"rental_uris":{"android":"levelo://app?vid=8ae8fd58-7c2f-4382-9e1c-de15f009d8bb","ios":"levelo://app?vid=8ae8fd58-7c2f-4382-9e1c-de15f009d8bb"},"vehicle_type_id":"4","last_reported":1730804861,"current_range_meters":38800,"station_id":"ce4bhe12rcd13ifvqf30","pricing_plan_id":"cebpf4jnsgd1na2vs0mg"},{"bike_id":"8cca8b48-2ec9-4e72-ba50-916cb77d27e2","system_id":"levelo_inurba_marseille","lat":43.34144,"lon":5.40898,"is_reserved":false,"is_disabled":false,"rental_uris":{"android":"levelo://app?vid=8cca8b48-2ec9-4e72-ba50-916cb77d27e2","ios":"levelo://app?vid=8cca8b48-2ec9-4e72-ba50-916cb77d27e2"},"vehicle_type_id":"4","last_reported":1730804861,"current_range_meters":8800,"station_id":"ce4bhqh2rcd13ifvqhlg","pricing_plan_id":"cebpf4jnsgd1na2vs0mg"},{"bike_id":"0dd1d622-4760-44e9-a9ed-3bfd4e99bf22","system_id":"levelo_inurba_marseille","lat":43.30906,"lon":5.36848,"is_reserved":false,"is_disabled":false,"rental_uris":{"android":"levelo://app?vid=0dd1d622-4760-44e9-a9ed-3bfd4e99bf22","ios":"levelo://app?vid=0dd1d622-4760-44e9-a9ed-3bfd4e99bf22"},"vehicle_type_id":"4","last_reported":1730804861,"current_range_meters":32400,"station_id":"ce4bgn92rcd13ifvqbvg","pricing_plan_id":"cebpf4jnsgd1na2vs0mg"},{"bike_id":"2dfc9a33-4171-4bbe-9a95-37908cf8f0f7","system_id":"levelo_inurba_marseille","lat":43.337444,"lon":5.374475,"is_reserved":false,"is_disabled":false,"rental_uris":{"android":"levelo://app?vid=2dfc9a33-4171-4bbe-9a95-37908cf8f0f7","ios":"levelo://app?vid=2dfc9a33-4171-4bbe-9a95-37908cf8f0f7"},"vehicle_type_id":"4","last_reported":1730804861,"current_range_meters":36800,"station_id":"","pricing_plan_id":"cebpf4jnsgd1na2vs0mg"},{"bike_id":"d7798a4a-7e24-4f13-abf6-c911fb931448","system_id":"levelo_inurba_marseille","lat":43.3414,"lon":5.40908,"is_reserved":false,"is_disabled":false,"rental_uris":{"android":"levelo://app?vid=d7798a4a-7e24-4f13-abf6-c911fb931448","ios":"levelo://app?vid=d7798a4a-7e24-4f13-abf6-c911fb931448"},"vehicle_type_id":"4","last_reported":1730804861,"current_range_meters":29600,"station_id":"ce4bhqh2rcd13ifvqhlg","pricing_plan_id":"cebpf4jnsgd1na2vs0mg"},{"bike_id":"d209b447-cbb8-4ee8-b360-9577dfaa222f","system_id":"levelo_inurba_marseille","lat":43.23935,"lon":5.43827,"is_reserved":false,"is_disabled":false,"rental_uris":{"android":"levelo://app?vid=d209b447-cbb8-4ee8-b360-9577dfaa222f","ios":"levelo://app?vid=d209b447-cbb8-4ee8-b360-9577dfaa222f"},"vehicle_type_id":"4","last_reported":1730804861,"current_range_meters":27200,"station_id":"","pricing_plan_id":"cebpf4jnsgd1na2vs0mg"},{"bike_id":"50fbd310-c24b-46ff-b218-232f58d33cf4","system_id":"levelo_inurba_marseille","lat":43.27201,"lon":5.39174,"is_reserved":false,"is_disabled":false,"rental_uris":{"android":"levelo://app?vid=50fbd310-c24b-46ff-b218-232f58d33cf4","ios":"levelo://app?vid=50fbd310-c24b-46ff-b218-232f58d33cf4"},"vehicle_type_id":"4","last_reported":1730804861,"current_range_meters":38400,"station_id":"ce4bhhp2rcd13ifvqfm0","pricing_plan_id":"cebpf4jnsgd1na2vs0mg"},{"bike_id":"6ff4eb35-e037-4a26-90c4-e2a2ab31163d","system_id":"levelo_inurba_marseille","lat":43.283722,"lon":5.354617,"is_reserved":false,"is_disabled":false,"rental_uris":{"android":"levelo://app?vid=6ff4eb35-e037-4a26-90c4-e2a2ab31163d","ios":"levelo://app?vid=6ff4eb35-e037-4a26-90c4-e2a2ab31163d"},"vehicle_type_id":"4","last_reported":1730804861,"current_range_meters":28400,"station_id":"ce4bhah2rcd13ifvqei0","pricing_plan_id":"cebpf4jnsgd1na2vs0mg"},{"bike_id":"ea43565c-4dbb-442a-ac20-b496c2733246","system_id":"levelo_inurba_marseille","lat":43.29931,"lon":5.3653,"is_reserved":false,"is_disabled":false,"rental_uris":{"android":"levelo://app?vid=ea43565c-4dbb-442a-ac20-b496c2733246","ios":"levelo://app?vid=ea43565c-4dbb-442a-ac20-b496c2733246"},"vehicle_type_id":"4","last_reported":1730804861,"current_range_meters":14800,"station_id":"ce4bgm92rcd13ifvqbr0","pricing_plan_id":"cebpf4jnsgd1na2vs0mg"},{"bike_id":"85d45bf7-37e4-4e88-952f-cd0c86ed3ea5","system_id":"levelo_inurba_marseille","lat":43.24174,"lon":5.39725,"is_reserved":false,"is_disabled":false,"rental_uris":{"android":"levelo://app?vid=85d45bf7-37e4-4e88-952f-cd0c86ed3ea5","ios":"levelo://app?vid=85d45bf7-37e4-4e88-952f-cd0c86ed3ea5"},"vehicle_type_id":"4","last_reported":1730804861,"current_range_meters":24800,"station_id":"ce4bhn12rcd13ifvqgpg","pricing_plan_id":"cebpf4jnsgd1na2vs0mg"},{"bike_id":"260fa75a-01a4-4465-ba93-2899bc76795b","system_id":"levelo_inurba_marseille","lat":43.27064,"lon":5.42274,"is_reserved":false,"is_disabled":false,"rental_uris":{"android":"levelo://app?vid=260fa75a-01a4-4465-ba93-2899bc76795b","ios":"levelo://app?vid=260fa75a-01a4-4465-ba93-2899bc76795b"},"vehicle_type_id":"4","last_reported":1730804861,"current_range_meters":16800,"station_id":"ce4bhk92rcd13ifvqgb0","pricing_plan_id":"cebpf4jnsgd1na2vs0mg"},{"bike_id":"3560c5ce-d02f-4630-8b3a-5ae2ad7fb9b3","system_id":"levelo_inurba_marseille","lat":43.24073,"lon":5.37761,"is_reserved":false,"is_disabled":false,"rental_uris":{"android":"levelo://app?vid=3560c5ce-d02f-4630-8b3a-5ae2ad7fb9b3","ios":"levelo://app?vid=3560c5ce-d02f-4630-8b3a-5ae2ad7fb9b3"},"vehicle_type_id":"4","last_reported":1730804861,"current_range_meters":24800,"station_id":"ce4bhnp2rcd13ifvqgvg","pricing_plan_id":"cebpf4jnsgd1na2vs0mg"},{"bike_id":"2b7c7838-0b38-48ff-a34b-04cd5d917cba","system_id":"levelo_inurba_marseille","lat":43.29583,"lon":5.36738,"is_reserved":false,"is_disabled":false,"rental_uris":{"android":"levelo://app?vid=2b7c7838-0b38-48ff-a34b-04cd5d917cba","ios":"levelo://app?vid=2b7c7838-0b38-48ff-a34b-04cd5d917cba"},"vehicle_type_id":"4","last_reported":1730804861,"current_range_meters":20800,"station_id":"ce4bgph2rcd13ifvqc2g","pricing_plan_id":"cebpf4jnsgd1na2vs0mg"},{"bike_id":"f605cfa1-16bb-45b0-9f38-3b83d0d5059b","system_id":"levelo_inurba_marseille","lat":43.27484,"lon":5.42461,"is_reserved":false,"is_disabled":false,"rental_uris":{"android":"levelo://app?vid=f605cfa1-16bb-45b0-9f38-3b83d0d5059b","ios":"levelo://app?vid=f605cfa1-16bb-45b0-9f38-3b83d0d5059b"},"vehicle_type_id":"4","last_reported":1730804861,"current_range_meters":37600,"station_id":"ce4bhn92rcd13ifvqgrg","pricing_plan_id":"cebpf4jnsgd1na2vs0mg"},{"bike_id":"423d5629-60ea-46cc-8398-d31d7c9a3239","system_id":"levelo_inurba_marseille","lat":43.23954,"lon":5.36621,"is_reserved":false,"is_disabled":false,"rental_uris":{"android":"levelo://app?vid=423d5629-60ea-46cc-8398-d31d7c9a3239","ios":"levelo://app?vid=423d5629-60ea-46cc-8398-d31d7c9a3239"},"vehicle_type_id":"4","last_reported":1730804861,"current_range_meters":39200,"station_id":"ce4bhi12rcd13ifvqfp0","pricing_plan_id":"cebpf4jnsgd1na2vs0mg"},{"bike_id":"db31db70-cc20-4b5f-acb8-538f14a09b27","system_id":"levelo_inurba_marseille","lat":43.23187,"lon":5.39983,"is_reserved":false,"is_disabled":false,"rental_uris":{"android":"levelo://app?vid=db31db70-cc20-4b5f-acb8-538f14a09b27","ios":"levelo://app?vid=db31db70-cc20-4b5f-acb8-538f14a09b27"},"vehicle_type_id":"4","last_reported":1730804861,"current_range_meters":36400,"station_id":"ce4bhn12rcd13ifvqgqg","pricing_plan_id":"cebpf4jnsgd1na2vs0mg"},{"bike_id":"9d5bc649-ffc6-4d50-a55b-829257b6fed3","system_id":"levelo_inurba_marseille","lat":43.24539,"lon":5.39524,"is_reserved":false,"is_disabled":false,"rental_uris":{"android":"levelo://app?vid=9d5bc649-ffc6-4d50-a55b-829257b6fed3","ios":"levelo://app?vid=9d5bc649-ffc6-4d50-a55b-829257b6fed3"},"vehicle_type_id":"4","last_reported":1730804861,"current_range_meters":39200,"station_id":"ce4bhlp2rcd13ifvqgjg","pricing_plan_id":"cebpf4jnsgd1na2vs0mg"},{"bike_id":"c728f9ac-e22e-4c06-b94f-45a8756abb3e","system_id":"levelo_inurba_marseille","lat":43.29936,"lon":5.37473,"is_reserved":false,"is_disabled":false,"rental_uris":{"android":"levelo://app?vid=c728f9ac-e22e-4c06-b94f-45a8756abb3e","ios":"levelo://app?vid=c728f9ac-e22e-4c06-b94f-45a8756abb3e"},"vehicle_type_id":"4","last_reported":1730804861,"current_range_meters":8800,"station_id":"ce4bgjh2rcd13ifvqbg0","pricing_plan_id":"cebpf4jnsgd1na2vs0mg"},{"bike_id":"05263202-86e8-43c5-893e-e51be5c53f33","system_id":"levelo_inurba_marseille","lat":43.2783,"lon":5.39214,"is_reserved":false,"is_disabled":false,"rental_uris":{"android":"levelo://app?vid=05263202-86e8-43c5-893e-e51be5c53f33","ios":"levelo://app?vid=05263202-86e8-43c5-893e-e51be5c53f33"},"vehicle_type_id":"4","last_reported":1730804861,"current_range_meters":36000,"station_id":"ce4bhjp2rcd13ifvqga0","pricing_plan_id":"cebpf4jnsgd1na2vs0mg"},{"bike_id":"edcc2006-96a1-4a9e-8057-ab696280aa90","system_id":"levelo_inurba_marseille","lat":43.29412,"lon":5.39744,"is_reserved":false,"is_disabled":false,"rental_uris":{"android":"levelo://app?vid=edcc2006-96a1-4a9e-8057-ab696280aa90","ios":"levelo://app?vid=edcc2006-96a1-4a9e-8057-ab696280aa90"},"vehicle_type_id":"4","last_reported":1730804861,"current_range_meters":32000,"station_id":"ce4bh3h2rcd13ifvqdo0","pricing_plan_id":"cebpf4jnsgd1na2vs0mg"},{"bike_id":"f945bb93-46da-4cb7-aa5f-2d0033839ab3","system_id":"levelo_inurba_marseille","lat":43.29526,"lon":5.39039,"is_reserved":false,"is_disabled":false,"rental_uris":{"android":"levelo://app?vid=f945bb93-46da-4cb7-aa5f-2d0033839ab3","ios":"levelo://app?vid=f945bb93-46da-4cb7-aa5f-2d0033839ab3"},"vehicle_type_id":"4","last_reported":1730804861,"current_range_meters":15200,"station_id":"ce4bh3p2rcd13ifvqdp0","pricing_plan_id":"cebpf4jnsgd1na2vs0mg"},{"bike_id":"b7c42deb-cb43-4b55-94a0-42ad629f30a9","system_id":"levelo_inurba_marseille","lat":43.29002,"lon":5.35606,"is_reserved":false,"is_disabled":false,"rental_uris":{"android":"levelo://app?vid=b7c42deb-cb43-4b55-94a0-42ad629f30a9","ios":"levelo://app?vid=b7c42deb-cb43-4b55-94a0-42ad629f30a9"},"vehicle_type_id":"4","last_reported":1730804861,"current_range_meters":25600,"station_id":"ce4bhb92rcd13ifvqen0","pricing_plan_id":"cebpf4jnsgd1na2vs0mg"},{"bike_id":"cf6df2de-822d-4e4e-b602-cdb87f02952e","system_id":"levelo_inurba_marseille","lat":43.31343,"lon":5.36721,"is_reserved":false,"is_disabled":false,"rental_uris":{"android":"levelo://app?vid=cf6df2de-822d-4e4e-b602-cdb87f02952e","ios":"levelo://app?vid=cf6df2de-822d-4e4e-b602-cdb87f02952e"},"vehicle_type_id":"4","last_reported":1730804861,"current_range_meters":30000,"station_id":"ce4bgr92rcd13ifvqc6g","pricing_plan_id":"cebpf4jnsgd1na2vs0mg"},{"bike_id":"1d6af352-23d4-4a58-a888-83b733d5a504","system_id":"levelo_inurba_marseille","lat":43.30144,"lon":5.37424,"is_reserved":false,"is_disabled":false,"rental_uris":{"android":"levelo://app?vid=1d6af352-23d4-4a58-a888-83b733d5a504","ios":"levelo://app?vid=1d6af352-23d4-4a58-a888-83b733d5a504"},"vehicle_type_id":"4","last_reported":1730804861,"current_range_meters":36800,"station_id":"ce4bgs92rcd13ifvqcc0","pricing_plan_id":"cebpf4jnsgd1na2vs0mg"},{"bike_id":"2bed1123-a12e-4775-9eb6-5219bf4f95d8","system_id":"levelo_inurba_marseille","lat":43.25868,"lon":5.39899,"is_reserved":false,"is_disabled":false,"rental_uris":{"android":"levelo://app?vid=2bed1123-a12e-4775-9eb6-5219bf4f95d8","ios":"levelo://app?vid=2bed1123-a12e-4775-9eb6-5219bf4f95d8"},"vehicle_type_id":"4","last_reported":1730804861,"current_range_meters":29600,"station_id":"ce4bhl92rcd13ifvqghg","pricing_plan_id":"cebpf4jnsgd1na2vs0mg"},{"bike_id":"04575049-e232-448b-97cc-f84df2aa6e6a","system_id":"levelo_inurba_marseille","lat":43.32485,"lon":5.36568,"is_reserved":false,"is_disabled":false,"rental_uris":{"android":"levelo://app?vid=04575049-e232-448b-97cc-f84df2aa6e6a","ios":"levelo://app?vid=04575049-e232-448b-97cc-f84df2aa6e6a"},"vehicle_type_id":"4","last_reported":1730804861,"current_range_meters":39200,"station_id":"ce4bhs12rcd13ifvqhvg","pricing_plan_id":"cebpf4jnsgd1na2vs0mg"},{"bike_id":"28df973b-2047-4bb2-9547-9f05e5b41f08","system_id":"levelo_inurba_marseille","lat":43.30521,"lon":5.36537,"is_reserved":false,"is_disabled":false,"rental_uris":{"android":"levelo://app?vid=28df973b-2047-4bb2-9547-9f05e5b41f08","ios":"levelo://app?vid=28df973b-2047-4bb2-9547-9f05e5b41f08"},"vehicle_type_id":"4","last_reported":1730804861,"current_range_meters":22000,"station_id":"ce4bgs12rcd13ifvqcag","pricing_plan_id":"cebpf4jnsgd1na2vs0mg"},{"bike_id":"954d42d4-e492-44c4-8e09-c57d90684c4a","system_id":"levelo_inurba_marseille","lat":43.29978,"lon":5.38488,"is_reserved":false,"is_disabled":false,"rental_uris":{"android":"levelo://app?vid=954d42d4-e492-44c4-8e09-c57d90684c4a","ios":"levelo://app?vid=954d42d4-e492-44c4-8e09-c57d90684c4a"},"vehicle_type_id":"4","last_reported":1730804861,"current_range_meters":34800,"station_id":"ce4bgj92rcd13ifvqbd0","pricing_plan_id":"cebpf4jnsgd1na2vs0mg"},{"bike_id":"fa687393-02eb-4d90-8e5c-3717284ecc60","system_id":"levelo_inurba_marseille","lat":43.30787,"lon":5.43527,"is_reserved":false,"is_disabled":false,"rental_uris":{"android":"levelo://app?vid=fa687393-02eb-4d90-8e5c-3717284ecc60","ios":"levelo://app?vid=fa687393-02eb-4d90-8e5c-3717284ecc60"},"vehicle_type_id":"4","last_reported":1730804861,"current_range_meters":35200,"station_id":"ce4bhph2rcd13ifvqheg","pricing_plan_id":"cebpf4jnsgd1na2vs0mg"},{"bike_id":"01358e6b-9e32-453f-b20a-de02e9945bfa","system_id":"levelo_inurba_marseille","lat":43.26798,"lon":5.40265,"is_reserved":false,"is_disabled":false,"rental_uris":{"android":"levelo://app?vid=01358e6b-9e32-453f-b20a-de02e9945bfa","ios":"levelo://app?vid=01358e6b-9e32-453f-b20a-de02e9945bfa"},"vehicle_type_id":"4","last_reported":1730804861,"current_range_meters":12800,"station_id":"ce501612rcd8frsf0b60","pricing_plan_id":"cebpf4jnsgd1na2vs0mg"},{"bike_id":"3fc89274-a76a-4e6c-9364-08802529ff10","system_id":"levelo_inurba_marseille","lat":43.26949,"lon":5.38619,"is_reserved":false,"is_disabled":false,"rental_uris":{"android":"levelo://app?vid=3fc89274-a76a-4e6c-9364-08802529ff10","ios":"levelo://app?vid=3fc89274-a76a-4e6c-9364-08802529ff10"},"vehicle_type_id":"4","last_reported":1730804861,"current_range_meters":38800,"station_id":"ce4bhh92rcd13ifvqfh0","pricing_plan_id":"cebpf4jnsgd1na2vs0mg"},{"bike_id":"42acd96f-798b-4700-856e-4f848004b2ab","system_id":"levelo_inurba_marseille","lat":43.2783,"lon":5.39211,"is_reserved":false,"is_disabled":false,"rental_uris":{"android":"levelo://app?vid=42acd96f-798b-4700-856e-4f848004b2ab","ios":"levelo://app?vid=42acd96f-798b-4700-856e-4f848004b2ab"},"vehicle_type_id":"4","last_reported":1730804861,"current_range_meters":15200,"station_id":"ce4bhjp2rcd13ifvqga0","pricing_plan_id":"cebpf4jnsgd1na2vs0mg"},{"bike_id":"d6dc2daa-4fde-4dfe-9cfd-979fb440991e","system_id":"levelo_inurba_marseille","lat":43.29634,"lon":5.40598,"is_reserved":false,"is_disabled":false,"rental_uris":{"android":"levelo://app?vid=d6dc2daa-4fde-4dfe-9cfd-979fb440991e","ios":"levelo://app?vid=d6dc2daa-4fde-4dfe-9cfd-979fb440991e"},"vehicle_type_id":"4","last_reported":1730804861,"current_range_meters":38800,"station_id":"ce4bh0h2rcd13ifvqd60","pricing_plan_id":"cebpf4jnsgd1na2vs0mg"},{"bike_id":"e689f2fb-2f92-4cd7-ab5a-6ae37bc0480b","system_id":"levelo_inurba_marseille","lat":43.30456,"lon":5.37897,"is_reserved":false,"is_disabled":false,"rental_uris":{"android":"levelo://app?vid=e689f2fb-2f92-4cd7-ab5a-6ae37bc0480b","ios":"levelo://app?vid=e689f2fb-2f92-4cd7-ab5a-6ae37bc0480b"},"vehicle_type_id":"4","last_reported":1730804861,"current_range_meters":19600,"station_id":"ce4bgup2rcd13ifvqcn0","pricing_plan_id":"cebpf4jnsgd1na2vs0mg"},{"bike_id":"8a591b4f-f6f0-455c-873b-f45855a30e0d","system_id":"levelo_inurba_marseille","lat":43.28268,"lon":5.35065,"is_reserved":false,"is_disabled":false,"rental_uris":{"android":"levelo://app?vid=8a591b4f-f6f0-455c-873b-f45855a30e0d","ios":"levelo://app?vid=8a591b4f-f6f0-455c-873b-f45855a30e0d"},"vehicle_type_id":"4","last_reported":1730804861,"current_range_meters":38800,"station_id":"ce4bhbp2rcd13ifvqerg","pricing_plan_id":"cebpf4jnsgd1na2vs0mg"},{"bike_id":"9430e299-e1b4-46c8-868f-5fd72c528b73","system_id":"levelo_inurba_marseille","lat":43.24076,"lon":5.37756,"is_reserved":false,"is_disabled":false,"rental_uris":{"android":"levelo://app?vid=9430e299-e1b4-46c8-868f-5fd72c528b73","ios":"levelo://app?vid=9430e299-e1b4-46c8-868f-5fd72c528b73"},"vehicle_type_id":"4","last_reported":1730804861,"current_range_meters":25600,"station_id":"ce4bhnp2rcd13ifvqgvg","pricing_plan_id":"cebpf4jnsgd1na2vs0mg"},{"bike_id":"2e5b4eda-1e00-4de7-bf32-df40f4d56ed2","system_id":"levelo_inurba_marseille","lat":43.32481,"lon":5.36549,"is_reserved":false,"is_disabled":false,"rental_uris":{"android":"levelo://app?vid=2e5b4eda-1e00-4de7-bf32-df40f4d56ed2","ios":"levelo://app?vid=2e5b4eda-1e00-4de7-bf32-df40f4d56ed2"},"vehicle_type_id":"4","last_reported":1730804861,"current_range_meters":9600,"station_id":"ce4bhs12rcd13ifvqhvg","pricing_plan_id":"cebpf4jnsgd1na2vs0mg"},{"bike_id":"8c941800-34cc-4e89-8ad2-0b768395f319","system_id":"levelo_inurba_marseille","lat":43.32473,"lon":5.36571,"is_reserved":false,"is_disabled":false,"rental_uris":{"android":"levelo://app?vid=8c941800-34cc-4e89-8ad2-0b768395f319","ios":"levelo://app?vid=8c941800-34cc-4e89-8ad2-0b768395f319"},"vehicle_type_id":"4","last_reported":1730804861,"current_range_meters":19600,"station_id":"ce4bhs12rcd13ifvqhvg","pricing_plan_id":"cebpf4jnsgd1na2vs0mg"},{"bike_id":"4dccfd74-ae33-47a6-9d39-8d14cad4d3a7","system_id":"levelo_inurba_marseille","lat":43.27811,"lon":5.40716,"is_reserved":false,"is_disabled":false,"rental_uris":{"android":"levelo://app?vid=4dccfd74-ae33-47a6-9d39-8d14cad4d3a7","ios":"levelo://app?vid=4dccfd74-ae33-47a6-9d39-8d14cad4d3a7"},"vehicle_type_id":"4","last_reported":1730804861,"current_range_meters":36800,"station_id":"ce4bhnh2rcd13ifvqgtg","pricing_plan_id":"cebpf4jnsgd1na2vs0mg"},{"bike_id":"b961c364-69f9-4b3b-a2e6-fc6563170e45","system_id":"levelo_inurba_marseille","lat":43.32486,"lon":5.36562,"is_reserved":false,"is_disabled":false,"rental_uris":{"android":"levelo://app?vid=b961c364-69f9-4b3b-a2e6-fc6563170e45","ios":"levelo://app?vid=b961c364-69f9-4b3b-a2e6-fc6563170e45"},"vehicle_type_id":"4","last_reported":1730804861,"current_range_meters":39200,"station_id":"ce4bhs12rcd13ifvqhvg","pricing_plan_id":"cebpf4jnsgd1na2vs0mg"},{"bike_id":"e243cc98-df68-4079-9fe1-2225ce8a7fb1","system_id":"levelo_inurba_marseille","lat":43.30453,"lon":5.37897,"is_reserved":false,"is_disabled":false,"rental_uris":{"android":"levelo://app?vid=e243cc98-df68-4079-9fe1-2225ce8a7fb1","ios":"levelo://app?vid=e243cc98-df68-4079-9fe1-2225ce8a7fb1"},"vehicle_type_id":"4","last_reported":1730804861,"current_range_meters":24400,"station_id":"ce4bgup2rcd13ifvqcn0","pricing_plan_id":"cebpf4jnsgd1na2vs0mg"},{"bike_id":"37e2b3a6-465b-405d-a665-5c23c1c7c9a9","system_id":"levelo_inurba_marseille","lat":43.27439,"lon":5.39406,"is_reserved":false,"is_disabled":false,"rental_uris":{"android":"levelo://app?vid=37e2b3a6-465b-405d-a665-5c23c1c7c9a9","ios":"levelo://app?vid=37e2b3a6-465b-405d-a665-5c23c1c7c9a9"},"vehicle_type_id":"4","last_reported":1730804861,"current_range_meters":24400,"station_id":"ce4bhdp2rcd13ifvqf20","pricing_plan_id":"cebpf4jnsgd1na2vs0mg"},{"bike_id":"308ec3ce-c3b6-4af0-85d0-5a45941ac1db","system_id":"levelo_inurba_marseille","lat":43.29844,"lon":5.36281,"is_reserved":false,"is_disabled":false,"rental_uris":{"android":"levelo://app?vid=308ec3ce-c3b6-4af0-85d0-5a45941ac1db","ios":"levelo://app?vid=308ec3ce-c3b6-4af0-85d0-5a45941ac1db"},"vehicle_type_id":"4","last_reported":1730804861,"current_range_meters":23200,"station_id":"ce4bgpp2rcd13ifvqc3g","pricing_plan_id":"cebpf4jnsgd1na2vs0mg"},{"bike_id":"0992272d-4979-49db-9987-13844917e82e","system_id":"levelo_inurba_marseille","lat":43.23159,"lon":5.43702,"is_reserved":false,"is_disabled":false,"rental_uris":{"android":"levelo://app?vid=0992272d-4979-49db-9987-13844917e82e","ios":"levelo://app?vid=0992272d-4979-49db-9987-13844917e82e"},"vehicle_type_id":"4","last_reported":1730804861,"current_range_meters":2000,"station_id":"ce4bhmp2rcd13ifvqgog","pricing_plan_id":"cebpf4jnsgd1na2vs0mg"},{"bike_id":"4d1236d2-ae35-4047-bc6d-107d0c877e41","system_id":"levelo_inurba_marseille","lat":43.32482,"lon":5.36565,"is_reserved":false,"is_disabled":false,"rental_uris":{"android":"levelo://app?vid=4d1236d2-ae35-4047-bc6d-107d0c877e41","ios":"levelo://app?vid=4d1236d2-ae35-4047-bc6d-107d0c877e41"},"vehicle_type_id":"4","last_reported":1730804861,"current_range_meters":19600,"station_id":"ce4bhs12rcd13ifvqhvg","pricing_plan_id":"cebpf4jnsgd1na2vs0mg"},{"bike_id":"bc575d2b-6dbe-4efe-b5ce-29ca67203081","system_id":"levelo_inurba_marseille","lat":43.24083,"lon":5.37744,"is_reserved":false,"is_disabled":false,"rental_uris":{"android":"levelo://app?vid=bc575d2b-6dbe-4efe-b5ce-29ca67203081","ios":"levelo://app?vid=bc575d2b-6dbe-4efe-b5ce-29ca67203081"},"vehicle_type_id":"4","last_reported":1730804861,"current_range_meters":38800,"station_id":"ce4bhnp2rcd13ifvqgvg","pricing_plan_id":"cebpf4jnsgd1na2vs0mg"},{"bike_id":"7d51b494-b67a-400b-97eb-b8ebc5a4fffe","system_id":"levelo_inurba_marseille","lat":43.30659,"lon":5.37338,"is_reserved":false,"is_disabled":false,"rental_uris":{"android":"levelo://app?vid=7d51b494-b67a-400b-97eb-b8ebc5a4fffe","ios":"levelo://app?vid=7d51b494-b67a-400b-97eb-b8ebc5a4fffe"},"vehicle_type_id":"4","last_reported":1730804861,"current_range_meters":29600,"station_id":"ce4bgqh2rcd13ifvqc4g","pricing_plan_id":"cebpf4jnsgd1na2vs0mg"},{"bike_id":"6c227ac7-c9f4-4006-a552-df07cb4c05f4","system_id":"levelo_inurba_marseille","lat":43.30526,"lon":5.38422,"is_reserved":false,"is_disabled":false,"rental_uris":{"android":"levelo://app?vid=6c227ac7-c9f4-4006-a552-df07cb4c05f4","ios":"levelo://app?vid=6c227ac7-c9f4-4006-a552-df07cb4c05f4"},"vehicle_type_id":"4","last_reported":1730804861,"current_range_meters":35200,"station_id":"ce4bgg92rcd13ifvqb30","pricing_plan_id":"cebpf4jnsgd1na2vs0mg"},{"bike_id":"355894e8-b32e-4f1a-95e6-b19898066103","system_id":"levelo_inurba_marseille","lat":43.25584,"lon":5.38231,"is_reserved":false,"is_disabled":false,"rental_uris":{"android":"levelo://app?vid=355894e8-b32e-4f1a-95e6-b19898066103","ios":"levelo://app?vid=355894e8-b32e-4f1a-95e6-b19898066103"},"vehicle_type_id":"4","last_reported":1730804861,"current_range_meters":25200,"station_id":"ce4bhih2rcd13ifvqfs0","pricing_plan_id":"cebpf4jnsgd1na2vs0mg"},{"bike_id":"625b2a88-7a40-4510-9127-7825ea96aba7","system_id":"levelo_inurba_marseille","lat":43.25925,"lon":5.40905,"is_reserved":false,"is_disabled":false,"rental_uris":{"android":"levelo://app?vid=625b2a88-7a40-4510-9127-7825ea96aba7","ios":"levelo://app?vid=625b2a88-7a40-4510-9127-7825ea96aba7"},"vehicle_type_id":"4","last_reported":1730804861,"current_range_meters":19200,"station_id":"ce4bhm92rcd13ifvqglg","pricing_plan_id":"cebpf4jnsgd1na2vs0mg"},{"bike_id":"53983335-6de1-42b2-8ba7-6a295e7d2161","system_id":"levelo_inurba_marseille","lat":43.28726,"lon":5.36086,"is_reserved":false,"is_disabled":false,"rental_uris":{"android":"levelo://app?vid=53983335-6de1-42b2-8ba7-6a295e7d2161","ios":"levelo://app?vid=53983335-6de1-42b2-8ba7-6a295e7d2161"},"vehicle_type_id":"4","last_reported":1730804861,"current_range_meters":28000,"station_id":"cki0cbj6b192h4jlfktg","pricing_plan_id":"cebpf4jnsgd1na2vs0mg"},{"bike_id":"58991d5e-0b85-4029-bb69-1fa9c8732567","system_id":"levelo_inurba_marseille","lat":43.30545,"lon":5.36546,"is_reserved":false,"is_disabled":false,"rental_uris":{"android":"levelo://app?vid=58991d5e-0b85-4029-bb69-1fa9c8732567","ios":"levelo://app?vid=58991d5e-0b85-4029-bb69-1fa9c8732567"},"vehicle_type_id":"4","last_reported":1730804861,"current_range_meters":30800,"station_id":"ce4bgs12rcd13ifvqcag","pricing_plan_id":"cebpf4jnsgd1na2vs0mg"},