{"last_updated":1741115244,"ttl":60,"version":"2.2","data":{"bikes":[{"bike_id":"d757d769-36a7-461b-8c3a-235fc8e92c2b","system_id":"levelo_inurba_marseille","lat":43.29267,"lon":5.3844,"is_reserved":false,"is_disabled":false,"rental_uris":{"android":"levelo://app?vid=d757d769-36a7-461b-8c3a-235fc8e92c2b","ios":"levelo://app?vid=d757d769-36a7-461b-8c3a-235fc8e92c2b"},"vehicle_type_id":"4","last_reported":1741115244,"current_range_meters":2800,"station_id":"ce4bh692rcd13ifvqea0","pricing_plan_id":"cebpf4jnsgd1na2vs0mg"},{"bike_id":"9d6275d1-a46a-47a7-8dd5-551c4f0a42f6","system_id":"levelo_inurba_marseille","lat":43.30215,"lon":5.39462,"is_reserved":false,"is_disabled":false,"rental_uris":{"android":"levelo://app?vid=9d6275d1-a46a-47a7-8dd5-551c4f0a42f6","ios":"levelo://app?vid=9d6275d1-a46a-47a7-8dd5-551c4f0a42f6"},"vehicle_type_id":"4","last_reported":1741115244,"current_range_meters":2800,"station_id":"ce4bh0p2rcd13ifvqd70","pricing_plan_id":"cebpf4jnsgd1na2vs0mg"},{"bike_id":"d2c0809a-dbca-42f5-8b55-8062d86c2f7b","system_id":"levelo_inurba_marseille","lat":43.23192,"lon":5.35552,"is_reserved":false,"is_disabled":true,"rental_uris":{"android":"levelo://app?vid=d2c0809a-dbca-42f5-8b55-8062d86c2f7b","ios":"levelo://app?vid=d2c0809a-dbca-42f5-8b55-8062d86c2f7b"},"vehicle_type_id":"4","last_reported":1741115244,"current_range_meters":2800,"station_id":"ce4bhu92rcd13ifvqi70","pricing_plan_id":"cebpf4jnsgd1na2vs0mg"},{"bike_id":"c3ddd546-5be0-4518-bbf7-d4724822584a","system_id":"levelo_inurba_marseille","lat":43.27817,"lon":5.40711,"is_reserved":false,"is_disabled":false,"rental_uris":{"android":"levelo://app?vid=c3ddd546-5be0-4518-bbf7-d4724822584a","ios":"levelo://app?vid=c3ddd546-5be0-4518-bbf7-d4724822584a"},"vehicle_type_id":"4","last_reported":1741115244,"current_range_meters":2800,"station_id":"ce4bhnh2rcd13ifvqgtg","pricing_plan_id":"cebpf4jnsgd1na2vs0mg"},{"bike_id":"d96c2e52-3d10-487e-961c-2d9a4fe9fc14","system_id":"levelo_inurba_marseille","lat":43.27823,"lon":5.40714,"is_reserved":false,"is_disabled":false,"rental_uris":{"android":"levelo://app?vid=d96c2e52-3d10-487e-961c-2d9a4fe9fc14","ios":"levelo://app?vid=d96c2e52-3d10-487e-961c-2d9a4fe9fc14"},"vehicle_type_id":"4","last_reported":1741115244,"current_range_meters":2800,"station_id":"ce4bhnh2rcd13ifvqgtg","pricing_plan_id":"cebpf4jnsgd1na2vs0mg"},{"bike_id":"518b44c6-2e0a-4eb3-86b6-cfcd2c2ec8d1","system_id":"levelo_inurba_marseille","lat":43.28183,"lon":5.34756,"is_reserved":false,"is_disabled":false,"rental_uris":{"android":"levelo://app?vid=518b44c6-2e0a-4eb3-86b6-cfcd2c2ec8d1","ios":"levelo://app?vid=518b44c6-2e0a-4eb3-86b6-cfcd2c2ec8d1"},"vehicle_type_id":"4","last_reported":1741115244,"current_range_meters":2800,"station_id":"","pricing_plan_id":"cebpf4jnsgd1na2vs0mg"},{"bike_id":"3092bb8f-89c7-405d-95b3-991b9f7a320a","system_id":"levelo_inurba_marseille","lat":43.24182,"lon":5.39723,"is_reserved":false,"is_disabled":false,"rental_uris":{"android":"levelo://app?vid=3092bb8f-89c7-405d-95b3-991b9f7a320a","ios":"levelo://app?vid=3092bb8f-89c7-405d-95b3-991b9f7a320a"},"vehicle_type_id":"4","last_reported":1741115244,"current_range_meters":2800,"station_id":"ce4bhn12rcd13ifvqgpg","pricing_plan_id":"cebpf4jnsgd1na2vs0mg"},{"bike_id":"a0d03be2-45c5-470d-aaa0-fcb844478506","system_id":"levelo_inurba_marseille","lat":43.28861,"lon":5.35831,"is_reserved":false,"is_disabled":false,"rental_uris":{"android":"levelo://app?vid=a0d03be2-45c5-470d-aaa0-fcb844478506","ios":"levelo://app?vid=a0d03be2-45c5-470d-aaa0-fcb844478506"},"vehicle_type_id":"4","last_reported":1741115244,"current_range_meters":3200,"station_id":"ce4bhb12rcd13ifvqem0","pricing_plan_id":"cebpf4jnsgd1na2vs0mg"},{"bike_id":"d1600d8e-7a21-43cc-9b87-d33f2876afa4","system_id":"levelo_inurba_marseille","lat":43.29878,"lon":5.38914,"is_reserved":false,"is_disabled":false,"rental_uris":{"android":"levelo://app?vid=d1600d8e-7a21-43cc-9b87-d33f2876afa4","ios":"levelo://app?vid=d1600d8e-7a21-43cc-9b87-d33f2876afa4"},"vehicle_type_id":"4","last_reported":1741115244,"current_range_meters":3200,"station_id":"ce4bh392rcd13ifvqdl0","pricing_plan_id":"cebpf4jnsgd1na2vs0mg"},{"bike_id":"d76c2761-7a7a-498e-959a-aad13a1b47fa","system_id":"levelo_inurba_marseille","lat":43.29584,"lon":5.36736,"is_reserved":false,"is_disabled":false,"rental_uris":{"android":"levelo://app?vid=d76c2761-7a7a-498e-959a-aad13a1b47fa","ios":"levelo://app?vid=d76c2761-7a7a-498e-959a-aad13a1b47fa"},"vehicle_type_id":"4","last_reported":1741115244,"current_range_meters":3200,"station_id":"ce4bgph2rcd13ifvqc2g","pricing_plan_id":"cebpf4jnsgd1na2vs0mg"},{"bike_id":"79ab6268-91ef-4080-8f41-781a968b07b0","system_id":"levelo_inurba_marseille","lat":43.27817,"lon":5.4074,"is_reserved":false,"is_disabled":false,"rental_uris":{"android":"levelo://app?vid=79ab6268-91ef-4080-8f41-781a968b07b0","ios":"levelo://app?vid=79ab6268-91ef-4080-8f41-781a968b07b0"},"vehicle_type_id":"4","last_reported":1741115244,"current_range_meters":3200,"station_id":"ce4bhnh2rcd13ifvqgtg","pricing_plan_id":"cebpf4jnsgd1na2vs0mg"},{"bike_id":"c0c60f39-08bd-40a4-a942-66b75f81b984","system_id":"levelo_inurba_marseille","lat":43.34142,"lon":5.40898,"is_reserved":false,"is_disabled":false,"rental_uris":{"android":"levelo://app?vid=c0c60f39-08bd-40a4-a942-66b75f81b984","ios":"levelo://app?vid=c0c60f39-08bd-40a4-a942-66b75f81b984"},"vehicle_type_id":"4","last_reported":1741115244,"current_range_meters":3200,"station_id":"ce4bhqh2rcd13ifvqhlg","pricing_plan_id":"cebpf4jnsgd1na2vs0mg"},{"bike_id":"64fcfbe9-c266-4c1a-9987-95e6474cc3ff","system_id":"levelo_inurba_marseille","lat":43.32659,"lon":5.40996,"is_reserved":false,"is_disabled":false,"rental_uris":{"android":"levelo://app?vid=64fcfbe9-c266-4c1a-9987-95e6474cc3ff","ios":"levelo://app?vid=64fcfbe9-c266-4c1a-9987-95e6474cc3ff"},"vehicle_type_id":"4","last_reported":1741115244,"current_range_meters":3200,"station_id":"ce4bhpp2rcd13ifvqhgg","pricing_plan_id":"cebpf4jnsgd1na2vs0mg"},{"bike_id":"90f41227-8d7a-48e6-980c-cfd7e8e3ce0c","system_id":"levelo_inurba_marseille","lat":43.29622,"lon":5.37707,"is_reserved":false,"is_disabled":false,"rental_uris":{"android":"levelo://app?vid=90f41227-8d7a-48e6-980c-cfd7e8e3ce0c","ios":"levelo://app?vid=90f41227-8d7a-48e6-980c-cfd7e8e3ce0c"},"vehicle_type_id":"4","last_reported":1741115244,"current_range_meters":3600,"station_id":"ce4bgi92rcd13ifvqb90","pricing_plan_id":"cebpf4jnsgd1na2vs0mg"},{"bike_id":"8b1336ce-a72f-4f0b-8390-fae0d20597a4","system_id":"levelo_inurba_marseille","lat":43.28865,"lon":5.35835,"is_reserved":false,"is_disabled":false,"rental_uris":{"android":"levelo://app?vid=8b1336ce-a72f-4f0b-8390-fae0d20597a4","ios":"levelo://app?vid=8b1336ce-a72f-4f0b-8390-fae0d20597a4"},"vehicle_type_id":"4","last_reported":1741115244,"current_range_meters":3600,"station_id":"ce4bhb12rcd13ifvqem0","pricing_plan_id":"cebpf4jnsgd1na2vs0mg"},{"bike_id":"5d6e7723-8748-47b1-a15b-5c719e60614f","system_id":"levelo_inurba_marseille","lat":43.30803,"lon":5.43521,"is_reserved":false,"is_disabled":false,"rental_uris":{"android":"levelo://app?vid=5d6e7723-8748-47b1-a15b-5c719e60614f","ios":"levelo://app?vid=5d6e7723-8748-47b1-a15b-5c719e60614f"},"vehicle_type_id":"4","last_reported":1741115244,"current_range_meters":3600,"station_id":"ce4bhph2rcd13ifvqheg","pricing_plan_id":"cebpf4jnsgd1na2vs0mg"},{"bike_id":"219d62ce-7b93-4c64-8d23-3e9d98cebec8","system_id":"levelo_inurba_marseille","lat":43.23176,"lon":5.39987,"is_reserved":false,"is_disabled":false,"rental_uris":{"android":"levelo://app?vid=219d62ce-7b93-4c64-8d23-3e9d98cebec8","ios":"levelo://app?vid=219d62ce-7b93-4c64-8d23-3e9d98cebec8"},"vehicle_type_id":"4","last_reported":1741115244,"current_range_meters":4000,"station_id":"ce4bhn12rcd13ifvqgqg","pricing_plan_id":"cebpf4jnsgd1na2vs0mg"},{"bike_id":"9d8f413f-edeb-4bf8-baa9-d6f515e9990c","system_id":"levelo_inurba_marseille","lat":43.30256,"lon":5.40061,"is_reserved":false,"is_disabled":false,"rental_uris":{"android":"levelo://app?vid=9d8f413f-edeb-4bf8-baa9-d6f515e9990c","ios":"levelo://app?vid=9d8f413f-edeb-4bf8-baa9-d6f515e9990c"},"vehicle_type_id":"4","last_reported":1741115244,"current_range_meters":4000,"station_id":"ce4bgvh2rcd13ifvqcs0","pricing_plan_id":"cebpf4jnsgd1na2vs0mg"},{"bike_id":"6a2c4cd2-a60d-4693-baf1-ec0a12f6f2cc","system_id":"levelo_inurba_marseille","lat":43.29275,"lon":5.38432,"is_reserved":false,"is_disabled":false,"rental_uris":{"android":"levelo://app?vid=6a2c4cd2-a60d-4693-baf1-ec0a12f6f2cc","ios":"levelo://app?vid=6a2c4cd2-a60d-4693-baf1-ec0a12f6f2cc"},"vehicle_type_id":"4","last_reported":1741115244,"current_range_meters":4000,"station_id":"ce4bh692rcd13ifvqea0","pricing_plan_id":"cebpf4jnsgd1na2vs0mg"},{"bike_id":"c9dd927f-5649-4729-8ffc-b5affa30f94f","system_id":"levelo_inurba_marseille","lat":43.30891,"lon":5.39641,"is_reserved":false,"is_disabled":false,"rental_uris":{"android":"levelo://app?vid=c9dd927f-5649-4729-8ffc-b5affa30f94f","ios":"levelo://app?vid=c9dd927f-5649-4729-8ffc-b5affa30f94f"},"vehicle_type_id":"4","last_reported":1741115244,"current_range_meters":4000,"station_id":"ce4bh012rcd13ifvqcv0","pricing_plan_id":"cebpf4jnsgd1na2vs0mg"},{"bike_id":"ea4a9965-1235-4933-b27d-c31b53bd420b","system_id":"levelo_inurba_marseille","lat":43.3266,"lon":5.40998,"is_reserved":false,"is_disabled":false,"rental_uris":{"android":"levelo://app?vid=ea4a9965-1235-4933-b27d-c31b53bd420b","ios":"levelo://app?vid=ea4a9965-1235-4933-b27d-c31b53bd420b"},"vehicle_type_id":"4","last_reported":1741115244,"current_range_meters":4000,"station_id":"ce4bhpp2rcd13ifvqhgg","pricing_plan_id":"cebpf4jnsgd1na2vs0mg"},{"bike_id":"661fcf11-cdda-4a84-bf37-2e13edefdc10","system_id":"levelo_inurba_marseille","lat":43.29074,"lon":5.37144,"is_reserved":false,"is_disabled":false,"rental_uris":{"android":"levelo://app?vid=661fcf11-cdda-4a84-bf37-2e13edefdc10","ios":"levelo://app?vid=661fcf11-cdda-4a84-bf37-2e13edefdc10"},"vehicle_type_id":"4","last_reported":1741115244,"current_range_meters":4000,"station_id":"ce4bh5p2rcd13ifvqe4g","pricing_plan_id":"cebpf4jnsgd1na2vs0mg"},{"bike_id":"5215b908-562c-478e-a541-f418a4600a14","system_id":"levelo_inurba_marseille","lat":43.29209,"lon":5.35803,"is_reserved":false,"is_disabled":false,"rental_uris":{"android":"levelo://app?vid=5215b908-562c-478e-a541-f418a4600a14","ios":"levelo://app?vid=5215b908-562c-478e-a541-f418a4600a14"},"vehicle_type_id":"4","last_reported":1741115244,"current_range_meters":4000,"station_id":"ce4bhb12rcd13ifvqel0","pricing_plan_id":"cebpf4jnsgd1na2vs0mg"},{"bike_id":"c5e8cd2d-bc8c-432b-b100-b523341f5479","system_id":"levelo_inurba_marseille","lat":43.30878,"lon":5.38614,"is_reserved":false,"is_disabled":true,"rental_uris":{"android":"levelo://app?vid=c5e8cd2d-bc8c-432b-b100-b523341f5479","ios":"levelo://app?vid=c5e8cd2d-bc8c-432b-b100-b523341f5479"},"vehicle_type_id":"4","last_reported":1741115244,"current_range_meters":4400,"station_id":"","pricing_plan_id":"cebpf4jnsgd1na2vs0mg"},{"bike_id":"a2ab6a23-e63d-4228-abcd-23071bf61d48","system_id":"levelo_inurba_marseille","lat":43.28087,"lon":5.39652,"is_reserved":false,"is_disabled":false,"rental_uris":{"android":"levelo://app?vid=a2ab6a23-e63d-4228-abcd-23071bf61d48","ios":"levelo://app?vid=a2ab6a23-e63d-4228-abcd-23071bf61d48"},"vehicle_type_id":"4","last_reported":1741115244,"current_range_meters":4400,"station_id":"ce4bho12rcd13ifvqh2g","pricing_plan_id":"cebpf4jnsgd1na2vs0mg"},{"bike_id":"97e7bb85-e6e8-4733-8f69-592227eaaf23","system_id":"levelo_inurba_marseille","lat":43.28872,"lon":5.40027,"is_reserved":false,"is_disabled":false,"rental_uris":{"android":"levelo://app?vid=97e7bb85-e6e8-4733-8f69-592227eaaf23","ios":"levelo://app?vid=97e7bb85-e6e8-4733-8f69-592227eaaf23"},"vehicle_type_id":"4","last_reported":1741115244,"current_range_meters":4400,"station_id":"","pricing_plan_id":"cebpf4jnsgd1na2vs0mg"},{"bike_id":"0905b313-2c3a-46ca-8d1e-bc3c6f9cc6e9","system_id":"levelo_inurba_marseille","lat":43.26789,"lon":5.39411,"is_reserved":false,"is_disabled":false,"rental_uris":{"android":"levelo://app?vid=0905b313-2c3a-46ca-8d1e-bc3c6f9cc6e9","ios":"levelo://app?vid=0905b313-2c3a-46ca-8d1e-bc3c6f9cc6e9"},"vehicle_type_id":"4","last_reported":1741115244,"current_range_meters":4400,"station_id":"ce4bhh12rcd13ifvqfg0","pricing_plan_id":"cebpf4jnsgd1na2vs0mg"},{"bike_id":"48e5f06b-1e63-4da0-b4bc-a432bb7f96f9","system_id":"levelo_inurba_marseille","lat":43.28607,"lon":5.3707,"is_reserved":false,"is_disabled":false,"rental_uris":{"android":"levelo://app?vid=48e5f06b-1e63-4da0-b4bc-a432bb7f96f9","ios":"levelo://app?vid=48e5f06b-1e63-4da0-b4bc-a432bb7f96f9"},"vehicle_type_id":"4","last_reported":1741115244,"current_range_meters":4800,"station_id":"ce4bht12rcd13ifvqi60","pricing_plan_id":"cebpf4jnsgd1na2vs0mg"},{"bike_id":"ecddc8a7-91af-4ea4-ba05-c8a5c9a398e9","system_id":"levelo_inurba_marseille","lat":43.31723,"lon":5.42396,"is_reserved":false,"is_disabled":false,"rental_uris":{"android":"levelo://app?vid=ecddc8a7-91af-4ea4-ba05-c8a5c9a398e9","ios":"levelo://app?vid=ecddc8a7-91af-4ea4-ba05-c8a5c9a398e9"},"vehicle_type_id":"4","last_reported":1741115244,"current_range_meters":4800,"station_id":"ce4bhp92rcd13ifvqhbg","pricing_plan_id":"cebpf4jnsgd1na2vs0mg"},{"bike_id":"e7ec1ac1-2323-47bd-a2b5-7cd3afb282cf","system_id":"levelo_inurba_marseille","lat":43.26951,"lon":5.36659,"is_reserved":false,"is_disabled":false,"rental_uris":{"android":"levelo://app?vid=e7ec1ac1-2323-47bd-a2b5-7cd3afb282cf","ios":"levelo://app?vid=e7ec1ac1-2323-47bd-a2b5-7cd3afb282cf"},"vehicle_type_id":"4","last_reported":1741115244,"current_range_meters":4800,"station_id":"","pricing_plan_id":"cebpf4jnsgd1na2vs0mg"},{"bike_id":"16422601-b06e-4432-b609-e1ea0e7ea850","system_id":"levelo_inurba_marseille","lat":43.262147,"lon":5.40435,"is_reserved":false,"is_disabled":false,"rental_uris":{"android":"levelo://app?vid=16422601-b06e-4432-b609-e1ea0e7ea850","ios":"levelo://app?vid=16422601-b06e-4432-b609-e1ea0e7ea850"},"vehicle_type_id":"4","last_reported":1741115244,"current_range_meters":4800,"station_id":"ce4bhmh2rcd13ifvqgmg","pricing_plan_id":"cebpf4jnsgd1na2vs0mg"},{"bike_id":"9fa3a17f-7423-41be-a0d2-253c9f27a2e2","system_id":"levelo_inurba_marseille","lat":43.286158,"lon":5.35105,"is_reserved":false,"is_disabled":false,"rental_uris":{"android":"levelo://app?vid=9fa3a17f-7423-41be-a0d2-253c9f27a2e2","ios":"levelo://app?vid=9fa3a17f-7423-41be-a0d2-253c9f27a2e2"},"vehicle_type_id":"4","last_reported":1741115244,"current_range_meters":5600,"station_id":"ce4bhch2rcd13ifvqeug","pricing_plan_id":"cebpf4jnsgd1na2vs0mg"},{"bike_id":"8bbef58b-16f0-4a65-a671-648d74f284f0","system_id":"levelo_inurba_marseille","lat":43.26496,"lon":5.39557,"is_reserved":false,"is_disabled":false,"rental_uris":{"android":"levelo://app?vid=8bbef58b-16f0-4a65-a671-648d74f284f0","ios":"levelo://app?vid=8bbef58b-16f0-4a65-a671-648d74f284f0"},"vehicle_type_id":"4","last_reported":1741115244,"current_range_meters":5600,"station_id":"ce4bhi12rcd13ifvqfq0","pricing_plan_id":"cebpf4jnsgd1na2vs0mg"},{"bike_id":"3fdc9a7e-2885-4db2-b302-c77e590b4771","system_id":"levelo_inurba_marseille","lat":43.31025,"lon":5.37561,"is_reserved":false,"is_disabled":false,"rental_uris":{"android":"levelo://app?vid=3fdc9a7e-2885-4db2-b302-c77e590b4771","ios":"levelo://app?vid=3fdc9a7e-2885-4db2-b302-c77e590b4771"},"vehicle_type_id":"4","last_reported":1741115244,"current_range_meters":5600,"station_id":"","pricing_plan_id":"cebpf4jnsgd1na2vs0mg"},{"bike_id":"a1ab5df9-ec62-4357-9ed1-bce0dbbb1f0b","system_id":"levelo_inurba_marseille","lat":43.28862,"lon":5.35847,"is_reserved":false,"is_disabled":false,"rental_uris":{"android":"levelo://app?vid=a1ab5df9-ec62-4357-9ed1-bce0dbbb1f0b","ios":"levelo://app?vid=a1ab5df9-ec62-4357-9ed1-bce0dbbb1f0b"},"vehicle_type_id":"4","last_reported":1741115244,"current_range_meters":5600,"station_id":"ce4bhb12rcd13ifvqem0","pricing_plan_id":"cebpf4jnsgd1na2vs0mg"},{"bike_id":"cef272d8-2d75-4352-8a63-d08e5651cf79","system_id":"levelo_inurba_marseille","lat":43.31116,"lon":5.3778,"is_reserved":false,"is_disabled":false,"rental_uris":{"android":"levelo://app?vid=cef272d8-2d75-4352-8a63-d08e5651cf79","ios":"levelo://app?vid=cef272d8-2d75-4352-8a63-d08e5651cf79"},"vehicle_type_id":"4","last_reported":1741115244,"current_range_meters":5600,"station_id":"ce4bgt92rcd13ifvqcg0","pricing_plan_id":"cebpf4jnsgd1na2vs0mg"},{"bike_id":"905da3b5-ffda-4093-b252-634c59f7dd89","system_id":"levelo_inurba_marseille","lat":43.28618,"lon":5.35107,"is_reserved":false,"is_disabled":false,"rental_uris":{"android":"levelo://app?vid=905da3b5-ffda-4093-b252-634c59f7dd89","ios":"levelo://app?vid=905da3b5-ffda-4093-b252-634c59f7dd89"},"vehicle_type_id":"4","last_reported":1741115244,"current_range_meters":6000,"station_id":"ce4bhch2rcd13ifvqeug","pricing_plan_id":"cebpf4jnsgd1na2vs0mg"},{"bike_id":"24483089-cdc3-469a-8253-cf03e77a2870","system_id":"levelo_inurba_marseille","lat":43.30586,"lon":5.39351,"is_reserved":false,"is_disabled":false,"rental_uris":{"android":"levelo://app?vid=24483089-cdc3-469a-8253-cf03e77a2870","ios":"levelo://app?vid=24483089-cdc3-469a-8253-cf03e77a2870"},"vehicle_type_id":"4","last_reported":1741115244,"current_range_meters":6000,"station_id":"ce4bh0p2rcd13ifvqd80","pricing_plan_id":"cebpf4jnsgd1na2vs0mg"},{"bike_id":"a3593775-765b-4d69-8641-7fe7d132d1d6","system_id":"levelo_inurba_marseille","lat":43.26801,"lon":5.40271,"is_reserved":false,"is_disabled":false,"rental_uris":{"android":"levelo://app?vid=a3593775-765b-4d69-8641-7fe7d132d1d6","ios":"levelo://app?vid=a3593775-765b-4d69-8641-7fe7d132d1d6"},"vehicle_type_id":"4","last_reported":1741115244,"current_range_meters":6000,"station_id":"ce501612rcd8frsf0b60","pricing_plan_id":"cebpf4jnsgd1na2vs0mg"},{"bike_id":"1ace5e40-026a-4164-8ee6-9e542b7e250d","system_id":"levelo_inurba_marseille","lat":43.29795,"lon":5.39357,"is_reserved":false,"is_disabled":false,"rental_uris":{"android":"levelo://app?vid=1ace5e40-026a-4164-8ee6-9e542b7e250d","ios":"levelo://app?vid=1ace5e40-026a-4164-8ee6-9e542b7e250d"},"vehicle_type_id":"4","last_reported":1741115244,"current_range_meters":6000,"station_id":"chh1huq6cuj3fo74tm60","pricing_plan_id":"cebpf4jnsgd1na2vs0mg"},{"bike_id":"3199d0b1-1880-4a09-9b73-b476aef89546","system_id":"levelo_inurba_marseille","lat":43.30025,"lon":5.37168,"is_reserved":false,"is_disabled":true,"rental_uris":{"android":"levelo://app?vid=3199d0b1-1880-4a09-9b73-b476aef89546","ios":"levelo://app?vid=3199d0b1-1880-4a09-9b73-b476aef89546"},"vehicle_type_id":"4","last_reported":1741115244,"current_range_meters":6000,"station_id":"ce4bgr92rcd13ifvqc7g","pricing_plan_id":"cebpf4jnsgd1na2vs0mg"},{"bike_id":"1e1c0e7c-b418-4ad1-9a0c-512eee7a69ed","system_id":"levelo_inurba_marseille","lat":43.292704,"lon":5.368442,"is_reserved":false,"is_disabled":false,"rental_uris":{"android":"levelo://app?vid=1e1c0e7c-b418-4ad1-9a0c-512eee7a69ed","ios":"levelo://app?vid=1e1c0e7c-b418-4ad1-9a0c-512eee7a69ed"},"vehicle_type_id":"4","last_reported":1741115244,"current_range_meters":6000,"station_id":"ce4bh9p2rcd13ifvqec0","pricing_plan_id":"cebpf4jnsgd1na2vs0mg"},{"bike_id":"7cf386a1-f879-4a1b-a7c4-9eebe0c89ca8","system_id":"levelo_inurba_marseille","lat":43.28069,"lon":5.39661,"is_reserved":false,"is_disabled":false,"rental_uris":{"android":"levelo://app?vid=7cf386a1-f879-4a1b-a7c4-9eebe0c89ca8","ios":"levelo://app?vid=7cf386a1-f879-4a1b-a7c4-9eebe0c89ca8"},"vehicle_type_id":"4","last_reported":1741115244,"current_range_meters":6000,"station_id":"ce4bho12rcd13ifvqh2g","pricing_plan_id":"cebpf4jnsgd1na2vs0mg"},{"bike_id":"e65082d6-5529-479d-9979-0976e546b0b6","system_id":"levelo_inurba_marseille","lat":43.2559,"lon":5.38248,"is_reserved":false,"is_disabled":false,"rental_uris":{"android":"levelo://app?vid=e65082d6-5529-479d-9979-0976e546b0b6","ios":"levelo://app?vid=e65082d6-5529-479d-9979-0976e546b0b6"},"vehicle_type_id":"4","last_reported":1741115244,"current_range_meters":6000,"station_id":"ce4bhih2rcd13ifvqfs0","pricing_plan_id":"cebpf4jnsgd1na2vs0mg"},{"bike_id":"8c09e45d-b7a1-454d-bb26-42edbaaac246","system_id":"levelo_inurba_marseille","lat":43.27675,"lon":5.41165,"is_reserved":false,"is_disabled":false,"rental_uris":{"android":"levelo://app?vid=8c09e45d-b7a1-454d-bb26-42edbaaac246","ios":"levelo://app?vid=8c09e45d-b7a1-454d-bb26-42edbaaac246"},"vehicle_type_id":"4","last_reported":1741115244,"current_range_meters":6000,"station_id":"","pricing_plan_id":"cebpf4jnsgd1na2vs0mg"},{"bike_id":"efcc3214-84bf-482e-adca-8f94362cd09d","system_id":"levelo_inurba_marseille","lat":43.2927,"lon":5.3843,"is_reserved":false,"is_disabled":false,"rental_uris":{"android":"levelo://app?vid=efcc3214-84bf-482e-adca-8f94362cd09d","ios":"levelo://app?vid=efcc3214-84bf-482e-adca-8f94362cd09d"},"vehicle_type_id":"4","last_reported":1741115244,"current_range_meters":6000,"station_id":"ce4bh692rcd13ifvqea0","pricing_plan_id":"cebpf4jnsgd1na2vs0mg"},{"bike_id":"ce8ef3d2-07e3-4512-8813-bcde53a01429","system_id":"levelo_inurba_marseille","lat":43.24159,"lon":5.36398,"is_reserved":false,"is_disabled":false,"rental_uris":{"android":"levelo://app?vid=ce8ef3d2-07e3-4512-8813-bcde53a01429","ios":"levelo://app?vid=ce8ef3d2-07e3-4512-8813-bcde53a01429"},"vehicle_type_id":"4","last_reported":1741115244,"current_range_meters":6400,"station_id":"cpo36qri1sfpv3e86is0","pricing_plan_id":"cebpf4jnsgd1na2vs0mg"},{"bike_id":"bfe26a9a-f533-4fbe-b0b6-95a1e95a5f24","system_id":"levelo_inurba_marseille","lat":43.28102,"lon":5.39653,"is_reserved":false,"is_disabled":true,"rental_uris":{"android":"levelo://app?vid=bfe26a9a-f533-4fbe-b0b6-95a1e95a5f24","ios":"levelo://app?vid=bfe26a9a-f533-4fbe-b0b6-95a1e95a5f24"},"vehicle_type_id":"4","last_reported":1741115244,"current_range_meters":6400,"station_id":"ce4bho12rcd13ifvqh2g","pricing_plan_id":"cebpf4jnsgd1na2vs0mg"},{"bike_id":"79687e17-5ece-4f9c-9252-898196d1c2cb","system_id":"levelo_inurba_marseille","lat":43.29892,"lon":5.38506,"is_reserved":false,"is_disabled":false,"rental_uris":{"android":"levelo://app?vid=79687e17-5ece-4f9c-9252-898196d1c2cb","ios":"levelo://app?vid=79687e17-5ece-4f9c-9252-898196d1c2cb"},"vehicle_type_id":"4","last_reported":1741115244,"current_range_meters":6400,"station_id":"","pricing_plan_id":"cebpf4jnsgd1na2vs0mg"},{"bike_id":"e1e3618f-c1ab-4dc5-8366-0c0293ed3c64","system_id":"levelo_inurba_marseille","lat":43.28846,"lon":5.35848,"is_reserved":false,"is_disabled":false,"rental_uris":{"android":"levelo://app?vid=e1e3618f-c1ab-4dc5-8366-0c0293ed3c64","ios":"levelo://app?vid=e1e3618f-c1ab-4dc5-8366-0c0293ed3c64"},"vehicle_type_id":"4","last_reported":1741115244,"current_range_meters":6400,"station_id":"ce4bhb12rcd13ifvqem0","pricing_plan_id":"cebpf4jnsgd1na2vs0mg"},{"bike_id":"59584c02-8e1e-4960-833d-7325cee5f83e","system_id":"levelo_inurba_marseille","lat":43.2942,"lon":5.3862,"is_reserved":false,"is_disabled":false,"rental_uris":{"android":"levelo://app?vid=59584c02-8e1e-4960-833d-7325cee5f83e","ios":"levelo://app?vid=59584c02-8e1e-4960-833d-7325cee5f83e"},"vehicle_type_id":"4","last_reported":1741115244,"current_range_meters":6400,"station_id":"ce4bh2h2rcd13ifvqdh0","pricing_plan_id":"cebpf4jnsgd1na2vs0mg"},{"bike_id":"cbeb989b-1e6f-48ed-998d-e2792887d159","system_id":"levelo_inurba_marseille","lat":43.28116,"lon":5.37852,"is_reserved":false,"is_disabled":false,"rental_uris":{"android":"levelo://app?vid=cbeb989b-1e6f-48ed-998d-e2792887d159","ios":"levelo://app?vid=cbeb989b-1e6f-48ed-998d-e2792887d159"},"vehicle_type_id":"4","last_reported":1741115244,"current_range_meters":6400,"station_id":"ce4bha12rcd13ifvqee0","pricing_plan_id":"cebpf4jnsgd1na2vs0mg"},{"bike_id":"0d40529a-4ceb-4fe5-a173-9a9387273cfa","system_id":"levelo_inurba_marseille","lat":43.25729,"lon":5.41098,"is_reserved":false,"is_disabled":false,"rental_uris":{"android":"levelo://app?vid=0d40529a-4ceb-4fe5-a173-9a9387273cfa","ios":"levelo://app?vid=0d40529a-4ceb-4fe5-a173-9a9387273cfa"},"vehicle_type_id":"4","last_reported":1741115244,"current_range_meters":6800,"station_id":"ce4bhkp2rcd13ifvqgd0","pricing_plan_id":"cebpf4jnsgd1na2vs0mg"},{"bike_id":"89f8e0fe-b701-4650-9c07-1134a675b073","system_id":"levelo_inurba_marseille","lat":43.248,"lon":5.37444,"is_reserved":false,"is_disabled":false,"rental_uris":{"android":"levelo://app?vid=89f8e0fe-b701-4650-9c07-1134a675b073","ios":"levelo://app?vid=89f8e0fe-b701-4650-9c07-1134a675b073"},"vehicle_type_id":"4","last_reported":1741115244,"current_range_meters":6800,"station_id":"ce4bhgh2rcd13ifvqfb0","pricing_plan_id":"cebpf4jnsgd1na2vs0mg"},{"bike_id":"10d61af2-a218-4397-b179-939c5dec9f2f","system_id":"levelo_inurba_marseille","lat":43.26489,"lon":5.39582,"is_reserved":false,"is_disabled":false,"rental_uris":{"android":"levelo://app?vid=10d61af2-a218-4397-b179-939c5dec9f2f","ios":"levelo://app?vid=10d61af2-a218-4397-b179-939c5dec9f2f"},"vehicle_type_id":"4","last_reported":1741115244,"current_range_meters":6800,"station_id":"ce4bhi12rcd13ifvqfq0","pricing_plan_id":"cebpf4jnsgd1na2vs0mg"},{"bike_id":"8212f3a4-5fbd-4db9-b888-de599e83edb4","system_id":"levelo_inurba_marseille","lat":43.27999,"lon":5.40007,"is_reserved":false,"is_disabled":false,"rental_uris":{"android":"levelo://app?vid=8212f3a4-5fbd-4db9-b888-de599e83edb4","ios":"levelo://app?vid=8212f3a4-5fbd-4db9-b888-de599e83edb4"},"vehicle_type_id":"4","last_reported":1741115244,"current_range_meters":6800,"station_id":"ce4bho92rcd13ifvqh4g","pricing_plan_id":"cebpf4jnsgd1na2vs0mg"},{"bike_id":"6f359f76-3a72-41be-9552-f3e86e80f519","system_id":"levelo_inurba_marseille","lat":43.31281,"lon":5.38451,"is_reserved":false,"is_disabled":false,"rental_uris":{"android":"levelo://app?vid=6f359f76-3a72-41be-9552-f3e86e80f519","ios":"levelo://app?vid=6f359f76-3a72-41be-9552-f3e86e80f519"},"vehicle_type_id":"4","last_reported":1741115244,"current_range_meters":6800,"station_id":"","pricing_plan_id":"cebpf4jnsgd1na2vs0mg"},{"bike_id":"34198965-01fc-4d36-8ac8-36742420987d","system_id":"levelo_inurba_marseille","lat":43.27054,"lon":5.40266,"is_reserved":false,"is_disabled":false,"rental_uris":{"android":"levelo://app?vid=34198965-01fc-4d36-8ac8-36742420987d","ios":"levelo://app?vid=34198965-01fc-4d36-8ac8-36742420987d"},"vehicle_type_id":"4","last_reported":1741115244,"current_range_meters":7200,"station_id":"ce4bhk92rcd13ifvqgc0","pricing_plan_id":"cebpf4jnsgd1na2vs0mg"},{"bike_id":"2aa49a06-adcb-415b-aeed-5a52bd1f7663","system_id":"levelo_inurba_marseille","lat":43.30599,"lon":5.37235,"is_reserved":false,"is_disabled":false,"rental_uris":{"android":"levelo://app?vid=2aa49a06-adcb-415b-aeed-5a52bd1f7663","ios":"levelo://app?vid=2aa49a06-adcb-415b-aeed-5a52bd1f7663"},"vehicle_type_id":"4","last_reported":1741115244,"current_range_meters":7200,"station_id":"ce4bgqh2rcd13ifvqc4g","pricing_plan_id":"cebpf4jnsgd1na2vs0mg"},{"bike_id":"13c44e5e-5463-4505-ba1b-c0544af7d8ca","system_id":"levelo_inurba_marseille","lat":43.23195,"lon":5.35562,"is_reserved":false,"is_disabled":false,"rental_uris":{"android":"levelo://app?vid=13c44e5e-5463-4505-ba1b-c0544af7d8ca","ios":"levelo://app?vid=13c44e5e-5463-4505-ba1b-c0544af7d8ca"},"vehicle_type_id":"4","last_reported":1741115244,"current_range_meters":7200,"station_id":"ce4bhu92rcd13ifvqi70","pricing_plan_id":"cebpf4jnsgd1na2vs0mg"},{"bike_id":"a4f4c804-d38c-4c39-bc8b-30771bddfd18","system_id":"levelo_inurba_marseille","lat":43.30428,"lon":5.41278,"is_reserved":false,"is_disabled":false,"rental_uris":{"android":"levelo://app?vid=a4f4c804-d38c-4c39-bc8b-30771bddfd18","ios":"levelo://app?vid=a4f4c804-d38c-4c39-bc8b-30771bddfd18"},"vehicle_type_id":"4","last_reported":1741115244,"current_range_meters":7200,"station_id":"ce4bhop2rcd13ifvqh8g","pricing_plan_id":"cebpf4jnsgd1na2vs0mg"},{"bike_id":"3eb72fbf-7948-4624-8ffb-a8d97ab7c9e6","system_id":"levelo_inurba_marseille","lat":43.23971,"lon":5.36634,"is_reserved":false,"is_disabled":false,"rental_uris":{"android":"levelo://app?vid=3eb72fbf-7948-4624-8ffb-a8d97ab7c9e6","ios":"levelo://app?vid=3eb72fbf-7948-4624-8ffb-a8d97ab7c9e6"},"vehicle_type_id":"4","last_reported":1741115244,"current_range_meters":7200,"station_id":"ce4bhi12rcd13ifvqfp0","pricing_plan_id":"cebpf4jnsgd1na2vs0mg"},{"bike_id":"416d50ec-b837-430c-9d87-01f8f6f5b950","system_id":"levelo_inurba_marseille","lat":43.27618,"lon":5.36101,"is_reserved":false,"is_disabled":false,"rental_uris":{"android":"levelo://app?vid=416d50ec-b837-430c-9d87-01f8f6f5b950","ios":"levelo://app?vid=416d50ec-b837-430c-9d87-01f8f6f5b950"},"vehicle_type_id":"4","last_reported":1741115244,"current_range_meters":8000,"station_id":"ce4bgj92rcd13ifvqbe0","pricing_plan_id":"cebpf4jnsgd1na2vs0mg"},{"bike_id":"82cf1890-6fc9-45de-a4c6-a2860b6ad381","system_id":"levelo_inurba_marseille","lat":43.30886,"lon":5.39648,"is_reserved":false,"is_disabled":false,"rental_uris":{"android":"levelo://app?vid=82cf1890-6fc9-45de-a4c6-a2860b6ad381","ios":"levelo://app?vid=82cf1890-6fc9-45de-a4c6-a2860b6ad381"},"vehicle_type_id":"4","last_reported":1741115244,"current_range_meters":8000,"station_id":"ce4bh012rcd13ifvqcv0","pricing_plan_id":"cebpf4jnsgd1na2vs0mg"},{"bike_id":"c1c6d331-bef2-4ec2-b58e-cea42d9b5662","system_id":"levelo_inurba_marseille","lat":43.26781,"lon":5.39423,"is_reserved":false,"is_disabled":true,"rental_uris":{"android":"levelo://app?vid=c1c6d331-bef2-4ec2-b58e-cea42d9b5662","ios":"levelo://app?vid=c1c6d331-bef2-4ec2-b58e-cea42d9b5662"},"vehicle_type_id":"4","last_reported":1741115244,"current_range_meters":8000,"station_id":"ce4bhh12rcd13ifvqfg0","pricing_plan_id":"cebpf4jnsgd1na2vs0mg"},{"bike_id":"0b818497-4d97-451b-b637-cef3d02b5c9d","system_id":"levelo_inurba_marseille","lat":43.31701,"lon":5.43675,"is_reserved":false,"is_disabled":false,"rental_uris":{"android":"levelo://app?vid=0b818497-4d97-451b-b637-cef3d02b5c9d","ios":"levelo://app?vid=0b818497-4d97-451b-b637-cef3d02b5c9d"},"vehicle_type_id":"4","last_reported":1741115244,"current_range_meters":8000,"station_id":"ce4bhp92rcd13ifvqhcg","pricing_plan_id":"cebpf4jnsgd1na2vs0mg"},{"bike_id":"a42e57c0-86c4-4066-89f9-7deda7c66fd7","system_id":"levelo_inurba_marseille","lat":43.30138,"lon":5.39835,"is_reserved":false,"is_disabled":false,"rental_uris":{"android":"levelo://app?vid=a42e57c0-86c4-4066-89f9-7deda7c66fd7","ios":"levelo://app?vid=a42e57c0-86c4-4066-89f9-7deda7c66fd7"},"vehicle_type_id":"4","last_reported":1741115244,"current_range_meters":8000,"station_id":"ce4bh0h2rcd13ifvqd40","pricing_plan_id":"cebpf4jnsgd1na2vs0mg"},{"bike_id":"64953142-7637-42b4-b0d1-c449e63f1db7","system_id":"levelo_inurba_marseille","lat":43.29626,"lon":5.36036,"is_reserved":false,"is_disabled":false,"rental_uris":{"android":"levelo://app?vid=64953142-7637-42b4-b0d1-c449e63f1db7","ios":"levelo://app?vid=64953142-7637-42b4-b0d1-c449e63f1db7"},"vehicle_type_id":"4","last_reported":1741115244,"current_range_meters":8000,"station_id":"","pricing_plan_id":"cebpf4jnsgd1na2vs0mg"},{"bike_id":"4953908e-c12d-41ee-881a-cce039598782","system_id":"levelo_inurba_marseille","lat":43.30807,"lon":5.43545,"is_reserved":false,"is_disabled":false,"rental_uris":{"android":"levelo://app?vid=4953908e-c12d-41ee-881a-cce039598782","ios":"levelo://app?vid=4953908e-c12d-41ee-881a-cce039598782"},"vehicle_type_id":"4","last_reported":1741115244,"current_range_meters":8000,"station_id":"ce4bhph2rcd13ifvqheg","pricing_plan_id":"cebpf4jnsgd1na2vs0mg"},{"bike_id":"1b483bb2-7945-4677-8f4f-96f41bbc59ed","system_id":"levelo_inurba_marseille","lat":43.28856,"lon":5.35849,"is_reserved":false,"is_disabled":false,"rental_uris":{"android":"levelo://app?vid=1b483bb2-7945-4677-8f4f-96f41bbc59ed","ios":"levelo://app?vid=1b483bb2-7945-4677-8f4f-96f41bbc59ed"},"vehicle_type_id":"4","last_reported":1741115244,"current_range_meters":8000,"station_id":"ce4bhb12rcd13ifvqem0","pricing_plan_id":"cebpf4jnsgd1na2vs0mg"},{"bike_id":"03f47256-1269-49d7-9674-8744afbc3864","system_id":"levelo_inurba_marseille","lat":43.28852,"lon":5.35834,"is_reserved":false,"is_disabled":false,"rental_uris":{"android":"levelo://app?vid=03f47256-1269-49d7-9674-8744afbc3864","ios":"levelo://app?vid=03f47256-1269-49d7-9674-8744afbc3864"},"vehicle_type_id":"4","last_reported":1741115244,"current_range_meters":8000,"station_id":"ce4bhb12rcd13ifvqem0","pricing_plan_id":"cebpf4jnsgd1na2vs0mg"},{"bike_id":"ff27610f-6cb7-467e-a95d-0c30052f62c3","system_id":"levelo_inurba_marseille","lat":43.306,"lon":5.39353,"is_reserved":false,"is_disabled":false,"rental_uris":{"android":"levelo://app?vid=ff27610f-6cb7-467e-a95d-0c30052f62c3","ios":"levelo://app?vid=ff27610f-6cb7-467e-a95d-0c30052f62c3"},"vehicle_type_id":"4","last_reported":1741115244,"current_range_meters":6400,"station_id":"ce4bh0p2rcd13ifvqd80","pricing_plan_id":"cebpf4jnsgd1na2vs0mg"},{"bike_id":"89318145-9eb0-465a-b07a-e13ca76565f9","system_id":"levelo_inurba_marseille","lat":43.27996,"lon":5.40007,"is_reserved":false,"is_disabled":false,"rental_uris":{"android":"levelo://app?vid=89318145-9eb0-465a-b07a-e13ca76565f9","ios":"levelo://app?vid=89318145-9eb0-465a-b07a-e13ca76565f9"},"vehicle_type_id":"4","last_reported":1741115244,"current_range_meters":8400,"station_id":"ce4bho92rcd13ifvqh4g","pricing_plan_id":"cebpf4jnsgd1na2vs0mg"},{"bike_id":"9eaf1fa6-9098-4c83-9460-5bcdd3ab02ee","system_id":"levelo_inurba_marseille","lat":43.2318,"lon":5.39986,"is_reserved":false,"is_disabled":false,"rental_uris":{"android":"levelo://app?vid=9eaf1fa6-9098-4c83-9460-5bcdd3ab02ee","ios":"levelo://app?vid=9eaf1fa6-9098-4c83-9460-5bcdd3ab02ee"},"vehicle_type_id":"4","last_reported":1741115244,"current_range_meters":8400,"station_id":"ce4bhn12rcd13ifvqgqg","pricing_plan_id":"cebpf4jnsgd1na2vs0mg"},{"bike_id":"5ad7574a-5b06-44d1-ada4-38c796f57274","system_id":"levelo_inurba_marseille","lat":43.28482,"lon":5.38401,"is_reserved":false,"is_disabled":false,"rental_uris":{"android":"levelo://app?vid=5ad7574a-5b06-44d1-ada4-38c796f57274","ios":"levelo://app?vid=5ad7574a-5b06-44d1-ada4-38c796f57274"},"vehicle_type_id":"4","last_reported":1741115244,"current_range_meters":8400,"station_id":"ce4bh512rcd13ifvqe3g","pricing_plan_id":"cebpf4jnsgd1na2vs0mg"},{"bike_id":"4d031821-b90c-420c-be9f-756d9af38822","system_id":"levelo_inurba_marseille","lat":43.27701,"lon":5.40731,"is_reserved":false,"is_disabled":false,"rental_uris":{"android":"levelo://app?vid=4d031821-b90c-420c-be9f-756d9af38822","ios":"levelo://app?vid=4d031821-b90c-420c-be9f-756d9af38822"},"vehicle_type_id":"4","last_reported":1741115244,"current_range_meters":8400,"station_id":"","pricing_plan_id":"cebpf4jnsgd1na2vs0mg"},{"bike_id":"6522d8fe-a033-424f-b842-952e814d7413","system_id":"levelo_inurba_marseille","lat":43.2795,"lon":5.41035,"is_reserved":false,"is_disabled":false,"rental_uris":{"android":"levelo://app?vid=6522d8fe-a033-424f-b842-952e814d7413","ios":"levelo://app?vid=6522d8fe-a033-424f-b842-952e814d7413"},"vehicle_type_id":"4","last_reported":1741115244,"current_range_meters":8400,"station_id":"ce4bhnp2rcd13ifvqh0g","pricing_plan_id":"cebpf4jnsgd1na2vs0mg"},{"bike_id":"aa146e2d-e0dd-4866-86cd-9e0c602fb65b","system_id":"levelo_inurba_marseille","lat":43.28846,"lon":5.35863,"is_reserved":false,"is_disabled":false,"rental_uris":{"android":"levelo://app?vid=aa146e2d-e0dd-4866-86cd-9e0c602fb65b","ios":"levelo://app?vid=aa146e2d-e0dd-4866-86cd-9e0c602fb65b"},"vehicle_type_id":"4","last_reported":1741115244,"current_range_meters":8400,"station_id":"ce4bhb12rcd13ifvqem0","pricing_plan_id":"cebpf4jnsgd1na2vs0mg"},{"bike_id":"c1e16dde-fd7c-46cd-969e-add20bd440fd","system_id":"levelo_inurba_marseille","lat":43.29188,"lon":5.3934,"is_reserved":false,"is_disabled":false,"rental_uris":{"android":"levelo://app?vid=c1e16dde-fd7c-46cd-969e-add20bd440fd","ios":"levelo://app?vid=c1e16dde-fd7c-46cd-969e-add20bd440fd"},"vehicle_type_id":"4","last_reported":1741115244,"current_range_meters":8400,"station_id":"ce4bh192rcd13ifvqdd0","pricing_plan_id":"cebpf4jnsgd1na2vs0mg"},{"bike_id":"ae418a48-6530-4106-abb2-a581dbcbb1e2","system_id":"levelo_inurba_marseille","lat":43.31083,"lon":5.38345,"is_reserved":false,"is_disabled":false,"rental_uris":{"android":"levelo://app?vid=ae418a48-6530-4106-abb2-a581dbcbb1e2","ios":"levelo://app?vid=ae418a48-6530-4106-abb2-a581dbcbb1e2"},"vehicle_type_id":"4","last_reported":1741115244,"current_range_meters":8400,"station_id":"ce4bgv92rcd13ifvqcr0","pricing_plan_id":"cebpf4jnsgd1na2vs0mg"},{"bike_id":"123c7a80-231c-41e3-8864-182e3020ccec","system_id":"levelo_inurba_marseille","lat":43.31761,"lon":5.39017,"is_reserved":false,"is_disabled":false,"rental_uris":{"android":"levelo://app?vid=123c7a80-231c-41e3-8864-182e3020ccec","ios":"levelo://app?vid=123c7a80-231c-41e3-8864-182e3020ccec"},"vehicle_type_id":"4","last_reported":1741115244,"current_range_meters":8400,"station_id":"ce4bhqp2rcd13ifvqhng","pricing_plan_id":"cebpf4jnsgd1na2vs0mg"},{"bike_id":"ef586f23-ee4b-465a-84b4-b76ec36bdcf2","system_id":"levelo_inurba_marseille","lat":43.28403,"lon":5.3752,"is_reserved":false,"is_disabled":false,"rental_uris":{"android":"levelo://app?vid=ef586f23-ee4b-465a-84b4-b76ec36bdcf2","ios":"levelo://app?vid=ef586f23-ee4b-465a-84b4-b76ec36bdcf2"},"vehicle_type_id":"4","last_reported":1741115244,"current_range_meters":8400,"station_id":"ce4bh412rcd13ifvqds0","pricing_plan_id":"cebpf4jnsgd1na2vs0mg"},{"bike_id":"f7dd2f31-e3f3-4254-8a69-306a2ef063c9","system_id":"levelo_inurba_marseille","lat":43.29271,"lon":5.38435,"is_reserved":false,"is_disabled":false,"rental_uris":{"android":"levelo://app?vid=f7dd2f31-e3f3-4254-8a69-306a2ef063c9","ios":"levelo://app?vid=f7dd2f31-e3f3-4254-8a69-306a2ef063c9"},"vehicle_type_id":"4","last_reported":1741115244,"current_range_meters":8400,"station_id":"ce4bh692rcd13ifvqea0","pricing_plan_id":"cebpf4jnsgd1na2vs0mg"},{"bike_id":"20330a5a-4f6f-4da3-ae4e-a70d8875fe0d","system_id":"levelo_inurba_marseille","lat":43.265,"lon":5.39535,"is_reserved":false,"is_disabled":false,"rental_uris":{"android":"levelo://app?vid=20330a5a-4f6f-4da3-ae4e-a70d8875fe0d","ios":"levelo://app?vid=20330a5a-4f6f-4da3-ae4e-a70d8875fe0d"},"vehicle_type_id":"4","last_reported":1741115244,"current_range_meters":8400,"station_id":"ce4bhi12rcd13ifvqfq0","pricing_plan_id":"cebpf4jnsgd1na2vs0mg"},{"bike_id":"a4bdfb6f-4204-49ee-ba23-42c2071e5ef0","system_id":"levelo_inurba_marseille","lat":43.29567,"lon":5.39966,"is_reserved":false,"is_disabled":false,"rental_uris":{"android":"levelo://app?vid=a4bdfb6f-4204-49ee-ba23-42c2071e5ef0","ios":"levelo://app?vid=a4bdfb6f-4204-49ee-ba23-42c2071e5ef0"},"vehicle_type_id":"4","last_reported":1741115244,"current_range_meters":8400,"station_id":"ce4bh312rcd13ifvqdj0","pricing_plan_id":"cebpf4jnsgd1na2vs0mg"},{"bike_id":"88d87003-c361-403a-bd17-494750314acf","system_id":"levelo_inurba_marseille","lat":43.24802,"lon":5.37445,"is_reserved":false,"is_disabled":false,"rental_uris":{"android":"levelo://app?vid=88d87003-c361-403a-bd17-494750314acf","ios":"levelo://app?vid=88d87003-c361-403a-bd17-494750314acf"},"vehicle_type_id":"4","last_reported":1741115244,"current_range_meters":8400,"station_id":"ce4bhgh2rcd13ifvqfb0","pricing_plan_id":"cebpf4jnsgd1na2vs0mg"},{"bike_id":"084c253e-ed1d-48f8-8737-e7d3a5179e1a","system_id":"levelo_inurba_marseille","lat":43.28467,"lon":5.35901,"is_reserved":false,"is_disabled":false,"rental_uris":{"android":"levelo://app?vid=084c253e-ed1d-48f8-8737-e7d3a5179e1a","ios":"levelo://app?vid=084c253e-ed1d-48f8-8737-e7d3a5179e1a"},"vehicle_type_id":"4","last_reported":1741115244,"current_range_meters":8800,"station_id":"ce4bhah2rcd13ifvqei0","pricing_plan_id":"cebpf4jnsgd1na2vs0mg"},{"bike_id":"2f2997b2-435b-4046-83a1-e6ed0b0f0bde","system_id":"levelo_inurba_marseille","lat":43.24687,"lon":5.38156,"is_reserved":false,"is_disabled":false,"rental_uris":{"android":"levelo://app?vid=2f2997b2-435b-4046-83a1-e6ed0b0f0bde","ios":"levelo://app?vid=2f2997b2-435b-4046-83a1-e6ed0b0f0bde"},"vehicle_type_id":"4","last_reported":1741115244,"current_range_meters":8800,"station_id":"ce4bhih2rcd13ifvqfr0","pricing_plan_id":"cebpf4jnsgd1na2vs0mg"},{"bike_id":"8180e650-770d-45c4-b9c7-205ece4a5ec1","system_id":"levelo_inurba_marseille","lat":43.27811,"lon":5.4072,"is_reserved":false,"is_disabled":false,"rental_uris":{"android":"levelo://app?vid=8180e650-770d-45c4-b9c7-205ece4a5ec1","ios":"levelo://app?vid=8180e650-770d-45c4-b9c7-205ece4a5ec1"},"vehicle_type_id":"4","last_reported":1741115244,"current_range_meters":8800,"station_id":"ce4bhnh2rcd13ifvqgtg","pricing_plan_id":"cebpf4jnsgd1na2vs0mg"},{"bike_id":"2d3fc5a1-a7c5-4ec4-852d-d012f4f9d914","system_id":"levelo_inurba_marseille","lat":43.248088,"lon":5.374672,"is_reserved":false,"is_disabled":false,"rental_uris":{"android":"levelo://app?vid=2d3fc5a1-a7c5-4ec4-852d-d012f4f9d914","ios":"levelo://app?vid=2d3fc5a1-a7c5-4ec4-852d-d012f4f9d914"},"vehicle_type_id":"4","last_reported":1741115244,"current_range_meters":8800,"station_id":"ce4bhnp2rcd13ifvqgvg","pricing_plan_id":"cebpf4jnsgd1na2vs0mg"},{"bike_id":"0f9ddea6-1d75-4d7a-86df-1ec423c3282c","system_id":"levelo_inurba_marseille","lat":43.28,"lon":5.39995,"is_reserved":false,"is_disabled":false,"rental_uris":{"android":"levelo://app?vid=0f9ddea6-1d75-4d7a-86df-1ec423c3282c","ios":"levelo://app?vid=0f9ddea6-1d75-4d7a-86df-1ec423c3282c"},"vehicle_type_id":"4","last_reported":1741115244,"current_range_meters":8800,"station_id":"ce4bho92rcd13ifvqh4g","pricing_plan_id":"cebpf4jnsgd1na2vs0mg"},{"bike_id":"7fd36018-1682-424c-94e6-c1b74147c997","system_id":"levelo_inurba_marseille","lat":43.2797,"lon":5.40084,"is_reserved":false,"is_disabled":false,"rental_uris":{"android":"levelo://app?vid=7fd36018-1682-424c-94e6-c1b74147c997","ios":"levelo://app?vid=7fd36018-1682-424c-94e6-c1b74147c997"},"vehicle_type_id":"4","last_reported":1741115244,"current_range_meters":8800,"station_id":"","pricing_plan_id":"cebpf4jnsgd1na2vs0mg"},{"bike_id":"a99b6ca0-cb75-4009-9bd5-71d003bb1668","system_id":"levelo_inurba_marseille","lat":43.24804,"lon":5.3745,"is_reserved":false,"is_disabled":false,"rental_uris":{"android":"levelo://app?vid=a99b6ca0-cb75-4009-9bd5-71d003bb1668","ios":"levelo://app?vid=a99b6ca0-cb75-4009-9bd5-71d003bb1668"},"vehicle_type_id":"4","last_reported":1741115244,"current_range_meters":8800,"station_id":"ce4bhgh2rcd13ifvqfb0","pricing_plan_id":"cebpf4jnsgd1na2vs0mg"},{"bike_id":"60d031a8-24b1-4366-8e11-42c4737cb648","system_id":"levelo_inurba_marseille","lat":43.31358,"lon":5.38494,"is_reserved":false,"is_disabled":false,"rental_uris":{"android":"levelo://app?vid=60d031a8-24b1-4366-8e11-42c4737cb648","ios":"levelo://app?vid=60d031a8-24b1-4366-8e11-42c4737cb648"},"vehicle_type_id":"4","last_reported":1741115244,"current_range_meters":8800,"station_id":"ce4bgt92rcd13ifvqcf0","pricing_plan_id":"cebpf4jnsgd1na2vs0mg"},{"bike_id":"5b72e45d-01fb-4eaf-8071-a1e78c4dc0c5","system_id":"levelo_inurba_marseille","lat":43.27948,"lon":5.41056,"is_reserved":false,"is_disabled":false,"rental_uris":{"android":"levelo://app?vid=5b72e45d-01fb-4eaf-8071-a1e78c4dc0c5","ios":"levelo://app?vid=5b72e45d-01fb-4eaf-8071-a1e78c4dc0c5"},"vehicle_type_id":"4","last_reported":1741115244,"current_range_meters":8800,"station_id":"ce4bhnp2rcd13ifvqh0g","pricing_plan_id":"cebpf4jnsgd1na2vs0mg"},{"bike_id":"8e622d6a-1936-4562-b099-5de5d61ca71f","system_id":"levelo_inurba_marseille","lat":43.30874,"lon":5.37181,"is_reserved":false,"is_disabled":false,"rental_uris":{"android":"levelo://app?vid=8e622d6a-1936-4562-b099-5de5d61ca71f","ios":"levelo://app?vid=8e622d6a-1936-4562-b099-5de5d61ca71f"},"vehicle_type_id":"4","last_reported":1741115244,"current_range_meters":8800,"station_id":"ce4bguh2rcd13ifvqckg","pricing_plan_id":"cebpf4jnsgd1na2vs0mg"},{"bike_id":"fa18db08-abf1-448d-88f4-6f248462e95a","system_id":"levelo_inurba_marseille","lat":43.29628,"lon":5.40603,"is_reserved":false,"is_disabled":false,"rental_uris":{"android":"levelo://app?vid=fa18db08-abf1-448d-88f4-6f248462e95a","ios":"levelo://app?vid=fa18db08-abf1-448d-88f4-6f248462e95a"},"vehicle_type_id":"4","last_reported":1741115244,"current_range_meters":8800,"station_id":"ce4bh0h2rcd13ifvqd60","pricing_plan_id":"cebpf4jnsgd1na2vs0mg"},{"bike_id":"45120817-aae9-4180-9f13-3ebfdeee8fae","system_id":"levelo_inurba_marseille","lat":43.30605,"lon":5.39346,"is_reserved":false,"is_disabled":false,"rental_uris":{"android":"levelo://app?vid=45120817-aae9-4180-9f13-3ebfdeee8fae","ios":"levelo://app?vid=45120817-aae9-4180-9f13-3ebfdeee8fae"},"vehicle_type_id":"4","last_reported":1741115244,"current_range_meters":8800,"station_id":"ce4bh0p2rcd13ifvqd80","pricing_plan_id":"cebpf4jnsgd1na2vs0mg"},{"bike_id":"40592169-4d72-4b69-a512-be614d00ab33","system_id":"levelo_inurba_marseille","lat":43.2808,"lon":5.39638,"is_reserved":false,"is_disabled":false,"rental_uris":{"android":"levelo://app?vid=40592169-4d72-4b69-a512-be614d00ab33","ios":"levelo://app?vid=40592169-4d72-4b69-a512-be614d00ab33"},"vehicle_type_id":"4","last_reported":1741115244,"current_range_meters":8800,"station_id":"ce4bho12rcd13ifvqh2g","pricing_plan_id":"cebpf4jnsgd1na2vs0mg"},{"bike_id":"3e606d5f-ea0c-41c8-b2c9-6b22a464b627","system_id":"levelo_inurba_marseille","lat":43.27997,"lon":5.40007,"is_reserved":false,"is_disabled":false,"rental_uris":{"android":"levelo://app?vid=3e606d5f-ea0c-41c8-b2c9-6b22a464b627","ios":"levelo://app?vid=3e606d5f-ea0c-41c8-b2c9-6b22a464b627"},"vehicle_type_id":"4","last_reported":1741115244,"current_range_meters":8800,"station_id":"ce4bho92rcd13ifvqh4g","pricing_plan_id":"cebpf4jnsgd1na2vs0mg"},{"bike_id":"f21ff046-d719-46c9-a5cb-d3f5f8581af9","system_id":"levelo_inurba_marseille","lat":43.28846,"lon":5.35839,"is_reserved":false,"is_disabled":false,"rental_uris":{"android":"levelo://app?vid=f21ff046-d719-46c9-a5cb-d3f5f8581af9","ios":"levelo://app?vid=f21ff046-d719-46c9-a5cb-d3f5f8581af9"},"vehicle_type_id":"4","last_reported":1741115244,"current_range_meters":9200,"station_id":"ce4bhb12rcd13ifvqem0","pricing_plan_id":"cebpf4jnsgd1na2vs0mg"},{"bike_id":"9b41fe52-88d7-4dc7-8eea-7e7463bfef9f","system_id":"levelo_inurba_marseille","lat":43.28849,"lon":5.39321,"is_reserved":false,"is_disabled":false,"rental_uris":{"android":"levelo://app?vid=9b41fe52-88d7-4dc7-8eea-7e7463bfef9f","ios":"levelo://app?vid=9b41fe52-88d7-4dc7-8eea-7e7463bfef9f"},"vehicle_type_id":"4","last_reported":1741115244,"current_range_meters":9200,"station_id":"ce4bh2p2rcd13ifvqdi0","pricing_plan_id":"cebpf4jnsgd1na2vs0mg"},{"bike_id":"8caa3965-8df2-4769-ba39-b1c61d160a62","system_id":"levelo_inurba_marseille","lat":43.28638,"lon":5.35124,"is_reserved":false,"is_disabled":false,"rental_uris":{"android":"levelo://app?vid=8caa3965-8df2-4769-ba39-b1c61d160a62","ios":"levelo://app?vid=8caa3965-8df2-4769-ba39-b1c61d160a62"},"vehicle_type_id":"4","last_reported":1741115244,"current_range_meters":9200,"station_id":"ce4bhch2rcd13ifvqeug","pricing_plan_id":"cebpf4jnsgd1na2vs0mg"},{"bike_id":"f3a22798-408a-4b33-8f05-8f835b5d43de","system_id":"levelo_inurba_marseille","lat":43.32657,"lon":5.41,"is_reserved":false,"is_disabled":false,"rental_uris":{"android":"levelo://app?vid=f3a22798-408a-4b33-8f05-8f835b5d43de","ios":"levelo://app?vid=f3a22798-408a-4b33-8f05-8f835b5d43de"},"vehicle_type_id":"4","last_reported":1741115244,"current_range_meters":9200,"station_id":"ce4bhpp2rcd13ifvqhgg","pricing_plan_id":"cebpf4jnsgd1na2vs0mg"},{"bike_id":"4bc22bc8-57d9-4e3e-bbf9-5bb2e57875a0","system_id":"levelo_inurba_marseille","lat":43.2781,"lon":5.40726,"is_reserved":false,"is_disabled":false,"rental_uris":{"android":"levelo://app?vid=4bc22bc8-57d9-4e3e-bbf9-5bb2e57875a0","ios":"levelo://app?vid=4bc22bc8-57d9-4e3e-bbf9-5bb2e57875a0"},"vehicle_type_id":"4","last_reported":1741115244,"current_range_meters":9200,"station_id":"ce4bhnh2rcd13ifvqgtg","pricing_plan_id":"cebpf4jnsgd1na2vs0mg"},{"bike_id":"b15d66dd-5ac9-41ab-9bc0-e33d599ec88c","system_id":"levelo_inurba_marseille","lat":43.27816,"lon":5.40717,"is_reserved":false,"is_disabled":false,"rental_uris":{"android":"levelo://app?vid=b15d66dd-5ac9-41ab-9bc0-e33d599ec88c","ios":"levelo://app?vid=b15d66dd-5ac9-41ab-9bc0-e33d599ec88c"},"vehicle_type_id":"4","last_reported":1741115244,"current_range_meters":9200,"station_id":"ce4bhnh2rcd13ifvqgtg","pricing_plan_id":"cebpf4jnsgd1na2vs0mg"},{"bike_id":"673a0145-2d59-42c5-a9c3-2acb956f3a40","system_id":"levelo_inurba_marseille","lat":43.2481,"lon":5.3746,"is_reserved":false,"is_disabled":false,"rental_uris":{"android":"levelo://app?vid=673a0145-2d59-42c5-a9c3-2acb956f3a40","ios":"levelo://app?vid=673a0145-2d59-42c5-a9c3-2acb956f3a40"},"vehicle_type_id":"4","last_reported":1741115244,"current_range_meters":9200,"station_id":"ce4bhgh2rcd13ifvqfb0","pricing_plan_id":"cebpf4jnsgd1na2vs0mg"},{"bike_id":"ea6a4a15-a453-498d-be30-f6d5d98c6c99","system_id":"levelo_inurba_marseille","lat":43.26799,"lon":5.40257,"is_reserved":false,"is_disabled":false,"rental_uris":{"android":"levelo://app?vid=ea6a4a15-a453-498d-be30-f6d5d98c6c99","ios":"levelo://app?vid=ea6a4a15-a453-498d-be30-f6d5d98c6c99"},"vehicle_type_id":"4","last_reported":1741115244,"current_range_meters":9600,"station_id":"ce501612rcd8frsf0b60","pricing_plan_id":"cebpf4jnsgd1na2vs0mg"},{"bike_id":"ee1d2ad1-36ca-49dd-a328-f2a9a9994ecb","system_id":"levelo_inurba_marseille","lat":43.31103,"lon":5.3816,"is_reserved":false,"is_disabled":false,"rental_uris":{"android":"levelo://app?vid=ee1d2ad1-36ca-49dd-a328-f2a9a9994ecb","ios":"levelo://app?vid=ee1d2ad1-36ca-49dd-a328-f2a9a9994ecb"},"vehicle_type_id":"4","last_reported":1741115244,"current_range_meters":9600,"station_id":"","pricing_plan_id":"cebpf4jnsgd1na2vs0mg"},{"bike_id":"09988d55-639c-4009-a3f1-a043d1c5eea1","system_id":"levelo_inurba_marseille","lat":43.254322,"lon":5.376513,"is_reserved":false,"is_disabled":false,"rental_uris":{"android":"levelo://app?vid=09988d55-639c-4009-a3f1-a043d1c5eea1","ios":"levelo://app?vid=09988d55-639c-4009-a3f1-a043d1c5eea1"},"vehicle_type_id":"4","last_reported":1741115244,"current_range_meters":9600,"station_id":"ce4bhhh2rcd13ifvqfk0","pricing_plan_id":"cebpf4jnsgd1na2vs0mg"},{"bike_id":"39fbed77-4b9c-4f8d-bb61-98aaba0b0ee1","system_id":"levelo_inurba_marseille","lat":43.28084,"lon":5.39631,"is_reserved":false,"is_disabled":false,"rental_uris":{"android":"levelo://app?vid=39fbed77-4b9c-4f8d-bb61-98aaba0b0ee1","ios":"levelo://app?vid=39fbed77-4b9c-4f8d-bb61-98aaba0b0ee1"},"vehicle_type_id":"4","last_reported":1741115244,"current_range_meters":9600,"station_id":"ce4bho12rcd13ifvqh2g","pricing_plan_id":"cebpf4jnsgd1na2vs0mg"},{"bike_id":"ff3c078d-4bdf-4296-a834-9cea00265da5","system_id":"levelo_inurba_marseille","lat":43.29624,"lon":5.37711,"is_reserved":false,"is_disabled":false,"rental_uris":{"android":"levelo://app?vid=ff3c078d-4bdf-4296-a834-9cea00265da5","ios":"levelo://app?vid=ff3c078d-4bdf-4296-a834-9cea00265da5"},"vehicle_type_id":"4","last_reported":1741115244,"current_range_meters":9600,"station_id":"ce4bgi92rcd13ifvqb90","pricing_plan_id":"cebpf4jnsgd1na2vs0mg"},{"bike_id":"1ebc3531-977b-4008-9b89-c777084f1c70","system_id":"levelo_inurba_marseille","lat":43.27812,"lon":5.40709,"is_reserved":false,"is_disabled":false,"rental_uris":{"android":"levelo://app?vid=1ebc3531-977b-4008-9b89-c777084f1c70","ios":"levelo://app?vid=1ebc3531-977b-4008-9b89-c777084f1c70"},"vehicle_type_id":"4","last_reported":1741115244,"current_range_meters":9600,"station_id":"ce4bhnh2rcd13ifvqgtg","pricing_plan_id":"cebpf4jnsgd1na2vs0mg"},{"bike_id":"5d346255-6da2-4c21-b99f-14ddbb1337ea","system_id":"levelo_inurba_marseille","lat":43.23196,"lon":5.40008,"is_reserved":false,"is_disabled":false,"rental_uris":{"android":"levelo://app?vid=5d346255-6da2-4c21-b99f-14ddbb1337ea","ios":"levelo://app?vid=5d346255-6da2-4c21-b99f-14ddbb1337ea"},"vehicle_type_id":"4","last_reported":1741115244,"current_range_meters":9600,"station_id":"ce4bhn12rcd13ifvqgqg","pricing_plan_id":"cebpf4jnsgd1na2vs0mg"},{"bike_id":"dcc625f6-6876-4d32-a151-5d667dff55f7","system_id":"levelo_inurba_marseille","lat":43.23183,"lon":5.39986,"is_reserved":false,"is_disabled":false,"rental_uris":{"android":"levelo://app?vid=dcc625f6-6876-4d32-a151-5d667dff55f7","ios":"levelo://app?vid=dcc625f6-6876-4d32-a151-5d667dff55f7"},"vehicle_type_id":"4","last_reported":1741115244,"current_range_meters":9600,"station_id":"ce4bhn12rcd13ifvqgqg","pricing_plan_id":"cebpf4jnsgd1na2vs0mg"},{"bike_id":"06f476c1-96ae-4097-b4c2-d9c29de19034","system_id":"levelo_inurba_marseille","lat":43.24078,"lon":5.37753,"is_reserved":false,"is_disabled":false,"rental_uris":{"android":"levelo://app?vid=06f476c1-96ae-4097-b4c2-d9c29de19034","ios":"levelo://app?vid=06f476c1-96ae-4097-b4c2-d9c29de19034"},"vehicle_type_id":"4","last_reported":1741115244,"current_range_meters":9600,"station_id":"ce4bhnp2rcd13ifvqgvg","pricing_plan_id":"cebpf4jnsgd1na2vs0mg"},{"bike_id":"41077412-3a41-4a40-8906-1b3127b18d15","system_id":"levelo_inurba_marseille","lat":43.27919,"lon":5.38071,"is_reserved":false,"is_disabled":false,"rental_uris":{"android":"levelo://app?vid=41077412-3a41-4a40-8906-1b3127b18d15","ios":"levelo://app?vid=41077412-3a41-4a40-8906-1b3127b18d15"},"vehicle_type_id":"4","last_reported":1741115244,"current_range_meters":9600,"station_id":"ce4bhf92rcd13ifvqf50","pricing_plan_id":"cebpf4jnsgd1na2vs0mg"},{"bike_id":"12fe9a23-7508-4b21-a8f3-d431a514ac6c","system_id":"levelo_inurba_marseille","lat":43.25822,"lon":5.39443,"is_reserved":false,"is_disabled":false,"rental_uris":{"android":"levelo://app?vid=12fe9a23-7508-4b21-a8f3-d431a514ac6c","ios":"levelo://app?vid=12fe9a23-7508-4b21-a8f3-d431a514ac6c"},"vehicle_type_id":"4","last_reported":1741115244,"current_range_meters":9600,"station_id":"ce4bhip2rcd13ifvqft0","pricing_plan_id":"cebpf4jnsgd1na2vs0mg"},{"bike_id":"711426be-229f-4f9f-bead-6fe3d73d92f8","system_id":"levelo_inurba_marseille","lat":43.29802,"lon":5.38092,"is_reserved":false,"is_disabled":false,"rental_uris":{"android":"levelo://app?vid=711426be-229f-4f9f-bead-6fe3d73d92f8","ios":"levelo://app?vid=711426be-229f-4f9f-bead-6fe3d73d92f8"},"vehicle_type_id":"4","last_reported":1741115244,"current_range_meters":9600,"station_id":"ce4bgip2rcd13ifvqbb0","pricing_plan_id":"cebpf4jnsgd1na2vs0mg"},{"bike_id":"07234b2c-4155-4b27-acfc-08884426b345","system_id":"levelo_inurba_marseille","lat":43.28848,"lon":5.35869,"is_reserved":false,"is_disabled":false,"rental_uris":{"android":"levelo://app?vid=07234b2c-4155-4b27-acfc-08884426b345","ios":"levelo://app?vid=07234b2c-4155-4b27-acfc-08884426b345"},"vehicle_type_id":"4","last_reported":1741115244,"current_range_meters":9600,"station_id":"ce4bhb12rcd13ifvqem0","pricing_plan_id":"cebpf4jnsgd1na2vs0mg"},{"bike_id":"b8dacfd7-6aa1-4cb2-ac25-dfdf82e53218","system_id":"levelo_inurba_marseille","lat":43.32361,"lon":5.38896,"is_reserved":false,"is_disabled":false,"rental_uris":{"android":"levelo://app?vid=b8dacfd7-6aa1-4cb2-ac25-dfdf82e53218","ios":"levelo://app?vid=b8dacfd7-6aa1-4cb2-ac25-dfdf82e53218"},"vehicle_type_id":"4","last_reported":1741115244,"current_range_meters":9600,"station_id":"ce4bhqp2rcd13ifvqhog","pricing_plan_id":"cebpf4jnsgd1na2vs0mg"},{"bike_id":"84efe348-f067-440d-8518-2847b3f322a8","system_id":"levelo_inurba_marseille","lat":43.29524,"lon":5.3905,"is_reserved":false,"is_disabled":false,"rental_uris":{"android":"levelo://app?vid=84efe348-f067-440d-8518-2847b3f322a8","ios":"levelo://app?vid=84efe348-f067-440d-8518-2847b3f322a8"},"vehicle_type_id":"4","last_reported":1741115244,"current_range_meters":9600,"station_id":"ce4bh3p2rcd13ifvqdp0","pricing_plan_id":"cebpf4jnsgd1na2vs0mg"},{"bike_id":"22ff5ed0-3b00-49c8-aa12-a3c3a0bfbc05","system_id":"levelo_inurba_marseille","lat":43.29271,"lon":5.38441,"is_reserved":false,"is_disabled":false,"rental_uris":{"android":"levelo://app?vid=22ff5ed0-3b00-49c8-aa12-a3c3a0bfbc05","ios":"levelo://app?vid=22ff5ed0-3b00-49c8-aa12-a3c3a0bfbc05"},"vehicle_type_id":"4","last_reported":1741115244,"current_range_meters":10000,"station_id":"ce4bh692rcd13ifvqea0","pricing_plan_id":"cebpf4jnsgd1na2vs0mg"},{"bike_id":"e74ea7f2-4cd2-4fc1-9031-80e8da0b0754","system_id":"levelo_inurba_marseille","lat":43.2408,"lon":5.37756,"is_reserved":false,"is_disabled":false,"rental_uris":{"android":"levelo://app?vid=e74ea7f2-4cd2-4fc1-9031-80e8da0b0754","ios":"levelo://app?vid=e74ea7f2-4cd2-4fc1-9031-80e8da0b0754"},"vehicle_type_id":"4","last_reported":1741115244,"current_range_meters":10000,"station_id":"ce4bhnp2rcd13ifvqgvg","pricing_plan_id":"cebpf4jnsgd1na2vs0mg"},{"bike_id":"80e8e7ae-53b5-4b6e-bbb9-289a53dff2f7","system_id":"levelo_inurba_marseille","lat":43.27996,"lon":5.40006,"is_reserved":false,"is_disabled":false,"rental_uris":{"android":"levelo://app?vid=80e8e7ae-53b5-4b6e-bbb9-289a53dff2f7","ios":"levelo://app?vid=80e8e7ae-53b5-4b6e-bbb9-289a53dff2f7"},"vehicle_type_id":"4","last_reported":1741115244,"current_range_meters":10000,"station_id":"ce4bho92rcd13ifvqh4g","pricing_plan_id":"cebpf4jnsgd1na2vs0mg"},{"bike_id":"6805d7b7-3709-4159-a850-aceccba0c126","system_id":"levelo_inurba_marseille","lat":43.31757,"lon":5.3902,"is_reserved":false,"is_disabled":false,"rental_uris":{"android":"levelo://app?vid=6805d7b7-3709-4159-a850-aceccba0c126","ios":"levelo://app?vid=6805d7b7-3709-4159-a850-aceccba0c126"},"vehicle_type_id":"4","last_reported":1741115244,"current_range_meters":10000,"station_id":"ce4bhqp2rcd13ifvqhng","pricing_plan_id":"cebpf4jnsgd1na2vs0mg"},{"bike_id":"c72def86-b1d6-40b7-aba2-62fc1c6809bb","system_id":"levelo_inurba_marseille","lat":43.27999,"lon":5.40007,"is_reserved":false,"is_disabled":false,"rental_uris":{"android":"levelo://app?vid=c72def86-b1d6-40b7-aba2-62fc1c6809bb","ios":"levelo://app?vid=c72def86-b1d6-40b7-aba2-62fc1c6809bb"},"vehicle_type_id":"4","last_reported":1741115244,"current_range_meters":10000,"station_id":"ce4bho92rcd13ifvqh4g","pricing_plan_id":"cebpf4jnsgd1na2vs0mg"},{"bike_id":"b733ca8c-93af-4b91-899d-9cb251933370","system_id":"levelo_inurba_marseille","lat":43.27987,"lon":5.40012,"is_reserved":false,"is_disabled":false,"rental_uris":{"android":"levelo://app?vid=b733ca8c-93af-4b91-899d-9cb251933370","ios":"levelo://app?vid=b733ca8c-93af-4b91-899d-9cb251933370"},"vehicle_type_id":"4","last_reported":1741115244,"current_range_meters":10000,"station_id":"ce4bho92rcd13ifvqh4g","pricing_plan_id":"cebpf4jnsgd1na2vs0mg"},{"bike_id":"ede61442-3229-4ac2-8d72-b654099eef6a","system_id":"levelo_inurba_marseille","lat":43.33008,"lon":5.39033,"is_reserved":false,"is_disabled":false,"rental_uris":{"android":"levelo://app?vid=ede61442-3229-4ac2-8d72-b654099eef6a","ios":"levelo://app?vid=ede61442-3229-4ac2-8d72-b654099eef6a"},"vehicle_type_id":"4","last_reported":1741115244,"current_range_meters":10000,"station_id":"ce4bhr92rcd13ifvqhrg","pricing_plan_id":"cebpf4jnsgd1na2vs0mg"},{"bike_id":"bded2f25-6b37-42cf-95f3-22c006d37edc","system_id":"levelo_inurba_marseille","lat":43.27942,"lon":5.41047,"is_reserved":false,"is_disabled":false,"rental_uris":{"android":"levelo://app?vid=bded2f25-6b37-42cf-95f3-22c006d37edc","ios":"levelo://app?vid=bded2f25-6b37-42cf-95f3-22c006d37edc"},"vehicle_type_id":"4","last_reported":1741115244,"current_range_meters":10000,"station_id":"ce4bhnp2rcd13ifvqh0g","pricing_plan_id":"cebpf4jnsgd1na2vs0mg"},{"bike_id":"44a7153b-0fd7-4509-836b-676bbf84fb06","system_id":"levelo_inurba_marseille","lat":43.23205,"lon":5.35546,"is_reserved":false,"is_disabled":false,"rental_uris":{"android":"levelo://app?vid=44a7153b-0fd7-4509-836b-676bbf84fb06","ios":"levelo://app?vid=44a7153b-0fd7-4509-836b-676bbf84fb06"},"vehicle_type_id":"4","last_reported":1741115244,"current_range_meters":10000,"station_id":"ce4bhu92rcd13ifvqi70","pricing_plan_id":"cebpf4jnsgd1na2vs0mg"},{"bike_id":"b7a1a210-b831-4a43-a09b-b1ed21307c91","system_id":"levelo_inurba_marseille","lat":43.2827,"lon":5.35056,"is_reserved":false,"is_disabled":false,"rental_uris":{"android":"levelo://app?vid=b7a1a210-b831-4a43-a09b-b1ed21307c91","ios":"levelo://app?vid=b7a1a210-b831-4a43-a09b-b1ed21307c91"},"vehicle_type_id":"4","last_reported":1741115244,"current_range_meters":10800,"station_id":"ce4bhbp2rcd13ifvqerg","pricing_plan_id":"cebpf4jnsgd1na2vs0mg"},{"bike_id":"27c2d55e-b76d-4cd8-93c1-ca2e9a10f330","system_id":"levelo_inurba_marseille","lat":43.2942,"lon":5.38619,"is_reserved":false,"is_disabled":false,"rental_uris":{"android":"levelo://app?vid=27c2d55e-b76d-4cd8-93c1-ca2e9a10f330","ios":"levelo://app?vid=27c2d55e-b76d-4cd8-93c1-ca2e9a10f330"},"vehicle_type_id":"4","last_reported":1741115244,"current_range_meters":10800,"station_id":"ce4bh2h2rcd13ifvqdh0","pricing_plan_id":"cebpf4jnsgd1na2vs0mg"},{"bike_id":"b094bb88-94db-410b-8675-fb343505bddb","system_id":"levelo_inurba_marseille","lat":43.308044,"lon":5.381477,"is_reserved":false,"is_disabled":false,"rental_uris":{"android":"levelo://app?vid=b094bb88-94db-410b-8675-fb343505bddb","ios":"levelo://app?vid=b094bb88-94db-410b-8675-fb343505bddb"},"vehicle_type_id":"4","last_reported":1741115244,"current_range_meters":10800,"station_id":"ce4bgt12rcd13ifvqcd0","pricing_plan_id":"cebpf4jnsgd1na2vs0mg"},{"bike_id":"a528795f-fb41-47d1-8f12-31e4148d8c55","system_id":"levelo_inurba_marseille","lat":43.2782,"lon":5.40723,"is_reserved":false,"is_disabled":false,"rental_uris":{"android":"levelo://app?vid=a528795f-fb41-47d1-8f12-31e4148d8c55","ios":"levelo://app?vid=a528795f-fb41-47d1-8f12-31e4148d8c55"},"vehicle_type_id":"4","last_reported":1741115244,"current_range_meters":10800,"station_id":"ce4bhnh2rcd13ifvqgtg","pricing_plan_id":"cebpf4jnsgd1na2vs0mg"},{"bike_id":"4e6eac08-b624-4f71-84f3-0c6188cb583d","system_id":"levelo_inurba_marseille","lat":43.32987,"lon":5.39118,"is_reserved":false,"is_disabled":false,"rental_uris":{"android":"levelo://app?vid=4e6eac08-b624-4f71-84f3-0c6188cb583d","ios":"levelo://app?vid=4e6eac08-b624-4f71-84f3-0c6188cb583d"},"vehicle_type_id":"4","last_reported":1741115244,"current_range_meters":10800,"station_id":"ce4bhr92rcd13ifvqhrg","pricing_plan_id":"cebpf4jnsgd1na2vs0mg"},{"bike_id":"2938665f-beb8-4970-b8dd-8652ed3e1679","system_id":"levelo_inurba_marseille","lat":43.24071,"lon":5.37755,"is_reserved":false,"is_disabled":false,"rental_uris":{"android":"levelo://app?vid=2938665f-beb8-4970-b8dd-8652ed3e1679","ios":"levelo://app?vid=2938665f-beb8-4970-b8dd-8652ed3e1679"},"vehicle_type_id":"4","last_reported":1741115244,"current_range_meters":10800,"station_id":"ce4bhnp2rcd13ifvqgvg","pricing_plan_id":"cebpf4jnsgd1na2vs0mg"},{"bike_id":"a2e9312b-d692-42a0-9823-fe0aab56075b","system_id":"levelo_inurba_marseille","lat":43.23154,"lon":5.43716,"is_reserved":false,"is_disabled":true,"rental_uris":{"android":"levelo://app?vid=a2e9312b-d692-42a0-9823-fe0aab56075b","ios":"levelo://app?vid=a2e9312b-d692-42a0-9823-fe0aab56075b"},"vehicle_type_id":"4","last_reported":1741115244,"current_range_meters":10800,"station_id":"ce4bhmp2rcd13ifvqgog","pricing_plan_id":"cebpf4jnsgd1na2vs0mg"},{"bike_id":"9b5423f1-f1bc-4a87-84cc-869d3dfcb3e2","system_id":"levelo_inurba_marseille","lat":43.28859,"lon":5.35853,"is_reserved":false,"is_disabled":false,"rental_uris":{"android":"levelo://app?vid=9b5423f1-f1bc-4a87-84cc-869d3dfcb3e2","ios":"levelo://app?vid=9b5423f1-f1bc-4a87-84cc-869d3dfcb3e2"},"vehicle_type_id":"4","last_reported":1741115244,"current_range_meters":10800,"station_id":"ce4bhb12rcd13ifvqem0","pricing_plan_id":"cebpf4jnsgd1na2vs0mg"},{"bike_id":"db99b6b9-a30e-45ea-a005-66ffba70fee3","system_id":"levelo_inurba_marseille","lat":43.27995,"lon":5.4002,"is_reserved":false,"is_disabled":false,"rental_uris":{"android":"levelo://app?vid=db99b6b9-a30e-45ea-a005-66ffba70fee3","ios":"levelo://app?vid=db99b6b9-a30e-45ea-a005-66ffba70fee3"},"vehicle_type_id":"4","last_reported":1741115244,"current_range_meters":10800,"station_id":"ce4bho92rcd13ifvqh4g","pricing_plan_id":"cebpf4jnsgd1na2vs0mg"},{"bike_id":"c0b00efc-a044-44d4-9e07-c7974d8650d2","system_id":"levelo_inurba_marseille","lat":43.27813,"lon":5.4071,"is_reserved":false,"is_disabled":false,"rental_uris":{"android":"levelo://app?vid=c0b00efc-a044-44d4-9e07-c7974d8650d2","ios":"levelo://app?vid=c0b00efc-a044-44d4-9e07-c7974d8650d2"},"vehicle_type_id":"4","last_reported":1741115244,"current_range_meters":10800,"station_id":"ce4bhnh2rcd13ifvqgtg","pricing_plan_id":"cebpf4jnsgd1na2vs0mg"},{"bike_id":"d662d263-2acd-4a76-83b7-92b7eba181ca","system_id":"levelo_inurba_marseille","lat":43.2706,"lon":5.40285,"is_reserved":false,"is_disabled":false,"rental_uris":{"android":"levelo://app?vid=d662d263-2acd-4a76-83b7-92b7eba181ca","ios":"levelo://app?vid=d662d263-2acd-4a76-83b7-92b7eba181ca"},"vehicle_type_id":"4","last_reported":1741115244,"current_range_meters":10800,"station_id":"ce4bhk92rcd13ifvqgc0","pricing_plan_id":"cebpf4jnsgd1na2vs0mg"},{"bike_id":"a8475a01-da77-4c71-bc0c-19abd92ff8a9","system_id":"levelo_inurba_marseille","lat":43.29266,"lon":5.38443,"is_reserved":false,"is_disabled":false,"rental_uris":{"android":"levelo://app?vid=a8475a01-da77-4c71-bc0c-19abd92ff8a9","ios":"levelo://app?vid=a8475a01-da77-4c71-bc0c-19abd92ff8a9"},"vehicle_type_id":"4","last_reported":1741115244,"current_range_meters":10800,"station_id":"ce4bh692rcd13ifvqea0","pricing_plan_id":"cebpf4jnsgd1na2vs0mg"},{"bike_id":"bb9146ca-49a8-4926-8607-a36561008c7d","system_id":"levelo_inurba_marseille","lat":43.28449,"lon":5.39199,"is_reserved":false,"is_disabled":false,"rental_uris":{"android":"levelo://app?vid=bb9146ca-49a8-4926-8607-a36561008c7d","ios":"levelo://app?vid=bb9146ca-49a8-4926-8607-a36561008c7d"},"vehicle_type_id":"4","last_reported":1741115244,"current_range_meters":10800,"station_id":"ce4bhoh2rcd13ifvqh5g","pricing_plan_id":"cebpf4jnsgd1na2vs0mg"},{"bike_id":"913bb55b-2edb-4434-9d82-fe796f8d08f1","system_id":"levelo_inurba_marseille","lat":43.28642,"lon":5.35106,"is_reserved":false,"is_disabled":false,"rental_uris":{"android":"levelo://app?vid=913bb55b-2edb-4434-9d82-fe796f8d08f1","ios":"levelo://app?vid=913bb55b-2edb-4434-9d82-fe796f8d08f1"},"vehicle_type_id":"4","last_reported":1741115244,"current_range_meters":10800,"station_id":"ce4bhch2rcd13ifvqeug","pricing_plan_id":"cebpf4jnsgd1na2vs0mg"},{"bike_id":"89acb969-af98-4f82-b388-f6454c879f8f","system_id":"levelo_inurba_marseille","lat":43.2858,"lon":5.3949,"is_reserved":false,"is_disabled":false,"rental_uris":{"android":"levelo://app?vid=89acb969-af98-4f82-b388-f6454c879f8f","ios":"levelo://app?vid=89acb969-af98-4f82-b388-f6454c879f8f"},"vehicle_type_id":"4","last_reported":1741115244,"current_range_meters":10800,"station_id":"ce4bh292rcd13ifvqdg0","pricing_plan_id":"cebpf4jnsgd1na2vs0mg"},{"bike_id":"21b19842-9ad9-4db0-bc46-3d2827c0069e","system_id":"levelo_inurba_marseille","lat":43.23167,"lon":5.35582,"is_reserved":false,"is_disabled":false,"rental_uris":{"android":"levelo://app?vid=21b19842-9ad9-4db0-bc46-3d2827c0069e","ios":"levelo://app?vid=21b19842-9ad9-4db0-bc46-3d2827c0069e"},"vehicle_type_id":"4","last_reported":1741115244,"current_range_meters":10800,"station_id":"ce4bhu92rcd13ifvqi70","pricing_plan_id":"cebpf4jnsgd1na2vs0mg"},{"bike_id":"1876d67d-3df0-42ae-af0b-bd72297518e0","system_id":"levelo_inurba_marseille","lat":43.30891,"lon":5.3964,"is_reserved":false,"is_disabled":false,"rental_uris":{"android":"levelo://app?vid=1876d67d-3df0-42ae-af0b-bd72297518e0","ios":"levelo://app?vid=1876d67d-3df0-42ae-af0b-bd72297518e0"},"vehicle_type_id":"4","last_reported":1741115244,"current_range_meters":11200,"station_id":"ce4bh012rcd13ifvqcv0","pricing_plan_id":"cebpf4jnsgd1na2vs0mg"},{"bike_id":"96534ab7-4f6f-4c1c-9eeb-a2113adfd031","system_id":"levelo_inurba_marseille","lat":43.27184,"lon":5.41001,"is_reserved":false,"is_disabled":false,"rental_uris":{"android":"levelo://app?vid=96534ab7-4f6f-4c1c-9eeb-a2113adfd031","ios":"levelo://app?vid=96534ab7-4f6f-4c1c-9eeb-a2113adfd031"},"vehicle_type_id":"4","last_reported":1741115244,"current_range_meters":11200,"station_id":"ce4bhl12rcd13ifvqgf0","pricing_plan_id":"cebpf4jnsgd1na2vs0mg"},{"bike_id":"cb1cd250-1c05-47e3-a818-4f19fe6f06a2","system_id":"levelo_inurba_marseille","lat":43.27992,"lon":5.40014,"is_reserved":false,"is_disabled":false,"rental_uris":{"android":"levelo://app?vid=cb1cd250-1c05-47e3-a818-4f19fe6f06a2","ios":"levelo://app?vid=cb1cd250-1c05-47e3-a818-4f19fe6f06a2"},"vehicle_type_id":"4","last_reported":1741115244,"current_range_meters":11200,"station_id":"ce4bho92rcd13ifvqh4g","pricing_plan_id":"cebpf4jnsgd1na2vs0mg"},{"bike_id":"b0456b77-6605-42ad-9929-e53abf3f35cd","system_id":"levelo_inurba_marseille","lat":43.27073,"lon":5.4228,"is_reserved":false,"is_disabled":false,"rental_uris":{"android":"levelo://app?vid=b0456b77-6605-42ad-9929-e53abf3f35cd","ios":"levelo://app?vid=b0456b77-6605-42ad-9929-e53abf3f35cd"},"vehicle_type_id":"4","last_reported":1741115244,"current_range_meters":11200,"station_id":"ce4bhk92rcd13ifvqgb0","pricing_plan_id":"cebpf4jnsgd1na2vs0mg"},{"bike_id":"0596970d-6eb4-4331-8d1d-96c25a649f4a","system_id":"levelo_inurba_marseille","lat":43.286676,"lon":5.363416,"is_reserved":false,"is_disabled":false,"rental_uris":{"android":"levelo://app?vid=0596970d-6eb4-4331-8d1d-96c25a649f4a","ios":"levelo://app?vid=0596970d-6eb4-4331-8d1d-96c25a649f4a"},"vehicle_type_id":"4","last_reported":1741115244,"current_range_meters":11200,"station_id":"ce4bhah2rcd13ifvqej0","pricing_plan_id":"cebpf4jnsgd1na2vs0mg"},{"bike_id":"6150014d-df8d-4675-bbc9-0104d504d0b0","system_id":"levelo_inurba_marseille","lat":43.2782,"lon":5.40733,"is_reserved":false,"is_disabled":false,"rental_uris":{"android":"levelo://app?vid=6150014d-df8d-4675-bbc9-0104d504d0b0","ios":"levelo://app?vid=6150014d-df8d-4675-bbc9-0104d504d0b0"},"vehicle_type_id":"4","last_reported":1741115244,"current_range_meters":11200,"station_id":"ce4bhnh2rcd13ifvqgtg","pricing_plan_id":"cebpf4jnsgd1na2vs0mg"},{"bike_id":"3f3c1456-9049-45c0-983e-1e780cd7ac03","system_id":"levelo_inurba_marseille","lat":43.28074,"lon":5.39647,"is_reserved":false,"is_disabled":false,"rental_uris":{"android":"levelo://app?vid=3f3c1456-9049-45c0-983e-1e780cd7ac03","ios":"levelo://app?vid=3f3c1456-9049-45c0-983e-1e780cd7ac03"},"vehicle_type_id":"4","last_reported":1741115244,"current_range_meters":11200,"station_id":"ce4bho12rcd13ifvqh2g","pricing_plan_id":"cebpf4jnsgd1na2vs0mg"},{"bike_id":"51e12e70-1338-4207-b37f-4a603cd739f6","system_id":"levelo_inurba_marseille","lat":43.28853,"lon":5.35845,"is_reserved":false,"is_disabled":false,"rental_uris":{"android":"levelo://app?vid=51e12e70-1338-4207-b37f-4a603cd739f6","ios":"levelo://app?vid=51e12e70-1338-4207-b37f-4a603cd739f6"},"vehicle_type_id":"4","last_reported":1741115244,"current_range_meters":11200,"station_id":"ce4bhb12rcd13ifvqem0","pricing_plan_id":"cebpf4jnsgd1na2vs0mg"},{"bike_id":"17ade87c-4cd1-4070-b11f-148ada985cb7","system_id":"levelo_inurba_marseille","lat":43.27946,"lon":5.41045,"is_reserved":false,"is_disabled":false,"rental_uris":{"android":"levelo://app?vid=17ade87c-4cd1-4070-b11f-148ada985cb7","ios":"levelo://app?vid=17ade87c-4cd1-4070-b11f-148ada985cb7"},"vehicle_type_id":"4","last_reported":1741115244,"current_range_meters":11200,"station_id":"ce4bhnp2rcd13ifvqh0g","pricing_plan_id":"cebpf4jnsgd1na2vs0mg"},{"bike_id":"c39e2295-e7a5-4c5b-833a-007e71b3658e","system_id":"levelo_inurba_marseille","lat":43.30797,"lon":5.43533,"is_reserved":false,"is_disabled":false,"rental_uris":{"android":"levelo://app?vid=c39e2295-e7a5-4c5b-833a-007e71b3658e","ios":"levelo://app?vid=c39e2295-e7a5-4c5b-833a-007e71b3658e"},"vehicle_type_id":"4","last_reported":1741115244,"current_range_meters":11600,"station_id":"ce4bhph2rcd13ifvqheg","pricing_plan_id":"cebpf4jnsgd1na2vs0mg"},{"bike_id":"36898df2-660c-4353-a656-0c37e35eaef9","system_id":"levelo_inurba_marseille","lat":43.28465,"lon":5.39128,"is_reserved":false,"is_disabled":false,"rental_uris":{"android":"levelo://app?vid=36898df2-660c-4353-a656-0c37e35eaef9","ios":"levelo://app?vid=36898df2-660c-4353-a656-0c37e35eaef9"},"vehicle_type_id":"4","last_reported":1741115244,"current_range_meters":11600,"station_id":"","pricing_plan_id":"cebpf4jnsgd1na2vs0mg"},{"bike_id":"83557a68-5768-4245-a5a5-c64e0affdd76","system_id":"levelo_inurba_marseille","lat":43.2781,"lon":5.40735,"is_reserved":false,"is_disabled":false,"rental_uris":{"android":"levelo://app?vid=83557a68-5768-4245-a5a5-c64e0affdd76","ios":"levelo://app?vid=83557a68-5768-4245-a5a5-c64e0affdd76"},"vehicle_type_id":"4","last_reported":1741115244,"current_range_meters":11600,"station_id":"ce4bhnh2rcd13ifvqgtg","pricing_plan_id":"cebpf4jnsgd1na2vs0mg"},{"bike_id":"bc7e553e-59d5-4edb-93bf-5cccbbb5f683","system_id":"levelo_inurba_marseille","lat":43.25722,"lon":5.41112,"is_reserved":false,"is_disabled":false,"rental_uris":{"android":"levelo://app?vid=bc7e553e-59d5-4edb-93bf-5cccbbb5f683","ios":"levelo://app?vid=bc7e553e-59d5-4edb-93bf-5cccbbb5f683"},"vehicle_type_id":"4","last_reported":1741115244,"current_range_meters":11600,"station_id":"ce4bhkp2rcd13ifvqgd0","pricing_plan_id":"cebpf4jnsgd1na2vs0mg"},{"bike_id":"a5d06e0e-ab9d-434c-b91c-c7f60712573f","system_id":"levelo_inurba_marseille","lat":43.29021,"lon":5.35592,"is_reserved":false,"is_disabled":false,"rental_uris":{"android":"levelo://app?vid=a5d06e0e-ab9d-434c-b91c-c7f60712573f","ios":"levelo://app?vid=a5d06e0e-ab9d-434c-b91c-c7f60712573f"},"vehicle_type_id":"4","last_reported":1741115244,"current_range_meters":12000,"station_id":"ce4bhb92rcd13ifvqen0","pricing_plan_id":"cebpf4jnsgd1na2vs0mg"},{"bike_id":"f29a9b58-442a-4182-bb29-f983b6bee8e5","system_id":"levelo_inurba_marseille","lat":43.2931,"lon":5.37174,"is_reserved":false,"is_disabled":false,"rental_uris":{"android":"levelo://app?vid=f29a9b58-442a-4182-bb29-f983b6bee8e5","ios":"levelo://app?vid=f29a9b58-442a-4182-bb29-f983b6bee8e5"},"vehicle_type_id":"4","last_reported":1741115244,"current_range_meters":12000,"station_id":"ce4bgh92rcd13ifvqb40","pricing_plan_id":"cebpf4jnsgd1na2vs0mg"},{"bike_id":"beb76347-d16c-4477-a750-e572b2dc77db","system_id":"levelo_inurba_marseille","lat":43.28005,"lon":5.4166,"is_reserved":false,"is_disabled":false,"rental_uris":{"android":"levelo://app?vid=beb76347-d16c-4477-a750-e572b2dc77db","ios":"levelo://app?vid=beb76347-d16c-4477-a750-e572b2dc77db"},"vehicle_type_id":"4","last_reported":1741115244,"current_range_meters":12000,"station_id":"ce4bho12rcd13ifvqh1g","pricing_plan_id":"cebpf4jnsgd1na2vs0mg"},{"bike_id":"0122c1c3-b417-4093-9107-12ae15086493","system_id":"levelo_inurba_marseille","lat":43.31332,"lon":5.39705,"is_reserved":false,"is_disabled":false,"rental_uris":{"android":"levelo://app?vid=0122c1c3-b417-4093-9107-12ae15086493","ios":"levelo://app?vid=0122c1c3-b417-4093-9107-12ae15086493"},"vehicle_type_id":"4","last_reported":1741115244,"current_range_meters":12000,"station_id":"ce4bgvp2rcd13ifvqcu0","pricing_plan_id":"cebpf4jnsgd1na2vs0mg"},{"bike_id":"74e3e4a8-1582-4755-af22-e5cd71ed61b6","system_id":"levelo_inurba_marseille","lat":43.30433,"lon":5.38885,"is_reserved":false,"is_disabled":false,"rental_uris":{"android":"levelo://app?vid=74e3e4a8-1582-4755-af22-e5cd71ed61b6","ios":"levelo://app?vid=74e3e4a8-1582-4755-af22-e5cd71ed61b6"},"vehicle_type_id":"4","last_reported":1741115244,"current_range_meters":12000,"station_id":"ce4bgk12rcd13ifvqbi0","pricing_plan_id":"cebpf4jnsgd1na2vs0mg"},{"bike_id":"67d84fe4-2b69-48d3-87b8-1dad210ed8c1","system_id":"levelo_inurba_marseille","lat":43.28573,"lon":5.39503,"is_reserved":false,"is_disabled":false,"rental_uris":{"android":"levelo://app?vid=67d84fe4-2b69-48d3-87b8-1dad210ed8c1","ios":"levelo://app?vid=67d84fe4-2b69-48d3-87b8-1dad210ed8c1"},"vehicle_type_id":"4","last_reported":1741115244,"current_range_meters":12000,"station_id":"ce4bh292rcd13ifvqdg0","pricing_plan_id":"cebpf4jnsgd1na2vs0mg"},{"bike_id":"51f6f578-8898-487a-9da7-ff3d6d379d1b","system_id":"levelo_inurba_marseille","lat":43.32096,"lon":5.36815,"is_reserved":false,"is_disabled":false,"rental_uris":{"android":"levelo://app?vid=51f6f578-8898-487a-9da7-ff3d6d379d1b","ios":"levelo://app?vid=51f6f578-8898-487a-9da7-ff3d6d379d1b"},"vehicle_type_id":"4","last_reported":1741115244,"current_range_meters":12000,"station_id":"ce4bhrh2rcd13ifvqhug","pricing_plan_id":"cebpf4jnsgd1na2vs0mg"},{"bike_id":"4c0e314a-87e2-48f0-a7b0-ec6605046de8","system_id":"levelo_inurba_marseille","lat":43.32115,"lon":5.36779,"is_reserved":false,"is_disabled":false,"rental_uris":{"android":"levelo://app?vid=4c0e314a-87e2-48f0-a7b0-ec6605046de8","ios":"levelo://app?vid=4c0e314a-87e2-48f0-a7b0-ec6605046de8"},"vehicle_type_id":"4","last_reported":1741115244,"current_range_meters":12000,"station_id":"ce4bhrh2rcd13ifvqhug","pricing_plan_id":"cebpf4jnsgd1na2vs0mg"},{"bike_id":"ec1930f4-7944-4e1a-8967-bad6e440e5c9","system_id":"levelo_inurba_marseille","lat":43.24664,"lon":5.38204,"is_reserved":false,"is_disabled":false,"rental_uris":{"android":"levelo://app?vid=ec1930f4-7944-4e1a-8967-bad6e440e5c9","ios":"levelo://app?vid=ec1930f4-7944-4e1a-8967-bad6e440e5c9"},"vehicle_type_id":"4","last_reported":1741115244,"current_range_meters":12000,"station_id":"ce4bhih2rcd13ifvqfr0","pricing_plan_id":"cebpf4jnsgd1na2vs0mg"},{"bike_id":"615d60c7-0625-4e60-a8fc-09c2daf91484","system_id":"levelo_inurba_marseille","lat":43.2782,"lon":5.40704,"is_reserved":false,"is_disabled":false,"rental_uris":{"android":"levelo://app?vid=615d60c7-0625-4e60-a8fc-09c2daf91484","ios":"levelo://app?vid=615d60c7-0625-4e60-a8fc-09c2daf91484"},"vehicle_type_id":"4","last_reported":1741115244,"current_range_meters":12400,"station_id":"ce4bhnh2rcd13ifvqgtg","pricing_plan_id":"cebpf4jnsgd1na2vs0mg"},{"bike_id":"6ea8ab5c-65c2-4db6-8cb6-dfdbe5b30189","system_id":"levelo_inurba_marseille","lat":43.32363,"lon":5.38894,"is_reserved":false,"is_disabled":false,"rental_uris":{"android":"levelo://app?vid=6ea8ab5c-65c2-4db6-8cb6-dfdbe5b30189","ios":"levelo://app?vid=6ea8ab5c-65c2-4db6-8cb6-dfdbe5b30189"},"vehicle_type_id":"4","last_reported":1741115244,"current_range_meters":12400,"station_id":"ce4bhqp2rcd13ifvqhog","pricing_plan_id":"cebpf4jnsgd1na2vs0mg"},{"bike_id":"c1a900df-ce23-477d-a918-f621df7324ac","system_id":"levelo_inurba_marseille","lat":43.28704,"lon":5.37385,"is_reserved":false,"is_disabled":false,"rental_uris":{"android":"levelo://app?vid=c1a900df-ce23-477d-a918-f621df7324ac","ios":"levelo://app?vid=c1a900df-ce23-477d-a918-f621df7324ac"},"vehicle_type_id":"4","last_reported":1741115244,"current_range_meters":12400,"station_id":"ce4bh3p2rcd13ifvqdq0","pricing_plan_id":"cebpf4jnsgd1na2vs0mg"},{"bike_id":"3a5e6606-5c8e-4eb1-8e6f-48b1205b0f36","system_id":"levelo_inurba_marseille","lat":43.30139,"lon":5.39834,"is_reserved":false,"is_disabled":false,"rental_uris":{"android":"levelo://app?vid=3a5e6606-5c8e-4eb1-8e6f-48b1205b0f36","ios":"levelo://app?vid=3a5e6606-5c8e-4eb1-8e6f-48b1205b0f36"},"vehicle_type_id":"4","last_reported":1741115244,"current_range_meters":12800,"station_id":"ce4bh0h2rcd13ifvqd40","pricing_plan_id":"cebpf4jnsgd1na2vs0mg"},{"bike_id":"e94a5fce-6bea-4c6b-a4fa-535f0a096198","system_id":"levelo_inurba_marseille","lat":43.27811,"lon":5.40729,"is_reserved":false,"is_disabled":false,"rental_uris":{"android":"levelo://app?vid=e94a5fce-6bea-4c6b-a4fa-535f0a096198","ios":"levelo://app?vid=e94a5fce-6bea-4c6b-a4fa-535f0a096198"},"vehicle_type_id":"4","last_reported":1741115244,"current_range_meters":12800,"station_id":"ce4bhnh2rcd13ifvqgtg","pricing_plan_id":"cebpf4jnsgd1na2vs0mg"},{"bike_id":"8479d310-69c3-461f-820a-fc2b327af55a","system_id":"levelo_inurba_marseille","lat":43.258636,"lon":5.398982,"is_reserved":false,"is_disabled":false,"rental_uris":{"android":"levelo://app?vid=8479d310-69c3-461f-820a-fc2b327af55a","ios":"levelo://app?vid=8479d310-69c3-461f-820a-fc2b327af55a"},"vehicle_type_id":"4","last_reported":1741115244,"current_range_meters":12800,"station_id":"ce4bhl92rcd13ifvqghg","pricing_plan_id":"cebpf4jnsgd1na2vs0mg"},{"bike_id":"e1cdc4f0-509b-415c-9592-9c6eaf597898","system_id":"levelo_inurba_marseille","lat":43.27815,"lon":5.4073,"is_reserved":false,"is_disabled":false,"rental_uris":{"android":"levelo://app?vid=e1cdc4f0-509b-415c-9592-9c6eaf597898","ios":"levelo://app?vid=e1cdc4f0-509b-415c-9592-9c6eaf597898"},"vehicle_type_id":"4","last_reported":1741115244,"current_range_meters":12800,"station_id":"ce4bhnh2rcd13ifvqgtg","pricing_plan_id":"cebpf4jnsgd1na2vs0mg"},{"bike_id":"4167f6bd-40b7-45c1-950d-68f467926bd6","system_id":"levelo_inurba_marseille","lat":43.28977,"lon":5.37842,"is_reserved":false,"is_disabled":true,"rental_uris":{"android":"levelo://app?vid=4167f6bd-40b7-45c1-950d-68f467926bd6","ios":"levelo://app?vid=4167f6bd-40b7-45c1-950d-68f467926bd6"},"vehicle_type_id":"4","last_reported":1741115244,"current_range_meters":12800,"station_id":"ce4bh9p2rcd13ifvqed0","pricing_plan_id":"cebpf4jnsgd1na2vs0mg"},{"bike_id":"891d4632-f0a6-4752-943b-f639ac2b49bc","system_id":"levelo_inurba_marseille","lat":43.27995,"lon":5.40015,"is_reserved":false,"is_disabled":false,"rental_uris":{"android":"levelo://app?vid=891d4632-f0a6-4752-943b-f639ac2b49bc","ios":"levelo://app?vid=891d4632-f0a6-4752-943b-f639ac2b49bc"},"vehicle_type_id":"4","last_reported":1741115244,"current_range_meters":12800,"station_id":"ce4bho92rcd13ifvqh4g","pricing_plan_id":"cebpf4jnsgd1na2vs0mg"},{"bike_id":"6061c82f-63ed-42ba-870f-42df5f1a263a","system_id":"levelo_inurba_marseille","lat":43.28866,"lon":5.35849,"is_reserved":false,"is_disabled":false,"rental_uris":{"android":"levelo://app?vid=6061c82f-63ed-42ba-870f-42df5f1a263a","ios":"levelo://app?vid=6061c82f-63ed-42ba-870f-42df5f1a263a"},"vehicle_type_id":"4","last_reported":1741115244,"current_range_meters":12800,"station_id":"ce4bhb12rcd13ifvqem0","pricing_plan_id":"cebpf4jnsgd1na2vs0mg"},{"bike_id":"a47a13a9-c176-4f2b-bca1-9dd7e5a64881","system_id":"levelo_inurba_marseille","lat":43.30921,"lon":5.40163,"is_reserved":false,"is_disabled":true,"rental_uris":{"android":"levelo://app?vid=a47a13a9-c176-4f2b-bca1-9dd7e5a64881","ios":"levelo://app?vid=a47a13a9-c176-4f2b-bca1-9dd7e5a64881"},"vehicle_type_id":"4","last_reported":1741115244,"current_range_meters":12800,"station_id":"ce4bgvp2rcd13ifvqct0","pricing_plan_id":"cebpf4jnsgd1na2vs0mg"},{"bike_id":"c764ba3f-4ce6-4fb7-bf7e-ce0cc484edac","system_id":"levelo_inurba_marseille","lat":43.27949,"lon":5.41028,"is_reserved":false,"is_disabled":false,"rental_uris":{"android":"levelo://app?vid=c764ba3f-4ce6-4fb7-bf7e-ce0cc484edac","ios":"levelo://app?vid=c764ba3f-4ce6-4fb7-bf7e-ce0cc484edac"},"vehicle_type_id":"4","last_reported":1741115244,"current_range_meters":12800,"station_id":"ce4bhnp2rcd13ifvqh0g","pricing_plan_id":"cebpf4jnsgd1na2vs0mg"},{"bike_id":"f8b34b05-3ce8-4023-b46a-493d367bd4f6","system_id":"levelo_inurba_marseille","lat":43.271895,"lon":5.409895,"is_reserved":false,"is_disabled":false,"rental_uris":{"android":"levelo://app?vid=f8b34b05-3ce8-4023-b46a-493d367bd4f6","ios":"levelo://app?vid=f8b34b05-3ce8-4023-b46a-493d367bd4f6"},"vehicle_type_id":"4","last_reported":1741115244,"current_range_meters":12800,"station_id":"ce4bhl12rcd13ifvqgf0","pricing_plan_id":"cebpf4jnsgd1na2vs0mg"},{"bike_id":"53370df7-9791-4141-8ab6-479eee9f8d86","system_id":"levelo_inurba_marseille","lat":43.29899,"lon":5.43637,"is_reserved":false,"is_disabled":false,"rental_uris":{"android":"levelo://app?vid=53370df7-9791-4141-8ab6-479eee9f8d86","ios":"levelo://app?vid=53370df7-9791-4141-8ab6-479eee9f8d86"},"vehicle_type_id":"4","last_reported":1741115244,"current_range_meters":12800,"station_id":"ce4bhpp2rcd13ifvqhfg","pricing_plan_id":"cebpf4jnsgd1na2vs0mg"},{"bike_id":"1d45648b-4bb4-4057-aeb7-f63b1abbf2c1","system_id":"levelo_inurba_marseille","lat":43.30935,"lon":5.40147,"is_reserved":false,"is_disabled":false,"rental_uris":{"android":"levelo://app?vid=1d45648b-4bb4-4057-aeb7-f63b1abbf2c1","ios":"levelo://app?vid=1d45648b-4bb4-4057-aeb7-f63b1abbf2c1"},"vehicle_type_id":"4","last_reported":1741115244,"current_range_meters":12400,"station_id":"ce4bgvp2rcd13ifvqct0","pricing_plan_id":"cebpf4jnsgd1na2vs0mg"},{"bike_id":"0eb9fef3-83c8-47c8-ad9e-cfe2998c47d1","system_id":"levelo_inurba_marseille","lat":43.31063,"lon":5.37589,"is_reserved":false,"is_disabled":false,"rental_uris":{"android":"levelo://app?vid=0eb9fef3-83c8-47c8-ad9e-cfe2998c47d1","ios":"levelo://app?vid=0eb9fef3-83c8-47c8-ad9e-cfe2998c47d1"},"vehicle_type_id":"4","last_reported":1741115244,"current_range_meters":13600,"station_id":"","pricing_plan_id":"cebpf4jnsgd1na2vs0mg"},{"bike_id":"3ed97a74-a4c3-497b-a61c-1d5ce2c8a803","system_id":"levelo_inurba_marseille","lat":43.27812,"lon":5.40716,"is_reserved":false,"is_disabled":false,"rental_uris":{"android":"levelo://app?vid=3ed97a74-a4c3-497b-a61c-1d5ce2c8a803","ios":"levelo://app?vid=3ed97a74-a4c3-497b-a61c-1d5ce2c8a803"},"vehicle_type_id":"4","last_reported":1741115244,"current_range_meters":13600,"station_id":"ce4bhnh2rcd13ifvqgtg","pricing_plan_id":"cebpf4jnsgd1na2vs0mg"},{"bike_id":"62abbf65-fdb4-4039-8d17-a6787ca98437","system_id":"levelo_inurba_marseille","lat":43.26501,"lon":5.39568,"is_reserved":false,"is_disabled":true,"rental_uris":{"android":"levelo://app?vid=62abbf65-fdb4-4039-8d17-a6787ca98437","ios":"levelo://app?vid=62abbf65-fdb4-4039-8d17-a6787ca98437"},"vehicle_type_id":"4","last_reported":1741115244,"current_range_meters":13600,"station_id":"ce4bhi12rcd13ifvqfq0","pricing_plan_id":"cebpf4jnsgd1na2vs0mg"},{"bike_id":"41749be2-c8bb-44ed-9cc3-346f1a1dbb47","system_id":"levelo_inurba_marseille","lat":43.26071,"lon":5.39372,"is_reserved":false,"is_disabled":false,"rental_uris":{"android":"levelo://app?vid=41749be2-c8bb-44ed-9cc3-346f1a1dbb47","ios":"levelo://app?vid=41749be2-c8bb-44ed-9cc3-346f1a1dbb47"},"vehicle_type_id":"4","last_reported":1741115244,"current_range_meters":13600,"station_id":"ce4bhh92rcd13ifvqfj0","pricing_plan_id":"cebpf4jnsgd1na2vs0mg"},{"bike_id":"e948d0d2-9d60-4e0f-8f45-dc40fd7ec45c","system_id":"levelo_inurba_marseille","lat":43.27999,"lon":5.40008,"is_reserved":false,"is_disabled":false,"rental_uris":{"android":"levelo://app?vid=e948d0d2-9d60-4e0f-8f45-dc40fd7ec45c","ios":"levelo://app?vid=e948d0d2-9d60-4e0f-8f45-dc40fd7ec45c"},"vehicle_type_id":"4","last_reported":1741115244,"current_range_meters":13600,"station_id":"ce4bho92rcd13ifvqh4g","pricing_plan_id":"cebpf4jnsgd1na2vs0mg"},{"bike_id":"40f6abab-1530-4133-b1bf-6d1769347a06","system_id":"levelo_inurba_marseille","lat":43.24799,"lon":5.3745,"is_reserved":false,"is_disabled":false,"rental_uris":{"android":"levelo://app?vid=40f6abab-1530-4133-b1bf-6d1769347a06","ios":"levelo://app?vid=40f6abab-1530-4133-b1bf-6d1769347a06"},"vehicle_type_id":"4","last_reported":1741115244,"current_range_meters":13600,"station_id":"ce4bhgh2rcd13ifvqfb0","pricing_plan_id":"cebpf4jnsgd1na2vs0mg"},{"bike_id":"13b6bb6f-8841-45a6-a216-4ce27f54a383","system_id":"levelo_inurba_marseille","lat":43.28948,"lon":5.36396,"is_reserved":false,"is_disabled":false,"rental_uris":{"android":"levelo://app?vid=13b6bb6f-8841-45a6-a216-4ce27f54a383","ios":"levelo://app?vid=13b6bb6f-8841-45a6-a216-4ce27f54a383"},"vehicle_type_id":"4","last_reported":1741115244,"current_range_meters":14000,"station_id":"ce4bhc92rcd13ifvqetg","pricing_plan_id":"cebpf4jnsgd1na2vs0mg"},{"bike_id":"7cd5e07c-ad2a-4af8-99d9-77c41335ce79","system_id":"levelo_inurba_marseille","lat":43.24176,"lon":5.36393,"is_reserved":false,"is_disabled":false,"rental_uris":{"android":"levelo://app?vid=7cd5e07c-ad2a-4af8-99d9-77c41335ce79","ios":"levelo://app?vid=7cd5e07c-ad2a-4af8-99d9-77c41335ce79"},"vehicle_type_id":"4","last_reported":1741115244,"current_range_meters":14000,"station_id":"cpo36qri1sfpv3e86is0","pricing_plan_id":"cebpf4jnsgd1na2vs0mg"},{"bike_id":"4a79d1d9-88e7-4946-878a-55b8e1a7f191","system_id":"levelo_inurba_marseille","lat":43.296,"lon":5.36736,"is_reserved":false,"is_disabled":false,"rental_uris":{"android":"levelo://app?vid=4a79d1d9-88e7-4946-878a-55b8e1a7f191","ios":"levelo://app?vid=4a79d1d9-88e7-4946-878a-55b8e1a7f191"},"vehicle_type_id":"4","last_reported":1741115244,"current_range_meters":14000,"station_id":"ce4bgph2rcd13ifvqc2g","pricing_plan_id":"cebpf4jnsgd1na2vs0mg"},{"bike_id":"d571166c-77a4-4a91-b051-9cc34ad31336","system_id":"levelo_inurba_marseille","lat":43.30188,"lon":5.39337,"is_reserved":false,"is_disabled":false,"rental_uris":{"android":"levelo://app?vid=d571166c-77a4-4a91-b051-9cc34ad31336","ios":"levelo://app?vid=d571166c-77a4-4a91-b051-9cc34ad31336"},"vehicle_type_id":"4","last_reported":1741115244,"current_range_meters":14000,"station_id":"","pricing_plan_id":"cebpf4jnsgd1na2vs0mg"},{"bike_id":"9636ad97-a520-4ec9-a995-b3e6df223e35","system_id":"levelo_inurba_marseille","lat":43.25586,"lon":5.38237,"is_reserved":false,"is_disabled":false,"rental_uris":{"android":"levelo://app?vid=9636ad97-a520-4ec9-a995-b3e6df223e35","ios":"levelo://app?vid=9636ad97-a520-4ec9-a995-b3e6df223e35"},"vehicle_type_id":"4","last_reported":1741115244,"current_range_meters":14000,"station_id":"ce4bhih2rcd13ifvqfs0","pricing_plan_id":"cebpf4jnsgd1na2vs0mg"},{"bike_id":"8441514c-4110-42af-a6dc-85606173b4cc","system_id":"levelo_inurba_marseille","lat":43.2466,"lon":5.38179,"is_reserved":false,"is_disabled":false,"rental_uris":{"android":"levelo://app?vid=8441514c-4110-42af-a6dc-85606173b4cc","ios":"levelo://app?vid=8441514c-4110-42af-a6dc-85606173b4cc"},"vehicle_type_id":"4","last_reported":1741115244,"current_range_meters":14000,"station_id":"ce4bhih2rcd13ifvqfr0","pricing_plan_id":"cebpf4jnsgd1na2vs0mg"},{"bike_id":"5bec1b6f-2cbf-47ff-a1c7-9594824bfe74","system_id":"levelo_inurba_marseille","lat":43.28857,"lon":5.35846,"is_reserved":false,"is_disabled":false,"rental_uris":{"android":"levelo://app?vid=5bec1b6f-2cbf-47ff-a1c7-9594824bfe74","ios":"levelo://app?vid=5bec1b6f-2cbf-47ff-a1c7-9594824bfe74"},"vehicle_type_id":"4","last_reported":1741115244,"current_range_meters":14000,"station_id":"ce4bhb12rcd13ifvqem0","pricing_plan_id":"cebpf4jnsgd1na2vs0mg"},{"bike_id":"f7f634fd-320c-4192-95a0-aaabf20f4633","system_id":"levelo_inurba_marseille","lat":43.24806,"lon":5.37463,"is_reserved":false,"is_disabled":false,"rental_uris":{"android":"levelo://app?vid=f7f634fd-320c-4192-95a0-aaabf20f4633","ios":"levelo://app?vid=f7f634fd-320c-4192-95a0-aaabf20f4633"},"vehicle_type_id":"4","last_reported":1741115244,"current_range_meters":14400,"station_id":"ce4bhgh2rcd13ifvqfb0","pricing_plan_id":"cebpf4jnsgd1na2vs0mg"},{"bike_id":"345a3a6d-35db-4006-b498-91e60a50acd6","system_id":"levelo_inurba_marseille","lat":43.27999,"lon":5.40022,"is_reserved":false,"is_disabled":false,"rental_uris":{"android":"levelo://app?vid=345a3a6d-35db-4006-b498-91e60a50acd6","ios":"levelo://app?vid=345a3a6d-35db-4006-b498-91e60a50acd6"},"vehicle_type_id":"4","last_reported":1741115244,"current_range_meters":14400,"station_id":"ce4bho92rcd13ifvqh4g","pricing_plan_id":"cebpf4jnsgd1na2vs0mg"},{"bike_id":"9ad6b68a-57ae-491f-af9f-db3763936f57","system_id":"levelo_inurba_marseille","lat":43.31173,"lon":5.38721,"is_reserved":false,"is_disabled":false,"rental_uris":{"android":"levelo://app?vid=9ad6b68a-57ae-491f-af9f-db3763936f57","ios":"levelo://app?vid=9ad6b68a-57ae-491f-af9f-db3763936f57"},"vehicle_type_id":"4","last_reported":1741115244,"current_range_meters":14400,"station_id":"ce4bgv12rcd13ifvqcp0","pricing_plan_id":"cebpf4jnsgd1na2vs0mg"},{"bike_id":"8d50e16e-9ea4-4588-830c-0db9dddd40d9","system_id":"levelo_inurba_marseille","lat":43.31335,"lon":5.39688,"is_reserved":false,"is_disabled":false,"rental_uris":{"android":"levelo://app?vid=8d50e16e-9ea4-4588-830c-0db9dddd40d9","ios":"levelo://app?vid=8d50e16e-9ea4-4588-830c-0db9dddd40d9"},"vehicle_type_id":"4","last_reported":1741115244,"current_range_meters":14400,"station_id":"ce4bgvp2rcd13ifvqcu0","pricing_plan_id":"cebpf4jnsgd1na2vs0mg"},{"bike_id":"dc8c3954-b74a-476f-801d-b4bd6754466c","system_id":"levelo_inurba_marseille","lat":43.30134,"lon":5.39875,"is_reserved":false,"is_disabled":false,"rental_uris":{"android":"levelo://app?vid=dc8c3954-b74a-476f-801d-b4bd6754466c","ios":"levelo://app?vid=dc8c3954-b74a-476f-801d-b4bd6754466c"},"vehicle_type_id":"4","last_reported":1741115244,"current_range_meters":14800,"station_id":"ce4bh0h2rcd13ifvqd40","pricing_plan_id":"cebpf4jnsgd1na2vs0mg"},{"bike_id":"03d5bd23-db2c-4a3d-9573-a1403447f741","system_id":"levelo_inurba_marseille","lat":43.27809,"lon":5.40711,"is_reserved":false,"is_disabled":false,"rental_uris":{"android":"levelo://app?vid=03d5bd23-db2c-4a3d-9573-a1403447f741","ios":"levelo://app?vid=03d5bd23-db2c-4a3d-9573-a1403447f741"},"vehicle_type_id":"4","last_reported":1741115244,"current_range_meters":14400,"station_id":"ce4bhnh2rcd13ifvqgtg","pricing_plan_id":"cebpf4jnsgd1na2vs0mg"},{"bike_id":"2436c50d-3a11-4184-b29d-7b84fb05eba7","system_id":"levelo_inurba_marseille","lat":43.30327,"lon":5.40438,"is_reserved":false,"is_disabled":false,"rental_uris":{"android":"levelo://app?vid=2436c50d-3a11-4184-b29d-7b84fb05eba7","ios":"levelo://app?vid=2436c50d-3a11-4184-b29d-7b84fb05eba7"},"vehicle_type_id":"4","last_reported":1741115244,"current_range_meters":14400,"station_id":"ce4bh012rcd13ifvqd10","pricing_plan_id":"cebpf4jnsgd1na2vs0mg"},{"bike_id":"15d8cf60-e2c6-4878-b1df-683348cc043e","system_id":"levelo_inurba_marseille","lat":43.2481,"lon":5.37455,"is_reserved":false,"is_disabled":false,"rental_uris":{"android":"levelo://app?vid=15d8cf60-e2c6-4878-b1df-683348cc043e","ios":"levelo://app?vid=15d8cf60-e2c6-4878-b1df-683348cc043e"},"vehicle_type_id":"4","last_reported":1741115244,"current_range_meters":14400,"station_id":"ce4bhgh2rcd13ifvqfb0","pricing_plan_id":"cebpf4jnsgd1na2vs0mg"},{"bike_id":"63a6c4d2-f37b-43af-bad8-f3977ff81c8c","system_id":"levelo_inurba_marseille","lat":43.29577,"lon":5.37523,"is_reserved":false,"is_disabled":false,"rental_uris":{"android":"levelo://app?vid=63a6c4d2-f37b-43af-bad8-f3977ff81c8c","ios":"levelo://app?vid=63a6c4d2-f37b-43af-bad8-f3977ff81c8c"},"vehicle_type_id":"4","last_reported":1741115244,"current_range_meters":14400,"station_id":"ce4bgh92rcd13ifvqb50","pricing_plan_id":"cebpf4jnsgd1na2vs0mg"},{"bike_id":"59265087-e393-4063-9d20-fa507a2a898c","system_id":"levelo_inurba_marseille","lat":43.2783,"lon":5.40731,"is_reserved":false,"is_disabled":false,"rental_uris":{"android":"levelo://app?vid=59265087-e393-4063-9d20-fa507a2a898c","ios":"levelo://app?vid=59265087-e393-4063-9d20-fa507a2a898c"},"vehicle_type_id":"4","last_reported":1741115244,"current_range_meters":14800,"station_id":"ce4bhnh2rcd13ifvqgtg","pricing_plan_id":"cebpf4jnsgd1na2vs0mg"},{"bike_id":"28096b7f-96ae-4ea2-8ceb-2396385a6306","system_id":"levelo_inurba_marseille","lat":43.24628,"lon":5.38928,"is_reserved":false,"is_disabled":true,"rental_uris":{"android":"levelo://app?vid=28096b7f-96ae-4ea2-8ceb-2396385a6306","ios":"levelo://app?vid=28096b7f-96ae-4ea2-8ceb-2396385a6306"},"vehicle_type_id":"4","last_reported":1741115244,"current_range_meters":14800,"station_id":"ce4bhg12rcd13ifvqf60","pricing_plan_id":"cebpf4jnsgd1na2vs0mg"},{"bike_id":"99ab3e20-0565-400b-b30f-c3740fa5f015","system_id":"levelo_inurba_marseille","lat":43.245483,"lon":5.395258,"is_reserved":false,"is_disabled":false,"rental_uris":{"android":"levelo://app?vid=99ab3e20-0565-400b-b30f-c3740fa5f015","ios":"levelo://app?vid=99ab3e20-0565-400b-b30f-c3740fa5f015"},"vehicle_type_id":"4","last_reported":1741115244,"current_range_meters":14800,"station_id":"ce4bhlp2rcd13ifvqgjg","pricing_plan_id":"cebpf4jnsgd1na2vs0mg"},{"bike_id":"0d371c53-38eb-4966-a75f-fd259dfc2f1b","system_id":"levelo_inurba_marseille","lat":43.27814,"lon":5.40712,"is_reserved":false,"is_disabled":false,"rental_uris":{"android":"levelo://app?vid=0d371c53-38eb-4966-a75f-fd259dfc2f1b","ios":"levelo://app?vid=0d371c53-38eb-4966-a75f-fd259dfc2f1b"},"vehicle_type_id":"4","last_reported":1741115244,"current_range_meters":14800,"station_id":"ce4bhnh2rcd13ifvqgtg","pricing_plan_id":"cebpf4jnsgd1na2vs0mg"},{"bike_id":"6eb089d1-fd07-42d7-88ed-acd258e7d148","system_id":"levelo_inurba_marseille","lat":43.31078,"lon":5.38351,"is_reserved":false,"is_disabled":false,"rental_uris":{"android":"levelo://app?vid=6eb089d1-fd07-42d7-88ed-acd258e7d148","ios":"levelo://app?vid=6eb089d1-fd07-42d7-88ed-acd258e7d148"},"vehicle_type_id":"4","last_reported":1741115244,"current_range_meters":14800,"station_id":"ce4bgv92rcd13ifvqcr0","pricing_plan_id":"cebpf4jnsgd1na2vs0mg"},{"bike_id":"5c0d7678-af0d-4c07-ba6d-73e21c2b49b7","system_id":"levelo_inurba_marseille","lat":43.28569,"lon":5.39496,"is_reserved":false,"is_disabled":false,"rental_uris":{"android":"levelo://app?vid=5c0d7678-af0d-4c07-ba6d-73e21c2b49b7","ios":"levelo://app?vid=5c0d7678-af0d-4c07-ba6d-73e21c2b49b7"},"vehicle_type_id":"4","last_reported":1741115244,"current_range_meters":14800,"station_id":"ce4bh292rcd13ifvqdg0","pricing_plan_id":"cebpf4jnsgd1na2vs0mg"},{"bike_id":"b06e6ff2-83d1-4cc8-ab3f-ae199b7d296e","system_id":"levelo_inurba_marseille","lat":43.28565,"lon":5.38417,"is_reserved":false,"is_disabled":false,"rental_uris":{"android":"levelo://app?vid=b06e6ff2-83d1-4cc8-ab3f-ae199b7d296e","ios":"levelo://app?vid=b06e6ff2-83d1-4cc8-ab3f-ae199b7d296e"},"vehicle_type_id":"4","last_reported":1741115244,"current_range_meters":14800,"station_id":"","pricing_plan_id":"cebpf4jnsgd1na2vs0mg"},{"bike_id":"f836520f-2ee1-49b7-9615-07d54ad5bf00","system_id":"levelo_inurba_marseille","lat":43.24808,"lon":5.37461,"is_reserved":false,"is_disabled":false,"rental_uris":{"android":"levelo://app?vid=f836520f-2ee1-49b7-9615-07d54ad5bf00","ios":"levelo://app?vid=f836520f-2ee1-49b7-9615-07d54ad5bf00"},"vehicle_type_id":"4","last_reported":1741115244,"current_range_meters":15200,"station_id":"ce4bhgh2rcd13ifvqfb0","pricing_plan_id":"cebpf4jnsgd1na2vs0mg"},{"bike_id":"3b67f23c-4b81-4977-9ea9-c5e7d0d6c39d","system_id":"levelo_inurba_marseille","lat":43.29308,"lon":5.37177,"is_reserved":false,"is_disabled":false,"rental_uris":{"android":"levelo://app?vid=3b67f23c-4b81-4977-9ea9-c5e7d0d6c39d","ios":"levelo://app?vid=3b67f23c-4b81-4977-9ea9-c5e7d0d6c39d"},"vehicle_type_id":"4","last_reported":1741115244,"current_range_meters":15200,"station_id":"ce4bgh92rcd13ifvqb40","pricing_plan_id":"cebpf4jnsgd1na2vs0mg"},{"bike_id":"06cedf6b-e932-4d69-8479-44f662b4463c","system_id":"levelo_inurba_marseille","lat":43.3248,"lon":5.36569,"is_reserved":false,"is_disabled":false,"rental_uris":{"android":"levelo://app?vid=06cedf6b-e932-4d69-8479-44f662b4463c","ios":"levelo://app?vid=06cedf6b-e932-4d69-8479-44f662b4463c"},"vehicle_type_id":"4","last_reported":1741115244,"current_range_meters":15200,"station_id":"ce4bhs12rcd13ifvqhvg","pricing_plan_id":"cebpf4jnsgd1na2vs0mg"},{"bike_id":"af78da3b-c4d9-4c98-8da7-a243aedee3fb","system_id":"levelo_inurba_marseille","lat":43.30558,"lon":5.37554,"is_reserved":false,"is_disabled":false,"rental_uris":{"android":"levelo://app?vid=af78da3b-c4d9-4c98-8da7-a243aedee3fb","ios":"levelo://app?vid=af78da3b-c4d9-4c98-8da7-a243aedee3fb"},"vehicle_type_id":"4","last_reported":1741115244,"current_range_meters":15200,"station_id":"","pricing_plan_id":"cebpf4jnsgd1na2vs0mg"},{"bike_id":"de41ec54-219c-4906-89e1-974e0f69e47e","system_id":"levelo_inurba_marseille","lat":43.29092,"lon":5.38117,"is_reserved":false,"is_disabled":false,"rental_uris":{"android":"levelo://app?vid=de41ec54-219c-4906-89e1-974e0f69e47e","ios":"levelo://app?vid=de41ec54-219c-4906-89e1-974e0f69e47e"},"vehicle_type_id":"4","last_reported":1741115244,"current_range_meters":15200,"station_id":"ce4bh512rcd13ifvqe2g","pricing_plan_id":"cebpf4jnsgd1na2vs0mg"},{"bike_id":"da366550-d274-4b33-918d-4ea10ba5eb0d","system_id":"levelo_inurba_marseille","lat":43.27211,"lon":5.39177,"is_reserved":false,"is_disabled":false,"rental_uris":{"android":"levelo://app?vid=da366550-d274-4b33-918d-4ea10ba5eb0d","ios":"levelo://app?vid=da366550-d274-4b33-918d-4ea10ba5eb0d"},"vehicle_type_id":"4","last_reported":1741115244,"current_range_meters":15200,"station_id":"ce4bhhp2rcd13ifvqfm0","pricing_plan_id":"cebpf4jnsgd1na2vs0mg"},{"bike_id":"c55557ad-1ed5-4997-aee7-ac92107f14b6","system_id":"levelo_inurba_marseille","lat":43.26469,"lon":5.37495,"is_reserved":false,"is_disabled":false,"rental_uris":{"android":"levelo://app?vid=c55557ad-1ed5-4997-aee7-ac92107f14b6","ios":"levelo://app?vid=c55557ad-1ed5-4997-aee7-ac92107f14b6"},