{"last_updated":1740424009,"ttl":60,"version":"2.2","data":{"bikes":[{"bike_id":"f6681d83-f62a-4626-9aba-5ca193730520","system_id":"levelo_inurba_marseille","lat":43.30246,"lon":5.40055,"is_reserved":false,"is_disabled":false,"rental_uris":{"android":"levelo://app?vid=f6681d83-f62a-4626-9aba-5ca193730520","ios":"levelo://app?vid=f6681d83-f62a-4626-9aba-5ca193730520"},"vehicle_type_id":"4","last_reported":1740424010,"current_range_meters":2000,"station_id":"ce4bgvh2rcd13ifvqcs0","pricing_plan_id":"cebpf4jnsgd1na2vs0mg"},{"bike_id":"df8f19b7-210d-48d9-ba3f-2e91efafc88a","system_id":"levelo_inurba_marseille","lat":43.32481,"lon":5.3656,"is_reserved":false,"is_disabled":false,"rental_uris":{"android":"levelo://app?vid=df8f19b7-210d-48d9-ba3f-2e91efafc88a","ios":"levelo://app?vid=df8f19b7-210d-48d9-ba3f-2e91efafc88a"},"vehicle_type_id":"4","last_reported":1740424010,"current_range_meters":2800,"station_id":"ce4bhs12rcd13ifvqhvg","pricing_plan_id":"cebpf4jnsgd1na2vs0mg"},{"bike_id":"5b80b31e-0c9c-426c-91b6-610bb1dd7731","system_id":"levelo_inurba_marseille","lat":43.28354,"lon":5.3826,"is_reserved":false,"is_disabled":false,"rental_uris":{"android":"levelo://app?vid=5b80b31e-0c9c-426c-91b6-610bb1dd7731","ios":"levelo://app?vid=5b80b31e-0c9c-426c-91b6-610bb1dd7731"},"vehicle_type_id":"4","last_reported":1740424010,"current_range_meters":2800,"station_id":"","pricing_plan_id":"cebpf4jnsgd1na2vs0mg"},{"bike_id":"cab049f2-c424-44ce-821f-abfc004b6133","system_id":"levelo_inurba_marseille","lat":43.30425,"lon":5.38882,"is_reserved":false,"is_disabled":false,"rental_uris":{"android":"levelo://app?vid=cab049f2-c424-44ce-821f-abfc004b6133","ios":"levelo://app?vid=cab049f2-c424-44ce-821f-abfc004b6133"},"vehicle_type_id":"4","last_reported":1740424010,"current_range_meters":2000,"station_id":"ce4bgk12rcd13ifvqbi0","pricing_plan_id":"cebpf4jnsgd1na2vs0mg"},{"bike_id":"1ef81de0-bc36-46c6-8fec-395c14eb44d2","system_id":"levelo_inurba_marseille","lat":43.29954,"lon":5.38497,"is_reserved":false,"is_disabled":false,"rental_uris":{"android":"levelo://app?vid=1ef81de0-bc36-46c6-8fec-395c14eb44d2","ios":"levelo://app?vid=1ef81de0-bc36-46c6-8fec-395c14eb44d2"},"vehicle_type_id":"4","last_reported":1740424010,"current_range_meters":2000,"station_id":"ce4bgj92rcd13ifvqbd0","pricing_plan_id":"cebpf4jnsgd1na2vs0mg"},{"bike_id":"8b10760f-89d7-438d-8f61-52405cfda227","system_id":"levelo_inurba_marseille","lat":43.2964,"lon":5.40596,"is_reserved":false,"is_disabled":false,"rental_uris":{"android":"levelo://app?vid=8b10760f-89d7-438d-8f61-52405cfda227","ios":"levelo://app?vid=8b10760f-89d7-438d-8f61-52405cfda227"},"vehicle_type_id":"4","last_reported":1740424010,"current_range_meters":2000,"station_id":"ce4bh0h2rcd13ifvqd60","pricing_plan_id":"cebpf4jnsgd1na2vs0mg"},{"bike_id":"015470b4-a336-4055-ac16-e551142521f6","system_id":"levelo_inurba_marseille","lat":43.27966,"lon":5.38745,"is_reserved":false,"is_disabled":false,"rental_uris":{"android":"levelo://app?vid=015470b4-a336-4055-ac16-e551142521f6","ios":"levelo://app?vid=015470b4-a336-4055-ac16-e551142521f6"},"vehicle_type_id":"4","last_reported":1740424010,"current_range_meters":3200,"station_id":"ce4bhg12rcd13ifvqf80","pricing_plan_id":"cebpf4jnsgd1na2vs0mg"},{"bike_id":"8825da9a-338a-43f1-904f-825e636e0a6d","system_id":"levelo_inurba_marseille","lat":43.28728,"lon":5.37999,"is_reserved":false,"is_disabled":false,"rental_uris":{"android":"levelo://app?vid=8825da9a-338a-43f1-904f-825e636e0a6d","ios":"levelo://app?vid=8825da9a-338a-43f1-904f-825e636e0a6d"},"vehicle_type_id":"4","last_reported":1740424010,"current_range_meters":3600,"station_id":"ce4bh9p2rcd13ifvqec0","pricing_plan_id":"cebpf4jnsgd1na2vs0mg"},{"bike_id":"c88f8582-6303-4c1c-8736-9dea940c8fcb","system_id":"levelo_inurba_marseille","lat":43.27617,"lon":5.361,"is_reserved":false,"is_disabled":false,"rental_uris":{"android":"levelo://app?vid=c88f8582-6303-4c1c-8736-9dea940c8fcb","ios":"levelo://app?vid=c88f8582-6303-4c1c-8736-9dea940c8fcb"},"vehicle_type_id":"4","last_reported":1740424010,"current_range_meters":3600,"station_id":"ce4bgj92rcd13ifvqbe0","pricing_plan_id":"cebpf4jnsgd1na2vs0mg"},{"bike_id":"50a03b29-b76f-4fb2-91d7-00d2a75d785c","system_id":"levelo_inurba_marseille","lat":43.29266,"lon":5.37619,"is_reserved":false,"is_disabled":true,"rental_uris":{"android":"levelo://app?vid=50a03b29-b76f-4fb2-91d7-00d2a75d785c","ios":"levelo://app?vid=50a03b29-b76f-4fb2-91d7-00d2a75d785c"},"vehicle_type_id":"4","last_reported":1740424010,"current_range_meters":3600,"station_id":"ce4bgi12rcd13ifvqb80","pricing_plan_id":"cebpf4jnsgd1na2vs0mg"},{"bike_id":"8c39fbcb-bc41-49a9-ad4d-cc55d2a50515","system_id":"levelo_inurba_marseille","lat":43.29544,"lon":5.39038,"is_reserved":false,"is_disabled":false,"rental_uris":{"android":"levelo://app?vid=8c39fbcb-bc41-49a9-ad4d-cc55d2a50515","ios":"levelo://app?vid=8c39fbcb-bc41-49a9-ad4d-cc55d2a50515"},"vehicle_type_id":"4","last_reported":1740424010,"current_range_meters":4000,"station_id":"ce4bh3p2rcd13ifvqdp0","pricing_plan_id":"cebpf4jnsgd1na2vs0mg"},{"bike_id":"97ba4d17-88a0-42dc-951c-be60c7f2ef11","system_id":"levelo_inurba_marseille","lat":43.31333,"lon":5.39691,"is_reserved":false,"is_disabled":false,"rental_uris":{"android":"levelo://app?vid=97ba4d17-88a0-42dc-951c-be60c7f2ef11","ios":"levelo://app?vid=97ba4d17-88a0-42dc-951c-be60c7f2ef11"},"vehicle_type_id":"4","last_reported":1740424010,"current_range_meters":3600,"station_id":"ce4bgvp2rcd13ifvqcu0","pricing_plan_id":"cebpf4jnsgd1na2vs0mg"},{"bike_id":"413dc171-4546-4050-9354-c607ae4433bf","system_id":"levelo_inurba_marseille","lat":43.30162,"lon":5.39587,"is_reserved":false,"is_disabled":true,"rental_uris":{"android":"levelo://app?vid=413dc171-4546-4050-9354-c607ae4433bf","ios":"levelo://app?vid=413dc171-4546-4050-9354-c607ae4433bf"},"vehicle_type_id":"4","last_reported":1740424010,"current_range_meters":4000,"station_id":"","pricing_plan_id":"cebpf4jnsgd1na2vs0mg"},{"bike_id":"fc2e876a-46b8-45ed-be50-09af9450335d","system_id":"levelo_inurba_marseille","lat":43.2795,"lon":5.41048,"is_reserved":false,"is_disabled":false,"rental_uris":{"android":"levelo://app?vid=fc2e876a-46b8-45ed-be50-09af9450335d","ios":"levelo://app?vid=fc2e876a-46b8-45ed-be50-09af9450335d"},"vehicle_type_id":"4","last_reported":1740424010,"current_range_meters":4800,"station_id":"ce4bhnp2rcd13ifvqh0g","pricing_plan_id":"cebpf4jnsgd1na2vs0mg"},{"bike_id":"332f7753-dce3-4e36-a7e4-2ff852dedbc2","system_id":"levelo_inurba_marseille","lat":43.28698,"lon":5.39998,"is_reserved":false,"is_disabled":false,"rental_uris":{"android":"levelo://app?vid=332f7753-dce3-4e36-a7e4-2ff852dedbc2","ios":"levelo://app?vid=332f7753-dce3-4e36-a7e4-2ff852dedbc2"},"vehicle_type_id":"4","last_reported":1740424010,"current_range_meters":4400,"station_id":"ce4bho92rcd13ifvqh3g","pricing_plan_id":"cebpf4jnsgd1na2vs0mg"},{"bike_id":"ed8a9000-482b-4735-91aa-e7f5f8bd8bf9","system_id":"levelo_inurba_marseille","lat":43.26791,"lon":5.39406,"is_reserved":false,"is_disabled":false,"rental_uris":{"android":"levelo://app?vid=ed8a9000-482b-4735-91aa-e7f5f8bd8bf9","ios":"levelo://app?vid=ed8a9000-482b-4735-91aa-e7f5f8bd8bf9"},"vehicle_type_id":"4","last_reported":1740424010,"current_range_meters":4400,"station_id":"ce4bhh12rcd13ifvqfg0","pricing_plan_id":"cebpf4jnsgd1na2vs0mg"},{"bike_id":"d46ba6b8-714e-48fe-a474-0d437ddbb594","system_id":"levelo_inurba_marseille","lat":43.292,"lon":5.39317,"is_reserved":false,"is_disabled":false,"rental_uris":{"android":"levelo://app?vid=d46ba6b8-714e-48fe-a474-0d437ddbb594","ios":"levelo://app?vid=d46ba6b8-714e-48fe-a474-0d437ddbb594"},"vehicle_type_id":"4","last_reported":1740424010,"current_range_meters":4400,"station_id":"ce4bh192rcd13ifvqdd0","pricing_plan_id":"cebpf4jnsgd1na2vs0mg"},{"bike_id":"bf42082c-d13d-48e2-a547-73f3f021d94d","system_id":"levelo_inurba_marseille","lat":43.29902,"lon":5.38876,"is_reserved":false,"is_disabled":false,"rental_uris":{"android":"levelo://app?vid=bf42082c-d13d-48e2-a547-73f3f021d94d","ios":"levelo://app?vid=bf42082c-d13d-48e2-a547-73f3f021d94d"},"vehicle_type_id":"4","last_reported":1740424010,"current_range_meters":1600,"station_id":"ce4bh392rcd13ifvqdl0","pricing_plan_id":"cebpf4jnsgd1na2vs0mg"},{"bike_id":"73a0cad8-f290-4ef8-80c5-41a6e0c4b42f","system_id":"levelo_inurba_marseille","lat":43.28339,"lon":5.38109,"is_reserved":false,"is_disabled":false,"rental_uris":{"android":"levelo://app?vid=73a0cad8-f290-4ef8-80c5-41a6e0c4b42f","ios":"levelo://app?vid=73a0cad8-f290-4ef8-80c5-41a6e0c4b42f"},"vehicle_type_id":"4","last_reported":1740424010,"current_range_meters":5600,"station_id":"ce4bh412rcd13ifvqdr0","pricing_plan_id":"cebpf4jnsgd1na2vs0mg"},{"bike_id":"eea836fa-aa30-4035-9a09-17fa9f32f8cb","system_id":"levelo_inurba_marseille","lat":43.28437,"lon":5.39183,"is_reserved":false,"is_disabled":false,"rental_uris":{"android":"levelo://app?vid=eea836fa-aa30-4035-9a09-17fa9f32f8cb","ios":"levelo://app?vid=eea836fa-aa30-4035-9a09-17fa9f32f8cb"},"vehicle_type_id":"4","last_reported":1740424010,"current_range_meters":5600,"station_id":"ce4bhoh2rcd13ifvqh5g","pricing_plan_id":"cebpf4jnsgd1na2vs0mg"},{"bike_id":"e425124f-0e43-4bb3-903c-c410badfece2","system_id":"levelo_inurba_marseille","lat":43.24548,"lon":5.39533,"is_reserved":false,"is_disabled":false,"rental_uris":{"android":"levelo://app?vid=e425124f-0e43-4bb3-903c-c410badfece2","ios":"levelo://app?vid=e425124f-0e43-4bb3-903c-c410badfece2"},"vehicle_type_id":"4","last_reported":1740424010,"current_range_meters":4800,"station_id":"ce4bhlp2rcd13ifvqgjg","pricing_plan_id":"cebpf4jnsgd1na2vs0mg"},{"bike_id":"e88e0fc8-e887-4dd2-9a45-96451e48f629","system_id":"levelo_inurba_marseille","lat":43.30436,"lon":5.38887,"is_reserved":false,"is_disabled":false,"rental_uris":{"android":"levelo://app?vid=e88e0fc8-e887-4dd2-9a45-96451e48f629","ios":"levelo://app?vid=e88e0fc8-e887-4dd2-9a45-96451e48f629"},"vehicle_type_id":"4","last_reported":1740424010,"current_range_meters":1200,"station_id":"ce4bgk12rcd13ifvqbi0","pricing_plan_id":"cebpf4jnsgd1na2vs0mg"},{"bike_id":"e223fa04-1844-43c7-a49c-34a9c3d30812","system_id":"levelo_inurba_marseille","lat":43.25724,"lon":5.41107,"is_reserved":false,"is_disabled":false,"rental_uris":{"android":"levelo://app?vid=e223fa04-1844-43c7-a49c-34a9c3d30812","ios":"levelo://app?vid=e223fa04-1844-43c7-a49c-34a9c3d30812"},"vehicle_type_id":"4","last_reported":1740424010,"current_range_meters":6000,"station_id":"ce4bhkp2rcd13ifvqgd0","pricing_plan_id":"cebpf4jnsgd1na2vs0mg"},{"bike_id":"4e76829f-70cf-4d94-80fd-c186bc55f908","system_id":"levelo_inurba_marseille","lat":43.2799,"lon":5.41669,"is_reserved":false,"is_disabled":false,"rental_uris":{"android":"levelo://app?vid=4e76829f-70cf-4d94-80fd-c186bc55f908","ios":"levelo://app?vid=4e76829f-70cf-4d94-80fd-c186bc55f908"},"vehicle_type_id":"4","last_reported":1740424010,"current_range_meters":6000,"station_id":"ce4bho12rcd13ifvqh1g","pricing_plan_id":"cebpf4jnsgd1na2vs0mg"},{"bike_id":"0cf176ba-1da7-43a7-a815-1e17026ecaeb","system_id":"levelo_inurba_marseille","lat":43.290741,"lon":5.380907,"is_reserved":false,"is_disabled":false,"rental_uris":{"android":"levelo://app?vid=0cf176ba-1da7-43a7-a815-1e17026ecaeb","ios":"levelo://app?vid=0cf176ba-1da7-43a7-a815-1e17026ecaeb"},"vehicle_type_id":"4","last_reported":1740424010,"current_range_meters":5600,"station_id":"ce4bgk12rcd13ifvqbj0","pricing_plan_id":"cebpf4jnsgd1na2vs0mg"},{"bike_id":"d9568535-deea-4b2e-b21c-68057ec27ba8","system_id":"levelo_inurba_marseille","lat":43.30631,"lon":5.37254,"is_reserved":false,"is_disabled":false,"rental_uris":{"android":"levelo://app?vid=d9568535-deea-4b2e-b21c-68057ec27ba8","ios":"levelo://app?vid=d9568535-deea-4b2e-b21c-68057ec27ba8"},"vehicle_type_id":"4","last_reported":1740424010,"current_range_meters":6000,"station_id":"ce4bgqh2rcd13ifvqc4g","pricing_plan_id":"cebpf4jnsgd1na2vs0mg"},{"bike_id":"5b8fdbc9-423d-4db8-a468-2fb80a85c6ce","system_id":"levelo_inurba_marseille","lat":43.28926,"lon":5.38391,"is_reserved":false,"is_disabled":false,"rental_uris":{"android":"levelo://app?vid=5b8fdbc9-423d-4db8-a468-2fb80a85c6ce","ios":"levelo://app?vid=5b8fdbc9-423d-4db8-a468-2fb80a85c6ce"},"vehicle_type_id":"4","last_reported":1740424010,"current_range_meters":2800,"station_id":"ce4bh612rcd13ifvqe6g","pricing_plan_id":"cebpf4jnsgd1na2vs0mg"},{"bike_id":"4595b468-4cc5-40fe-91df-4450b8496290","system_id":"levelo_inurba_marseille","lat":43.29611,"lon":5.38094,"is_reserved":false,"is_disabled":false,"rental_uris":{"android":"levelo://app?vid=4595b468-4cc5-40fe-91df-4450b8496290","ios":"levelo://app?vid=4595b468-4cc5-40fe-91df-4450b8496290"},"vehicle_type_id":"4","last_reported":1740424010,"current_range_meters":6400,"station_id":"ce4bgl12rcd13ifvqbo0","pricing_plan_id":"cebpf4jnsgd1na2vs0mg"},{"bike_id":"3e7d99b0-ccb5-450f-944d-95e765ac866f","system_id":"levelo_inurba_marseille","lat":43.33026,"lon":5.39034,"is_reserved":false,"is_disabled":false,"rental_uris":{"android":"levelo://app?vid=3e7d99b0-ccb5-450f-944d-95e765ac866f","ios":"levelo://app?vid=3e7d99b0-ccb5-450f-944d-95e765ac866f"},"vehicle_type_id":"4","last_reported":1740424010,"current_range_meters":6400,"station_id":"ce4bhr92rcd13ifvqhrg","pricing_plan_id":"cebpf4jnsgd1na2vs0mg"},{"bike_id":"8cf903a0-7a23-4ed1-83b3-c8e136aea693","system_id":"levelo_inurba_marseille","lat":43.30232,"lon":5.40024,"is_reserved":false,"is_disabled":false,"rental_uris":{"android":"levelo://app?vid=8cf903a0-7a23-4ed1-83b3-c8e136aea693","ios":"levelo://app?vid=8cf903a0-7a23-4ed1-83b3-c8e136aea693"},"vehicle_type_id":"4","last_reported":1740424010,"current_range_meters":6000,"station_id":"","pricing_plan_id":"cebpf4jnsgd1na2vs0mg"},{"bike_id":"54b41cd5-254f-4eb4-a577-3760478e00e3","system_id":"levelo_inurba_marseille","lat":43.25004,"lon":5.38924,"is_reserved":false,"is_disabled":false,"rental_uris":{"android":"levelo://app?vid=54b41cd5-254f-4eb4-a577-3760478e00e3","ios":"levelo://app?vid=54b41cd5-254f-4eb4-a577-3760478e00e3"},"vehicle_type_id":"4","last_reported":1740424010,"current_range_meters":2800,"station_id":"ce4bhgp2rcd13ifvqfd0","pricing_plan_id":"cebpf4jnsgd1na2vs0mg"},{"bike_id":"16a64962-c840-403e-8215-260ce50518b7","system_id":"levelo_inurba_marseille","lat":43.28151,"lon":5.42652,"is_reserved":false,"is_disabled":true,"rental_uris":{"android":"levelo://app?vid=16a64962-c840-403e-8215-260ce50518b7","ios":"levelo://app?vid=16a64962-c840-403e-8215-260ce50518b7"},"vehicle_type_id":"4","last_reported":1740424010,"current_range_meters":6800,"station_id":"ce4bhnh2rcd13ifvqgug","pricing_plan_id":"cebpf4jnsgd1na2vs0mg"},{"bike_id":"504398eb-fdc6-4f9d-8fba-01c4cee1737b","system_id":"levelo_inurba_marseille","lat":43.29559,"lon":5.42281,"is_reserved":false,"is_disabled":false,"rental_uris":{"android":"levelo://app?vid=504398eb-fdc6-4f9d-8fba-01c4cee1737b","ios":"levelo://app?vid=504398eb-fdc6-4f9d-8fba-01c4cee1737b"},"vehicle_type_id":"4","last_reported":1740424010,"current_range_meters":0,"station_id":"ce4bhph2rcd13ifvqhdg","pricing_plan_id":"cebpf4jnsgd1na2vs0mg"},{"bike_id":"0423d920-4043-4652-b688-10bf2d3098cd","system_id":"levelo_inurba_marseille","lat":43.25584,"lon":5.38243,"is_reserved":false,"is_disabled":false,"rental_uris":{"android":"levelo://app?vid=0423d920-4043-4652-b688-10bf2d3098cd","ios":"levelo://app?vid=0423d920-4043-4652-b688-10bf2d3098cd"},"vehicle_type_id":"4","last_reported":1740424010,"current_range_meters":6800,"station_id":"ce4bhih2rcd13ifvqfs0","pricing_plan_id":"cebpf4jnsgd1na2vs0mg"},{"bike_id":"1b466ab1-4a88-46b7-a933-e46596c5f952","system_id":"levelo_inurba_marseille","lat":43.29632,"lon":5.406013,"is_reserved":false,"is_disabled":false,"rental_uris":{"android":"levelo://app?vid=1b466ab1-4a88-46b7-a933-e46596c5f952","ios":"levelo://app?vid=1b466ab1-4a88-46b7-a933-e46596c5f952"},"vehicle_type_id":"4","last_reported":1740424010,"current_range_meters":7200,"station_id":"ce4bh0h2rcd13ifvqd60","pricing_plan_id":"cebpf4jnsgd1na2vs0mg"},{"bike_id":"3e3bde6f-8dc0-41cf-8fe6-f850e893e1da","system_id":"levelo_inurba_marseille","lat":43.27962,"lon":5.41056,"is_reserved":false,"is_disabled":false,"rental_uris":{"android":"levelo://app?vid=3e3bde6f-8dc0-41cf-8fe6-f850e893e1da","ios":"levelo://app?vid=3e3bde6f-8dc0-41cf-8fe6-f850e893e1da"},"vehicle_type_id":"4","last_reported":1740424010,"current_range_meters":7200,"station_id":"ce4bhnp2rcd13ifvqh0g","pricing_plan_id":"cebpf4jnsgd1na2vs0mg"},{"bike_id":"87bcf116-769a-458c-a755-6eca6af689b7","system_id":"levelo_inurba_marseille","lat":43.292078,"lon":5.393284,"is_reserved":false,"is_disabled":false,"rental_uris":{"android":"levelo://app?vid=87bcf116-769a-458c-a755-6eca6af689b7","ios":"levelo://app?vid=87bcf116-769a-458c-a755-6eca6af689b7"},"vehicle_type_id":"4","last_reported":1740424010,"current_range_meters":7200,"station_id":"ce4bh192rcd13ifvqdd0","pricing_plan_id":"cebpf4jnsgd1na2vs0mg"},{"bike_id":"48c1bfd6-6cfe-417f-84c9-b52cd4fb9e13","system_id":"levelo_inurba_marseille","lat":43.30887,"lon":5.37187,"is_reserved":false,"is_disabled":false,"rental_uris":{"android":"levelo://app?vid=48c1bfd6-6cfe-417f-84c9-b52cd4fb9e13","ios":"levelo://app?vid=48c1bfd6-6cfe-417f-84c9-b52cd4fb9e13"},"vehicle_type_id":"4","last_reported":1740424010,"current_range_meters":7200,"station_id":"ce4bguh2rcd13ifvqckg","pricing_plan_id":"cebpf4jnsgd1na2vs0mg"},{"bike_id":"0138c2d1-b24e-4b37-a0b5-8434c375e239","system_id":"levelo_inurba_marseille","lat":43.32369,"lon":5.38888,"is_reserved":false,"is_disabled":false,"rental_uris":{"android":"levelo://app?vid=0138c2d1-b24e-4b37-a0b5-8434c375e239","ios":"levelo://app?vid=0138c2d1-b24e-4b37-a0b5-8434c375e239"},"vehicle_type_id":"4","last_reported":1740424010,"current_range_meters":7200,"station_id":"ce4bhqp2rcd13ifvqhog","pricing_plan_id":"cebpf4jnsgd1na2vs0mg"},{"bike_id":"7764cb33-5426-4b94-909c-ac480986db17","system_id":"levelo_inurba_marseille","lat":43.29313,"lon":5.37253,"is_reserved":false,"is_disabled":false,"rental_uris":{"android":"levelo://app?vid=7764cb33-5426-4b94-909c-ac480986db17","ios":"levelo://app?vid=7764cb33-5426-4b94-909c-ac480986db17"},"vehicle_type_id":"4","last_reported":1740424010,"current_range_meters":8000,"station_id":"","pricing_plan_id":"cebpf4jnsgd1na2vs0mg"},{"bike_id":"59422e92-f9f1-4326-97e8-7da3700ed321","system_id":"levelo_inurba_marseille","lat":43.264946,"lon":5.39541,"is_reserved":false,"is_disabled":false,"rental_uris":{"android":"levelo://app?vid=59422e92-f9f1-4326-97e8-7da3700ed321","ios":"levelo://app?vid=59422e92-f9f1-4326-97e8-7da3700ed321"},"vehicle_type_id":"4","last_reported":1740424010,"current_range_meters":8000,"station_id":"ce4bh312rcd13ifvqdj0","pricing_plan_id":"cebpf4jnsgd1na2vs0mg"},{"bike_id":"80df0499-2de2-4912-81f1-1d7e129e2b0e","system_id":"levelo_inurba_marseille","lat":43.30278,"lon":5.37721,"is_reserved":false,"is_disabled":false,"rental_uris":{"android":"levelo://app?vid=80df0499-2de2-4912-81f1-1d7e129e2b0e","ios":"levelo://app?vid=80df0499-2de2-4912-81f1-1d7e129e2b0e"},"vehicle_type_id":"4","last_reported":1740424010,"current_range_meters":8000,"station_id":"ce4bguh2rcd13ifvqcj0","pricing_plan_id":"cebpf4jnsgd1na2vs0mg"},{"bike_id":"9912bd3b-182f-467c-92db-65e052c11af3","system_id":"levelo_inurba_marseille","lat":43.24255,"lon":5.43844,"is_reserved":false,"is_disabled":false,"rental_uris":{"android":"levelo://app?vid=9912bd3b-182f-467c-92db-65e052c11af3","ios":"levelo://app?vid=9912bd3b-182f-467c-92db-65e052c11af3"},"vehicle_type_id":"4","last_reported":1740424010,"current_range_meters":8000,"station_id":"","pricing_plan_id":"cebpf4jnsgd1na2vs0mg"},{"bike_id":"735470d2-1397-44a5-b56e-f70aa7aef316","system_id":"levelo_inurba_marseille","lat":43.25112,"lon":5.40323,"is_reserved":false,"is_disabled":false,"rental_uris":{"android":"levelo://app?vid=735470d2-1397-44a5-b56e-f70aa7aef316","ios":"levelo://app?vid=735470d2-1397-44a5-b56e-f70aa7aef316"},"vehicle_type_id":"4","last_reported":1740424010,"current_range_meters":1600,"station_id":"ce4bhlh2rcd13ifvqgig","pricing_plan_id":"cebpf4jnsgd1na2vs0mg"},{"bike_id":"aef1d67b-3348-40f1-a5e3-fd3beaa5d52c","system_id":"levelo_inurba_marseille","lat":43.28453,"lon":5.39211,"is_reserved":false,"is_disabled":false,"rental_uris":{"android":"levelo://app?vid=aef1d67b-3348-40f1-a5e3-fd3beaa5d52c","ios":"levelo://app?vid=aef1d67b-3348-40f1-a5e3-fd3beaa5d52c"},"vehicle_type_id":"4","last_reported":1740424010,"current_range_meters":8000,"station_id":"ce4bhoh2rcd13ifvqh5g","pricing_plan_id":"cebpf4jnsgd1na2vs0mg"},{"bike_id":"25a06410-12c1-48ef-8ea9-e8885cadcbee","system_id":"levelo_inurba_marseille","lat":43.28934,"lon":5.36632,"is_reserved":false,"is_disabled":false,"rental_uris":{"android":"levelo://app?vid=25a06410-12c1-48ef-8ea9-e8885cadcbee","ios":"levelo://app?vid=25a06410-12c1-48ef-8ea9-e8885cadcbee"},"vehicle_type_id":"4","last_reported":1740424010,"current_range_meters":8400,"station_id":"ce4bhap2rcd13ifvqek0","pricing_plan_id":"cebpf4jnsgd1na2vs0mg"},{"bike_id":"2b41d58d-9a81-4e39-9833-7fc9f382c022","system_id":"levelo_inurba_marseille","lat":43.31116,"lon":5.37772,"is_reserved":false,"is_disabled":false,"rental_uris":{"android":"levelo://app?vid=2b41d58d-9a81-4e39-9833-7fc9f382c022","ios":"levelo://app?vid=2b41d58d-9a81-4e39-9833-7fc9f382c022"},"vehicle_type_id":"4","last_reported":1740424010,"current_range_meters":8000,"station_id":"ce4bgt92rcd13ifvqcg0","pricing_plan_id":"cebpf4jnsgd1na2vs0mg"},{"bike_id":"2ce5a7a3-ebc5-4542-8581-83c42fa52a52","system_id":"levelo_inurba_marseille","lat":43.30948,"lon":5.39019,"is_reserved":false,"is_disabled":true,"rental_uris":{"android":"levelo://app?vid=2ce5a7a3-ebc5-4542-8581-83c42fa52a52","ios":"levelo://app?vid=2ce5a7a3-ebc5-4542-8581-83c42fa52a52"},"vehicle_type_id":"4","last_reported":1740424010,"current_range_meters":8400,"station_id":"ce4bgup2rcd13ifvqco0","pricing_plan_id":"cebpf4jnsgd1na2vs0mg"},{"bike_id":"b21c77a5-e540-4cda-8ea5-f87eb6cea310","system_id":"levelo_inurba_marseille","lat":43.293,"lon":5.37445,"is_reserved":false,"is_disabled":true,"rental_uris":{"android":"levelo://app?vid=b21c77a5-e540-4cda-8ea5-f87eb6cea310","ios":"levelo://app?vid=b21c77a5-e540-4cda-8ea5-f87eb6cea310"},"vehicle_type_id":"4","last_reported":1740424010,"current_range_meters":8400,"station_id":"ce4bgi12rcd13ifvqb70","pricing_plan_id":"cebpf4jnsgd1na2vs0mg"},{"bike_id":"d5a5b1cf-8def-4209-b638-317902f7a0c1","system_id":"levelo_inurba_marseille","lat":43.27994,"lon":5.40028,"is_reserved":false,"is_disabled":false,"rental_uris":{"android":"levelo://app?vid=d5a5b1cf-8def-4209-b638-317902f7a0c1","ios":"levelo://app?vid=d5a5b1cf-8def-4209-b638-317902f7a0c1"},"vehicle_type_id":"4","last_reported":1740424010,"current_range_meters":8400,"station_id":"ce4bho92rcd13ifvqh4g","pricing_plan_id":"cebpf4jnsgd1na2vs0mg"},{"bike_id":"7e26a3e9-4c57-4918-aa17-698a0ce4ac78","system_id":"levelo_inurba_marseille","lat":43.30695,"lon":5.37515,"is_reserved":false,"is_disabled":false,"rental_uris":{"android":"levelo://app?vid=7e26a3e9-4c57-4918-aa17-698a0ce4ac78","ios":"levelo://app?vid=7e26a3e9-4c57-4918-aa17-698a0ce4ac78"},"vehicle_type_id":"4","last_reported":1740424010,"current_range_meters":8400,"station_id":"","pricing_plan_id":"cebpf4jnsgd1na2vs0mg"},{"bike_id":"17da1feb-9abe-4e1d-9544-5a842d8f1b8a","system_id":"levelo_inurba_marseille","lat":43.278163,"lon":5.407218,"is_reserved":false,"is_disabled":false,"rental_uris":{"android":"levelo://app?vid=17da1feb-9abe-4e1d-9544-5a842d8f1b8a","ios":"levelo://app?vid=17da1feb-9abe-4e1d-9544-5a842d8f1b8a"},"vehicle_type_id":"4","last_reported":1740424010,"current_range_meters":8800,"station_id":"ce4bhnh2rcd13ifvqgtg","pricing_plan_id":"cebpf4jnsgd1na2vs0mg"},{"bike_id":"87bbda1f-0db0-4d79-a046-a87b5e94995a","system_id":"levelo_inurba_marseille","lat":43.24145,"lon":5.36417,"is_reserved":false,"is_disabled":false,"rental_uris":{"android":"levelo://app?vid=87bbda1f-0db0-4d79-a046-a87b5e94995a","ios":"levelo://app?vid=87bbda1f-0db0-4d79-a046-a87b5e94995a"},"vehicle_type_id":"4","last_reported":1740424010,"current_range_meters":8800,"station_id":"cpo36qri1sfpv3e86is0","pricing_plan_id":"cebpf4jnsgd1na2vs0mg"},{"bike_id":"bd1c9204-109d-453d-a655-cc2878aad0c5","system_id":"levelo_inurba_marseille","lat":43.29905,"lon":5.43668,"is_reserved":false,"is_disabled":false,"rental_uris":{"android":"levelo://app?vid=bd1c9204-109d-453d-a655-cc2878aad0c5","ios":"levelo://app?vid=bd1c9204-109d-453d-a655-cc2878aad0c5"},"vehicle_type_id":"4","last_reported":1740424010,"current_range_meters":8800,"station_id":"ce4bhpp2rcd13ifvqhfg","pricing_plan_id":"cebpf4jnsgd1na2vs0mg"},{"bike_id":"f3e30e62-56b7-4bd0-8b4e-2aa90ccf661c","system_id":"levelo_inurba_marseille","lat":43.33035,"lon":5.39038,"is_reserved":false,"is_disabled":false,"rental_uris":{"android":"levelo://app?vid=f3e30e62-56b7-4bd0-8b4e-2aa90ccf661c","ios":"levelo://app?vid=f3e30e62-56b7-4bd0-8b4e-2aa90ccf661c"},"vehicle_type_id":"4","last_reported":1740424010,"current_range_meters":9200,"station_id":"ce4bhr92rcd13ifvqhrg","pricing_plan_id":"cebpf4jnsgd1na2vs0mg"},{"bike_id":"f80a79d6-1c74-4e76-8ed2-23203ade1d35","system_id":"levelo_inurba_marseille","lat":43.27815,"lon":5.40707,"is_reserved":false,"is_disabled":false,"rental_uris":{"android":"levelo://app?vid=f80a79d6-1c74-4e76-8ed2-23203ade1d35","ios":"levelo://app?vid=f80a79d6-1c74-4e76-8ed2-23203ade1d35"},"vehicle_type_id":"4","last_reported":1740424010,"current_range_meters":8800,"station_id":"ce4bhnh2rcd13ifvqgtg","pricing_plan_id":"cebpf4jnsgd1na2vs0mg"},{"bike_id":"f8bf4e01-9376-4c4c-b1e9-3d3519e242b9","system_id":"levelo_inurba_marseille","lat":43.26786,"lon":5.39416,"is_reserved":false,"is_disabled":false,"rental_uris":{"android":"levelo://app?vid=f8bf4e01-9376-4c4c-b1e9-3d3519e242b9","ios":"levelo://app?vid=f8bf4e01-9376-4c4c-b1e9-3d3519e242b9"},"vehicle_type_id":"4","last_reported":1740424010,"current_range_meters":8400,"station_id":"ce4bhh12rcd13ifvqfg0","pricing_plan_id":"cebpf4jnsgd1na2vs0mg"},{"bike_id":"4c676afd-aabb-48c7-9c62-f89205cd3f4a","system_id":"levelo_inurba_marseille","lat":43.27817,"lon":5.40729,"is_reserved":false,"is_disabled":false,"rental_uris":{"android":"levelo://app?vid=4c676afd-aabb-48c7-9c62-f89205cd3f4a","ios":"levelo://app?vid=4c676afd-aabb-48c7-9c62-f89205cd3f4a"},"vehicle_type_id":"4","last_reported":1740424010,"current_range_meters":8800,"station_id":"ce4bhnh2rcd13ifvqgtg","pricing_plan_id":"cebpf4jnsgd1na2vs0mg"},{"bike_id":"9a004d96-0c28-40ae-ac9b-851baf359e0c","system_id":"levelo_inurba_marseille","lat":43.29424,"lon":5.38621,"is_reserved":false,"is_disabled":false,"rental_uris":{"android":"levelo://app?vid=9a004d96-0c28-40ae-ac9b-851baf359e0c","ios":"levelo://app?vid=9a004d96-0c28-40ae-ac9b-851baf359e0c"},"vehicle_type_id":"4","last_reported":1740424010,"current_range_meters":8000,"station_id":"ce4bh2h2rcd13ifvqdh0","pricing_plan_id":"cebpf4jnsgd1na2vs0mg"},{"bike_id":"5f618fd8-4c1d-4b98-9d96-80413e9c5e2b","system_id":"levelo_inurba_marseille","lat":43.32341,"lon":5.40639,"is_reserved":false,"is_disabled":true,"rental_uris":{"android":"levelo://app?vid=5f618fd8-4c1d-4b98-9d96-80413e9c5e2b","ios":"levelo://app?vid=5f618fd8-4c1d-4b98-9d96-80413e9c5e2b"},"vehicle_type_id":"4","last_reported":1740424010,"current_range_meters":9200,"station_id":"ce4bhq92rcd13ifvqhjg","pricing_plan_id":"cebpf4jnsgd1na2vs0mg"},{"bike_id":"626ea6eb-7fd8-4e81-8b42-2df7a1a610a1","system_id":"levelo_inurba_marseille","lat":43.28926,"lon":5.38399,"is_reserved":false,"is_disabled":false,"rental_uris":{"android":"levelo://app?vid=626ea6eb-7fd8-4e81-8b42-2df7a1a610a1","ios":"levelo://app?vid=626ea6eb-7fd8-4e81-8b42-2df7a1a610a1"},"vehicle_type_id":"4","last_reported":1740424010,"current_range_meters":10000,"station_id":"ce4bh612rcd13ifvqe6g","pricing_plan_id":"cebpf4jnsgd1na2vs0mg"},{"bike_id":"299ac4e5-2920-428e-bd82-715277c22ff0","system_id":"levelo_inurba_marseille","lat":43.30975,"lon":5.37945,"is_reserved":false,"is_disabled":false,"rental_uris":{"android":"levelo://app?vid=299ac4e5-2920-428e-bd82-715277c22ff0","ios":"levelo://app?vid=299ac4e5-2920-428e-bd82-715277c22ff0"},"vehicle_type_id":"4","last_reported":1740424010,"current_range_meters":10000,"station_id":"","pricing_plan_id":"cebpf4jnsgd1na2vs0mg"},{"bike_id":"216bb77f-c769-4011-8970-e66d63254aa2","system_id":"levelo_inurba_marseille","lat":43.29902,"lon":5.37848,"is_reserved":false,"is_disabled":false,"rental_uris":{"android":"levelo://app?vid=216bb77f-c769-4011-8970-e66d63254aa2","ios":"levelo://app?vid=216bb77f-c769-4011-8970-e66d63254aa2"},"vehicle_type_id":"4","last_reported":1740424010,"current_range_meters":9200,"station_id":"","pricing_plan_id":"cebpf4jnsgd1na2vs0mg"},{"bike_id":"d6dca2d6-928e-4f6e-a66d-b69c45819522","system_id":"levelo_inurba_marseille","lat":43.24678,"lon":5.38166,"is_reserved":false,"is_disabled":false,"rental_uris":{"android":"levelo://app?vid=d6dca2d6-928e-4f6e-a66d-b69c45819522","ios":"levelo://app?vid=d6dca2d6-928e-4f6e-a66d-b69c45819522"},"vehicle_type_id":"4","last_reported":1740424010,"current_range_meters":9200,"station_id":"ce4bhih2rcd13ifvqfr0","pricing_plan_id":"cebpf4jnsgd1na2vs0mg"},{"bike_id":"73f98104-d216-4e82-b499-5ee1d7648ac2","system_id":"levelo_inurba_marseille","lat":43.30387,"lon":5.41879,"is_reserved":false,"is_disabled":false,"rental_uris":{"android":"levelo://app?vid=73f98104-d216-4e82-b499-5ee1d7648ac2","ios":"levelo://app?vid=73f98104-d216-4e82-b499-5ee1d7648ac2"},"vehicle_type_id":"4","last_reported":1740424010,"current_range_meters":9200,"station_id":"ce4bhop2rcd13ifvqh7g","pricing_plan_id":"cebpf4jnsgd1na2vs0mg"},{"bike_id":"735f2893-ed14-4041-8b20-b891bc4163f5","system_id":"levelo_inurba_marseille","lat":43.29027,"lon":5.38134,"is_reserved":false,"is_disabled":false,"rental_uris":{"android":"levelo://app?vid=735f2893-ed14-4041-8b20-b891bc4163f5","ios":"levelo://app?vid=735f2893-ed14-4041-8b20-b891bc4163f5"},"vehicle_type_id":"4","last_reported":1740424010,"current_range_meters":9200,"station_id":"ce4bh4p2rcd13ifvqe1g","pricing_plan_id":"cebpf4jnsgd1na2vs0mg"},{"bike_id":"0d6809be-89f4-4af2-8a23-7f7c7ef64f97","system_id":"levelo_inurba_marseille","lat":43.28042,"lon":5.3695,"is_reserved":false,"is_disabled":false,"rental_uris":{"android":"levelo://app?vid=0d6809be-89f4-4af2-8a23-7f7c7ef64f97","ios":"levelo://app?vid=0d6809be-89f4-4af2-8a23-7f7c7ef64f97"},"vehicle_type_id":"4","last_reported":1740424010,"current_range_meters":9200,"station_id":"ce4bha12rcd13ifvqef0","pricing_plan_id":"cebpf4jnsgd1na2vs0mg"},{"bike_id":"734f28fb-4a9a-40a3-9d66-f28f686ab40d","system_id":"levelo_inurba_marseille","lat":43.27931,"lon":5.41051,"is_reserved":false,"is_disabled":false,"rental_uris":{"android":"levelo://app?vid=734f28fb-4a9a-40a3-9d66-f28f686ab40d","ios":"levelo://app?vid=734f28fb-4a9a-40a3-9d66-f28f686ab40d"},"vehicle_type_id":"4","last_reported":1740424010,"current_range_meters":9600,"station_id":"ce4bhnp2rcd13ifvqh0g","pricing_plan_id":"cebpf4jnsgd1na2vs0mg"},{"bike_id":"aaadca7b-4d70-48bf-9241-055d058794e7","system_id":"levelo_inurba_marseille","lat":43.28039,"lon":5.36946,"is_reserved":false,"is_disabled":false,"rental_uris":{"android":"levelo://app?vid=aaadca7b-4d70-48bf-9241-055d058794e7","ios":"levelo://app?vid=aaadca7b-4d70-48bf-9241-055d058794e7"},"vehicle_type_id":"4","last_reported":1740424010,"current_range_meters":9200,"station_id":"ce4bha12rcd13ifvqef0","pricing_plan_id":"cebpf4jnsgd1na2vs0mg"},{"bike_id":"11cd2877-68ae-41a2-a08a-17ff4cae18f6","system_id":"levelo_inurba_marseille","lat":43.25583,"lon":5.38218,"is_reserved":false,"is_disabled":false,"rental_uris":{"android":"levelo://app?vid=11cd2877-68ae-41a2-a08a-17ff4cae18f6","ios":"levelo://app?vid=11cd2877-68ae-41a2-a08a-17ff4cae18f6"},"vehicle_type_id":"4","last_reported":1740424010,"current_range_meters":9600,"station_id":"ce4bhih2rcd13ifvqfs0","pricing_plan_id":"cebpf4jnsgd1na2vs0mg"},{"bike_id":"c901caf9-df01-4766-9c46-292cc1e0f71c","system_id":"levelo_inurba_marseille","lat":43.25827,"lon":5.39438,"is_reserved":false,"is_disabled":false,"rental_uris":{"android":"levelo://app?vid=c901caf9-df01-4766-9c46-292cc1e0f71c","ios":"levelo://app?vid=c901caf9-df01-4766-9c46-292cc1e0f71c"},"vehicle_type_id":"4","last_reported":1740424010,"current_range_meters":9600,"station_id":"ce4bhip2rcd13ifvqft0","pricing_plan_id":"cebpf4jnsgd1na2vs0mg"},{"bike_id":"8788e12a-f05c-45b2-9570-f7c7ac9b560c","system_id":"levelo_inurba_marseille","lat":43.27952,"lon":5.41043,"is_reserved":false,"is_disabled":false,"rental_uris":{"android":"levelo://app?vid=8788e12a-f05c-45b2-9570-f7c7ac9b560c","ios":"levelo://app?vid=8788e12a-f05c-45b2-9570-f7c7ac9b560c"},"vehicle_type_id":"4","last_reported":1740424010,"current_range_meters":9600,"station_id":"ce4bhnp2rcd13ifvqh0g","pricing_plan_id":"cebpf4jnsgd1na2vs0mg"},{"bike_id":"409e90b9-0c26-43c6-98cf-2bf4aed2905d","system_id":"levelo_inurba_marseille","lat":43.29228,"lon":5.40938,"is_reserved":false,"is_disabled":false,"rental_uris":{"android":"levelo://app?vid=409e90b9-0c26-43c6-98cf-2bf4aed2905d","ios":"levelo://app?vid=409e90b9-0c26-43c6-98cf-2bf4aed2905d"},"vehicle_type_id":"4","last_reported":1740424010,"current_range_meters":10000,"station_id":"ce4bh192rcd13ifvqdc0","pricing_plan_id":"cebpf4jnsgd1na2vs0mg"},{"bike_id":"053f57a8-2b87-4441-b640-0e0cd10e21c4","system_id":"levelo_inurba_marseille","lat":43.27836,"lon":5.39203,"is_reserved":false,"is_disabled":false,"rental_uris":{"android":"levelo://app?vid=053f57a8-2b87-4441-b640-0e0cd10e21c4","ios":"levelo://app?vid=053f57a8-2b87-4441-b640-0e0cd10e21c4"},"vehicle_type_id":"4","last_reported":1740424010,"current_range_meters":10000,"station_id":"ce4bhjp2rcd13ifvqga0","pricing_plan_id":"cebpf4jnsgd1na2vs0mg"},{"bike_id":"c31330c5-97ae-498d-ae41-a0306e72b8d1","system_id":"levelo_inurba_marseille","lat":43.28401,"lon":5.37509,"is_reserved":false,"is_disabled":false,"rental_uris":{"android":"levelo://app?vid=c31330c5-97ae-498d-ae41-a0306e72b8d1","ios":"levelo://app?vid=c31330c5-97ae-498d-ae41-a0306e72b8d1"},"vehicle_type_id":"4","last_reported":1740424010,"current_range_meters":10800,"station_id":"ce4bh412rcd13ifvqds0","pricing_plan_id":"cebpf4jnsgd1na2vs0mg"},{"bike_id":"e49232ce-36e0-478c-a319-bb8d76abfc7f","system_id":"levelo_inurba_marseille","lat":43.29711,"lon":5.36638,"is_reserved":false,"is_disabled":false,"rental_uris":{"android":"levelo://app?vid=e49232ce-36e0-478c-a319-bb8d76abfc7f","ios":"levelo://app?vid=e49232ce-36e0-478c-a319-bb8d76abfc7f"},"vehicle_type_id":"4","last_reported":1740424010,"current_range_meters":10800,"station_id":"ce4bgn12rcd13ifvqbt0","pricing_plan_id":"cebpf4jnsgd1na2vs0mg"},{"bike_id":"b72264de-d072-4c80-b404-f4b5240a1b06","system_id":"levelo_inurba_marseille","lat":43.29534,"lon":5.3854,"is_reserved":false,"is_disabled":false,"rental_uris":{"android":"levelo://app?vid=b72264de-d072-4c80-b404-f4b5240a1b06","ios":"levelo://app?vid=b72264de-d072-4c80-b404-f4b5240a1b06"},"vehicle_type_id":"4","last_reported":1740424010,"current_range_meters":11600,"station_id":"ce4bgih2rcd13ifvqba0","pricing_plan_id":"cebpf4jnsgd1na2vs0mg"},{"bike_id":"4edd52b0-9bda-4645-bc29-e6b364bdad5a","system_id":"levelo_inurba_marseille","lat":43.29943,"lon":5.36539,"is_reserved":false,"is_disabled":false,"rental_uris":{"android":"levelo://app?vid=4edd52b0-9bda-4645-bc29-e6b364bdad5a","ios":"levelo://app?vid=4edd52b0-9bda-4645-bc29-e6b364bdad5a"},"vehicle_type_id":"4","last_reported":1740424010,"current_range_meters":10000,"station_id":"ce4bgm92rcd13ifvqbr0","pricing_plan_id":"cebpf4jnsgd1na2vs0mg"},{"bike_id":"2c79d0e9-b47c-4e9e-90d0-9d0bb000588f","system_id":"levelo_inurba_marseille","lat":43.29515,"lon":5.39413,"is_reserved":false,"is_disabled":false,"rental_uris":{"android":"levelo://app?vid=2c79d0e9-b47c-4e9e-90d0-9d0bb000588f","ios":"levelo://app?vid=2c79d0e9-b47c-4e9e-90d0-9d0bb000588f"},"vehicle_type_id":"4","last_reported":1740424010,"current_range_meters":10000,"station_id":"ce4bh292rcd13ifvqdf0","pricing_plan_id":"cebpf4jnsgd1na2vs0mg"},{"bike_id":"ccad3b11-6784-42f3-be2f-a09578fd0c1b","system_id":"levelo_inurba_marseille","lat":43.24074,"lon":5.37768,"is_reserved":false,"is_disabled":false,"rental_uris":{"android":"levelo://app?vid=ccad3b11-6784-42f3-be2f-a09578fd0c1b","ios":"levelo://app?vid=ccad3b11-6784-42f3-be2f-a09578fd0c1b"},"vehicle_type_id":"4","last_reported":1740424010,"current_range_meters":10800,"station_id":"ce4bhnp2rcd13ifvqgvg","pricing_plan_id":"cebpf4jnsgd1na2vs0mg"},{"bike_id":"2a7f643d-ca75-4fb9-a512-c92fa3bc22ba","system_id":"levelo_inurba_marseille","lat":43.27993,"lon":5.40012,"is_reserved":false,"is_disabled":false,"rental_uris":{"android":"levelo://app?vid=2a7f643d-ca75-4fb9-a512-c92fa3bc22ba","ios":"levelo://app?vid=2a7f643d-ca75-4fb9-a512-c92fa3bc22ba"},"vehicle_type_id":"4","last_reported":1740424010,"current_range_meters":8000,"station_id":"ce4bho92rcd13ifvqh4g","pricing_plan_id":"cebpf4jnsgd1na2vs0mg"},{"bike_id":"9131f719-5fdd-4ab0-9dfb-257f2ccc13cb","system_id":"levelo_inurba_marseille","lat":43.28934,"lon":5.36627,"is_reserved":false,"is_disabled":false,"rental_uris":{"android":"levelo://app?vid=9131f719-5fdd-4ab0-9dfb-257f2ccc13cb","ios":"levelo://app?vid=9131f719-5fdd-4ab0-9dfb-257f2ccc13cb"},"vehicle_type_id":"4","last_reported":1740424010,"current_range_meters":10000,"station_id":"ce4bhap2rcd13ifvqek0","pricing_plan_id":"cebpf4jnsgd1na2vs0mg"},{"bike_id":"44a26479-5e14-41e7-8403-4cb654b4fceb","system_id":"levelo_inurba_marseille","lat":43.29698,"lon":5.36622,"is_reserved":false,"is_disabled":false,"rental_uris":{"android":"levelo://app?vid=44a26479-5e14-41e7-8403-4cb654b4fceb","ios":"levelo://app?vid=44a26479-5e14-41e7-8403-4cb654b4fceb"},"vehicle_type_id":"4","last_reported":1740424010,"current_range_meters":10800,"station_id":"ce4bgn12rcd13ifvqbt0","pricing_plan_id":"cebpf4jnsgd1na2vs0mg"},{"bike_id":"277b5070-cc30-45c1-a308-bfc6df66b7e0","system_id":"levelo_inurba_marseille","lat":43.28001,"lon":5.41659,"is_reserved":false,"is_disabled":false,"rental_uris":{"android":"levelo://app?vid=277b5070-cc30-45c1-a308-bfc6df66b7e0","ios":"levelo://app?vid=277b5070-cc30-45c1-a308-bfc6df66b7e0"},"vehicle_type_id":"4","last_reported":1740424010,"current_range_meters":10000,"station_id":"ce4bho12rcd13ifvqh1g","pricing_plan_id":"cebpf4jnsgd1na2vs0mg"},{"bike_id":"25bb617c-23e3-460d-8a6a-13de43dc25bf","system_id":"levelo_inurba_marseille","lat":43.29519,"lon":5.39406,"is_reserved":false,"is_disabled":false,"rental_uris":{"android":"levelo://app?vid=25bb617c-23e3-460d-8a6a-13de43dc25bf","ios":"levelo://app?vid=25bb617c-23e3-460d-8a6a-13de43dc25bf"},"vehicle_type_id":"4","last_reported":1740424010,"current_range_meters":10800,"station_id":"ce4bh292rcd13ifvqdf0","pricing_plan_id":"cebpf4jnsgd1na2vs0mg"},{"bike_id":"bd6d7fc7-5342-4175-83d2-79c1a28fd998","system_id":"levelo_inurba_marseille","lat":43.28156,"lon":5.4264,"is_reserved":false,"is_disabled":false,"rental_uris":{"android":"levelo://app?vid=bd6d7fc7-5342-4175-83d2-79c1a28fd998","ios":"levelo://app?vid=bd6d7fc7-5342-4175-83d2-79c1a28fd998"},"vehicle_type_id":"4","last_reported":1740424010,"current_range_meters":10800,"station_id":"ce4bhnh2rcd13ifvqgug","pricing_plan_id":"cebpf4jnsgd1na2vs0mg"},{"bike_id":"4e24caa2-5a60-4cd9-b3f7-04d0586c7ee0","system_id":"levelo_inurba_marseille","lat":43.25505,"lon":5.37658,"is_reserved":false,"is_disabled":false,"rental_uris":{"android":"levelo://app?vid=4e24caa2-5a60-4cd9-b3f7-04d0586c7ee0","ios":"levelo://app?vid=4e24caa2-5a60-4cd9-b3f7-04d0586c7ee0"},"vehicle_type_id":"4","last_reported":1740424010,"current_range_meters":10000,"station_id":"ce4bhh12rcd13ifvqff0","pricing_plan_id":"cebpf4jnsgd1na2vs0mg"},{"bike_id":"3c65124f-e262-42fd-ad84-5fd08e091e15","system_id":"levelo_inurba_marseille","lat":43.28706,"lon":5.39974,"is_reserved":false,"is_disabled":false,"rental_uris":{"android":"levelo://app?vid=3c65124f-e262-42fd-ad84-5fd08e091e15","ios":"levelo://app?vid=3c65124f-e262-42fd-ad84-5fd08e091e15"},"vehicle_type_id":"4","last_reported":1740424010,"current_range_meters":10000,"station_id":"ce4bho92rcd13ifvqh3g","pricing_plan_id":"cebpf4jnsgd1na2vs0mg"},{"bike_id":"bbf369d1-ee7c-44f3-85f9-0b420810bb71","system_id":"levelo_inurba_marseille","lat":43.26567,"lon":5.39008,"is_reserved":false,"is_disabled":false,"rental_uris":{"android":"levelo://app?vid=bbf369d1-ee7c-44f3-85f9-0b420810bb71","ios":"levelo://app?vid=bbf369d1-ee7c-44f3-85f9-0b420810bb71"},"vehicle_type_id":"4","last_reported":1740424010,"current_range_meters":10800,"station_id":"ce4bhe12rcd13ifvqf30","pricing_plan_id":"cebpf4jnsgd1na2vs0mg"},{"bike_id":"446313c8-37fc-4f36-b9c3-a1d481dfb62b","system_id":"levelo_inurba_marseille","lat":43.26836,"lon":5.41137,"is_reserved":false,"is_disabled":false,"rental_uris":{"android":"levelo://app?vid=446313c8-37fc-4f36-b9c3-a1d481dfb62b","ios":"levelo://app?vid=446313c8-37fc-4f36-b9c3-a1d481dfb62b"},"vehicle_type_id":"4","last_reported":1740424010,"current_range_meters":11600,"station_id":"","pricing_plan_id":"cebpf4jnsgd1na2vs0mg"},{"bike_id":"ae9b3dbc-3097-4009-8f5c-e3f39bbb950c","system_id":"levelo_inurba_marseille","lat":43.29556,"lon":5.42277,"is_reserved":false,"is_disabled":false,"rental_uris":{"android":"levelo://app?vid=ae9b3dbc-3097-4009-8f5c-e3f39bbb950c","ios":"levelo://app?vid=ae9b3dbc-3097-4009-8f5c-e3f39bbb950c"},"vehicle_type_id":"4","last_reported":1740424010,"current_range_meters":11200,"station_id":"ce4bhph2rcd13ifvqhdg","pricing_plan_id":"cebpf4jnsgd1na2vs0mg"},{"bike_id":"d525ca76-caa8-4a03-90d9-340115dcba41","system_id":"levelo_inurba_marseille","lat":43.29877,"lon":5.38896,"is_reserved":false,"is_disabled":false,"rental_uris":{"android":"levelo://app?vid=d525ca76-caa8-4a03-90d9-340115dcba41","ios":"levelo://app?vid=d525ca76-caa8-4a03-90d9-340115dcba41"},"vehicle_type_id":"4","last_reported":1740424010,"current_range_meters":11200,"station_id":"ce4bh392rcd13ifvqdl0","pricing_plan_id":"cebpf4jnsgd1na2vs0mg"},{"bike_id":"67c00d8d-f172-4d44-965a-adc9f690965d","system_id":"levelo_inurba_marseille","lat":43.26945,"lon":5.40251,"is_reserved":false,"is_disabled":false,"rental_uris":{"android":"levelo://app?vid=67c00d8d-f172-4d44-965a-adc9f690965d","ios":"levelo://app?vid=67c00d8d-f172-4d44-965a-adc9f690965d"},"vehicle_type_id":"4","last_reported":1740424010,"current_range_meters":11200,"station_id":"cjm6bp8fraef2m0cb0m0","pricing_plan_id":"cebpf4jnsgd1na2vs0mg"},{"bike_id":"e01df4d0-38c5-4994-83f0-1d17f7ab2203","system_id":"levelo_inurba_marseille","lat":43.30588,"lon":5.3935,"is_reserved":false,"is_disabled":false,"rental_uris":{"android":"levelo://app?vid=e01df4d0-38c5-4994-83f0-1d17f7ab2203","ios":"levelo://app?vid=e01df4d0-38c5-4994-83f0-1d17f7ab2203"},"vehicle_type_id":"4","last_reported":1740424010,"current_range_meters":12000,"station_id":"","pricing_plan_id":"cebpf4jnsgd1na2vs0mg"},{"bike_id":"5ffb1847-0851-4788-bd58-404c6a5e4af7","system_id":"levelo_inurba_marseille","lat":43.29253,"lon":5.40916,"is_reserved":false,"is_disabled":false,"rental_uris":{"android":"levelo://app?vid=5ffb1847-0851-4788-bd58-404c6a5e4af7","ios":"levelo://app?vid=5ffb1847-0851-4788-bd58-404c6a5e4af7"},"vehicle_type_id":"4","last_reported":1740424010,"current_range_meters":11200,"station_id":"ce4bh192rcd13ifvqdc0","pricing_plan_id":"cebpf4jnsgd1na2vs0mg"},{"bike_id":"2cdc1798-39d2-4c04-9ddf-7a0f7a701321","system_id":"levelo_inurba_marseille","lat":43.25087,"lon":5.39526,"is_reserved":false,"is_disabled":false,"rental_uris":{"android":"levelo://app?vid=2cdc1798-39d2-4c04-9ddf-7a0f7a701321","ios":"levelo://app?vid=2cdc1798-39d2-4c04-9ddf-7a0f7a701321"},"vehicle_type_id":"4","last_reported":1740424010,"current_range_meters":3200,"station_id":"ce4bhm12rcd13ifvqgkg","pricing_plan_id":"cebpf4jnsgd1na2vs0mg"},{"bike_id":"1a0b050f-f33f-48d2-9894-613d93a341cc","system_id":"levelo_inurba_marseille","lat":43.23198,"lon":5.39984,"is_reserved":false,"is_disabled":false,"rental_uris":{"android":"levelo://app?vid=1a0b050f-f33f-48d2-9894-613d93a341cc","ios":"levelo://app?vid=1a0b050f-f33f-48d2-9894-613d93a341cc"},"vehicle_type_id":"4","last_reported":1740424010,"current_range_meters":11200,"station_id":"ce4bhn12rcd13ifvqgqg","pricing_plan_id":"cebpf4jnsgd1na2vs0mg"},{"bike_id":"336d6bf6-aa8e-4a0a-a722-a6b978f20f1f","system_id":"levelo_inurba_marseille","lat":43.26554,"lon":5.37286,"is_reserved":false,"is_disabled":false,"rental_uris":{"android":"levelo://app?vid=336d6bf6-aa8e-4a0a-a722-a6b978f20f1f","ios":"levelo://app?vid=336d6bf6-aa8e-4a0a-a722-a6b978f20f1f"},"vehicle_type_id":"4","last_reported":1740424010,"current_range_meters":12000,"station_id":"ce4bhg12rcd13ifvqf70","pricing_plan_id":"cebpf4jnsgd1na2vs0mg"},{"bike_id":"7cbe92d9-d0f5-4fe2-b61c-1266d7aa9e2d","system_id":"levelo_inurba_marseille","lat":43.27996,"lon":5.40012,"is_reserved":false,"is_disabled":false,"rental_uris":{"android":"levelo://app?vid=7cbe92d9-d0f5-4fe2-b61c-1266d7aa9e2d","ios":"levelo://app?vid=7cbe92d9-d0f5-4fe2-b61c-1266d7aa9e2d"},"vehicle_type_id":"4","last_reported":1740424010,"current_range_meters":11600,"station_id":"ce4bho92rcd13ifvqh4g","pricing_plan_id":"cebpf4jnsgd1na2vs0mg"},{"bike_id":"d6e9473b-dc2e-415e-a49b-32762a351f28","system_id":"levelo_inurba_marseille","lat":43.28854,"lon":5.35858,"is_reserved":false,"is_disabled":false,"rental_uris":{"android":"levelo://app?vid=d6e9473b-dc2e-415e-a49b-32762a351f28","ios":"levelo://app?vid=d6e9473b-dc2e-415e-a49b-32762a351f28"},"vehicle_type_id":"4","last_reported":1740424010,"current_range_meters":11600,"station_id":"ce4bhb12rcd13ifvqem0","pricing_plan_id":"cebpf4jnsgd1na2vs0mg"},{"bike_id":"3dafb2e8-b31a-43ca-a6ce-c42a3025e0a6","system_id":"levelo_inurba_marseille","lat":43.26199,"lon":5.37932,"is_reserved":false,"is_disabled":false,"rental_uris":{"android":"levelo://app?vid=3dafb2e8-b31a-43ca-a6ce-c42a3025e0a6","ios":"levelo://app?vid=3dafb2e8-b31a-43ca-a6ce-c42a3025e0a6"},"vehicle_type_id":"4","last_reported":1740424010,"current_range_meters":11600,"station_id":"ce4bhjp2rcd13ifvqg90","pricing_plan_id":"cebpf4jnsgd1na2vs0mg"},{"bike_id":"fdf5d51c-a5e1-43c8-9200-49c507700032","system_id":"levelo_inurba_marseille","lat":43.27627,"lon":5.36103,"is_reserved":false,"is_disabled":false,"rental_uris":{"android":"levelo://app?vid=fdf5d51c-a5e1-43c8-9200-49c507700032","ios":"levelo://app?vid=fdf5d51c-a5e1-43c8-9200-49c507700032"},"vehicle_type_id":"4","last_reported":1740424010,"current_range_meters":11600,"station_id":"ce4bgj92rcd13ifvqbe0","pricing_plan_id":"cebpf4jnsgd1na2vs0mg"},{"bike_id":"a2c5a8be-a1fb-4695-9fc4-480243507a22","system_id":"levelo_inurba_marseille","lat":43.29427,"lon":5.38625,"is_reserved":false,"is_disabled":false,"rental_uris":{"android":"levelo://app?vid=a2c5a8be-a1fb-4695-9fc4-480243507a22","ios":"levelo://app?vid=a2c5a8be-a1fb-4695-9fc4-480243507a22"},"vehicle_type_id":"4","last_reported":1740424010,"current_range_meters":12000,"station_id":"ce4bh2h2rcd13ifvqdh0","pricing_plan_id":"cebpf4jnsgd1na2vs0mg"},{"bike_id":"ce08e129-3210-4784-8e00-3661099c392d","system_id":"levelo_inurba_marseille","lat":43.29905,"lon":5.43671,"is_reserved":false,"is_disabled":false,"rental_uris":{"android":"levelo://app?vid=ce08e129-3210-4784-8e00-3661099c392d","ios":"levelo://app?vid=ce08e129-3210-4784-8e00-3661099c392d"},"vehicle_type_id":"4","last_reported":1740424010,"current_range_meters":11600,"station_id":"ce4bhpp2rcd13ifvqhfg","pricing_plan_id":"cebpf4jnsgd1na2vs0mg"},{"bike_id":"860fbfeb-5bae-4548-8e91-5df9f4b250ab","system_id":"levelo_inurba_marseille","lat":43.28156,"lon":5.42643,"is_reserved":false,"is_disabled":false,"rental_uris":{"android":"levelo://app?vid=860fbfeb-5bae-4548-8e91-5df9f4b250ab","ios":"levelo://app?vid=860fbfeb-5bae-4548-8e91-5df9f4b250ab"},"vehicle_type_id":"4","last_reported":1740424010,"current_range_meters":11600,"station_id":"ce4bhnh2rcd13ifvqgug","pricing_plan_id":"cebpf4jnsgd1na2vs0mg"},{"bike_id":"0182df4d-cffe-4262-aa2f-bb594dd97a52","system_id":"levelo_inurba_marseille","lat":43.31153,"lon":5.38722,"is_reserved":false,"is_disabled":false,"rental_uris":{"android":"levelo://app?vid=0182df4d-cffe-4262-aa2f-bb594dd97a52","ios":"levelo://app?vid=0182df4d-cffe-4262-aa2f-bb594dd97a52"},"vehicle_type_id":"4","last_reported":1740424010,"current_range_meters":11200,"station_id":"ce4bgv12rcd13ifvqcp0","pricing_plan_id":"cebpf4jnsgd1na2vs0mg"},{"bike_id":"d5fe9bef-3cba-4013-8775-d73ff7c35533","system_id":"levelo_inurba_marseille","lat":43.29886,"lon":5.39736,"is_reserved":false,"is_disabled":false,"rental_uris":{"android":"levelo://app?vid=d5fe9bef-3cba-4013-8775-d73ff7c35533","ios":"levelo://app?vid=d5fe9bef-3cba-4013-8775-d73ff7c35533"},"vehicle_type_id":"4","last_reported":1740424010,"current_range_meters":11600,"station_id":"ce4bh0h2rcd13ifvqd50","pricing_plan_id":"cebpf4jnsgd1na2vs0mg"},{"bike_id":"51b22d5d-d4b0-46a1-9f3e-b88519918b71","system_id":"levelo_inurba_marseille","lat":43.30931,"lon":5.40133,"is_reserved":false,"is_disabled":false,"rental_uris":{"android":"levelo://app?vid=51b22d5d-d4b0-46a1-9f3e-b88519918b71","ios":"levelo://app?vid=51b22d5d-d4b0-46a1-9f3e-b88519918b71"},"vehicle_type_id":"4","last_reported":1740424010,"current_range_meters":11600,"station_id":"ce4bgvp2rcd13ifvqct0","pricing_plan_id":"cebpf4jnsgd1na2vs0mg"},{"bike_id":"b2d0dbf0-bed4-47fd-afc8-181116557831","system_id":"levelo_inurba_marseille","lat":43.30808,"lon":5.43511,"is_reserved":false,"is_disabled":false,"rental_uris":{"android":"levelo://app?vid=b2d0dbf0-bed4-47fd-afc8-181116557831","ios":"levelo://app?vid=b2d0dbf0-bed4-47fd-afc8-181116557831"},"vehicle_type_id":"4","last_reported":1740424010,"current_range_meters":12800,"station_id":"ce4bhph2rcd13ifvqheg","pricing_plan_id":"cebpf4jnsgd1na2vs0mg"},{"bike_id":"19a8f35e-59c5-4bff-a8e1-1e0d52f1d0ca","system_id":"levelo_inurba_marseille","lat":43.2844,"lon":5.39193,"is_reserved":false,"is_disabled":false,"rental_uris":{"android":"levelo://app?vid=19a8f35e-59c5-4bff-a8e1-1e0d52f1d0ca","ios":"levelo://app?vid=19a8f35e-59c5-4bff-a8e1-1e0d52f1d0ca"},"vehicle_type_id":"4","last_reported":1740424010,"current_range_meters":12000,"station_id":"ce4bhoh2rcd13ifvqh5g","pricing_plan_id":"cebpf4jnsgd1na2vs0mg"},{"bike_id":"635812ec-183a-4f73-9cde-f84ca246997a","system_id":"levelo_inurba_marseille","lat":43.29637,"lon":5.40596,"is_reserved":false,"is_disabled":false,"rental_uris":{"android":"levelo://app?vid=635812ec-183a-4f73-9cde-f84ca246997a","ios":"levelo://app?vid=635812ec-183a-4f73-9cde-f84ca246997a"},"vehicle_type_id":"4","last_reported":1740424010,"current_range_meters":12000,"station_id":"ce4bh0h2rcd13ifvqd60","pricing_plan_id":"cebpf4jnsgd1na2vs0mg"},{"bike_id":"b807f9b5-8b9f-4668-85d9-f528a1920420","system_id":"levelo_inurba_marseille","lat":43.30256,"lon":5.40077,"is_reserved":false,"is_disabled":false,"rental_uris":{"android":"levelo://app?vid=b807f9b5-8b9f-4668-85d9-f528a1920420","ios":"levelo://app?vid=b807f9b5-8b9f-4668-85d9-f528a1920420"},"vehicle_type_id":"4","last_reported":1740424010,"current_range_meters":9200,"station_id":"ce4bgvh2rcd13ifvqcs0","pricing_plan_id":"cebpf4jnsgd1na2vs0mg"},{"bike_id":"054a8c13-e003-4a19-8213-3d429c22f36e","system_id":"levelo_inurba_marseille","lat":43.24159,"lon":5.36394,"is_reserved":false,"is_disabled":false,"rental_uris":{"android":"levelo://app?vid=054a8c13-e003-4a19-8213-3d429c22f36e","ios":"levelo://app?vid=054a8c13-e003-4a19-8213-3d429c22f36e"},"vehicle_type_id":"4","last_reported":1740424010,"current_range_meters":12400,"station_id":"cpo36qri1sfpv3e86is0","pricing_plan_id":"cebpf4jnsgd1na2vs0mg"},{"bike_id":"e37ffcf5-bb0c-47f5-a826-7f04d919fa4b","system_id":"levelo_inurba_marseille","lat":43.28467,"lon":5.35885,"is_reserved":false,"is_disabled":false,"rental_uris":{"android":"levelo://app?vid=e37ffcf5-bb0c-47f5-a826-7f04d919fa4b","ios":"levelo://app?vid=e37ffcf5-bb0c-47f5-a826-7f04d919fa4b"},"vehicle_type_id":"4","last_reported":1740424010,"current_range_meters":12400,"station_id":"ce4bhah2rcd13ifvqei0","pricing_plan_id":"cebpf4jnsgd1na2vs0mg"},{"bike_id":"5dc03a1e-3009-4035-b661-be605ae3ee77","system_id":"levelo_inurba_marseille","lat":43.27997,"lon":5.40015,"is_reserved":false,"is_disabled":false,"rental_uris":{"android":"levelo://app?vid=5dc03a1e-3009-4035-b661-be605ae3ee77","ios":"levelo://app?vid=5dc03a1e-3009-4035-b661-be605ae3ee77"},"vehicle_type_id":"4","last_reported":1740424010,"current_range_meters":12400,"station_id":"ce4bho92rcd13ifvqh4g","pricing_plan_id":"cebpf4jnsgd1na2vs0mg"},{"bike_id":"af7abe5d-6ed0-461b-98cd-c526c73768d9","system_id":"levelo_inurba_marseille","lat":43.29176,"lon":5.37158,"is_reserved":false,"is_disabled":false,"rental_uris":{"android":"levelo://app?vid=af7abe5d-6ed0-461b-98cd-c526c73768d9","ios":"levelo://app?vid=af7abe5d-6ed0-461b-98cd-c526c73768d9"},"vehicle_type_id":"4","last_reported":1740424010,"current_range_meters":12400,"station_id":"ce4bha92rcd13ifvqeh0","pricing_plan_id":"cebpf4jnsgd1na2vs0mg"},{"bike_id":"ef7cb291-3dcd-49b7-903a-5af6d5faf1be","system_id":"levelo_inurba_marseille","lat":43.31719,"lon":5.42392,"is_reserved":false,"is_disabled":false,"rental_uris":{"android":"levelo://app?vid=ef7cb291-3dcd-49b7-903a-5af6d5faf1be","ios":"levelo://app?vid=ef7cb291-3dcd-49b7-903a-5af6d5faf1be"},"vehicle_type_id":"4","last_reported":1740424010,"current_range_meters":12000,"station_id":"ce4bhp92rcd13ifvqhbg","pricing_plan_id":"cebpf4jnsgd1na2vs0mg"},{"bike_id":"cafd7f33-9808-404a-b6af-22e15a18d7e0","system_id":"levelo_inurba_marseille","lat":43.29056,"lon":5.359,"is_reserved":false,"is_disabled":false,"rental_uris":{"android":"levelo://app?vid=cafd7f33-9808-404a-b6af-22e15a18d7e0","ios":"levelo://app?vid=cafd7f33-9808-404a-b6af-22e15a18d7e0"},"vehicle_type_id":"4","last_reported":1740424010,"current_range_meters":12400,"station_id":"ce4bha92rcd13ifvqeg0","pricing_plan_id":"cebpf4jnsgd1na2vs0mg"},{"bike_id":"6b1795cd-5f7d-425e-a877-938e7267b66a","system_id":"levelo_inurba_marseille","lat":43.292034,"lon":5.393197,"is_reserved":false,"is_disabled":false,"rental_uris":{"android":"levelo://app?vid=6b1795cd-5f7d-425e-a877-938e7267b66a","ios":"levelo://app?vid=6b1795cd-5f7d-425e-a877-938e7267b66a"},"vehicle_type_id":"4","last_reported":1740424010,"current_range_meters":12400,"station_id":"ce4bh192rcd13ifvqdd0","pricing_plan_id":"cebpf4jnsgd1na2vs0mg"},{"bike_id":"d630238b-e434-4009-a114-1268aae217f8","system_id":"levelo_inurba_marseille","lat":43.292023,"lon":5.393338,"is_reserved":false,"is_disabled":false,"rental_uris":{"android":"levelo://app?vid=d630238b-e434-4009-a114-1268aae217f8","ios":"levelo://app?vid=d630238b-e434-4009-a114-1268aae217f8"},"vehicle_type_id":"4","last_reported":1740424010,"current_range_meters":12800,"station_id":"ce4bh192rcd13ifvqdd0","pricing_plan_id":"cebpf4jnsgd1na2vs0mg"},{"bike_id":"ef18fbd6-85fe-4257-aaef-cd0fcf515452","system_id":"levelo_inurba_marseille","lat":43.30317,"lon":5.40448,"is_reserved":false,"is_disabled":false,"rental_uris":{"android":"levelo://app?vid=ef18fbd6-85fe-4257-aaef-cd0fcf515452","ios":"levelo://app?vid=ef18fbd6-85fe-4257-aaef-cd0fcf515452"},"vehicle_type_id":"4","last_reported":1740424010,"current_range_meters":12800,"station_id":"ce4bh012rcd13ifvqd10","pricing_plan_id":"cebpf4jnsgd1na2vs0mg"},{"bike_id":"3fc75de2-3def-4a7c-b0c2-670a2cfd0e3b","system_id":"levelo_inurba_marseille","lat":43.29203,"lon":5.39332,"is_reserved":false,"is_disabled":false,"rental_uris":{"android":"levelo://app?vid=3fc75de2-3def-4a7c-b0c2-670a2cfd0e3b","ios":"levelo://app?vid=3fc75de2-3def-4a7c-b0c2-670a2cfd0e3b"},"vehicle_type_id":"4","last_reported":1740424010,"current_range_meters":12800,"station_id":"ce4bh192rcd13ifvqdd0","pricing_plan_id":"cebpf4jnsgd1na2vs0mg"},{"bike_id":"7333f5f0-71fa-4cf2-9e94-a5d02574b956","system_id":"levelo_inurba_marseille","lat":43.28351,"lon":5.38641,"is_reserved":false,"is_disabled":false,"rental_uris":{"android":"levelo://app?vid=7333f5f0-71fa-4cf2-9e94-a5d02574b956","ios":"levelo://app?vid=7333f5f0-71fa-4cf2-9e94-a5d02574b956"},"vehicle_type_id":"4","last_reported":1740424010,"current_range_meters":13600,"station_id":"ce4bh492rcd13ifvqdvg","pricing_plan_id":"cebpf4jnsgd1na2vs0mg"},{"bike_id":"013af919-78c7-48ab-b9b1-94c172ecbaea","system_id":"levelo_inurba_marseille","lat":43.3089,"lon":5.39655,"is_reserved":false,"is_disabled":false,"rental_uris":{"android":"levelo://app?vid=013af919-78c7-48ab-b9b1-94c172ecbaea","ios":"levelo://app?vid=013af919-78c7-48ab-b9b1-94c172ecbaea"},"vehicle_type_id":"4","last_reported":1740424010,"current_range_meters":13600,"station_id":"ce4bh012rcd13ifvqcv0","pricing_plan_id":"cebpf4jnsgd1na2vs0mg"},{"bike_id":"0d86b6de-ddbd-4bbb-9bf1-ef0af2e74c96","system_id":"levelo_inurba_marseille","lat":43.26812,"lon":5.40271,"is_reserved":false,"is_disabled":false,"rental_uris":{"android":"levelo://app?vid=0d86b6de-ddbd-4bbb-9bf1-ef0af2e74c96","ios":"levelo://app?vid=0d86b6de-ddbd-4bbb-9bf1-ef0af2e74c96"},"vehicle_type_id":"4","last_reported":1740424010,"current_range_meters":12800,"station_id":"ce501612rcd8frsf0b60","pricing_plan_id":"cebpf4jnsgd1na2vs0mg"},{"bike_id":"674cb057-5d42-4512-ae8c-448c1f63016b","system_id":"levelo_inurba_marseille","lat":43.30362,"lon":5.39443,"is_reserved":false,"is_disabled":false,"rental_uris":{"android":"levelo://app?vid=674cb057-5d42-4512-ae8c-448c1f63016b","ios":"levelo://app?vid=674cb057-5d42-4512-ae8c-448c1f63016b"},"vehicle_type_id":"4","last_reported":1740424010,"current_range_meters":13600,"station_id":"","pricing_plan_id":"cebpf4jnsgd1na2vs0mg"},{"bike_id":"c32c82fc-a4f0-4b76-a371-bf7e965ae411","system_id":"levelo_inurba_marseille","lat":43.30299,"lon":5.39222,"is_reserved":false,"is_disabled":false,"rental_uris":{"android":"levelo://app?vid=c32c82fc-a4f0-4b76-a371-bf7e965ae411","ios":"levelo://app?vid=c32c82fc-a4f0-4b76-a371-bf7e965ae411"},"vehicle_type_id":"4","last_reported":1740424010,"current_range_meters":13600,"station_id":"ce4bgkh2rcd13ifvqbk0","pricing_plan_id":"cebpf4jnsgd1na2vs0mg"},{"bike_id":"f4629c6e-36fc-402c-93ca-7566da9b882d","system_id":"levelo_inurba_marseille","lat":43.27812,"lon":5.40711,"is_reserved":false,"is_disabled":false,"rental_uris":{"android":"levelo://app?vid=f4629c6e-36fc-402c-93ca-7566da9b882d","ios":"levelo://app?vid=f4629c6e-36fc-402c-93ca-7566da9b882d"},"vehicle_type_id":"4","last_reported":1740424010,"current_range_meters":12800,"station_id":"ce4bhnh2rcd13ifvqgtg","pricing_plan_id":"cebpf4jnsgd1na2vs0mg"},{"bike_id":"93d8a6f5-5d78-4f75-9db0-83f3cf70dd85","system_id":"levelo_inurba_marseille","lat":43.287006,"lon":5.399953,"is_reserved":false,"is_disabled":false,"rental_uris":{"android":"levelo://app?vid=93d8a6f5-5d78-4f75-9db0-83f3cf70dd85","ios":"levelo://app?vid=93d8a6f5-5d78-4f75-9db0-83f3cf70dd85"},"vehicle_type_id":"4","last_reported":1740424010,"current_range_meters":14000,"station_id":"ce4bh392rcd13ifvqdm0","pricing_plan_id":"cebpf4jnsgd1na2vs0mg"},{"bike_id":"130ab319-f673-4e36-9717-343d196c6cce","system_id":"levelo_inurba_marseille","lat":43.23194,"lon":5.3998,"is_reserved":false,"is_disabled":false,"rental_uris":{"android":"levelo://app?vid=130ab319-f673-4e36-9717-343d196c6cce","ios":"levelo://app?vid=130ab319-f673-4e36-9717-343d196c6cce"},"vehicle_type_id":"4","last_reported":1740424010,"current_range_meters":13600,"station_id":"ce4bhn12rcd13ifvqgqg","pricing_plan_id":"cebpf4jnsgd1na2vs0mg"},{"bike_id":"9c07b070-3acf-4a2e-adac-8ae2a2de799a","system_id":"levelo_inurba_marseille","lat":43.28366,"lon":5.38626,"is_reserved":false,"is_disabled":false,"rental_uris":{"android":"levelo://app?vid=9c07b070-3acf-4a2e-adac-8ae2a2de799a","ios":"levelo://app?vid=9c07b070-3acf-4a2e-adac-8ae2a2de799a"},"vehicle_type_id":"4","last_reported":1740424010,"current_range_meters":13600,"station_id":"ce4bh492rcd13ifvqdvg","pricing_plan_id":"cebpf4jnsgd1na2vs0mg"},{"bike_id":"d90fc6d7-871e-4fc4-950b-c963063affa1","system_id":"levelo_inurba_marseille","lat":43.25107,"lon":5.39613,"is_reserved":false,"is_disabled":false,"rental_uris":{"android":"levelo://app?vid=d90fc6d7-871e-4fc4-950b-c963063affa1","ios":"levelo://app?vid=d90fc6d7-871e-4fc4-950b-c963063affa1"},"vehicle_type_id":"4","last_reported":1740424010,"current_range_meters":13600,"station_id":"ce4bhm12rcd13ifvqgkg","pricing_plan_id":"cebpf4jnsgd1na2vs0mg"},{"bike_id":"474602bc-c50d-42bd-bb2a-f5c9602c8ee8","system_id":"levelo_inurba_marseille","lat":43.33014,"lon":5.39124,"is_reserved":false,"is_disabled":false,"rental_uris":{"android":"levelo://app?vid=474602bc-c50d-42bd-bb2a-f5c9602c8ee8","ios":"levelo://app?vid=474602bc-c50d-42bd-bb2a-f5c9602c8ee8"},"vehicle_type_id":"4","last_reported":1740424010,"current_range_meters":13600,"station_id":"ce4bhr92rcd13ifvqhrg","pricing_plan_id":"cebpf4jnsgd1na2vs0mg"},{"bike_id":"4536875f-604a-454e-9383-c4f436e97a01","system_id":"levelo_inurba_marseille","lat":43.2807,"lon":5.39636,"is_reserved":false,"is_disabled":false,"rental_uris":{"android":"levelo://app?vid=4536875f-604a-454e-9383-c4f436e97a01","ios":"levelo://app?vid=4536875f-604a-454e-9383-c4f436e97a01"},"vehicle_type_id":"4","last_reported":1740424010,"current_range_meters":13600,"station_id":"ce4bho12rcd13ifvqh2g","pricing_plan_id":"cebpf4jnsgd1na2vs0mg"},{"bike_id":"a7a5bcf1-fc09-4cde-a07d-b7b57a282bf8","system_id":"levelo_inurba_marseille","lat":43.30118,"lon":5.39836,"is_reserved":false,"is_disabled":false,"rental_uris":{"android":"levelo://app?vid=a7a5bcf1-fc09-4cde-a07d-b7b57a282bf8","ios":"levelo://app?vid=a7a5bcf1-fc09-4cde-a07d-b7b57a282bf8"},"vehicle_type_id":"4","last_reported":1740424010,"current_range_meters":12800,"station_id":"ce4bh0h2rcd13ifvqd40","pricing_plan_id":"cebpf4jnsgd1na2vs0mg"},{"bike_id":"0925f24b-2455-4aaa-be34-c0c9549ae6f3","system_id":"levelo_inurba_marseille","lat":43.29041,"lon":5.38651,"is_reserved":false,"is_disabled":false,"rental_uris":{"android":"levelo://app?vid=0925f24b-2455-4aaa-be34-c0c9549ae6f3","ios":"levelo://app?vid=0925f24b-2455-4aaa-be34-c0c9549ae6f3"},"vehicle_type_id":"4","last_reported":1740424010,"current_range_meters":13600,"station_id":"ce4bh4p2rcd13ifvqe0g","pricing_plan_id":"cebpf4jnsgd1na2vs0mg"},{"bike_id":"59b0c508-0cc9-4c03-b660-99ca59eb3b43","system_id":"levelo_inurba_marseille","lat":43.2997,"lon":5.38483,"is_reserved":false,"is_disabled":false,"rental_uris":{"android":"levelo://app?vid=59b0c508-0cc9-4c03-b660-99ca59eb3b43","ios":"levelo://app?vid=59b0c508-0cc9-4c03-b660-99ca59eb3b43"},"vehicle_type_id":"4","last_reported":1740424010,"current_range_meters":14000,"station_id":"ce4bgj92rcd13ifvqbd0","pricing_plan_id":"cebpf4jnsgd1na2vs0mg"},{"bike_id":"d9539a63-7677-4fd2-a172-046d356a2529","system_id":"levelo_inurba_marseille","lat":43.29989,"lon":5.3718,"is_reserved":false,"is_disabled":false,"rental_uris":{"android":"levelo://app?vid=d9539a63-7677-4fd2-a172-046d356a2529","ios":"levelo://app?vid=d9539a63-7677-4fd2-a172-046d356a2529"},"vehicle_type_id":"4","last_reported":1740424010,"current_range_meters":14400,"station_id":"ce4bgr92rcd13ifvqc7g","pricing_plan_id":"cebpf4jnsgd1na2vs0mg"},{"bike_id":"ce37476d-88a8-4f83-9893-e3f4fffefa17","system_id":"levelo_inurba_marseille","lat":43.29878,"lon":5.38903,"is_reserved":false,"is_disabled":false,"rental_uris":{"android":"levelo://app?vid=ce37476d-88a8-4f83-9893-e3f4fffefa17","ios":"levelo://app?vid=ce37476d-88a8-4f83-9893-e3f4fffefa17"},"vehicle_type_id":"4","last_reported":1740424010,"current_range_meters":14400,"station_id":"ce4bh392rcd13ifvqdl0","pricing_plan_id":"cebpf4jnsgd1na2vs0mg"},{"bike_id":"f5ec24a1-0342-434f-8e14-a1205d807f2c","system_id":"levelo_inurba_marseille","lat":43.28484,"lon":5.38432,"is_reserved":false,"is_disabled":false,"rental_uris":{"android":"levelo://app?vid=f5ec24a1-0342-434f-8e14-a1205d807f2c","ios":"levelo://app?vid=f5ec24a1-0342-434f-8e14-a1205d807f2c"},"vehicle_type_id":"4","last_reported":1740424010,"current_range_meters":14400,"station_id":"ce4bh512rcd13ifvqe3g","pricing_plan_id":"cebpf4jnsgd1na2vs0mg"},{"bike_id":"e5c275a2-a964-47d8-9489-ed1126cf4cef","system_id":"levelo_inurba_marseille","lat":43.29625,"lon":5.37924,"is_reserved":false,"is_disabled":false,"rental_uris":{"android":"levelo://app?vid=e5c275a2-a964-47d8-9489-ed1126cf4cef","ios":"levelo://app?vid=e5c275a2-a964-47d8-9489-ed1126cf4cef"},"vehicle_type_id":"4","last_reported":1740424010,"current_range_meters":14400,"station_id":"","pricing_plan_id":"cebpf4jnsgd1na2vs0mg"},{"bike_id":"d2610799-3b25-4010-8a8a-a9ba4108f5fb","system_id":"levelo_inurba_marseille","lat":43.25014,"lon":5.38933,"is_reserved":false,"is_disabled":false,"rental_uris":{"android":"levelo://app?vid=d2610799-3b25-4010-8a8a-a9ba4108f5fb","ios":"levelo://app?vid=d2610799-3b25-4010-8a8a-a9ba4108f5fb"},"vehicle_type_id":"4","last_reported":1740424010,"current_range_meters":14800,"station_id":"ce4bhgp2rcd13ifvqfd0","pricing_plan_id":"cebpf4jnsgd1na2vs0mg"},{"bike_id":"f1c74a2e-2515-435d-9056-f69bc6e1e1a0","system_id":"levelo_inurba_marseille","lat":43.28934,"lon":5.36637,"is_reserved":false,"is_disabled":false,"rental_uris":{"android":"levelo://app?vid=f1c74a2e-2515-435d-9056-f69bc6e1e1a0","ios":"levelo://app?vid=f1c74a2e-2515-435d-9056-f69bc6e1e1a0"},"vehicle_type_id":"4","last_reported":1740424010,"current_range_meters":11200,"station_id":"ce4bhap2rcd13ifvqek0","pricing_plan_id":"cebpf4jnsgd1na2vs0mg"},{"bike_id":"a9f238df-8d0d-4ea2-9e32-72272684dc3f","system_id":"levelo_inurba_marseille","lat":43.32368,"lon":5.38891,"is_reserved":false,"is_disabled":false,"rental_uris":{"android":"levelo://app?vid=a9f238df-8d0d-4ea2-9e32-72272684dc3f","ios":"levelo://app?vid=a9f238df-8d0d-4ea2-9e32-72272684dc3f"},"vehicle_type_id":"4","last_reported":1740424010,"current_range_meters":14400,"station_id":"ce4bhqp2rcd13ifvqhog","pricing_plan_id":"cebpf4jnsgd1na2vs0mg"},{"bike_id":"7ebf91f5-a3c3-42a0-8339-bfa27ae50e1a","system_id":"levelo_inurba_marseille","lat":43.28705,"lon":5.37381,"is_reserved":false,"is_disabled":false,"rental_uris":{"android":"levelo://app?vid=7ebf91f5-a3c3-42a0-8339-bfa27ae50e1a","ios":"levelo://app?vid=7ebf91f5-a3c3-42a0-8339-bfa27ae50e1a"},"vehicle_type_id":"4","last_reported":1740424010,"current_range_meters":14400,"station_id":"","pricing_plan_id":"cebpf4jnsgd1na2vs0mg"},{"bike_id":"79a84db2-6c90-46e6-b4ed-170540e92e6c","system_id":"levelo_inurba_marseille","lat":43.2984,"lon":5.36266,"is_reserved":false,"is_disabled":false,"rental_uris":{"android":"levelo://app?vid=79a84db2-6c90-46e6-b4ed-170540e92e6c","ios":"levelo://app?vid=79a84db2-6c90-46e6-b4ed-170540e92e6c"},"vehicle_type_id":"4","last_reported":1740424010,"current_range_meters":14400,"station_id":"ce4bgpp2rcd13ifvqc3g","pricing_plan_id":"cebpf4jnsgd1na2vs0mg"},{"bike_id":"48cd24b6-6d9d-440b-9450-0fec3fc9894e","system_id":"levelo_inurba_marseille","lat":43.28855,"lon":5.35855,"is_reserved":false,"is_disabled":false,"rental_uris":{"android":"levelo://app?vid=48cd24b6-6d9d-440b-9450-0fec3fc9894e","ios":"levelo://app?vid=48cd24b6-6d9d-440b-9450-0fec3fc9894e"},"vehicle_type_id":"4","last_reported":1740424010,"current_range_meters":14800,"station_id":"ce4bhb12rcd13ifvqem0","pricing_plan_id":"cebpf4jnsgd1na2vs0mg"},{"bike_id":"4fc00959-4066-4aac-944c-0a76bbb1262c","system_id":"levelo_inurba_marseille","lat":43.29384,"lon":5.4009,"is_reserved":false,"is_disabled":false,"rental_uris":{"android":"levelo://app?vid=4fc00959-4066-4aac-944c-0a76bbb1262c","ios":"levelo://app?vid=4fc00959-4066-4aac-944c-0a76bbb1262c"},"vehicle_type_id":"4","last_reported":1740424010,"current_range_meters":14800,"station_id":"ce4bh292rcd13ifvqdf0","pricing_plan_id":"cebpf4jnsgd1na2vs0mg"},{"bike_id":"763a38cd-b50b-4187-a9a7-e0318d9aae60","system_id":"levelo_inurba_marseille","lat":43.25003,"lon":5.38919,"is_reserved":false,"is_disabled":false,"rental_uris":{"android":"levelo://app?vid=763a38cd-b50b-4187-a9a7-e0318d9aae60","ios":"levelo://app?vid=763a38cd-b50b-4187-a9a7-e0318d9aae60"},"vehicle_type_id":"4","last_reported":1740424010,"current_range_meters":15200,"station_id":"ce4bhgp2rcd13ifvqfd0","pricing_plan_id":"cebpf4jnsgd1na2vs0mg"},{"bike_id":"0ba7beb2-bd69-4c76-b51f-5d6b0f428287","system_id":"levelo_inurba_marseille","lat":43.283497,"lon":5.381094,"is_reserved":false,"is_disabled":false,"rental_uris":{"android":"levelo://app?vid=0ba7beb2-bd69-4c76-b51f-5d6b0f428287","ios":"levelo://app?vid=0ba7beb2-bd69-4c76-b51f-5d6b0f428287"},"vehicle_type_id":"4","last_reported":1740424010,"current_range_meters":14800,"station_id":"ce4bh412rcd13ifvqdr0","pricing_plan_id":"cebpf4jnsgd1na2vs0mg"},{"bike_id":"a2d8ea4e-4036-4515-9af1-5dd302c7e6d5","system_id":"levelo_inurba_marseille","lat":43.2841,"lon":5.37503,"is_reserved":false,"is_disabled":false,"rental_uris":{"android":"levelo://app?vid=a2d8ea4e-4036-4515-9af1-5dd302c7e6d5","ios":"levelo://app?vid=a2d8ea4e-4036-4515-9af1-5dd302c7e6d5"},"vehicle_type_id":"4","last_reported":1740424010,"current_range_meters":15200,"station_id":"ce4bh412rcd13ifvqds0","pricing_plan_id":"cebpf4jnsgd1na2vs0mg"},{"bike_id":"760eb658-016e-422a-925a-e97810424e09","system_id":"levelo_inurba_marseille","lat":43.2794,"lon":5.41042,"is_reserved":false,"is_disabled":false,"rental_uris":{"android":"levelo://app?vid=760eb658-016e-422a-925a-e97810424e09","ios":"levelo://app?vid=760eb658-016e-422a-925a-e97810424e09"},"vehicle_type_id":"4","last_reported":1740424010,"current_range_meters":15200,"station_id":"ce4bhnp2rcd13ifvqh0g","pricing_plan_id":"cebpf4jnsgd1na2vs0mg"},{"bike_id":"6f9eb619-ce1a-440a-9085-673242f78425","system_id":"levelo_inurba_marseille","lat":43.29496,"lon":5.37529,"is_reserved":false,"is_disabled":true,"rental_uris":{"android":"levelo://app?vid=6f9eb619-ce1a-440a-9085-673242f78425","ios":"levelo://app?vid=6f9eb619-ce1a-440a-9085-673242f78425"},"vehicle_type_id":"4","last_reported":1740424010,"current_range_meters":16000,"station_id":"","pricing_plan_id":"cebpf4jnsgd1na2vs0mg"},{"bike_id":"c089c19a-9e3a-4f5f-8b9c-a99d357a37fa","system_id":"levelo_inurba_marseille","lat":43.29511,"lon":5.39399,"is_reserved":false,"is_disabled":false,"rental_uris":{"android":"levelo://app?vid=c089c19a-9e3a-4f5f-8b9c-a99d357a37fa","ios":"levelo://app?vid=c089c19a-9e3a-4f5f-8b9c-a99d357a37fa"},"vehicle_type_id":"4","last_reported":1740424010,"current_range_meters":16400,"station_id":"ce4bh292rcd13ifvqdf0","pricing_plan_id":"cebpf4jnsgd1na2vs0mg"},{"bike_id":"03c502df-c0d3-4ad7-b038-d3923b426e2e","system_id":"levelo_inurba_marseille","lat":43.29414,"lon":5.3859,"is_reserved":false,"is_disabled":true,"rental_uris":{"android":"levelo://app?vid=03c502df-c0d3-4ad7-b038-d3923b426e2e","ios":"levelo://app?vid=03c502df-c0d3-4ad7-b038-d3923b426e2e"},"vehicle_type_id":"4","last_reported":1740424010,"current_range_meters":16000,"station_id":"ce4bh2h2rcd13ifvqdh0","pricing_plan_id":"cebpf4jnsgd1na2vs0mg"},{"bike_id":"d34538b8-2f35-4994-b4c2-333707080028","system_id":"levelo_inurba_marseille","lat":43.29194,"lon":5.39314,"is_reserved":false,"is_disabled":false,"rental_uris":{"android":"levelo://app?vid=d34538b8-2f35-4994-b4c2-333707080028","ios":"levelo://app?vid=d34538b8-2f35-4994-b4c2-333707080028"},"vehicle_type_id":"4","last_reported":1740424010,"current_range_meters":16000,"station_id":"ce4bh192rcd13ifvqdd0","pricing_plan_id":"cebpf4jnsgd1na2vs0mg"},{"bike_id":"b1e68bfa-e0ad-4a40-b063-e1ce6dcea5ff","system_id":"levelo_inurba_marseille","lat":43.28961,"lon":5.3642,"is_reserved":false,"is_disabled":false,"rental_uris":{"android":"levelo://app?vid=b1e68bfa-e0ad-4a40-b063-e1ce6dcea5ff","ios":"levelo://app?vid=b1e68bfa-e0ad-4a40-b063-e1ce6dcea5ff"},"vehicle_type_id":"4","last_reported":1740424010,"current_range_meters":12400,"station_id":"ce4bhc92rcd13ifvqetg","pricing_plan_id":"cebpf4jnsgd1na2vs0mg"},{"bike_id":"4e3d95db-b14e-4d03-8d1e-d28aadd835b3","system_id":"levelo_inurba_marseille","lat":43.28083,"lon":5.39665,"is_reserved":false,"is_disabled":false,"rental_uris":{"android":"levelo://app?vid=4e3d95db-b14e-4d03-8d1e-d28aadd835b3","ios":"levelo://app?vid=4e3d95db-b14e-4d03-8d1e-d28aadd835b3"},"vehicle_type_id":"4","last_reported":1740424010,"current_range_meters":16000,"station_id":"ce4bho12rcd13ifvqh2g","pricing_plan_id":"cebpf4jnsgd1na2vs0mg"},{"bike_id":"5435865c-3120-44b2-a6c3-b3611ddd99d3","system_id":"levelo_inurba_marseille","lat":43.32368,"lon":5.38882,"is_reserved":false,"is_disabled":false,"rental_uris":{"android":"levelo://app?vid=5435865c-3120-44b2-a6c3-b3611ddd99d3","ios":"levelo://app?vid=5435865c-3120-44b2-a6c3-b3611ddd99d3"},"vehicle_type_id":"4","last_reported":1740424010,"current_range_meters":16000,"station_id":"ce4bhqp2rcd13ifvqhog","pricing_plan_id":"cebpf4jnsgd1na2vs0mg"},{"bike_id":"210d5388-34ba-40b7-b56a-1d8e212d202e","system_id":"levelo_inurba_marseille","lat":43.30255,"lon":5.40077,"is_reserved":false,"is_disabled":false,"rental_uris":{"android":"levelo://app?vid=210d5388-34ba-40b7-b56a-1d8e212d202e","ios":"levelo://app?vid=210d5388-34ba-40b7-b56a-1d8e212d202e"},"vehicle_type_id":"4","last_reported":1740424010,"current_range_meters":15200,"station_id":"ce4bgvh2rcd13ifvqcs0","pricing_plan_id":"cebpf4jnsgd1na2vs0mg"},{"bike_id":"2d3c325b-7c61-4df0-8ae1-85c5a9546c63","system_id":"levelo_inurba_marseille","lat":43.29974,"lon":5.3849,"is_reserved":false,"is_disabled":false,"rental_uris":{"android":"levelo://app?vid=2d3c325b-7c61-4df0-8ae1-85c5a9546c63","ios":"levelo://app?vid=2d3c325b-7c61-4df0-8ae1-85c5a9546c63"},"vehicle_type_id":"4","last_reported":1740424010,"current_range_meters":15200,"station_id":"ce4bgj92rcd13ifvqbd0","pricing_plan_id":"cebpf4jnsgd1na2vs0mg"},{"bike_id":"d138a461-3692-438c-aa9e-f46d4dedee6d","system_id":"levelo_inurba_marseille","lat":43.25089,"lon":5.39518,"is_reserved":false,"is_disabled":false,"rental_uris":{"android":"levelo://app?vid=d138a461-3692-438c-aa9e-f46d4dedee6d","ios":"levelo://app?vid=d138a461-3692-438c-aa9e-f46d4dedee6d"},"vehicle_type_id":"4","last_reported":1740424010,"current_range_meters":16400,"station_id":"ce4bhm12rcd13ifvqgkg","pricing_plan_id":"cebpf4jnsgd1na2vs0mg"},{"bike_id":"bfa9685d-08c6-470b-9281-df9fdec5f34c","system_id":"levelo_inurba_marseille","lat":43.28425,"lon":5.34977,"is_reserved":false,"is_disabled":false,"rental_uris":{"android":"levelo://app?vid=bfa9685d-08c6-470b-9281-df9fdec5f34c","ios":"levelo://app?vid=bfa9685d-08c6-470b-9281-df9fdec5f34c"},"vehicle_type_id":"4","last_reported":1740424010,"current_range_meters":16400,"station_id":"ce4bhbh2rcd13ifvqepg","pricing_plan_id":"cebpf4jnsgd1na2vs0mg"},{"bike_id":"de54b84e-d754-4cf9-97ed-7d6cd44576a6","system_id":"levelo_inurba_marseille","lat":43.278162,"lon":5.407104,"is_reserved":false,"is_disabled":false,"rental_uris":{"android":"levelo://app?vid=de54b84e-d754-4cf9-97ed-7d6cd44576a6","ios":"levelo://app?vid=de54b84e-d754-4cf9-97ed-7d6cd44576a6"},"vehicle_type_id":"4","last_reported":1740424010,"current_range_meters":16400,"station_id":"ce4bhnh2rcd13ifvqgtg","pricing_plan_id":"cebpf4jnsgd1na2vs0mg"},{"bike_id":"05f51bd6-bf8c-4b6c-ba2f-d7bf7cec3006","system_id":"levelo_inurba_marseille","lat":43.23195,"lon":5.35563,"is_reserved":false,"is_disabled":false,"rental_uris":{"android":"levelo://app?vid=05f51bd6-bf8c-4b6c-ba2f-d7bf7cec3006","ios":"levelo://app?vid=05f51bd6-bf8c-4b6c-ba2f-d7bf7cec3006"},"vehicle_type_id":"4","last_reported":1740424010,"current_range_meters":16400,"station_id":"ce4bhu92rcd13ifvqi70","pricing_plan_id":"cebpf4jnsgd1na2vs0mg"},{"bike_id":"d3ef24d2-ff42-47b2-a4ec-98e31d44b916","system_id":"levelo_inurba_marseille","lat":43.2847,"lon":5.3841,"is_reserved":false,"is_disabled":false,"rental_uris":{"android":"levelo://app?vid=d3ef24d2-ff42-47b2-a4ec-98e31d44b916","ios":"levelo://app?vid=d3ef24d2-ff42-47b2-a4ec-98e31d44b916"},"vehicle_type_id":"4","last_reported":1740424010,"current_range_meters":16400,"station_id":"ce4bh512rcd13ifvqe3g","pricing_plan_id":"cebpf4jnsgd1na2vs0mg"},{"bike_id":"b41bb9d1-76af-41c5-a12b-e55d8890bd25","system_id":"levelo_inurba_marseille","lat":43.29969,"lon":5.38489,"is_reserved":false,"is_disabled":false,"rental_uris":{"android":"levelo://app?vid=b41bb9d1-76af-41c5-a12b-e55d8890bd25","ios":"levelo://app?vid=b41bb9d1-76af-41c5-a12b-e55d8890bd25"},"vehicle_type_id":"4","last_reported":1740424010,"current_range_meters":14400,"station_id":"ce4bgj92rcd13ifvqbd0","pricing_plan_id":"cebpf4jnsgd1na2vs0mg"},{"bike_id":"27df2c47-30b9-42a1-a17f-d05f9ce10835","system_id":"levelo_inurba_marseille","lat":43.28436,"lon":5.37515,"is_reserved":false,"is_disabled":false,"rental_uris":{"android":"levelo://app?vid=27df2c47-30b9-42a1-a17f-d05f9ce10835","ios":"levelo://app?vid=27df2c47-30b9-42a1-a17f-d05f9ce10835"},"vehicle_type_id":"4","last_reported":1740424010,"current_range_meters":17200,"station_id":"ce4bh412rcd13ifvqds0","pricing_plan_id":"cebpf4jnsgd1na2vs0mg"},{"bike_id":"ea96d41c-01a9-440f-9def-3e243141c897","system_id":"levelo_inurba_marseille","lat":43.29895,"lon":5.39783,"is_reserved":false,"is_disabled":false,"rental_uris":{"android":"levelo://app?vid=ea96d41c-01a9-440f-9def-3e243141c897","ios":"levelo://app?vid=ea96d41c-01a9-440f-9def-3e243141c897"},"vehicle_type_id":"4","last_reported":1740424010,"current_range_meters":16800,"station_id":"","pricing_plan_id":"cebpf4jnsgd1na2vs0mg"},{"bike_id":"1c2f3bdc-68fa-40a8-b99e-fcf41f32f9e4","system_id":"levelo_inurba_marseille","lat":43.29217,"lon":5.40532,"is_reserved":false,"is_disabled":false,"rental_uris":{"android":"levelo://app?vid=1c2f3bdc-68fa-40a8-b99e-fcf41f32f9e4","ios":"levelo://app?vid=1c2f3bdc-68fa-40a8-b99e-fcf41f32f9e4"},"vehicle_type_id":"4","last_reported":1740424010,"current_range_meters":16800,"station_id":"","pricing_plan_id":"cebpf4jnsgd1na2vs0mg"},{"bike_id":"c9a1858d-786d-4197-a639-046d237805f3","system_id":"levelo_inurba_marseille","lat":43.28408,"lon":5.37509,"is_reserved":false,"is_disabled":false,"rental_uris":{"android":"levelo://app?vid=c9a1858d-786d-4197-a639-046d237805f3","ios":"levelo://app?vid=c9a1858d-786d-4197-a639-046d237805f3"},"vehicle_type_id":"4","last_reported":1740424010,"current_range_meters":16800,"station_id":"ce4bh412rcd13ifvqds0","pricing_plan_id":"cebpf4jnsgd1na2vs0mg"},{"bike_id":"8514fc45-931a-4d33-8ebd-119ca23a33dc","system_id":"levelo_inurba_marseille","lat":43.27821,"lon":5.4072,"is_reserved":false,"is_disabled":false,"rental_uris":{"android":"levelo://app?vid=8514fc45-931a-4d33-8ebd-119ca23a33dc","ios":"levelo://app?vid=8514fc45-931a-4d33-8ebd-119ca23a33dc"},"vehicle_type_id":"4","last_reported":1740424010,"current_range_meters":16800,"station_id":"ce4bhnh2rcd13ifvqgtg","pricing_plan_id":"cebpf4jnsgd1na2vs0mg"},{"bike_id":"0bb16d31-e003-4668-b275-a4cfc52c0aba","system_id":"levelo_inurba_marseille","lat":43.25731,"lon":5.41106,"is_reserved":false,"is_disabled":false,"rental_uris":{"android":"levelo://app?vid=0bb16d31-e003-4668-b275-a4cfc52c0aba","ios":"levelo://app?vid=0bb16d31-e003-4668-b275-a4cfc52c0aba"},"vehicle_type_id":"4","last_reported":1740424010,"current_range_meters":16400,"station_id":"ce4bhkp2rcd13ifvqgd0","pricing_plan_id":"cebpf4jnsgd1na2vs0mg"},{"bike_id":"84152c35-a6a7-450e-86ee-13c122e9eeec","system_id":"levelo_inurba_marseille","lat":43.298708,"lon":5.397352,"is_reserved":false,"is_disabled":false,"rental_uris":{"android":"levelo://app?vid=84152c35-a6a7-450e-86ee-13c122e9eeec","ios":"levelo://app?vid=84152c35-a6a7-450e-86ee-13c122e9eeec"},"vehicle_type_id":"4","last_reported":1740424010,"current_range_meters":17200,"station_id":"ce4bhb12rcd13ifvqel0","pricing_plan_id":"cebpf4jnsgd1na2vs0mg"},{"bike_id":"e9450d61-7e12-49ac-9e64-6fdcd904c3ba","system_id":"levelo_inurba_marseille","lat":43.30318,"lon":5.36914,"is_reserved":false,"is_disabled":false,"rental_uris":{"android":"levelo://app?vid=e9450d61-7e12-49ac-9e64-6fdcd904c3ba","ios":"levelo://app?vid=e9450d61-7e12-49ac-9e64-6fdcd904c3ba"},"vehicle_type_id":"4","last_reported":1740424010,"current_range_meters":17200,"station_id":"ce4bgqh2rcd13ifvqc5g","pricing_plan_id":"cebpf4jnsgd1na2vs0mg"},{"bike_id":"9062f7b6-9c81-49b8-a1bd-5df58202afcd","system_id":"levelo_inurba_marseille","lat":43.317097,"lon":5.437147,"is_reserved":false,"is_disabled":false,"rental_uris":{"android":"levelo://app?vid=9062f7b6-9c81-49b8-a1bd-5df58202afcd","ios":"levelo://app?vid=9062f7b6-9c81-49b8-a1bd-5df58202afcd"},"vehicle_type_id":"4","last_reported":1740424010,"current_range_meters":17200,"station_id":"ce4bhp92rcd13ifvqhcg","pricing_plan_id":"cebpf4jnsgd1na2vs0mg"},{"bike_id":"3f89e495-3275-4079-8dc4-5ae95b75f822","system_id":"levelo_inurba_marseille","lat":43.28106,"lon":5.37833,"is_reserved":false,"is_disabled":true,"rental_uris":{"android":"levelo://app?vid=3f89e495-3275-4079-8dc4-5ae95b75f822","ios":"levelo://app?vid=3f89e495-3275-4079-8dc4-5ae95b75f822"},"vehicle_type_id":"4","last_reported":1740424010,"current_range_meters":17600,"station_id":"ce4bha12rcd13ifvqee0","pricing_plan_id":"cebpf4jnsgd1na2vs0mg"},{"bike_id":"02d5ce1a-922f-4ad2-95aa-9f96f248121d","system_id":"levelo_inurba_marseille","lat":43.241818,"lon":5.397269,"is_reserved":false,"is_disabled":false,"rental_uris":{"android":"levelo://app?vid=02d5ce1a-922f-4ad2-95aa-9f96f248121d","ios":"levelo://app?vid=02d5ce1a-922f-4ad2-95aa-9f96f248121d"},"vehicle_type_id":"4","last_reported":1740424010,"current_range_meters":17600,"station_id":"ce4bhn12rcd13ifvqgpg","pricing_plan_id":"cebpf4jnsgd1na2vs0mg"},{"bike_id":"1e07fd76-54c9-4e64-a580-72f2d404be22","system_id":"levelo_inurba_marseille","lat":43.30242,"lon":5.40062,"is_reserved":false,"is_disabled":false,"rental_uris":{"android":"levelo://app?vid=1e07fd76-54c9-4e64-a580-72f2d404be22","ios":"levelo://app?vid=1e07fd76-54c9-4e64-a580-72f2d404be22"},"vehicle_type_id":"4","last_reported":1740424010,"current_range_meters":17600,"station_id":"ce4bgvh2rcd13ifvqcs0","pricing_plan_id":"cebpf4jnsgd1na2vs0mg"},{"bike_id":"0f510974-3ca1-446f-b0b3-bb60c6368875","system_id":"levelo_inurba_marseille","lat":43.27998,"lon":5.40027,"is_reserved":false,"is_disabled":false,"rental_uris":{"android":"levelo://app?vid=0f510974-3ca1-446f-b0b3-bb60c6368875","ios":"levelo://app?vid=0f510974-3ca1-446f-b0b3-bb60c6368875"},"vehicle_type_id":"4","last_reported":1740424010,"current_range_meters":17200,"station_id":"ce4bho92rcd13ifvqh4g","pricing_plan_id":"cebpf4jnsgd1na2vs0mg"},{"bike_id":"c3a23886-1bd6-435a-ae2b-b6c4b0d57224","system_id":"levelo_inurba_marseille","lat":43.26209,"lon":5.37925,"is_reserved":false,"is_disabled":false,"rental_uris":{"android":"levelo://app?vid=c3a23886-1bd6-435a-ae2b-b6c4b0d57224","ios":"levelo://app?vid=c3a23886-1bd6-435a-ae2b-b6c4b0d57224"},"vehicle_type_id":"4","last_reported":1740424010,"current_range_meters":17200,"station_id":"ce4bhjp2rcd13ifvqg90","pricing_plan_id":"cebpf4jnsgd1na2vs0mg"},{"bike_id":"fb352528-6dce-483c-a4f0-c367df3759b9","system_id":"levelo_inurba_marseille","lat":43.29069,"lon":5.37553,"is_reserved":false,"is_disabled":true,"rental_uris":{"android":"levelo://app?vid=fb352528-6dce-483c-a4f0-c367df3759b9","ios":"levelo://app?vid=fb352528-6dce-483c-a4f0-c367df3759b9"},"vehicle_type_id":"4","last_reported":1740424010,"current_range_meters":17200,"station_id":"ce4bh692rcd13ifvqe90","pricing_plan_id":"cebpf4jnsgd1na2vs0mg"},{"bike_id":"b5192ef7-da86-4959-a49f-112e751d1461","system_id":"levelo_inurba_marseille","lat":43.29288,"lon":5.36846,"is_reserved":false,"is_disabled":false,"rental_uris":{"android":"levelo://app?vid=b5192ef7-da86-4959-a49f-112e751d1461","ios":"levelo://app?vid=b5192ef7-da86-4959-a49f-112e751d1461"},"vehicle_type_id":"4","last_reported":1740424010,"current_range_meters":17600,"station_id":"ce4bhbp2rcd13ifvqesg","pricing_plan_id":"cebpf4jnsgd1na2vs0mg"},{"bike_id":"68179644-dac6-4b72-9ca4-5496e23945a6","system_id":"levelo_inurba_marseille","lat":43.29705,"lon":5.36615,"is_reserved":false,"is_disabled":false,"rental_uris":{"android":"levelo://app?vid=68179644-dac6-4b72-9ca4-5496e23945a6","ios":"levelo://app?vid=68179644-dac6-4b72-9ca4-5496e23945a6"},"vehicle_type_id":"4","last_reported":1740424010,"current_range_meters":18000,"station_id":"ce4bgn12rcd13ifvqbt0","pricing_plan_id":"cebpf4jnsgd1na2vs0mg"},{"bike_id":"46814d2f-dec0-460c-883a-bfd2811fc0e2","system_id":"levelo_inurba_marseille","lat":43.29592,"lon":5.36743,"is_reserved":false,"is_disabled":false,"rental_uris":{"android":"levelo://app?vid=46814d2f-dec0-460c-883a-bfd2811fc0e2","ios":"levelo://app?vid=46814d2f-dec0-460c-883a-bfd2811fc0e2"},"vehicle_type_id":"4","last_reported":1740424010,"current_range_meters":17600,"station_id":"ce4bgph2rcd13ifvqc2g","pricing_plan_id":"cebpf4jnsgd1na2vs0mg"},{"bike_id":"123873b6-0553-4b01-8057-3a4fedeb0171","system_id":"levelo_inurba_marseille","lat":43.25084,"lon":5.39518,"is_reserved":false,"is_disabled":false,"rental_uris":{"android":"levelo://app?vid=123873b6-0553-4b01-8057-3a4fedeb0171","ios":"levelo://app?vid=123873b6-0553-4b01-8057-3a4fedeb0171"},"vehicle_type_id":"4","last_reported":1740424010,"current_range_meters":17600,"station_id":"ce4bhm12rcd13ifvqgkg","pricing_plan_id":"cebpf4jnsgd1na2vs0mg"},{"bike_id":"42c17e99-5f77-49cd-8eed-f81955a89a07","system_id":"levelo_inurba_marseille","lat":43.22932,"lon":5.35382,"is_reserved":false,"is_disabled":false,"rental_uris":{"android":"levelo://app?vid=42c17e99-5f77-49cd-8eed-f81955a89a07","ios":"levelo://app?vid=42c17e99-5f77-49cd-8eed-f81955a89a07"},"vehicle_type_id":"4","last_reported":1740424010,"current_range_meters":17600,"station_id":"cpo3532slgdg3j2ikp40","pricing_plan_id":"cebpf4jnsgd1na2vs0mg"},{"bike_id":"6239f636-804f-46f9-bccd-f6be6568ba35","system_id":"levelo_inurba_marseille","lat":43.25083,"lon":5.39515,"is_reserved":false,"is_disabled":false,"rental_uris":{"android":"levelo://app?vid=6239f636-804f-46f9-bccd-f6be6568ba35","ios":"levelo://app?vid=6239f636-804f-46f9-bccd-f6be6568ba35"},"vehicle_type_id":"4","last_reported":1740424010,"current_range_meters":17600,"station_id":"ce4bhm12rcd13ifvqgkg","pricing_plan_id":"cebpf4jnsgd1na2vs0mg"},{"bike_id":"1e0d0841-04d8-4bdc-b55e-f0a067824e2d","system_id":"levelo_inurba_marseille","lat":43.30905,"lon":5.36849,"is_reserved":false,"is_disabled":false,"rental_uris":{"android":"levelo://app?vid=1e0d0841-04d8-4bdc-b55e-f0a067824e2d","ios":"levelo://app?vid=1e0d0841-04d8-4bdc-b55e-f0a067824e2d"},"vehicle_type_id":"4","last_reported":1740424010,"current_range_meters":18000,"station_id":"ce4bgn92rcd13ifvqbvg","pricing_plan_id":"cebpf4jnsgd1na2vs0mg"},{"bike_id":"46455735-1dab-4610-8eb6-3c16d93ce19b","system_id":"levelo_inurba_marseille","lat":43.27941,"lon":5.41033,"is_reserved":false,"is_disabled":false,"rental_uris":{"android":"levelo://app?vid=46455735-1dab-4610-8eb6-3c16d93ce19b","ios":"levelo://app?vid=46455735-1dab-4610-8eb6-3c16d93ce19b"},"vehicle_type_id":"4","last_reported":1740424010,"current_range_meters":17600,"station_id":"ce4bhnp2rcd13ifvqh0g","pricing_plan_id":"cebpf4jnsgd1na2vs0mg"},{"bike_id":"9bb96cdf-78d2-4f2d-a906-dc0df595fac7","system_id":"levelo_inurba_marseille","lat":43.26227,"lon":5.40452,"is_reserved":false,"is_disabled":false,"rental_uris":{"android":"levelo://app?vid=9bb96cdf-78d2-4f2d-a906-dc0df595fac7","ios":"levelo://app?vid=9bb96cdf-78d2-4f2d-a906-dc0df595fac7"},"vehicle_type_id":"4","last_reported":1740424010,"current_range_meters":17600,"station_id":"ce4bhmh2rcd13ifvqgmg","pricing_plan_id":"cebpf4jnsgd1na2vs0mg"},{"bike_id":"d3a624d3-140c-4015-8254-af12ae2df535","system_id":"levelo_inurba_marseille","lat":43.29888,"lon":5.39743,"is_reserved":false,"is_disabled":false,"rental_uris":{"android":"levelo://app?vid=d3a624d3-140c-4015-8254-af12ae2df535","ios":"levelo://app?vid=d3a624d3-140c-4015-8254-af12ae2df535"},"vehicle_type_id":"4","last_reported":1740424010,"current_range_meters":17600,"station_id":"ce4bh0h2rcd13ifvqd50","pricing_plan_id":"cebpf4jnsgd1na2vs0mg"},{"bike_id":"0dc77e2f-ce80-4f7e-b672-b7d704534da5","system_id":"levelo_inurba_marseille","lat":43.27998,"lon":5.40013,"is_reserved":false,"is_disabled":false,"rental_uris":{"android":"levelo://app?vid=0dc77e2f-ce80-4f7e-b672-b7d704534da5","ios":"levelo://app?vid=0dc77e2f-ce80-4f7e-b672-b7d704534da5"},"vehicle_type_id":"4","last_reported":1740424010,"current_range_meters":18000,"station_id":"ce4bho92rcd13ifvqh4g","pricing_plan_id":"cebpf4jnsgd1na2vs0mg"},{"bike_id":"db8f7a43-768b-45ca-9dfa-098c5d9697d5","system_id":"levelo_inurba_marseille","lat":43.28862,"lon":5.35837,"is_reserved":false,"is_disabled":false,"rental_uris":{"android":"levelo://app?vid=db8f7a43-768b-45ca-9dfa-098c5d9697d5","ios":"levelo://app?vid=db8f7a43-768b-45ca-9dfa-098c5d9697d5"},"vehicle_type_id":"4","last_reported":1740424010,"current_range_meters":17600,"station_id":"ce4bhb12rcd13ifvqem0","pricing_plan_id":"cebpf4jnsgd1na2vs0mg"},{"bike_id":"b1074528-3362-4a7e-b2ca-325e4707bbed","system_id":"levelo_inurba_marseille","lat":43.31075,"lon":5.3835,"is_reserved":false,"is_disabled":false,"rental_uris":{"android":"levelo://app?vid=b1074528-3362-4a7e-b2ca-325e4707bbed","ios":"levelo://app?vid=b1074528-3362-4a7e-b2ca-325e4707bbed"},"vehicle_type_id":"4","last_reported":1740424010,"current_range_meters":17600,"station_id":"ce4bgv92rcd13ifvqcr0","pricing_plan_id":"cebpf4jnsgd1na2vs0mg"},{"bike_id":"9b414509-7363-4479-a5e4-4e301e6f0741","system_id":"levelo_inurba_marseille","lat":43.31329,"lon":5.39693,"is_reserved":false,"is_disabled":false,"rental_uris":{"android":"levelo://app?vid=9b414509-7363-4479-a5e4-4e301e6f0741","ios":"levelo://app?vid=9b414509-7363-4479-a5e4-4e301e6f0741"},"vehicle_type_id":"4","last_reported":1740424010,"current_range_meters":17600,"station_id":"ce4bgvp2rcd13ifvqcu0","pricing_plan_id":"cebpf4jnsgd1na2vs0mg"},{"bike_id":"c3d0fefa-5db4-49bd-a964-1a22da440d36","system_id":"levelo_inurba_marseille","lat":43.269559,"lon":5.386313,"is_reserved":false,"is_disabled":false,"rental_uris":{"android":"levelo://app?vid=c3d0fefa-5db4-49bd-a964-1a22da440d36","ios":"levelo://app?vid=c3d0fefa-5db4-49bd-a964-1a22da440d36"},"vehicle_type_id":"4","last_reported":1740424010,"current_range_meters":17600,"station_id":"","pricing_plan_id":"cebpf4jnsgd1na2vs0mg"},{"bike_id":"3880de27-a9a6-44e0-90ae-3bc724574f9b","system_id":"levelo_inurba_marseille","lat":43.29517,"lon":5.39403,"is_reserved":false,"is_disabled":false,"rental_uris":{"android":"levelo://app?vid=3880de27-a9a6-44e0-90ae-3bc724574f9b","ios":"levelo://app?vid=3880de27-a9a6-44e0-90ae-3bc724574f9b"},"vehicle_type_id":"4","last_reported":1740424010,"current_range_meters":18000,"station_id":"ce4bh292rcd13ifvqdf0","pricing_plan_id":"cebpf4jnsgd1na2vs0mg"},{"bike_id":"accb2b9f-fe90-411a-a4ea-bb4836ce0be6","system_id":"levelo_inurba_marseille","lat":43.30131,"lon":5.38074,"is_reserved":false,"is_disabled":false,"rental_uris":{"android":"levelo://app?vid=accb2b9f-fe90-411a-a4ea-bb4836ce0be6","ios":"levelo://app?vid=accb2b9f-fe90-411a-a4ea-bb4836ce0be6"},"vehicle_type_id":"4","last_reported":1740424010,"current_range_meters":20000,"station_id":"ce4bgjp2rcd13ifvqbh0","pricing_plan_id":"cebpf4jnsgd1na2vs0mg"},{"bike_id":"a3843d73-8c8c-4af2-bb09-ddb8f4c36e63","system_id":"levelo_inurba_marseille","lat":43.30541,"lon":5.36559,"is_reserved":false,"is_disabled":false,"rental_uris":{"android":"levelo://app?vid=a3843d73-8c8c-4af2-bb09-ddb8f4c36e63","ios":"levelo://app?vid=a3843d73-8c8c-4af2-bb09-ddb8f4c36e63"},"vehicle_type_id":"4","last_reported":1740424010,"current_range_meters":18000,"station_id":"ce4bgs12rcd13ifvqcag","pricing_plan_id":"cebpf4jnsgd1na2vs0mg"},{"bike_id":"7c45866a-bd99-4c12-9747-66203f12a96e","system_id":"levelo_inurba_marseille","lat":43.2314,"lon":5.35584,"is_reserved":false,"is_disabled":false,"rental_uris":{"android":"levelo://app?vid=7c45866a-bd99-4c12-9747-66203f12a96e","ios":"levelo://app?vid=7c45866a-bd99-4c12-9747-66203f12a96e"},"vehicle_type_id":"4","last_reported":1740424010,"current_range_meters":18000,"station_id":"","pricing_plan_id":"cebpf4jnsgd1na2vs0mg"},{"bike_id":"f60d933e-06df-4977-8dab-31b35ed8d01a","system_id":"levelo_inurba_marseille","lat":43.30514,"lon":5.373425,"is_reserved":false,"is_disabled":false,"rental_uris":{"android":"levelo://app?vid=f60d933e-06df-4977-8dab-31b35ed8d01a","ios":"levelo://app?vid=f60d933e-06df-4977-8dab-31b35ed8d01a"},"vehicle_type_id":"4","last_reported":1740424010,"current_range_meters":17600,"station_id":"ce4bgqh2rcd13ifvqc4g","pricing_plan_id":"cebpf4jnsgd1na2vs0mg"},{"bike_id":"691631fa-0fe9-4704-a293-86d745bf2ab3","system_id":"levelo_inurba_marseille","lat":43.27813,"lon":5.40711,"is_reserved":false,"is_disabled":false,"rental_uris":{"android":"levelo://app?vid=691631fa-0fe9-4704-a293-86d745bf2ab3","ios":"levelo://app?vid=691631fa-0fe9-4704-a293-86d745bf2ab3"},"vehicle_type_id":"4","last_reported":1740424010,"current_range_meters":17600,"station_id":"ce4bhnh2rcd13ifvqgtg","pricing_plan_id":"cebpf4jnsgd1na2vs0mg"},{"bike_id":"c6bad8b5-e842-43c7-8277-77c3905a44ea","system_id":"levelo_inurba_marseille","lat":43.23972,"lon":5.36631,"is_reserved":false,"is_disabled":false,"rental_uris":{"android":"levelo://app?vid=c6bad8b5-e842-43c7-8277-77c3905a44ea","ios":"levelo://app?vid=c6bad8b5-e842-43c7-8277-77c3905a44ea"},"vehicle_type_id":"4","last_reported":1740424010,"current_range_meters":18000,"station_id":"ce4bhi12rcd13ifvqfp0","pricing_plan_id":"cebpf4jnsgd1na2vs0mg"},{"bike_id":"c068dcb4-6111-4494-92b0-fe59cb336012","system_id":"levelo_inurba_marseille","lat":43.29875,"lon":5.3892,"is_reserved":false,"is_disabled":false,"rental_uris":{"android":"levelo://app?vid=c068dcb4-6111-4494-92b0-fe59cb336012","ios":"levelo://app?vid=c068dcb4-6111-4494-92b0-fe59cb336012"},"vehicle_type_id":"4","last_reported":1740424010,"current_range_meters":18000,"station_id":"ce4bh392rcd13ifvqdl0","pricing_plan_id":"cebpf4jnsgd1na2vs0mg"},{"bike_id":"7951ec82-c1c3-436f-b4bb-ea3dd1dc5ab6","system_id":"levelo_inurba_marseille","lat":43.2861,"lon":5.35106,"is_reserved":false,"is_disabled":false,"rental_uris":{"android":"levelo://app?vid=7951ec82-c1c3-436f-b4bb-ea3dd1dc5ab6","ios":"levelo://app?vid=7951ec82-c1c3-436f-b4bb-ea3dd1dc5ab6"},"vehicle_type_id":"4","last_reported":1740424010,"current_range_meters":18800,"station_id":"ce4bhch2rcd13ifvqeug","pricing_plan_id":"cebpf4jnsgd1na2vs0mg"},{"bike_id":"ae50a288-02f1-4258-b78a-8affad27ccfb","system_id":"levelo_inurba_marseille","lat":43.28607,"lon":5.37076,"is_reserved":false,"is_disabled":false,"rental_uris":{"android":"levelo://app?vid=ae50a288-02f1-4258-b78a-8affad27ccfb","ios":"levelo://app?vid=ae50a288-02f1-4258-b78a-8affad27ccfb"},"vehicle_type_id":"4","last_reported":1740424010,"current_range_meters":18800,"station_id":"ce4bht12rcd13ifvqi60","pricing_plan_id":"cebpf4jnsgd1na2vs0mg"},{"bike_id":"4a0a2b90-7c7d-479d-882f-946cfbf60320","system_id":"levelo_inurba_marseille","lat":43.29714,"lon":5.36621,"is_reserved":false,"is_disabled":false,"rental_uris":{"android":"levelo://app?vid=4a0a2b90-7c7d-479d-882f-946cfbf60320","ios":"levelo://app?vid=4a0a2b90-7c7d-479d-882f-946cfbf60320"},"vehicle_type_id":"4","last_reported":1740424010,"current_range_meters":18800,"station_id":"ce4bgn12rcd13ifvqbt0","pricing_plan_id":"cebpf4jnsgd1na2vs0mg"},{"bike_id":"d55c4ee3-7586-4e31-9568-a3f286cfdc5d","system_id":"levelo_inurba_marseille","lat":43.2847,"lon":5.38406,"is_reserved":false,"is_disabled":false,"rental_uris":{"android":"levelo://app?vid=d55c4ee3-7586-4e31-9568-a3f286cfdc5d","ios":"levelo://app?vid=d55c4ee3-7586-4e31-9568-a3f286cfdc5d"},"vehicle_type_id":"4","last_reported":1740424010,"current_range_meters":18800,"station_id":"ce4bh512rcd13ifvqe3g","pricing_plan_id":"cebpf4jnsgd1na2vs0mg"},{"bike_id":"c68f3a0b-e764-4bf3-9b63-b72387fdffb5","system_id":"levelo_inurba_marseille","lat":43.28852,"lon":5.35852,"is_reserved":false,"is_disabled":false,"rental_uris":{"android":"levelo://app?vid=c68f3a0b-e764-4bf3-9b63-b72387fdffb5","ios":"levelo://app?vid=c68f3a0b-e764-4bf3-9b63-b72387fdffb5"},"vehicle_type_id":"4","last_reported":1740424010,"current_range_meters":18800,"station_id":"ce4bhb12rcd13ifvqem0","pricing_plan_id":"cebpf4jnsgd1na2vs0mg"},{"bike_id":"c67b840d-4529-4214-b6bb-f8e61132a9b1","system_id":"levelo_inurba_marseille","lat":43.2573,"lon":5.41132,"is_reserved":false,"is_disabled":false,"rental_uris":{"android":"levelo://app?vid=c67b840d-4529-4214-b6bb-f8e61132a9b1","ios":"levelo://app?vid=c67b840d-4529-4214-b6bb-f8e61132a9b1"},"vehicle_type_id":"4","last_reported":1740424010,"current_range_meters":18800,"station_id":"ce4bhkp2rcd13ifvqgd0","pricing_plan_id":"cebpf4jnsgd1na2vs0mg"},{"bike_id":"5b05002f-7e6a-4c47-97c7-0858f4fd1ce4","system_id":"levelo_inurba_marseille","lat":43.28946,"lon":5.36645,"is_reserved":false,"is_disabled":false,"rental_uris":{"android":"levelo://app?vid=5b05002f-7e6a-4c47-97c7-0858f4fd1ce4","ios":"levelo://app?vid=5b05002f-7e6a-4c47-97c7-0858f4fd1ce4"},"vehicle_type_id":"4","last_reported":1740424010,"current_range_meters":18000,"station_id":"ce4bhap2rcd13ifvqek0","pricing_plan_id":"cebpf4jnsgd1na2vs0mg"},{"bike_id":"2e0fac15-0573-4bbe-a302-f327252aa146","system_id":"levelo_inurba_marseille","lat":43.2994,"lon":5.36544,"is_reserved":false,"is_disabled":false,"rental_uris":{"android":"levelo://app?vid=2e0fac15-0573-4bbe-a302-f327252aa146","ios":"levelo://app?vid=2e0fac15-0573-4bbe-a302-f327252aa146"},"vehicle_type_id":"4","last_reported":1740424010,"current_range_meters":18800,"station_id":"ce4bgm92rcd13ifvqbr0","pricing_plan_id":"cebpf4jnsgd1na2vs0mg"},{"bike_id":"3e9be196-2bd4-4301-9502-626d9edd366e","system_id":"levelo_inurba_marseille","lat":43.29561,"lon":5.42266,"is_reserved":false,"is_disabled":false,"rental_uris":{"android":"levelo://app?vid=3e9be196-2bd4-4301-9502-626d9edd366e","ios":"levelo://app?vid=3e9be196-2bd4-4301-9502-626d9edd366e"},"vehicle_type_id":"4","last_reported":1740424010,"current_range_meters":18800,"station_id":"ce4bhph2rcd13ifvqhdg","pricing_plan_id":"cebpf4jnsgd1na2vs0mg"},{"bike_id":"67462c7c-fcd4-47dc-94d8-9d7a33d5da2f","system_id":"levelo_inurba_marseille","lat":43.27958,"lon":5.41045,"is_reserved":false,"is_disabled":false,"rental_uris":{"android":"levelo://app?vid=67462c7c-fcd4-47dc-94d8-9d7a33d5da2f","ios":"levelo://app?vid=67462c7c-fcd4-47dc-94d8-9d7a33d5da2f"},"vehicle_type_id":"4","last_reported":1740424010,"current_range_meters":18800,"station_id":"ce4bhnp2rcd13ifvqh0g","pricing_plan_id":"cebpf4jnsgd1na2vs0mg"},{"bike_id":"2c5b41d8-2247-4fb1-8662-067a63dc29af","system_id":"levelo_inurba_marseille","lat":43.29943,"lon":5.36517,"is_reserved":false,"is_disabled":false,"rental_uris":{"android":"levelo://app?vid=2c5b41d8-2247-4fb1-8662-067a63dc29af","ios":"levelo://app?vid=2c5b41d8-2247-4fb1-8662-067a63dc29af"},"vehicle_type_id":"4","last_reported":1740424010,"current_range_meters":19600,"station_id":"ce4bgm92rcd13ifvqbr0","pricing_plan_id":"cebpf4jnsgd1na2vs0mg"},{"bike_id":"be85351f-f433-4123-a449-d91dbc845699","system_id":"levelo_inurba_marseille","lat":43.29541,"lon":5.39408,"is_reserved":false,"is_disabled":false,"rental_uris":{"android":"levelo://app?vid=be85351f-f433-4123-a449-d91dbc845699","ios":"levelo://app?vid=be85351f-f433-4123-a449-d91dbc845699"},"vehicle_type_id":"4","last_reported":1740424010,"current_range_meters":19200,"station_id":"ce4bh292rcd13ifvqdf0","pricing_plan_id":"cebpf4jnsgd1na2vs0mg"},{"bike_id":"fecb5daa-a777-44eb-ad60-faaf813f5687","system_id":"levelo_inurba_marseille","lat":43.2904,"lon":5.35915,"is_reserved":false,"is_disabled":false,"rental_uris":{"android":"levelo://app?vid=fecb5daa-a777-44eb-ad60-faaf813f5687","ios":"levelo://app?vid=fecb5daa-a777-44eb-ad60-faaf813f5687"},"vehicle_type_id":"4","last_reported":1740424010,"current_range_meters":19200,"station_id":"ce4bha92rcd13ifvqeg0","pricing_plan_id":"cebpf4jnsgd1na2vs0mg"},{"bike_id":"cfd365de-62f6-4494-a62e-4dc8419c5f52","system_id":"levelo_inurba_marseille","lat":43.28349,"lon":5.38095,"is_reserved":false,"is_disabled":false,"rental_uris":{"android":"levelo://app?vid=cfd365de-62f6-4494-a62e-4dc8419c5f52","ios":"levelo://app?vid=cfd365de-62f6-4494-a62e-4dc8419c5f52"},"vehicle_type_id":"4","last_reported":1740424010,"current_range_meters":19200,"station_id":"ce4bh412rcd13ifvqdr0","pricing_plan_id":"cebpf4jnsgd1na2vs0mg"},{"bike_id":"2cf32f17-b1f3-4e21-8a4e-80a791fe2694","system_id":"levelo_inurba_marseille","lat":43.28153,"lon":5.42638,"is_reserved":false,"is_disabled":false,"rental_uris":{"android":"levelo://app?vid=2cf32f17-b1f3-4e21-8a4e-80a791fe2694","ios":"levelo://app?vid=2cf32f17-b1f3-4e21-8a4e-80a791fe2694"},