{"last_updated":1735052880,"ttl":60,"version":"2.2","data":{"bikes":[{"bike_id":"3893916c-a429-48ee-a53d-8103c6b3bb27","system_id":"levelo_inurba_marseille","lat":43.30881,"lon":5.37199,"is_reserved":false,"is_disabled":false,"rental_uris":{"android":"levelo://app?vid=3893916c-a429-48ee-a53d-8103c6b3bb27","ios":"levelo://app?vid=3893916c-a429-48ee-a53d-8103c6b3bb27"},"vehicle_type_id":"4","last_reported":1735052880,"current_range_meters":16800,"station_id":"ce4bguh2rcd13ifvqckg","pricing_plan_id":"cebpf4jnsgd1na2vs0mg"},{"bike_id":"34807fda-d150-4921-b262-b9fde65dcab4","system_id":"levelo_inurba_marseille","lat":43.29784,"lon":5.38099,"is_reserved":false,"is_disabled":false,"rental_uris":{"android":"levelo://app?vid=34807fda-d150-4921-b262-b9fde65dcab4","ios":"levelo://app?vid=34807fda-d150-4921-b262-b9fde65dcab4"},"vehicle_type_id":"4","last_reported":1735052880,"current_range_meters":10800,"station_id":"ce4bgip2rcd13ifvqbb0","pricing_plan_id":"cebpf4jnsgd1na2vs0mg"},{"bike_id":"7c110a8b-097f-43aa-9eb5-b36685ee5243","system_id":"levelo_inurba_marseille","lat":43.28271,"lon":5.35073,"is_reserved":false,"is_disabled":false,"rental_uris":{"android":"levelo://app?vid=7c110a8b-097f-43aa-9eb5-b36685ee5243","ios":"levelo://app?vid=7c110a8b-097f-43aa-9eb5-b36685ee5243"},"vehicle_type_id":"4","last_reported":1735052880,"current_range_meters":38800,"station_id":"ce4bhbp2rcd13ifvqerg","pricing_plan_id":"cebpf4jnsgd1na2vs0mg"},{"bike_id":"2e17686b-620c-4613-a59b-c8594a2951b6","system_id":"levelo_inurba_marseille","lat":43.2668,"lon":5.38266,"is_reserved":false,"is_disabled":false,"rental_uris":{"android":"levelo://app?vid=2e17686b-620c-4613-a59b-c8594a2951b6","ios":"levelo://app?vid=2e17686b-620c-4613-a59b-c8594a2951b6"},"vehicle_type_id":"4","last_reported":1735052880,"current_range_meters":38800,"station_id":"ce4bhg92rcd13ifvqf90","pricing_plan_id":"cebpf4jnsgd1na2vs0mg"},{"bike_id":"894954e8-8587-4dc4-9e89-9d9b9692a441","system_id":"levelo_inurba_marseille","lat":43.31753,"lon":5.39017,"is_reserved":false,"is_disabled":false,"rental_uris":{"android":"levelo://app?vid=894954e8-8587-4dc4-9e89-9d9b9692a441","ios":"levelo://app?vid=894954e8-8587-4dc4-9e89-9d9b9692a441"},"vehicle_type_id":"4","last_reported":1735052880,"current_range_meters":38000,"station_id":"ce4bhqp2rcd13ifvqhng","pricing_plan_id":"cebpf4jnsgd1na2vs0mg"},{"bike_id":"7bc7229d-6357-401a-bdf2-266d948e482e","system_id":"levelo_inurba_marseille","lat":43.28855,"lon":5.3932,"is_reserved":false,"is_disabled":true,"rental_uris":{"android":"levelo://app?vid=7bc7229d-6357-401a-bdf2-266d948e482e","ios":"levelo://app?vid=7bc7229d-6357-401a-bdf2-266d948e482e"},"vehicle_type_id":"4","last_reported":1735052880,"current_range_meters":36000,"station_id":"ce4bh2p2rcd13ifvqdi0","pricing_plan_id":"cebpf4jnsgd1na2vs0mg"},{"bike_id":"fc51ff1d-28b2-470e-b302-6649996d0bdb","system_id":"levelo_inurba_marseille","lat":43.30153,"lon":5.39881,"is_reserved":false,"is_disabled":false,"rental_uris":{"android":"levelo://app?vid=fc51ff1d-28b2-470e-b302-6649996d0bdb","ios":"levelo://app?vid=fc51ff1d-28b2-470e-b302-6649996d0bdb"},"vehicle_type_id":"4","last_reported":1735052880,"current_range_meters":36000,"station_id":"ce4bh0h2rcd13ifvqd40","pricing_plan_id":"cebpf4jnsgd1na2vs0mg"},{"bike_id":"33e33699-20a9-48fe-bfd9-190b603aa789","system_id":"levelo_inurba_marseille","lat":43.295286,"lon":5.375035,"is_reserved":false,"is_disabled":false,"rental_uris":{"android":"levelo://app?vid=33e33699-20a9-48fe-bfd9-190b603aa789","ios":"levelo://app?vid=33e33699-20a9-48fe-bfd9-190b603aa789"},"vehicle_type_id":"4","last_reported":1735052880,"current_range_meters":19200,"station_id":"ce4bgkp2rcd13ifvqbmg","pricing_plan_id":"cebpf4jnsgd1na2vs0mg"},{"bike_id":"e5d3b806-c7b1-4096-9272-59cc0d8d9663","system_id":"levelo_inurba_marseille","lat":43.29078,"lon":5.35908,"is_reserved":false,"is_disabled":false,"rental_uris":{"android":"levelo://app?vid=e5d3b806-c7b1-4096-9272-59cc0d8d9663","ios":"levelo://app?vid=e5d3b806-c7b1-4096-9272-59cc0d8d9663"},"vehicle_type_id":"4","last_reported":1735052880,"current_range_meters":25600,"station_id":"ce4bha92rcd13ifvqeg0","pricing_plan_id":"cebpf4jnsgd1na2vs0mg"},{"bike_id":"89a639d4-ff1f-4ff6-8b8c-a4df41cf2c0e","system_id":"levelo_inurba_marseille","lat":43.23959,"lon":5.36631,"is_reserved":false,"is_disabled":false,"rental_uris":{"android":"levelo://app?vid=89a639d4-ff1f-4ff6-8b8c-a4df41cf2c0e","ios":"levelo://app?vid=89a639d4-ff1f-4ff6-8b8c-a4df41cf2c0e"},"vehicle_type_id":"4","last_reported":1735052880,"current_range_meters":38800,"station_id":"ce4bhi12rcd13ifvqfp0","pricing_plan_id":"cebpf4jnsgd1na2vs0mg"},{"bike_id":"d3f0beab-e563-48bf-8ed8-441b0b6e8bf0","system_id":"levelo_inurba_marseille","lat":43.29518,"lon":5.39039,"is_reserved":false,"is_disabled":false,"rental_uris":{"android":"levelo://app?vid=d3f0beab-e563-48bf-8ed8-441b0b6e8bf0","ios":"levelo://app?vid=d3f0beab-e563-48bf-8ed8-441b0b6e8bf0"},"vehicle_type_id":"4","last_reported":1735052880,"current_range_meters":34000,"station_id":"ce4bh3p2rcd13ifvqdp0","pricing_plan_id":"cebpf4jnsgd1na2vs0mg"},{"bike_id":"96f67906-c94f-4a78-ae6e-fdff28a17019","system_id":"levelo_inurba_marseille","lat":43.33833,"lon":5.37432,"is_reserved":false,"is_disabled":false,"rental_uris":{"android":"levelo://app?vid=96f67906-c94f-4a78-ae6e-fdff28a17019","ios":"levelo://app?vid=96f67906-c94f-4a78-ae6e-fdff28a17019"},"vehicle_type_id":"4","last_reported":1735052880,"current_range_meters":9600,"station_id":"","pricing_plan_id":"cebpf4jnsgd1na2vs0mg"},{"bike_id":"b411a283-e781-467a-9dd8-9e52e59fbfa5","system_id":"levelo_inurba_marseille","lat":43.2872,"lon":5.36094,"is_reserved":false,"is_disabled":false,"rental_uris":{"android":"levelo://app?vid=b411a283-e781-467a-9dd8-9e52e59fbfa5","ios":"levelo://app?vid=b411a283-e781-467a-9dd8-9e52e59fbfa5"},"vehicle_type_id":"4","last_reported":1735052880,"current_range_meters":39200,"station_id":"cki0cbj6b192h4jlfktg","pricing_plan_id":"cebpf4jnsgd1na2vs0mg"},{"bike_id":"b9c83c83-cf96-4e57-b709-6459d0acaf9f","system_id":"levelo_inurba_marseille","lat":43.26809,"lon":5.4027,"is_reserved":false,"is_disabled":false,"rental_uris":{"android":"levelo://app?vid=b9c83c83-cf96-4e57-b709-6459d0acaf9f","ios":"levelo://app?vid=b9c83c83-cf96-4e57-b709-6459d0acaf9f"},"vehicle_type_id":"4","last_reported":1735052880,"current_range_meters":38800,"station_id":"ce501612rcd8frsf0b60","pricing_plan_id":"cebpf4jnsgd1na2vs0mg"},{"bike_id":"4321137c-3a68-42ab-9e15-7bb61303c543","system_id":"levelo_inurba_marseille","lat":43.2306,"lon":5.35489,"is_reserved":false,"is_disabled":false,"rental_uris":{"android":"levelo://app?vid=4321137c-3a68-42ab-9e15-7bb61303c543","ios":"levelo://app?vid=4321137c-3a68-42ab-9e15-7bb61303c543"},"vehicle_type_id":"4","last_reported":1735052880,"current_range_meters":30800,"station_id":"cpo3342slgdg3j2ifvpg","pricing_plan_id":"cebpf4jnsgd1na2vs0mg"},{"bike_id":"88e2e3f8-7d2e-44f9-a1ea-525564fab90f","system_id":"levelo_inurba_marseille","lat":43.3377,"lon":5.37433,"is_reserved":false,"is_disabled":false,"rental_uris":{"android":"levelo://app?vid=88e2e3f8-7d2e-44f9-a1ea-525564fab90f","ios":"levelo://app?vid=88e2e3f8-7d2e-44f9-a1ea-525564fab90f"},"vehicle_type_id":"4","last_reported":1735052880,"current_range_meters":25600,"station_id":"","pricing_plan_id":"cebpf4jnsgd1na2vs0mg"},{"bike_id":"6c0d88cf-2303-4fc6-bdb3-776a9d505235","system_id":"levelo_inurba_marseille","lat":43.29719,"lon":5.3768,"is_reserved":false,"is_disabled":false,"rental_uris":{"android":"levelo://app?vid=6c0d88cf-2303-4fc6-bdb3-776a9d505235","ios":"levelo://app?vid=6c0d88cf-2303-4fc6-bdb3-776a9d505235"},"vehicle_type_id":"4","last_reported":1735052880,"current_range_meters":16400,"station_id":"ce4bgkh2rcd13ifvqbl0","pricing_plan_id":"cebpf4jnsgd1na2vs0mg"},{"bike_id":"fa3ed25e-9f65-4960-b3cb-77f0d1c71ed6","system_id":"levelo_inurba_marseille","lat":43.28105,"lon":5.37834,"is_reserved":false,"is_disabled":false,"rental_uris":{"android":"levelo://app?vid=fa3ed25e-9f65-4960-b3cb-77f0d1c71ed6","ios":"levelo://app?vid=fa3ed25e-9f65-4960-b3cb-77f0d1c71ed6"},"vehicle_type_id":"4","last_reported":1735052880,"current_range_meters":32000,"station_id":"ce4bha12rcd13ifvqee0","pricing_plan_id":"cebpf4jnsgd1na2vs0mg"},{"bike_id":"e1060353-5e73-40b0-bcde-0a3bb24e2539","system_id":"levelo_inurba_marseille","lat":43.28344,"lon":5.38107,"is_reserved":false,"is_disabled":false,"rental_uris":{"android":"levelo://app?vid=e1060353-5e73-40b0-bcde-0a3bb24e2539","ios":"levelo://app?vid=e1060353-5e73-40b0-bcde-0a3bb24e2539"},"vehicle_type_id":"4","last_reported":1735052880,"current_range_meters":38800,"station_id":"ce4bh412rcd13ifvqdr0","pricing_plan_id":"cebpf4jnsgd1na2vs0mg"},{"bike_id":"e954ffb0-0739-49ca-ad65-8a4a1bee9940","system_id":"levelo_inurba_marseille","lat":43.30541,"lon":5.36718,"is_reserved":false,"is_disabled":false,"rental_uris":{"android":"levelo://app?vid=e954ffb0-0739-49ca-ad65-8a4a1bee9940","ios":"levelo://app?vid=e954ffb0-0739-49ca-ad65-8a4a1bee9940"},"vehicle_type_id":"4","last_reported":1735052880,"current_range_meters":29600,"station_id":"ce4bgrp2rcd13ifvqc9g","pricing_plan_id":"cebpf4jnsgd1na2vs0mg"},{"bike_id":"483c1a88-3d76-4ce2-b8a0-18ab3d6306de","system_id":"levelo_inurba_marseille","lat":43.29938,"lon":5.36544,"is_reserved":false,"is_disabled":false,"rental_uris":{"android":"levelo://app?vid=483c1a88-3d76-4ce2-b8a0-18ab3d6306de","ios":"levelo://app?vid=483c1a88-3d76-4ce2-b8a0-18ab3d6306de"},"vehicle_type_id":"4","last_reported":1735052880,"current_range_meters":36800,"station_id":"ce4bgm92rcd13ifvqbr0","pricing_plan_id":"cebpf4jnsgd1na2vs0mg"},{"bike_id":"441a4d4e-1222-4242-82fc-1e23e0dcf289","system_id":"levelo_inurba_marseille","lat":43.29011,"lon":5.38135,"is_reserved":false,"is_disabled":false,"rental_uris":{"android":"levelo://app?vid=441a4d4e-1222-4242-82fc-1e23e0dcf289","ios":"levelo://app?vid=441a4d4e-1222-4242-82fc-1e23e0dcf289"},"vehicle_type_id":"4","last_reported":1735052880,"current_range_meters":38400,"station_id":"ce4bh4p2rcd13ifvqe1g","pricing_plan_id":"cebpf4jnsgd1na2vs0mg"},{"bike_id":"f0b7cf87-1650-47a2-af52-7c85e1e236e9","system_id":"levelo_inurba_marseille","lat":43.280003,"lon":5.40006,"is_reserved":false,"is_disabled":false,"rental_uris":{"android":"levelo://app?vid=f0b7cf87-1650-47a2-af52-7c85e1e236e9","ios":"levelo://app?vid=f0b7cf87-1650-47a2-af52-7c85e1e236e9"},"vehicle_type_id":"4","last_reported":1735052880,"current_range_meters":31200,"station_id":"ce4bho92rcd13ifvqh4g","pricing_plan_id":"cebpf4jnsgd1na2vs0mg"},{"bike_id":"64b20260-e7f6-4ac7-b975-563f0b53f614","system_id":"levelo_inurba_marseille","lat":43.33613,"lon":5.41035,"is_reserved":false,"is_disabled":false,"rental_uris":{"android":"levelo://app?vid=64b20260-e7f6-4ac7-b975-563f0b53f614","ios":"levelo://app?vid=64b20260-e7f6-4ac7-b975-563f0b53f614"},"vehicle_type_id":"4","last_reported":1735052880,"current_range_meters":25200,"station_id":"ce4bhqh2rcd13ifvqhmg","pricing_plan_id":"cebpf4jnsgd1na2vs0mg"},{"bike_id":"c5098792-45ce-4b89-ac96-ccc62bd60732","system_id":"levelo_inurba_marseille","lat":43.26206,"lon":5.37441,"is_reserved":false,"is_disabled":false,"rental_uris":{"android":"levelo://app?vid=c5098792-45ce-4b89-ac96-ccc62bd60732","ios":"levelo://app?vid=c5098792-45ce-4b89-ac96-ccc62bd60732"},"vehicle_type_id":"4","last_reported":1735052880,"current_range_meters":18000,"station_id":"ce4bhgp2rcd13ifvqfc0","pricing_plan_id":"cebpf4jnsgd1na2vs0mg"},{"bike_id":"fba7b61d-832a-4843-a6b6-7aeaf903afb3","system_id":"levelo_inurba_marseille","lat":43.27426,"lon":5.3941,"is_reserved":false,"is_disabled":false,"rental_uris":{"android":"levelo://app?vid=fba7b61d-832a-4843-a6b6-7aeaf903afb3","ios":"levelo://app?vid=fba7b61d-832a-4843-a6b6-7aeaf903afb3"},"vehicle_type_id":"4","last_reported":1735052880,"current_range_meters":27600,"station_id":"ce4bhdp2rcd13ifvqf20","pricing_plan_id":"cebpf4jnsgd1na2vs0mg"},{"bike_id":"39076371-5d4c-42aa-82bc-3aa69939e51e","system_id":"levelo_inurba_marseille","lat":43.25721,"lon":5.41113,"is_reserved":false,"is_disabled":false,"rental_uris":{"android":"levelo://app?vid=39076371-5d4c-42aa-82bc-3aa69939e51e","ios":"levelo://app?vid=39076371-5d4c-42aa-82bc-3aa69939e51e"},"vehicle_type_id":"4","last_reported":1735052880,"current_range_meters":36800,"station_id":"ce4bhkp2rcd13ifvqgd0","pricing_plan_id":"cebpf4jnsgd1na2vs0mg"},{"bike_id":"13a29cfb-4ca0-4903-96b1-b192a8a42624","system_id":"levelo_inurba_marseille","lat":43.23067,"lon":5.35493,"is_reserved":false,"is_disabled":false,"rental_uris":{"android":"levelo://app?vid=13a29cfb-4ca0-4903-96b1-b192a8a42624","ios":"levelo://app?vid=13a29cfb-4ca0-4903-96b1-b192a8a42624"},"vehicle_type_id":"4","last_reported":1735052880,"current_range_meters":35600,"station_id":"cpo3342slgdg3j2ifvpg","pricing_plan_id":"cebpf4jnsgd1na2vs0mg"},{"bike_id":"dd68b781-4ec4-43ac-b12e-9c01936d8228","system_id":"levelo_inurba_marseille","lat":43.24998,"lon":5.3893,"is_reserved":false,"is_disabled":false,"rental_uris":{"android":"levelo://app?vid=dd68b781-4ec4-43ac-b12e-9c01936d8228","ios":"levelo://app?vid=dd68b781-4ec4-43ac-b12e-9c01936d8228"},"vehicle_type_id":"4","last_reported":1735052880,"current_range_meters":18800,"station_id":"ce4bhgp2rcd13ifvqfd0","pricing_plan_id":"cebpf4jnsgd1na2vs0mg"},{"bike_id":"b76cea7e-5025-4e14-a8c7-eebf31292c4c","system_id":"levelo_inurba_marseille","lat":43.26046,"lon":5.39392,"is_reserved":false,"is_disabled":true,"rental_uris":{"android":"levelo://app?vid=b76cea7e-5025-4e14-a8c7-eebf31292c4c","ios":"levelo://app?vid=b76cea7e-5025-4e14-a8c7-eebf31292c4c"},"vehicle_type_id":"4","last_reported":1735052880,"current_range_meters":24800,"station_id":"ce4bhh92rcd13ifvqfj0","pricing_plan_id":"cebpf4jnsgd1na2vs0mg"},{"bike_id":"64bd181e-daca-4b41-84bd-e6d84057fcdc","system_id":"levelo_inurba_marseille","lat":43.29031,"lon":5.37566,"is_reserved":false,"is_disabled":false,"rental_uris":{"android":"levelo://app?vid=64bd181e-daca-4b41-84bd-e6d84057fcdc","ios":"levelo://app?vid=64bd181e-daca-4b41-84bd-e6d84057fcdc"},"vehicle_type_id":"4","last_reported":1735052880,"current_range_meters":32400,"station_id":"ce4bh692rcd13ifvqe90","pricing_plan_id":"cebpf4jnsgd1na2vs0mg"},{"bike_id":"6678db6e-3623-4b0f-81a4-00352ba4592f","system_id":"levelo_inurba_marseille","lat":43.30466,"lon":5.37908,"is_reserved":false,"is_disabled":false,"rental_uris":{"android":"levelo://app?vid=6678db6e-3623-4b0f-81a4-00352ba4592f","ios":"levelo://app?vid=6678db6e-3623-4b0f-81a4-00352ba4592f"},"vehicle_type_id":"4","last_reported":1735052880,"current_range_meters":20400,"station_id":"ce4bgup2rcd13ifvqcn0","pricing_plan_id":"cebpf4jnsgd1na2vs0mg"},{"bike_id":"b4618c5c-13a3-4bdf-abfb-7542766e550d","system_id":"levelo_inurba_marseille","lat":43.33768,"lon":5.37471,"is_reserved":false,"is_disabled":false,"rental_uris":{"android":"levelo://app?vid=b4618c5c-13a3-4bdf-abfb-7542766e550d","ios":"levelo://app?vid=b4618c5c-13a3-4bdf-abfb-7542766e550d"},"vehicle_type_id":"4","last_reported":1735052880,"current_range_meters":24800,"station_id":"","pricing_plan_id":"cebpf4jnsgd1na2vs0mg"},{"bike_id":"d0533ccb-11ce-46dc-9cca-daa9f7a4985a","system_id":"levelo_inurba_marseille","lat":43.29549,"lon":5.42275,"is_reserved":false,"is_disabled":false,"rental_uris":{"android":"levelo://app?vid=d0533ccb-11ce-46dc-9cca-daa9f7a4985a","ios":"levelo://app?vid=d0533ccb-11ce-46dc-9cca-daa9f7a4985a"},"vehicle_type_id":"4","last_reported":1735052880,"current_range_meters":39200,"station_id":"ce4bhph2rcd13ifvqhdg","pricing_plan_id":"cebpf4jnsgd1na2vs0mg"},{"bike_id":"d106c1a3-5f86-4c84-82ed-d5a8e5d39359","system_id":"levelo_inurba_marseille","lat":43.30525,"lon":5.36709,"is_reserved":false,"is_disabled":false,"rental_uris":{"android":"levelo://app?vid=d106c1a3-5f86-4c84-82ed-d5a8e5d39359","ios":"levelo://app?vid=d106c1a3-5f86-4c84-82ed-d5a8e5d39359"},"vehicle_type_id":"4","last_reported":1735052880,"current_range_meters":38000,"station_id":"ce4bgrp2rcd13ifvqc9g","pricing_plan_id":"cebpf4jnsgd1na2vs0mg"},{"bike_id":"5d29fc56-dbb2-4006-96bc-27e181f8d4f5","system_id":"levelo_inurba_marseille","lat":43.29858,"lon":5.36265,"is_reserved":false,"is_disabled":false,"rental_uris":{"android":"levelo://app?vid=5d29fc56-dbb2-4006-96bc-27e181f8d4f5","ios":"levelo://app?vid=5d29fc56-dbb2-4006-96bc-27e181f8d4f5"},"vehicle_type_id":"4","last_reported":1735052880,"current_range_meters":35200,"station_id":"ce4bgpp2rcd13ifvqc3g","pricing_plan_id":"cebpf4jnsgd1na2vs0mg"},{"bike_id":"44472a1f-8036-4c79-8e7e-14d7a700f3fa","system_id":"levelo_inurba_marseille","lat":43.29863,"lon":5.39736,"is_reserved":false,"is_disabled":false,"rental_uris":{"android":"levelo://app?vid=44472a1f-8036-4c79-8e7e-14d7a700f3fa","ios":"levelo://app?vid=44472a1f-8036-4c79-8e7e-14d7a700f3fa"},"vehicle_type_id":"4","last_reported":1735052880,"current_range_meters":39200,"station_id":"ce4bh0h2rcd13ifvqd50","pricing_plan_id":"cebpf4jnsgd1na2vs0mg"},{"bike_id":"66c98bc1-a2a0-49a6-8803-ccfa024e59fb","system_id":"levelo_inurba_marseille","lat":43.30366,"lon":5.41882,"is_reserved":false,"is_disabled":false,"rental_uris":{"android":"levelo://app?vid=66c98bc1-a2a0-49a6-8803-ccfa024e59fb","ios":"levelo://app?vid=66c98bc1-a2a0-49a6-8803-ccfa024e59fb"},"vehicle_type_id":"4","last_reported":1735052880,"current_range_meters":38800,"station_id":"ce4bhop2rcd13ifvqh7g","pricing_plan_id":"cebpf4jnsgd1na2vs0mg"},{"bike_id":"ad77e862-8b6d-4981-b97a-fb75fba8bc8a","system_id":"levelo_inurba_marseille","lat":43.29044,"lon":5.38675,"is_reserved":false,"is_disabled":false,"rental_uris":{"android":"levelo://app?vid=ad77e862-8b6d-4981-b97a-fb75fba8bc8a","ios":"levelo://app?vid=ad77e862-8b6d-4981-b97a-fb75fba8bc8a"},"vehicle_type_id":"4","last_reported":1735052880,"current_range_meters":38400,"station_id":"ce4bh4p2rcd13ifvqe0g","pricing_plan_id":"cebpf4jnsgd1na2vs0mg"},{"bike_id":"bcca5eaa-80e2-4174-a772-8e489418ec07","system_id":"levelo_inurba_marseille","lat":43.27578,"lon":5.3842,"is_reserved":false,"is_disabled":false,"rental_uris":{"android":"levelo://app?vid=bcca5eaa-80e2-4174-a772-8e489418ec07","ios":"levelo://app?vid=bcca5eaa-80e2-4174-a772-8e489418ec07"},"vehicle_type_id":"4","last_reported":1735052880,"current_range_meters":16000,"station_id":"ce4bhh92rcd13ifvqfi0","pricing_plan_id":"cebpf4jnsgd1na2vs0mg"},{"bike_id":"890c16a1-2e06-49dc-a3d5-c51429553926","system_id":"levelo_inurba_marseille","lat":43.29568,"lon":5.37512,"is_reserved":false,"is_disabled":false,"rental_uris":{"android":"levelo://app?vid=890c16a1-2e06-49dc-a3d5-c51429553926","ios":"levelo://app?vid=890c16a1-2e06-49dc-a3d5-c51429553926"},"vehicle_type_id":"4","last_reported":1735052880,"current_range_meters":24800,"station_id":"ce4bgh92rcd13ifvqb50","pricing_plan_id":"cebpf4jnsgd1na2vs0mg"},{"bike_id":"4a084c7e-6359-4acb-8f25-f015df249fc2","system_id":"levelo_inurba_marseille","lat":43.26495,"lon":5.39581,"is_reserved":false,"is_disabled":false,"rental_uris":{"android":"levelo://app?vid=4a084c7e-6359-4acb-8f25-f015df249fc2","ios":"levelo://app?vid=4a084c7e-6359-4acb-8f25-f015df249fc2"},"vehicle_type_id":"4","last_reported":1735052880,"current_range_meters":37600,"station_id":"ce4bhi12rcd13ifvqfq0","pricing_plan_id":"cebpf4jnsgd1na2vs0mg"},{"bike_id":"f512b1dd-1dd6-443d-b4b7-5ff07b91cdc0","system_id":"levelo_inurba_marseille","lat":43.29548,"lon":5.3749,"is_reserved":false,"is_disabled":false,"rental_uris":{"android":"levelo://app?vid=f512b1dd-1dd6-443d-b4b7-5ff07b91cdc0","ios":"levelo://app?vid=f512b1dd-1dd6-443d-b4b7-5ff07b91cdc0"},"vehicle_type_id":"4","last_reported":1735052880,"current_range_meters":38800,"station_id":"ce4bgkp2rcd13ifvqbmg","pricing_plan_id":"cebpf4jnsgd1na2vs0mg"},{"bike_id":"eaa93ee8-361b-4bd6-bc3c-a3486958f70d","system_id":"levelo_inurba_marseille","lat":43.29794,"lon":5.37105,"is_reserved":false,"is_disabled":false,"rental_uris":{"android":"levelo://app?vid=eaa93ee8-361b-4bd6-bc3c-a3486958f70d","ios":"levelo://app?vid=eaa93ee8-361b-4bd6-bc3c-a3486958f70d"},"vehicle_type_id":"4","last_reported":1735052880,"current_range_meters":39200,"station_id":"ce4bgop2rcd13ifvqc1g","pricing_plan_id":"cebpf4jnsgd1na2vs0mg"},{"bike_id":"40c0bad0-8626-4c9b-b59b-9fad04a61df9","system_id":"levelo_inurba_marseille","lat":43.28362,"lon":5.38625,"is_reserved":false,"is_disabled":false,"rental_uris":{"android":"levelo://app?vid=40c0bad0-8626-4c9b-b59b-9fad04a61df9","ios":"levelo://app?vid=40c0bad0-8626-4c9b-b59b-9fad04a61df9"},"vehicle_type_id":"4","last_reported":1735052880,"current_range_meters":38400,"station_id":"ce4bh492rcd13ifvqdvg","pricing_plan_id":"cebpf4jnsgd1na2vs0mg"},{"bike_id":"e724f4e5-0922-4e36-91f4-8a4c9d514ff5","system_id":"levelo_inurba_marseille","lat":43.29849,"lon":5.36246,"is_reserved":false,"is_disabled":false,"rental_uris":{"android":"levelo://app?vid=e724f4e5-0922-4e36-91f4-8a4c9d514ff5","ios":"levelo://app?vid=e724f4e5-0922-4e36-91f4-8a4c9d514ff5"},"vehicle_type_id":"4","last_reported":1735052880,"current_range_meters":38000,"station_id":"ce4bgpp2rcd13ifvqc3g","pricing_plan_id":"cebpf4jnsgd1na2vs0mg"},{"bike_id":"81503ac1-a3c4-4f04-a3f4-dcab4d599b35","system_id":"levelo_inurba_marseille","lat":43.30472,"lon":5.37903,"is_reserved":false,"is_disabled":false,"rental_uris":{"android":"levelo://app?vid=81503ac1-a3c4-4f04-a3f4-dcab4d599b35","ios":"levelo://app?vid=81503ac1-a3c4-4f04-a3f4-dcab4d599b35"},"vehicle_type_id":"4","last_reported":1735052880,"current_range_meters":38800,"station_id":"ce4bgup2rcd13ifvqcn0","pricing_plan_id":"cebpf4jnsgd1na2vs0mg"},{"bike_id":"2c26423b-1ccd-42db-a033-32b5a48b85e2","system_id":"levelo_inurba_marseille","lat":43.28708,"lon":5.37382,"is_reserved":false,"is_disabled":false,"rental_uris":{"android":"levelo://app?vid=2c26423b-1ccd-42db-a033-32b5a48b85e2","ios":"levelo://app?vid=2c26423b-1ccd-42db-a033-32b5a48b85e2"},"vehicle_type_id":"4","last_reported":1735052880,"current_range_meters":39200,"station_id":"ce4bh3p2rcd13ifvqdq0","pricing_plan_id":"cebpf4jnsgd1na2vs0mg"},{"bike_id":"dd3dbacf-347a-4a33-90ce-76bd61257750","system_id":"levelo_inurba_marseille","lat":43.32005,"lon":5.41577,"is_reserved":false,"is_disabled":false,"rental_uris":{"android":"levelo://app?vid=dd3dbacf-347a-4a33-90ce-76bd61257750","ios":"levelo://app?vid=dd3dbacf-347a-4a33-90ce-76bd61257750"},"vehicle_type_id":"4","last_reported":1735052880,"current_range_meters":38800,"station_id":"ce4bhq92rcd13ifvqhkg","pricing_plan_id":"cebpf4jnsgd1na2vs0mg"},{"bike_id":"fa7b6f51-07ff-4e1f-ba75-2880fb9ee1b2","system_id":"levelo_inurba_marseille","lat":43.24171,"lon":5.36411,"is_reserved":false,"is_disabled":false,"rental_uris":{"android":"levelo://app?vid=fa7b6f51-07ff-4e1f-ba75-2880fb9ee1b2","ios":"levelo://app?vid=fa7b6f51-07ff-4e1f-ba75-2880fb9ee1b2"},"vehicle_type_id":"4","last_reported":1735052880,"current_range_meters":36000,"station_id":"cpo36qri1sfpv3e86is0","pricing_plan_id":"cebpf4jnsgd1na2vs0mg"},{"bike_id":"71bbaaf0-30fa-412b-9088-f880a672af88","system_id":"levelo_inurba_marseille","lat":43.26024,"lon":5.37555,"is_reserved":false,"is_disabled":false,"rental_uris":{"android":"levelo://app?vid=71bbaaf0-30fa-412b-9088-f880a672af88","ios":"levelo://app?vid=71bbaaf0-30fa-412b-9088-f880a672af88"},"vehicle_type_id":"4","last_reported":1735052880,"current_range_meters":27600,"station_id":"ce4bhgh2rcd13ifvqfa0","pricing_plan_id":"cebpf4jnsgd1na2vs0mg"},{"bike_id":"b2f86a97-af08-41b2-8296-7e91d5858232","system_id":"levelo_inurba_marseille","lat":43.28999,"lon":5.35618,"is_reserved":false,"is_disabled":false,"rental_uris":{"android":"levelo://app?vid=b2f86a97-af08-41b2-8296-7e91d5858232","ios":"levelo://app?vid=b2f86a97-af08-41b2-8296-7e91d5858232"},"vehicle_type_id":"4","last_reported":1735052880,"current_range_meters":38800,"station_id":"ce4bhb92rcd13ifvqen0","pricing_plan_id":"cebpf4jnsgd1na2vs0mg"},{"bike_id":"980185bd-062a-4071-8686-3ad854900388","system_id":"levelo_inurba_marseille","lat":43.232,"lon":5.40051,"is_reserved":false,"is_disabled":false,"rental_uris":{"android":"levelo://app?vid=980185bd-062a-4071-8686-3ad854900388","ios":"levelo://app?vid=980185bd-062a-4071-8686-3ad854900388"},"vehicle_type_id":"4","last_reported":1735052880,"current_range_meters":34800,"station_id":"ce4bhn12rcd13ifvqgqg","pricing_plan_id":"cebpf4jnsgd1na2vs0mg"},{"bike_id":"415b2cd5-897b-4e32-9006-9b4a1d4c414f","system_id":"levelo_inurba_marseille","lat":43.30778,"lon":5.37662,"is_reserved":false,"is_disabled":false,"rental_uris":{"android":"levelo://app?vid=415b2cd5-897b-4e32-9006-9b4a1d4c414f","ios":"levelo://app?vid=415b2cd5-897b-4e32-9006-9b4a1d4c414f"},"vehicle_type_id":"4","last_reported":1735052880,"current_range_meters":29600,"station_id":"ce4bgv92rcd13ifvqcq0","pricing_plan_id":"cebpf4jnsgd1na2vs0mg"},{"bike_id":"acdc711f-0743-46ed-bcd0-b221ef49b1e8","system_id":"levelo_inurba_marseille","lat":43.26045,"lon":5.37552,"is_reserved":false,"is_disabled":false,"rental_uris":{"android":"levelo://app?vid=acdc711f-0743-46ed-bcd0-b221ef49b1e8","ios":"levelo://app?vid=acdc711f-0743-46ed-bcd0-b221ef49b1e8"},"vehicle_type_id":"4","last_reported":1735052880,"current_range_meters":38800,"station_id":"ce4bhgh2rcd13ifvqfa0","pricing_plan_id":"cebpf4jnsgd1na2vs0mg"},{"bike_id":"ba746732-e71a-4f84-b019-48330b84614a","system_id":"levelo_inurba_marseille","lat":43.26938,"lon":5.38923,"is_reserved":false,"is_disabled":false,"rental_uris":{"android":"levelo://app?vid=ba746732-e71a-4f84-b019-48330b84614a","ios":"levelo://app?vid=ba746732-e71a-4f84-b019-48330b84614a"},"vehicle_type_id":"4","last_reported":1735052880,"current_range_meters":38000,"station_id":"ce4bhhh2rcd13ifvqfl0","pricing_plan_id":"cebpf4jnsgd1na2vs0mg"},{"bike_id":"f68d00f0-3148-454c-ba66-1d06594aedb3","system_id":"levelo_inurba_marseille","lat":43.299,"lon":5.38152,"is_reserved":false,"is_disabled":false,"rental_uris":{"android":"levelo://app?vid=f68d00f0-3148-454c-ba66-1d06594aedb3","ios":"levelo://app?vid=f68d00f0-3148-454c-ba66-1d06594aedb3"},"vehicle_type_id":"4","last_reported":1735052880,"current_range_meters":38800,"station_id":"ce4bgj12rcd13ifvqbc0","pricing_plan_id":"cebpf4jnsgd1na2vs0mg"},{"bike_id":"a87760bb-860a-41ff-af6f-797f55d9f68d","system_id":"levelo_inurba_marseille","lat":43.29788,"lon":5.39358,"is_reserved":false,"is_disabled":false,"rental_uris":{"android":"levelo://app?vid=a87760bb-860a-41ff-af6f-797f55d9f68d","ios":"levelo://app?vid=a87760bb-860a-41ff-af6f-797f55d9f68d"},"vehicle_type_id":"4","last_reported":1735052880,"current_range_meters":32000,"station_id":"chh1huq6cuj3fo74tm60","pricing_plan_id":"cebpf4jnsgd1na2vs0mg"},{"bike_id":"7f983f09-6595-423c-8ef4-b9d32376eddc","system_id":"levelo_inurba_marseille","lat":43.31996,"lon":5.38158,"is_reserved":false,"is_disabled":false,"rental_uris":{"android":"levelo://app?vid=7f983f09-6595-423c-8ef4-b9d32376eddc","ios":"levelo://app?vid=7f983f09-6595-423c-8ef4-b9d32376eddc"},"vehicle_type_id":"4","last_reported":1735052880,"current_range_meters":34800,"station_id":"ce4bhr12rcd13ifvqhpg","pricing_plan_id":"cebpf4jnsgd1na2vs0mg"},{"bike_id":"a6884112-fad3-41fd-a5eb-93d4a26de846","system_id":"levelo_inurba_marseille","lat":43.29278,"lon":5.40131,"is_reserved":false,"is_disabled":false,"rental_uris":{"android":"levelo://app?vid=a6884112-fad3-41fd-a5eb-93d4a26de846","ios":"levelo://app?vid=a6884112-fad3-41fd-a5eb-93d4a26de846"},"vehicle_type_id":"4","last_reported":1735052880,"current_range_meters":20000,"station_id":"ce4bh312rcd13ifvqdk0","pricing_plan_id":"cebpf4jnsgd1na2vs0mg"},{"bike_id":"2d8995f4-d016-42bf-9219-76598d04ce99","system_id":"levelo_inurba_marseille","lat":43.29704,"lon":5.37674,"is_reserved":false,"is_disabled":false,"rental_uris":{"android":"levelo://app?vid=2d8995f4-d016-42bf-9219-76598d04ce99","ios":"levelo://app?vid=2d8995f4-d016-42bf-9219-76598d04ce99"},"vehicle_type_id":"4","last_reported":1735052880,"current_range_meters":28400,"station_id":"ce4bgkh2rcd13ifvqbl0","pricing_plan_id":"cebpf4jnsgd1na2vs0mg"},{"bike_id":"3c079412-698a-4ad7-872c-5c56e449290c","system_id":"levelo_inurba_marseille","lat":43.2315,"lon":5.43715,"is_reserved":false,"is_disabled":false,"rental_uris":{"android":"levelo://app?vid=3c079412-698a-4ad7-872c-5c56e449290c","ios":"levelo://app?vid=3c079412-698a-4ad7-872c-5c56e449290c"},"vehicle_type_id":"4","last_reported":1735052880,"current_range_meters":36800,"station_id":"ce4bhmp2rcd13ifvqgog","pricing_plan_id":"cebpf4jnsgd1na2vs0mg"},{"bike_id":"b69e5daa-6fc4-489e-9dfb-42d334521c66","system_id":"levelo_inurba_marseille","lat":43.28607,"lon":5.37065,"is_reserved":false,"is_disabled":false,"rental_uris":{"android":"levelo://app?vid=b69e5daa-6fc4-489e-9dfb-42d334521c66","ios":"levelo://app?vid=b69e5daa-6fc4-489e-9dfb-42d334521c66"},"vehicle_type_id":"4","last_reported":1735052880,"current_range_meters":38800,"station_id":"ce4bht12rcd13ifvqi60","pricing_plan_id":"cebpf4jnsgd1na2vs0mg"},{"bike_id":"eb493c73-faad-4c01-b4aa-27ac99a1af59","system_id":"levelo_inurba_marseille","lat":43.29621,"lon":5.37173,"is_reserved":false,"is_disabled":false,"rental_uris":{"android":"levelo://app?vid=eb493c73-faad-4c01-b4aa-27ac99a1af59","ios":"levelo://app?vid=eb493c73-faad-4c01-b4aa-27ac99a1af59"},"vehicle_type_id":"4","last_reported":1735052880,"current_range_meters":38800,"station_id":"ce4bgnh2rcd13ifvqc0g","pricing_plan_id":"cebpf4jnsgd1na2vs0mg"},{"bike_id":"745b61e3-138e-43ed-a4d3-3d3125465bde","system_id":"levelo_inurba_marseille","lat":43.2657,"lon":5.39017,"is_reserved":false,"is_disabled":false,"rental_uris":{"android":"levelo://app?vid=745b61e3-138e-43ed-a4d3-3d3125465bde","ios":"levelo://app?vid=745b61e3-138e-43ed-a4d3-3d3125465bde"},"vehicle_type_id":"4","last_reported":1735052880,"current_range_meters":27600,"station_id":"ce4bhe12rcd13ifvqf30","pricing_plan_id":"cebpf4jnsgd1na2vs0mg"},{"bike_id":"ed1763fd-e266-4e6e-97ea-ed2d302cc781","system_id":"levelo_inurba_marseille","lat":43.28852,"lon":5.39334,"is_reserved":false,"is_disabled":false,"rental_uris":{"android":"levelo://app?vid=ed1763fd-e266-4e6e-97ea-ed2d302cc781","ios":"levelo://app?vid=ed1763fd-e266-4e6e-97ea-ed2d302cc781"},"vehicle_type_id":"4","last_reported":1735052880,"current_range_meters":27200,"station_id":"ce4bh2p2rcd13ifvqdi0","pricing_plan_id":"cebpf4jnsgd1na2vs0mg"},{"bike_id":"7608f1ad-6069-4760-9820-c5af492fd707","system_id":"levelo_inurba_marseille","lat":43.29581,"lon":5.36747,"is_reserved":false,"is_disabled":false,"rental_uris":{"android":"levelo://app?vid=7608f1ad-6069-4760-9820-c5af492fd707","ios":"levelo://app?vid=7608f1ad-6069-4760-9820-c5af492fd707"},"vehicle_type_id":"4","last_reported":1735052880,"current_range_meters":38800,"station_id":"ce4bgph2rcd13ifvqc2g","pricing_plan_id":"cebpf4jnsgd1na2vs0mg"},{"bike_id":"436368fd-ce8e-42e8-a948-53a6231f7e88","system_id":"levelo_inurba_marseille","lat":43.31884,"lon":5.40732,"is_reserved":false,"is_disabled":false,"rental_uris":{"android":"levelo://app?vid=436368fd-ce8e-42e8-a948-53a6231f7e88","ios":"levelo://app?vid=436368fd-ce8e-42e8-a948-53a6231f7e88"},"vehicle_type_id":"4","last_reported":1735052880,"current_range_meters":38800,"station_id":"ce4bhq12rcd13ifvqhig","pricing_plan_id":"cebpf4jnsgd1na2vs0mg"},{"bike_id":"2531a841-d2ae-4f82-b31e-c792b7d866bd","system_id":"levelo_inurba_marseille","lat":43.306348,"lon":5.401054,"is_reserved":false,"is_disabled":true,"rental_uris":{"android":"levelo://app?vid=2531a841-d2ae-4f82-b31e-c792b7d866bd","ios":"levelo://app?vid=2531a841-d2ae-4f82-b31e-c792b7d866bd"},"vehicle_type_id":"4","last_reported":1735052880,"current_range_meters":0,"station_id":"ce4bh112rcd13ifvqda0","pricing_plan_id":"cebpf4jnsgd1na2vs0mg"},{"bike_id":"a0cecc73-52dd-4c34-ba9d-bbe6026f61d0","system_id":"levelo_inurba_marseille","lat":43.25827,"lon":5.3943,"is_reserved":false,"is_disabled":false,"rental_uris":{"android":"levelo://app?vid=a0cecc73-52dd-4c34-ba9d-bbe6026f61d0","ios":"levelo://app?vid=a0cecc73-52dd-4c34-ba9d-bbe6026f61d0"},"vehicle_type_id":"4","last_reported":1735052880,"current_range_meters":38800,"station_id":"ce4bhip2rcd13ifvqft0","pricing_plan_id":"cebpf4jnsgd1na2vs0mg"},{"bike_id":"6fc39219-982d-4feb-9b3b-e1ba4db40afe","system_id":"levelo_inurba_marseille","lat":43.29604,"lon":5.38076,"is_reserved":false,"is_disabled":false,"rental_uris":{"android":"levelo://app?vid=6fc39219-982d-4feb-9b3b-e1ba4db40afe","ios":"levelo://app?vid=6fc39219-982d-4feb-9b3b-e1ba4db40afe"},"vehicle_type_id":"4","last_reported":1735052880,"current_range_meters":39200,"station_id":"ce4bgl12rcd13ifvqbo0","pricing_plan_id":"cebpf4jnsgd1na2vs0mg"},{"bike_id":"e73e6057-e6e9-407b-a17e-f4e119a96aba","system_id":"levelo_inurba_marseille","lat":43.3211,"lon":5.36772,"is_reserved":false,"is_disabled":false,"rental_uris":{"android":"levelo://app?vid=e73e6057-e6e9-407b-a17e-f4e119a96aba","ios":"levelo://app?vid=e73e6057-e6e9-407b-a17e-f4e119a96aba"},"vehicle_type_id":"4","last_reported":1735052880,"current_range_meters":36400,"station_id":"ce4bhrh2rcd13ifvqhug","pricing_plan_id":"cebpf4jnsgd1na2vs0mg"},{"bike_id":"8c23ca40-0769-4ca8-b1f0-68e8fb86c54b","system_id":"levelo_inurba_marseille","lat":43.24999,"lon":5.38928,"is_reserved":false,"is_disabled":false,"rental_uris":{"android":"levelo://app?vid=8c23ca40-0769-4ca8-b1f0-68e8fb86c54b","ios":"levelo://app?vid=8c23ca40-0769-4ca8-b1f0-68e8fb86c54b"},"vehicle_type_id":"4","last_reported":1735052880,"current_range_meters":35200,"station_id":"ce4bhgp2rcd13ifvqfd0","pricing_plan_id":"cebpf4jnsgd1na2vs0mg"},{"bike_id":"ff19ce84-10b6-4ffc-b9fc-1625914b166c","system_id":"levelo_inurba_marseille","lat":43.2971,"lon":5.36618,"is_reserved":false,"is_disabled":false,"rental_uris":{"android":"levelo://app?vid=ff19ce84-10b6-4ffc-b9fc-1625914b166c","ios":"levelo://app?vid=ff19ce84-10b6-4ffc-b9fc-1625914b166c"},"vehicle_type_id":"4","last_reported":1735052880,"current_range_meters":24800,"station_id":"ce4bgn12rcd13ifvqbt0","pricing_plan_id":"cebpf4jnsgd1na2vs0mg"},{"bike_id":"8e3312ea-d43b-4e57-9ce7-0eaa54c27222","system_id":"levelo_inurba_marseille","lat":43.30476,"lon":5.37906,"is_reserved":false,"is_disabled":false,"rental_uris":{"android":"levelo://app?vid=8e3312ea-d43b-4e57-9ce7-0eaa54c27222","ios":"levelo://app?vid=8e3312ea-d43b-4e57-9ce7-0eaa54c27222"},"vehicle_type_id":"4","last_reported":1735052880,"current_range_meters":8800,"station_id":"ce4bgup2rcd13ifvqcn0","pricing_plan_id":"cebpf4jnsgd1na2vs0mg"},{"bike_id":"4bcb37c0-9249-499d-890c-0bbf93d29f8b","system_id":"levelo_inurba_marseille","lat":43.23192,"lon":5.35557,"is_reserved":false,"is_disabled":true,"rental_uris":{"android":"levelo://app?vid=4bcb37c0-9249-499d-890c-0bbf93d29f8b","ios":"levelo://app?vid=4bcb37c0-9249-499d-890c-0bbf93d29f8b"},"vehicle_type_id":"4","last_reported":1735052880,"current_range_meters":16000,"station_id":"ce4bhu92rcd13ifvqi70","pricing_plan_id":"cebpf4jnsgd1na2vs0mg"},{"bike_id":"94b596ff-97d4-43d8-82b1-3b1dc3efa14d","system_id":"levelo_inurba_marseille","lat":43.29562,"lon":5.37518,"is_reserved":false,"is_disabled":false,"rental_uris":{"android":"levelo://app?vid=94b596ff-97d4-43d8-82b1-3b1dc3efa14d","ios":"levelo://app?vid=94b596ff-97d4-43d8-82b1-3b1dc3efa14d"},"vehicle_type_id":"4","last_reported":1735052880,"current_range_meters":11200,"station_id":"ce4bgh92rcd13ifvqb50","pricing_plan_id":"cebpf4jnsgd1na2vs0mg"},{"bike_id":"686ed158-aacd-4bbf-9b41-525cce904775","system_id":"levelo_inurba_marseille","lat":43.2905,"lon":5.3591,"is_reserved":false,"is_disabled":false,"rental_uris":{"android":"levelo://app?vid=686ed158-aacd-4bbf-9b41-525cce904775","ios":"levelo://app?vid=686ed158-aacd-4bbf-9b41-525cce904775"},"vehicle_type_id":"4","last_reported":1735052880,"current_range_meters":3600,"station_id":"ce4bha92rcd13ifvqeg0","pricing_plan_id":"cebpf4jnsgd1na2vs0mg"},{"bike_id":"e3055757-4e5c-471b-bc49-10de19223f16","system_id":"levelo_inurba_marseille","lat":43.32033,"lon":5.41569,"is_reserved":false,"is_disabled":false,"rental_uris":{"android":"levelo://app?vid=e3055757-4e5c-471b-bc49-10de19223f16","ios":"levelo://app?vid=e3055757-4e5c-471b-bc49-10de19223f16"},"vehicle_type_id":"4","last_reported":1735052880,"current_range_meters":34000,"station_id":"ce4bhq92rcd13ifvqhkg","pricing_plan_id":"cebpf4jnsgd1na2vs0mg"},{"bike_id":"cd557ca8-748b-4022-87fb-b196f5f5086d","system_id":"levelo_inurba_marseille","lat":43.29785,"lon":5.37101,"is_reserved":false,"is_disabled":false,"rental_uris":{"android":"levelo://app?vid=cd557ca8-748b-4022-87fb-b196f5f5086d","ios":"levelo://app?vid=cd557ca8-748b-4022-87fb-b196f5f5086d"},"vehicle_type_id":"4","last_reported":1735052880,"current_range_meters":38800,"station_id":"ce4bgop2rcd13ifvqc1g","pricing_plan_id":"cebpf4jnsgd1na2vs0mg"},{"bike_id":"3e0dffd7-74ff-4814-97ea-253d3881d122","system_id":"levelo_inurba_marseille","lat":43.29601,"lon":5.37734,"is_reserved":false,"is_disabled":false,"rental_uris":{"android":"levelo://app?vid=3e0dffd7-74ff-4814-97ea-253d3881d122","ios":"levelo://app?vid=3e0dffd7-74ff-4814-97ea-253d3881d122"},"vehicle_type_id":"4","last_reported":1735052880,"current_range_meters":34800,"station_id":"ce4bgi92rcd13ifvqb90","pricing_plan_id":"cebpf4jnsgd1na2vs0mg"},{"bike_id":"343bc065-3555-49ac-90b9-9f9335d87211","system_id":"levelo_inurba_marseille","lat":43.25817,"lon":5.39443,"is_reserved":false,"is_disabled":false,"rental_uris":{"android":"levelo://app?vid=343bc065-3555-49ac-90b9-9f9335d87211","ios":"levelo://app?vid=343bc065-3555-49ac-90b9-9f9335d87211"},"vehicle_type_id":"4","last_reported":1735052880,"current_range_meters":38800,"station_id":"ce4bhip2rcd13ifvqft0","pricing_plan_id":"cebpf4jnsgd1na2vs0mg"},{"bike_id":"1401d782-4c42-4502-9233-ae0e4dbfcaa2","system_id":"levelo_inurba_marseille","lat":43.27424,"lon":5.3941,"is_reserved":false,"is_disabled":false,"rental_uris":{"android":"levelo://app?vid=1401d782-4c42-4502-9233-ae0e4dbfcaa2","ios":"levelo://app?vid=1401d782-4c42-4502-9233-ae0e4dbfcaa2"},"vehicle_type_id":"4","last_reported":1735052880,"current_range_meters":32400,"station_id":"ce4bhdp2rcd13ifvqf20","pricing_plan_id":"cebpf4jnsgd1na2vs0mg"},{"bike_id":"99d58419-7fd2-4ee3-85af-8e206f15bae9","system_id":"levelo_inurba_marseille","lat":43.30794,"lon":5.4353,"is_reserved":false,"is_disabled":false,"rental_uris":{"android":"levelo://app?vid=99d58419-7fd2-4ee3-85af-8e206f15bae9","ios":"levelo://app?vid=99d58419-7fd2-4ee3-85af-8e206f15bae9"},"vehicle_type_id":"4","last_reported":1735052880,"current_range_meters":11600,"station_id":"ce4bhph2rcd13ifvqheg","pricing_plan_id":"cebpf4jnsgd1na2vs0mg"},{"bike_id":"2548277c-82db-4cdb-a685-c0db4b711992","system_id":"levelo_inurba_marseille","lat":43.28419,"lon":5.34998,"is_reserved":false,"is_disabled":false,"rental_uris":{"android":"levelo://app?vid=2548277c-82db-4cdb-a685-c0db4b711992","ios":"levelo://app?vid=2548277c-82db-4cdb-a685-c0db4b711992"},"vehicle_type_id":"4","last_reported":1735052880,"current_range_meters":30000,"station_id":"ce4bhbh2rcd13ifvqepg","pricing_plan_id":"cebpf4jnsgd1na2vs0mg"},{"bike_id":"dad6db58-f5bc-4da2-b0b4-3d5d1002166b","system_id":"levelo_inurba_marseille","lat":43.32109,"lon":5.36768,"is_reserved":false,"is_disabled":false,"rental_uris":{"android":"levelo://app?vid=dad6db58-f5bc-4da2-b0b4-3d5d1002166b","ios":"levelo://app?vid=dad6db58-f5bc-4da2-b0b4-3d5d1002166b"},"vehicle_type_id":"4","last_reported":1735052880,"current_range_meters":30800,"station_id":"ce4bhrh2rcd13ifvqhug","pricing_plan_id":"cebpf4jnsgd1na2vs0mg"},{"bike_id":"d215e6a3-2dbb-4240-82c4-dbdd5ce5595f","system_id":"levelo_inurba_marseille","lat":43.29902,"lon":5.38148,"is_reserved":false,"is_disabled":false,"rental_uris":{"android":"levelo://app?vid=d215e6a3-2dbb-4240-82c4-dbdd5ce5595f","ios":"levelo://app?vid=d215e6a3-2dbb-4240-82c4-dbdd5ce5595f"},"vehicle_type_id":"4","last_reported":1735052880,"current_range_meters":38800,"station_id":"ce4bgj12rcd13ifvqbc0","pricing_plan_id":"cebpf4jnsgd1na2vs0mg"},{"bike_id":"68aa5285-c8d9-41b9-bb64-fbd6db92ad6a","system_id":"levelo_inurba_marseille","lat":43.32451,"lon":5.36549,"is_reserved":false,"is_disabled":false,"rental_uris":{"android":"levelo://app?vid=68aa5285-c8d9-41b9-bb64-fbd6db92ad6a","ios":"levelo://app?vid=68aa5285-c8d9-41b9-bb64-fbd6db92ad6a"},"vehicle_type_id":"4","last_reported":1735052880,"current_range_meters":30000,"station_id":"ce4bhs12rcd13ifvqhvg","pricing_plan_id":"cebpf4jnsgd1na2vs0mg"},{"bike_id":"5314bcb2-cabd-451d-bc91-3e310b816f83","system_id":"levelo_inurba_marseille","lat":43.299164,"lon":5.374788,"is_reserved":false,"is_disabled":false,"rental_uris":{"android":"levelo://app?vid=5314bcb2-cabd-451d-bc91-3e310b816f83","ios":"levelo://app?vid=5314bcb2-cabd-451d-bc91-3e310b816f83"},"vehicle_type_id":"4","last_reported":1735052880,"current_range_meters":28000,"station_id":"ce4bgjh2rcd13ifvqbg0","pricing_plan_id":"cebpf4jnsgd1na2vs0mg"},{"bike_id":"fec32201-c9ba-4c8e-81d1-72e9a4767af7","system_id":"levelo_inurba_marseille","lat":43.30416,"lon":5.41283,"is_reserved":false,"is_disabled":false,"rental_uris":{"android":"levelo://app?vid=fec32201-c9ba-4c8e-81d1-72e9a4767af7","ios":"levelo://app?vid=fec32201-c9ba-4c8e-81d1-72e9a4767af7"},"vehicle_type_id":"4","last_reported":1735052880,"current_range_meters":38800,"station_id":"ce4bhop2rcd13ifvqh8g","pricing_plan_id":"cebpf4jnsgd1na2vs0mg"},{"bike_id":"1f60e3a9-5bdb-49c1-9912-d728d8f40aa3","system_id":"levelo_inurba_marseille","lat":43.23154,"lon":5.43712,"is_reserved":false,"is_disabled":false,"rental_uris":{"android":"levelo://app?vid=1f60e3a9-5bdb-49c1-9912-d728d8f40aa3","ios":"levelo://app?vid=1f60e3a9-5bdb-49c1-9912-d728d8f40aa3"},"vehicle_type_id":"4","last_reported":1735052880,"current_range_meters":37600,"station_id":"ce4bhmp2rcd13ifvqgog","pricing_plan_id":"cebpf4jnsgd1na2vs0mg"},{"bike_id":"ab757bae-5ce5-4fe9-90fe-87c7f91ae4aa","system_id":"levelo_inurba_marseille","lat":43.28264,"lon":5.35067,"is_reserved":false,"is_disabled":false,"rental_uris":{"android":"levelo://app?vid=ab757bae-5ce5-4fe9-90fe-87c7f91ae4aa","ios":"levelo://app?vid=ab757bae-5ce5-4fe9-90fe-87c7f91ae4aa"},"vehicle_type_id":"4","last_reported":1735052880,"current_range_meters":17600,"station_id":"ce4bhbp2rcd13ifvqerg","pricing_plan_id":"cebpf4jnsgd1na2vs0mg"},{"bike_id":"2d1de77e-4973-4fea-8c0a-54c7d51b1296","system_id":"levelo_inurba_marseille","lat":43.2962,"lon":5.37729,"is_reserved":false,"is_disabled":false,"rental_uris":{"android":"levelo://app?vid=2d1de77e-4973-4fea-8c0a-54c7d51b1296","ios":"levelo://app?vid=2d1de77e-4973-4fea-8c0a-54c7d51b1296"},"vehicle_type_id":"4","last_reported":1735052880,"current_range_meters":12800,"station_id":"ce4bgi92rcd13ifvqb90","pricing_plan_id":"cebpf4jnsgd1na2vs0mg"},{"bike_id":"cf12c232-c3a3-4785-8fed-9cea9aa4f082","system_id":"levelo_inurba_marseille","lat":43.27684,"lon":5.38917,"is_reserved":false,"is_disabled":false,"rental_uris":{"android":"levelo://app?vid=cf12c232-c3a3-4785-8fed-9cea9aa4f082","ios":"levelo://app?vid=cf12c232-c3a3-4785-8fed-9cea9aa4f082"},"vehicle_type_id":"4","last_reported":1735052880,"current_range_meters":12000,"station_id":"ce4bhi12rcd13ifvqfo0","pricing_plan_id":"cebpf4jnsgd1na2vs0mg"},{"bike_id":"7d51f556-7ada-4233-9b93-03f8f492aa76","system_id":"levelo_inurba_marseille","lat":43.245442,"lon":5.395222,"is_reserved":false,"is_disabled":true,"rental_uris":{"android":"levelo://app?vid=7d51f556-7ada-4233-9b93-03f8f492aa76","ios":"levelo://app?vid=7d51f556-7ada-4233-9b93-03f8f492aa76"},"vehicle_type_id":"4","last_reported":1735052880,"current_range_meters":7200,"station_id":"ce4bhlp2rcd13ifvqgjg","pricing_plan_id":"cebpf4jnsgd1na2vs0mg"},{"bike_id":"1866340a-45b4-4bd2-ac73-392a4ecb2e72","system_id":"levelo_inurba_marseille","lat":43.29844,"lon":5.36269,"is_reserved":false,"is_disabled":false,"rental_uris":{"android":"levelo://app?vid=1866340a-45b4-4bd2-ac73-392a4ecb2e72","ios":"levelo://app?vid=1866340a-45b4-4bd2-ac73-392a4ecb2e72"},"vehicle_type_id":"4","last_reported":1735052880,"current_range_meters":39200,"station_id":"ce4bgpp2rcd13ifvqc3g","pricing_plan_id":"cebpf4jnsgd1na2vs0mg"},{"bike_id":"5aa4d5e2-8dcd-4ae6-952d-e09aad79b787","system_id":"levelo_inurba_marseille","lat":43.279947,"lon":5.400237,"is_reserved":false,"is_disabled":false,"rental_uris":{"android":"levelo://app?vid=5aa4d5e2-8dcd-4ae6-952d-e09aad79b787","ios":"levelo://app?vid=5aa4d5e2-8dcd-4ae6-952d-e09aad79b787"},"vehicle_type_id":"4","last_reported":1735052880,"current_range_meters":39200,"station_id":"ce4bho92rcd13ifvqh4g","pricing_plan_id":"cebpf4jnsgd1na2vs0mg"},{"bike_id":"4ed0cabe-875c-4ebe-ad34-74644f479788","system_id":"levelo_inurba_marseille","lat":43.27677,"lon":5.38896,"is_reserved":false,"is_disabled":false,"rental_uris":{"android":"levelo://app?vid=4ed0cabe-875c-4ebe-ad34-74644f479788","ios":"levelo://app?vid=4ed0cabe-875c-4ebe-ad34-74644f479788"},"vehicle_type_id":"4","last_reported":1735052880,"current_range_meters":25200,"station_id":"ce4bhi12rcd13ifvqfo0","pricing_plan_id":"cebpf4jnsgd1na2vs0mg"},{"bike_id":"c2b13e1f-27c5-4ff9-b780-21ce47c387ee","system_id":"levelo_inurba_marseille","lat":43.23182,"lon":5.39987,"is_reserved":false,"is_disabled":false,"rental_uris":{"android":"levelo://app?vid=c2b13e1f-27c5-4ff9-b780-21ce47c387ee","ios":"levelo://app?vid=c2b13e1f-27c5-4ff9-b780-21ce47c387ee"},"vehicle_type_id":"4","last_reported":1735052880,"current_range_meters":38800,"station_id":"ce4bhn12rcd13ifvqgqg","pricing_plan_id":"cebpf4jnsgd1na2vs0mg"},{"bike_id":"836d944f-6d75-4c17-b70a-d071158594dd","system_id":"levelo_inurba_marseille","lat":43.274221,"lon":5.394163,"is_reserved":false,"is_disabled":false,"rental_uris":{"android":"levelo://app?vid=836d944f-6d75-4c17-b70a-d071158594dd","ios":"levelo://app?vid=836d944f-6d75-4c17-b70a-d071158594dd"},"vehicle_type_id":"4","last_reported":1735052880,"current_range_meters":33600,"station_id":"ce4bhdp2rcd13ifvqf20","pricing_plan_id":"cebpf4jnsgd1na2vs0mg"},{"bike_id":"6faad05c-20da-4d4a-8076-943601da37c4","system_id":"levelo_inurba_marseille","lat":43.2657,"lon":5.37296,"is_reserved":false,"is_disabled":false,"rental_uris":{"android":"levelo://app?vid=6faad05c-20da-4d4a-8076-943601da37c4","ios":"levelo://app?vid=6faad05c-20da-4d4a-8076-943601da37c4"},"vehicle_type_id":"4","last_reported":1735052880,"current_range_meters":18000,"station_id":"ce4bhg12rcd13ifvqf70","pricing_plan_id":"cebpf4jnsgd1na2vs0mg"},{"bike_id":"13c39096-92de-47dd-a9ee-5b5cda0c5bbc","system_id":"levelo_inurba_marseille","lat":43.246491,"lon":5.388911,"is_reserved":false,"is_disabled":false,"rental_uris":{"android":"levelo://app?vid=13c39096-92de-47dd-a9ee-5b5cda0c5bbc","ios":"levelo://app?vid=13c39096-92de-47dd-a9ee-5b5cda0c5bbc"},"vehicle_type_id":"4","last_reported":1735052880,"current_range_meters":30800,"station_id":"ce4bhg12rcd13ifvqf60","pricing_plan_id":"cebpf4jnsgd1na2vs0mg"},{"bike_id":"c9fe52af-8760-44ab-ba02-d1939bc3d46c","system_id":"levelo_inurba_marseille","lat":43.30162,"lon":5.38076,"is_reserved":false,"is_disabled":false,"rental_uris":{"android":"levelo://app?vid=c9fe52af-8760-44ab-ba02-d1939bc3d46c","ios":"levelo://app?vid=c9fe52af-8760-44ab-ba02-d1939bc3d46c"},"vehicle_type_id":"4","last_reported":1735052880,"current_range_meters":28400,"station_id":"ce4bgjp2rcd13ifvqbh0","pricing_plan_id":"cebpf4jnsgd1na2vs0mg"},{"bike_id":"29a0f1a8-1d67-4931-af5c-2e3a54c058e2","system_id":"levelo_inurba_marseille","lat":43.30132,"lon":5.39875,"is_reserved":false,"is_disabled":false,"rental_uris":{"android":"levelo://app?vid=29a0f1a8-1d67-4931-af5c-2e3a54c058e2","ios":"levelo://app?vid=29a0f1a8-1d67-4931-af5c-2e3a54c058e2"},"vehicle_type_id":"4","last_reported":1735052880,"current_range_meters":38800,"station_id":"ce4bh0h2rcd13ifvqd40","pricing_plan_id":"cebpf4jnsgd1na2vs0mg"},{"bike_id":"eb416572-2019-4f11-9a74-eae48a595a96","system_id":"levelo_inurba_marseille","lat":43.29788,"lon":5.39349,"is_reserved":false,"is_disabled":false,"rental_uris":{"android":"levelo://app?vid=eb416572-2019-4f11-9a74-eae48a595a96","ios":"levelo://app?vid=eb416572-2019-4f11-9a74-eae48a595a96"},"vehicle_type_id":"4","last_reported":1735052880,"current_range_meters":38800,"station_id":"chh1huq6cuj3fo74tm60","pricing_plan_id":"cebpf4jnsgd1na2vs0mg"},{"bike_id":"701a41ae-cc9c-4355-9ab3-3df20dac2c0e","system_id":"levelo_inurba_marseille","lat":43.29573,"lon":5.37499,"is_reserved":false,"is_disabled":false,"rental_uris":{"android":"levelo://app?vid=701a41ae-cc9c-4355-9ab3-3df20dac2c0e","ios":"levelo://app?vid=701a41ae-cc9c-4355-9ab3-3df20dac2c0e"},"vehicle_type_id":"4","last_reported":1735052880,"current_range_meters":36800,"station_id":"ce4bgh92rcd13ifvqb50","pricing_plan_id":"cebpf4jnsgd1na2vs0mg"},{"bike_id":"0a12f8eb-66bd-4951-8c87-6397f265a7c7","system_id":"levelo_inurba_marseille","lat":43.29719,"lon":5.366,"is_reserved":false,"is_disabled":false,"rental_uris":{"android":"levelo://app?vid=0a12f8eb-66bd-4951-8c87-6397f265a7c7","ios":"levelo://app?vid=0a12f8eb-66bd-4951-8c87-6397f265a7c7"},"vehicle_type_id":"4","last_reported":1735052880,"current_range_meters":38800,"station_id":"ce4bgn12rcd13ifvqbt0","pricing_plan_id":"cebpf4jnsgd1na2vs0mg"},{"bike_id":"081617f2-352d-433d-abf2-e1c0c70491b7","system_id":"levelo_inurba_marseille","lat":43.27318,"lon":5.39109,"is_reserved":false,"is_disabled":false,"rental_uris":{"android":"levelo://app?vid=081617f2-352d-433d-abf2-e1c0c70491b7","ios":"levelo://app?vid=081617f2-352d-433d-abf2-e1c0c70491b7"},"vehicle_type_id":"4","last_reported":1735052880,"current_range_meters":39200,"station_id":"ce4bhgp2rcd13ifvqfe0","pricing_plan_id":"cebpf4jnsgd1na2vs0mg"},{"bike_id":"f32aa6ab-16aa-414e-b63c-82318de90e4e","system_id":"levelo_inurba_marseille","lat":43.29804,"lon":5.38103,"is_reserved":false,"is_disabled":false,"rental_uris":{"android":"levelo://app?vid=f32aa6ab-16aa-414e-b63c-82318de90e4e","ios":"levelo://app?vid=f32aa6ab-16aa-414e-b63c-82318de90e4e"},"vehicle_type_id":"4","last_reported":1735052880,"current_range_meters":31200,"station_id":"ce4bgip2rcd13ifvqbb0","pricing_plan_id":"cebpf4jnsgd1na2vs0mg"},{"bike_id":"4e6d0ca2-6374-490a-b48e-6cba90785a4f","system_id":"levelo_inurba_marseille","lat":43.24648,"lon":5.38901,"is_reserved":false,"is_disabled":false,"rental_uris":{"android":"levelo://app?vid=4e6d0ca2-6374-490a-b48e-6cba90785a4f","ios":"levelo://app?vid=4e6d0ca2-6374-490a-b48e-6cba90785a4f"},"vehicle_type_id":"4","last_reported":1735052880,"current_range_meters":22000,"station_id":"ce4bhg12rcd13ifvqf60","pricing_plan_id":"cebpf4jnsgd1na2vs0mg"},{"bike_id":"b4f08152-3d12-41e6-bca4-2f2ec8aa1907","system_id":"levelo_inurba_marseille","lat":43.29104,"lon":5.3814,"is_reserved":false,"is_disabled":false,"rental_uris":{"android":"levelo://app?vid=b4f08152-3d12-41e6-bca4-2f2ec8aa1907","ios":"levelo://app?vid=b4f08152-3d12-41e6-bca4-2f2ec8aa1907"},"vehicle_type_id":"4","last_reported":1735052880,"current_range_meters":33600,"station_id":"ce4bh512rcd13ifvqe2g","pricing_plan_id":"cebpf4jnsgd1na2vs0mg"},{"bike_id":"a2da62ed-c4ca-4443-a1a1-134c277a106e","system_id":"levelo_inurba_marseille","lat":43.26937,"lon":5.40253,"is_reserved":false,"is_disabled":false,"rental_uris":{"android":"levelo://app?vid=a2da62ed-c4ca-4443-a1a1-134c277a106e","ios":"levelo://app?vid=a2da62ed-c4ca-4443-a1a1-134c277a106e"},"vehicle_type_id":"4","last_reported":1735052880,"current_range_meters":34000,"station_id":"cjm6bp8fraef2m0cb0m0","pricing_plan_id":"cebpf4jnsgd1na2vs0mg"},{"bike_id":"040d7202-545d-4ddc-bad5-7a7c609c6259","system_id":"levelo_inurba_marseille","lat":43.29028,"lon":5.37575,"is_reserved":false,"is_disabled":false,"rental_uris":{"android":"levelo://app?vid=040d7202-545d-4ddc-bad5-7a7c609c6259","ios":"levelo://app?vid=040d7202-545d-4ddc-bad5-7a7c609c6259"},"vehicle_type_id":"4","last_reported":1735052880,"current_range_meters":13600,"station_id":"ce4bh692rcd13ifvqe90","pricing_plan_id":"cebpf4jnsgd1na2vs0mg"},{"bike_id":"e6f255e7-c3a0-4128-a0b1-f18581ab0420","system_id":"levelo_inurba_marseille","lat":43.29913,"lon":5.38142,"is_reserved":false,"is_disabled":false,"rental_uris":{"android":"levelo://app?vid=e6f255e7-c3a0-4128-a0b1-f18581ab0420","ios":"levelo://app?vid=e6f255e7-c3a0-4128-a0b1-f18581ab0420"},"vehicle_type_id":"4","last_reported":1735052880,"current_range_meters":36800,"station_id":"ce4bgj12rcd13ifvqbc0","pricing_plan_id":"cebpf4jnsgd1na2vs0mg"},{"bike_id":"ba65d07a-204d-4be9-96e0-b91b2ca6d251","system_id":"levelo_inurba_marseille","lat":43.26937,"lon":5.40263,"is_reserved":false,"is_disabled":false,"rental_uris":{"android":"levelo://app?vid=ba65d07a-204d-4be9-96e0-b91b2ca6d251","ios":"levelo://app?vid=ba65d07a-204d-4be9-96e0-b91b2ca6d251"},"vehicle_type_id":"4","last_reported":1735052880,"current_range_meters":39200,"station_id":"cjm6bp8fraef2m0cb0m0","pricing_plan_id":"cebpf4jnsgd1na2vs0mg"},{"bike_id":"1025d6aa-31a4-477a-8a58-8fc23c32eb2c","system_id":"levelo_inurba_marseille","lat":43.29346,"lon":5.37855,"is_reserved":false,"is_disabled":false,"rental_uris":{"android":"levelo://app?vid=1025d6aa-31a4-477a-8a58-8fc23c32eb2c","ios":"levelo://app?vid=1025d6aa-31a4-477a-8a58-8fc23c32eb2c"},"vehicle_type_id":"4","last_reported":1735052880,"current_range_meters":38800,"station_id":"ce4bgjh2rcd13ifvqbf0","pricing_plan_id":"cebpf4jnsgd1na2vs0mg"},{"bike_id":"43472636-57cd-411f-b3bd-d2bda7647d04","system_id":"levelo_inurba_marseille","lat":43.269381,"lon":5.402548,"is_reserved":false,"is_disabled":false,"rental_uris":{"android":"levelo://app?vid=43472636-57cd-411f-b3bd-d2bda7647d04","ios":"levelo://app?vid=43472636-57cd-411f-b3bd-d2bda7647d04"},"vehicle_type_id":"4","last_reported":1735052880,"current_range_meters":39200,"station_id":"cjm6bp8fraef2m0cb0m0","pricing_plan_id":"cebpf4jnsgd1na2vs0mg"},{"bike_id":"7777467d-d269-4475-810a-763defc80bef","system_id":"levelo_inurba_marseille","lat":43.29919,"lon":5.38154,"is_reserved":false,"is_disabled":false,"rental_uris":{"android":"levelo://app?vid=7777467d-d269-4475-810a-763defc80bef","ios":"levelo://app?vid=7777467d-d269-4475-810a-763defc80bef"},"vehicle_type_id":"4","last_reported":1735052880,"current_range_meters":35200,"station_id":"ce4bgj12rcd13ifvqbc0","pricing_plan_id":"cebpf4jnsgd1na2vs0mg"},{"bike_id":"4de59872-1f9a-48bc-bb42-8f3a091a0cf8","system_id":"levelo_inurba_marseille","lat":43.29973,"lon":5.37184,"is_reserved":false,"is_disabled":false,"rental_uris":{"android":"levelo://app?vid=4de59872-1f9a-48bc-bb42-8f3a091a0cf8","ios":"levelo://app?vid=4de59872-1f9a-48bc-bb42-8f3a091a0cf8"},"vehicle_type_id":"4","last_reported":1735052880,"current_range_meters":35200,"station_id":"ce4bgr92rcd13ifvqc7g","pricing_plan_id":"cebpf4jnsgd1na2vs0mg"},{"bike_id":"58975c95-cbcc-4de2-ac6a-2c5c03741a00","system_id":"levelo_inurba_marseille","lat":43.27057,"lon":5.42275,"is_reserved":false,"is_disabled":false,"rental_uris":{"android":"levelo://app?vid=58975c95-cbcc-4de2-ac6a-2c5c03741a00","ios":"levelo://app?vid=58975c95-cbcc-4de2-ac6a-2c5c03741a00"},"vehicle_type_id":"4","last_reported":1735052880,"current_range_meters":38800,"station_id":"ce4bhk92rcd13ifvqgb0","pricing_plan_id":"cebpf4jnsgd1na2vs0mg"},{"bike_id":"bd0c07fd-56e8-4504-bcbe-5fd22e688d28","system_id":"levelo_inurba_marseille","lat":43.29636,"lon":5.40596,"is_reserved":false,"is_disabled":false,"rental_uris":{"android":"levelo://app?vid=bd0c07fd-56e8-4504-bcbe-5fd22e688d28","ios":"levelo://app?vid=bd0c07fd-56e8-4504-bcbe-5fd22e688d28"},"vehicle_type_id":"4","last_reported":1735052880,"current_range_meters":38800,"station_id":"ce4bh0h2rcd13ifvqd60","pricing_plan_id":"cebpf4jnsgd1na2vs0mg"},{"bike_id":"ebddb4d5-c9c6-4495-b655-a0cf132a3527","system_id":"levelo_inurba_marseille","lat":43.29522,"lon":5.38544,"is_reserved":false,"is_disabled":false,"rental_uris":{"android":"levelo://app?vid=ebddb4d5-c9c6-4495-b655-a0cf132a3527","ios":"levelo://app?vid=ebddb4d5-c9c6-4495-b655-a0cf132a3527"},"vehicle_type_id":"4","last_reported":1735052880,"current_range_meters":38000,"station_id":"ce4bgih2rcd13ifvqba0","pricing_plan_id":"cebpf4jnsgd1na2vs0mg"},{"bike_id":"3db5d988-83a1-46f4-8977-1079849ebfce","system_id":"levelo_inurba_marseille","lat":43.28419,"lon":5.37544,"is_reserved":false,"is_disabled":false,"rental_uris":{"android":"levelo://app?vid=3db5d988-83a1-46f4-8977-1079849ebfce","ios":"levelo://app?vid=3db5d988-83a1-46f4-8977-1079849ebfce"},"vehicle_type_id":"4","last_reported":1735052880,"current_range_meters":28800,"station_id":"ce4bh412rcd13ifvqds0","pricing_plan_id":"cebpf4jnsgd1na2vs0mg"},{"bike_id":"fb0e6359-3fe6-4009-9014-99d06d5c7222","system_id":"levelo_inurba_marseille","lat":43.2962,"lon":5.37156,"is_reserved":false,"is_disabled":false,"rental_uris":{"android":"levelo://app?vid=fb0e6359-3fe6-4009-9014-99d06d5c7222","ios":"levelo://app?vid=fb0e6359-3fe6-4009-9014-99d06d5c7222"},"vehicle_type_id":"4","last_reported":1735052880,"current_range_meters":38800,"station_id":"ce4bgnh2rcd13ifvqc0g","pricing_plan_id":"cebpf4jnsgd1na2vs0mg"},{"bike_id":"ed450225-a745-4717-9a3e-b0e3bb0a4cfd","system_id":"levelo_inurba_marseille","lat":43.27374,"lon":5.36253,"is_reserved":false,"is_disabled":false,"rental_uris":{"android":"levelo://app?vid=ed450225-a745-4717-9a3e-b0e3bb0a4cfd","ios":"levelo://app?vid=ed450225-a745-4717-9a3e-b0e3bb0a4cfd"},"vehicle_type_id":"4","last_reported":1735052880,"current_range_meters":31200,"station_id":"ce4bhbh2rcd13ifvqeo0","pricing_plan_id":"cebpf4jnsgd1na2vs0mg"},{"bike_id":"274810ae-a491-4e72-9efb-72b1d3640926","system_id":"levelo_inurba_marseille","lat":43.27556,"lon":5.38421,"is_reserved":false,"is_disabled":false,"rental_uris":{"android":"levelo://app?vid=274810ae-a491-4e72-9efb-72b1d3640926","ios":"levelo://app?vid=274810ae-a491-4e72-9efb-72b1d3640926"},"vehicle_type_id":"4","last_reported":1735052880,"current_range_meters":35600,"station_id":"ce4bhh92rcd13ifvqfi0","pricing_plan_id":"cebpf4jnsgd1na2vs0mg"},{"bike_id":"40ae8cb8-e49e-4a0f-a442-f25bcd7620a2","system_id":"levelo_inurba_marseille","lat":43.30424,"lon":5.39743,"is_reserved":false,"is_disabled":false,"rental_uris":{"android":"levelo://app?vid=40ae8cb8-e49e-4a0f-a442-f25bcd7620a2","ios":"levelo://app?vid=40ae8cb8-e49e-4a0f-a442-f25bcd7620a2"},"vehicle_type_id":"4","last_reported":1735052880,"current_range_meters":38800,"station_id":"ce4bh092rcd13ifvqd20","pricing_plan_id":"cebpf4jnsgd1na2vs0mg"},{"bike_id":"5783f472-7468-4bde-a8a4-e8699731eecc","system_id":"levelo_inurba_marseille","lat":43.32076,"lon":5.41586,"is_reserved":false,"is_disabled":false,"rental_uris":{"android":"levelo://app?vid=5783f472-7468-4bde-a8a4-e8699731eecc","ios":"levelo://app?vid=5783f472-7468-4bde-a8a4-e8699731eecc"},"vehicle_type_id":"4","last_reported":1735052880,"current_range_meters":31200,"station_id":"ce4bhq92rcd13ifvqhkg","pricing_plan_id":"cebpf4jnsgd1na2vs0mg"},{"bike_id":"1601cb4d-c6b7-4894-b7f8-eeab49590138","system_id":"levelo_inurba_marseille","lat":43.2656,"lon":5.37283,"is_reserved":false,"is_disabled":false,"rental_uris":{"android":"levelo://app?vid=1601cb4d-c6b7-4894-b7f8-eeab49590138","ios":"levelo://app?vid=1601cb4d-c6b7-4894-b7f8-eeab49590138"},"vehicle_type_id":"4","last_reported":1735052880,"current_range_meters":36800,"station_id":"ce4bhg12rcd13ifvqf70","pricing_plan_id":"cebpf4jnsgd1na2vs0mg"},{"bike_id":"1f51b21d-3179-4324-a3f5-a296554cea4d","system_id":"levelo_inurba_marseille","lat":43.27808,"lon":5.40715,"is_reserved":false,"is_disabled":false,"rental_uris":{"android":"levelo://app?vid=1f51b21d-3179-4324-a3f5-a296554cea4d","ios":"levelo://app?vid=1f51b21d-3179-4324-a3f5-a296554cea4d"},"vehicle_type_id":"4","last_reported":1735052880,"current_range_meters":29600,"station_id":"ce4bhnh2rcd13ifvqgtg","pricing_plan_id":"cebpf4jnsgd1na2vs0mg"},{"bike_id":"aa5d5d16-a2f6-4c81-8cd4-c9ee96949ae4","system_id":"levelo_inurba_marseille","lat":43.23192,"lon":5.39989,"is_reserved":false,"is_disabled":false,"rental_uris":{"android":"levelo://app?vid=aa5d5d16-a2f6-4c81-8cd4-c9ee96949ae4","ios":"levelo://app?vid=aa5d5d16-a2f6-4c81-8cd4-c9ee96949ae4"},"vehicle_type_id":"4","last_reported":1735052880,"current_range_meters":38800,"station_id":"ce4bhn12rcd13ifvqgqg","pricing_plan_id":"cebpf4jnsgd1na2vs0mg"},{"bike_id":"68db534e-0067-497a-971b-c0ac21bdd722","system_id":"levelo_inurba_marseille","lat":43.26216,"lon":5.37931,"is_reserved":false,"is_disabled":false,"rental_uris":{"android":"levelo://app?vid=68db534e-0067-497a-971b-c0ac21bdd722","ios":"levelo://app?vid=68db534e-0067-497a-971b-c0ac21bdd722"},"vehicle_type_id":"4","last_reported":1735052880,"current_range_meters":34000,"station_id":"ce4bhjp2rcd13ifvqg90","pricing_plan_id":"cebpf4jnsgd1na2vs0mg"},{"bike_id":"1e73c81f-7d8d-42c9-8216-05e0c8d2e4e9","system_id":"levelo_inurba_marseille","lat":43.29593,"lon":5.37714,"is_reserved":false,"is_disabled":false,"rental_uris":{"android":"levelo://app?vid=1e73c81f-7d8d-42c9-8216-05e0c8d2e4e9","ios":"levelo://app?vid=1e73c81f-7d8d-42c9-8216-05e0c8d2e4e9"},"vehicle_type_id":"4","last_reported":1735052880,"current_range_meters":38800,"station_id":"ce4bgi92rcd13ifvqb90","pricing_plan_id":"cebpf4jnsgd1na2vs0mg"},{"bike_id":"180c51e8-707b-4d3a-bce6-60033fd0e9cc","system_id":"levelo_inurba_marseille","lat":43.29885,"lon":5.38151,"is_reserved":false,"is_disabled":false,"rental_uris":{"android":"levelo://app?vid=180c51e8-707b-4d3a-bce6-60033fd0e9cc","ios":"levelo://app?vid=180c51e8-707b-4d3a-bce6-60033fd0e9cc"},"vehicle_type_id":"4","last_reported":1735052880,"current_range_meters":38400,"station_id":"ce4bgj12rcd13ifvqbc0","pricing_plan_id":"cebpf4jnsgd1na2vs0mg"},{"bike_id":"bea19fdb-8eb3-4f91-a4cd-d59bd8812761","system_id":"levelo_inurba_marseille","lat":43.23149,"lon":5.43717,"is_reserved":false,"is_disabled":false,"rental_uris":{"android":"levelo://app?vid=bea19fdb-8eb3-4f91-a4cd-d59bd8812761","ios":"levelo://app?vid=bea19fdb-8eb3-4f91-a4cd-d59bd8812761"},"vehicle_type_id":"4","last_reported":1735052880,"current_range_meters":38800,"station_id":"ce4bhmp2rcd13ifvqgog","pricing_plan_id":"cebpf4jnsgd1na2vs0mg"},{"bike_id":"af5feebd-6061-403b-b142-9986fbc0a500","system_id":"levelo_inurba_marseille","lat":43.27998,"lon":5.400105,"is_reserved":false,"is_disabled":false,"rental_uris":{"android":"levelo://app?vid=af5feebd-6061-403b-b142-9986fbc0a500","ios":"levelo://app?vid=af5feebd-6061-403b-b142-9986fbc0a500"},"vehicle_type_id":"4","last_reported":1735052880,"current_range_meters":33200,"station_id":"ce4bho92rcd13ifvqh4g","pricing_plan_id":"cebpf4jnsgd1na2vs0mg"},{"bike_id":"673ed0fe-3027-4e1f-9efc-2804b0e32190","system_id":"levelo_inurba_marseille","lat":43.26688,"lon":5.38278,"is_reserved":false,"is_disabled":false,"rental_uris":{"android":"levelo://app?vid=673ed0fe-3027-4e1f-9efc-2804b0e32190","ios":"levelo://app?vid=673ed0fe-3027-4e1f-9efc-2804b0e32190"},"vehicle_type_id":"4","last_reported":1735052880,"current_range_meters":33200,"station_id":"ce4bhg92rcd13ifvqf90","pricing_plan_id":"cebpf4jnsgd1na2vs0mg"},{"bike_id":"6301200f-0a21-434a-9aaa-37a5ff71b851","system_id":"levelo_inurba_marseille","lat":43.26204,"lon":5.37476,"is_reserved":false,"is_disabled":false,"rental_uris":{"android":"levelo://app?vid=6301200f-0a21-434a-9aaa-37a5ff71b851","ios":"levelo://app?vid=6301200f-0a21-434a-9aaa-37a5ff71b851"},"vehicle_type_id":"4","last_reported":1735052880,"current_range_meters":23200,"station_id":"ce4bhgp2rcd13ifvqfc0","pricing_plan_id":"cebpf4jnsgd1na2vs0mg"},{"bike_id":"149a930f-0d56-4a1b-a6ca-31f1c91695ae","system_id":"levelo_inurba_marseille","lat":43.30199,"lon":5.39466,"is_reserved":false,"is_disabled":false,"rental_uris":{"android":"levelo://app?vid=149a930f-0d56-4a1b-a6ca-31f1c91695ae","ios":"levelo://app?vid=149a930f-0d56-4a1b-a6ca-31f1c91695ae"},"vehicle_type_id":"4","last_reported":1735052880,"current_range_meters":38400,"station_id":"ce4bh0p2rcd13ifvqd70","pricing_plan_id":"cebpf4jnsgd1na2vs0mg"},{"bike_id":"8cc2ef59-f38b-465c-b137-03591af8f8d3","system_id":"levelo_inurba_marseille","lat":43.29562,"lon":5.37519,"is_reserved":false,"is_disabled":false,"rental_uris":{"android":"levelo://app?vid=8cc2ef59-f38b-465c-b137-03591af8f8d3","ios":"levelo://app?vid=8cc2ef59-f38b-465c-b137-03591af8f8d3"},"vehicle_type_id":"4","last_reported":1735052880,"current_range_meters":10800,"station_id":"ce4bgh92rcd13ifvqb50","pricing_plan_id":"cebpf4jnsgd1na2vs0mg"},{"bike_id":"76d21161-7399-44e4-8bb1-6f921fd87836","system_id":"levelo_inurba_marseille","lat":43.30517,"lon":5.38436,"is_reserved":false,"is_disabled":false,"rental_uris":{"android":"levelo://app?vid=76d21161-7399-44e4-8bb1-6f921fd87836","ios":"levelo://app?vid=76d21161-7399-44e4-8bb1-6f921fd87836"},"vehicle_type_id":"4","last_reported":1735052880,"current_range_meters":37600,"station_id":"ce4bgg92rcd13ifvqb30","pricing_plan_id":"cebpf4jnsgd1na2vs0mg"},{"bike_id":"8aa29a25-71b0-47b4-8794-3774a275bf08","system_id":"levelo_inurba_marseille","lat":43.2718,"lon":5.40985,"is_reserved":false,"is_disabled":false,"rental_uris":{"android":"levelo://app?vid=8aa29a25-71b0-47b4-8794-3774a275bf08","ios":"levelo://app?vid=8aa29a25-71b0-47b4-8794-3774a275bf08"},"vehicle_type_id":"4","last_reported":1735052880,"current_range_meters":14000,"station_id":"ce4bhl12rcd13ifvqgf0","pricing_plan_id":"cebpf4jnsgd1na2vs0mg"},{"bike_id":"50771762-6294-492b-bae5-db8bd88e73ed","system_id":"levelo_inurba_marseille","lat":43.27439,"lon":5.39412,"is_reserved":false,"is_disabled":false,"rental_uris":{"android":"levelo://app?vid=50771762-6294-492b-bae5-db8bd88e73ed","ios":"levelo://app?vid=50771762-6294-492b-bae5-db8bd88e73ed"},"vehicle_type_id":"4","last_reported":1735052880,"current_range_meters":39200,"station_id":"ce4bhdp2rcd13ifvqf20","pricing_plan_id":"cebpf4jnsgd1na2vs0mg"},{"bike_id":"dce463c5-9ff1-4f15-a0e6-aa5b5723205f","system_id":"levelo_inurba_marseille","lat":43.26558,"lon":5.37281,"is_reserved":false,"is_disabled":false,"rental_uris":{"android":"levelo://app?vid=dce463c5-9ff1-4f15-a0e6-aa5b5723205f","ios":"levelo://app?vid=dce463c5-9ff1-4f15-a0e6-aa5b5723205f"},"vehicle_type_id":"4","last_reported":1735052880,"current_range_meters":38000,"station_id":"ce4bhg12rcd13ifvqf70","pricing_plan_id":"cebpf4jnsgd1na2vs0mg"},{"bike_id":"9cc5ef75-c578-4e6d-9a98-1081b28e4fe9","system_id":"levelo_inurba_marseille","lat":43.31887,"lon":5.40736,"is_reserved":false,"is_disabled":false,"rental_uris":{"android":"levelo://app?vid=9cc5ef75-c578-4e6d-9a98-1081b28e4fe9","ios":"levelo://app?vid=9cc5ef75-c578-4e6d-9a98-1081b28e4fe9"},"vehicle_type_id":"4","last_reported":1735052880,"current_range_meters":25600,"station_id":"ce4bhq12rcd13ifvqhig","pricing_plan_id":"cebpf4jnsgd1na2vs0mg"},{"bike_id":"79daacaf-40c6-41bf-8b74-c5c9a9bb7597","system_id":"levelo_inurba_marseille","lat":43.28884,"lon":5.39333,"is_reserved":false,"is_disabled":true,"rental_uris":{"android":"levelo://app?vid=79daacaf-40c6-41bf-8b74-c5c9a9bb7597","ios":"levelo://app?vid=79daacaf-40c6-41bf-8b74-c5c9a9bb7597"},"vehicle_type_id":"4","last_reported":1735052880,"current_range_meters":22000,"station_id":"ce4bh2p2rcd13ifvqdi0","pricing_plan_id":"cebpf4jnsgd1na2vs0mg"},{"bike_id":"82719b16-0394-44a1-963a-3161d6b762b8","system_id":"levelo_inurba_marseille","lat":43.29629,"lon":5.37154,"is_reserved":false,"is_disabled":false,"rental_uris":{"android":"levelo://app?vid=82719b16-0394-44a1-963a-3161d6b762b8","ios":"levelo://app?vid=82719b16-0394-44a1-963a-3161d6b762b8"},"vehicle_type_id":"4","last_reported":1735052880,"current_range_meters":38800,"station_id":"ce4bgnh2rcd13ifvqc0g","pricing_plan_id":"cebpf4jnsgd1na2vs0mg"},{"bike_id":"e17a11e0-b3c6-47c1-be20-5643d7d7457e","system_id":"levelo_inurba_marseille","lat":43.31267,"lon":5.40181,"is_reserved":false,"is_disabled":false,"rental_uris":{"android":"levelo://app?vid=e17a11e0-b3c6-47c1-be20-5643d7d7457e","ios":"levelo://app?vid=e17a11e0-b3c6-47c1-be20-5643d7d7457e"},"vehicle_type_id":"4","last_reported":1735052880,"current_range_meters":38400,"station_id":"ce4bh092rcd13ifvqd30","pricing_plan_id":"cebpf4jnsgd1na2vs0mg"},{"bike_id":"44442142-4c36-49d7-bc26-455c515b4369","system_id":"levelo_inurba_marseille","lat":43.3361,"lon":5.41038,"is_reserved":false,"is_disabled":false,"rental_uris":{"android":"levelo://app?vid=44442142-4c36-49d7-bc26-455c515b4369","ios":"levelo://app?vid=44442142-4c36-49d7-bc26-455c515b4369"},"vehicle_type_id":"4","last_reported":1735052880,"current_range_meters":31200,"station_id":"ce4bhqh2rcd13ifvqhmg","pricing_plan_id":"cebpf4jnsgd1na2vs0mg"},{"bike_id":"4a35463d-6286-4212-a2c7-04e728adcd62","system_id":"levelo_inurba_marseille","lat":43.28096,"lon":5.37859,"is_reserved":false,"is_disabled":false,"rental_uris":{"android":"levelo://app?vid=4a35463d-6286-4212-a2c7-04e728adcd62","ios":"levelo://app?vid=4a35463d-6286-4212-a2c7-04e728adcd62"},"vehicle_type_id":"4","last_reported":1735052880,"current_range_meters":38800,"station_id":"ce4bha12rcd13ifvqee0","pricing_plan_id":"cebpf4jnsgd1na2vs0mg"},{"bike_id":"555d2fb8-db15-4512-9623-fc5be8f13494","system_id":"levelo_inurba_marseille","lat":43.29307,"lon":5.3718,"is_reserved":false,"is_disabled":false,"rental_uris":{"android":"levelo://app?vid=555d2fb8-db15-4512-9623-fc5be8f13494","ios":"levelo://app?vid=555d2fb8-db15-4512-9623-fc5be8f13494"},"vehicle_type_id":"4","last_reported":1735052880,"current_range_meters":38800,"station_id":"ce4bgh92rcd13ifvqb40","pricing_plan_id":"cebpf4jnsgd1na2vs0mg"},{"bike_id":"ec443fa1-27d4-4aa3-81fc-791ebc135535","system_id":"levelo_inurba_marseille","lat":43.29423,"lon":5.38628,"is_reserved":false,"is_disabled":false,"rental_uris":{"android":"levelo://app?vid=ec443fa1-27d4-4aa3-81fc-791ebc135535","ios":"levelo://app?vid=ec443fa1-27d4-4aa3-81fc-791ebc135535"},"vehicle_type_id":"4","last_reported":1735052880,"current_range_meters":39200,"station_id":"ce4bh2h2rcd13ifvqdh0","pricing_plan_id":"cebpf4jnsgd1na2vs0mg"},{"bike_id":"4f5db02c-99f9-460e-a880-3ca7100df048","system_id":"levelo_inurba_marseille","lat":43.2742,"lon":5.39394,"is_reserved":false,"is_disabled":false,"rental_uris":{"android":"levelo://app?vid=4f5db02c-99f9-460e-a880-3ca7100df048","ios":"levelo://app?vid=4f5db02c-99f9-460e-a880-3ca7100df048"},"vehicle_type_id":"4","last_reported":1735052880,"current_range_meters":39200,"station_id":"ce4bhdp2rcd13ifvqf20","pricing_plan_id":"cebpf4jnsgd1na2vs0mg"},{"bike_id":"adfa6968-3a67-4aa5-8f56-d0a1b85228a6","system_id":"levelo_inurba_marseille","lat":43.29784,"lon":5.38115,"is_reserved":false,"is_disabled":false,"rental_uris":{"android":"levelo://app?vid=adfa6968-3a67-4aa5-8f56-d0a1b85228a6","ios":"levelo://app?vid=adfa6968-3a67-4aa5-8f56-d0a1b85228a6"},"vehicle_type_id":"4","last_reported":1735052880,"current_range_meters":12400,"station_id":"ce4bgip2rcd13ifvqbb0","pricing_plan_id":"cebpf4jnsgd1na2vs0mg"},{"bike_id":"5d35556a-77eb-471a-9074-b9042a3815ab","system_id":"levelo_inurba_marseille","lat":43.29597,"lon":5.38104,"is_reserved":false,"is_disabled":false,"rental_uris":{"android":"levelo://app?vid=5d35556a-77eb-471a-9074-b9042a3815ab","ios":"levelo://app?vid=5d35556a-77eb-471a-9074-b9042a3815ab"},"vehicle_type_id":"4","last_reported":1735052880,"current_range_meters":28400,"station_id":"ce4bgl12rcd13ifvqbo0","pricing_plan_id":"cebpf4jnsgd1na2vs0mg"},{"bike_id":"537ef1bf-3a78-45af-b334-3a2c52a599a8","system_id":"levelo_inurba_marseille","lat":43.34149,"lon":5.40899,"is_reserved":false,"is_disabled":false,"rental_uris":{"android":"levelo://app?vid=537ef1bf-3a78-45af-b334-3a2c52a599a8","ios":"levelo://app?vid=537ef1bf-3a78-45af-b334-3a2c52a599a8"},"vehicle_type_id":"4","last_reported":1735052880,"current_range_meters":31200,"station_id":"ce4bhqh2rcd13ifvqhlg","pricing_plan_id":"cebpf4jnsgd1na2vs0mg"},{"bike_id":"549fd3f3-8f18-408d-a76e-fd24857f3fa0","system_id":"levelo_inurba_marseille","lat":43.29511,"lon":5.39043,"is_reserved":false,"is_disabled":false,"rental_uris":{"android":"levelo://app?vid=549fd3f3-8f18-408d-a76e-fd24857f3fa0","ios":"levelo://app?vid=549fd3f3-8f18-408d-a76e-fd24857f3fa0"},"vehicle_type_id":"4","last_reported":1735052880,"current_range_meters":38800,"station_id":"ce4bh3p2rcd13ifvqdp0","pricing_plan_id":"cebpf4jnsgd1na2vs0mg"},{"bike_id":"007a53b0-ad63-4187-935b-ae180000d3ca","system_id":"levelo_inurba_marseille","lat":43.26787,"lon":5.3942,"is_reserved":false,"is_disabled":false,"rental_uris":{"android":"levelo://app?vid=007a53b0-ad63-4187-935b-ae180000d3ca","ios":"levelo://app?vid=007a53b0-ad63-4187-935b-ae180000d3ca"},"vehicle_type_id":"4","last_reported":1735052880,"current_range_meters":30800,"station_id":"ce4bhh12rcd13ifvqfg0","pricing_plan_id":"cebpf4jnsgd1na2vs0mg"},{"bike_id":"b07e0204-2c57-49d1-a1f7-320de8610e25","system_id":"levelo_inurba_marseille","lat":43.29402,"lon":5.37344,"is_reserved":false,"is_disabled":true,"rental_uris":{"android":"levelo://app?vid=b07e0204-2c57-49d1-a1f7-320de8610e25","ios":"levelo://app?vid=b07e0204-2c57-49d1-a1f7-320de8610e25"},"vehicle_type_id":"4","last_reported":1735052880,"current_range_meters":19200,"station_id":"","pricing_plan_id":"cebpf4jnsgd1na2vs0mg"},{"bike_id":"12b78625-66c1-44c5-95ef-d65f51cfefcd","system_id":"levelo_inurba_marseille","lat":43.30909,"lon":5.36855,"is_reserved":false,"is_disabled":false,"rental_uris":{"android":"levelo://app?vid=12b78625-66c1-44c5-95ef-d65f51cfefcd","ios":"levelo://app?vid=12b78625-66c1-44c5-95ef-d65f51cfefcd"},"vehicle_type_id":"4","last_reported":1735052880,"current_range_meters":28400,"station_id":"ce4bgn92rcd13ifvqbvg","pricing_plan_id":"cebpf4jnsgd1na2vs0mg"},{"bike_id":"8090ec84-0988-43ea-8132-ea5f85cc9e35","system_id":"levelo_inurba_marseille","lat":43.28568,"lon":5.39506,"is_reserved":false,"is_disabled":false,"rental_uris":{"android":"levelo://app?vid=8090ec84-0988-43ea-8132-ea5f85cc9e35","ios":"levelo://app?vid=8090ec84-0988-43ea-8132-ea5f85cc9e35"},"vehicle_type_id":"4","last_reported":1735052880,"current_range_meters":36400,"station_id":"ce4bh292rcd13ifvqdg0","pricing_plan_id":"cebpf4jnsgd1na2vs0mg"},{"bike_id":"41632095-6d88-40a7-b2e7-bb5f6e7b1393","system_id":"levelo_inurba_marseille","lat":43.26558,"lon":5.37282,"is_reserved":false,"is_disabled":false,"rental_uris":{"android":"levelo://app?vid=41632095-6d88-40a7-b2e7-bb5f6e7b1393","ios":"levelo://app?vid=41632095-6d88-40a7-b2e7-bb5f6e7b1393"},"vehicle_type_id":"4","last_reported":1735052880,"current_range_meters":21600,"station_id":"ce4bhg12rcd13ifvqf70","pricing_plan_id":"cebpf4jnsgd1na2vs0mg"},{"bike_id":"7befd885-7fc8-4dc1-b970-da31c9e46ce6","system_id":"levelo_inurba_marseille","lat":43.26033,"lon":5.37552,"is_reserved":false,"is_disabled":false,"rental_uris":{"android":"levelo://app?vid=7befd885-7fc8-4dc1-b970-da31c9e46ce6","ios":"levelo://app?vid=7befd885-7fc8-4dc1-b970-da31c9e46ce6"},"vehicle_type_id":"4","last_reported":1735052880,"current_range_meters":27200,"station_id":"ce4bhgh2rcd13ifvqfa0","pricing_plan_id":"cebpf4jnsgd1na2vs0mg"},{"bike_id":"6793085b-5378-4b8b-8790-6cbe159c4cfd","system_id":"levelo_inurba_marseille","lat":43.29534,"lon":5.37497,"is_reserved":false,"is_disabled":false,"rental_uris":{"android":"levelo://app?vid=6793085b-5378-4b8b-8790-6cbe159c4cfd","ios":"levelo://app?vid=6793085b-5378-4b8b-8790-6cbe159c4cfd"},"vehicle_type_id":"4","last_reported":1735052880,"current_range_meters":38800,"station_id":"ce4bgkp2rcd13ifvqbmg","pricing_plan_id":"cebpf4jnsgd1na2vs0mg"},{"bike_id":"19034a80-3397-432f-b4d4-58a89246bb4e","system_id":"levelo_inurba_marseille","lat":43.30416,"lon":5.39733,"is_reserved":false,"is_disabled":false,"rental_uris":{"android":"levelo://app?vid=19034a80-3397-432f-b4d4-58a89246bb4e","ios":"levelo://app?vid=19034a80-3397-432f-b4d4-58a89246bb4e"},"vehicle_type_id":"4","last_reported":1735052880,"current_range_meters":7200,"station_id":"ce4bh092rcd13ifvqd20","pricing_plan_id":"cebpf4jnsgd1na2vs0mg"},{"bike_id":"d0928a2e-5cea-450a-a669-d6ca6d307f7d","system_id":"levelo_inurba_marseille","lat":43.31717,"lon":5.42395,"is_reserved":false,"is_disabled":false,"rental_uris":{"android":"levelo://app?vid=d0928a2e-5cea-450a-a669-d6ca6d307f7d","ios":"levelo://app?vid=d0928a2e-5cea-450a-a669-d6ca6d307f7d"},"vehicle_type_id":"4","last_reported":1735052880,"current_range_meters":22000,"station_id":"ce4bhp92rcd13ifvqhbg","pricing_plan_id":"cebpf4jnsgd1na2vs0mg"},{"bike_id":"a52b6a95-03b2-4a39-91a2-596fa5130c55","system_id":"levelo_inurba_marseille","lat":43.26935,"lon":5.38915,"is_reserved":false,"is_disabled":false,"rental_uris":{"android":"levelo://app?vid=a52b6a95-03b2-4a39-91a2-596fa5130c55","ios":"levelo://app?vid=a52b6a95-03b2-4a39-91a2-596fa5130c55"},"vehicle_type_id":"4","last_reported":1735052880,"current_range_meters":39200,"station_id":"ce4bhhh2rcd13ifvqfl0","pricing_plan_id":"cebpf4jnsgd1na2vs0mg"},{"bike_id":"4c414f1b-f40e-4a37-8051-77fc6cbc936d","system_id":"levelo_inurba_marseille","lat":43.23954,"lon":5.36646,"is_reserved":false,"is_disabled":false,"rental_uris":{"android":"levelo://app?vid=4c414f1b-f40e-4a37-8051-77fc6cbc936d","ios":"levelo://app?vid=4c414f1b-f40e-4a37-8051-77fc6cbc936d"},"vehicle_type_id":"4","last_reported":1735052880,"current_range_meters":10000,"station_id":"ce4bhi12rcd13ifvqfp0","pricing_plan_id":"cebpf4jnsgd1na2vs0mg"},{"bike_id":"1ca6e35e-4519-4a08-8f12-cc97c32227ac","system_id":"levelo_inurba_marseille","lat":43.29793,"lon":5.37105,"is_reserved":false,"is_disabled":false,"rental_uris":{"android":"levelo://app?vid=1ca6e35e-4519-4a08-8f12-cc97c32227ac","ios":"levelo://app?vid=1ca6e35e-4519-4a08-8f12-cc97c32227ac"},"vehicle_type_id":"4","last_reported":1735052880,"current_range_meters":39200,"station_id":"ce4bgop2rcd13ifvqc1g","pricing_plan_id":"cebpf4jnsgd1na2vs0mg"},{"bike_id":"0f9f1654-63fd-4b65-a8fb-a5beee04226f","system_id":"levelo_inurba_marseille","lat":43.29638,"lon":5.37137,"is_reserved":false,"is_disabled":false,"rental_uris":{"android":"levelo://app?vid=0f9f1654-63fd-4b65-a8fb-a5beee04226f","ios":"levelo://app?vid=0f9f1654-63fd-4b65-a8fb-a5beee04226f"},"vehicle_type_id":"4","last_reported":1735052880,"current_range_meters":38800,"station_id":"ce4bgnh2rcd13ifvqc0g","pricing_plan_id":"cebpf4jnsgd1na2vs0mg"},{"bike_id":"db4eb3f1-a618-4c48-a0e8-20afbaef5fd1","system_id":"levelo_inurba_marseille","lat":43.30913,"lon":5.36849,"is_reserved":false,"is_disabled":false,"rental_uris":{"android":"levelo://app?vid=db4eb3f1-a618-4c48-a0e8-20afbaef5fd1","ios":"levelo://app?vid=db4eb3f1-a618-4c48-a0e8-20afbaef5fd1"},"vehicle_type_id":"4","last_reported":1735052880,"current_range_meters":16800,"station_id":"ce4bgn92rcd13ifvqbvg","pricing_plan_id":"cebpf4jnsgd1na2vs0mg"},{"bike_id":"7bb30ece-0af1-4c43-a603-5d1612bde6de","system_id":"levelo_inurba_marseille","lat":43.29042,"lon":5.37556,"is_reserved":false,"is_disabled":false,"rental_uris":{"android":"levelo://app?vid=7bb30ece-0af1-4c43-a603-5d1612bde6de","ios":"levelo://app?vid=7bb30ece-0af1-4c43-a603-5d1612bde6de"},"vehicle_type_id":"4","last_reported":1735052880,"current_range_meters":37600,"station_id":"ce4bh692rcd13ifvqe90","pricing_plan_id":"cebpf4jnsgd1na2vs0mg"},{"bike_id":"374b1ef6-fe70-459c-8bae-573586a587d4","system_id":"levelo_inurba_marseille","lat":43.30883,"lon":5.39643,"is_reserved":false,"is_disabled":false,"rental_uris":{"android":"levelo://app?vid=374b1ef6-fe70-459c-8bae-573586a587d4","ios":"levelo://app?vid=374b1ef6-fe70-459c-8bae-573586a587d4"},"vehicle_type_id":"4","last_reported":1735052880,"current_range_meters":37600,"station_id":"ce4bh012rcd13ifvqcv0","pricing_plan_id":"cebpf4jnsgd1na2vs0mg"},{"bike_id":"5ea5d6a8-d209-43ed-b99c-256b3ee431c1","system_id":"levelo_inurba_marseille","lat":43.337444,"lon":5.374475,"is_reserved":false,"is_disabled":false,"rental_uris":{"android":"levelo://app?vid=5ea5d6a8-d209-43ed-b99c-256b3ee431c1","ios":"levelo://app?vid=5ea5d6a8-d209-43ed-b99c-256b3ee431c1"},"vehicle_type_id":"4","last_reported":1735052880,"current_range_meters":12000,"station_id":"ce4bhah2rcd13ifvqei0","pricing_plan_id":"cebpf4jnsgd1na2vs0mg"},{"bike_id":"00f2299e-6e78-4b67-898f-d05e3c74d6f8","system_id":"levelo_inurba_marseille","lat":43.2743,"lon":5.3942,"is_reserved":false,"is_disabled":false,"rental_uris":{"android":"levelo://app?vid=00f2299e-6e78-4b67-898f-d05e3c74d6f8","ios":"levelo://app?vid=00f2299e-6e78-4b67-898f-d05e3c74d6f8"},"vehicle_type_id":"4","last_reported":1735052880,"current_range_meters":17600,"station_id":"ce4bhdp2rcd13ifvqf20","pricing_plan_id":"cebpf4jnsgd1na2vs0mg"},{"bike_id":"6bca16b1-3eb4-4299-91bc-9740eea99592","system_id":"levelo_inurba_marseille","lat":43.29844,"lon":5.36272,"is_reserved":false,"is_disabled":false,"rental_uris":{"android":"levelo://app?vid=6bca16b1-3eb4-4299-91bc-9740eea99592","ios":"levelo://app?vid=6bca16b1-3eb4-4299-91bc-9740eea99592"},"vehicle_type_id":"4","last_reported":1735052880,"current_range_meters":39200,"station_id":"ce4bgpp2rcd13ifvqc3g","pricing_plan_id":"cebpf4jnsgd1na2vs0mg"},{"bike_id":"d4431a06-45b9-4571-a86d-6c4fb966d435","system_id":"levelo_inurba_marseille","lat":43.29923,"lon":5.38125,"is_reserved":false,"is_disabled":false,"rental_uris":{"android":"levelo://app?vid=d4431a06-45b9-4571-a86d-6c4fb966d435","ios":"levelo://app?vid=d4431a06-45b9-4571-a86d-6c4fb966d435"},"vehicle_type_id":"4","last_reported":1735052880,"current_range_meters":6000,"station_id":"ce4bgj12rcd13ifvqbc0","pricing_plan_id":"cebpf4jnsgd1na2vs0mg"},{"bike_id":"8203b2c2-4932-4d41-8ed1-a37eeb209c0b","system_id":"levelo_inurba_marseille","lat":43.30543,"lon":5.36719,"is_reserved":false,"is_disabled":false,"rental_uris":{"android":"levelo://app?vid=8203b2c2-4932-4d41-8ed1-a37eeb209c0b","ios":"levelo://app?vid=8203b2c2-4932-4d41-8ed1-a37eeb209c0b"},"vehicle_type_id":"4","last_reported":1735052880,"current_range_meters":21600,"station_id":"ce4bgrp2rcd13ifvqc9g","pricing_plan_id":"cebpf4jnsgd1na2vs0mg"},{"bike_id":"e05bf4ea-d74d-49ed-a7dc-94fa3a3cc350","system_id":"levelo_inurba_marseille","lat":43.32359,"lon":5.36759,"is_reserved":false,"is_disabled":false,"rental_uris":{"android":"levelo://app?vid=e05bf4ea-d74d-49ed-a7dc-94fa3a3cc350","ios":"levelo://app?vid=e05bf4ea-d74d-49ed-a7dc-94fa3a3cc350"},"vehicle_type_id":"4","last_reported":1735052880,"current_range_meters":38000,"station_id":"ce4bhsh2rcd13ifvqi2g","pricing_plan_id":"cebpf4jnsgd1na2vs0mg"},{"bike_id":"842888b9-0281-4137-8179-95fdfc851120","system_id":"levelo_inurba_marseille","lat":43.269436,"lon":5.40243,"is_reserved":false,"is_disabled":false,"rental_uris":{"android":"levelo://app?vid=842888b9-0281-4137-8179-95fdfc851120","ios":"levelo://app?vid=842888b9-0281-4137-8179-95fdfc851120"},"vehicle_type_id":"4","last_reported":1735052880,"current_range_meters":35600,"station_id":"cjm6bp8fraef2m0cb0m0","pricing_plan_id":"cebpf4jnsgd1na2vs0mg"},{"bike_id":"f88ce7be-72fd-4944-adb9-d45b72c00fc9","system_id":"levelo_inurba_marseille","lat":43.3033,"lon":5.40448,"is_reserved":false,"is_disabled":false,"rental_uris":{"android":"levelo://app?vid=f88ce7be-72fd-4944-adb9-d45b72c00fc9","ios":"levelo://app?vid=f88ce7be-72fd-4944-adb9-d45b72c00fc9"},"vehicle_type_id":"4","last_reported":1735052880,"current_range_meters":38800,"station_id":"ce4bh012rcd13ifvqd10","pricing_plan_id":"cebpf4jnsgd1na2vs0mg"},{"bike_id":"584301e6-2901-4c73-97f8-5c258dacc73a","system_id":"levelo_inurba_marseille","lat":43.29973,"lon":5.38509,"is_reserved":false,"is_disabled":false,"rental_uris":{"android":"levelo://app?vid=584301e6-2901-4c73-97f8-5c258dacc73a","ios":"levelo://app?vid=584301e6-2901-4c73-97f8-5c258dacc73a"},"vehicle_type_id":"4","last_reported":1735052880,"current_range_meters":38800,"station_id":"ce4bgj92rcd13ifvqbd0","pricing_plan_id":"cebpf4jnsgd1na2vs0mg"},{"bike_id":"12931312-67fc-419b-8731-e3cf720732bc","system_id":"levelo_inurba_marseille","lat":43.3021,"lon":5.39462,"is_reserved":false,"is_disabled":false,"rental_uris":{"android":"levelo://app?vid=12931312-67fc-419b-8731-e3cf720732bc","ios":"levelo://app?vid=12931312-67fc-419b-8731-e3cf720732bc"},"vehicle_type_id":"4","last_reported":1735052880,"current_range_meters":38800,"station_id":"ce4bh0p2rcd13ifvqd70","pricing_plan_id":"cebpf4jnsgd1na2vs0mg"},{"bike_id":"ba623d7f-de4d-43e6-9a39-be19938e75fb","system_id":"levelo_inurba_marseille","lat":43.29369,"lon":5.37856,"is_reserved":false,"is_disabled":true,"rental_uris":{"android":"levelo://app?vid=ba623d7f-de4d-43e6-9a39-be19938e75fb","ios":"levelo://app?vid=ba623d7f-de4d-43e6-9a39-be19938e75fb"},"vehicle_type_id":"4","last_reported":1735052880,"current_range_meters":27600,"station_id":"","pricing_plan_id":"cebpf4jnsgd1na2vs0mg"},{"bike_id":"af7a8365-0aa8-48c2-85e3-e0dcc429b742","system_id":"levelo_inurba_marseille","lat":43.24547,"lon":5.39528,"is_reserved":false,"is_disabled":false,"rental_uris":{"android":"levelo://app?vid=af7a8365-0aa8-48c2-85e3-e0dcc429b742","ios":"levelo://app?vid=af7a8365-0aa8-48c2-85e3-e0dcc429b742"},"vehicle_type_id":"4","last_reported":1735052880,"current_range_meters":33200,"station_id":"ce4bhlp2rcd13ifvqgjg","pricing_plan_id":"cebpf4jnsgd1na2vs0mg"},{"bike_id":"bcb51fee-0272-4a71-b9bd-d89ff73c0efe","system_id":"levelo_inurba_marseille","lat":43.29715,"lon":5.3661,"is_reserved":false,"is_disabled":false,"rental_uris":{"android":"levelo://app?vid=bcb51fee-0272-4a71-b9bd-d89ff73c0efe","ios":"levelo://app?vid=bcb51fee-0272-4a71-b9bd-d89ff73c0efe"},"vehicle_type_id":"4","last_reported":1735052880,"current_range_meters":35600,"station_id":"ce4bgn12rcd13ifvqbt0","pricing_plan_id":"cebpf4jnsgd1na2vs0mg"},{"bike_id":"8470d75c-1a4b-4272-b9c5-cce9edcaac69","system_id":"levelo_inurba_marseille","lat":43.26495,"lon":5.39543,"is_reserved":false,"is_disabled":false,"rental_uris":{"android":"levelo://app?vid=8470d75c-1a4b-4272-b9c5-cce9edcaac69","ios":"levelo://app?vid=8470d75c-1a4b-4272-b9c5-cce9edcaac69"},"vehicle_type_id":"4","last_reported":1735052880,"current_range_meters":28800,"station_id":"ce4bhi12rcd13ifvqfq0","pricing_plan_id":"cebpf4jnsgd1na2vs0mg"},{"bike_id":"874f5c06-95dd-4567-9b8b-79ff1183e4fc","system_id":"levelo_inurba_marseille","lat":43.30544,"lon":5.36704,"is_reserved":false,"is_disabled":false,"rental_uris":{"android":"levelo://app?vid=874f5c06-95dd-4567-9b8b-79ff1183e4fc","ios":"levelo://app?vid=874f5c06-95dd-4567-9b8b-79ff1183e4fc"},"vehicle_type_id":"4","last_reported":1735052880,"current_range_meters":36400,"station_id":"ce4bgrp2rcd13ifvqc9g","pricing_plan_id":"cebpf4jnsgd1na2vs0mg"},{"bike_id":"0f1e0fa6-5237-4f67-b177-ce610325d4bb","system_id":"levelo_inurba_marseille","lat":43.30206,"lon":5.39485,"is_reserved":false,"is_disabled":false,"rental_uris":{"android":"levelo://app?vid=0f1e0fa6-5237-4f67-b177-ce610325d4bb","ios":"levelo://app?vid=0f1e0fa6-5237-4f67-b177-ce610325d4bb"},"vehicle_type_id":"4","last_reported":1735052880,"current_range_meters":39200,"station_id":"ce4bh0p2rcd13ifvqd70","pricing_plan_id":"cebpf4jnsgd1na2vs0mg"},{"bike_id":"dd55c862-7efa-48b0-9eaa-28fa09652d9e","system_id":"levelo_inurba_marseille","lat":43.29257,"lon":5.40916,"is_reserved":false,"is_disabled":true,"rental_uris":{"android":"levelo://app?vid=dd55c862-7efa-48b0-9eaa-28fa09652d9e","ios":"levelo://app?vid=dd55c862-7efa-48b0-9eaa-28fa09652d9e"},"vehicle_type_id":"4","last_reported":1735052880,"current_range_meters":0,"station_id":"ce4bh192rcd13ifvqdc0","pricing_plan_id":"cebpf4jnsgd1na2vs0mg"},{"bike_id":"89c31185-79e8-41ba-aeec-7ee23fd07219","system_id":"levelo_inurba_marseille","lat":43.26946,"lon":5.3863,"is_reserved":false,"is_disabled":false,"rental_uris":{"android":"levelo://app?vid=89c31185-79e8-41ba-aeec-7ee23fd07219","ios":"levelo://app?vid=89c31185-79e8-41ba-aeec-7ee23fd07219"},"vehicle_type_id":"4","last_reported":1735052880,"current_range_meters":38800,"station_id":"ce4bhh92rcd13ifvqfh0","pricing_plan_id":"cebpf4jnsgd1na2vs0mg"},{"bike_id":"80837625-09a5-408d-80f9-5a428d2f5462","system_id":"levelo_inurba_marseille","lat":43.2861,"lon":5.37069,"is_reserved":false,"is_disabled":false,"rental_uris":{"android":"levelo://app?vid=80837625-09a5-408d-80f9-5a428d2f5462","ios":"levelo://app?vid=80837625-09a5-408d-80f9-5a428d2f5462"},"vehicle_type_id":"4","last_reported":1735052880,"current_range_meters":24800,"station_id":"ce4bht12rcd13ifvqi60","pricing_plan_id":"cebpf4jnsgd1na2vs0mg"},{"bike_id":"dad2569f-c6f1-49c8-b60e-8c397489fca6","system_id":"levelo_inurba_marseille","lat":43.3088,"lon":5.39642,"is_reserved":false,"is_disabled":false,"rental_uris":{"android":"levelo://app?vid=dad2569f-c6f1-49c8-b60e-8c397489fca6","ios":"levelo://app?vid=dad2569f-c6f1-49c8-b60e-8c397489fca6"},"vehicle_type_id":"4","last_reported":1735052880,"current_range_meters":35200,"station_id":"ce4bh012rcd13ifvqcv0","pricing_plan_id":"cebpf4jnsgd1na2vs0mg"},{"bike_id":"eaa4434b-02d6-42f8-bad0-0039e128c298","system_id":"levelo_inurba_marseille","lat":43.27954,"lon":5.38693,"is_reserved":false,"is_disabled":false,"rental_uris":{"android":"levelo://app?vid=eaa4434b-02d6-42f8-bad0-0039e128c298","ios":"levelo://app?vid=eaa4434b-02d6-42f8-bad0-0039e128c298"},"vehicle_type_id":"4","last_reported":1735052880,"current_range_meters":36400,"station_id":"ce4bhg12rcd13ifvqf80","pricing_plan_id":"cebpf4jnsgd1na2vs0mg"},{"bike_id":"2bcdb3fc-f6a1-45f4-9016-4c8285931ba2","system_id":"levelo_inurba_marseille","lat":43.28348,"lon":5.38096,"is_reserved":false,"is_disabled":false,"rental_uris":{"android":"levelo://app?vid=2bcdb3fc-f6a1-45f4-9016-4c8285931ba2","ios":"levelo://app?vid=2bcdb3fc-f6a1-45f4-9016-4c8285931ba2"},"vehicle_type_id":"4","last_reported":1735052880,"current_range_meters":38800,"station_id":"ce4bh412rcd13ifvqdr0","pricing_plan_id":"cebpf4jnsgd1na2vs0mg"},{"bike_id":"5d814436-4463-40fa-a5d6-db045f053cfd","system_id":"levelo_inurba_marseille","lat":43.29174,"lon":5.37152,"is_reserved":false,"is_disabled":false,"rental_uris":{"android":"levelo://app?vid=5d814436-4463-40fa-a5d6-db045f053cfd","ios":"levelo://app?vid=5d814436-4463-40fa-a5d6-db045f053cfd"},"vehicle_type_id":"4","last_reported":1735052880,"current_range_meters":37600,"station_id":"ce4bha92rcd13ifvqeh0","pricing_plan_id":"cebpf4jnsgd1na2vs0mg"},{"bike_id":"7f3790ce-9d26-42a2-a133-10695363f994","system_id":"levelo_inurba_marseille","lat":43.28476,"lon":5.38413,"is_reserved":false,"is_disabled":false,"rental_uris":{"android":"levelo://app?vid=7f3790ce-9d26-42a2-a133-10695363f994","ios":"levelo://app?vid=7f3790ce-9d26-42a2-a133-10695363f994"},"vehicle_type_id":"4","last_reported":1735052880,"current_range_meters":33600,"station_id":"ce4bh512rcd13ifvqe3g","pricing_plan_id":"cebpf4jnsgd1na2vs0mg"},{"bike_id":"22298967-1048-4460-99a2-75263a8919fe","system_id":"levelo_inurba_marseille","lat":43.30537,"lon":5.36554,"is_reserved":false,"is_disabled":false,"rental_uris":{"android":"levelo://app?vid=22298967-1048-4460-99a2-75263a8919fe","ios":"levelo://app?vid=22298967-1048-4460-99a2-75263a8919fe"},"vehicle_type_id":"4","last_reported":1735052880,"current_range_meters":30000,"station_id":"ce4bgs12rcd13ifvqcag","pricing_plan_id":"cebpf4jnsgd1na2vs0mg"},{"bike_id":"c04211ac-b80e-4475-b938-7c87ebcd03b4","system_id":"levelo_inurba_marseille","lat":43.29709,"lon":5.37698,"is_reserved":false,"is_disabled":false,"rental_uris":{"android":"levelo://app?vid=c04211ac-b80e-4475-b938-7c87ebcd03b4","ios":"levelo://app?vid=c04211ac-b80e-4475-b938-7c87ebcd03b4"},"vehicle_type_id":"4","last_reported":1735052880,"current_range_meters":38800,"station_id":"ce4bgkh2rcd13ifvqbl0","pricing_plan_id":"cebpf4jnsgd1na2vs0mg"},{"bike_id":"68795652-c65e-48e3-9d67-dd7fd900c65d","system_id":"levelo_inurba_marseille","lat":43.30644,"lon":5.40099,"is_reserved":false,"is_disabled":false,"rental_uris":{"android":"levelo://app?vid=68795652-c65e-48e3-9d67-dd7fd900c65d","ios":"levelo://app?vid=68795652-c65e-48e3-9d67-dd7fd900c65d"},"vehicle_type_id":"4","last_reported":1735052880,"current_range_meters":21600,"station_id":"ce4bh112rcd13ifvqda0","pricing_plan_id":"cebpf4jnsgd1na2vs0mg"},{"bike_id":"dac94ecf-3203-4c89-acc0-21c14e979588","system_id":"levelo_inurba_marseille","lat":43.26698,"lon":5.38275,"is_reserved":false,"is_disabled":false,"rental_uris":{"android":"levelo://app?vid=dac94ecf-3203-4c89-acc0-21c14e979588","ios":"levelo://app?vid=dac94ecf-3203-4c89-acc0-21c14e979588"},"vehicle_type_id":"4","last_reported":1735052880,"current_range_meters":16400,"station_id":"ce4bhg92rcd13ifvqf90","pricing_plan_id":"cebpf4jnsgd1na2vs0mg"},{"bike_id":"37ea1698-c94e-4075-b42b-4c610d114d86","system_id":"levelo_inurba_marseille","lat":43.28603,"lon":5.37056,"is_reserved":false,"is_disabled":false,"rental_uris":{"android":"levelo://app?vid=37ea1698-c94e-4075-b42b-4c610d114d86","ios":"levelo://app?vid=37ea1698-c94e-4075-b42b-4c610d114d86"},"vehicle_type_id":"4","last_reported":1735052880,"current_range_meters":25600,"station_id":"ce4bht12rcd13ifvqi60","pricing_plan_id":"cebpf4jnsgd1na2vs0mg"},{"bike_id":"f3dc3f1d-ff72-4b6c-8b5c-63372fc9cf23","system_id":"levelo_inurba_marseille","lat":43.31682,"lon":5.4048,"is_reserved":false,"is_disabled":false,"rental_uris":{"android":"levelo://app?vid=f3dc3f1d-ff72-4b6c-8b5c-63372fc9cf23","ios":"levelo://app?vid=f3dc3f1d-ff72-4b6c-8b5c-63372fc9cf23"},"vehicle_type_id":"4","last_reported":1735052880,"current_range_meters":32800,"station_id":"ce4bh012rcd13ifvqd00","pricing_plan_id":"cebpf4jnsgd1na2vs0mg"},{"bike_id":"806959d2-5d52-4289-bc11-0b2f0a17666a","system_id":"levelo_inurba_marseille","lat":43.301313,"lon":5.398627,"is_reserved":false,"is_disabled":false,"rental_uris":{"android":"levelo://app?vid=806959d2-5d52-4289-bc11-0b2f0a17666a","ios":"levelo://app?vid=806959d2-5d52-4289-bc11-0b2f0a17666a"},"vehicle_type_id":"4","last_reported":1735052880,"current_range_meters":29600,"station_id":"ce4bh0h2rcd13ifvqd40","pricing_plan_id":"cebpf4jnsgd1na2vs0mg"},{"bike_id":"09ca811c-371b-45d9-9b2b-e25a55ee6d60","system_id":"levelo_inurba_marseille","lat":43.29776,"lon":5.3711,"is_reserved":false,"is_disabled":false,"rental_uris":{"android":"levelo://app?vid=09ca811c-371b-45d9-9b2b-e25a55ee6d60","ios":"levelo://app?vid=09ca811c-371b-45d9-9b2b-e25a55ee6d60"},"vehicle_type_id":"4","last_reported":1735052880,"current_range_meters":30000,"station_id":"ce4bgop2rcd13ifvqc1g","pricing_plan_id":"cebpf4jnsgd1na2vs0mg"},{"bike_id":"fcb8e0dd-3d26-4e20-a72c-bbb361118bd3","system_id":"levelo_inurba_marseille","lat":43.29971,"lon":5.38493,"is_reserved":false,"is_disabled":false,"rental_uris":{"android":"levelo://app?vid=fcb8e0dd-3d26-4e20-a72c-bbb361118bd3","ios":"levelo://app?vid=fcb8e0dd-3d26-4e20-a72c-bbb361118bd3"},"vehicle_type_id":"4","last_reported":1735052880,"current_range_meters":24800,"station_id":"ce4bgj92rcd13ifvqbd0","pricing_plan_id":"cebpf4jnsgd1na2vs0mg"},{"bike_id":"78d649df-d029-417d-9a79-e2430816323f","system_id":"levelo_inurba_marseille","lat":43.30139,"lon":5.39867,"is_reserved":false,"is_disabled":false,"rental_uris":{"android":"levelo://app?vid=78d649df-d029-417d-9a79-e2430816323f","ios":"levelo://app?vid=78d649df-d029-417d-9a79-e2430816323f"},"vehicle_type_id":"4","last_reported":1735052880,"current_range_meters":25600,"station_id":"ce4bh0h2rcd13ifvqd40","pricing_plan_id":"cebpf4jnsgd1na2vs0mg"},{"bike_id":"025792c3-9c92-4ea4-b010-7ca85199bada","system_id":"levelo_inurba_marseille","lat":43.28352,"lon":5.38106,"is_reserved":false,"is_disabled":false,"rental_uris":{"android":"levelo://app?vid=025792c3-9c92-4ea4-b010-7ca85199bada","ios":"levelo://app?vid=025792c3-9c92-4ea4-b010-7ca85199bada"},"vehicle_type_id":"4","last_reported":1735052880,"current_range_meters":28800,"station_id":"ce4bh412rcd13ifvqdr0","pricing_plan_id":"cebpf4jnsgd1na2vs0mg"},{"bike_id":"e606a5ac-90c5-496e-8584-c81d3f240777","system_id":"levelo_inurba_marseille","lat":43.31707,"lon":5.37745,"is_reserved":false,"is_disabled":false,"rental_uris":{"android":"levelo://app?vid=e606a5ac-90c5-496e-8584-c81d3f240777","ios":"levelo://app?vid=e606a5ac-90c5-496e-8584-c81d3f240777"},"vehicle_type_id":"4","last_reported":1735052880,"current_range_meters":25200,"station_id":"ce4bgth2rcd13ifvqch0","pricing_plan_id":"cebpf4jnsgd1na2vs0mg"},{"bike_id":"5ca7df99-195f-4dfa-a8db-1e8a3d21d7fb","system_id":"levelo_inurba_marseille","lat":43.27214,"lon":5.39173,"is_reserved":false,"is_disabled":false,"rental_uris":{"android":"levelo://app?vid=5ca7df99-195f-4dfa-a8db-1e8a3d21d7fb","ios":"levelo://app?vid=5ca7df99-195f-4dfa-a8db-1e8a3d21d7fb"},"vehicle_type_id":"4","last_reported":1735052880,"current_range_meters":39200,"station_id":"ce4bhhp2rcd13ifvqfm0","pricing_plan_id":"cebpf4jnsgd1na2vs0mg"},{"bike_id":"a1d12e1f-20f8-4401-90fa-b0d86ba8cd33","system_id":"levelo_inurba_marseille","lat":43.23152,"lon":5.43715,"is_reserved":false,"is_disabled":false,"rental_uris":{"android":"levelo://app?vid=a1d12e1f-20f8-4401-90fa-b0d86ba8cd33","ios":"levelo://app?vid=a1d12e1f-20f8-4401-90fa-b0d86ba8cd33"},"vehicle_type_id":"4","last_reported":1735052880,"current_range_meters":37600,"station_id":"ce4bhmp2rcd13ifvqgog","pricing_plan_id":"cebpf4jnsgd1na2vs0mg"},{"bike_id":"d7862e55-0a55-477c-baa7-e42bb2f30550","system_id":"levelo_inurba_marseille","lat":43.29869,"lon":5.39735,"is_reserved":false,"is_disabled":false,"rental_uris":{"android":"levelo://app?vid=d7862e55-0a55-477c-baa7-e42bb2f30550","ios":"levelo://app?vid=d7862e55-0a55-477c-baa7-e42bb2f30550"},"vehicle_type_id":"4","last_reported":1735052880,"current_range_meters":22400,"station_id":"ce4bh0h2rcd13ifvqd50","pricing_plan_id":"cebpf4jnsgd1na2vs0mg"},{"bike_id":"376ed85f-8be2-4616-aba5-e63bfb22f1fb","system_id":"levelo_inurba_marseille","lat":43.27376,"lon":5.36258,"is_reserved":false,"is_disabled":false,"rental_uris":{"android":"levelo://app?vid=376ed85f-8be2-4616-aba5-e63bfb22f1fb","ios":"levelo://app?vid=376ed85f-8be2-4616-aba5-e63bfb22f1fb"},"vehicle_type_id":"4","last_reported":1735052880,"current_range_meters":38800,"station_id":"ce4bhbh2rcd13ifvqeo0","pricing_plan_id":"cebpf4jnsgd1na2vs0mg"},{"bike_id":"43551c9c-cde5-450b-bb5d-fc6f9b44bdb0","system_id":"levelo_inurba_marseille","lat":43.33776,"lon":5.37431,"is_reserved":false,"is_disabled":false,"rental_uris":{"android":"levelo://app?vid=43551c9c-cde5-450b-bb5d-fc6f9b44bdb0","ios":"levelo://app?vid=43551c9c-cde5-450b-bb5d-fc6f9b44bdb0"},"vehicle_type_id":"4","last_reported":1735052880,"current_range_meters":37600,"station_id":"","pricing_plan_id":"cebpf4jnsgd1na2vs0mg"},{"bike_id":"bf749148-e81e-477c-8cbb-1e4013717afe","system_id":"levelo_inurba_marseille","lat":43.295837,"lon":5.367453,"is_reserved":false,"is_disabled":false,"rental_uris":{"android":"levelo://app?vid=bf749148-e81e-477c-8cbb-1e4013717afe","ios":"levelo://app?vid=bf749148-e81e-477c-8cbb-1e4013717afe"},"vehicle_type_id":"4","last_reported":1735052880,"current_range_meters":11600,"station_id":"ce4bgph2rcd13ifvqc2g","pricing_plan_id":"cebpf4jnsgd1na2vs0mg"},{"bike_id":"c653ce82-5dc7-493f-92cc-7623b04223d7","system_id":"levelo_inurba_marseille","lat":43.26564,"lon":5.39008,"is_reserved":false,"is_disabled":false,"rental_uris":{"android":"levelo://app?vid=c653ce82-5dc7-493f-92cc-7623b04223d7","ios":"levelo://app?vid=c653ce82-5dc7-493f-92cc-7623b04223d7"},"vehicle_type_id":"4","last_reported":1735052880,"current_range_meters":35600,"station_id":"ce4bhe12rcd13ifvqf30","pricing_plan_id":"cebpf4jnsgd1na2vs0mg"},{"bike_id":"d1853d76-78cf-466d-9558-f0792250c702","system_id":"levelo_inurba_marseille","lat":43.33785,"lon":5.37453,"is_reserved":false,"is_disabled":false,"rental_uris":{"android":"levelo://app?vid=d1853d76-78cf-466d-9558-f0792250c702","ios":"levelo://app?vid=d1853d76-78cf-466d-9558-f0792250c702"},"vehicle_type_id":"4","last_reported":1735052880,"current_range_meters":15200,"station_id":"","pricing_plan_id":"cebpf4jnsgd1na2vs0mg"},{"bike_id":"af6ab738-36e8-417d-88af-2eef82dbd768","system_id":"levelo_inurba_marseille","lat":43.29617,"lon":5.37713,"is_reserved":false,"is_disabled":false,"rental_uris":{"android":"levelo://app?vid=af6ab738-36e8-417d-88af-2eef82dbd768","ios":"levelo://app?vid=af6ab738-36e8-417d-88af-2eef82dbd768"},"vehicle_type_id":"4","last_reported":1735052880,"current_range_meters":36800,"station_id":"ce4bgi92rcd13ifvqb90","pricing_plan_id":"cebpf4jnsgd1na2vs0mg"},{"bike_id":"24d612e6-dab8-48de-ab45-8e9bb8998b7d","system_id":"levelo_inurba_marseille","lat":43.24074,"lon":5.37764,"is_reserved":false,"is_disabled":false,"rental_uris":{"android":"levelo://app?vid=24d612e6-dab8-48de-ab45-8e9bb8998b7d","ios":"levelo://app?vid=24d612e6-dab8-48de-ab45-8e9bb8998b7d"},"vehicle_type_id":"4","last_reported":1735052880,"current_range_meters":38800,"station_id":"ce4bhnp2rcd13ifvqgvg","pricing_plan_id":"cebpf4jnsgd1na2vs0mg"},