{"last_updated":1779304345,"ttl":60,"version":"2.2","data":{"bikes":[{"bike_id":"7d641315-6110-49cb-a9dd-d637ff032de1","system_id":"levelo_inurba_marseille","lat":43.337444,"lon":5.374475,"is_reserved":false,"is_disabled":false,"rental_uris":{"android":"levelo://app?vid=7d641315-6110-49cb-a9dd-d637ff032de1","ios":"levelo://app?vid=7d641315-6110-49cb-a9dd-d637ff032de1"},"vehicle_type_id":"4","last_reported":1779304346,"current_range_meters":0,"station_id":"","pricing_plan_id":"cebpf4jnsgd1na2vs0mg"},{"bike_id":"17c1a3ab-197b-48fb-9f5e-6741a76804bf","system_id":"levelo_inurba_marseille","lat":43.315247,"lon":5.380407,"is_reserved":false,"is_disabled":false,"rental_uris":{"android":"levelo://app?vid=17c1a3ab-197b-48fb-9f5e-6741a76804bf","ios":"levelo://app?vid=17c1a3ab-197b-48fb-9f5e-6741a76804bf"},"vehicle_type_id":"4","last_reported":1779304346,"current_range_meters":2800,"station_id":"ce4bhsp2rcd13ifvqi50","pricing_plan_id":"cebpf4jnsgd1na2vs0mg"},{"bike_id":"d2b06abf-46c5-4aee-a5c7-4fbb11e85edd","system_id":"levelo_inurba_marseille","lat":43.28663,"lon":5.36358,"is_reserved":false,"is_disabled":false,"rental_uris":{"android":"levelo://app?vid=d2b06abf-46c5-4aee-a5c7-4fbb11e85edd","ios":"levelo://app?vid=d2b06abf-46c5-4aee-a5c7-4fbb11e85edd"},"vehicle_type_id":"4","last_reported":1779304346,"current_range_meters":2800,"station_id":"ce4bhah2rcd13ifvqej0","pricing_plan_id":"cebpf4jnsgd1na2vs0mg"},{"bike_id":"865be235-fbea-4bdc-a774-56baf24ebe71","system_id":"levelo_inurba_marseille","lat":43.25095,"lon":5.3951,"is_reserved":false,"is_disabled":false,"rental_uris":{"android":"levelo://app?vid=865be235-fbea-4bdc-a774-56baf24ebe71","ios":"levelo://app?vid=865be235-fbea-4bdc-a774-56baf24ebe71"},"vehicle_type_id":"4","last_reported":1779304346,"current_range_meters":2800,"station_id":"ce4bhm12rcd13ifvqgkg","pricing_plan_id":"cebpf4jnsgd1na2vs0mg"},{"bike_id":"0d14cb6a-423e-4a7f-a35d-1bc3066cd5fe","system_id":"levelo_inurba_marseille","lat":43.30507,"lon":5.36726,"is_reserved":false,"is_disabled":false,"rental_uris":{"android":"levelo://app?vid=0d14cb6a-423e-4a7f-a35d-1bc3066cd5fe","ios":"levelo://app?vid=0d14cb6a-423e-4a7f-a35d-1bc3066cd5fe"},"vehicle_type_id":"4","last_reported":1779304346,"current_range_meters":2800,"station_id":"ce4bgrp2rcd13ifvqc9g","pricing_plan_id":"cebpf4jnsgd1na2vs0mg"},{"bike_id":"65fe8cf7-8c23-485a-8103-987e8e9d0df8","system_id":"levelo_inurba_marseille","lat":43.29517,"lon":5.39404,"is_reserved":false,"is_disabled":false,"rental_uris":{"android":"levelo://app?vid=65fe8cf7-8c23-485a-8103-987e8e9d0df8","ios":"levelo://app?vid=65fe8cf7-8c23-485a-8103-987e8e9d0df8"},"vehicle_type_id":"4","last_reported":1779304346,"current_range_meters":2800,"station_id":"ce4bh292rcd13ifvqdf0","pricing_plan_id":"cebpf4jnsgd1na2vs0mg"},{"bike_id":"7fc98200-eab4-455d-b9cd-f078d1d9d773","system_id":"levelo_inurba_marseille","lat":43.28488,"lon":5.38559,"is_reserved":false,"is_disabled":false,"rental_uris":{"android":"levelo://app?vid=7fc98200-eab4-455d-b9cd-f078d1d9d773","ios":"levelo://app?vid=7fc98200-eab4-455d-b9cd-f078d1d9d773"},"vehicle_type_id":"4","last_reported":1779304346,"current_range_meters":2800,"station_id":"ce4bh8p2rcd13ifvqeb0","pricing_plan_id":"cebpf4jnsgd1na2vs0mg"},{"bike_id":"01ed1538-8b9a-458b-89d8-45d068152053","system_id":"levelo_inurba_marseille","lat":43.25105,"lon":5.40336,"is_reserved":false,"is_disabled":false,"rental_uris":{"android":"levelo://app?vid=01ed1538-8b9a-458b-89d8-45d068152053","ios":"levelo://app?vid=01ed1538-8b9a-458b-89d8-45d068152053"},"vehicle_type_id":"4","last_reported":1779304346,"current_range_meters":2800,"station_id":"ce4bhlh2rcd13ifvqgig","pricing_plan_id":"cebpf4jnsgd1na2vs0mg"},{"bike_id":"9ea8fd57-82a8-4653-9cb8-4020510c3a8d","system_id":"levelo_inurba_marseille","lat":43.30099,"lon":5.39068,"is_reserved":false,"is_disabled":false,"rental_uris":{"android":"levelo://app?vid=9ea8fd57-82a8-4653-9cb8-4020510c3a8d","ios":"levelo://app?vid=9ea8fd57-82a8-4653-9cb8-4020510c3a8d"},"vehicle_type_id":"4","last_reported":1779304346,"current_range_meters":2800,"station_id":"ce4bh192rcd13ifvqdb0","pricing_plan_id":"cebpf4jnsgd1na2vs0mg"},{"bike_id":"44675466-5898-49dc-afe0-0781ca798713","system_id":"levelo_inurba_marseille","lat":43.28986,"lon":5.35611,"is_reserved":false,"is_disabled":true,"rental_uris":{"android":"levelo://app?vid=44675466-5898-49dc-afe0-0781ca798713","ios":"levelo://app?vid=44675466-5898-49dc-afe0-0781ca798713"},"vehicle_type_id":"4","last_reported":1779304346,"current_range_meters":2800,"station_id":"ce4bhb92rcd13ifvqen0","pricing_plan_id":"cebpf4jnsgd1na2vs0mg"},{"bike_id":"398b68c6-d5fd-415b-8457-4fec721b0d8c","system_id":"levelo_inurba_marseille","lat":43.33325,"lon":5.41126,"is_reserved":false,"is_disabled":false,"rental_uris":{"android":"levelo://app?vid=398b68c6-d5fd-415b-8457-4fec721b0d8c","ios":"levelo://app?vid=398b68c6-d5fd-415b-8457-4fec721b0d8c"},"vehicle_type_id":"4","last_reported":1779304346,"current_range_meters":2800,"station_id":"","pricing_plan_id":"cebpf4jnsgd1na2vs0mg"},{"bike_id":"63f200a7-b2b8-4cce-9e9a-602713bf7d32","system_id":"levelo_inurba_marseille","lat":43.2862,"lon":5.39858,"is_reserved":false,"is_disabled":false,"rental_uris":{"android":"levelo://app?vid=63f200a7-b2b8-4cce-9e9a-602713bf7d32","ios":"levelo://app?vid=63f200a7-b2b8-4cce-9e9a-602713bf7d32"},"vehicle_type_id":"4","last_reported":1779304346,"current_range_meters":2800,"station_id":"st_d4a7ka997mjs738ck50g","pricing_plan_id":"cebpf4jnsgd1na2vs0mg"},{"bike_id":"b1a6e6b5-5ba4-46e0-90da-12ee580df0dd","system_id":"levelo_inurba_marseille","lat":43.26825,"lon":5.40266,"is_reserved":false,"is_disabled":false,"rental_uris":{"android":"levelo://app?vid=b1a6e6b5-5ba4-46e0-90da-12ee580df0dd","ios":"levelo://app?vid=b1a6e6b5-5ba4-46e0-90da-12ee580df0dd"},"vehicle_type_id":"4","last_reported":1779304346,"current_range_meters":3200,"station_id":"ce501612rcd8frsf0b60","pricing_plan_id":"cebpf4jnsgd1na2vs0mg"},{"bike_id":"5c48f24c-961d-40f9-a1fd-2e01f3d14894","system_id":"levelo_inurba_marseille","lat":43.29191,"lon":5.39313,"is_reserved":false,"is_disabled":false,"rental_uris":{"android":"levelo://app?vid=5c48f24c-961d-40f9-a1fd-2e01f3d14894","ios":"levelo://app?vid=5c48f24c-961d-40f9-a1fd-2e01f3d14894"},"vehicle_type_id":"4","last_reported":1779304346,"current_range_meters":3200,"station_id":"ce4bh192rcd13ifvqdd0","pricing_plan_id":"cebpf4jnsgd1na2vs0mg"},{"bike_id":"d1147bb4-7ecc-4fe5-9169-baa63db4d7e9","system_id":"levelo_inurba_marseille","lat":43.28454,"lon":5.35863,"is_reserved":false,"is_disabled":false,"rental_uris":{"android":"levelo://app?vid=d1147bb4-7ecc-4fe5-9169-baa63db4d7e9","ios":"levelo://app?vid=d1147bb4-7ecc-4fe5-9169-baa63db4d7e9"},"vehicle_type_id":"4","last_reported":1779304346,"current_range_meters":3200,"station_id":"ce4bhah2rcd13ifvqei0","pricing_plan_id":"cebpf4jnsgd1na2vs0mg"},{"bike_id":"2ac0fbe8-529e-4716-8941-113a09e0fa36","system_id":"levelo_inurba_marseille","lat":43.29597,"lon":5.38092,"is_reserved":false,"is_disabled":false,"rental_uris":{"android":"levelo://app?vid=2ac0fbe8-529e-4716-8941-113a09e0fa36","ios":"levelo://app?vid=2ac0fbe8-529e-4716-8941-113a09e0fa36"},"vehicle_type_id":"4","last_reported":1779304346,"current_range_meters":3200,"station_id":"ce4bgl12rcd13ifvqbo0","pricing_plan_id":"cebpf4jnsgd1na2vs0mg"},{"bike_id":"a8ea8d83-c9cd-4629-a246-ef8bdb83bc4d","system_id":"levelo_inurba_marseille","lat":43.31013,"lon":5.37554,"is_reserved":false,"is_disabled":false,"rental_uris":{"android":"levelo://app?vid=a8ea8d83-c9cd-4629-a246-ef8bdb83bc4d","ios":"levelo://app?vid=a8ea8d83-c9cd-4629-a246-ef8bdb83bc4d"},"vehicle_type_id":"4","last_reported":1779304346,"current_range_meters":3200,"station_id":"","pricing_plan_id":"cebpf4jnsgd1na2vs0mg"},{"bike_id":"d10eac3f-7b6d-452d-b745-631779aa5ead","system_id":"levelo_inurba_marseille","lat":43.28272,"lon":5.35054,"is_reserved":false,"is_disabled":false,"rental_uris":{"android":"levelo://app?vid=d10eac3f-7b6d-452d-b745-631779aa5ead","ios":"levelo://app?vid=d10eac3f-7b6d-452d-b745-631779aa5ead"},"vehicle_type_id":"4","last_reported":1779304346,"current_range_meters":3200,"station_id":"ce4bhbp2rcd13ifvqerg","pricing_plan_id":"cebpf4jnsgd1na2vs0mg"},{"bike_id":"d51cabe8-2f18-4db7-a034-747252f3380d","system_id":"levelo_inurba_marseille","lat":43.28424,"lon":5.34983,"is_reserved":false,"is_disabled":false,"rental_uris":{"android":"levelo://app?vid=d51cabe8-2f18-4db7-a034-747252f3380d","ios":"levelo://app?vid=d51cabe8-2f18-4db7-a034-747252f3380d"},"vehicle_type_id":"4","last_reported":1779304346,"current_range_meters":3200,"station_id":"ce4bhbh2rcd13ifvqepg","pricing_plan_id":"cebpf4jnsgd1na2vs0mg"},{"bike_id":"c357f5cb-b3e1-445d-8a19-dea65d61dfb5","system_id":"levelo_inurba_marseille","lat":43.29716,"lon":5.37689,"is_reserved":false,"is_disabled":false,"rental_uris":{"android":"levelo://app?vid=c357f5cb-b3e1-445d-8a19-dea65d61dfb5","ios":"levelo://app?vid=c357f5cb-b3e1-445d-8a19-dea65d61dfb5"},"vehicle_type_id":"4","last_reported":1779304346,"current_range_meters":3200,"station_id":"ce4bgkh2rcd13ifvqbl0","pricing_plan_id":"cebpf4jnsgd1na2vs0mg"},{"bike_id":"dbaf7623-7a02-47f7-a020-2526ef98f41d","system_id":"levelo_inurba_marseille","lat":43.28851,"lon":5.39312,"is_reserved":false,"is_disabled":false,"rental_uris":{"android":"levelo://app?vid=dbaf7623-7a02-47f7-a020-2526ef98f41d","ios":"levelo://app?vid=dbaf7623-7a02-47f7-a020-2526ef98f41d"},"vehicle_type_id":"4","last_reported":1779304346,"current_range_meters":3200,"station_id":"ce4bh2p2rcd13ifvqdi0","pricing_plan_id":"cebpf4jnsgd1na2vs0mg"},{"bike_id":"19b4c30e-f73f-494b-a25e-11a3015cf1ad","system_id":"levelo_inurba_marseille","lat":43.28262,"lon":5.35076,"is_reserved":false,"is_disabled":false,"rental_uris":{"android":"levelo://app?vid=19b4c30e-f73f-494b-a25e-11a3015cf1ad","ios":"levelo://app?vid=19b4c30e-f73f-494b-a25e-11a3015cf1ad"},"vehicle_type_id":"4","last_reported":1779304346,"current_range_meters":3200,"station_id":"ce4bhbp2rcd13ifvqerg","pricing_plan_id":"cebpf4jnsgd1na2vs0mg"},{"bike_id":"2d27edf5-9549-4dfc-b734-0112fda1b456","system_id":"levelo_inurba_marseille","lat":43.30416,"lon":5.39741,"is_reserved":false,"is_disabled":false,"rental_uris":{"android":"levelo://app?vid=2d27edf5-9549-4dfc-b734-0112fda1b456","ios":"levelo://app?vid=2d27edf5-9549-4dfc-b734-0112fda1b456"},"vehicle_type_id":"4","last_reported":1779304346,"current_range_meters":3200,"station_id":"ce4bh092rcd13ifvqd20","pricing_plan_id":"cebpf4jnsgd1na2vs0mg"},{"bike_id":"efbb7cd9-ff43-4e88-a324-5cb8e4ab9381","system_id":"levelo_inurba_marseille","lat":43.28625,"lon":5.35093,"is_reserved":false,"is_disabled":false,"rental_uris":{"android":"levelo://app?vid=efbb7cd9-ff43-4e88-a324-5cb8e4ab9381","ios":"levelo://app?vid=efbb7cd9-ff43-4e88-a324-5cb8e4ab9381"},"vehicle_type_id":"4","last_reported":1779304346,"current_range_meters":3200,"station_id":"ce4bhch2rcd13ifvqeug","pricing_plan_id":"cebpf4jnsgd1na2vs0mg"},{"bike_id":"854da997-21ff-48c4-ae70-cc3a0937e1c9","system_id":"levelo_inurba_marseille","lat":43.33541,"lon":5.37469,"is_reserved":false,"is_disabled":false,"rental_uris":{"android":"levelo://app?vid=854da997-21ff-48c4-ae70-cc3a0937e1c9","ios":"levelo://app?vid=854da997-21ff-48c4-ae70-cc3a0937e1c9"},"vehicle_type_id":"4","last_reported":1779304346,"current_range_meters":3200,"station_id":"st_d46tts09ee8s73dlu43g","pricing_plan_id":"cebpf4jnsgd1na2vs0mg"},{"bike_id":"69a54a2a-4966-42b1-85ed-debcc0938836","system_id":"levelo_inurba_marseille","lat":43.307962,"lon":5.381528,"is_reserved":false,"is_disabled":false,"rental_uris":{"android":"levelo://app?vid=69a54a2a-4966-42b1-85ed-debcc0938836","ios":"levelo://app?vid=69a54a2a-4966-42b1-85ed-debcc0938836"},"vehicle_type_id":"4","last_reported":1779304346,"current_range_meters":3200,"station_id":"ce4bgt12rcd13ifvqce0","pricing_plan_id":"cebpf4jnsgd1na2vs0mg"},{"bike_id":"4c819258-d016-4cce-9a0c-a8a28cf85d97","system_id":"levelo_inurba_marseille","lat":43.30879,"lon":5.39628,"is_reserved":false,"is_disabled":true,"rental_uris":{"android":"levelo://app?vid=4c819258-d016-4cce-9a0c-a8a28cf85d97","ios":"levelo://app?vid=4c819258-d016-4cce-9a0c-a8a28cf85d97"},"vehicle_type_id":"4","last_reported":1779304346,"current_range_meters":3200,"station_id":"ce4bh012rcd13ifvqcv0","pricing_plan_id":"cebpf4jnsgd1na2vs0mg"},{"bike_id":"82c14234-1836-4d73-8f63-f7b8c6ca1231","system_id":"levelo_inurba_marseille","lat":43.29545,"lon":5.39397,"is_reserved":false,"is_disabled":false,"rental_uris":{"android":"levelo://app?vid=82c14234-1836-4d73-8f63-f7b8c6ca1231","ios":"levelo://app?vid=82c14234-1836-4d73-8f63-f7b8c6ca1231"},"vehicle_type_id":"4","last_reported":1779304346,"current_range_meters":3200,"station_id":"ce4bh292rcd13ifvqdf0","pricing_plan_id":"cebpf4jnsgd1na2vs0mg"},{"bike_id":"17b84cb2-0d5c-4ed1-9d0e-c903fc912ba1","system_id":"levelo_inurba_marseille","lat":43.251,"lon":5.39519,"is_reserved":false,"is_disabled":false,"rental_uris":{"android":"levelo://app?vid=17b84cb2-0d5c-4ed1-9d0e-c903fc912ba1","ios":"levelo://app?vid=17b84cb2-0d5c-4ed1-9d0e-c903fc912ba1"},"vehicle_type_id":"4","last_reported":1779304346,"current_range_meters":3200,"station_id":"ce4bhm12rcd13ifvqgkg","pricing_plan_id":"cebpf4jnsgd1na2vs0mg"},{"bike_id":"3dfe9070-6ec8-4fed-9e77-ef18e942b0aa","system_id":"levelo_inurba_marseille","lat":43.30652,"lon":5.40098,"is_reserved":false,"is_disabled":false,"rental_uris":{"android":"levelo://app?vid=3dfe9070-6ec8-4fed-9e77-ef18e942b0aa","ios":"levelo://app?vid=3dfe9070-6ec8-4fed-9e77-ef18e942b0aa"},"vehicle_type_id":"4","last_reported":1779304346,"current_range_meters":3200,"station_id":"ce4bh112rcd13ifvqda0","pricing_plan_id":"cebpf4jnsgd1na2vs0mg"},{"bike_id":"2e16ccd3-b642-43ee-8053-477d9e996d9a","system_id":"levelo_inurba_marseille","lat":43.30914,"lon":5.39023,"is_reserved":false,"is_disabled":false,"rental_uris":{"android":"levelo://app?vid=2e16ccd3-b642-43ee-8053-477d9e996d9a","ios":"levelo://app?vid=2e16ccd3-b642-43ee-8053-477d9e996d9a"},"vehicle_type_id":"4","last_reported":1779304346,"current_range_meters":3200,"station_id":"","pricing_plan_id":"cebpf4jnsgd1na2vs0mg"},{"bike_id":"b08241c1-5b38-491c-9b92-54ee45ab84cc","system_id":"levelo_inurba_marseille","lat":43.29217,"lon":5.36077,"is_reserved":false,"is_disabled":false,"rental_uris":{"android":"levelo://app?vid=b08241c1-5b38-491c-9b92-54ee45ab84cc","ios":"levelo://app?vid=b08241c1-5b38-491c-9b92-54ee45ab84cc"},"vehicle_type_id":"4","last_reported":1779304346,"current_range_meters":3600,"station_id":"ce4bhbh2rcd13ifvqeqg","pricing_plan_id":"cebpf4jnsgd1na2vs0mg"},{"bike_id":"1537ff86-4c07-4043-a319-565b4fb3369d","system_id":"levelo_inurba_marseille","lat":43.28584,"lon":5.38141,"is_reserved":false,"is_disabled":false,"rental_uris":{"android":"levelo://app?vid=1537ff86-4c07-4043-a319-565b4fb3369d","ios":"levelo://app?vid=1537ff86-4c07-4043-a319-565b4fb3369d"},"vehicle_type_id":"4","last_reported":1779304346,"current_range_meters":3600,"station_id":"","pricing_plan_id":"cebpf4jnsgd1na2vs0mg"},{"bike_id":"04e67cbe-7692-42c9-a57b-d194e9419f17","system_id":"levelo_inurba_marseille","lat":43.32096,"lon":5.36767,"is_reserved":false,"is_disabled":false,"rental_uris":{"android":"levelo://app?vid=04e67cbe-7692-42c9-a57b-d194e9419f17","ios":"levelo://app?vid=04e67cbe-7692-42c9-a57b-d194e9419f17"},"vehicle_type_id":"4","last_reported":1779304346,"current_range_meters":3600,"station_id":"ce4bhrh2rcd13ifvqhug","pricing_plan_id":"cebpf4jnsgd1na2vs0mg"},{"bike_id":"41d55f64-564a-478e-9515-bd2146133ca8","system_id":"levelo_inurba_marseille","lat":43.28612,"lon":5.39866,"is_reserved":false,"is_disabled":false,"rental_uris":{"android":"levelo://app?vid=41d55f64-564a-478e-9515-bd2146133ca8","ios":"levelo://app?vid=41d55f64-564a-478e-9515-bd2146133ca8"},"vehicle_type_id":"4","last_reported":1779304346,"current_range_meters":3600,"station_id":"st_d4a7ka997mjs738ck50g","pricing_plan_id":"cebpf4jnsgd1na2vs0mg"},{"bike_id":"4bdbef7c-5288-44f7-bdb5-5b0e2b076139","system_id":"levelo_inurba_marseille","lat":43.29528,"lon":5.3854,"is_reserved":false,"is_disabled":false,"rental_uris":{"android":"levelo://app?vid=4bdbef7c-5288-44f7-bdb5-5b0e2b076139","ios":"levelo://app?vid=4bdbef7c-5288-44f7-bdb5-5b0e2b076139"},"vehicle_type_id":"4","last_reported":1779304346,"current_range_meters":3600,"station_id":"ce4bgih2rcd13ifvqba0","pricing_plan_id":"cebpf4jnsgd1na2vs0mg"},{"bike_id":"1740c6e9-2a4b-480e-9ab5-c92782efb7d1","system_id":"levelo_inurba_marseille","lat":43.31772,"lon":5.39027,"is_reserved":false,"is_disabled":false,"rental_uris":{"android":"levelo://app?vid=1740c6e9-2a4b-480e-9ab5-c92782efb7d1","ios":"levelo://app?vid=1740c6e9-2a4b-480e-9ab5-c92782efb7d1"},"vehicle_type_id":"4","last_reported":1779304346,"current_range_meters":3600,"station_id":"ce4bhqp2rcd13ifvqhng","pricing_plan_id":"cebpf4jnsgd1na2vs0mg"},{"bike_id":"e25976b9-d221-45c7-9e30-6e8b0705f74c","system_id":"levelo_inurba_marseille","lat":43.305664,"lon":5.367273,"is_reserved":false,"is_disabled":false,"rental_uris":{"android":"levelo://app?vid=e25976b9-d221-45c7-9e30-6e8b0705f74c","ios":"levelo://app?vid=e25976b9-d221-45c7-9e30-6e8b0705f74c"},"vehicle_type_id":"4","last_reported":1779304346,"current_range_meters":3600,"station_id":"ce4bgrp2rcd13ifvqc9g","pricing_plan_id":"cebpf4jnsgd1na2vs0mg"},{"bike_id":"ca1ca8ff-ba2f-4d5a-ab89-6a5ca6f2926b","system_id":"levelo_inurba_marseille","lat":43.29874,"lon":5.39735,"is_reserved":false,"is_disabled":false,"rental_uris":{"android":"levelo://app?vid=ca1ca8ff-ba2f-4d5a-ab89-6a5ca6f2926b","ios":"levelo://app?vid=ca1ca8ff-ba2f-4d5a-ab89-6a5ca6f2926b"},"vehicle_type_id":"4","last_reported":1779304346,"current_range_meters":3600,"station_id":"ce4bh0h2rcd13ifvqd50","pricing_plan_id":"cebpf4jnsgd1na2vs0mg"},{"bike_id":"dd311a8a-129f-43df-90c7-baf256effb0b","system_id":"levelo_inurba_marseille","lat":43.29538,"lon":5.39006,"is_reserved":false,"is_disabled":false,"rental_uris":{"android":"levelo://app?vid=dd311a8a-129f-43df-90c7-baf256effb0b","ios":"levelo://app?vid=dd311a8a-129f-43df-90c7-baf256effb0b"},"vehicle_type_id":"4","last_reported":1779304346,"current_range_meters":3600,"station_id":"ce4bh3p2rcd13ifvqdp0","pricing_plan_id":"cebpf4jnsgd1na2vs0mg"},{"bike_id":"b382c372-d190-4696-90bb-b6fc63cae21e","system_id":"levelo_inurba_marseille","lat":43.273778,"lon":5.362537,"is_reserved":false,"is_disabled":false,"rental_uris":{"android":"levelo://app?vid=b382c372-d190-4696-90bb-b6fc63cae21e","ios":"levelo://app?vid=b382c372-d190-4696-90bb-b6fc63cae21e"},"vehicle_type_id":"4","last_reported":1779304346,"current_range_meters":3600,"station_id":"ce4bhbh2rcd13ifvqeo0","pricing_plan_id":"cebpf4jnsgd1na2vs0mg"},{"bike_id":"ad1a19bc-0458-4967-ab03-7c3ee4a1bbe9","system_id":"levelo_inurba_marseille","lat":43.2992,"lon":5.38152,"is_reserved":false,"is_disabled":false,"rental_uris":{"android":"levelo://app?vid=ad1a19bc-0458-4967-ab03-7c3ee4a1bbe9","ios":"levelo://app?vid=ad1a19bc-0458-4967-ab03-7c3ee4a1bbe9"},"vehicle_type_id":"4","last_reported":1779304346,"current_range_meters":3600,"station_id":"ce4bgj12rcd13ifvqbc0","pricing_plan_id":"cebpf4jnsgd1na2vs0mg"},{"bike_id":"3c9c7f26-cacd-4ae6-b8ce-67bc2dfd7c15","system_id":"levelo_inurba_marseille","lat":43.2794,"lon":5.41042,"is_reserved":false,"is_disabled":false,"rental_uris":{"android":"levelo://app?vid=3c9c7f26-cacd-4ae6-b8ce-67bc2dfd7c15","ios":"levelo://app?vid=3c9c7f26-cacd-4ae6-b8ce-67bc2dfd7c15"},"vehicle_type_id":"4","last_reported":1779304346,"current_range_meters":3600,"station_id":"ce4bhnp2rcd13ifvqh0g","pricing_plan_id":"cebpf4jnsgd1na2vs0mg"},{"bike_id":"b201d265-e44e-488e-867a-7b583fbe8b5f","system_id":"levelo_inurba_marseille","lat":43.2823,"lon":5.39076,"is_reserved":false,"is_disabled":false,"rental_uris":{"android":"levelo://app?vid=b201d265-e44e-488e-867a-7b583fbe8b5f","ios":"levelo://app?vid=b201d265-e44e-488e-867a-7b583fbe8b5f"},"vehicle_type_id":"4","last_reported":1779304346,"current_range_meters":3600,"station_id":"ce4bhn92rcd13ifvqgsg","pricing_plan_id":"cebpf4jnsgd1na2vs0mg"},{"bike_id":"3058f74e-ee36-4c4b-8b35-1f37e6941406","system_id":"levelo_inurba_marseille","lat":43.275579,"lon":5.384333,"is_reserved":false,"is_disabled":false,"rental_uris":{"android":"levelo://app?vid=3058f74e-ee36-4c4b-8b35-1f37e6941406","ios":"levelo://app?vid=3058f74e-ee36-4c4b-8b35-1f37e6941406"},"vehicle_type_id":"4","last_reported":1779304346,"current_range_meters":3600,"station_id":"ce4bhh92rcd13ifvqfi0","pricing_plan_id":"cebpf4jnsgd1na2vs0mg"},{"bike_id":"c29bf739-3ac3-4089-8203-ad59762fde3d","system_id":"levelo_inurba_marseille","lat":43.29217,"lon":5.36041,"is_reserved":false,"is_disabled":false,"rental_uris":{"android":"levelo://app?vid=c29bf739-3ac3-4089-8203-ad59762fde3d","ios":"levelo://app?vid=c29bf739-3ac3-4089-8203-ad59762fde3d"},"vehicle_type_id":"4","last_reported":1779304346,"current_range_meters":3600,"station_id":"ce4bhbh2rcd13ifvqeqg","pricing_plan_id":"cebpf4jnsgd1na2vs0mg"},{"bike_id":"df96810a-9aa5-42ee-9982-423b4f493f96","system_id":"levelo_inurba_marseille","lat":43.303046,"lon":5.36892,"is_reserved":false,"is_disabled":false,"rental_uris":{"android":"levelo://app?vid=df96810a-9aa5-42ee-9982-423b4f493f96","ios":"levelo://app?vid=df96810a-9aa5-42ee-9982-423b4f493f96"},"vehicle_type_id":"4","last_reported":1779304346,"current_range_meters":4000,"station_id":"ce4bgup2rcd13ifvqco0","pricing_plan_id":"cebpf4jnsgd1na2vs0mg"},{"bike_id":"435ea0d5-ad7c-4bb7-95f7-132f6610f88b","system_id":"levelo_inurba_marseille","lat":43.28637,"lon":5.35102,"is_reserved":false,"is_disabled":false,"rental_uris":{"android":"levelo://app?vid=435ea0d5-ad7c-4bb7-95f7-132f6610f88b","ios":"levelo://app?vid=435ea0d5-ad7c-4bb7-95f7-132f6610f88b"},"vehicle_type_id":"4","last_reported":1779304346,"current_range_meters":4000,"station_id":"ce4bhch2rcd13ifvqeug","pricing_plan_id":"cebpf4jnsgd1na2vs0mg"},{"bike_id":"6e24a969-0f97-4d59-87fe-fb88bdf57d03","system_id":"levelo_inurba_marseille","lat":43.28376,"lon":5.38632,"is_reserved":false,"is_disabled":false,"rental_uris":{"android":"levelo://app?vid=6e24a969-0f97-4d59-87fe-fb88bdf57d03","ios":"levelo://app?vid=6e24a969-0f97-4d59-87fe-fb88bdf57d03"},"vehicle_type_id":"4","last_reported":1779304346,"current_range_meters":4000,"station_id":"ce4bh492rcd13ifvqdvg","pricing_plan_id":"cebpf4jnsgd1na2vs0mg"},{"bike_id":"0a666148-d8e0-4499-993a-c5c57cad0f40","system_id":"levelo_inurba_marseille","lat":43.26224,"lon":5.38762,"is_reserved":false,"is_disabled":false,"rental_uris":{"android":"levelo://app?vid=0a666148-d8e0-4499-993a-c5c57cad0f40","ios":"levelo://app?vid=0a666148-d8e0-4499-993a-c5c57cad0f40"},"vehicle_type_id":"4","last_reported":1779304346,"current_range_meters":4000,"station_id":"","pricing_plan_id":"cebpf4jnsgd1na2vs0mg"},{"bike_id":"aa606aab-4f45-41d1-a294-c38cd71a71c6","system_id":"levelo_inurba_marseille","lat":43.30943,"lon":5.39022,"is_reserved":false,"is_disabled":false,"rental_uris":{"android":"levelo://app?vid=aa606aab-4f45-41d1-a294-c38cd71a71c6","ios":"levelo://app?vid=aa606aab-4f45-41d1-a294-c38cd71a71c6"},"vehicle_type_id":"4","last_reported":1779304346,"current_range_meters":4000,"station_id":"ce4bgup2rcd13ifvqco0","pricing_plan_id":"cebpf4jnsgd1na2vs0mg"},{"bike_id":"a8069eb2-38a5-47a4-b8c6-5542a2012cf6","system_id":"levelo_inurba_marseille","lat":43.27617,"lon":5.3611,"is_reserved":false,"is_disabled":false,"rental_uris":{"android":"levelo://app?vid=a8069eb2-38a5-47a4-b8c6-5542a2012cf6","ios":"levelo://app?vid=a8069eb2-38a5-47a4-b8c6-5542a2012cf6"},"vehicle_type_id":"4","last_reported":1779304346,"current_range_meters":4000,"station_id":"ce4bgj92rcd13ifvqbe0","pricing_plan_id":"cebpf4jnsgd1na2vs0mg"},{"bike_id":"3fbfbd8e-5681-4e7f-b6c7-d025fc3f3e58","system_id":"levelo_inurba_marseille","lat":43.28984,"lon":5.35617,"is_reserved":false,"is_disabled":true,"rental_uris":{"android":"levelo://app?vid=3fbfbd8e-5681-4e7f-b6c7-d025fc3f3e58","ios":"levelo://app?vid=3fbfbd8e-5681-4e7f-b6c7-d025fc3f3e58"},"vehicle_type_id":"4","last_reported":1779304346,"current_range_meters":4000,"station_id":"ce4bhb92rcd13ifvqen0","pricing_plan_id":"cebpf4jnsgd1na2vs0mg"},{"bike_id":"e01b4ab5-aa2b-4f07-b633-b506ca5364ba","system_id":"levelo_inurba_marseille","lat":43.30944,"lon":5.39027,"is_reserved":false,"is_disabled":false,"rental_uris":{"android":"levelo://app?vid=e01b4ab5-aa2b-4f07-b633-b506ca5364ba","ios":"levelo://app?vid=e01b4ab5-aa2b-4f07-b633-b506ca5364ba"},"vehicle_type_id":"4","last_reported":1779304346,"current_range_meters":4000,"station_id":"ce4bgup2rcd13ifvqco0","pricing_plan_id":"cebpf4jnsgd1na2vs0mg"},{"bike_id":"7f8cad03-f50e-4bee-929d-e6e745123c19","system_id":"levelo_inurba_marseille","lat":43.309448,"lon":5.390334,"is_reserved":false,"is_disabled":false,"rental_uris":{"android":"levelo://app?vid=7f8cad03-f50e-4bee-929d-e6e745123c19","ios":"levelo://app?vid=7f8cad03-f50e-4bee-929d-e6e745123c19"},"vehicle_type_id":"4","last_reported":1779304346,"current_range_meters":4000,"station_id":"ce4bgup2rcd13ifvqco0","pricing_plan_id":"cebpf4jnsgd1na2vs0mg"},{"bike_id":"0be98877-0b3d-44cc-8b14-d27b00e21c61","system_id":"levelo_inurba_marseille","lat":43.30358,"lon":5.41873,"is_reserved":false,"is_disabled":false,"rental_uris":{"android":"levelo://app?vid=0be98877-0b3d-44cc-8b14-d27b00e21c61","ios":"levelo://app?vid=0be98877-0b3d-44cc-8b14-d27b00e21c61"},"vehicle_type_id":"4","last_reported":1779304346,"current_range_meters":4000,"station_id":"ce4bhop2rcd13ifvqh7g","pricing_plan_id":"cebpf4jnsgd1na2vs0mg"},{"bike_id":"c14e2156-9a8d-4c33-8004-fd865300cc53","system_id":"levelo_inurba_marseille","lat":43.28322,"lon":5.35044,"is_reserved":false,"is_disabled":false,"rental_uris":{"android":"levelo://app?vid=c14e2156-9a8d-4c33-8004-fd865300cc53","ios":"levelo://app?vid=c14e2156-9a8d-4c33-8004-fd865300cc53"},"vehicle_type_id":"4","last_reported":1779304346,"current_range_meters":4000,"station_id":"","pricing_plan_id":"cebpf4jnsgd1na2vs0mg"},{"bike_id":"55a4eb26-589c-495c-bd4f-04433f5bebb4","system_id":"levelo_inurba_marseille","lat":43.29537,"lon":5.39415,"is_reserved":false,"is_disabled":false,"rental_uris":{"android":"levelo://app?vid=55a4eb26-589c-495c-bd4f-04433f5bebb4","ios":"levelo://app?vid=55a4eb26-589c-495c-bd4f-04433f5bebb4"},"vehicle_type_id":"4","last_reported":1779304346,"current_range_meters":4400,"station_id":"ce4bh292rcd13ifvqdf0","pricing_plan_id":"cebpf4jnsgd1na2vs0mg"},{"bike_id":"16c4b543-3b1d-4199-bae7-290421712f65","system_id":"levelo_inurba_marseille","lat":43.28467,"lon":5.35878,"is_reserved":false,"is_disabled":false,"rental_uris":{"android":"levelo://app?vid=16c4b543-3b1d-4199-bae7-290421712f65","ios":"levelo://app?vid=16c4b543-3b1d-4199-bae7-290421712f65"},"vehicle_type_id":"4","last_reported":1779304346,"current_range_meters":4400,"station_id":"ce4bhah2rcd13ifvqei0","pricing_plan_id":"cebpf4jnsgd1na2vs0mg"},{"bike_id":"1d8a0de7-dee9-4c46-b0dc-9cb1beff9b47","system_id":"levelo_inurba_marseille","lat":43.28427,"lon":5.34961,"is_reserved":false,"is_disabled":false,"rental_uris":{"android":"levelo://app?vid=1d8a0de7-dee9-4c46-b0dc-9cb1beff9b47","ios":"levelo://app?vid=1d8a0de7-dee9-4c46-b0dc-9cb1beff9b47"},"vehicle_type_id":"4","last_reported":1779304346,"current_range_meters":4400,"station_id":"ce4bhbh2rcd13ifvqepg","pricing_plan_id":"cebpf4jnsgd1na2vs0mg"},{"bike_id":"6fbbeee5-4103-4e2c-9a6b-f561619170ee","system_id":"levelo_inurba_marseille","lat":43.225316,"lon":5.348364,"is_reserved":false,"is_disabled":false,"rental_uris":{"android":"levelo://app?vid=6fbbeee5-4103-4e2c-9a6b-f561619170ee","ios":"levelo://app?vid=6fbbeee5-4103-4e2c-9a6b-f561619170ee"},"vehicle_type_id":"4","last_reported":1779304346,"current_range_meters":4400,"station_id":"st_cvj5dfep6f1abm77gieg","pricing_plan_id":"cebpf4jnsgd1na2vs0mg"},{"bike_id":"05e96898-a928-4a3a-918b-fe95a4e06ca8","system_id":"levelo_inurba_marseille","lat":43.273191,"lon":5.390724,"is_reserved":false,"is_disabled":true,"rental_uris":{"android":"levelo://app?vid=05e96898-a928-4a3a-918b-fe95a4e06ca8","ios":"levelo://app?vid=05e96898-a928-4a3a-918b-fe95a4e06ca8"},"vehicle_type_id":"4","last_reported":1779304346,"current_range_meters":4400,"station_id":"","pricing_plan_id":"cebpf4jnsgd1na2vs0mg"},{"bike_id":"9927ac3e-0f9e-4e92-a7e3-558b7fbd972c","system_id":"levelo_inurba_marseille","lat":43.31248,"lon":5.36889,"is_reserved":false,"is_disabled":false,"rental_uris":{"android":"levelo://app?vid=9927ac3e-0f9e-4e92-a7e3-558b7fbd972c","ios":"levelo://app?vid=9927ac3e-0f9e-4e92-a7e3-558b7fbd972c"},"vehicle_type_id":"4","last_reported":1779304346,"current_range_meters":4400,"station_id":"ce4bgl92rcd13ifvqbq0","pricing_plan_id":"cebpf4jnsgd1na2vs0mg"},{"bike_id":"668bb7ea-e890-4867-b444-969d9384fab7","system_id":"levelo_inurba_marseille","lat":43.25271,"lon":5.3946,"is_reserved":false,"is_disabled":false,"rental_uris":{"android":"levelo://app?vid=668bb7ea-e890-4867-b444-969d9384fab7","ios":"levelo://app?vid=668bb7ea-e890-4867-b444-969d9384fab7"},"vehicle_type_id":"4","last_reported":1779304346,"current_range_meters":4400,"station_id":"","pricing_plan_id":"cebpf4jnsgd1na2vs0mg"},{"bike_id":"796ba7c6-9432-4d76-b142-47911ed8993a","system_id":"levelo_inurba_marseille","lat":43.31723,"lon":5.42394,"is_reserved":false,"is_disabled":false,"rental_uris":{"android":"levelo://app?vid=796ba7c6-9432-4d76-b142-47911ed8993a","ios":"levelo://app?vid=796ba7c6-9432-4d76-b142-47911ed8993a"},"vehicle_type_id":"4","last_reported":1779304346,"current_range_meters":4400,"station_id":"ce4bhp92rcd13ifvqhbg","pricing_plan_id":"cebpf4jnsgd1na2vs0mg"},{"bike_id":"84731108-e482-4ce7-a864-cdc4156b5c93","system_id":"levelo_inurba_marseille","lat":43.28103,"lon":5.3784,"is_reserved":false,"is_disabled":false,"rental_uris":{"android":"levelo://app?vid=84731108-e482-4ce7-a864-cdc4156b5c93","ios":"levelo://app?vid=84731108-e482-4ce7-a864-cdc4156b5c93"},"vehicle_type_id":"4","last_reported":1779304346,"current_range_meters":4400,"station_id":"ce4bha12rcd13ifvqee0","pricing_plan_id":"cebpf4jnsgd1na2vs0mg"},{"bike_id":"baac11a4-a518-4fbd-942c-9850095d6e14","system_id":"levelo_inurba_marseille","lat":43.30645,"lon":5.40078,"is_reserved":false,"is_disabled":false,"rental_uris":{"android":"levelo://app?vid=baac11a4-a518-4fbd-942c-9850095d6e14","ios":"levelo://app?vid=baac11a4-a518-4fbd-942c-9850095d6e14"},"vehicle_type_id":"4","last_reported":1779304346,"current_range_meters":4400,"station_id":"ce4bh112rcd13ifvqda0","pricing_plan_id":"cebpf4jnsgd1na2vs0mg"},{"bike_id":"7625dcfc-37f9-48c7-aeb7-e618b8cd7b1b","system_id":"levelo_inurba_marseille","lat":43.21747,"lon":5.34604,"is_reserved":false,"is_disabled":false,"rental_uris":{"android":"levelo://app?vid=7625dcfc-37f9-48c7-aeb7-e618b8cd7b1b","ios":"levelo://app?vid=7625dcfc-37f9-48c7-aeb7-e618b8cd7b1b"},"vehicle_type_id":"4","last_reported":1779304346,"current_range_meters":4400,"station_id":"st_cvj6r9ubvosntc0bgbag","pricing_plan_id":"cebpf4jnsgd1na2vs0mg"},{"bike_id":"24fd1cb1-6d18-4010-8f75-2ad943d3ae18","system_id":"levelo_inurba_marseille","lat":43.2467,"lon":5.38171,"is_reserved":false,"is_disabled":true,"rental_uris":{"android":"levelo://app?vid=24fd1cb1-6d18-4010-8f75-2ad943d3ae18","ios":"levelo://app?vid=24fd1cb1-6d18-4010-8f75-2ad943d3ae18"},"vehicle_type_id":"4","last_reported":1779304346,"current_range_meters":4400,"station_id":"ce4bhih2rcd13ifvqfr0","pricing_plan_id":"cebpf4jnsgd1na2vs0mg"},{"bike_id":"5046adb9-0c06-4ecf-a70e-b7959a9f9eba","system_id":"levelo_inurba_marseille","lat":43.30957,"lon":5.39036,"is_reserved":false,"is_disabled":false,"rental_uris":{"android":"levelo://app?vid=5046adb9-0c06-4ecf-a70e-b7959a9f9eba","ios":"levelo://app?vid=5046adb9-0c06-4ecf-a70e-b7959a9f9eba"},"vehicle_type_id":"4","last_reported":1779304346,"current_range_meters":4400,"station_id":"ce4bgup2rcd13ifvqco0","pricing_plan_id":"cebpf4jnsgd1na2vs0mg"},{"bike_id":"6910e06f-f20d-432d-bfe5-cf38102a60fc","system_id":"levelo_inurba_marseille","lat":43.30143,"lon":5.40069,"is_reserved":false,"is_disabled":false,"rental_uris":{"android":"levelo://app?vid=6910e06f-f20d-432d-bfe5-cf38102a60fc","ios":"levelo://app?vid=6910e06f-f20d-432d-bfe5-cf38102a60fc"},"vehicle_type_id":"4","last_reported":1779304346,"current_range_meters":4400,"station_id":"","pricing_plan_id":"cebpf4jnsgd1na2vs0mg"},{"bike_id":"53ec3c8a-effd-4310-99b8-32166b63220f","system_id":"levelo_inurba_marseille","lat":43.26226,"lon":5.38761,"is_reserved":false,"is_disabled":false,"rental_uris":{"android":"levelo://app?vid=53ec3c8a-effd-4310-99b8-32166b63220f","ios":"levelo://app?vid=53ec3c8a-effd-4310-99b8-32166b63220f"},"vehicle_type_id":"4","last_reported":1779304346,"current_range_meters":4800,"station_id":"","pricing_plan_id":"cebpf4jnsgd1na2vs0mg"},{"bike_id":"12e80ea7-a25e-4bec-88e1-3ecb736d1ad2","system_id":"levelo_inurba_marseille","lat":43.32006,"lon":5.38155,"is_reserved":false,"is_disabled":false,"rental_uris":{"android":"levelo://app?vid=12e80ea7-a25e-4bec-88e1-3ecb736d1ad2","ios":"levelo://app?vid=12e80ea7-a25e-4bec-88e1-3ecb736d1ad2"},"vehicle_type_id":"4","last_reported":1779304346,"current_range_meters":4800,"station_id":"ce4bhr12rcd13ifvqhpg","pricing_plan_id":"cebpf4jnsgd1na2vs0mg"},{"bike_id":"7c7fb249-fc8e-4d79-a1ce-dd5b0f183060","system_id":"levelo_inurba_marseille","lat":43.29795,"lon":5.44029,"is_reserved":false,"is_disabled":false,"rental_uris":{"android":"levelo://app?vid=7c7fb249-fc8e-4d79-a1ce-dd5b0f183060","ios":"levelo://app?vid=7c7fb249-fc8e-4d79-a1ce-dd5b0f183060"},"vehicle_type_id":"4","last_reported":1779304346,"current_range_meters":4800,"station_id":"st_d3jp68qikq2c7381ktn0","pricing_plan_id":"cebpf4jnsgd1na2vs0mg"},{"bike_id":"725816a3-8983-4142-bc17-ef6510511325","system_id":"levelo_inurba_marseille","lat":43.29316,"lon":5.37177,"is_reserved":false,"is_disabled":false,"rental_uris":{"android":"levelo://app?vid=725816a3-8983-4142-bc17-ef6510511325","ios":"levelo://app?vid=725816a3-8983-4142-bc17-ef6510511325"},"vehicle_type_id":"4","last_reported":1779304346,"current_range_meters":4800,"station_id":"ce4bgh92rcd13ifvqb40","pricing_plan_id":"cebpf4jnsgd1na2vs0mg"},{"bike_id":"a1e5c2de-f7d4-4989-aea2-0fc96bce4b06","system_id":"levelo_inurba_marseille","lat":43.31116,"lon":5.39294,"is_reserved":false,"is_disabled":false,"rental_uris":{"android":"levelo://app?vid=a1e5c2de-f7d4-4989-aea2-0fc96bce4b06","ios":"levelo://app?vid=a1e5c2de-f7d4-4989-aea2-0fc96bce4b06"},"vehicle_type_id":"4","last_reported":1779304346,"current_range_meters":4800,"station_id":"","pricing_plan_id":"cebpf4jnsgd1na2vs0mg"},{"bike_id":"32644367-4e36-4b43-af9c-f827eaa421ac","system_id":"levelo_inurba_marseille","lat":43.27974,"lon":5.40049,"is_reserved":false,"is_disabled":false,"rental_uris":{"android":"levelo://app?vid=32644367-4e36-4b43-af9c-f827eaa421ac","ios":"levelo://app?vid=32644367-4e36-4b43-af9c-f827eaa421ac"},"vehicle_type_id":"4","last_reported":1779304346,"current_range_meters":4800,"station_id":"ce4bho92rcd13ifvqh4g","pricing_plan_id":"cebpf4jnsgd1na2vs0mg"},{"bike_id":"4341a76c-de83-439a-8ce3-4ff3f63ae155","system_id":"levelo_inurba_marseille","lat":43.28918,"lon":5.36631,"is_reserved":false,"is_disabled":false,"rental_uris":{"android":"levelo://app?vid=4341a76c-de83-439a-8ce3-4ff3f63ae155","ios":"levelo://app?vid=4341a76c-de83-439a-8ce3-4ff3f63ae155"},"vehicle_type_id":"4","last_reported":1779304346,"current_range_meters":4800,"station_id":"ce4bhap2rcd13ifvqek0","pricing_plan_id":"cebpf4jnsgd1na2vs0mg"},{"bike_id":"47e75fc7-5e0f-4fd7-831f-8486114b27f3","system_id":"levelo_inurba_marseille","lat":43.28692,"lon":5.37384,"is_reserved":false,"is_disabled":true,"rental_uris":{"android":"levelo://app?vid=47e75fc7-5e0f-4fd7-831f-8486114b27f3","ios":"levelo://app?vid=47e75fc7-5e0f-4fd7-831f-8486114b27f3"},"vehicle_type_id":"4","last_reported":1779304346,"current_range_meters":4800,"station_id":"ce4bh3p2rcd13ifvqdq0","pricing_plan_id":"cebpf4jnsgd1na2vs0mg"},{"bike_id":"94133b29-971d-48eb-9475-ae0b64fbd116","system_id":"levelo_inurba_marseille","lat":43.28191,"lon":5.38096,"is_reserved":false,"is_disabled":false,"rental_uris":{"android":"levelo://app?vid=94133b29-971d-48eb-9475-ae0b64fbd116","ios":"levelo://app?vid=94133b29-971d-48eb-9475-ae0b64fbd116"},"vehicle_type_id":"4","last_reported":1779304346,"current_range_meters":4800,"station_id":"","pricing_plan_id":"cebpf4jnsgd1na2vs0mg"},{"bike_id":"f734503f-77ab-4463-b3c5-d9228f405ada","system_id":"levelo_inurba_marseille","lat":43.27908,"lon":5.38004,"is_reserved":false,"is_disabled":false,"rental_uris":{"android":"levelo://app?vid=f734503f-77ab-4463-b3c5-d9228f405ada","ios":"levelo://app?vid=f734503f-77ab-4463-b3c5-d9228f405ada"},"vehicle_type_id":"4","last_reported":1779304346,"current_range_meters":4800,"station_id":"ce4bhf92rcd13ifvqf50","pricing_plan_id":"cebpf4jnsgd1na2vs0mg"},{"bike_id":"2bf74d5d-fa63-42ae-b32e-db63a3d0dfe5","system_id":"levelo_inurba_marseille","lat":43.26219,"lon":5.38776,"is_reserved":false,"is_disabled":false,"rental_uris":{"android":"levelo://app?vid=2bf74d5d-fa63-42ae-b32e-db63a3d0dfe5","ios":"levelo://app?vid=2bf74d5d-fa63-42ae-b32e-db63a3d0dfe5"},"vehicle_type_id":"4","last_reported":1779304346,"current_range_meters":4800,"station_id":"","pricing_plan_id":"cebpf4jnsgd1na2vs0mg"},{"bike_id":"b905ca94-3071-4f16-9ce5-d80026149c93","system_id":"levelo_inurba_marseille","lat":43.31685,"lon":5.43703,"is_reserved":false,"is_disabled":false,"rental_uris":{"android":"levelo://app?vid=b905ca94-3071-4f16-9ce5-d80026149c93","ios":"levelo://app?vid=b905ca94-3071-4f16-9ce5-d80026149c93"},"vehicle_type_id":"4","last_reported":1779304346,"current_range_meters":4800,"station_id":"ce4bhp92rcd13ifvqhcg","pricing_plan_id":"cebpf4jnsgd1na2vs0mg"},{"bike_id":"793de87f-c371-4342-8202-cfff00abc266","system_id":"levelo_inurba_marseille","lat":43.28408,"lon":5.34995,"is_reserved":false,"is_disabled":false,"rental_uris":{"android":"levelo://app?vid=793de87f-c371-4342-8202-cfff00abc266","ios":"levelo://app?vid=793de87f-c371-4342-8202-cfff00abc266"},"vehicle_type_id":"4","last_reported":1779304346,"current_range_meters":4800,"station_id":"ce4bhbh2rcd13ifvqepg","pricing_plan_id":"cebpf4jnsgd1na2vs0mg"},{"bike_id":"fbb9cd9a-eeff-47a7-a071-bf140227c01e","system_id":"levelo_inurba_marseille","lat":43.29556,"lon":5.42279,"is_reserved":false,"is_disabled":false,"rental_uris":{"android":"levelo://app?vid=fbb9cd9a-eeff-47a7-a071-bf140227c01e","ios":"levelo://app?vid=fbb9cd9a-eeff-47a7-a071-bf140227c01e"},"vehicle_type_id":"4","last_reported":1779304346,"current_range_meters":4800,"station_id":"ce4bhph2rcd13ifvqhdg","pricing_plan_id":"cebpf4jnsgd1na2vs0mg"},{"bike_id":"ff26a0ce-1300-4a14-824b-0d8ecc854269","system_id":"levelo_inurba_marseille","lat":43.24477,"lon":5.42537,"is_reserved":false,"is_disabled":false,"rental_uris":{"android":"levelo://app?vid=ff26a0ce-1300-4a14-824b-0d8ecc854269","ios":"levelo://app?vid=ff26a0ce-1300-4a14-824b-0d8ecc854269"},"vehicle_type_id":"4","last_reported":1779304346,"current_range_meters":4800,"station_id":"st_d4a3vfp97mjs738cd8kg","pricing_plan_id":"cebpf4jnsgd1na2vs0mg"},{"bike_id":"038f0bdb-c56f-4e66-863d-9d1b344b5b09","system_id":"levelo_inurba_marseille","lat":43.30602,"lon":5.37235,"is_reserved":false,"is_disabled":false,"rental_uris":{"android":"levelo://app?vid=038f0bdb-c56f-4e66-863d-9d1b344b5b09","ios":"levelo://app?vid=038f0bdb-c56f-4e66-863d-9d1b344b5b09"},"vehicle_type_id":"4","last_reported":1779304346,"current_range_meters":4800,"station_id":"ce4bgqh2rcd13ifvqc4g","pricing_plan_id":"cebpf4jnsgd1na2vs0mg"},{"bike_id":"f1592308-1379-423c-a839-f7fa56f9c6fd","system_id":"levelo_inurba_marseille","lat":43.3095,"lon":5.39024,"is_reserved":false,"is_disabled":false,"rental_uris":{"android":"levelo://app?vid=f1592308-1379-423c-a839-f7fa56f9c6fd","ios":"levelo://app?vid=f1592308-1379-423c-a839-f7fa56f9c6fd"},"vehicle_type_id":"4","last_reported":1779304346,"current_range_meters":4800,"station_id":"ce4bgup2rcd13ifvqco0","pricing_plan_id":"cebpf4jnsgd1na2vs0mg"},{"bike_id":"46be8dd3-948b-467e-ad94-fd338307b9c7","system_id":"levelo_inurba_marseille","lat":43.29984,"lon":5.36743,"is_reserved":false,"is_disabled":false,"rental_uris":{"android":"levelo://app?vid=46be8dd3-948b-467e-ad94-fd338307b9c7","ios":"levelo://app?vid=46be8dd3-948b-467e-ad94-fd338307b9c7"},"vehicle_type_id":"4","last_reported":1779304346,"current_range_meters":4800,"station_id":"","pricing_plan_id":"cebpf4jnsgd1na2vs0mg"},{"bike_id":"270bfebb-afdd-4686-9770-c16b28a474fa","system_id":"levelo_inurba_marseille","lat":43.30958,"lon":5.39026,"is_reserved":false,"is_disabled":false,"rental_uris":{"android":"levelo://app?vid=270bfebb-afdd-4686-9770-c16b28a474fa","ios":"levelo://app?vid=270bfebb-afdd-4686-9770-c16b28a474fa"},"vehicle_type_id":"4","last_reported":1779304346,"current_range_meters":4800,"station_id":"ce4bgup2rcd13ifvqco0","pricing_plan_id":"cebpf4jnsgd1na2vs0mg"},{"bike_id":"dd125f9b-087e-443c-968b-acc124d1c452","system_id":"levelo_inurba_marseille","lat":43.28578,"lon":5.395,"is_reserved":false,"is_disabled":false,"rental_uris":{"android":"levelo://app?vid=dd125f9b-087e-443c-968b-acc124d1c452","ios":"levelo://app?vid=dd125f9b-087e-443c-968b-acc124d1c452"},"vehicle_type_id":"4","last_reported":1779304346,"current_range_meters":4800,"station_id":"ce4bh292rcd13ifvqdg0","pricing_plan_id":"cebpf4jnsgd1na2vs0mg"},{"bike_id":"4010246e-8b17-4906-b9e9-f9f39a67e2e9","system_id":"levelo_inurba_marseille","lat":43.28414,"lon":5.34984,"is_reserved":false,"is_disabled":false,"rental_uris":{"android":"levelo://app?vid=4010246e-8b17-4906-b9e9-f9f39a67e2e9","ios":"levelo://app?vid=4010246e-8b17-4906-b9e9-f9f39a67e2e9"},"vehicle_type_id":"4","last_reported":1779304346,"current_range_meters":4800,"station_id":"ce4bhbh2rcd13ifvqepg","pricing_plan_id":"cebpf4jnsgd1na2vs0mg"},{"bike_id":"01a8bebc-9199-4f2a-b2b7-c1a2972591dd","system_id":"levelo_inurba_marseille","lat":43.2928,"lon":5.38441,"is_reserved":false,"is_disabled":false,"rental_uris":{"android":"levelo://app?vid=01a8bebc-9199-4f2a-b2b7-c1a2972591dd","ios":"levelo://app?vid=01a8bebc-9199-4f2a-b2b7-c1a2972591dd"},"vehicle_type_id":"4","last_reported":1779304346,"current_range_meters":4800,"station_id":"ce4bh692rcd13ifvqea0","pricing_plan_id":"cebpf4jnsgd1na2vs0mg"},{"bike_id":"65eb9ff9-15c9-4a56-bd3a-d3588f69bdf0","system_id":"levelo_inurba_marseille","lat":43.31894,"lon":5.4083,"is_reserved":false,"is_disabled":false,"rental_uris":{"android":"levelo://app?vid=65eb9ff9-15c9-4a56-bd3a-d3588f69bdf0","ios":"levelo://app?vid=65eb9ff9-15c9-4a56-bd3a-d3588f69bdf0"},"vehicle_type_id":"4","last_reported":1779304346,"current_range_meters":4800,"station_id":"","pricing_plan_id":"cebpf4jnsgd1na2vs0mg"},{"bike_id":"4d9ee6d9-5b9f-446e-ba40-dccb3a9755fd","system_id":"levelo_inurba_marseille","lat":43.24825,"lon":5.37424,"is_reserved":false,"is_disabled":true,"rental_uris":{"android":"levelo://app?vid=4d9ee6d9-5b9f-446e-ba40-dccb3a9755fd","ios":"levelo://app?vid=4d9ee6d9-5b9f-446e-ba40-dccb3a9755fd"},"vehicle_type_id":"4","last_reported":1779304346,"current_range_meters":4800,"station_id":"ce4bhgh2rcd13ifvqfb0","pricing_plan_id":"cebpf4jnsgd1na2vs0mg"},{"bike_id":"65dfb13f-4570-4435-9163-5a7dd58b9c97","system_id":"levelo_inurba_marseille","lat":43.22542,"lon":5.34838,"is_reserved":false,"is_disabled":false,"rental_uris":{"android":"levelo://app?vid=65dfb13f-4570-4435-9163-5a7dd58b9c97","ios":"levelo://app?vid=65dfb13f-4570-4435-9163-5a7dd58b9c97"},"vehicle_type_id":"4","last_reported":1779304346,"current_range_meters":4800,"station_id":"st_cvj5dfep6f1abm77gieg","pricing_plan_id":"cebpf4jnsgd1na2vs0mg"},{"bike_id":"13e5a84a-ed23-4977-8736-487af48bd5d3","system_id":"levelo_inurba_marseille","lat":43.28003,"lon":5.41658,"is_reserved":false,"is_disabled":false,"rental_uris":{"android":"levelo://app?vid=13e5a84a-ed23-4977-8736-487af48bd5d3","ios":"levelo://app?vid=13e5a84a-ed23-4977-8736-487af48bd5d3"},"vehicle_type_id":"4","last_reported":1779304346,"current_range_meters":4800,"station_id":"ce4bho12rcd13ifvqh1g","pricing_plan_id":"cebpf4jnsgd1na2vs0mg"},{"bike_id":"5a772970-2544-4b9b-96d6-608e586c075d","system_id":"levelo_inurba_marseille","lat":43.30926,"lon":5.40141,"is_reserved":false,"is_disabled":false,"rental_uris":{"android":"levelo://app?vid=5a772970-2544-4b9b-96d6-608e586c075d","ios":"levelo://app?vid=5a772970-2544-4b9b-96d6-608e586c075d"},"vehicle_type_id":"4","last_reported":1779304346,"current_range_meters":4800,"station_id":"ce4bgvp2rcd13ifvqct0","pricing_plan_id":"cebpf4jnsgd1na2vs0mg"},{"bike_id":"e4a06309-f819-4626-8409-17d6e39cfeb4","system_id":"levelo_inurba_marseille","lat":43.29206,"lon":5.39313,"is_reserved":false,"is_disabled":false,"rental_uris":{"android":"levelo://app?vid=e4a06309-f819-4626-8409-17d6e39cfeb4","ios":"levelo://app?vid=e4a06309-f819-4626-8409-17d6e39cfeb4"},"vehicle_type_id":"4","last_reported":1779304346,"current_range_meters":4800,"station_id":"ce4bh192rcd13ifvqdd0","pricing_plan_id":"cebpf4jnsgd1na2vs0mg"},{"bike_id":"7fda94e1-e2e3-4c99-b006-59137d824a49","system_id":"levelo_inurba_marseille","lat":43.23193,"lon":5.39979,"is_reserved":false,"is_disabled":false,"rental_uris":{"android":"levelo://app?vid=7fda94e1-e2e3-4c99-b006-59137d824a49","ios":"levelo://app?vid=7fda94e1-e2e3-4c99-b006-59137d824a49"},"vehicle_type_id":"4","last_reported":1779304346,"current_range_meters":5600,"station_id":"ce4bhn12rcd13ifvqgqg","pricing_plan_id":"cebpf4jnsgd1na2vs0mg"},{"bike_id":"5415706f-ea4d-4742-8d62-45b477ea6981","system_id":"levelo_inurba_marseille","lat":43.28275,"lon":5.35056,"is_reserved":false,"is_disabled":false,"rental_uris":{"android":"levelo://app?vid=5415706f-ea4d-4742-8d62-45b477ea6981","ios":"levelo://app?vid=5415706f-ea4d-4742-8d62-45b477ea6981"},"vehicle_type_id":"4","last_reported":1779304346,"current_range_meters":5600,"station_id":"ce4bhbp2rcd13ifvqerg","pricing_plan_id":"cebpf4jnsgd1na2vs0mg"},{"bike_id":"6678e321-5389-4431-9c53-24777ba9d6de","system_id":"levelo_inurba_marseille","lat":43.29068,"lon":5.37141,"is_reserved":false,"is_disabled":false,"rental_uris":{"android":"levelo://app?vid=6678e321-5389-4431-9c53-24777ba9d6de","ios":"levelo://app?vid=6678e321-5389-4431-9c53-24777ba9d6de"},"vehicle_type_id":"4","last_reported":1779304346,"current_range_meters":5600,"station_id":"ce4bh5p2rcd13ifvqe4g","pricing_plan_id":"cebpf4jnsgd1na2vs0mg"},{"bike_id":"9152df62-12eb-49aa-b574-fca760bf7401","system_id":"levelo_inurba_marseille","lat":43.3093,"lon":5.40148,"is_reserved":false,"is_disabled":false,"rental_uris":{"android":"levelo://app?vid=9152df62-12eb-49aa-b574-fca760bf7401","ios":"levelo://app?vid=9152df62-12eb-49aa-b574-fca760bf7401"},"vehicle_type_id":"4","last_reported":1779304346,"current_range_meters":5600,"station_id":"ce4bgvp2rcd13ifvqct0","pricing_plan_id":"cebpf4jnsgd1na2vs0mg"},{"bike_id":"1fd03011-2916-4d31-addb-6a1ba7e33bcb","system_id":"levelo_inurba_marseille","lat":43.25086,"lon":5.39511,"is_reserved":false,"is_disabled":false,"rental_uris":{"android":"levelo://app?vid=1fd03011-2916-4d31-addb-6a1ba7e33bcb","ios":"levelo://app?vid=1fd03011-2916-4d31-addb-6a1ba7e33bcb"},"vehicle_type_id":"4","last_reported":1779304346,"current_range_meters":5600,"station_id":"ce4bhm12rcd13ifvqgkg","pricing_plan_id":"cebpf4jnsgd1na2vs0mg"},{"bike_id":"3f42a6d9-721c-4045-81f8-56e377ee5c6e","system_id":"levelo_inurba_marseille","lat":43.26496,"lon":5.39545,"is_reserved":false,"is_disabled":true,"rental_uris":{"android":"levelo://app?vid=3f42a6d9-721c-4045-81f8-56e377ee5c6e","ios":"levelo://app?vid=3f42a6d9-721c-4045-81f8-56e377ee5c6e"},"vehicle_type_id":"4","last_reported":1779304346,"current_range_meters":5600,"station_id":"ce4bhi12rcd13ifvqfq0","pricing_plan_id":"cebpf4jnsgd1na2vs0mg"},{"bike_id":"b6dbcf2f-816d-438e-b35d-15b5289844e5","system_id":"levelo_inurba_marseille","lat":43.28414,"lon":5.37511,"is_reserved":false,"is_disabled":false,"rental_uris":{"android":"levelo://app?vid=b6dbcf2f-816d-438e-b35d-15b5289844e5","ios":"levelo://app?vid=b6dbcf2f-816d-438e-b35d-15b5289844e5"},"vehicle_type_id":"4","last_reported":1779304346,"current_range_meters":5600,"station_id":"ce4bh412rcd13ifvqds0","pricing_plan_id":"cebpf4jnsgd1na2vs0mg"},{"bike_id":"cc3321e0-c045-44e1-8e2f-0130fd5e657e","system_id":"levelo_inurba_marseille","lat":43.28661,"lon":5.36361,"is_reserved":false,"is_disabled":false,"rental_uris":{"android":"levelo://app?vid=cc3321e0-c045-44e1-8e2f-0130fd5e657e","ios":"levelo://app?vid=cc3321e0-c045-44e1-8e2f-0130fd5e657e"},"vehicle_type_id":"4","last_reported":1779304346,"current_range_meters":5600,"station_id":"ce4bhah2rcd13ifvqej0","pricing_plan_id":"cebpf4jnsgd1na2vs0mg"},{"bike_id":"4cf5899f-760e-4c98-a83a-74f687ec566d","system_id":"levelo_inurba_marseille","lat":43.30303,"lon":5.39194,"is_reserved":false,"is_disabled":true,"rental_uris":{"android":"levelo://app?vid=4cf5899f-760e-4c98-a83a-74f687ec566d","ios":"levelo://app?vid=4cf5899f-760e-4c98-a83a-74f687ec566d"},"vehicle_type_id":"4","last_reported":1779304346,"current_range_meters":5600,"station_id":"ce4bgkh2rcd13ifvqbk0","pricing_plan_id":"cebpf4jnsgd1na2vs0mg"},{"bike_id":"7770fd85-f803-4c72-ac3e-3d9f4e05479d","system_id":"levelo_inurba_marseille","lat":43.2954,"lon":5.38537,"is_reserved":false,"is_disabled":true,"rental_uris":{"android":"levelo://app?vid=7770fd85-f803-4c72-ac3e-3d9f4e05479d","ios":"levelo://app?vid=7770fd85-f803-4c72-ac3e-3d9f4e05479d"},"vehicle_type_id":"4","last_reported":1779304346,"current_range_meters":5600,"station_id":"ce4bgih2rcd13ifvqba0","pricing_plan_id":"cebpf4jnsgd1na2vs0mg"},{"bike_id":"dfc0ac25-15c8-4386-a2cf-312ad260b09e","system_id":"levelo_inurba_marseille","lat":43.28342,"lon":5.38121,"is_reserved":false,"is_disabled":false,"rental_uris":{"android":"levelo://app?vid=dfc0ac25-15c8-4386-a2cf-312ad260b09e","ios":"levelo://app?vid=dfc0ac25-15c8-4386-a2cf-312ad260b09e"},"vehicle_type_id":"4","last_reported":1779304346,"current_range_meters":5600,"station_id":"ce4bh412rcd13ifvqdr0","pricing_plan_id":"cebpf4jnsgd1na2vs0mg"},{"bike_id":"291bce7d-95a9-4f5c-a2d8-de5b55889c52","system_id":"levelo_inurba_marseille","lat":43.30974,"lon":5.36819,"is_reserved":false,"is_disabled":false,"rental_uris":{"android":"levelo://app?vid=291bce7d-95a9-4f5c-a2d8-de5b55889c52","ios":"levelo://app?vid=291bce7d-95a9-4f5c-a2d8-de5b55889c52"},"vehicle_type_id":"4","last_reported":1779304346,"current_range_meters":5600,"station_id":"","pricing_plan_id":"cebpf4jnsgd1na2vs0mg"},{"bike_id":"d06b61cf-5ea6-4256-ba68-0a2d3f273bcc","system_id":"levelo_inurba_marseille","lat":43.29274,"lon":5.38444,"is_reserved":false,"is_disabled":false,"rental_uris":{"android":"levelo://app?vid=d06b61cf-5ea6-4256-ba68-0a2d3f273bcc","ios":"levelo://app?vid=d06b61cf-5ea6-4256-ba68-0a2d3f273bcc"},"vehicle_type_id":"4","last_reported":1779304346,"current_range_meters":5600,"station_id":"ce4bh692rcd13ifvqea0","pricing_plan_id":"cebpf4jnsgd1na2vs0mg"},{"bike_id":"2cd27eab-e1dd-4294-81b4-ba97f5be76a0","system_id":"levelo_inurba_marseille","lat":43.29436,"lon":5.39756,"is_reserved":false,"is_disabled":false,"rental_uris":{"android":"levelo://app?vid=2cd27eab-e1dd-4294-81b4-ba97f5be76a0","ios":"levelo://app?vid=2cd27eab-e1dd-4294-81b4-ba97f5be76a0"},"vehicle_type_id":"4","last_reported":1779304346,"current_range_meters":5600,"station_id":"ce4bh3h2rcd13ifvqdo0","pricing_plan_id":"cebpf4jnsgd1na2vs0mg"},{"bike_id":"bdb8ea9e-f317-4a97-aecb-97370038e137","system_id":"levelo_inurba_marseille","lat":43.31084,"lon":5.42432,"is_reserved":false,"is_disabled":false,"rental_uris":{"android":"levelo://app?vid=bdb8ea9e-f317-4a97-aecb-97370038e137","ios":"levelo://app?vid=bdb8ea9e-f317-4a97-aecb-97370038e137"},"vehicle_type_id":"4","last_reported":1779304346,"current_range_meters":5600,"station_id":"ce4bhp92rcd13ifvqhag","pricing_plan_id":"cebpf4jnsgd1na2vs0mg"},{"bike_id":"843cbdec-5a4c-4dd7-b38c-ef751682a20e","system_id":"levelo_inurba_marseille","lat":43.29548,"lon":5.37496,"is_reserved":false,"is_disabled":false,"rental_uris":{"android":"levelo://app?vid=843cbdec-5a4c-4dd7-b38c-ef751682a20e","ios":"levelo://app?vid=843cbdec-5a4c-4dd7-b38c-ef751682a20e"},"vehicle_type_id":"4","last_reported":1779304346,"current_range_meters":5600,"station_id":"ce4bgkp2rcd13ifvqbmg","pricing_plan_id":"cebpf4jnsgd1na2vs0mg"},{"bike_id":"c00f540a-d005-484d-9c4f-1d0b1de1d66f","system_id":"levelo_inurba_marseille","lat":43.31892,"lon":5.40755,"is_reserved":false,"is_disabled":false,"rental_uris":{"android":"levelo://app?vid=c00f540a-d005-484d-9c4f-1d0b1de1d66f","ios":"levelo://app?vid=c00f540a-d005-484d-9c4f-1d0b1de1d66f"},"vehicle_type_id":"4","last_reported":1779304346,"current_range_meters":6000,"station_id":"ce4bhq12rcd13ifvqhig","pricing_plan_id":"cebpf4jnsgd1na2vs0mg"},{"bike_id":"88b71783-5a76-45d7-95c1-e155059fa86a","system_id":"levelo_inurba_marseille","lat":43.28947,"lon":5.39632,"is_reserved":false,"is_disabled":false,"rental_uris":{"android":"levelo://app?vid=88b71783-5a76-45d7-95c1-e155059fa86a","ios":"levelo://app?vid=88b71783-5a76-45d7-95c1-e155059fa86a"},"vehicle_type_id":"4","last_reported":1779304346,"current_range_meters":6000,"station_id":"ce4bh3h2rcd13ifvqdn0","pricing_plan_id":"cebpf4jnsgd1na2vs0mg"},{"bike_id":"3a50c5a4-deb8-4283-a331-71ea6e0504a8","system_id":"levelo_inurba_marseille","lat":43.28532,"lon":5.44098,"is_reserved":false,"is_disabled":false,"rental_uris":{"android":"levelo://app?vid=3a50c5a4-deb8-4283-a331-71ea6e0504a8","ios":"levelo://app?vid=3a50c5a4-deb8-4283-a331-71ea6e0504a8"},"vehicle_type_id":"4","last_reported":1779304346,"current_range_meters":6000,"station_id":"st_d3j3df2ikq2c7380ej80","pricing_plan_id":"cebpf4jnsgd1na2vs0mg"},{"bike_id":"8b30cf7c-e323-4937-a27c-040c9bca2b76","system_id":"levelo_inurba_marseille","lat":43.29545,"lon":5.38544,"is_reserved":false,"is_disabled":false,"rental_uris":{"android":"levelo://app?vid=8b30cf7c-e323-4937-a27c-040c9bca2b76","ios":"levelo://app?vid=8b30cf7c-e323-4937-a27c-040c9bca2b76"},"vehicle_type_id":"4","last_reported":1779304346,"current_range_meters":6000,"station_id":"ce4bgih2rcd13ifvqba0","pricing_plan_id":"cebpf4jnsgd1na2vs0mg"},{"bike_id":"d60ae60c-1319-4c2f-9499-7e415329dd9f","system_id":"levelo_inurba_marseille","lat":43.23186,"lon":5.39985,"is_reserved":false,"is_disabled":false,"rental_uris":{"android":"levelo://app?vid=d60ae60c-1319-4c2f-9499-7e415329dd9f","ios":"levelo://app?vid=d60ae60c-1319-4c2f-9499-7e415329dd9f"},"vehicle_type_id":"4","last_reported":1779304346,"current_range_meters":6000,"station_id":"ce4bhn12rcd13ifvqgqg","pricing_plan_id":"cebpf4jnsgd1na2vs0mg"},{"bike_id":"58b49956-f9ec-48e1-96e8-4a4d6650c806","system_id":"levelo_inurba_marseille","lat":43.28438,"lon":5.39181,"is_reserved":false,"is_disabled":false,"rental_uris":{"android":"levelo://app?vid=58b49956-f9ec-48e1-96e8-4a4d6650c806","ios":"levelo://app?vid=58b49956-f9ec-48e1-96e8-4a4d6650c806"},"vehicle_type_id":"4","last_reported":1779304346,"current_range_meters":6000,"station_id":"ce4bhoh2rcd13ifvqh5g","pricing_plan_id":"cebpf4jnsgd1na2vs0mg"},{"bike_id":"f6025abd-7600-48ca-a17a-986bf5349c82","system_id":"levelo_inurba_marseille","lat":43.2573,"lon":5.41104,"is_reserved":false,"is_disabled":false,"rental_uris":{"android":"levelo://app?vid=f6025abd-7600-48ca-a17a-986bf5349c82","ios":"levelo://app?vid=f6025abd-7600-48ca-a17a-986bf5349c82"},"vehicle_type_id":"4","last_reported":1779304346,"current_range_meters":6000,"station_id":"ce4bhkp2rcd13ifvqgd0","pricing_plan_id":"cebpf4jnsgd1na2vs0mg"},{"bike_id":"6160ae8e-a0ef-40fb-a824-ac8b6555538f","system_id":"levelo_inurba_marseille","lat":43.26645,"lon":5.3896,"is_reserved":false,"is_disabled":false,"rental_uris":{"android":"levelo://app?vid=6160ae8e-a0ef-40fb-a824-ac8b6555538f","ios":"levelo://app?vid=6160ae8e-a0ef-40fb-a824-ac8b6555538f"},"vehicle_type_id":"4","last_reported":1779304346,"current_range_meters":6000,"station_id":"","pricing_plan_id":"cebpf4jnsgd1na2vs0mg"},{"bike_id":"dc00a619-45cb-4fbd-b10b-201ae0bd5964","system_id":"levelo_inurba_marseille","lat":43.2842,"lon":5.34992,"is_reserved":false,"is_disabled":false,"rental_uris":{"android":"levelo://app?vid=dc00a619-45cb-4fbd-b10b-201ae0bd5964","ios":"levelo://app?vid=dc00a619-45cb-4fbd-b10b-201ae0bd5964"},"vehicle_type_id":"4","last_reported":1779304346,"current_range_meters":6000,"station_id":"ce4bhbh2rcd13ifvqepg","pricing_plan_id":"cebpf4jnsgd1na2vs0mg"},{"bike_id":"b8cb0ca9-b67d-49fe-825f-c0bcf70ec713","system_id":"levelo_inurba_marseille","lat":43.286,"lon":5.39185,"is_reserved":false,"is_disabled":false,"rental_uris":{"android":"levelo://app?vid=b8cb0ca9-b67d-49fe-825f-c0bcf70ec713","ios":"levelo://app?vid=b8cb0ca9-b67d-49fe-825f-c0bcf70ec713"},"vehicle_type_id":"4","last_reported":1779304346,"current_range_meters":6000,"station_id":"","pricing_plan_id":"cebpf4jnsgd1na2vs0mg"},{"bike_id":"c516a5ed-b3ae-497a-8fb4-e4a29969a0c7","system_id":"levelo_inurba_marseille","lat":43.29565,"lon":5.39969,"is_reserved":false,"is_disabled":true,"rental_uris":{"android":"levelo://app?vid=c516a5ed-b3ae-497a-8fb4-e4a29969a0c7","ios":"levelo://app?vid=c516a5ed-b3ae-497a-8fb4-e4a29969a0c7"},"vehicle_type_id":"4","last_reported":1779304346,"current_range_meters":6000,"station_id":"ce4bh312rcd13ifvqdj0","pricing_plan_id":"cebpf4jnsgd1na2vs0mg"},{"bike_id":"af2d1f64-de04-4aa7-8307-54d27cffbd91","system_id":"levelo_inurba_marseille","lat":43.29529,"lon":5.38548,"is_reserved":false,"is_disabled":false,"rental_uris":{"android":"levelo://app?vid=af2d1f64-de04-4aa7-8307-54d27cffbd91","ios":"levelo://app?vid=af2d1f64-de04-4aa7-8307-54d27cffbd91"},"vehicle_type_id":"4","last_reported":1779304346,"current_range_meters":6000,"station_id":"ce4bgih2rcd13ifvqba0","pricing_plan_id":"cebpf4jnsgd1na2vs0mg"},{"bike_id":"4fedccd7-62a2-407e-aa34-1343b06f84e0","system_id":"levelo_inurba_marseille","lat":43.29572,"lon":5.36748,"is_reserved":false,"is_disabled":false,"rental_uris":{"android":"levelo://app?vid=4fedccd7-62a2-407e-aa34-1343b06f84e0","ios":"levelo://app?vid=4fedccd7-62a2-407e-aa34-1343b06f84e0"},"vehicle_type_id":"4","last_reported":1779304346,"current_range_meters":6000,"station_id":"ce4bgph2rcd13ifvqc2g","pricing_plan_id":"cebpf4jnsgd1na2vs0mg"},{"bike_id":"c7b3a010-aa6b-4f16-8339-5695f5704176","system_id":"levelo_inurba_marseille","lat":43.30459,"lon":5.37911,"is_reserved":false,"is_disabled":false,"rental_uris":{"android":"levelo://app?vid=c7b3a010-aa6b-4f16-8339-5695f5704176","ios":"levelo://app?vid=c7b3a010-aa6b-4f16-8339-5695f5704176"},"vehicle_type_id":"4","last_reported":1779304346,"current_range_meters":6000,"station_id":"ce4bgup2rcd13ifvqcn0","pricing_plan_id":"cebpf4jnsgd1na2vs0mg"},{"bike_id":"5a938283-bd97-4afe-bccf-5238cbf0c1ba","system_id":"levelo_inurba_marseille","lat":43.30415,"lon":5.39747,"is_reserved":false,"is_disabled":false,"rental_uris":{"android":"levelo://app?vid=5a938283-bd97-4afe-bccf-5238cbf0c1ba","ios":"levelo://app?vid=5a938283-bd97-4afe-bccf-5238cbf0c1ba"},"vehicle_type_id":"4","last_reported":1779304346,"current_range_meters":6000,"station_id":"ce4bh092rcd13ifvqd20","pricing_plan_id":"cebpf4jnsgd1na2vs0mg"},{"bike_id":"bc3fe07f-ae95-42d2-91f0-d34745765c9e","system_id":"levelo_inurba_marseille","lat":43.24467,"lon":5.4253,"is_reserved":false,"is_disabled":false,"rental_uris":{"android":"levelo://app?vid=bc3fe07f-ae95-42d2-91f0-d34745765c9e","ios":"levelo://app?vid=bc3fe07f-ae95-42d2-91f0-d34745765c9e"},"vehicle_type_id":"4","last_reported":1779304346,"current_range_meters":6000,"station_id":"st_d4a3vfp97mjs738cd8kg","pricing_plan_id":"cebpf4jnsgd1na2vs0mg"},{"bike_id":"25cbc9ee-48d7-480c-9b7f-035ab4d0457c","system_id":"levelo_inurba_marseille","lat":43.29264,"lon":5.40899,"is_reserved":false,"is_disabled":false,"rental_uris":{"android":"levelo://app?vid=25cbc9ee-48d7-480c-9b7f-035ab4d0457c","ios":"levelo://app?vid=25cbc9ee-48d7-480c-9b7f-035ab4d0457c"},"vehicle_type_id":"4","last_reported":1779304346,"current_range_meters":6000,"station_id":"ce4bh192rcd13ifvqdc0","pricing_plan_id":"cebpf4jnsgd1na2vs0mg"},{"bike_id":"a1230a25-9972-43f6-9e4b-7ee9c10d2be3","system_id":"levelo_inurba_marseille","lat":43.28235,"lon":5.39063,"is_reserved":false,"is_disabled":false,"rental_uris":{"android":"levelo://app?vid=a1230a25-9972-43f6-9e4b-7ee9c10d2be3","ios":"levelo://app?vid=a1230a25-9972-43f6-9e4b-7ee9c10d2be3"},"vehicle_type_id":"4","last_reported":1779304346,"current_range_meters":6000,"station_id":"ce4bhn92rcd13ifvqgsg","pricing_plan_id":"cebpf4jnsgd1na2vs0mg"},{"bike_id":"84f841b9-3451-4438-8005-6657b2fd298a","system_id":"levelo_inurba_marseille","lat":43.30883,"lon":5.39656,"is_reserved":false,"is_disabled":false,"rental_uris":{"android":"levelo://app?vid=84f841b9-3451-4438-8005-6657b2fd298a","ios":"levelo://app?vid=84f841b9-3451-4438-8005-6657b2fd298a"},"vehicle_type_id":"4","last_reported":1779304346,"current_range_meters":6000,"station_id":"ce4bh012rcd13ifvqcv0","pricing_plan_id":"cebpf4jnsgd1na2vs0mg"},{"bike_id":"1945c429-a6b3-4afe-8b4e-c989148ef8b4","system_id":"levelo_inurba_marseille","lat":43.28631,"lon":5.37804,"is_reserved":false,"is_disabled":false,"rental_uris":{"android":"levelo://app?vid=1945c429-a6b3-4afe-8b4e-c989148ef8b4","ios":"levelo://app?vid=1945c429-a6b3-4afe-8b4e-c989148ef8b4"},"vehicle_type_id":"4","last_reported":1779304346,"current_range_meters":6000,"station_id":"","pricing_plan_id":"cebpf4jnsgd1na2vs0mg"},{"bike_id":"7495e602-e198-4498-ad1f-a3058edcdb81","system_id":"levelo_inurba_marseille","lat":43.29248,"lon":5.36853,"is_reserved":false,"is_disabled":false,"rental_uris":{"android":"levelo://app?vid=7495e602-e198-4498-ad1f-a3058edcdb81","ios":"levelo://app?vid=7495e602-e198-4498-ad1f-a3058edcdb81"},"vehicle_type_id":"4","last_reported":1779304346,"current_range_meters":6400,"station_id":"ce4bhbp2rcd13ifvqesg","pricing_plan_id":"cebpf4jnsgd1na2vs0mg"},{"bike_id":"40ffe413-dbcc-490a-a6fb-da2c0c495171","system_id":"levelo_inurba_marseille","lat":43.299334,"lon":5.374679,"is_reserved":false,"is_disabled":false,"rental_uris":{"android":"levelo://app?vid=40ffe413-dbcc-490a-a6fb-da2c0c495171","ios":"levelo://app?vid=40ffe413-dbcc-490a-a6fb-da2c0c495171"},"vehicle_type_id":"4","last_reported":1779304346,"current_range_meters":6400,"station_id":"ce4bgjh2rcd13ifvqbg0","pricing_plan_id":"cebpf4jnsgd1na2vs0mg"},{"bike_id":"e7b2834d-0414-4c8b-95bb-dbeba87a5cba","system_id":"levelo_inurba_marseille","lat":43.32936,"lon":5.38934,"is_reserved":false,"is_disabled":false,"rental_uris":{"android":"levelo://app?vid=e7b2834d-0414-4c8b-95bb-dbeba87a5cba","ios":"levelo://app?vid=e7b2834d-0414-4c8b-95bb-dbeba87a5cba"},"vehicle_type_id":"4","last_reported":1779304346,"current_range_meters":6400,"station_id":"","pricing_plan_id":"cebpf4jnsgd1na2vs0mg"},{"bike_id":"c202bc15-6fd2-4b5b-b9f8-fe2a7981a9a0","system_id":"levelo_inurba_marseille","lat":43.23322,"lon":5.35905,"is_reserved":false,"is_disabled":false,"rental_uris":{"android":"levelo://app?vid=c202bc15-6fd2-4b5b-b9f8-fe2a7981a9a0","ios":"levelo://app?vid=c202bc15-6fd2-4b5b-b9f8-fe2a7981a9a0"},"vehicle_type_id":"4","last_reported":1779304346,"current_range_meters":6400,"station_id":"","pricing_plan_id":"cebpf4jnsgd1na2vs0mg"},{"bike_id":"e58671d8-d388-4b08-aa9e-a1e55afb1e2f","system_id":"levelo_inurba_marseille","lat":43.2842,"lon":5.34983,"is_reserved":false,"is_disabled":false,"rental_uris":{"android":"levelo://app?vid=e58671d8-d388-4b08-aa9e-a1e55afb1e2f","ios":"levelo://app?vid=e58671d8-d388-4b08-aa9e-a1e55afb1e2f"},"vehicle_type_id":"4","last_reported":1779304346,"current_range_meters":6400,"station_id":"ce4bhbh2rcd13ifvqepg","pricing_plan_id":"cebpf4jnsgd1na2vs0mg"},{"bike_id":"97d7415c-a623-4f1c-a666-45c2b3817414","system_id":"levelo_inurba_marseille","lat":43.26112,"lon":5.373,"is_reserved":false,"is_disabled":false,"rental_uris":{"android":"levelo://app?vid=97d7415c-a623-4f1c-a666-45c2b3817414","ios":"levelo://app?vid=97d7415c-a623-4f1c-a666-45c2b3817414"},"vehicle_type_id":"4","last_reported":1779304346,"current_range_meters":6400,"station_id":"","pricing_plan_id":"cebpf4jnsgd1na2vs0mg"},{"bike_id":"ed0a2e31-3f52-4952-819a-710fa6677d96","system_id":"levelo_inurba_marseille","lat":43.28704,"lon":5.46686,"is_reserved":false,"is_disabled":false,"rental_uris":{"android":"levelo://app?vid=ed0a2e31-3f52-4952-819a-710fa6677d96","ios":"levelo://app?vid=ed0a2e31-3f52-4952-819a-710fa6677d96"},"vehicle_type_id":"4","last_reported":1779304346,"current_range_meters":6400,"station_id":"st_d6tc3vkotcvc738tfjhg","pricing_plan_id":"cebpf4jnsgd1na2vs0mg"},{"bike_id":"340e01f4-0722-411c-84f9-c70b9744e6d6","system_id":"levelo_inurba_marseille","lat":43.30796,"lon":5.38161,"is_reserved":false,"is_disabled":false,"rental_uris":{"android":"levelo://app?vid=340e01f4-0722-411c-84f9-c70b9744e6d6","ios":"levelo://app?vid=340e01f4-0722-411c-84f9-c70b9744e6d6"},"vehicle_type_id":"4","last_reported":1779304346,"current_range_meters":6400,"station_id":"ce4bgt12rcd13ifvqce0","pricing_plan_id":"cebpf4jnsgd1na2vs0mg"},{"bike_id":"9610b6c1-4de4-4635-adca-70fccdbaf631","system_id":"levelo_inurba_marseille","lat":43.29535,"lon":5.38546,"is_reserved":false,"is_disabled":true,"rental_uris":{"android":"levelo://app?vid=9610b6c1-4de4-4635-adca-70fccdbaf631","ios":"levelo://app?vid=9610b6c1-4de4-4635-adca-70fccdbaf631"},"vehicle_type_id":"4","last_reported":1779304346,"current_range_meters":6400,"station_id":"ce4bgih2rcd13ifvqba0","pricing_plan_id":"cebpf4jnsgd1na2vs0mg"},{"bike_id":"6a69a768-8dc9-415c-9ffb-66dbf0ff57a1","system_id":"levelo_inurba_marseille","lat":43.27986,"lon":5.41668,"is_reserved":false,"is_disabled":false,"rental_uris":{"android":"levelo://app?vid=6a69a768-8dc9-415c-9ffb-66dbf0ff57a1","ios":"levelo://app?vid=6a69a768-8dc9-415c-9ffb-66dbf0ff57a1"},"vehicle_type_id":"4","last_reported":1779304346,"current_range_meters":6400,"station_id":"ce4bho12rcd13ifvqh1g","pricing_plan_id":"cebpf4jnsgd1na2vs0mg"},{"bike_id":"3978ae71-e34c-4f14-8250-6460370b73f9","system_id":"levelo_inurba_marseille","lat":43.28356,"lon":5.38101,"is_reserved":false,"is_disabled":false,"rental_uris":{"android":"levelo://app?vid=3978ae71-e34c-4f14-8250-6460370b73f9","ios":"levelo://app?vid=3978ae71-e34c-4f14-8250-6460370b73f9"},"vehicle_type_id":"4","last_reported":1779304346,"current_range_meters":6400,"station_id":"ce4bh412rcd13ifvqdr0","pricing_plan_id":"cebpf4jnsgd1na2vs0mg"},{"bike_id":"390ee940-4c83-4081-8edb-bcfbb6c43117","system_id":"levelo_inurba_marseille","lat":43.31086,"lon":5.42427,"is_reserved":false,"is_disabled":false,"rental_uris":{"android":"levelo://app?vid=390ee940-4c83-4081-8edb-bcfbb6c43117","ios":"levelo://app?vid=390ee940-4c83-4081-8edb-bcfbb6c43117"},"vehicle_type_id":"4","last_reported":1779304346,"current_range_meters":6400,"station_id":"ce4bhp92rcd13ifvqhag","pricing_plan_id":"cebpf4jnsgd1na2vs0mg"},{"bike_id":"ab3d0653-ceb0-447c-b6ee-1608aa7ac29d","system_id":"levelo_inurba_marseille","lat":43.29194,"lon":5.45982,"is_reserved":false,"is_disabled":false,"rental_uris":{"android":"levelo://app?vid=ab3d0653-ceb0-447c-b6ee-1608aa7ac29d","ios":"levelo://app?vid=ab3d0653-ceb0-447c-b6ee-1608aa7ac29d"},"vehicle_type_id":"4","last_reported":1779304346,"current_range_meters":6400,"station_id":"","pricing_plan_id":"cebpf4jnsgd1na2vs0mg"},{"bike_id":"dc60a08d-7713-41a9-8946-ebb99544b178","system_id":"levelo_inurba_marseille","lat":43.28271,"lon":5.35071,"is_reserved":false,"is_disabled":false,"rental_uris":{"android":"levelo://app?vid=dc60a08d-7713-41a9-8946-ebb99544b178","ios":"levelo://app?vid=dc60a08d-7713-41a9-8946-ebb99544b178"},"vehicle_type_id":"4","last_reported":1779304346,"current_range_meters":6400,"station_id":"ce4bhbp2rcd13ifvqerg","pricing_plan_id":"cebpf4jnsgd1na2vs0mg"},{"bike_id":"0e7c7446-fc47-46cc-90ee-972728807f58","system_id":"levelo_inurba_marseille","lat":43.31327,"lon":5.39694,"is_reserved":false,"is_disabled":false,"rental_uris":{"android":"levelo://app?vid=0e7c7446-fc47-46cc-90ee-972728807f58","ios":"levelo://app?vid=0e7c7446-fc47-46cc-90ee-972728807f58"},"vehicle_type_id":"4","last_reported":1779304346,"current_range_meters":6400,"station_id":"ce4bgvp2rcd13ifvqcu0","pricing_plan_id":"cebpf4jnsgd1na2vs0mg"},{"bike_id":"c230b3fb-7979-4aa7-9ff2-2e117343c711","system_id":"levelo_inurba_marseille","lat":43.29254,"lon":5.38434,"is_reserved":false,"is_disabled":false,"rental_uris":{"android":"levelo://app?vid=c230b3fb-7979-4aa7-9ff2-2e117343c711","ios":"levelo://app?vid=c230b3fb-7979-4aa7-9ff2-2e117343c711"},"vehicle_type_id":"4","last_reported":1779304346,"current_range_meters":6400,"station_id":"ce4bh692rcd13ifvqea0","pricing_plan_id":"cebpf4jnsgd1na2vs0mg"},{"bike_id":"ddfa1b70-6b71-4d7a-b7f8-3c27847ec2fc","system_id":"levelo_inurba_marseille","lat":43.25881,"lon":5.39912,"is_reserved":false,"is_disabled":false,"rental_uris":{"android":"levelo://app?vid=ddfa1b70-6b71-4d7a-b7f8-3c27847ec2fc","ios":"levelo://app?vid=ddfa1b70-6b71-4d7a-b7f8-3c27847ec2fc"},"vehicle_type_id":"4","last_reported":1779304346,"current_range_meters":6800,"station_id":"ce4bhl92rcd13ifvqghg","pricing_plan_id":"cebpf4jnsgd1na2vs0mg"},{"bike_id":"4a816376-42b8-4f8b-88c8-16800cb3c37c","system_id":"levelo_inurba_marseille","lat":43.3094,"lon":5.39051,"is_reserved":false,"is_disabled":false,"rental_uris":{"android":"levelo://app?vid=4a816376-42b8-4f8b-88c8-16800cb3c37c","ios":"levelo://app?vid=4a816376-42b8-4f8b-88c8-16800cb3c37c"},"vehicle_type_id":"4","last_reported":1779304346,"current_range_meters":6800,"station_id":"ce4bgup2rcd13ifvqco0","pricing_plan_id":"cebpf4jnsgd1na2vs0mg"},{"bike_id":"19abb887-ede9-4432-bc8a-10f41174b894","system_id":"levelo_inurba_marseille","lat":43.29205,"lon":5.39316,"is_reserved":false,"is_disabled":false,"rental_uris":{"android":"levelo://app?vid=19abb887-ede9-4432-bc8a-10f41174b894","ios":"levelo://app?vid=19abb887-ede9-4432-bc8a-10f41174b894"},"vehicle_type_id":"4","last_reported":1779304346,"current_range_meters":6800,"station_id":"ce4bh192rcd13ifvqdd0","pricing_plan_id":"cebpf4jnsgd1na2vs0mg"},{"bike_id":"f9672d6a-6397-4bbd-b8ae-9224e8a58a21","system_id":"levelo_inurba_marseille","lat":43.23194,"lon":5.39982,"is_reserved":false,"is_disabled":false,"rental_uris":{"android":"levelo://app?vid=f9672d6a-6397-4bbd-b8ae-9224e8a58a21","ios":"levelo://app?vid=f9672d6a-6397-4bbd-b8ae-9224e8a58a21"},"vehicle_type_id":"4","last_reported":1779304346,"current_range_meters":6800,"station_id":"ce4bhn12rcd13ifvqgqg","pricing_plan_id":"cebpf4jnsgd1na2vs0mg"},{"bike_id":"84cb1786-27fd-469c-b848-c2d9df4a8d30","system_id":"levelo_inurba_marseille","lat":43.30425,"lon":5.39742,"is_reserved":false,"is_disabled":false,"rental_uris":{"android":"levelo://app?vid=84cb1786-27fd-469c-b848-c2d9df4a8d30","ios":"levelo://app?vid=84cb1786-27fd-469c-b848-c2d9df4a8d30"},"vehicle_type_id":"4","last_reported":1779304346,"current_range_meters":6800,"station_id":"ce4bh092rcd13ifvqd20","pricing_plan_id":"cebpf4jnsgd1na2vs0mg"},{"bike_id":"3defc929-f33f-4739-8b1f-14e0e403504c","system_id":"levelo_inurba_marseille","lat":43.23192,"lon":5.39982,"is_reserved":false,"is_disabled":false,"rental_uris":{"android":"levelo://app?vid=3defc929-f33f-4739-8b1f-14e0e403504c","ios":"levelo://app?vid=3defc929-f33f-4739-8b1f-14e0e403504c"},"vehicle_type_id":"4","last_reported":1779304346,"current_range_meters":6800,"station_id":"ce4bhn12rcd13ifvqgqg","pricing_plan_id":"cebpf4jnsgd1na2vs0mg"},{"bike_id":"ab931e5c-731a-4ec5-8b1a-16d451deff0f","system_id":"levelo_inurba_marseille","lat":43.30927,"lon":5.40138,"is_reserved":false,"is_disabled":false,"rental_uris":{"android":"levelo://app?vid=ab931e5c-731a-4ec5-8b1a-16d451deff0f","ios":"levelo://app?vid=ab931e5c-731a-4ec5-8b1a-16d451deff0f"},"vehicle_type_id":"4","last_reported":1779304346,"current_range_meters":6800,"station_id":"ce4bgvp2rcd13ifvqct0","pricing_plan_id":"cebpf4jnsgd1na2vs0mg"},{"bike_id":"aa404921-af6c-4218-b3f2-7f7c67166a18","system_id":"levelo_inurba_marseille","lat":43.21748,"lon":5.34606,"is_reserved":false,"is_disabled":false,"rental_uris":{"android":"levelo://app?vid=aa404921-af6c-4218-b3f2-7f7c67166a18","ios":"levelo://app?vid=aa404921-af6c-4218-b3f2-7f7c67166a18"},"vehicle_type_id":"4","last_reported":1779304346,"current_range_meters":6800,"station_id":"st_cvj6r9ubvosntc0bgbag","pricing_plan_id":"cebpf4jnsgd1na2vs0mg"},{"bike_id":"47c9cb97-371d-4e9f-9c20-83aba40029f7","system_id":"levelo_inurba_marseille","lat":43.225321,"lon":5.348338,"is_reserved":false,"is_disabled":false,"rental_uris":{"android":"levelo://app?vid=47c9cb97-371d-4e9f-9c20-83aba40029f7","ios":"levelo://app?vid=47c9cb97-371d-4e9f-9c20-83aba40029f7"},"vehicle_type_id":"4","last_reported":1779304346,"current_range_meters":6800,"station_id":"st_cvj5dfep6f1abm77gieg","pricing_plan_id":"cebpf4jnsgd1na2vs0mg"},{"bike_id":"51498d75-9af5-4013-969a-723de0aa6489","system_id":"levelo_inurba_marseille","lat":43.27176,"lon":5.40994,"is_reserved":false,"is_disabled":false,"rental_uris":{"android":"levelo://app?vid=51498d75-9af5-4013-969a-723de0aa6489","ios":"levelo://app?vid=51498d75-9af5-4013-969a-723de0aa6489"},"vehicle_type_id":"4","last_reported":1779304346,"current_range_meters":6800,"station_id":"ce4bhl12rcd13ifvqgf0","pricing_plan_id":"cebpf4jnsgd1na2vs0mg"},{"bike_id":"16767768-7242-434a-ac43-fc24b8cff062","system_id":"levelo_inurba_marseille","lat":43.30931,"lon":5.40142,"is_reserved":false,"is_disabled":false,"rental_uris":{"android":"levelo://app?vid=16767768-7242-434a-ac43-fc24b8cff062","ios":"levelo://app?vid=16767768-7242-434a-ac43-fc24b8cff062"},"vehicle_type_id":"4","last_reported":1779304346,"current_range_meters":6800,"station_id":"ce4bgvp2rcd13ifvqct0","pricing_plan_id":"cebpf4jnsgd1na2vs0mg"},{"bike_id":"cc4d7ae3-c5f7-4b04-bb34-9909f7f7970d","system_id":"levelo_inurba_marseille","lat":43.29249,"lon":5.40906,"is_reserved":false,"is_disabled":true,"rental_uris":{"android":"levelo://app?vid=cc4d7ae3-c5f7-4b04-bb34-9909f7f7970d","ios":"levelo://app?vid=cc4d7ae3-c5f7-4b04-bb34-9909f7f7970d"},"vehicle_type_id":"4","last_reported":1779304346,"current_range_meters":6800,"station_id":"ce4bh192rcd13ifvqdc0","pricing_plan_id":"cebpf4jnsgd1na2vs0mg"},{"bike_id":"f866df32-1984-464f-b169-bf63661abae8","system_id":"levelo_inurba_marseille","lat":43.27172,"lon":5.40999,"is_reserved":false,"is_disabled":false,"rental_uris":{"android":"levelo://app?vid=f866df32-1984-464f-b169-bf63661abae8","ios":"levelo://app?vid=f866df32-1984-464f-b169-bf63661abae8"},"vehicle_type_id":"4","last_reported":1779304346,"current_range_meters":6800,"station_id":"ce4bhl12rcd13ifvqgf0","pricing_plan_id":"cebpf4jnsgd1na2vs0mg"},{"bike_id":"971279ad-c3ba-4571-819f-fa9941bdb7dc","system_id":"levelo_inurba_marseille","lat":43.28525,"lon":5.44093,"is_reserved":false,"is_disabled":true,"rental_uris":{"android":"levelo://app?vid=971279ad-c3ba-4571-819f-fa9941bdb7dc","ios":"levelo://app?vid=971279ad-c3ba-4571-819f-fa9941bdb7dc"},"vehicle_type_id":"4","last_reported":1779304346,"current_range_meters":6800,"station_id":"st_d3j3df2ikq2c7380ej80","pricing_plan_id":"cebpf4jnsgd1na2vs0mg"},{"bike_id":"da944e72-44c6-4bd2-9c1b-1671f752e12e","system_id":"levelo_inurba_marseille","lat":43.28424,"lon":5.34983,"is_reserved":false,"is_disabled":false,"rental_uris":{"android":"levelo://app?vid=da944e72-44c6-4bd2-9c1b-1671f752e12e","ios":"levelo://app?vid=da944e72-44c6-4bd2-9c1b-1671f752e12e"},"vehicle_type_id":"4","last_reported":1779304346,"current_range_meters":6800,"station_id":"ce4bhbh2rcd13ifvqepg","pricing_plan_id":"cebpf4jnsgd1na2vs0mg"},{"bike_id":"05a0e094-9968-4236-ba2c-6b3d7bee47a8","system_id":"levelo_inurba_marseille","lat":43.28443,"lon":5.35026,"is_reserved":false,"is_disabled":false,"rental_uris":{"android":"levelo://app?vid=05a0e094-9968-4236-ba2c-6b3d7bee47a8","ios":"levelo://app?vid=05a0e094-9968-4236-ba2c-6b3d7bee47a8"},"vehicle_type_id":"4","last_reported":1779304346,"current_range_meters":6800,"station_id":"","pricing_plan_id":"cebpf4jnsgd1na2vs0mg"},{"bike_id":"ab1b80a7-8642-4232-b72a-fa5cdf2c1795","system_id":"levelo_inurba_marseille","lat":43.27068,"lon":5.383,"is_reserved":false,"is_disabled":false,"rental_uris":{"android":"levelo://app?vid=ab1b80a7-8642-4232-b72a-fa5cdf2c1795","ios":"levelo://app?vid=ab1b80a7-8642-4232-b72a-fa5cdf2c1795"},"vehicle_type_id":"4","last_reported":1779304346,"current_range_meters":6800,"station_id":"st_d3n2fo6cfp8s73cte1j0","pricing_plan_id":"cebpf4jnsgd1na2vs0mg"},{"bike_id":"68d51bcc-fddb-422f-943c-71f52315d0d6","system_id":"levelo_inurba_marseille","lat":43.27914,"lon":5.39579,"is_reserved":false,"is_disabled":false,"rental_uris":{"android":"levelo://app?vid=68d51bcc-fddb-422f-943c-71f52315d0d6","ios":"levelo://app?vid=68d51bcc-fddb-422f-943c-71f52315d0d6"},"vehicle_type_id":"4","last_reported":1779304346,"current_range_meters":6800,"station_id":"ce4bhf92rcd13ifvqf40","pricing_plan_id":"cebpf4jnsgd1na2vs0mg"},{"bike_id":"cd966bbd-3267-4ee9-aa11-201ce56eb9d6","system_id":"levelo_inurba_marseille","lat":43.25717,"lon":5.41101,"is_reserved":false,"is_disabled":false,"rental_uris":{"android":"levelo://app?vid=cd966bbd-3267-4ee9-aa11-201ce56eb9d6","ios":"levelo://app?vid=cd966bbd-3267-4ee9-aa11-201ce56eb9d6"},"vehicle_type_id":"4","last_reported":1779304346,"current_range_meters":6800,"station_id":"ce4bhkp2rcd13ifvqgd0","pricing_plan_id":"cebpf4jnsgd1na2vs0mg"},{"bike_id":"b694d5dc-8b9c-4f5d-b756-49983936d7ec","system_id":"levelo_inurba_marseille","lat":43.24087,"lon":5.37755,"is_reserved":false,"is_disabled":false,"rental_uris":{"android":"levelo://app?vid=b694d5dc-8b9c-4f5d-b756-49983936d7ec","ios":"levelo://app?vid=b694d5dc-8b9c-4f5d-b756-49983936d7ec"},"vehicle_type_id":"4","last_reported":1779304346,"current_range_meters":6800,"station_id":"ce4bhnp2rcd13ifvqgvg","pricing_plan_id":"cebpf4jnsgd1na2vs0mg"},{"bike_id":"edeb54d9-e15c-4660-97b0-f8179e706b40","system_id":"levelo_inurba_marseille","lat":43.29011,"lon":5.35598,"is_reserved":false,"is_disabled":true,"rental_uris":{"android":"levelo://app?vid=edeb54d9-e15c-4660-97b0-f8179e706b40","ios":"levelo://app?vid=edeb54d9-e15c-4660-97b0-f8179e706b40"},"vehicle_type_id":"4","last_reported":1779304346,"current_range_meters":6800,"station_id":"ce4bhb92rcd13ifvqen0","pricing_plan_id":"cebpf4jnsgd1na2vs0mg"},{"bike_id":"d247057c-65aa-4631-b15a-ba15cf7f1afa","system_id":"levelo_inurba_marseille","lat":43.28921,"lon":5.36409,"is_reserved":false,"is_disabled":false,"rental_uris":{"android":"levelo://app?vid=d247057c-65aa-4631-b15a-ba15cf7f1afa","ios":"levelo://app?vid=d247057c-65aa-4631-b15a-ba15cf7f1afa"},"vehicle_type_id":"4","last_reported":1779304346,"current_range_meters":7200,"station_id":"ce4bhc92rcd13ifvqetg","pricing_plan_id":"cebpf4jnsgd1na2vs0mg"},{"bike_id":"430f6173-5908-4788-92fc-7a70afb37ecc","system_id":"levelo_inurba_marseille","lat":43.28412,"lon":5.34997,"is_reserved":false,"is_disabled":false,"rental_uris":{"android":"levelo://app?vid=430f6173-5908-4788-92fc-7a70afb37ecc","ios":"levelo://app?vid=430f6173-5908-4788-92fc-7a70afb37ecc"},"vehicle_type_id":"4","last_reported":1779304346,"current_range_meters":7200,"station_id":"ce4bhbh2rcd13ifvqepg","pricing_plan_id":"cebpf4jnsgd1na2vs0mg"},{"bike_id":"4719b27f-c8c6-4d06-87c8-243be2e29908","system_id":"levelo_inurba_marseille","lat":43.29909,"lon":5.37473,"is_reserved":false,"is_disabled":false,"rental_uris":{"android":"levelo://app?vid=4719b27f-c8c6-4d06-87c8-243be2e29908","ios":"levelo://app?vid=4719b27f-c8c6-4d06-87c8-243be2e29908"},"vehicle_type_id":"4","last_reported":1779304346,"current_range_meters":7200,"station_id":"ce4bgjh2rcd13ifvqbg0","pricing_plan_id":"cebpf4jnsgd1na2vs0mg"},{"bike_id":"c62656f0-b089-40bb-98c0-603e7a99353a","system_id":"levelo_inurba_marseille","lat":43.29254,"lon":5.38453,"is_reserved":false,"is_disabled":false,"rental_uris":{"android":"levelo://app?vid=c62656f0-b089-40bb-98c0-603e7a99353a","ios":"levelo://app?vid=c62656f0-b089-40bb-98c0-603e7a99353a"},"vehicle_type_id":"4","last_reported":1779304346,"current_range_meters":7200,"station_id":"ce4bh692rcd13ifvqea0","pricing_plan_id":"cebpf4jnsgd1na2vs0mg"},{"bike_id":"c5e693a5-5aee-4f2f-b3d3-ad6fe1a5da64","system_id":"levelo_inurba_marseille","lat":43.3246,"lon":5.36574,"is_reserved":false,"is_disabled":false,"rental_uris":{"android":"levelo://app?vid=c5e693a5-5aee-4f2f-b3d3-ad6fe1a5da64","ios":"levelo://app?vid=c5e693a5-5aee-4f2f-b3d3-ad6fe1a5da64"},"vehicle_type_id":"4","last_reported":1779304346,"current_range_meters":7200,"station_id":"ce4bhs12rcd13ifvqhvg","pricing_plan_id":"cebpf4jnsgd1na2vs0mg"},{"bike_id":"099da5e5-2320-45f9-9264-c27168be2d36","system_id":"levelo_inurba_marseille","lat":43.29282,"lon":5.36834,"is_reserved":false,"is_disabled":false,"rental_uris":{"android":"levelo://app?vid=099da5e5-2320-45f9-9264-c27168be2d36","ios":"levelo://app?vid=099da5e5-2320-45f9-9264-c27168be2d36"},"vehicle_type_id":"4","last_reported":1779304346,"current_range_meters":7200,"station_id":"ce4bhbp2rcd13ifvqesg","pricing_plan_id":"cebpf4jnsgd1na2vs0mg"},{"bike_id":"e38caa21-a14a-4197-88a1-db68aad57c56","system_id":"levelo_inurba_marseille","lat":43.28719,"lon":5.46677,"is_reserved":false,"is_disabled":false,"rental_uris":{"android":"levelo://app?vid=e38caa21-a14a-4197-88a1-db68aad57c56","ios":"levelo://app?vid=e38caa21-a14a-4197-88a1-db68aad57c56"},"vehicle_type_id":"4","last_reported":1779304346,"current_range_meters":7200,"station_id":"st_d6tc3vkotcvc738tfjhg","pricing_plan_id":"cebpf4jnsgd1na2vs0mg"},{"bike_id":"a27e098e-1a24-4d08-9b60-4d13b518338e","system_id":"levelo_inurba_marseille","lat":43.28229,"lon":5.35024,"is_reserved":false,"is_disabled":false,"rental_uris":{"android":"levelo://app?vid=a27e098e-1a24-4d08-9b60-4d13b518338e","ios":"levelo://app?vid=a27e098e-1a24-4d08-9b60-4d13b518338e"},"vehicle_type_id":"4","last_reported":1779304346,"current_range_meters":7200,"station_id":"","pricing_plan_id":"cebpf4jnsgd1na2vs0mg"},{"bike_id":"b0f1837a-ba23-48f3-a7c9-fe91ecd3237b","system_id":"levelo_inurba_marseille","lat":43.26091,"lon":5.39431,"is_reserved":false,"is_disabled":false,"rental_uris":{"android":"levelo://app?vid=b0f1837a-ba23-48f3-a7c9-fe91ecd3237b","ios":"levelo://app?vid=b0f1837a-ba23-48f3-a7c9-fe91ecd3237b"},"vehicle_type_id":"4","last_reported":1779304346,"current_range_meters":7200,"station_id":"ce4bhh92rcd13ifvqfj0","pricing_plan_id":"cebpf4jnsgd1na2vs0mg"},{"bike_id":"5ce7e584-8c57-4228-bca7-2adf5bcb000a","system_id":"levelo_inurba_marseille","lat":43.305973,"lon":5.393678,"is_reserved":false,"is_disabled":false,"rental_uris":{"android":"levelo://app?vid=5ce7e584-8c57-4228-bca7-2adf5bcb000a","ios":"levelo://app?vid=5ce7e584-8c57-4228-bca7-2adf5bcb000a"},"vehicle_type_id":"4","last_reported":1779304346,"current_range_meters":7200,"station_id":"ce4bh0p2rcd13ifvqd80","pricing_plan_id":"cebpf4jnsgd1na2vs0mg"},{"bike_id":"381a1687-3b4c-4e43-ada7-0b296f458493","system_id":"levelo_inurba_marseille","lat":43.28747,"lon":5.46695,"is_reserved":false,"is_disabled":false,"rental_uris":{"android":"levelo://app?vid=381a1687-3b4c-4e43-ada7-0b296f458493","ios":"levelo://app?vid=381a1687-3b4c-4e43-ada7-0b296f458493"},"vehicle_type_id":"4","last_reported":1779304346,"current_range_meters":7200,"station_id":"","pricing_plan_id":"cebpf4jnsgd1na2vs0mg"},{"bike_id":"1647b5e3-09fc-4b21-9392-54b6a011c247","system_id":"levelo_inurba_marseille","lat":43.29925,"lon":5.40839,"is_reserved":false,"is_disabled":false,"rental_uris":{"android":"levelo://app?vid=1647b5e3-09fc-4b21-9392-54b6a011c247","ios":"levelo://app?vid=1647b5e3-09fc-4b21-9392-54b6a011c247"},"vehicle_type_id":"4","last_reported":1779304346,"current_range_meters":7200,"station_id":"","pricing_plan_id":"cebpf4jnsgd1na2vs0mg"},{"bike_id":"87b88593-b533-4b42-aea8-bda80ff7ff18","system_id":"levelo_inurba_marseille","lat":43.28614,"lon":5.35101,"is_reserved":false,"is_disabled":false,"rental_uris":{"android":"levelo://app?vid=87b88593-b533-4b42-aea8-bda80ff7ff18","ios":"levelo://app?vid=87b88593-b533-4b42-aea8-bda80ff7ff18"},"vehicle_type_id":"4","last_reported":1779304346,"current_range_meters":7200,"station_id":"ce4bhch2rcd13ifvqeug","pricing_plan_id":"cebpf4jnsgd1na2vs0mg"},{"bike_id":"2245ce62-d770-439c-8137-05a4a3eae66f","system_id":"levelo_inurba_marseille","lat":43.297108,"lon":5.36599,"is_reserved":false,"is_disabled":false,"rental_uris":{"android":"levelo://app?vid=2245ce62-d770-439c-8137-05a4a3eae66f","ios":"levelo://app?vid=2245ce62-d770-439c-8137-05a4a3eae66f"},"vehicle_type_id":"4","last_reported":1779304346,"current_range_meters":7200,"station_id":"ce4bgn12rcd13ifvqbt0","pricing_plan_id":"cebpf4jnsgd1na2vs0mg"},{"bike_id":"a9dce972-e1cd-4156-a26b-f77fa4529565","system_id":"levelo_inurba_marseille","lat":43.28609,"lon":5.35106,"is_reserved":false,"is_disabled":false,"rental_uris":{"android":"levelo://app?vid=a9dce972-e1cd-4156-a26b-f77fa4529565","ios":"levelo://app?vid=a9dce972-e1cd-4156-a26b-f77fa4529565"},"vehicle_type_id":"4","last_reported":1779304346,"current_range_meters":7200,"station_id":"ce4bhch2rcd13ifvqeug","pricing_plan_id":"cebpf4jnsgd1na2vs0mg"},{"bike_id":"ea14aa15-79bf-4a88-bfec-f50fe38bddbb","system_id":"levelo_inurba_marseille","lat":43.29271,"lon":5.38445,"is_reserved":false,"is_disabled":false,"rental_uris":{"android":"levelo://app?vid=ea14aa15-79bf-4a88-bfec-f50fe38bddbb","ios":"levelo://app?vid=ea14aa15-79bf-4a88-bfec-f50fe38bddbb"},"vehicle_type_id":"4","last_reported":1779304346,"current_range_meters":7200,"station_id":"ce4bh692rcd13ifvqea0","pricing_plan_id":"cebpf4jnsgd1na2vs0mg"},{"bike_id":"8da072d2-bc69-4669-b8a2-c4b323a5ccfa","system_id":"levelo_inurba_marseille","lat":43.28391,"lon":5.37539,"is_reserved":false,"is_disabled":true,"rental_uris":{"android":"levelo://app?vid=8da072d2-bc69-4669-b8a2-c4b323a5ccfa","ios":"levelo://app?vid=8da072d2-bc69-4669-b8a2-c4b323a5ccfa"},"vehicle_type_id":"4","last_reported":1779304346,"current_range_meters":7200,"station_id":"ce4bh412rcd13ifvqds0","pricing_plan_id":"cebpf4jnsgd1na2vs0mg"},{"bike_id":"76d9f01a-7981-4ce9-bf0b-7ca3e26a009c","system_id":"levelo_inurba_marseille","lat":43.29017,"lon":5.3782,"is_reserved":false,"is_disabled":true,"rental_uris":{"android":"levelo://app?vid=76d9f01a-7981-4ce9-bf0b-7ca3e26a009c","ios":"levelo://app?vid=76d9f01a-7981-4ce9-bf0b-7ca3e26a009c"},"vehicle_type_id":"4","last_reported":1779304346,"current_range_meters":7200,"station_id":"ce4bh9p2rcd13ifvqed0","pricing_plan_id":"cebpf4jnsgd1na2vs0mg"},{"bike_id":"66fa31ce-83db-49e5-813b-99a7a7d643cb","system_id":"levelo_inurba_marseille","lat":43.2318,"lon":5.39974,"is_reserved":false,"is_disabled":false,"rental_uris":{"android":"levelo://app?vid=66fa31ce-83db-49e5-813b-99a7a7d643cb","ios":"levelo://app?vid=66fa31ce-83db-49e5-813b-99a7a7d643cb"},"vehicle_type_id":"4","last_reported":1779304346,"current_range_meters":7200,"station_id":"ce4bhn12rcd13ifvqgqg","pricing_plan_id":"cebpf4jnsgd1na2vs0mg"},{"bike_id":"806dd27a-d25b-4e18-a96e-de3665778e3e","system_id":"levelo_inurba_marseille","lat":43.26107,"lon":5.39324,"is_reserved":false,"is_disabled":false,"rental_uris":{"android":"levelo://app?vid=806dd27a-d25b-4e18-a96e-de3665778e3e","ios":"levelo://app?vid=806dd27a-d25b-4e18-a96e-de3665778e3e"},"vehicle_type_id":"4","last_reported":1779304346,"current_range_meters":7200,"station_id":"","pricing_plan_id":"cebpf4jnsgd1na2vs0mg"},{"bike_id":"85aa7030-1d2d-4efc-851d-09155d499f3c","system_id":"levelo_inurba_marseille","lat":43.32055,"lon":5.41797,"is_reserved":false,"is_disabled":false,"rental_uris":{"android":"levelo://app?vid=85aa7030-1d2d-4efc-851d-09155d499f3c","ios":"levelo://app?vid=85aa7030-1d2d-4efc-851d-09155d499f3c"},"vehicle_type_id":"4","last_reported":1779304346,"current_range_meters":7200,"station_id":"","pricing_plan_id":"cebpf4jnsgd1na2vs0mg"},{"bike_id":"2ca7b8fb-98ca-45d4-80fb-36997f3b8947","system_id":"levelo_inurba_marseille","lat":43.26558,"lon":5.3902,"is_reserved":false,"is_disabled":false,"rental_uris":{"android":"levelo://app?vid=2ca7b8fb-98ca-45d4-80fb-36997f3b8947","ios":"levelo://app?vid=2ca7b8fb-98ca-45d4-80fb-36997f3b8947"},"vehicle_type_id":"4","last_reported":1779304346,"current_range_meters":7200,"station_id":"ce4bhe12rcd13ifvqf30","pricing_plan_id":"cebpf4jnsgd1na2vs0mg"},{"bike_id":"a0b3d37c-ca76-47af-8f70-596b45b10ae8","system_id":"levelo_inurba_marseille","lat":43.28515,"lon":5.38551,"is_reserved":false,"is_disabled":false,"rental_uris":{"android":"levelo://app?vid=a0b3d37c-ca76-47af-8f70-596b45b10ae8","ios":"levelo://app?vid=a0b3d37c-ca76-47af-8f70-596b45b10ae8"},"vehicle_type_id":"4","last_reported":1779304346,"current_range_meters":7200,"station_id":"ce4bh8p2rcd13ifvqeb0","pricing_plan_id":"cebpf4jnsgd1na2vs0mg"},{"bike_id":"ba1a7b54-6879-482e-9021-47289a15a20b","system_id":"levelo_inurba_marseille","lat":43.25722,"lon":5.41091,"is_reserved":false,"is_disabled":false,"rental_uris":{"android":"levelo://app?vid=ba1a7b54-6879-482e-9021-47289a15a20b","ios":"levelo://app?vid=ba1a7b54-6879-482e-9021-47289a15a20b"},"vehicle_type_id":"4","last_reported":1779304346,"current_range_meters":7200,"station_id":"ce4bhkp2rcd13ifvqgd0","pricing_plan_id":"cebpf4jnsgd1na2vs0mg"},{"bike_id":"90274725-3a08-4f19-bb7b-5ea301ad150d","system_id":"levelo_inurba_marseille","lat":43.31488,"lon":5.37307,"is_reserved":false,"is_disabled":false,"rental_uris":{"android":"levelo://app?vid=90274725-3a08-4f19-bb7b-5ea301ad150d","ios":"levelo://app?vid=90274725-3a08-4f19-bb7b-5ea301ad150d"},"vehicle_type_id":"4","last_reported":1779304346,"current_range_meters":7200,"station_id":"ce4bgt12rcd13ifvqcd0","pricing_plan_id":"cebpf4jnsgd1na2vs0mg"},{"bike_id":"dcab00e4-b3bd-4572-b937-f215ffccae6a","system_id":"levelo_inurba_marseille","lat":43.27,"lon":5.40196,"is_reserved":false,"is_disabled":false,"rental_uris":{"android":"levelo://app?vid=dcab00e4-b3bd-4572-b937-f215ffccae6a","ios":"levelo://app?vid=dcab00e4-b3bd-4572-b937-f215ffccae6a"},"vehicle_type_id":"4","last_reported":1779304346,"current_range_meters":7200,"station_id":"","pricing_plan_id":"cebpf4jnsgd1na2vs0mg"},{"bike_id":"24139e48-8c49-4fdb-9fc9-c31c6a2c8ea7","system_id":"levelo_inurba_marseille","lat":43.24617,"lon":5.38919,"is_reserved":false,"is_disabled":false,"rental_uris":{"android":"levelo://app?vid=24139e48-8c49-4fdb-9fc9-c31c6a2c8ea7","ios":"levelo://app?vid=24139e48-8c49-4fdb-9fc9-c31c6a2c8ea7"},"vehicle_type_id":"4","last_reported":1779304346,"current_range_meters":7200,"station_id":"ce4bhg12rcd13ifvqf60","pricing_plan_id":"cebpf4jnsgd1na2vs0mg"},{"bike_id":"3940afef-f258-46e3-ada6-115b756923db","system_id":"levelo_inurba_marseille","lat":43.25868,"lon":5.39894,"is_reserved":false,"is_disabled":false,"rental_uris":{"android":"levelo://app?vid=3940afef-f258-46e3-ada6-115b756923db","ios":"levelo://app?vid=3940afef-f258-46e3-ada6-115b756923db"},"vehicle_type_id":"4","last_reported":1779304346,"current_range_meters":7200,"station_id":"ce4bhl92rcd13ifvqghg","pricing_plan_id":"cebpf4jnsgd1na2vs0mg"},{"bike_id":"dd5bca8d-4a0a-4bc1-8cec-b991e57c6089","system_id":"levelo_inurba_marseille","lat":43.24169,"lon":5.36381,"is_reserved":false,"is_disabled":false,"rental_uris":{"android":"levelo://app?vid=dd5bca8d-4a0a-4bc1-8cec-b991e57c6089","ios":"levelo://app?vid=dd5bca8d-4a0a-4bc1-8cec-b991e57c6089"},"vehicle_type_id":"4","last_reported":1779304346,"current_range_meters":8000,"station_id":"cpo36qri1sfpv3e86is0","pricing_plan_id":"cebpf4jnsgd1na2vs0mg"},{"bike_id":"a2d198a9-eb2d-469c-8acb-4e2cb8dcb691","system_id":"levelo_inurba_marseille","lat":43.30951,"lon":5.39054,"is_reserved":false,"is_disabled":false,"rental_uris":{"android":"levelo://app?vid=a2d198a9-eb2d-469c-8acb-4e2cb8dcb691","ios":"levelo://app?vid=a2d198a9-eb2d-469c-8acb-4e2cb8dcb691"},"vehicle_type_id":"4","last_reported":1779304346,"current_range_meters":8000,"station_id":"ce4bgup2rcd13ifvqco0","pricing_plan_id":"cebpf4jnsgd1na2vs0mg"},{"bike_id":"cae2f3fc-5528-46fc-bda6-116cb99d5c36","system_id":"levelo_inurba_marseille","lat":43.2509,"lon":5.39515,"is_reserved":false,"is_disabled":false,"rental_uris":{"android":"levelo://app?vid=cae2f3fc-5528-46fc-bda6-116cb99d5c36","ios":"levelo://app?vid=cae2f3fc-5528-46fc-bda6-116cb99d5c36"},"vehicle_type_id":"4","last_reported":1779304346,"current_range_meters":8000,"station_id":"ce4bhm12rcd13ifvqgkg","pricing_plan_id":"cebpf4jnsgd1na2vs0mg"},{"bike_id":"a3071a58-220a-49d7-933f-639eaa20dffd","system_id":"levelo_inurba_marseille","lat":43.28753,"lon":5.42712,"is_reserved":false,"is_disabled":false,"rental_uris":{"android":"levelo://app?vid=a3071a58-220a-49d7-933f-639eaa20dffd","ios":"levelo://app?vid=a3071a58-220a-49d7-933f-639eaa20dffd"},"vehicle_type_id":"4","last_reported":1779304346,"current_range_meters":8000,"station_id":"","pricing_plan_id":"cebpf4jnsgd1na2vs0mg"},{"bike_id":"9c915272-88ee-4b2b-b420-f660d26a299c","system_id":"levelo_inurba_marseille","lat":43.30967,"lon":5.3903,"is_reserved":false,"is_disabled":false,"rental_uris":{"android":"levelo://app?vid=9c915272-88ee-4b2b-b420-f660d26a299c","ios":"levelo://app?vid=9c915272-88ee-4b2b-b420-f660d26a299c"},"vehicle_type_id":"4","last_reported":1779304346,"current_range_meters":8000,"station_id":"ce4bgup2rcd13ifvqco0","pricing_plan_id":"cebpf4jnsgd1na2vs0mg"},{"bike_id":"17050c43-6231-4b1b-a6db-63bd9f20bab4","system_id":"levelo_inurba_marseille","lat":43.30325,"lon":5.40441,"is_reserved":false,"is_disabled":false,"rental_uris":{"android":"levelo://app?vid=17050c43-6231-4b1b-a6db-63bd9f20bab4","ios":"levelo://app?vid=17050c43-6231-4b1b-a6db-63bd9f20bab4"},"vehicle_type_id":"4","last_reported":1779304346,"current_range_meters":8000,"station_id":"ce4bh012rcd13ifvqd10","pricing_plan_id":"cebpf4jnsgd1na2vs0mg"},{"bike_id":"faed9e98-8b71-42e4-8b75-2d0412995e9c","system_id":"levelo_inurba_marseille","lat":43.24673,"lon":5.40077,"is_reserved":false,"is_disabled":false,"rental_uris":{"android":"levelo://app?vid=faed9e98-8b71-42e4-8b75-2d0412995e9c","ios":"levelo://app?vid=faed9e98-8b71-42e4-8b75-2d0412995e9c"},"vehicle_type_id":"4","last_reported":1779304346,"current_range_meters":8000,"station_id":"","pricing_plan_id":"cebpf4jnsgd1na2vs0mg"},{"bike_id":"4fdd8c15-1bcb-4fa5-b5bd-d33affd8bbad","system_id":"levelo_inurba_marseille","lat":43.30196,"lon":5.39942,"is_reserved":false,"is_disabled":false,"rental_uris":{"android":"levelo://app?vid=4fdd8c15-1bcb-4fa5-b5bd-d33affd8bbad","ios":"levelo://app?vid=4fdd8c15-1bcb-4fa5-b5bd-d33affd8bbad"},"vehicle_type_id":"4","last_reported":1779304346,"current_range_meters":8000,"station_id":"","pricing_plan_id":"cebpf4jnsgd1na2vs0mg"},{"bike_id":"076b00a1-914c-4ea6-a408-99ad8f3b717b","system_id":"levelo_inurba_marseille","lat":43.30935,"lon":5.39042,"is_reserved":false,"is_disabled":false,"rental_uris":{"android":"levelo://app?vid=076b00a1-914c-4ea6-a408-99ad8f3b717b","ios":"levelo://app?vid=076b00a1-914c-4ea6-a408-99ad8f3b717b"},"vehicle_type_id":"4","last_reported":1779304346,"current_range_meters":8000,"station_id":"ce4bgup2rcd13ifvqco0","pricing_plan_id":"cebpf4jnsgd1na2vs0mg"},{"bike_id":"29d3f4a8-eb87-48d7-9078-200ee5029180","system_id":"levelo_inurba_marseille","lat":43.29217,"lon":5.36057,"is_reserved":false,"is_disabled":false,"rental_uris":{"android":"levelo://app?vid=29d3f4a8-eb87-48d7-9078-200ee5029180","ios":"levelo://app?vid=29d3f4a8-eb87-48d7-9078-200ee5029180"},"vehicle_type_id":"4","last_reported":1779304346,"current_range_meters":8000,"station_id":"ce4bhbh2rcd13ifvqeqg","pricing_plan_id":"cebpf4jnsgd1na2vs0mg"},{"bike_id":"ae6782e3-a0be-40b2-b6e6-cabb0775e4a9","system_id":"levelo_inurba_marseille","lat":43.28445,"lon":5.35903,"is_reserved":false,"is_disabled":false,"rental_uris":{"android":"levelo://app?vid=ae6782e3-a0be-40b2-b6e6-cabb0775e4a9","ios":"levelo://app?vid=ae6782e3-a0be-40b2-b6e6-cabb0775e4a9"},"vehicle_type_id":"4","last_reported":1779304346,"current_range_meters":8000,"station_id":"ce4bhah2rcd13ifvqei0","pricing_plan_id":"cebpf4jnsgd1na2vs0mg"},{"bike_id":"ae251e10-5851-4f37-aeaf-e2a682ac5710","system_id":"levelo_inurba_marseille","lat":43.30929,"lon":5.40134,"is_reserved":false,"is_disabled":false,"rental_uris":{"android":"levelo://app?vid=ae251e10-5851-4f37-aeaf-e2a682ac5710","ios":"levelo://app?vid=ae251e10-5851-4f37-aeaf-e2a682ac5710"},"vehicle_type_id":"4","last_reported":1779304346,"current_range_meters":8000,"station_id":"ce4bgvp2rcd13ifvqct0","pricing_plan_id":"cebpf4jnsgd1na2vs0mg"},{"bike_id":"01cb5bda-d0e8-41ac-841a-8ee3b349f8a0","system_id":"levelo_inurba_marseille","lat":43.29083,"lon":5.37143,"is_reserved":false,"is_disabled":false,"rental_uris":{"android":"levelo://app?vid=01cb5bda-d0e8-41ac-841a-8ee3b349f8a0","ios":"levelo://app?vid=01cb5bda-d0e8-41ac-841a-8ee3b349f8a0"},"vehicle_type_id":"4","last_reported":1779304346,"current_range_meters":8000,"station_id":"ce4bh5p2rcd13ifvqe4g","pricing_plan_id":"cebpf4jnsgd1na2vs0mg"},{"bike_id":"e74cc65c-76f1-42c6-85ab-a981a73da68b","system_id":"levelo_inurba_marseille","lat":43.22573,"lon":5.41621,"is_reserved":false,"is_disabled":false,"rental_uris":{"android":"levelo://app?vid=e74cc65c-76f1-42c6-85ab-a981a73da68b","ios":"levelo://app?vid=e74cc65c-76f1-42c6-85ab-a981a73da68b"},"vehicle_type_id":"4","last_reported":1779304346,"current_range_meters":8000,"station_id":"st_d2o4gvlbi1j2169b742g","pricing_plan_id":"cebpf4jnsgd1na2vs0mg"},{"bike_id":"4d605c91-2b4b-4d8d-b5e0-556b4b9d95c6","system_id":"levelo_inurba_marseille","lat":43.287247,"lon":5.360854,"is_reserved":false,"is_disabled":false,"rental_uris":{"android":"levelo://app?vid=4d605c91-2b4b-4d8d-b5e0-556b4b9d95c6","ios":"levelo://app?vid=4d605c91-2b4b-4d8d-b5e0-556b4b9d95c6"},"vehicle_type_id":"4","last_reported":1779304346,"current_range_meters":8000,"station_id":"cki0cbj6b192h4jlfktg","pricing_plan_id":"cebpf4jnsgd1na2vs0mg"},{"bike_id":"3fe79c1b-5d10-47b3-9f12-e7eaddf67a85","system_id":"levelo_inurba_marseille","lat":43.26224,"lon":5.38768,"is_reserved":false,"is_disabled":false,"rental_uris":{"android":"levelo://app?vid=3fe79c1b-5d10-47b3-9f12-e7eaddf67a85","ios":"levelo://app?vid=3fe79c1b-5d10-47b3-9f12-e7eaddf67a85"},"vehicle_type_id":"4","last_reported":1779304346,"current_range_meters":8000,"station_id":"","pricing_plan_id":"cebpf4jnsgd1na2vs0mg"},{"bike_id":"7e7baf03-24b6-4996-8b95-34d4e5760aba","system_id":"levelo_inurba_marseille","lat":43.29029,"lon":5.38632,"is_reserved":false,"is_disabled":true,"rental_uris":{"android":"levelo://app?vid=7e7baf03-24b6-4996-8b95-34d4e5760aba","ios":"levelo://app?vid=7e7baf03-24b6-4996-8b95-34d4e5760aba"},"vehicle_type_id":"4","last_reported":1779304346,"current_range_meters":8000,"station_id":"ce4bh4p2rcd13ifvqe0g","pricing_plan_id":"cebpf4jnsgd1na2vs0mg"},{"bike_id":"c431d753-bb6c-46c7-9fcb-dd9dc2e8b4f1","system_id":"levelo_inurba_marseille","lat":43.29033,"lon":5.38659,"is_reserved":false,"is_disabled":false,"rental_uris":{"android":"levelo://app?vid=c431d753-bb6c-46c7-9fcb-dd9dc2e8b4f1","ios":"levelo://app?vid=c431d753-bb6c-46c7-9fcb-dd9dc2e8b4f1"},"vehicle_type_id":"4","last_reported":1779304346,"current_range_meters":8000,"station_id":"ce4bh4p2rcd13ifvqe0g","pricing_plan_id":"cebpf4jnsgd1na2vs0mg"},{"bike_id":"8c39b6dd-b754-48e2-823c-6f28d51803e0","system_id":"levelo_inurba_marseille","lat":43.29282,"lon":5.39823,"is_reserved":false,"is_disabled":false,"rental_uris":{"android":"levelo://app?vid=8c39b6dd-b754-48e2-823c-6f28d51803e0","ios":"levelo://app?vid=8c39b6dd-b754-48e2-823c-6f28d51803e0"},"vehicle_type_id":"4","last_reported":1779304346,"current_range_meters":8000,"station_id":"","pricing_plan_id":"cebpf4jnsgd1na2vs0mg"},{"bike_id":"8876450e-9943-42fc-8260-d6d1c00dc24c","system_id":"levelo_inurba_marseille","lat":43.28626,"lon":5.35093,"is_reserved":false,"is_disabled":false,"rental_uris":{"android":"levelo://app?vid=8876450e-9943-42fc-8260-d6d1c00dc24c","ios":"levelo://app?vid=8876450e-9943-42fc-8260-d6d1c00dc24c"},"vehicle_type_id":"4","last_reported":1779304346,"current_range_meters":8000,"station_id":"ce4bhch2rcd13ifvqeug","pricing_plan_id":"cebpf4jnsgd1na2vs0mg"},{"bike_id":"e45735c9-21ea-4efc-903a-b395dcd80e78","system_id":"levelo_inurba_marseille","lat":43.29572,"lon":5.39969,"is_reserved":false,"is_disabled":false,"rental_uris":{"android":"levelo://app?vid=e45735c9-21ea-4efc-903a-b395dcd80e78","ios":"levelo://app?vid=e45735c9-21ea-4efc-903a-b395dcd80e78"},