{"last_updated":1701788878,"ttl":30,"version":"2.2","data":{"bikes":[{"bike_id":"583f9492-339c-463e-98db-d4a50dea465b","system_id":"levelo_inurba_marseille","lat":43.31338,"lon":5.36716,"is_reserved":false,"is_disabled":false,"rental_uris":{"android":"levelo://app?vid=583f9492-339c-463e-98db-d4a50dea465b","ios":"levelo://app?vid=583f9492-339c-463e-98db-d4a50dea465b"},"vehicle_type_id":"4","last_reported":1701788878,"current_range_meters":26800,"station_id":"ce4bgr92rcd13ifvqc6g","pricing_plan_id":"free"},{"bike_id":"6c22590d-6750-4410-b7e4-1413015c08a1","system_id":"levelo_inurba_marseille","lat":43.313303,"lon":5.36742,"is_reserved":false,"is_disabled":false,"rental_uris":{"android":"levelo://app?vid=6c22590d-6750-4410-b7e4-1413015c08a1","ios":"levelo://app?vid=6c22590d-6750-4410-b7e4-1413015c08a1"},"vehicle_type_id":"4","last_reported":1701788878,"current_range_meters":18800,"station_id":"ce4bgr92rcd13ifvqc6g","pricing_plan_id":"free"},{"bike_id":"ae4b0316-8fd1-40e3-bc76-be1388b5aa47","system_id":"levelo_inurba_marseille","lat":43.313391,"lon":5.36706,"is_reserved":false,"is_disabled":false,"rental_uris":{"android":"levelo://app?vid=ae4b0316-8fd1-40e3-bc76-be1388b5aa47","ios":"levelo://app?vid=ae4b0316-8fd1-40e3-bc76-be1388b5aa47"},"vehicle_type_id":"4","last_reported":1701788878,"current_range_meters":23200,"station_id":"ce4bgr92rcd13ifvqc6g","pricing_plan_id":"free"},{"bike_id":"fd01627b-64c2-4d52-8bfd-4cab12c5ce93","system_id":"levelo_inurba_marseille","lat":43.313391,"lon":5.36706,"is_reserved":false,"is_disabled":false,"rental_uris":{"android":"levelo://app?vid=fd01627b-64c2-4d52-8bfd-4cab12c5ce93","ios":"levelo://app?vid=fd01627b-64c2-4d52-8bfd-4cab12c5ce93"},"vehicle_type_id":"4","last_reported":1701788878,"current_range_meters":21200,"station_id":"ce4bgr92rcd13ifvqc6g","pricing_plan_id":"free"},{"bike_id":"745e6030-c6ca-4127-8d3f-4f131fa830a6","system_id":"levelo_inurba_marseille","lat":43.313391,"lon":5.36706,"is_reserved":false,"is_disabled":false,"rental_uris":{"android":"levelo://app?vid=745e6030-c6ca-4127-8d3f-4f131fa830a6","ios":"levelo://app?vid=745e6030-c6ca-4127-8d3f-4f131fa830a6"},"vehicle_type_id":"4","last_reported":1701788878,"current_range_meters":18000,"station_id":"ce4bgr92rcd13ifvqc6g","pricing_plan_id":"free"},{"bike_id":"4b076af0-63cb-42ed-902b-1abd681f46fe","system_id":"levelo_inurba_marseille","lat":43.313391,"lon":5.36706,"is_reserved":false,"is_disabled":false,"rental_uris":{"android":"levelo://app?vid=4b076af0-63cb-42ed-902b-1abd681f46fe","ios":"levelo://app?vid=4b076af0-63cb-42ed-902b-1abd681f46fe"},"vehicle_type_id":"4","last_reported":1701788878,"current_range_meters":13600,"station_id":"ce4bgr92rcd13ifvqc6g","pricing_plan_id":"free"},{"bike_id":"70b41924-c4ab-4775-984a-0b2c192e1b51","system_id":"levelo_inurba_marseille","lat":43.313391,"lon":5.36706,"is_reserved":false,"is_disabled":false,"rental_uris":{"android":"levelo://app?vid=70b41924-c4ab-4775-984a-0b2c192e1b51","ios":"levelo://app?vid=70b41924-c4ab-4775-984a-0b2c192e1b51"},"vehicle_type_id":"4","last_reported":1701788878,"current_range_meters":31600,"station_id":"ce4bgr92rcd13ifvqc6g","pricing_plan_id":"free"},{"bike_id":"4167b9f2-99d5-4760-a9a1-6d91aacce329","system_id":"levelo_inurba_marseille","lat":43.313391,"lon":5.36706,"is_reserved":false,"is_disabled":false,"rental_uris":{"android":"levelo://app?vid=4167b9f2-99d5-4760-a9a1-6d91aacce329","ios":"levelo://app?vid=4167b9f2-99d5-4760-a9a1-6d91aacce329"},"vehicle_type_id":"4","last_reported":1701788878,"current_range_meters":23600,"station_id":"ce4bgr92rcd13ifvqc6g","pricing_plan_id":"free"},{"bike_id":"5fd61d4d-97d9-46ea-ad6e-9ae0ba00cbdf","system_id":"levelo_inurba_marseille","lat":43.313507,"lon":5.36712,"is_reserved":false,"is_disabled":false,"rental_uris":{"android":"levelo://app?vid=5fd61d4d-97d9-46ea-ad6e-9ae0ba00cbdf","ios":"levelo://app?vid=5fd61d4d-97d9-46ea-ad6e-9ae0ba00cbdf"},"vehicle_type_id":"4","last_reported":1701788878,"current_range_meters":24400,"station_id":"ce4bgr92rcd13ifvqc6g","pricing_plan_id":"free"},{"bike_id":"c90c4f56-179f-47c0-b367-8237d5be2f6f","system_id":"levelo_inurba_marseille","lat":43.313563,"lon":5.367085,"is_reserved":false,"is_disabled":false,"rental_uris":{"android":"levelo://app?vid=c90c4f56-179f-47c0-b367-8237d5be2f6f","ios":"levelo://app?vid=c90c4f56-179f-47c0-b367-8237d5be2f6f"},"vehicle_type_id":"4","last_reported":1701788878,"current_range_meters":22000,"station_id":"","pricing_plan_id":"free"},{"bike_id":"335bd2e4-d778-465e-8392-7659726a15ef","system_id":"levelo_inurba_marseille","lat":43.313564,"lon":5.367101,"is_reserved":false,"is_disabled":false,"rental_uris":{"android":"levelo://app?vid=335bd2e4-d778-465e-8392-7659726a15ef","ios":"levelo://app?vid=335bd2e4-d778-465e-8392-7659726a15ef"},"vehicle_type_id":"4","last_reported":1701788878,"current_range_meters":22000,"station_id":"ce4bgr92rcd13ifvqc6g","pricing_plan_id":"free"},{"bike_id":"ff9f49a8-7cd0-4bbf-a87a-af7489536e88","system_id":"levelo_inurba_marseille","lat":43.313391,"lon":5.36706,"is_reserved":false,"is_disabled":false,"rental_uris":{"android":"levelo://app?vid=ff9f49a8-7cd0-4bbf-a87a-af7489536e88","ios":"levelo://app?vid=ff9f49a8-7cd0-4bbf-a87a-af7489536e88"},"vehicle_type_id":"4","last_reported":1701788878,"current_range_meters":31600,"station_id":"ce4bgr92rcd13ifvqc6g","pricing_plan_id":"free"},{"bike_id":"bf17a957-00da-4f83-8e68-75717675954c","system_id":"levelo_inurba_marseille","lat":43.312239,"lon":5.368562,"is_reserved":false,"is_disabled":false,"rental_uris":{"android":"levelo://app?vid=bf17a957-00da-4f83-8e68-75717675954c","ios":"levelo://app?vid=bf17a957-00da-4f83-8e68-75717675954c"},"vehicle_type_id":"4","last_reported":1701788878,"current_range_meters":23200,"station_id":"ce4bgl92rcd13ifvqbq0","pricing_plan_id":"free"},{"bike_id":"36aeb7cc-3e3c-4f8e-8a91-381bb6daf4c4","system_id":"levelo_inurba_marseille","lat":43.309076,"lon":5.368465,"is_reserved":false,"is_disabled":false,"rental_uris":{"android":"levelo://app?vid=36aeb7cc-3e3c-4f8e-8a91-381bb6daf4c4","ios":"levelo://app?vid=36aeb7cc-3e3c-4f8e-8a91-381bb6daf4c4"},"vehicle_type_id":"4","last_reported":1701788878,"current_range_meters":12000,"station_id":"ce4bgn92rcd13ifvqbvg","pricing_plan_id":"free"},{"bike_id":"c84da087-1a97-449f-b316-95f95a5b7fae","system_id":"levelo_inurba_marseille","lat":43.309076,"lon":5.368465,"is_reserved":false,"is_disabled":false,"rental_uris":{"android":"levelo://app?vid=c84da087-1a97-449f-b316-95f95a5b7fae","ios":"levelo://app?vid=c84da087-1a97-449f-b316-95f95a5b7fae"},"vehicle_type_id":"4","last_reported":1701788878,"current_range_meters":29200,"station_id":"ce4bgn92rcd13ifvqbvg","pricing_plan_id":"free"},{"bike_id":"eb5be844-fcd3-4fee-8446-8c13b462abcd","system_id":"levelo_inurba_marseille","lat":43.309076,"lon":5.368465,"is_reserved":false,"is_disabled":false,"rental_uris":{"android":"levelo://app?vid=eb5be844-fcd3-4fee-8446-8c13b462abcd","ios":"levelo://app?vid=eb5be844-fcd3-4fee-8446-8c13b462abcd"},"vehicle_type_id":"4","last_reported":1701788878,"current_range_meters":21600,"station_id":"ce4bgn92rcd13ifvqbvg","pricing_plan_id":"free"},{"bike_id":"303e4ff1-3db0-473a-ada9-b629a9bae404","system_id":"levelo_inurba_marseille","lat":43.315,"lon":5.3731,"is_reserved":false,"is_disabled":false,"rental_uris":{"android":"levelo://app?vid=303e4ff1-3db0-473a-ada9-b629a9bae404","ios":"levelo://app?vid=303e4ff1-3db0-473a-ada9-b629a9bae404"},"vehicle_type_id":"4","last_reported":1701788878,"current_range_meters":28400,"station_id":"ce4bgt12rcd13ifvqcd0","pricing_plan_id":"free"},{"bike_id":"d0ba7508-adfb-4f45-857b-74f778e1a8d3","system_id":"levelo_inurba_marseille","lat":43.31495,"lon":5.37315,"is_reserved":false,"is_disabled":false,"rental_uris":{"android":"levelo://app?vid=d0ba7508-adfb-4f45-857b-74f778e1a8d3","ios":"levelo://app?vid=d0ba7508-adfb-4f45-857b-74f778e1a8d3"},"vehicle_type_id":"4","last_reported":1701788878,"current_range_meters":0,"station_id":"ce4bgt12rcd13ifvqcd0","pricing_plan_id":"free"},{"bike_id":"112e0239-5ebb-4952-b610-c689c39daf30","system_id":"levelo_inurba_marseille","lat":43.309039,"lon":5.371797,"is_reserved":false,"is_disabled":false,"rental_uris":{"android":"levelo://app?vid=112e0239-5ebb-4952-b610-c689c39daf30","ios":"levelo://app?vid=112e0239-5ebb-4952-b610-c689c39daf30"},"vehicle_type_id":"4","last_reported":1701788878,"current_range_meters":26400,"station_id":"ce4bguh2rcd13ifvqckg","pricing_plan_id":"free"},{"bike_id":"299c1eda-a86c-4f2c-a320-58b4e01cd6b9","system_id":"levelo_inurba_marseille","lat":43.30555,"lon":5.36544,"is_reserved":false,"is_disabled":false,"rental_uris":{"android":"levelo://app?vid=299c1eda-a86c-4f2c-a320-58b4e01cd6b9","ios":"levelo://app?vid=299c1eda-a86c-4f2c-a320-58b4e01cd6b9"},"vehicle_type_id":"4","last_reported":1701788878,"current_range_meters":0,"station_id":"ce4bgs12rcd13ifvqcag","pricing_plan_id":"free"},{"bike_id":"9138e53f-7900-448f-9c37-9f0c7cc3a066","system_id":"levelo_inurba_marseille","lat":43.305368,"lon":5.367343,"is_reserved":false,"is_disabled":false,"rental_uris":{"android":"levelo://app?vid=9138e53f-7900-448f-9c37-9f0c7cc3a066","ios":"levelo://app?vid=9138e53f-7900-448f-9c37-9f0c7cc3a066"},"vehicle_type_id":"4","last_reported":1701788878,"current_range_meters":0,"station_id":"ce4bgrp2rcd13ifvqc9g","pricing_plan_id":"free"},{"bike_id":"2b757db6-ac97-485e-a527-be890975c66b","system_id":"levelo_inurba_marseille","lat":43.305368,"lon":5.367343,"is_reserved":false,"is_disabled":false,"rental_uris":{"android":"levelo://app?vid=2b757db6-ac97-485e-a527-be890975c66b","ios":"levelo://app?vid=2b757db6-ac97-485e-a527-be890975c66b"},"vehicle_type_id":"4","last_reported":1701788878,"current_range_meters":6400,"station_id":"ce4bgrp2rcd13ifvqc9g","pricing_plan_id":"free"},{"bike_id":"3ef771b9-1b69-463b-82fd-f8d0ea59889a","system_id":"levelo_inurba_marseille","lat":43.306088,"lon":5.372229,"is_reserved":false,"is_disabled":false,"rental_uris":{"android":"levelo://app?vid=3ef771b9-1b69-463b-82fd-f8d0ea59889a","ios":"levelo://app?vid=3ef771b9-1b69-463b-82fd-f8d0ea59889a"},"vehicle_type_id":"4","last_reported":1701788878,"current_range_meters":30800,"station_id":"","pricing_plan_id":"free"},{"bike_id":"4ba3940b-6980-429e-9e44-4b4d2ef74465","system_id":"levelo_inurba_marseille","lat":43.305989,"lon":5.37225,"is_reserved":false,"is_disabled":false,"rental_uris":{"android":"levelo://app?vid=4ba3940b-6980-429e-9e44-4b4d2ef74465","ios":"levelo://app?vid=4ba3940b-6980-429e-9e44-4b4d2ef74465"},"vehicle_type_id":"4","last_reported":1701788878,"current_range_meters":29600,"station_id":"ce4bgqh2rcd13ifvqc4g","pricing_plan_id":"free"},{"bike_id":"b065b12a-ef87-47d8-8ac6-a38844050d40","system_id":"levelo_inurba_marseille","lat":43.319338,"lon":5.372928,"is_reserved":false,"is_disabled":false,"rental_uris":{"android":"levelo://app?vid=b065b12a-ef87-47d8-8ac6-a38844050d40","ios":"levelo://app?vid=b065b12a-ef87-47d8-8ac6-a38844050d40"},"vehicle_type_id":"4","last_reported":1701788878,"current_range_meters":0,"station_id":"","pricing_plan_id":"free"},{"bike_id":"0fef79ee-ec8f-4b71-b3ed-50e007bcf18f","system_id":"levelo_inurba_marseille","lat":43.311131,"lon":5.377651,"is_reserved":false,"is_disabled":false,"rental_uris":{"android":"levelo://app?vid=0fef79ee-ec8f-4b71-b3ed-50e007bcf18f","ios":"levelo://app?vid=0fef79ee-ec8f-4b71-b3ed-50e007bcf18f"},"vehicle_type_id":"4","last_reported":1701788878,"current_range_meters":19600,"station_id":"ce4bgt92rcd13ifvqcg0","pricing_plan_id":"free"},{"bike_id":"98c7b888-80cd-42bb-af25-7fcd5dde9a55","system_id":"levelo_inurba_marseille","lat":43.31715,"lon":5.37738,"is_reserved":false,"is_disabled":false,"rental_uris":{"android":"levelo://app?vid=98c7b888-80cd-42bb-af25-7fcd5dde9a55","ios":"levelo://app?vid=98c7b888-80cd-42bb-af25-7fcd5dde9a55"},"vehicle_type_id":"4","last_reported":1701788878,"current_range_meters":20000,"station_id":"ce4bgth2rcd13ifvqch0","pricing_plan_id":"free"},{"bike_id":"fb6fd937-527b-4585-9058-0dfdc6436ac8","system_id":"levelo_inurba_marseille","lat":43.31351,"lon":5.37909,"is_reserved":false,"is_disabled":false,"rental_uris":{"android":"levelo://app?vid=fb6fd937-527b-4585-9058-0dfdc6436ac8","ios":"levelo://app?vid=fb6fd937-527b-4585-9058-0dfdc6436ac8"},"vehicle_type_id":"4","last_reported":1701788878,"current_range_meters":10000,"station_id":"","pricing_plan_id":"free"},{"bike_id":"5dfbe47a-ace2-4972-b59b-b7f915164da5","system_id":"levelo_inurba_marseille","lat":43.303046,"lon":5.368981,"is_reserved":false,"is_disabled":false,"rental_uris":{"android":"levelo://app?vid=5dfbe47a-ace2-4972-b59b-b7f915164da5","ios":"levelo://app?vid=5dfbe47a-ace2-4972-b59b-b7f915164da5"},"vehicle_type_id":"4","last_reported":1701788878,"current_range_meters":30400,"station_id":"ce4bgqh2rcd13ifvqc5g","pricing_plan_id":"free"},{"bike_id":"caf34933-3fad-4aa6-84b1-762997183460","system_id":"levelo_inurba_marseille","lat":43.30304,"lon":5.368987,"is_reserved":false,"is_disabled":false,"rental_uris":{"android":"levelo://app?vid=caf34933-3fad-4aa6-84b1-762997183460","ios":"levelo://app?vid=caf34933-3fad-4aa6-84b1-762997183460"},"vehicle_type_id":"4","last_reported":1701788878,"current_range_meters":28000,"station_id":"ce4bgqh2rcd13ifvqc5g","pricing_plan_id":"free"},{"bike_id":"95861e3b-8d68-488a-9edd-6936067e0e05","system_id":"levelo_inurba_marseille","lat":43.308012,"lon":5.381511,"is_reserved":false,"is_disabled":false,"rental_uris":{"android":"levelo://app?vid=95861e3b-8d68-488a-9edd-6936067e0e05","ios":"levelo://app?vid=95861e3b-8d68-488a-9edd-6936067e0e05"},"vehicle_type_id":"4","last_reported":1701788878,"current_range_meters":25200,"station_id":"ce4bgt12rcd13ifvqce0","pricing_plan_id":"free"},{"bike_id":"2680c0a1-cc46-40e9-a67b-5b4bbe3b12fe","system_id":"levelo_inurba_marseille","lat":43.308012,"lon":5.381511,"is_reserved":false,"is_disabled":false,"rental_uris":{"android":"levelo://app?vid=2680c0a1-cc46-40e9-a67b-5b4bbe3b12fe","ios":"levelo://app?vid=2680c0a1-cc46-40e9-a67b-5b4bbe3b12fe"},"vehicle_type_id":"4","last_reported":1701788878,"current_range_meters":4400,"station_id":"ce4bgt12rcd13ifvqce0","pricing_plan_id":"free"},{"bike_id":"e222377b-5f50-452f-b870-cfaf3055e8ec","system_id":"levelo_inurba_marseille","lat":43.324771,"lon":5.36557,"is_reserved":false,"is_disabled":false,"rental_uris":{"android":"levelo://app?vid=e222377b-5f50-452f-b870-cfaf3055e8ec","ios":"levelo://app?vid=e222377b-5f50-452f-b870-cfaf3055e8ec"},"vehicle_type_id":"4","last_reported":1701788878,"current_range_meters":23200,"station_id":"ce4bhs12rcd13ifvqhvg","pricing_plan_id":"free"},{"bike_id":"ab542b0a-b258-4b62-baed-c4ff4b3a7961","system_id":"levelo_inurba_marseille","lat":43.324771,"lon":5.36557,"is_reserved":false,"is_disabled":false,"rental_uris":{"android":"levelo://app?vid=ab542b0a-b258-4b62-baed-c4ff4b3a7961","ios":"levelo://app?vid=ab542b0a-b258-4b62-baed-c4ff4b3a7961"},"vehicle_type_id":"4","last_reported":1701788878,"current_range_meters":12800,"station_id":"ce4bhs12rcd13ifvqhvg","pricing_plan_id":"free"},{"bike_id":"41280701-a143-4e50-93ef-fa297df3585f","system_id":"levelo_inurba_marseille","lat":43.324771,"lon":5.36557,"is_reserved":false,"is_disabled":false,"rental_uris":{"android":"levelo://app?vid=41280701-a143-4e50-93ef-fa297df3585f","ios":"levelo://app?vid=41280701-a143-4e50-93ef-fa297df3585f"},"vehicle_type_id":"4","last_reported":1701788878,"current_range_meters":25200,"station_id":"ce4bhs12rcd13ifvqhvg","pricing_plan_id":"free"},{"bike_id":"349dfaee-3ed5-42be-8292-0ab2ba4552e5","system_id":"levelo_inurba_marseille","lat":43.324771,"lon":5.36557,"is_reserved":false,"is_disabled":false,"rental_uris":{"android":"levelo://app?vid=349dfaee-3ed5-42be-8292-0ab2ba4552e5","ios":"levelo://app?vid=349dfaee-3ed5-42be-8292-0ab2ba4552e5"},"vehicle_type_id":"4","last_reported":1701788878,"current_range_meters":27600,"station_id":"ce4bhs12rcd13ifvqhvg","pricing_plan_id":"free"},{"bike_id":"a06c030d-52f8-4792-bf00-e7edba03f4db","system_id":"levelo_inurba_marseille","lat":43.299724,"lon":5.371829,"is_reserved":false,"is_disabled":false,"rental_uris":{"android":"levelo://app?vid=a06c030d-52f8-4792-bf00-e7edba03f4db","ios":"levelo://app?vid=a06c030d-52f8-4792-bf00-e7edba03f4db"},"vehicle_type_id":"4","last_reported":1701788878,"current_range_meters":20800,"station_id":"ce4bgr92rcd13ifvqc7g","pricing_plan_id":"free"},{"bike_id":"e1e7f669-4983-44ce-85f1-65a269f1e61a","system_id":"levelo_inurba_marseille","lat":43.31313,"lon":5.38622,"is_reserved":false,"is_disabled":false,"rental_uris":{"android":"levelo://app?vid=e1e7f669-4983-44ce-85f1-65a269f1e61a","ios":"levelo://app?vid=e1e7f669-4983-44ce-85f1-65a269f1e61a"},"vehicle_type_id":"4","last_reported":1701788878,"current_range_meters":11200,"station_id":"","pricing_plan_id":"free"},{"bike_id":"749d540f-693d-4e45-9303-f589a3c4d053","system_id":"levelo_inurba_marseille","lat":43.305364,"lon":5.384119,"is_reserved":false,"is_disabled":false,"rental_uris":{"android":"levelo://app?vid=749d540f-693d-4e45-9303-f589a3c4d053","ios":"levelo://app?vid=749d540f-693d-4e45-9303-f589a3c4d053"},"vehicle_type_id":"4","last_reported":1701788878,"current_range_meters":12800,"station_id":"ce4bgg92rcd13ifvqb30","pricing_plan_id":"free"},{"bike_id":"12128a94-c4ef-422c-a178-4e4faa7d062a","system_id":"levelo_inurba_marseille","lat":43.311722,"lon":5.387247,"is_reserved":false,"is_disabled":false,"rental_uris":{"android":"levelo://app?vid=12128a94-c4ef-422c-a178-4e4faa7d062a","ios":"levelo://app?vid=12128a94-c4ef-422c-a178-4e4faa7d062a"},"vehicle_type_id":"4","last_reported":1701788878,"current_range_meters":20400,"station_id":"ce4bgv12rcd13ifvqcp0","pricing_plan_id":"free"},{"bike_id":"af52a37f-f8ef-4c99-b5a4-8e5826d7866f","system_id":"levelo_inurba_marseille","lat":43.3117,"lon":5.387325,"is_reserved":false,"is_disabled":false,"rental_uris":{"android":"levelo://app?vid=af52a37f-f8ef-4c99-b5a4-8e5826d7866f","ios":"levelo://app?vid=af52a37f-f8ef-4c99-b5a4-8e5826d7866f"},"vehicle_type_id":"4","last_reported":1701788878,"current_range_meters":16000,"station_id":"ce4bgv12rcd13ifvqcp0","pricing_plan_id":"free"},{"bike_id":"de4a265a-84fa-45fa-b152-f885cbef2eea","system_id":"levelo_inurba_marseille","lat":43.297794,"lon":5.370888,"is_reserved":false,"is_disabled":false,"rental_uris":{"android":"levelo://app?vid=de4a265a-84fa-45fa-b152-f885cbef2eea","ios":"levelo://app?vid=de4a265a-84fa-45fa-b152-f885cbef2eea"},"vehicle_type_id":"4","last_reported":1701788878,"current_range_meters":20000,"station_id":"ce4bgop2rcd13ifvqc1g","pricing_plan_id":"free"},{"bike_id":"22246d08-5510-4ef9-88e2-78fe34345ac7","system_id":"levelo_inurba_marseille","lat":43.297794,"lon":5.370888,"is_reserved":false,"is_disabled":false,"rental_uris":{"android":"levelo://app?vid=22246d08-5510-4ef9-88e2-78fe34345ac7","ios":"levelo://app?vid=22246d08-5510-4ef9-88e2-78fe34345ac7"},"vehicle_type_id":"4","last_reported":1701788878,"current_range_meters":31200,"station_id":"ce4bgop2rcd13ifvqc1g","pricing_plan_id":"free"},{"bike_id":"5d268bfb-9ca3-4165-b3ff-638fce6ad9a6","system_id":"levelo_inurba_marseille","lat":43.297774,"lon":5.370875,"is_reserved":false,"is_disabled":false,"rental_uris":{"android":"levelo://app?vid=5d268bfb-9ca3-4165-b3ff-638fce6ad9a6","ios":"levelo://app?vid=5d268bfb-9ca3-4165-b3ff-638fce6ad9a6"},"vehicle_type_id":"4","last_reported":1701788878,"current_range_meters":24800,"station_id":"ce4bgop2rcd13ifvqc1g","pricing_plan_id":"free"},{"bike_id":"ba062491-a320-4afb-9ada-962bb9ece70b","system_id":"levelo_inurba_marseille","lat":43.301429,"lon":5.37413,"is_reserved":false,"is_disabled":false,"rental_uris":{"android":"levelo://app?vid=ba062491-a320-4afb-9ada-962bb9ece70b","ios":"levelo://app?vid=ba062491-a320-4afb-9ada-962bb9ece70b"},"vehicle_type_id":"4","last_reported":1701788878,"current_range_meters":9600,"station_id":"ce4bgs92rcd13ifvqcc0","pricing_plan_id":"free"},{"bike_id":"b4879a0b-f87c-476b-ba9f-57011b8686d8","system_id":"levelo_inurba_marseille","lat":43.298218,"lon":5.374416,"is_reserved":false,"is_disabled":false,"rental_uris":{"android":"levelo://app?vid=b4879a0b-f87c-476b-ba9f-57011b8686d8","ios":"levelo://app?vid=b4879a0b-f87c-476b-ba9f-57011b8686d8"},"vehicle_type_id":"4","last_reported":1701788878,"current_range_meters":17200,"station_id":"","pricing_plan_id":"free"},{"bike_id":"7c9b34d1-3514-4392-a2ee-937250c3bc00","system_id":"levelo_inurba_marseille","lat":43.328371,"lon":5.366909,"is_reserved":false,"is_disabled":false,"rental_uris":{"android":"levelo://app?vid=7c9b34d1-3514-4392-a2ee-937250c3bc00","ios":"levelo://app?vid=7c9b34d1-3514-4392-a2ee-937250c3bc00"},"vehicle_type_id":"4","last_reported":1701788878,"current_range_meters":14800,"station_id":"ce4bhs92rcd13ifvqi0g","pricing_plan_id":"free"},{"bike_id":"decb4574-6d6b-402e-89b6-fd19a98c1a00","system_id":"levelo_inurba_marseille","lat":43.328371,"lon":5.366909,"is_reserved":false,"is_disabled":false,"rental_uris":{"android":"levelo://app?vid=decb4574-6d6b-402e-89b6-fd19a98c1a00","ios":"levelo://app?vid=decb4574-6d6b-402e-89b6-fd19a98c1a00"},"vehicle_type_id":"4","last_reported":1701788878,"current_range_meters":20800,"station_id":"ce4bhs92rcd13ifvqi0g","pricing_plan_id":"free"},{"bike_id":"c2de7883-04dd-4c63-9baa-a101750646d7","system_id":"levelo_inurba_marseille","lat":43.328371,"lon":5.366909,"is_reserved":false,"is_disabled":false,"rental_uris":{"android":"levelo://app?vid=c2de7883-04dd-4c63-9baa-a101750646d7","ios":"levelo://app?vid=c2de7883-04dd-4c63-9baa-a101750646d7"},"vehicle_type_id":"4","last_reported":1701788878,"current_range_meters":12400,"station_id":"ce4bhs92rcd13ifvqi0g","pricing_plan_id":"free"},{"bike_id":"8ff87d53-919d-40b7-8c01-8e2a961e6412","system_id":"levelo_inurba_marseille","lat":43.297163,"lon":5.365866,"is_reserved":false,"is_disabled":false,"rental_uris":{"android":"levelo://app?vid=8ff87d53-919d-40b7-8c01-8e2a961e6412","ios":"levelo://app?vid=8ff87d53-919d-40b7-8c01-8e2a961e6412"},"vehicle_type_id":"4","last_reported":1701788878,"current_range_meters":24000,"station_id":"ce4bgn12rcd13ifvqbt0","pricing_plan_id":"free"},{"bike_id":"c397aa65-a0f0-42cd-88dc-1815a06dc1b9","system_id":"levelo_inurba_marseille","lat":43.297163,"lon":5.365866,"is_reserved":false,"is_disabled":false,"rental_uris":{"android":"levelo://app?vid=c397aa65-a0f0-42cd-88dc-1815a06dc1b9","ios":"levelo://app?vid=c397aa65-a0f0-42cd-88dc-1815a06dc1b9"},"vehicle_type_id":"4","last_reported":1701788878,"current_range_meters":28400,"station_id":"ce4bgn12rcd13ifvqbt0","pricing_plan_id":"free"},{"bike_id":"e96dfd9a-2b85-48df-97f7-50cbcabb3b0a","system_id":"levelo_inurba_marseille","lat":43.297163,"lon":5.365866,"is_reserved":false,"is_disabled":false,"rental_uris":{"android":"levelo://app?vid=e96dfd9a-2b85-48df-97f7-50cbcabb3b0a","ios":"levelo://app?vid=e96dfd9a-2b85-48df-97f7-50cbcabb3b0a"},"vehicle_type_id":"4","last_reported":1701788878,"current_range_meters":18000,"station_id":"ce4bgn12rcd13ifvqbt0","pricing_plan_id":"free"},{"bike_id":"f2de2c0b-f2b4-4cfc-ae62-86b4a4622486","system_id":"levelo_inurba_marseille","lat":43.297163,"lon":5.365866,"is_reserved":false,"is_disabled":false,"rental_uris":{"android":"levelo://app?vid=f2de2c0b-f2b4-4cfc-ae62-86b4a4622486","ios":"levelo://app?vid=f2de2c0b-f2b4-4cfc-ae62-86b4a4622486"},"vehicle_type_id":"4","last_reported":1701788878,"current_range_meters":8400,"station_id":"ce4bgn12rcd13ifvqbt0","pricing_plan_id":"free"},{"bike_id":"eb6e7f47-d703-40d3-b365-ef330215af35","system_id":"levelo_inurba_marseille","lat":43.295906,"lon":5.368035,"is_reserved":false,"is_disabled":false,"rental_uris":{"android":"levelo://app?vid=eb6e7f47-d703-40d3-b365-ef330215af35","ios":"levelo://app?vid=eb6e7f47-d703-40d3-b365-ef330215af35"},"vehicle_type_id":"4","last_reported":1701788878,"current_range_meters":24400,"station_id":"","pricing_plan_id":"free"},{"bike_id":"a33f9df7-bd2d-4b5c-af9d-64bb17914b02","system_id":"levelo_inurba_marseille","lat":43.29622,"lon":5.37155,"is_reserved":false,"is_disabled":false,"rental_uris":{"android":"levelo://app?vid=a33f9df7-bd2d-4b5c-af9d-64bb17914b02","ios":"levelo://app?vid=a33f9df7-bd2d-4b5c-af9d-64bb17914b02"},"vehicle_type_id":"4","last_reported":1701788878,"current_range_meters":19600,"station_id":"ce4bgnh2rcd13ifvqc0g","pricing_plan_id":"free"},{"bike_id":"eaa0e7e7-2390-47fa-909b-7b240952cbef","system_id":"levelo_inurba_marseille","lat":43.316538,"lon":5.38954,"is_reserved":false,"is_disabled":false,"rental_uris":{"android":"levelo://app?vid=eaa0e7e7-2390-47fa-909b-7b240952cbef","ios":"levelo://app?vid=eaa0e7e7-2390-47fa-909b-7b240952cbef"},"vehicle_type_id":"4","last_reported":1701788878,"current_range_meters":12800,"station_id":"","pricing_plan_id":"free"},{"bike_id":"b9516ecf-e890-4b46-8128-c230e6cb169b","system_id":"levelo_inurba_marseille","lat":43.317557,"lon":5.390173,"is_reserved":false,"is_disabled":false,"rental_uris":{"android":"levelo://app?vid=b9516ecf-e890-4b46-8128-c230e6cb169b","ios":"levelo://app?vid=b9516ecf-e890-4b46-8128-c230e6cb169b"},"vehicle_type_id":"4","last_reported":1701788878,"current_range_meters":24000,"station_id":"ce4bhqp2rcd13ifvqhng","pricing_plan_id":"free"},{"bike_id":"520c8717-569f-4e4a-9011-ac832b6d9613","system_id":"levelo_inurba_marseille","lat":43.317557,"lon":5.390173,"is_reserved":false,"is_disabled":false,"rental_uris":{"android":"levelo://app?vid=520c8717-569f-4e4a-9011-ac832b6d9613","ios":"levelo://app?vid=520c8717-569f-4e4a-9011-ac832b6d9613"},"vehicle_type_id":"4","last_reported":1701788878,"current_range_meters":24000,"station_id":"ce4bhqp2rcd13ifvqhng","pricing_plan_id":"free"},{"bike_id":"142e7d99-d905-4155-8ace-ef64c4694d2c","system_id":"levelo_inurba_marseille","lat":43.317557,"lon":5.390173,"is_reserved":false,"is_disabled":false,"rental_uris":{"android":"levelo://app?vid=142e7d99-d905-4155-8ace-ef64c4694d2c","ios":"levelo://app?vid=142e7d99-d905-4155-8ace-ef64c4694d2c"},"vehicle_type_id":"4","last_reported":1701788878,"current_range_meters":23600,"station_id":"ce4bhqp2rcd13ifvqhng","pricing_plan_id":"free"},{"bike_id":"390ce454-35de-4c2a-bf9c-0ba60f1ce790","system_id":"levelo_inurba_marseille","lat":43.317557,"lon":5.390173,"is_reserved":false,"is_disabled":false,"rental_uris":{"android":"levelo://app?vid=390ce454-35de-4c2a-bf9c-0ba60f1ce790","ios":"levelo://app?vid=390ce454-35de-4c2a-bf9c-0ba60f1ce790"},"vehicle_type_id":"4","last_reported":1701788878,"current_range_meters":27200,"station_id":"ce4bhqp2rcd13ifvqhng","pricing_plan_id":"free"},{"bike_id":"6fb89e2a-9f57-428a-926c-fbcea907b122","system_id":"levelo_inurba_marseille","lat":43.298037,"lon":5.381066,"is_reserved":false,"is_disabled":false,"rental_uris":{"android":"levelo://app?vid=6fb89e2a-9f57-428a-926c-fbcea907b122","ios":"levelo://app?vid=6fb89e2a-9f57-428a-926c-fbcea907b122"},"vehicle_type_id":"4","last_reported":1701788878,"current_range_meters":800,"station_id":"ce4bgip2rcd13ifvqbb0","pricing_plan_id":"free"},{"bike_id":"a484a99f-5142-4324-ac72-0ea4b2f0b07f","system_id":"levelo_inurba_marseille","lat":43.304278,"lon":5.388868,"is_reserved":false,"is_disabled":false,"rental_uris":{"android":"levelo://app?vid=a484a99f-5142-4324-ac72-0ea4b2f0b07f","ios":"levelo://app?vid=a484a99f-5142-4324-ac72-0ea4b2f0b07f"},"vehicle_type_id":"4","last_reported":1701788878,"current_range_meters":16000,"station_id":"ce4bgk12rcd13ifvqbi0","pricing_plan_id":"free"},{"bike_id":"c3643ac2-cdd1-4bd1-99e6-62e33012d634","system_id":"levelo_inurba_marseille","lat":43.32365,"lon":5.38888,"is_reserved":false,"is_disabled":false,"rental_uris":{"android":"levelo://app?vid=c3643ac2-cdd1-4bd1-99e6-62e33012d634","ios":"levelo://app?vid=c3643ac2-cdd1-4bd1-99e6-62e33012d634"},"vehicle_type_id":"4","last_reported":1701788878,"current_range_meters":12000,"station_id":"ce4bhqp2rcd13ifvqhog","pricing_plan_id":"free"},{"bike_id":"531b6109-84df-4861-a042-620b9b32c732","system_id":"levelo_inurba_marseille","lat":43.29601,"lon":5.381084,"is_reserved":false,"is_disabled":false,"rental_uris":{"android":"levelo://app?vid=531b6109-84df-4861-a042-620b9b32c732","ios":"levelo://app?vid=531b6109-84df-4861-a042-620b9b32c732"},"vehicle_type_id":"4","last_reported":1701788878,"current_range_meters":5600,"station_id":"ce4bgl12rcd13ifvqbo0","pricing_plan_id":"free"},{"bike_id":"4c035c54-b596-45d0-a5e1-453cd78d9d12","system_id":"levelo_inurba_marseille","lat":43.29601,"lon":5.381084,"is_reserved":false,"is_disabled":false,"rental_uris":{"android":"levelo://app?vid=4c035c54-b596-45d0-a5e1-453cd78d9d12","ios":"levelo://app?vid=4c035c54-b596-45d0-a5e1-453cd78d9d12"},"vehicle_type_id":"4","last_reported":1701788878,"current_range_meters":24400,"station_id":"ce4bgl12rcd13ifvqbo0","pricing_plan_id":"free"},{"bike_id":"b2d01e59-8483-43e5-bad7-25ab93e8a285","system_id":"levelo_inurba_marseille","lat":43.302992,"lon":5.392136,"is_reserved":false,"is_disabled":false,"rental_uris":{"android":"levelo://app?vid=b2d01e59-8483-43e5-bad7-25ab93e8a285","ios":"levelo://app?vid=b2d01e59-8483-43e5-bad7-25ab93e8a285"},"vehicle_type_id":"4","last_reported":1701788878,"current_range_meters":0,"station_id":"ce4bgkh2rcd13ifvqbk0","pricing_plan_id":"free"},{"bike_id":"33a5201f-27fc-4eb0-a346-3c8b0576f215","system_id":"levelo_inurba_marseille","lat":43.2936,"lon":5.37835,"is_reserved":false,"is_disabled":false,"rental_uris":{"android":"levelo://app?vid=33a5201f-27fc-4eb0-a346-3c8b0576f215","ios":"levelo://app?vid=33a5201f-27fc-4eb0-a346-3c8b0576f215"},"vehicle_type_id":"4","last_reported":1701788878,"current_range_meters":30000,"station_id":"ce4bgjh2rcd13ifvqbf0","pricing_plan_id":"free"},{"bike_id":"080885ea-77d7-477b-a3c8-1c4c6fbd12f1","system_id":"levelo_inurba_marseille","lat":43.300852,"lon":5.390859,"is_reserved":false,"is_disabled":false,"rental_uris":{"android":"levelo://app?vid=080885ea-77d7-477b-a3c8-1c4c6fbd12f1","ios":"levelo://app?vid=080885ea-77d7-477b-a3c8-1c4c6fbd12f1"},"vehicle_type_id":"4","last_reported":1701788878,"current_range_meters":25200,"station_id":"ce4bh192rcd13ifvqdb0","pricing_plan_id":"free"},{"bike_id":"60676762-61d3-4fc5-a49a-88fb3bc36e79","system_id":"levelo_inurba_marseille","lat":43.300359,"lon":5.390848,"is_reserved":false,"is_disabled":false,"rental_uris":{"android":"levelo://app?vid=60676762-61d3-4fc5-a49a-88fb3bc36e79","ios":"levelo://app?vid=60676762-61d3-4fc5-a49a-88fb3bc36e79"},"vehicle_type_id":"4","last_reported":1701788878,"current_range_meters":0,"station_id":"","pricing_plan_id":"free"},{"bike_id":"681dbb1d-fd33-4b20-8e45-94a8e33b9700","system_id":"levelo_inurba_marseille","lat":43.291994,"lon":5.357886,"is_reserved":false,"is_disabled":false,"rental_uris":{"android":"levelo://app?vid=681dbb1d-fd33-4b20-8e45-94a8e33b9700","ios":"levelo://app?vid=681dbb1d-fd33-4b20-8e45-94a8e33b9700"},"vehicle_type_id":"4","last_reported":1701788878,"current_range_meters":22000,"station_id":"ce4bhb12rcd13ifvqel0","pricing_plan_id":"free"},{"bike_id":"f72977a9-1027-4a5b-b2a6-4950398801b8","system_id":"levelo_inurba_marseille","lat":43.31325,"lon":5.39691,"is_reserved":false,"is_disabled":false,"rental_uris":{"android":"levelo://app?vid=f72977a9-1027-4a5b-b2a6-4950398801b8","ios":"levelo://app?vid=f72977a9-1027-4a5b-b2a6-4950398801b8"},"vehicle_type_id":"4","last_reported":1701788878,"current_range_meters":18800,"station_id":"ce4bgvp2rcd13ifvqcu0","pricing_plan_id":"free"},{"bike_id":"322ad6c2-a906-42ba-bdfd-dab789aebf1a","system_id":"levelo_inurba_marseille","lat":43.31331,"lon":5.39698,"is_reserved":false,"is_disabled":false,"rental_uris":{"android":"levelo://app?vid=322ad6c2-a906-42ba-bdfd-dab789aebf1a","ios":"levelo://app?vid=322ad6c2-a906-42ba-bdfd-dab789aebf1a"},"vehicle_type_id":"4","last_reported":1701788878,"current_range_meters":24000,"station_id":"ce4bgvp2rcd13ifvqcu0","pricing_plan_id":"free"},{"bike_id":"d96af52e-a60b-400c-9da8-65689e534b21","system_id":"levelo_inurba_marseille","lat":43.309038,"lon":5.396546,"is_reserved":false,"is_disabled":false,"rental_uris":{"android":"levelo://app?vid=d96af52e-a60b-400c-9da8-65689e534b21","ios":"levelo://app?vid=d96af52e-a60b-400c-9da8-65689e534b21"},"vehicle_type_id":"4","last_reported":1701788878,"current_range_meters":14800,"station_id":"ce4bh012rcd13ifvqcv0","pricing_plan_id":"free"},{"bike_id":"bfbb855c-d45e-4e82-9203-7724659b13c7","system_id":"levelo_inurba_marseille","lat":43.309038,"lon":5.396546,"is_reserved":false,"is_disabled":false,"rental_uris":{"android":"levelo://app?vid=bfbb855c-d45e-4e82-9203-7724659b13c7","ios":"levelo://app?vid=bfbb855c-d45e-4e82-9203-7724659b13c7"},"vehicle_type_id":"4","last_reported":1701788878,"current_range_meters":4000,"station_id":"ce4bh012rcd13ifvqcv0","pricing_plan_id":"free"},{"bike_id":"a45ece72-d96f-460b-a204-cfb2f09dc7c3","system_id":"levelo_inurba_marseille","lat":43.313291,"lon":5.396838,"is_reserved":false,"is_disabled":false,"rental_uris":{"android":"levelo://app?vid=a45ece72-d96f-460b-a204-cfb2f09dc7c3","ios":"levelo://app?vid=a45ece72-d96f-460b-a204-cfb2f09dc7c3"},"vehicle_type_id":"4","last_reported":1701788878,"current_range_meters":2400,"station_id":"ce4bgvp2rcd13ifvqcu0","pricing_plan_id":"free"},{"bike_id":"0cd8a7fd-c8f0-4d50-bfdd-109754aa0636","system_id":"levelo_inurba_marseille","lat":43.29253,"lon":5.3846,"is_reserved":false,"is_disabled":false,"rental_uris":{"android":"levelo://app?vid=0cd8a7fd-c8f0-4d50-bfdd-109754aa0636","ios":"levelo://app?vid=0cd8a7fd-c8f0-4d50-bfdd-109754aa0636"},"vehicle_type_id":"4","last_reported":1701788878,"current_range_meters":0,"station_id":"ce4bh692rcd13ifvqea0","pricing_plan_id":"free"},{"bike_id":"43571e51-f4c0-4eb0-8963-5ed408b6b3f6","system_id":"levelo_inurba_marseille","lat":43.290104,"lon":5.356111,"is_reserved":false,"is_disabled":false,"rental_uris":{"android":"levelo://app?vid=43571e51-f4c0-4eb0-8963-5ed408b6b3f6","ios":"levelo://app?vid=43571e51-f4c0-4eb0-8963-5ed408b6b3f6"},"vehicle_type_id":"4","last_reported":1701788878,"current_range_meters":29600,"station_id":"ce4bhb92rcd13ifvqen0","pricing_plan_id":"free"},{"bike_id":"7035225a-5739-4b4b-9ff1-1c2e482187d6","system_id":"levelo_inurba_marseille","lat":43.292644,"lon":5.384257,"is_reserved":false,"is_disabled":false,"rental_uris":{"android":"levelo://app?vid=7035225a-5739-4b4b-9ff1-1c2e482187d6","ios":"levelo://app?vid=7035225a-5739-4b4b-9ff1-1c2e482187d6"},"vehicle_type_id":"4","last_reported":1701788878,"current_range_meters":4000,"station_id":"ce4bh692rcd13ifvqea0","pricing_plan_id":"free"},{"bike_id":"f68e2c8b-de08-4ad7-b342-74483183b5be","system_id":"levelo_inurba_marseille","lat":43.33049,"lon":5.38909,"is_reserved":false,"is_disabled":false,"rental_uris":{"android":"levelo://app?vid=f68e2c8b-de08-4ad7-b342-74483183b5be","ios":"levelo://app?vid=f68e2c8b-de08-4ad7-b342-74483183b5be"},"vehicle_type_id":"4","last_reported":1701788878,"current_range_meters":30400,"station_id":"ce4bhr92rcd13ifvqhrg","pricing_plan_id":"free"},{"bike_id":"45ad8ed2-c468-41d1-9770-04be21af5cbc","system_id":"levelo_inurba_marseille","lat":43.290104,"lon":5.356111,"is_reserved":false,"is_disabled":false,"rental_uris":{"android":"levelo://app?vid=45ad8ed2-c468-41d1-9770-04be21af5cbc","ios":"levelo://app?vid=45ad8ed2-c468-41d1-9770-04be21af5cbc"},"vehicle_type_id":"4","last_reported":1701788878,"current_range_meters":18800,"station_id":"ce4bhb92rcd13ifvqen0","pricing_plan_id":"free"},{"bike_id":"925517d1-431c-4ba9-8124-d6fcf01ad65b","system_id":"levelo_inurba_marseille","lat":43.290104,"lon":5.356111,"is_reserved":false,"is_disabled":false,"rental_uris":{"android":"levelo://app?vid=925517d1-431c-4ba9-8124-d6fcf01ad65b","ios":"levelo://app?vid=925517d1-431c-4ba9-8124-d6fcf01ad65b"},"vehicle_type_id":"4","last_reported":1701788878,"current_range_meters":20400,"station_id":"ce4bhb92rcd13ifvqen0","pricing_plan_id":"free"},{"bike_id":"3008ed3f-5e9b-4b2d-a14d-e3ee574a1fb8","system_id":"levelo_inurba_marseille","lat":43.290104,"lon":5.356111,"is_reserved":false,"is_disabled":false,"rental_uris":{"android":"levelo://app?vid=3008ed3f-5e9b-4b2d-a14d-e3ee574a1fb8","ios":"levelo://app?vid=3008ed3f-5e9b-4b2d-a14d-e3ee574a1fb8"},"vehicle_type_id":"4","last_reported":1701788878,"current_range_meters":25600,"station_id":"ce4bhb92rcd13ifvqen0","pricing_plan_id":"free"},{"bike_id":"ca2e3805-1a1b-40f0-994d-31feb10a112a","system_id":"levelo_inurba_marseille","lat":43.290103,"lon":5.356114,"is_reserved":false,"is_disabled":false,"rental_uris":{"android":"levelo://app?vid=ca2e3805-1a1b-40f0-994d-31feb10a112a","ios":"levelo://app?vid=ca2e3805-1a1b-40f0-994d-31feb10a112a"},"vehicle_type_id":"4","last_reported":1701788878,"current_range_meters":10800,"station_id":"ce4bhb92rcd13ifvqen0","pricing_plan_id":"free"},{"bike_id":"3279ab10-c559-4255-80ce-132e262777da","system_id":"levelo_inurba_marseille","lat":43.290104,"lon":5.356111,"is_reserved":false,"is_disabled":false,"rental_uris":{"android":"levelo://app?vid=3279ab10-c559-4255-80ce-132e262777da","ios":"levelo://app?vid=3279ab10-c559-4255-80ce-132e262777da"},"vehicle_type_id":"4","last_reported":1701788878,"current_range_meters":22800,"station_id":"ce4bhb92rcd13ifvqen0","pricing_plan_id":"free"},{"bike_id":"5acf437a-9bd4-4ab6-9a7c-1521245d7344","system_id":"levelo_inurba_marseille","lat":43.231562,"lon":5.436933,"is_reserved":false,"is_disabled":false,"rental_uris":{"android":"levelo://app?vid=5acf437a-9bd4-4ab6-9a7c-1521245d7344","ios":"levelo://app?vid=5acf437a-9bd4-4ab6-9a7c-1521245d7344"},"vehicle_type_id":"4","last_reported":1701788878,"current_range_meters":31200,"station_id":"ce4bhmp2rcd13ifvqgog","pricing_plan_id":"free"},{"bike_id":"27619315-400a-4c21-baef-330ba77dac77","system_id":"levelo_inurba_marseille","lat":43.289743,"lon":5.378304,"is_reserved":false,"is_disabled":false,"rental_uris":{"android":"levelo://app?vid=27619315-400a-4c21-baef-330ba77dac77","ios":"levelo://app?vid=27619315-400a-4c21-baef-330ba77dac77"},"vehicle_type_id":"4","last_reported":1701788878,"current_range_meters":19200,"station_id":"ce4bh9p2rcd13ifvqed0","pricing_plan_id":"free"},{"bike_id":"2fbea006-0d22-445c-bfc1-d379dcddc1c1","system_id":"levelo_inurba_marseille","lat":43.337461,"lon":5.374684,"is_reserved":false,"is_disabled":false,"rental_uris":{"android":"levelo://app?vid=2fbea006-0d22-445c-bfc1-d379dcddc1c1","ios":"levelo://app?vid=2fbea006-0d22-445c-bfc1-d379dcddc1c1"},"vehicle_type_id":"4","last_reported":1701788878,"current_range_meters":28800,"station_id":"","pricing_plan_id":"free"},{"bike_id":"fbb050ed-2769-4c13-ace1-c137d76f20ac","system_id":"levelo_inurba_marseille","lat":43.337494,"lon":5.374527,"is_reserved":false,"is_disabled":false,"rental_uris":{"android":"levelo://app?vid=fbb050ed-2769-4c13-ace1-c137d76f20ac","ios":"levelo://app?vid=fbb050ed-2769-4c13-ace1-c137d76f20ac"},"vehicle_type_id":"4","last_reported":1701788878,"current_range_meters":30000,"station_id":"","pricing_plan_id":"free"},{"bike_id":"61e94894-252e-4e6e-9735-b09eceabfad5","system_id":"levelo_inurba_marseille","lat":43.337478,"lon":5.374742,"is_reserved":false,"is_disabled":false,"rental_uris":{"android":"levelo://app?vid=61e94894-252e-4e6e-9735-b09eceabfad5","ios":"levelo://app?vid=61e94894-252e-4e6e-9735-b09eceabfad5"},"vehicle_type_id":"4","last_reported":1701788878,"current_range_meters":29200,"station_id":"","pricing_plan_id":"free"},{"bike_id":"13c4b0e0-8ec9-4f96-ba02-cc1aa0796811","system_id":"levelo_inurba_marseille","lat":43.30931,"lon":5.40151,"is_reserved":false,"is_disabled":false,"rental_uris":{"android":"levelo://app?vid=13c4b0e0-8ec9-4f96-ba02-cc1aa0796811","ios":"levelo://app?vid=13c4b0e0-8ec9-4f96-ba02-cc1aa0796811"},"vehicle_type_id":"4","last_reported":1701788878,"current_range_meters":10000,"station_id":"ce4bgvp2rcd13ifvqct0","pricing_plan_id":"free"},{"bike_id":"1a81b7ea-a8c7-4772-9510-53ab2b1cbdac","system_id":"levelo_inurba_marseille","lat":43.337543,"lon":5.37448,"is_reserved":false,"is_disabled":false,"rental_uris":{"android":"levelo://app?vid=1a81b7ea-a8c7-4772-9510-53ab2b1cbdac","ios":"levelo://app?vid=1a81b7ea-a8c7-4772-9510-53ab2b1cbdac"},"vehicle_type_id":"4","last_reported":1701788878,"current_range_meters":30000,"station_id":"","pricing_plan_id":"free"},{"bike_id":"b1da507f-59bc-4bfa-9de7-dd18b0d37739","system_id":"levelo_inurba_marseille","lat":43.33754,"lon":5.3746,"is_reserved":false,"is_disabled":false,"rental_uris":{"android":"levelo://app?vid=b1da507f-59bc-4bfa-9de7-dd18b0d37739","ios":"levelo://app?vid=b1da507f-59bc-4bfa-9de7-dd18b0d37739"},"vehicle_type_id":"4","last_reported":1701788878,"current_range_meters":31200,"station_id":"","pricing_plan_id":"free"},{"bike_id":"2c0bfd2f-173a-4baf-b2df-0133adbb7ed0","system_id":"levelo_inurba_marseille","lat":43.337577,"lon":5.374555,"is_reserved":false,"is_disabled":false,"rental_uris":{"android":"levelo://app?vid=2c0bfd2f-173a-4baf-b2df-0133adbb7ed0","ios":"levelo://app?vid=2c0bfd2f-173a-4baf-b2df-0133adbb7ed0"},"vehicle_type_id":"4","last_reported":1701788878,"current_range_meters":28800,"station_id":"","pricing_plan_id":"free"},{"bike_id":"aecec5f1-f6c0-43a8-b8c2-75e67ea92633","system_id":"levelo_inurba_marseille","lat":43.3376,"lon":5.37474,"is_reserved":false,"is_disabled":false,"rental_uris":{"android":"levelo://app?vid=aecec5f1-f6c0-43a8-b8c2-75e67ea92633","ios":"levelo://app?vid=aecec5f1-f6c0-43a8-b8c2-75e67ea92633"},"vehicle_type_id":"4","last_reported":1701788878,"current_range_meters":30000,"station_id":"","pricing_plan_id":"free"},{"bike_id":"c07930a0-56a7-419b-bf9e-eaf31af4e14c","system_id":"levelo_inurba_marseille","lat":43.306412,"lon":5.401035,"is_reserved":false,"is_disabled":false,"rental_uris":{"android":"levelo://app?vid=c07930a0-56a7-419b-bf9e-eaf31af4e14c","ios":"levelo://app?vid=c07930a0-56a7-419b-bf9e-eaf31af4e14c"},"vehicle_type_id":"4","last_reported":1701788878,"current_range_meters":19600,"station_id":"ce4bh112rcd13ifvqda0","pricing_plan_id":"free"},{"bike_id":"a73b3b3a-32b1-4fdf-b9c8-50e5ae06aa8f","system_id":"levelo_inurba_marseille","lat":43.301117,"lon":5.398795,"is_reserved":false,"is_disabled":false,"rental_uris":{"android":"levelo://app?vid=a73b3b3a-32b1-4fdf-b9c8-50e5ae06aa8f","ios":"levelo://app?vid=a73b3b3a-32b1-4fdf-b9c8-50e5ae06aa8f"},"vehicle_type_id":"4","last_reported":1701788878,"current_range_meters":28000,"station_id":"ce4bh0h2rcd13ifvqd40","pricing_plan_id":"free"},{"bike_id":"ffc6be7e-e1af-4921-a9c8-e9e07ea2abaa","system_id":"levelo_inurba_marseille","lat":43.301117,"lon":5.398795,"is_reserved":false,"is_disabled":false,"rental_uris":{"android":"levelo://app?vid=ffc6be7e-e1af-4921-a9c8-e9e07ea2abaa","ios":"levelo://app?vid=ffc6be7e-e1af-4921-a9c8-e9e07ea2abaa"},"vehicle_type_id":"4","last_reported":1701788878,"current_range_meters":2400,"station_id":"ce4bh0h2rcd13ifvqd40","pricing_plan_id":"free"},{"bike_id":"54f72f3b-8d92-4667-b777-9034af728c44","system_id":"levelo_inurba_marseille","lat":43.30125,"lon":5.398707,"is_reserved":false,"is_disabled":false,"rental_uris":{"android":"levelo://app?vid=54f72f3b-8d92-4667-b777-9034af728c44","ios":"levelo://app?vid=54f72f3b-8d92-4667-b777-9034af728c44"},"vehicle_type_id":"4","last_reported":1701788878,"current_range_meters":27600,"station_id":"ce4bh0h2rcd13ifvqd40","pricing_plan_id":"free"},{"bike_id":"d2548d98-5f95-4041-88ae-e6e2d2f6c510","system_id":"levelo_inurba_marseille","lat":43.28727,"lon":5.36078,"is_reserved":false,"is_disabled":false,"rental_uris":{"android":"levelo://app?vid=d2548d98-5f95-4041-88ae-e6e2d2f6c510","ios":"levelo://app?vid=d2548d98-5f95-4041-88ae-e6e2d2f6c510"},"vehicle_type_id":"4","last_reported":1701788878,"current_range_meters":24000,"station_id":"cki0cbj6b192h4jlfktg","pricing_plan_id":"free"},{"bike_id":"327f071a-3258-4852-becf-fb22d34b8170","system_id":"levelo_inurba_marseille","lat":43.28727,"lon":5.36078,"is_reserved":false,"is_disabled":false,"rental_uris":{"android":"levelo://app?vid=327f071a-3258-4852-becf-fb22d34b8170","ios":"levelo://app?vid=327f071a-3258-4852-becf-fb22d34b8170"},"vehicle_type_id":"4","last_reported":1701788878,"current_range_meters":10000,"station_id":"cki0cbj6b192h4jlfktg","pricing_plan_id":"free"},{"bike_id":"4371c57c-e3a5-4c8c-b1a1-444da0f81371","system_id":"levelo_inurba_marseille","lat":43.28727,"lon":5.36078,"is_reserved":false,"is_disabled":false,"rental_uris":{"android":"levelo://app?vid=4371c57c-e3a5-4c8c-b1a1-444da0f81371","ios":"levelo://app?vid=4371c57c-e3a5-4c8c-b1a1-444da0f81371"},"vehicle_type_id":"4","last_reported":1701788878,"current_range_meters":7600,"station_id":"cki0cbj6b192h4jlfktg","pricing_plan_id":"free"},{"bike_id":"e36052e2-ecb3-4713-a11f-30f2f2a5d7e3","system_id":"levelo_inurba_marseille","lat":43.28727,"lon":5.36078,"is_reserved":false,"is_disabled":false,"rental_uris":{"android":"levelo://app?vid=e36052e2-ecb3-4713-a11f-30f2f2a5d7e3","ios":"levelo://app?vid=e36052e2-ecb3-4713-a11f-30f2f2a5d7e3"},"vehicle_type_id":"4","last_reported":1701788878,"current_range_meters":25600,"station_id":"cki0cbj6b192h4jlfktg","pricing_plan_id":"free"},{"bike_id":"641c2c0f-2ecf-489f-9daf-70fa4105549f","system_id":"levelo_inurba_marseille","lat":43.290345,"lon":5.38646,"is_reserved":false,"is_disabled":false,"rental_uris":{"android":"levelo://app?vid=641c2c0f-2ecf-489f-9daf-70fa4105549f","ios":"levelo://app?vid=641c2c0f-2ecf-489f-9daf-70fa4105549f"},"vehicle_type_id":"4","last_reported":1701788878,"current_range_meters":23600,"station_id":"ce4bh4p2rcd13ifvqe0g","pricing_plan_id":"free"},{"bike_id":"a9806f5d-8874-414e-a5ba-6d21b3108d2c","system_id":"levelo_inurba_marseille","lat":43.286039,"lon":5.370679,"is_reserved":false,"is_disabled":false,"rental_uris":{"android":"levelo://app?vid=a9806f5d-8874-414e-a5ba-6d21b3108d2c","ios":"levelo://app?vid=a9806f5d-8874-414e-a5ba-6d21b3108d2c"},"vehicle_type_id":"4","last_reported":1701788878,"current_range_meters":29200,"station_id":"ce4bht12rcd13ifvqi60","pricing_plan_id":"free"},{"bike_id":"e88cff2e-b056-4efc-bfe2-fd938cbe2fef","system_id":"levelo_inurba_marseille","lat":43.286039,"lon":5.370679,"is_reserved":false,"is_disabled":false,"rental_uris":{"android":"levelo://app?vid=e88cff2e-b056-4efc-bfe2-fd938cbe2fef","ios":"levelo://app?vid=e88cff2e-b056-4efc-bfe2-fd938cbe2fef"},"vehicle_type_id":"4","last_reported":1701788878,"current_range_meters":4400,"station_id":"ce4bht12rcd13ifvqi60","pricing_plan_id":"free"},{"bike_id":"49219086-79cc-40d5-b8aa-446c99c1fe59","system_id":"levelo_inurba_marseille","lat":43.286039,"lon":5.370681,"is_reserved":false,"is_disabled":false,"rental_uris":{"android":"levelo://app?vid=49219086-79cc-40d5-b8aa-446c99c1fe59","ios":"levelo://app?vid=49219086-79cc-40d5-b8aa-446c99c1fe59"},"vehicle_type_id":"4","last_reported":1701788878,"current_range_meters":2400,"station_id":"ce4bht12rcd13ifvqi60","pricing_plan_id":"free"},{"bike_id":"0a01ef7f-e68b-4417-aae1-0d9114429c6c","system_id":"levelo_inurba_marseille","lat":43.294314,"lon":5.397498,"is_reserved":false,"is_disabled":false,"rental_uris":{"android":"levelo://app?vid=0a01ef7f-e68b-4417-aae1-0d9114429c6c","ios":"levelo://app?vid=0a01ef7f-e68b-4417-aae1-0d9114429c6c"},"vehicle_type_id":"4","last_reported":1701788878,"current_range_meters":8000,"station_id":"ce4bh3h2rcd13ifvqdo0","pricing_plan_id":"free"},{"bike_id":"4c1eecd6-cde3-463f-9e0c-02d79d0c164d","system_id":"levelo_inurba_marseille","lat":43.284,"lon":5.37525,"is_reserved":false,"is_disabled":false,"rental_uris":{"android":"levelo://app?vid=4c1eecd6-cde3-463f-9e0c-02d79d0c164d","ios":"levelo://app?vid=4c1eecd6-cde3-463f-9e0c-02d79d0c164d"},"vehicle_type_id":"4","last_reported":1701788878,"current_range_meters":0,"station_id":"ce4bh412rcd13ifvqds0","pricing_plan_id":"free"},{"bike_id":"644939fd-22e7-4fae-b9f3-74a463ccd59a","system_id":"levelo_inurba_marseille","lat":43.295713,"lon":5.399639,"is_reserved":false,"is_disabled":false,"rental_uris":{"android":"levelo://app?vid=644939fd-22e7-4fae-b9f3-74a463ccd59a","ios":"levelo://app?vid=644939fd-22e7-4fae-b9f3-74a463ccd59a"},"vehicle_type_id":"4","last_reported":1701788878,"current_range_meters":7200,"station_id":"ce4bh312rcd13ifvqdj0","pricing_plan_id":"free"},{"bike_id":"2d941b1a-e8fe-4ce8-825a-01c8d87e9690","system_id":"levelo_inurba_marseille","lat":43.319179,"lon":5.407725,"is_reserved":false,"is_disabled":false,"rental_uris":{"android":"levelo://app?vid=2d941b1a-e8fe-4ce8-825a-01c8d87e9690","ios":"levelo://app?vid=2d941b1a-e8fe-4ce8-825a-01c8d87e9690"},"vehicle_type_id":"4","last_reported":1701788878,"current_range_meters":19200,"station_id":"ce4bhq12rcd13ifvqhig","pricing_plan_id":"free"},{"bike_id":"950a5dc8-4fb3-4735-baf6-df73ef0b98de","system_id":"levelo_inurba_marseille","lat":43.319179,"lon":5.407725,"is_reserved":false,"is_disabled":false,"rental_uris":{"android":"levelo://app?vid=950a5dc8-4fb3-4735-baf6-df73ef0b98de","ios":"levelo://app?vid=950a5dc8-4fb3-4735-baf6-df73ef0b98de"},"vehicle_type_id":"4","last_reported":1701788878,"current_range_meters":0,"station_id":"ce4bhq12rcd13ifvqhig","pricing_plan_id":"free"},{"bike_id":"26a1eaaa-c052-4229-965d-422f6e872f39","system_id":"levelo_inurba_marseille","lat":43.337168,"lon":5.391825,"is_reserved":false,"is_disabled":false,"rental_uris":{"android":"levelo://app?vid=26a1eaaa-c052-4229-965d-422f6e872f39","ios":"levelo://app?vid=26a1eaaa-c052-4229-965d-422f6e872f39"},"vehicle_type_id":"4","last_reported":1701788878,"current_range_meters":29600,"station_id":"ce4bhr92rcd13ifvqhsg","pricing_plan_id":"free"},{"bike_id":"7e4b9c29-4e21-4fd9-adca-b6a31e833b50","system_id":"levelo_inurba_marseille","lat":43.284793,"lon":5.384119,"is_reserved":false,"is_disabled":false,"rental_uris":{"android":"levelo://app?vid=7e4b9c29-4e21-4fd9-adca-b6a31e833b50","ios":"levelo://app?vid=7e4b9c29-4e21-4fd9-adca-b6a31e833b50"},"vehicle_type_id":"4","last_reported":1701788878,"current_range_meters":0,"station_id":"ce4bh512rcd13ifvqe3g","pricing_plan_id":"free"},{"bike_id":"8b5ac6cb-67f8-449a-8f09-5010691e8549","system_id":"levelo_inurba_marseille","lat":43.288501,"lon":5.393087,"is_reserved":false,"is_disabled":false,"rental_uris":{"android":"levelo://app?vid=8b5ac6cb-67f8-449a-8f09-5010691e8549","ios":"levelo://app?vid=8b5ac6cb-67f8-449a-8f09-5010691e8549"},"vehicle_type_id":"4","last_reported":1701788878,"current_range_meters":23200,"station_id":"ce4bh2p2rcd13ifvqdi0","pricing_plan_id":"free"},{"bike_id":"8aa9234c-2e4e-4eca-91fa-19747ee1df56","system_id":"levelo_inurba_marseille","lat":43.288501,"lon":5.393087,"is_reserved":false,"is_disabled":false,"rental_uris":{"android":"levelo://app?vid=8aa9234c-2e4e-4eca-91fa-19747ee1df56","ios":"levelo://app?vid=8aa9234c-2e4e-4eca-91fa-19747ee1df56"},"vehicle_type_id":"4","last_reported":1701788878,"current_range_meters":1600,"station_id":"ce4bh2p2rcd13ifvqdi0","pricing_plan_id":"free"},{"bike_id":"f97c0fb6-0007-4f9d-acbb-6290551d642d","system_id":"levelo_inurba_marseille","lat":43.283498,"lon":5.380948,"is_reserved":false,"is_disabled":false,"rental_uris":{"android":"levelo://app?vid=f97c0fb6-0007-4f9d-acbb-6290551d642d","ios":"levelo://app?vid=f97c0fb6-0007-4f9d-acbb-6290551d642d"},"vehicle_type_id":"4","last_reported":1701788878,"current_range_meters":21600,"station_id":"ce4bh412rcd13ifvqdr0","pricing_plan_id":"free"},{"bike_id":"46aac71e-1bee-4e1d-b87d-5cbe9c6b06bf","system_id":"levelo_inurba_marseille","lat":43.288501,"lon":5.393087,"is_reserved":false,"is_disabled":false,"rental_uris":{"android":"levelo://app?vid=46aac71e-1bee-4e1d-b87d-5cbe9c6b06bf","ios":"levelo://app?vid=46aac71e-1bee-4e1d-b87d-5cbe9c6b06bf"},"vehicle_type_id":"4","last_reported":1701788878,"current_range_meters":15600,"station_id":"ce4bh2p2rcd13ifvqdi0","pricing_plan_id":"free"},{"bike_id":"79e00cb2-dd4d-4004-a414-811627a4d4f1","system_id":"levelo_inurba_marseille","lat":43.283502,"lon":5.386471,"is_reserved":false,"is_disabled":false,"rental_uris":{"android":"levelo://app?vid=79e00cb2-dd4d-4004-a414-811627a4d4f1","ios":"levelo://app?vid=79e00cb2-dd4d-4004-a414-811627a4d4f1"},"vehicle_type_id":"4","last_reported":1701788878,"current_range_meters":21600,"station_id":"ce4bh492rcd13ifvqdvg","pricing_plan_id":"free"},{"bike_id":"60877ddb-9389-4a3a-8429-6b687c59db3f","system_id":"levelo_inurba_marseille","lat":43.28039,"lon":5.369297,"is_reserved":false,"is_disabled":false,"rental_uris":{"android":"levelo://app?vid=60877ddb-9389-4a3a-8429-6b687c59db3f","ios":"levelo://app?vid=60877ddb-9389-4a3a-8429-6b687c59db3f"},"vehicle_type_id":"4","last_reported":1701788878,"current_range_meters":26400,"station_id":"ce4bha12rcd13ifvqef0","pricing_plan_id":"free"},{"bike_id":"cf3fd51f-cce2-44fd-969a-dd41fd7ffb03","system_id":"levelo_inurba_marseille","lat":43.280382,"lon":5.369291,"is_reserved":false,"is_disabled":false,"rental_uris":{"android":"levelo://app?vid=cf3fd51f-cce2-44fd-969a-dd41fd7ffb03","ios":"levelo://app?vid=cf3fd51f-cce2-44fd-969a-dd41fd7ffb03"},"vehicle_type_id":"4","last_reported":1701788878,"current_range_meters":23200,"station_id":"ce4bha12rcd13ifvqef0","pricing_plan_id":"free"},{"bike_id":"7614acee-57e5-4a66-b93d-3591a15f2aa7","system_id":"levelo_inurba_marseille","lat":43.281044,"lon":5.378308,"is_reserved":false,"is_disabled":false,"rental_uris":{"android":"levelo://app?vid=7614acee-57e5-4a66-b93d-3591a15f2aa7","ios":"levelo://app?vid=7614acee-57e5-4a66-b93d-3591a15f2aa7"},"vehicle_type_id":"4","last_reported":1701788878,"current_range_meters":30000,"station_id":"ce4bha12rcd13ifvqee0","pricing_plan_id":"free"},{"bike_id":"578e935d-d8c5-498d-8c29-b0809091e699","system_id":"levelo_inurba_marseille","lat":43.281044,"lon":5.378308,"is_reserved":false,"is_disabled":false,"rental_uris":{"android":"levelo://app?vid=578e935d-d8c5-498d-8c29-b0809091e699","ios":"levelo://app?vid=578e935d-d8c5-498d-8c29-b0809091e699"},"vehicle_type_id":"4","last_reported":1701788878,"current_range_meters":27200,"station_id":"ce4bha12rcd13ifvqee0","pricing_plan_id":"free"},{"bike_id":"2baaae8d-faf5-4d03-a403-b7f8acf543e5","system_id":"levelo_inurba_marseille","lat":43.284462,"lon":5.392121,"is_reserved":false,"is_disabled":false,"rental_uris":{"android":"levelo://app?vid=2baaae8d-faf5-4d03-a403-b7f8acf543e5","ios":"levelo://app?vid=2baaae8d-faf5-4d03-a403-b7f8acf543e5"},"vehicle_type_id":"4","last_reported":1701788878,"current_range_meters":15600,"station_id":"ce4bhoh2rcd13ifvqh5g","pricing_plan_id":"free"},{"bike_id":"be2777a6-ea6e-46dd-bb90-1098e5347070","system_id":"levelo_inurba_marseille","lat":43.326605,"lon":5.409903,"is_reserved":false,"is_disabled":false,"rental_uris":{"android":"levelo://app?vid=be2777a6-ea6e-46dd-bb90-1098e5347070","ios":"levelo://app?vid=be2777a6-ea6e-46dd-bb90-1098e5347070"},"vehicle_type_id":"4","last_reported":1701788878,"current_range_meters":27200,"station_id":"ce4bhpp2rcd13ifvqhgg","pricing_plan_id":"free"},{"bike_id":"fc0f01ba-69ed-479b-9e65-f39483a15901","system_id":"levelo_inurba_marseille","lat":43.32658,"lon":5.40997,"is_reserved":false,"is_disabled":false,"rental_uris":{"android":"levelo://app?vid=fc0f01ba-69ed-479b-9e65-f39483a15901","ios":"levelo://app?vid=fc0f01ba-69ed-479b-9e65-f39483a15901"},"vehicle_type_id":"4","last_reported":1701788878,"current_range_meters":27600,"station_id":"ce4bhpp2rcd13ifvqhgg","pricing_plan_id":"free"},{"bike_id":"efb5fe83-e3e3-4add-8540-6e61e1a847bb","system_id":"levelo_inurba_marseille","lat":43.32656,"lon":5.41002,"is_reserved":false,"is_disabled":false,"rental_uris":{"android":"levelo://app?vid=efb5fe83-e3e3-4add-8540-6e61e1a847bb","ios":"levelo://app?vid=efb5fe83-e3e3-4add-8540-6e61e1a847bb"},"vehicle_type_id":"4","last_reported":1701788878,"current_range_meters":24000,"station_id":"ce4bhpp2rcd13ifvqhgg","pricing_plan_id":"free"},{"bike_id":"876d825d-f1ec-4536-a5f9-fcc306417330","system_id":"levelo_inurba_marseille","lat":43.32653,"lon":5.41006,"is_reserved":false,"is_disabled":false,"rental_uris":{"android":"levelo://app?vid=876d825d-f1ec-4536-a5f9-fcc306417330","ios":"levelo://app?vid=876d825d-f1ec-4536-a5f9-fcc306417330"},"vehicle_type_id":"4","last_reported":1701788878,"current_range_meters":22000,"station_id":"ce4bhpp2rcd13ifvqhgg","pricing_plan_id":"free"},{"bike_id":"2039eed6-1d0c-44fe-9940-0fd558c850cb","system_id":"levelo_inurba_marseille","lat":43.32655,"lon":5.41009,"is_reserved":false,"is_disabled":false,"rental_uris":{"android":"levelo://app?vid=2039eed6-1d0c-44fe-9940-0fd558c850cb","ios":"levelo://app?vid=2039eed6-1d0c-44fe-9940-0fd558c850cb"},"vehicle_type_id":"4","last_reported":1701788878,"current_range_meters":22800,"station_id":"ce4bhpp2rcd13ifvqhgg","pricing_plan_id":"free"},{"bike_id":"26987993-088a-414b-98f1-60737c064baf","system_id":"levelo_inurba_marseille","lat":43.304188,"lon":5.412904,"is_reserved":false,"is_disabled":false,"rental_uris":{"android":"levelo://app?vid=26987993-088a-414b-98f1-60737c064baf","ios":"levelo://app?vid=26987993-088a-414b-98f1-60737c064baf"},"vehicle_type_id":"4","last_reported":1701788878,"current_range_meters":28000,"station_id":"ce4bhop2rcd13ifvqh8g","pricing_plan_id":"free"},{"bike_id":"59175096-43a8-4be2-890e-983df7c3b00f","system_id":"levelo_inurba_marseille","lat":43.287154,"lon":5.399979,"is_reserved":false,"is_disabled":false,"rental_uris":{"android":"levelo://app?vid=59175096-43a8-4be2-890e-983df7c3b00f","ios":"levelo://app?vid=59175096-43a8-4be2-890e-983df7c3b00f"},"vehicle_type_id":"4","last_reported":1701788878,"current_range_meters":13600,"station_id":"ce4bho92rcd13ifvqh3g","pricing_plan_id":"free"},{"bike_id":"ed473e74-6c54-4640-89b5-5b0a36deb18b","system_id":"levelo_inurba_marseille","lat":43.320045,"lon":5.415048,"is_reserved":false,"is_disabled":false,"rental_uris":{"android":"levelo://app?vid=ed473e74-6c54-4640-89b5-5b0a36deb18b","ios":"levelo://app?vid=ed473e74-6c54-4640-89b5-5b0a36deb18b"},"vehicle_type_id":"4","last_reported":1701788878,"current_range_meters":24400,"station_id":"ce4bhq92rcd13ifvqhkg","pricing_plan_id":"free"},{"bike_id":"a753de57-a0c8-4897-ba45-d66f540e676e","system_id":"levelo_inurba_marseille","lat":43.320045,"lon":5.415046,"is_reserved":false,"is_disabled":false,"rental_uris":{"android":"levelo://app?vid=a753de57-a0c8-4897-ba45-d66f540e676e","ios":"levelo://app?vid=a753de57-a0c8-4897-ba45-d66f540e676e"},"vehicle_type_id":"4","last_reported":1701788878,"current_range_meters":22000,"station_id":"ce4bhq92rcd13ifvqhkg","pricing_plan_id":"free"},{"bike_id":"a9cd9e83-64b9-48d3-98a3-1973bd0da06a","system_id":"levelo_inurba_marseille","lat":43.292569,"lon":5.409107,"is_reserved":false,"is_disabled":false,"rental_uris":{"android":"levelo://app?vid=a9cd9e83-64b9-48d3-98a3-1973bd0da06a","ios":"levelo://app?vid=a9cd9e83-64b9-48d3-98a3-1973bd0da06a"},"vehicle_type_id":"4","last_reported":1701788878,"current_range_meters":26400,"station_id":"ce4bh192rcd13ifvqdc0","pricing_plan_id":"free"},{"bike_id":"17db11e9-ff6b-4265-a772-9fca0f8a787a","system_id":"levelo_inurba_marseille","lat":43.28485,"lon":5.40446,"is_reserved":false,"is_disabled":false,"rental_uris":{"android":"levelo://app?vid=17db11e9-ff6b-4265-a772-9fca0f8a787a","ios":"levelo://app?vid=17db11e9-ff6b-4265-a772-9fca0f8a787a"},"vehicle_type_id":"4","last_reported":1701788878,"current_range_meters":3600,"station_id":"","pricing_plan_id":"free"},{"bike_id":"a7a045f6-df2c-47f8-af8d-508f711efb0e","system_id":"levelo_inurba_marseille","lat":43.273613,"lon":5.362705,"is_reserved":false,"is_disabled":false,"rental_uris":{"android":"levelo://app?vid=a7a045f6-df2c-47f8-af8d-508f711efb0e","ios":"levelo://app?vid=a7a045f6-df2c-47f8-af8d-508f711efb0e"},"vehicle_type_id":"4","last_reported":1701788878,"current_range_meters":4800,"station_id":"ce4bhbh2rcd13ifvqeo0","pricing_plan_id":"free"},{"bike_id":"ba6c32c6-7955-4dd1-abee-991ebedaab30","system_id":"levelo_inurba_marseille","lat":43.273613,"lon":5.362705,"is_reserved":false,"is_disabled":false,"rental_uris":{"android":"levelo://app?vid=ba6c32c6-7955-4dd1-abee-991ebedaab30","ios":"levelo://app?vid=ba6c32c6-7955-4dd1-abee-991ebedaab30"},"vehicle_type_id":"4","last_reported":1701788878,"current_range_meters":17200,"station_id":"ce4bhbh2rcd13ifvqeo0","pricing_plan_id":"free"},{"bike_id":"4c2cf679-f32a-4ef0-a36f-e80c26765b16","system_id":"levelo_inurba_marseille","lat":43.273609,"lon":5.362708,"is_reserved":false,"is_disabled":false,"rental_uris":{"android":"levelo://app?vid=4c2cf679-f32a-4ef0-a36f-e80c26765b16","ios":"levelo://app?vid=4c2cf679-f32a-4ef0-a36f-e80c26765b16"},"vehicle_type_id":"4","last_reported":1701788878,"current_range_meters":18000,"station_id":"ce4bhbh2rcd13ifvqeo0","pricing_plan_id":"free"},{"bike_id":"962ce8b8-c384-4671-9493-d3c23178319d","system_id":"levelo_inurba_marseille","lat":43.320045,"lon":5.415048,"is_reserved":false,"is_disabled":false,"rental_uris":{"android":"levelo://app?vid=962ce8b8-c384-4671-9493-d3c23178319d","ios":"levelo://app?vid=962ce8b8-c384-4671-9493-d3c23178319d"},"vehicle_type_id":"4","last_reported":1701788878,"current_range_meters":10000,"station_id":"ce4bhq92rcd13ifvqhkg","pricing_plan_id":"free"},{"bike_id":"a9e9906d-1d07-4052-b1db-a806b8e7c813","system_id":"levelo_inurba_marseille","lat":43.279975,"lon":5.40009,"is_reserved":false,"is_disabled":false,"rental_uris":{"android":"levelo://app?vid=a9e9906d-1d07-4052-b1db-a806b8e7c813","ios":"levelo://app?vid=a9e9906d-1d07-4052-b1db-a806b8e7c813"},"vehicle_type_id":"4","last_reported":1701788878,"current_range_meters":20000,"station_id":"ce4bho92rcd13ifvqh4g","pricing_plan_id":"free"},{"bike_id":"4f3c361f-dc39-4eb2-8cb4-572b7625ae11","system_id":"levelo_inurba_marseille","lat":43.279952,"lon":5.400085,"is_reserved":false,"is_disabled":false,"rental_uris":{"android":"levelo://app?vid=4f3c361f-dc39-4eb2-8cb4-572b7625ae11","ios":"levelo://app?vid=4f3c361f-dc39-4eb2-8cb4-572b7625ae11"},"vehicle_type_id":"4","last_reported":1701788878,"current_range_meters":12400,"station_id":"ce4bho92rcd13ifvqh4g","pricing_plan_id":"free"},{"bike_id":"6f069aab-0dfd-4bb1-a7c7-dafdd20df186","system_id":"levelo_inurba_marseille","lat":43.279952,"lon":5.400085,"is_reserved":false,"is_disabled":false,"rental_uris":{"android":"levelo://app?vid=6f069aab-0dfd-4bb1-a7c7-dafdd20df186","ios":"levelo://app?vid=6f069aab-0dfd-4bb1-a7c7-dafdd20df186"},"vehicle_type_id":"4","last_reported":1701788878,"current_range_meters":30000,"station_id":"ce4bho92rcd13ifvqh4g","pricing_plan_id":"free"},{"bike_id":"4f4e5d52-124e-4276-8af2-2d2503944d2e","system_id":"levelo_inurba_marseille","lat":43.341406,"lon":5.409003,"is_reserved":false,"is_disabled":false,"rental_uris":{"android":"levelo://app?vid=4f4e5d52-124e-4276-8af2-2d2503944d2e","ios":"levelo://app?vid=4f4e5d52-124e-4276-8af2-2d2503944d2e"},"vehicle_type_id":"4","last_reported":1701788878,"current_range_meters":31200,"station_id":"ce4bhqh2rcd13ifvqhlg","pricing_plan_id":"free"},{"bike_id":"16157153-85f0-4b89-ba4e-76c2768de1a5","system_id":"levelo_inurba_marseille","lat":43.34141,"lon":5.40918,"is_reserved":false,"is_disabled":false,"rental_uris":{"android":"levelo://app?vid=16157153-85f0-4b89-ba4e-76c2768de1a5","ios":"levelo://app?vid=16157153-85f0-4b89-ba4e-76c2768de1a5"},"vehicle_type_id":"4","last_reported":1701788878,"current_range_meters":30400,"station_id":"ce4bhqh2rcd13ifvqhlg","pricing_plan_id":"free"},{"bike_id":"910fd3aa-d2e0-4553-894a-6161d41c7fcd","system_id":"levelo_inurba_marseille","lat":43.275745,"lon":5.395376,"is_reserved":false,"is_disabled":false,"rental_uris":{"android":"levelo://app?vid=910fd3aa-d2e0-4553-894a-6161d41c7fcd","ios":"levelo://app?vid=910fd3aa-d2e0-4553-894a-6161d41c7fcd"},"vehicle_type_id":"4","last_reported":1701788878,"current_range_meters":6000,"station_id":"","pricing_plan_id":"free"},{"bike_id":"9323a5b3-8c7a-41fe-b9e1-d5363c842738","system_id":"levelo_inurba_marseille","lat":43.274103,"lon":5.394016,"is_reserved":false,"is_disabled":false,"rental_uris":{"android":"levelo://app?vid=9323a5b3-8c7a-41fe-b9e1-d5363c842738","ios":"levelo://app?vid=9323a5b3-8c7a-41fe-b9e1-d5363c842738"},"vehicle_type_id":"4","last_reported":1701788878,"current_range_meters":19200,"station_id":"ce4bhdp2rcd13ifvqf20","pricing_plan_id":"free"},{"bike_id":"44b7e749-26e2-4b57-bc9c-9a6ffa54d913","system_id":"levelo_inurba_marseille","lat":43.295511,"lon":5.422926,"is_reserved":false,"is_disabled":false,"rental_uris":{"android":"levelo://app?vid=44b7e749-26e2-4b57-bc9c-9a6ffa54d913","ios":"levelo://app?vid=44b7e749-26e2-4b57-bc9c-9a6ffa54d913"},"vehicle_type_id":"4","last_reported":1701788878,"current_range_meters":22000,"station_id":"ce4bhph2rcd13ifvqhdg","pricing_plan_id":"free"},{"bike_id":"6d77c660-6773-49dd-974d-227ec324fd11","system_id":"levelo_inurba_marseille","lat":43.295511,"lon":5.422926,"is_reserved":false,"is_disabled":false,"rental_uris":{"android":"levelo://app?vid=6d77c660-6773-49dd-974d-227ec324fd11","ios":"levelo://app?vid=6d77c660-6773-49dd-974d-227ec324fd11"},"vehicle_type_id":"4","last_reported":1701788878,"current_range_meters":1200,"station_id":"ce4bhph2rcd13ifvqhdg","pricing_plan_id":"free"},{"bike_id":"4aaafaa4-5992-4d41-aca4-45ea537c3e9e","system_id":"levelo_inurba_marseille","lat":43.27214,"lon":5.3925,"is_reserved":false,"is_disabled":false,"rental_uris":{"android":"levelo://app?vid=4aaafaa4-5992-4d41-aca4-45ea537c3e9e","ios":"levelo://app?vid=4aaafaa4-5992-4d41-aca4-45ea537c3e9e"},"vehicle_type_id":"4","last_reported":1701788878,"current_range_meters":16800,"station_id":"","pricing_plan_id":"free"},{"bike_id":"13643171-fc4f-42a5-9949-27ae7af98f15","system_id":"levelo_inurba_marseille","lat":43.278128,"lon":5.407195,"is_reserved":false,"is_disabled":false,"rental_uris":{"android":"levelo://app?vid=13643171-fc4f-42a5-9949-27ae7af98f15","ios":"levelo://app?vid=13643171-fc4f-42a5-9949-27ae7af98f15"},"vehicle_type_id":"4","last_reported":1701788878,"current_range_meters":24400,"station_id":"ce4bhnh2rcd13ifvqgtg","pricing_plan_id":"free"},{"bike_id":"c4b50c76-24de-4d0d-9f08-665fe921ed4e","system_id":"levelo_inurba_marseille","lat":43.278128,"lon":5.407195,"is_reserved":false,"is_disabled":false,"rental_uris":{"android":"levelo://app?vid=c4b50c76-24de-4d0d-9f08-665fe921ed4e","ios":"levelo://app?vid=c4b50c76-24de-4d0d-9f08-665fe921ed4e"},"vehicle_type_id":"4","last_reported":1701788878,"current_range_meters":25600,"station_id":"ce4bhnh2rcd13ifvqgtg","pricing_plan_id":"free"},{"bike_id":"0adec9a2-e68b-4c27-96f9-9a9db54dc353","system_id":"levelo_inurba_marseille","lat":43.279573,"lon":5.410628,"is_reserved":false,"is_disabled":false,"rental_uris":{"android":"levelo://app?vid=0adec9a2-e68b-4c27-96f9-9a9db54dc353","ios":"levelo://app?vid=0adec9a2-e68b-4c27-96f9-9a9db54dc353"},"vehicle_type_id":"4","last_reported":1701788878,"current_range_meters":18000,"station_id":"ce4bhnp2rcd13ifvqh0g","pricing_plan_id":"free"},{"bike_id":"bfa40236-6d51-4fa2-84f6-318a69a60970","system_id":"levelo_inurba_marseille","lat":43.265714,"lon":5.372891,"is_reserved":false,"is_disabled":false,"rental_uris":{"android":"levelo://app?vid=bfa40236-6d51-4fa2-84f6-318a69a60970","ios":"levelo://app?vid=bfa40236-6d51-4fa2-84f6-318a69a60970"},"vehicle_type_id":"4","last_reported":1701788878,"current_range_meters":26800,"station_id":"ce4bhg12rcd13ifvqf70","pricing_plan_id":"free"},{"bike_id":"cbea2006-8a7a-4d1d-9744-90ff519ee81d","system_id":"levelo_inurba_marseille","lat":43.308051,"lon":5.43527,"is_reserved":false,"is_disabled":false,"rental_uris":{"android":"levelo://app?vid=cbea2006-8a7a-4d1d-9744-90ff519ee81d","ios":"levelo://app?vid=cbea2006-8a7a-4d1d-9744-90ff519ee81d"},"vehicle_type_id":"4","last_reported":1701788878,"current_range_meters":21600,"station_id":"ce4bhph2rcd13ifvqheg","pricing_plan_id":"free"},{"bike_id":"30fe597c-dba1-49d1-bcdf-6d8d96ef9702","system_id":"levelo_inurba_marseille","lat":43.317104,"lon":5.436818,"is_reserved":false,"is_disabled":false,"rental_uris":{"android":"levelo://app?vid=30fe597c-dba1-49d1-bcdf-6d8d96ef9702","ios":"levelo://app?vid=30fe597c-dba1-49d1-bcdf-6d8d96ef9702"},"vehicle_type_id":"4","last_reported":1701788878,"current_range_meters":17200,"station_id":"ce4bhp92rcd13ifvqhcg","pricing_plan_id":"free"},{"bike_id":"893b2ac6-4c6b-4863-9ca8-ac20559a7a5d","system_id":"levelo_inurba_marseille","lat":43.271368,"lon":5.40928,"is_reserved":false,"is_disabled":false,"rental_uris":{"android":"levelo://app?vid=893b2ac6-4c6b-4863-9ca8-ac20559a7a5d","ios":"levelo://app?vid=893b2ac6-4c6b-4863-9ca8-ac20559a7a5d"},"vehicle_type_id":"4","last_reported":1701788878,"current_range_meters":26800,"station_id":"ce4bhl12rcd13ifvqgf0","pricing_plan_id":"free"},{"bike_id":"8ef7de5b-901e-486f-b69d-c7819270b741","system_id":"levelo_inurba_marseille","lat":43.26202,"lon":5.379299,"is_reserved":false,"is_disabled":false,"rental_uris":{"android":"levelo://app?vid=8ef7de5b-901e-486f-b69d-c7819270b741","ios":"levelo://app?vid=8ef7de5b-901e-486f-b69d-c7819270b741"},"vehicle_type_id":"4","last_reported":1701788878,"current_range_meters":16400,"station_id":"ce4bhjp2rcd13ifvqg90","pricing_plan_id":"free"},{"bike_id":"c6d99c22-8a86-4158-a5c0-2645f4939d67","system_id":"levelo_inurba_marseille","lat":43.262012,"lon":5.379307,"is_reserved":false,"is_disabled":false,"rental_uris":{"android":"levelo://app?vid=c6d99c22-8a86-4158-a5c0-2645f4939d67","ios":"levelo://app?vid=c6d99c22-8a86-4158-a5c0-2645f4939d67"},"vehicle_type_id":"4","last_reported":1701788878,"current_range_meters":27200,"station_id":"ce4bhjp2rcd13ifvqg90","pricing_plan_id":"free"},{"bike_id":"c54cd023-a6f2-4d68-aabc-4be9f862ccbb","system_id":"levelo_inurba_marseille","lat":43.298768,"lon":5.43643,"is_reserved":false,"is_disabled":false,"rental_uris":{"android":"levelo://app?vid=c54cd023-a6f2-4d68-aabc-4be9f862ccbb","ios":"levelo://app?vid=c54cd023-a6f2-4d68-aabc-4be9f862ccbb"},"vehicle_type_id":"4","last_reported":1701788878,"current_range_meters":30400,"station_id":"ce4bhpp2rcd13ifvqhfg","pricing_plan_id":"free"},{"bike_id":"49562a35-624b-4e91-b717-753cf453337d","system_id":"levelo_inurba_marseille","lat":43.281548,"lon":5.42643,"is_reserved":false,"is_disabled":false,"rental_uris":{"android":"levelo://app?vid=49562a35-624b-4e91-b717-753cf453337d","ios":"levelo://app?vid=49562a35-624b-4e91-b717-753cf453337d"},"vehicle_type_id":"4","last_reported":1701788878,"current_range_meters":26400,"station_id":"ce4bhnh2rcd13ifvqgug","pricing_plan_id":"free"},{"bike_id":"0c8af203-d673-474c-840b-33000aa98c3d","system_id":"levelo_inurba_marseille","lat":43.25581,"lon":5.3825,"is_reserved":false,"is_disabled":false,"rental_uris":{"android":"levelo://app?vid=0c8af203-d673-474c-840b-33000aa98c3d","ios":"levelo://app?vid=0c8af203-d673-474c-840b-33000aa98c3d"},"vehicle_type_id":"4","last_reported":1701788878,"current_range_meters":21600,"station_id":"ce4bhih2rcd13ifvqfs0","pricing_plan_id":"free"},{"bike_id":"691b9079-0770-43af-aa83-f2290bca892b","system_id":"levelo_inurba_marseille","lat":43.255756,"lon":5.382303,"is_reserved":false,"is_disabled":false,"rental_uris":{"android":"levelo://app?vid=691b9079-0770-43af-aa83-f2290bca892b","ios":"levelo://app?vid=691b9079-0770-43af-aa83-f2290bca892b"},"vehicle_type_id":"4","last_reported":1701788878,"current_range_meters":24000,"station_id":"ce4bhih2rcd13ifvqfs0","pricing_plan_id":"free"},{"bike_id":"b2fe2dd3-8478-40ba-bcbf-3346ea64acbe","system_id":"levelo_inurba_marseille","lat":43.258224,"lon":5.394369,"is_reserved":false,"is_disabled":false,"rental_uris":{"android":"levelo://app?vid=b2fe2dd3-8478-40ba-bcbf-3346ea64acbe","ios":"levelo://app?vid=b2fe2dd3-8478-40ba-bcbf-3346ea64acbe"},"vehicle_type_id":"4","last_reported":1701788878,"current_range_meters":29600,"station_id":"ce4bhip2rcd13ifvqft0","pricing_plan_id":"free"},{"bike_id":"63d834aa-8fc3-4589-84ec-ee55760d4581","system_id":"levelo_inurba_marseille","lat":43.255756,"lon":5.382303,"is_reserved":false,"is_disabled":false,"rental_uris":{"android":"levelo://app?vid=63d834aa-8fc3-4589-84ec-ee55760d4581","ios":"levelo://app?vid=63d834aa-8fc3-4589-84ec-ee55760d4581"},"vehicle_type_id":"4","last_reported":1701788878,"current_range_meters":16000,"station_id":"ce4bhih2rcd13ifvqfs0","pricing_plan_id":"free"},{"bike_id":"d07967ec-f5fe-43cd-b50a-06eb44eacd5f","system_id":"levelo_inurba_marseille","lat":43.25501,"lon":5.37657,"is_reserved":false,"is_disabled":false,"rental_uris":{"android":"levelo://app?vid=d07967ec-f5fe-43cd-b50a-06eb44eacd5f","ios":"levelo://app?vid=d07967ec-f5fe-43cd-b50a-06eb44eacd5f"},"vehicle_type_id":"4","last_reported":1701788878,"current_range_meters":28000,"station_id":"ce4bhh12rcd13ifvqff0","pricing_plan_id":"free"},{"bike_id":"099752ac-6579-4ad7-81bc-b45411988d99","system_id":"levelo_inurba_marseille","lat":43.254947,"lon":5.376454,"is_reserved":false,"is_disabled":false,"rental_uris":{"android":"levelo://app?vid=099752ac-6579-4ad7-81bc-b45411988d99","ios":"levelo://app?vid=099752ac-6579-4ad7-81bc-b45411988d99"},"vehicle_type_id":"4","last_reported":1701788878,"current_range_meters":16400,"station_id":"ce4bhh12rcd13ifvqff0","pricing_plan_id":"free"},{"bike_id":"38b180c8-0fb1-4657-a580-0d70cdf442be","system_id":"levelo_inurba_marseille","lat":43.258658,"lon":5.398935,"is_reserved":false,"is_disabled":false,"rental_uris":{"android":"levelo://app?vid=38b180c8-0fb1-4657-a580-0d70cdf442be","ios":"levelo://app?vid=38b180c8-0fb1-4657-a580-0d70cdf442be"},"vehicle_type_id":"4","last_reported":1701788878,"current_range_meters":27600,"station_id":"ce4bhl92rcd13ifvqghg","pricing_plan_id":"free"},{"bike_id":"0c5dd37f-06ef-4b2a-8f04-7e748e11872f","system_id":"levelo_inurba_marseille","lat":43.257265,"lon":5.411105,"is_reserved":false,"is_disabled":false,"rental_uris":{"android":"levelo://app?vid=0c5dd37f-06ef-4b2a-8f04-7e748e11872f","ios":"levelo://app?vid=0c5dd37f-06ef-4b2a-8f04-7e748e11872f"},"vehicle_type_id":"4","last_reported":1701788878,"current_range_meters":18000,"station_id":"ce4bhkp2rcd13ifvqgd0","pricing_plan_id":"free"},{"bike_id":"6d89ba26-a018-4503-8bc7-0e2707c2382b","system_id":"levelo_inurba_marseille","lat":43.25727,"lon":5.41115,"is_reserved":false,"is_disabled":false,"rental_uris":{"android":"levelo://app?vid=6d89ba26-a018-4503-8bc7-0e2707c2382b","ios":"levelo://app?vid=6d89ba26-a018-4503-8bc7-0e2707c2382b"},"vehicle_type_id":"4","last_reported":1701788878,"current_range_meters":4400,"station_id":"ce4bhkp2rcd13ifvqgd0","pricing_plan_id":"free"},{"bike_id":"908b18e5-f3a0-4189-9b52-ad5820ca1297","system_id":"levelo_inurba_marseille","lat":43.25723,"lon":5.4112,"is_reserved":false,"is_disabled":false,"rental_uris":{"android":"levelo://app?vid=908b18e5-f3a0-4189-9b52-ad5820ca1297","ios":"levelo://app?vid=908b18e5-f3a0-4189-9b52-ad5820ca1297"},"vehicle_type_id":"4","last_reported":1701788878,"current_range_meters":12400,"station_id":"ce4bhkp2rcd13ifvqgd0","pricing_plan_id":"free"},{"bike_id":"9375c289-4149-49be-92e3-3d9fe96d2d68","system_id":"levelo_inurba_marseille","lat":43.257079,"lon":5.411051,"is_reserved":false,"is_disabled":false,"rental_uris":{"android":"levelo://app?vid=9375c289-4149-49be-92e3-3d9fe96d2d68","ios":"levelo://app?vid=9375c289-4149-49be-92e3-3d9fe96d2d68"},"vehicle_type_id":"4","last_reported":1701788878,"current_range_meters":20400,"station_id":"ce4bhkp2rcd13ifvqgd0","pricing_plan_id":"free"},{"bike_id":"bec892d0-7a69-45cb-8e3b-3cafe47dc26c","system_id":"levelo_inurba_marseille","lat":43.25721,"lon":5.41121,"is_reserved":false,"is_disabled":false,"rental_uris":{"android":"levelo://app?vid=bec892d0-7a69-45cb-8e3b-3cafe47dc26c","ios":"levelo://app?vid=bec892d0-7a69-45cb-8e3b-3cafe47dc26c"},"vehicle_type_id":"4","last_reported":1701788878,"current_range_meters":20400,"station_id":"ce4bhkp2rcd13ifvqgd0","pricing_plan_id":"free"},{"bike_id":"933b126d-ff9c-4c5f-abfa-4b7de0737960","system_id":"levelo_inurba_marseille","lat":43.257079,"lon":5.411051,"is_reserved":false,"is_disabled":false,"rental_uris":{"android":"levelo://app?vid=933b126d-ff9c-4c5f-abfa-4b7de0737960","ios":"levelo://app?vid=933b126d-ff9c-4c5f-abfa-4b7de0737960"},"vehicle_type_id":"4","last_reported":1701788878,"current_range_meters":9200,"station_id":"ce4bhkp2rcd13ifvqgd0","pricing_plan_id":"free"},{"bike_id":"9507b06d-8d13-4d4a-9530-bd3712d0b2fb","system_id":"levelo_inurba_marseille","lat":43.250009,"lon":5.389195,"is_reserved":false,"is_disabled":false,"rental_uris":{"android":"levelo://app?vid=9507b06d-8d13-4d4a-9530-bd3712d0b2fb","ios":"levelo://app?vid=9507b06d-8d13-4d4a-9530-bd3712d0b2fb"},"vehicle_type_id":"4","last_reported":1701788878,"current_range_meters":18800,"station_id":"ce4bhgp2rcd13ifvqfd0","pricing_plan_id":"free"},{"bike_id":"3e56ef50-5c91-4be6-995a-6e11acf02124","system_id":"levelo_inurba_marseille","lat":43.250009,"lon":5.389195,"is_reserved":false,"is_disabled":false,"rental_uris":{"android":"levelo://app?vid=3e56ef50-5c91-4be6-995a-6e11acf02124","ios":"levelo://app?vid=3e56ef50-5c91-4be6-995a-6e11acf02124"},"vehicle_type_id":"4","last_reported":1701788878,"current_range_meters":25600,"station_id":"ce4bhgp2rcd13ifvqfd0","pricing_plan_id":"free"},{"bike_id":"26bb4878-0221-41bf-8277-2480b8b1421f","system_id":"levelo_inurba_marseille","lat":43.250023,"lon":5.38919,"is_reserved":false,"is_disabled":false,"rental_uris":{"android":"levelo://app?vid=26bb4878-0221-41bf-8277-2480b8b1421f","ios":"levelo://app?vid=26bb4878-0221-41bf-8277-2480b8b1421f"},"vehicle_type_id":"4","last_reported":1701788878,"current_range_meters":12800,"station_id":"ce4bhgp2rcd13ifvqfd0","pricing_plan_id":"free"},{"bike_id":"b17c3850-ddb3-4d72-beb5-42a453d032e1","system_id":"levelo_inurba_marseille","lat":43.2479,"lon":5.374457,"is_reserved":false,"is_disabled":false,"rental_uris":{"android":"levelo://app?vid=b17c3850-ddb3-4d72-beb5-42a453d032e1","ios":"levelo://app?vid=b17c3850-ddb3-4d72-beb5-42a453d032e1"},"vehicle_type_id":"4","last_reported":1701788878,"current_range_meters":31200,"station_id":"ce4bhgh2rcd13ifvqfb0","pricing_plan_id":"free"},{"bike_id":"12dff578-20c2-4a91-a178-83b678e88a45","system_id":"levelo_inurba_marseille","lat":43.2479,"lon":5.374457,"is_reserved":false,"is_disabled":false,"rental_uris":{"android":"levelo://app?vid=12dff578-20c2-4a91-a178-83b678e88a45","ios":"levelo://app?vid=12dff578-20c2-4a91-a178-83b678e88a45"},"vehicle_type_id":"4","last_reported":1701788878,"current_range_meters":25600,"station_id":"ce4bhgh2rcd13ifvqfb0","pricing_plan_id":"free"},{"bike_id":"280c4aad-af72-4579-a67f-dcc74e37305a","system_id":"levelo_inurba_marseille","lat":43.2479,"lon":5.374457,"is_reserved":false,"is_disabled":false,"rental_uris":{"android":"levelo://app?vid=280c4aad-af72-4579-a67f-dcc74e37305a","ios":"levelo://app?vid=280c4aad-af72-4579-a67f-dcc74e37305a"},"vehicle_type_id":"4","last_reported":1701788878,"current_range_meters":6400,"station_id":"ce4bhgh2rcd13ifvqfb0","pricing_plan_id":"free"},{"bike_id":"d127ae70-db99-4c7a-bfe1-e98008e28703","system_id":"levelo_inurba_marseille","lat":43.250966,"lon":5.395186,"is_reserved":false,"is_disabled":false,"rental_uris":{"android":"levelo://app?vid=d127ae70-db99-4c7a-bfe1-e98008e28703","ios":"levelo://app?vid=d127ae70-db99-4c7a-bfe1-e98008e28703"},"vehicle_type_id":"4","last_reported":1701788878,"current_range_meters":30800,"station_id":"ce4bhm12rcd13ifvqgkg","pricing_plan_id":"free"},{"bike_id":"07e4f5ed-9e28-45ff-ba4d-699e5fe75cab","system_id":"levelo_inurba_marseille","lat":43.250966,"lon":5.395186,"is_reserved":false,"is_disabled":false,"rental_uris":{"android":"levelo://app?vid=07e4f5ed-9e28-45ff-ba4d-699e5fe75cab","ios":"levelo://app?vid=07e4f5ed-9e28-45ff-ba4d-699e5fe75cab"},"vehicle_type_id":"4","last_reported":1701788878,"current_range_meters":31200,"station_id":"ce4bhm12rcd13ifvqgkg","pricing_plan_id":"free"},{"bike_id":"7f99b533-0116-4a1f-9307-6fc0af8fa87b","system_id":"levelo_inurba_marseille","lat":43.25102,"lon":5.403214,"is_reserved":false,"is_disabled":false,"rental_uris":{"android":"levelo://app?vid=7f99b533-0116-4a1f-9307-6fc0af8fa87b","ios":"levelo://app?vid=7f99b533-0116-4a1f-9307-6fc0af8fa87b"},"vehicle_type_id":"4","last_reported":1701788878,"current_range_meters":31200,"station_id":"ce4bhlh2rcd13ifvqgig","pricing_plan_id":"free"},{"bike_id":"860480ff-1275-478e-8d8d-cee94309a98d","system_id":"levelo_inurba_marseille","lat":43.24667,"lon":5.38163,"is_reserved":false,"is_disabled":false,"rental_uris":{"android":"levelo://app?vid=860480ff-1275-478e-8d8d-cee94309a98d","ios":"levelo://app?vid=860480ff-1275-478e-8d8d-cee94309a98d"},"vehicle_type_id":"4","last_reported":1701788878,"current_range_meters":21200,"station_id":"ce4bhih2rcd13ifvqfr0","pricing_plan_id":"free"},{"bike_id":"a41e3fb2-097f-4edc-98cf-d5c76773aecb","system_id":"levelo_inurba_marseille","lat":43.24662,"lon":5.38165,"is_reserved":false,"is_disabled":false,"rental_uris":{"android":"levelo://app?vid=a41e3fb2-097f-4edc-98cf-d5c76773aecb","ios":"levelo://app?vid=a41e3fb2-097f-4edc-98cf-d5c76773aecb"},"vehicle_type_id":"4","last_reported":1701788878,"current_range_meters":0,"station_id":"ce4bhih2rcd13ifvqfr0","pricing_plan_id":"free"},{"bike_id":"6e615485-5a98-4541-b87c-0ad536d392b3","system_id":"levelo_inurba_marseille","lat":43.251175,"lon":5.403455,"is_reserved":false,"is_disabled":false,"rental_uris":{"android":"levelo://app?vid=6e615485-5a98-4541-b87c-0ad536d392b3","ios":"levelo://app?vid=6e615485-5a98-4541-b87c-0ad536d392b3"},"vehicle_type_id":"4","last_reported":1701788878,"current_range_meters":22400,"station_id":"ce4bhlh2rcd13ifvqgig","pricing_plan_id":"free"},{"bike_id":"9c25f2cc-0aae-42e8-8fd4-11e891f0c373","system_id":"levelo_inurba_marseille","lat":43.25102,"lon":5.403214,"is_reserved":false,"is_disabled":false,"rental_uris":{"android":"levelo://app?vid=9c25f2cc-0aae-42e8-8fd4-11e891f0c373","ios":"levelo://app?vid=9c25f2cc-0aae-42e8-8fd4-11e891f0c373"},"vehicle_type_id":"4","last_reported":1701788878,"current_range_meters":31200,"station_id":"ce4bhlh2rcd13ifvqgig","pricing_plan_id":"free"},{"bike_id":"03be5ace-802f-4d4e-9e8e-bd3ed26b10e8","system_id":"levelo_inurba_marseille","lat":43.246467,"lon":5.388984,"is_reserved":false,"is_disabled":false,"rental_uris":{"android":"levelo://app?vid=03be5ace-802f-4d4e-9e8e-bd3ed26b10e8","ios":"levelo://app?vid=03be5ace-802f-4d4e-9e8e-bd3ed26b10e8"},"vehicle_type_id":"4","last_reported":1701788878,"current_range_meters":27600,"station_id":"ce4bhg12rcd13ifvqf60","pricing_plan_id":"free"},{"bike_id":"f4dacd29-f96a-44c6-9183-2b28b9788756","system_id":"levelo_inurba_marseille","lat":43.246467,"lon":5.388984,"is_reserved":false,"is_disabled":false,"rental_uris":{"android":"levelo://app?vid=f4dacd29-f96a-44c6-9183-2b28b9788756","ios":"levelo://app?vid=f4dacd29-f96a-44c6-9183-2b28b9788756"},"vehicle_type_id":"4","last_reported":1701788878,"current_range_meters":31200,"station_id":"ce4bhg12rcd13ifvqf60","pricing_plan_id":"free"},{"bike_id":"fbaae904-03e8-441b-80cc-4401dce30838","system_id":"levelo_inurba_marseille","lat":43.243884,"lon":5.370736,"is_reserved":false,"is_disabled":false,"rental_uris":{"android":"levelo://app?vid=fbaae904-03e8-441b-80cc-4401dce30838","ios":"levelo://app?vid=fbaae904-03e8-441b-80cc-4401dce30838"},"vehicle_type_id":"4","last_reported":1701788878,"current_range_meters":7200,"station_id":"ce4bhhh2rcd13ifvqfk0","pricing_plan_id":"free"},{"bike_id":"8157e406-735d-4eab-8731-9bc1ec779d7f","system_id":"levelo_inurba_marseille","lat":43.243884,"lon":5.370737,"is_reserved":false,"is_disabled":false,"rental_uris":{"android":"levelo://app?vid=8157e406-735d-4eab-8731-9bc1ec779d7f","ios":"levelo://app?vid=8157e406-735d-4eab-8731-9bc1ec779d7f"},"vehicle_type_id":"4","last_reported":1701788878,"current_range_meters":15600,"station_id":"ce4bhhh2rcd13ifvqfk0","pricing_plan_id":"free"},{"bike_id":"c38b3de0-e9a8-4d7a-9863-fc34d6d9af1d","system_id":"levelo_inurba_marseille","lat":43.250009,"lon":5.389195,"is_reserved":false,"is_disabled":false,"rental_uris":{"android":"levelo://app?vid=c38b3de0-e9a8-4d7a-9863-fc34d6d9af1d","ios":"levelo://app?vid=c38b3de0-e9a8-4d7a-9863-fc34d6d9af1d"},"vehicle_type_id":"4","last_reported":1701788878,"current_range_meters":28000,"station_id":"ce4bhgp2rcd13ifvqfd0","pricing_plan_id":"free"},{"bike_id":"0a7d605a-9535-479f-bdf5-df0791cafe92","system_id":"levelo_inurba_marseille","lat":43.245581,"lon":5.395069,"is_reserved":false,"is_disabled":false,"rental_uris":{"android":"levelo://app?vid=0a7d605a-9535-479f-bdf5-df0791cafe92","ios":"levelo://app?vid=0a7d605a-9535-479f-bdf5-df0791cafe92"},"vehicle_type_id":"4","last_reported":1701788878,"current_range_meters":15200,"station_id":"ce4bhlp2rcd13ifvqgjg","pricing_plan_id":"free"},{"bike_id":"af56cb4c-dc84-4e5e-9fd8-6b27729ace61","system_id":"levelo_inurba_marseille","lat":43.240623,"lon":5.377642,"is_reserved":false,"is_disabled":false,"rental_uris":{"android":"levelo://app?vid=af56cb4c-dc84-4e5e-9fd8-6b27729ace61","ios":"levelo://app?vid=af56cb4c-dc84-4e5e-9fd8-6b27729ace61"},"vehicle_type_id":"4","last_reported":1701788878,"current_range_meters":0,"station_id":"ce4bhnp2rcd13ifvqgvg","pricing_plan_id":"free"},{"bike_id":"9f9eb382-f99a-4ffc-9842-b4408c41e05e","system_id":"levelo_inurba_marseille","lat":43.24076,"lon":5.37769,"is_reserved":false,"is_disabled":false,"rental_uris":{"android":"levelo://app?vid=9f9eb382-f99a-4ffc-9842-b4408c41e05e","ios":"levelo://app?vid=9f9eb382-f99a-4ffc-9842-b4408c41e05e"},"vehicle_type_id":"4","last_reported":1701788878,"current_range_meters":27600,"station_id":"ce4bhnp2rcd13ifvqgvg","pricing_plan_id":"free"},{"bike_id":"5d4489e1-715b-46d8-b5f4-a4d2fa590ccd","system_id":"levelo_inurba_marseille","lat":43.24072,"lon":5.3776,"is_reserved":false,"is_disabled":false,"rental_uris":{"android":"levelo://app?vid=5d4489e1-715b-46d8-b5f4-a4d2fa590ccd","ios":"levelo://app?vid=5d4489e1-715b-46d8-b5f4-a4d2fa590ccd"},"vehicle_type_id":"4","last_reported":1701788878,"current_range_meters":18400,"station_id":"ce4bhnp2rcd13ifvqgvg","pricing_plan_id":"free"},{"bike_id":"2ac84801-0821-4fac-abed-f2686e6b71ef","system_id":"levelo_inurba_marseille","lat":43.240623,"lon":5.377642,"is_reserved":false,"is_disabled":false,"rental_uris":{"android":"levelo://app?vid=2ac84801-0821-4fac-abed-f2686e6b71ef","ios":"levelo://app?vid=2ac84801-0821-4fac-abed-f2686e6b71ef"},"vehicle_type_id":"4","last_reported":1701788878,"current_range_meters":15200,"station_id":"ce4bhnp2rcd13ifvqgvg","pricing_plan_id":"free"},{"bike_id":"04b00323-44dc-4556-add8-5a131157a4f0","system_id":"levelo_inurba_marseille","lat":43.24402,"lon":5.40199,"is_reserved":false,"is_disabled":false,"rental_uris":{"android":"levelo://app?vid=04b00323-44dc-4556-add8-5a131157a4f0","ios":"levelo://app?vid=04b00323-44dc-4556-add8-5a131157a4f0"},"vehicle_type_id":"4","last_reported":1701788878,"current_range_meters":2800,"station_id":"","pricing_plan_id":"free"},{"bike_id":"76b09086-402e-4731-8426-0731d3f3bdb2","system_id":"levelo_inurba_marseille","lat":43.241782,"lon":5.397261,"is_reserved":false,"is_disabled":false,"rental_uris":{"android":"levelo://app?vid=76b09086-402e-4731-8426-0731d3f3bdb2","ios":"levelo://app?vid=76b09086-402e-4731-8426-0731d3f3bdb2"},"vehicle_type_id":"4","last_reported":1701788878,"current_range_meters":26800,"station_id":"ce4bhn12rcd13ifvqgpg","pricing_plan_id":"free"},{"bike_id":"1f8e1a80-4243-4649-ac71-2ebc1e48b939","system_id":"levelo_inurba_marseille","lat":43.231923,"lon":5.355545,"is_reserved":false,"is_disabled":false,"rental_uris":{"android":"levelo://app?vid=1f8e1a80-4243-4649-ac71-2ebc1e48b939","ios":"levelo://app?vid=1f8e1a80-4243-4649-ac71-2ebc1e48b939"},"vehicle_type_id":"4","last_reported":1701788878,"current_range_meters":24000,"station_id":"ce4bhu92rcd13ifvqi70","pricing_plan_id":"free"},{"bike_id":"cf3102c4-88e0-4a41-86b7-69a76932d3e6","system_id":"levelo_inurba_marseille","lat":43.231923,"lon":5.355545,"is_reserved":false,"is_disabled":false,"rental_uris":{"android":"levelo://app?vid=cf3102c4-88e0-4a41-86b7-69a76932d3e6","ios":"levelo://app?vid=cf3102c4-88e0-4a41-86b7-69a76932d3e6"},"vehicle_type_id":"4","last_reported":1701788878,"current_range_meters":31600,"station_id":"ce4bhu92rcd13ifvqi70","pricing_plan_id":"free"},{"bike_id":"757bceef-7472-4212-bf26-ffe97456eab6","system_id":"levelo_inurba_marseille","lat":43.231794,"lon":5.400052,"is_reserved":false,"is_disabled":false,"rental_uris":{"android":"levelo://app?vid=757bceef-7472-4212-bf26-ffe97456eab6","ios":"levelo://app?vid=757bceef-7472-4212-bf26-ffe97456eab6"},"vehicle_type_id":"4","last_reported":1701788878,"current_range_meters":22400,"station_id":"ce4bhn12rcd13ifvqgqg","pricing_plan_id":"free"},{"bike_id":"3152e752-fa78-4ba1-8c5a-02a9ca29d5d5","system_id":"levelo_inurba_marseille","lat":43.231562,"lon":5.436933,"is_reserved":false,"is_disabled":false,"rental_uris":{"android":"levelo://app?vid=3152e752-fa78-4ba1-8c5a-02a9ca29d5d5","ios":"levelo://app?vid=3152e752-fa78-4ba1-8c5a-02a9ca29d5d5"},"vehicle_type_id":"4","last_reported":1701788878,"current_range_meters":29600,"station_id":"ce4bhmp2rcd13ifvqgog","pricing_plan_id":"free"},{"bike_id":"499f6839-de97-4b12-a005-76ce9f041c0f","system_id":"levelo_inurba_marseille","lat":43.231562,"lon":5.436933,"is_reserved":false,"is_disabled":false,"rental_uris":{"android":"levelo://app?vid=499f6839-de97-4b12-a005-76ce9f041c0f","ios":"levelo://app?vid=499f6839-de97-4b12-a005-76ce9f041c0f"},"vehicle_type_id":"4","last_reported":1701788878,"current_range_meters":20800,"station_id":"ce4bhmp2rcd13ifvqgog","pricing_plan_id":"free"},{"bike_id":"eb2c14b2-e332-47fe-992b-c25d14433af5","system_id":"levelo_inurba_marseille","lat":43.231562,"lon":5.436933,"is_reserved":false,"is_disabled":false,"rental_uris":{"android":"levelo://app?vid=eb2c14b2-e332-47fe-992b-c25d14433af5","ios":"levelo://app?vid=eb2c14b2-e332-47fe-992b-c25d14433af5"},"vehicle_type_id":"4","last_reported":1701788878,"current_range_meters":31200,"station_id":"ce4bhmp2rcd13ifvqgog","pricing_plan_id":"free"},{"bike_id":"1164ddf6-9343-44a7-ab0e-20f4ff3a1852","system_id":"levelo_inurba_marseille","lat":43.2315,"lon":5.43717,"is_reserved":false,"is_disabled":false,"rental_uris":{"android":"levelo://app?vid=1164ddf6-9343-44a7-ab0e-20f4ff3a1852","ios":"levelo://app?vid=1164ddf6-9343-44a7-ab0e-20f4ff3a1852"},"vehicle_type_id":"4","last_reported":1701788878,"current_range_meters":30800,"station_id":"ce4bhmp2rcd13ifvqgog","pricing_plan_id":"free"},{"bike_id":"bd1c9afa-c136-40b6-9ad4-c891fe6a0ae4","system_id":"levelo_inurba_marseille","lat":43.231562,"lon":5.436933,"is_reserved":false,"is_disabled":false,"rental_uris":{"android":"levelo://app?vid=bd1c9afa-c136-40b6-9ad4-c891fe6a0ae4","ios":"levelo://app?vid=bd1c9afa-c136-40b6-9ad4-c891fe6a0ae4"},"vehicle_type_id":"4","last_reported":1701788878,"current_range_meters":28000,"station_id":"ce4bhmp2rcd13ifvqgog","pricing_plan_id":"free"},{"bike_id":"e1e260aa-9e11-47f3-bc85-67c6e8b56d68","system_id":"levelo_inurba_marseille","lat":43.231562,"lon":5.436933,"is_reserved":false,"is_disabled":false,"rental_uris":{"android":"levelo://app?vid=e1e260aa-9e11-47f3-bc85-67c6e8b56d68","ios":"levelo://app?vid=e1e260aa-9e11-47f3-bc85-67c6e8b56d68"},"vehicle_type_id":"4","last_reported":1701788878,"current_range_meters":31200,"station_id":"ce4bhmp2rcd13ifvqgog","pricing_plan_id":"free"}]}}