{"last_updated":1744539023,"ttl":60,"version":"2.2","data":{"bikes":[{"bike_id":"7dc6f05c-f257-4d62-b71b-a2b97753d797","system_id":"levelo_inurba_marseille","lat":43.3053,"lon":5.38424,"is_reserved":false,"is_disabled":true,"rental_uris":{"android":"levelo://app?vid=7dc6f05c-f257-4d62-b71b-a2b97753d797","ios":"levelo://app?vid=7dc6f05c-f257-4d62-b71b-a2b97753d797"},"vehicle_type_id":"4","last_reported":1744539023,"current_range_meters":2800,"station_id":"ce4bgg92rcd13ifvqb30","pricing_plan_id":"cebpf4jnsgd1na2vs0mg"},{"bike_id":"6376db85-40ff-4170-b3cf-1eb28b0508a8","system_id":"levelo_inurba_marseille","lat":43.2656,"lon":5.37297,"is_reserved":false,"is_disabled":false,"rental_uris":{"android":"levelo://app?vid=6376db85-40ff-4170-b3cf-1eb28b0508a8","ios":"levelo://app?vid=6376db85-40ff-4170-b3cf-1eb28b0508a8"},"vehicle_type_id":"4","last_reported":1744539023,"current_range_meters":2800,"station_id":"ce4bhg12rcd13ifvqf70","pricing_plan_id":"cebpf4jnsgd1na2vs0mg"},{"bike_id":"94455896-0f19-4fae-bd72-9879f01fcd6e","system_id":"levelo_inurba_marseille","lat":43.29555,"lon":5.423,"is_reserved":false,"is_disabled":true,"rental_uris":{"android":"levelo://app?vid=94455896-0f19-4fae-bd72-9879f01fcd6e","ios":"levelo://app?vid=94455896-0f19-4fae-bd72-9879f01fcd6e"},"vehicle_type_id":"4","last_reported":1744539023,"current_range_meters":2800,"station_id":"ce4bhph2rcd13ifvqhdg","pricing_plan_id":"cebpf4jnsgd1na2vs0mg"},{"bike_id":"4f8166c2-1447-4f6b-9d84-1d8a7529f37d","system_id":"levelo_inurba_marseille","lat":43.28612,"lon":5.3511,"is_reserved":false,"is_disabled":false,"rental_uris":{"android":"levelo://app?vid=4f8166c2-1447-4f6b-9d84-1d8a7529f37d","ios":"levelo://app?vid=4f8166c2-1447-4f6b-9d84-1d8a7529f37d"},"vehicle_type_id":"4","last_reported":1744539023,"current_range_meters":2800,"station_id":"ce4bhch2rcd13ifvqeug","pricing_plan_id":"cebpf4jnsgd1na2vs0mg"},{"bike_id":"5fadf8fc-baf8-497f-ad31-b389107b0edf","system_id":"levelo_inurba_marseille","lat":43.29931,"lon":5.36558,"is_reserved":false,"is_disabled":false,"rental_uris":{"android":"levelo://app?vid=5fadf8fc-baf8-497f-ad31-b389107b0edf","ios":"levelo://app?vid=5fadf8fc-baf8-497f-ad31-b389107b0edf"},"vehicle_type_id":"4","last_reported":1744539023,"current_range_meters":2800,"station_id":"ce4bgm92rcd13ifvqbr0","pricing_plan_id":"cebpf4jnsgd1na2vs0mg"},{"bike_id":"d3c94319-9ed3-4a82-b794-1dc8cd7fd01f","system_id":"levelo_inurba_marseille","lat":43.2861,"lon":5.37059,"is_reserved":false,"is_disabled":false,"rental_uris":{"android":"levelo://app?vid=d3c94319-9ed3-4a82-b794-1dc8cd7fd01f","ios":"levelo://app?vid=d3c94319-9ed3-4a82-b794-1dc8cd7fd01f"},"vehicle_type_id":"4","last_reported":1744539023,"current_range_meters":3200,"station_id":"ce4bht12rcd13ifvqi60","pricing_plan_id":"cebpf4jnsgd1na2vs0mg"},{"bike_id":"b6ff7e66-b821-4f07-a3cf-b9f4abde04e1","system_id":"levelo_inurba_marseille","lat":43.28007,"lon":5.40006,"is_reserved":false,"is_disabled":true,"rental_uris":{"android":"levelo://app?vid=b6ff7e66-b821-4f07-a3cf-b9f4abde04e1","ios":"levelo://app?vid=b6ff7e66-b821-4f07-a3cf-b9f4abde04e1"},"vehicle_type_id":"4","last_reported":1744539023,"current_range_meters":3200,"station_id":"ce4bho92rcd13ifvqh4g","pricing_plan_id":"cebpf4jnsgd1na2vs0mg"},{"bike_id":"f2c9af42-a832-4609-be6a-7a6fa0049083","system_id":"levelo_inurba_marseille","lat":43.26934,"lon":5.39004,"is_reserved":false,"is_disabled":false,"rental_uris":{"android":"levelo://app?vid=f2c9af42-a832-4609-be6a-7a6fa0049083","ios":"levelo://app?vid=f2c9af42-a832-4609-be6a-7a6fa0049083"},"vehicle_type_id":"4","last_reported":1744539023,"current_range_meters":3200,"station_id":"","pricing_plan_id":"cebpf4jnsgd1na2vs0mg"},{"bike_id":"04d59179-d26d-4deb-a06a-b54a2aaf2500","system_id":"levelo_inurba_marseille","lat":43.240757,"lon":5.377542,"is_reserved":false,"is_disabled":true,"rental_uris":{"android":"levelo://app?vid=04d59179-d26d-4deb-a06a-b54a2aaf2500","ios":"levelo://app?vid=04d59179-d26d-4deb-a06a-b54a2aaf2500"},"vehicle_type_id":"4","last_reported":1744539023,"current_range_meters":3200,"station_id":"ce4bhnp2rcd13ifvqgvg","pricing_plan_id":"cebpf4jnsgd1na2vs0mg"},{"bike_id":"368308c4-6e19-4dd3-9ed2-703ee237c38d","system_id":"levelo_inurba_marseille","lat":43.23967,"lon":5.36628,"is_reserved":false,"is_disabled":true,"rental_uris":{"android":"levelo://app?vid=368308c4-6e19-4dd3-9ed2-703ee237c38d","ios":"levelo://app?vid=368308c4-6e19-4dd3-9ed2-703ee237c38d"},"vehicle_type_id":"4","last_reported":1744539023,"current_range_meters":3600,"station_id":"ce4bhi12rcd13ifvqfp0","pricing_plan_id":"cebpf4jnsgd1na2vs0mg"},{"bike_id":"04e878e6-5038-49f7-99dd-0acd7c59edbf","system_id":"levelo_inurba_marseille","lat":43.25114,"lon":5.40319,"is_reserved":false,"is_disabled":false,"rental_uris":{"android":"levelo://app?vid=04e878e6-5038-49f7-99dd-0acd7c59edbf","ios":"levelo://app?vid=04e878e6-5038-49f7-99dd-0acd7c59edbf"},"vehicle_type_id":"4","last_reported":1744539023,"current_range_meters":3200,"station_id":"ce4bhlh2rcd13ifvqgig","pricing_plan_id":"cebpf4jnsgd1na2vs0mg"},{"bike_id":"0aee9c6c-1511-44ba-8140-d3ed1c63cb40","system_id":"levelo_inurba_marseille","lat":43.25109,"lon":5.40319,"is_reserved":false,"is_disabled":false,"rental_uris":{"android":"levelo://app?vid=0aee9c6c-1511-44ba-8140-d3ed1c63cb40","ios":"levelo://app?vid=0aee9c6c-1511-44ba-8140-d3ed1c63cb40"},"vehicle_type_id":"4","last_reported":1744539023,"current_range_meters":2800,"station_id":"ce4bhlh2rcd13ifvqgig","pricing_plan_id":"cebpf4jnsgd1na2vs0mg"},{"bike_id":"f96c0c65-7fce-4b6c-8bb2-232128e93959","system_id":"levelo_inurba_marseille","lat":43.30512,"lon":5.39266,"is_reserved":false,"is_disabled":false,"rental_uris":{"android":"levelo://app?vid=f96c0c65-7fce-4b6c-8bb2-232128e93959","ios":"levelo://app?vid=f96c0c65-7fce-4b6c-8bb2-232128e93959"},"vehicle_type_id":"4","last_reported":1744539023,"current_range_meters":3600,"station_id":"","pricing_plan_id":"cebpf4jnsgd1na2vs0mg"},{"bike_id":"b82143db-149c-4f5d-831d-938a930561b7","system_id":"levelo_inurba_marseille","lat":43.28616,"lon":5.35117,"is_reserved":false,"is_disabled":false,"rental_uris":{"android":"levelo://app?vid=b82143db-149c-4f5d-831d-938a930561b7","ios":"levelo://app?vid=b82143db-149c-4f5d-831d-938a930561b7"},"vehicle_type_id":"4","last_reported":1744539023,"current_range_meters":3600,"station_id":"ce4bhch2rcd13ifvqeug","pricing_plan_id":"cebpf4jnsgd1na2vs0mg"},{"bike_id":"3f08cc69-711e-4264-b923-68891203ffa4","system_id":"levelo_inurba_marseille","lat":43.32285,"lon":5.38243,"is_reserved":false,"is_disabled":true,"rental_uris":{"android":"levelo://app?vid=3f08cc69-711e-4264-b923-68891203ffa4","ios":"levelo://app?vid=3f08cc69-711e-4264-b923-68891203ffa4"},"vehicle_type_id":"4","last_reported":1744539023,"current_range_meters":3600,"station_id":"ce4bhr12rcd13ifvqhqg","pricing_plan_id":"cebpf4jnsgd1na2vs0mg"},{"bike_id":"e6e281d9-c141-4d64-93a2-42db890f7911","system_id":"levelo_inurba_marseille","lat":43.31118,"lon":5.3776,"is_reserved":false,"is_disabled":false,"rental_uris":{"android":"levelo://app?vid=e6e281d9-c141-4d64-93a2-42db890f7911","ios":"levelo://app?vid=e6e281d9-c141-4d64-93a2-42db890f7911"},"vehicle_type_id":"4","last_reported":1744539023,"current_range_meters":4000,"station_id":"ce4bgt92rcd13ifvqcg0","pricing_plan_id":"cebpf4jnsgd1na2vs0mg"},{"bike_id":"e4380e13-6ea1-432c-b547-badeba89c1b3","system_id":"levelo_inurba_marseille","lat":43.28863,"lon":5.39312,"is_reserved":false,"is_disabled":true,"rental_uris":{"android":"levelo://app?vid=e4380e13-6ea1-432c-b547-badeba89c1b3","ios":"levelo://app?vid=e4380e13-6ea1-432c-b547-badeba89c1b3"},"vehicle_type_id":"4","last_reported":1744539023,"current_range_meters":4000,"station_id":"ce4bh2p2rcd13ifvqdi0","pricing_plan_id":"cebpf4jnsgd1na2vs0mg"},{"bike_id":"6384948e-1798-4a5b-826b-6e48b8282e93","system_id":"levelo_inurba_marseille","lat":43.30322,"lon":5.40434,"is_reserved":false,"is_disabled":false,"rental_uris":{"android":"levelo://app?vid=6384948e-1798-4a5b-826b-6e48b8282e93","ios":"levelo://app?vid=6384948e-1798-4a5b-826b-6e48b8282e93"},"vehicle_type_id":"4","last_reported":1744539023,"current_range_meters":4400,"station_id":"ce4bh012rcd13ifvqd10","pricing_plan_id":"cebpf4jnsgd1na2vs0mg"},{"bike_id":"dd64b78e-5e6f-40ad-92d7-5ed8a19c86fa","system_id":"levelo_inurba_marseille","lat":43.279454,"lon":5.410505,"is_reserved":false,"is_disabled":false,"rental_uris":{"android":"levelo://app?vid=dd64b78e-5e6f-40ad-92d7-5ed8a19c86fa","ios":"levelo://app?vid=dd64b78e-5e6f-40ad-92d7-5ed8a19c86fa"},"vehicle_type_id":"4","last_reported":1744539023,"current_range_meters":4400,"station_id":"ce4bhnp2rcd13ifvqh0g","pricing_plan_id":"cebpf4jnsgd1na2vs0mg"},{"bike_id":"adfb08db-ad3d-4a60-889b-8e3a7bf8e1c1","system_id":"levelo_inurba_marseille","lat":43.23145,"lon":5.43701,"is_reserved":false,"is_disabled":false,"rental_uris":{"android":"levelo://app?vid=adfb08db-ad3d-4a60-889b-8e3a7bf8e1c1","ios":"levelo://app?vid=adfb08db-ad3d-4a60-889b-8e3a7bf8e1c1"},"vehicle_type_id":"4","last_reported":1744539023,"current_range_meters":4400,"station_id":"ce4bhmp2rcd13ifvqgog","pricing_plan_id":"cebpf4jnsgd1na2vs0mg"},{"bike_id":"9b0ae5e8-390f-4f43-a54d-3f6755f85f5e","system_id":"levelo_inurba_marseille","lat":43.265556,"lon":5.39012,"is_reserved":false,"is_disabled":false,"rental_uris":{"android":"levelo://app?vid=9b0ae5e8-390f-4f43-a54d-3f6755f85f5e","ios":"levelo://app?vid=9b0ae5e8-390f-4f43-a54d-3f6755f85f5e"},"vehicle_type_id":"4","last_reported":1744539023,"current_range_meters":4800,"station_id":"ce4bhe12rcd13ifvqf30","pricing_plan_id":"cebpf4jnsgd1na2vs0mg"},{"bike_id":"dd081b68-0a47-41b3-9975-782e5d7a940e","system_id":"levelo_inurba_marseille","lat":43.27499,"lon":5.42454,"is_reserved":false,"is_disabled":false,"rental_uris":{"android":"levelo://app?vid=dd081b68-0a47-41b3-9975-782e5d7a940e","ios":"levelo://app?vid=dd081b68-0a47-41b3-9975-782e5d7a940e"},"vehicle_type_id":"4","last_reported":1744539023,"current_range_meters":4800,"station_id":"ce4bhn92rcd13ifvqgrg","pricing_plan_id":"cebpf4jnsgd1na2vs0mg"},{"bike_id":"61526959-0495-4c82-b747-c427427fef4b","system_id":"levelo_inurba_marseille","lat":43.23153,"lon":5.437,"is_reserved":false,"is_disabled":false,"rental_uris":{"android":"levelo://app?vid=61526959-0495-4c82-b747-c427427fef4b","ios":"levelo://app?vid=61526959-0495-4c82-b747-c427427fef4b"},"vehicle_type_id":"4","last_reported":1744539023,"current_range_meters":4800,"station_id":"ce4bhmp2rcd13ifvqgog","pricing_plan_id":"cebpf4jnsgd1na2vs0mg"},{"bike_id":"95cc18b9-f67d-4577-9806-e09a07278626","system_id":"levelo_inurba_marseille","lat":43.28612,"lon":5.351,"is_reserved":false,"is_disabled":false,"rental_uris":{"android":"levelo://app?vid=95cc18b9-f67d-4577-9806-e09a07278626","ios":"levelo://app?vid=95cc18b9-f67d-4577-9806-e09a07278626"},"vehicle_type_id":"4","last_reported":1744539023,"current_range_meters":5600,"station_id":"ce4bhch2rcd13ifvqeug","pricing_plan_id":"cebpf4jnsgd1na2vs0mg"},{"bike_id":"9efe572d-467a-4334-afcc-daf23482c675","system_id":"levelo_inurba_marseille","lat":43.26801,"lon":5.40254,"is_reserved":false,"is_disabled":false,"rental_uris":{"android":"levelo://app?vid=9efe572d-467a-4334-afcc-daf23482c675","ios":"levelo://app?vid=9efe572d-467a-4334-afcc-daf23482c675"},"vehicle_type_id":"4","last_reported":1744539023,"current_range_meters":5600,"station_id":"ce501612rcd8frsf0b60","pricing_plan_id":"cebpf4jnsgd1na2vs0mg"},{"bike_id":"8708dd08-3274-46ab-b322-809752473736","system_id":"levelo_inurba_marseille","lat":43.30314,"lon":5.40455,"is_reserved":false,"is_disabled":false,"rental_uris":{"android":"levelo://app?vid=8708dd08-3274-46ab-b322-809752473736","ios":"levelo://app?vid=8708dd08-3274-46ab-b322-809752473736"},"vehicle_type_id":"4","last_reported":1744539023,"current_range_meters":5600,"station_id":"ce4bh012rcd13ifvqd10","pricing_plan_id":"cebpf4jnsgd1na2vs0mg"},{"bike_id":"3438c5bd-1787-489f-9a0e-5eb33ff8500a","system_id":"levelo_inurba_marseille","lat":43.29546,"lon":5.42278,"is_reserved":false,"is_disabled":true,"rental_uris":{"android":"levelo://app?vid=3438c5bd-1787-489f-9a0e-5eb33ff8500a","ios":"levelo://app?vid=3438c5bd-1787-489f-9a0e-5eb33ff8500a"},"vehicle_type_id":"4","last_reported":1744539023,"current_range_meters":5600,"station_id":"ce4bhph2rcd13ifvqhdg","pricing_plan_id":"cebpf4jnsgd1na2vs0mg"},{"bike_id":"5bd4080e-cdba-49c5-a829-9c3dae7d98e5","system_id":"levelo_inurba_marseille","lat":43.21749,"lon":5.34607,"is_reserved":false,"is_disabled":false,"rental_uris":{"android":"levelo://app?vid=5bd4080e-cdba-49c5-a829-9c3dae7d98e5","ios":"levelo://app?vid=5bd4080e-cdba-49c5-a829-9c3dae7d98e5"},"vehicle_type_id":"4","last_reported":1744539023,"current_range_meters":5600,"station_id":"st_cvj6r9ubvosntc0bgbag","pricing_plan_id":"cebpf4jnsgd1na2vs0mg"},{"bike_id":"5861a973-070b-480d-8c01-f8392b885f30","system_id":"levelo_inurba_marseille","lat":43.28858,"lon":5.35834,"is_reserved":false,"is_disabled":false,"rental_uris":{"android":"levelo://app?vid=5861a973-070b-480d-8c01-f8392b885f30","ios":"levelo://app?vid=5861a973-070b-480d-8c01-f8392b885f30"},"vehicle_type_id":"4","last_reported":1744539023,"current_range_meters":5600,"station_id":"ce4bhb12rcd13ifvqem0","pricing_plan_id":"cebpf4jnsgd1na2vs0mg"},{"bike_id":"8c58f2fa-99e1-41f8-bf90-9c1648b679b1","system_id":"levelo_inurba_marseille","lat":43.27307,"lon":5.41539,"is_reserved":false,"is_disabled":false,"rental_uris":{"android":"levelo://app?vid=8c58f2fa-99e1-41f8-bf90-9c1648b679b1","ios":"levelo://app?vid=8c58f2fa-99e1-41f8-bf90-9c1648b679b1"},"vehicle_type_id":"4","last_reported":1744539023,"current_range_meters":5600,"station_id":"","pricing_plan_id":"cebpf4jnsgd1na2vs0mg"},{"bike_id":"00673b85-6711-4859-b3bf-30a6d0492894","system_id":"levelo_inurba_marseille","lat":43.255,"lon":5.37628,"is_reserved":false,"is_disabled":true,"rental_uris":{"android":"levelo://app?vid=00673b85-6711-4859-b3bf-30a6d0492894","ios":"levelo://app?vid=00673b85-6711-4859-b3bf-30a6d0492894"},"vehicle_type_id":"4","last_reported":1744539023,"current_range_meters":6000,"station_id":"ce4bhh12rcd13ifvqff0","pricing_plan_id":"cebpf4jnsgd1na2vs0mg"},{"bike_id":"cfadcc33-5bb8-4f29-9a84-ae98565bb4a2","system_id":"levelo_inurba_marseille","lat":43.24088,"lon":5.37803,"is_reserved":false,"is_disabled":false,"rental_uris":{"android":"levelo://app?vid=cfadcc33-5bb8-4f29-9a84-ae98565bb4a2","ios":"levelo://app?vid=cfadcc33-5bb8-4f29-9a84-ae98565bb4a2"},"vehicle_type_id":"4","last_reported":1744539023,"current_range_meters":6800,"station_id":"ce4bhnp2rcd13ifvqgvg","pricing_plan_id":"cebpf4jnsgd1na2vs0mg"},{"bike_id":"f7638e7d-5d6b-4cf2-a6c7-c386dc0cb03b","system_id":"levelo_inurba_marseille","lat":43.22941,"lon":5.3538,"is_reserved":false,"is_disabled":false,"rental_uris":{"android":"levelo://app?vid=f7638e7d-5d6b-4cf2-a6c7-c386dc0cb03b","ios":"levelo://app?vid=f7638e7d-5d6b-4cf2-a6c7-c386dc0cb03b"},"vehicle_type_id":"4","last_reported":1744539023,"current_range_meters":6800,"station_id":"cpo3532slgdg3j2ikp40","pricing_plan_id":"cebpf4jnsgd1na2vs0mg"},{"bike_id":"4c893399-b4ed-40ed-a49f-713da320f269","system_id":"levelo_inurba_marseille","lat":43.29861,"lon":5.37841,"is_reserved":false,"is_disabled":false,"rental_uris":{"android":"levelo://app?vid=4c893399-b4ed-40ed-a49f-713da320f269","ios":"levelo://app?vid=4c893399-b4ed-40ed-a49f-713da320f269"},"vehicle_type_id":"4","last_reported":1744539023,"current_range_meters":6800,"station_id":"","pricing_plan_id":"cebpf4jnsgd1na2vs0mg"},{"bike_id":"fb3bf63f-cb8b-4e2d-97b5-e2bd30164ab5","system_id":"levelo_inurba_marseille","lat":43.310454,"lon":5.366703,"is_reserved":false,"is_disabled":false,"rental_uris":{"android":"levelo://app?vid=fb3bf63f-cb8b-4e2d-97b5-e2bd30164ab5","ios":"levelo://app?vid=fb3bf63f-cb8b-4e2d-97b5-e2bd30164ab5"},"vehicle_type_id":"4","last_reported":1744539023,"current_range_meters":6800,"station_id":"","pricing_plan_id":"cebpf4jnsgd1na2vs0mg"},{"bike_id":"07ad0ebf-ac6e-4f23-963a-37d92d8e8597","system_id":"levelo_inurba_marseille","lat":43.292778,"lon":5.368421,"is_reserved":false,"is_disabled":false,"rental_uris":{"android":"levelo://app?vid=07ad0ebf-ac6e-4f23-963a-37d92d8e8597","ios":"levelo://app?vid=07ad0ebf-ac6e-4f23-963a-37d92d8e8597"},"vehicle_type_id":"4","last_reported":1744539023,"current_range_meters":6800,"station_id":"ce4bhbp2rcd13ifvqesg","pricing_plan_id":"cebpf4jnsgd1na2vs0mg"},{"bike_id":"17e71066-3547-4f17-845b-e2a8879b3a89","system_id":"levelo_inurba_marseille","lat":43.29008,"lon":5.35603,"is_reserved":false,"is_disabled":false,"rental_uris":{"android":"levelo://app?vid=17e71066-3547-4f17-845b-e2a8879b3a89","ios":"levelo://app?vid=17e71066-3547-4f17-845b-e2a8879b3a89"},"vehicle_type_id":"4","last_reported":1744539023,"current_range_meters":6800,"station_id":"ce4bhb92rcd13ifvqen0","pricing_plan_id":"cebpf4jnsgd1na2vs0mg"},{"bike_id":"922d31d1-8143-4810-ad78-ced66ece92a4","system_id":"levelo_inurba_marseille","lat":43.27573,"lon":5.38422,"is_reserved":false,"is_disabled":true,"rental_uris":{"android":"levelo://app?vid=922d31d1-8143-4810-ad78-ced66ece92a4","ios":"levelo://app?vid=922d31d1-8143-4810-ad78-ced66ece92a4"},"vehicle_type_id":"4","last_reported":1744539023,"current_range_meters":6800,"station_id":"ce4bhh92rcd13ifvqfi0","pricing_plan_id":"cebpf4jnsgd1na2vs0mg"},{"bike_id":"1130922e-9ccc-463b-9207-aadecd794edb","system_id":"levelo_inurba_marseille","lat":43.319989,"lon":5.38156,"is_reserved":false,"is_disabled":true,"rental_uris":{"android":"levelo://app?vid=1130922e-9ccc-463b-9207-aadecd794edb","ios":"levelo://app?vid=1130922e-9ccc-463b-9207-aadecd794edb"},"vehicle_type_id":"4","last_reported":1744539023,"current_range_meters":7200,"station_id":"ce4bhr12rcd13ifvqhpg","pricing_plan_id":"cebpf4jnsgd1na2vs0mg"},{"bike_id":"c013d600-5e08-48f0-830e-8c965978436b","system_id":"levelo_inurba_marseille","lat":43.3044,"lon":5.38882,"is_reserved":false,"is_disabled":true,"rental_uris":{"android":"levelo://app?vid=c013d600-5e08-48f0-830e-8c965978436b","ios":"levelo://app?vid=c013d600-5e08-48f0-830e-8c965978436b"},"vehicle_type_id":"4","last_reported":1744539023,"current_range_meters":7200,"station_id":"ce4bgk12rcd13ifvqbi0","pricing_plan_id":"cebpf4jnsgd1na2vs0mg"},{"bike_id":"ef291804-1477-432e-b153-82ea15725418","system_id":"levelo_inurba_marseille","lat":43.33742,"lon":5.37454,"is_reserved":false,"is_disabled":false,"rental_uris":{"android":"levelo://app?vid=ef291804-1477-432e-b153-82ea15725418","ios":"levelo://app?vid=ef291804-1477-432e-b153-82ea15725418"},"vehicle_type_id":"4","last_reported":1744539023,"current_range_meters":7200,"station_id":"","pricing_plan_id":"cebpf4jnsgd1na2vs0mg"},{"bike_id":"620b61f1-23d7-4e76-aa20-50b1e573b2b9","system_id":"levelo_inurba_marseille","lat":43.31484,"lon":5.373004,"is_reserved":false,"is_disabled":false,"rental_uris":{"android":"levelo://app?vid=620b61f1-23d7-4e76-aa20-50b1e573b2b9","ios":"levelo://app?vid=620b61f1-23d7-4e76-aa20-50b1e573b2b9"},"vehicle_type_id":"4","last_reported":1744539023,"current_range_meters":7200,"station_id":"ce4bgt12rcd13ifvqcd0","pricing_plan_id":"cebpf4jnsgd1na2vs0mg"},{"bike_id":"88802da1-90f2-4aff-90a1-c3598e933096","system_id":"levelo_inurba_marseille","lat":43.30287,"lon":5.3914,"is_reserved":false,"is_disabled":false,"rental_uris":{"android":"levelo://app?vid=88802da1-90f2-4aff-90a1-c3598e933096","ios":"levelo://app?vid=88802da1-90f2-4aff-90a1-c3598e933096"},"vehicle_type_id":"4","last_reported":1744539023,"current_range_meters":7200,"station_id":"","pricing_plan_id":"cebpf4jnsgd1na2vs0mg"},{"bike_id":"b9435a39-6468-438f-b12e-7514f9579dc6","system_id":"levelo_inurba_marseille","lat":43.26063,"lon":5.39391,"is_reserved":false,"is_disabled":false,"rental_uris":{"android":"levelo://app?vid=b9435a39-6468-438f-b12e-7514f9579dc6","ios":"levelo://app?vid=b9435a39-6468-438f-b12e-7514f9579dc6"},"vehicle_type_id":"4","last_reported":1744539023,"current_range_meters":8000,"station_id":"ce4bhh92rcd13ifvqfj0","pricing_plan_id":"cebpf4jnsgd1na2vs0mg"},{"bike_id":"fba14dc4-f065-46f4-a67b-b47ee9a5123b","system_id":"levelo_inurba_marseille","lat":43.29298,"lon":5.37157,"is_reserved":false,"is_disabled":true,"rental_uris":{"android":"levelo://app?vid=fba14dc4-f065-46f4-a67b-b47ee9a5123b","ios":"levelo://app?vid=fba14dc4-f065-46f4-a67b-b47ee9a5123b"},"vehicle_type_id":"4","last_reported":1744539023,"current_range_meters":8000,"station_id":"ce4bgh92rcd13ifvqb40","pricing_plan_id":"cebpf4jnsgd1na2vs0mg"},{"bike_id":"d53356ed-34e7-4ce0-8d94-e073954cdd85","system_id":"levelo_inurba_marseille","lat":43.27054,"lon":5.40301,"is_reserved":false,"is_disabled":true,"rental_uris":{"android":"levelo://app?vid=d53356ed-34e7-4ce0-8d94-e073954cdd85","ios":"levelo://app?vid=d53356ed-34e7-4ce0-8d94-e073954cdd85"},"vehicle_type_id":"4","last_reported":1744539023,"current_range_meters":8000,"station_id":"ce4bhk92rcd13ifvqgc0","pricing_plan_id":"cebpf4jnsgd1na2vs0mg"},{"bike_id":"826c0beb-b859-44fc-9e3b-2569fdc20685","system_id":"levelo_inurba_marseille","lat":43.30378,"lon":5.42464,"is_reserved":false,"is_disabled":false,"rental_uris":{"android":"levelo://app?vid=826c0beb-b859-44fc-9e3b-2569fdc20685","ios":"levelo://app?vid=826c0beb-b859-44fc-9e3b-2569fdc20685"},"vehicle_type_id":"4","last_reported":1744539023,"current_range_meters":8000,"station_id":"ce4bhoh2rcd13ifvqh6g","pricing_plan_id":"cebpf4jnsgd1na2vs0mg"},{"bike_id":"4a0973b0-92a0-41e8-9b0d-a99e944bafe0","system_id":"levelo_inurba_marseille","lat":43.34474,"lon":5.41198,"is_reserved":false,"is_disabled":false,"rental_uris":{"android":"levelo://app?vid=4a0973b0-92a0-41e8-9b0d-a99e944bafe0","ios":"levelo://app?vid=4a0973b0-92a0-41e8-9b0d-a99e944bafe0"},"vehicle_type_id":"4","last_reported":1744539023,"current_range_meters":8000,"station_id":"","pricing_plan_id":"cebpf4jnsgd1na2vs0mg"},{"bike_id":"199d7018-496e-464b-bb06-c9e4517cbc85","system_id":"levelo_inurba_marseille","lat":43.28456,"lon":5.35895,"is_reserved":false,"is_disabled":false,"rental_uris":{"android":"levelo://app?vid=199d7018-496e-464b-bb06-c9e4517cbc85","ios":"levelo://app?vid=199d7018-496e-464b-bb06-c9e4517cbc85"},"vehicle_type_id":"4","last_reported":1744539023,"current_range_meters":8000,"station_id":"ce4bhah2rcd13ifvqei0","pricing_plan_id":"cebpf4jnsgd1na2vs0mg"},{"bike_id":"ec8be3ba-966d-4f71-bd9f-1e7f316362f5","system_id":"levelo_inurba_marseille","lat":43.33005,"lon":5.4383,"is_reserved":false,"is_disabled":false,"rental_uris":{"android":"levelo://app?vid=ec8be3ba-966d-4f71-bd9f-1e7f316362f5","ios":"levelo://app?vid=ec8be3ba-966d-4f71-bd9f-1e7f316362f5"},"vehicle_type_id":"4","last_reported":1744539023,"current_range_meters":8000,"station_id":"","pricing_plan_id":"cebpf4jnsgd1na2vs0mg"},{"bike_id":"e643793d-238f-4c32-a599-a7376b883569","system_id":"levelo_inurba_marseille","lat":43.25003,"lon":5.38904,"is_reserved":false,"is_disabled":false,"rental_uris":{"android":"levelo://app?vid=e643793d-238f-4c32-a599-a7376b883569","ios":"levelo://app?vid=e643793d-238f-4c32-a599-a7376b883569"},"vehicle_type_id":"4","last_reported":1744539023,"current_range_meters":8400,"station_id":"ce4bhgp2rcd13ifvqfd0","pricing_plan_id":"cebpf4jnsgd1na2vs0mg"},{"bike_id":"45e714b1-a458-4863-8ae1-d4baf50fa4b4","system_id":"levelo_inurba_marseille","lat":43.29001,"lon":5.35609,"is_reserved":false,"is_disabled":false,"rental_uris":{"android":"levelo://app?vid=45e714b1-a458-4863-8ae1-d4baf50fa4b4","ios":"levelo://app?vid=45e714b1-a458-4863-8ae1-d4baf50fa4b4"},"vehicle_type_id":"4","last_reported":1744539023,"current_range_meters":8400,"station_id":"ce4bhb92rcd13ifvqen0","pricing_plan_id":"cebpf4jnsgd1na2vs0mg"},{"bike_id":"43114f42-c798-47dc-97e5-aad307f585a0","system_id":"levelo_inurba_marseille","lat":43.2792,"lon":5.39577,"is_reserved":false,"is_disabled":false,"rental_uris":{"android":"levelo://app?vid=43114f42-c798-47dc-97e5-aad307f585a0","ios":"levelo://app?vid=43114f42-c798-47dc-97e5-aad307f585a0"},"vehicle_type_id":"4","last_reported":1744539023,"current_range_meters":8400,"station_id":"ce4bhf92rcd13ifvqf40","pricing_plan_id":"cebpf4jnsgd1na2vs0mg"},{"bike_id":"d8f603cd-3b83-4148-bab8-3a185ad2a59f","system_id":"levelo_inurba_marseille","lat":43.32416,"lon":5.3913,"is_reserved":false,"is_disabled":false,"rental_uris":{"android":"levelo://app?vid=d8f603cd-3b83-4148-bab8-3a185ad2a59f","ios":"levelo://app?vid=d8f603cd-3b83-4148-bab8-3a185ad2a59f"},"vehicle_type_id":"4","last_reported":1744539023,"current_range_meters":8400,"station_id":"","pricing_plan_id":"cebpf4jnsgd1na2vs0mg"},{"bike_id":"8d7af1b9-8e4e-438e-a4d9-249701554749","system_id":"levelo_inurba_marseille","lat":43.31344,"lon":5.39675,"is_reserved":false,"is_disabled":false,"rental_uris":{"android":"levelo://app?vid=8d7af1b9-8e4e-438e-a4d9-249701554749","ios":"levelo://app?vid=8d7af1b9-8e4e-438e-a4d9-249701554749"},"vehicle_type_id":"4","last_reported":1744539023,"current_range_meters":8400,"station_id":"ce4bgvp2rcd13ifvqcu0","pricing_plan_id":"cebpf4jnsgd1na2vs0mg"},{"bike_id":"f7d1eee0-1715-419d-beac-1b98ec9e62ed","system_id":"levelo_inurba_marseille","lat":43.30957,"lon":5.39026,"is_reserved":false,"is_disabled":true,"rental_uris":{"android":"levelo://app?vid=f7d1eee0-1715-419d-beac-1b98ec9e62ed","ios":"levelo://app?vid=f7d1eee0-1715-419d-beac-1b98ec9e62ed"},"vehicle_type_id":"4","last_reported":1744539023,"current_range_meters":8400,"station_id":"ce4bgup2rcd13ifvqco0","pricing_plan_id":"cebpf4jnsgd1na2vs0mg"},{"bike_id":"019576dd-4d5b-449f-bee3-6016e550c1da","system_id":"levelo_inurba_marseille","lat":43.3038,"lon":5.42471,"is_reserved":false,"is_disabled":false,"rental_uris":{"android":"levelo://app?vid=019576dd-4d5b-449f-bee3-6016e550c1da","ios":"levelo://app?vid=019576dd-4d5b-449f-bee3-6016e550c1da"},"vehicle_type_id":"4","last_reported":1744539023,"current_range_meters":8400,"station_id":"ce4bhoh2rcd13ifvqh6g","pricing_plan_id":"cebpf4jnsgd1na2vs0mg"},{"bike_id":"2d1ead79-f201-4cec-a76d-238b76cb4dcb","system_id":"levelo_inurba_marseille","lat":43.30323,"lon":5.40442,"is_reserved":false,"is_disabled":false,"rental_uris":{"android":"levelo://app?vid=2d1ead79-f201-4cec-a76d-238b76cb4dcb","ios":"levelo://app?vid=2d1ead79-f201-4cec-a76d-238b76cb4dcb"},"vehicle_type_id":"4","last_reported":1744539023,"current_range_meters":8400,"station_id":"ce4bh012rcd13ifvqd10","pricing_plan_id":"cebpf4jnsgd1na2vs0mg"},{"bike_id":"1924bd3b-55a9-4f1e-8658-a4c66f04078c","system_id":"levelo_inurba_marseille","lat":43.29421,"lon":5.38614,"is_reserved":false,"is_disabled":true,"rental_uris":{"android":"levelo://app?vid=1924bd3b-55a9-4f1e-8658-a4c66f04078c","ios":"levelo://app?vid=1924bd3b-55a9-4f1e-8658-a4c66f04078c"},"vehicle_type_id":"4","last_reported":1744539023,"current_range_meters":8400,"station_id":"ce4bh2h2rcd13ifvqdh0","pricing_plan_id":"cebpf4jnsgd1na2vs0mg"},{"bike_id":"86e3fd62-ce53-4f21-93c1-2fb7456de3cf","system_id":"levelo_inurba_marseille","lat":43.23059,"lon":5.3549,"is_reserved":false,"is_disabled":false,"rental_uris":{"android":"levelo://app?vid=86e3fd62-ce53-4f21-93c1-2fb7456de3cf","ios":"levelo://app?vid=86e3fd62-ce53-4f21-93c1-2fb7456de3cf"},"vehicle_type_id":"4","last_reported":1744539023,"current_range_meters":8400,"station_id":"cpo3342slgdg3j2ifvpg","pricing_plan_id":"cebpf4jnsgd1na2vs0mg"},{"bike_id":"d0f9d927-19f0-47fc-a23c-c6ca4d9a552c","system_id":"levelo_inurba_marseille","lat":43.31221,"lon":5.36857,"is_reserved":false,"is_disabled":false,"rental_uris":{"android":"levelo://app?vid=d0f9d927-19f0-47fc-a23c-c6ca4d9a552c","ios":"levelo://app?vid=d0f9d927-19f0-47fc-a23c-c6ca4d9a552c"},"vehicle_type_id":"4","last_reported":1744539023,"current_range_meters":8400,"station_id":"ce4bgl92rcd13ifvqbq0","pricing_plan_id":"cebpf4jnsgd1na2vs0mg"},{"bike_id":"3a8eb72c-53ad-4f36-8afb-69614fb363cd","system_id":"levelo_inurba_marseille","lat":43.28449,"lon":5.35899,"is_reserved":false,"is_disabled":false,"rental_uris":{"android":"levelo://app?vid=3a8eb72c-53ad-4f36-8afb-69614fb363cd","ios":"levelo://app?vid=3a8eb72c-53ad-4f36-8afb-69614fb363cd"},"vehicle_type_id":"4","last_reported":1744539023,"current_range_meters":8400,"station_id":"ce4bhah2rcd13ifvqei0","pricing_plan_id":"cebpf4jnsgd1na2vs0mg"},{"bike_id":"211990ef-4669-4091-86ec-137c884b610d","system_id":"levelo_inurba_marseille","lat":43.29269,"lon":5.38429,"is_reserved":false,"is_disabled":true,"rental_uris":{"android":"levelo://app?vid=211990ef-4669-4091-86ec-137c884b610d","ios":"levelo://app?vid=211990ef-4669-4091-86ec-137c884b610d"},"vehicle_type_id":"4","last_reported":1744539023,"current_range_meters":8400,"station_id":"ce4bh692rcd13ifvqea0","pricing_plan_id":"cebpf4jnsgd1na2vs0mg"},{"bike_id":"0e7bf4ae-5aed-4055-a1f8-96debbb9847e","system_id":"levelo_inurba_marseille","lat":43.24165,"lon":5.36404,"is_reserved":false,"is_disabled":false,"rental_uris":{"android":"levelo://app?vid=0e7bf4ae-5aed-4055-a1f8-96debbb9847e","ios":"levelo://app?vid=0e7bf4ae-5aed-4055-a1f8-96debbb9847e"},"vehicle_type_id":"4","last_reported":1744539023,"current_range_meters":8400,"station_id":"cpo36qri1sfpv3e86is0","pricing_plan_id":"cebpf4jnsgd1na2vs0mg"},{"bike_id":"5b77a833-8185-45c2-9fe3-07eb40df54ca","system_id":"levelo_inurba_marseille","lat":43.33995,"lon":5.38057,"is_reserved":false,"is_disabled":false,"rental_uris":{"android":"levelo://app?vid=5b77a833-8185-45c2-9fe3-07eb40df54ca","ios":"levelo://app?vid=5b77a833-8185-45c2-9fe3-07eb40df54ca"},"vehicle_type_id":"4","last_reported":1744539023,"current_range_meters":8400,"station_id":"","pricing_plan_id":"cebpf4jnsgd1na2vs0mg"},{"bike_id":"5be7c746-519a-4e41-bcb4-854cf79890cb","system_id":"levelo_inurba_marseille","lat":43.27379,"lon":5.36256,"is_reserved":false,"is_disabled":false,"rental_uris":{"android":"levelo://app?vid=5be7c746-519a-4e41-bcb4-854cf79890cb","ios":"levelo://app?vid=5be7c746-519a-4e41-bcb4-854cf79890cb"},"vehicle_type_id":"4","last_reported":1744539023,"current_range_meters":8800,"station_id":"ce4bhbh2rcd13ifvqeo0","pricing_plan_id":"cebpf4jnsgd1na2vs0mg"},{"bike_id":"493cde9e-7859-4c26-a2e6-f744ee5d8553","system_id":"levelo_inurba_marseille","lat":43.31815,"lon":5.36809,"is_reserved":false,"is_disabled":false,"rental_uris":{"android":"levelo://app?vid=493cde9e-7859-4c26-a2e6-f744ee5d8553","ios":"levelo://app?vid=493cde9e-7859-4c26-a2e6-f744ee5d8553"},"vehicle_type_id":"4","last_reported":1744539023,"current_range_meters":8800,"station_id":"","pricing_plan_id":"cebpf4jnsgd1na2vs0mg"},{"bike_id":"97c5290c-6dcd-4f81-953a-f5953018fa5b","system_id":"levelo_inurba_marseille","lat":43.31066,"lon":5.37535,"is_reserved":false,"is_disabled":false,"rental_uris":{"android":"levelo://app?vid=97c5290c-6dcd-4f81-953a-f5953018fa5b","ios":"levelo://app?vid=97c5290c-6dcd-4f81-953a-f5953018fa5b"},"vehicle_type_id":"4","last_reported":1744539023,"current_range_meters":8800,"station_id":"","pricing_plan_id":"cebpf4jnsgd1na2vs0mg"},{"bike_id":"12995a58-d943-4084-bd4e-dfca89bd59c0","system_id":"levelo_inurba_marseille","lat":43.32345,"lon":5.40595,"is_reserved":false,"is_disabled":false,"rental_uris":{"android":"levelo://app?vid=12995a58-d943-4084-bd4e-dfca89bd59c0","ios":"levelo://app?vid=12995a58-d943-4084-bd4e-dfca89bd59c0"},"vehicle_type_id":"4","last_reported":1744539023,"current_range_meters":8800,"station_id":"ce4bhq92rcd13ifvqhjg","pricing_plan_id":"cebpf4jnsgd1na2vs0mg"},{"bike_id":"9f788850-0dbd-4588-87fa-63e816b498c1","system_id":"levelo_inurba_marseille","lat":43.26018,"lon":5.41753,"is_reserved":false,"is_disabled":false,"rental_uris":{"android":"levelo://app?vid=9f788850-0dbd-4588-87fa-63e816b498c1","ios":"levelo://app?vid=9f788850-0dbd-4588-87fa-63e816b498c1"},"vehicle_type_id":"4","last_reported":1744539023,"current_range_meters":8800,"station_id":"","pricing_plan_id":"cebpf4jnsgd1na2vs0mg"},{"bike_id":"d3f929ac-f8b8-4200-a9a3-3b8c9249ebce","system_id":"levelo_inurba_marseille","lat":43.27945,"lon":5.41025,"is_reserved":false,"is_disabled":false,"rental_uris":{"android":"levelo://app?vid=d3f929ac-f8b8-4200-a9a3-3b8c9249ebce","ios":"levelo://app?vid=d3f929ac-f8b8-4200-a9a3-3b8c9249ebce"},"vehicle_type_id":"4","last_reported":1744539023,"current_range_meters":8800,"station_id":"ce4bhnp2rcd13ifvqh0g","pricing_plan_id":"cebpf4jnsgd1na2vs0mg"},{"bike_id":"278dab98-cf78-4ae7-8100-7bce6022fd1e","system_id":"levelo_inurba_marseille","lat":43.258809,"lon":5.409629,"is_reserved":false,"is_disabled":false,"rental_uris":{"android":"levelo://app?vid=278dab98-cf78-4ae7-8100-7bce6022fd1e","ios":"levelo://app?vid=278dab98-cf78-4ae7-8100-7bce6022fd1e"},"vehicle_type_id":"4","last_reported":1744539023,"current_range_meters":8800,"station_id":"ce4bhkp2rcd13ifvqgd0","pricing_plan_id":"cebpf4jnsgd1na2vs0mg"},{"bike_id":"c1888c01-968b-4041-97df-b7303b3635f6","system_id":"levelo_inurba_marseille","lat":43.31081,"lon":5.42435,"is_reserved":false,"is_disabled":false,"rental_uris":{"android":"levelo://app?vid=c1888c01-968b-4041-97df-b7303b3635f6","ios":"levelo://app?vid=c1888c01-968b-4041-97df-b7303b3635f6"},"vehicle_type_id":"4","last_reported":1744539023,"current_range_meters":8800,"station_id":"ce4bhp92rcd13ifvqhag","pricing_plan_id":"cebpf4jnsgd1na2vs0mg"},{"bike_id":"8609ec5b-db31-4682-89f6-95794d251c5e","system_id":"levelo_inurba_marseille","lat":43.23159,"lon":5.437,"is_reserved":false,"is_disabled":false,"rental_uris":{"android":"levelo://app?vid=8609ec5b-db31-4682-89f6-95794d251c5e","ios":"levelo://app?vid=8609ec5b-db31-4682-89f6-95794d251c5e"},"vehicle_type_id":"4","last_reported":1744539023,"current_range_meters":8800,"station_id":"ce4bhmp2rcd13ifvqgog","pricing_plan_id":"cebpf4jnsgd1na2vs0mg"},{"bike_id":"0e28dec3-f76d-48a9-b282-944b4e9f06dd","system_id":"levelo_inurba_marseille","lat":43.24812,"lon":5.37444,"is_reserved":false,"is_disabled":false,"rental_uris":{"android":"levelo://app?vid=0e28dec3-f76d-48a9-b282-944b4e9f06dd","ios":"levelo://app?vid=0e28dec3-f76d-48a9-b282-944b4e9f06dd"},"vehicle_type_id":"4","last_reported":1744539023,"current_range_meters":9200,"station_id":"ce4bhgh2rcd13ifvqfb0","pricing_plan_id":"cebpf4jnsgd1na2vs0mg"},{"bike_id":"588bdaaa-5a98-49b3-86d6-816d5cdac55b","system_id":"levelo_inurba_marseille","lat":43.30145,"lon":5.38012,"is_reserved":false,"is_disabled":false,"rental_uris":{"android":"levelo://app?vid=588bdaaa-5a98-49b3-86d6-816d5cdac55b","ios":"levelo://app?vid=588bdaaa-5a98-49b3-86d6-816d5cdac55b"},"vehicle_type_id":"4","last_reported":1744539023,"current_range_meters":9200,"station_id":"ce4bgjp2rcd13ifvqbh0","pricing_plan_id":"cebpf4jnsgd1na2vs0mg"},{"bike_id":"4f38e127-be9f-468e-8871-e9cd4f365dca","system_id":"levelo_inurba_marseille","lat":43.24686,"lon":5.41168,"is_reserved":false,"is_disabled":false,"rental_uris":{"android":"levelo://app?vid=4f38e127-be9f-468e-8871-e9cd4f365dca","ios":"levelo://app?vid=4f38e127-be9f-468e-8871-e9cd4f365dca"},"vehicle_type_id":"4","last_reported":1744539023,"current_range_meters":9200,"station_id":"","pricing_plan_id":"cebpf4jnsgd1na2vs0mg"},{"bike_id":"a2ff1fd3-15da-4d5f-b61b-e4b6df7fc149","system_id":"levelo_inurba_marseille","lat":43.30643,"lon":5.4008,"is_reserved":false,"is_disabled":false,"rental_uris":{"android":"levelo://app?vid=a2ff1fd3-15da-4d5f-b61b-e4b6df7fc149","ios":"levelo://app?vid=a2ff1fd3-15da-4d5f-b61b-e4b6df7fc149"},"vehicle_type_id":"4","last_reported":1744539023,"current_range_meters":9200,"station_id":"ce4bh112rcd13ifvqda0","pricing_plan_id":"cebpf4jnsgd1na2vs0mg"},{"bike_id":"d59202a6-c5b9-4334-b7a8-c2dc4ae5a148","system_id":"levelo_inurba_marseille","lat":43.30594,"lon":5.39356,"is_reserved":false,"is_disabled":false,"rental_uris":{"android":"levelo://app?vid=d59202a6-c5b9-4334-b7a8-c2dc4ae5a148","ios":"levelo://app?vid=d59202a6-c5b9-4334-b7a8-c2dc4ae5a148"},"vehicle_type_id":"4","last_reported":1744539023,"current_range_meters":9600,"station_id":"ce4bh0p2rcd13ifvqd80","pricing_plan_id":"cebpf4jnsgd1na2vs0mg"},{"bike_id":"f7843f46-58aa-4cf6-a1d0-1b94b16f71c2","system_id":"levelo_inurba_marseille","lat":43.29856,"lon":5.3966,"is_reserved":false,"is_disabled":false,"rental_uris":{"android":"levelo://app?vid=f7843f46-58aa-4cf6-a1d0-1b94b16f71c2","ios":"levelo://app?vid=f7843f46-58aa-4cf6-a1d0-1b94b16f71c2"},"vehicle_type_id":"4","last_reported":1744539023,"current_range_meters":9600,"station_id":"ce4bh0h2rcd13ifvqd50","pricing_plan_id":"cebpf4jnsgd1na2vs0mg"},{"bike_id":"49ee7a2d-b87d-42ef-bdb3-cf1b5b3fae9b","system_id":"levelo_inurba_marseille","lat":43.24167,"lon":5.36398,"is_reserved":false,"is_disabled":false,"rental_uris":{"android":"levelo://app?vid=49ee7a2d-b87d-42ef-bdb3-cf1b5b3fae9b","ios":"levelo://app?vid=49ee7a2d-b87d-42ef-bdb3-cf1b5b3fae9b"},"vehicle_type_id":"4","last_reported":1744539023,"current_range_meters":9600,"station_id":"cpo36qri1sfpv3e86is0","pricing_plan_id":"cebpf4jnsgd1na2vs0mg"},{"bike_id":"06d46355-2a8c-4e60-9069-0c42c08eb629","system_id":"levelo_inurba_marseille","lat":43.29613,"lon":5.37718,"is_reserved":false,"is_disabled":false,"rental_uris":{"android":"levelo://app?vid=06d46355-2a8c-4e60-9069-0c42c08eb629","ios":"levelo://app?vid=06d46355-2a8c-4e60-9069-0c42c08eb629"},"vehicle_type_id":"4","last_reported":1744539023,"current_range_meters":9600,"station_id":"ce4bgi92rcd13ifvqb90","pricing_plan_id":"cebpf4jnsgd1na2vs0mg"},{"bike_id":"5c05218a-2f8c-4ccb-969a-803820ad166e","system_id":"levelo_inurba_marseille","lat":43.31817,"lon":5.40786,"is_reserved":false,"is_disabled":false,"rental_uris":{"android":"levelo://app?vid=5c05218a-2f8c-4ccb-969a-803820ad166e","ios":"levelo://app?vid=5c05218a-2f8c-4ccb-969a-803820ad166e"},"vehicle_type_id":"4","last_reported":1744539023,"current_range_meters":9600,"station_id":"ce4bhq12rcd13ifvqhig","pricing_plan_id":"cebpf4jnsgd1na2vs0mg"},{"bike_id":"2f5bc015-0a98-4a0d-a50f-f7181e1d6abe","system_id":"levelo_inurba_marseille","lat":43.23427,"lon":5.41246,"is_reserved":false,"is_disabled":false,"rental_uris":{"android":"levelo://app?vid=2f5bc015-0a98-4a0d-a50f-f7181e1d6abe","ios":"levelo://app?vid=2f5bc015-0a98-4a0d-a50f-f7181e1d6abe"},"vehicle_type_id":"4","last_reported":1744539023,"current_range_meters":9600,"station_id":"","pricing_plan_id":"cebpf4jnsgd1na2vs0mg"},{"bike_id":"a08c9e3e-8b2f-468f-a4ea-c0a98e8dcada","system_id":"levelo_inurba_marseille","lat":43.23042,"lon":5.35499,"is_reserved":false,"is_disabled":false,"rental_uris":{"android":"levelo://app?vid=a08c9e3e-8b2f-468f-a4ea-c0a98e8dcada","ios":"levelo://app?vid=a08c9e3e-8b2f-468f-a4ea-c0a98e8dcada"},"vehicle_type_id":"4","last_reported":1744539023,"current_range_meters":9600,"station_id":"cpo3342slgdg3j2ifvpg","pricing_plan_id":"cebpf4jnsgd1na2vs0mg"},{"bike_id":"1bdd6146-09e5-4301-9c8a-af9980521802","system_id":"levelo_inurba_marseille","lat":43.287093,"lon":5.399891,"is_reserved":false,"is_disabled":false,"rental_uris":{"android":"levelo://app?vid=1bdd6146-09e5-4301-9c8a-af9980521802","ios":"levelo://app?vid=1bdd6146-09e5-4301-9c8a-af9980521802"},"vehicle_type_id":"4","last_reported":1744539023,"current_range_meters":9600,"station_id":"ce4bho92rcd13ifvqh3g","pricing_plan_id":"cebpf4jnsgd1na2vs0mg"},{"bike_id":"266cc845-7649-415e-9be8-e0e7264ef2d8","system_id":"levelo_inurba_marseille","lat":43.29004,"lon":5.35611,"is_reserved":false,"is_disabled":false,"rental_uris":{"android":"levelo://app?vid=266cc845-7649-415e-9be8-e0e7264ef2d8","ios":"levelo://app?vid=266cc845-7649-415e-9be8-e0e7264ef2d8"},"vehicle_type_id":"4","last_reported":1744539023,"current_range_meters":9600,"station_id":"ce4bhb92rcd13ifvqen0","pricing_plan_id":"cebpf4jnsgd1na2vs0mg"},{"bike_id":"b7e965ff-4854-44fc-8e2a-103893462049","system_id":"levelo_inurba_marseille","lat":43.337444,"lon":5.374475,"is_reserved":false,"is_disabled":true,"rental_uris":{"android":"levelo://app?vid=b7e965ff-4854-44fc-8e2a-103893462049","ios":"levelo://app?vid=b7e965ff-4854-44fc-8e2a-103893462049"},"vehicle_type_id":"4","last_reported":1744539023,"current_range_meters":9600,"station_id":"","pricing_plan_id":"cebpf4jnsgd1na2vs0mg"},{"bike_id":"3ddc6806-a41a-4fe7-b120-d337ee37dc19","system_id":"levelo_inurba_marseille","lat":43.3235,"lon":5.40605,"is_reserved":false,"is_disabled":false,"rental_uris":{"android":"levelo://app?vid=3ddc6806-a41a-4fe7-b120-d337ee37dc19","ios":"levelo://app?vid=3ddc6806-a41a-4fe7-b120-d337ee37dc19"},"vehicle_type_id":"4","last_reported":1744539023,"current_range_meters":9600,"station_id":"ce4bhq92rcd13ifvqhjg","pricing_plan_id":"cebpf4jnsgd1na2vs0mg"},{"bike_id":"fb501f50-392f-4559-8563-4e861a0fef86","system_id":"levelo_inurba_marseille","lat":43.30156,"lon":5.38089,"is_reserved":false,"is_disabled":false,"rental_uris":{"android":"levelo://app?vid=fb501f50-392f-4559-8563-4e861a0fef86","ios":"levelo://app?vid=fb501f50-392f-4559-8563-4e861a0fef86"},"vehicle_type_id":"4","last_reported":1744539023,"current_range_meters":9600,"station_id":"ce4bgjp2rcd13ifvqbh0","pricing_plan_id":"cebpf4jnsgd1na2vs0mg"},{"bike_id":"30cc8b33-f5d2-402b-bc22-73b6e88b3714","system_id":"levelo_inurba_marseille","lat":43.24693,"lon":5.38165,"is_reserved":false,"is_disabled":false,"rental_uris":{"android":"levelo://app?vid=30cc8b33-f5d2-402b-bc22-73b6e88b3714","ios":"levelo://app?vid=30cc8b33-f5d2-402b-bc22-73b6e88b3714"},"vehicle_type_id":"4","last_reported":1744539023,"current_range_meters":9600,"station_id":"ce4bhih2rcd13ifvqfr0","pricing_plan_id":"cebpf4jnsgd1na2vs0mg"},{"bike_id":"630c2a3b-0f5b-4024-a098-4b44724e764b","system_id":"levelo_inurba_marseille","lat":43.29297,"lon":5.3747,"is_reserved":false,"is_disabled":false,"rental_uris":{"android":"levelo://app?vid=630c2a3b-0f5b-4024-a098-4b44724e764b","ios":"levelo://app?vid=630c2a3b-0f5b-4024-a098-4b44724e764b"},"vehicle_type_id":"4","last_reported":1744539023,"current_range_meters":9600,"station_id":"ce4bgi12rcd13ifvqb70","pricing_plan_id":"cebpf4jnsgd1na2vs0mg"},{"bike_id":"76450c2c-888f-4d08-a5c0-d825237615aa","system_id":"levelo_inurba_marseille","lat":43.2708,"lon":5.42288,"is_reserved":false,"is_disabled":false,"rental_uris":{"android":"levelo://app?vid=76450c2c-888f-4d08-a5c0-d825237615aa","ios":"levelo://app?vid=76450c2c-888f-4d08-a5c0-d825237615aa"},"vehicle_type_id":"4","last_reported":1744539023,"current_range_meters":10000,"station_id":"ce4bhk92rcd13ifvqgb0","pricing_plan_id":"cebpf4jnsgd1na2vs0mg"},{"bike_id":"cbe38776-6e0f-4adb-854c-25e7db7e42d0","system_id":"levelo_inurba_marseille","lat":43.24066,"lon":5.37755,"is_reserved":false,"is_disabled":false,"rental_uris":{"android":"levelo://app?vid=cbe38776-6e0f-4adb-854c-25e7db7e42d0","ios":"levelo://app?vid=cbe38776-6e0f-4adb-854c-25e7db7e42d0"},"vehicle_type_id":"4","last_reported":1744539023,"current_range_meters":10000,"station_id":"ce4bhnp2rcd13ifvqgvg","pricing_plan_id":"cebpf4jnsgd1na2vs0mg"},{"bike_id":"6e2ac28e-dfb7-46b8-8016-b7ae92b2a4f0","system_id":"levelo_inurba_marseille","lat":43.28001,"lon":5.39975,"is_reserved":false,"is_disabled":false,"rental_uris":{"android":"levelo://app?vid=6e2ac28e-dfb7-46b8-8016-b7ae92b2a4f0","ios":"levelo://app?vid=6e2ac28e-dfb7-46b8-8016-b7ae92b2a4f0"},"vehicle_type_id":"4","last_reported":1744539023,"current_range_meters":10000,"station_id":"ce4bho92rcd13ifvqh4g","pricing_plan_id":"cebpf4jnsgd1na2vs0mg"},{"bike_id":"0c30a5d7-82b9-4bb2-9032-224893c69d2f","system_id":"levelo_inurba_marseille","lat":43.26451,"lon":5.39584,"is_reserved":false,"is_disabled":true,"rental_uris":{"android":"levelo://app?vid=0c30a5d7-82b9-4bb2-9032-224893c69d2f","ios":"levelo://app?vid=0c30a5d7-82b9-4bb2-9032-224893c69d2f"},"vehicle_type_id":"4","last_reported":1744539023,"current_range_meters":10000,"station_id":"ce4bhi12rcd13ifvqfq0","pricing_plan_id":"cebpf4jnsgd1na2vs0mg"},{"bike_id":"e0e59bfb-5088-41a2-835c-398ab715e8d6","system_id":"levelo_inurba_marseille","lat":43.24151,"lon":5.39716,"is_reserved":false,"is_disabled":false,"rental_uris":{"android":"levelo://app?vid=e0e59bfb-5088-41a2-835c-398ab715e8d6","ios":"levelo://app?vid=e0e59bfb-5088-41a2-835c-398ab715e8d6"},"vehicle_type_id":"4","last_reported":1744539023,"current_range_meters":10000,"station_id":"ce4bhn12rcd13ifvqgpg","pricing_plan_id":"cebpf4jnsgd1na2vs0mg"},{"bike_id":"06d6cf8b-ec58-4c04-be48-6f029cf6271d","system_id":"levelo_inurba_marseille","lat":43.336,"lon":5.41035,"is_reserved":false,"is_disabled":false,"rental_uris":{"android":"levelo://app?vid=06d6cf8b-ec58-4c04-be48-6f029cf6271d","ios":"levelo://app?vid=06d6cf8b-ec58-4c04-be48-6f029cf6271d"},"vehicle_type_id":"4","last_reported":1744539023,"current_range_meters":9600,"station_id":"ce4bhqh2rcd13ifvqhmg","pricing_plan_id":"cebpf4jnsgd1na2vs0mg"},{"bike_id":"c14a3d0e-03f7-430a-80a8-18644645ea89","system_id":"levelo_inurba_marseille","lat":43.32326,"lon":5.40597,"is_reserved":false,"is_disabled":false,"rental_uris":{"android":"levelo://app?vid=c14a3d0e-03f7-430a-80a8-18644645ea89","ios":"levelo://app?vid=c14a3d0e-03f7-430a-80a8-18644645ea89"},"vehicle_type_id":"4","last_reported":1744539023,"current_range_meters":10000,"station_id":"ce4bhq92rcd13ifvqhjg","pricing_plan_id":"cebpf4jnsgd1na2vs0mg"},{"bike_id":"72c6aab6-3a44-430e-a84d-843d2a93e616","system_id":"levelo_inurba_marseille","lat":43.21209,"lon":5.35063,"is_reserved":false,"is_disabled":true,"rental_uris":{"android":"levelo://app?vid=72c6aab6-3a44-430e-a84d-843d2a93e616","ios":"levelo://app?vid=72c6aab6-3a44-430e-a84d-843d2a93e616"},"vehicle_type_id":"4","last_reported":1744539023,"current_range_meters":10800,"station_id":"st_cvj6sg6p6f1abm77japg","pricing_plan_id":"cebpf4jnsgd1na2vs0mg"},{"bike_id":"f7cd819f-b752-47cc-848d-ff43c669ccb8","system_id":"levelo_inurba_marseille","lat":43.30986,"lon":5.41707,"is_reserved":false,"is_disabled":false,"rental_uris":{"android":"levelo://app?vid=f7cd819f-b752-47cc-848d-ff43c669ccb8","ios":"levelo://app?vid=f7cd819f-b752-47cc-848d-ff43c669ccb8"},"vehicle_type_id":"4","last_reported":1744539023,"current_range_meters":10800,"station_id":"","pricing_plan_id":"cebpf4jnsgd1na2vs0mg"},{"bike_id":"cdd23a69-36d6-4b0a-b9d3-5c0ef640ccc2","system_id":"levelo_inurba_marseille","lat":43.290016,"lon":5.356036,"is_reserved":false,"is_disabled":false,"rental_uris":{"android":"levelo://app?vid=cdd23a69-36d6-4b0a-b9d3-5c0ef640ccc2","ios":"levelo://app?vid=cdd23a69-36d6-4b0a-b9d3-5c0ef640ccc2"},"vehicle_type_id":"4","last_reported":1744539023,"current_range_meters":10000,"station_id":"ce4bhb92rcd13ifvqen0","pricing_plan_id":"cebpf4jnsgd1na2vs0mg"},{"bike_id":"91fffdcd-2fa7-4f34-b242-95e7e93ac05b","system_id":"levelo_inurba_marseille","lat":43.263096,"lon":5.397664,"is_reserved":false,"is_disabled":false,"rental_uris":{"android":"levelo://app?vid=91fffdcd-2fa7-4f34-b242-95e7e93ac05b","ios":"levelo://app?vid=91fffdcd-2fa7-4f34-b242-95e7e93ac05b"},"vehicle_type_id":"4","last_reported":1744539023,"current_range_meters":10800,"station_id":"","pricing_plan_id":"cebpf4jnsgd1na2vs0mg"},{"bike_id":"82d38bd3-c046-4f55-aec8-4eb686f05e29","system_id":"levelo_inurba_marseille","lat":43.22922,"lon":5.35363,"is_reserved":false,"is_disabled":true,"rental_uris":{"android":"levelo://app?vid=82d38bd3-c046-4f55-aec8-4eb686f05e29","ios":"levelo://app?vid=82d38bd3-c046-4f55-aec8-4eb686f05e29"},"vehicle_type_id":"4","last_reported":1744539023,"current_range_meters":10800,"station_id":"cpo3532slgdg3j2ikp40","pricing_plan_id":"cebpf4jnsgd1na2vs0mg"},{"bike_id":"3cda72ae-cf92-4ec6-945e-637d8a9b5d72","system_id":"levelo_inurba_marseille","lat":43.29552,"lon":5.42295,"is_reserved":false,"is_disabled":false,"rental_uris":{"android":"levelo://app?vid=3cda72ae-cf92-4ec6-945e-637d8a9b5d72","ios":"levelo://app?vid=3cda72ae-cf92-4ec6-945e-637d8a9b5d72"},"vehicle_type_id":"4","last_reported":1744539023,"current_range_meters":10800,"station_id":"ce4bhph2rcd13ifvqhdg","pricing_plan_id":"cebpf4jnsgd1na2vs0mg"},{"bike_id":"8043ed93-c0e0-4b20-a22a-1ce703744524","system_id":"levelo_inurba_marseille","lat":43.28944,"lon":5.36615,"is_reserved":false,"is_disabled":true,"rental_uris":{"android":"levelo://app?vid=8043ed93-c0e0-4b20-a22a-1ce703744524","ios":"levelo://app?vid=8043ed93-c0e0-4b20-a22a-1ce703744524"},"vehicle_type_id":"4","last_reported":1744539023,"current_range_meters":10800,"station_id":"ce4bhap2rcd13ifvqek0","pricing_plan_id":"cebpf4jnsgd1na2vs0mg"},{"bike_id":"35ac4e3b-f5f3-40f3-9265-513f8f30f607","system_id":"levelo_inurba_marseille","lat":43.322797,"lon":5.382624,"is_reserved":false,"is_disabled":false,"rental_uris":{"android":"levelo://app?vid=35ac4e3b-f5f3-40f3-9265-513f8f30f607","ios":"levelo://app?vid=35ac4e3b-f5f3-40f3-9265-513f8f30f607"},"vehicle_type_id":"4","last_reported":1744539023,"current_range_meters":10800,"station_id":"ce4bhr12rcd13ifvqhqg","pricing_plan_id":"cebpf4jnsgd1na2vs0mg"},{"bike_id":"a710f3fd-d1c9-4d8f-ae9a-285164acac41","system_id":"levelo_inurba_marseille","lat":43.28037,"lon":5.36948,"is_reserved":false,"is_disabled":false,"rental_uris":{"android":"levelo://app?vid=a710f3fd-d1c9-4d8f-ae9a-285164acac41","ios":"levelo://app?vid=a710f3fd-d1c9-4d8f-ae9a-285164acac41"},"vehicle_type_id":"4","last_reported":1744539023,"current_range_meters":10800,"station_id":"ce4bha12rcd13ifvqef0","pricing_plan_id":"cebpf4jnsgd1na2vs0mg"},{"bike_id":"019d7eed-2c75-42b9-91be-50f10456668c","system_id":"levelo_inurba_marseille","lat":43.23191,"lon":5.35543,"is_reserved":false,"is_disabled":false,"rental_uris":{"android":"levelo://app?vid=019d7eed-2c75-42b9-91be-50f10456668c","ios":"levelo://app?vid=019d7eed-2c75-42b9-91be-50f10456668c"},"vehicle_type_id":"4","last_reported":1744539023,"current_range_meters":11200,"station_id":"ce4bhu92rcd13ifvqi70","pricing_plan_id":"cebpf4jnsgd1na2vs0mg"},{"bike_id":"c52a8fee-fc2b-4f7c-adac-e872f525f82f","system_id":"levelo_inurba_marseille","lat":43.239594,"lon":5.366353,"is_reserved":false,"is_disabled":false,"rental_uris":{"android":"levelo://app?vid=c52a8fee-fc2b-4f7c-adac-e872f525f82f","ios":"levelo://app?vid=c52a8fee-fc2b-4f7c-adac-e872f525f82f"},"vehicle_type_id":"4","last_reported":1744539023,"current_range_meters":11200,"station_id":"ce4bhi12rcd13ifvqfp0","pricing_plan_id":"cebpf4jnsgd1na2vs0mg"},{"bike_id":"a3bf51d9-08b7-458c-9b6d-ef5680cc95d6","system_id":"levelo_inurba_marseille","lat":43.21749,"lon":5.34623,"is_reserved":false,"is_disabled":true,"rental_uris":{"android":"levelo://app?vid=a3bf51d9-08b7-458c-9b6d-ef5680cc95d6","ios":"levelo://app?vid=a3bf51d9-08b7-458c-9b6d-ef5680cc95d6"},"vehicle_type_id":"4","last_reported":1744539023,"current_range_meters":11200,"station_id":"st_cvj6r9ubvosntc0bgbag","pricing_plan_id":"cebpf4jnsgd1na2vs0mg"},{"bike_id":"8cd7b907-e6ab-4163-a9bf-4b3fade18054","system_id":"levelo_inurba_marseille","lat":43.280407,"lon":5.369393,"is_reserved":false,"is_disabled":false,"rental_uris":{"android":"levelo://app?vid=8cd7b907-e6ab-4163-a9bf-4b3fade18054","ios":"levelo://app?vid=8cd7b907-e6ab-4163-a9bf-4b3fade18054"},"vehicle_type_id":"4","last_reported":1744539023,"current_range_meters":11200,"station_id":"ce4bha12rcd13ifvqef0","pricing_plan_id":"cebpf4jnsgd1na2vs0mg"},{"bike_id":"efd328ca-f8bf-4550-bd94-c2fd75978f3c","system_id":"levelo_inurba_marseille","lat":43.330467,"lon":5.380846,"is_reserved":false,"is_disabled":false,"rental_uris":{"android":"levelo://app?vid=efd328ca-f8bf-4550-bd94-c2fd75978f3c","ios":"levelo://app?vid=efd328ca-f8bf-4550-bd94-c2fd75978f3c"},"vehicle_type_id":"4","last_reported":1744539023,"current_range_meters":11200,"station_id":"","pricing_plan_id":"cebpf4jnsgd1na2vs0mg"},{"bike_id":"12aec038-db5e-4d5d-a5cf-e01dc2e28ea3","system_id":"levelo_inurba_marseille","lat":43.30115,"lon":5.40495,"is_reserved":false,"is_disabled":true,"rental_uris":{"android":"levelo://app?vid=12aec038-db5e-4d5d-a5cf-e01dc2e28ea3","ios":"levelo://app?vid=12aec038-db5e-4d5d-a5cf-e01dc2e28ea3"},"vehicle_type_id":"4","last_reported":1744539023,"current_range_meters":11600,"station_id":"","pricing_plan_id":"cebpf4jnsgd1na2vs0mg"},{"bike_id":"982bb1bc-457f-43d7-ae21-85035c856353","system_id":"levelo_inurba_marseille","lat":43.22515,"lon":5.34762,"is_reserved":false,"is_disabled":true,"rental_uris":{"android":"levelo://app?vid=982bb1bc-457f-43d7-ae21-85035c856353","ios":"levelo://app?vid=982bb1bc-457f-43d7-ae21-85035c856353"},"vehicle_type_id":"4","last_reported":1744539023,"current_range_meters":11600,"station_id":"st_cvj5dfep6f1abm77gieg","pricing_plan_id":"cebpf4jnsgd1na2vs0mg"},{"bike_id":"ec5529ba-a86c-439a-9c90-c79bfd022883","system_id":"levelo_inurba_marseille","lat":43.26569,"lon":5.38999,"is_reserved":false,"is_disabled":false,"rental_uris":{"android":"levelo://app?vid=ec5529ba-a86c-439a-9c90-c79bfd022883","ios":"levelo://app?vid=ec5529ba-a86c-439a-9c90-c79bfd022883"},"vehicle_type_id":"4","last_reported":1744539023,"current_range_meters":11600,"station_id":"ce4bhe12rcd13ifvqf30","pricing_plan_id":"cebpf4jnsgd1na2vs0mg"},{"bike_id":"020e9999-d552-48d0-ae5f-b725af0dbea2","system_id":"levelo_inurba_marseille","lat":43.29892,"lon":5.43763,"is_reserved":false,"is_disabled":false,"rental_uris":{"android":"levelo://app?vid=020e9999-d552-48d0-ae5f-b725af0dbea2","ios":"levelo://app?vid=020e9999-d552-48d0-ae5f-b725af0dbea2"},"vehicle_type_id":"4","last_reported":1744539023,"current_range_meters":11600,"station_id":"","pricing_plan_id":"cebpf4jnsgd1na2vs0mg"},{"bike_id":"f898446c-da75-49bf-963b-d1c8a0d95e51","system_id":"levelo_inurba_marseille","lat":43.297175,"lon":5.377035,"is_reserved":false,"is_disabled":false,"rental_uris":{"android":"levelo://app?vid=f898446c-da75-49bf-963b-d1c8a0d95e51","ios":"levelo://app?vid=f898446c-da75-49bf-963b-d1c8a0d95e51"},"vehicle_type_id":"4","last_reported":1744539023,"current_range_meters":11200,"station_id":"ce4bgkh2rcd13ifvqbl0","pricing_plan_id":"cebpf4jnsgd1na2vs0mg"},{"bike_id":"5bd83869-317c-4f7d-93ed-182a084c5a24","system_id":"levelo_inurba_marseille","lat":43.257128,"lon":5.41106,"is_reserved":false,"is_disabled":false,"rental_uris":{"android":"levelo://app?vid=5bd83869-317c-4f7d-93ed-182a084c5a24","ios":"levelo://app?vid=5bd83869-317c-4f7d-93ed-182a084c5a24"},"vehicle_type_id":"4","last_reported":1744539023,"current_range_meters":12000,"station_id":"ce4bhkp2rcd13ifvqgd0","pricing_plan_id":"cebpf4jnsgd1na2vs0mg"},{"bike_id":"b55dd5e7-54b2-4035-b945-7b626dd7afc7","system_id":"levelo_inurba_marseille","lat":43.27541,"lon":5.40923,"is_reserved":false,"is_disabled":false,"rental_uris":{"android":"levelo://app?vid=b55dd5e7-54b2-4035-b945-7b626dd7afc7","ios":"levelo://app?vid=b55dd5e7-54b2-4035-b945-7b626dd7afc7"},"vehicle_type_id":"4","last_reported":1744539023,"current_range_meters":12000,"station_id":"","pricing_plan_id":"cebpf4jnsgd1na2vs0mg"},{"bike_id":"73bbc97d-2b39-4276-bc22-fd7aa78f429c","system_id":"levelo_inurba_marseille","lat":43.29896,"lon":5.43679,"is_reserved":false,"is_disabled":false,"rental_uris":{"android":"levelo://app?vid=73bbc97d-2b39-4276-bc22-fd7aa78f429c","ios":"levelo://app?vid=73bbc97d-2b39-4276-bc22-fd7aa78f429c"},"vehicle_type_id":"4","last_reported":1744539023,"current_range_meters":12000,"station_id":"ce4bhpp2rcd13ifvqhfg","pricing_plan_id":"cebpf4jnsgd1na2vs0mg"},{"bike_id":"4bbe6e48-9bfa-4dec-aab0-5597477f7da1","system_id":"levelo_inurba_marseille","lat":43.32412,"lon":5.39141,"is_reserved":false,"is_disabled":false,"rental_uris":{"android":"levelo://app?vid=4bbe6e48-9bfa-4dec-aab0-5597477f7da1","ios":"levelo://app?vid=4bbe6e48-9bfa-4dec-aab0-5597477f7da1"},"vehicle_type_id":"4","last_reported":1744539023,"current_range_meters":12000,"station_id":"","pricing_plan_id":"cebpf4jnsgd1na2vs0mg"},{"bike_id":"c70dc66c-d4a1-4e50-81d7-22e212eff3e3","system_id":"levelo_inurba_marseille","lat":43.24676,"lon":5.38004,"is_reserved":false,"is_disabled":false,"rental_uris":{"android":"levelo://app?vid=c70dc66c-d4a1-4e50-81d7-22e212eff3e3","ios":"levelo://app?vid=c70dc66c-d4a1-4e50-81d7-22e212eff3e3"},"vehicle_type_id":"4","last_reported":1744539023,"current_range_meters":12400,"station_id":"","pricing_plan_id":"cebpf4jnsgd1na2vs0mg"},{"bike_id":"1578cdda-fa32-4486-ac62-617f457b0927","system_id":"levelo_inurba_marseille","lat":43.29002,"lon":5.35566,"is_reserved":false,"is_disabled":true,"rental_uris":{"android":"levelo://app?vid=1578cdda-fa32-4486-ac62-617f457b0927","ios":"levelo://app?vid=1578cdda-fa32-4486-ac62-617f457b0927"},"vehicle_type_id":"4","last_reported":1744539023,"current_range_meters":12400,"station_id":"ce4bhb92rcd13ifvqen0","pricing_plan_id":"cebpf4jnsgd1na2vs0mg"},{"bike_id":"c5de9f04-a68c-4314-9995-789e3d717983","system_id":"levelo_inurba_marseille","lat":43.24389,"lon":5.37051,"is_reserved":false,"is_disabled":true,"rental_uris":{"android":"levelo://app?vid=c5de9f04-a68c-4314-9995-789e3d717983","ios":"levelo://app?vid=c5de9f04-a68c-4314-9995-789e3d717983"},"vehicle_type_id":"4","last_reported":1744539023,"current_range_meters":12400,"station_id":"ce4bhhh2rcd13ifvqfk0","pricing_plan_id":"cebpf4jnsgd1na2vs0mg"},{"bike_id":"93315c12-bc0b-4f12-b059-3e0b577d6c66","system_id":"levelo_inurba_marseille","lat":43.30536,"lon":5.36513,"is_reserved":false,"is_disabled":false,"rental_uris":{"android":"levelo://app?vid=93315c12-bc0b-4f12-b059-3e0b577d6c66","ios":"levelo://app?vid=93315c12-bc0b-4f12-b059-3e0b577d6c66"},"vehicle_type_id":"4","last_reported":1744539023,"current_range_meters":12400,"station_id":"ce4bgs12rcd13ifvqcag","pricing_plan_id":"cebpf4jnsgd1na2vs0mg"},{"bike_id":"d8b9884b-4022-4710-9f87-50e0dbfd421d","system_id":"levelo_inurba_marseille","lat":43.24162,"lon":5.36402,"is_reserved":false,"is_disabled":false,"rental_uris":{"android":"levelo://app?vid=d8b9884b-4022-4710-9f87-50e0dbfd421d","ios":"levelo://app?vid=d8b9884b-4022-4710-9f87-50e0dbfd421d"},"vehicle_type_id":"4","last_reported":1744539023,"current_range_meters":12400,"station_id":"cpo36qri1sfpv3e86is0","pricing_plan_id":"cebpf4jnsgd1na2vs0mg"},{"bike_id":"670350e7-8b16-4095-8222-1a9ab089eb5a","system_id":"levelo_inurba_marseille","lat":43.27929,"lon":5.4102,"is_reserved":false,"is_disabled":false,"rental_uris":{"android":"levelo://app?vid=670350e7-8b16-4095-8222-1a9ab089eb5a","ios":"levelo://app?vid=670350e7-8b16-4095-8222-1a9ab089eb5a"},"vehicle_type_id":"4","last_reported":1744539023,"current_range_meters":12800,"station_id":"ce4bhnp2rcd13ifvqh0g","pricing_plan_id":"cebpf4jnsgd1na2vs0mg"},{"bike_id":"13591466-e61d-4bb7-9c7b-f4de212d153d","system_id":"levelo_inurba_marseille","lat":43.26063,"lon":5.39398,"is_reserved":false,"is_disabled":false,"rental_uris":{"android":"levelo://app?vid=13591466-e61d-4bb7-9c7b-f4de212d153d","ios":"levelo://app?vid=13591466-e61d-4bb7-9c7b-f4de212d153d"},"vehicle_type_id":"4","last_reported":1744539023,"current_range_meters":12800,"station_id":"ce4bhh92rcd13ifvqfj0","pricing_plan_id":"cebpf4jnsgd1na2vs0mg"},{"bike_id":"2fc88268-9338-4674-a8f4-36dfb8363ca0","system_id":"levelo_inurba_marseille","lat":43.21195,"lon":5.35082,"is_reserved":false,"is_disabled":false,"rental_uris":{"android":"levelo://app?vid=2fc88268-9338-4674-a8f4-36dfb8363ca0","ios":"levelo://app?vid=2fc88268-9338-4674-a8f4-36dfb8363ca0"},"vehicle_type_id":"4","last_reported":1744539023,"current_range_meters":12800,"station_id":"st_cvj6sg6p6f1abm77japg","pricing_plan_id":"cebpf4jnsgd1na2vs0mg"},{"bike_id":"d49ed5f3-63dd-41d8-a7c3-7b7860b035b1","system_id":"levelo_inurba_marseille","lat":43.24862,"lon":5.37283,"is_reserved":false,"is_disabled":true,"rental_uris":{"android":"levelo://app?vid=d49ed5f3-63dd-41d8-a7c3-7b7860b035b1","ios":"levelo://app?vid=d49ed5f3-63dd-41d8-a7c3-7b7860b035b1"},"vehicle_type_id":"4","last_reported":1744539023,"current_range_meters":12800,"station_id":"","pricing_plan_id":"cebpf4jnsgd1na2vs0mg"},{"bike_id":"5591936e-ca63-41c7-89f3-9c9493c86f89","system_id":"levelo_inurba_marseille","lat":43.24163,"lon":5.36406,"is_reserved":false,"is_disabled":false,"rental_uris":{"android":"levelo://app?vid=5591936e-ca63-41c7-89f3-9c9493c86f89","ios":"levelo://app?vid=5591936e-ca63-41c7-89f3-9c9493c86f89"},"vehicle_type_id":"4","last_reported":1744539023,"current_range_meters":12800,"station_id":"cpo36qri1sfpv3e86is0","pricing_plan_id":"cebpf4jnsgd1na2vs0mg"},{"bike_id":"c5668a5c-eabb-4363-a042-b20f82d9a571","system_id":"levelo_inurba_marseille","lat":43.260596,"lon":5.393924,"is_reserved":false,"is_disabled":false,"rental_uris":{"android":"levelo://app?vid=c5668a5c-eabb-4363-a042-b20f82d9a571","ios":"levelo://app?vid=c5668a5c-eabb-4363-a042-b20f82d9a571"},"vehicle_type_id":"4","last_reported":1744539023,"current_range_meters":12800,"station_id":"ce4bhh92rcd13ifvqfj0","pricing_plan_id":"cebpf4jnsgd1na2vs0mg"},{"bike_id":"d8b0a6c9-eff4-4f5a-bcf3-37361734ead7","system_id":"levelo_inurba_marseille","lat":43.296143,"lon":5.371699,"is_reserved":false,"is_disabled":false,"rental_uris":{"android":"levelo://app?vid=d8b0a6c9-eff4-4f5a-bcf3-37361734ead7","ios":"levelo://app?vid=d8b0a6c9-eff4-4f5a-bcf3-37361734ead7"},"vehicle_type_id":"4","last_reported":1744539023,"current_range_meters":12800,"station_id":"ce4bh0h2rcd13ifvqd50","pricing_plan_id":"cebpf4jnsgd1na2vs0mg"},{"bike_id":"fd79c122-f31b-4d6a-85e9-68b551d3094d","system_id":"levelo_inurba_marseille","lat":43.25024,"lon":5.38907,"is_reserved":false,"is_disabled":false,"rental_uris":{"android":"levelo://app?vid=fd79c122-f31b-4d6a-85e9-68b551d3094d","ios":"levelo://app?vid=fd79c122-f31b-4d6a-85e9-68b551d3094d"},"vehicle_type_id":"4","last_reported":1744539023,"current_range_meters":12800,"station_id":"ce4bhgp2rcd13ifvqfd0","pricing_plan_id":"cebpf4jnsgd1na2vs0mg"},{"bike_id":"eeecd2fe-6254-4002-abf4-dbb4c5b284dc","system_id":"levelo_inurba_marseille","lat":43.27994,"lon":5.41653,"is_reserved":false,"is_disabled":true,"rental_uris":{"android":"levelo://app?vid=eeecd2fe-6254-4002-abf4-dbb4c5b284dc","ios":"levelo://app?vid=eeecd2fe-6254-4002-abf4-dbb4c5b284dc"},"vehicle_type_id":"4","last_reported":1744539023,"current_range_meters":13600,"station_id":"ce4bho12rcd13ifvqh1g","pricing_plan_id":"cebpf4jnsgd1na2vs0mg"},{"bike_id":"4d874086-2615-45ee-92bb-518b7ad00a4d","system_id":"levelo_inurba_marseille","lat":43.30951,"lon":5.3902,"is_reserved":false,"is_disabled":true,"rental_uris":{"android":"levelo://app?vid=4d874086-2615-45ee-92bb-518b7ad00a4d","ios":"levelo://app?vid=4d874086-2615-45ee-92bb-518b7ad00a4d"},"vehicle_type_id":"4","last_reported":1744539023,"current_range_meters":13600,"station_id":"ce4bgup2rcd13ifvqco0","pricing_plan_id":"cebpf4jnsgd1na2vs0mg"},{"bike_id":"ed2b3697-2ae7-4ab1-aff1-9233dcf61126","system_id":"levelo_inurba_marseille","lat":43.29522,"lon":5.37501,"is_reserved":false,"is_disabled":false,"rental_uris":{"android":"levelo://app?vid=ed2b3697-2ae7-4ab1-aff1-9233dcf61126","ios":"levelo://app?vid=ed2b3697-2ae7-4ab1-aff1-9233dcf61126"},"vehicle_type_id":"4","last_reported":1744539023,"current_range_meters":13600,"station_id":"ce4bgkp2rcd13ifvqbmg","pricing_plan_id":"cebpf4jnsgd1na2vs0mg"},{"bike_id":"9b4d5599-6c74-4f4e-9e6c-8a9b3b95a1c8","system_id":"levelo_inurba_marseille","lat":43.27371,"lon":5.36271,"is_reserved":false,"is_disabled":false,"rental_uris":{"android":"levelo://app?vid=9b4d5599-6c74-4f4e-9e6c-8a9b3b95a1c8","ios":"levelo://app?vid=9b4d5599-6c74-4f4e-9e6c-8a9b3b95a1c8"},"vehicle_type_id":"4","last_reported":1744539023,"current_range_meters":13600,"station_id":"ce4bhbh2rcd13ifvqeo0","pricing_plan_id":"cebpf4jnsgd1na2vs0mg"},{"bike_id":"2a51123b-0ea2-40c6-97d0-0bd0e1bca448","system_id":"levelo_inurba_marseille","lat":43.23155,"lon":5.43712,"is_reserved":false,"is_disabled":false,"rental_uris":{"android":"levelo://app?vid=2a51123b-0ea2-40c6-97d0-0bd0e1bca448","ios":"levelo://app?vid=2a51123b-0ea2-40c6-97d0-0bd0e1bca448"},"vehicle_type_id":"4","last_reported":1744539023,"current_range_meters":13600,"station_id":"ce4bhmp2rcd13ifvqgog","pricing_plan_id":"cebpf4jnsgd1na2vs0mg"},{"bike_id":"239b457a-7da8-49b2-9197-3c47133b2b7d","system_id":"levelo_inurba_marseille","lat":43.29041,"lon":5.4,"is_reserved":false,"is_disabled":true,"rental_uris":{"android":"levelo://app?vid=239b457a-7da8-49b2-9197-3c47133b2b7d","ios":"levelo://app?vid=239b457a-7da8-49b2-9197-3c47133b2b7d"},"vehicle_type_id":"4","last_reported":1744539023,"current_range_meters":13600,"station_id":"ce4bh392rcd13ifvqdm0","pricing_plan_id":"cebpf4jnsgd1na2vs0mg"},{"bike_id":"c7fd73f0-8404-463d-9047-7442c4d6fe95","system_id":"levelo_inurba_marseille","lat":43.28144,"lon":5.42644,"is_reserved":false,"is_disabled":false,"rental_uris":{"android":"levelo://app?vid=c7fd73f0-8404-463d-9047-7442c4d6fe95","ios":"levelo://app?vid=c7fd73f0-8404-463d-9047-7442c4d6fe95"},"vehicle_type_id":"4","last_reported":1744539023,"current_range_meters":14000,"station_id":"ce4bhnh2rcd13ifvqgug","pricing_plan_id":"cebpf4jnsgd1na2vs0mg"},{"bike_id":"3507dfca-319b-4174-9d98-ddf67a8f0f8e","system_id":"levelo_inurba_marseille","lat":43.29726,"lon":5.36569,"is_reserved":false,"is_disabled":false,"rental_uris":{"android":"levelo://app?vid=3507dfca-319b-4174-9d98-ddf67a8f0f8e","ios":"levelo://app?vid=3507dfca-319b-4174-9d98-ddf67a8f0f8e"},"vehicle_type_id":"4","last_reported":1744539023,"current_range_meters":14000,"station_id":"ce4bgn12rcd13ifvqbt0","pricing_plan_id":"cebpf4jnsgd1na2vs0mg"},{"bike_id":"4d49d7bf-c387-4802-8134-39419f66ab07","system_id":"levelo_inurba_marseille","lat":43.250951,"lon":5.395236,"is_reserved":false,"is_disabled":false,"rental_uris":{"android":"levelo://app?vid=4d49d7bf-c387-4802-8134-39419f66ab07","ios":"levelo://app?vid=4d49d7bf-c387-4802-8134-39419f66ab07"},"vehicle_type_id":"4","last_reported":1744539023,"current_range_meters":14000,"station_id":"ce4bhm12rcd13ifvqgkg","pricing_plan_id":"cebpf4jnsgd1na2vs0mg"},{"bike_id":"e09b0a72-9049-4f0a-8c1e-9c77d8777c41","system_id":"levelo_inurba_marseille","lat":43.28486,"lon":5.35824,"is_reserved":false,"is_disabled":false,"rental_uris":{"android":"levelo://app?vid=e09b0a72-9049-4f0a-8c1e-9c77d8777c41","ios":"levelo://app?vid=e09b0a72-9049-4f0a-8c1e-9c77d8777c41"},"vehicle_type_id":"4","last_reported":1744539023,"current_range_meters":14400,"station_id":"ce4bhah2rcd13ifvqei0","pricing_plan_id":"cebpf4jnsgd1na2vs0mg"},{"bike_id":"7de63893-3069-498b-8a09-2d3c997c6a4e","system_id":"levelo_inurba_marseille","lat":43.3016,"lon":5.3808,"is_reserved":false,"is_disabled":false,"rental_uris":{"android":"levelo://app?vid=7de63893-3069-498b-8a09-2d3c997c6a4e","ios":"levelo://app?vid=7de63893-3069-498b-8a09-2d3c997c6a4e"},"vehicle_type_id":"4","last_reported":1744539023,"current_range_meters":14400,"station_id":"ce4bgjp2rcd13ifvqbh0","pricing_plan_id":"cebpf4jnsgd1na2vs0mg"},{"bike_id":"200af73b-2937-4e81-98d0-ccd616c3a62a","system_id":"levelo_inurba_marseille","lat":43.30542,"lon":5.36531,"is_reserved":false,"is_disabled":false,"rental_uris":{"android":"levelo://app?vid=200af73b-2937-4e81-98d0-ccd616c3a62a","ios":"levelo://app?vid=200af73b-2937-4e81-98d0-ccd616c3a62a"},"vehicle_type_id":"4","last_reported":1744539023,"current_range_meters":14400,"station_id":"ce4bgs12rcd13ifvqcag","pricing_plan_id":"cebpf4jnsgd1na2vs0mg"},{"bike_id":"9d53099d-7023-4c12-b1a7-0821888b6ce8","system_id":"levelo_inurba_marseille","lat":43.31357,"lon":5.36693,"is_reserved":false,"is_disabled":false,"rental_uris":{"android":"levelo://app?vid=9d53099d-7023-4c12-b1a7-0821888b6ce8","ios":"levelo://app?vid=9d53099d-7023-4c12-b1a7-0821888b6ce8"},"vehicle_type_id":"4","last_reported":1744539023,"current_range_meters":14400,"station_id":"ce4bgr92rcd13ifvqc6g","pricing_plan_id":"cebpf4jnsgd1na2vs0mg"},{"bike_id":"be05296a-d190-40ba-aa0e-fd6e48447277","system_id":"levelo_inurba_marseille","lat":43.28027,"lon":5.36935,"is_reserved":false,"is_disabled":false,"rental_uris":{"android":"levelo://app?vid=be05296a-d190-40ba-aa0e-fd6e48447277","ios":"levelo://app?vid=be05296a-d190-40ba-aa0e-fd6e48447277"},"vehicle_type_id":"4","last_reported":1744539023,"current_range_meters":14000,"station_id":"ce4bha12rcd13ifvqef0","pricing_plan_id":"cebpf4jnsgd1na2vs0mg"},{"bike_id":"54f95021-ece3-4c1e-a98d-33e005a5619a","system_id":"levelo_inurba_marseille","lat":43.21188,"lon":5.35073,"is_reserved":false,"is_disabled":false,"rental_uris":{"android":"levelo://app?vid=54f95021-ece3-4c1e-a98d-33e005a5619a","ios":"levelo://app?vid=54f95021-ece3-4c1e-a98d-33e005a5619a"},"vehicle_type_id":"4","last_reported":1744539023,"current_range_meters":14400,"station_id":"st_cvj6sg6p6f1abm77japg","pricing_plan_id":"cebpf4jnsgd1na2vs0mg"},{"bike_id":"211eb830-0957-42fb-82e1-b26412a4110a","system_id":"levelo_inurba_marseille","lat":43.30321,"lon":5.36898,"is_reserved":false,"is_disabled":false,"rental_uris":{"android":"levelo://app?vid=211eb830-0957-42fb-82e1-b26412a4110a","ios":"levelo://app?vid=211eb830-0957-42fb-82e1-b26412a4110a"},"vehicle_type_id":"4","last_reported":1744539023,"current_range_meters":14400,"station_id":"ce4bgqh2rcd13ifvqc5g","pricing_plan_id":"cebpf4jnsgd1na2vs0mg"},{"bike_id":"7b7fa717-dfd7-4409-8b4f-edf87115939b","system_id":"levelo_inurba_marseille","lat":43.28607,"lon":5.37056,"is_reserved":false,"is_disabled":false,"rental_uris":{"android":"levelo://app?vid=7b7fa717-dfd7-4409-8b4f-edf87115939b","ios":"levelo://app?vid=7b7fa717-dfd7-4409-8b4f-edf87115939b"},"vehicle_type_id":"4","last_reported":1744539023,"current_range_meters":14800,"station_id":"ce4bht12rcd13ifvqi60","pricing_plan_id":"cebpf4jnsgd1na2vs0mg"},{"bike_id":"6a003e47-a1cc-4c38-b762-6e37af426d05","system_id":"levelo_inurba_marseille","lat":43.32364,"lon":5.36762,"is_reserved":false,"is_disabled":false,"rental_uris":{"android":"levelo://app?vid=6a003e47-a1cc-4c38-b762-6e37af426d05","ios":"levelo://app?vid=6a003e47-a1cc-4c38-b762-6e37af426d05"},"vehicle_type_id":"4","last_reported":1744539023,"current_range_meters":14800,"station_id":"ce4bhsh2rcd13ifvqi2g","pricing_plan_id":"cebpf4jnsgd1na2vs0mg"},{"bike_id":"0780a572-3288-4191-863a-26b6401c0cba","system_id":"levelo_inurba_marseille","lat":43.2315,"lon":5.43716,"is_reserved":false,"is_disabled":false,"rental_uris":{"android":"levelo://app?vid=0780a572-3288-4191-863a-26b6401c0cba","ios":"levelo://app?vid=0780a572-3288-4191-863a-26b6401c0cba"},"vehicle_type_id":"4","last_reported":1744539023,"current_range_meters":14800,"station_id":"ce4bhmp2rcd13ifvqgog","pricing_plan_id":"cebpf4jnsgd1na2vs0mg"},{"bike_id":"e5773f43-8f28-4d81-b94d-55ad617eff4c","system_id":"levelo_inurba_marseille","lat":43.29044,"lon":5.40014,"is_reserved":false,"is_disabled":false,"rental_uris":{"android":"levelo://app?vid=e5773f43-8f28-4d81-b94d-55ad617eff4c","ios":"levelo://app?vid=e5773f43-8f28-4d81-b94d-55ad617eff4c"},"vehicle_type_id":"4","last_reported":1744539023,"current_range_meters":14800,"station_id":"ce4bh392rcd13ifvqdm0","pricing_plan_id":"cebpf4jnsgd1na2vs0mg"},{"bike_id":"78840098-0be3-40b4-b0e8-fe24cddb1e3f","system_id":"levelo_inurba_marseille","lat":43.29566,"lon":5.37512,"is_reserved":false,"is_disabled":false,"rental_uris":{"android":"levelo://app?vid=78840098-0be3-40b4-b0e8-fe24cddb1e3f","ios":"levelo://app?vid=78840098-0be3-40b4-b0e8-fe24cddb1e3f"},"vehicle_type_id":"4","last_reported":1744539023,"current_range_meters":14800,"station_id":"ce4bgh92rcd13ifvqb50","pricing_plan_id":"cebpf4jnsgd1na2vs0mg"},{"bike_id":"d1de0c6a-95ba-40a1-8ce0-d49c5abd8496","system_id":"levelo_inurba_marseille","lat":43.30143,"lon":5.38071,"is_reserved":false,"is_disabled":false,"rental_uris":{"android":"levelo://app?vid=d1de0c6a-95ba-40a1-8ce0-d49c5abd8496","ios":"levelo://app?vid=d1de0c6a-95ba-40a1-8ce0-d49c5abd8496"},"vehicle_type_id":"4","last_reported":1744539023,"current_range_meters":15200,"station_id":"ce4bgjp2rcd13ifvqbh0","pricing_plan_id":"cebpf4jnsgd1na2vs0mg"},{"bike_id":"fbcffd98-9af3-437e-a238-670cf1dcb555","system_id":"levelo_inurba_marseille","lat":43.28941,"lon":5.36634,"is_reserved":false,"is_disabled":true,"rental_uris":{"android":"levelo://app?vid=fbcffd98-9af3-437e-a238-670cf1dcb555","ios":"levelo://app?vid=fbcffd98-9af3-437e-a238-670cf1dcb555"},"vehicle_type_id":"4","last_reported":1744539023,"current_range_meters":15200,"station_id":"ce4bhap2rcd13ifvqek0","pricing_plan_id":"cebpf4jnsgd1na2vs0mg"},{"bike_id":"d9214e74-30ad-45b9-bf16-f3f0709b1cbf","system_id":"levelo_inurba_marseille","lat":43.23189,"lon":5.35549,"is_reserved":false,"is_disabled":false,"rental_uris":{"android":"levelo://app?vid=d9214e74-30ad-45b9-bf16-f3f0709b1cbf","ios":"levelo://app?vid=d9214e74-30ad-45b9-bf16-f3f0709b1cbf"},"vehicle_type_id":"4","last_reported":1744539023,"current_range_meters":16000,"station_id":"ce4bhu92rcd13ifvqi70","pricing_plan_id":"cebpf4jnsgd1na2vs0mg"},{"bike_id":"59790fdf-1ea1-455c-92c2-962c077501dc","system_id":"levelo_inurba_marseille","lat":43.2418,"lon":5.39715,"is_reserved":false,"is_disabled":false,"rental_uris":{"android":"levelo://app?vid=59790fdf-1ea1-455c-92c2-962c077501dc","ios":"levelo://app?vid=59790fdf-1ea1-455c-92c2-962c077501dc"},"vehicle_type_id":"4","last_reported":1744539023,"current_range_meters":16000,"station_id":"ce4bhn12rcd13ifvqgpg","pricing_plan_id":"cebpf4jnsgd1na2vs0mg"},{"bike_id":"e617923d-5e38-4ab5-9f0a-d006b9dcc88d","system_id":"levelo_inurba_marseille","lat":43.29519,"lon":5.38555,"is_reserved":false,"is_disabled":true,"rental_uris":{"android":"levelo://app?vid=e617923d-5e38-4ab5-9f0a-d006b9dcc88d","ios":"levelo://app?vid=e617923d-5e38-4ab5-9f0a-d006b9dcc88d"},"vehicle_type_id":"4","last_reported":1744539023,"current_range_meters":16400,"station_id":"ce4bgih2rcd13ifvqba0","pricing_plan_id":"cebpf4jnsgd1na2vs0mg"},{"bike_id":"2526ece7-e031-4389-b674-2d8f41a5278d","system_id":"levelo_inurba_marseille","lat":43.267682,"lon":5.39505,"is_reserved":false,"is_disabled":false,"rental_uris":{"android":"levelo://app?vid=2526ece7-e031-4389-b674-2d8f41a5278d","ios":"levelo://app?vid=2526ece7-e031-4389-b674-2d8f41a5278d"},"vehicle_type_id":"4","last_reported":1744539023,"current_range_meters":16400,"station_id":"ce4bh692rcd13ifvqea0","pricing_plan_id":"cebpf4jnsgd1na2vs0mg"},{"bike_id":"995e641f-2376-4a8a-b957-8c3b3986f727","system_id":"levelo_inurba_marseille","lat":43.29624,"lon":5.37172,"is_reserved":false,"is_disabled":false,"rental_uris":{"android":"levelo://app?vid=995e641f-2376-4a8a-b957-8c3b3986f727","ios":"levelo://app?vid=995e641f-2376-4a8a-b957-8c3b3986f727"},"vehicle_type_id":"4","last_reported":1744539023,"current_range_meters":16400,"station_id":"ce4bgnh2rcd13ifvqc0g","pricing_plan_id":"cebpf4jnsgd1na2vs0mg"},{"bike_id":"6f10d489-81ff-4c60-a88d-40a3eceba9f6","system_id":"levelo_inurba_marseille","lat":43.25499,"lon":5.3765,"is_reserved":false,"is_disabled":false,"rental_uris":{"android":"levelo://app?vid=6f10d489-81ff-4c60-a88d-40a3eceba9f6","ios":"levelo://app?vid=6f10d489-81ff-4c60-a88d-40a3eceba9f6"},"vehicle_type_id":"4","last_reported":1744539023,"current_range_meters":16400,"station_id":"ce4bhh12rcd13ifvqff0","pricing_plan_id":"cebpf4jnsgd1na2vs0mg"},{"bike_id":"7a16e283-b53b-4b88-854c-640e282c52b2","system_id":"levelo_inurba_marseille","lat":43.33592,"lon":5.41003,"is_reserved":false,"is_disabled":false,"rental_uris":{"android":"levelo://app?vid=7a16e283-b53b-4b88-854c-640e282c52b2","ios":"levelo://app?vid=7a16e283-b53b-4b88-854c-640e282c52b2"},"vehicle_type_id":"4","last_reported":1744539023,"current_range_meters":16800,"station_id":"ce4bhqh2rcd13ifvqhmg","pricing_plan_id":"cebpf4jnsgd1na2vs0mg"},{"bike_id":"2c07848e-dddd-42da-95fc-91d988086886","system_id":"levelo_inurba_marseille","lat":43.25013,"lon":5.38935,"is_reserved":false,"is_disabled":false,"rental_uris":{"android":"levelo://app?vid=2c07848e-dddd-42da-95fc-91d988086886","ios":"levelo://app?vid=2c07848e-dddd-42da-95fc-91d988086886"},"vehicle_type_id":"4","last_reported":1744539023,"current_range_meters":16800,"station_id":"ce4bhgp2rcd13ifvqfd0","pricing_plan_id":"cebpf4jnsgd1na2vs0mg"},{"bike_id":"a5355790-1c94-485c-b6f7-7d92d6c7dd32","system_id":"levelo_inurba_marseille","lat":43.30251,"lon":5.40057,"is_reserved":false,"is_disabled":false,"rental_uris":{"android":"levelo://app?vid=a5355790-1c94-485c-b6f7-7d92d6c7dd32","ios":"levelo://app?vid=a5355790-1c94-485c-b6f7-7d92d6c7dd32"},"vehicle_type_id":"4","last_reported":1744539023,"current_range_meters":16800,"station_id":"ce4bgvh2rcd13ifvqcs0","pricing_plan_id":"cebpf4jnsgd1na2vs0mg"},{"bike_id":"ebfe90c3-9223-4301-8889-57ddac517533","system_id":"levelo_inurba_marseille","lat":43.284531,"lon":5.358976,"is_reserved":false,"is_disabled":false,"rental_uris":{"android":"levelo://app?vid=ebfe90c3-9223-4301-8889-57ddac517533","ios":"levelo://app?vid=ebfe90c3-9223-4301-8889-57ddac517533"},"vehicle_type_id":"4","last_reported":1744539023,"current_range_meters":16800,"station_id":"ce4bhah2rcd13ifvqei0","pricing_plan_id":"cebpf4jnsgd1na2vs0mg"},{"bike_id":"8eaed4ed-e8c2-480f-b49b-7829f95ec9fc","system_id":"levelo_inurba_marseille","lat":43.28709,"lon":5.39971,"is_reserved":false,"is_disabled":false,"rental_uris":{"android":"levelo://app?vid=8eaed4ed-e8c2-480f-b49b-7829f95ec9fc","ios":"levelo://app?vid=8eaed4ed-e8c2-480f-b49b-7829f95ec9fc"},"vehicle_type_id":"4","last_reported":1744539023,"current_range_meters":16800,"station_id":"ce4bho92rcd13ifvqh3g","pricing_plan_id":"cebpf4jnsgd1na2vs0mg"},{"bike_id":"1accc1aa-a277-48f3-9da3-98151bc48e3d","system_id":"levelo_inurba_marseille","lat":43.31082,"lon":5.42427,"is_reserved":false,"is_disabled":false,"rental_uris":{"android":"levelo://app?vid=1accc1aa-a277-48f3-9da3-98151bc48e3d","ios":"levelo://app?vid=1accc1aa-a277-48f3-9da3-98151bc48e3d"},"vehicle_type_id":"4","last_reported":1744539023,"current_range_meters":17200,"station_id":"ce4bhp92rcd13ifvqhag","pricing_plan_id":"cebpf4jnsgd1na2vs0mg"},{"bike_id":"6ab70739-368b-4f85-95fe-a55665347ff5","system_id":"levelo_inurba_marseille","lat":43.25578,"lon":5.38243,"is_reserved":false,"is_disabled":false,"rental_uris":{"android":"levelo://app?vid=6ab70739-368b-4f85-95fe-a55665347ff5","ios":"levelo://app?vid=6ab70739-368b-4f85-95fe-a55665347ff5"},"vehicle_type_id":"4","last_reported":1744539023,"current_range_meters":17200,"station_id":"ce4bhih2rcd13ifvqfs0","pricing_plan_id":"cebpf4jnsgd1na2vs0mg"},{"bike_id":"a2213ab8-ff9d-4aff-85fc-3e8a3d89954c","system_id":"levelo_inurba_marseille","lat":43.32662,"lon":5.4099,"is_reserved":false,"is_disabled":false,"rental_uris":{"android":"levelo://app?vid=a2213ab8-ff9d-4aff-85fc-3e8a3d89954c","ios":"levelo://app?vid=a2213ab8-ff9d-4aff-85fc-3e8a3d89954c"},"vehicle_type_id":"4","last_reported":1744539023,"current_range_meters":17200,"station_id":"ce4bhpp2rcd13ifvqhgg","pricing_plan_id":"cebpf4jnsgd1na2vs0mg"},{"bike_id":"70adfe44-94a3-4906-8210-6c716d244a4c","system_id":"levelo_inurba_marseille","lat":43.25688,"lon":5.41152,"is_reserved":false,"is_disabled":false,"rental_uris":{"android":"levelo://app?vid=70adfe44-94a3-4906-8210-6c716d244a4c","ios":"levelo://app?vid=70adfe44-94a3-4906-8210-6c716d244a4c"},"vehicle_type_id":"4","last_reported":1744539023,"current_range_meters":17200,"station_id":"ce4bhkp2rcd13ifvqgd0","pricing_plan_id":"cebpf4jnsgd1na2vs0mg"},{"bike_id":"686527a4-946b-4ca6-9760-061c447e5d65","system_id":"levelo_inurba_marseille","lat":43.27913,"lon":5.39578,"is_reserved":false,"is_disabled":false,"rental_uris":{"android":"levelo://app?vid=686527a4-946b-4ca6-9760-061c447e5d65","ios":"levelo://app?vid=686527a4-946b-4ca6-9760-061c447e5d65"},"vehicle_type_id":"4","last_reported":1744539023,"current_range_meters":17200,"station_id":"ce4bhf92rcd13ifvqf40","pricing_plan_id":"cebpf4jnsgd1na2vs0mg"},{"bike_id":"a6ecdfb6-884d-4710-af03-e9f966cbe87a","system_id":"levelo_inurba_marseille","lat":43.307922,"lon":5.435286,"is_reserved":false,"is_disabled":false,"rental_uris":{"android":"levelo://app?vid=a6ecdfb6-884d-4710-af03-e9f966cbe87a","ios":"levelo://app?vid=a6ecdfb6-884d-4710-af03-e9f966cbe87a"},"vehicle_type_id":"4","last_reported":1744539023,"current_range_meters":17200,"station_id":"ce4bhph2rcd13ifvqheg","pricing_plan_id":"cebpf4jnsgd1na2vs0mg"},{"bike_id":"2551df23-46eb-4dc9-b328-33c9a95ff7ca","system_id":"levelo_inurba_marseille","lat":43.29216,"lon":5.36018,"is_reserved":false,"is_disabled":true,"rental_uris":{"android":"levelo://app?vid=2551df23-46eb-4dc9-b328-33c9a95ff7ca","ios":"levelo://app?vid=2551df23-46eb-4dc9-b328-33c9a95ff7ca"},"vehicle_type_id":"4","last_reported":1744539023,"current_range_meters":17200,"station_id":"ce4bhbh2rcd13ifvqeqg","pricing_plan_id":"cebpf4jnsgd1na2vs0mg"},{"bike_id":"1b9380f6-b9ca-4245-82f7-63205324a1e4","system_id":"levelo_inurba_marseille","lat":43.30548,"lon":5.36708,"is_reserved":false,"is_disabled":false,"rental_uris":{"android":"levelo://app?vid=1b9380f6-b9ca-4245-82f7-63205324a1e4","ios":"levelo://app?vid=1b9380f6-b9ca-4245-82f7-63205324a1e4"},"vehicle_type_id":"4","last_reported":1744539023,"current_range_meters":17600,"station_id":"ce4bgrp2rcd13ifvqc9g","pricing_plan_id":"cebpf4jnsgd1na2vs0mg"},{"bike_id":"ce10f802-6b3e-4b52-bcc5-959f6fa10309","system_id":"levelo_inurba_marseille","lat":43.292154,"lon":5.359523,"is_reserved":false,"is_disabled":false,"rental_uris":{"android":"levelo://app?vid=ce10f802-6b3e-4b52-bcc5-959f6fa10309","ios":"levelo://app?vid=ce10f802-6b3e-4b52-bcc5-959f6fa10309"},"vehicle_type_id":"4","last_reported":1744539023,"current_range_meters":17600,"station_id":"ce4bgh92rcd13ifvqb40","pricing_plan_id":"cebpf4jnsgd1na2vs0mg"},{"bike_id":"09c67ae9-22fd-4afa-9c57-cdf4c3e5d0a1","system_id":"levelo_inurba_marseille","lat":43.21749,"lon":5.34591,"is_reserved":false,"is_disabled":false,"rental_uris":{"android":"levelo://app?vid=09c67ae9-22fd-4afa-9c57-cdf4c3e5d0a1","ios":"levelo://app?vid=09c67ae9-22fd-4afa-9c57-cdf4c3e5d0a1"},"vehicle_type_id":"4","last_reported":1744539023,"current_range_meters":17600,"station_id":"st_cvj6r9ubvosntc0bgbag","pricing_plan_id":"cebpf4jnsgd1na2vs0mg"},{"bike_id":"50f3a6ca-1b32-4e17-a21b-a50e16960e96","system_id":"levelo_inurba_marseille","lat":43.337766,"lon":5.374441,"is_reserved":false,"is_disabled":false,"rental_uris":{"android":"levelo://app?vid=50f3a6ca-1b32-4e17-a21b-a50e16960e96","ios":"levelo://app?vid=50f3a6ca-1b32-4e17-a21b-a50e16960e96"},"vehicle_type_id":"4","last_reported":1744539023,"current_range_meters":17600,"station_id":"","pricing_plan_id":"cebpf4jnsgd1na2vs0mg"},{"bike_id":"24ce691b-7e0d-492f-bccd-9c1dfe6f86b3","system_id":"levelo_inurba_marseille","lat":43.29002,"lon":5.35603,"is_reserved":false,"is_disabled":false,"rental_uris":{"android":"levelo://app?vid=24ce691b-7e0d-492f-bccd-9c1dfe6f86b3","ios":"levelo://app?vid=24ce691b-7e0d-492f-bccd-9c1dfe6f86b3"},"vehicle_type_id":"4","last_reported":1744539023,"current_range_meters":17600,"station_id":"ce4bhb92rcd13ifvqen0","pricing_plan_id":"cebpf4jnsgd1na2vs0mg"},{"bike_id":"604b4e29-58a6-4cad-8fac-5599fbdb6f4c","system_id":"levelo_inurba_marseille","lat":43.29894,"lon":5.40457,"is_reserved":false,"is_disabled":false,"rental_uris":{"android":"levelo://app?vid=604b4e29-58a6-4cad-8fac-5599fbdb6f4c","ios":"levelo://app?vid=604b4e29-58a6-4cad-8fac-5599fbdb6f4c"},"vehicle_type_id":"4","last_reported":1744539023,"current_range_meters":17600,"station_id":"","pricing_plan_id":"cebpf4jnsgd1na2vs0mg"},{"bike_id":"d06291ab-e60c-4ee9-a2f8-f55c784c28fe","system_id":"levelo_inurba_marseille","lat":43.21197,"lon":5.35087,"is_reserved":false,"is_disabled":false,"rental_uris":{"android":"levelo://app?vid=d06291ab-e60c-4ee9-a2f8-f55c784c28fe","ios":"levelo://app?vid=d06291ab-e60c-4ee9-a2f8-f55c784c28fe"},"vehicle_type_id":"4","last_reported":1744539023,"current_range_meters":17600,"station_id":"st_cvj6sg6p6f1abm77japg","pricing_plan_id":"cebpf4jnsgd1na2vs0mg"},{"bike_id":"935a7e55-4cea-4394-8ed2-15f7e1ee706c","system_id":"levelo_inurba_marseille","lat":43.2724,"lon":5.43146,"is_reserved":false,"is_disabled":false,"rental_uris":{"android":"levelo://app?vid=935a7e55-4cea-4394-8ed2-15f7e1ee706c","ios":"levelo://app?vid=935a7e55-4cea-4394-8ed2-15f7e1ee706c"},"vehicle_type_id":"4","last_reported":1744539023,"current_range_meters":18000,"station_id":"","pricing_plan_id":"cebpf4jnsgd1na2vs0mg"},{"bike_id":"da48e56b-5b98-4592-a2ea-cf5907cac18b","system_id":"levelo_inurba_marseille","lat":43.337652,"lon":5.374374,"is_reserved":false,"is_disabled":false,"rental_uris":{"android":"levelo://app?vid=da48e56b-5b98-4592-a2ea-cf5907cac18b","ios":"levelo://app?vid=da48e56b-5b98-4592-a2ea-cf5907cac18b"},"vehicle_type_id":"4","last_reported":1744539023,"current_range_meters":18000,"station_id":"","pricing_plan_id":"cebpf4jnsgd1na2vs0mg"},{"bike_id":"e23a2fbf-390c-4634-8902-fbe9c490d2fe","system_id":"levelo_inurba_marseille","lat":43.25956,"lon":5.40892,"is_reserved":false,"is_disabled":false,"rental_uris":{"android":"levelo://app?vid=e23a2fbf-390c-4634-8902-fbe9c490d2fe","ios":"levelo://app?vid=e23a2fbf-390c-4634-8902-fbe9c490d2fe"},"vehicle_type_id":"4","last_reported":1744539023,"current_range_meters":18000,"station_id":"ce4bhm92rcd13ifvqglg","pricing_plan_id":"cebpf4jnsgd1na2vs0mg"},{"bike_id":"ee3d94e1-9536-48aa-8307-1c3318b457b7","system_id":"levelo_inurba_marseille","lat":43.28475,"lon":5.35874,"is_reserved":false,"is_disabled":false,"rental_uris":{"android":"levelo://app?vid=ee3d94e1-9536-48aa-8307-1c3318b457b7","ios":"levelo://app?vid=ee3d94e1-9536-48aa-8307-1c3318b457b7"},"vehicle_type_id":"4","last_reported":1744539023,"current_range_meters":18000,"station_id":"ce4bhah2rcd13ifvqei0","pricing_plan_id":"cebpf4jnsgd1na2vs0mg"},{"bike_id":"a4624a7a-ad58-4e7d-b39b-964e2f874656","system_id":"levelo_inurba_marseille","lat":43.29295,"lon":5.37464,"is_reserved":false,"is_disabled":false,"rental_uris":{"android":"levelo://app?vid=a4624a7a-ad58-4e7d-b39b-964e2f874656","ios":"levelo://app?vid=a4624a7a-ad58-4e7d-b39b-964e2f874656"},"vehicle_type_id":"4","last_reported":1744539023,"current_range_meters":18800,"station_id":"ce4bgi12rcd13ifvqb70","pricing_plan_id":"cebpf4jnsgd1na2vs0mg"},{"bike_id":"98b9605b-ff97-4c93-b828-0c16d88d9032","system_id":"levelo_inurba_marseille","lat":43.30459,"lon":5.37896,"is_reserved":false,"is_disabled":false,"rental_uris":{"android":"levelo://app?vid=98b9605b-ff97-4c93-b828-0c16d88d9032","ios":"levelo://app?vid=98b9605b-ff97-4c93-b828-0c16d88d9032"},"vehicle_type_id":"4","last_reported":1744539023,"current_range_meters":18800,"station_id":"ce4bgup2rcd13ifvqcn0","pricing_plan_id":"cebpf4jnsgd1na2vs0mg"},{"bike_id":"0eec9fa9-6032-4305-9db0-adc210d34b83","system_id":"levelo_inurba_marseille","lat":43.30132,"lon":5.38793,"is_reserved":false,"is_disabled":false,"rental_uris":{"android":"levelo://app?vid=0eec9fa9-6032-4305-9db0-adc210d34b83","ios":"levelo://app?vid=0eec9fa9-6032-4305-9db0-adc210d34b83"},"vehicle_type_id":"4","last_reported":1744539023,"current_range_meters":19200,"station_id":"ce4bghh2rcd13ifvqb60","pricing_plan_id":"cebpf4jnsgd1na2vs0mg"},{"bike_id":"e7c61a11-4563-48bc-8743-f51dc5f5f57d","system_id":"levelo_inurba_marseille","lat":43.21745,"lon":5.34607,"is_reserved":false,"is_disabled":false,"rental_uris":{"android":"levelo://app?vid=e7c61a11-4563-48bc-8743-f51dc5f5f57d","ios":"levelo://app?vid=e7c61a11-4563-48bc-8743-f51dc5f5f57d"},"vehicle_type_id":"4","last_reported":1744539023,"current_range_meters":19200,"station_id":"st_cvj6r9ubvosntc0bgbag","pricing_plan_id":"cebpf4jnsgd1na2vs0mg"},{"bike_id":"bf292281-e0e3-4a7a-8b38-3f1f596f1b40","system_id":"levelo_inurba_marseille","lat":43.24156,"lon":5.36396,"is_reserved":false,"is_disabled":false,"rental_uris":{"android":"levelo://app?vid=bf292281-e0e3-4a7a-8b38-3f1f596f1b40","ios":"levelo://app?vid=bf292281-e0e3-4a7a-8b38-3f1f596f1b40"},"vehicle_type_id":"4","last_reported":1744539023,"current_range_meters":19600,"station_id":"cpo36qri1sfpv3e86is0","pricing_plan_id":"cebpf4jnsgd1na2vs0mg"},{"bike_id":"4368f51c-3416-46d8-b798-da1711131458","system_id":"levelo_inurba_marseille","lat":43.30148,"lon":5.38079,"is_reserved":false,"is_disabled":false,"rental_uris":{"android":"levelo://app?vid=4368f51c-3416-46d8-b798-da1711131458","ios":"levelo://app?vid=4368f51c-3416-46d8-b798-da1711131458"},"vehicle_type_id":"4","last_reported":1744539023,"current_range_meters":19600,"station_id":"ce4bgjp2rcd13ifvqbh0","pricing_plan_id":"cebpf4jnsgd1na2vs0mg"},{"bike_id":"7ef9770c-0ddf-4364-9468-d08aac718b60","system_id":"levelo_inurba_marseille","lat":43.25504,"lon":5.37637,"is_reserved":false,"is_disabled":false,"rental_uris":{"android":"levelo://app?vid=7ef9770c-0ddf-4364-9468-d08aac718b60","ios":"levelo://app?vid=7ef9770c-0ddf-4364-9468-d08aac718b60"},"vehicle_type_id":"4","last_reported":1744539023,"current_range_meters":19200,"station_id":"ce4bhh12rcd13ifvqff0","pricing_plan_id":"cebpf4jnsgd1na2vs0mg"},{"bike_id":"518e8220-89de-4d51-804e-5c8337c2e983","system_id":"levelo_inurba_marseille","lat":43.25581,"lon":5.38227,"is_reserved":false,"is_disabled":false,"rental_uris":{"android":"levelo://app?vid=518e8220-89de-4d51-804e-5c8337c2e983","ios":"levelo://app?vid=518e8220-89de-4d51-804e-5c8337c2e983"},"vehicle_type_id":"4","last_reported":1744539023,"current_range_meters":19600,"station_id":"ce4bhih2rcd13ifvqfs0","pricing_plan_id":"cebpf4jnsgd1na2vs0mg"},{"bike_id":"a6c8c585-b1c5-43cb-8755-1e79d1001917","system_id":"levelo_inurba_marseille","lat":43.30251,"lon":5.40054,"is_reserved":false,"is_disabled":false,"rental_uris":{"android":"levelo://app?vid=a6c8c585-b1c5-43cb-8755-1e79d1001917","ios":"levelo://app?vid=a6c8c585-b1c5-43cb-8755-1e79d1001917"},"vehicle_type_id":"4","last_reported":1744539023,"current_range_meters":19600,"station_id":"ce4bgvh2rcd13ifvqcs0","pricing_plan_id":"cebpf4jnsgd1na2vs0mg"},{"bike_id":"fe686a91-f1d9-4683-9768-b38ed473c851","system_id":"levelo_inurba_marseille","lat":43.25578,"lon":5.3823,"is_reserved":false,"is_disabled":false,"rental_uris":{"android":"levelo://app?vid=fe686a91-f1d9-4683-9768-b38ed473c851","ios":"levelo://app?vid=fe686a91-f1d9-4683-9768-b38ed473c851"},"vehicle_type_id":"4","last_reported":1744539023,"current_range_meters":19200,"station_id":"ce4bhih2rcd13ifvqfs0","pricing_plan_id":"cebpf4jnsgd1na2vs0mg"},{"bike_id":"df49f249-4aa5-4aa6-9193-27ea889ed0d0","system_id":"levelo_inurba_marseille","lat":43.30451,"lon":5.38878,"is_reserved":false,"is_disabled":true,"rental_uris":{"android":"levelo://app?vid=df49f249-4aa5-4aa6-9193-27ea889ed0d0","ios":"levelo://app?vid=df49f249-4aa5-4aa6-9193-27ea889ed0d0"},"vehicle_type_id":"4","last_reported":1744539023,"current_range_meters":19600,"station_id":"ce4bgk12rcd13ifvqbi0","pricing_plan_id":"cebpf4jnsgd1na2vs0mg"},{"bike_id":"8e84781a-82c3-4b14-a541-78f95f1999c0","system_id":"levelo_inurba_marseille","lat":43.27419,"lon":5.39359,"is_reserved":false,"is_disabled":true,"rental_uris":{"android":"levelo://app?vid=8e84781a-82c3-4b14-a541-78f95f1999c0","ios":"levelo://app?vid=8e84781a-82c3-4b14-a541-78f95f1999c0"},"vehicle_type_id":"4","last_reported":1744539023,"current_range_meters":20000,"station_id":"ce4bhdp2rcd13ifvqf20","pricing_plan_id":"cebpf4jnsgd1na2vs0mg"},{"bike_id":"59c7d7f9-492d-4240-b3d4-e8d1015f1ebd","system_id":"levelo_inurba_marseille","lat":43.21749,"lon":5.34607,"is_reserved":false,"is_disabled":true,"rental_uris":{"android":"levelo://app?vid=59c7d7f9-492d-4240-b3d4-e8d1015f1ebd","ios":"levelo://app?vid=59c7d7f9-492d-4240-b3d4-e8d1015f1ebd"},"vehicle_type_id":"4","last_reported":1744539023,"current_range_meters":20000,"station_id":"st_cvj6r9ubvosntc0bgbag","pricing_plan_id":"cebpf4jnsgd1na2vs0mg"},{"bike_id":"e87f3722-08cc-47ed-8b6a-638b7a7d62ac","system_id":"levelo_inurba_marseille","lat":43.29301,"lon":5.37451,"is_reserved":false,"is_disabled":false,"rental_uris":{"android":"levelo://app?vid=e87f3722-08cc-47ed-8b6a-638b7a7d62ac","ios":"levelo://app?vid=e87f3722-08cc-47ed-8b6a-638b7a7d62ac"},"vehicle_type_id":"4","last_reported":1744539023,"current_range_meters":20000,"station_id":"ce4bgi12rcd13ifvqb70","pricing_plan_id":"cebpf4jnsgd1na2vs0mg"},{"bike_id":"275b2767-0832-4de9-bb92-b411d24076c0","system_id":"levelo_inurba_marseille","lat":43.24163,"lon":5.39741,"is_reserved":false,"is_disabled":false,"rental_uris":{"android":"levelo://app?vid=275b2767-0832-4de9-bb92-b411d24076c0","ios":"levelo://app?vid=275b2767-0832-4de9-bb92-b411d24076c0"},"vehicle_type_id":"4","last_reported":1744539023,"current_range_meters":20000,"station_id":"ce4bhn12rcd13ifvqgpg","pricing_plan_id":"cebpf4jnsgd1na2vs0mg"},{"bike_id":"a97189f4-802e-4ea6-a5eb-026b8bcefca3","system_id":"levelo_inurba_marseille","lat":43.25501,"lon":5.3765,"is_reserved":false,"is_disabled":false,"rental_uris":{"android":"levelo://app?vid=a97189f4-802e-4ea6-a5eb-026b8bcefca3","ios":"levelo://app?vid=a97189f4-802e-4ea6-a5eb-026b8bcefca3"},"vehicle_type_id":"4","last_reported":1744539023,"current_range_meters":20000,"station_id":"ce4bhh12rcd13ifvqff0","pricing_plan_id":"cebpf4jnsgd1na2vs0mg"},{"bike_id":"4b8a1c9b-6efd-43b2-9022-db4f4837b7e8","system_id":"levelo_inurba_marseille","lat":43.2396,"lon":5.36629,"is_reserved":false,"is_disabled":false,"rental_uris":{"android":"levelo://app?vid=4b8a1c9b-6efd-43b2-9022-db4f4837b7e8","ios":"levelo://app?vid=4b8a1c9b-6efd-43b2-9022-db4f4837b7e8"},"vehicle_type_id":"4","last_reported":1744539023,"current_range_meters":20000,"station_id":"ce4bhi12rcd13ifvqfp0","pricing_plan_id":"cebpf4jnsgd1na2vs0mg"},{"bike_id":"b8f7eba9-af11-4a32-acfe-4e98451861c3","system_id":"levelo_inurba_marseille","lat":43.27939,"lon":5.41061,"is_reserved":false,"is_disabled":false,"rental_uris":{"android":"levelo://app?vid=b8f7eba9-af11-4a32-acfe-4e98451861c3","ios":"levelo://app?vid=b8f7eba9-af11-4a32-acfe-4e98451861c3"},"vehicle_type_id":"4","last_reported":1744539023,"current_range_meters":20000,"station_id":"ce4bhnp2rcd13ifvqh0g","pricing_plan_id":"cebpf4jnsgd1na2vs0mg"},{"bike_id":"4ebbfd32-d3ef-463c-8f20-bc7abf93a603","system_id":"levelo_inurba_marseille","lat":43.24174,"lon":5.39735,"is_reserved":false,"is_disabled":false,"rental_uris":{"android":"levelo://app?vid=4ebbfd32-d3ef-463c-8f20-bc7abf93a603","ios":"levelo://app?vid=4ebbfd32-d3ef-463c-8f20-bc7abf93a603"},"vehicle_type_id":"4","last_reported":1744539023,"current_range_meters":20000,"station_id":"ce4bhn12rcd13ifvqgpg","pricing_plan_id":"cebpf4jnsgd1na2vs0mg"},{"bike_id":"b72c6d84-2480-4efc-9e0a-4bb9ddedaa45","system_id":"levelo_inurba_marseille","lat":43.30152,"lon":5.38086,"is_reserved":false,"is_disabled":false,"rental_uris":{"android":"levelo://app?vid=b72c6d84-2480-4efc-9e0a-4bb9ddedaa45","ios":"levelo://app?vid=b72c6d84-2480-4efc-9e0a-4bb9ddedaa45"},"vehicle_type_id":"4","last_reported":1744539023,"current_range_meters":20000,"station_id":"ce4bgjp2rcd13ifvqbh0","pricing_plan_id":"cebpf4jnsgd1na2vs0mg"},{"bike_id":"27a55245-8dd2-4f1a-af63-95a9d7b71690","system_id":"levelo_inurba_marseille","lat":43.31064,"lon":5.37856,"is_reserved":false,"is_disabled":true,"rental_uris":{"android":"levelo://app?vid=27a55245-8dd2-4f1a-af63-95a9d7b71690","ios":"levelo://app?vid=27a55245-8dd2-4f1a-af63-95a9d7b71690"},"vehicle_type_id":"4","last_reported":1744539023,"current_range_meters":20000,"station_id":"","pricing_plan_id":"cebpf4jnsgd1na2vs0mg"},{"bike_id":"81eae6f7-3a30-449a-8cdc-6c50a84974cc","system_id":"levelo_inurba_marseille","lat":43.24155,"lon":5.36397,"is_reserved":false,"is_disabled":false,"rental_uris":{"android":"levelo://app?vid=81eae6f7-3a30-449a-8cdc-6c50a84974cc","ios":"levelo://app?vid=81eae6f7-3a30-449a-8cdc-6c50a84974cc"},"vehicle_type_id":"4","last_reported":1744539023,"current_range_meters":20000,"station_id":"cpo36qri1sfpv3e86is0","pricing_plan_id":"cebpf4jnsgd1na2vs0mg"},{"bike_id":"a6535ba8-9ced-4cad-b71b-a79f16af244f","system_id":"levelo_inurba_marseille","lat":43.24671,"lon":5.3812,"is_reserved":false,"is_disabled":false,"rental_uris":{"android":"levelo://app?vid=a6535ba8-9ced-4cad-b71b-a79f16af244f","ios":"levelo://app?vid=a6535ba8-9ced-4cad-b71b-a79f16af244f"},"vehicle_type_id":"4","last_reported":1744539023,"current_range_meters":20400,"station_id":"ce4bhih2rcd13ifvqfr0","pricing_plan_id":"cebpf4jnsgd1na2vs0mg"},{"bike_id":"48304a08-5a69-4a32-a932-369007df2aca","system_id":"levelo_inurba_marseille","lat":43.31472,"lon":5.37316,"is_reserved":false,"is_disabled":false,"rental_uris":{"android":"levelo://app?vid=48304a08-5a69-4a32-a932-369007df2aca","ios":"levelo://app?vid=48304a08-5a69-4a32-a932-369007df2aca"},"vehicle_type_id":"4","last_reported":1744539023,"current_range_meters":20400,"station_id":"ce4bgt12rcd13ifvqcd0","pricing_plan_id":"cebpf4jnsgd1na2vs0mg"},{"bike_id":"fe08df50-b1eb-4594-a0ff-2cba7718e9d0","system_id":"levelo_inurba_marseille","lat":43.295718,"lon":5.367428,"is_reserved":false,"is_disabled":false,"rental_uris":{"android":"levelo://app?vid=fe08df50-b1eb-4594-a0ff-2cba7718e9d0","ios":"levelo://app?vid=fe08df50-b1eb-4594-a0ff-2cba7718e9d0"},"vehicle_type_id":"4","last_reported":1744539023,"current_range_meters":20400,"station_id":"ce4bgph2rcd13ifvqc2g","pricing_plan_id":"cebpf4jnsgd1na2vs0mg"},{"bike_id":"607b9ab3-cb8b-4340-a8ef-422c4dc752bc","system_id":"levelo_inurba_marseille","lat":43.27995,"lon":5.40033,"is_reserved":false,"is_disabled":false,"rental_uris":{"android":"levelo://app?vid=607b9ab3-cb8b-4340-a8ef-422c4dc752bc","ios":"levelo://app?vid=607b9ab3-cb8b-4340-a8ef-422c4dc752bc"},"vehicle_type_id":"4","last_reported":1744539023,"current_range_meters":20400,"station_id":"ce4bho92rcd13ifvqh4g","pricing_plan_id":"cebpf4jnsgd1na2vs0mg"},{"bike_id":"c277ed0a-2070-4eb5-930b-e224d30b4d3a","system_id":"levelo_inurba_marseille","lat":43.24389,"lon":5.37066,"is_reserved":false,"is_disabled":false,"rental_uris":{"android":"levelo://app?vid=c277ed0a-2070-4eb5-930b-e224d30b4d3a","ios":"levelo://app?vid=c277ed0a-2070-4eb5-930b-e224d30b4d3a"},"vehicle_type_id":"4","last_reported":1744539023,"current_range_meters":20000,"station_id":"ce4bhhh2rcd13ifvqfk0","pricing_plan_id":"cebpf4jnsgd1na2vs0mg"},{"bike_id":"1deb9350-7de0-498c-8c7a-806a1e9db2ca","system_id":"levelo_inurba_marseille","lat":43.25723,"lon":5.4104,"is_reserved":false,"is_disabled":false,"rental_uris":{"android":"levelo://app?vid=1deb9350-7de0-498c-8c7a-806a1e9db2ca","ios":"levelo://app?vid=1deb9350-7de0-498c-8c7a-806a1e9db2ca"},"vehicle_type_id":"4","last_reported":1744539023,"current_range_meters":20400,"station_id":"ce4bhkp2rcd13ifvqgd0","pricing_plan_id":"cebpf4jnsgd1na2vs0mg"},{"bike_id":"102ae3b4-4dda-4d49-ac32-db2d4285b0f9","system_id":"levelo_inurba_marseille","lat":43.29196,"lon":5.357908,"is_reserved":false,"is_disabled":false,"rental_uris":{"android":"levelo://app?vid=102ae3b4-4dda-4d49-ac32-db2d4285b0f9","ios":"levelo://app?vid=102ae3b4-4dda-4d49-ac32-db2d4285b0f9"},"vehicle_type_id":"4","last_reported":1744539023,"current_range_meters":20400,"station_id":"ce4bhb12rcd13ifvqel0","pricing_plan_id":"cebpf4jnsgd1na2vs0mg"},{"bike_id":"e51a95f6-2b86-495c-950f-ff17d7b35740","system_id":"levelo_inurba_marseille","lat":43.29002,"lon":5.35611,"is_reserved":false,"is_disabled":false,"rental_uris":{"android":"levelo://app?vid=e51a95f6-2b86-495c-950f-ff17d7b35740","ios":"levelo://app?vid=e51a95f6-2b86-495c-950f-ff17d7b35740"},"vehicle_type_id":"4","last_reported":1744539023,"current_range_meters":20000,"station_id":"ce4bhb92rcd13ifvqen0","pricing_plan_id":"cebpf4jnsgd1na2vs0mg"},{"bike_id":"f7778b35-580b-4ffc-8894-0cc2c856c361","system_id":"levelo_inurba_marseille","lat":43.23965,"lon":5.36624,"is_reserved":false,"is_disabled":false,"rental_uris":{"android":"levelo://app?vid=f7778b35-580b-4ffc-8894-0cc2c856c361","ios":"levelo://app?vid=f7778b35-580b-4ffc-8894-0cc2c856c361"},"vehicle_type_id":"4","last_reported":1744539023,"current_range_meters":20800,"station_id":"ce4bhi12rcd13ifvqfp0","pricing_plan_id":"cebpf4jnsgd1na2vs0mg"},{"bike_id":"2eea1de6-53e8-46de-b4f0-e8d0fadefe0c","system_id":"levelo_inurba_marseille","lat":43.25096,"lon":5.40322,"is_reserved":false,"is_disabled":false,"rental_uris":{"android":"levelo://app?vid=2eea1de6-53e8-46de-b4f0-e8d0fadefe0c","ios":"levelo://app?vid=2eea1de6-53e8-46de-b4f0-e8d0fadefe0c"},"vehicle_type_id":"4","last_reported":1744539023,"current_range_meters":20800,"station_id":"ce4bhlh2rcd13ifvqgig","pricing_plan_id":"cebpf4jnsgd1na2vs0mg"},{"bike_id":"407a54c4-ce42-4e1a-bc9b-9b8f2ef8a27a","system_id":"levelo_inurba_marseille","lat":43.32413,"lon":5.39122,"is_reserved":false,"is_disabled":false,"rental_uris":{"android":"levelo://app?vid=407a54c4-ce42-4e1a-bc9b-9b8f2ef8a27a","ios":"levelo://app?vid=407a54c4-ce42-4e1a-bc9b-9b8f2ef8a27a"},"vehicle_type_id":"4","last_reported":1744539023,"current_range_meters":20800,"station_id":"","pricing_plan_id":"cebpf4jnsgd1na2vs0mg"},