{"last_updated":1743847762,"ttl":60,"version":"2.2","data":{"bikes":[{"bike_id":"e3a29d38-a611-4b12-87ef-2fb8a21c41d5","system_id":"levelo_inurba_marseille","lat":43.22928,"lon":5.35367,"is_reserved":false,"is_disabled":false,"rental_uris":{"android":"levelo://app?vid=e3a29d38-a611-4b12-87ef-2fb8a21c41d5","ios":"levelo://app?vid=e3a29d38-a611-4b12-87ef-2fb8a21c41d5"},"vehicle_type_id":"4","last_reported":1743847762,"current_range_meters":2800,"station_id":"cpo3532slgdg3j2ikp40","pricing_plan_id":"cebpf4jnsgd1na2vs0mg"},{"bike_id":"0e88f134-2423-4b08-bc3c-5f7a38937552","system_id":"levelo_inurba_marseille","lat":43.23197,"lon":5.39977,"is_reserved":false,"is_disabled":false,"rental_uris":{"android":"levelo://app?vid=0e88f134-2423-4b08-bc3c-5f7a38937552","ios":"levelo://app?vid=0e88f134-2423-4b08-bc3c-5f7a38937552"},"vehicle_type_id":"4","last_reported":1743847762,"current_range_meters":3200,"station_id":"ce4bhn12rcd13ifvqgqg","pricing_plan_id":"cebpf4jnsgd1na2vs0mg"},{"bike_id":"89382623-7b7f-40e8-a15b-8193cd59c918","system_id":"levelo_inurba_marseille","lat":43.23193,"lon":5.35554,"is_reserved":false,"is_disabled":false,"rental_uris":{"android":"levelo://app?vid=89382623-7b7f-40e8-a15b-8193cd59c918","ios":"levelo://app?vid=89382623-7b7f-40e8-a15b-8193cd59c918"},"vehicle_type_id":"4","last_reported":1743847762,"current_range_meters":3600,"station_id":"ce4bhu92rcd13ifvqi70","pricing_plan_id":"cebpf4jnsgd1na2vs0mg"},{"bike_id":"ea354b83-c7e8-471e-b070-aae28545d36e","system_id":"levelo_inurba_marseille","lat":43.29684,"lon":5.37299,"is_reserved":false,"is_disabled":false,"rental_uris":{"android":"levelo://app?vid=ea354b83-c7e8-471e-b070-aae28545d36e","ios":"levelo://app?vid=ea354b83-c7e8-471e-b070-aae28545d36e"},"vehicle_type_id":"4","last_reported":1743847762,"current_range_meters":3600,"station_id":"ce4bgk12rcd13ifvqbj0","pricing_plan_id":"cebpf4jnsgd1na2vs0mg"},{"bike_id":"6e7e8bd0-971a-4bf5-a521-0d1053f36753","system_id":"levelo_inurba_marseille","lat":43.31075,"lon":5.42448,"is_reserved":false,"is_disabled":true,"rental_uris":{"android":"levelo://app?vid=6e7e8bd0-971a-4bf5-a521-0d1053f36753","ios":"levelo://app?vid=6e7e8bd0-971a-4bf5-a521-0d1053f36753"},"vehicle_type_id":"4","last_reported":1743847762,"current_range_meters":3600,"station_id":"ce4bhp92rcd13ifvqhag","pricing_plan_id":"cebpf4jnsgd1na2vs0mg"},{"bike_id":"dcb30f99-abff-4423-8fc7-5cd2bdfae26a","system_id":"levelo_inurba_marseille","lat":43.27959,"lon":5.38727,"is_reserved":false,"is_disabled":false,"rental_uris":{"android":"levelo://app?vid=dcb30f99-abff-4423-8fc7-5cd2bdfae26a","ios":"levelo://app?vid=dcb30f99-abff-4423-8fc7-5cd2bdfae26a"},"vehicle_type_id":"4","last_reported":1743847762,"current_range_meters":3600,"station_id":"ce4bhg12rcd13ifvqf80","pricing_plan_id":"cebpf4jnsgd1na2vs0mg"},{"bike_id":"634ef7ce-3fff-49c5-aa58-986010868891","system_id":"levelo_inurba_marseille","lat":43.27995,"lon":5.40009,"is_reserved":false,"is_disabled":false,"rental_uris":{"android":"levelo://app?vid=634ef7ce-3fff-49c5-aa58-986010868891","ios":"levelo://app?vid=634ef7ce-3fff-49c5-aa58-986010868891"},"vehicle_type_id":"4","last_reported":1743847762,"current_range_meters":4000,"station_id":"ce4bho92rcd13ifvqh4g","pricing_plan_id":"cebpf4jnsgd1na2vs0mg"},{"bike_id":"47f335c4-0c69-4d6f-a72f-4b1699aaaa5e","system_id":"levelo_inurba_marseille","lat":43.298673,"lon":5.397313,"is_reserved":false,"is_disabled":false,"rental_uris":{"android":"levelo://app?vid=47f335c4-0c69-4d6f-a72f-4b1699aaaa5e","ios":"levelo://app?vid=47f335c4-0c69-4d6f-a72f-4b1699aaaa5e"},"vehicle_type_id":"4","last_reported":1743847762,"current_range_meters":4000,"station_id":"ce4bh0h2rcd13ifvqd50","pricing_plan_id":"cebpf4jnsgd1na2vs0mg"},{"bike_id":"5809aa2a-6e8b-4396-909a-e4f6a1a76cf5","system_id":"levelo_inurba_marseille","lat":43.23957,"lon":5.36628,"is_reserved":false,"is_disabled":true,"rental_uris":{"android":"levelo://app?vid=5809aa2a-6e8b-4396-909a-e4f6a1a76cf5","ios":"levelo://app?vid=5809aa2a-6e8b-4396-909a-e4f6a1a76cf5"},"vehicle_type_id":"4","last_reported":1743847762,"current_range_meters":4000,"station_id":"ce4bhi12rcd13ifvqfp0","pricing_plan_id":"cebpf4jnsgd1na2vs0mg"},{"bike_id":"1de2d743-ad14-4131-bff4-8f23e3a7773f","system_id":"levelo_inurba_marseille","lat":43.30565,"lon":5.36524,"is_reserved":false,"is_disabled":false,"rental_uris":{"android":"levelo://app?vid=1de2d743-ad14-4131-bff4-8f23e3a7773f","ios":"levelo://app?vid=1de2d743-ad14-4131-bff4-8f23e3a7773f"},"vehicle_type_id":"4","last_reported":1743847762,"current_range_meters":4000,"station_id":"ce4bgs12rcd13ifvqcag","pricing_plan_id":"cebpf4jnsgd1na2vs0mg"},{"bike_id":"2c80f587-4d4d-4836-945e-3795e287c08b","system_id":"levelo_inurba_marseille","lat":43.23147,"lon":5.4371,"is_reserved":false,"is_disabled":false,"rental_uris":{"android":"levelo://app?vid=2c80f587-4d4d-4836-945e-3795e287c08b","ios":"levelo://app?vid=2c80f587-4d4d-4836-945e-3795e287c08b"},"vehicle_type_id":"4","last_reported":1743847762,"current_range_meters":4400,"station_id":"ce4bhmp2rcd13ifvqgog","pricing_plan_id":"cebpf4jnsgd1na2vs0mg"},{"bike_id":"65cdd327-5083-4dab-9a68-2a7cc28422cc","system_id":"levelo_inurba_marseille","lat":43.23057,"lon":5.35493,"is_reserved":false,"is_disabled":false,"rental_uris":{"android":"levelo://app?vid=65cdd327-5083-4dab-9a68-2a7cc28422cc","ios":"levelo://app?vid=65cdd327-5083-4dab-9a68-2a7cc28422cc"},"vehicle_type_id":"4","last_reported":1743847762,"current_range_meters":4400,"station_id":"cpo3342slgdg3j2ifvpg","pricing_plan_id":"cebpf4jnsgd1na2vs0mg"},{"bike_id":"b36a144b-695a-459f-8142-c4e75e1c48d3","system_id":"levelo_inurba_marseille","lat":43.24165,"lon":5.36393,"is_reserved":false,"is_disabled":false,"rental_uris":{"android":"levelo://app?vid=b36a144b-695a-459f-8142-c4e75e1c48d3","ios":"levelo://app?vid=b36a144b-695a-459f-8142-c4e75e1c48d3"},"vehicle_type_id":"4","last_reported":1743847762,"current_range_meters":4800,"station_id":"cpo36qri1sfpv3e86is0","pricing_plan_id":"cebpf4jnsgd1na2vs0mg"},{"bike_id":"b6e73fff-ccbc-4536-93d2-185678c34449","system_id":"levelo_inurba_marseille","lat":43.2119,"lon":5.35069,"is_reserved":false,"is_disabled":false,"rental_uris":{"android":"levelo://app?vid=b6e73fff-ccbc-4536-93d2-185678c34449","ios":"levelo://app?vid=b6e73fff-ccbc-4536-93d2-185678c34449"},"vehicle_type_id":"4","last_reported":1743847762,"current_range_meters":4800,"station_id":"st_cvj6sg6p6f1abm77japg","pricing_plan_id":"cebpf4jnsgd1na2vs0mg"},{"bike_id":"9e7e25b2-a9b2-469c-a691-1c3deb34a9e9","system_id":"levelo_inurba_marseille","lat":43.21182,"lon":5.35065,"is_reserved":false,"is_disabled":false,"rental_uris":{"android":"levelo://app?vid=9e7e25b2-a9b2-469c-a691-1c3deb34a9e9","ios":"levelo://app?vid=9e7e25b2-a9b2-469c-a691-1c3deb34a9e9"},"vehicle_type_id":"4","last_reported":1743847762,"current_range_meters":5600,"station_id":"","pricing_plan_id":"cebpf4jnsgd1na2vs0mg"},{"bike_id":"09db4a91-984c-497c-b272-724cdd009a67","system_id":"levelo_inurba_marseille","lat":43.3136,"lon":5.38497,"is_reserved":false,"is_disabled":true,"rental_uris":{"android":"levelo://app?vid=09db4a91-984c-497c-b272-724cdd009a67","ios":"levelo://app?vid=09db4a91-984c-497c-b272-724cdd009a67"},"vehicle_type_id":"4","last_reported":1743847762,"current_range_meters":5600,"station_id":"ce4bgt92rcd13ifvqcf0","pricing_plan_id":"cebpf4jnsgd1na2vs0mg"},{"bike_id":"0a35f0de-8b05-4e5c-bef1-a39b2c70d5f2","system_id":"levelo_inurba_marseille","lat":43.23146,"lon":5.43706,"is_reserved":false,"is_disabled":false,"rental_uris":{"android":"levelo://app?vid=0a35f0de-8b05-4e5c-bef1-a39b2c70d5f2","ios":"levelo://app?vid=0a35f0de-8b05-4e5c-bef1-a39b2c70d5f2"},"vehicle_type_id":"4","last_reported":1743847762,"current_range_meters":5600,"station_id":"ce4bhmp2rcd13ifvqgog","pricing_plan_id":"cebpf4jnsgd1na2vs0mg"},{"bike_id":"0d4d6691-b3a3-49d8-8eac-677370bcc341","system_id":"levelo_inurba_marseille","lat":43.28154,"lon":5.42649,"is_reserved":false,"is_disabled":false,"rental_uris":{"android":"levelo://app?vid=0d4d6691-b3a3-49d8-8eac-677370bcc341","ios":"levelo://app?vid=0d4d6691-b3a3-49d8-8eac-677370bcc341"},"vehicle_type_id":"4","last_reported":1743847762,"current_range_meters":5600,"station_id":"ce4bhnh2rcd13ifvqgug","pricing_plan_id":"cebpf4jnsgd1na2vs0mg"},{"bike_id":"f51cf639-58a1-4912-8de6-b6781cdcf3e6","system_id":"levelo_inurba_marseille","lat":43.29568,"lon":5.39972,"is_reserved":false,"is_disabled":false,"rental_uris":{"android":"levelo://app?vid=f51cf639-58a1-4912-8de6-b6781cdcf3e6","ios":"levelo://app?vid=f51cf639-58a1-4912-8de6-b6781cdcf3e6"},"vehicle_type_id":"4","last_reported":1743847762,"current_range_meters":6000,"station_id":"ce4bh312rcd13ifvqdj0","pricing_plan_id":"cebpf4jnsgd1na2vs0mg"},{"bike_id":"69c0db05-6ded-4dc6-9720-2452c83c1020","system_id":"levelo_inurba_marseille","lat":43.22924,"lon":5.35381,"is_reserved":false,"is_disabled":false,"rental_uris":{"android":"levelo://app?vid=69c0db05-6ded-4dc6-9720-2452c83c1020","ios":"levelo://app?vid=69c0db05-6ded-4dc6-9720-2452c83c1020"},"vehicle_type_id":"4","last_reported":1743847762,"current_range_meters":6000,"station_id":"cpo3532slgdg3j2ikp40","pricing_plan_id":"cebpf4jnsgd1na2vs0mg"},{"bike_id":"89739bc3-b383-4edd-8dbe-08157a76aa7a","system_id":"levelo_inurba_marseille","lat":43.27373,"lon":5.36257,"is_reserved":false,"is_disabled":false,"rental_uris":{"android":"levelo://app?vid=89739bc3-b383-4edd-8dbe-08157a76aa7a","ios":"levelo://app?vid=89739bc3-b383-4edd-8dbe-08157a76aa7a"},"vehicle_type_id":"4","last_reported":1743847762,"current_range_meters":6000,"station_id":"ce4bhbh2rcd13ifvqeo0","pricing_plan_id":"cebpf4jnsgd1na2vs0mg"},{"bike_id":"36d996d1-147d-4367-84e7-9ff54765b37a","system_id":"levelo_inurba_marseille","lat":43.23195,"lon":5.35567,"is_reserved":false,"is_disabled":false,"rental_uris":{"android":"levelo://app?vid=36d996d1-147d-4367-84e7-9ff54765b37a","ios":"levelo://app?vid=36d996d1-147d-4367-84e7-9ff54765b37a"},"vehicle_type_id":"4","last_reported":1743847762,"current_range_meters":6400,"station_id":"ce4bhu92rcd13ifvqi70","pricing_plan_id":"cebpf4jnsgd1na2vs0mg"},{"bike_id":"c50edd2b-88dd-434e-b794-36692e2c1f27","system_id":"levelo_inurba_marseille","lat":43.28418,"lon":5.34974,"is_reserved":false,"is_disabled":false,"rental_uris":{"android":"levelo://app?vid=c50edd2b-88dd-434e-b794-36692e2c1f27","ios":"levelo://app?vid=c50edd2b-88dd-434e-b794-36692e2c1f27"},"vehicle_type_id":"4","last_reported":1743847762,"current_range_meters":6400,"station_id":"ce4bhbh2rcd13ifvqepg","pricing_plan_id":"cebpf4jnsgd1na2vs0mg"},{"bike_id":"758c2355-846a-4f3d-bcd8-eac4b3145cd6","system_id":"levelo_inurba_marseille","lat":43.23198,"lon":5.3556,"is_reserved":false,"is_disabled":false,"rental_uris":{"android":"levelo://app?vid=758c2355-846a-4f3d-bcd8-eac4b3145cd6","ios":"levelo://app?vid=758c2355-846a-4f3d-bcd8-eac4b3145cd6"},"vehicle_type_id":"4","last_reported":1743847762,"current_range_meters":6400,"station_id":"ce4bhu92rcd13ifvqi70","pricing_plan_id":"cebpf4jnsgd1na2vs0mg"},{"bike_id":"ed034283-1492-4da7-9409-35bdead80f30","system_id":"levelo_inurba_marseille","lat":43.30078,"lon":5.38585,"is_reserved":false,"is_disabled":true,"rental_uris":{"android":"levelo://app?vid=ed034283-1492-4da7-9409-35bdead80f30","ios":"levelo://app?vid=ed034283-1492-4da7-9409-35bdead80f30"},"vehicle_type_id":"4","last_reported":1743847762,"current_range_meters":6400,"station_id":"ce4bgj92rcd13ifvqbd0","pricing_plan_id":"cebpf4jnsgd1na2vs0mg"},{"bike_id":"f7a0fbd9-e32f-4506-bd05-b3d08d4a83c3","system_id":"levelo_inurba_marseille","lat":43.29268,"lon":5.38435,"is_reserved":false,"is_disabled":false,"rental_uris":{"android":"levelo://app?vid=f7a0fbd9-e32f-4506-bd05-b3d08d4a83c3","ios":"levelo://app?vid=f7a0fbd9-e32f-4506-bd05-b3d08d4a83c3"},"vehicle_type_id":"4","last_reported":1743847762,"current_range_meters":6800,"station_id":"ce4bh692rcd13ifvqea0","pricing_plan_id":"cebpf4jnsgd1na2vs0mg"},{"bike_id":"7262fe25-3de4-4b44-955c-5d2adcc8826c","system_id":"levelo_inurba_marseille","lat":43.21191,"lon":5.35073,"is_reserved":false,"is_disabled":false,"rental_uris":{"android":"levelo://app?vid=7262fe25-3de4-4b44-955c-5d2adcc8826c","ios":"levelo://app?vid=7262fe25-3de4-4b44-955c-5d2adcc8826c"},"vehicle_type_id":"4","last_reported":1743847762,"current_range_meters":6800,"station_id":"st_cvj6sg6p6f1abm77japg","pricing_plan_id":"cebpf4jnsgd1na2vs0mg"},{"bike_id":"c978b331-dbe9-4b57-a266-52675c83e8bd","system_id":"levelo_inurba_marseille","lat":43.273843,"lon":5.3626,"is_reserved":false,"is_disabled":false,"rental_uris":{"android":"levelo://app?vid=c978b331-dbe9-4b57-a266-52675c83e8bd","ios":"levelo://app?vid=c978b331-dbe9-4b57-a266-52675c83e8bd"},"vehicle_type_id":"4","last_reported":1743847762,"current_range_meters":6800,"station_id":"ce4bhbh2rcd13ifvqeo0","pricing_plan_id":"cebpf4jnsgd1na2vs0mg"},{"bike_id":"e185eff1-e2ea-4d3a-aa73-7219c8c5ecaf","system_id":"levelo_inurba_marseille","lat":43.2971,"lon":5.36608,"is_reserved":false,"is_disabled":false,"rental_uris":{"android":"levelo://app?vid=e185eff1-e2ea-4d3a-aa73-7219c8c5ecaf","ios":"levelo://app?vid=e185eff1-e2ea-4d3a-aa73-7219c8c5ecaf"},"vehicle_type_id":"4","last_reported":1743847762,"current_range_meters":6800,"station_id":"ce4bgn12rcd13ifvqbt0","pricing_plan_id":"cebpf4jnsgd1na2vs0mg"},{"bike_id":"a7d25e4f-2da3-42fe-8518-f5570ba8c5ed","system_id":"levelo_inurba_marseille","lat":43.30544,"lon":5.38436,"is_reserved":false,"is_disabled":true,"rental_uris":{"android":"levelo://app?vid=a7d25e4f-2da3-42fe-8518-f5570ba8c5ed","ios":"levelo://app?vid=a7d25e4f-2da3-42fe-8518-f5570ba8c5ed"},"vehicle_type_id":"4","last_reported":1743847762,"current_range_meters":6800,"station_id":"ce4bgg92rcd13ifvqb30","pricing_plan_id":"cebpf4jnsgd1na2vs0mg"},{"bike_id":"84cb6a00-1e5f-4158-8868-297d5b58cc66","system_id":"levelo_inurba_marseille","lat":43.2761,"lon":5.36105,"is_reserved":false,"is_disabled":false,"rental_uris":{"android":"levelo://app?vid=84cb6a00-1e5f-4158-8868-297d5b58cc66","ios":"levelo://app?vid=84cb6a00-1e5f-4158-8868-297d5b58cc66"},"vehicle_type_id":"4","last_reported":1743847762,"current_range_meters":7200,"station_id":"ce4bgj92rcd13ifvqbe0","pricing_plan_id":"cebpf4jnsgd1na2vs0mg"},{"bike_id":"6aa58c3e-36f0-401d-a819-94ed2f71ff70","system_id":"levelo_inurba_marseille","lat":43.286698,"lon":5.363503,"is_reserved":false,"is_disabled":false,"rental_uris":{"android":"levelo://app?vid=6aa58c3e-36f0-401d-a819-94ed2f71ff70","ios":"levelo://app?vid=6aa58c3e-36f0-401d-a819-94ed2f71ff70"},"vehicle_type_id":"4","last_reported":1743847762,"current_range_meters":6800,"station_id":"ce4bhah2rcd13ifvqej0","pricing_plan_id":"cebpf4jnsgd1na2vs0mg"},{"bike_id":"2025cee4-ef23-4e3d-af45-dd6492aad770","system_id":"levelo_inurba_marseille","lat":43.25493,"lon":5.37646,"is_reserved":false,"is_disabled":false,"rental_uris":{"android":"levelo://app?vid=2025cee4-ef23-4e3d-af45-dd6492aad770","ios":"levelo://app?vid=2025cee4-ef23-4e3d-af45-dd6492aad770"},"vehicle_type_id":"4","last_reported":1743847762,"current_range_meters":7200,"station_id":"ce4bhh12rcd13ifvqff0","pricing_plan_id":"cebpf4jnsgd1na2vs0mg"},{"bike_id":"dd3783a6-946f-42b8-96d6-130f3d7f24ff","system_id":"levelo_inurba_marseille","lat":43.2656,"lon":5.39011,"is_reserved":false,"is_disabled":false,"rental_uris":{"android":"levelo://app?vid=dd3783a6-946f-42b8-96d6-130f3d7f24ff","ios":"levelo://app?vid=dd3783a6-946f-42b8-96d6-130f3d7f24ff"},"vehicle_type_id":"4","last_reported":1743847762,"current_range_meters":7200,"station_id":"ce4bhe12rcd13ifvqf30","pricing_plan_id":"cebpf4jnsgd1na2vs0mg"},{"bike_id":"50297066-959d-45c5-a71e-b062cc3724ec","system_id":"levelo_inurba_marseille","lat":43.308,"lon":5.37305,"is_reserved":false,"is_disabled":false,"rental_uris":{"android":"levelo://app?vid=50297066-959d-45c5-a71e-b062cc3724ec","ios":"levelo://app?vid=50297066-959d-45c5-a71e-b062cc3724ec"},"vehicle_type_id":"4","last_reported":1743847762,"current_range_meters":7200,"station_id":"","pricing_plan_id":"cebpf4jnsgd1na2vs0mg"},{"bike_id":"ac763f37-3cd2-440c-b42a-fc3efbb304a2","system_id":"levelo_inurba_marseille","lat":43.2439,"lon":5.37066,"is_reserved":false,"is_disabled":false,"rental_uris":{"android":"levelo://app?vid=ac763f37-3cd2-440c-b42a-fc3efbb304a2","ios":"levelo://app?vid=ac763f37-3cd2-440c-b42a-fc3efbb304a2"},"vehicle_type_id":"4","last_reported":1743847762,"current_range_meters":7200,"station_id":"ce4bhhh2rcd13ifvqfk0","pricing_plan_id":"cebpf4jnsgd1na2vs0mg"},{"bike_id":"01df6e66-46fc-4534-a047-73bad96a9912","system_id":"levelo_inurba_marseille","lat":43.29876,"lon":5.39734,"is_reserved":false,"is_disabled":false,"rental_uris":{"android":"levelo://app?vid=01df6e66-46fc-4534-a047-73bad96a9912","ios":"levelo://app?vid=01df6e66-46fc-4534-a047-73bad96a9912"},"vehicle_type_id":"4","last_reported":1743847762,"current_range_meters":8000,"station_id":"ce4bh0h2rcd13ifvqd50","pricing_plan_id":"cebpf4jnsgd1na2vs0mg"},{"bike_id":"85569c5e-792a-4809-8948-6b3410ae7c98","system_id":"levelo_inurba_marseille","lat":43.24689,"lon":5.4119,"is_reserved":false,"is_disabled":false,"rental_uris":{"android":"levelo://app?vid=85569c5e-792a-4809-8948-6b3410ae7c98","ios":"levelo://app?vid=85569c5e-792a-4809-8948-6b3410ae7c98"},"vehicle_type_id":"4","last_reported":1743847762,"current_range_meters":8000,"station_id":"","pricing_plan_id":"cebpf4jnsgd1na2vs0mg"},{"bike_id":"2300e608-9f49-4219-a239-0a93902d8d11","system_id":"levelo_inurba_marseille","lat":43.30734,"lon":5.42449,"is_reserved":false,"is_disabled":false,"rental_uris":{"android":"levelo://app?vid=2300e608-9f49-4219-a239-0a93902d8d11","ios":"levelo://app?vid=2300e608-9f49-4219-a239-0a93902d8d11"},"vehicle_type_id":"4","last_reported":1743847762,"current_range_meters":8000,"station_id":"st_cvj6ca6bvosntc0bfgr0","pricing_plan_id":"cebpf4jnsgd1na2vs0mg"},{"bike_id":"3a673a01-13fc-4ed6-b9b1-08a0faf2fd75","system_id":"levelo_inurba_marseille","lat":43.2318,"lon":5.39997,"is_reserved":false,"is_disabled":false,"rental_uris":{"android":"levelo://app?vid=3a673a01-13fc-4ed6-b9b1-08a0faf2fd75","ios":"levelo://app?vid=3a673a01-13fc-4ed6-b9b1-08a0faf2fd75"},"vehicle_type_id":"4","last_reported":1743847762,"current_range_meters":8000,"station_id":"ce4bhn12rcd13ifvqgqg","pricing_plan_id":"cebpf4jnsgd1na2vs0mg"},{"bike_id":"ed562682-b9c4-45a5-a5d9-628992c2c17c","system_id":"levelo_inurba_marseille","lat":43.3303,"lon":5.39033,"is_reserved":false,"is_disabled":false,"rental_uris":{"android":"levelo://app?vid=ed562682-b9c4-45a5-a5d9-628992c2c17c","ios":"levelo://app?vid=ed562682-b9c4-45a5-a5d9-628992c2c17c"},"vehicle_type_id":"4","last_reported":1743847762,"current_range_meters":8400,"station_id":"ce4bhr92rcd13ifvqhrg","pricing_plan_id":"cebpf4jnsgd1na2vs0mg"},{"bike_id":"260730f8-7a0a-4a9c-ba04-0f465d5c24e5","system_id":"levelo_inurba_marseille","lat":43.29519,"lon":5.3941,"is_reserved":false,"is_disabled":false,"rental_uris":{"android":"levelo://app?vid=260730f8-7a0a-4a9c-ba04-0f465d5c24e5","ios":"levelo://app?vid=260730f8-7a0a-4a9c-ba04-0f465d5c24e5"},"vehicle_type_id":"4","last_reported":1743847762,"current_range_meters":8400,"station_id":"ce4bh292rcd13ifvqdf0","pricing_plan_id":"cebpf4jnsgd1na2vs0mg"},{"bike_id":"908c0033-ebf3-400a-acb3-0a621b83539f","system_id":"levelo_inurba_marseille","lat":43.23199,"lon":5.39993,"is_reserved":false,"is_disabled":false,"rental_uris":{"android":"levelo://app?vid=908c0033-ebf3-400a-acb3-0a621b83539f","ios":"levelo://app?vid=908c0033-ebf3-400a-acb3-0a621b83539f"},"vehicle_type_id":"4","last_reported":1743847762,"current_range_meters":8400,"station_id":"ce4bhn12rcd13ifvqgqg","pricing_plan_id":"cebpf4jnsgd1na2vs0mg"},{"bike_id":"7161f76e-a0b6-438f-a036-b3d8f13966af","system_id":"levelo_inurba_marseille","lat":43.27808,"lon":5.40715,"is_reserved":false,"is_disabled":false,"rental_uris":{"android":"levelo://app?vid=7161f76e-a0b6-438f-a036-b3d8f13966af","ios":"levelo://app?vid=7161f76e-a0b6-438f-a036-b3d8f13966af"},"vehicle_type_id":"4","last_reported":1743847762,"current_range_meters":8400,"station_id":"ce4bhnh2rcd13ifvqgtg","pricing_plan_id":"cebpf4jnsgd1na2vs0mg"},{"bike_id":"68d6a5cf-aad5-46de-b094-a55629a65bd1","system_id":"levelo_inurba_marseille","lat":43.26562,"lon":5.37293,"is_reserved":false,"is_disabled":false,"rental_uris":{"android":"levelo://app?vid=68d6a5cf-aad5-46de-b094-a55629a65bd1","ios":"levelo://app?vid=68d6a5cf-aad5-46de-b094-a55629a65bd1"},"vehicle_type_id":"4","last_reported":1743847762,"current_range_meters":8800,"station_id":"ce4bhg12rcd13ifvqf70","pricing_plan_id":"cebpf4jnsgd1na2vs0mg"},{"bike_id":"783ef245-163c-4c81-b038-df23059b7c57","system_id":"levelo_inurba_marseille","lat":43.310755,"lon":5.383546,"is_reserved":false,"is_disabled":false,"rental_uris":{"android":"levelo://app?vid=783ef245-163c-4c81-b038-df23059b7c57","ios":"levelo://app?vid=783ef245-163c-4c81-b038-df23059b7c57"},"vehicle_type_id":"4","last_reported":1743847762,"current_range_meters":8800,"station_id":"","pricing_plan_id":"cebpf4jnsgd1na2vs0mg"},{"bike_id":"a1cc8429-7f5d-4c98-838c-0dbc6d7c247e","system_id":"levelo_inurba_marseille","lat":43.28155,"lon":5.42643,"is_reserved":false,"is_disabled":false,"rental_uris":{"android":"levelo://app?vid=a1cc8429-7f5d-4c98-838c-0dbc6d7c247e","ios":"levelo://app?vid=a1cc8429-7f5d-4c98-838c-0dbc6d7c247e"},"vehicle_type_id":"4","last_reported":1743847762,"current_range_meters":8800,"station_id":"ce4bhnh2rcd13ifvqgug","pricing_plan_id":"cebpf4jnsgd1na2vs0mg"},{"bike_id":"ae85a7a4-7c38-4e25-9e50-a9a925b58789","system_id":"levelo_inurba_marseille","lat":43.31081,"lon":5.42432,"is_reserved":false,"is_disabled":false,"rental_uris":{"android":"levelo://app?vid=ae85a7a4-7c38-4e25-9e50-a9a925b58789","ios":"levelo://app?vid=ae85a7a4-7c38-4e25-9e50-a9a925b58789"},"vehicle_type_id":"4","last_reported":1743847762,"current_range_meters":8800,"station_id":"ce4bhp92rcd13ifvqhag","pricing_plan_id":"cebpf4jnsgd1na2vs0mg"},{"bike_id":"8980209c-4b8c-4f30-a818-89a0aaa71deb","system_id":"levelo_inurba_marseille","lat":43.24392,"lon":5.37059,"is_reserved":false,"is_disabled":false,"rental_uris":{"android":"levelo://app?vid=8980209c-4b8c-4f30-a818-89a0aaa71deb","ios":"levelo://app?vid=8980209c-4b8c-4f30-a818-89a0aaa71deb"},"vehicle_type_id":"4","last_reported":1743847762,"current_range_meters":9200,"station_id":"ce4bhhh2rcd13ifvqfk0","pricing_plan_id":"cebpf4jnsgd1na2vs0mg"},{"bike_id":"3b4ad8c6-6244-4378-90d7-dac703d1508d","system_id":"levelo_inurba_marseille","lat":43.23204,"lon":5.35577,"is_reserved":false,"is_disabled":false,"rental_uris":{"android":"levelo://app?vid=3b4ad8c6-6244-4378-90d7-dac703d1508d","ios":"levelo://app?vid=3b4ad8c6-6244-4378-90d7-dac703d1508d"},"vehicle_type_id":"4","last_reported":1743847762,"current_range_meters":9200,"station_id":"ce4bhu92rcd13ifvqi70","pricing_plan_id":"cebpf4jnsgd1na2vs0mg"},{"bike_id":"05e7916e-8baf-4463-96da-e123e0d68050","system_id":"levelo_inurba_marseille","lat":43.27973,"lon":5.38747,"is_reserved":false,"is_disabled":false,"rental_uris":{"android":"levelo://app?vid=05e7916e-8baf-4463-96da-e123e0d68050","ios":"levelo://app?vid=05e7916e-8baf-4463-96da-e123e0d68050"},"vehicle_type_id":"4","last_reported":1743847762,"current_range_meters":9200,"station_id":"ce4bhg12rcd13ifvqf80","pricing_plan_id":"cebpf4jnsgd1na2vs0mg"},{"bike_id":"203176fb-52f7-45ec-88b4-caa4115f7b7b","system_id":"levelo_inurba_marseille","lat":43.29625,"lon":5.40025,"is_reserved":false,"is_disabled":false,"rental_uris":{"android":"levelo://app?vid=203176fb-52f7-45ec-88b4-caa4115f7b7b","ios":"levelo://app?vid=203176fb-52f7-45ec-88b4-caa4115f7b7b"},"vehicle_type_id":"4","last_reported":1743847762,"current_range_meters":9200,"station_id":"","pricing_plan_id":"cebpf4jnsgd1na2vs0mg"},{"bike_id":"e0fc34f6-0214-440a-9ed4-af39ae5d38dd","system_id":"levelo_inurba_marseille","lat":43.22502,"lon":5.34785,"is_reserved":false,"is_disabled":false,"rental_uris":{"android":"levelo://app?vid=e0fc34f6-0214-440a-9ed4-af39ae5d38dd","ios":"levelo://app?vid=e0fc34f6-0214-440a-9ed4-af39ae5d38dd"},"vehicle_type_id":"4","last_reported":1743847762,"current_range_meters":9200,"station_id":"","pricing_plan_id":"cebpf4jnsgd1na2vs0mg"},{"bike_id":"6b8df6c6-e69f-416d-869f-6c58b572d426","system_id":"levelo_inurba_marseille","lat":43.23181,"lon":5.39988,"is_reserved":false,"is_disabled":false,"rental_uris":{"android":"levelo://app?vid=6b8df6c6-e69f-416d-869f-6c58b572d426","ios":"levelo://app?vid=6b8df6c6-e69f-416d-869f-6c58b572d426"},"vehicle_type_id":"4","last_reported":1743847762,"current_range_meters":9200,"station_id":"ce4bhn12rcd13ifvqgqg","pricing_plan_id":"cebpf4jnsgd1na2vs0mg"},{"bike_id":"50b740f0-0e7a-49e4-8602-f7e3f67b0535","system_id":"levelo_inurba_marseille","lat":43.31132,"lon":5.37787,"is_reserved":false,"is_disabled":false,"rental_uris":{"android":"levelo://app?vid=50b740f0-0e7a-49e4-8602-f7e3f67b0535","ios":"levelo://app?vid=50b740f0-0e7a-49e4-8602-f7e3f67b0535"},"vehicle_type_id":"4","last_reported":1743847762,"current_range_meters":9200,"station_id":"ce4bgt92rcd13ifvqcg0","pricing_plan_id":"cebpf4jnsgd1na2vs0mg"},{"bike_id":"a07480da-f5a9-4597-b3e6-cc405effeae7","system_id":"levelo_inurba_marseille","lat":43.28945,"lon":5.39639,"is_reserved":false,"is_disabled":false,"rental_uris":{"android":"levelo://app?vid=a07480da-f5a9-4597-b3e6-cc405effeae7","ios":"levelo://app?vid=a07480da-f5a9-4597-b3e6-cc405effeae7"},"vehicle_type_id":"4","last_reported":1743847762,"current_range_meters":9600,"station_id":"ce4bh3h2rcd13ifvqdn0","pricing_plan_id":"cebpf4jnsgd1na2vs0mg"},{"bike_id":"518e2930-11db-4cd5-a3a0-6d7b8a1b00cd","system_id":"levelo_inurba_marseille","lat":43.26552,"lon":5.37287,"is_reserved":false,"is_disabled":false,"rental_uris":{"android":"levelo://app?vid=518e2930-11db-4cd5-a3a0-6d7b8a1b00cd","ios":"levelo://app?vid=518e2930-11db-4cd5-a3a0-6d7b8a1b00cd"},"vehicle_type_id":"4","last_reported":1743847762,"current_range_meters":9600,"station_id":"ce4bhg12rcd13ifvqf70","pricing_plan_id":"cebpf4jnsgd1na2vs0mg"},{"bike_id":"341739e2-ff83-4ca4-86df-11ab5d855f02","system_id":"levelo_inurba_marseille","lat":43.28467,"lon":5.38408,"is_reserved":false,"is_disabled":false,"rental_uris":{"android":"levelo://app?vid=341739e2-ff83-4ca4-86df-11ab5d855f02","ios":"levelo://app?vid=341739e2-ff83-4ca4-86df-11ab5d855f02"},"vehicle_type_id":"4","last_reported":1743847762,"current_range_meters":9600,"station_id":"ce4bh512rcd13ifvqe3g","pricing_plan_id":"cebpf4jnsgd1na2vs0mg"},{"bike_id":"8912d3e0-0b9f-4bb1-a542-098ca8549b59","system_id":"levelo_inurba_marseille","lat":43.24151,"lon":5.36453,"is_reserved":false,"is_disabled":false,"rental_uris":{"android":"levelo://app?vid=8912d3e0-0b9f-4bb1-a542-098ca8549b59","ios":"levelo://app?vid=8912d3e0-0b9f-4bb1-a542-098ca8549b59"},"vehicle_type_id":"4","last_reported":1743847762,"current_range_meters":9600,"station_id":"cpo36qri1sfpv3e86is0","pricing_plan_id":"cebpf4jnsgd1na2vs0mg"},{"bike_id":"9a055327-5ba2-482f-b223-d78608155b28","system_id":"levelo_inurba_marseille","lat":43.28427,"lon":5.34999,"is_reserved":false,"is_disabled":false,"rental_uris":{"android":"levelo://app?vid=9a055327-5ba2-482f-b223-d78608155b28","ios":"levelo://app?vid=9a055327-5ba2-482f-b223-d78608155b28"},"vehicle_type_id":"4","last_reported":1743847762,"current_range_meters":9600,"station_id":"ce4bhbh2rcd13ifvqepg","pricing_plan_id":"cebpf4jnsgd1na2vs0mg"},{"bike_id":"d2a48533-df30-434d-b538-508481c69b3c","system_id":"levelo_inurba_marseille","lat":43.292264,"lon":5.360512,"is_reserved":false,"is_disabled":false,"rental_uris":{"android":"levelo://app?vid=d2a48533-df30-434d-b538-508481c69b3c","ios":"levelo://app?vid=d2a48533-df30-434d-b538-508481c69b3c"},"vehicle_type_id":"4","last_reported":1743847762,"current_range_meters":9600,"station_id":"ce4bhbh2rcd13ifvqeqg","pricing_plan_id":"cebpf4jnsgd1na2vs0mg"},{"bike_id":"fb0d4993-67fa-4314-9525-ef2ba9197c72","system_id":"levelo_inurba_marseille","lat":43.30321,"lon":5.4059,"is_reserved":false,"is_disabled":false,"rental_uris":{"android":"levelo://app?vid=fb0d4993-67fa-4314-9525-ef2ba9197c72","ios":"levelo://app?vid=fb0d4993-67fa-4314-9525-ef2ba9197c72"},"vehicle_type_id":"4","last_reported":1743847762,"current_range_meters":9600,"station_id":"","pricing_plan_id":"cebpf4jnsgd1na2vs0mg"},{"bike_id":"f1c20399-473d-4f50-b067-63611ae70698","system_id":"levelo_inurba_marseille","lat":43.26783,"lon":5.39416,"is_reserved":false,"is_disabled":false,"rental_uris":{"android":"levelo://app?vid=f1c20399-473d-4f50-b067-63611ae70698","ios":"levelo://app?vid=f1c20399-473d-4f50-b067-63611ae70698"},"vehicle_type_id":"4","last_reported":1743847762,"current_range_meters":9200,"station_id":"ce4bhh12rcd13ifvqfg0","pricing_plan_id":"cebpf4jnsgd1na2vs0mg"},{"bike_id":"0eb30f16-826e-404e-9494-cbd59d704ab7","system_id":"levelo_inurba_marseille","lat":43.29019,"lon":5.38636,"is_reserved":false,"is_disabled":true,"rental_uris":{"android":"levelo://app?vid=0eb30f16-826e-404e-9494-cbd59d704ab7","ios":"levelo://app?vid=0eb30f16-826e-404e-9494-cbd59d704ab7"},"vehicle_type_id":"4","last_reported":1743847762,"current_range_meters":9600,"station_id":"ce4bh4p2rcd13ifvqe0g","pricing_plan_id":"cebpf4jnsgd1na2vs0mg"},{"bike_id":"f73054cd-f0c6-4c01-b971-9bdacca3978d","system_id":"levelo_inurba_marseille","lat":43.29627,"lon":5.40625,"is_reserved":false,"is_disabled":false,"rental_uris":{"android":"levelo://app?vid=f73054cd-f0c6-4c01-b971-9bdacca3978d","ios":"levelo://app?vid=f73054cd-f0c6-4c01-b971-9bdacca3978d"},"vehicle_type_id":"4","last_reported":1743847762,"current_range_meters":9600,"station_id":"ce4bh0h2rcd13ifvqd60","pricing_plan_id":"cebpf4jnsgd1na2vs0mg"},{"bike_id":"89a892aa-b202-4575-8f3a-efcbf5a6453d","system_id":"levelo_inurba_marseille","lat":43.29004,"lon":5.35608,"is_reserved":false,"is_disabled":false,"rental_uris":{"android":"levelo://app?vid=89a892aa-b202-4575-8f3a-efcbf5a6453d","ios":"levelo://app?vid=89a892aa-b202-4575-8f3a-efcbf5a6453d"},"vehicle_type_id":"4","last_reported":1743847762,"current_range_meters":9600,"station_id":"ce4bhb92rcd13ifvqen0","pricing_plan_id":"cebpf4jnsgd1na2vs0mg"},{"bike_id":"d68bb49e-ae67-46b9-9113-2f1b9eefff70","system_id":"levelo_inurba_marseille","lat":43.31992,"lon":5.38161,"is_reserved":false,"is_disabled":false,"rental_uris":{"android":"levelo://app?vid=d68bb49e-ae67-46b9-9113-2f1b9eefff70","ios":"levelo://app?vid=d68bb49e-ae67-46b9-9113-2f1b9eefff70"},"vehicle_type_id":"4","last_reported":1743847762,"current_range_meters":9600,"station_id":"ce4bhr12rcd13ifvqhpg","pricing_plan_id":"cebpf4jnsgd1na2vs0mg"},{"bike_id":"eb79d1f9-7c91-4ea2-b5f8-796189743e1a","system_id":"levelo_inurba_marseille","lat":43.33723,"lon":5.39185,"is_reserved":false,"is_disabled":false,"rental_uris":{"android":"levelo://app?vid=eb79d1f9-7c91-4ea2-b5f8-796189743e1a","ios":"levelo://app?vid=eb79d1f9-7c91-4ea2-b5f8-796189743e1a"},"vehicle_type_id":"4","last_reported":1743847762,"current_range_meters":10000,"station_id":"ce4bhr92rcd13ifvqhsg","pricing_plan_id":"cebpf4jnsgd1na2vs0mg"},{"bike_id":"d89bb348-a2b2-475f-b66f-22fe74c882fd","system_id":"levelo_inurba_marseille","lat":43.23192,"lon":5.40005,"is_reserved":false,"is_disabled":false,"rental_uris":{"android":"levelo://app?vid=d89bb348-a2b2-475f-b66f-22fe74c882fd","ios":"levelo://app?vid=d89bb348-a2b2-475f-b66f-22fe74c882fd"},"vehicle_type_id":"4","last_reported":1743847762,"current_range_meters":10000,"station_id":"ce4bhn12rcd13ifvqgqg","pricing_plan_id":"cebpf4jnsgd1na2vs0mg"},{"bike_id":"fdad6e5e-1467-4616-9d72-68b29d343e00","system_id":"levelo_inurba_marseille","lat":43.32284,"lon":5.38277,"is_reserved":false,"is_disabled":false,"rental_uris":{"android":"levelo://app?vid=fdad6e5e-1467-4616-9d72-68b29d343e00","ios":"levelo://app?vid=fdad6e5e-1467-4616-9d72-68b29d343e00"},"vehicle_type_id":"4","last_reported":1743847762,"current_range_meters":10000,"station_id":"ce4bhr12rcd13ifvqhqg","pricing_plan_id":"cebpf4jnsgd1na2vs0mg"},{"bike_id":"95df1b46-4651-4e01-99a6-3ccb43dd586c","system_id":"levelo_inurba_marseille","lat":43.28934,"lon":5.39652,"is_reserved":false,"is_disabled":false,"rental_uris":{"android":"levelo://app?vid=95df1b46-4651-4e01-99a6-3ccb43dd586c","ios":"levelo://app?vid=95df1b46-4651-4e01-99a6-3ccb43dd586c"},"vehicle_type_id":"4","last_reported":1743847762,"current_range_meters":10000,"station_id":"ce4bh3h2rcd13ifvqdn0","pricing_plan_id":"cebpf4jnsgd1na2vs0mg"},{"bike_id":"f23e846f-9404-4adc-a826-ee51bb0dfaa2","system_id":"levelo_inurba_marseille","lat":43.3112,"lon":5.37753,"is_reserved":false,"is_disabled":false,"rental_uris":{"android":"levelo://app?vid=f23e846f-9404-4adc-a826-ee51bb0dfaa2","ios":"levelo://app?vid=f23e846f-9404-4adc-a826-ee51bb0dfaa2"},"vehicle_type_id":"4","last_reported":1743847762,"current_range_meters":10000,"station_id":"ce4bgt92rcd13ifvqcg0","pricing_plan_id":"cebpf4jnsgd1na2vs0mg"},{"bike_id":"0fe56348-1ceb-4489-bb37-9e6a56b6a7dc","system_id":"levelo_inurba_marseille","lat":43.23197,"lon":5.3557,"is_reserved":false,"is_disabled":false,"rental_uris":{"android":"levelo://app?vid=0fe56348-1ceb-4489-bb37-9e6a56b6a7dc","ios":"levelo://app?vid=0fe56348-1ceb-4489-bb37-9e6a56b6a7dc"},"vehicle_type_id":"4","last_reported":1743847762,"current_range_meters":10000,"station_id":"ce4bhu92rcd13ifvqi70","pricing_plan_id":"cebpf4jnsgd1na2vs0mg"},{"bike_id":"71512fd7-8c5c-4283-b525-497ee57a36aa","system_id":"levelo_inurba_marseille","lat":43.26685,"lon":5.38272,"is_reserved":false,"is_disabled":false,"rental_uris":{"android":"levelo://app?vid=71512fd7-8c5c-4283-b525-497ee57a36aa","ios":"levelo://app?vid=71512fd7-8c5c-4283-b525-497ee57a36aa"},"vehicle_type_id":"4","last_reported":1743847762,"current_range_meters":10800,"station_id":"ce4bhg92rcd13ifvqf90","pricing_plan_id":"cebpf4jnsgd1na2vs0mg"},{"bike_id":"1511f1b5-ed1b-4798-a3ec-1202c7ce84bc","system_id":"levelo_inurba_marseille","lat":43.30648,"lon":5.40068,"is_reserved":false,"is_disabled":false,"rental_uris":{"android":"levelo://app?vid=1511f1b5-ed1b-4798-a3ec-1202c7ce84bc","ios":"levelo://app?vid=1511f1b5-ed1b-4798-a3ec-1202c7ce84bc"},"vehicle_type_id":"4","last_reported":1743847762,"current_range_meters":10800,"station_id":"ce4bh112rcd13ifvqda0","pricing_plan_id":"cebpf4jnsgd1na2vs0mg"},{"bike_id":"88122bdf-e454-4295-87eb-4f2b4f98db61","system_id":"levelo_inurba_marseille","lat":43.30775,"lon":5.37656,"is_reserved":false,"is_disabled":false,"rental_uris":{"android":"levelo://app?vid=88122bdf-e454-4295-87eb-4f2b4f98db61","ios":"levelo://app?vid=88122bdf-e454-4295-87eb-4f2b4f98db61"},"vehicle_type_id":"4","last_reported":1743847762,"current_range_meters":11200,"station_id":"ce4bgv92rcd13ifvqcq0","pricing_plan_id":"cebpf4jnsgd1na2vs0mg"},{"bike_id":"c8d13d58-1393-4a46-b1e3-76598007846f","system_id":"levelo_inurba_marseille","lat":43.2315,"lon":5.43714,"is_reserved":false,"is_disabled":false,"rental_uris":{"android":"levelo://app?vid=c8d13d58-1393-4a46-b1e3-76598007846f","ios":"levelo://app?vid=c8d13d58-1393-4a46-b1e3-76598007846f"},"vehicle_type_id":"4","last_reported":1743847762,"current_range_meters":11200,"station_id":"ce4bhmp2rcd13ifvqgog","pricing_plan_id":"cebpf4jnsgd1na2vs0mg"},{"bike_id":"e0025ce5-fe29-4293-8000-c88ee2bac657","system_id":"levelo_inurba_marseille","lat":43.31468,"lon":5.39205,"is_reserved":false,"is_disabled":false,"rental_uris":{"android":"levelo://app?vid=e0025ce5-fe29-4293-8000-c88ee2bac657","ios":"levelo://app?vid=e0025ce5-fe29-4293-8000-c88ee2bac657"},"vehicle_type_id":"4","last_reported":1743847762,"current_range_meters":11200,"station_id":"","pricing_plan_id":"cebpf4jnsgd1na2vs0mg"},{"bike_id":"60002657-8d8c-49da-b08f-247fc8583d17","system_id":"levelo_inurba_marseille","lat":43.2926,"lon":5.38435,"is_reserved":false,"is_disabled":false,"rental_uris":{"android":"levelo://app?vid=60002657-8d8c-49da-b08f-247fc8583d17","ios":"levelo://app?vid=60002657-8d8c-49da-b08f-247fc8583d17"},"vehicle_type_id":"4","last_reported":1743847762,"current_range_meters":11600,"station_id":"ce4bh692rcd13ifvqea0","pricing_plan_id":"cebpf4jnsgd1na2vs0mg"},{"bike_id":"c6d94627-e65d-4df8-bc3b-131e91ba4071","system_id":"levelo_inurba_marseille","lat":43.21191,"lon":5.35074,"is_reserved":false,"is_disabled":false,"rental_uris":{"android":"levelo://app?vid=c6d94627-e65d-4df8-bc3b-131e91ba4071","ios":"levelo://app?vid=c6d94627-e65d-4df8-bc3b-131e91ba4071"},"vehicle_type_id":"4","last_reported":1743847762,"current_range_meters":11600,"station_id":"st_cvj6sg6p6f1abm77japg","pricing_plan_id":"cebpf4jnsgd1na2vs0mg"},{"bike_id":"30b57730-cb66-4122-bd93-7dabcaba84e7","system_id":"levelo_inurba_marseille","lat":43.24902,"lon":5.40663,"is_reserved":false,"is_disabled":false,"rental_uris":{"android":"levelo://app?vid=30b57730-cb66-4122-bd93-7dabcaba84e7","ios":"levelo://app?vid=30b57730-cb66-4122-bd93-7dabcaba84e7"},"vehicle_type_id":"4","last_reported":1743847762,"current_range_meters":11600,"station_id":"","pricing_plan_id":"cebpf4jnsgd1na2vs0mg"},{"bike_id":"28e1d4a5-b87f-4802-a355-0735201febbe","system_id":"levelo_inurba_marseille","lat":43.30949,"lon":5.3905,"is_reserved":false,"is_disabled":false,"rental_uris":{"android":"levelo://app?vid=28e1d4a5-b87f-4802-a355-0735201febbe","ios":"levelo://app?vid=28e1d4a5-b87f-4802-a355-0735201febbe"},"vehicle_type_id":"4","last_reported":1743847762,"current_range_meters":11600,"station_id":"ce4bgup2rcd13ifvqco0","pricing_plan_id":"cebpf4jnsgd1na2vs0mg"},{"bike_id":"d5e984d3-343e-4e16-bd54-bc3ebbd48639","system_id":"levelo_inurba_marseille","lat":43.301323,"lon":5.387991,"is_reserved":false,"is_disabled":true,"rental_uris":{"android":"levelo://app?vid=d5e984d3-343e-4e16-bd54-bc3ebbd48639","ios":"levelo://app?vid=d5e984d3-343e-4e16-bd54-bc3ebbd48639"},"vehicle_type_id":"4","last_reported":1743847762,"current_range_meters":12000,"station_id":"ce4bghh2rcd13ifvqb60","pricing_plan_id":"cebpf4jnsgd1na2vs0mg"},{"bike_id":"b0b014ad-5ede-4af3-86b6-2dd480528f10","system_id":"levelo_inurba_marseille","lat":43.31697,"lon":5.4047,"is_reserved":false,"is_disabled":false,"rental_uris":{"android":"levelo://app?vid=b0b014ad-5ede-4af3-86b6-2dd480528f10","ios":"levelo://app?vid=b0b014ad-5ede-4af3-86b6-2dd480528f10"},"vehicle_type_id":"4","last_reported":1743847762,"current_range_meters":12000,"station_id":"ce4bh012rcd13ifvqd00","pricing_plan_id":"cebpf4jnsgd1na2vs0mg"},{"bike_id":"a265faad-6fca-47ab-8731-f6e0c4eab88a","system_id":"levelo_inurba_marseille","lat":43.23828,"lon":5.43222,"is_reserved":false,"is_disabled":false,"rental_uris":{"android":"levelo://app?vid=a265faad-6fca-47ab-8731-f6e0c4eab88a","ios":"levelo://app?vid=a265faad-6fca-47ab-8731-f6e0c4eab88a"},"vehicle_type_id":"4","last_reported":1743847762,"current_range_meters":12000,"station_id":"","pricing_plan_id":"cebpf4jnsgd1na2vs0mg"},{"bike_id":"189e2aac-077b-48ea-85c1-cee9b7ceba62","system_id":"levelo_inurba_marseille","lat":43.30532,"lon":5.36512,"is_reserved":false,"is_disabled":false,"rental_uris":{"android":"levelo://app?vid=189e2aac-077b-48ea-85c1-cee9b7ceba62","ios":"levelo://app?vid=189e2aac-077b-48ea-85c1-cee9b7ceba62"},"vehicle_type_id":"4","last_reported":1743847762,"current_range_meters":12000,"station_id":"","pricing_plan_id":"cebpf4jnsgd1na2vs0mg"},{"bike_id":"4c8a143c-db9a-4a3c-bb0b-2d7a31ecb483","system_id":"levelo_inurba_marseille","lat":43.296997,"lon":5.36615,"is_reserved":false,"is_disabled":false,"rental_uris":{"android":"levelo://app?vid=4c8a143c-db9a-4a3c-bb0b-2d7a31ecb483","ios":"levelo://app?vid=4c8a143c-db9a-4a3c-bb0b-2d7a31ecb483"},"vehicle_type_id":"4","last_reported":1743847762,"current_range_meters":12400,"station_id":"ce4bgn12rcd13ifvqbt0","pricing_plan_id":"cebpf4jnsgd1na2vs0mg"},{"bike_id":"c1c9f656-7af9-4ffc-88f0-8d04555afc4a","system_id":"levelo_inurba_marseille","lat":43.2439,"lon":5.370657,"is_reserved":false,"is_disabled":false,"rental_uris":{"android":"levelo://app?vid=c1c9f656-7af9-4ffc-88f0-8d04555afc4a","ios":"levelo://app?vid=c1c9f656-7af9-4ffc-88f0-8d04555afc4a"},"vehicle_type_id":"4","last_reported":1743847762,"current_range_meters":12400,"station_id":"ce4bh412rcd13ifvqdr0","pricing_plan_id":"cebpf4jnsgd1na2vs0mg"},{"bike_id":"c027c22a-0930-4428-acf9-fd07796293df","system_id":"levelo_inurba_marseille","lat":43.28076,"lon":5.39659,"is_reserved":false,"is_disabled":false,"rental_uris":{"android":"levelo://app?vid=c027c22a-0930-4428-acf9-fd07796293df","ios":"levelo://app?vid=c027c22a-0930-4428-acf9-fd07796293df"},"vehicle_type_id":"4","last_reported":1743847762,"current_range_meters":12400,"station_id":"ce4bho12rcd13ifvqh2g","pricing_plan_id":"cebpf4jnsgd1na2vs0mg"},{"bike_id":"9a9fcdf7-55ad-4c2c-82d2-d8ad6b4ded27","system_id":"levelo_inurba_marseille","lat":43.24387,"lon":5.37064,"is_reserved":false,"is_disabled":false,"rental_uris":{"android":"levelo://app?vid=9a9fcdf7-55ad-4c2c-82d2-d8ad6b4ded27","ios":"levelo://app?vid=9a9fcdf7-55ad-4c2c-82d2-d8ad6b4ded27"},"vehicle_type_id":"4","last_reported":1743847762,"current_range_meters":12400,"station_id":"ce4bhhh2rcd13ifvqfk0","pricing_plan_id":"cebpf4jnsgd1na2vs0mg"},{"bike_id":"c596b7d7-015e-434a-84ea-dc7cb589c92b","system_id":"levelo_inurba_marseille","lat":43.29258,"lon":5.4091,"is_reserved":false,"is_disabled":false,"rental_uris":{"android":"levelo://app?vid=c596b7d7-015e-434a-84ea-dc7cb589c92b","ios":"levelo://app?vid=c596b7d7-015e-434a-84ea-dc7cb589c92b"},"vehicle_type_id":"4","last_reported":1743847762,"current_range_meters":12400,"station_id":"ce4bh192rcd13ifvqdc0","pricing_plan_id":"cebpf4jnsgd1na2vs0mg"},{"bike_id":"3f0d38e6-3bc0-460b-b1cd-2dff4e888875","system_id":"levelo_inurba_marseille","lat":43.29279,"lon":5.40937,"is_reserved":false,"is_disabled":false,"rental_uris":{"android":"levelo://app?vid=3f0d38e6-3bc0-460b-b1cd-2dff4e888875","ios":"levelo://app?vid=3f0d38e6-3bc0-460b-b1cd-2dff4e888875"},"vehicle_type_id":"4","last_reported":1743847762,"current_range_meters":12400,"station_id":"ce4bh192rcd13ifvqdc0","pricing_plan_id":"cebpf4jnsgd1na2vs0mg"},{"bike_id":"c7643979-9ece-4372-b68c-2d9a4e876f66","system_id":"levelo_inurba_marseille","lat":43.22499,"lon":5.34786,"is_reserved":false,"is_disabled":false,"rental_uris":{"android":"levelo://app?vid=c7643979-9ece-4372-b68c-2d9a4e876f66","ios":"levelo://app?vid=c7643979-9ece-4372-b68c-2d9a4e876f66"},"vehicle_type_id":"4","last_reported":1743847762,"current_range_meters":12400,"station_id":"","pricing_plan_id":"cebpf4jnsgd1na2vs0mg"},{"bike_id":"8cf11926-50f8-49fb-a64c-a9908208281a","system_id":"levelo_inurba_marseille","lat":43.2871,"lon":5.39998,"is_reserved":false,"is_disabled":true,"rental_uris":{"android":"levelo://app?vid=8cf11926-50f8-49fb-a64c-a9908208281a","ios":"levelo://app?vid=8cf11926-50f8-49fb-a64c-a9908208281a"},"vehicle_type_id":"4","last_reported":1743847762,"current_range_meters":12400,"station_id":"ce4bho92rcd13ifvqh3g","pricing_plan_id":"cebpf4jnsgd1na2vs0mg"},{"bike_id":"e405ba7d-3b90-4bbf-8c49-6e3cfb80c43c","system_id":"levelo_inurba_marseille","lat":43.27379,"lon":5.36254,"is_reserved":false,"is_disabled":false,"rental_uris":{"android":"levelo://app?vid=e405ba7d-3b90-4bbf-8c49-6e3cfb80c43c","ios":"levelo://app?vid=e405ba7d-3b90-4bbf-8c49-6e3cfb80c43c"},"vehicle_type_id":"4","last_reported":1743847762,"current_range_meters":12400,"station_id":"ce4bhbh2rcd13ifvqeo0","pricing_plan_id":"cebpf4jnsgd1na2vs0mg"},{"bike_id":"d992f2c5-0aff-4de2-a387-99c4dcc8dfb2","system_id":"levelo_inurba_marseille","lat":43.2992,"lon":5.37466,"is_reserved":false,"is_disabled":false,"rental_uris":{"android":"levelo://app?vid=d992f2c5-0aff-4de2-a387-99c4dcc8dfb2","ios":"levelo://app?vid=d992f2c5-0aff-4de2-a387-99c4dcc8dfb2"},"vehicle_type_id":"4","last_reported":1743847762,"current_range_meters":12800,"station_id":"ce4bgjh2rcd13ifvqbg0","pricing_plan_id":"cebpf4jnsgd1na2vs0mg"},{"bike_id":"cfd0cda9-254f-4245-a134-52c1add15adf","system_id":"levelo_inurba_marseille","lat":43.273738,"lon":5.362565,"is_reserved":false,"is_disabled":false,"rental_uris":{"android":"levelo://app?vid=cfd0cda9-254f-4245-a134-52c1add15adf","ios":"levelo://app?vid=cfd0cda9-254f-4245-a134-52c1add15adf"},"vehicle_type_id":"4","last_reported":1743847762,"current_range_meters":12800,"station_id":"ce4bgph2rcd13ifvqc2g","pricing_plan_id":"cebpf4jnsgd1na2vs0mg"},{"bike_id":"baf94929-fcf3-4503-96f8-9cc1746186bb","system_id":"levelo_inurba_marseille","lat":43.27431,"lon":5.39417,"is_reserved":false,"is_disabled":false,"rental_uris":{"android":"levelo://app?vid=baf94929-fcf3-4503-96f8-9cc1746186bb","ios":"levelo://app?vid=baf94929-fcf3-4503-96f8-9cc1746186bb"},"vehicle_type_id":"4","last_reported":1743847762,"current_range_meters":12800,"station_id":"ce4bhdp2rcd13ifvqf20","pricing_plan_id":"cebpf4jnsgd1na2vs0mg"},{"bike_id":"8d1fca99-1b05-43e9-b4fd-e5bb892c1e4c","system_id":"levelo_inurba_marseille","lat":43.24071,"lon":5.37767,"is_reserved":false,"is_disabled":false,"rental_uris":{"android":"levelo://app?vid=8d1fca99-1b05-43e9-b4fd-e5bb892c1e4c","ios":"levelo://app?vid=8d1fca99-1b05-43e9-b4fd-e5bb892c1e4c"},"vehicle_type_id":"4","last_reported":1743847762,"current_range_meters":12800,"station_id":"ce4bhnp2rcd13ifvqgvg","pricing_plan_id":"cebpf4jnsgd1na2vs0mg"},{"bike_id":"03335a55-1f73-4089-ab67-1b1be99cba25","system_id":"levelo_inurba_marseille","lat":43.2743,"lon":5.39393,"is_reserved":false,"is_disabled":false,"rental_uris":{"android":"levelo://app?vid=03335a55-1f73-4089-ab67-1b1be99cba25","ios":"levelo://app?vid=03335a55-1f73-4089-ab67-1b1be99cba25"},"vehicle_type_id":"4","last_reported":1743847762,"current_range_meters":12800,"station_id":"ce4bhdp2rcd13ifvqf20","pricing_plan_id":"cebpf4jnsgd1na2vs0mg"},{"bike_id":"ed81289f-b9f3-4d86-9f8f-d8896cd8f07f","system_id":"levelo_inurba_marseille","lat":43.30415,"lon":5.39749,"is_reserved":false,"is_disabled":true,"rental_uris":{"android":"levelo://app?vid=ed81289f-b9f3-4d86-9f8f-d8896cd8f07f","ios":"levelo://app?vid=ed81289f-b9f3-4d86-9f8f-d8896cd8f07f"},"vehicle_type_id":"4","last_reported":1743847762,"current_range_meters":13600,"station_id":"ce4bh092rcd13ifvqd20","pricing_plan_id":"cebpf4jnsgd1na2vs0mg"},{"bike_id":"feee5ab0-05ee-4134-8254-78d1494d1fa2","system_id":"levelo_inurba_marseille","lat":43.317913,"lon":5.365494,"is_reserved":false,"is_disabled":false,"rental_uris":{"android":"levelo://app?vid=feee5ab0-05ee-4134-8254-78d1494d1fa2","ios":"levelo://app?vid=feee5ab0-05ee-4134-8254-78d1494d1fa2"},"vehicle_type_id":"4","last_reported":1743847762,"current_range_meters":13600,"station_id":"ce4bhs12rcd13ifvqhvg","pricing_plan_id":"cebpf4jnsgd1na2vs0mg"},{"bike_id":"61ecb93b-347d-40f3-b585-fb26735ef161","system_id":"levelo_inurba_marseille","lat":43.2396,"lon":5.36629,"is_reserved":false,"is_disabled":false,"rental_uris":{"android":"levelo://app?vid=61ecb93b-347d-40f3-b585-fb26735ef161","ios":"levelo://app?vid=61ecb93b-347d-40f3-b585-fb26735ef161"},"vehicle_type_id":"4","last_reported":1743847762,"current_range_meters":13600,"station_id":"ce4bhi12rcd13ifvqfp0","pricing_plan_id":"cebpf4jnsgd1na2vs0mg"},{"bike_id":"281f976f-347b-4009-83a6-96dc26ab2f55","system_id":"levelo_inurba_marseille","lat":43.30905,"lon":5.36845,"is_reserved":false,"is_disabled":false,"rental_uris":{"android":"levelo://app?vid=281f976f-347b-4009-83a6-96dc26ab2f55","ios":"levelo://app?vid=281f976f-347b-4009-83a6-96dc26ab2f55"},"vehicle_type_id":"4","last_reported":1743847762,"current_range_meters":13600,"station_id":"ce4bgn92rcd13ifvqbvg","pricing_plan_id":"cebpf4jnsgd1na2vs0mg"},{"bike_id":"7912ca41-370e-46ab-922b-f63622eea5cd","system_id":"levelo_inurba_marseille","lat":43.22501,"lon":5.34785,"is_reserved":false,"is_disabled":false,"rental_uris":{"android":"levelo://app?vid=7912ca41-370e-46ab-922b-f63622eea5cd","ios":"levelo://app?vid=7912ca41-370e-46ab-922b-f63622eea5cd"},"vehicle_type_id":"4","last_reported":1743847762,"current_range_meters":14000,"station_id":"cpo3342slgdg3j2ifvpg","pricing_plan_id":"cebpf4jnsgd1na2vs0mg"},{"bike_id":"ddcc6197-3301-4054-bea0-709c88a09695","system_id":"levelo_inurba_marseille","lat":43.29687,"lon":5.37312,"is_reserved":false,"is_disabled":false,"rental_uris":{"android":"levelo://app?vid=ddcc6197-3301-4054-bea0-709c88a09695","ios":"levelo://app?vid=ddcc6197-3301-4054-bea0-709c88a09695"},"vehicle_type_id":"4","last_reported":1743847762,"current_range_meters":14000,"station_id":"ce4bgk12rcd13ifvqbj0","pricing_plan_id":"cebpf4jnsgd1na2vs0mg"},{"bike_id":"d37519c0-4939-4f06-83c5-e1ae5a0742e8","system_id":"levelo_inurba_marseille","lat":43.27937,"lon":5.41044,"is_reserved":false,"is_disabled":false,"rental_uris":{"android":"levelo://app?vid=d37519c0-4939-4f06-83c5-e1ae5a0742e8","ios":"levelo://app?vid=d37519c0-4939-4f06-83c5-e1ae5a0742e8"},"vehicle_type_id":"4","last_reported":1743847762,"current_range_meters":14000,"station_id":"ce4bhnp2rcd13ifvqh0g","pricing_plan_id":"cebpf4jnsgd1na2vs0mg"},{"bike_id":"a8395b35-a3d3-4b89-b8ff-d68b9a2974ec","system_id":"levelo_inurba_marseille","lat":43.31078,"lon":5.38358,"is_reserved":false,"is_disabled":false,"rental_uris":{"android":"levelo://app?vid=a8395b35-a3d3-4b89-b8ff-d68b9a2974ec","ios":"levelo://app?vid=a8395b35-a3d3-4b89-b8ff-d68b9a2974ec"},"vehicle_type_id":"4","last_reported":1743847762,"current_range_meters":14400,"station_id":"ce4bgv92rcd13ifvqcr0","pricing_plan_id":"cebpf4jnsgd1na2vs0mg"},{"bike_id":"dacbc300-0384-4222-b34c-11155fe8d835","system_id":"levelo_inurba_marseille","lat":43.29258,"lon":5.40909,"is_reserved":false,"is_disabled":false,"rental_uris":{"android":"levelo://app?vid=dacbc300-0384-4222-b34c-11155fe8d835","ios":"levelo://app?vid=dacbc300-0384-4222-b34c-11155fe8d835"},"vehicle_type_id":"4","last_reported":1743847762,"current_range_meters":14400,"station_id":"ce4bh192rcd13ifvqdc0","pricing_plan_id":"cebpf4jnsgd1na2vs0mg"},{"bike_id":"94bbf571-4919-4cea-8c50-79e346f7dc11","system_id":"levelo_inurba_marseille","lat":43.32452,"lon":5.39121,"is_reserved":false,"is_disabled":true,"rental_uris":{"android":"levelo://app?vid=94bbf571-4919-4cea-8c50-79e346f7dc11","ios":"levelo://app?vid=94bbf571-4919-4cea-8c50-79e346f7dc11"},"vehicle_type_id":"4","last_reported":1743847762,"current_range_meters":14400,"station_id":"","pricing_plan_id":"cebpf4jnsgd1na2vs0mg"},{"bike_id":"a6303451-5b45-435c-bf0e-748f94cc010d","system_id":"levelo_inurba_marseille","lat":43.23176,"lon":5.35537,"is_reserved":false,"is_disabled":false,"rental_uris":{"android":"levelo://app?vid=a6303451-5b45-435c-bf0e-748f94cc010d","ios":"levelo://app?vid=a6303451-5b45-435c-bf0e-748f94cc010d"},"vehicle_type_id":"4","last_reported":1743847762,"current_range_meters":14400,"station_id":"ce4bhu92rcd13ifvqi70","pricing_plan_id":"cebpf4jnsgd1na2vs0mg"},{"bike_id":"8ee8a071-ee3c-4e6e-b1b2-0e8120beb7f4","system_id":"levelo_inurba_marseille","lat":43.25927,"lon":5.4086,"is_reserved":false,"is_disabled":false,"rental_uris":{"android":"levelo://app?vid=8ee8a071-ee3c-4e6e-b1b2-0e8120beb7f4","ios":"levelo://app?vid=8ee8a071-ee3c-4e6e-b1b2-0e8120beb7f4"},"vehicle_type_id":"4","last_reported":1743847762,"current_range_meters":14800,"station_id":"ce4bhm92rcd13ifvqglg","pricing_plan_id":"cebpf4jnsgd1na2vs0mg"},{"bike_id":"97d77224-5748-4443-848a-6ab951c45d6d","system_id":"levelo_inurba_marseille","lat":43.32278,"lon":5.38291,"is_reserved":false,"is_disabled":false,"rental_uris":{"android":"levelo://app?vid=97d77224-5748-4443-848a-6ab951c45d6d","ios":"levelo://app?vid=97d77224-5748-4443-848a-6ab951c45d6d"},"vehicle_type_id":"4","last_reported":1743847762,"current_range_meters":14800,"station_id":"ce4bhr12rcd13ifvqhqg","pricing_plan_id":"cebpf4jnsgd1na2vs0mg"},{"bike_id":"73272853-088e-4b39-8e6e-94fe10fc353c","system_id":"levelo_inurba_marseille","lat":43.33775,"lon":5.37487,"is_reserved":false,"is_disabled":false,"rental_uris":{"android":"levelo://app?vid=73272853-088e-4b39-8e6e-94fe10fc353c","ios":"levelo://app?vid=73272853-088e-4b39-8e6e-94fe10fc353c"},"vehicle_type_id":"4","last_reported":1743847762,"current_range_meters":14800,"station_id":"","pricing_plan_id":"cebpf4jnsgd1na2vs0mg"},{"bike_id":"91884091-9dd5-4f25-a62a-200c15663763","system_id":"levelo_inurba_marseille","lat":43.29627,"lon":5.37731,"is_reserved":false,"is_disabled":false,"rental_uris":{"android":"levelo://app?vid=91884091-9dd5-4f25-a62a-200c15663763","ios":"levelo://app?vid=91884091-9dd5-4f25-a62a-200c15663763"},"vehicle_type_id":"4","last_reported":1743847762,"current_range_meters":14800,"station_id":"ce4bgi92rcd13ifvqb90","pricing_plan_id":"cebpf4jnsgd1na2vs0mg"},{"bike_id":"6452261e-327e-432d-96f8-51660c67c23d","system_id":"levelo_inurba_marseille","lat":43.27372,"lon":5.36273,"is_reserved":false,"is_disabled":false,"rental_uris":{"android":"levelo://app?vid=6452261e-327e-432d-96f8-51660c67c23d","ios":"levelo://app?vid=6452261e-327e-432d-96f8-51660c67c23d"},"vehicle_type_id":"4","last_reported":1743847762,"current_range_meters":14800,"station_id":"ce4bhbh2rcd13ifvqeo0","pricing_plan_id":"cebpf4jnsgd1na2vs0mg"},{"bike_id":"225fe3d4-ca4b-4cf3-a6b2-b3170eb8c41c","system_id":"levelo_inurba_marseille","lat":43.30249,"lon":5.40042,"is_reserved":false,"is_disabled":false,"rental_uris":{"android":"levelo://app?vid=225fe3d4-ca4b-4cf3-a6b2-b3170eb8c41c","ios":"levelo://app?vid=225fe3d4-ca4b-4cf3-a6b2-b3170eb8c41c"},"vehicle_type_id":"4","last_reported":1743847762,"current_range_meters":14400,"station_id":"ce4bgvh2rcd13ifvqcs0","pricing_plan_id":"cebpf4jnsgd1na2vs0mg"},{"bike_id":"a611ad77-223c-4d7d-a6da-1b42c4d245f9","system_id":"levelo_inurba_marseille","lat":43.2996,"lon":5.41327,"is_reserved":false,"is_disabled":false,"rental_uris":{"android":"levelo://app?vid=a611ad77-223c-4d7d-a6da-1b42c4d245f9","ios":"levelo://app?vid=a611ad77-223c-4d7d-a6da-1b42c4d245f9"},"vehicle_type_id":"4","last_reported":1743847762,"current_range_meters":14800,"station_id":"ce4bhp12rcd13ifvqh9g","pricing_plan_id":"cebpf4jnsgd1na2vs0mg"},{"bike_id":"1f62ebc9-9890-44a6-b9f7-ec07e89578ac","system_id":"levelo_inurba_marseille","lat":43.314627,"lon":5.372908,"is_reserved":false,"is_disabled":false,"rental_uris":{"android":"levelo://app?vid=1f62ebc9-9890-44a6-b9f7-ec07e89578ac","ios":"levelo://app?vid=1f62ebc9-9890-44a6-b9f7-ec07e89578ac"},"vehicle_type_id":"4","last_reported":1743847762,"current_range_meters":15200,"station_id":"ce4bgt12rcd13ifvqcd0","pricing_plan_id":"cebpf4jnsgd1na2vs0mg"},{"bike_id":"c23772a6-53c1-430f-8570-284ba0642d08","system_id":"levelo_inurba_marseille","lat":43.28611,"lon":5.35099,"is_reserved":false,"is_disabled":false,"rental_uris":{"android":"levelo://app?vid=c23772a6-53c1-430f-8570-284ba0642d08","ios":"levelo://app?vid=c23772a6-53c1-430f-8570-284ba0642d08"},"vehicle_type_id":"4","last_reported":1743847762,"current_range_meters":15200,"station_id":"ce4bhch2rcd13ifvqeug","pricing_plan_id":"cebpf4jnsgd1na2vs0mg"},{"bike_id":"933ae856-3202-459e-8d65-8f27293835bd","system_id":"levelo_inurba_marseille","lat":43.29896,"lon":5.43638,"is_reserved":false,"is_disabled":false,"rental_uris":{"android":"levelo://app?vid=933ae856-3202-459e-8d65-8f27293835bd","ios":"levelo://app?vid=933ae856-3202-459e-8d65-8f27293835bd"},"vehicle_type_id":"4","last_reported":1743847762,"current_range_meters":15200,"station_id":"ce4bhpp2rcd13ifvqhfg","pricing_plan_id":"cebpf4jnsgd1na2vs0mg"},{"bike_id":"192309bf-da51-48c4-b64c-5135d8d47d57","system_id":"levelo_inurba_marseille","lat":43.31702,"lon":5.40467,"is_reserved":false,"is_disabled":false,"rental_uris":{"android":"levelo://app?vid=192309bf-da51-48c4-b64c-5135d8d47d57","ios":"levelo://app?vid=192309bf-da51-48c4-b64c-5135d8d47d57"},"vehicle_type_id":"4","last_reported":1743847762,"current_range_meters":15200,"station_id":"ce4bh012rcd13ifvqd00","pricing_plan_id":"cebpf4jnsgd1na2vs0mg"},{"bike_id":"79b90fc0-83a3-4af0-b427-117e645068cf","system_id":"levelo_inurba_marseille","lat":43.3117,"lon":5.38688,"is_reserved":false,"is_disabled":false,"rental_uris":{"android":"levelo://app?vid=79b90fc0-83a3-4af0-b427-117e645068cf","ios":"levelo://app?vid=79b90fc0-83a3-4af0-b427-117e645068cf"},"vehicle_type_id":"4","last_reported":1743847762,"current_range_meters":15200,"station_id":"ce4bgv12rcd13ifvqcp0","pricing_plan_id":"cebpf4jnsgd1na2vs0mg"},{"bike_id":"65f37ce6-0181-4877-8938-e5bab611c301","system_id":"levelo_inurba_marseille","lat":43.29858,"lon":5.36316,"is_reserved":false,"is_disabled":true,"rental_uris":{"android":"levelo://app?vid=65f37ce6-0181-4877-8938-e5bab611c301","ios":"levelo://app?vid=65f37ce6-0181-4877-8938-e5bab611c301"},"vehicle_type_id":"4","last_reported":1743847762,"current_range_meters":16000,"station_id":"ce4bgpp2rcd13ifvqc3g","pricing_plan_id":"cebpf4jnsgd1na2vs0mg"},{"bike_id":"9a10684b-1a63-4ada-859a-1a19f5508765","system_id":"levelo_inurba_marseille","lat":43.2957,"lon":5.37515,"is_reserved":false,"is_disabled":false,"rental_uris":{"android":"levelo://app?vid=9a10684b-1a63-4ada-859a-1a19f5508765","ios":"levelo://app?vid=9a10684b-1a63-4ada-859a-1a19f5508765"},"vehicle_type_id":"4","last_reported":1743847762,"current_range_meters":16000,"station_id":"ce4bgh92rcd13ifvqb50","pricing_plan_id":"cebpf4jnsgd1na2vs0mg"},{"bike_id":"6082a6d8-29f3-4441-bd82-d0f95ead75d7","system_id":"levelo_inurba_marseille","lat":43.23189,"lon":5.35546,"is_reserved":false,"is_disabled":false,"rental_uris":{"android":"levelo://app?vid=6082a6d8-29f3-4441-bd82-d0f95ead75d7","ios":"levelo://app?vid=6082a6d8-29f3-4441-bd82-d0f95ead75d7"},"vehicle_type_id":"4","last_reported":1743847762,"current_range_meters":16000,"station_id":"ce4bhu92rcd13ifvqi70","pricing_plan_id":"cebpf4jnsgd1na2vs0mg"},{"bike_id":"fc591827-1d72-4b29-aeb5-8a0a3fd5eec9","system_id":"levelo_inurba_marseille","lat":43.29254,"lon":5.40908,"is_reserved":false,"is_disabled":false,"rental_uris":{"android":"levelo://app?vid=fc591827-1d72-4b29-aeb5-8a0a3fd5eec9","ios":"levelo://app?vid=fc591827-1d72-4b29-aeb5-8a0a3fd5eec9"},"vehicle_type_id":"4","last_reported":1743847762,"current_range_meters":16000,"station_id":"ce4bh192rcd13ifvqdc0","pricing_plan_id":"cebpf4jnsgd1na2vs0mg"},{"bike_id":"d1a2a943-38d2-4366-8f51-9131d0d66d8c","system_id":"levelo_inurba_marseille","lat":43.29022,"lon":5.38132,"is_reserved":false,"is_disabled":false,"rental_uris":{"android":"levelo://app?vid=d1a2a943-38d2-4366-8f51-9131d0d66d8c","ios":"levelo://app?vid=d1a2a943-38d2-4366-8f51-9131d0d66d8c"},"vehicle_type_id":"4","last_reported":1743847762,"current_range_meters":16000,"station_id":"ce4bh4p2rcd13ifvqe1g","pricing_plan_id":"cebpf4jnsgd1na2vs0mg"},{"bike_id":"3a26c4e7-3add-4c6a-8312-4cb7ec76cb68","system_id":"levelo_inurba_marseille","lat":43.31503,"lon":5.37297,"is_reserved":false,"is_disabled":false,"rental_uris":{"android":"levelo://app?vid=3a26c4e7-3add-4c6a-8312-4cb7ec76cb68","ios":"levelo://app?vid=3a26c4e7-3add-4c6a-8312-4cb7ec76cb68"},"vehicle_type_id":"4","last_reported":1743847762,"current_range_meters":16000,"station_id":"ce4bgt12rcd13ifvqcd0","pricing_plan_id":"cebpf4jnsgd1na2vs0mg"},{"bike_id":"0f838166-4dc1-45e1-acc5-e64cb87eb131","system_id":"levelo_inurba_marseille","lat":43.2315,"lon":5.43715,"is_reserved":false,"is_disabled":false,"rental_uris":{"android":"levelo://app?vid=0f838166-4dc1-45e1-acc5-e64cb87eb131","ios":"levelo://app?vid=0f838166-4dc1-45e1-acc5-e64cb87eb131"},"vehicle_type_id":"4","last_reported":1743847762,"current_range_meters":16000,"station_id":"ce4bhmp2rcd13ifvqgog","pricing_plan_id":"cebpf4jnsgd1na2vs0mg"},{"bike_id":"6318df25-e619-488e-8e5a-ffa050963103","system_id":"levelo_inurba_marseille","lat":43.21752,"lon":5.34601,"is_reserved":false,"is_disabled":false,"rental_uris":{"android":"levelo://app?vid=6318df25-e619-488e-8e5a-ffa050963103","ios":"levelo://app?vid=6318df25-e619-488e-8e5a-ffa050963103"},"vehicle_type_id":"4","last_reported":1743847762,"current_range_meters":16000,"station_id":"st_cvj6r9ubvosntc0bgbag","pricing_plan_id":"cebpf4jnsgd1na2vs0mg"},{"bike_id":"78866eb4-e4f8-4233-8032-726a392d2e7b","system_id":"levelo_inurba_marseille","lat":43.30661,"lon":5.401,"is_reserved":false,"is_disabled":false,"rental_uris":{"android":"levelo://app?vid=78866eb4-e4f8-4233-8032-726a392d2e7b","ios":"levelo://app?vid=78866eb4-e4f8-4233-8032-726a392d2e7b"},"vehicle_type_id":"4","last_reported":1743847762,"current_range_meters":16400,"station_id":"ce4bh112rcd13ifvqda0","pricing_plan_id":"cebpf4jnsgd1na2vs0mg"},{"bike_id":"45fa53af-1633-4bb2-a1b0-33af8d20a003","system_id":"levelo_inurba_marseille","lat":43.25867,"lon":5.39898,"is_reserved":false,"is_disabled":false,"rental_uris":{"android":"levelo://app?vid=45fa53af-1633-4bb2-a1b0-33af8d20a003","ios":"levelo://app?vid=45fa53af-1633-4bb2-a1b0-33af8d20a003"},"vehicle_type_id":"4","last_reported":1743847762,"current_range_meters":16400,"station_id":"ce4bhl92rcd13ifvqghg","pricing_plan_id":"cebpf4jnsgd1na2vs0mg"},{"bike_id":"95138c21-017c-4d86-9014-5cf1d826ef71","system_id":"levelo_inurba_marseille","lat":43.30621,"lon":5.36528,"is_reserved":false,"is_disabled":false,"rental_uris":{"android":"levelo://app?vid=95138c21-017c-4d86-9014-5cf1d826ef71","ios":"levelo://app?vid=95138c21-017c-4d86-9014-5cf1d826ef71"},"vehicle_type_id":"4","last_reported":1743847762,"current_range_meters":16400,"station_id":"ce4bgs12rcd13ifvqcag","pricing_plan_id":"cebpf4jnsgd1na2vs0mg"},{"bike_id":"638792ac-2425-4a46-9c1a-3640bf2c73a6","system_id":"levelo_inurba_marseille","lat":43.30787,"lon":5.37651,"is_reserved":false,"is_disabled":false,"rental_uris":{"android":"levelo://app?vid=638792ac-2425-4a46-9c1a-3640bf2c73a6","ios":"levelo://app?vid=638792ac-2425-4a46-9c1a-3640bf2c73a6"},"vehicle_type_id":"4","last_reported":1743847762,"current_range_meters":16400,"station_id":"ce4bgv92rcd13ifvqcq0","pricing_plan_id":"cebpf4jnsgd1na2vs0mg"},{"bike_id":"d40436bc-a917-47da-a93b-8c4c56a63210","system_id":"levelo_inurba_marseille","lat":43.31679,"lon":5.40484,"is_reserved":false,"is_disabled":false,"rental_uris":{"android":"levelo://app?vid=d40436bc-a917-47da-a93b-8c4c56a63210","ios":"levelo://app?vid=d40436bc-a917-47da-a93b-8c4c56a63210"},"vehicle_type_id":"4","last_reported":1743847762,"current_range_meters":16400,"station_id":"ce4bh012rcd13ifvqd00","pricing_plan_id":"cebpf4jnsgd1na2vs0mg"},{"bike_id":"87908f94-d8aa-4a33-8565-205213af20b1","system_id":"levelo_inurba_marseille","lat":43.32111,"lon":5.3677,"is_reserved":false,"is_disabled":false,"rental_uris":{"android":"levelo://app?vid=87908f94-d8aa-4a33-8565-205213af20b1","ios":"levelo://app?vid=87908f94-d8aa-4a33-8565-205213af20b1"},"vehicle_type_id":"4","last_reported":1743847762,"current_range_meters":16400,"station_id":"ce4bhrh2rcd13ifvqhug","pricing_plan_id":"cebpf4jnsgd1na2vs0mg"},{"bike_id":"be3bf28f-5c15-4582-9925-823a7a38a324","system_id":"levelo_inurba_marseille","lat":43.23144,"lon":5.43711,"is_reserved":false,"is_disabled":false,"rental_uris":{"android":"levelo://app?vid=be3bf28f-5c15-4582-9925-823a7a38a324","ios":"levelo://app?vid=be3bf28f-5c15-4582-9925-823a7a38a324"},"vehicle_type_id":"4","last_reported":1743847762,"current_range_meters":16400,"station_id":"ce4bhmp2rcd13ifvqgog","pricing_plan_id":"cebpf4jnsgd1na2vs0mg"},{"bike_id":"8fe1097a-5424-4481-bc57-836ff4c5702e","system_id":"levelo_inurba_marseille","lat":43.31989,"lon":5.38168,"is_reserved":false,"is_disabled":false,"rental_uris":{"android":"levelo://app?vid=8fe1097a-5424-4481-bc57-836ff4c5702e","ios":"levelo://app?vid=8fe1097a-5424-4481-bc57-836ff4c5702e"},"vehicle_type_id":"4","last_reported":1743847762,"current_range_meters":16400,"station_id":"ce4bhr12rcd13ifvqhpg","pricing_plan_id":"cebpf4jnsgd1na2vs0mg"},{"bike_id":"406a7bca-4ceb-466d-a160-87b7d554f857","system_id":"levelo_inurba_marseille","lat":43.31081,"lon":5.42472,"is_reserved":false,"is_disabled":false,"rental_uris":{"android":"levelo://app?vid=406a7bca-4ceb-466d-a160-87b7d554f857","ios":"levelo://app?vid=406a7bca-4ceb-466d-a160-87b7d554f857"},"vehicle_type_id":"4","last_reported":1743847762,"current_range_meters":16400,"station_id":"ce4bhp92rcd13ifvqhag","pricing_plan_id":"cebpf4jnsgd1na2vs0mg"},{"bike_id":"ee09100d-798d-4290-9f1d-f87b6321f13c","system_id":"levelo_inurba_marseille","lat":43.30308,"lon":5.3689,"is_reserved":false,"is_disabled":false,"rental_uris":{"android":"levelo://app?vid=ee09100d-798d-4290-9f1d-f87b6321f13c","ios":"levelo://app?vid=ee09100d-798d-4290-9f1d-f87b6321f13c"},"vehicle_type_id":"4","last_reported":1743847762,"current_range_meters":16400,"station_id":"ce4bgqh2rcd13ifvqc5g","pricing_plan_id":"cebpf4jnsgd1na2vs0mg"},{"bike_id":"60ad225f-7088-489e-9816-eaf4fa46e977","system_id":"levelo_inurba_marseille","lat":43.29869,"lon":5.38908,"is_reserved":false,"is_disabled":false,"rental_uris":{"android":"levelo://app?vid=60ad225f-7088-489e-9816-eaf4fa46e977","ios":"levelo://app?vid=60ad225f-7088-489e-9816-eaf4fa46e977"},"vehicle_type_id":"4","last_reported":1743847762,"current_range_meters":16000,"station_id":"ce4bh392rcd13ifvqdl0","pricing_plan_id":"cebpf4jnsgd1na2vs0mg"},{"bike_id":"878bff8f-1b78-4472-9a67-f436251dd742","system_id":"levelo_inurba_marseille","lat":43.28002,"lon":5.40015,"is_reserved":false,"is_disabled":false,"rental_uris":{"android":"levelo://app?vid=878bff8f-1b78-4472-9a67-f436251dd742","ios":"levelo://app?vid=878bff8f-1b78-4472-9a67-f436251dd742"},"vehicle_type_id":"4","last_reported":1743847762,"current_range_meters":16400,"station_id":"ce4bho92rcd13ifvqh4g","pricing_plan_id":"cebpf4jnsgd1na2vs0mg"},{"bike_id":"31582bf1-a49f-488e-b68d-cbb0888f3d55","system_id":"levelo_inurba_marseille","lat":43.28979,"lon":5.37829,"is_reserved":false,"is_disabled":false,"rental_uris":{"android":"levelo://app?vid=31582bf1-a49f-488e-b68d-cbb0888f3d55","ios":"levelo://app?vid=31582bf1-a49f-488e-b68d-cbb0888f3d55"},"vehicle_type_id":"4","last_reported":1743847762,"current_range_meters":16800,"station_id":"ce4bh9p2rcd13ifvqed0","pricing_plan_id":"cebpf4jnsgd1na2vs0mg"},{"bike_id":"d3cdb696-0072-45aa-9575-a0f4de86acd0","system_id":"levelo_inurba_marseille","lat":43.309494,"lon":5.401421,"is_reserved":false,"is_disabled":true,"rental_uris":{"android":"levelo://app?vid=d3cdb696-0072-45aa-9575-a0f4de86acd0","ios":"levelo://app?vid=d3cdb696-0072-45aa-9575-a0f4de86acd0"},"vehicle_type_id":"4","last_reported":1743847762,"current_range_meters":16800,"station_id":"ce4bgvp2rcd13ifvqct0","pricing_plan_id":"cebpf4jnsgd1na2vs0mg"},{"bike_id":"6d8c702c-dac6-463e-9f14-39bf21773719","system_id":"levelo_inurba_marseille","lat":43.28484,"lon":5.38429,"is_reserved":false,"is_disabled":false,"rental_uris":{"android":"levelo://app?vid=6d8c702c-dac6-463e-9f14-39bf21773719","ios":"levelo://app?vid=6d8c702c-dac6-463e-9f14-39bf21773719"},"vehicle_type_id":"4","last_reported":1743847762,"current_range_meters":16800,"station_id":"ce4bh512rcd13ifvqe3g","pricing_plan_id":"cebpf4jnsgd1na2vs0mg"},{"bike_id":"4d77a410-4a65-4210-a425-e9544a526c6b","system_id":"levelo_inurba_marseille","lat":43.239645,"lon":5.366297,"is_reserved":false,"is_disabled":false,"rental_uris":{"android":"levelo://app?vid=4d77a410-4a65-4210-a425-e9544a526c6b","ios":"levelo://app?vid=4d77a410-4a65-4210-a425-e9544a526c6b"},"vehicle_type_id":"4","last_reported":1743847762,"current_range_meters":16800,"station_id":"ce4bhi12rcd13ifvqfp0","pricing_plan_id":"cebpf4jnsgd1na2vs0mg"},{"bike_id":"2056be5b-6d86-4c86-9fd5-ede2bae98fef","system_id":"levelo_inurba_marseille","lat":43.31115,"lon":5.37776,"is_reserved":false,"is_disabled":false,"rental_uris":{"android":"levelo://app?vid=2056be5b-6d86-4c86-9fd5-ede2bae98fef","ios":"levelo://app?vid=2056be5b-6d86-4c86-9fd5-ede2bae98fef"},"vehicle_type_id":"4","last_reported":1743847762,"current_range_meters":16800,"station_id":"ce4bgt92rcd13ifvqcg0","pricing_plan_id":"cebpf4jnsgd1na2vs0mg"},{"bike_id":"9221e722-1757-4ba8-a561-d21da11f6770","system_id":"levelo_inurba_marseille","lat":43.28274,"lon":5.35074,"is_reserved":false,"is_disabled":false,"rental_uris":{"android":"levelo://app?vid=9221e722-1757-4ba8-a561-d21da11f6770","ios":"levelo://app?vid=9221e722-1757-4ba8-a561-d21da11f6770"},"vehicle_type_id":"4","last_reported":1743847762,"current_range_meters":16800,"station_id":"ce4bhbp2rcd13ifvqerg","pricing_plan_id":"cebpf4jnsgd1na2vs0mg"},{"bike_id":"7fd0635d-68ad-4ce6-a52b-daef56987b4b","system_id":"levelo_inurba_marseille","lat":43.3085,"lon":5.38615,"is_reserved":false,"is_disabled":false,"rental_uris":{"android":"levelo://app?vid=7fd0635d-68ad-4ce6-a52b-daef56987b4b","ios":"levelo://app?vid=7fd0635d-68ad-4ce6-a52b-daef56987b4b"},"vehicle_type_id":"4","last_reported":1743847762,"current_range_meters":16800,"station_id":"","pricing_plan_id":"cebpf4jnsgd1na2vs0mg"},{"bike_id":"90ff07db-5c5b-420d-b2c4-a516e3fd7689","system_id":"levelo_inurba_marseille","lat":43.31369,"lon":5.38499,"is_reserved":false,"is_disabled":true,"rental_uris":{"android":"levelo://app?vid=90ff07db-5c5b-420d-b2c4-a516e3fd7689","ios":"levelo://app?vid=90ff07db-5c5b-420d-b2c4-a516e3fd7689"},"vehicle_type_id":"4","last_reported":1743847762,"current_range_meters":16800,"station_id":"ce4bgt92rcd13ifvqcf0","pricing_plan_id":"cebpf4jnsgd1na2vs0mg"},{"bike_id":"a5ab2663-c6cc-452e-9ef5-870ce7e20d09","system_id":"levelo_inurba_marseille","lat":43.27364,"lon":5.3626,"is_reserved":false,"is_disabled":false,"rental_uris":{"android":"levelo://app?vid=a5ab2663-c6cc-452e-9ef5-870ce7e20d09","ios":"levelo://app?vid=a5ab2663-c6cc-452e-9ef5-870ce7e20d09"},"vehicle_type_id":"4","last_reported":1743847762,"current_range_meters":16800,"station_id":"ce4bhbh2rcd13ifvqeo0","pricing_plan_id":"cebpf4jnsgd1na2vs0mg"},{"bike_id":"136b6e45-ee21-453e-aa22-e07947db9071","system_id":"levelo_inurba_marseille","lat":43.231526,"lon":5.437134,"is_reserved":false,"is_disabled":true,"rental_uris":{"android":"levelo://app?vid=136b6e45-ee21-453e-aa22-e07947db9071","ios":"levelo://app?vid=136b6e45-ee21-453e-aa22-e07947db9071"},"vehicle_type_id":"4","last_reported":1743847762,"current_range_meters":16800,"station_id":"ce4bhmp2rcd13ifvqgog","pricing_plan_id":"cebpf4jnsgd1na2vs0mg"},{"bike_id":"0c7344aa-e30a-49ce-ac00-2b7a7b6196ee","system_id":"levelo_inurba_marseille","lat":43.25114,"lon":5.40323,"is_reserved":false,"is_disabled":false,"rental_uris":{"android":"levelo://app?vid=0c7344aa-e30a-49ce-ac00-2b7a7b6196ee","ios":"levelo://app?vid=0c7344aa-e30a-49ce-ac00-2b7a7b6196ee"},"vehicle_type_id":"4","last_reported":1743847762,"current_range_meters":16800,"station_id":"ce4bhnh2rcd13ifvqgug","pricing_plan_id":"cebpf4jnsgd1na2vs0mg"},{"bike_id":"64723ed1-d23d-4a0d-a2d0-b3af72b7c6d2","system_id":"levelo_inurba_marseille","lat":43.28158,"lon":5.42652,"is_reserved":false,"is_disabled":false,"rental_uris":{"android":"levelo://app?vid=64723ed1-d23d-4a0d-a2d0-b3af72b7c6d2","ios":"levelo://app?vid=64723ed1-d23d-4a0d-a2d0-b3af72b7c6d2"},"vehicle_type_id":"4","last_reported":1743847762,"current_range_meters":17200,"station_id":"ce4bhnh2rcd13ifvqgug","pricing_plan_id":"cebpf4jnsgd1na2vs0mg"},{"bike_id":"05a9d547-6459-4cd8-83f8-cc89ddb6df36","system_id":"levelo_inurba_marseille","lat":43.27069,"lon":5.42282,"is_reserved":false,"is_disabled":false,"rental_uris":{"android":"levelo://app?vid=05a9d547-6459-4cd8-83f8-cc89ddb6df36","ios":"levelo://app?vid=05a9d547-6459-4cd8-83f8-cc89ddb6df36"},"vehicle_type_id":"4","last_reported":1743847762,"current_range_meters":16800,"station_id":"ce4bhk92rcd13ifvqgb0","pricing_plan_id":"cebpf4jnsgd1na2vs0mg"},{"bike_id":"63262619-e241-4ed5-8ba4-c792cd1a7b0f","system_id":"levelo_inurba_marseille","lat":43.2315,"lon":5.43723,"is_reserved":false,"is_disabled":false,"rental_uris":{"android":"levelo://app?vid=63262619-e241-4ed5-8ba4-c792cd1a7b0f","ios":"levelo://app?vid=63262619-e241-4ed5-8ba4-c792cd1a7b0f"},"vehicle_type_id":"4","last_reported":1743847762,"current_range_meters":17200,"station_id":"ce4bhmp2rcd13ifvqgog","pricing_plan_id":"cebpf4jnsgd1na2vs0mg"},{"bike_id":"f9be3798-e58d-461a-bdd4-012ac1ca4a75","system_id":"levelo_inurba_marseille","lat":43.3019,"lon":5.36631,"is_reserved":false,"is_disabled":false,"rental_uris":{"android":"levelo://app?vid=f9be3798-e58d-461a-bdd4-012ac1ca4a75","ios":"levelo://app?vid=f9be3798-e58d-461a-bdd4-012ac1ca4a75"},"vehicle_type_id":"4","last_reported":1743847762,"current_range_meters":17200,"station_id":"ce4bgrh2rcd13ifvqc8g","pricing_plan_id":"cebpf4jnsgd1na2vs0mg"},{"bike_id":"274cab9a-4527-41d4-949e-eb82cc7a86f7","system_id":"levelo_inurba_marseille","lat":43.23151,"lon":5.43723,"is_reserved":false,"is_disabled":false,"rental_uris":{"android":"levelo://app?vid=274cab9a-4527-41d4-949e-eb82cc7a86f7","ios":"levelo://app?vid=274cab9a-4527-41d4-949e-eb82cc7a86f7"},"vehicle_type_id":"4","last_reported":1743847762,"current_range_meters":17200,"station_id":"ce4bhmp2rcd13ifvqgog","pricing_plan_id":"cebpf4jnsgd1na2vs0mg"},{"bike_id":"37dc008f-e1f8-4ac6-aae0-7016fb5c4ae9","system_id":"levelo_inurba_marseille","lat":43.32487,"lon":5.36561,"is_reserved":false,"is_disabled":false,"rental_uris":{"android":"levelo://app?vid=37dc008f-e1f8-4ac6-aae0-7016fb5c4ae9","ios":"levelo://app?vid=37dc008f-e1f8-4ac6-aae0-7016fb5c4ae9"},"vehicle_type_id":"4","last_reported":1743847762,"current_range_meters":17600,"station_id":"ce4bhs12rcd13ifvqhvg","pricing_plan_id":"cebpf4jnsgd1na2vs0mg"},{"bike_id":"a409c3f0-8991-4228-afb5-57b19bb06658","system_id":"levelo_inurba_marseille","lat":43.32368,"lon":5.38873,"is_reserved":false,"is_disabled":false,"rental_uris":{"android":"levelo://app?vid=a409c3f0-8991-4228-afb5-57b19bb06658","ios":"levelo://app?vid=a409c3f0-8991-4228-afb5-57b19bb06658"},"vehicle_type_id":"4","last_reported":1743847762,"current_range_meters":17600,"station_id":"ce4bhqp2rcd13ifvqhog","pricing_plan_id":"cebpf4jnsgd1na2vs0mg"},{"bike_id":"2c04b46b-e82d-4a28-9873-a1e7f8f4ed1d","system_id":"levelo_inurba_marseille","lat":43.24388,"lon":5.37049,"is_reserved":false,"is_disabled":false,"rental_uris":{"android":"levelo://app?vid=2c04b46b-e82d-4a28-9873-a1e7f8f4ed1d","ios":"levelo://app?vid=2c04b46b-e82d-4a28-9873-a1e7f8f4ed1d"},"vehicle_type_id":"4","last_reported":1743847762,"current_range_meters":17600,"station_id":"ce4bhhh2rcd13ifvqfk0","pricing_plan_id":"cebpf4jnsgd1na2vs0mg"},{"bike_id":"5cfe6a42-5c85-4dc2-94a9-3cf7105c7c82","system_id":"levelo_inurba_marseille","lat":43.304294,"lon":5.397361,"is_reserved":false,"is_disabled":false,"rental_uris":{"android":"levelo://app?vid=5cfe6a42-5c85-4dc2-94a9-3cf7105c7c82","ios":"levelo://app?vid=5cfe6a42-5c85-4dc2-94a9-3cf7105c7c82"},"vehicle_type_id":"4","last_reported":1743847762,"current_range_meters":17600,"station_id":"ce4bh092rcd13ifvqd20","pricing_plan_id":"cebpf4jnsgd1na2vs0mg"},{"bike_id":"e99bcbaf-1a84-4558-9e04-f5a439904707","system_id":"levelo_inurba_marseille","lat":43.21191,"lon":5.35074,"is_reserved":false,"is_disabled":false,"rental_uris":{"android":"levelo://app?vid=e99bcbaf-1a84-4558-9e04-f5a439904707","ios":"levelo://app?vid=e99bcbaf-1a84-4558-9e04-f5a439904707"},"vehicle_type_id":"4","last_reported":1743847762,"current_range_meters":17600,"station_id":"st_cvj6sg6p6f1abm77japg","pricing_plan_id":"cebpf4jnsgd1na2vs0mg"},{"bike_id":"36f6fa25-615d-4e6f-b8bf-9bb620854e1b","system_id":"levelo_inurba_marseille","lat":43.31725,"lon":5.42399,"is_reserved":false,"is_disabled":false,"rental_uris":{"android":"levelo://app?vid=36f6fa25-615d-4e6f-b8bf-9bb620854e1b","ios":"levelo://app?vid=36f6fa25-615d-4e6f-b8bf-9bb620854e1b"},"vehicle_type_id":"4","last_reported":1743847762,"current_range_meters":17600,"station_id":"ce4bhp92rcd13ifvqhbg","pricing_plan_id":"cebpf4jnsgd1na2vs0mg"},{"bike_id":"9689c5b4-9ddb-4e04-9387-232ba45a4bde","system_id":"levelo_inurba_marseille","lat":43.31115,"lon":5.37775,"is_reserved":false,"is_disabled":false,"rental_uris":{"android":"levelo://app?vid=9689c5b4-9ddb-4e04-9387-232ba45a4bde","ios":"levelo://app?vid=9689c5b4-9ddb-4e04-9387-232ba45a4bde"},"vehicle_type_id":"4","last_reported":1743847762,"current_range_meters":17600,"station_id":"ce4bgt92rcd13ifvqcg0","pricing_plan_id":"cebpf4jnsgd1na2vs0mg"},{"bike_id":"cf14aab5-4d2c-4c32-b3c0-d1438587c99c","system_id":"levelo_inurba_marseille","lat":43.27376,"lon":5.36261,"is_reserved":false,"is_disabled":false,"rental_uris":{"android":"levelo://app?vid=cf14aab5-4d2c-4c32-b3c0-d1438587c99c","ios":"levelo://app?vid=cf14aab5-4d2c-4c32-b3c0-d1438587c99c"},"vehicle_type_id":"4","last_reported":1743847762,"current_range_meters":17200,"station_id":"ce4bhbh2rcd13ifvqeo0","pricing_plan_id":"cebpf4jnsgd1na2vs0mg"},{"bike_id":"6bf0d690-a3f2-4ea0-b4d5-e4fa7f134a82","system_id":"levelo_inurba_marseille","lat":43.29009,"lon":5.35639,"is_reserved":false,"is_disabled":false,"rental_uris":{"android":"levelo://app?vid=6bf0d690-a3f2-4ea0-b4d5-e4fa7f134a82","ios":"levelo://app?vid=6bf0d690-a3f2-4ea0-b4d5-e4fa7f134a82"},"vehicle_type_id":"4","last_reported":1743847762,"current_range_meters":17600,"station_id":"ce4bhb92rcd13ifvqen0","pricing_plan_id":"cebpf4jnsgd1na2vs0mg"},{"bike_id":"5b8d1103-1921-4c53-912e-93d122cd3cdc","system_id":"levelo_inurba_marseille","lat":43.24404,"lon":5.37047,"is_reserved":false,"is_disabled":true,"rental_uris":{"android":"levelo://app?vid=5b8d1103-1921-4c53-912e-93d122cd3cdc","ios":"levelo://app?vid=5b8d1103-1921-4c53-912e-93d122cd3cdc"},"vehicle_type_id":"4","last_reported":1743847762,"current_range_meters":17600,"station_id":"ce4bhhh2rcd13ifvqfk0","pricing_plan_id":"cebpf4jnsgd1na2vs0mg"},{"bike_id":"8a6c6f3e-a0ca-426b-926a-9bac537f3981","system_id":"levelo_inurba_marseille","lat":43.31492,"lon":5.37292,"is_reserved":false,"is_disabled":false,"rental_uris":{"android":"levelo://app?vid=8a6c6f3e-a0ca-426b-926a-9bac537f3981","ios":"levelo://app?vid=8a6c6f3e-a0ca-426b-926a-9bac537f3981"},"vehicle_type_id":"4","last_reported":1743847762,"current_range_meters":17600,"station_id":"ce4bgt12rcd13ifvqcd0","pricing_plan_id":"cebpf4jnsgd1na2vs0mg"},{"bike_id":"40a621c0-90fc-49e7-b4b6-60f8184e982f","system_id":"levelo_inurba_marseille","lat":43.32285,"lon":5.38287,"is_reserved":false,"is_disabled":false,"rental_uris":{"android":"levelo://app?vid=40a621c0-90fc-49e7-b4b6-60f8184e982f","ios":"levelo://app?vid=40a621c0-90fc-49e7-b4b6-60f8184e982f"},"vehicle_type_id":"4","last_reported":1743847762,"current_range_meters":18000,"station_id":"ce4bhr12rcd13ifvqhqg","pricing_plan_id":"cebpf4jnsgd1na2vs0mg"},{"bike_id":"73c3c4b0-56bb-4ff8-835f-acb0e7da02fe","system_id":"levelo_inurba_marseille","lat":43.22933,"lon":5.35375,"is_reserved":false,"is_disabled":false,"rental_uris":{"android":"levelo://app?vid=73c3c4b0-56bb-4ff8-835f-acb0e7da02fe","ios":"levelo://app?vid=73c3c4b0-56bb-4ff8-835f-acb0e7da02fe"},"vehicle_type_id":"4","last_reported":1743847762,"current_range_meters":18000,"station_id":"cpo3532slgdg3j2ikp40","pricing_plan_id":"cebpf4jnsgd1na2vs0mg"},{"bike_id":"1b0f72e3-26fe-4b94-9dc8-74f7ad66a8ca","system_id":"levelo_inurba_marseille","lat":43.301264,"lon":5.387916,"is_reserved":false,"is_disabled":false,"rental_uris":{"android":"levelo://app?vid=1b0f72e3-26fe-4b94-9dc8-74f7ad66a8ca","ios":"levelo://app?vid=1b0f72e3-26fe-4b94-9dc8-74f7ad66a8ca"},"vehicle_type_id":"4","last_reported":1743847762,"current_range_meters":18000,"station_id":"ce4bhb92rcd13ifvqen0","pricing_plan_id":"cebpf4jnsgd1na2vs0mg"},{"bike_id":"837e3760-485d-4189-a7d3-98b5c24f536d","system_id":"levelo_inurba_marseille","lat":43.30949,"lon":5.39049,"is_reserved":false,"is_disabled":false,"rental_uris":{"android":"levelo://app?vid=837e3760-485d-4189-a7d3-98b5c24f536d","ios":"levelo://app?vid=837e3760-485d-4189-a7d3-98b5c24f536d"},"vehicle_type_id":"4","last_reported":1743847762,"current_range_meters":18000,"station_id":"ce4bgup2rcd13ifvqco0","pricing_plan_id":"cebpf4jnsgd1na2vs0mg"},{"bike_id":"39f686d1-f6e1-424a-b4fa-e188b9c4f1e4","system_id":"levelo_inurba_marseille","lat":43.230517,"lon":5.354861,"is_reserved":false,"is_disabled":false,"rental_uris":{"android":"levelo://app?vid=39f686d1-f6e1-424a-b4fa-e188b9c4f1e4","ios":"levelo://app?vid=39f686d1-f6e1-424a-b4fa-e188b9c4f1e4"},"vehicle_type_id":"4","last_reported":1743847762,"current_range_meters":18000,"station_id":"cpo3342slgdg3j2ifvpg","pricing_plan_id":"cebpf4jnsgd1na2vs0mg"},{"bike_id":"f7e3b8fa-9062-4469-bcee-58c5aa5cfb6e","system_id":"levelo_inurba_marseille","lat":43.29502,"lon":5.38568,"is_reserved":false,"is_disabled":true,"rental_uris":{"android":"levelo://app?vid=f7e3b8fa-9062-4469-bcee-58c5aa5cfb6e","ios":"levelo://app?vid=f7e3b8fa-9062-4469-bcee-58c5aa5cfb6e"},"vehicle_type_id":"4","last_reported":1743847762,"current_range_meters":18000,"station_id":"ce4bgih2rcd13ifvqba0","pricing_plan_id":"cebpf4jnsgd1na2vs0mg"},{"bike_id":"859dd519-23f7-4fa4-be78-c592169babc6","system_id":"levelo_inurba_marseille","lat":43.28155,"lon":5.42654,"is_reserved":false,"is_disabled":false,"rental_uris":{"android":"levelo://app?vid=859dd519-23f7-4fa4-be78-c592169babc6","ios":"levelo://app?vid=859dd519-23f7-4fa4-be78-c592169babc6"},"vehicle_type_id":"4","last_reported":1743847762,"current_range_meters":18000,"station_id":"ce4bhnh2rcd13ifvqgug","pricing_plan_id":"cebpf4jnsgd1na2vs0mg"},{"bike_id":"69d88f8b-6037-4ae9-b7fd-96e244ab71cf","system_id":"levelo_inurba_marseille","lat":43.22938,"lon":5.3538,"is_reserved":false,"is_disabled":false,"rental_uris":{"android":"levelo://app?vid=69d88f8b-6037-4ae9-b7fd-96e244ab71cf","ios":"levelo://app?vid=69d88f8b-6037-4ae9-b7fd-96e244ab71cf"},"vehicle_type_id":"4","last_reported":1743847762,"current_range_meters":18800,"station_id":"cpo3532slgdg3j2ikp40","pricing_plan_id":"cebpf4jnsgd1na2vs0mg"},{"bike_id":"d6c3d7f4-760c-422c-8667-25e15a7934b3","system_id":"levelo_inurba_marseille","lat":43.30785,"lon":5.37439,"is_reserved":false,"is_disabled":false,"rental_uris":{"android":"levelo://app?vid=d6c3d7f4-760c-422c-8667-25e15a7934b3","ios":"levelo://app?vid=d6c3d7f4-760c-422c-8667-25e15a7934b3"},"vehicle_type_id":"4","last_reported":1743847762,"current_range_meters":18800,"station_id":"","pricing_plan_id":"cebpf4jnsgd1na2vs0mg"},{"bike_id":"a329e9f4-d2a6-4a62-978d-b25ffb56a940","system_id":"levelo_inurba_marseille","lat":43.30395,"lon":5.42502,"is_reserved":false,"is_disabled":false,"rental_uris":{"android":"levelo://app?vid=a329e9f4-d2a6-4a62-978d-b25ffb56a940","ios":"levelo://app?vid=a329e9f4-d2a6-4a62-978d-b25ffb56a940"},"vehicle_type_id":"4","last_reported":1743847762,"current_range_meters":18800,"station_id":"ce4bhoh2rcd13ifvqh6g","pricing_plan_id":"cebpf4jnsgd1na2vs0mg"},{"bike_id":"43d094d8-7ee5-4a1f-be49-f337349f254a","system_id":"levelo_inurba_marseille","lat":43.29802,"lon":5.40403,"is_reserved":false,"is_disabled":false,"rental_uris":{"android":"levelo://app?vid=43d094d8-7ee5-4a1f-be49-f337349f254a","ios":"levelo://app?vid=43d094d8-7ee5-4a1f-be49-f337349f254a"},"vehicle_type_id":"4","last_reported":1743847762,"current_range_meters":18800,"station_id":"ce4bh112rcd13ifvqd90","pricing_plan_id":"cebpf4jnsgd1na2vs0mg"},{"bike_id":"772d9e3c-48b4-4bb6-9a76-6b61b74a32a9","system_id":"levelo_inurba_marseille","lat":43.295712,"lon":5.399636,"is_reserved":false,"is_disabled":true,"rental_uris":{"android":"levelo://app?vid=772d9e3c-48b4-4bb6-9a76-6b61b74a32a9","ios":"levelo://app?vid=772d9e3c-48b4-4bb6-9a76-6b61b74a32a9"},"vehicle_type_id":"4","last_reported":1743847762,"current_range_meters":18800,"station_id":"ce4bh312rcd13ifvqdj0","pricing_plan_id":"cebpf4jnsgd1na2vs0mg"},{"bike_id":"a5ad7fef-69f4-428b-a648-52ec8de47e5d","system_id":"levelo_inurba_marseille","lat":43.30317,"lon":5.40434,"is_reserved":false,"is_disabled":false,"rental_uris":{"android":"levelo://app?vid=a5ad7fef-69f4-428b-a648-52ec8de47e5d","ios":"levelo://app?vid=a5ad7fef-69f4-428b-a648-52ec8de47e5d"},"vehicle_type_id":"4","last_reported":1743847762,"current_range_meters":18800,"station_id":"ce4bh012rcd13ifvqd10","pricing_plan_id":"cebpf4jnsgd1na2vs0mg"},{"bike_id":"f43549ca-f8e1-42f8-ac12-fe7343936ca0","system_id":"levelo_inurba_marseille","lat":43.279849,"lon":5.387316,"is_reserved":false,"is_disabled":false,"rental_uris":{"android":"levelo://app?vid=f43549ca-f8e1-42f8-ac12-fe7343936ca0","ios":"levelo://app?vid=f43549ca-f8e1-42f8-ac12-fe7343936ca0"},"vehicle_type_id":"4","last_reported":1743847762,"current_range_meters":18800,"station_id":"ce4bh4p2rcd13ifvqe1g","pricing_plan_id":"cebpf4jnsgd1na2vs0mg"},{"bike_id":"baeb8404-dcc1-455f-8b61-79a21ca4a61b","system_id":"levelo_inurba_marseille","lat":43.3014,"lon":5.37416,"is_reserved":false,"is_disabled":false,"rental_uris":{"android":"levelo://app?vid=baeb8404-dcc1-455f-8b61-79a21ca4a61b","ios":"levelo://app?vid=baeb8404-dcc1-455f-8b61-79a21ca4a61b"},"vehicle_type_id":"4","last_reported":1743847762,"current_range_meters":18800,"station_id":"ce4bgs92rcd13ifvqcc0","pricing_plan_id":"cebpf4jnsgd1na2vs0mg"},{"bike_id":"908cf791-7a95-4b19-87db-6ab531dc84b6","system_id":"levelo_inurba_marseille","lat":43.21747,"lon":5.34601,"is_reserved":false,"is_disabled":false,"rental_uris":{"android":"levelo://app?vid=908cf791-7a95-4b19-87db-6ab531dc84b6","ios":"levelo://app?vid=908cf791-7a95-4b19-87db-6ab531dc84b6"},"vehicle_type_id":"4","last_reported":1743847762,"current_range_meters":18800,"station_id":"st_cvj6r9ubvosntc0bgbag","pricing_plan_id":"cebpf4jnsgd1na2vs0mg"},{"bike_id":"d46b1434-e380-4fe6-9a18-90048f069dbd","system_id":"levelo_inurba_marseille","lat":43.286101,"lon":5.370648,"is_reserved":false,"is_disabled":false,"rental_uris":{"android":"levelo://app?vid=d46b1434-e380-4fe6-9a18-90048f069dbd","ios":"levelo://app?vid=d46b1434-e380-4fe6-9a18-90048f069dbd"},"vehicle_type_id":"4","last_reported":1743847762,"current_range_meters":18800,"station_id":"ce4bht12rcd13ifvqi60","pricing_plan_id":"cebpf4jnsgd1na2vs0mg"},{"bike_id":"167caf4f-d3d0-44b7-add5-4c1f2da43277","system_id":"levelo_inurba_marseille","lat":43.23959,"lon":5.36639,"is_reserved":false,"is_disabled":false,"rental_uris":{"android":"levelo://app?vid=167caf4f-d3d0-44b7-add5-4c1f2da43277","ios":"levelo://app?vid=167caf4f-d3d0-44b7-add5-4c1f2da43277"},"vehicle_type_id":"4","last_reported":1743847762,"current_range_meters":18800,"station_id":"ce4bhi12rcd13ifvqfp0","pricing_plan_id":"cebpf4jnsgd1na2vs0mg"},{"bike_id":"7efd7665-7f41-44e3-8765-f5dacf8fac1b","system_id":"levelo_inurba_marseille","lat":43.33732,"lon":5.392,"is_reserved":false,"is_disabled":false,"rental_uris":{"android":"levelo://app?vid=7efd7665-7f41-44e3-8765-f5dacf8fac1b","ios":"levelo://app?vid=7efd7665-7f41-44e3-8765-f5dacf8fac1b"},"vehicle_type_id":"4","last_reported":1743847762,"current_range_meters":18800,"station_id":"ce4bhr92rcd13ifvqhsg","pricing_plan_id":"cebpf4jnsgd1na2vs0mg"},{"bike_id":"cf210dd6-0324-4a9b-ad90-22e0dcfb9d1f","system_id":"levelo_inurba_marseille","lat":43.29613,"lon":5.37722,"is_reserved":false,"is_disabled":false,"rental_uris":{"android":"levelo://app?vid=cf210dd6-0324-4a9b-ad90-22e0dcfb9d1f","ios":"levelo://app?vid=cf210dd6-0324-4a9b-ad90-22e0dcfb9d1f"},"vehicle_type_id":"4","last_reported":1743847762,"current_range_meters":18800,"station_id":"ce4bgi92rcd13ifvqb90","pricing_plan_id":"cebpf4jnsgd1na2vs0mg"},{"bike_id":"2d1bdf65-b51e-44a7-ba18-a71e96e83af5","system_id":"levelo_inurba_marseille","lat":43.30742,"lon":5.42439,"is_reserved":false,"is_disabled":false,"rental_uris":{"android":"levelo://app?vid=2d1bdf65-b51e-44a7-ba18-a71e96e83af5","ios":"levelo://app?vid=2d1bdf65-b51e-44a7-ba18-a71e96e83af5"},"vehicle_type_id":"4","last_reported":1743847762,"current_range_meters":19200,"station_id":"st_cvj6ca6bvosntc0bfgr0","pricing_plan_id":"cebpf4jnsgd1na2vs0mg"},{"bike_id":"7bd9d26b-0179-4cd7-a3bd-a6d0622f26dc","system_id":"levelo_inurba_marseille","lat":43.305573,"lon":5.365556,"is_reserved":false,"is_disabled":false,"rental_uris":{"android":"levelo://app?vid=7bd9d26b-0179-4cd7-a3bd-a6d0622f26dc","ios":"levelo://app?vid=7bd9d26b-0179-4cd7-a3bd-a6d0622f26dc"},"vehicle_type_id":"4","last_reported":1743847762,"current_range_meters":19200,"station_id":"ce4bgs12rcd13ifvqcag","pricing_plan_id":"cebpf4jnsgd1na2vs0mg"},{"bike_id":"57f112c7-e8ff-4910-9ecd-a3b172ffb49e","system_id":"levelo_inurba_marseille","lat":43.29576,"lon":5.36745,"is_reserved":false,"is_disabled":false,"rental_uris":{"android":"levelo://app?vid=57f112c7-e8ff-4910-9ecd-a3b172ffb49e","ios":"levelo://app?vid=57f112c7-e8ff-4910-9ecd-a3b172ffb49e"},"vehicle_type_id":"4","last_reported":1743847762,"current_range_meters":19200,"station_id":"ce4bgph2rcd13ifvqc2g","pricing_plan_id":"cebpf4jnsgd1na2vs0mg"},{"bike_id":"62a9f03b-f7bb-4d1a-939f-9c0c8f4e6a4f","system_id":"levelo_inurba_marseille","lat":43.271995,"lon":5.391924,"is_reserved":false,"is_disabled":false,"rental_uris":{"android":"levelo://app?vid=62a9f03b-f7bb-4d1a-939f-9c0c8f4e6a4f","ios":"levelo://app?vid=62a9f03b-f7bb-4d1a-939f-9c0c8f4e6a4f"},"vehicle_type_id":"4","last_reported":1743847762,"current_range_meters":19200,"station_id":"ce4bhhp2rcd13ifvqfm0","pricing_plan_id":"cebpf4jnsgd1na2vs0mg"},{"bike_id":"59a9cff4-c5df-4dda-acff-ce7619fb69ec","system_id":"levelo_inurba_marseille","lat":43.25114,"lon":5.40327,"is_reserved":false,"is_disabled":false,"rental_uris":{"android":"levelo://app?vid=59a9cff4-c5df-4dda-acff-ce7619fb69ec","ios":"levelo://app?vid=59a9cff4-c5df-4dda-acff-ce7619fb69ec"},"vehicle_type_id":"4","last_reported":1743847762,"current_range_meters":19200,"station_id":"ce4bhlh2rcd13ifvqgig","pricing_plan_id":"cebpf4jnsgd1na2vs0mg"},{"bike_id":"01f6e46c-a614-404e-a74d-e3e1f5d6f3b4","system_id":"levelo_inurba_marseille","lat":43.217493,"lon":5.346019,"is_reserved":false,"is_disabled":false,"rental_uris":{"android":"levelo://app?vid=01f6e46c-a614-404e-a74d-e3e1f5d6f3b4","ios":"levelo://app?vid=01f6e46c-a614-404e-a74d-e3e1f5d6f3b4"},"vehicle_type_id":"4","last_reported":1743847762,"current_range_meters":19200,"station_id":"st_cvj6r9ubvosntc0bgbag","pricing_plan_id":"cebpf4jnsgd1na2vs0mg"},{"bike_id":"6a04c08d-1cbb-46c2-bfb5-2455aacaa759","system_id":"levelo_inurba_marseille","lat":43.2762,"lon":5.3611,"is_reserved":false,"is_disabled":false,"rental_uris":{"android":"levelo://app?vid=6a04c08d-1cbb-46c2-bfb5-2455aacaa759","ios":"levelo://app?vid=6a04c08d-1cbb-46c2-bfb5-2455aacaa759"},"vehicle_type_id":"4","last_reported":1743847762,"current_range_meters":19600,"station_id":"ce4bgj92rcd13ifvqbe0","pricing_plan_id":"cebpf4jnsgd1na2vs0mg"},{"bike_id":"da5d89a9-fe62-4855-a86b-9069d7ba63b7","system_id":"levelo_inurba_marseille","lat":43.31331,"lon":5.39698,"is_reserved":false,"is_disabled":false,"rental_uris":{"android":"levelo://app?vid=da5d89a9-fe62-4855-a86b-9069d7ba63b7","ios":"levelo://app?vid=da5d89a9-fe62-4855-a86b-9069d7ba63b7"},"vehicle_type_id":"4","last_reported":1743847762,"current_range_meters":19600,"station_id":"ce4bgvp2rcd13ifvqcu0","pricing_plan_id":"cebpf4jnsgd1na2vs0mg"},{"bike_id":"8f2b15fd-7b43-4128-a2f6-d3bbd734a3eb","system_id":"levelo_inurba_marseille","lat":43.28611,"lon":5.35116,"is_reserved":false,"is_disabled":false,"rental_uris":{"android":"levelo://app?vid=8f2b15fd-7b43-4128-a2f6-d3bbd734a3eb","ios":"levelo://app?vid=8f2b15fd-7b43-4128-a2f6-d3bbd734a3eb"},"vehicle_type_id":"4","last_reported":1743847762,"current_range_meters":19600,"station_id":"ce4bhch2rcd13ifvqeug","pricing_plan_id":"cebpf4jnsgd1na2vs0mg"},{"bike_id":"6eabd992-aa73-47a6-86f8-93bc0ef0ac8e","system_id":"levelo_inurba_marseille","lat":43.28473,"lon":5.35869,"is_reserved":false,"is_disabled":true,"rental_uris":{"android":"levelo://app?vid=6eabd992-aa73-47a6-86f8-93bc0ef0ac8e","ios":"levelo://app?vid=6eabd992-aa73-47a6-86f8-93bc0ef0ac8e"},"vehicle_type_id":"4","last_reported":1743847762,"current_range_meters":19600,"station_id":"ce4bhah2rcd13ifvqei0","pricing_plan_id":"cebpf4jnsgd1na2vs0mg"},{"bike_id":"1473ede0-55a3-4c01-a403-406621f689c9","system_id":"levelo_inurba_marseille","lat":43.31494,"lon":5.37286,"is_reserved":false,"is_disabled":false,"rental_uris":{"android":"levelo://app?vid=1473ede0-55a3-4c01-a403-406621f689c9","ios":"levelo://app?vid=1473ede0-55a3-4c01-a403-406621f689c9"},"vehicle_type_id":"4","last_reported":1743847762,"current_range_meters":19600,"station_id":"ce4bgt12rcd13ifvqcd0","pricing_plan_id":"cebpf4jnsgd1na2vs0mg"},{"bike_id":"a4217832-7555-46d1-ae13-b84486cf3184","system_id":"levelo_inurba_marseille","lat":43.21194,"lon":5.3507,"is_reserved":false,"is_disabled":false,"rental_uris":{"android":"levelo://app?vid=a4217832-7555-46d1-ae13-b84486cf3184","ios":"levelo://app?vid=a4217832-7555-46d1-ae13-b84486cf3184"},"vehicle_type_id":"4","last_reported":1743847762,"current_range_meters":19600,"station_id":"st_cvj6sg6p6f1abm77japg","pricing_plan_id":"cebpf4jnsgd1na2vs0mg"},{"bike_id":"4a1cb96e-3080-483d-924e-26f54c7180d8","system_id":"levelo_inurba_marseille","lat":43.32108,"lon":5.36772,"is_reserved":false,"is_disabled":false,"rental_uris":{"android":"levelo://app?vid=4a1cb96e-3080-483d-924e-26f54c7180d8","ios":"levelo://app?vid=4a1cb96e-3080-483d-924e-26f54c7180d8"},"vehicle_type_id":"4","last_reported":1743847762,"current_range_meters":19600,"station_id":"ce4bhrh2rcd13ifvqhug","pricing_plan_id":"cebpf4jnsgd1na2vs0mg"},{"bike_id":"9d3604b4-f848-460f-82db-dcd5547f7641","system_id":"levelo_inurba_marseille","lat":43.22927,"lon":5.35374,"is_reserved":false,"is_disabled":false,"rental_uris":{"android":"levelo://app?vid=9d3604b4-f848-460f-82db-dcd5547f7641","ios":"levelo://app?vid=9d3604b4-f848-460f-82db-dcd5547f7641"},"vehicle_type_id":"4","last_reported":1743847762,"current_range_meters":20000,"station_id":"cpo3532slgdg3j2ikp40","pricing_plan_id":"cebpf4jnsgd1na2vs0mg"},{"bike_id":"cdacd8d0-e410-46c2-afa3-3876df2bfe24","system_id":"levelo_inurba_marseille","lat":43.28434,"lon":5.39206,"is_reserved":false,"is_disabled":false,"rental_uris":{"android":"levelo://app?vid=cdacd8d0-e410-46c2-afa3-3876df2bfe24","ios":"levelo://app?vid=cdacd8d0-e410-46c2-afa3-3876df2bfe24"},"vehicle_type_id":"4","last_reported":1743847762,"current_range_meters":20000,"station_id":"ce4bhoh2rcd13ifvqh5g","pricing_plan_id":"cebpf4jnsgd1na2vs0mg"},{"bike_id":"864aa942-7214-4cb4-b56e-cff4d4fea1ef","system_id":"levelo_inurba_marseille","lat":43.29623,"lon":5.406,"is_reserved":false,"is_disabled":false,"rental_uris":{"android":"levelo://app?vid=864aa942-7214-4cb4-b56e-cff4d4fea1ef","ios":"levelo://app?vid=864aa942-7214-4cb4-b56e-cff4d4fea1ef"},"vehicle_type_id":"4","last_reported":1743847762,"current_range_meters":20000,"station_id":"ce4bh0h2rcd13ifvqd60","pricing_plan_id":"cebpf4jnsgd1na2vs0mg"},{"bike_id":"f678e1b9-34df-4ef4-b53f-514c899c869f","system_id":"levelo_inurba_marseille","lat":43.23195,"lon":5.35565,"is_reserved":false,"is_disabled":false,"rental_uris":{"android":"levelo://app?vid=f678e1b9-34df-4ef4-b53f-514c899c869f","ios":"levelo://app?vid=f678e1b9-34df-4ef4-b53f-514c899c869f"},"vehicle_type_id":"4","last_reported":1743847762,"current_range_meters":19600,"station_id":"ce4bhu92rcd13ifvqi70","pricing_plan_id":"cebpf4jnsgd1na2vs0mg"},{"bike_id":"689444d8-0103-4340-b1dd-7415a2b9068b","system_id":"levelo_inurba_marseille","lat":43.26555,"lon":5.37287,"is_reserved":false,"is_disabled":false,"rental_uris":{"android":"levelo://app?vid=689444d8-0103-4340-b1dd-7415a2b9068b","ios":"levelo://app?vid=689444d8-0103-4340-b1dd-7415a2b9068b"},"vehicle_type_id":"4","last_reported":1743847762,"current_range_meters":20000,"station_id":"ce4bhg12rcd13ifvqf70","pricing_plan_id":"cebpf4jnsgd1na2vs0mg"},{"bike_id":"047cc4d1-6d27-4a29-947b-b2b45c9f598d","system_id":"levelo_inurba_marseille","lat":43.25492,"lon":5.37645,"is_reserved":false,"is_disabled":false,"rental_uris":{"android":"levelo://app?vid=047cc4d1-6d27-4a29-947b-b2b45c9f598d","ios":"levelo://app?vid=047cc4d1-6d27-4a29-947b-b2b45c9f598d"},"vehicle_type_id":"4","last_reported":1743847762,"current_range_meters":20000,"station_id":"ce4bhh12rcd13ifvqff0","pricing_plan_id":"cebpf4jnsgd1na2vs0mg"},{"bike_id":"fec349df-4ea1-4ef6-87ed-cc5c07081d3a","system_id":"levelo_inurba_marseille","lat":43.29627,"lon":5.40591,"is_reserved":false,"is_disabled":false,"rental_uris":{"android":"levelo://app?vid=fec349df-4ea1-4ef6-87ed-cc5c07081d3a","ios":"levelo://app?vid=fec349df-4ea1-4ef6-87ed-cc5c07081d3a"},"vehicle_type_id":"4","last_reported":1743847762,"current_range_meters":20400,"station_id":"ce4bh0h2rcd13ifvqd60","pricing_plan_id":"cebpf4jnsgd1na2vs0mg"},{"bike_id":"f43524e9-36ca-4321-9aa0-22192211d951","system_id":"levelo_inurba_marseille","lat":43.25107,"lon":5.40333,"is_reserved":false,"is_disabled":false,"rental_uris":{"android":"levelo://app?vid=f43524e9-36ca-4321-9aa0-22192211d951","ios":"levelo://app?vid=f43524e9-36ca-4321-9aa0-22192211d951"},"vehicle_type_id":"4","last_reported":1743847762,"current_range_meters":20400,"station_id":"ce4bhlh2rcd13ifvqgig","pricing_plan_id":"cebpf4jnsgd1na2vs0mg"},{"bike_id":"c0d6202d-5275-4031-a25e-f40961aafe52","system_id":"levelo_inurba_marseille","lat":43.25493,"lon":5.3765,"is_reserved":false,"is_disabled":false,"rental_uris":{"android":"levelo://app?vid=c0d6202d-5275-4031-a25e-f40961aafe52","ios":"levelo://app?vid=c0d6202d-5275-4031-a25e-f40961aafe52"},"vehicle_type_id":"4","last_reported":1743847762,"current_range_meters":20400,"station_id":"ce4bhh12rcd13ifvqff0","pricing_plan_id":"cebpf4jnsgd1na2vs0mg"},{"bike_id":"c8e04de8-1ac1-4a40-8560-5fa710865798","system_id":"levelo_inurba_marseille","lat":43.26201,"lon":5.37928,"is_reserved":false,"is_disabled":false,"rental_uris":{"android":"levelo://app?vid=c8e04de8-1ac1-4a40-8560-5fa710865798","ios":"levelo://app?vid=c8e04de8-1ac1-4a40-8560-5fa710865798"},"vehicle_type_id":"4","last_reported":1743847762,"current_range_meters":20400,"station_id":"ce4bhjp2rcd13ifvqg90","pricing_plan_id":"cebpf4jnsgd1na2vs0mg"},{"bike_id":"65f9eac1-3119-45f4-9d03-3ee50e5bf449","system_id":"levelo_inurba_marseille","lat":43.29586,"lon":5.40562,"is_reserved":false,"is_disabled":false,"rental_uris":{"android":"levelo://app?vid=65f9eac1-3119-45f4-9d03-3ee50e5bf449","ios":"levelo://app?vid=65f9eac1-3119-45f4-9d03-3ee50e5bf449"},"vehicle_type_id":"4","last_reported":1743847762,"current_range_meters":20400,"station_id":"ce4bh0h2rcd13ifvqd60","pricing_plan_id":"cebpf4jnsgd1na2vs0mg"},{"bike_id":"c2e9244f-0e6d-4a5f-adef-3baee57eec53","system_id":"levelo_inurba_marseille","lat":43.296348,"lon":5.371643,"is_reserved":false,"is_disabled":false,"rental_uris":{"android":"levelo://app?vid=c2e9244f-0e6d-4a5f-adef-3baee57eec53","ios":"levelo://app?vid=c2e9244f-0e6d-4a5f-adef-3baee57eec53"},"vehicle_type_id":"4","last_reported":1743847762,"current_range_meters":20400,"station_id":"ce4bgnh2rcd13ifvqc0g","pricing_plan_id":"cebpf4jnsgd1na2vs0mg"},{"bike_id":"c48b2c47-c0b2-4fab-9220-86822ad41749","system_id":"levelo_inurba_marseille","lat":43.29263,"lon":5.38436,"is_reserved":false,"is_disabled":false,"rental_uris":{"android":"levelo://app?vid=c48b2c47-c0b2-4fab-9220-86822ad41749","ios":"levelo://app?vid=c48b2c47-c0b2-4fab-9220-86822ad41749"},"vehicle_type_id":"4","last_reported":1743847762,"current_range_meters":20400,"station_id":"ce4bh692rcd13ifvqea0","pricing_plan_id":"cebpf4jnsgd1na2vs0mg"},{"bike_id":"85b01ab4-4324-4897-8a70-c5c41249a4e7","system_id":"levelo_inurba_marseille","lat":43.295259,"lon":5.390311,"is_reserved":false,"is_disabled":false,"rental_uris":{"android":"levelo://app?vid=85b01ab4-4324-4897-8a70-c5c41249a4e7","ios":"levelo://app?vid=85b01ab4-4324-4897-8a70-c5c41249a4e7"},"vehicle_type_id":"4","last_reported":1743847762,"current_range_meters":20400,"station_id":"ce4bh3p2rcd13ifvqdp0","pricing_plan_id":"cebpf4jnsgd1na2vs0mg"},{"bike_id":"b1a6838a-94bf-4bae-9d0b-ae1f3e06c3ed","system_id":"levelo_inurba_marseille","lat":43.32765,"lon":5.3924,"is_reserved":false,"is_disabled":false,"rental_uris":{"android":"levelo://app?vid=b1a6838a-94bf-4bae-9d0b-ae1f3e06c3ed","ios":"levelo://app?vid=b1a6838a-94bf-4bae-9d0b-ae1f3e06c3ed"},"vehicle_type_id":"4","last_reported":1743847762,"current_range_meters":20800,"station_id":"","pricing_plan_id":"cebpf4jnsgd1na2vs0mg"},{"bike_id":"a75da2fb-c6fa-4553-8636-3579aa4a68ca","system_id":"levelo_inurba_marseille","lat":43.25575,"lon":5.38223,"is_reserved":false,"is_disabled":false,"rental_uris":{"android":"levelo://app?vid=a75da2fb-c6fa-4553-8636-3579aa4a68ca","ios":"levelo://app?vid=a75da2fb-c6fa-4553-8636-3579aa4a68ca"},"vehicle_type_id":"4","last_reported":1743847762,"current_range_meters":20800,"station_id":"ce4bhih2rcd13ifvqfs0","pricing_plan_id":"cebpf4jnsgd1na2vs0mg"},