{"last_updated":1703437555,"ttl":30,"version":"2.2","data":{"bikes":[{"bike_id":"5656be27-3332-43c3-809d-352269bb33cd","system_id":"levelo_inurba_marseille","lat":43.313391,"lon":5.36706,"is_reserved":false,"is_disabled":false,"rental_uris":{"android":"levelo://app?vid=5656be27-3332-43c3-809d-352269bb33cd","ios":"levelo://app?vid=5656be27-3332-43c3-809d-352269bb33cd"},"vehicle_type_id":"4","last_reported":1703437555,"current_range_meters":20400,"station_id":"ce4bgr92rcd13ifvqc6g","pricing_plan_id":"free"},{"bike_id":"7d13b1e5-0a69-46fb-bc88-9695b933b5e1","system_id":"levelo_inurba_marseille","lat":43.312239,"lon":5.368562,"is_reserved":false,"is_disabled":false,"rental_uris":{"android":"levelo://app?vid=7d13b1e5-0a69-46fb-bc88-9695b933b5e1","ios":"levelo://app?vid=7d13b1e5-0a69-46fb-bc88-9695b933b5e1"},"vehicle_type_id":"4","last_reported":1703437555,"current_range_meters":26800,"station_id":"ce4bgl92rcd13ifvqbq0","pricing_plan_id":"free"},{"bike_id":"90949a22-209a-4a9d-be06-a2b656d7aac1","system_id":"levelo_inurba_marseille","lat":43.31216,"lon":5.36849,"is_reserved":false,"is_disabled":false,"rental_uris":{"android":"levelo://app?vid=90949a22-209a-4a9d-be06-a2b656d7aac1","ios":"levelo://app?vid=90949a22-209a-4a9d-be06-a2b656d7aac1"},"vehicle_type_id":"4","last_reported":1703437555,"current_range_meters":2000,"station_id":"ce4bgl92rcd13ifvqbq0","pricing_plan_id":"free"},{"bike_id":"a43b0399-a336-4201-8a9d-e28f3eaaf723","system_id":"levelo_inurba_marseille","lat":43.312239,"lon":5.368562,"is_reserved":false,"is_disabled":false,"rental_uris":{"android":"levelo://app?vid=a43b0399-a336-4201-8a9d-e28f3eaaf723","ios":"levelo://app?vid=a43b0399-a336-4201-8a9d-e28f3eaaf723"},"vehicle_type_id":"4","last_reported":1703437555,"current_range_meters":22000,"station_id":"ce4bgl92rcd13ifvqbq0","pricing_plan_id":"free"},{"bike_id":"ccdf326c-1b05-4223-8055-1100bbf6b292","system_id":"levelo_inurba_marseille","lat":43.314811,"lon":5.373104,"is_reserved":false,"is_disabled":false,"rental_uris":{"android":"levelo://app?vid=ccdf326c-1b05-4223-8055-1100bbf6b292","ios":"levelo://app?vid=ccdf326c-1b05-4223-8055-1100bbf6b292"},"vehicle_type_id":"4","last_reported":1703437555,"current_range_meters":20400,"station_id":"ce4bgt12rcd13ifvqcd0","pricing_plan_id":"free"},{"bike_id":"04a36fac-bf9a-488a-99d8-dec513785714","system_id":"levelo_inurba_marseille","lat":43.309039,"lon":5.371797,"is_reserved":false,"is_disabled":false,"rental_uris":{"android":"levelo://app?vid=04a36fac-bf9a-488a-99d8-dec513785714","ios":"levelo://app?vid=04a36fac-bf9a-488a-99d8-dec513785714"},"vehicle_type_id":"4","last_reported":1703437555,"current_range_meters":28800,"station_id":"ce4bguh2rcd13ifvqckg","pricing_plan_id":"free"},{"bike_id":"d2be49f4-d512-450f-80de-370a6da97420","system_id":"levelo_inurba_marseille","lat":43.318955,"lon":5.368765,"is_reserved":false,"is_disabled":false,"rental_uris":{"android":"levelo://app?vid=d2be49f4-d512-450f-80de-370a6da97420","ios":"levelo://app?vid=d2be49f4-d512-450f-80de-370a6da97420"},"vehicle_type_id":"4","last_reported":1703437555,"current_range_meters":11600,"station_id":"","pricing_plan_id":"free"},{"bike_id":"cc2f4e4f-2b28-4e84-be8f-32c8a171c9e1","system_id":"levelo_inurba_marseille","lat":43.318046,"lon":5.372136,"is_reserved":false,"is_disabled":false,"rental_uris":{"android":"levelo://app?vid=cc2f4e4f-2b28-4e84-be8f-32c8a171c9e1","ios":"levelo://app?vid=cc2f4e4f-2b28-4e84-be8f-32c8a171c9e1"},"vehicle_type_id":"4","last_reported":1703437555,"current_range_meters":29600,"station_id":"","pricing_plan_id":"free"},{"bike_id":"7f025210-53dc-4cd5-b3ba-fbf9a9dafef4","system_id":"levelo_inurba_marseille","lat":43.305368,"lon":5.367343,"is_reserved":false,"is_disabled":false,"rental_uris":{"android":"levelo://app?vid=7f025210-53dc-4cd5-b3ba-fbf9a9dafef4","ios":"levelo://app?vid=7f025210-53dc-4cd5-b3ba-fbf9a9dafef4"},"vehicle_type_id":"4","last_reported":1703437555,"current_range_meters":1200,"station_id":"ce4bgrp2rcd13ifvqc9g","pricing_plan_id":"free"},{"bike_id":"6fea4d7c-7f7e-42cc-9308-cbd123b0544b","system_id":"levelo_inurba_marseille","lat":43.305368,"lon":5.367343,"is_reserved":false,"is_disabled":false,"rental_uris":{"android":"levelo://app?vid=6fea4d7c-7f7e-42cc-9308-cbd123b0544b","ios":"levelo://app?vid=6fea4d7c-7f7e-42cc-9308-cbd123b0544b"},"vehicle_type_id":"4","last_reported":1703437555,"current_range_meters":16400,"station_id":"ce4bgrp2rcd13ifvqc9g","pricing_plan_id":"free"},{"bike_id":"09608530-176b-44b0-8325-876b526d4f5c","system_id":"levelo_inurba_marseille","lat":43.305712,"lon":5.365641,"is_reserved":false,"is_disabled":false,"rental_uris":{"android":"levelo://app?vid=09608530-176b-44b0-8325-876b526d4f5c","ios":"levelo://app?vid=09608530-176b-44b0-8325-876b526d4f5c"},"vehicle_type_id":"4","last_reported":1703437555,"current_range_meters":13600,"station_id":"ce4bgs12rcd13ifvqcag","pricing_plan_id":"free"},{"bike_id":"ec8d336b-b6cc-4c71-8a3b-5b04c7cb2d9e","system_id":"levelo_inurba_marseille","lat":43.3185,"lon":5.373866,"is_reserved":false,"is_disabled":false,"rental_uris":{"android":"levelo://app?vid=ec8d336b-b6cc-4c71-8a3b-5b04c7cb2d9e","ios":"levelo://app?vid=ec8d336b-b6cc-4c71-8a3b-5b04c7cb2d9e"},"vehicle_type_id":"4","last_reported":1703437555,"current_range_meters":29200,"station_id":"","pricing_plan_id":"free"},{"bike_id":"33ad9fee-e844-4649-ba48-68912d27a324","system_id":"levelo_inurba_marseille","lat":43.30611,"lon":5.37225,"is_reserved":false,"is_disabled":false,"rental_uris":{"android":"levelo://app?vid=33ad9fee-e844-4649-ba48-68912d27a324","ios":"levelo://app?vid=33ad9fee-e844-4649-ba48-68912d27a324"},"vehicle_type_id":"4","last_reported":1703437555,"current_range_meters":15600,"station_id":"ce4bgqh2rcd13ifvqc4g","pricing_plan_id":"free"},{"bike_id":"5c06433c-9c0f-4525-9a7c-8efbc53a4c03","system_id":"levelo_inurba_marseille","lat":43.306093,"lon":5.37222,"is_reserved":false,"is_disabled":false,"rental_uris":{"android":"levelo://app?vid=5c06433c-9c0f-4525-9a7c-8efbc53a4c03","ios":"levelo://app?vid=5c06433c-9c0f-4525-9a7c-8efbc53a4c03"},"vehicle_type_id":"4","last_reported":1703437555,"current_range_meters":10800,"station_id":"ce4bgqh2rcd13ifvqc4g","pricing_plan_id":"free"},{"bike_id":"067565cf-bbce-44ae-8762-ac7cec4c5b8c","system_id":"levelo_inurba_marseille","lat":43.305989,"lon":5.37225,"is_reserved":false,"is_disabled":false,"rental_uris":{"android":"levelo://app?vid=067565cf-bbce-44ae-8762-ac7cec4c5b8c","ios":"levelo://app?vid=067565cf-bbce-44ae-8762-ac7cec4c5b8c"},"vehicle_type_id":"4","last_reported":1703437555,"current_range_meters":24800,"station_id":"ce4bgqh2rcd13ifvqc4g","pricing_plan_id":"free"},{"bike_id":"c9b91919-628f-470a-b64e-6b8c4dbeea33","system_id":"levelo_inurba_marseille","lat":43.305989,"lon":5.37225,"is_reserved":false,"is_disabled":false,"rental_uris":{"android":"levelo://app?vid=c9b91919-628f-470a-b64e-6b8c4dbeea33","ios":"levelo://app?vid=c9b91919-628f-470a-b64e-6b8c4dbeea33"},"vehicle_type_id":"4","last_reported":1703437555,"current_range_meters":28000,"station_id":"ce4bgqh2rcd13ifvqc4g","pricing_plan_id":"free"},{"bike_id":"53d180fc-369f-4936-8aa0-b9434643f8b4","system_id":"levelo_inurba_marseille","lat":43.305989,"lon":5.37225,"is_reserved":false,"is_disabled":false,"rental_uris":{"android":"levelo://app?vid=53d180fc-369f-4936-8aa0-b9434643f8b4","ios":"levelo://app?vid=53d180fc-369f-4936-8aa0-b9434643f8b4"},"vehicle_type_id":"4","last_reported":1703437555,"current_range_meters":3600,"station_id":"ce4bgqh2rcd13ifvqc4g","pricing_plan_id":"free"},{"bike_id":"a14e9265-7dd2-4f50-a6a4-79f6094f6061","system_id":"levelo_inurba_marseille","lat":43.305989,"lon":5.37225,"is_reserved":false,"is_disabled":false,"rental_uris":{"android":"levelo://app?vid=a14e9265-7dd2-4f50-a6a4-79f6094f6061","ios":"levelo://app?vid=a14e9265-7dd2-4f50-a6a4-79f6094f6061"},"vehicle_type_id":"4","last_reported":1703437555,"current_range_meters":31200,"station_id":"ce4bgqh2rcd13ifvqc4g","pricing_plan_id":"free"},{"bike_id":"aa248619-1fa0-4c1e-b6f5-4537c4559021","system_id":"levelo_inurba_marseille","lat":43.305989,"lon":5.37225,"is_reserved":false,"is_disabled":false,"rental_uris":{"android":"levelo://app?vid=aa248619-1fa0-4c1e-b6f5-4537c4559021","ios":"levelo://app?vid=aa248619-1fa0-4c1e-b6f5-4537c4559021"},"vehicle_type_id":"4","last_reported":1703437555,"current_range_meters":21200,"station_id":"ce4bgqh2rcd13ifvqc4g","pricing_plan_id":"free"},{"bike_id":"969b7981-79e6-4eaf-8a61-608a681bbc7c","system_id":"levelo_inurba_marseille","lat":43.311131,"lon":5.377651,"is_reserved":false,"is_disabled":false,"rental_uris":{"android":"levelo://app?vid=969b7981-79e6-4eaf-8a61-608a681bbc7c","ios":"levelo://app?vid=969b7981-79e6-4eaf-8a61-608a681bbc7c"},"vehicle_type_id":"4","last_reported":1703437555,"current_range_meters":23200,"station_id":"ce4bgt92rcd13ifvqcg0","pricing_plan_id":"free"},{"bike_id":"9cdf5cb7-45f8-48cd-821a-0d78a2efcf3a","system_id":"levelo_inurba_marseille","lat":43.311131,"lon":5.377651,"is_reserved":false,"is_disabled":false,"rental_uris":{"android":"levelo://app?vid=9cdf5cb7-45f8-48cd-821a-0d78a2efcf3a","ios":"levelo://app?vid=9cdf5cb7-45f8-48cd-821a-0d78a2efcf3a"},"vehicle_type_id":"4","last_reported":1703437555,"current_range_meters":30800,"station_id":"ce4bgt92rcd13ifvqcg0","pricing_plan_id":"free"},{"bike_id":"fc05bf8c-a50a-4d7f-a001-3adab982e7b4","system_id":"levelo_inurba_marseille","lat":43.311131,"lon":5.377651,"is_reserved":false,"is_disabled":false,"rental_uris":{"android":"levelo://app?vid=fc05bf8c-a50a-4d7f-a001-3adab982e7b4","ios":"levelo://app?vid=fc05bf8c-a50a-4d7f-a001-3adab982e7b4"},"vehicle_type_id":"4","last_reported":1703437555,"current_range_meters":21200,"station_id":"ce4bgt92rcd13ifvqcg0","pricing_plan_id":"free"},{"bike_id":"5c9d964c-745d-4db8-b63e-a6e920a82328","system_id":"levelo_inurba_marseille","lat":43.307945,"lon":5.376487,"is_reserved":false,"is_disabled":false,"rental_uris":{"android":"levelo://app?vid=5c9d964c-745d-4db8-b63e-a6e920a82328","ios":"levelo://app?vid=5c9d964c-745d-4db8-b63e-a6e920a82328"},"vehicle_type_id":"4","last_reported":1703437555,"current_range_meters":26400,"station_id":"ce4bgv92rcd13ifvqcq0","pricing_plan_id":"free"},{"bike_id":"4eaa17e2-b56f-40db-917d-3d3aeb528e85","system_id":"levelo_inurba_marseille","lat":43.307945,"lon":5.376487,"is_reserved":false,"is_disabled":false,"rental_uris":{"android":"levelo://app?vid=4eaa17e2-b56f-40db-917d-3d3aeb528e85","ios":"levelo://app?vid=4eaa17e2-b56f-40db-917d-3d3aeb528e85"},"vehicle_type_id":"4","last_reported":1703437555,"current_range_meters":28800,"station_id":"ce4bgv92rcd13ifvqcq0","pricing_plan_id":"free"},{"bike_id":"60007d49-6508-46d5-8816-246c8111db63","system_id":"levelo_inurba_marseille","lat":43.317075,"lon":5.377367,"is_reserved":false,"is_disabled":false,"rental_uris":{"android":"levelo://app?vid=60007d49-6508-46d5-8816-246c8111db63","ios":"levelo://app?vid=60007d49-6508-46d5-8816-246c8111db63"},"vehicle_type_id":"4","last_reported":1703437555,"current_range_meters":17600,"station_id":"ce4bgth2rcd13ifvqch0","pricing_plan_id":"free"},{"bike_id":"699be814-d5de-463f-89c7-04be84e8f804","system_id":"levelo_inurba_marseille","lat":43.303046,"lon":5.368981,"is_reserved":false,"is_disabled":false,"rental_uris":{"android":"levelo://app?vid=699be814-d5de-463f-89c7-04be84e8f804","ios":"levelo://app?vid=699be814-d5de-463f-89c7-04be84e8f804"},"vehicle_type_id":"4","last_reported":1703437555,"current_range_meters":26400,"station_id":"ce4bgqh2rcd13ifvqc5g","pricing_plan_id":"free"},{"bike_id":"616f91b1-fffa-4bbf-9f81-1524ba2698eb","system_id":"levelo_inurba_marseille","lat":43.30304,"lon":5.368987,"is_reserved":false,"is_disabled":false,"rental_uris":{"android":"levelo://app?vid=616f91b1-fffa-4bbf-9f81-1524ba2698eb","ios":"levelo://app?vid=616f91b1-fffa-4bbf-9f81-1524ba2698eb"},"vehicle_type_id":"4","last_reported":1703437555,"current_range_meters":5200,"station_id":"ce4bgqh2rcd13ifvqc5g","pricing_plan_id":"free"},{"bike_id":"8707c2d4-2376-4897-a4cf-e6b1e82d0f51","system_id":"levelo_inurba_marseille","lat":43.315293,"lon":5.380349,"is_reserved":false,"is_disabled":false,"rental_uris":{"android":"levelo://app?vid=8707c2d4-2376-4897-a4cf-e6b1e82d0f51","ios":"levelo://app?vid=8707c2d4-2376-4897-a4cf-e6b1e82d0f51"},"vehicle_type_id":"4","last_reported":1703437555,"current_range_meters":25600,"station_id":"ce4bhsp2rcd13ifvqi50","pricing_plan_id":"free"},{"bike_id":"e6eefbd8-ecea-42cb-8c7a-0640952ddaea","system_id":"levelo_inurba_marseille","lat":43.31778,"lon":5.37908,"is_reserved":false,"is_disabled":false,"rental_uris":{"android":"levelo://app?vid=e6eefbd8-ecea-42cb-8c7a-0640952ddaea","ios":"levelo://app?vid=e6eefbd8-ecea-42cb-8c7a-0640952ddaea"},"vehicle_type_id":"4","last_reported":1703437555,"current_range_meters":26800,"station_id":"","pricing_plan_id":"free"},{"bike_id":"b374967f-e57d-4479-844e-5e16d161ba3c","system_id":"levelo_inurba_marseille","lat":43.301939,"lon":5.366286,"is_reserved":false,"is_disabled":false,"rental_uris":{"android":"levelo://app?vid=b374967f-e57d-4479-844e-5e16d161ba3c","ios":"levelo://app?vid=b374967f-e57d-4479-844e-5e16d161ba3c"},"vehicle_type_id":"4","last_reported":1703437555,"current_range_meters":30000,"station_id":"ce4bgrh2rcd13ifvqc8g","pricing_plan_id":"free"},{"bike_id":"d7daac0b-06b1-4691-a4b4-ea7c3ae8e303","system_id":"levelo_inurba_marseille","lat":43.308012,"lon":5.381511,"is_reserved":false,"is_disabled":false,"rental_uris":{"android":"levelo://app?vid=d7daac0b-06b1-4691-a4b4-ea7c3ae8e303","ios":"levelo://app?vid=d7daac0b-06b1-4691-a4b4-ea7c3ae8e303"},"vehicle_type_id":"4","last_reported":1703437555,"current_range_meters":28400,"station_id":"ce4bgt12rcd13ifvqce0","pricing_plan_id":"free"},{"bike_id":"ffd194ba-d4a8-4fa7-823e-6853af6221a1","system_id":"levelo_inurba_marseille","lat":43.308012,"lon":5.381511,"is_reserved":false,"is_disabled":false,"rental_uris":{"android":"levelo://app?vid=ffd194ba-d4a8-4fa7-823e-6853af6221a1","ios":"levelo://app?vid=ffd194ba-d4a8-4fa7-823e-6853af6221a1"},"vehicle_type_id":"4","last_reported":1703437555,"current_range_meters":11600,"station_id":"ce4bgt12rcd13ifvqce0","pricing_plan_id":"free"},{"bike_id":"809faa9e-e50b-48d7-bd51-c19cfa6e7724","system_id":"levelo_inurba_marseille","lat":43.308012,"lon":5.381511,"is_reserved":false,"is_disabled":false,"rental_uris":{"android":"levelo://app?vid=809faa9e-e50b-48d7-bd51-c19cfa6e7724","ios":"levelo://app?vid=809faa9e-e50b-48d7-bd51-c19cfa6e7724"},"vehicle_type_id":"4","last_reported":1703437555,"current_range_meters":29600,"station_id":"ce4bgt12rcd13ifvqce0","pricing_plan_id":"free"},{"bike_id":"13c347a7-55d1-4812-bd29-e7e75e9f7f71","system_id":"levelo_inurba_marseille","lat":43.304606,"lon":5.379026,"is_reserved":false,"is_disabled":false,"rental_uris":{"android":"levelo://app?vid=13c347a7-55d1-4812-bd29-e7e75e9f7f71","ios":"levelo://app?vid=13c347a7-55d1-4812-bd29-e7e75e9f7f71"},"vehicle_type_id":"4","last_reported":1703437555,"current_range_meters":25200,"station_id":"ce4bgup2rcd13ifvqcn0","pricing_plan_id":"free"},{"bike_id":"446d8fa6-81b3-427c-bd00-58d2a2e6924d","system_id":"levelo_inurba_marseille","lat":43.30468,"lon":5.37899,"is_reserved":false,"is_disabled":false,"rental_uris":{"android":"levelo://app?vid=446d8fa6-81b3-427c-bd00-58d2a2e6924d","ios":"levelo://app?vid=446d8fa6-81b3-427c-bd00-58d2a2e6924d"},"vehicle_type_id":"4","last_reported":1703437555,"current_range_meters":24000,"station_id":"ce4bgup2rcd13ifvqcn0","pricing_plan_id":"free"},{"bike_id":"e667f1aa-5cb4-4f70-8e66-71dc8f6132da","system_id":"levelo_inurba_marseille","lat":43.30468,"lon":5.37901,"is_reserved":false,"is_disabled":false,"rental_uris":{"android":"levelo://app?vid=e667f1aa-5cb4-4f70-8e66-71dc8f6132da","ios":"levelo://app?vid=e667f1aa-5cb4-4f70-8e66-71dc8f6132da"},"vehicle_type_id":"4","last_reported":1703437555,"current_range_meters":22400,"station_id":"ce4bgup2rcd13ifvqcn0","pricing_plan_id":"free"},{"bike_id":"5f2c8efb-34f2-46f2-a9d1-d3627cc208c1","system_id":"levelo_inurba_marseille","lat":43.304606,"lon":5.379026,"is_reserved":false,"is_disabled":false,"rental_uris":{"android":"levelo://app?vid=5f2c8efb-34f2-46f2-a9d1-d3627cc208c1","ios":"levelo://app?vid=5f2c8efb-34f2-46f2-a9d1-d3627cc208c1"},"vehicle_type_id":"4","last_reported":1703437555,"current_range_meters":31600,"station_id":"ce4bgup2rcd13ifvqcn0","pricing_plan_id":"free"},{"bike_id":"10f9ec95-43ed-41a2-999b-2ba66fbcc700","system_id":"levelo_inurba_marseille","lat":43.30465,"lon":5.37899,"is_reserved":false,"is_disabled":false,"rental_uris":{"android":"levelo://app?vid=10f9ec95-43ed-41a2-999b-2ba66fbcc700","ios":"levelo://app?vid=10f9ec95-43ed-41a2-999b-2ba66fbcc700"},"vehicle_type_id":"4","last_reported":1703437555,"current_range_meters":18400,"station_id":"ce4bgup2rcd13ifvqcn0","pricing_plan_id":"free"},{"bike_id":"5c1dd57d-571f-4219-a983-f344ee88ef1d","system_id":"levelo_inurba_marseille","lat":43.304606,"lon":5.379026,"is_reserved":false,"is_disabled":false,"rental_uris":{"android":"levelo://app?vid=5c1dd57d-571f-4219-a983-f344ee88ef1d","ios":"levelo://app?vid=5c1dd57d-571f-4219-a983-f344ee88ef1d"},"vehicle_type_id":"4","last_reported":1703437555,"current_range_meters":31200,"station_id":"ce4bgup2rcd13ifvqcn0","pricing_plan_id":"free"},{"bike_id":"855ba258-0c75-451b-86f8-a4947d929404","system_id":"levelo_inurba_marseille","lat":43.30467,"lon":5.37904,"is_reserved":false,"is_disabled":false,"rental_uris":{"android":"levelo://app?vid=855ba258-0c75-451b-86f8-a4947d929404","ios":"levelo://app?vid=855ba258-0c75-451b-86f8-a4947d929404"},"vehicle_type_id":"4","last_reported":1703437555,"current_range_meters":30000,"station_id":"ce4bgup2rcd13ifvqcn0","pricing_plan_id":"free"},{"bike_id":"5e83298c-1e0c-42a2-9507-ae8b143aa949","system_id":"levelo_inurba_marseille","lat":43.304606,"lon":5.379026,"is_reserved":false,"is_disabled":false,"rental_uris":{"android":"levelo://app?vid=5e83298c-1e0c-42a2-9507-ae8b143aa949","ios":"levelo://app?vid=5e83298c-1e0c-42a2-9507-ae8b143aa949"},"vehicle_type_id":"4","last_reported":1703437555,"current_range_meters":24400,"station_id":"ce4bgup2rcd13ifvqcn0","pricing_plan_id":"free"},{"bike_id":"1e035c79-537a-48e3-ba97-e9e458d10005","system_id":"levelo_inurba_marseille","lat":43.304606,"lon":5.379026,"is_reserved":false,"is_disabled":false,"rental_uris":{"android":"levelo://app?vid=1e035c79-537a-48e3-ba97-e9e458d10005","ios":"levelo://app?vid=1e035c79-537a-48e3-ba97-e9e458d10005"},"vehicle_type_id":"4","last_reported":1703437555,"current_range_meters":26400,"station_id":"ce4bgup2rcd13ifvqcn0","pricing_plan_id":"free"},{"bike_id":"2397f53c-ebcf-4575-bf1f-746ca8356c04","system_id":"levelo_inurba_marseille","lat":43.30461,"lon":5.37898,"is_reserved":false,"is_disabled":false,"rental_uris":{"android":"levelo://app?vid=2397f53c-ebcf-4575-bf1f-746ca8356c04","ios":"levelo://app?vid=2397f53c-ebcf-4575-bf1f-746ca8356c04"},"vehicle_type_id":"4","last_reported":1703437555,"current_range_meters":16800,"station_id":"ce4bgup2rcd13ifvqcn0","pricing_plan_id":"free"},{"bike_id":"230d6e90-4bf4-4d64-9fc5-911769ccb777","system_id":"levelo_inurba_marseille","lat":43.3046,"lon":5.37898,"is_reserved":false,"is_disabled":false,"rental_uris":{"android":"levelo://app?vid=230d6e90-4bf4-4d64-9fc5-911769ccb777","ios":"levelo://app?vid=230d6e90-4bf4-4d64-9fc5-911769ccb777"},"vehicle_type_id":"4","last_reported":1703437555,"current_range_meters":19600,"station_id":"ce4bgup2rcd13ifvqcn0","pricing_plan_id":"free"},{"bike_id":"1102be0f-1591-4c4f-84b5-ab8de4fca5d4","system_id":"levelo_inurba_marseille","lat":43.304606,"lon":5.379026,"is_reserved":false,"is_disabled":false,"rental_uris":{"android":"levelo://app?vid=1102be0f-1591-4c4f-84b5-ab8de4fca5d4","ios":"levelo://app?vid=1102be0f-1591-4c4f-84b5-ab8de4fca5d4"},"vehicle_type_id":"4","last_reported":1703437555,"current_range_meters":27200,"station_id":"ce4bgup2rcd13ifvqcn0","pricing_plan_id":"free"},{"bike_id":"4dd00629-92ac-447e-b49f-797d483c08c7","system_id":"levelo_inurba_marseille","lat":43.3046,"lon":5.379,"is_reserved":false,"is_disabled":false,"rental_uris":{"android":"levelo://app?vid=4dd00629-92ac-447e-b49f-797d483c08c7","ios":"levelo://app?vid=4dd00629-92ac-447e-b49f-797d483c08c7"},"vehicle_type_id":"4","last_reported":1703437555,"current_range_meters":27200,"station_id":"ce4bgup2rcd13ifvqcn0","pricing_plan_id":"free"},{"bike_id":"cece7b36-f5a6-404e-8c76-f8ebc899cda1","system_id":"levelo_inurba_marseille","lat":43.304659,"lon":5.379082,"is_reserved":false,"is_disabled":false,"rental_uris":{"android":"levelo://app?vid=cece7b36-f5a6-404e-8c76-f8ebc899cda1","ios":"levelo://app?vid=cece7b36-f5a6-404e-8c76-f8ebc899cda1"},"vehicle_type_id":"4","last_reported":1703437555,"current_range_meters":27200,"station_id":"ce4bgup2rcd13ifvqcn0","pricing_plan_id":"free"},{"bike_id":"3e3cea46-211e-4934-a3a4-d8465e65e881","system_id":"levelo_inurba_marseille","lat":43.304606,"lon":5.379026,"is_reserved":false,"is_disabled":false,"rental_uris":{"android":"levelo://app?vid=3e3cea46-211e-4934-a3a4-d8465e65e881","ios":"levelo://app?vid=3e3cea46-211e-4934-a3a4-d8465e65e881"},"vehicle_type_id":"4","last_reported":1703437555,"current_range_meters":22800,"station_id":"ce4bgup2rcd13ifvqcn0","pricing_plan_id":"free"},{"bike_id":"91cdb5cd-11af-47e9-a7a5-8a569e28e79e","system_id":"levelo_inurba_marseille","lat":43.304606,"lon":5.379026,"is_reserved":false,"is_disabled":false,"rental_uris":{"android":"levelo://app?vid=91cdb5cd-11af-47e9-a7a5-8a569e28e79e","ios":"levelo://app?vid=91cdb5cd-11af-47e9-a7a5-8a569e28e79e"},"vehicle_type_id":"4","last_reported":1703437555,"current_range_meters":20800,"station_id":"ce4bgup2rcd13ifvqcn0","pricing_plan_id":"free"},{"bike_id":"ccaf289c-0d1b-4a42-a9be-815832807615","system_id":"levelo_inurba_marseille","lat":43.304606,"lon":5.379026,"is_reserved":false,"is_disabled":false,"rental_uris":{"android":"levelo://app?vid=ccaf289c-0d1b-4a42-a9be-815832807615","ios":"levelo://app?vid=ccaf289c-0d1b-4a42-a9be-815832807615"},"vehicle_type_id":"4","last_reported":1703437555,"current_range_meters":20000,"station_id":"ce4bgup2rcd13ifvqcn0","pricing_plan_id":"free"},{"bike_id":"2802b683-b4c3-4f8e-ae5b-10d90c717eec","system_id":"levelo_inurba_marseille","lat":43.304606,"lon":5.379026,"is_reserved":false,"is_disabled":false,"rental_uris":{"android":"levelo://app?vid=2802b683-b4c3-4f8e-ae5b-10d90c717eec","ios":"levelo://app?vid=2802b683-b4c3-4f8e-ae5b-10d90c717eec"},"vehicle_type_id":"4","last_reported":1703437555,"current_range_meters":13600,"station_id":"ce4bgup2rcd13ifvqcn0","pricing_plan_id":"free"},{"bike_id":"f5c0e4d6-16bd-47eb-ba92-aa201d0984ce","system_id":"levelo_inurba_marseille","lat":43.324771,"lon":5.36557,"is_reserved":false,"is_disabled":false,"rental_uris":{"android":"levelo://app?vid=f5c0e4d6-16bd-47eb-ba92-aa201d0984ce","ios":"levelo://app?vid=f5c0e4d6-16bd-47eb-ba92-aa201d0984ce"},"vehicle_type_id":"4","last_reported":1703437555,"current_range_meters":12000,"station_id":"ce4bhs12rcd13ifvqhvg","pricing_plan_id":"free"},{"bike_id":"6a3e3d28-1291-4d4b-bf7c-74834b7950d7","system_id":"levelo_inurba_marseille","lat":43.324771,"lon":5.36557,"is_reserved":false,"is_disabled":false,"rental_uris":{"android":"levelo://app?vid=6a3e3d28-1291-4d4b-bf7c-74834b7950d7","ios":"levelo://app?vid=6a3e3d28-1291-4d4b-bf7c-74834b7950d7"},"vehicle_type_id":"4","last_reported":1703437555,"current_range_meters":29600,"station_id":"ce4bhs12rcd13ifvqhvg","pricing_plan_id":"free"},{"bike_id":"be0b386d-a922-4eb1-ae2e-0222c92eb282","system_id":"levelo_inurba_marseille","lat":43.324771,"lon":5.36557,"is_reserved":false,"is_disabled":false,"rental_uris":{"android":"levelo://app?vid=be0b386d-a922-4eb1-ae2e-0222c92eb282","ios":"levelo://app?vid=be0b386d-a922-4eb1-ae2e-0222c92eb282"},"vehicle_type_id":"4","last_reported":1703437555,"current_range_meters":1600,"station_id":"ce4bhs12rcd13ifvqhvg","pricing_plan_id":"free"},{"bike_id":"9011995a-6fb0-4e38-9a9b-bdcc1110a2a4","system_id":"levelo_inurba_marseille","lat":43.3036,"lon":5.37797,"is_reserved":false,"is_disabled":false,"rental_uris":{"android":"levelo://app?vid=9011995a-6fb0-4e38-9a9b-bdcc1110a2a4","ios":"levelo://app?vid=9011995a-6fb0-4e38-9a9b-bdcc1110a2a4"},"vehicle_type_id":"4","last_reported":1703437555,"current_range_meters":26800,"station_id":"","pricing_plan_id":"free"},{"bike_id":"83d81dd2-a50d-4f2a-b302-9b1f3365f58a","system_id":"levelo_inurba_marseille","lat":43.30143,"lon":5.37413,"is_reserved":false,"is_disabled":false,"rental_uris":{"android":"levelo://app?vid=83d81dd2-a50d-4f2a-b302-9b1f3365f58a","ios":"levelo://app?vid=83d81dd2-a50d-4f2a-b302-9b1f3365f58a"},"vehicle_type_id":"4","last_reported":1703437555,"current_range_meters":25200,"station_id":"ce4bgs92rcd13ifvqcc0","pricing_plan_id":"free"},{"bike_id":"6ce1edc9-e4f5-42ac-968a-0c6341a716b3","system_id":"levelo_inurba_marseille","lat":43.30129,"lon":5.37408,"is_reserved":false,"is_disabled":false,"rental_uris":{"android":"levelo://app?vid=6ce1edc9-e4f5-42ac-968a-0c6341a716b3","ios":"levelo://app?vid=6ce1edc9-e4f5-42ac-968a-0c6341a716b3"},"vehicle_type_id":"4","last_reported":1703437555,"current_range_meters":22400,"station_id":"ce4bgs92rcd13ifvqcc0","pricing_plan_id":"free"},{"bike_id":"2d0691a3-8518-4515-83d8-2ac0d9e64de5","system_id":"levelo_inurba_marseille","lat":43.301429,"lon":5.37413,"is_reserved":false,"is_disabled":false,"rental_uris":{"android":"levelo://app?vid=2d0691a3-8518-4515-83d8-2ac0d9e64de5","ios":"levelo://app?vid=2d0691a3-8518-4515-83d8-2ac0d9e64de5"},"vehicle_type_id":"4","last_reported":1703437555,"current_range_meters":20000,"station_id":"ce4bgs92rcd13ifvqcc0","pricing_plan_id":"free"},{"bike_id":"7575cbfc-24d1-4337-b3bb-b51c7eaf01d2","system_id":"levelo_inurba_marseille","lat":43.319903,"lon":5.38141,"is_reserved":false,"is_disabled":false,"rental_uris":{"android":"levelo://app?vid=7575cbfc-24d1-4337-b3bb-b51c7eaf01d2","ios":"levelo://app?vid=7575cbfc-24d1-4337-b3bb-b51c7eaf01d2"},"vehicle_type_id":"4","last_reported":1703437555,"current_range_meters":7600,"station_id":"ce4bhr12rcd13ifvqhpg","pricing_plan_id":"free"},{"bike_id":"dc0f6af5-c02c-4610-baea-e5c6ca16f530","system_id":"levelo_inurba_marseille","lat":43.319967,"lon":5.381454,"is_reserved":false,"is_disabled":false,"rental_uris":{"android":"levelo://app?vid=dc0f6af5-c02c-4610-baea-e5c6ca16f530","ios":"levelo://app?vid=dc0f6af5-c02c-4610-baea-e5c6ca16f530"},"vehicle_type_id":"4","last_reported":1703437555,"current_range_meters":20400,"station_id":"ce4bhr12rcd13ifvqhpg","pricing_plan_id":"free"},{"bike_id":"6b293ddd-1b4c-4b04-abd1-e3b793bc7eab","system_id":"levelo_inurba_marseille","lat":43.32,"lon":5.38147,"is_reserved":false,"is_disabled":false,"rental_uris":{"android":"levelo://app?vid=6b293ddd-1b4c-4b04-abd1-e3b793bc7eab","ios":"levelo://app?vid=6b293ddd-1b4c-4b04-abd1-e3b793bc7eab"},"vehicle_type_id":"4","last_reported":1703437555,"current_range_meters":23600,"station_id":"ce4bhr12rcd13ifvqhpg","pricing_plan_id":"free"},{"bike_id":"ba23de2f-83a9-453d-9dce-5fb3d6ba6794","system_id":"levelo_inurba_marseille","lat":43.31365,"lon":5.38485,"is_reserved":false,"is_disabled":false,"rental_uris":{"android":"levelo://app?vid=ba23de2f-83a9-453d-9dce-5fb3d6ba6794","ios":"levelo://app?vid=ba23de2f-83a9-453d-9dce-5fb3d6ba6794"},"vehicle_type_id":"4","last_reported":1703437555,"current_range_meters":29600,"station_id":"ce4bgt92rcd13ifvqcf0","pricing_plan_id":"free"},{"bike_id":"a59f05a4-b274-42af-a632-a6e90badfaf0","system_id":"levelo_inurba_marseille","lat":43.31368,"lon":5.38503,"is_reserved":false,"is_disabled":false,"rental_uris":{"android":"levelo://app?vid=a59f05a4-b274-42af-a632-a6e90badfaf0","ios":"levelo://app?vid=a59f05a4-b274-42af-a632-a6e90badfaf0"},"vehicle_type_id":"4","last_reported":1703437555,"current_range_meters":11600,"station_id":"ce4bgt92rcd13ifvqcf0","pricing_plan_id":"free"},{"bike_id":"04621200-8ba2-4bf8-b0a5-f31772f046d0","system_id":"levelo_inurba_marseille","lat":43.299222,"lon":5.365554,"is_reserved":false,"is_disabled":false,"rental_uris":{"android":"levelo://app?vid=04621200-8ba2-4bf8-b0a5-f31772f046d0","ios":"levelo://app?vid=04621200-8ba2-4bf8-b0a5-f31772f046d0"},"vehicle_type_id":"4","last_reported":1703437555,"current_range_meters":24800,"station_id":"ce4bgm92rcd13ifvqbr0","pricing_plan_id":"free"},{"bike_id":"850b3b1e-a22a-4889-a2b6-8d999cd66c79","system_id":"levelo_inurba_marseille","lat":43.299222,"lon":5.365554,"is_reserved":false,"is_disabled":false,"rental_uris":{"android":"levelo://app?vid=850b3b1e-a22a-4889-a2b6-8d999cd66c79","ios":"levelo://app?vid=850b3b1e-a22a-4889-a2b6-8d999cd66c79"},"vehicle_type_id":"4","last_reported":1703437555,"current_range_meters":22000,"station_id":"ce4bgm92rcd13ifvqbr0","pricing_plan_id":"free"},{"bike_id":"198038c1-b945-4412-8750-cd30d4fd5cc3","system_id":"levelo_inurba_marseille","lat":43.299724,"lon":5.371829,"is_reserved":false,"is_disabled":false,"rental_uris":{"android":"levelo://app?vid=198038c1-b945-4412-8750-cd30d4fd5cc3","ios":"levelo://app?vid=198038c1-b945-4412-8750-cd30d4fd5cc3"},"vehicle_type_id":"4","last_reported":1703437555,"current_range_meters":25200,"station_id":"ce4bgr92rcd13ifvqc7g","pricing_plan_id":"free"},{"bike_id":"3c49b30a-3959-4b17-818c-c71f685d2465","system_id":"levelo_inurba_marseille","lat":43.298433,"lon":5.362774,"is_reserved":false,"is_disabled":false,"rental_uris":{"android":"levelo://app?vid=3c49b30a-3959-4b17-818c-c71f685d2465","ios":"levelo://app?vid=3c49b30a-3959-4b17-818c-c71f685d2465"},"vehicle_type_id":"4","last_reported":1703437555,"current_range_meters":14000,"station_id":"ce4bgpp2rcd13ifvqc3g","pricing_plan_id":"free"},{"bike_id":"4eb19f77-57c0-43ac-a575-91a3fe40d6f3","system_id":"levelo_inurba_marseille","lat":43.298433,"lon":5.362774,"is_reserved":false,"is_disabled":false,"rental_uris":{"android":"levelo://app?vid=4eb19f77-57c0-43ac-a575-91a3fe40d6f3","ios":"levelo://app?vid=4eb19f77-57c0-43ac-a575-91a3fe40d6f3"},"vehicle_type_id":"4","last_reported":1703437555,"current_range_meters":29200,"station_id":"ce4bgpp2rcd13ifvqc3g","pricing_plan_id":"free"},{"bike_id":"36ac95ee-eba3-4e0d-8686-078c5bd13a95","system_id":"levelo_inurba_marseille","lat":43.261782,"lon":5.374515,"is_reserved":false,"is_disabled":false,"rental_uris":{"android":"levelo://app?vid=36ac95ee-eba3-4e0d-8686-078c5bd13a95","ios":"levelo://app?vid=36ac95ee-eba3-4e0d-8686-078c5bd13a95"},"vehicle_type_id":"4","last_reported":1703437555,"current_range_meters":7600,"station_id":"ce4bhgp2rcd13ifvqfc0","pricing_plan_id":"free"},{"bike_id":"ded070ae-ce76-4db3-a02d-04490e311293","system_id":"levelo_inurba_marseille","lat":43.299243,"lon":5.374807,"is_reserved":false,"is_disabled":false,"rental_uris":{"android":"levelo://app?vid=ded070ae-ce76-4db3-a02d-04490e311293","ios":"levelo://app?vid=ded070ae-ce76-4db3-a02d-04490e311293"},"vehicle_type_id":"4","last_reported":1703437555,"current_range_meters":24800,"station_id":"ce4bgjh2rcd13ifvqbg0","pricing_plan_id":"free"},{"bike_id":"14cbe51f-166b-4c8d-affa-481a43f5f8e4","system_id":"levelo_inurba_marseille","lat":43.298433,"lon":5.362774,"is_reserved":false,"is_disabled":false,"rental_uris":{"android":"levelo://app?vid=14cbe51f-166b-4c8d-affa-481a43f5f8e4","ios":"levelo://app?vid=14cbe51f-166b-4c8d-affa-481a43f5f8e4"},"vehicle_type_id":"4","last_reported":1703437555,"current_range_meters":30400,"station_id":"ce4bgpp2rcd13ifvqc3g","pricing_plan_id":"free"},{"bike_id":"80f606d8-a98e-437a-a73a-6b91985686f9","system_id":"levelo_inurba_marseille","lat":43.311722,"lon":5.387247,"is_reserved":false,"is_disabled":false,"rental_uris":{"android":"levelo://app?vid=80f606d8-a98e-437a-a73a-6b91985686f9","ios":"levelo://app?vid=80f606d8-a98e-437a-a73a-6b91985686f9"},"vehicle_type_id":"4","last_reported":1703437555,"current_range_meters":0,"station_id":"ce4bgv12rcd13ifvqcp0","pricing_plan_id":"free"},{"bike_id":"61bb6c0c-99b1-427b-989e-6060828f517d","system_id":"levelo_inurba_marseille","lat":43.29907,"lon":5.37474,"is_reserved":false,"is_disabled":false,"rental_uris":{"android":"levelo://app?vid=61bb6c0c-99b1-427b-989e-6060828f517d","ios":"levelo://app?vid=61bb6c0c-99b1-427b-989e-6060828f517d"},"vehicle_type_id":"4","last_reported":1703437555,"current_range_meters":28800,"station_id":"ce4bgjh2rcd13ifvqbg0","pricing_plan_id":"free"},{"bike_id":"ee718a36-63f6-4497-b984-cb042e4f6b44","system_id":"levelo_inurba_marseille","lat":43.29901,"lon":5.37473,"is_reserved":false,"is_disabled":false,"rental_uris":{"android":"levelo://app?vid=ee718a36-63f6-4497-b984-cb042e4f6b44","ios":"levelo://app?vid=ee718a36-63f6-4497-b984-cb042e4f6b44"},"vehicle_type_id":"4","last_reported":1703437555,"current_range_meters":14000,"station_id":"ce4bgjh2rcd13ifvqbg0","pricing_plan_id":"free"},{"bike_id":"951769ce-6d11-453f-aed1-dc93f08e9d01","system_id":"levelo_inurba_marseille","lat":43.297774,"lon":5.370875,"is_reserved":false,"is_disabled":false,"rental_uris":{"android":"levelo://app?vid=951769ce-6d11-453f-aed1-dc93f08e9d01","ios":"levelo://app?vid=951769ce-6d11-453f-aed1-dc93f08e9d01"},"vehicle_type_id":"4","last_reported":1703437555,"current_range_meters":30800,"station_id":"ce4bgop2rcd13ifvqc1g","pricing_plan_id":"free"},{"bike_id":"0379a817-361a-4e8d-923f-70c5f44a4c99","system_id":"levelo_inurba_marseille","lat":43.297877,"lon":5.37095,"is_reserved":false,"is_disabled":false,"rental_uris":{"android":"levelo://app?vid=0379a817-361a-4e8d-923f-70c5f44a4c99","ios":"levelo://app?vid=0379a817-361a-4e8d-923f-70c5f44a4c99"},"vehicle_type_id":"4","last_reported":1703437555,"current_range_meters":16400,"station_id":"ce4bgop2rcd13ifvqc1g","pricing_plan_id":"free"},{"bike_id":"8c715aac-7afc-4086-81f8-a10728946785","system_id":"levelo_inurba_marseille","lat":43.322872,"lon":5.382756,"is_reserved":false,"is_disabled":false,"rental_uris":{"android":"levelo://app?vid=8c715aac-7afc-4086-81f8-a10728946785","ios":"levelo://app?vid=8c715aac-7afc-4086-81f8-a10728946785"},"vehicle_type_id":"4","last_reported":1703437555,"current_range_meters":26000,"station_id":"ce4bhr12rcd13ifvqhqg","pricing_plan_id":"free"},{"bike_id":"4ee0ed3e-1e09-454e-9a52-cda8d01dbf3a","system_id":"levelo_inurba_marseille","lat":43.297163,"lon":5.365866,"is_reserved":false,"is_disabled":false,"rental_uris":{"android":"levelo://app?vid=4ee0ed3e-1e09-454e-9a52-cda8d01dbf3a","ios":"levelo://app?vid=4ee0ed3e-1e09-454e-9a52-cda8d01dbf3a"},"vehicle_type_id":"4","last_reported":1703437555,"current_range_meters":17200,"station_id":"ce4bgn12rcd13ifvqbt0","pricing_plan_id":"free"},{"bike_id":"20db3409-a44b-456f-93ce-27e57c59a5db","system_id":"levelo_inurba_marseille","lat":43.297163,"lon":5.365866,"is_reserved":false,"is_disabled":false,"rental_uris":{"android":"levelo://app?vid=20db3409-a44b-456f-93ce-27e57c59a5db","ios":"levelo://app?vid=20db3409-a44b-456f-93ce-27e57c59a5db"},"vehicle_type_id":"4","last_reported":1703437555,"current_range_meters":28800,"station_id":"ce4bgn12rcd13ifvqbt0","pricing_plan_id":"free"},{"bike_id":"f23a8a7e-c976-4337-b4d7-36cf2c393008","system_id":"levelo_inurba_marseille","lat":43.297163,"lon":5.365866,"is_reserved":false,"is_disabled":false,"rental_uris":{"android":"levelo://app?vid=f23a8a7e-c976-4337-b4d7-36cf2c393008","ios":"levelo://app?vid=f23a8a7e-c976-4337-b4d7-36cf2c393008"},"vehicle_type_id":"4","last_reported":1703437555,"current_range_meters":31200,"station_id":"ce4bgn12rcd13ifvqbt0","pricing_plan_id":"free"},{"bike_id":"921b424d-ad0d-4c7a-9d74-66e3a49bfa19","system_id":"levelo_inurba_marseille","lat":43.32942,"lon":5.36609,"is_reserved":false,"is_disabled":false,"rental_uris":{"android":"levelo://app?vid=921b424d-ad0d-4c7a-9d74-66e3a49bfa19","ios":"levelo://app?vid=921b424d-ad0d-4c7a-9d74-66e3a49bfa19"},"vehicle_type_id":"4","last_reported":1703437555,"current_range_meters":28000,"station_id":"","pricing_plan_id":"free"},{"bike_id":"c2705987-e125-470f-a1d5-c1fd00c158b6","system_id":"levelo_inurba_marseille","lat":43.296262,"lon":5.371508,"is_reserved":false,"is_disabled":false,"rental_uris":{"android":"levelo://app?vid=c2705987-e125-470f-a1d5-c1fd00c158b6","ios":"levelo://app?vid=c2705987-e125-470f-a1d5-c1fd00c158b6"},"vehicle_type_id":"4","last_reported":1703437555,"current_range_meters":24000,"station_id":"ce4bgnh2rcd13ifvqc0g","pricing_plan_id":"free"},{"bike_id":"f07c19aa-041e-4914-93e8-276232e3ce03","system_id":"levelo_inurba_marseille","lat":43.29625,"lon":5.37154,"is_reserved":false,"is_disabled":false,"rental_uris":{"android":"levelo://app?vid=f07c19aa-041e-4914-93e8-276232e3ce03","ios":"levelo://app?vid=f07c19aa-041e-4914-93e8-276232e3ce03"},"vehicle_type_id":"4","last_reported":1703437555,"current_range_meters":28800,"station_id":"ce4bgnh2rcd13ifvqc0g","pricing_plan_id":"free"},{"bike_id":"0e297ed5-35da-41fd-ac15-b784e31a66c7","system_id":"levelo_inurba_marseille","lat":43.29624,"lon":5.37155,"is_reserved":false,"is_disabled":false,"rental_uris":{"android":"levelo://app?vid=0e297ed5-35da-41fd-ac15-b784e31a66c7","ios":"levelo://app?vid=0e297ed5-35da-41fd-ac15-b784e31a66c7"},"vehicle_type_id":"4","last_reported":1703437555,"current_range_meters":26000,"station_id":"ce4bgnh2rcd13ifvqc0g","pricing_plan_id":"free"},{"bike_id":"e008fcc8-1dfb-4528-b542-e9cd3b603e35","system_id":"levelo_inurba_marseille","lat":43.29623,"lon":5.37152,"is_reserved":false,"is_disabled":false,"rental_uris":{"android":"levelo://app?vid=e008fcc8-1dfb-4528-b542-e9cd3b603e35","ios":"levelo://app?vid=e008fcc8-1dfb-4528-b542-e9cd3b603e35"},"vehicle_type_id":"4","last_reported":1703437555,"current_range_meters":28800,"station_id":"ce4bgnh2rcd13ifvqc0g","pricing_plan_id":"free"},{"bike_id":"aa54c380-0e2b-4242-b8c2-213655d6ed12","system_id":"levelo_inurba_marseille","lat":43.29623,"lon":5.37155,"is_reserved":false,"is_disabled":false,"rental_uris":{"android":"levelo://app?vid=aa54c380-0e2b-4242-b8c2-213655d6ed12","ios":"levelo://app?vid=aa54c380-0e2b-4242-b8c2-213655d6ed12"},"vehicle_type_id":"4","last_reported":1703437555,"current_range_meters":21600,"station_id":"ce4bgnh2rcd13ifvqc0g","pricing_plan_id":"free"},{"bike_id":"ebf94bb7-d32a-48da-9a42-64ee917a3c68","system_id":"levelo_inurba_marseille","lat":43.29623,"lon":5.37167,"is_reserved":false,"is_disabled":false,"rental_uris":{"android":"levelo://app?vid=ebf94bb7-d32a-48da-9a42-64ee917a3c68","ios":"levelo://app?vid=ebf94bb7-d32a-48da-9a42-64ee917a3c68"},"vehicle_type_id":"4","last_reported":1703437555,"current_range_meters":29600,"station_id":"ce4bgnh2rcd13ifvqc0g","pricing_plan_id":"free"},{"bike_id":"ad907858-91f6-46a1-9abf-1d89ad53ac79","system_id":"levelo_inurba_marseille","lat":43.29621,"lon":5.37156,"is_reserved":false,"is_disabled":false,"rental_uris":{"android":"levelo://app?vid=ad907858-91f6-46a1-9abf-1d89ad53ac79","ios":"levelo://app?vid=ad907858-91f6-46a1-9abf-1d89ad53ac79"},"vehicle_type_id":"4","last_reported":1703437555,"current_range_meters":28800,"station_id":"ce4bgnh2rcd13ifvqc0g","pricing_plan_id":"free"},{"bike_id":"7cdd548a-7d87-4713-9f57-9fd6263a314c","system_id":"levelo_inurba_marseille","lat":43.296131,"lon":5.370773,"is_reserved":false,"is_disabled":false,"rental_uris":{"android":"levelo://app?vid=7cdd548a-7d87-4713-9f57-9fd6263a314c","ios":"levelo://app?vid=7cdd548a-7d87-4713-9f57-9fd6263a314c"},"vehicle_type_id":"4","last_reported":1703437555,"current_range_meters":16000,"station_id":"ce4bgnh2rcd13ifvqc0g","pricing_plan_id":"free"},{"bike_id":"5023b955-1fb7-4402-82c0-c3db0721f53f","system_id":"levelo_inurba_marseille","lat":43.296131,"lon":5.370773,"is_reserved":false,"is_disabled":false,"rental_uris":{"android":"levelo://app?vid=5023b955-1fb7-4402-82c0-c3db0721f53f","ios":"levelo://app?vid=5023b955-1fb7-4402-82c0-c3db0721f53f"},"vehicle_type_id":"4","last_reported":1703437555,"current_range_meters":22000,"station_id":"ce4bgnh2rcd13ifvqc0g","pricing_plan_id":"free"},{"bike_id":"0a3135ee-7132-4914-afa3-801e618ac0bc","system_id":"levelo_inurba_marseille","lat":43.29619,"lon":5.37153,"is_reserved":false,"is_disabled":false,"rental_uris":{"android":"levelo://app?vid=0a3135ee-7132-4914-afa3-801e618ac0bc","ios":"levelo://app?vid=0a3135ee-7132-4914-afa3-801e618ac0bc"},"vehicle_type_id":"4","last_reported":1703437555,"current_range_meters":29200,"station_id":"ce4bgnh2rcd13ifvqc0g","pricing_plan_id":"free"},{"bike_id":"9c3ec9f6-46da-476d-bc4f-9156120c969b","system_id":"levelo_inurba_marseille","lat":43.2962,"lon":5.37164,"is_reserved":false,"is_disabled":false,"rental_uris":{"android":"levelo://app?vid=9c3ec9f6-46da-476d-bc4f-9156120c969b","ios":"levelo://app?vid=9c3ec9f6-46da-476d-bc4f-9156120c969b"},"vehicle_type_id":"4","last_reported":1703437555,"current_range_meters":26400,"station_id":"ce4bgnh2rcd13ifvqc0g","pricing_plan_id":"free"},{"bike_id":"55891c8b-dca0-4125-8e47-54286c23aec5","system_id":"levelo_inurba_marseille","lat":43.29573,"lon":5.367355,"is_reserved":false,"is_disabled":false,"rental_uris":{"android":"levelo://app?vid=55891c8b-dca0-4125-8e47-54286c23aec5","ios":"levelo://app?vid=55891c8b-dca0-4125-8e47-54286c23aec5"},"vehicle_type_id":"4","last_reported":1703437555,"current_range_meters":8400,"station_id":"ce4bgph2rcd13ifvqc2g","pricing_plan_id":"free"},{"bike_id":"390c6d7f-29d1-4fbf-8a8a-9768780af219","system_id":"levelo_inurba_marseille","lat":43.296131,"lon":5.370773,"is_reserved":false,"is_disabled":false,"rental_uris":{"android":"levelo://app?vid=390c6d7f-29d1-4fbf-8a8a-9768780af219","ios":"levelo://app?vid=390c6d7f-29d1-4fbf-8a8a-9768780af219"},"vehicle_type_id":"4","last_reported":1703437555,"current_range_meters":14800,"station_id":"ce4bgnh2rcd13ifvqc0g","pricing_plan_id":"free"},{"bike_id":"3b9786c3-a824-49dc-817d-40b1df5f5f13","system_id":"levelo_inurba_marseille","lat":43.29573,"lon":5.367355,"is_reserved":false,"is_disabled":false,"rental_uris":{"android":"levelo://app?vid=3b9786c3-a824-49dc-817d-40b1df5f5f13","ios":"levelo://app?vid=3b9786c3-a824-49dc-817d-40b1df5f5f13"},"vehicle_type_id":"4","last_reported":1703437555,"current_range_meters":800,"station_id":"ce4bgph2rcd13ifvqc2g","pricing_plan_id":"free"},{"bike_id":"0fe0760d-3875-444f-8a91-2c69ae5f1197","system_id":"levelo_inurba_marseille","lat":43.296165,"lon":5.371592,"is_reserved":false,"is_disabled":false,"rental_uris":{"android":"levelo://app?vid=0fe0760d-3875-444f-8a91-2c69ae5f1197","ios":"levelo://app?vid=0fe0760d-3875-444f-8a91-2c69ae5f1197"},"vehicle_type_id":"4","last_reported":1703437555,"current_range_meters":26400,"station_id":"","pricing_plan_id":"free"},{"bike_id":"bafd3e50-06cc-47a0-bea5-069d9100fd9f","system_id":"levelo_inurba_marseille","lat":43.29573,"lon":5.367355,"is_reserved":false,"is_disabled":false,"rental_uris":{"android":"levelo://app?vid=bafd3e50-06cc-47a0-bea5-069d9100fd9f","ios":"levelo://app?vid=bafd3e50-06cc-47a0-bea5-069d9100fd9f"},"vehicle_type_id":"4","last_reported":1703437555,"current_range_meters":22800,"station_id":"ce4bgph2rcd13ifvqc2g","pricing_plan_id":"free"},{"bike_id":"cfee1f82-99bb-4389-98ac-d48548c4fb3d","system_id":"levelo_inurba_marseille","lat":43.29573,"lon":5.367355,"is_reserved":false,"is_disabled":false,"rental_uris":{"android":"levelo://app?vid=cfee1f82-99bb-4389-98ac-d48548c4fb3d","ios":"levelo://app?vid=cfee1f82-99bb-4389-98ac-d48548c4fb3d"},"vehicle_type_id":"4","last_reported":1703437555,"current_range_meters":31200,"station_id":"ce4bgph2rcd13ifvqc2g","pricing_plan_id":"free"},{"bike_id":"4102303b-188f-4910-a696-be6191145b2a","system_id":"levelo_inurba_marseille","lat":43.29573,"lon":5.367355,"is_reserved":false,"is_disabled":false,"rental_uris":{"android":"levelo://app?vid=4102303b-188f-4910-a696-be6191145b2a","ios":"levelo://app?vid=4102303b-188f-4910-a696-be6191145b2a"},"vehicle_type_id":"4","last_reported":1703437555,"current_range_meters":22800,"station_id":"ce4bgph2rcd13ifvqc2g","pricing_plan_id":"free"},{"bike_id":"f0df8332-27a6-4ad2-83f2-fefd048166bd","system_id":"levelo_inurba_marseille","lat":43.299028,"lon":5.381509,"is_reserved":false,"is_disabled":false,"rental_uris":{"android":"levelo://app?vid=f0df8332-27a6-4ad2-83f2-fefd048166bd","ios":"levelo://app?vid=f0df8332-27a6-4ad2-83f2-fefd048166bd"},"vehicle_type_id":"4","last_reported":1703437555,"current_range_meters":30000,"station_id":"ce4bgj12rcd13ifvqbc0","pricing_plan_id":"free"},{"bike_id":"5aed1785-421d-4e59-a857-59b6a9237c36","system_id":"levelo_inurba_marseille","lat":43.299028,"lon":5.381509,"is_reserved":false,"is_disabled":false,"rental_uris":{"android":"levelo://app?vid=5aed1785-421d-4e59-a857-59b6a9237c36","ios":"levelo://app?vid=5aed1785-421d-4e59-a857-59b6a9237c36"},"vehicle_type_id":"4","last_reported":1703437555,"current_range_meters":17600,"station_id":"ce4bgj12rcd13ifvqbc0","pricing_plan_id":"free"},{"bike_id":"84bd42cf-6f92-4362-a899-ab0b5d1005bf","system_id":"levelo_inurba_marseille","lat":43.299028,"lon":5.381509,"is_reserved":false,"is_disabled":false,"rental_uris":{"android":"levelo://app?vid=84bd42cf-6f92-4362-a899-ab0b5d1005bf","ios":"levelo://app?vid=84bd42cf-6f92-4362-a899-ab0b5d1005bf"},"vehicle_type_id":"4","last_reported":1703437555,"current_range_meters":31600,"station_id":"ce4bgj12rcd13ifvqbc0","pricing_plan_id":"free"},{"bike_id":"46431827-7e0a-40a6-b280-b3bc6e7fd403","system_id":"levelo_inurba_marseille","lat":43.30946,"lon":5.39034,"is_reserved":false,"is_disabled":false,"rental_uris":{"android":"levelo://app?vid=46431827-7e0a-40a6-b280-b3bc6e7fd403","ios":"levelo://app?vid=46431827-7e0a-40a6-b280-b3bc6e7fd403"},"vehicle_type_id":"4","last_reported":1703437555,"current_range_meters":18400,"station_id":"ce4bgup2rcd13ifvqco0","pricing_plan_id":"free"},{"bike_id":"52607c5e-101f-4052-9703-a2c8fb089388","system_id":"levelo_inurba_marseille","lat":43.31754,"lon":5.39011,"is_reserved":false,"is_disabled":false,"rental_uris":{"android":"levelo://app?vid=52607c5e-101f-4052-9703-a2c8fb089388","ios":"levelo://app?vid=52607c5e-101f-4052-9703-a2c8fb089388"},"vehicle_type_id":"4","last_reported":1703437555,"current_range_meters":4400,"station_id":"ce4bhqp2rcd13ifvqhng","pricing_plan_id":"free"},{"bike_id":"90d9cf58-1dc5-4d8a-824f-802a3b33bbc1","system_id":"levelo_inurba_marseille","lat":43.317557,"lon":5.390173,"is_reserved":false,"is_disabled":false,"rental_uris":{"android":"levelo://app?vid=90d9cf58-1dc5-4d8a-824f-802a3b33bbc1","ios":"levelo://app?vid=90d9cf58-1dc5-4d8a-824f-802a3b33bbc1"},"vehicle_type_id":"4","last_reported":1703437555,"current_range_meters":30400,"station_id":"ce4bhqp2rcd13ifvqhng","pricing_plan_id":"free"},{"bike_id":"84a5b5c2-0a3d-4763-aab7-f7ece2cbc495","system_id":"levelo_inurba_marseille","lat":43.317557,"lon":5.390173,"is_reserved":false,"is_disabled":false,"rental_uris":{"android":"levelo://app?vid=84a5b5c2-0a3d-4763-aab7-f7ece2cbc495","ios":"levelo://app?vid=84a5b5c2-0a3d-4763-aab7-f7ece2cbc495"},"vehicle_type_id":"4","last_reported":1703437555,"current_range_meters":31200,"station_id":"ce4bhqp2rcd13ifvqhng","pricing_plan_id":"free"},{"bike_id":"3038e8a8-c44b-4f87-9b3c-9c6260ab830f","system_id":"levelo_inurba_marseille","lat":43.317536,"lon":5.390181,"is_reserved":false,"is_disabled":false,"rental_uris":{"android":"levelo://app?vid=3038e8a8-c44b-4f87-9b3c-9c6260ab830f","ios":"levelo://app?vid=3038e8a8-c44b-4f87-9b3c-9c6260ab830f"},"vehicle_type_id":"4","last_reported":1703437555,"current_range_meters":13600,"station_id":"ce4bhqp2rcd13ifvqhng","pricing_plan_id":"free"},{"bike_id":"d7d86265-55aa-489e-a138-45442feb7aeb","system_id":"levelo_inurba_marseille","lat":43.31755,"lon":5.39018,"is_reserved":false,"is_disabled":false,"rental_uris":{"android":"levelo://app?vid=d7d86265-55aa-489e-a138-45442feb7aeb","ios":"levelo://app?vid=d7d86265-55aa-489e-a138-45442feb7aeb"},"vehicle_type_id":"4","last_reported":1703437555,"current_range_meters":23200,"station_id":"ce4bhqp2rcd13ifvqhng","pricing_plan_id":"free"},{"bike_id":"0a08705d-c05e-4bd9-a3e5-495433ab69a8","system_id":"levelo_inurba_marseille","lat":43.31758,"lon":5.39022,"is_reserved":false,"is_disabled":false,"rental_uris":{"android":"levelo://app?vid=0a08705d-c05e-4bd9-a3e5-495433ab69a8","ios":"levelo://app?vid=0a08705d-c05e-4bd9-a3e5-495433ab69a8"},"vehicle_type_id":"4","last_reported":1703437555,"current_range_meters":25200,"station_id":"ce4bhqp2rcd13ifvqhng","pricing_plan_id":"free"},{"bike_id":"0107edc4-9a86-426d-8bf8-8abaf13c3c58","system_id":"levelo_inurba_marseille","lat":43.317557,"lon":5.390173,"is_reserved":false,"is_disabled":false,"rental_uris":{"android":"levelo://app?vid=0107edc4-9a86-426d-8bf8-8abaf13c3c58","ios":"levelo://app?vid=0107edc4-9a86-426d-8bf8-8abaf13c3c58"},"vehicle_type_id":"4","last_reported":1703437555,"current_range_meters":31200,"station_id":"ce4bhqp2rcd13ifvqhng","pricing_plan_id":"free"},{"bike_id":"ad2c726a-bfd2-4eb0-8649-b79ffded8884","system_id":"levelo_inurba_marseille","lat":43.295748,"lon":5.37522,"is_reserved":false,"is_disabled":false,"rental_uris":{"android":"levelo://app?vid=ad2c726a-bfd2-4eb0-8649-b79ffded8884","ios":"levelo://app?vid=ad2c726a-bfd2-4eb0-8649-b79ffded8884"},"vehicle_type_id":"4","last_reported":1703437555,"current_range_meters":27200,"station_id":"ce4bgh92rcd13ifvqb50","pricing_plan_id":"free"},{"bike_id":"5f936359-4cb9-40c1-969a-44ffd9a32664","system_id":"levelo_inurba_marseille","lat":43.304274,"lon":5.388873,"is_reserved":false,"is_disabled":false,"rental_uris":{"android":"levelo://app?vid=5f936359-4cb9-40c1-969a-44ffd9a32664","ios":"levelo://app?vid=5f936359-4cb9-40c1-969a-44ffd9a32664"},"vehicle_type_id":"4","last_reported":1703437555,"current_range_meters":0,"station_id":"ce4bgk12rcd13ifvqbi0","pricing_plan_id":"free"},{"bike_id":"cc267dde-70b9-4e0d-9fbb-28878b4e878d","system_id":"levelo_inurba_marseille","lat":43.304274,"lon":5.388873,"is_reserved":false,"is_disabled":false,"rental_uris":{"android":"levelo://app?vid=cc267dde-70b9-4e0d-9fbb-28878b4e878d","ios":"levelo://app?vid=cc267dde-70b9-4e0d-9fbb-28878b4e878d"},"vehicle_type_id":"4","last_reported":1703437555,"current_range_meters":25600,"station_id":"ce4bgk12rcd13ifvqbi0","pricing_plan_id":"free"},{"bike_id":"9b1c455e-5d92-44e5-8e91-abea6c1b6f1c","system_id":"levelo_inurba_marseille","lat":43.295748,"lon":5.37522,"is_reserved":false,"is_disabled":false,"rental_uris":{"android":"levelo://app?vid=9b1c455e-5d92-44e5-8e91-abea6c1b6f1c","ios":"levelo://app?vid=9b1c455e-5d92-44e5-8e91-abea6c1b6f1c"},"vehicle_type_id":"4","last_reported":1703437555,"current_range_meters":16800,"station_id":"ce4bgh92rcd13ifvqb50","pricing_plan_id":"free"},{"bike_id":"aa579d7e-19db-456b-a402-4a2465cfee1d","system_id":"levelo_inurba_marseille","lat":43.296277,"lon":5.377108,"is_reserved":false,"is_disabled":false,"rental_uris":{"android":"levelo://app?vid=aa579d7e-19db-456b-a402-4a2465cfee1d","ios":"levelo://app?vid=aa579d7e-19db-456b-a402-4a2465cfee1d"},"vehicle_type_id":"4","last_reported":1703437555,"current_range_meters":12800,"station_id":"ce4bgi92rcd13ifvqb90","pricing_plan_id":"free"},{"bike_id":"7e4ee04d-7bab-4df4-83dc-f0c651f97668","system_id":"levelo_inurba_marseille","lat":43.304278,"lon":5.388868,"is_reserved":false,"is_disabled":false,"rental_uris":{"android":"levelo://app?vid=7e4ee04d-7bab-4df4-83dc-f0c651f97668","ios":"levelo://app?vid=7e4ee04d-7bab-4df4-83dc-f0c651f97668"},"vehicle_type_id":"4","last_reported":1703437555,"current_range_meters":23200,"station_id":"ce4bgk12rcd13ifvqbi0","pricing_plan_id":"free"},{"bike_id":"629e967f-380d-4b18-a53f-6d473ba5db10","system_id":"levelo_inurba_marseille","lat":43.295279,"lon":5.375048,"is_reserved":false,"is_disabled":false,"rental_uris":{"android":"levelo://app?vid=629e967f-380d-4b18-a53f-6d473ba5db10","ios":"levelo://app?vid=629e967f-380d-4b18-a53f-6d473ba5db10"},"vehicle_type_id":"4","last_reported":1703437555,"current_range_meters":12400,"station_id":"ce4bgkp2rcd13ifvqbmg","pricing_plan_id":"free"},{"bike_id":"0593a398-0bb1-496e-abe4-34f7fbc61cea","system_id":"levelo_inurba_marseille","lat":43.295279,"lon":5.375048,"is_reserved":false,"is_disabled":false,"rental_uris":{"android":"levelo://app?vid=0593a398-0bb1-496e-abe4-34f7fbc61cea","ios":"levelo://app?vid=0593a398-0bb1-496e-abe4-34f7fbc61cea"},"vehicle_type_id":"4","last_reported":1703437555,"current_range_meters":18000,"station_id":"ce4bgkp2rcd13ifvqbmg","pricing_plan_id":"free"},{"bike_id":"fcc90304-0ebf-4929-95ef-4021fca207fc","system_id":"levelo_inurba_marseille","lat":43.299717,"lon":5.384845,"is_reserved":false,"is_disabled":false,"rental_uris":{"android":"levelo://app?vid=fcc90304-0ebf-4929-95ef-4021fca207fc","ios":"levelo://app?vid=fcc90304-0ebf-4929-95ef-4021fca207fc"},"vehicle_type_id":"4","last_reported":1703437555,"current_range_meters":21200,"station_id":"ce4bgj92rcd13ifvqbd0","pricing_plan_id":"free"},{"bike_id":"9ce42c60-8d7a-4033-9101-aea81c60f097","system_id":"levelo_inurba_marseille","lat":43.299717,"lon":5.384845,"is_reserved":false,"is_disabled":false,"rental_uris":{"android":"levelo://app?vid=9ce42c60-8d7a-4033-9101-aea81c60f097","ios":"levelo://app?vid=9ce42c60-8d7a-4033-9101-aea81c60f097"},"vehicle_type_id":"4","last_reported":1703437555,"current_range_meters":0,"station_id":"ce4bgj92rcd13ifvqbd0","pricing_plan_id":"free"},{"bike_id":"f0437205-ba33-4f7a-821f-799940dbd35b","system_id":"levelo_inurba_marseille","lat":43.32377,"lon":5.388647,"is_reserved":false,"is_disabled":false,"rental_uris":{"android":"levelo://app?vid=f0437205-ba33-4f7a-821f-799940dbd35b","ios":"levelo://app?vid=f0437205-ba33-4f7a-821f-799940dbd35b"},"vehicle_type_id":"4","last_reported":1703437555,"current_range_meters":3200,"station_id":"ce4bhqp2rcd13ifvqhog","pricing_plan_id":"free"},{"bike_id":"1083b176-7f73-44c6-bd7b-7d1edddefeca","system_id":"levelo_inurba_marseille","lat":43.32367,"lon":5.388836,"is_reserved":false,"is_disabled":false,"rental_uris":{"android":"levelo://app?vid=1083b176-7f73-44c6-bd7b-7d1edddefeca","ios":"levelo://app?vid=1083b176-7f73-44c6-bd7b-7d1edddefeca"},"vehicle_type_id":"4","last_reported":1703437555,"current_range_meters":28000,"station_id":"ce4bhqp2rcd13ifvqhog","pricing_plan_id":"free"},{"bike_id":"ae5a1bc7-e173-46fd-9ebb-76c8a475fc4c","system_id":"levelo_inurba_marseille","lat":43.29602,"lon":5.381084,"is_reserved":false,"is_disabled":false,"rental_uris":{"android":"levelo://app?vid=ae5a1bc7-e173-46fd-9ebb-76c8a475fc4c","ios":"levelo://app?vid=ae5a1bc7-e173-46fd-9ebb-76c8a475fc4c"},"vehicle_type_id":"4","last_reported":1703437555,"current_range_meters":30400,"station_id":"ce4bgl12rcd13ifvqbo0","pricing_plan_id":"free"},{"bike_id":"f408e147-ba58-4886-8a9c-529f8013b9ea","system_id":"levelo_inurba_marseille","lat":43.293249,"lon":5.371578,"is_reserved":false,"is_disabled":false,"rental_uris":{"android":"levelo://app?vid=f408e147-ba58-4886-8a9c-529f8013b9ea","ios":"levelo://app?vid=f408e147-ba58-4886-8a9c-529f8013b9ea"},"vehicle_type_id":"4","last_reported":1703437555,"current_range_meters":26800,"station_id":"ce4bgh92rcd13ifvqb40","pricing_plan_id":"free"},{"bike_id":"e2dfcedb-2f10-4489-bdd9-2f0d9518524d","system_id":"levelo_inurba_marseille","lat":43.293056,"lon":5.371606,"is_reserved":false,"is_disabled":false,"rental_uris":{"android":"levelo://app?vid=e2dfcedb-2f10-4489-bdd9-2f0d9518524d","ios":"levelo://app?vid=e2dfcedb-2f10-4489-bdd9-2f0d9518524d"},"vehicle_type_id":"4","last_reported":1703437555,"current_range_meters":31200,"station_id":"ce4bgh92rcd13ifvqb40","pricing_plan_id":"free"},{"bike_id":"d5e9c1fd-d7cb-48f0-9e61-3843622cb89a","system_id":"levelo_inurba_marseille","lat":43.293259,"lon":5.371586,"is_reserved":false,"is_disabled":false,"rental_uris":{"android":"levelo://app?vid=d5e9c1fd-d7cb-48f0-9e61-3843622cb89a","ios":"levelo://app?vid=d5e9c1fd-d7cb-48f0-9e61-3843622cb89a"},"vehicle_type_id":"4","last_reported":1703437555,"current_range_meters":27200,"station_id":"ce4bgh92rcd13ifvqb40","pricing_plan_id":"free"},{"bike_id":"c41f4690-1d65-431c-8606-95477ef63eb8","system_id":"levelo_inurba_marseille","lat":43.293081,"lon":5.3719,"is_reserved":false,"is_disabled":false,"rental_uris":{"android":"levelo://app?vid=c41f4690-1d65-431c-8606-95477ef63eb8","ios":"levelo://app?vid=c41f4690-1d65-431c-8606-95477ef63eb8"},"vehicle_type_id":"4","last_reported":1703437555,"current_range_meters":8000,"station_id":"ce4bgh92rcd13ifvqb40","pricing_plan_id":"free"},{"bike_id":"490f9aa6-10b3-457f-a14e-dbf7847d881f","system_id":"levelo_inurba_marseille","lat":43.293063,"lon":5.371774,"is_reserved":false,"is_disabled":false,"rental_uris":{"android":"levelo://app?vid=490f9aa6-10b3-457f-a14e-dbf7847d881f","ios":"levelo://app?vid=490f9aa6-10b3-457f-a14e-dbf7847d881f"},"vehicle_type_id":"4","last_reported":1703437555,"current_range_meters":26000,"station_id":"ce4bgh92rcd13ifvqb40","pricing_plan_id":"free"},{"bike_id":"f895c45c-383d-4405-aac2-cd00baaae675","system_id":"levelo_inurba_marseille","lat":43.292749,"lon":5.368402,"is_reserved":false,"is_disabled":false,"rental_uris":{"android":"levelo://app?vid=f895c45c-383d-4405-aac2-cd00baaae675","ios":"levelo://app?vid=f895c45c-383d-4405-aac2-cd00baaae675"},"vehicle_type_id":"4","last_reported":1703437555,"current_range_meters":22800,"station_id":"ce4bhbp2rcd13ifvqesg","pricing_plan_id":"free"},{"bike_id":"ba334d81-fe1c-453e-b634-bddb925dbaf7","system_id":"levelo_inurba_marseille","lat":43.292749,"lon":5.368402,"is_reserved":false,"is_disabled":false,"rental_uris":{"android":"levelo://app?vid=ba334d81-fe1c-453e-b634-bddb925dbaf7","ios":"levelo://app?vid=ba334d81-fe1c-453e-b634-bddb925dbaf7"},"vehicle_type_id":"4","last_reported":1703437555,"current_range_meters":3200,"station_id":"ce4bhbp2rcd13ifvqesg","pricing_plan_id":"free"},{"bike_id":"554f0e58-7ae3-426e-a8c6-0229dde45b4a","system_id":"levelo_inurba_marseille","lat":43.305994,"lon":5.393687,"is_reserved":false,"is_disabled":false,"rental_uris":{"android":"levelo://app?vid=554f0e58-7ae3-426e-a8c6-0229dde45b4a","ios":"levelo://app?vid=554f0e58-7ae3-426e-a8c6-0229dde45b4a"},"vehicle_type_id":"4","last_reported":1703437555,"current_range_meters":20400,"station_id":"ce4bh0p2rcd13ifvqd80","pricing_plan_id":"free"},{"bike_id":"1f707cf7-4c90-42ed-bf05-b7e8434af969","system_id":"levelo_inurba_marseille","lat":43.305994,"lon":5.393687,"is_reserved":false,"is_disabled":false,"rental_uris":{"android":"levelo://app?vid=1f707cf7-4c90-42ed-bf05-b7e8434af969","ios":"levelo://app?vid=1f707cf7-4c90-42ed-bf05-b7e8434af969"},"vehicle_type_id":"4","last_reported":1703437555,"current_range_meters":26000,"station_id":"ce4bh0p2rcd13ifvqd80","pricing_plan_id":"free"},{"bike_id":"806edde1-7994-45bb-94b3-5c32d7296ee8","system_id":"levelo_inurba_marseille","lat":43.305994,"lon":5.393687,"is_reserved":false,"is_disabled":false,"rental_uris":{"android":"levelo://app?vid=806edde1-7994-45bb-94b3-5c32d7296ee8","ios":"levelo://app?vid=806edde1-7994-45bb-94b3-5c32d7296ee8"},"vehicle_type_id":"4","last_reported":1703437555,"current_range_meters":22000,"station_id":"ce4bh0p2rcd13ifvqd80","pricing_plan_id":"free"},{"bike_id":"d5aa9e85-efb2-42ed-8261-a89295e44a4f","system_id":"levelo_inurba_marseille","lat":43.305994,"lon":5.393687,"is_reserved":false,"is_disabled":false,"rental_uris":{"android":"levelo://app?vid=d5aa9e85-efb2-42ed-8261-a89295e44a4f","ios":"levelo://app?vid=d5aa9e85-efb2-42ed-8261-a89295e44a4f"},"vehicle_type_id":"4","last_reported":1703437555,"current_range_meters":27600,"station_id":"ce4bh0p2rcd13ifvqd80","pricing_plan_id":"free"},{"bike_id":"04b05b59-b2f5-4b72-be43-dac23ca734c1","system_id":"levelo_inurba_marseille","lat":43.2936,"lon":5.37835,"is_reserved":false,"is_disabled":false,"rental_uris":{"android":"levelo://app?vid=04b05b59-b2f5-4b72-be43-dac23ca734c1","ios":"levelo://app?vid=04b05b59-b2f5-4b72-be43-dac23ca734c1"},"vehicle_type_id":"4","last_reported":1703437555,"current_range_meters":19200,"station_id":"ce4bgjh2rcd13ifvqbf0","pricing_plan_id":"free"},{"bike_id":"e6319aab-0ce6-49ed-a105-9058193cc9f0","system_id":"levelo_inurba_marseille","lat":43.300852,"lon":5.390859,"is_reserved":false,"is_disabled":false,"rental_uris":{"android":"levelo://app?vid=e6319aab-0ce6-49ed-a105-9058193cc9f0","ios":"levelo://app?vid=e6319aab-0ce6-49ed-a105-9058193cc9f0"},"vehicle_type_id":"4","last_reported":1703437555,"current_range_meters":24000,"station_id":"ce4bh192rcd13ifvqdb0","pricing_plan_id":"free"},{"bike_id":"c43ebc02-4225-48cb-80db-01511cbda3f7","system_id":"levelo_inurba_marseille","lat":43.291675,"lon":5.371583,"is_reserved":false,"is_disabled":false,"rental_uris":{"android":"levelo://app?vid=c43ebc02-4225-48cb-80db-01511cbda3f7","ios":"levelo://app?vid=c43ebc02-4225-48cb-80db-01511cbda3f7"},"vehicle_type_id":"4","last_reported":1703437555,"current_range_meters":30800,"station_id":"ce4bha92rcd13ifvqeh0","pricing_plan_id":"free"},{"bike_id":"8d8fa6ae-f64a-490b-aab3-0e072fa9f28a","system_id":"levelo_inurba_marseille","lat":43.291675,"lon":5.371583,"is_reserved":false,"is_disabled":false,"rental_uris":{"android":"levelo://app?vid=8d8fa6ae-f64a-490b-aab3-0e072fa9f28a","ios":"levelo://app?vid=8d8fa6ae-f64a-490b-aab3-0e072fa9f28a"},"vehicle_type_id":"4","last_reported":1703437555,"current_range_meters":17600,"station_id":"ce4bha92rcd13ifvqeh0","pricing_plan_id":"free"},{"bike_id":"7b05f563-fa83-42d5-a3d7-0cab30cd522a","system_id":"levelo_inurba_marseille","lat":43.29192,"lon":5.35813,"is_reserved":false,"is_disabled":false,"rental_uris":{"android":"levelo://app?vid=7b05f563-fa83-42d5-a3d7-0cab30cd522a","ios":"levelo://app?vid=7b05f563-fa83-42d5-a3d7-0cab30cd522a"},"vehicle_type_id":"4","last_reported":1703437555,"current_range_meters":10800,"station_id":"ce4bhb12rcd13ifvqel0","pricing_plan_id":"free"},{"bike_id":"a9739283-cbc3-446b-9a4a-c56bd4323992","system_id":"levelo_inurba_marseille","lat":43.313291,"lon":5.396838,"is_reserved":false,"is_disabled":false,"rental_uris":{"android":"levelo://app?vid=a9739283-cbc3-446b-9a4a-c56bd4323992","ios":"levelo://app?vid=a9739283-cbc3-446b-9a4a-c56bd4323992"},"vehicle_type_id":"4","last_reported":1703437555,"current_range_meters":16000,"station_id":"ce4bgvp2rcd13ifvqcu0","pricing_plan_id":"free"},{"bike_id":"19df2ee9-0e41-4521-b328-d41df0b62d1d","system_id":"levelo_inurba_marseille","lat":43.313291,"lon":5.396838,"is_reserved":false,"is_disabled":false,"rental_uris":{"android":"levelo://app?vid=19df2ee9-0e41-4521-b328-d41df0b62d1d","ios":"levelo://app?vid=19df2ee9-0e41-4521-b328-d41df0b62d1d"},"vehicle_type_id":"4","last_reported":1703437555,"current_range_meters":17200,"station_id":"ce4bgvp2rcd13ifvqcu0","pricing_plan_id":"free"},{"bike_id":"48ba5561-0529-4777-a905-33245b145e53","system_id":"levelo_inurba_marseille","lat":43.313291,"lon":5.396838,"is_reserved":false,"is_disabled":false,"rental_uris":{"android":"levelo://app?vid=48ba5561-0529-4777-a905-33245b145e53","ios":"levelo://app?vid=48ba5561-0529-4777-a905-33245b145e53"},"vehicle_type_id":"4","last_reported":1703437555,"current_range_meters":4400,"station_id":"ce4bgvp2rcd13ifvqcu0","pricing_plan_id":"free"},{"bike_id":"25426bb9-837e-4f67-9b1e-a16f29956da8","system_id":"levelo_inurba_marseille","lat":43.313291,"lon":5.396838,"is_reserved":false,"is_disabled":false,"rental_uris":{"android":"levelo://app?vid=25426bb9-837e-4f67-9b1e-a16f29956da8","ios":"levelo://app?vid=25426bb9-837e-4f67-9b1e-a16f29956da8"},"vehicle_type_id":"4","last_reported":1703437555,"current_range_meters":20000,"station_id":"ce4bgvp2rcd13ifvqcu0","pricing_plan_id":"free"},{"bike_id":"bdf1dafe-ff1d-46dd-8ef6-59740f07d51e","system_id":"levelo_inurba_marseille","lat":43.29529,"lon":5.385581,"is_reserved":false,"is_disabled":false,"rental_uris":{"android":"levelo://app?vid=bdf1dafe-ff1d-46dd-8ef6-59740f07d51e","ios":"levelo://app?vid=bdf1dafe-ff1d-46dd-8ef6-59740f07d51e"},"vehicle_type_id":"4","last_reported":1703437555,"current_range_meters":31200,"station_id":"ce4bgih2rcd13ifvqba0","pricing_plan_id":"free"},{"bike_id":"11a1c90d-2430-4c31-93a5-607c8809c0d4","system_id":"levelo_inurba_marseille","lat":43.29529,"lon":5.385581,"is_reserved":false,"is_disabled":false,"rental_uris":{"android":"levelo://app?vid=11a1c90d-2430-4c31-93a5-607c8809c0d4","ios":"levelo://app?vid=11a1c90d-2430-4c31-93a5-607c8809c0d4"},"vehicle_type_id":"4","last_reported":1703437555,"current_range_meters":25600,"station_id":"ce4bgih2rcd13ifvqba0","pricing_plan_id":"free"},{"bike_id":"c9b1c0e2-557e-436f-a456-8501d8364a64","system_id":"levelo_inurba_marseille","lat":43.290779,"lon":5.371482,"is_reserved":false,"is_disabled":false,"rental_uris":{"android":"levelo://app?vid=c9b1c0e2-557e-436f-a456-8501d8364a64","ios":"levelo://app?vid=c9b1c0e2-557e-436f-a456-8501d8364a64"},"vehicle_type_id":"4","last_reported":1703437555,"current_range_meters":28800,"station_id":"ce4bh5p2rcd13ifvqe4g","pricing_plan_id":"free"},{"bike_id":"d47343ac-99f5-4d5e-9dd0-b052a49a106e","system_id":"levelo_inurba_marseille","lat":43.302008,"lon":5.394694,"is_reserved":false,"is_disabled":false,"rental_uris":{"android":"levelo://app?vid=d47343ac-99f5-4d5e-9dd0-b052a49a106e","ios":"levelo://app?vid=d47343ac-99f5-4d5e-9dd0-b052a49a106e"},"vehicle_type_id":"4","last_reported":1703437555,"current_range_meters":7200,"station_id":"ce4bh0p2rcd13ifvqd70","pricing_plan_id":"free"},{"bike_id":"b74a02e3-3866-4aed-b17b-d5c58cfac9c8","system_id":"levelo_inurba_marseille","lat":43.290624,"lon":5.359245,"is_reserved":false,"is_disabled":false,"rental_uris":{"android":"levelo://app?vid=b74a02e3-3866-4aed-b17b-d5c58cfac9c8","ios":"levelo://app?vid=b74a02e3-3866-4aed-b17b-d5c58cfac9c8"},"vehicle_type_id":"4","last_reported":1703437555,"current_range_meters":30400,"station_id":"ce4bha92rcd13ifvqeg0","pricing_plan_id":"free"},{"bike_id":"de13574f-62ee-4e19-9af1-9790200222f6","system_id":"levelo_inurba_marseille","lat":43.290631,"lon":5.359244,"is_reserved":false,"is_disabled":false,"rental_uris":{"android":"levelo://app?vid=de13574f-62ee-4e19-9af1-9790200222f6","ios":"levelo://app?vid=de13574f-62ee-4e19-9af1-9790200222f6"},"vehicle_type_id":"4","last_reported":1703437555,"current_range_meters":24800,"station_id":"ce4bha92rcd13ifvqeg0","pricing_plan_id":"free"},{"bike_id":"cbaf2813-bbdd-4256-b5e4-e9b98e3b2112","system_id":"levelo_inurba_marseille","lat":43.294153,"lon":5.386305,"is_reserved":false,"is_disabled":false,"rental_uris":{"android":"levelo://app?vid=cbaf2813-bbdd-4256-b5e4-e9b98e3b2112","ios":"levelo://app?vid=cbaf2813-bbdd-4256-b5e4-e9b98e3b2112"},"vehicle_type_id":"4","last_reported":1703437555,"current_range_meters":22800,"station_id":"ce4bh2h2rcd13ifvqdh0","pricing_plan_id":"free"},{"bike_id":"0ff5998a-9d20-4ca1-9a45-c75d7f72c782","system_id":"levelo_inurba_marseille","lat":43.29033,"lon":5.37555,"is_reserved":false,"is_disabled":false,"rental_uris":{"android":"levelo://app?vid=0ff5998a-9d20-4ca1-9a45-c75d7f72c782","ios":"levelo://app?vid=0ff5998a-9d20-4ca1-9a45-c75d7f72c782"},"vehicle_type_id":"4","last_reported":1703437555,"current_range_meters":9600,"station_id":"ce4bh692rcd13ifvqe90","pricing_plan_id":"free"},{"bike_id":"bccfc57c-bb90-4645-9bf7-d61a82d091c3","system_id":"levelo_inurba_marseille","lat":43.289468,"lon":5.363719,"is_reserved":false,"is_disabled":false,"rental_uris":{"android":"levelo://app?vid=bccfc57c-bb90-4645-9bf7-d61a82d091c3","ios":"levelo://app?vid=bccfc57c-bb90-4645-9bf7-d61a82d091c3"},"vehicle_type_id":"4","last_reported":1703437555,"current_range_meters":28800,"station_id":"ce4bhc92rcd13ifvqetg","pricing_plan_id":"free"},{"bike_id":"772df898-44e0-4fc8-9cdf-baff52177d9b","system_id":"levelo_inurba_marseille","lat":43.289184,"lon":5.366408,"is_reserved":false,"is_disabled":false,"rental_uris":{"android":"levelo://app?vid=772df898-44e0-4fc8-9cdf-baff52177d9b","ios":"levelo://app?vid=772df898-44e0-4fc8-9cdf-baff52177d9b"},"vehicle_type_id":"4","last_reported":1703437555,"current_range_meters":24400,"station_id":"ce4bhap2rcd13ifvqek0","pricing_plan_id":"free"},{"bike_id":"a8f87c40-bc46-4811-852f-cb575dc7b2ef","system_id":"levelo_inurba_marseille","lat":43.289468,"lon":5.363719,"is_reserved":false,"is_disabled":false,"rental_uris":{"android":"levelo://app?vid=a8f87c40-bc46-4811-852f-cb575dc7b2ef","ios":"levelo://app?vid=a8f87c40-bc46-4811-852f-cb575dc7b2ef"},"vehicle_type_id":"4","last_reported":1703437555,"current_range_meters":10000,"station_id":"ce4bhc92rcd13ifvqetg","pricing_plan_id":"free"},{"bike_id":"627c9157-14ba-41fa-ac00-21a59f815204","system_id":"levelo_inurba_marseille","lat":43.289184,"lon":5.366408,"is_reserved":false,"is_disabled":false,"rental_uris":{"android":"levelo://app?vid=627c9157-14ba-41fa-ac00-21a59f815204","ios":"levelo://app?vid=627c9157-14ba-41fa-ac00-21a59f815204"},"vehicle_type_id":"4","last_reported":1703437555,"current_range_meters":31200,"station_id":"ce4bhap2rcd13ifvqek0","pricing_plan_id":"free"},{"bike_id":"a344491d-7a50-49c2-bc37-780c2c786ddd","system_id":"levelo_inurba_marseille","lat":43.292642,"lon":5.384254,"is_reserved":false,"is_disabled":false,"rental_uris":{"android":"levelo://app?vid=a344491d-7a50-49c2-bc37-780c2c786ddd","ios":"levelo://app?vid=a344491d-7a50-49c2-bc37-780c2c786ddd"},"vehicle_type_id":"4","last_reported":1703437555,"current_range_meters":16000,"station_id":"ce4bh692rcd13ifvqea0","pricing_plan_id":"free"},{"bike_id":"5a39f0f2-d6b7-4596-82a0-14ead9a2d054","system_id":"levelo_inurba_marseille","lat":43.292644,"lon":5.384257,"is_reserved":false,"is_disabled":false,"rental_uris":{"android":"levelo://app?vid=5a39f0f2-d6b7-4596-82a0-14ead9a2d054","ios":"levelo://app?vid=5a39f0f2-d6b7-4596-82a0-14ead9a2d054"},"vehicle_type_id":"4","last_reported":1703437555,"current_range_meters":0,"station_id":"ce4bh692rcd13ifvqea0","pricing_plan_id":"free"},{"bike_id":"27581627-dc8f-4caf-b505-f2c413eb329f","system_id":"levelo_inurba_marseille","lat":43.290104,"lon":5.356111,"is_reserved":false,"is_disabled":false,"rental_uris":{"android":"levelo://app?vid=27581627-dc8f-4caf-b505-f2c413eb329f","ios":"levelo://app?vid=27581627-dc8f-4caf-b505-f2c413eb329f"},"vehicle_type_id":"4","last_reported":1703437555,"current_range_meters":27200,"station_id":"ce4bhb92rcd13ifvqen0","pricing_plan_id":"free"},{"bike_id":"3e3a78a6-a81d-4216-89fd-6318a430fd0b","system_id":"levelo_inurba_marseille","lat":43.290104,"lon":5.356111,"is_reserved":false,"is_disabled":false,"rental_uris":{"android":"levelo://app?vid=3e3a78a6-a81d-4216-89fd-6318a430fd0b","ios":"levelo://app?vid=3e3a78a6-a81d-4216-89fd-6318a430fd0b"},"vehicle_type_id":"4","last_reported":1703437555,"current_range_meters":18400,"station_id":"ce4bhb92rcd13ifvqen0","pricing_plan_id":"free"},{"bike_id":"069a85fa-51fb-4822-b572-81e5fd408f4f","system_id":"levelo_inurba_marseille","lat":43.290104,"lon":5.356111,"is_reserved":false,"is_disabled":false,"rental_uris":{"android":"levelo://app?vid=069a85fa-51fb-4822-b572-81e5fd408f4f","ios":"levelo://app?vid=069a85fa-51fb-4822-b572-81e5fd408f4f"},"vehicle_type_id":"4","last_reported":1703437555,"current_range_meters":5600,"station_id":"ce4bhb92rcd13ifvqen0","pricing_plan_id":"free"},{"bike_id":"5d1bde58-2c7b-438a-bd37-7bc100df62bf","system_id":"levelo_inurba_marseille","lat":43.330442,"lon":5.389148,"is_reserved":false,"is_disabled":false,"rental_uris":{"android":"levelo://app?vid=5d1bde58-2c7b-438a-bd37-7bc100df62bf","ios":"levelo://app?vid=5d1bde58-2c7b-438a-bd37-7bc100df62bf"},"vehicle_type_id":"4","last_reported":1703437555,"current_range_meters":21600,"station_id":"ce4bhr92rcd13ifvqhrg","pricing_plan_id":"free"},{"bike_id":"ed239bd2-c7be-4ebd-97ea-a01b5fa731c0","system_id":"levelo_inurba_marseille","lat":43.295169,"lon":5.390426,"is_reserved":false,"is_disabled":false,"rental_uris":{"android":"levelo://app?vid=ed239bd2-c7be-4ebd-97ea-a01b5fa731c0","ios":"levelo://app?vid=ed239bd2-c7be-4ebd-97ea-a01b5fa731c0"},"vehicle_type_id":"4","last_reported":1703437555,"current_range_meters":26000,"station_id":"ce4bh3p2rcd13ifvqdp0","pricing_plan_id":"free"},{"bike_id":"4a27af98-f493-4af5-85cd-bbffe05fee99","system_id":"levelo_inurba_marseille","lat":43.290094,"lon":5.381264,"is_reserved":false,"is_disabled":false,"rental_uris":{"android":"levelo://app?vid=4a27af98-f493-4af5-85cd-bbffe05fee99","ios":"levelo://app?vid=4a27af98-f493-4af5-85cd-bbffe05fee99"},"vehicle_type_id":"4","last_reported":1703437555,"current_range_meters":26000,"station_id":"ce4bh4p2rcd13ifvqe1g","pricing_plan_id":"free"},{"bike_id":"4a567f15-c8c7-45a1-89d2-82c585dbdf31","system_id":"levelo_inurba_marseille","lat":43.293259,"lon":5.371586,"is_reserved":false,"is_disabled":false,"rental_uris":{"android":"levelo://app?vid=4a567f15-c8c7-45a1-89d2-82c585dbdf31","ios":"levelo://app?vid=4a567f15-c8c7-45a1-89d2-82c585dbdf31"},"vehicle_type_id":"4","last_reported":1703437555,"current_range_meters":15200,"station_id":"ce4bgh92rcd13ifvqb40","pricing_plan_id":"free"},{"bike_id":"895dd869-b3f0-4eb5-b9a6-9948271b1808","system_id":"levelo_inurba_marseille","lat":43.312609,"lon":5.401662,"is_reserved":false,"is_disabled":false,"rental_uris":{"android":"levelo://app?vid=895dd869-b3f0-4eb5-b9a6-9948271b1808","ios":"levelo://app?vid=895dd869-b3f0-4eb5-b9a6-9948271b1808"},"vehicle_type_id":"4","last_reported":1703437555,"current_range_meters":17600,"station_id":"ce4bh092rcd13ifvqd30","pricing_plan_id":"free"},{"bike_id":"689c20a1-21c2-44c2-a72d-95b6e5c566ef","system_id":"levelo_inurba_marseille","lat":43.309371,"lon":5.401449,"is_reserved":false,"is_disabled":false,"rental_uris":{"android":"levelo://app?vid=689c20a1-21c2-44c2-a72d-95b6e5c566ef","ios":"levelo://app?vid=689c20a1-21c2-44c2-a72d-95b6e5c566ef"},"vehicle_type_id":"4","last_reported":1703437555,"current_range_meters":13600,"station_id":"ce4bgvp2rcd13ifvqct0","pricing_plan_id":"free"},{"bike_id":"7d7f9bba-419f-4024-98e7-2f55b9ee0ae9","system_id":"levelo_inurba_marseille","lat":43.312609,"lon":5.401662,"is_reserved":false,"is_disabled":false,"rental_uris":{"android":"levelo://app?vid=7d7f9bba-419f-4024-98e7-2f55b9ee0ae9","ios":"levelo://app?vid=7d7f9bba-419f-4024-98e7-2f55b9ee0ae9"},"vehicle_type_id":"4","last_reported":1703437555,"current_range_meters":24000,"station_id":"ce4bh092rcd13ifvqd30","pricing_plan_id":"free"},{"bike_id":"4efcc028-6aa0-45ef-9ce0-d238a0ac3378","system_id":"levelo_inurba_marseille","lat":43.312609,"lon":5.401662,"is_reserved":false,"is_disabled":false,"rental_uris":{"android":"levelo://app?vid=4efcc028-6aa0-45ef-9ce0-d238a0ac3378","ios":"levelo://app?vid=4efcc028-6aa0-45ef-9ce0-d238a0ac3378"},"vehicle_type_id":"4","last_reported":1703437555,"current_range_meters":21200,"station_id":"ce4bh092rcd13ifvqd30","pricing_plan_id":"free"},{"bike_id":"c05cf507-6b8b-4718-b63a-bb2a2eec4a9b","system_id":"levelo_inurba_marseille","lat":43.301117,"lon":5.398795,"is_reserved":false,"is_disabled":false,"rental_uris":{"android":"levelo://app?vid=c05cf507-6b8b-4718-b63a-bb2a2eec4a9b","ios":"levelo://app?vid=c05cf507-6b8b-4718-b63a-bb2a2eec4a9b"},"vehicle_type_id":"4","last_reported":1703437555,"current_range_meters":6400,"station_id":"ce4bh0h2rcd13ifvqd40","pricing_plan_id":"free"},{"bike_id":"d071dcda-fcfb-4081-bf67-3a534553a587","system_id":"levelo_inurba_marseille","lat":43.301333,"lon":5.39852,"is_reserved":false,"is_disabled":false,"rental_uris":{"android":"levelo://app?vid=d071dcda-fcfb-4081-bf67-3a534553a587","ios":"levelo://app?vid=d071dcda-fcfb-4081-bf67-3a534553a587"},"vehicle_type_id":"4","last_reported":1703437555,"current_range_meters":18800,"station_id":"ce4bh0h2rcd13ifvqd40","pricing_plan_id":"free"},{"bike_id":"b867bac1-9836-4315-a6ab-b1f1c16fd30b","system_id":"levelo_inurba_marseille","lat":43.301117,"lon":5.398795,"is_reserved":false,"is_disabled":false,"rental_uris":{"android":"levelo://app?vid=b867bac1-9836-4315-a6ab-b1f1c16fd30b","ios":"levelo://app?vid=b867bac1-9836-4315-a6ab-b1f1c16fd30b"},"vehicle_type_id":"4","last_reported":1703437555,"current_range_meters":31600,"station_id":"ce4bh0h2rcd13ifvqd40","pricing_plan_id":"free"},{"bike_id":"ce01d63e-28cd-43be-8e13-fb89ce9e7f27","system_id":"levelo_inurba_marseille","lat":43.301117,"lon":5.398795,"is_reserved":false,"is_disabled":false,"rental_uris":{"android":"levelo://app?vid=ce01d63e-28cd-43be-8e13-fb89ce9e7f27","ios":"levelo://app?vid=ce01d63e-28cd-43be-8e13-fb89ce9e7f27"},"vehicle_type_id":"4","last_reported":1703437555,"current_range_meters":2800,"station_id":"ce4bh0h2rcd13ifvqd40","pricing_plan_id":"free"},{"bike_id":"cdc6c422-80e4-4cc0-83f2-e241e9fedab8","system_id":"levelo_inurba_marseille","lat":43.28727,"lon":5.36078,"is_reserved":false,"is_disabled":false,"rental_uris":{"android":"levelo://app?vid=cdc6c422-80e4-4cc0-83f2-e241e9fedab8","ios":"levelo://app?vid=cdc6c422-80e4-4cc0-83f2-e241e9fedab8"},"vehicle_type_id":"4","last_reported":1703437555,"current_range_meters":28400,"station_id":"cki0cbj6b192h4jlfktg","pricing_plan_id":"free"},{"bike_id":"c3420e31-fb98-42ac-9dc6-392f4cecaa79","system_id":"levelo_inurba_marseille","lat":43.286591,"lon":5.363346,"is_reserved":false,"is_disabled":false,"rental_uris":{"android":"levelo://app?vid=c3420e31-fb98-42ac-9dc6-392f4cecaa79","ios":"levelo://app?vid=c3420e31-fb98-42ac-9dc6-392f4cecaa79"},"vehicle_type_id":"4","last_reported":1703437555,"current_range_meters":28000,"station_id":"ce4bhah2rcd13ifvqej0","pricing_plan_id":"free"},{"bike_id":"0adb7066-5586-48d8-95f6-9f7c77197396","system_id":"levelo_inurba_marseille","lat":43.295196,"lon":5.39397,"is_reserved":false,"is_disabled":false,"rental_uris":{"android":"levelo://app?vid=0adb7066-5586-48d8-95f6-9f7c77197396","ios":"levelo://app?vid=0adb7066-5586-48d8-95f6-9f7c77197396"},"vehicle_type_id":"4","last_reported":1703437555,"current_range_meters":24000,"station_id":"ce4bh292rcd13ifvqdf0","pricing_plan_id":"free"},{"bike_id":"722c0433-527b-40a5-9c29-d11a9f75eb88","system_id":"levelo_inurba_marseille","lat":43.286591,"lon":5.363346,"is_reserved":false,"is_disabled":false,"rental_uris":{"android":"levelo://app?vid=722c0433-527b-40a5-9c29-d11a9f75eb88","ios":"levelo://app?vid=722c0433-527b-40a5-9c29-d11a9f75eb88"},"vehicle_type_id":"4","last_reported":1703437555,"current_range_meters":27600,"station_id":"ce4bhah2rcd13ifvqej0","pricing_plan_id":"free"},{"bike_id":"ae1cef7f-678e-4935-bed0-1ee692a8641e","system_id":"levelo_inurba_marseille","lat":43.286039,"lon":5.370679,"is_reserved":false,"is_disabled":false,"rental_uris":{"android":"levelo://app?vid=ae1cef7f-678e-4935-bed0-1ee692a8641e","ios":"levelo://app?vid=ae1cef7f-678e-4935-bed0-1ee692a8641e"},"vehicle_type_id":"4","last_reported":1703437555,"current_range_meters":27200,"station_id":"ce4bht12rcd13ifvqi60","pricing_plan_id":"free"},{"bike_id":"b269c749-19b3-457a-9f11-021ccc443c55","system_id":"levelo_inurba_marseille","lat":43.286039,"lon":5.370679,"is_reserved":false,"is_disabled":false,"rental_uris":{"android":"levelo://app?vid=b269c749-19b3-457a-9f11-021ccc443c55","ios":"levelo://app?vid=b269c749-19b3-457a-9f11-021ccc443c55"},"vehicle_type_id":"4","last_reported":1703437555,"current_range_meters":11200,"station_id":"ce4bht12rcd13ifvqi60","pricing_plan_id":"free"},{"bike_id":"72831886-95d3-4841-9f6f-d2c80373c9b3","system_id":"levelo_inurba_marseille","lat":43.286039,"lon":5.370679,"is_reserved":false,"is_disabled":false,"rental_uris":{"android":"levelo://app?vid=72831886-95d3-4841-9f6f-d2c80373c9b3","ios":"levelo://app?vid=72831886-95d3-4841-9f6f-d2c80373c9b3"},"vehicle_type_id":"4","last_reported":1703437555,"current_range_meters":25600,"station_id":"ce4bht12rcd13ifvqi60","pricing_plan_id":"free"},{"bike_id":"e6ae7509-87ab-4aef-88b7-7b0976cc014a","system_id":"levelo_inurba_marseille","lat":43.31692,"lon":5.40464,"is_reserved":false,"is_disabled":false,"rental_uris":{"android":"levelo://app?vid=e6ae7509-87ab-4aef-88b7-7b0976cc014a","ios":"levelo://app?vid=e6ae7509-87ab-4aef-88b7-7b0976cc014a"},"vehicle_type_id":"4","last_reported":1703437555,"current_range_meters":25600,"station_id":"ce4bh012rcd13ifvqd00","pricing_plan_id":"free"},{"bike_id":"0bb5fc14-d3b4-441c-af43-73dd06d35229","system_id":"levelo_inurba_marseille","lat":43.291994,"lon":5.392907,"is_reserved":false,"is_disabled":false,"rental_uris":{"android":"levelo://app?vid=0bb5fc14-d3b4-441c-af43-73dd06d35229","ios":"levelo://app?vid=0bb5fc14-d3b4-441c-af43-73dd06d35229"},"vehicle_type_id":"4","last_reported":1703437555,"current_range_meters":30800,"station_id":"ce4bh192rcd13ifvqdd0","pricing_plan_id":"free"},{"bike_id":"ae819005-fa68-4daa-9008-366db5cb786a","system_id":"levelo_inurba_marseille","lat":43.291994,"lon":5.392907,"is_reserved":false,"is_disabled":false,"rental_uris":{"android":"levelo://app?vid=ae819005-fa68-4daa-9008-366db5cb786a","ios":"levelo://app?vid=ae819005-fa68-4daa-9008-366db5cb786a"},"vehicle_type_id":"4","last_reported":1703437555,"current_range_meters":24000,"station_id":"ce4bh192rcd13ifvqdd0","pricing_plan_id":"free"},{"bike_id":"e2adfa7c-882e-48a1-9ee4-b36e6186ebbf","system_id":"levelo_inurba_marseille","lat":43.330912,"lon":5.396935,"is_reserved":false,"is_disabled":false,"rental_uris":{"android":"levelo://app?vid=e2adfa7c-882e-48a1-9ee4-b36e6186ebbf","ios":"levelo://app?vid=e2adfa7c-882e-48a1-9ee4-b36e6186ebbf"},"vehicle_type_id":"4","last_reported":1703437555,"current_range_meters":10000,"station_id":"","pricing_plan_id":"free"},{"bike_id":"86684b7e-43f1-48e6-80a2-292fd9be0105","system_id":"levelo_inurba_marseille","lat":43.284538,"lon":5.358657,"is_reserved":false,"is_disabled":false,"rental_uris":{"android":"levelo://app?vid=86684b7e-43f1-48e6-80a2-292fd9be0105","ios":"levelo://app?vid=86684b7e-43f1-48e6-80a2-292fd9be0105"},"vehicle_type_id":"4","last_reported":1703437555,"current_range_meters":18000,"station_id":"ce4bhah2rcd13ifvqei0","pricing_plan_id":"free"},{"bike_id":"05a6f824-5057-451d-b143-4ec05aa99dd4","system_id":"levelo_inurba_marseille","lat":43.28462,"lon":5.35894,"is_reserved":false,"is_disabled":false,"rental_uris":{"android":"levelo://app?vid=05a6f824-5057-451d-b143-4ec05aa99dd4","ios":"levelo://app?vid=05a6f824-5057-451d-b143-4ec05aa99dd4"},"vehicle_type_id":"4","last_reported":1703437555,"current_range_meters":23200,"station_id":"ce4bhah2rcd13ifvqei0","pricing_plan_id":"free"},{"bike_id":"cf4d2c86-c324-4922-ba16-6e0616ab3edd","system_id":"levelo_inurba_marseille","lat":43.284534,"lon":5.358662,"is_reserved":false,"is_disabled":false,"rental_uris":{"android":"levelo://app?vid=cf4d2c86-c324-4922-ba16-6e0616ab3edd","ios":"levelo://app?vid=cf4d2c86-c324-4922-ba16-6e0616ab3edd"},"vehicle_type_id":"4","last_reported":1703437555,"current_range_meters":30400,"station_id":"ce4bhah2rcd13ifvqei0","pricing_plan_id":"free"},{"bike_id":"8a37adb3-8896-4595-bbdc-ed7fcd313414","system_id":"levelo_inurba_marseille","lat":43.28458,"lon":5.35883,"is_reserved":false,"is_disabled":false,"rental_uris":{"android":"levelo://app?vid=8a37adb3-8896-4595-bbdc-ed7fcd313414","ios":"levelo://app?vid=8a37adb3-8896-4595-bbdc-ed7fcd313414"},"vehicle_type_id":"4","last_reported":1703437555,"current_range_meters":12800,"station_id":"ce4bhah2rcd13ifvqei0","pricing_plan_id":"free"},{"bike_id":"fb7db31e-d95e-4381-a0b4-63f19f097ba9","system_id":"levelo_inurba_marseille","lat":43.285856,"lon":5.350771,"is_reserved":false,"is_disabled":false,"rental_uris":{"android":"levelo://app?vid=fb7db31e-d95e-4381-a0b4-63f19f097ba9","ios":"levelo://app?vid=fb7db31e-d95e-4381-a0b4-63f19f097ba9"},"vehicle_type_id":"4","last_reported":1703437555,"current_range_meters":16000,"station_id":"ce4bhch2rcd13ifvqeug","pricing_plan_id":"free"},{"bike_id":"71fa409c-de1f-4478-89ed-802b13b40c76","system_id":"levelo_inurba_marseille","lat":43.283998,"lon":5.375062,"is_reserved":false,"is_disabled":false,"rental_uris":{"android":"levelo://app?vid=71fa409c-de1f-4478-89ed-802b13b40c76","ios":"levelo://app?vid=71fa409c-de1f-4478-89ed-802b13b40c76"},"vehicle_type_id":"4","last_reported":1703437555,"current_range_meters":7600,"station_id":"ce4bh412rcd13ifvqds0","pricing_plan_id":"free"},{"bike_id":"d8a93435-7abc-455e-8524-bf1e977dd478","system_id":"levelo_inurba_marseille","lat":43.28415,"lon":5.37504,"is_reserved":false,"is_disabled":false,"rental_uris":{"android":"levelo://app?vid=d8a93435-7abc-455e-8524-bf1e977dd478","ios":"levelo://app?vid=d8a93435-7abc-455e-8524-bf1e977dd478"},"vehicle_type_id":"4","last_reported":1703437555,"current_range_meters":17200,"station_id":"ce4bh412rcd13ifvqds0","pricing_plan_id":"free"},{"bike_id":"a6e8f654-a8eb-4efe-bb1c-9f75ebf6204a","system_id":"levelo_inurba_marseille","lat":43.295713,"lon":5.399639,"is_reserved":false,"is_disabled":false,"rental_uris":{"android":"levelo://app?vid=a6e8f654-a8eb-4efe-bb1c-9f75ebf6204a","ios":"levelo://app?vid=a6e8f654-a8eb-4efe-bb1c-9f75ebf6204a"},"vehicle_type_id":"4","last_reported":1703437555,"current_range_meters":13600,"station_id":"ce4bh312rcd13ifvqdj0","pricing_plan_id":"free"},{"bike_id":"7cd54627-9d9c-47a0-bc06-cdf97fe4b863","system_id":"levelo_inurba_marseille","lat":43.284104,"lon":5.375056,"is_reserved":false,"is_disabled":false,"rental_uris":{"android":"levelo://app?vid=7cd54627-9d9c-47a0-bc06-cdf97fe4b863","ios":"levelo://app?vid=7cd54627-9d9c-47a0-bc06-cdf97fe4b863"},"vehicle_type_id":"4","last_reported":1703437555,"current_range_meters":30000,"station_id":"ce4bh412rcd13ifvqds0","pricing_plan_id":"free"},{"bike_id":"f9603070-0680-427d-9d31-c2a8be4b77dd","system_id":"levelo_inurba_marseille","lat":43.28408,"lon":5.375178,"is_reserved":false,"is_disabled":false,"rental_uris":{"android":"levelo://app?vid=f9603070-0680-427d-9d31-c2a8be4b77dd","ios":"levelo://app?vid=f9603070-0680-427d-9d31-c2a8be4b77dd"},"vehicle_type_id":"4","last_reported":1703437555,"current_range_meters":6000,"station_id":"ce4bh412rcd13ifvqds0","pricing_plan_id":"free"},{"bike_id":"e850cd16-ef78-4deb-869a-2ee37313d924","system_id":"levelo_inurba_marseille","lat":43.28405,"lon":5.375097,"is_reserved":false,"is_disabled":false,"rental_uris":{"android":"levelo://app?vid=e850cd16-ef78-4deb-869a-2ee37313d924","ios":"levelo://app?vid=e850cd16-ef78-4deb-869a-2ee37313d924"},"vehicle_type_id":"4","last_reported":1703437555,"current_range_meters":10400,"station_id":"ce4bh412rcd13ifvqds0","pricing_plan_id":"free"},{"bike_id":"612e6603-9c70-4152-b60d-73cabbd5e8a4","system_id":"levelo_inurba_marseille","lat":43.284,"lon":5.37515,"is_reserved":false,"is_disabled":false,"rental_uris":{"android":"levelo://app?vid=612e6603-9c70-4152-b60d-73cabbd5e8a4","ios":"levelo://app?vid=612e6603-9c70-4152-b60d-73cabbd5e8a4"},"vehicle_type_id":"4","last_reported":1703437555,"current_range_meters":2000,"station_id":"ce4bh412rcd13ifvqds0","pricing_plan_id":"free"},{"bike_id":"8d1b5473-6c43-4632-9d00-022c1757edf2","system_id":"levelo_inurba_marseille","lat":43.28397,"lon":5.37514,"is_reserved":false,"is_disabled":false,"rental_uris":{"android":"levelo://app?vid=8d1b5473-6c43-4632-9d00-022c1757edf2","ios":"levelo://app?vid=8d1b5473-6c43-4632-9d00-022c1757edf2"},"vehicle_type_id":"4","last_reported":1703437555,"current_range_meters":800,"station_id":"ce4bh412rcd13ifvqds0","pricing_plan_id":"free"},{"bike_id":"ff6ebe2d-10e0-4bee-8d5b-0d34d0573673","system_id":"levelo_inurba_marseille","lat":43.337201,"lon":5.391639,"is_reserved":false,"is_disabled":false,"rental_uris":{"android":"levelo://app?vid=ff6ebe2d-10e0-4bee-8d5b-0d34d0573673","ios":"levelo://app?vid=ff6ebe2d-10e0-4bee-8d5b-0d34d0573673"},"vehicle_type_id":"4","last_reported":1703437555,"current_range_meters":25600,"station_id":"ce4bhr92rcd13ifvqhsg","pricing_plan_id":"free"},{"bike_id":"69752758-7c7b-4296-b45f-3ae2c0f3c131","system_id":"levelo_inurba_marseille","lat":43.323464,"lon":5.406297,"is_reserved":false,"is_disabled":false,"rental_uris":{"android":"levelo://app?vid=69752758-7c7b-4296-b45f-3ae2c0f3c131","ios":"levelo://app?vid=69752758-7c7b-4296-b45f-3ae2c0f3c131"},"vehicle_type_id":"4","last_reported":1703437555,"current_range_meters":31200,"station_id":"ce4bhq92rcd13ifvqhjg","pricing_plan_id":"free"},{"bike_id":"7244b12c-a4ed-4fcc-a53c-0222ae84e7e2","system_id":"levelo_inurba_marseille","lat":43.332777,"lon":5.398687,"is_reserved":false,"is_disabled":false,"rental_uris":{"android":"levelo://app?vid=7244b12c-a4ed-4fcc-a53c-0222ae84e7e2","ios":"levelo://app?vid=7244b12c-a4ed-4fcc-a53c-0222ae84e7e2"},"vehicle_type_id":"4","last_reported":1703437555,"current_range_meters":28800,"station_id":"","pricing_plan_id":"free"},{"bike_id":"4c10ff3c-76e6-492e-a571-48b308791153","system_id":"levelo_inurba_marseille","lat":43.284793,"lon":5.384113,"is_reserved":false,"is_disabled":false,"rental_uris":{"android":"levelo://app?vid=4c10ff3c-76e6-492e-a571-48b308791153","ios":"levelo://app?vid=4c10ff3c-76e6-492e-a571-48b308791153"},"vehicle_type_id":"4","last_reported":1703437555,"current_range_meters":1600,"station_id":"ce4bh512rcd13ifvqe3g","pricing_plan_id":"free"},{"bike_id":"5576edcd-a749-40fe-a903-9812b5844f5b","system_id":"levelo_inurba_marseille","lat":43.297946,"lon":5.404063,"is_reserved":false,"is_disabled":false,"rental_uris":{"android":"levelo://app?vid=5576edcd-a749-40fe-a903-9812b5844f5b","ios":"levelo://app?vid=5576edcd-a749-40fe-a903-9812b5844f5b"},"vehicle_type_id":"4","last_reported":1703437555,"current_range_meters":20400,"station_id":"ce4bh112rcd13ifvqd90","pricing_plan_id":"free"},{"bike_id":"d6c91a85-fc08-40d6-aaac-fedd7886b753","system_id":"levelo_inurba_marseille","lat":43.29795,"lon":5.404086,"is_reserved":false,"is_disabled":false,"rental_uris":{"android":"levelo://app?vid=d6c91a85-fc08-40d6-aaac-fedd7886b753","ios":"levelo://app?vid=d6c91a85-fc08-40d6-aaac-fedd7886b753"},"vehicle_type_id":"4","last_reported":1703437555,"current_range_meters":30000,"station_id":"ce4bh112rcd13ifvqd90","pricing_plan_id":"free"},{"bike_id":"b69811ac-0b21-404b-9781-c32bc9b75116","system_id":"levelo_inurba_marseille","lat":43.29795,"lon":5.404086,"is_reserved":false,"is_disabled":false,"rental_uris":{"android":"levelo://app?vid=b69811ac-0b21-404b-9781-c32bc9b75116","ios":"levelo://app?vid=b69811ac-0b21-404b-9781-c32bc9b75116"},"vehicle_type_id":"4","last_reported":1703437555,"current_range_meters":29200,"station_id":"ce4bh112rcd13ifvqd90","pricing_plan_id":"free"},{"bike_id":"0648a8e6-74df-4c8b-8207-9db627ff9d88","system_id":"levelo_inurba_marseille","lat":43.283498,"lon":5.380948,"is_reserved":false,"is_disabled":false,"rental_uris":{"android":"levelo://app?vid=0648a8e6-74df-4c8b-8207-9db627ff9d88","ios":"levelo://app?vid=0648a8e6-74df-4c8b-8207-9db627ff9d88"},"vehicle_type_id":"4","last_reported":1703437555,"current_range_meters":23200,"station_id":"ce4bh412rcd13ifvqdr0","pricing_plan_id":"free"},{"bike_id":"ab442026-4705-4ea8-8770-81d3454bc0d6","system_id":"levelo_inurba_marseille","lat":43.283494,"lon":5.380945,"is_reserved":false,"is_disabled":false,"rental_uris":{"android":"levelo://app?vid=ab442026-4705-4ea8-8770-81d3454bc0d6","ios":"levelo://app?vid=ab442026-4705-4ea8-8770-81d3454bc0d6"},"vehicle_type_id":"4","last_reported":1703437555,"current_range_meters":23600,"station_id":"ce4bh412rcd13ifvqdr0","pricing_plan_id":"free"},{"bike_id":"ea076fc8-27c2-42c5-8e55-19e4ebfd3291","system_id":"levelo_inurba_marseille","lat":43.283494,"lon":5.380945,"is_reserved":false,"is_disabled":false,"rental_uris":{"android":"levelo://app?vid=ea076fc8-27c2-42c5-8e55-19e4ebfd3291","ios":"levelo://app?vid=ea076fc8-27c2-42c5-8e55-19e4ebfd3291"},"vehicle_type_id":"4","last_reported":1703437555,"current_range_meters":1200,"station_id":"ce4bh412rcd13ifvqdr0","pricing_plan_id":"free"},{"bike_id":"978e3fb6-4a4c-4344-87b4-1032e26cbf34","system_id":"levelo_inurba_marseille","lat":43.283494,"lon":5.380945,"is_reserved":false,"is_disabled":false,"rental_uris":{"android":"levelo://app?vid=978e3fb6-4a4c-4344-87b4-1032e26cbf34","ios":"levelo://app?vid=978e3fb6-4a4c-4344-87b4-1032e26cbf34"},"vehicle_type_id":"4","last_reported":1703437555,"current_range_meters":21600,"station_id":"ce4bh412rcd13ifvqdr0","pricing_plan_id":"free"},{"bike_id":"86dc89c9-0364-44e4-bb7a-f346457e26c8","system_id":"levelo_inurba_marseille","lat":43.284219,"lon":5.3497,"is_reserved":false,"is_disabled":false,"rental_uris":{"android":"levelo://app?vid=86dc89c9-0364-44e4-bb7a-f346457e26c8","ios":"levelo://app?vid=86dc89c9-0364-44e4-bb7a-f346457e26c8"},"vehicle_type_id":"4","last_reported":1703437555,"current_range_meters":31200,"station_id":"ce4bhbh2rcd13ifvqepg","pricing_plan_id":"free"},{"bike_id":"a73569e2-85e2-4dad-ac32-82ad1d12c95d","system_id":"levelo_inurba_marseille","lat":43.283502,"lon":5.386471,"is_reserved":false,"is_disabled":false,"rental_uris":{"android":"levelo://app?vid=a73569e2-85e2-4dad-ac32-82ad1d12c95d","ios":"levelo://app?vid=a73569e2-85e2-4dad-ac32-82ad1d12c95d"},"vehicle_type_id":"4","last_reported":1703437555,"current_range_meters":18800,"station_id":"ce4bh492rcd13ifvqdvg","pricing_plan_id":"free"},{"bike_id":"85bf5c2a-a682-4f19-bb60-7359b6106d15","system_id":"levelo_inurba_marseille","lat":43.282754,"lon":5.350519,"is_reserved":false,"is_disabled":false,"rental_uris":{"android":"levelo://app?vid=85bf5c2a-a682-4f19-bb60-7359b6106d15","ios":"levelo://app?vid=85bf5c2a-a682-4f19-bb60-7359b6106d15"},"vehicle_type_id":"4","last_reported":1703437555,"current_range_meters":26400,"station_id":"ce4bhbp2rcd13ifvqerg","pricing_plan_id":"free"},{"bike_id":"2cf153b7-2f72-455b-ac4b-1a18e125ed61","system_id":"levelo_inurba_marseille","lat":43.282744,"lon":5.350533,"is_reserved":false,"is_disabled":false,"rental_uris":{"android":"levelo://app?vid=2cf153b7-2f72-455b-ac4b-1a18e125ed61","ios":"levelo://app?vid=2cf153b7-2f72-455b-ac4b-1a18e125ed61"},"vehicle_type_id":"4","last_reported":1703437555,"current_range_meters":30400,"station_id":"ce4bhbp2rcd13ifvqerg","pricing_plan_id":"free"},{"bike_id":"a8801820-845d-41b7-bb38-48e69bdeb034","system_id":"levelo_inurba_marseille","lat":43.28039,"lon":5.369297,"is_reserved":false,"is_disabled":false,"rental_uris":{"android":"levelo://app?vid=a8801820-845d-41b7-bb38-48e69bdeb034","ios":"levelo://app?vid=a8801820-845d-41b7-bb38-48e69bdeb034"},"vehicle_type_id":"4","last_reported":1703437555,"current_range_meters":31200,"station_id":"ce4bha12rcd13ifvqef0","pricing_plan_id":"free"},{"bike_id":"08bba988-efc0-4dba-ae21-5046352f3447","system_id":"levelo_inurba_marseille","lat":43.28039,"lon":5.369297,"is_reserved":false,"is_disabled":false,"rental_uris":{"android":"levelo://app?vid=08bba988-efc0-4dba-ae21-5046352f3447","ios":"levelo://app?vid=08bba988-efc0-4dba-ae21-5046352f3447"},"vehicle_type_id":"4","last_reported":1703437555,"current_range_meters":3200,"station_id":"ce4bha12rcd13ifvqef0","pricing_plan_id":"free"},{"bike_id":"17021328-c747-4fa7-90d2-20eda9ac5ed6","system_id":"levelo_inurba_marseille","lat":43.280382,"lon":5.369291,"is_reserved":false,"is_disabled":false,"rental_uris":{"android":"levelo://app?vid=17021328-c747-4fa7-90d2-20eda9ac5ed6","ios":"levelo://app?vid=17021328-c747-4fa7-90d2-20eda9ac5ed6"},"vehicle_type_id":"4","last_reported":1703437555,"current_range_meters":26800,"station_id":"ce4bha12rcd13ifvqef0","pricing_plan_id":"free"},{"bike_id":"a86f153a-aebe-42fe-a221-c21e0adf786c","system_id":"levelo_inurba_marseille","lat":43.280382,"lon":5.369291,"is_reserved":false,"is_disabled":false,"rental_uris":{"android":"levelo://app?vid=a86f153a-aebe-42fe-a221-c21e0adf786c","ios":"levelo://app?vid=a86f153a-aebe-42fe-a221-c21e0adf786c"},"vehicle_type_id":"4","last_reported":1703437555,"current_range_meters":31200,"station_id":"ce4bha12rcd13ifvqef0","pricing_plan_id":"free"},{"bike_id":"6384b8e7-e131-4c85-beb4-ce84d6888be4","system_id":"levelo_inurba_marseille","lat":43.281044,"lon":5.378308,"is_reserved":false,"is_disabled":false,"rental_uris":{"android":"levelo://app?vid=6384b8e7-e131-4c85-beb4-ce84d6888be4","ios":"levelo://app?vid=6384b8e7-e131-4c85-beb4-ce84d6888be4"},"vehicle_type_id":"4","last_reported":1703437555,"current_range_meters":25600,"station_id":"ce4bha12rcd13ifvqee0","pricing_plan_id":"free"},{"bike_id":"09fa7624-6311-4288-80d8-df0d60edee9a","system_id":"levelo_inurba_marseille","lat":43.281044,"lon":5.378308,"is_reserved":false,"is_disabled":false,"rental_uris":{"android":"levelo://app?vid=09fa7624-6311-4288-80d8-df0d60edee9a","ios":"levelo://app?vid=09fa7624-6311-4288-80d8-df0d60edee9a"},"vehicle_type_id":"4","last_reported":1703437555,"current_range_meters":4400,"station_id":"ce4bha12rcd13ifvqee0","pricing_plan_id":"free"},{"bike_id":"a6382436-9902-49ea-9d19-7386a71b0acb","system_id":"levelo_inurba_marseille","lat":43.281044,"lon":5.378308,"is_reserved":false,"is_disabled":false,"rental_uris":{"android":"levelo://app?vid=a6382436-9902-49ea-9d19-7386a71b0acb","ios":"levelo://app?vid=a6382436-9902-49ea-9d19-7386a71b0acb"},"vehicle_type_id":"4","last_reported":1703437555,"current_range_meters":7600,"station_id":"ce4bha12rcd13ifvqee0","pricing_plan_id":"free"},{"bike_id":"7851af3a-2b35-4789-809b-89bd92a0f31b","system_id":"levelo_inurba_marseille","lat":43.296263,"lon":5.40601,"is_reserved":false,"is_disabled":false,"rental_uris":{"android":"levelo://app?vid=7851af3a-2b35-4789-809b-89bd92a0f31b","ios":"levelo://app?vid=7851af3a-2b35-4789-809b-89bd92a0f31b"},"vehicle_type_id":"4","last_reported":1703437555,"current_range_meters":17600,"station_id":"ce4bh0h2rcd13ifvqd60","pricing_plan_id":"free"},{"bike_id":"3f531f3c-b9dd-499e-9b2c-b9913c0805e8","system_id":"levelo_inurba_marseille","lat":43.281044,"lon":5.378308,"is_reserved":false,"is_disabled":false,"rental_uris":{"android":"levelo://app?vid=3f531f3c-b9dd-499e-9b2c-b9913c0805e8","ios":"levelo://app?vid=3f531f3c-b9dd-499e-9b2c-b9913c0805e8"},"vehicle_type_id":"4","last_reported":1703437555,"current_range_meters":30000,"station_id":"ce4bha12rcd13ifvqee0","pricing_plan_id":"free"},{"bike_id":"5da37696-bdaa-4499-9ff9-7b17019cb71a","system_id":"levelo_inurba_marseille","lat":43.296263,"lon":5.40601,"is_reserved":false,"is_disabled":false,"rental_uris":{"android":"levelo://app?vid=5da37696-bdaa-4499-9ff9-7b17019cb71a","ios":"levelo://app?vid=5da37696-bdaa-4499-9ff9-7b17019cb71a"},"vehicle_type_id":"4","last_reported":1703437555,"current_range_meters":18800,"station_id":"ce4bh0h2rcd13ifvqd60","pricing_plan_id":"free"},{"bike_id":"af429785-9727-4e11-b1bf-a32310ab9b45","system_id":"levelo_inurba_marseille","lat":43.284462,"lon":5.392121,"is_reserved":false,"is_disabled":false,"rental_uris":{"android":"levelo://app?vid=af429785-9727-4e11-b1bf-a32310ab9b45","ios":"levelo://app?vid=af429785-9727-4e11-b1bf-a32310ab9b45"},"vehicle_type_id":"4","last_reported":1703437555,"current_range_meters":8400,"station_id":"ce4bhoh2rcd13ifvqh5g","pricing_plan_id":"free"},{"bike_id":"c8a27958-6f8d-429f-a555-49f5810bda80","system_id":"levelo_inurba_marseille","lat":43.284462,"lon":5.392121,"is_reserved":false,"is_disabled":false,"rental_uris":{"android":"levelo://app?vid=c8a27958-6f8d-429f-a555-49f5810bda80","ios":"levelo://app?vid=c8a27958-6f8d-429f-a555-49f5810bda80"},"vehicle_type_id":"4","last_reported":1703437555,"current_range_meters":31200,"station_id":"ce4bhoh2rcd13ifvqh5g","pricing_plan_id":"free"},{"bike_id":"f8ef7187-7d7c-462e-b4e6-5128ecefc7ad","system_id":"levelo_inurba_marseille","lat":43.28573,"lon":5.394992,"is_reserved":false,"is_disabled":false,"rental_uris":{"android":"levelo://app?vid=f8ef7187-7d7c-462e-b4e6-5128ecefc7ad","ios":"levelo://app?vid=f8ef7187-7d7c-462e-b4e6-5128ecefc7ad"},"vehicle_type_id":"4","last_reported":1703437555,"current_range_meters":22800,"station_id":"ce4bh292rcd13ifvqdg0","pricing_plan_id":"free"},{"bike_id":"ebc05b82-bea7-4e39-86cc-a86201d1ecf6","system_id":"levelo_inurba_marseille","lat":43.28573,"lon":5.394992,"is_reserved":false,"is_disabled":false,"rental_uris":{"android":"levelo://app?vid=ebc05b82-bea7-4e39-86cc-a86201d1ecf6","ios":"levelo://app?vid=ebc05b82-bea7-4e39-86cc-a86201d1ecf6"},"vehicle_type_id":"4","last_reported":1703437555,"current_range_meters":27200,"station_id":"ce4bh292rcd13ifvqdg0","pricing_plan_id":"free"},{"bike_id":"4a5f5fe4-6c75-4062-80ea-dbdf893f50c8","system_id":"levelo_inurba_marseille","lat":43.28573,"lon":5.394992,"is_reserved":false,"is_disabled":false,"rental_uris":{"android":"levelo://app?vid=4a5f5fe4-6c75-4062-80ea-dbdf893f50c8","ios":"levelo://app?vid=4a5f5fe4-6c75-4062-80ea-dbdf893f50c8"},"vehicle_type_id":"4","last_reported":1703437555,"current_range_meters":31200,"station_id":"ce4bh292rcd13ifvqdg0","pricing_plan_id":"free"},