{"last_updated":1739743663,"ttl":60,"version":"2.2","data":{"bikes":[{"bike_id":"0c4f4644-af4f-484a-bf12-d927dce6cd6d","system_id":"levelo_inurba_marseille","lat":43.31534,"lon":5.38036,"is_reserved":false,"is_disabled":false,"rental_uris":{"android":"levelo://app?vid=0c4f4644-af4f-484a-bf12-d927dce6cd6d","ios":"levelo://app?vid=0c4f4644-af4f-484a-bf12-d927dce6cd6d"},"vehicle_type_id":"4","last_reported":1739743663,"current_range_meters":38000,"station_id":"ce4bhsp2rcd13ifvqi50","pricing_plan_id":"cebpf4jnsgd1na2vs0mg"},{"bike_id":"f0e15311-7300-41c1-aa38-b0373ecc7e52","system_id":"levelo_inurba_marseille","lat":43.24714,"lon":5.37518,"is_reserved":false,"is_disabled":false,"rental_uris":{"android":"levelo://app?vid=f0e15311-7300-41c1-aa38-b0373ecc7e52","ios":"levelo://app?vid=f0e15311-7300-41c1-aa38-b0373ecc7e52"},"vehicle_type_id":"4","last_reported":1739743663,"current_range_meters":33600,"station_id":"","pricing_plan_id":"cebpf4jnsgd1na2vs0mg"},{"bike_id":"040bf6da-b374-40b3-b70a-0f85f37b58a3","system_id":"levelo_inurba_marseille","lat":43.29242,"lon":5.40153,"is_reserved":false,"is_disabled":true,"rental_uris":{"android":"levelo://app?vid=040bf6da-b374-40b3-b70a-0f85f37b58a3","ios":"levelo://app?vid=040bf6da-b374-40b3-b70a-0f85f37b58a3"},"vehicle_type_id":"4","last_reported":1739743663,"current_range_meters":30800,"station_id":"ce4bh312rcd13ifvqdk0","pricing_plan_id":"cebpf4jnsgd1na2vs0mg"},{"bike_id":"314ecb77-8b90-4fdb-aaf3-bbba8b437b8a","system_id":"levelo_inurba_marseille","lat":43.29077,"lon":5.38042,"is_reserved":false,"is_disabled":true,"rental_uris":{"android":"levelo://app?vid=314ecb77-8b90-4fdb-aaf3-bbba8b437b8a","ios":"levelo://app?vid=314ecb77-8b90-4fdb-aaf3-bbba8b437b8a"},"vehicle_type_id":"4","last_reported":1739743663,"current_range_meters":1600,"station_id":"","pricing_plan_id":"cebpf4jnsgd1na2vs0mg"},{"bike_id":"f661b7e0-1628-4b53-9b0f-1de5abd25562","system_id":"levelo_inurba_marseille","lat":43.30745,"lon":5.37446,"is_reserved":false,"is_disabled":false,"rental_uris":{"android":"levelo://app?vid=f661b7e0-1628-4b53-9b0f-1de5abd25562","ios":"levelo://app?vid=f661b7e0-1628-4b53-9b0f-1de5abd25562"},"vehicle_type_id":"4","last_reported":1739743663,"current_range_meters":28800,"station_id":"","pricing_plan_id":"cebpf4jnsgd1na2vs0mg"},{"bike_id":"cfc771a7-2d39-4d13-bd0a-fcb02e92a328","system_id":"levelo_inurba_marseille","lat":43.2979,"lon":5.39359,"is_reserved":false,"is_disabled":false,"rental_uris":{"android":"levelo://app?vid=cfc771a7-2d39-4d13-bd0a-fcb02e92a328","ios":"levelo://app?vid=cfc771a7-2d39-4d13-bd0a-fcb02e92a328"},"vehicle_type_id":"4","last_reported":1739743663,"current_range_meters":35200,"station_id":"chh1huq6cuj3fo74tm60","pricing_plan_id":"cebpf4jnsgd1na2vs0mg"},{"bike_id":"2c241b29-3767-4c0d-95d1-3e00bc001aa4","system_id":"levelo_inurba_marseille","lat":43.30244,"lon":5.40041,"is_reserved":false,"is_disabled":false,"rental_uris":{"android":"levelo://app?vid=2c241b29-3767-4c0d-95d1-3e00bc001aa4","ios":"levelo://app?vid=2c241b29-3767-4c0d-95d1-3e00bc001aa4"},"vehicle_type_id":"4","last_reported":1739743663,"current_range_meters":36400,"station_id":"ce4bgvh2rcd13ifvqcs0","pricing_plan_id":"cebpf4jnsgd1na2vs0mg"},{"bike_id":"d7fba254-ba2e-4330-9138-3fb8051f9e93","system_id":"levelo_inurba_marseille","lat":43.29514,"lon":5.39033,"is_reserved":false,"is_disabled":false,"rental_uris":{"android":"levelo://app?vid=d7fba254-ba2e-4330-9138-3fb8051f9e93","ios":"levelo://app?vid=d7fba254-ba2e-4330-9138-3fb8051f9e93"},"vehicle_type_id":"4","last_reported":1739743663,"current_range_meters":19200,"station_id":"ce4bh3p2rcd13ifvqdp0","pricing_plan_id":"cebpf4jnsgd1na2vs0mg"},{"bike_id":"95d8de11-efb1-4533-9506-dd7841048b89","system_id":"levelo_inurba_marseille","lat":43.29426,"lon":5.3863,"is_reserved":false,"is_disabled":false,"rental_uris":{"android":"levelo://app?vid=95d8de11-efb1-4533-9506-dd7841048b89","ios":"levelo://app?vid=95d8de11-efb1-4533-9506-dd7841048b89"},"vehicle_type_id":"4","last_reported":1739743663,"current_range_meters":30800,"station_id":"ce4bh2h2rcd13ifvqdh0","pricing_plan_id":"cebpf4jnsgd1na2vs0mg"},{"bike_id":"e9853900-44d2-448a-b62e-02512ad9ea39","system_id":"levelo_inurba_marseille","lat":43.31164,"lon":5.387,"is_reserved":false,"is_disabled":false,"rental_uris":{"android":"levelo://app?vid=e9853900-44d2-448a-b62e-02512ad9ea39","ios":"levelo://app?vid=e9853900-44d2-448a-b62e-02512ad9ea39"},"vehicle_type_id":"4","last_reported":1739743663,"current_range_meters":26000,"station_id":"ce4bgv12rcd13ifvqcp0","pricing_plan_id":"cebpf4jnsgd1na2vs0mg"},{"bike_id":"ff426081-3726-4b6c-aa9f-0d0db0cbc7e6","system_id":"levelo_inurba_marseille","lat":43.28029,"lon":5.36966,"is_reserved":false,"is_disabled":false,"rental_uris":{"android":"levelo://app?vid=ff426081-3726-4b6c-aa9f-0d0db0cbc7e6","ios":"levelo://app?vid=ff426081-3726-4b6c-aa9f-0d0db0cbc7e6"},"vehicle_type_id":"4","last_reported":1739743663,"current_range_meters":39200,"station_id":"ce4bha12rcd13ifvqef0","pricing_plan_id":"cebpf4jnsgd1na2vs0mg"},{"bike_id":"fb4aef54-1da1-43c4-911a-e1d1b0284115","system_id":"levelo_inurba_marseille","lat":43.28834,"lon":5.35865,"is_reserved":false,"is_disabled":false,"rental_uris":{"android":"levelo://app?vid=fb4aef54-1da1-43c4-911a-e1d1b0284115","ios":"levelo://app?vid=fb4aef54-1da1-43c4-911a-e1d1b0284115"},"vehicle_type_id":"4","last_reported":1739743663,"current_range_meters":14800,"station_id":"ce4bhb12rcd13ifvqem0","pricing_plan_id":"cebpf4jnsgd1na2vs0mg"},{"bike_id":"3597f271-3655-440e-95b7-5ec762c02c2d","system_id":"levelo_inurba_marseille","lat":43.29199,"lon":5.358,"is_reserved":false,"is_disabled":false,"rental_uris":{"android":"levelo://app?vid=3597f271-3655-440e-95b7-5ec762c02c2d","ios":"levelo://app?vid=3597f271-3655-440e-95b7-5ec762c02c2d"},"vehicle_type_id":"4","last_reported":1739743663,"current_range_meters":38400,"station_id":"ce4bhb12rcd13ifvqel0","pricing_plan_id":"cebpf4jnsgd1na2vs0mg"},{"bike_id":"02f24607-cb5c-4fdd-99df-4271e1a35318","system_id":"levelo_inurba_marseille","lat":43.2979,"lon":5.39343,"is_reserved":false,"is_disabled":false,"rental_uris":{"android":"levelo://app?vid=02f24607-cb5c-4fdd-99df-4271e1a35318","ios":"levelo://app?vid=02f24607-cb5c-4fdd-99df-4271e1a35318"},"vehicle_type_id":"4","last_reported":1739743663,"current_range_meters":36000,"station_id":"chh1huq6cuj3fo74tm60","pricing_plan_id":"cebpf4jnsgd1na2vs0mg"},{"bike_id":"7740f7fe-9032-4237-b1ea-18f84d0eb3bf","system_id":"levelo_inurba_marseille","lat":43.28431,"lon":5.39189,"is_reserved":false,"is_disabled":false,"rental_uris":{"android":"levelo://app?vid=7740f7fe-9032-4237-b1ea-18f84d0eb3bf","ios":"levelo://app?vid=7740f7fe-9032-4237-b1ea-18f84d0eb3bf"},"vehicle_type_id":"4","last_reported":1739743663,"current_range_meters":37600,"station_id":"ce4bhoh2rcd13ifvqh5g","pricing_plan_id":"cebpf4jnsgd1na2vs0mg"},{"bike_id":"6a51fc72-41fe-49b3-a934-ea237ab994ab","system_id":"levelo_inurba_marseille","lat":43.2952,"lon":5.39403,"is_reserved":false,"is_disabled":false,"rental_uris":{"android":"levelo://app?vid=6a51fc72-41fe-49b3-a934-ea237ab994ab","ios":"levelo://app?vid=6a51fc72-41fe-49b3-a934-ea237ab994ab"},"vehicle_type_id":"4","last_reported":1739743663,"current_range_meters":36400,"station_id":"ce4bh292rcd13ifvqdf0","pricing_plan_id":"cebpf4jnsgd1na2vs0mg"},{"bike_id":"1d711f4b-c520-4c36-8714-42ed52aeabf1","system_id":"levelo_inurba_marseille","lat":43.28929,"lon":5.36392,"is_reserved":false,"is_disabled":false,"rental_uris":{"android":"levelo://app?vid=1d711f4b-c520-4c36-8714-42ed52aeabf1","ios":"levelo://app?vid=1d711f4b-c520-4c36-8714-42ed52aeabf1"},"vehicle_type_id":"4","last_reported":1739743663,"current_range_meters":39200,"station_id":"ce4bhc92rcd13ifvqetg","pricing_plan_id":"cebpf4jnsgd1na2vs0mg"},{"bike_id":"26a17947-bae0-49a0-a0e6-dbcc7c3eae9e","system_id":"levelo_inurba_marseille","lat":43.2482,"lon":5.41892,"is_reserved":false,"is_disabled":false,"rental_uris":{"android":"levelo://app?vid=26a17947-bae0-49a0-a0e6-dbcc7c3eae9e","ios":"levelo://app?vid=26a17947-bae0-49a0-a0e6-dbcc7c3eae9e"},"vehicle_type_id":"4","last_reported":1739743663,"current_range_meters":28400,"station_id":"","pricing_plan_id":"cebpf4jnsgd1na2vs0mg"},{"bike_id":"0594397e-5b4a-4bc1-9dae-734c570709eb","system_id":"levelo_inurba_marseille","lat":43.27804,"lon":5.4068,"is_reserved":false,"is_disabled":false,"rental_uris":{"android":"levelo://app?vid=0594397e-5b4a-4bc1-9dae-734c570709eb","ios":"levelo://app?vid=0594397e-5b4a-4bc1-9dae-734c570709eb"},"vehicle_type_id":"4","last_reported":1739743663,"current_range_meters":38800,"station_id":"ce4bhnh2rcd13ifvqgtg","pricing_plan_id":"cebpf4jnsgd1na2vs0mg"},{"bike_id":"3d119f7e-598c-4ee5-af25-41604854cde7","system_id":"levelo_inurba_marseille","lat":43.29706,"lon":5.36612,"is_reserved":false,"is_disabled":false,"rental_uris":{"android":"levelo://app?vid=3d119f7e-598c-4ee5-af25-41604854cde7","ios":"levelo://app?vid=3d119f7e-598c-4ee5-af25-41604854cde7"},"vehicle_type_id":"4","last_reported":1739743663,"current_range_meters":39200,"station_id":"ce4bgn12rcd13ifvqbt0","pricing_plan_id":"cebpf4jnsgd1na2vs0mg"},{"bike_id":"913d0e98-b130-402b-a0ae-1d58fb07afd6","system_id":"levelo_inurba_marseille","lat":43.28733,"lon":5.39991,"is_reserved":false,"is_disabled":false,"rental_uris":{"android":"levelo://app?vid=913d0e98-b130-402b-a0ae-1d58fb07afd6","ios":"levelo://app?vid=913d0e98-b130-402b-a0ae-1d58fb07afd6"},"vehicle_type_id":"4","last_reported":1739743663,"current_range_meters":37600,"station_id":"ce4bho92rcd13ifvqh3g","pricing_plan_id":"cebpf4jnsgd1na2vs0mg"},{"bike_id":"b3327efe-e6ea-4af8-b3fe-9847845e64d2","system_id":"levelo_inurba_marseille","lat":43.296,"lon":5.38114,"is_reserved":false,"is_disabled":false,"rental_uris":{"android":"levelo://app?vid=b3327efe-e6ea-4af8-b3fe-9847845e64d2","ios":"levelo://app?vid=b3327efe-e6ea-4af8-b3fe-9847845e64d2"},"vehicle_type_id":"4","last_reported":1739743663,"current_range_meters":38000,"station_id":"ce4bgl12rcd13ifvqbo0","pricing_plan_id":"cebpf4jnsgd1na2vs0mg"},{"bike_id":"a1daad65-43f9-4b50-8f1f-4d56d66a74f8","system_id":"levelo_inurba_marseille","lat":43.29937,"lon":5.36568,"is_reserved":false,"is_disabled":false,"rental_uris":{"android":"levelo://app?vid=a1daad65-43f9-4b50-8f1f-4d56d66a74f8","ios":"levelo://app?vid=a1daad65-43f9-4b50-8f1f-4d56d66a74f8"},"vehicle_type_id":"4","last_reported":1739743663,"current_range_meters":25600,"station_id":"ce4bgm92rcd13ifvqbr0","pricing_plan_id":"cebpf4jnsgd1na2vs0mg"},{"bike_id":"fab5bc09-3072-4253-9c2a-b7b62ab516b6","system_id":"levelo_inurba_marseille","lat":43.29783,"lon":5.39358,"is_reserved":false,"is_disabled":false,"rental_uris":{"android":"levelo://app?vid=fab5bc09-3072-4253-9c2a-b7b62ab516b6","ios":"levelo://app?vid=fab5bc09-3072-4253-9c2a-b7b62ab516b6"},"vehicle_type_id":"4","last_reported":1739743663,"current_range_meters":14800,"station_id":"chh1huq6cuj3fo74tm60","pricing_plan_id":"cebpf4jnsgd1na2vs0mg"},{"bike_id":"f7abcf74-16eb-4369-b6b8-ac0e795f9129","system_id":"levelo_inurba_marseille","lat":43.28183,"lon":5.42649,"is_reserved":false,"is_disabled":false,"rental_uris":{"android":"levelo://app?vid=f7abcf74-16eb-4369-b6b8-ac0e795f9129","ios":"levelo://app?vid=f7abcf74-16eb-4369-b6b8-ac0e795f9129"},"vehicle_type_id":"4","last_reported":1739743663,"current_range_meters":27200,"station_id":"ce4bhnh2rcd13ifvqgug","pricing_plan_id":"cebpf4jnsgd1na2vs0mg"},{"bike_id":"eae30826-b1bb-47d4-ae35-48b7c839764b","system_id":"levelo_inurba_marseille","lat":43.28834,"lon":5.35852,"is_reserved":false,"is_disabled":false,"rental_uris":{"android":"levelo://app?vid=eae30826-b1bb-47d4-ae35-48b7c839764b","ios":"levelo://app?vid=eae30826-b1bb-47d4-ae35-48b7c839764b"},"vehicle_type_id":"4","last_reported":1739743663,"current_range_meters":18800,"station_id":"ce4bhb12rcd13ifvqem0","pricing_plan_id":"cebpf4jnsgd1na2vs0mg"},{"bike_id":"9ffc487c-5243-41a7-83bb-0cda23036b98","system_id":"levelo_inurba_marseille","lat":43.275058,"lon":5.434424,"is_reserved":false,"is_disabled":true,"rental_uris":{"android":"levelo://app?vid=9ffc487c-5243-41a7-83bb-0cda23036b98","ios":"levelo://app?vid=9ffc487c-5243-41a7-83bb-0cda23036b98"},"vehicle_type_id":"4","last_reported":1739743663,"current_range_meters":0,"station_id":"","pricing_plan_id":"cebpf4jnsgd1na2vs0mg"},{"bike_id":"2821d2ff-3fc8-480e-81a3-1928b04e4a1d","system_id":"levelo_inurba_marseille","lat":43.31442,"lon":5.37405,"is_reserved":false,"is_disabled":false,"rental_uris":{"android":"levelo://app?vid=2821d2ff-3fc8-480e-81a3-1928b04e4a1d","ios":"levelo://app?vid=2821d2ff-3fc8-480e-81a3-1928b04e4a1d"},"vehicle_type_id":"4","last_reported":1739743663,"current_range_meters":4400,"station_id":"","pricing_plan_id":"cebpf4jnsgd1na2vs0mg"},{"bike_id":"543cab73-f1d3-4629-bf9b-0144dad3f0f9","system_id":"levelo_inurba_marseille","lat":43.28104,"lon":5.44251,"is_reserved":false,"is_disabled":false,"rental_uris":{"android":"levelo://app?vid=543cab73-f1d3-4629-bf9b-0144dad3f0f9","ios":"levelo://app?vid=543cab73-f1d3-4629-bf9b-0144dad3f0f9"},"vehicle_type_id":"4","last_reported":1739743663,"current_range_meters":6800,"station_id":"","pricing_plan_id":"cebpf4jnsgd1na2vs0mg"},{"bike_id":"d48b880c-5787-4eca-994b-610c9fc548ed","system_id":"levelo_inurba_marseille","lat":43.24165,"lon":5.36397,"is_reserved":false,"is_disabled":false,"rental_uris":{"android":"levelo://app?vid=d48b880c-5787-4eca-994b-610c9fc548ed","ios":"levelo://app?vid=d48b880c-5787-4eca-994b-610c9fc548ed"},"vehicle_type_id":"4","last_reported":1739743663,"current_range_meters":38800,"station_id":"cpo36qri1sfpv3e86is0","pricing_plan_id":"cebpf4jnsgd1na2vs0mg"},{"bike_id":"34c66d3d-b5aa-4bec-ab71-66b17e80e2a1","system_id":"levelo_inurba_marseille","lat":43.32297,"lon":5.38276,"is_reserved":false,"is_disabled":false,"rental_uris":{"android":"levelo://app?vid=34c66d3d-b5aa-4bec-ab71-66b17e80e2a1","ios":"levelo://app?vid=34c66d3d-b5aa-4bec-ab71-66b17e80e2a1"},"vehicle_type_id":"4","last_reported":1739743663,"current_range_meters":38800,"station_id":"ce4bhr12rcd13ifvqhqg","pricing_plan_id":"cebpf4jnsgd1na2vs0mg"},{"bike_id":"75348a53-e739-4d3d-94b7-d4026f197478","system_id":"levelo_inurba_marseille","lat":43.29598,"lon":5.36745,"is_reserved":false,"is_disabled":false,"rental_uris":{"android":"levelo://app?vid=75348a53-e739-4d3d-94b7-d4026f197478","ios":"levelo://app?vid=75348a53-e739-4d3d-94b7-d4026f197478"},"vehicle_type_id":"4","last_reported":1739743663,"current_range_meters":30800,"station_id":"ce4bgph2rcd13ifvqc2g","pricing_plan_id":"cebpf4jnsgd1na2vs0mg"},{"bike_id":"ac7666db-ab28-4430-85d2-b09c0f0a4663","system_id":"levelo_inurba_marseille","lat":43.25719,"lon":5.41112,"is_reserved":false,"is_disabled":false,"rental_uris":{"android":"levelo://app?vid=ac7666db-ab28-4430-85d2-b09c0f0a4663","ios":"levelo://app?vid=ac7666db-ab28-4430-85d2-b09c0f0a4663"},"vehicle_type_id":"4","last_reported":1739743663,"current_range_meters":21600,"station_id":"ce4bhkp2rcd13ifvqgd0","pricing_plan_id":"cebpf4jnsgd1na2vs0mg"},{"bike_id":"940ffad1-8d03-466c-a361-1bdb8859eb0e","system_id":"levelo_inurba_marseille","lat":43.286184,"lon":5.351018,"is_reserved":false,"is_disabled":true,"rental_uris":{"android":"levelo://app?vid=940ffad1-8d03-466c-a361-1bdb8859eb0e","ios":"levelo://app?vid=940ffad1-8d03-466c-a361-1bdb8859eb0e"},"vehicle_type_id":"4","last_reported":1739743663,"current_range_meters":0,"station_id":"ce4bhch2rcd13ifvqeug","pricing_plan_id":"cebpf4jnsgd1na2vs0mg"},{"bike_id":"d54f6a5b-fb11-4541-a0e3-f68e1c817ab7","system_id":"levelo_inurba_marseille","lat":43.2667,"lon":5.38251,"is_reserved":false,"is_disabled":true,"rental_uris":{"android":"levelo://app?vid=d54f6a5b-fb11-4541-a0e3-f68e1c817ab7","ios":"levelo://app?vid=d54f6a5b-fb11-4541-a0e3-f68e1c817ab7"},"vehicle_type_id":"4","last_reported":1739743663,"current_range_meters":2000,"station_id":"ce4bhg92rcd13ifvqf90","pricing_plan_id":"cebpf4jnsgd1na2vs0mg"},{"bike_id":"91e20a00-0a61-4c4d-ac1e-de492ad0d12a","system_id":"levelo_inurba_marseille","lat":43.2953,"lon":5.37493,"is_reserved":false,"is_disabled":true,"rental_uris":{"android":"levelo://app?vid=91e20a00-0a61-4c4d-ac1e-de492ad0d12a","ios":"levelo://app?vid=91e20a00-0a61-4c4d-ac1e-de492ad0d12a"},"vehicle_type_id":"4","last_reported":1739743663,"current_range_meters":20400,"station_id":"ce4bgkp2rcd13ifvqbmg","pricing_plan_id":"cebpf4jnsgd1na2vs0mg"},{"bike_id":"86a75285-7243-40ee-925b-d20bf72a6a49","system_id":"levelo_inurba_marseille","lat":43.29886,"lon":5.36325,"is_reserved":false,"is_disabled":false,"rental_uris":{"android":"levelo://app?vid=86a75285-7243-40ee-925b-d20bf72a6a49","ios":"levelo://app?vid=86a75285-7243-40ee-925b-d20bf72a6a49"},"vehicle_type_id":"4","last_reported":1739743663,"current_range_meters":38800,"station_id":"","pricing_plan_id":"cebpf4jnsgd1na2vs0mg"},{"bike_id":"1f0657bb-7196-41de-84fc-c834bbf90b28","system_id":"levelo_inurba_marseille","lat":43.280829,"lon":5.396597,"is_reserved":false,"is_disabled":true,"rental_uris":{"android":"levelo://app?vid=1f0657bb-7196-41de-84fc-c834bbf90b28","ios":"levelo://app?vid=1f0657bb-7196-41de-84fc-c834bbf90b28"},"vehicle_type_id":"4","last_reported":1739743663,"current_range_meters":38800,"station_id":"ce4bho12rcd13ifvqh2g","pricing_plan_id":"cebpf4jnsgd1na2vs0mg"},{"bike_id":"6a8a9fc1-af4d-49a9-8679-5d56a555c641","system_id":"levelo_inurba_marseille","lat":43.27921,"lon":5.39606,"is_reserved":false,"is_disabled":false,"rental_uris":{"android":"levelo://app?vid=6a8a9fc1-af4d-49a9-8679-5d56a555c641","ios":"levelo://app?vid=6a8a9fc1-af4d-49a9-8679-5d56a555c641"},"vehicle_type_id":"4","last_reported":1739743663,"current_range_meters":12400,"station_id":"ce4bhf92rcd13ifvqf40","pricing_plan_id":"cebpf4jnsgd1na2vs0mg"},{"bike_id":"d330c43c-b11c-4195-ace3-ec11601d8e81","system_id":"levelo_inurba_marseille","lat":43.29416,"lon":5.3863,"is_reserved":false,"is_disabled":false,"rental_uris":{"android":"levelo://app?vid=d330c43c-b11c-4195-ace3-ec11601d8e81","ios":"levelo://app?vid=d330c43c-b11c-4195-ace3-ec11601d8e81"},"vehicle_type_id":"4","last_reported":1739743663,"current_range_meters":17200,"station_id":"ce4bh2h2rcd13ifvqdh0","pricing_plan_id":"cebpf4jnsgd1na2vs0mg"},{"bike_id":"3ad53059-9aa4-49f8-9e6c-7fff04507d27","system_id":"levelo_inurba_marseille","lat":43.28607,"lon":5.35075,"is_reserved":false,"is_disabled":false,"rental_uris":{"android":"levelo://app?vid=3ad53059-9aa4-49f8-9e6c-7fff04507d27","ios":"levelo://app?vid=3ad53059-9aa4-49f8-9e6c-7fff04507d27"},"vehicle_type_id":"4","last_reported":1739743663,"current_range_meters":22400,"station_id":"ce4bhch2rcd13ifvqeug","pricing_plan_id":"cebpf4jnsgd1na2vs0mg"},{"bike_id":"edda1ad3-82ad-41f9-8e9c-88195b92dd49","system_id":"levelo_inurba_marseille","lat":43.31763,"lon":5.38818,"is_reserved":false,"is_disabled":false,"rental_uris":{"android":"levelo://app?vid=edda1ad3-82ad-41f9-8e9c-88195b92dd49","ios":"levelo://app?vid=edda1ad3-82ad-41f9-8e9c-88195b92dd49"},"vehicle_type_id":"4","last_reported":1739743663,"current_range_meters":12000,"station_id":"","pricing_plan_id":"cebpf4jnsgd1na2vs0mg"},{"bike_id":"ac1f4837-f920-4f11-a0f5-b75095ff3c61","system_id":"levelo_inurba_marseille","lat":43.28692,"lon":5.39969,"is_reserved":false,"is_disabled":false,"rental_uris":{"android":"levelo://app?vid=ac1f4837-f920-4f11-a0f5-b75095ff3c61","ios":"levelo://app?vid=ac1f4837-f920-4f11-a0f5-b75095ff3c61"},"vehicle_type_id":"4","last_reported":1739743663,"current_range_meters":28000,"station_id":"ce4bho92rcd13ifvqh3g","pricing_plan_id":"cebpf4jnsgd1na2vs0mg"},{"bike_id":"6c2c1d95-3302-4ba8-942d-64ecaa7dbe03","system_id":"levelo_inurba_marseille","lat":43.25503,"lon":5.37664,"is_reserved":false,"is_disabled":true,"rental_uris":{"android":"levelo://app?vid=6c2c1d95-3302-4ba8-942d-64ecaa7dbe03","ios":"levelo://app?vid=6c2c1d95-3302-4ba8-942d-64ecaa7dbe03"},"vehicle_type_id":"4","last_reported":1739743663,"current_range_meters":16400,"station_id":"ce4bhh12rcd13ifvqff0","pricing_plan_id":"cebpf4jnsgd1na2vs0mg"},{"bike_id":"eefc27d8-676a-4c5c-a366-bc84419fd441","system_id":"levelo_inurba_marseille","lat":43.24804,"lon":5.37451,"is_reserved":false,"is_disabled":false,"rental_uris":{"android":"levelo://app?vid=eefc27d8-676a-4c5c-a366-bc84419fd441","ios":"levelo://app?vid=eefc27d8-676a-4c5c-a366-bc84419fd441"},"vehicle_type_id":"4","last_reported":1739743663,"current_range_meters":32800,"station_id":"ce4bhgh2rcd13ifvqfb0","pricing_plan_id":"cebpf4jnsgd1na2vs0mg"},{"bike_id":"58738f94-5d70-47fa-8172-fce3bc4bcca0","system_id":"levelo_inurba_marseille","lat":43.28352,"lon":5.38094,"is_reserved":false,"is_disabled":false,"rental_uris":{"android":"levelo://app?vid=58738f94-5d70-47fa-8172-fce3bc4bcca0","ios":"levelo://app?vid=58738f94-5d70-47fa-8172-fce3bc4bcca0"},"vehicle_type_id":"4","last_reported":1739743663,"current_range_meters":28800,"station_id":"ce4bh412rcd13ifvqdr0","pricing_plan_id":"cebpf4jnsgd1na2vs0mg"},{"bike_id":"6bdaa680-c6d7-4b01-9ed1-16c1651ceb3c","system_id":"levelo_inurba_marseille","lat":43.28974,"lon":5.37839,"is_reserved":false,"is_disabled":false,"rental_uris":{"android":"levelo://app?vid=6bdaa680-c6d7-4b01-9ed1-16c1651ceb3c","ios":"levelo://app?vid=6bdaa680-c6d7-4b01-9ed1-16c1651ceb3c"},"vehicle_type_id":"4","last_reported":1739743663,"current_range_meters":36800,"station_id":"ce4bh9p2rcd13ifvqed0","pricing_plan_id":"cebpf4jnsgd1na2vs0mg"},{"bike_id":"f92e748a-9f9b-4e54-8084-07e33515f3d5","system_id":"levelo_inurba_marseille","lat":43.27071,"lon":5.39347,"is_reserved":false,"is_disabled":true,"rental_uris":{"android":"levelo://app?vid=f92e748a-9f9b-4e54-8084-07e33515f3d5","ios":"levelo://app?vid=f92e748a-9f9b-4e54-8084-07e33515f3d5"},"vehicle_type_id":"4","last_reported":1739743663,"current_range_meters":0,"station_id":"","pricing_plan_id":"cebpf4jnsgd1na2vs0mg"},{"bike_id":"e2724f77-6977-420c-92f6-8c8e62268b2c","system_id":"levelo_inurba_marseille","lat":43.28344,"lon":5.38115,"is_reserved":false,"is_disabled":false,"rental_uris":{"android":"levelo://app?vid=e2724f77-6977-420c-92f6-8c8e62268b2c","ios":"levelo://app?vid=e2724f77-6977-420c-92f6-8c8e62268b2c"},"vehicle_type_id":"4","last_reported":1739743663,"current_range_meters":30800,"station_id":"ce4bh412rcd13ifvqdr0","pricing_plan_id":"cebpf4jnsgd1na2vs0mg"},{"bike_id":"bcecc5e4-cc7b-4177-9ff8-db3a19d83949","system_id":"levelo_inurba_marseille","lat":43.24809,"lon":5.37466,"is_reserved":false,"is_disabled":false,"rental_uris":{"android":"levelo://app?vid=bcecc5e4-cc7b-4177-9ff8-db3a19d83949","ios":"levelo://app?vid=bcecc5e4-cc7b-4177-9ff8-db3a19d83949"},"vehicle_type_id":"4","last_reported":1739743663,"current_range_meters":37600,"station_id":"ce4bhgh2rcd13ifvqfb0","pricing_plan_id":"cebpf4jnsgd1na2vs0mg"},{"bike_id":"7e3264bf-f524-4cb7-96c9-a699263ae840","system_id":"levelo_inurba_marseille","lat":43.28259,"lon":5.35073,"is_reserved":false,"is_disabled":false,"rental_uris":{"android":"levelo://app?vid=7e3264bf-f524-4cb7-96c9-a699263ae840","ios":"levelo://app?vid=7e3264bf-f524-4cb7-96c9-a699263ae840"},"vehicle_type_id":"4","last_reported":1739743663,"current_range_meters":18000,"station_id":"ce4bhbp2rcd13ifvqerg","pricing_plan_id":"cebpf4jnsgd1na2vs0mg"},{"bike_id":"3c1aede6-24d9-403c-9075-7994723a6799","system_id":"levelo_inurba_marseille","lat":43.24546,"lon":5.39523,"is_reserved":false,"is_disabled":false,"rental_uris":{"android":"levelo://app?vid=3c1aede6-24d9-403c-9075-7994723a6799","ios":"levelo://app?vid=3c1aede6-24d9-403c-9075-7994723a6799"},"vehicle_type_id":"4","last_reported":1739743663,"current_range_meters":29600,"station_id":"ce4bhlp2rcd13ifvqgjg","pricing_plan_id":"cebpf4jnsgd1na2vs0mg"},{"bike_id":"f3b9e4b6-5b2b-4ba6-a0eb-a63da1a33c37","system_id":"levelo_inurba_marseille","lat":43.29868,"lon":5.39738,"is_reserved":false,"is_disabled":false,"rental_uris":{"android":"levelo://app?vid=f3b9e4b6-5b2b-4ba6-a0eb-a63da1a33c37","ios":"levelo://app?vid=f3b9e4b6-5b2b-4ba6-a0eb-a63da1a33c37"},"vehicle_type_id":"4","last_reported":1739743663,"current_range_meters":30800,"station_id":"ce4bh0h2rcd13ifvqd50","pricing_plan_id":"cebpf4jnsgd1na2vs0mg"},{"bike_id":"8ba3aa93-3780-4693-97c2-a2f07a8a20fd","system_id":"levelo_inurba_marseille","lat":43.231868,"lon":5.399858,"is_reserved":false,"is_disabled":false,"rental_uris":{"android":"levelo://app?vid=8ba3aa93-3780-4693-97c2-a2f07a8a20fd","ios":"levelo://app?vid=8ba3aa93-3780-4693-97c2-a2f07a8a20fd"},"vehicle_type_id":"4","last_reported":1739743663,"current_range_meters":10800,"station_id":"ce4bhn12rcd13ifvqgqg","pricing_plan_id":"cebpf4jnsgd1na2vs0mg"},{"bike_id":"58efad17-13ed-4bd4-bfa7-23dfc65448b8","system_id":"levelo_inurba_marseille","lat":43.2813,"lon":5.37872,"is_reserved":false,"is_disabled":false,"rental_uris":{"android":"levelo://app?vid=58efad17-13ed-4bd4-bfa7-23dfc65448b8","ios":"levelo://app?vid=58efad17-13ed-4bd4-bfa7-23dfc65448b8"},"vehicle_type_id":"4","last_reported":1739743663,"current_range_meters":37600,"station_id":"ce4bha12rcd13ifvqee0","pricing_plan_id":"cebpf4jnsgd1na2vs0mg"},{"bike_id":"9cf8e6d9-67b8-441b-8ab4-08ef8560d2b0","system_id":"levelo_inurba_marseille","lat":43.33514,"lon":5.35585,"is_reserved":false,"is_disabled":true,"rental_uris":{"android":"levelo://app?vid=9cf8e6d9-67b8-441b-8ab4-08ef8560d2b0","ios":"levelo://app?vid=9cf8e6d9-67b8-441b-8ab4-08ef8560d2b0"},"vehicle_type_id":"4","last_reported":1739743663,"current_range_meters":0,"station_id":"","pricing_plan_id":"cebpf4jnsgd1na2vs0mg"},{"bike_id":"b5a8dbe0-eef7-40a3-98df-be63109c0b81","system_id":"levelo_inurba_marseille","lat":43.29317,"lon":5.38939,"is_reserved":false,"is_disabled":false,"rental_uris":{"android":"levelo://app?vid=b5a8dbe0-eef7-40a3-98df-be63109c0b81","ios":"levelo://app?vid=b5a8dbe0-eef7-40a3-98df-be63109c0b81"},"vehicle_type_id":"4","last_reported":1739743663,"current_range_meters":28000,"station_id":"ce4bh192rcd13ifvqdd0","pricing_plan_id":"cebpf4jnsgd1na2vs0mg"},{"bike_id":"731ca817-f595-4f2d-b5ea-108d06703dbc","system_id":"levelo_inurba_marseille","lat":43.29788,"lon":5.39338,"is_reserved":false,"is_disabled":false,"rental_uris":{"android":"levelo://app?vid=731ca817-f595-4f2d-b5ea-108d06703dbc","ios":"levelo://app?vid=731ca817-f595-4f2d-b5ea-108d06703dbc"},"vehicle_type_id":"4","last_reported":1739743663,"current_range_meters":37600,"station_id":"chh1huq6cuj3fo74tm60","pricing_plan_id":"cebpf4jnsgd1na2vs0mg"},{"bike_id":"203a98d0-995e-4e2d-9200-b657d026a1f6","system_id":"levelo_inurba_marseille","lat":43.28725,"lon":5.37942,"is_reserved":false,"is_disabled":false,"rental_uris":{"android":"levelo://app?vid=203a98d0-995e-4e2d-9200-b657d026a1f6","ios":"levelo://app?vid=203a98d0-995e-4e2d-9200-b657d026a1f6"},"vehicle_type_id":"4","last_reported":1739743663,"current_range_meters":33200,"station_id":"ce4bh9p2rcd13ifvqec0","pricing_plan_id":"cebpf4jnsgd1na2vs0mg"},{"bike_id":"6c78b8dd-a446-427f-ad7f-5dabcc9c995c","system_id":"levelo_inurba_marseille","lat":43.29782,"lon":5.3937,"is_reserved":false,"is_disabled":false,"rental_uris":{"android":"levelo://app?vid=6c78b8dd-a446-427f-ad7f-5dabcc9c995c","ios":"levelo://app?vid=6c78b8dd-a446-427f-ad7f-5dabcc9c995c"},"vehicle_type_id":"4","last_reported":1739743663,"current_range_meters":38800,"station_id":"chh1huq6cuj3fo74tm60","pricing_plan_id":"cebpf4jnsgd1na2vs0mg"},{"bike_id":"c00faf37-b2fe-4435-bdb9-93ea75bd45c5","system_id":"levelo_inurba_marseille","lat":43.26206,"lon":5.37917,"is_reserved":false,"is_disabled":false,"rental_uris":{"android":"levelo://app?vid=c00faf37-b2fe-4435-bdb9-93ea75bd45c5","ios":"levelo://app?vid=c00faf37-b2fe-4435-bdb9-93ea75bd45c5"},"vehicle_type_id":"4","last_reported":1739743663,"current_range_meters":38800,"station_id":"ce4bhjp2rcd13ifvqg90","pricing_plan_id":"cebpf4jnsgd1na2vs0mg"},{"bike_id":"fc6c250c-ce8d-4a79-9f04-86e2daa69ddd","system_id":"levelo_inurba_marseille","lat":43.28451,"lon":5.35905,"is_reserved":false,"is_disabled":false,"rental_uris":{"android":"levelo://app?vid=fc6c250c-ce8d-4a79-9f04-86e2daa69ddd","ios":"levelo://app?vid=fc6c250c-ce8d-4a79-9f04-86e2daa69ddd"},"vehicle_type_id":"4","last_reported":1739743663,"current_range_meters":24400,"station_id":"ce4bhah2rcd13ifvqei0","pricing_plan_id":"cebpf4jnsgd1na2vs0mg"},{"bike_id":"4bb8f935-f0d7-49f5-9dd4-3c3dcbae4c88","system_id":"levelo_inurba_marseille","lat":43.31137,"lon":5.38782,"is_reserved":false,"is_disabled":false,"rental_uris":{"android":"levelo://app?vid=4bb8f935-f0d7-49f5-9dd4-3c3dcbae4c88","ios":"levelo://app?vid=4bb8f935-f0d7-49f5-9dd4-3c3dcbae4c88"},"vehicle_type_id":"4","last_reported":1739743663,"current_range_meters":24800,"station_id":"ce4bgv12rcd13ifvqcp0","pricing_plan_id":"cebpf4jnsgd1na2vs0mg"},{"bike_id":"7a375f26-9893-4316-8441-091d6bf99905","system_id":"levelo_inurba_marseille","lat":43.336074,"lon":5.410356,"is_reserved":false,"is_disabled":false,"rental_uris":{"android":"levelo://app?vid=7a375f26-9893-4316-8441-091d6bf99905","ios":"levelo://app?vid=7a375f26-9893-4316-8441-091d6bf99905"},"vehicle_type_id":"4","last_reported":1739743663,"current_range_meters":16800,"station_id":"ce4bhqh2rcd13ifvqhmg","pricing_plan_id":"cebpf4jnsgd1na2vs0mg"},{"bike_id":"699b4ead-7083-4b29-85c3-471cfd54f9e5","system_id":"levelo_inurba_marseille","lat":43.29791,"lon":5.40398,"is_reserved":false,"is_disabled":true,"rental_uris":{"android":"levelo://app?vid=699b4ead-7083-4b29-85c3-471cfd54f9e5","ios":"levelo://app?vid=699b4ead-7083-4b29-85c3-471cfd54f9e5"},"vehicle_type_id":"4","last_reported":1739743663,"current_range_meters":34800,"station_id":"ce4bh112rcd13ifvqd90","pricing_plan_id":"cebpf4jnsgd1na2vs0mg"},{"bike_id":"0287f0d7-f1be-4f59-9230-c953775628db","system_id":"levelo_inurba_marseille","lat":43.32336,"lon":5.40608,"is_reserved":false,"is_disabled":false,"rental_uris":{"android":"levelo://app?vid=0287f0d7-f1be-4f59-9230-c953775628db","ios":"levelo://app?vid=0287f0d7-f1be-4f59-9230-c953775628db"},"vehicle_type_id":"4","last_reported":1739743663,"current_range_meters":38800,"station_id":"ce4bhq92rcd13ifvqhjg","pricing_plan_id":"cebpf4jnsgd1na2vs0mg"},{"bike_id":"51ab7186-5043-4bed-baca-73708608a302","system_id":"levelo_inurba_marseille","lat":43.29584,"lon":5.37026,"is_reserved":false,"is_disabled":true,"rental_uris":{"android":"levelo://app?vid=51ab7186-5043-4bed-baca-73708608a302","ios":"levelo://app?vid=51ab7186-5043-4bed-baca-73708608a302"},"vehicle_type_id":"4","last_reported":1739743663,"current_range_meters":0,"station_id":"","pricing_plan_id":"cebpf4jnsgd1na2vs0mg"},{"bike_id":"9760b051-4e9e-4125-bdb3-bbff49eb6279","system_id":"levelo_inurba_marseille","lat":43.31627,"lon":5.40451,"is_reserved":false,"is_disabled":false,"rental_uris":{"android":"levelo://app?vid=9760b051-4e9e-4125-bdb3-bbff49eb6279","ios":"levelo://app?vid=9760b051-4e9e-4125-bdb3-bbff49eb6279"},"vehicle_type_id":"4","last_reported":1739743663,"current_range_meters":9600,"station_id":"","pricing_plan_id":"cebpf4jnsgd1na2vs0mg"},{"bike_id":"ef1d4c74-2713-453f-aa59-65551529c49d","system_id":"levelo_inurba_marseille","lat":43.23216,"lon":5.39985,"is_reserved":false,"is_disabled":false,"rental_uris":{"android":"levelo://app?vid=ef1d4c74-2713-453f-aa59-65551529c49d","ios":"levelo://app?vid=ef1d4c74-2713-453f-aa59-65551529c49d"},"vehicle_type_id":"4","last_reported":1739743663,"current_range_meters":18800,"station_id":"ce4bhn12rcd13ifvqgqg","pricing_plan_id":"cebpf4jnsgd1na2vs0mg"},{"bike_id":"c5559994-20bc-48c5-9397-a0a5bf13f2e6","system_id":"levelo_inurba_marseille","lat":43.25871,"lon":5.39949,"is_reserved":false,"is_disabled":true,"rental_uris":{"android":"levelo://app?vid=c5559994-20bc-48c5-9397-a0a5bf13f2e6","ios":"levelo://app?vid=c5559994-20bc-48c5-9397-a0a5bf13f2e6"},"vehicle_type_id":"4","last_reported":1739743663,"current_range_meters":8000,"station_id":"ce4bhl92rcd13ifvqghg","pricing_plan_id":"cebpf4jnsgd1na2vs0mg"},{"bike_id":"20aa5b23-fbe5-4790-ad90-ddc22f8f839f","system_id":"levelo_inurba_marseille","lat":43.24176,"lon":5.36428,"is_reserved":false,"is_disabled":false,"rental_uris":{"android":"levelo://app?vid=20aa5b23-fbe5-4790-ad90-ddc22f8f839f","ios":"levelo://app?vid=20aa5b23-fbe5-4790-ad90-ddc22f8f839f"},"vehicle_type_id":"4","last_reported":1739743663,"current_range_meters":27200,"station_id":"cpo36qri1sfpv3e86is0","pricing_plan_id":"cebpf4jnsgd1na2vs0mg"},{"bike_id":"d353c95e-51cd-47bc-8fab-ad1b8a1b9157","system_id":"levelo_inurba_marseille","lat":43.34136,"lon":5.40903,"is_reserved":false,"is_disabled":false,"rental_uris":{"android":"levelo://app?vid=d353c95e-51cd-47bc-8fab-ad1b8a1b9157","ios":"levelo://app?vid=d353c95e-51cd-47bc-8fab-ad1b8a1b9157"},"vehicle_type_id":"4","last_reported":1739743663,"current_range_meters":38800,"station_id":"ce4bhqh2rcd13ifvqhlg","pricing_plan_id":"cebpf4jnsgd1na2vs0mg"},{"bike_id":"3fb25178-0097-4c0d-aa7c-df7cf9b4f5f8","system_id":"levelo_inurba_marseille","lat":43.29203,"lon":5.39337,"is_reserved":false,"is_disabled":false,"rental_uris":{"android":"levelo://app?vid=3fb25178-0097-4c0d-aa7c-df7cf9b4f5f8","ios":"levelo://app?vid=3fb25178-0097-4c0d-aa7c-df7cf9b4f5f8"},"vehicle_type_id":"4","last_reported":1739743663,"current_range_meters":27600,"station_id":"ce4bh192rcd13ifvqdd0","pricing_plan_id":"cebpf4jnsgd1na2vs0mg"},{"bike_id":"0286f64f-42c2-4f40-bd5e-754b7f2a9278","system_id":"levelo_inurba_marseille","lat":43.30537,"lon":5.38438,"is_reserved":false,"is_disabled":false,"rental_uris":{"android":"levelo://app?vid=0286f64f-42c2-4f40-bd5e-754b7f2a9278","ios":"levelo://app?vid=0286f64f-42c2-4f40-bd5e-754b7f2a9278"},"vehicle_type_id":"4","last_reported":1739743663,"current_range_meters":38800,"station_id":"ce4bgg92rcd13ifvqb30","pricing_plan_id":"cebpf4jnsgd1na2vs0mg"},{"bike_id":"c40e2cb9-b89c-4dbd-956b-535ef79f1d37","system_id":"levelo_inurba_marseille","lat":43.24808,"lon":5.37457,"is_reserved":false,"is_disabled":false,"rental_uris":{"android":"levelo://app?vid=c40e2cb9-b89c-4dbd-956b-535ef79f1d37","ios":"levelo://app?vid=c40e2cb9-b89c-4dbd-956b-535ef79f1d37"},"vehicle_type_id":"4","last_reported":1739743663,"current_range_meters":17200,"station_id":"ce4bhgh2rcd13ifvqfb0","pricing_plan_id":"cebpf4jnsgd1na2vs0mg"},{"bike_id":"621aa48b-6d99-46c4-b886-2c6eb903854e","system_id":"levelo_inurba_marseille","lat":43.292739,"lon":5.368368,"is_reserved":false,"is_disabled":true,"rental_uris":{"android":"levelo://app?vid=621aa48b-6d99-46c4-b886-2c6eb903854e","ios":"levelo://app?vid=621aa48b-6d99-46c4-b886-2c6eb903854e"},"vehicle_type_id":"4","last_reported":1739743663,"current_range_meters":27200,"station_id":"ce4bhbp2rcd13ifvqesg","pricing_plan_id":"cebpf4jnsgd1na2vs0mg"},{"bike_id":"6c892c07-6f7e-4303-b497-57dd12074326","system_id":"levelo_inurba_marseille","lat":43.29211,"lon":5.39319,"is_reserved":false,"is_disabled":false,"rental_uris":{"android":"levelo://app?vid=6c892c07-6f7e-4303-b497-57dd12074326","ios":"levelo://app?vid=6c892c07-6f7e-4303-b497-57dd12074326"},"vehicle_type_id":"4","last_reported":1739743663,"current_range_meters":12400,"station_id":"ce4bh192rcd13ifvqdd0","pricing_plan_id":"cebpf4jnsgd1na2vs0mg"},{"bike_id":"206f1ce2-224a-4d1d-b6e4-199f90d3a887","system_id":"levelo_inurba_marseille","lat":43.32677,"lon":5.41006,"is_reserved":false,"is_disabled":false,"rental_uris":{"android":"levelo://app?vid=206f1ce2-224a-4d1d-b6e4-199f90d3a887","ios":"levelo://app?vid=206f1ce2-224a-4d1d-b6e4-199f90d3a887"},"vehicle_type_id":"4","last_reported":1739743663,"current_range_meters":38800,"station_id":"ce4bhpp2rcd13ifvqhgg","pricing_plan_id":"cebpf4jnsgd1na2vs0mg"},{"bike_id":"c4a02628-5bda-4dbb-9bd4-64e32cc52e35","system_id":"levelo_inurba_marseille","lat":43.24802,"lon":5.37469,"is_reserved":false,"is_disabled":false,"rental_uris":{"android":"levelo://app?vid=c4a02628-5bda-4dbb-9bd4-64e32cc52e35","ios":"levelo://app?vid=c4a02628-5bda-4dbb-9bd4-64e32cc52e35"},"vehicle_type_id":"4","last_reported":1739743663,"current_range_meters":28000,"station_id":"ce4bhgh2rcd13ifvqfb0","pricing_plan_id":"cebpf4jnsgd1na2vs0mg"},{"bike_id":"4afd05b5-41e1-4012-b907-304d88773920","system_id":"levelo_inurba_marseille","lat":43.23964,"lon":5.36637,"is_reserved":false,"is_disabled":false,"rental_uris":{"android":"levelo://app?vid=4afd05b5-41e1-4012-b907-304d88773920","ios":"levelo://app?vid=4afd05b5-41e1-4012-b907-304d88773920"},"vehicle_type_id":"4","last_reported":1739743663,"current_range_meters":35200,"station_id":"ce4bhi12rcd13ifvqfp0","pricing_plan_id":"cebpf4jnsgd1na2vs0mg"},{"bike_id":"ca2c4039-7718-435e-a83a-018d26765a00","system_id":"levelo_inurba_marseille","lat":43.28847,"lon":5.39328,"is_reserved":false,"is_disabled":false,"rental_uris":{"android":"levelo://app?vid=ca2c4039-7718-435e-a83a-018d26765a00","ios":"levelo://app?vid=ca2c4039-7718-435e-a83a-018d26765a00"},"vehicle_type_id":"4","last_reported":1739743663,"current_range_meters":33200,"station_id":"ce4bh2p2rcd13ifvqdi0","pricing_plan_id":"cebpf4jnsgd1na2vs0mg"},{"bike_id":"af02ac68-734a-4337-a76f-2d6f15936fdf","system_id":"levelo_inurba_marseille","lat":43.31737,"lon":5.38891,"is_reserved":false,"is_disabled":false,"rental_uris":{"android":"levelo://app?vid=af02ac68-734a-4337-a76f-2d6f15936fdf","ios":"levelo://app?vid=af02ac68-734a-4337-a76f-2d6f15936fdf"},"vehicle_type_id":"4","last_reported":1739743663,"current_range_meters":38800,"station_id":"","pricing_plan_id":"cebpf4jnsgd1na2vs0mg"},{"bike_id":"aa65e4ee-faaf-4eea-b682-b92b4380af90","system_id":"levelo_inurba_marseille","lat":43.27924,"lon":5.38036,"is_reserved":false,"is_disabled":false,"rental_uris":{"android":"levelo://app?vid=aa65e4ee-faaf-4eea-b682-b92b4380af90","ios":"levelo://app?vid=aa65e4ee-faaf-4eea-b682-b92b4380af90"},"vehicle_type_id":"4","last_reported":1739743663,"current_range_meters":37600,"station_id":"ce4bhf92rcd13ifvqf50","pricing_plan_id":"cebpf4jnsgd1na2vs0mg"},{"bike_id":"952c4ced-f4d5-4dda-a664-d7808e10078a","system_id":"levelo_inurba_marseille","lat":43.28265,"lon":5.35063,"is_reserved":false,"is_disabled":false,"rental_uris":{"android":"levelo://app?vid=952c4ced-f4d5-4dda-a664-d7808e10078a","ios":"levelo://app?vid=952c4ced-f4d5-4dda-a664-d7808e10078a"},"vehicle_type_id":"4","last_reported":1739743663,"current_range_meters":24400,"station_id":"ce4bhbp2rcd13ifvqerg","pricing_plan_id":"cebpf4jnsgd1na2vs0mg"},{"bike_id":"5594aa58-c2b1-485c-9ad1-51f835900558","system_id":"levelo_inurba_marseille","lat":43.31181,"lon":5.38722,"is_reserved":false,"is_disabled":false,"rental_uris":{"android":"levelo://app?vid=5594aa58-c2b1-485c-9ad1-51f835900558","ios":"levelo://app?vid=5594aa58-c2b1-485c-9ad1-51f835900558"},"vehicle_type_id":"4","last_reported":1739743663,"current_range_meters":38800,"station_id":"ce4bgv12rcd13ifvqcp0","pricing_plan_id":"cebpf4jnsgd1na2vs0mg"},{"bike_id":"8202de92-d34e-45cc-894c-9d4216210518","system_id":"levelo_inurba_marseille","lat":43.31121,"lon":5.37779,"is_reserved":false,"is_disabled":false,"rental_uris":{"android":"levelo://app?vid=8202de92-d34e-45cc-894c-9d4216210518","ios":"levelo://app?vid=8202de92-d34e-45cc-894c-9d4216210518"},"vehicle_type_id":"4","last_reported":1739743663,"current_range_meters":38800,"station_id":"ce4bgt92rcd13ifvqcg0","pricing_plan_id":"cebpf4jnsgd1na2vs0mg"},{"bike_id":"3ce3dae2-ed5f-43cb-bad9-b317ce2471d9","system_id":"levelo_inurba_marseille","lat":43.24815,"lon":5.37458,"is_reserved":false,"is_disabled":false,"rental_uris":{"android":"levelo://app?vid=3ce3dae2-ed5f-43cb-bad9-b317ce2471d9","ios":"levelo://app?vid=3ce3dae2-ed5f-43cb-bad9-b317ce2471d9"},"vehicle_type_id":"4","last_reported":1739743663,"current_range_meters":36400,"station_id":"ce4bhgh2rcd13ifvqfb0","pricing_plan_id":"cebpf4jnsgd1na2vs0mg"},{"bike_id":"397f7144-3e20-4f61-9149-2720265fc375","system_id":"levelo_inurba_marseille","lat":43.2407,"lon":5.37754,"is_reserved":false,"is_disabled":false,"rental_uris":{"android":"levelo://app?vid=397f7144-3e20-4f61-9149-2720265fc375","ios":"levelo://app?vid=397f7144-3e20-4f61-9149-2720265fc375"},"vehicle_type_id":"4","last_reported":1739743663,"current_range_meters":33200,"station_id":"ce4bhnp2rcd13ifvqgvg","pricing_plan_id":"cebpf4jnsgd1na2vs0mg"},{"bike_id":"79405d4e-4d60-44d8-b3ca-13127cb58ee5","system_id":"levelo_inurba_marseille","lat":43.24815,"lon":5.37458,"is_reserved":false,"is_disabled":false,"rental_uris":{"android":"levelo://app?vid=79405d4e-4d60-44d8-b3ca-13127cb58ee5","ios":"levelo://app?vid=79405d4e-4d60-44d8-b3ca-13127cb58ee5"},"vehicle_type_id":"4","last_reported":1739743663,"current_range_meters":12000,"station_id":"ce4bhgh2rcd13ifvqfb0","pricing_plan_id":"cebpf4jnsgd1na2vs0mg"},{"bike_id":"cede1289-389f-43d9-bcd3-77c59f1eec85","system_id":"levelo_inurba_marseille","lat":43.24813,"lon":5.3746,"is_reserved":false,"is_disabled":false,"rental_uris":{"android":"levelo://app?vid=cede1289-389f-43d9-bcd3-77c59f1eec85","ios":"levelo://app?vid=cede1289-389f-43d9-bcd3-77c59f1eec85"},"vehicle_type_id":"4","last_reported":1739743663,"current_range_meters":32000,"station_id":"ce4bhgh2rcd13ifvqfb0","pricing_plan_id":"cebpf4jnsgd1na2vs0mg"},{"bike_id":"ecab2739-28b2-4e19-bf4b-bec57b9e8ed4","system_id":"levelo_inurba_marseille","lat":43.29514,"lon":5.39414,"is_reserved":false,"is_disabled":false,"rental_uris":{"android":"levelo://app?vid=ecab2739-28b2-4e19-bf4b-bec57b9e8ed4","ios":"levelo://app?vid=ecab2739-28b2-4e19-bf4b-bec57b9e8ed4"},"vehicle_type_id":"4","last_reported":1739743663,"current_range_meters":38000,"station_id":"ce4bh292rcd13ifvqdf0","pricing_plan_id":"cebpf4jnsgd1na2vs0mg"},{"bike_id":"b591be93-8298-4087-b388-9283516b2f36","system_id":"levelo_inurba_marseille","lat":43.30649,"lon":5.40064,"is_reserved":false,"is_disabled":false,"rental_uris":{"android":"levelo://app?vid=b591be93-8298-4087-b388-9283516b2f36","ios":"levelo://app?vid=b591be93-8298-4087-b388-9283516b2f36"},"vehicle_type_id":"4","last_reported":1739743663,"current_range_meters":38800,"station_id":"ce4bh112rcd13ifvqda0","pricing_plan_id":"cebpf4jnsgd1na2vs0mg"},{"bike_id":"411e9cc6-2d10-4b12-933e-efecb685ce3b","system_id":"levelo_inurba_marseille","lat":43.28834,"lon":5.35867,"is_reserved":false,"is_disabled":false,"rental_uris":{"android":"levelo://app?vid=411e9cc6-2d10-4b12-933e-efecb685ce3b","ios":"levelo://app?vid=411e9cc6-2d10-4b12-933e-efecb685ce3b"},"vehicle_type_id":"4","last_reported":1739743663,"current_range_meters":20400,"station_id":"ce4bhb12rcd13ifvqem0","pricing_plan_id":"cebpf4jnsgd1na2vs0mg"},{"bike_id":"ecd96c98-2a01-460b-b73d-88d909939f4b","system_id":"levelo_inurba_marseille","lat":43.28984,"lon":5.37848,"is_reserved":false,"is_disabled":false,"rental_uris":{"android":"levelo://app?vid=ecd96c98-2a01-460b-b73d-88d909939f4b","ios":"levelo://app?vid=ecd96c98-2a01-460b-b73d-88d909939f4b"},"vehicle_type_id":"4","last_reported":1739743663,"current_range_meters":38000,"station_id":"ce4bh9p2rcd13ifvqed0","pricing_plan_id":"cebpf4jnsgd1na2vs0mg"},{"bike_id":"d505ae6b-8401-49d2-a7e3-85c98bc77f1c","system_id":"levelo_inurba_marseille","lat":43.32351,"lon":5.406158,"is_reserved":false,"is_disabled":false,"rental_uris":{"android":"levelo://app?vid=d505ae6b-8401-49d2-a7e3-85c98bc77f1c","ios":"levelo://app?vid=d505ae6b-8401-49d2-a7e3-85c98bc77f1c"},"vehicle_type_id":"4","last_reported":1739743663,"current_range_meters":17200,"station_id":"ce4bhq92rcd13ifvqhjg","pricing_plan_id":"cebpf4jnsgd1na2vs0mg"},{"bike_id":"9ef51e36-6b91-4370-b608-25268899d671","system_id":"levelo_inurba_marseille","lat":43.27807,"lon":5.40718,"is_reserved":false,"is_disabled":false,"rental_uris":{"android":"levelo://app?vid=9ef51e36-6b91-4370-b608-25268899d671","ios":"levelo://app?vid=9ef51e36-6b91-4370-b608-25268899d671"},"vehicle_type_id":"4","last_reported":1739743663,"current_range_meters":20400,"station_id":"ce4bhnh2rcd13ifvqgtg","pricing_plan_id":"cebpf4jnsgd1na2vs0mg"},{"bike_id":"6408b994-ae56-4e32-95b9-cb0502299b0f","system_id":"levelo_inurba_marseille","lat":43.2955,"lon":5.42284,"is_reserved":false,"is_disabled":false,"rental_uris":{"android":"levelo://app?vid=6408b994-ae56-4e32-95b9-cb0502299b0f","ios":"levelo://app?vid=6408b994-ae56-4e32-95b9-cb0502299b0f"},"vehicle_type_id":"4","last_reported":1739743663,"current_range_meters":36800,"station_id":"ce4bhph2rcd13ifvqhdg","pricing_plan_id":"cebpf4jnsgd1na2vs0mg"},{"bike_id":"e87d3a2a-e0eb-491b-a724-860180a65cab","system_id":"levelo_inurba_marseille","lat":43.27254,"lon":5.40078,"is_reserved":false,"is_disabled":false,"rental_uris":{"android":"levelo://app?vid=e87d3a2a-e0eb-491b-a724-860180a65cab","ios":"levelo://app?vid=e87d3a2a-e0eb-491b-a724-860180a65cab"},"vehicle_type_id":"4","last_reported":1739743663,"current_range_meters":16400,"station_id":"","pricing_plan_id":"cebpf4jnsgd1na2vs0mg"},{"bike_id":"982c499f-f482-40de-b19f-0c738b7d10ae","system_id":"levelo_inurba_marseille","lat":43.248049,"lon":5.374536,"is_reserved":false,"is_disabled":false,"rental_uris":{"android":"levelo://app?vid=982c499f-f482-40de-b19f-0c738b7d10ae","ios":"levelo://app?vid=982c499f-f482-40de-b19f-0c738b7d10ae"},"vehicle_type_id":"4","last_reported":1739743663,"current_range_meters":38800,"station_id":"ce4bhgh2rcd13ifvqfb0","pricing_plan_id":"cebpf4jnsgd1na2vs0mg"},{"bike_id":"98f62326-8a26-4889-8233-3fa661e57e03","system_id":"levelo_inurba_marseille","lat":43.251079,"lon":5.403156,"is_reserved":false,"is_disabled":false,"rental_uris":{"android":"levelo://app?vid=98f62326-8a26-4889-8233-3fa661e57e03","ios":"levelo://app?vid=98f62326-8a26-4889-8233-3fa661e57e03"},"vehicle_type_id":"4","last_reported":1739743663,"current_range_meters":6800,"station_id":"ce4bhlh2rcd13ifvqgig","pricing_plan_id":"cebpf4jnsgd1na2vs0mg"},{"bike_id":"7f3d31c8-066f-4b9d-b987-28a73c221cd5","system_id":"levelo_inurba_marseille","lat":43.30547,"lon":5.40191,"is_reserved":false,"is_disabled":false,"rental_uris":{"android":"levelo://app?vid=7f3d31c8-066f-4b9d-b987-28a73c221cd5","ios":"levelo://app?vid=7f3d31c8-066f-4b9d-b987-28a73c221cd5"},"vehicle_type_id":"4","last_reported":1739743663,"current_range_meters":33200,"station_id":"ce4bh112rcd13ifvqda0","pricing_plan_id":"cebpf4jnsgd1na2vs0mg"},{"bike_id":"f364e7fd-b7af-4331-9c85-154b4666d931","system_id":"levelo_inurba_marseille","lat":43.28428,"lon":5.35002,"is_reserved":false,"is_disabled":true,"rental_uris":{"android":"levelo://app?vid=f364e7fd-b7af-4331-9c85-154b4666d931","ios":"levelo://app?vid=f364e7fd-b7af-4331-9c85-154b4666d931"},"vehicle_type_id":"4","last_reported":1739743663,"current_range_meters":0,"station_id":"ce4bhbh2rcd13ifvqepg","pricing_plan_id":"cebpf4jnsgd1na2vs0mg"},{"bike_id":"188cfab8-8ce4-4a15-bb3d-857c9c5607ef","system_id":"levelo_inurba_marseille","lat":43.24669,"lon":5.38163,"is_reserved":false,"is_disabled":false,"rental_uris":{"android":"levelo://app?vid=188cfab8-8ce4-4a15-bb3d-857c9c5607ef","ios":"levelo://app?vid=188cfab8-8ce4-4a15-bb3d-857c9c5607ef"},"vehicle_type_id":"4","last_reported":1739743663,"current_range_meters":38800,"station_id":"ce4bhih2rcd13ifvqfr0","pricing_plan_id":"cebpf4jnsgd1na2vs0mg"},{"bike_id":"d41bd212-63b7-457d-8ea1-e3e91cc8b27a","system_id":"levelo_inurba_marseille","lat":43.2883,"lon":5.35863,"is_reserved":false,"is_disabled":false,"rental_uris":{"android":"levelo://app?vid=d41bd212-63b7-457d-8ea1-e3e91cc8b27a","ios":"levelo://app?vid=d41bd212-63b7-457d-8ea1-e3e91cc8b27a"},"vehicle_type_id":"4","last_reported":1739743663,"current_range_meters":31200,"station_id":"ce4bhb12rcd13ifvqem0","pricing_plan_id":"cebpf4jnsgd1na2vs0mg"},{"bike_id":"7df33989-9cd1-4583-a90f-25c190f648b5","system_id":"levelo_inurba_marseille","lat":43.29388,"lon":5.38616,"is_reserved":false,"is_disabled":false,"rental_uris":{"android":"levelo://app?vid=7df33989-9cd1-4583-a90f-25c190f648b5","ios":"levelo://app?vid=7df33989-9cd1-4583-a90f-25c190f648b5"},"vehicle_type_id":"4","last_reported":1739743663,"current_range_meters":28400,"station_id":"ce4bh2h2rcd13ifvqdh0","pricing_plan_id":"cebpf4jnsgd1na2vs0mg"},{"bike_id":"7e15b6ad-756b-4a1f-b46b-586396e2f46f","system_id":"levelo_inurba_marseille","lat":43.28721,"lon":5.36077,"is_reserved":false,"is_disabled":false,"rental_uris":{"android":"levelo://app?vid=7e15b6ad-756b-4a1f-b46b-586396e2f46f","ios":"levelo://app?vid=7e15b6ad-756b-4a1f-b46b-586396e2f46f"},"vehicle_type_id":"4","last_reported":1739743663,"current_range_meters":22000,"station_id":"cki0cbj6b192h4jlfktg","pricing_plan_id":"cebpf4jnsgd1na2vs0mg"},{"bike_id":"8305f6a0-7254-407d-95be-23c9d9324fe7","system_id":"levelo_inurba_marseille","lat":43.29043,"lon":5.38675,"is_reserved":false,"is_disabled":false,"rental_uris":{"android":"levelo://app?vid=8305f6a0-7254-407d-95be-23c9d9324fe7","ios":"levelo://app?vid=8305f6a0-7254-407d-95be-23c9d9324fe7"},"vehicle_type_id":"4","last_reported":1739743663,"current_range_meters":26000,"station_id":"ce4bh4p2rcd13ifvqe0g","pricing_plan_id":"cebpf4jnsgd1na2vs0mg"},{"bike_id":"05f82d89-fa80-4f7f-95e3-de8829322c89","system_id":"levelo_inurba_marseille","lat":43.254915,"lon":5.376483,"is_reserved":false,"is_disabled":true,"rental_uris":{"android":"levelo://app?vid=05f82d89-fa80-4f7f-95e3-de8829322c89","ios":"levelo://app?vid=05f82d89-fa80-4f7f-95e3-de8829322c89"},"vehicle_type_id":"4","last_reported":1739743663,"current_range_meters":30400,"station_id":"ce4bhh12rcd13ifvqff0","pricing_plan_id":"cebpf4jnsgd1na2vs0mg"},{"bike_id":"30ea1aa1-f18a-46ba-baa0-81223557424e","system_id":"levelo_inurba_marseille","lat":43.27603,"lon":5.36101,"is_reserved":false,"is_disabled":false,"rental_uris":{"android":"levelo://app?vid=30ea1aa1-f18a-46ba-baa0-81223557424e","ios":"levelo://app?vid=30ea1aa1-f18a-46ba-baa0-81223557424e"},"vehicle_type_id":"4","last_reported":1739743663,"current_range_meters":28400,"station_id":"ce4bgj92rcd13ifvqbe0","pricing_plan_id":"cebpf4jnsgd1na2vs0mg"},{"bike_id":"23b444ef-90ed-4509-b4a2-cce013b96af6","system_id":"levelo_inurba_marseille","lat":43.28422,"lon":5.3499,"is_reserved":false,"is_disabled":false,"rental_uris":{"android":"levelo://app?vid=23b444ef-90ed-4509-b4a2-cce013b96af6","ios":"levelo://app?vid=23b444ef-90ed-4509-b4a2-cce013b96af6"},"vehicle_type_id":"4","last_reported":1739743663,"current_range_meters":27600,"station_id":"ce4bhbh2rcd13ifvqepg","pricing_plan_id":"cebpf4jnsgd1na2vs0mg"},{"bike_id":"38d6334f-19e1-4dc9-afb2-b5c941e259f5","system_id":"levelo_inurba_marseille","lat":43.29513,"lon":5.39029,"is_reserved":false,"is_disabled":false,"rental_uris":{"android":"levelo://app?vid=38d6334f-19e1-4dc9-afb2-b5c941e259f5","ios":"levelo://app?vid=38d6334f-19e1-4dc9-afb2-b5c941e259f5"},"vehicle_type_id":"4","last_reported":1739743663,"current_range_meters":30000,"station_id":"ce4bh3p2rcd13ifvqdp0","pricing_plan_id":"cebpf4jnsgd1na2vs0mg"},{"bike_id":"281b84f3-58f9-4822-a666-06aa2e562366","system_id":"levelo_inurba_marseille","lat":43.24162,"lon":5.36413,"is_reserved":false,"is_disabled":false,"rental_uris":{"android":"levelo://app?vid=281b84f3-58f9-4822-a666-06aa2e562366","ios":"levelo://app?vid=281b84f3-58f9-4822-a666-06aa2e562366"},"vehicle_type_id":"4","last_reported":1739743663,"current_range_meters":24800,"station_id":"cpo36qri1sfpv3e86is0","pricing_plan_id":"cebpf4jnsgd1na2vs0mg"},{"bike_id":"f58c78ee-fb4b-4848-9574-1fd30425a15a","system_id":"levelo_inurba_marseille","lat":43.32492,"lon":5.36569,"is_reserved":false,"is_disabled":false,"rental_uris":{"android":"levelo://app?vid=f58c78ee-fb4b-4848-9574-1fd30425a15a","ios":"levelo://app?vid=f58c78ee-fb4b-4848-9574-1fd30425a15a"},"vehicle_type_id":"4","last_reported":1739743663,"current_range_meters":29600,"station_id":"ce4bhs12rcd13ifvqhvg","pricing_plan_id":"cebpf4jnsgd1na2vs0mg"},{"bike_id":"be3395f5-02c0-4e01-849f-366b10725bdb","system_id":"levelo_inurba_marseille","lat":43.28494,"lon":5.38426,"is_reserved":false,"is_disabled":false,"rental_uris":{"android":"levelo://app?vid=be3395f5-02c0-4e01-849f-366b10725bdb","ios":"levelo://app?vid=be3395f5-02c0-4e01-849f-366b10725bdb"},"vehicle_type_id":"4","last_reported":1739743663,"current_range_meters":21600,"station_id":"ce4bh512rcd13ifvqe3g","pricing_plan_id":"cebpf4jnsgd1na2vs0mg"},{"bike_id":"0d60bc89-f62c-4653-a287-e71867fc3464","system_id":"levelo_inurba_marseille","lat":43.28695,"lon":5.40014,"is_reserved":false,"is_disabled":false,"rental_uris":{"android":"levelo://app?vid=0d60bc89-f62c-4653-a287-e71867fc3464","ios":"levelo://app?vid=0d60bc89-f62c-4653-a287-e71867fc3464"},"vehicle_type_id":"4","last_reported":1739743663,"current_range_meters":28400,"station_id":"ce4bho92rcd13ifvqh3g","pricing_plan_id":"cebpf4jnsgd1na2vs0mg"},{"bike_id":"9c94e0d5-f5af-426c-a846-727d2d16657b","system_id":"levelo_inurba_marseille","lat":43.28021,"lon":5.36948,"is_reserved":false,"is_disabled":false,"rental_uris":{"android":"levelo://app?vid=9c94e0d5-f5af-426c-a846-727d2d16657b","ios":"levelo://app?vid=9c94e0d5-f5af-426c-a846-727d2d16657b"},"vehicle_type_id":"4","last_reported":1739743663,"current_range_meters":38800,"station_id":"ce4bha12rcd13ifvqef0","pricing_plan_id":"cebpf4jnsgd1na2vs0mg"},{"bike_id":"090da208-a850-4283-b2b7-806973894622","system_id":"levelo_inurba_marseille","lat":43.29534,"lon":5.3854,"is_reserved":false,"is_disabled":false,"rental_uris":{"android":"levelo://app?vid=090da208-a850-4283-b2b7-806973894622","ios":"levelo://app?vid=090da208-a850-4283-b2b7-806973894622"},"vehicle_type_id":"4","last_reported":1739743663,"current_range_meters":38000,"station_id":"ce4bgih2rcd13ifvqba0","pricing_plan_id":"cebpf4jnsgd1na2vs0mg"},{"bike_id":"917b1dc0-adb2-4903-84ef-22990e0daa55","system_id":"levelo_inurba_marseille","lat":43.30441,"lon":5.41297,"is_reserved":false,"is_disabled":false,"rental_uris":{"android":"levelo://app?vid=917b1dc0-adb2-4903-84ef-22990e0daa55","ios":"levelo://app?vid=917b1dc0-adb2-4903-84ef-22990e0daa55"},"vehicle_type_id":"4","last_reported":1739743663,"current_range_meters":32000,"station_id":"ce4bhop2rcd13ifvqh8g","pricing_plan_id":"cebpf4jnsgd1na2vs0mg"},{"bike_id":"f44027ef-774c-4ac4-8d50-81d21aa2b847","system_id":"levelo_inurba_marseille","lat":43.28638,"lon":5.35113,"is_reserved":false,"is_disabled":false,"rental_uris":{"android":"levelo://app?vid=f44027ef-774c-4ac4-8d50-81d21aa2b847","ios":"levelo://app?vid=f44027ef-774c-4ac4-8d50-81d21aa2b847"},"vehicle_type_id":"4","last_reported":1739743663,"current_range_meters":38800,"station_id":"ce4bhch2rcd13ifvqeug","pricing_plan_id":"cebpf4jnsgd1na2vs0mg"},{"bike_id":"03eba1d0-92c1-4e6e-a4d0-7c546f2439c0","system_id":"levelo_inurba_marseille","lat":43.337444,"lon":5.374475,"is_reserved":false,"is_disabled":true,"rental_uris":{"android":"levelo://app?vid=03eba1d0-92c1-4e6e-a4d0-7c546f2439c0","ios":"levelo://app?vid=03eba1d0-92c1-4e6e-a4d0-7c546f2439c0"},"vehicle_type_id":"4","last_reported":1739743663,"current_range_meters":0,"station_id":"","pricing_plan_id":"cebpf4jnsgd1na2vs0mg"},{"bike_id":"7670b8ae-6f61-4d26-b077-17100b95f8ab","system_id":"levelo_inurba_marseille","lat":43.28451,"lon":5.39178,"is_reserved":false,"is_disabled":true,"rental_uris":{"android":"levelo://app?vid=7670b8ae-6f61-4d26-b077-17100b95f8ab","ios":"levelo://app?vid=7670b8ae-6f61-4d26-b077-17100b95f8ab"},"vehicle_type_id":"4","last_reported":1739743663,"current_range_meters":27200,"station_id":"ce4bhoh2rcd13ifvqh5g","pricing_plan_id":"cebpf4jnsgd1na2vs0mg"},{"bike_id":"496e0267-f4a3-4e46-98dc-aa633c403f12","system_id":"levelo_inurba_marseille","lat":43.25492,"lon":5.3767,"is_reserved":false,"is_disabled":true,"rental_uris":{"android":"levelo://app?vid=496e0267-f4a3-4e46-98dc-aa633c403f12","ios":"levelo://app?vid=496e0267-f4a3-4e46-98dc-aa633c403f12"},"vehicle_type_id":"4","last_reported":1739743663,"current_range_meters":30800,"station_id":"ce4bhh12rcd13ifvqff0","pricing_plan_id":"cebpf4jnsgd1na2vs0mg"},{"bike_id":"22d03988-cef2-4c32-901a-c2d50b43d3a9","system_id":"levelo_inurba_marseille","lat":43.29534,"lon":5.38553,"is_reserved":false,"is_disabled":true,"rental_uris":{"android":"levelo://app?vid=22d03988-cef2-4c32-901a-c2d50b43d3a9","ios":"levelo://app?vid=22d03988-cef2-4c32-901a-c2d50b43d3a9"},"vehicle_type_id":"4","last_reported":1739743663,"current_range_meters":38000,"station_id":"ce4bgih2rcd13ifvqba0","pricing_plan_id":"cebpf4jnsgd1na2vs0mg"},{"bike_id":"dc8f3a1c-f2fe-4b0d-b970-db9c4df9a40d","system_id":"levelo_inurba_marseille","lat":43.28414,"lon":5.3499,"is_reserved":false,"is_disabled":false,"rental_uris":{"android":"levelo://app?vid=dc8f3a1c-f2fe-4b0d-b970-db9c4df9a40d","ios":"levelo://app?vid=dc8f3a1c-f2fe-4b0d-b970-db9c4df9a40d"},"vehicle_type_id":"4","last_reported":1739743663,"current_range_meters":24800,"station_id":"ce4bhbh2rcd13ifvqepg","pricing_plan_id":"cebpf4jnsgd1na2vs0mg"},{"bike_id":"8c6e1647-a201-42d6-9e2c-07bf21681fa3","system_id":"levelo_inurba_marseille","lat":43.31903,"lon":5.40743,"is_reserved":false,"is_disabled":true,"rental_uris":{"android":"levelo://app?vid=8c6e1647-a201-42d6-9e2c-07bf21681fa3","ios":"levelo://app?vid=8c6e1647-a201-42d6-9e2c-07bf21681fa3"},"vehicle_type_id":"4","last_reported":1739743663,"current_range_meters":16000,"station_id":"ce4bhq12rcd13ifvqhig","pricing_plan_id":"cebpf4jnsgd1na2vs0mg"},{"bike_id":"b3d19f75-6bd4-4ed1-9fce-15e0888b6cf9","system_id":"levelo_inurba_marseille","lat":43.31082,"lon":5.42428,"is_reserved":false,"is_disabled":false,"rental_uris":{"android":"levelo://app?vid=b3d19f75-6bd4-4ed1-9fce-15e0888b6cf9","ios":"levelo://app?vid=b3d19f75-6bd4-4ed1-9fce-15e0888b6cf9"},"vehicle_type_id":"4","last_reported":1739743663,"current_range_meters":33600,"station_id":"ce4bhp92rcd13ifvqhag","pricing_plan_id":"cebpf4jnsgd1na2vs0mg"},{"bike_id":"d7bb91c7-1e6c-4011-85a2-08678dbfba66","system_id":"levelo_inurba_marseille","lat":43.2438,"lon":5.37066,"is_reserved":false,"is_disabled":false,"rental_uris":{"android":"levelo://app?vid=d7bb91c7-1e6c-4011-85a2-08678dbfba66","ios":"levelo://app?vid=d7bb91c7-1e6c-4011-85a2-08678dbfba66"},"vehicle_type_id":"4","last_reported":1739743663,"current_range_meters":37600,"station_id":"ce4bhhh2rcd13ifvqfk0","pricing_plan_id":"cebpf4jnsgd1na2vs0mg"},{"bike_id":"36d3504e-5361-430c-b3be-ab96da17eb8b","system_id":"levelo_inurba_marseille","lat":43.24807,"lon":5.37454,"is_reserved":false,"is_disabled":false,"rental_uris":{"android":"levelo://app?vid=36d3504e-5361-430c-b3be-ab96da17eb8b","ios":"levelo://app?vid=36d3504e-5361-430c-b3be-ab96da17eb8b"},"vehicle_type_id":"4","last_reported":1739743663,"current_range_meters":32000,"station_id":"ce4bhgh2rcd13ifvqfb0","pricing_plan_id":"cebpf4jnsgd1na2vs0mg"},{"bike_id":"85edcdcc-3bf3-4821-a351-c912e326d6d7","system_id":"levelo_inurba_marseille","lat":43.3042,"lon":5.41269,"is_reserved":false,"is_disabled":false,"rental_uris":{"android":"levelo://app?vid=85edcdcc-3bf3-4821-a351-c912e326d6d7","ios":"levelo://app?vid=85edcdcc-3bf3-4821-a351-c912e326d6d7"},"vehicle_type_id":"4","last_reported":1739743663,"current_range_meters":32800,"station_id":"ce4bhop2rcd13ifvqh8g","pricing_plan_id":"cebpf4jnsgd1na2vs0mg"},{"bike_id":"1f52f3b3-3e4c-4076-9fe5-f4b3bb4b252a","system_id":"levelo_inurba_marseille","lat":43.27051,"lon":5.4317,"is_reserved":false,"is_disabled":true,"rental_uris":{"android":"levelo://app?vid=1f52f3b3-3e4c-4076-9fe5-f4b3bb4b252a","ios":"levelo://app?vid=1f52f3b3-3e4c-4076-9fe5-f4b3bb4b252a"},"vehicle_type_id":"4","last_reported":1739743663,"current_range_meters":0,"station_id":"","pricing_plan_id":"cebpf4jnsgd1na2vs0mg"},{"bike_id":"204d0c95-d245-41ee-a560-4718b8e41e4d","system_id":"levelo_inurba_marseille","lat":43.25085,"lon":5.39524,"is_reserved":false,"is_disabled":false,"rental_uris":{"android":"levelo://app?vid=204d0c95-d245-41ee-a560-4718b8e41e4d","ios":"levelo://app?vid=204d0c95-d245-41ee-a560-4718b8e41e4d"},"vehicle_type_id":"4","last_reported":1739743663,"current_range_meters":38400,"station_id":"ce4bhm12rcd13ifvqgkg","pricing_plan_id":"cebpf4jnsgd1na2vs0mg"},{"bike_id":"8c2cb4e7-cc7a-458e-beca-ed80b12306ff","system_id":"levelo_inurba_marseille","lat":43.30124,"lon":5.39885,"is_reserved":false,"is_disabled":true,"rental_uris":{"android":"levelo://app?vid=8c2cb4e7-cc7a-458e-beca-ed80b12306ff","ios":"levelo://app?vid=8c2cb4e7-cc7a-458e-beca-ed80b12306ff"},"vehicle_type_id":"4","last_reported":1739743663,"current_range_meters":0,"station_id":"ce4bh0h2rcd13ifvqd40","pricing_plan_id":"cebpf4jnsgd1na2vs0mg"},{"bike_id":"bd1fbd17-5ecd-4c2a-9290-d1ffd1a70214","system_id":"levelo_inurba_marseille","lat":43.295492,"lon":5.422873,"is_reserved":false,"is_disabled":false,"rental_uris":{"android":"levelo://app?vid=bd1fbd17-5ecd-4c2a-9290-d1ffd1a70214","ios":"levelo://app?vid=bd1fbd17-5ecd-4c2a-9290-d1ffd1a70214"},"vehicle_type_id":"4","last_reported":1739743663,"current_range_meters":27600,"station_id":"ce4bhph2rcd13ifvqhdg","pricing_plan_id":"cebpf4jnsgd1na2vs0mg"},{"bike_id":"8c74014a-8dc1-4e6e-96d0-e4be6e75992b","system_id":"levelo_inurba_marseille","lat":43.28003,"lon":5.4169,"is_reserved":false,"is_disabled":false,"rental_uris":{"android":"levelo://app?vid=8c74014a-8dc1-4e6e-96d0-e4be6e75992b","ios":"levelo://app?vid=8c74014a-8dc1-4e6e-96d0-e4be6e75992b"},"vehicle_type_id":"4","last_reported":1739743663,"current_range_meters":28000,"station_id":"ce4bho12rcd13ifvqh1g","pricing_plan_id":"cebpf4jnsgd1na2vs0mg"},{"bike_id":"dd548764-7d84-4656-8245-ec59f80c7eb7","system_id":"levelo_inurba_marseille","lat":43.30413,"lon":5.41292,"is_reserved":false,"is_disabled":false,"rental_uris":{"android":"levelo://app?vid=dd548764-7d84-4656-8245-ec59f80c7eb7","ios":"levelo://app?vid=dd548764-7d84-4656-8245-ec59f80c7eb7"},"vehicle_type_id":"4","last_reported":1739743663,"current_range_meters":38800,"station_id":"ce4bhop2rcd13ifvqh8g","pricing_plan_id":"cebpf4jnsgd1na2vs0mg"},{"bike_id":"d2e01317-2950-420e-b1aa-8f1e4398c1e8","system_id":"levelo_inurba_marseille","lat":43.2319,"lon":5.35554,"is_reserved":false,"is_disabled":false,"rental_uris":{"android":"levelo://app?vid=d2e01317-2950-420e-b1aa-8f1e4398c1e8","ios":"levelo://app?vid=d2e01317-2950-420e-b1aa-8f1e4398c1e8"},"vehicle_type_id":"4","last_reported":1739743663,"current_range_meters":38800,"station_id":"ce4bhu92rcd13ifvqi70","pricing_plan_id":"cebpf4jnsgd1na2vs0mg"},{"bike_id":"99b60497-417a-4e6c-9e27-ce3655ce5e57","system_id":"levelo_inurba_marseille","lat":43.30663,"lon":5.40081,"is_reserved":false,"is_disabled":true,"rental_uris":{"android":"levelo://app?vid=99b60497-417a-4e6c-9e27-ce3655ce5e57","ios":"levelo://app?vid=99b60497-417a-4e6c-9e27-ce3655ce5e57"},"vehicle_type_id":"4","last_reported":1739743663,"current_range_meters":23200,"station_id":"ce4bh112rcd13ifvqda0","pricing_plan_id":"cebpf4jnsgd1na2vs0mg"},{"bike_id":"cb1c0d7d-2947-40bf-8666-7a69800fbd13","system_id":"levelo_inurba_marseille","lat":43.27937,"lon":5.41033,"is_reserved":false,"is_disabled":false,"rental_uris":{"android":"levelo://app?vid=cb1c0d7d-2947-40bf-8666-7a69800fbd13","ios":"levelo://app?vid=cb1c0d7d-2947-40bf-8666-7a69800fbd13"},"vehicle_type_id":"4","last_reported":1739743663,"current_range_meters":7200,"station_id":"ce4bhnp2rcd13ifvqh0g","pricing_plan_id":"cebpf4jnsgd1na2vs0mg"},{"bike_id":"fdbe1c87-3470-4d42-a2f8-e6c80454708a","system_id":"levelo_inurba_marseille","lat":43.23964,"lon":5.36645,"is_reserved":false,"is_disabled":false,"rental_uris":{"android":"levelo://app?vid=fdbe1c87-3470-4d42-a2f8-e6c80454708a","ios":"levelo://app?vid=fdbe1c87-3470-4d42-a2f8-e6c80454708a"},"vehicle_type_id":"4","last_reported":1739743663,"current_range_meters":8000,"station_id":"ce4bhi12rcd13ifvqfp0","pricing_plan_id":"cebpf4jnsgd1na2vs0mg"},{"bike_id":"68e091eb-0298-4cb5-b5eb-8dfc36218da6","system_id":"levelo_inurba_marseille","lat":43.23181,"lon":5.39982,"is_reserved":false,"is_disabled":false,"rental_uris":{"android":"levelo://app?vid=68e091eb-0298-4cb5-b5eb-8dfc36218da6","ios":"levelo://app?vid=68e091eb-0298-4cb5-b5eb-8dfc36218da6"},"vehicle_type_id":"4","last_reported":1739743663,"current_range_meters":38800,"station_id":"ce4bhn12rcd13ifvqgqg","pricing_plan_id":"cebpf4jnsgd1na2vs0mg"},{"bike_id":"d63b7867-53a4-4bca-be72-b856d1cbea50","system_id":"levelo_inurba_marseille","lat":43.23952,"lon":5.36628,"is_reserved":false,"is_disabled":false,"rental_uris":{"android":"levelo://app?vid=d63b7867-53a4-4bca-be72-b856d1cbea50","ios":"levelo://app?vid=d63b7867-53a4-4bca-be72-b856d1cbea50"},"vehicle_type_id":"4","last_reported":1739743663,"current_range_meters":18800,"station_id":"ce4bhi12rcd13ifvqfp0","pricing_plan_id":"cebpf4jnsgd1na2vs0mg"},{"bike_id":"8a6c5fd3-bd8f-4eaa-bf19-9b35233ab017","system_id":"levelo_inurba_marseille","lat":43.2971,"lon":5.36599,"is_reserved":false,"is_disabled":false,"rental_uris":{"android":"levelo://app?vid=8a6c5fd3-bd8f-4eaa-bf19-9b35233ab017","ios":"levelo://app?vid=8a6c5fd3-bd8f-4eaa-bf19-9b35233ab017"},"vehicle_type_id":"4","last_reported":1739743663,"current_range_meters":38000,"station_id":"ce4bgn12rcd13ifvqbt0","pricing_plan_id":"cebpf4jnsgd1na2vs0mg"},{"bike_id":"57a5c251-6123-470e-813e-a9340a0256fe","system_id":"levelo_inurba_marseille","lat":43.24181,"lon":5.364,"is_reserved":false,"is_disabled":false,"rental_uris":{"android":"levelo://app?vid=57a5c251-6123-470e-813e-a9340a0256fe","ios":"levelo://app?vid=57a5c251-6123-470e-813e-a9340a0256fe"},"vehicle_type_id":"4","last_reported":1739743663,"current_range_meters":38800,"station_id":"cpo36qri1sfpv3e86is0","pricing_plan_id":"cebpf4jnsgd1na2vs0mg"},{"bike_id":"ef172359-3e68-4bf2-b045-8d26f74d9415","system_id":"levelo_inurba_marseille","lat":43.295155,"lon":5.394121,"is_reserved":false,"is_disabled":false,"rental_uris":{"android":"levelo://app?vid=ef172359-3e68-4bf2-b045-8d26f74d9415","ios":"levelo://app?vid=ef172359-3e68-4bf2-b045-8d26f74d9415"},"vehicle_type_id":"4","last_reported":1739743663,"current_range_meters":39200,"station_id":"ce4bh292rcd13ifvqdf0","pricing_plan_id":"cebpf4jnsgd1na2vs0mg"},{"bike_id":"77932811-e2b8-478c-8f12-865094071f88","system_id":"levelo_inurba_marseille","lat":43.25727,"lon":5.41109,"is_reserved":false,"is_disabled":false,"rental_uris":{"android":"levelo://app?vid=77932811-e2b8-478c-8f12-865094071f88","ios":"levelo://app?vid=77932811-e2b8-478c-8f12-865094071f88"},"vehicle_type_id":"4","last_reported":1739743663,"current_range_meters":25200,"station_id":"ce4bhkp2rcd13ifvqgd0","pricing_plan_id":"cebpf4jnsgd1na2vs0mg"},{"bike_id":"21bdbb38-e271-4c3f-b995-fd6c1caff7e9","system_id":"levelo_inurba_marseille","lat":43.292917,"lon":5.401323,"is_reserved":false,"is_disabled":false,"rental_uris":{"android":"levelo://app?vid=21bdbb38-e271-4c3f-b995-fd6c1caff7e9","ios":"levelo://app?vid=21bdbb38-e271-4c3f-b995-fd6c1caff7e9"},"vehicle_type_id":"4","last_reported":1739743663,"current_range_meters":38800,"station_id":"ce4bh312rcd13ifvqdk0","pricing_plan_id":"cebpf4jnsgd1na2vs0mg"},{"bike_id":"02db7a28-fc2d-4a4a-92a0-cec040e64718","system_id":"levelo_inurba_marseille","lat":43.23965,"lon":5.36625,"is_reserved":false,"is_disabled":true,"rental_uris":{"android":"levelo://app?vid=02db7a28-fc2d-4a4a-92a0-cec040e64718","ios":"levelo://app?vid=02db7a28-fc2d-4a4a-92a0-cec040e64718"},"vehicle_type_id":"4","last_reported":1739743663,"current_range_meters":2000,"station_id":"ce4bhi12rcd13ifvqfp0","pricing_plan_id":"cebpf4jnsgd1na2vs0mg"},{"bike_id":"2186a012-eb75-46a4-883e-debc895b568e","system_id":"levelo_inurba_marseille","lat":43.31059,"lon":5.38352,"is_reserved":false,"is_disabled":false,"rental_uris":{"android":"levelo://app?vid=2186a012-eb75-46a4-883e-debc895b568e","ios":"levelo://app?vid=2186a012-eb75-46a4-883e-debc895b568e"},"vehicle_type_id":"4","last_reported":1739743663,"current_range_meters":25600,"station_id":"ce4bgv92rcd13ifvqcr0","pricing_plan_id":"cebpf4jnsgd1na2vs0mg"},{"bike_id":"6f820518-8b07-484a-8c43-5d5451e338e7","system_id":"levelo_inurba_marseille","lat":43.231995,"lon":5.355585,"is_reserved":false,"is_disabled":false,"rental_uris":{"android":"levelo://app?vid=6f820518-8b07-484a-8c43-5d5451e338e7","ios":"levelo://app?vid=6f820518-8b07-484a-8c43-5d5451e338e7"},"vehicle_type_id":"4","last_reported":1739743663,"current_range_meters":28000,"station_id":"ce4bhu92rcd13ifvqi70","pricing_plan_id":"cebpf4jnsgd1na2vs0mg"},{"bike_id":"e9df70a0-1b8c-4c51-a61c-68ff2e71de13","system_id":"levelo_inurba_marseille","lat":43.23068,"lon":5.35495,"is_reserved":false,"is_disabled":true,"rental_uris":{"android":"levelo://app?vid=e9df70a0-1b8c-4c51-a61c-68ff2e71de13","ios":"levelo://app?vid=e9df70a0-1b8c-4c51-a61c-68ff2e71de13"},"vehicle_type_id":"4","last_reported":1739743663,"current_range_meters":0,"station_id":"cpo3342slgdg3j2ifvpg","pricing_plan_id":"cebpf4jnsgd1na2vs0mg"},{"bike_id":"d8c989e8-8c9e-4e8a-92ee-32c9ebd5297b","system_id":"levelo_inurba_marseille","lat":43.28938,"lon":5.36638,"is_reserved":false,"is_disabled":false,"rental_uris":{"android":"levelo://app?vid=d8c989e8-8c9e-4e8a-92ee-32c9ebd5297b","ios":"levelo://app?vid=d8c989e8-8c9e-4e8a-92ee-32c9ebd5297b"},"vehicle_type_id":"4","last_reported":1739743663,"current_range_meters":33600,"station_id":"ce4bhap2rcd13ifvqek0","pricing_plan_id":"cebpf4jnsgd1na2vs0mg"},{"bike_id":"a3b76a23-e719-4cac-9132-63d31b15a8de","system_id":"levelo_inurba_marseille","lat":43.24166,"lon":5.36383,"is_reserved":false,"is_disabled":false,"rental_uris":{"android":"levelo://app?vid=a3b76a23-e719-4cac-9132-63d31b15a8de","ios":"levelo://app?vid=a3b76a23-e719-4cac-9132-63d31b15a8de"},"vehicle_type_id":"4","last_reported":1739743663,"current_range_meters":24000,"station_id":"cpo36qri1sfpv3e86is0","pricing_plan_id":"cebpf4jnsgd1na2vs0mg"},{"bike_id":"ec90772d-f71e-4fca-a945-9124afb4acb2","system_id":"levelo_inurba_marseille","lat":43.28353,"lon":5.38117,"is_reserved":false,"is_disabled":false,"rental_uris":{"android":"levelo://app?vid=ec90772d-f71e-4fca-a945-9124afb4acb2","ios":"levelo://app?vid=ec90772d-f71e-4fca-a945-9124afb4acb2"},"vehicle_type_id":"4","last_reported":1739743663,"current_range_meters":38800,"station_id":"ce4bh412rcd13ifvqdr0","pricing_plan_id":"cebpf4jnsgd1na2vs0mg"},{"bike_id":"fe0f12a8-8d62-4d79-b629-bda6901e6297","system_id":"levelo_inurba_marseille","lat":43.26915,"lon":5.40313,"is_reserved":false,"is_disabled":true,"rental_uris":{"android":"levelo://app?vid=fe0f12a8-8d62-4d79-b629-bda6901e6297","ios":"levelo://app?vid=fe0f12a8-8d62-4d79-b629-bda6901e6297"},"vehicle_type_id":"4","last_reported":1739743663,"current_range_meters":26000,"station_id":"","pricing_plan_id":"cebpf4jnsgd1na2vs0mg"},{"bike_id":"8e45c299-8b07-46a8-9f44-fc071ce5f65b","system_id":"levelo_inurba_marseille","lat":43.31888,"lon":5.40741,"is_reserved":false,"is_disabled":false,"rental_uris":{"android":"levelo://app?vid=8e45c299-8b07-46a8-9f44-fc071ce5f65b","ios":"levelo://app?vid=8e45c299-8b07-46a8-9f44-fc071ce5f65b"},"vehicle_type_id":"4","last_reported":1739743663,"current_range_meters":18000,"station_id":"ce4bhq12rcd13ifvqhig","pricing_plan_id":"cebpf4jnsgd1na2vs0mg"},{"bike_id":"69bce1c7-a56a-4d18-9a99-7b6ad5507c16","system_id":"levelo_inurba_marseille","lat":43.31148,"lon":5.38451,"is_reserved":false,"is_disabled":false,"rental_uris":{"android":"levelo://app?vid=69bce1c7-a56a-4d18-9a99-7b6ad5507c16","ios":"levelo://app?vid=69bce1c7-a56a-4d18-9a99-7b6ad5507c16"},"vehicle_type_id":"4","last_reported":1739743663,"current_range_meters":38800,"station_id":"","pricing_plan_id":"cebpf4jnsgd1na2vs0mg"},{"bike_id":"cfbe67cf-6420-4945-9471-2d464aa6fcd4","system_id":"levelo_inurba_marseille","lat":43.27822,"lon":5.39201,"is_reserved":false,"is_disabled":true,"rental_uris":{"android":"levelo://app?vid=cfbe67cf-6420-4945-9471-2d464aa6fcd4","ios":"levelo://app?vid=cfbe67cf-6420-4945-9471-2d464aa6fcd4"},"vehicle_type_id":"4","last_reported":1739743663,"current_range_meters":800,"station_id":"ce4bhjp2rcd13ifvqga0","pricing_plan_id":"cebpf4jnsgd1na2vs0mg"},{"bike_id":"8d92cdb5-7bf0-441c-8025-8793edbaa7ed","system_id":"levelo_inurba_marseille","lat":43.24544,"lon":5.39536,"is_reserved":false,"is_disabled":false,"rental_uris":{"android":"levelo://app?vid=8d92cdb5-7bf0-441c-8025-8793edbaa7ed","ios":"levelo://app?vid=8d92cdb5-7bf0-441c-8025-8793edbaa7ed"},"vehicle_type_id":"4","last_reported":1739743663,"current_range_meters":38800,"station_id":"ce4bhlp2rcd13ifvqgjg","pricing_plan_id":"cebpf4jnsgd1na2vs0mg"},{"bike_id":"82f93201-9ddb-4e09-abcb-9f6f41679371","system_id":"levelo_inurba_marseille","lat":43.24171,"lon":5.36392,"is_reserved":false,"is_disabled":false,"rental_uris":{"android":"levelo://app?vid=82f93201-9ddb-4e09-abcb-9f6f41679371","ios":"levelo://app?vid=82f93201-9ddb-4e09-abcb-9f6f41679371"},"vehicle_type_id":"4","last_reported":1739743663,"current_range_meters":8000,"station_id":"cpo36qri1sfpv3e86is0","pricing_plan_id":"cebpf4jnsgd1na2vs0mg"},{"bike_id":"2d1a0294-4315-4a6d-9042-006493c526cd","system_id":"levelo_inurba_marseille","lat":43.29245,"lon":5.40896,"is_reserved":false,"is_disabled":false,"rental_uris":{"android":"levelo://app?vid=2d1a0294-4315-4a6d-9042-006493c526cd","ios":"levelo://app?vid=2d1a0294-4315-4a6d-9042-006493c526cd"},"vehicle_type_id":"4","last_reported":1739743663,"current_range_meters":38800,"station_id":"ce4bh192rcd13ifvqdc0","pricing_plan_id":"cebpf4jnsgd1na2vs0mg"},{"bike_id":"6b40f519-e48b-4d14-aba4-b5e6dba55484","system_id":"levelo_inurba_marseille","lat":43.29087,"lon":5.38155,"is_reserved":false,"is_disabled":false,"rental_uris":{"android":"levelo://app?vid=6b40f519-e48b-4d14-aba4-b5e6dba55484","ios":"levelo://app?vid=6b40f519-e48b-4d14-aba4-b5e6dba55484"},"vehicle_type_id":"4","last_reported":1739743663,"current_range_meters":28000,"station_id":"ce4bh512rcd13ifvqe2g","pricing_plan_id":"cebpf4jnsgd1na2vs0mg"},{"bike_id":"0299e813-6577-4f6e-94f5-05649a7703f9","system_id":"levelo_inurba_marseille","lat":43.29204,"lon":5.39328,"is_reserved":false,"is_disabled":false,"rental_uris":{"android":"levelo://app?vid=0299e813-6577-4f6e-94f5-05649a7703f9","ios":"levelo://app?vid=0299e813-6577-4f6e-94f5-05649a7703f9"},"vehicle_type_id":"4","last_reported":1739743663,"current_range_meters":36400,"station_id":"ce4bh192rcd13ifvqdd0","pricing_plan_id":"cebpf4jnsgd1na2vs0mg"},{"bike_id":"bff665da-e307-4ce2-afb9-627beea482fd","system_id":"levelo_inurba_marseille","lat":43.29894,"lon":5.38134,"is_reserved":false,"is_disabled":false,"rental_uris":{"android":"levelo://app?vid=bff665da-e307-4ce2-afb9-627beea482fd","ios":"levelo://app?vid=bff665da-e307-4ce2-afb9-627beea482fd"},"vehicle_type_id":"4","last_reported":1739743663,"current_range_meters":38400,"station_id":"ce4bgj12rcd13ifvqbc0","pricing_plan_id":"cebpf4jnsgd1na2vs0mg"},{"bike_id":"389acdec-53c2-4283-a699-aebb69e5a2f5","system_id":"levelo_inurba_marseille","lat":43.2668,"lon":5.38274,"is_reserved":false,"is_disabled":false,"rental_uris":{"android":"levelo://app?vid=389acdec-53c2-4283-a699-aebb69e5a2f5","ios":"levelo://app?vid=389acdec-53c2-4283-a699-aebb69e5a2f5"},"vehicle_type_id":"4","last_reported":1739743663,"current_range_meters":38000,"station_id":"ce4bhg92rcd13ifvqf90","pricing_plan_id":"cebpf4jnsgd1na2vs0mg"},{"bike_id":"df6d8aa0-2733-42df-862b-3044c73a51b9","system_id":"levelo_inurba_marseille","lat":43.28446,"lon":5.39184,"is_reserved":false,"is_disabled":false,"rental_uris":{"android":"levelo://app?vid=df6d8aa0-2733-42df-862b-3044c73a51b9","ios":"levelo://app?vid=df6d8aa0-2733-42df-862b-3044c73a51b9"},"vehicle_type_id":"4","last_reported":1739743663,"current_range_meters":37600,"station_id":"ce4bhoh2rcd13ifvqh5g","pricing_plan_id":"cebpf4jnsgd1na2vs0mg"},{"bike_id":"955e431e-805a-4f6d-b28a-9e11a8712b33","system_id":"levelo_inurba_marseille","lat":43.28557,"lon":5.39491,"is_reserved":false,"is_disabled":false,"rental_uris":{"android":"levelo://app?vid=955e431e-805a-4f6d-b28a-9e11a8712b33","ios":"levelo://app?vid=955e431e-805a-4f6d-b28a-9e11a8712b33"},"vehicle_type_id":"4","last_reported":1739743663,"current_range_meters":23200,"station_id":"ce4bh292rcd13ifvqdg0","pricing_plan_id":"cebpf4jnsgd1na2vs0mg"},{"bike_id":"b68f690d-d7fb-4496-83be-f7f7476c9224","system_id":"levelo_inurba_marseille","lat":43.28558,"lon":5.39498,"is_reserved":false,"is_disabled":false,"rental_uris":{"android":"levelo://app?vid=b68f690d-d7fb-4496-83be-f7f7476c9224","ios":"levelo://app?vid=b68f690d-d7fb-4496-83be-f7f7476c9224"},"vehicle_type_id":"4","last_reported":1739743663,"current_range_meters":17600,"station_id":"ce4bh292rcd13ifvqdg0","pricing_plan_id":"cebpf4jnsgd1na2vs0mg"},{"bike_id":"e1a5cb66-14da-4089-92ba-f63f8936bd3b","system_id":"levelo_inurba_marseille","lat":43.3032,"lon":5.40439,"is_reserved":false,"is_disabled":false,"rental_uris":{"android":"levelo://app?vid=e1a5cb66-14da-4089-92ba-f63f8936bd3b","ios":"levelo://app?vid=e1a5cb66-14da-4089-92ba-f63f8936bd3b"},"vehicle_type_id":"4","last_reported":1739743663,"current_range_meters":32800,"station_id":"ce4bh012rcd13ifvqd10","pricing_plan_id":"cebpf4jnsgd1na2vs0mg"},{"bike_id":"aff9d26b-c8fe-40e4-8312-60b304ee7f8b","system_id":"levelo_inurba_marseille","lat":43.28938,"lon":5.39627,"is_reserved":false,"is_disabled":false,"rental_uris":{"android":"levelo://app?vid=aff9d26b-c8fe-40e4-8312-60b304ee7f8b","ios":"levelo://app?vid=aff9d26b-c8fe-40e4-8312-60b304ee7f8b"},"vehicle_type_id":"4","last_reported":1739743663,"current_range_meters":38800,"station_id":"ce4bh3h2rcd13ifvqdn0","pricing_plan_id":"cebpf4jnsgd1na2vs0mg"},{"bike_id":"8a223214-ff9b-43b3-bb0e-4df4dc8a29a8","system_id":"levelo_inurba_marseille","lat":43.30187,"lon":5.36608,"is_reserved":false,"is_disabled":false,"rental_uris":{"android":"levelo://app?vid=8a223214-ff9b-43b3-bb0e-4df4dc8a29a8","ios":"levelo://app?vid=8a223214-ff9b-43b3-bb0e-4df4dc8a29a8"},"vehicle_type_id":"4","last_reported":1739743663,"current_range_meters":38000,"station_id":"ce4bgrh2rcd13ifvqc8g","pricing_plan_id":"cebpf4jnsgd1na2vs0mg"},{"bike_id":"da8f52c7-71b4-4511-8701-42c9a2f47ad3","system_id":"levelo_inurba_marseille","lat":43.28614,"lon":5.3511,"is_reserved":false,"is_disabled":false,"rental_uris":{"android":"levelo://app?vid=da8f52c7-71b4-4511-8701-42c9a2f47ad3","ios":"levelo://app?vid=da8f52c7-71b4-4511-8701-42c9a2f47ad3"},"vehicle_type_id":"4","last_reported":1739743663,"current_range_meters":38800,"station_id":"ce4bhch2rcd13ifvqeug","pricing_plan_id":"cebpf4jnsgd1na2vs0mg"},{"bike_id":"66c2d9f4-633b-4a20-973c-7bd23021bb96","system_id":"levelo_inurba_marseille","lat":43.27567,"lon":5.38406,"is_reserved":false,"is_disabled":false,"rental_uris":{"android":"levelo://app?vid=66c2d9f4-633b-4a20-973c-7bd23021bb96","ios":"levelo://app?vid=66c2d9f4-633b-4a20-973c-7bd23021bb96"},"vehicle_type_id":"4","last_reported":1739743663,"current_range_meters":37600,"station_id":"ce4bhh92rcd13ifvqfi0","pricing_plan_id":"cebpf4jnsgd1na2vs0mg"},{"bike_id":"d511c3fa-d5f4-4a0f-91ee-268d02b5310f","system_id":"levelo_inurba_marseille","lat":43.28617,"lon":5.35103,"is_reserved":false,"is_disabled":true,"rental_uris":{"android":"levelo://app?vid=d511c3fa-d5f4-4a0f-91ee-268d02b5310f","ios":"levelo://app?vid=d511c3fa-d5f4-4a0f-91ee-268d02b5310f"},"vehicle_type_id":"4","last_reported":1739743663,"current_range_meters":14400,"station_id":"ce4bhch2rcd13ifvqeug","pricing_plan_id":"cebpf4jnsgd1na2vs0mg"},{"bike_id":"1688ff34-1aa5-4509-9163-944a0042ff0b","system_id":"levelo_inurba_marseille","lat":43.29207,"lon":5.39356,"is_reserved":false,"is_disabled":false,"rental_uris":{"android":"levelo://app?vid=1688ff34-1aa5-4509-9163-944a0042ff0b","ios":"levelo://app?vid=1688ff34-1aa5-4509-9163-944a0042ff0b"},"vehicle_type_id":"4","last_reported":1739743663,"current_range_meters":35600,"station_id":"","pricing_plan_id":"cebpf4jnsgd1na2vs0mg"},{"bike_id":"c18c0a61-bb87-4c75-8969-babbf5d9648a","system_id":"levelo_inurba_marseille","lat":43.29015,"lon":5.37574,"is_reserved":false,"is_disabled":false,"rental_uris":{"android":"levelo://app?vid=c18c0a61-bb87-4c75-8969-babbf5d9648a","ios":"levelo://app?vid=c18c0a61-bb87-4c75-8969-babbf5d9648a"},"vehicle_type_id":"4","last_reported":1739743663,"current_range_meters":38800,"station_id":"ce4bh692rcd13ifvqe90","pricing_plan_id":"cebpf4jnsgd1na2vs0mg"},{"bike_id":"683eff80-7d17-4798-a7d1-78bf09ddf923","system_id":"levelo_inurba_marseille","lat":43.28487,"lon":5.37604,"is_reserved":false,"is_disabled":false,"rental_uris":{"android":"levelo://app?vid=683eff80-7d17-4798-a7d1-78bf09ddf923","ios":"levelo://app?vid=683eff80-7d17-4798-a7d1-78bf09ddf923"},"vehicle_type_id":"4","last_reported":1739743663,"current_range_meters":36400,"station_id":"","pricing_plan_id":"cebpf4jnsgd1na2vs0mg"},{"bike_id":"f00620ae-2110-4dbd-a2e7-cd7bf13fe429","system_id":"levelo_inurba_marseille","lat":43.23189,"lon":5.39997,"is_reserved":false,"is_disabled":true,"rental_uris":{"android":"levelo://app?vid=f00620ae-2110-4dbd-a2e7-cd7bf13fe429","ios":"levelo://app?vid=f00620ae-2110-4dbd-a2e7-cd7bf13fe429"},"vehicle_type_id":"4","last_reported":1739743663,"current_range_meters":36000,"station_id":"ce4bhn12rcd13ifvqgqg","pricing_plan_id":"cebpf4jnsgd1na2vs0mg"},{"bike_id":"05df7975-71a5-4cd7-9732-f6e0ff429d46","system_id":"levelo_inurba_marseille","lat":43.29574,"lon":5.42278,"is_reserved":false,"is_disabled":false,"rental_uris":{"android":"levelo://app?vid=05df7975-71a5-4cd7-9732-f6e0ff429d46","ios":"levelo://app?vid=05df7975-71a5-4cd7-9732-f6e0ff429d46"},"vehicle_type_id":"4","last_reported":1739743663,"current_range_meters":25600,"station_id":"ce4bhph2rcd13ifvqhdg","pricing_plan_id":"cebpf4jnsgd1na2vs0mg"},{"bike_id":"f60b4d33-99e9-409b-a615-d7d2f5b7eea4","system_id":"levelo_inurba_marseille","lat":43.2908,"lon":5.37965,"is_reserved":false,"is_disabled":false,"rental_uris":{"android":"levelo://app?vid=f60b4d33-99e9-409b-a615-d7d2f5b7eea4","ios":"levelo://app?vid=f60b4d33-99e9-409b-a615-d7d2f5b7eea4"},"vehicle_type_id":"4","last_reported":1739743663,"current_range_meters":38000,"station_id":"ce4bh9p2rcd13ifvqed0","pricing_plan_id":"cebpf4jnsgd1na2vs0mg"},{"bike_id":"1bc314c5-16c9-4060-922a-b70a4619cf6b","system_id":"levelo_inurba_marseille","lat":43.27068,"lon":5.42297,"is_reserved":false,"is_disabled":false,"rental_uris":{"android":"levelo://app?vid=1bc314c5-16c9-4060-922a-b70a4619cf6b","ios":"levelo://app?vid=1bc314c5-16c9-4060-922a-b70a4619cf6b"},"vehicle_type_id":"4","last_reported":1739743663,"current_range_meters":38800,"station_id":"ce4bhk92rcd13ifvqgb0","pricing_plan_id":"cebpf4jnsgd1na2vs0mg"},{"bike_id":"ddf1d674-41d6-443f-b0f1-1da7df267862","system_id":"levelo_inurba_marseille","lat":43.23054,"lon":5.35511,"is_reserved":false,"is_disabled":false,"rental_uris":{"android":"levelo://app?vid=ddf1d674-41d6-443f-b0f1-1da7df267862","ios":"levelo://app?vid=ddf1d674-41d6-443f-b0f1-1da7df267862"},"vehicle_type_id":"4","last_reported":1739743663,"current_range_meters":13600,"station_id":"cpo3342slgdg3j2ifvpg","pricing_plan_id":"cebpf4jnsgd1na2vs0mg"},{"bike_id":"94729826-cfa5-4ed9-8abd-5e8e49cce84e","system_id":"levelo_inurba_marseille","lat":43.29077,"lon":5.43255,"is_reserved":false,"is_disabled":true,"rental_uris":{"android":"levelo://app?vid=94729826-cfa5-4ed9-8abd-5e8e49cce84e","ios":"levelo://app?vid=94729826-cfa5-4ed9-8abd-5e8e49cce84e"},"vehicle_type_id":"4","last_reported":1739743663,"current_range_meters":0,"station_id":"","pricing_plan_id":"cebpf4jnsgd1na2vs0mg"},{"bike_id":"59897d86-c0b3-4acb-bf89-133a9364e1f4","system_id":"levelo_inurba_marseille","lat":43.23052,"lon":5.35494,"is_reserved":false,"is_disabled":true,"rental_uris":{"android":"levelo://app?vid=59897d86-c0b3-4acb-bf89-133a9364e1f4","ios":"levelo://app?vid=59897d86-c0b3-4acb-bf89-133a9364e1f4"},"vehicle_type_id":"4","last_reported":1739743663,"current_range_meters":36400,"station_id":"cpo3342slgdg3j2ifvpg","pricing_plan_id":"cebpf4jnsgd1na2vs0mg"},{"bike_id":"158e0538-3174-458c-9aa6-ab3c59bb1737","system_id":"levelo_inurba_marseille","lat":43.30095,"lon":5.39072,"is_reserved":false,"is_disabled":false,"rental_uris":{"android":"levelo://app?vid=158e0538-3174-458c-9aa6-ab3c59bb1737","ios":"levelo://app?vid=158e0538-3174-458c-9aa6-ab3c59bb1737"},"vehicle_type_id":"4","last_reported":1739743663,"current_range_meters":14400,"station_id":"ce4bh192rcd13ifvqdb0","pricing_plan_id":"cebpf4jnsgd1na2vs0mg"},{"bike_id":"7b1749c5-20c6-4659-a8a9-418459d28ba6","system_id":"levelo_inurba_marseille","lat":43.26679,"lon":5.38269,"is_reserved":false,"is_disabled":false,"rental_uris":{"android":"levelo://app?vid=7b1749c5-20c6-4659-a8a9-418459d28ba6","ios":"levelo://app?vid=7b1749c5-20c6-4659-a8a9-418459d28ba6"},"vehicle_type_id":"4","last_reported":1739743663,"current_range_meters":33200,"station_id":"ce4bhg92rcd13ifvqf90","pricing_plan_id":"cebpf4jnsgd1na2vs0mg"},{"bike_id":"24512566-f39f-495a-8810-7dee6d7b0e30","system_id":"levelo_inurba_marseille","lat":43.28704,"lon":5.37413,"is_reserved":false,"is_disabled":false,"rental_uris":{"android":"levelo://app?vid=24512566-f39f-495a-8810-7dee6d7b0e30","ios":"levelo://app?vid=24512566-f39f-495a-8810-7dee6d7b0e30"},"vehicle_type_id":"4","last_reported":1739743663,"current_range_meters":38800,"station_id":"ce4bh3p2rcd13ifvqdq0","pricing_plan_id":"cebpf4jnsgd1na2vs0mg"},{"bike_id":"33796e03-228a-4812-8d97-3974ba39d9c4","system_id":"levelo_inurba_marseille","lat":43.30256,"lon":5.36841,"is_reserved":false,"is_disabled":false,"rental_uris":{"android":"levelo://app?vid=33796e03-228a-4812-8d97-3974ba39d9c4","ios":"levelo://app?vid=33796e03-228a-4812-8d97-3974ba39d9c4"},"vehicle_type_id":"4","last_reported":1739743663,"current_range_meters":38000,"station_id":"","pricing_plan_id":"cebpf4jnsgd1na2vs0mg"},{"bike_id":"65f5a522-7bea-46ad-9911-19f641546dec","system_id":"levelo_inurba_marseille","lat":43.2982,"lon":5.40398,"is_reserved":false,"is_disabled":false,"rental_uris":{"android":"levelo://app?vid=65f5a522-7bea-46ad-9911-19f641546dec","ios":"levelo://app?vid=65f5a522-7bea-46ad-9911-19f641546dec"},"vehicle_type_id":"4","last_reported":1739743663,"current_range_meters":38800,"station_id":"ce4bh112rcd13ifvqd90","pricing_plan_id":"cebpf4jnsgd1na2vs0mg"},{"bike_id":"fddf9633-377f-489e-9c7d-38f1665ca695","system_id":"levelo_inurba_marseille","lat":43.295938,"lon":5.381043,"is_reserved":false,"is_disabled":true,"rental_uris":{"android":"levelo://app?vid=fddf9633-377f-489e-9c7d-38f1665ca695","ios":"levelo://app?vid=fddf9633-377f-489e-9c7d-38f1665ca695"},"vehicle_type_id":"4","last_reported":1739743663,"current_range_meters":18000,"station_id":"ce4bgl12rcd13ifvqbo0","pricing_plan_id":"cebpf4jnsgd1na2vs0mg"},{"bike_id":"40c4421e-be80-49b9-9035-ec8bd05923a2","system_id":"levelo_inurba_marseille","lat":43.28857,"lon":5.39359,"is_reserved":false,"is_disabled":true,"rental_uris":{"android":"levelo://app?vid=40c4421e-be80-49b9-9035-ec8bd05923a2","ios":"levelo://app?vid=40c4421e-be80-49b9-9035-ec8bd05923a2"},"vehicle_type_id":"4","last_reported":1739743663,"current_range_meters":16800,"station_id":"ce4bh2p2rcd13ifvqdi0","pricing_plan_id":"cebpf4jnsgd1na2vs0mg"},{"bike_id":"4bc50c17-9aeb-4487-a054-afb81c6c63dc","system_id":"levelo_inurba_marseille","lat":43.27615,"lon":5.36121,"is_reserved":false,"is_disabled":true,"rental_uris":{"android":"levelo://app?vid=4bc50c17-9aeb-4487-a054-afb81c6c63dc","ios":"levelo://app?vid=4bc50c17-9aeb-4487-a054-afb81c6c63dc"},"vehicle_type_id":"4","last_reported":1739743663,"current_range_meters":27200,"station_id":"ce4bgj92rcd13ifvqbe0","pricing_plan_id":"cebpf4jnsgd1na2vs0mg"},{"bike_id":"3a2f39c9-5a0c-4086-9dac-fb0fbdacaf23","system_id":"levelo_inurba_marseille","lat":43.28669,"lon":5.38664,"is_reserved":false,"is_disabled":false,"rental_uris":{"android":"levelo://app?vid=3a2f39c9-5a0c-4086-9dac-fb0fbdacaf23","ios":"levelo://app?vid=3a2f39c9-5a0c-4086-9dac-fb0fbdacaf23"},"vehicle_type_id":"4","last_reported":1739743663,"current_range_meters":26800,"station_id":"ce4bh492rcd13ifvqdug","pricing_plan_id":"cebpf4jnsgd1na2vs0mg"},{"bike_id":"2c8b8a41-5401-4b3a-be72-574e3bbf0407","system_id":"levelo_inurba_marseille","lat":43.30615,"lon":5.36572,"is_reserved":false,"is_disabled":false,"rental_uris":{"android":"levelo://app?vid=2c8b8a41-5401-4b3a-be72-574e3bbf0407","ios":"levelo://app?vid=2c8b8a41-5401-4b3a-be72-574e3bbf0407"},"vehicle_type_id":"4","last_reported":1739743663,"current_range_meters":38800,"station_id":"","pricing_plan_id":"cebpf4jnsgd1na2vs0mg"},{"bike_id":"77c76649-734d-4788-adcd-46e8d3b4af7c","system_id":"levelo_inurba_marseille","lat":43.29563,"lon":5.39975,"is_reserved":false,"is_disabled":false,"rental_uris":{"android":"levelo://app?vid=77c76649-734d-4788-adcd-46e8d3b4af7c","ios":"levelo://app?vid=77c76649-734d-4788-adcd-46e8d3b4af7c"},"vehicle_type_id":"4","last_reported":1739743663,"current_range_meters":38000,"station_id":"ce4bh312rcd13ifvqdj0","pricing_plan_id":"cebpf4jnsgd1na2vs0mg"},{"bike_id":"6724e70a-a600-4154-a228-f2c755dbbc45","system_id":"levelo_inurba_marseille","lat":43.28657,"lon":5.3635,"is_reserved":false,"is_disabled":false,"rental_uris":{"android":"levelo://app?vid=6724e70a-a600-4154-a228-f2c755dbbc45","ios":"levelo://app?vid=6724e70a-a600-4154-a228-f2c755dbbc45"},"vehicle_type_id":"4","last_reported":1739743663,"current_range_meters":38800,"station_id":"ce4bhah2rcd13ifvqej0","pricing_plan_id":"cebpf4jnsgd1na2vs0mg"},{"bike_id":"5e1db2e9-1fb7-4bc1-82ce-b23a1711971b","system_id":"levelo_inurba_marseille","lat":43.25578,"lon":5.38242,"is_reserved":false,"is_disabled":false,"rental_uris":{"android":"levelo://app?vid=5e1db2e9-1fb7-4bc1-82ce-b23a1711971b","ios":"levelo://app?vid=5e1db2e9-1fb7-4bc1-82ce-b23a1711971b"},"vehicle_type_id":"4","last_reported":1739743663,"current_range_meters":38800,"station_id":"ce4bhih2rcd13ifvqfs0","pricing_plan_id":"cebpf4jnsgd1na2vs0mg"},{"bike_id":"3625836a-8a03-4572-80d5-fadff11603e7","system_id":"levelo_inurba_marseille","lat":43.28024,"lon":5.36942,"is_reserved":false,"is_disabled":false,"rental_uris":{"android":"levelo://app?vid=3625836a-8a03-4572-80d5-fadff11603e7","ios":"levelo://app?vid=3625836a-8a03-4572-80d5-fadff11603e7"},"vehicle_type_id":"4","last_reported":1739743663,"current_range_meters":38800,"station_id":"ce4bha12rcd13ifvqef0","pricing_plan_id":"cebpf4jnsgd1na2vs0mg"},{"bike_id":"57a7a9be-ec54-4bec-ac06-c66705e48a1f","system_id":"levelo_inurba_marseille","lat":43.29637,"lon":5.40608,"is_reserved":false,"is_disabled":false,"rental_uris":{"android":"levelo://app?vid=57a7a9be-ec54-4bec-ac06-c66705e48a1f","ios":"levelo://app?vid=57a7a9be-ec54-4bec-ac06-c66705e48a1f"},"vehicle_type_id":"4","last_reported":1739743663,"current_range_meters":26800,"station_id":"ce4bh0h2rcd13ifvqd60","pricing_plan_id":"cebpf4jnsgd1na2vs0mg"},{"bike_id":"b7675672-ea91-4212-a3c2-1e75ea117425","system_id":"levelo_inurba_marseille","lat":43.28169,"lon":5.42646,"is_reserved":false,"is_disabled":true,"rental_uris":{"android":"levelo://app?vid=b7675672-ea91-4212-a3c2-1e75ea117425","ios":"levelo://app?vid=b7675672-ea91-4212-a3c2-1e75ea117425"},"vehicle_type_id":"4","last_reported":1739743663,"current_range_meters":0,"station_id":"ce4bhnh2rcd13ifvqgug","pricing_plan_id":"cebpf4jnsgd1na2vs0mg"},{"bike_id":"5a1e2f06-46a7-46c8-9816-066a2823428c","system_id":"levelo_inurba_marseille","lat":43.28952,"lon":5.38392,"is_reserved":false,"is_disabled":false,"rental_uris":{"android":"levelo://app?vid=5a1e2f06-46a7-46c8-9816-066a2823428c","ios":"levelo://app?vid=5a1e2f06-46a7-46c8-9816-066a2823428c"},"vehicle_type_id":"4","last_reported":1739743663,"current_range_meters":38800,"station_id":"ce4bh612rcd13ifvqe6g","pricing_plan_id":"cebpf4jnsgd1na2vs0mg"},{"bike_id":"91e27922-e676-45ea-94da-baf83d9c520d","system_id":"levelo_inurba_marseille","lat":43.28032,"lon":5.3694,"is_reserved":false,"is_disabled":true,"rental_uris":{"android":"levelo://app?vid=91e27922-e676-45ea-94da-baf83d9c520d","ios":"levelo://app?vid=91e27922-e676-45ea-94da-baf83d9c520d"},"vehicle_type_id":"4","last_reported":1739743663,"current_range_meters":32400,"station_id":"ce4bha12rcd13ifvqef0","pricing_plan_id":"cebpf4jnsgd1na2vs0mg"},{"bike_id":"ebc1452e-2fce-4549-a88a-cc8ddc6bf08b","system_id":"levelo_inurba_marseille","lat":43.30104,"lon":5.3907,"is_reserved":false,"is_disabled":false,"rental_uris":{"android":"levelo://app?vid=ebc1452e-2fce-4549-a88a-cc8ddc6bf08b","ios":"levelo://app?vid=ebc1452e-2fce-4549-a88a-cc8ddc6bf08b"},"vehicle_type_id":"4","last_reported":1739743663,"current_range_meters":29600,"station_id":"ce4bh192rcd13ifvqdb0","pricing_plan_id":"cebpf4jnsgd1na2vs0mg"},{"bike_id":"9445007f-6a91-4dd4-9435-04c9304ad8bf","system_id":"levelo_inurba_marseille","lat":43.29577,"lon":5.36746,"is_reserved":false,"is_disabled":false,"rental_uris":{"android":"levelo://app?vid=9445007f-6a91-4dd4-9435-04c9304ad8bf","ios":"levelo://app?vid=9445007f-6a91-4dd4-9435-04c9304ad8bf"},"vehicle_type_id":"4","last_reported":1739743663,"current_range_meters":34000,"station_id":"ce4bgph2rcd13ifvqc2g","pricing_plan_id":"cebpf4jnsgd1na2vs0mg"},{"bike_id":"e4f088f9-e3e8-4f82-824b-eaedfe8505d4","system_id":"levelo_inurba_marseille","lat":43.2689,"lon":5.40395,"is_reserved":false,"is_disabled":true,"rental_uris":{"android":"levelo://app?vid=e4f088f9-e3e8-4f82-824b-eaedfe8505d4","ios":"levelo://app?vid=e4f088f9-e3e8-4f82-824b-eaedfe8505d4"},"vehicle_type_id":"4","last_reported":1739743663,"current_range_meters":28400,"station_id":"","pricing_plan_id":"cebpf4jnsgd1na2vs0mg"},{"bike_id":"25c06d87-f05a-433f-ad42-460938cc694b","system_id":"levelo_inurba_marseille","lat":43.28347,"lon":5.38107,"is_reserved":false,"is_disabled":false,"rental_uris":{"android":"levelo://app?vid=25c06d87-f05a-433f-ad42-460938cc694b","ios":"levelo://app?vid=25c06d87-f05a-433f-ad42-460938cc694b"},"vehicle_type_id":"4","last_reported":1739743663,"current_range_meters":38000,"station_id":"ce4bh412rcd13ifvqdr0","pricing_plan_id":"cebpf4jnsgd1na2vs0mg"},{"bike_id":"9bcc3779-160f-4f11-a908-15bc41b1ac43","system_id":"levelo_inurba_marseille","lat":43.27975,"lon":5.40017,"is_reserved":false,"is_disabled":true,"rental_uris":{"android":"levelo://app?vid=9bcc3779-160f-4f11-a908-15bc41b1ac43","ios":"levelo://app?vid=9bcc3779-160f-4f11-a908-15bc41b1ac43"},"vehicle_type_id":"4","last_reported":1739743663,"current_range_meters":1200,"station_id":"ce4bho92rcd13ifvqh4g","pricing_plan_id":"cebpf4jnsgd1na2vs0mg"},{"bike_id":"3c64c24f-16f7-46ec-b068-15fe4ebda356","system_id":"levelo_inurba_marseille","lat":43.29493,"lon":5.36395,"is_reserved":false,"is_disabled":true,"rental_uris":{"android":"levelo://app?vid=3c64c24f-16f7-46ec-b068-15fe4ebda356","ios":"levelo://app?vid=3c64c24f-16f7-46ec-b068-15fe4ebda356"},"vehicle_type_id":"4","last_reported":1739743663,"current_range_meters":16000,"station_id":"","pricing_plan_id":"cebpf4jnsgd1na2vs0mg"},{"bike_id":"d5fb239f-f346-4cba-936a-cdcac2986de4","system_id":"levelo_inurba_marseille","lat":43.283553,"lon":5.38632,"is_reserved":false,"is_disabled":false,"rental_uris":{"android":"levelo://app?vid=d5fb239f-f346-4cba-936a-cdcac2986de4","ios":"levelo://app?vid=d5fb239f-f346-4cba-936a-cdcac2986de4"},"vehicle_type_id":"4","last_reported":1739743663,"current_range_meters":37600,"station_id":"ce4bh492rcd13ifvqdvg","pricing_plan_id":"cebpf4jnsgd1na2vs0mg"},{"bike_id":"83300e7d-4e58-476a-a4a7-7c7c0cd11b83","system_id":"levelo_inurba_marseille","lat":43.26196,"lon":5.37927,"is_reserved":false,"is_disabled":false,"rental_uris":{"android":"levelo://app?vid=83300e7d-4e58-476a-a4a7-7c7c0cd11b83","ios":"levelo://app?vid=83300e7d-4e58-476a-a4a7-7c7c0cd11b83"},"vehicle_type_id":"4","last_reported":1739743663,"current_range_meters":38000,"station_id":"ce4bhjp2rcd13ifvqg90","pricing_plan_id":"cebpf4jnsgd1na2vs0mg"},{"bike_id":"32c16816-bf22-45bf-bae6-15a3b36aa2ac","system_id":"levelo_inurba_marseille","lat":43.25761,"lon":5.41135,"is_reserved":false,"is_disabled":false,"rental_uris":{"android":"levelo://app?vid=32c16816-bf22-45bf-bae6-15a3b36aa2ac","ios":"levelo://app?vid=32c16816-bf22-45bf-bae6-15a3b36aa2ac"},"vehicle_type_id":"4","last_reported":1739743663,"current_range_meters":38800,"station_id":"","pricing_plan_id":"cebpf4jnsgd1na2vs0mg"},{"bike_id":"0a8131f0-8aa1-442f-a102-dd6461b5c6ed","system_id":"levelo_inurba_marseille","lat":43.24188,"lon":5.39715,"is_reserved":false,"is_disabled":false,"rental_uris":{"android":"levelo://app?vid=0a8131f0-8aa1-442f-a102-dd6461b5c6ed","ios":"levelo://app?vid=0a8131f0-8aa1-442f-a102-dd6461b5c6ed"},"vehicle_type_id":"4","last_reported":1739743663,"current_range_meters":38800,"station_id":"ce4bhn12rcd13ifvqgpg","pricing_plan_id":"cebpf4jnsgd1na2vs0mg"},{"bike_id":"9dce9a6e-fd02-4876-961f-4b62fe3499ef","system_id":"levelo_inurba_marseille","lat":43.30136,"lon":5.39883,"is_reserved":false,"is_disabled":false,"rental_uris":{"android":"levelo://app?vid=9dce9a6e-fd02-4876-961f-4b62fe3499ef","ios":"levelo://app?vid=9dce9a6e-fd02-4876-961f-4b62fe3499ef"},"vehicle_type_id":"4","last_reported":1739743663,"current_range_meters":38800,"station_id":"ce4bh0h2rcd13ifvqd40","pricing_plan_id":"cebpf4jnsgd1na2vs0mg"},{"bike_id":"73bce4e6-9a0e-44ff-baeb-9bf51c390137","system_id":"levelo_inurba_marseille","lat":43.2732,"lon":5.39118,"is_reserved":false,"is_disabled":true,"rental_uris":{"android":"levelo://app?vid=73bce4e6-9a0e-44ff-baeb-9bf51c390137","ios":"levelo://app?vid=73bce4e6-9a0e-44ff-baeb-9bf51c390137"},"vehicle_type_id":"4","last_reported":1739743663,"current_range_meters":7200,"station_id":"ce4bhgp2rcd13ifvqfe0","pricing_plan_id":"cebpf4jnsgd1na2vs0mg"},{"bike_id":"453b5d03-74b1-4b80-b3f1-f8af80ba4690","system_id":"levelo_inurba_marseille","lat":43.24162,"lon":5.36406,"is_reserved":false,"is_disabled":false,"rental_uris":{"android":"levelo://app?vid=453b5d03-74b1-4b80-b3f1-f8af80ba4690","ios":"levelo://app?vid=453b5d03-74b1-4b80-b3f1-f8af80ba4690"},"vehicle_type_id":"4","last_reported":1739743663,"current_range_meters":11200,"station_id":"cpo36qri1sfpv3e86is0","pricing_plan_id":"cebpf4jnsgd1na2vs0mg"},{"bike_id":"a05779ff-184a-482c-bc5f-c499d4def9da","system_id":"levelo_inurba_marseille","lat":43.29532,"lon":5.38538,"is_reserved":false,"is_disabled":false,"rental_uris":{"android":"levelo://app?vid=a05779ff-184a-482c-bc5f-c499d4def9da","ios":"levelo://app?vid=a05779ff-184a-482c-bc5f-c499d4def9da"},"vehicle_type_id":"4","last_reported":1739743663,"current_range_meters":28800,"station_id":"ce4bgih2rcd13ifvqba0","pricing_plan_id":"cebpf4jnsgd1na2vs0mg"},{"bike_id":"f80af945-f189-49bc-88bc-584597578e22","system_id":"levelo_inurba_marseille","lat":43.31061,"lon":5.38353,"is_reserved":false,"is_disabled":false,"rental_uris":{"android":"levelo://app?vid=f80af945-f189-49bc-88bc-584597578e22","ios":"levelo://app?vid=f80af945-f189-49bc-88bc-584597578e22"},"vehicle_type_id":"4","last_reported":1739743663,"current_range_meters":38800,"station_id":"ce4bgv92rcd13ifvqcr0","pricing_plan_id":"cebpf4jnsgd1na2vs0mg"},{"bike_id":"2dea0667-1db6-4775-857f-894e60e0a4c7","system_id":"levelo_inurba_marseille","lat":43.30412,"lon":5.39749,"is_reserved":false,"is_disabled":true,"rental_uris":{"android":"levelo://app?vid=2dea0667-1db6-4775-857f-894e60e0a4c7","ios":"levelo://app?vid=2dea0667-1db6-4775-857f-894e60e0a4c7"},"vehicle_type_id":"4","last_reported":1739743663,"current_range_meters":26800,"station_id":"ce4bh092rcd13ifvqd20","pricing_plan_id":"cebpf4jnsgd1na2vs0mg"},{"bike_id":"ff2cbd59-5738-4b72-a212-196bf1e91733","system_id":"levelo_inurba_marseille","lat":43.2804,"lon":5.44136,"is_reserved":false,"is_disabled":false,"rental_uris":{"android":"levelo://app?vid=ff2cbd59-5738-4b72-a212-196bf1e91733","ios":"levelo://app?vid=ff2cbd59-5738-4b72-a212-196bf1e91733"},"vehicle_type_id":"4","last_reported":1739743663,"current_range_meters":12800,"station_id":"","pricing_plan_id":"cebpf4jnsgd1na2vs0mg"},{"bike_id":"627b242b-00b9-4ed7-a312-c92da253f94b","system_id":"levelo_inurba_marseille","lat":43.28566,"lon":5.39493,"is_reserved":false,"is_disabled":false,"rental_uris":{"android":"levelo://app?vid=627b242b-00b9-4ed7-a312-c92da253f94b","ios":"levelo://app?vid=627b242b-00b9-4ed7-a312-c92da253f94b"},"vehicle_type_id":"4","last_reported":1739743663,"current_range_meters":36800,"station_id":"ce4bh292rcd13ifvqdg0","pricing_plan_id":"cebpf4jnsgd1na2vs0mg"},{"bike_id":"f0ca4bf2-562f-4cb6-94a4-de2a9ab7e128","system_id":"levelo_inurba_marseille","lat":43.28743,"lon":5.4003,"is_reserved":false,"is_disabled":false,"rental_uris":{"android":"levelo://app?vid=f0ca4bf2-562f-4cb6-94a4-de2a9ab7e128","ios":"levelo://app?vid=f0ca4bf2-562f-4cb6-94a4-de2a9ab7e128"},"vehicle_type_id":"4","last_reported":1739743663,"current_range_meters":38800,"station_id":"ce4bho92rcd13ifvqh3g","pricing_plan_id":"cebpf4jnsgd1na2vs0mg"},