{"last_updated":1736601166,"ttl":60,"version":"2.2","data":{"bikes":[{"bike_id":"8c0dc03a-0ada-45f2-b8d1-8403a2d5c1d4","system_id":"levelo_inurba_marseille","lat":43.28078,"lon":5.39661,"is_reserved":false,"is_disabled":false,"rental_uris":{"android":"levelo://app?vid=8c0dc03a-0ada-45f2-b8d1-8403a2d5c1d4","ios":"levelo://app?vid=8c0dc03a-0ada-45f2-b8d1-8403a2d5c1d4"},"vehicle_type_id":"4","last_reported":1736601166,"current_range_meters":20000,"station_id":"ce4bho12rcd13ifvqh2g","pricing_plan_id":"cebpf4jnsgd1na2vs0mg"},{"bike_id":"e8808539-df5c-4e9e-878f-7bb7a23037ac","system_id":"levelo_inurba_marseille","lat":43.27987,"lon":5.41667,"is_reserved":false,"is_disabled":false,"rental_uris":{"android":"levelo://app?vid=e8808539-df5c-4e9e-878f-7bb7a23037ac","ios":"levelo://app?vid=e8808539-df5c-4e9e-878f-7bb7a23037ac"},"vehicle_type_id":"4","last_reported":1736601166,"current_range_meters":28800,"station_id":"ce4bho12rcd13ifvqh1g","pricing_plan_id":"cebpf4jnsgd1na2vs0mg"},{"bike_id":"d3a27614-2c3c-4b2d-b3a7-f491b66a2a13","system_id":"levelo_inurba_marseille","lat":43.29072,"lon":5.37177,"is_reserved":false,"is_disabled":false,"rental_uris":{"android":"levelo://app?vid=d3a27614-2c3c-4b2d-b3a7-f491b66a2a13","ios":"levelo://app?vid=d3a27614-2c3c-4b2d-b3a7-f491b66a2a13"},"vehicle_type_id":"4","last_reported":1736601166,"current_range_meters":27200,"station_id":"ce4bh5p2rcd13ifvqe4g","pricing_plan_id":"cebpf4jnsgd1na2vs0mg"},{"bike_id":"c82771ca-fb00-42d6-96ec-3b3c8efdb4d4","system_id":"levelo_inurba_marseille","lat":43.30541,"lon":5.36714,"is_reserved":false,"is_disabled":false,"rental_uris":{"android":"levelo://app?vid=c82771ca-fb00-42d6-96ec-3b3c8efdb4d4","ios":"levelo://app?vid=c82771ca-fb00-42d6-96ec-3b3c8efdb4d4"},"vehicle_type_id":"4","last_reported":1736601166,"current_range_meters":10000,"station_id":"ce4bgrp2rcd13ifvqc9g","pricing_plan_id":"cebpf4jnsgd1na2vs0mg"},{"bike_id":"14f3feea-c78a-4059-b0b9-de31c40e61af","system_id":"levelo_inurba_marseille","lat":43.26035,"lon":5.37567,"is_reserved":false,"is_disabled":false,"rental_uris":{"android":"levelo://app?vid=14f3feea-c78a-4059-b0b9-de31c40e61af","ios":"levelo://app?vid=14f3feea-c78a-4059-b0b9-de31c40e61af"},"vehicle_type_id":"4","last_reported":1736601166,"current_range_meters":39200,"station_id":"ce4bhgh2rcd13ifvqfa0","pricing_plan_id":"cebpf4jnsgd1na2vs0mg"},{"bike_id":"02fa8d23-b641-466a-8661-f76f63fb8c6e","system_id":"levelo_inurba_marseille","lat":43.31552,"lon":5.38012,"is_reserved":false,"is_disabled":false,"rental_uris":{"android":"levelo://app?vid=02fa8d23-b641-466a-8661-f76f63fb8c6e","ios":"levelo://app?vid=02fa8d23-b641-466a-8661-f76f63fb8c6e"},"vehicle_type_id":"4","last_reported":1736601166,"current_range_meters":38800,"station_id":"ce4bhsp2rcd13ifvqi50","pricing_plan_id":"cebpf4jnsgd1na2vs0mg"},{"bike_id":"7030f993-a232-4023-81ed-24de2def1216","system_id":"levelo_inurba_marseille","lat":43.26764,"lon":5.39446,"is_reserved":false,"is_disabled":false,"rental_uris":{"android":"levelo://app?vid=7030f993-a232-4023-81ed-24de2def1216","ios":"levelo://app?vid=7030f993-a232-4023-81ed-24de2def1216"},"vehicle_type_id":"4","last_reported":1736601166,"current_range_meters":30000,"station_id":"ce4bhh12rcd13ifvqfg0","pricing_plan_id":"cebpf4jnsgd1na2vs0mg"},{"bike_id":"86fd816e-462e-4af7-802e-42d9ef60e928","system_id":"levelo_inurba_marseille","lat":43.29001,"lon":5.35613,"is_reserved":false,"is_disabled":false,"rental_uris":{"android":"levelo://app?vid=86fd816e-462e-4af7-802e-42d9ef60e928","ios":"levelo://app?vid=86fd816e-462e-4af7-802e-42d9ef60e928"},"vehicle_type_id":"4","last_reported":1736601166,"current_range_meters":30800,"station_id":"ce4bhb92rcd13ifvqen0","pricing_plan_id":"cebpf4jnsgd1na2vs0mg"},{"bike_id":"230b25ba-08ad-4536-893c-30ebe8d45916","system_id":"levelo_inurba_marseille","lat":43.29634,"lon":5.406,"is_reserved":false,"is_disabled":false,"rental_uris":{"android":"levelo://app?vid=230b25ba-08ad-4536-893c-30ebe8d45916","ios":"levelo://app?vid=230b25ba-08ad-4536-893c-30ebe8d45916"},"vehicle_type_id":"4","last_reported":1736601166,"current_range_meters":38800,"station_id":"ce4bh0h2rcd13ifvqd60","pricing_plan_id":"cebpf4jnsgd1na2vs0mg"},{"bike_id":"a444a04d-7a75-4bb0-b921-23a4f692b157","system_id":"levelo_inurba_marseille","lat":43.24644,"lon":5.38914,"is_reserved":false,"is_disabled":false,"rental_uris":{"android":"levelo://app?vid=a444a04d-7a75-4bb0-b921-23a4f692b157","ios":"levelo://app?vid=a444a04d-7a75-4bb0-b921-23a4f692b157"},"vehicle_type_id":"4","last_reported":1736601166,"current_range_meters":18800,"station_id":"ce4bhg12rcd13ifvqf60","pricing_plan_id":"cebpf4jnsgd1na2vs0mg"},{"bike_id":"23b995e3-70bb-4837-aafa-d164d2f448af","system_id":"levelo_inurba_marseille","lat":43.30555,"lon":5.36526,"is_reserved":false,"is_disabled":false,"rental_uris":{"android":"levelo://app?vid=23b995e3-70bb-4837-aafa-d164d2f448af","ios":"levelo://app?vid=23b995e3-70bb-4837-aafa-d164d2f448af"},"vehicle_type_id":"4","last_reported":1736601166,"current_range_meters":16800,"station_id":"ce4bgs12rcd13ifvqcag","pricing_plan_id":"cebpf4jnsgd1na2vs0mg"},{"bike_id":"9c3f6bb4-fd78-490a-8cd7-7d7694c0f9a0","system_id":"levelo_inurba_marseille","lat":43.290103,"lon":5.356105,"is_reserved":false,"is_disabled":false,"rental_uris":{"android":"levelo://app?vid=9c3f6bb4-fd78-490a-8cd7-7d7694c0f9a0","ios":"levelo://app?vid=9c3f6bb4-fd78-490a-8cd7-7d7694c0f9a0"},"vehicle_type_id":"4","last_reported":1736601166,"current_range_meters":28400,"station_id":"ce4bhb92rcd13ifvqen0","pricing_plan_id":"cebpf4jnsgd1na2vs0mg"},{"bike_id":"f2bf2537-2db1-417d-bf4a-16056c84dbab","system_id":"levelo_inurba_marseille","lat":43.30209,"lon":5.39463,"is_reserved":false,"is_disabled":true,"rental_uris":{"android":"levelo://app?vid=f2bf2537-2db1-417d-bf4a-16056c84dbab","ios":"levelo://app?vid=f2bf2537-2db1-417d-bf4a-16056c84dbab"},"vehicle_type_id":"4","last_reported":1736601166,"current_range_meters":800,"station_id":"ce4bh0p2rcd13ifvqd70","pricing_plan_id":"cebpf4jnsgd1na2vs0mg"},{"bike_id":"5dd5bc83-1496-494b-8455-d404abb4c5ae","system_id":"levelo_inurba_marseille","lat":43.26197,"lon":5.37933,"is_reserved":false,"is_disabled":false,"rental_uris":{"android":"levelo://app?vid=5dd5bc83-1496-494b-8455-d404abb4c5ae","ios":"levelo://app?vid=5dd5bc83-1496-494b-8455-d404abb4c5ae"},"vehicle_type_id":"4","last_reported":1736601166,"current_range_meters":26800,"station_id":"ce4bhjp2rcd13ifvqg90","pricing_plan_id":"cebpf4jnsgd1na2vs0mg"},{"bike_id":"f27315e5-5b6e-4c1c-bf3c-bb19556d13a1","system_id":"levelo_inurba_marseille","lat":43.33611,"lon":5.41026,"is_reserved":false,"is_disabled":false,"rental_uris":{"android":"levelo://app?vid=f27315e5-5b6e-4c1c-bf3c-bb19556d13a1","ios":"levelo://app?vid=f27315e5-5b6e-4c1c-bf3c-bb19556d13a1"},"vehicle_type_id":"4","last_reported":1736601166,"current_range_meters":38800,"station_id":"ce4bhqh2rcd13ifvqhmg","pricing_plan_id":"cebpf4jnsgd1na2vs0mg"},{"bike_id":"c4eee644-ddb0-4eee-b729-6091b1fb39e7","system_id":"levelo_inurba_marseille","lat":43.29025,"lon":5.38641,"is_reserved":false,"is_disabled":false,"rental_uris":{"android":"levelo://app?vid=c4eee644-ddb0-4eee-b729-6091b1fb39e7","ios":"levelo://app?vid=c4eee644-ddb0-4eee-b729-6091b1fb39e7"},"vehicle_type_id":"4","last_reported":1736601166,"current_range_meters":36000,"station_id":"ce4bh4p2rcd13ifvqe0g","pricing_plan_id":"cebpf4jnsgd1na2vs0mg"},{"bike_id":"853d56cd-3451-4764-beab-a40e85523b05","system_id":"levelo_inurba_marseille","lat":43.246474,"lon":5.389061,"is_reserved":false,"is_disabled":false,"rental_uris":{"android":"levelo://app?vid=853d56cd-3451-4764-beab-a40e85523b05","ios":"levelo://app?vid=853d56cd-3451-4764-beab-a40e85523b05"},"vehicle_type_id":"4","last_reported":1736601166,"current_range_meters":4400,"station_id":"ce4bhg12rcd13ifvqf60","pricing_plan_id":"cebpf4jnsgd1na2vs0mg"},{"bike_id":"c792ce5c-3a32-4e4c-87cf-15d2d5a7d3f1","system_id":"levelo_inurba_marseille","lat":43.25858,"lon":5.39906,"is_reserved":false,"is_disabled":false,"rental_uris":{"android":"levelo://app?vid=c792ce5c-3a32-4e4c-87cf-15d2d5a7d3f1","ios":"levelo://app?vid=c792ce5c-3a32-4e4c-87cf-15d2d5a7d3f1"},"vehicle_type_id":"4","last_reported":1736601166,"current_range_meters":10800,"station_id":"ce4bhl92rcd13ifvqghg","pricing_plan_id":"cebpf4jnsgd1na2vs0mg"},{"bike_id":"004c2ac5-7f25-4e48-8a80-9a02537f6ba6","system_id":"levelo_inurba_marseille","lat":43.321016,"lon":5.367816,"is_reserved":false,"is_disabled":false,"rental_uris":{"android":"levelo://app?vid=004c2ac5-7f25-4e48-8a80-9a02537f6ba6","ios":"levelo://app?vid=004c2ac5-7f25-4e48-8a80-9a02537f6ba6"},"vehicle_type_id":"4","last_reported":1736601166,"current_range_meters":30400,"station_id":"ce4bhrh2rcd13ifvqhug","pricing_plan_id":"cebpf4jnsgd1na2vs0mg"},{"bike_id":"6a8dc65c-8c47-4239-8815-8efa2acdc338","system_id":"levelo_inurba_marseille","lat":43.27987,"lon":5.41655,"is_reserved":false,"is_disabled":true,"rental_uris":{"android":"levelo://app?vid=6a8dc65c-8c47-4239-8815-8efa2acdc338","ios":"levelo://app?vid=6a8dc65c-8c47-4239-8815-8efa2acdc338"},"vehicle_type_id":"4","last_reported":1736601166,"current_range_meters":10800,"station_id":"ce4bho12rcd13ifvqh1g","pricing_plan_id":"cebpf4jnsgd1na2vs0mg"},{"bike_id":"ef1bce36-44f1-48fa-be05-2e0a141ff068","system_id":"levelo_inurba_marseille","lat":43.2455,"lon":5.39523,"is_reserved":false,"is_disabled":false,"rental_uris":{"android":"levelo://app?vid=ef1bce36-44f1-48fa-be05-2e0a141ff068","ios":"levelo://app?vid=ef1bce36-44f1-48fa-be05-2e0a141ff068"},"vehicle_type_id":"4","last_reported":1736601166,"current_range_meters":26000,"station_id":"ce4bhlp2rcd13ifvqgjg","pricing_plan_id":"cebpf4jnsgd1na2vs0mg"},{"bike_id":"09afc182-9730-4211-9e57-914113a002bf","system_id":"levelo_inurba_marseille","lat":43.304187,"lon":5.412801,"is_reserved":false,"is_disabled":false,"rental_uris":{"android":"levelo://app?vid=09afc182-9730-4211-9e57-914113a002bf","ios":"levelo://app?vid=09afc182-9730-4211-9e57-914113a002bf"},"vehicle_type_id":"4","last_reported":1736601166,"current_range_meters":36800,"station_id":"ce4bhop2rcd13ifvqh8g","pricing_plan_id":"cebpf4jnsgd1na2vs0mg"},{"bike_id":"86cd1141-6e96-4c04-94b3-22ca752a46a1","system_id":"levelo_inurba_marseille","lat":43.22712,"lon":5.39704,"is_reserved":false,"is_disabled":false,"rental_uris":{"android":"levelo://app?vid=86cd1141-6e96-4c04-94b3-22ca752a46a1","ios":"levelo://app?vid=86cd1141-6e96-4c04-94b3-22ca752a46a1"},"vehicle_type_id":"4","last_reported":1736601166,"current_range_meters":15200,"station_id":"ce4bhn12rcd13ifvqgqg","pricing_plan_id":"cebpf4jnsgd1na2vs0mg"},{"bike_id":"a040475b-e097-4a8b-8235-5ca715d8c773","system_id":"levelo_inurba_marseille","lat":43.27434,"lon":5.39423,"is_reserved":false,"is_disabled":false,"rental_uris":{"android":"levelo://app?vid=a040475b-e097-4a8b-8235-5ca715d8c773","ios":"levelo://app?vid=a040475b-e097-4a8b-8235-5ca715d8c773"},"vehicle_type_id":"4","last_reported":1736601166,"current_range_meters":18800,"station_id":"ce4bhdp2rcd13ifvqf20","pricing_plan_id":"cebpf4jnsgd1na2vs0mg"},{"bike_id":"50bd41a2-4134-4514-bd21-8188f8f923aa","system_id":"levelo_inurba_marseille","lat":43.28682,"lon":5.40001,"is_reserved":false,"is_disabled":false,"rental_uris":{"android":"levelo://app?vid=50bd41a2-4134-4514-bd21-8188f8f923aa","ios":"levelo://app?vid=50bd41a2-4134-4514-bd21-8188f8f923aa"},"vehicle_type_id":"4","last_reported":1736601166,"current_range_meters":38800,"station_id":"ce4bho92rcd13ifvqh3g","pricing_plan_id":"cebpf4jnsgd1na2vs0mg"},{"bike_id":"c1dea8eb-dedb-48c3-82b9-ba4d059a0755","system_id":"levelo_inurba_marseille","lat":43.26544,"lon":5.37279,"is_reserved":false,"is_disabled":true,"rental_uris":{"android":"levelo://app?vid=c1dea8eb-dedb-48c3-82b9-ba4d059a0755","ios":"levelo://app?vid=c1dea8eb-dedb-48c3-82b9-ba4d059a0755"},"vehicle_type_id":"4","last_reported":1736601166,"current_range_meters":9200,"station_id":"ce4bhg12rcd13ifvqf70","pricing_plan_id":"cebpf4jnsgd1na2vs0mg"},{"bike_id":"1783bcee-7512-4d2d-9614-42da8c914d9c","system_id":"levelo_inurba_marseille","lat":43.24661,"lon":5.38175,"is_reserved":false,"is_disabled":false,"rental_uris":{"android":"levelo://app?vid=1783bcee-7512-4d2d-9614-42da8c914d9c","ios":"levelo://app?vid=1783bcee-7512-4d2d-9614-42da8c914d9c"},"vehicle_type_id":"4","last_reported":1736601166,"current_range_meters":4400,"station_id":"ce4bhih2rcd13ifvqfr0","pricing_plan_id":"cebpf4jnsgd1na2vs0mg"},{"bike_id":"3e35ef7b-3237-4c6e-a7b1-693543e13672","system_id":"levelo_inurba_marseille","lat":43.24656,"lon":5.38914,"is_reserved":false,"is_disabled":false,"rental_uris":{"android":"levelo://app?vid=3e35ef7b-3237-4c6e-a7b1-693543e13672","ios":"levelo://app?vid=3e35ef7b-3237-4c6e-a7b1-693543e13672"},"vehicle_type_id":"4","last_reported":1736601166,"current_range_meters":28800,"station_id":"ce4bhg12rcd13ifvqf60","pricing_plan_id":"cebpf4jnsgd1na2vs0mg"},{"bike_id":"7a0ebd3e-2521-472a-80d2-75f2174aa535","system_id":"levelo_inurba_marseille","lat":43.27373,"lon":5.36263,"is_reserved":false,"is_disabled":false,"rental_uris":{"android":"levelo://app?vid=7a0ebd3e-2521-472a-80d2-75f2174aa535","ios":"levelo://app?vid=7a0ebd3e-2521-472a-80d2-75f2174aa535"},"vehicle_type_id":"4","last_reported":1736601166,"current_range_meters":30800,"station_id":"ce4bhbh2rcd13ifvqeo0","pricing_plan_id":"cebpf4jnsgd1na2vs0mg"},{"bike_id":"de72f749-84d1-49fb-a383-6a8a710c1c0a","system_id":"levelo_inurba_marseille","lat":43.3095,"lon":5.39029,"is_reserved":false,"is_disabled":false,"rental_uris":{"android":"levelo://app?vid=de72f749-84d1-49fb-a383-6a8a710c1c0a","ios":"levelo://app?vid=de72f749-84d1-49fb-a383-6a8a710c1c0a"},"vehicle_type_id":"4","last_reported":1736601166,"current_range_meters":32400,"station_id":"ce4bgup2rcd13ifvqco0","pricing_plan_id":"cebpf4jnsgd1na2vs0mg"},{"bike_id":"7e7a452e-245b-4f5f-a024-db21fa28a5e2","system_id":"levelo_inurba_marseille","lat":43.27372,"lon":5.36262,"is_reserved":false,"is_disabled":false,"rental_uris":{"android":"levelo://app?vid=7e7a452e-245b-4f5f-a024-db21fa28a5e2","ios":"levelo://app?vid=7e7a452e-245b-4f5f-a024-db21fa28a5e2"},"vehicle_type_id":"4","last_reported":1736601166,"current_range_meters":26000,"station_id":"ce4bhbh2rcd13ifvqeo0","pricing_plan_id":"cebpf4jnsgd1na2vs0mg"},{"bike_id":"40aa582d-815a-4ab4-b49f-d3b3d622ee04","system_id":"levelo_inurba_marseille","lat":43.23057,"lon":5.35522,"is_reserved":false,"is_disabled":false,"rental_uris":{"android":"levelo://app?vid=40aa582d-815a-4ab4-b49f-d3b3d622ee04","ios":"levelo://app?vid=40aa582d-815a-4ab4-b49f-d3b3d622ee04"},"vehicle_type_id":"4","last_reported":1736601166,"current_range_meters":38400,"station_id":"cpo3342slgdg3j2ifvpg","pricing_plan_id":"cebpf4jnsgd1na2vs0mg"},{"bike_id":"6b750947-fb43-40e2-9931-495446cc2b3f","system_id":"levelo_inurba_marseille","lat":43.22923,"lon":5.35368,"is_reserved":false,"is_disabled":false,"rental_uris":{"android":"levelo://app?vid=6b750947-fb43-40e2-9931-495446cc2b3f","ios":"levelo://app?vid=6b750947-fb43-40e2-9931-495446cc2b3f"},"vehicle_type_id":"4","last_reported":1736601166,"current_range_meters":37600,"station_id":"cpo3532slgdg3j2ikp40","pricing_plan_id":"cebpf4jnsgd1na2vs0mg"},{"bike_id":"c8e997c0-8580-4d0f-8d9f-0766596381e1","system_id":"levelo_inurba_marseille","lat":43.34006,"lon":5.37527,"is_reserved":false,"is_disabled":false,"rental_uris":{"android":"levelo://app?vid=c8e997c0-8580-4d0f-8d9f-0766596381e1","ios":"levelo://app?vid=c8e997c0-8580-4d0f-8d9f-0766596381e1"},"vehicle_type_id":"4","last_reported":1736601166,"current_range_meters":6400,"station_id":"","pricing_plan_id":"cebpf4jnsgd1na2vs0mg"},{"bike_id":"8cce07fd-e0b9-4057-8641-fe54ec299b00","system_id":"levelo_inurba_marseille","lat":43.29004,"lon":5.35612,"is_reserved":false,"is_disabled":false,"rental_uris":{"android":"levelo://app?vid=8cce07fd-e0b9-4057-8641-fe54ec299b00","ios":"levelo://app?vid=8cce07fd-e0b9-4057-8641-fe54ec299b00"},"vehicle_type_id":"4","last_reported":1736601166,"current_range_meters":9200,"station_id":"ce4bhb92rcd13ifvqen0","pricing_plan_id":"cebpf4jnsgd1na2vs0mg"},{"bike_id":"e8ec517e-c578-4ae0-a944-f5ca98bc9f47","system_id":"levelo_inurba_marseille","lat":43.30486,"lon":5.39894,"is_reserved":false,"is_disabled":true,"rental_uris":{"android":"levelo://app?vid=e8ec517e-c578-4ae0-a944-f5ca98bc9f47","ios":"levelo://app?vid=e8ec517e-c578-4ae0-a944-f5ca98bc9f47"},"vehicle_type_id":"4","last_reported":1736601166,"current_range_meters":17600,"station_id":"","pricing_plan_id":"cebpf4jnsgd1na2vs0mg"},{"bike_id":"ba5df164-d25c-4a1c-8679-1bd1a1db0642","system_id":"levelo_inurba_marseille","lat":43.33728,"lon":5.39189,"is_reserved":false,"is_disabled":false,"rental_uris":{"android":"levelo://app?vid=ba5df164-d25c-4a1c-8679-1bd1a1db0642","ios":"levelo://app?vid=ba5df164-d25c-4a1c-8679-1bd1a1db0642"},"vehicle_type_id":"4","last_reported":1736601166,"current_range_meters":28000,"station_id":"ce4bhr92rcd13ifvqhsg","pricing_plan_id":"cebpf4jnsgd1na2vs0mg"},{"bike_id":"eb9b2df2-fdc1-4d66-abed-6bda4748c4f1","system_id":"levelo_inurba_marseille","lat":43.26209,"lon":5.37928,"is_reserved":false,"is_disabled":false,"rental_uris":{"android":"levelo://app?vid=eb9b2df2-fdc1-4d66-abed-6bda4748c4f1","ios":"levelo://app?vid=eb9b2df2-fdc1-4d66-abed-6bda4748c4f1"},"vehicle_type_id":"4","last_reported":1736601166,"current_range_meters":27600,"station_id":"ce4bhjp2rcd13ifvqg90","pricing_plan_id":"cebpf4jnsgd1na2vs0mg"},{"bike_id":"756acf7b-5e79-461a-9a9d-14e00e8d684f","system_id":"levelo_inurba_marseille","lat":43.304646,"lon":5.379105,"is_reserved":false,"is_disabled":true,"rental_uris":{"android":"levelo://app?vid=756acf7b-5e79-461a-9a9d-14e00e8d684f","ios":"levelo://app?vid=756acf7b-5e79-461a-9a9d-14e00e8d684f"},"vehicle_type_id":"4","last_reported":1736601166,"current_range_meters":34800,"station_id":"ce4bgup2rcd13ifvqcn0","pricing_plan_id":"cebpf4jnsgd1na2vs0mg"},{"bike_id":"b81fb0b2-c49e-467d-ac3f-3a28e36a524f","system_id":"levelo_inurba_marseille","lat":43.27202,"lon":5.39198,"is_reserved":false,"is_disabled":false,"rental_uris":{"android":"levelo://app?vid=b81fb0b2-c49e-467d-ac3f-3a28e36a524f","ios":"levelo://app?vid=b81fb0b2-c49e-467d-ac3f-3a28e36a524f"},"vehicle_type_id":"4","last_reported":1736601166,"current_range_meters":36400,"station_id":"ce4bhhp2rcd13ifvqfm0","pricing_plan_id":"cebpf4jnsgd1na2vs0mg"},{"bike_id":"6b764e8c-1a43-46a3-97d7-14881c8e848c","system_id":"levelo_inurba_marseille","lat":43.25824,"lon":5.39426,"is_reserved":false,"is_disabled":false,"rental_uris":{"android":"levelo://app?vid=6b764e8c-1a43-46a3-97d7-14881c8e848c","ios":"levelo://app?vid=6b764e8c-1a43-46a3-97d7-14881c8e848c"},"vehicle_type_id":"4","last_reported":1736601166,"current_range_meters":38800,"station_id":"ce4bhip2rcd13ifvqft0","pricing_plan_id":"cebpf4jnsgd1na2vs0mg"},{"bike_id":"d8327471-e10e-4e1d-a46b-c43156fc0620","system_id":"levelo_inurba_marseille","lat":43.26785,"lon":5.39432,"is_reserved":false,"is_disabled":true,"rental_uris":{"android":"levelo://app?vid=d8327471-e10e-4e1d-a46b-c43156fc0620","ios":"levelo://app?vid=d8327471-e10e-4e1d-a46b-c43156fc0620"},"vehicle_type_id":"4","last_reported":1736601166,"current_range_meters":0,"station_id":"ce4bhh12rcd13ifvqfg0","pricing_plan_id":"cebpf4jnsgd1na2vs0mg"},{"bike_id":"b5b7f5ac-60b6-4be5-9cc9-eeccfd501552","system_id":"levelo_inurba_marseille","lat":43.30549,"lon":5.3654,"is_reserved":false,"is_disabled":false,"rental_uris":{"android":"levelo://app?vid=b5b7f5ac-60b6-4be5-9cc9-eeccfd501552","ios":"levelo://app?vid=b5b7f5ac-60b6-4be5-9cc9-eeccfd501552"},"vehicle_type_id":"4","last_reported":1736601166,"current_range_meters":30800,"station_id":"ce4bgs12rcd13ifvqcag","pricing_plan_id":"cebpf4jnsgd1na2vs0mg"},{"bike_id":"e0807d9a-e6e0-49fa-b303-f10d1cc851d9","system_id":"levelo_inurba_marseille","lat":43.29219,"lon":5.36066,"is_reserved":false,"is_disabled":false,"rental_uris":{"android":"levelo://app?vid=e0807d9a-e6e0-49fa-b303-f10d1cc851d9","ios":"levelo://app?vid=e0807d9a-e6e0-49fa-b303-f10d1cc851d9"},"vehicle_type_id":"4","last_reported":1736601166,"current_range_meters":38800,"station_id":"ce4bhbh2rcd13ifvqeqg","pricing_plan_id":"cebpf4jnsgd1na2vs0mg"},{"bike_id":"7d959c37-4d60-4094-901d-194afd224ca0","system_id":"levelo_inurba_marseille","lat":43.28347,"lon":5.38649,"is_reserved":false,"is_disabled":true,"rental_uris":{"android":"levelo://app?vid=7d959c37-4d60-4094-901d-194afd224ca0","ios":"levelo://app?vid=7d959c37-4d60-4094-901d-194afd224ca0"},"vehicle_type_id":"4","last_reported":1736601166,"current_range_meters":16400,"station_id":"ce4bh492rcd13ifvqdvg","pricing_plan_id":"cebpf4jnsgd1na2vs0mg"},{"bike_id":"0fcf941c-2f19-4616-b526-2bca06dca807","system_id":"levelo_inurba_marseille","lat":43.27816,"lon":5.40714,"is_reserved":false,"is_disabled":false,"rental_uris":{"android":"levelo://app?vid=0fcf941c-2f19-4616-b526-2bca06dca807","ios":"levelo://app?vid=0fcf941c-2f19-4616-b526-2bca06dca807"},"vehicle_type_id":"4","last_reported":1736601166,"current_range_meters":31200,"station_id":"ce4bhnh2rcd13ifvqgtg","pricing_plan_id":"cebpf4jnsgd1na2vs0mg"},{"bike_id":"c56556c9-aba8-4c1a-b17e-1640ff64f182","system_id":"levelo_inurba_marseille","lat":43.30548,"lon":5.3655,"is_reserved":false,"is_disabled":false,"rental_uris":{"android":"levelo://app?vid=c56556c9-aba8-4c1a-b17e-1640ff64f182","ios":"levelo://app?vid=c56556c9-aba8-4c1a-b17e-1640ff64f182"},"vehicle_type_id":"4","last_reported":1736601166,"current_range_meters":33600,"station_id":"ce4bgs12rcd13ifvqcag","pricing_plan_id":"cebpf4jnsgd1na2vs0mg"},{"bike_id":"426ee80e-06b0-4d0f-86a5-ea8ad64aaa11","system_id":"levelo_inurba_marseille","lat":43.28927,"lon":5.4379,"is_reserved":false,"is_disabled":false,"rental_uris":{"android":"levelo://app?vid=426ee80e-06b0-4d0f-86a5-ea8ad64aaa11","ios":"levelo://app?vid=426ee80e-06b0-4d0f-86a5-ea8ad64aaa11"},"vehicle_type_id":"4","last_reported":1736601166,"current_range_meters":17600,"station_id":"","pricing_plan_id":"cebpf4jnsgd1na2vs0mg"},{"bike_id":"0545f7c2-8b74-4aef-b4f9-4a206fac8b8b","system_id":"levelo_inurba_marseille","lat":43.29003,"lon":5.35615,"is_reserved":false,"is_disabled":false,"rental_uris":{"android":"levelo://app?vid=0545f7c2-8b74-4aef-b4f9-4a206fac8b8b","ios":"levelo://app?vid=0545f7c2-8b74-4aef-b4f9-4a206fac8b8b"},"vehicle_type_id":"4","last_reported":1736601166,"current_range_meters":12400,"station_id":"ce4bhb92rcd13ifvqen0","pricing_plan_id":"cebpf4jnsgd1na2vs0mg"},{"bike_id":"78ea6bb4-293a-4e24-bc0a-ec128be40523","system_id":"levelo_inurba_marseille","lat":43.28079,"lon":5.39664,"is_reserved":false,"is_disabled":false,"rental_uris":{"android":"levelo://app?vid=78ea6bb4-293a-4e24-bc0a-ec128be40523","ios":"levelo://app?vid=78ea6bb4-293a-4e24-bc0a-ec128be40523"},"vehicle_type_id":"4","last_reported":1736601166,"current_range_meters":2800,"station_id":"ce4bho12rcd13ifvqh2g","pricing_plan_id":"cebpf4jnsgd1na2vs0mg"},{"bike_id":"8e40e2ca-8cff-4e02-b45f-0f3923ffc109","system_id":"levelo_inurba_marseille","lat":43.28475,"lon":5.38427,"is_reserved":false,"is_disabled":false,"rental_uris":{"android":"levelo://app?vid=8e40e2ca-8cff-4e02-b45f-0f3923ffc109","ios":"levelo://app?vid=8e40e2ca-8cff-4e02-b45f-0f3923ffc109"},"vehicle_type_id":"4","last_reported":1736601166,"current_range_meters":16800,"station_id":"ce4bh512rcd13ifvqe3g","pricing_plan_id":"cebpf4jnsgd1na2vs0mg"},{"bike_id":"b27cc99f-6b66-4ab0-833d-ef1cae10794f","system_id":"levelo_inurba_marseille","lat":43.2586,"lon":5.3991,"is_reserved":false,"is_disabled":false,"rental_uris":{"android":"levelo://app?vid=b27cc99f-6b66-4ab0-833d-ef1cae10794f","ios":"levelo://app?vid=b27cc99f-6b66-4ab0-833d-ef1cae10794f"},"vehicle_type_id":"4","last_reported":1736601166,"current_range_meters":39200,"station_id":"ce4bhl92rcd13ifvqghg","pricing_plan_id":"cebpf4jnsgd1na2vs0mg"},{"bike_id":"4f2dd000-ee32-4159-831f-73145adbfd97","system_id":"levelo_inurba_marseille","lat":43.30159,"lon":5.38087,"is_reserved":false,"is_disabled":false,"rental_uris":{"android":"levelo://app?vid=4f2dd000-ee32-4159-831f-73145adbfd97","ios":"levelo://app?vid=4f2dd000-ee32-4159-831f-73145adbfd97"},"vehicle_type_id":"4","last_reported":1736601166,"current_range_meters":26800,"station_id":"ce4bgjp2rcd13ifvqbh0","pricing_plan_id":"cebpf4jnsgd1na2vs0mg"},{"bike_id":"64e22768-79ef-4593-847f-a621c4893945","system_id":"levelo_inurba_marseille","lat":43.31546,"lon":5.38051,"is_reserved":false,"is_disabled":false,"rental_uris":{"android":"levelo://app?vid=64e22768-79ef-4593-847f-a621c4893945","ios":"levelo://app?vid=64e22768-79ef-4593-847f-a621c4893945"},"vehicle_type_id":"4","last_reported":1736601166,"current_range_meters":38800,"station_id":"ce4bhsp2rcd13ifvqi50","pricing_plan_id":"cebpf4jnsgd1na2vs0mg"},{"bike_id":"f4dbc556-58b0-4dfd-be99-18a51c032520","system_id":"levelo_inurba_marseille","lat":43.2417,"lon":5.39725,"is_reserved":false,"is_disabled":true,"rental_uris":{"android":"levelo://app?vid=f4dbc556-58b0-4dfd-be99-18a51c032520","ios":"levelo://app?vid=f4dbc556-58b0-4dfd-be99-18a51c032520"},"vehicle_type_id":"4","last_reported":1736601166,"current_range_meters":38000,"station_id":"ce4bhn12rcd13ifvqgpg","pricing_plan_id":"cebpf4jnsgd1na2vs0mg"},{"bike_id":"9c62e164-6cf9-4292-996f-7c2ed5673e8e","system_id":"levelo_inurba_marseille","lat":43.23961,"lon":5.36608,"is_reserved":false,"is_disabled":false,"rental_uris":{"android":"levelo://app?vid=9c62e164-6cf9-4292-996f-7c2ed5673e8e","ios":"levelo://app?vid=9c62e164-6cf9-4292-996f-7c2ed5673e8e"},"vehicle_type_id":"4","last_reported":1736601166,"current_range_meters":30000,"station_id":"ce4bhi12rcd13ifvqfp0","pricing_plan_id":"cebpf4jnsgd1na2vs0mg"},{"bike_id":"34ecd5dd-40ad-43e2-a430-fd25a7cef7eb","system_id":"levelo_inurba_marseille","lat":43.2905,"lon":5.37159,"is_reserved":false,"is_disabled":false,"rental_uris":{"android":"levelo://app?vid=34ecd5dd-40ad-43e2-a430-fd25a7cef7eb","ios":"levelo://app?vid=34ecd5dd-40ad-43e2-a430-fd25a7cef7eb"},"vehicle_type_id":"4","last_reported":1736601166,"current_range_meters":6000,"station_id":"ce4bh5p2rcd13ifvqe4g","pricing_plan_id":"cebpf4jnsgd1na2vs0mg"},{"bike_id":"832a2796-69ec-4d34-b829-084767c076b0","system_id":"levelo_inurba_marseille","lat":43.28418,"lon":5.34992,"is_reserved":false,"is_disabled":false,"rental_uris":{"android":"levelo://app?vid=832a2796-69ec-4d34-b829-084767c076b0","ios":"levelo://app?vid=832a2796-69ec-4d34-b829-084767c076b0"},"vehicle_type_id":"4","last_reported":1736601166,"current_range_meters":26800,"station_id":"ce4bhbh2rcd13ifvqepg","pricing_plan_id":"cebpf4jnsgd1na2vs0mg"},{"bike_id":"80609ff8-7d7d-4ae2-9159-aea837c7c52b","system_id":"levelo_inurba_marseille","lat":43.23954,"lon":5.36642,"is_reserved":false,"is_disabled":false,"rental_uris":{"android":"levelo://app?vid=80609ff8-7d7d-4ae2-9159-aea837c7c52b","ios":"levelo://app?vid=80609ff8-7d7d-4ae2-9159-aea837c7c52b"},"vehicle_type_id":"4","last_reported":1736601166,"current_range_meters":10800,"station_id":"ce4bhi12rcd13ifvqfp0","pricing_plan_id":"cebpf4jnsgd1na2vs0mg"},{"bike_id":"a789f9cc-9496-4a60-ba30-975544226200","system_id":"levelo_inurba_marseille","lat":43.29192,"lon":5.35814,"is_reserved":false,"is_disabled":false,"rental_uris":{"android":"levelo://app?vid=a789f9cc-9496-4a60-ba30-975544226200","ios":"levelo://app?vid=a789f9cc-9496-4a60-ba30-975544226200"},"vehicle_type_id":"4","last_reported":1736601166,"current_range_meters":12000,"station_id":"ce4bhb12rcd13ifvqel0","pricing_plan_id":"cebpf4jnsgd1na2vs0mg"},{"bike_id":"2d0a95e1-0672-4450-87dd-8a1e7e1c81d1","system_id":"levelo_inurba_marseille","lat":43.29632,"lon":5.37703,"is_reserved":false,"is_disabled":false,"rental_uris":{"android":"levelo://app?vid=2d0a95e1-0672-4450-87dd-8a1e7e1c81d1","ios":"levelo://app?vid=2d0a95e1-0672-4450-87dd-8a1e7e1c81d1"},"vehicle_type_id":"4","last_reported":1736601166,"current_range_meters":22800,"station_id":"ce4bgi92rcd13ifvqb90","pricing_plan_id":"cebpf4jnsgd1na2vs0mg"},{"bike_id":"3d8a5db0-c55f-4a20-8bc8-5f50d71b1907","system_id":"levelo_inurba_marseille","lat":43.28599,"lon":5.351,"is_reserved":false,"is_disabled":false,"rental_uris":{"android":"levelo://app?vid=3d8a5db0-c55f-4a20-8bc8-5f50d71b1907","ios":"levelo://app?vid=3d8a5db0-c55f-4a20-8bc8-5f50d71b1907"},"vehicle_type_id":"4","last_reported":1736601166,"current_range_meters":30800,"station_id":"ce4bhch2rcd13ifvqeug","pricing_plan_id":"cebpf4jnsgd1na2vs0mg"},{"bike_id":"5edb9b21-4917-4f45-9961-6635931db922","system_id":"levelo_inurba_marseille","lat":43.22935,"lon":5.35383,"is_reserved":false,"is_disabled":false,"rental_uris":{"android":"levelo://app?vid=5edb9b21-4917-4f45-9961-6635931db922","ios":"levelo://app?vid=5edb9b21-4917-4f45-9961-6635931db922"},"vehicle_type_id":"4","last_reported":1736601166,"current_range_meters":38800,"station_id":"cpo3532slgdg3j2ikp40","pricing_plan_id":"cebpf4jnsgd1na2vs0mg"},{"bike_id":"baf74963-7d44-43cf-b2a2-efc3c98b4e82","system_id":"levelo_inurba_marseille","lat":43.27425,"lon":5.3941,"is_reserved":false,"is_disabled":false,"rental_uris":{"android":"levelo://app?vid=baf74963-7d44-43cf-b2a2-efc3c98b4e82","ios":"levelo://app?vid=baf74963-7d44-43cf-b2a2-efc3c98b4e82"},"vehicle_type_id":"4","last_reported":1736601166,"current_range_meters":38800,"station_id":"ce4bhdp2rcd13ifvqf20","pricing_plan_id":"cebpf4jnsgd1na2vs0mg"},{"bike_id":"ac2ea72a-6a8b-4ad0-af0a-f6089f860be6","system_id":"levelo_inurba_marseille","lat":43.29717,"lon":5.37694,"is_reserved":false,"is_disabled":false,"rental_uris":{"android":"levelo://app?vid=ac2ea72a-6a8b-4ad0-af0a-f6089f860be6","ios":"levelo://app?vid=ac2ea72a-6a8b-4ad0-af0a-f6089f860be6"},"vehicle_type_id":"4","last_reported":1736601166,"current_range_meters":23200,"station_id":"ce4bgkh2rcd13ifvqbl0","pricing_plan_id":"cebpf4jnsgd1na2vs0mg"},{"bike_id":"816f16d8-6ff0-4785-861d-d7f867697579","system_id":"levelo_inurba_marseille","lat":43.31526,"lon":5.38042,"is_reserved":false,"is_disabled":false,"rental_uris":{"android":"levelo://app?vid=816f16d8-6ff0-4785-861d-d7f867697579","ios":"levelo://app?vid=816f16d8-6ff0-4785-861d-d7f867697579"},"vehicle_type_id":"4","last_reported":1736601166,"current_range_meters":38800,"station_id":"ce4bhsp2rcd13ifvqi50","pricing_plan_id":"cebpf4jnsgd1na2vs0mg"},{"bike_id":"a749197e-2ceb-4177-af30-399042ab6e6c","system_id":"levelo_inurba_marseille","lat":43.2827,"lon":5.35058,"is_reserved":false,"is_disabled":false,"rental_uris":{"android":"levelo://app?vid=a749197e-2ceb-4177-af30-399042ab6e6c","ios":"levelo://app?vid=a749197e-2ceb-4177-af30-399042ab6e6c"},"vehicle_type_id":"4","last_reported":1736601166,"current_range_meters":3600,"station_id":"ce4bhbp2rcd13ifvqerg","pricing_plan_id":"cebpf4jnsgd1na2vs0mg"},{"bike_id":"98a8047c-be57-4ffa-8af6-677645b68fe2","system_id":"levelo_inurba_marseille","lat":43.29606,"lon":5.37744,"is_reserved":false,"is_disabled":false,"rental_uris":{"android":"levelo://app?vid=98a8047c-be57-4ffa-8af6-677645b68fe2","ios":"levelo://app?vid=98a8047c-be57-4ffa-8af6-677645b68fe2"},"vehicle_type_id":"4","last_reported":1736601166,"current_range_meters":38800,"station_id":"ce4bgi92rcd13ifvqb90","pricing_plan_id":"cebpf4jnsgd1na2vs0mg"},{"bike_id":"b667d02e-b459-4fe3-9572-0fa206c520e5","system_id":"levelo_inurba_marseille","lat":43.28707,"lon":5.3792,"is_reserved":false,"is_disabled":false,"rental_uris":{"android":"levelo://app?vid=b667d02e-b459-4fe3-9572-0fa206c520e5","ios":"levelo://app?vid=b667d02e-b459-4fe3-9572-0fa206c520e5"},"vehicle_type_id":"4","last_reported":1736601166,"current_range_meters":4400,"station_id":"ce4bh9p2rcd13ifvqec0","pricing_plan_id":"cebpf4jnsgd1na2vs0mg"},{"bike_id":"125e3e37-3f30-4761-a249-1beea305da1b","system_id":"levelo_inurba_marseille","lat":43.27216,"lon":5.39192,"is_reserved":false,"is_disabled":false,"rental_uris":{"android":"levelo://app?vid=125e3e37-3f30-4761-a249-1beea305da1b","ios":"levelo://app?vid=125e3e37-3f30-4761-a249-1beea305da1b"},"vehicle_type_id":"4","last_reported":1736601166,"current_range_meters":30000,"station_id":"ce4bhhp2rcd13ifvqfm0","pricing_plan_id":"cebpf4jnsgd1na2vs0mg"},{"bike_id":"9df3f5ea-fde0-41ed-b85b-9852593c7149","system_id":"levelo_inurba_marseille","lat":43.2408,"lon":5.37749,"is_reserved":false,"is_disabled":false,"rental_uris":{"android":"levelo://app?vid=9df3f5ea-fde0-41ed-b85b-9852593c7149","ios":"levelo://app?vid=9df3f5ea-fde0-41ed-b85b-9852593c7149"},"vehicle_type_id":"4","last_reported":1736601166,"current_range_meters":33600,"station_id":"ce4bhnp2rcd13ifvqgvg","pricing_plan_id":"cebpf4jnsgd1na2vs0mg"},{"bike_id":"066fc890-cce1-4b7e-a941-320c51e991c9","system_id":"levelo_inurba_marseille","lat":43.23948,"lon":5.36653,"is_reserved":false,"is_disabled":false,"rental_uris":{"android":"levelo://app?vid=066fc890-cce1-4b7e-a941-320c51e991c9","ios":"levelo://app?vid=066fc890-cce1-4b7e-a941-320c51e991c9"},"vehicle_type_id":"4","last_reported":1736601166,"current_range_meters":22800,"station_id":"ce4bhi12rcd13ifvqfp0","pricing_plan_id":"cebpf4jnsgd1na2vs0mg"},{"bike_id":"5f50eb76-c20c-4230-926b-27928bb7844b","system_id":"levelo_inurba_marseille","lat":43.29181,"lon":5.35829,"is_reserved":false,"is_disabled":false,"rental_uris":{"android":"levelo://app?vid=5f50eb76-c20c-4230-926b-27928bb7844b","ios":"levelo://app?vid=5f50eb76-c20c-4230-926b-27928bb7844b"},"vehicle_type_id":"4","last_reported":1736601166,"current_range_meters":33200,"station_id":"ce4bhb12rcd13ifvqel0","pricing_plan_id":"cebpf4jnsgd1na2vs0mg"},{"bike_id":"b1cd05bd-cc6d-452b-8b8c-f24ee7fb627f","system_id":"levelo_inurba_marseille","lat":43.2581,"lon":5.39424,"is_reserved":false,"is_disabled":false,"rental_uris":{"android":"levelo://app?vid=b1cd05bd-cc6d-452b-8b8c-f24ee7fb627f","ios":"levelo://app?vid=b1cd05bd-cc6d-452b-8b8c-f24ee7fb627f"},"vehicle_type_id":"4","last_reported":1736601166,"current_range_meters":32000,"station_id":"ce4bhip2rcd13ifvqft0","pricing_plan_id":"cebpf4jnsgd1na2vs0mg"},{"bike_id":"1427a9ce-b525-4f97-9b27-39e4941f848e","system_id":"levelo_inurba_marseille","lat":43.24665,"lon":5.38169,"is_reserved":false,"is_disabled":false,"rental_uris":{"android":"levelo://app?vid=1427a9ce-b525-4f97-9b27-39e4941f848e","ios":"levelo://app?vid=1427a9ce-b525-4f97-9b27-39e4941f848e"},"vehicle_type_id":"4","last_reported":1736601166,"current_range_meters":6000,"station_id":"ce4bhih2rcd13ifvqfr0","pricing_plan_id":"cebpf4jnsgd1na2vs0mg"},{"bike_id":"3f1c785d-f4db-48c3-8fab-d7359eef83a2","system_id":"levelo_inurba_marseille","lat":43.30416,"lon":5.41284,"is_reserved":false,"is_disabled":false,"rental_uris":{"android":"levelo://app?vid=3f1c785d-f4db-48c3-8fab-d7359eef83a2","ios":"levelo://app?vid=3f1c785d-f4db-48c3-8fab-d7359eef83a2"},"vehicle_type_id":"4","last_reported":1736601166,"current_range_meters":38400,"station_id":"ce4bhop2rcd13ifvqh8g","pricing_plan_id":"cebpf4jnsgd1na2vs0mg"},{"bike_id":"3b4bd5b4-0685-4715-9538-a6a6d1310d09","system_id":"levelo_inurba_marseille","lat":43.3054,"lon":5.36571,"is_reserved":false,"is_disabled":false,"rental_uris":{"android":"levelo://app?vid=3b4bd5b4-0685-4715-9538-a6a6d1310d09","ios":"levelo://app?vid=3b4bd5b4-0685-4715-9538-a6a6d1310d09"},"vehicle_type_id":"4","last_reported":1736601166,"current_range_meters":37600,"station_id":"ce4bgs12rcd13ifvqcag","pricing_plan_id":"cebpf4jnsgd1na2vs0mg"},{"bike_id":"19bdc155-2b79-4d7f-952b-6900dae1b606","system_id":"levelo_inurba_marseille","lat":43.28266,"lon":5.35053,"is_reserved":false,"is_disabled":false,"rental_uris":{"android":"levelo://app?vid=19bdc155-2b79-4d7f-952b-6900dae1b606","ios":"levelo://app?vid=19bdc155-2b79-4d7f-952b-6900dae1b606"},"vehicle_type_id":"4","last_reported":1736601166,"current_range_meters":28000,"station_id":"ce4bhbp2rcd13ifvqerg","pricing_plan_id":"cebpf4jnsgd1na2vs0mg"},{"bike_id":"2c9dd628-c688-4c37-b6d2-d665ced3ed71","system_id":"levelo_inurba_marseille","lat":43.25003,"lon":5.38914,"is_reserved":false,"is_disabled":false,"rental_uris":{"android":"levelo://app?vid=2c9dd628-c688-4c37-b6d2-d665ced3ed71","ios":"levelo://app?vid=2c9dd628-c688-4c37-b6d2-d665ced3ed71"},"vehicle_type_id":"4","last_reported":1736601166,"current_range_meters":38000,"station_id":"ce4bhgp2rcd13ifvqfd0","pricing_plan_id":"cebpf4jnsgd1na2vs0mg"},{"bike_id":"dea36c55-6edf-4c74-91be-15f04a3f87af","system_id":"levelo_inurba_marseille","lat":43.27556,"lon":5.38428,"is_reserved":false,"is_disabled":false,"rental_uris":{"android":"levelo://app?vid=dea36c55-6edf-4c74-91be-15f04a3f87af","ios":"levelo://app?vid=dea36c55-6edf-4c74-91be-15f04a3f87af"},"vehicle_type_id":"4","last_reported":1736601166,"current_range_meters":38800,"station_id":"ce4bhh92rcd13ifvqfi0","pricing_plan_id":"cebpf4jnsgd1na2vs0mg"},{"bike_id":"85077f2d-96d6-4799-acc0-68a7354da011","system_id":"levelo_inurba_marseille","lat":43.25494,"lon":5.37653,"is_reserved":false,"is_disabled":false,"rental_uris":{"android":"levelo://app?vid=85077f2d-96d6-4799-acc0-68a7354da011","ios":"levelo://app?vid=85077f2d-96d6-4799-acc0-68a7354da011"},"vehicle_type_id":"4","last_reported":1736601166,"current_range_meters":32800,"station_id":"ce4bhh12rcd13ifvqff0","pricing_plan_id":"cebpf4jnsgd1na2vs0mg"},{"bike_id":"f7f49bc2-5a70-438d-ab6f-26cbacc54252","system_id":"levelo_inurba_marseille","lat":43.29627,"lon":5.37184,"is_reserved":false,"is_disabled":false,"rental_uris":{"android":"levelo://app?vid=f7f49bc2-5a70-438d-ab6f-26cbacc54252","ios":"levelo://app?vid=f7f49bc2-5a70-438d-ab6f-26cbacc54252"},"vehicle_type_id":"4","last_reported":1736601166,"current_range_meters":34800,"station_id":"ce4bgnh2rcd13ifvqc0g","pricing_plan_id":"cebpf4jnsgd1na2vs0mg"},{"bike_id":"5b037463-e776-4f8a-b002-41b2aa90a2b6","system_id":"levelo_inurba_marseille","lat":43.23058,"lon":5.35493,"is_reserved":false,"is_disabled":true,"rental_uris":{"android":"levelo://app?vid=5b037463-e776-4f8a-b002-41b2aa90a2b6","ios":"levelo://app?vid=5b037463-e776-4f8a-b002-41b2aa90a2b6"},"vehicle_type_id":"4","last_reported":1736601166,"current_range_meters":0,"station_id":"cpo3342slgdg3j2ifvpg","pricing_plan_id":"cebpf4jnsgd1na2vs0mg"},{"bike_id":"10365879-1263-494b-962f-8ad20baa0824","system_id":"levelo_inurba_marseille","lat":43.25003,"lon":5.38932,"is_reserved":false,"is_disabled":false,"rental_uris":{"android":"levelo://app?vid=10365879-1263-494b-962f-8ad20baa0824","ios":"levelo://app?vid=10365879-1263-494b-962f-8ad20baa0824"},"vehicle_type_id":"4","last_reported":1736601166,"current_range_meters":33200,"station_id":"ce4bhgp2rcd13ifvqfd0","pricing_plan_id":"cebpf4jnsgd1na2vs0mg"},{"bike_id":"b9a625c6-f08a-486a-84db-1663d9d856a4","system_id":"levelo_inurba_marseille","lat":43.30166,"lon":5.37421,"is_reserved":false,"is_disabled":false,"rental_uris":{"android":"levelo://app?vid=b9a625c6-f08a-486a-84db-1663d9d856a4","ios":"levelo://app?vid=b9a625c6-f08a-486a-84db-1663d9d856a4"},"vehicle_type_id":"4","last_reported":1736601166,"current_range_meters":22800,"station_id":"ce4bgs92rcd13ifvqcc0","pricing_plan_id":"cebpf4jnsgd1na2vs0mg"},{"bike_id":"66a147ff-1563-48f0-a296-448c81c7b0c0","system_id":"levelo_inurba_marseille","lat":43.30149,"lon":5.38086,"is_reserved":false,"is_disabled":false,"rental_uris":{"android":"levelo://app?vid=66a147ff-1563-48f0-a296-448c81c7b0c0","ios":"levelo://app?vid=66a147ff-1563-48f0-a296-448c81c7b0c0"},"vehicle_type_id":"4","last_reported":1736601166,"current_range_meters":37600,"station_id":"ce4bgjp2rcd13ifvqbh0","pricing_plan_id":"cebpf4jnsgd1na2vs0mg"},{"bike_id":"7e9a745e-c82d-4677-a3f0-c081269f42e9","system_id":"levelo_inurba_marseille","lat":43.28976,"lon":5.35633,"is_reserved":false,"is_disabled":true,"rental_uris":{"android":"levelo://app?vid=7e9a745e-c82d-4677-a3f0-c081269f42e9","ios":"levelo://app?vid=7e9a745e-c82d-4677-a3f0-c081269f42e9"},"vehicle_type_id":"4","last_reported":1736601166,"current_range_meters":27200,"station_id":"ce4bhb92rcd13ifvqen0","pricing_plan_id":"cebpf4jnsgd1na2vs0mg"},{"bike_id":"6a1b54ad-8916-43da-9190-f329d3dc710b","system_id":"levelo_inurba_marseille","lat":43.30506,"lon":5.36485,"is_reserved":false,"is_disabled":false,"rental_uris":{"android":"levelo://app?vid=6a1b54ad-8916-43da-9190-f329d3dc710b","ios":"levelo://app?vid=6a1b54ad-8916-43da-9190-f329d3dc710b"},"vehicle_type_id":"4","last_reported":1736601166,"current_range_meters":30400,"station_id":"","pricing_plan_id":"cebpf4jnsgd1na2vs0mg"},{"bike_id":"a754abf4-87cb-4915-a97f-0b4d0e8971f5","system_id":"levelo_inurba_marseille","lat":43.28618,"lon":5.35105,"is_reserved":false,"is_disabled":true,"rental_uris":{"android":"levelo://app?vid=a754abf4-87cb-4915-a97f-0b4d0e8971f5","ios":"levelo://app?vid=a754abf4-87cb-4915-a97f-0b4d0e8971f5"},"vehicle_type_id":"4","last_reported":1736601166,"current_range_meters":0,"station_id":"ce4bhch2rcd13ifvqeug","pricing_plan_id":"cebpf4jnsgd1na2vs0mg"},{"bike_id":"a2bbc440-fb1d-4393-96d5-417ad666408e","system_id":"levelo_inurba_marseille","lat":43.30124,"lon":5.39838,"is_reserved":false,"is_disabled":false,"rental_uris":{"android":"levelo://app?vid=a2bbc440-fb1d-4393-96d5-417ad666408e","ios":"levelo://app?vid=a2bbc440-fb1d-4393-96d5-417ad666408e"},"vehicle_type_id":"4","last_reported":1736601166,"current_range_meters":25200,"station_id":"ce4bh312rcd13ifvqdj0","pricing_plan_id":"cebpf4jnsgd1na2vs0mg"},{"bike_id":"bc2ecfb6-7911-4f67-9761-2fa9eb95f393","system_id":"levelo_inurba_marseille","lat":43.297229,"lon":5.376978,"is_reserved":false,"is_disabled":false,"rental_uris":{"android":"levelo://app?vid=bc2ecfb6-7911-4f67-9761-2fa9eb95f393","ios":"levelo://app?vid=bc2ecfb6-7911-4f67-9761-2fa9eb95f393"},"vehicle_type_id":"4","last_reported":1736601166,"current_range_meters":37600,"station_id":"ce4bgkh2rcd13ifvqbl0","pricing_plan_id":"cebpf4jnsgd1na2vs0mg"},{"bike_id":"6e0b7390-3f03-4896-850a-30b735b3a5fe","system_id":"levelo_inurba_marseille","lat":43.25489,"lon":5.3765,"is_reserved":false,"is_disabled":false,"rental_uris":{"android":"levelo://app?vid=6e0b7390-3f03-4896-850a-30b735b3a5fe","ios":"levelo://app?vid=6e0b7390-3f03-4896-850a-30b735b3a5fe"},"vehicle_type_id":"4","last_reported":1736601166,"current_range_meters":21600,"station_id":"ce4bhh12rcd13ifvqff0","pricing_plan_id":"cebpf4jnsgd1na2vs0mg"},{"bike_id":"19294e41-dd99-443a-831f-a3b89a9a6e0b","system_id":"levelo_inurba_marseille","lat":43.30542,"lon":5.36721,"is_reserved":false,"is_disabled":false,"rental_uris":{"android":"levelo://app?vid=19294e41-dd99-443a-831f-a3b89a9a6e0b","ios":"levelo://app?vid=19294e41-dd99-443a-831f-a3b89a9a6e0b"},"vehicle_type_id":"4","last_reported":1736601166,"current_range_meters":33200,"station_id":"ce4bgrp2rcd13ifvqc9g","pricing_plan_id":"cebpf4jnsgd1na2vs0mg"},{"bike_id":"a1f782c3-d831-45b0-b274-ee9d21b16ac1","system_id":"levelo_inurba_marseille","lat":43.25002,"lon":5.38928,"is_reserved":false,"is_disabled":false,"rental_uris":{"android":"levelo://app?vid=a1f782c3-d831-45b0-b274-ee9d21b16ac1","ios":"levelo://app?vid=a1f782c3-d831-45b0-b274-ee9d21b16ac1"},"vehicle_type_id":"4","last_reported":1736601166,"current_range_meters":37600,"station_id":"ce4bhgp2rcd13ifvqfd0","pricing_plan_id":"cebpf4jnsgd1na2vs0mg"},{"bike_id":"5acc867e-f922-47c6-b8ae-054333bf079b","system_id":"levelo_inurba_marseille","lat":43.27201,"lon":5.39184,"is_reserved":false,"is_disabled":false,"rental_uris":{"android":"levelo://app?vid=5acc867e-f922-47c6-b8ae-054333bf079b","ios":"levelo://app?vid=5acc867e-f922-47c6-b8ae-054333bf079b"},"vehicle_type_id":"4","last_reported":1736601166,"current_range_meters":36800,"station_id":"ce4bhhp2rcd13ifvqfm0","pricing_plan_id":"cebpf4jnsgd1na2vs0mg"},{"bike_id":"f34fc04b-b351-4ac8-a47c-a2006c27444b","system_id":"levelo_inurba_marseille","lat":43.31525,"lon":5.38042,"is_reserved":false,"is_disabled":true,"rental_uris":{"android":"levelo://app?vid=f34fc04b-b351-4ac8-a47c-a2006c27444b","ios":"levelo://app?vid=f34fc04b-b351-4ac8-a47c-a2006c27444b"},"vehicle_type_id":"4","last_reported":1736601166,"current_range_meters":25200,"station_id":"ce4bhsp2rcd13ifvqi50","pricing_plan_id":"cebpf4jnsgd1na2vs0mg"},{"bike_id":"d2ff887b-198f-4a48-b3f7-d6c06a3e71c1","system_id":"levelo_inurba_marseille","lat":43.30793,"lon":5.43525,"is_reserved":false,"is_disabled":false,"rental_uris":{"android":"levelo://app?vid=d2ff887b-198f-4a48-b3f7-d6c06a3e71c1","ios":"levelo://app?vid=d2ff887b-198f-4a48-b3f7-d6c06a3e71c1"},"vehicle_type_id":"4","last_reported":1736601166,"current_range_meters":39200,"station_id":"ce4bhph2rcd13ifvqheg","pricing_plan_id":"cebpf4jnsgd1na2vs0mg"},{"bike_id":"234c111c-654a-4771-b73b-d35bb756f1c8","system_id":"levelo_inurba_marseille","lat":43.28343,"lon":5.38101,"is_reserved":false,"is_disabled":false,"rental_uris":{"android":"levelo://app?vid=234c111c-654a-4771-b73b-d35bb756f1c8","ios":"levelo://app?vid=234c111c-654a-4771-b73b-d35bb756f1c8"},"vehicle_type_id":"4","last_reported":1736601166,"current_range_meters":20800,"station_id":"ce4bh412rcd13ifvqdr0","pricing_plan_id":"cebpf4jnsgd1na2vs0mg"},{"bike_id":"07b8b9a3-a564-434b-90a6-202790eb4cd3","system_id":"levelo_inurba_marseille","lat":43.30544,"lon":5.36534,"is_reserved":false,"is_disabled":false,"rental_uris":{"android":"levelo://app?vid=07b8b9a3-a564-434b-90a6-202790eb4cd3","ios":"levelo://app?vid=07b8b9a3-a564-434b-90a6-202790eb4cd3"},"vehicle_type_id":"4","last_reported":1736601166,"current_range_meters":38800,"station_id":"ce4bgs12rcd13ifvqcag","pricing_plan_id":"cebpf4jnsgd1na2vs0mg"},{"bike_id":"9d19643c-d149-49be-bc25-949474e6e069","system_id":"levelo_inurba_marseille","lat":43.29025,"lon":5.38144,"is_reserved":false,"is_disabled":true,"rental_uris":{"android":"levelo://app?vid=9d19643c-d149-49be-bc25-949474e6e069","ios":"levelo://app?vid=9d19643c-d149-49be-bc25-949474e6e069"},"vehicle_type_id":"4","last_reported":1736601166,"current_range_meters":38000,"station_id":"ce4bh4p2rcd13ifvqe1g","pricing_plan_id":"cebpf4jnsgd1na2vs0mg"},{"bike_id":"97f377fa-1d33-492f-8102-389041b47d8f","system_id":"levelo_inurba_marseille","lat":43.28153,"lon":5.42652,"is_reserved":false,"is_disabled":false,"rental_uris":{"android":"levelo://app?vid=97f377fa-1d33-492f-8102-389041b47d8f","ios":"levelo://app?vid=97f377fa-1d33-492f-8102-389041b47d8f"},"vehicle_type_id":"4","last_reported":1736601166,"current_range_meters":28800,"station_id":"ce4bhnh2rcd13ifvqgug","pricing_plan_id":"cebpf4jnsgd1na2vs0mg"},{"bike_id":"df7e2a10-d4d3-46cb-b324-c507ac757fca","system_id":"levelo_inurba_marseille","lat":43.28719,"lon":5.361,"is_reserved":false,"is_disabled":false,"rental_uris":{"android":"levelo://app?vid=df7e2a10-d4d3-46cb-b324-c507ac757fca","ios":"levelo://app?vid=df7e2a10-d4d3-46cb-b324-c507ac757fca"},"vehicle_type_id":"4","last_reported":1736601166,"current_range_meters":11600,"station_id":"cki0cbj6b192h4jlfktg","pricing_plan_id":"cebpf4jnsgd1na2vs0mg"},{"bike_id":"79a8411a-72ea-403e-9458-7fef45f93983","system_id":"levelo_inurba_marseille","lat":43.27207,"lon":5.39184,"is_reserved":false,"is_disabled":false,"rental_uris":{"android":"levelo://app?vid=79a8411a-72ea-403e-9458-7fef45f93983","ios":"levelo://app?vid=79a8411a-72ea-403e-9458-7fef45f93983"},"vehicle_type_id":"4","last_reported":1736601166,"current_range_meters":6800,"station_id":"ce4bhhp2rcd13ifvqfm0","pricing_plan_id":"cebpf4jnsgd1na2vs0mg"},{"bike_id":"1ff4d6af-d168-4206-80a1-8f85ab0c0a00","system_id":"levelo_inurba_marseille","lat":43.25857,"lon":5.39917,"is_reserved":false,"is_disabled":true,"rental_uris":{"android":"levelo://app?vid=1ff4d6af-d168-4206-80a1-8f85ab0c0a00","ios":"levelo://app?vid=1ff4d6af-d168-4206-80a1-8f85ab0c0a00"},"vehicle_type_id":"4","last_reported":1736601166,"current_range_meters":18000,"station_id":"ce4bhl92rcd13ifvqghg","pricing_plan_id":"cebpf4jnsgd1na2vs0mg"},{"bike_id":"60e7e77c-1f36-4c2e-8ef7-e5999b2ef83f","system_id":"levelo_inurba_marseille","lat":43.29083,"lon":5.37179,"is_reserved":false,"is_disabled":false,"rental_uris":{"android":"levelo://app?vid=60e7e77c-1f36-4c2e-8ef7-e5999b2ef83f","ios":"levelo://app?vid=60e7e77c-1f36-4c2e-8ef7-e5999b2ef83f"},"vehicle_type_id":"4","last_reported":1736601166,"current_range_meters":30800,"station_id":"ce4bh5p2rcd13ifvqe4g","pricing_plan_id":"cebpf4jnsgd1na2vs0mg"},{"bike_id":"86abeea7-c434-4e10-8df8-12c24097eeb0","system_id":"levelo_inurba_marseille","lat":43.3042,"lon":5.39737,"is_reserved":false,"is_disabled":true,"rental_uris":{"android":"levelo://app?vid=86abeea7-c434-4e10-8df8-12c24097eeb0","ios":"levelo://app?vid=86abeea7-c434-4e10-8df8-12c24097eeb0"},"vehicle_type_id":"4","last_reported":1736601166,"current_range_meters":29600,"station_id":"ce4bh092rcd13ifvqd20","pricing_plan_id":"cebpf4jnsgd1na2vs0mg"},{"bike_id":"71b630df-7dcf-42fd-89a0-58a209eb70e2","system_id":"levelo_inurba_marseille","lat":43.30152,"lon":5.3808,"is_reserved":false,"is_disabled":false,"rental_uris":{"android":"levelo://app?vid=71b630df-7dcf-42fd-89a0-58a209eb70e2","ios":"levelo://app?vid=71b630df-7dcf-42fd-89a0-58a209eb70e2"},"vehicle_type_id":"4","last_reported":1736601166,"current_range_meters":38800,"station_id":"ce4bgjp2rcd13ifvqbh0","pricing_plan_id":"cebpf4jnsgd1na2vs0mg"},{"bike_id":"7eb59f4e-9067-403a-ac6e-ece075ef0ee0","system_id":"levelo_inurba_marseille","lat":43.28268,"lon":5.35064,"is_reserved":false,"is_disabled":false,"rental_uris":{"android":"levelo://app?vid=7eb59f4e-9067-403a-ac6e-ece075ef0ee0","ios":"levelo://app?vid=7eb59f4e-9067-403a-ac6e-ece075ef0ee0"},"vehicle_type_id":"4","last_reported":1736601166,"current_range_meters":24800,"station_id":"","pricing_plan_id":"cebpf4jnsgd1na2vs0mg"},{"bike_id":"be09db7c-c08b-4e39-b5ac-7bb644d97b96","system_id":"levelo_inurba_marseille","lat":43.27826,"lon":5.3921,"is_reserved":false,"is_disabled":false,"rental_uris":{"android":"levelo://app?vid=be09db7c-c08b-4e39-b5ac-7bb644d97b96","ios":"levelo://app?vid=be09db7c-c08b-4e39-b5ac-7bb644d97b96"},"vehicle_type_id":"4","last_reported":1736601166,"current_range_meters":38400,"station_id":"ce4bhjp2rcd13ifvqga0","pricing_plan_id":"cebpf4jnsgd1na2vs0mg"},{"bike_id":"b83a81d3-5f39-4c0c-8b11-a9b102a1e985","system_id":"levelo_inurba_marseille","lat":43.272138,"lon":5.391866,"is_reserved":false,"is_disabled":false,"rental_uris":{"android":"levelo://app?vid=b83a81d3-5f39-4c0c-8b11-a9b102a1e985","ios":"levelo://app?vid=b83a81d3-5f39-4c0c-8b11-a9b102a1e985"},"vehicle_type_id":"4","last_reported":1736601166,"current_range_meters":4000,"station_id":"ce4bhhp2rcd13ifvqfm0","pricing_plan_id":"cebpf4jnsgd1na2vs0mg"},{"bike_id":"10f7d31a-ef8d-4e8a-acbf-8aa9a8c72143","system_id":"levelo_inurba_marseille","lat":43.24318,"lon":5.37105,"is_reserved":false,"is_disabled":false,"rental_uris":{"android":"levelo://app?vid=10f7d31a-ef8d-4e8a-acbf-8aa9a8c72143","ios":"levelo://app?vid=10f7d31a-ef8d-4e8a-acbf-8aa9a8c72143"},"vehicle_type_id":"4","last_reported":1736601166,"current_range_meters":18000,"station_id":"ce4bhhh2rcd13ifvqfk0","pricing_plan_id":"cebpf4jnsgd1na2vs0mg"},{"bike_id":"1fedc598-f70f-4c41-a2c3-d78b434b4e36","system_id":"levelo_inurba_marseille","lat":43.26191,"lon":5.374578,"is_reserved":false,"is_disabled":false,"rental_uris":{"android":"levelo://app?vid=1fedc598-f70f-4c41-a2c3-d78b434b4e36","ios":"levelo://app?vid=1fedc598-f70f-4c41-a2c3-d78b434b4e36"},"vehicle_type_id":"4","last_reported":1736601166,"current_range_meters":24800,"station_id":"ce4bhgp2rcd13ifvqfc0","pricing_plan_id":"cebpf4jnsgd1na2vs0mg"},{"bike_id":"c49e187c-1517-485f-8e5f-3a6dda51f48b","system_id":"levelo_inurba_marseille","lat":43.29624,"lon":5.37749,"is_reserved":false,"is_disabled":false,"rental_uris":{"android":"levelo://app?vid=c49e187c-1517-485f-8e5f-3a6dda51f48b","ios":"levelo://app?vid=c49e187c-1517-485f-8e5f-3a6dda51f48b"},"vehicle_type_id":"4","last_reported":1736601166,"current_range_meters":38000,"station_id":"ce4bgi92rcd13ifvqb90","pricing_plan_id":"cebpf4jnsgd1na2vs0mg"},{"bike_id":"fa83e855-89d6-4b8f-b525-99e81ef8f1af","system_id":"levelo_inurba_marseille","lat":43.28436,"lon":5.39195,"is_reserved":false,"is_disabled":false,"rental_uris":{"android":"levelo://app?vid=fa83e855-89d6-4b8f-b525-99e81ef8f1af","ios":"levelo://app?vid=fa83e855-89d6-4b8f-b525-99e81ef8f1af"},"vehicle_type_id":"4","last_reported":1736601166,"current_range_meters":39200,"station_id":"ce4bhoh2rcd13ifvqh5g","pricing_plan_id":"cebpf4jnsgd1na2vs0mg"},{"bike_id":"ae29e0de-7b5a-45d6-ace3-313c5e88010a","system_id":"levelo_inurba_marseille","lat":43.27995,"lon":5.41638,"is_reserved":false,"is_disabled":true,"rental_uris":{"android":"levelo://app?vid=ae29e0de-7b5a-45d6-ace3-313c5e88010a","ios":"levelo://app?vid=ae29e0de-7b5a-45d6-ace3-313c5e88010a"},"vehicle_type_id":"4","last_reported":1736601166,"current_range_meters":800,"station_id":"ce4bho12rcd13ifvqh1g","pricing_plan_id":"cebpf4jnsgd1na2vs0mg"},{"bike_id":"931d873d-7c0f-44bb-bab3-92c6d2a6e163","system_id":"levelo_inurba_marseille","lat":43.27674,"lon":5.38857,"is_reserved":false,"is_disabled":false,"rental_uris":{"android":"levelo://app?vid=931d873d-7c0f-44bb-bab3-92c6d2a6e163","ios":"levelo://app?vid=931d873d-7c0f-44bb-bab3-92c6d2a6e163"},"vehicle_type_id":"4","last_reported":1736601166,"current_range_meters":36400,"station_id":"ce4bhi12rcd13ifvqfo0","pricing_plan_id":"cebpf4jnsgd1na2vs0mg"},{"bike_id":"572f0254-11cf-4ef2-b3f9-66737ed8298a","system_id":"levelo_inurba_marseille","lat":43.2843,"lon":5.34993,"is_reserved":false,"is_disabled":true,"rental_uris":{"android":"levelo://app?vid=572f0254-11cf-4ef2-b3f9-66737ed8298a","ios":"levelo://app?vid=572f0254-11cf-4ef2-b3f9-66737ed8298a"},"vehicle_type_id":"4","last_reported":1736601166,"current_range_meters":0,"station_id":"ce4bhbh2rcd13ifvqepg","pricing_plan_id":"cebpf4jnsgd1na2vs0mg"},{"bike_id":"5bdd2038-029f-4df4-bc54-4e134e223773","system_id":"levelo_inurba_marseille","lat":43.27684,"lon":5.38896,"is_reserved":false,"is_disabled":false,"rental_uris":{"android":"levelo://app?vid=5bdd2038-029f-4df4-bc54-4e134e223773","ios":"levelo://app?vid=5bdd2038-029f-4df4-bc54-4e134e223773"},"vehicle_type_id":"4","last_reported":1736601166,"current_range_meters":5600,"station_id":"ce4bhi12rcd13ifvqfo0","pricing_plan_id":"cebpf4jnsgd1na2vs0mg"},{"bike_id":"d2a3646f-410b-4c71-b1c9-6faf46be44c7","system_id":"levelo_inurba_marseille","lat":43.29545,"lon":5.42292,"is_reserved":false,"is_disabled":false,"rental_uris":{"android":"levelo://app?vid=d2a3646f-410b-4c71-b1c9-6faf46be44c7","ios":"levelo://app?vid=d2a3646f-410b-4c71-b1c9-6faf46be44c7"},"vehicle_type_id":"4","last_reported":1736601166,"current_range_meters":39200,"station_id":"ce4bhph2rcd13ifvqhdg","pricing_plan_id":"cebpf4jnsgd1na2vs0mg"},{"bike_id":"517842b4-006c-4e7f-8540-9a333914c9eb","system_id":"levelo_inurba_marseille","lat":43.28005,"lon":5.39985,"is_reserved":false,"is_disabled":false,"rental_uris":{"android":"levelo://app?vid=517842b4-006c-4e7f-8540-9a333914c9eb","ios":"levelo://app?vid=517842b4-006c-4e7f-8540-9a333914c9eb"},"vehicle_type_id":"4","last_reported":1736601166,"current_range_meters":16800,"station_id":"ce4bho92rcd13ifvqh4g","pricing_plan_id":"cebpf4jnsgd1na2vs0mg"},{"bike_id":"cd98288c-6ca0-48e3-a655-eb48b6b18cba","system_id":"levelo_inurba_marseille","lat":43.27672,"lon":5.38883,"is_reserved":false,"is_disabled":false,"rental_uris":{"android":"levelo://app?vid=cd98288c-6ca0-48e3-a655-eb48b6b18cba","ios":"levelo://app?vid=cd98288c-6ca0-48e3-a655-eb48b6b18cba"},"vehicle_type_id":"4","last_reported":1736601166,"current_range_meters":38800,"station_id":"ce4bhi12rcd13ifvqfo0","pricing_plan_id":"cebpf4jnsgd1na2vs0mg"},{"bike_id":"87b2a9d6-51a0-4005-9bed-2205b6aeb2b1","system_id":"levelo_inurba_marseille","lat":43.2407,"lon":5.37764,"is_reserved":false,"is_disabled":false,"rental_uris":{"android":"levelo://app?vid=87b2a9d6-51a0-4005-9bed-2205b6aeb2b1","ios":"levelo://app?vid=87b2a9d6-51a0-4005-9bed-2205b6aeb2b1"},"vehicle_type_id":"4","last_reported":1736601166,"current_range_meters":38000,"station_id":"ce4bhnp2rcd13ifvqgvg","pricing_plan_id":"cebpf4jnsgd1na2vs0mg"},{"bike_id":"bc624fca-1286-42f8-b873-f9e63f2ded01","system_id":"levelo_inurba_marseille","lat":43.30955,"lon":5.39045,"is_reserved":false,"is_disabled":false,"rental_uris":{"android":"levelo://app?vid=bc624fca-1286-42f8-b873-f9e63f2ded01","ios":"levelo://app?vid=bc624fca-1286-42f8-b873-f9e63f2ded01"},"vehicle_type_id":"4","last_reported":1736601166,"current_range_meters":19600,"station_id":"ce4bgup2rcd13ifvqco0","pricing_plan_id":"cebpf4jnsgd1na2vs0mg"},{"bike_id":"65e8b99d-cb00-44f8-a57f-7740743f51e0","system_id":"levelo_inurba_marseille","lat":43.25007,"lon":5.38911,"is_reserved":false,"is_disabled":true,"rental_uris":{"android":"levelo://app?vid=65e8b99d-cb00-44f8-a57f-7740743f51e0","ios":"levelo://app?vid=65e8b99d-cb00-44f8-a57f-7740743f51e0"},"vehicle_type_id":"4","last_reported":1736601166,"current_range_meters":32400,"station_id":"ce4bhgp2rcd13ifvqfd0","pricing_plan_id":"cebpf4jnsgd1na2vs0mg"},{"bike_id":"e7bed24c-76b8-4bfe-8ea5-51efa81df6c2","system_id":"levelo_inurba_marseille","lat":43.27497,"lon":5.42458,"is_reserved":false,"is_disabled":true,"rental_uris":{"android":"levelo://app?vid=e7bed24c-76b8-4bfe-8ea5-51efa81df6c2","ios":"levelo://app?vid=e7bed24c-76b8-4bfe-8ea5-51efa81df6c2"},"vehicle_type_id":"4","last_reported":1736601166,"current_range_meters":0,"station_id":"ce4bhn92rcd13ifvqgrg","pricing_plan_id":"cebpf4jnsgd1na2vs0mg"},{"bike_id":"a4de5071-dd1c-452c-a877-311a543c6eda","system_id":"levelo_inurba_marseille","lat":43.23135,"lon":5.43737,"is_reserved":false,"is_disabled":false,"rental_uris":{"android":"levelo://app?vid=a4de5071-dd1c-452c-a877-311a543c6eda","ios":"levelo://app?vid=a4de5071-dd1c-452c-a877-311a543c6eda"},"vehicle_type_id":"4","last_reported":1736601166,"current_range_meters":39200,"station_id":"ce4bhmp2rcd13ifvqgog","pricing_plan_id":"cebpf4jnsgd1na2vs0mg"},{"bike_id":"3132dd0f-cafc-4358-bd37-10821da5ef8e","system_id":"levelo_inurba_marseille","lat":43.27884,"lon":5.381632,"is_reserved":false,"is_disabled":false,"rental_uris":{"android":"levelo://app?vid=3132dd0f-cafc-4358-bd37-10821da5ef8e","ios":"levelo://app?vid=3132dd0f-cafc-4358-bd37-10821da5ef8e"},"vehicle_type_id":"4","last_reported":1736601166,"current_range_meters":24800,"station_id":"ce4bhih2rcd13ifvqfs0","pricing_plan_id":"cebpf4jnsgd1na2vs0mg"},{"bike_id":"4d0fce21-800c-42f9-847f-9baafc74bda7","system_id":"levelo_inurba_marseille","lat":43.27482,"lon":5.39496,"is_reserved":false,"is_disabled":false,"rental_uris":{"android":"levelo://app?vid=4d0fce21-800c-42f9-847f-9baafc74bda7","ios":"levelo://app?vid=4d0fce21-800c-42f9-847f-9baafc74bda7"},"vehicle_type_id":"4","last_reported":1736601166,"current_range_meters":34800,"station_id":"ce4bhdp2rcd13ifvqf20","pricing_plan_id":"cebpf4jnsgd1na2vs0mg"},{"bike_id":"b704bf42-2bc7-4506-b669-8ca7a3330fef","system_id":"levelo_inurba_marseille","lat":43.28151,"lon":5.42637,"is_reserved":false,"is_disabled":true,"rental_uris":{"android":"levelo://app?vid=b704bf42-2bc7-4506-b669-8ca7a3330fef","ios":"levelo://app?vid=b704bf42-2bc7-4506-b669-8ca7a3330fef"},"vehicle_type_id":"4","last_reported":1736601166,"current_range_meters":32400,"station_id":"ce4bhnh2rcd13ifvqgug","pricing_plan_id":"cebpf4jnsgd1na2vs0mg"},{"bike_id":"68f135fc-4bd4-4724-b03e-262958a6d5dd","system_id":"levelo_inurba_marseille","lat":43.33771,"lon":5.37435,"is_reserved":false,"is_disabled":false,"rental_uris":{"android":"levelo://app?vid=68f135fc-4bd4-4724-b03e-262958a6d5dd","ios":"levelo://app?vid=68f135fc-4bd4-4724-b03e-262958a6d5dd"},"vehicle_type_id":"4","last_reported":1736601166,"current_range_meters":38400,"station_id":"","pricing_plan_id":"cebpf4jnsgd1na2vs0mg"},{"bike_id":"0e5cdb80-4434-4e90-aaf0-0fa5d0f7917d","system_id":"levelo_inurba_marseille","lat":43.30953,"lon":5.39048,"is_reserved":false,"is_disabled":false,"rental_uris":{"android":"levelo://app?vid=0e5cdb80-4434-4e90-aaf0-0fa5d0f7917d","ios":"levelo://app?vid=0e5cdb80-4434-4e90-aaf0-0fa5d0f7917d"},"vehicle_type_id":"4","last_reported":1736601166,"current_range_meters":36800,"station_id":"ce4bgup2rcd13ifvqco0","pricing_plan_id":"cebpf4jnsgd1na2vs0mg"},{"bike_id":"67caf605-55d2-4e59-946a-31f299637273","system_id":"levelo_inurba_marseille","lat":43.29196,"lon":5.35812,"is_reserved":false,"is_disabled":false,"rental_uris":{"android":"levelo://app?vid=67caf605-55d2-4e59-946a-31f299637273","ios":"levelo://app?vid=67caf605-55d2-4e59-946a-31f299637273"},"vehicle_type_id":"4","last_reported":1736601166,"current_range_meters":4800,"station_id":"ce4bhb12rcd13ifvqel0","pricing_plan_id":"cebpf4jnsgd1na2vs0mg"},{"bike_id":"16a686d8-5f08-4b2e-994d-4f394baa716e","system_id":"levelo_inurba_marseille","lat":43.24665,"lon":5.38165,"is_reserved":false,"is_disabled":false,"rental_uris":{"android":"levelo://app?vid=16a686d8-5f08-4b2e-994d-4f394baa716e","ios":"levelo://app?vid=16a686d8-5f08-4b2e-994d-4f394baa716e"},"vehicle_type_id":"4","last_reported":1736601166,"current_range_meters":7200,"station_id":"ce4bhih2rcd13ifvqfr0","pricing_plan_id":"cebpf4jnsgd1na2vs0mg"},{"bike_id":"f62a7ed4-7c80-4ed8-9568-a4dea62069d1","system_id":"levelo_inurba_marseille","lat":43.280848,"lon":5.396675,"is_reserved":false,"is_disabled":true,"rental_uris":{"android":"levelo://app?vid=f62a7ed4-7c80-4ed8-9568-a4dea62069d1","ios":"levelo://app?vid=f62a7ed4-7c80-4ed8-9568-a4dea62069d1"},"vehicle_type_id":"4","last_reported":1736601166,"current_range_meters":37600,"station_id":"ce4bho12rcd13ifvqh2g","pricing_plan_id":"cebpf4jnsgd1na2vs0mg"},{"bike_id":"e2744ec8-2f1a-4025-9ec0-6a07f5db3fc4","system_id":"levelo_inurba_marseille","lat":43.25524,"lon":5.37678,"is_reserved":false,"is_disabled":false,"rental_uris":{"android":"levelo://app?vid=e2744ec8-2f1a-4025-9ec0-6a07f5db3fc4","ios":"levelo://app?vid=e2744ec8-2f1a-4025-9ec0-6a07f5db3fc4"},"vehicle_type_id":"4","last_reported":1736601166,"current_range_meters":38800,"station_id":"ce4bhh12rcd13ifvqff0","pricing_plan_id":"cebpf4jnsgd1na2vs0mg"},{"bike_id":"2d1e6a2c-89e1-48db-afbf-33df9fa379f3","system_id":"levelo_inurba_marseille","lat":43.30537,"lon":5.36709,"is_reserved":false,"is_disabled":false,"rental_uris":{"android":"levelo://app?vid=2d1e6a2c-89e1-48db-afbf-33df9fa379f3","ios":"levelo://app?vid=2d1e6a2c-89e1-48db-afbf-33df9fa379f3"},"vehicle_type_id":"4","last_reported":1736601166,"current_range_meters":24800,"station_id":"ce4bgrp2rcd13ifvqc9g","pricing_plan_id":"cebpf4jnsgd1na2vs0mg"},{"bike_id":"9c413fb1-8955-4528-ba15-78d41b7bda61","system_id":"levelo_inurba_marseille","lat":43.28729,"lon":5.36098,"is_reserved":false,"is_disabled":false,"rental_uris":{"android":"levelo://app?vid=9c413fb1-8955-4528-ba15-78d41b7bda61","ios":"levelo://app?vid=9c413fb1-8955-4528-ba15-78d41b7bda61"},"vehicle_type_id":"4","last_reported":1736601166,"current_range_meters":38800,"station_id":"cki0cbj6b192h4jlfktg","pricing_plan_id":"cebpf4jnsgd1na2vs0mg"},{"bike_id":"ffa3e8f5-88e7-42ba-98c6-ca2ff49d071b","system_id":"levelo_inurba_marseille","lat":43.28266,"lon":5.35075,"is_reserved":false,"is_disabled":false,"rental_uris":{"android":"levelo://app?vid=ffa3e8f5-88e7-42ba-98c6-ca2ff49d071b","ios":"levelo://app?vid=ffa3e8f5-88e7-42ba-98c6-ca2ff49d071b"},"vehicle_type_id":"4","last_reported":1736601166,"current_range_meters":26800,"station_id":"ce4bhbp2rcd13ifvqerg","pricing_plan_id":"cebpf4jnsgd1na2vs0mg"},{"bike_id":"bdac97bf-fd5a-4c58-8114-971312ad7b7a","system_id":"levelo_inurba_marseille","lat":43.28477,"lon":5.38428,"is_reserved":false,"is_disabled":false,"rental_uris":{"android":"levelo://app?vid=bdac97bf-fd5a-4c58-8114-971312ad7b7a","ios":"levelo://app?vid=bdac97bf-fd5a-4c58-8114-971312ad7b7a"},"vehicle_type_id":"4","last_reported":1736601166,"current_range_meters":24000,"station_id":"ce4bh512rcd13ifvqe3g","pricing_plan_id":"cebpf4jnsgd1na2vs0mg"},{"bike_id":"c0089609-49bf-4e42-87b8-c13e48858e79","system_id":"levelo_inurba_marseille","lat":43.28071,"lon":5.39655,"is_reserved":false,"is_disabled":false,"rental_uris":{"android":"levelo://app?vid=c0089609-49bf-4e42-87b8-c13e48858e79","ios":"levelo://app?vid=c0089609-49bf-4e42-87b8-c13e48858e79"},"vehicle_type_id":"4","last_reported":1736601166,"current_range_meters":32800,"station_id":"ce4bho12rcd13ifvqh2g","pricing_plan_id":"cebpf4jnsgd1na2vs0mg"},{"bike_id":"31240ca4-9f64-4406-9c52-14b4354e548c","system_id":"levelo_inurba_marseille","lat":43.28622,"lon":5.351,"is_reserved":false,"is_disabled":false,"rental_uris":{"android":"levelo://app?vid=31240ca4-9f64-4406-9c52-14b4354e548c","ios":"levelo://app?vid=31240ca4-9f64-4406-9c52-14b4354e548c"},"vehicle_type_id":"4","last_reported":1736601166,"current_range_meters":9600,"station_id":"ce4bhch2rcd13ifvqeug","pricing_plan_id":"cebpf4jnsgd1na2vs0mg"},{"bike_id":"64edbaa4-d5cf-4445-adf0-7dd38967e62a","system_id":"levelo_inurba_marseille","lat":43.27907,"lon":5.38026,"is_reserved":false,"is_disabled":false,"rental_uris":{"android":"levelo://app?vid=64edbaa4-d5cf-4445-adf0-7dd38967e62a","ios":"levelo://app?vid=64edbaa4-d5cf-4445-adf0-7dd38967e62a"},"vehicle_type_id":"4","last_reported":1736601166,"current_range_meters":21600,"station_id":"ce4bhf92rcd13ifvqf50","pricing_plan_id":"cebpf4jnsgd1na2vs0mg"},{"bike_id":"e852a9e7-a797-4614-b49f-5b0fd280197a","system_id":"levelo_inurba_marseille","lat":43.32503,"lon":5.38296,"is_reserved":false,"is_disabled":false,"rental_uris":{"android":"levelo://app?vid=e852a9e7-a797-4614-b49f-5b0fd280197a","ios":"levelo://app?vid=e852a9e7-a797-4614-b49f-5b0fd280197a"},"vehicle_type_id":"4","last_reported":1736601166,"current_range_meters":38000,"station_id":"","pricing_plan_id":"cebpf4jnsgd1na2vs0mg"},{"bike_id":"a5e0dc49-0174-4a8e-b087-e337f53d81df","system_id":"levelo_inurba_marseille","lat":43.23187,"lon":5.39985,"is_reserved":false,"is_disabled":true,"rental_uris":{"android":"levelo://app?vid=a5e0dc49-0174-4a8e-b087-e337f53d81df","ios":"levelo://app?vid=a5e0dc49-0174-4a8e-b087-e337f53d81df"},"vehicle_type_id":"4","last_reported":1736601166,"current_range_meters":400,"station_id":"ce4bhn12rcd13ifvqgqg","pricing_plan_id":"cebpf4jnsgd1na2vs0mg"},{"bike_id":"4e0ef48f-522a-48e2-be76-c8bb9b7fe6c7","system_id":"levelo_inurba_marseille","lat":43.30309,"lon":5.36895,"is_reserved":false,"is_disabled":false,"rental_uris":{"android":"levelo://app?vid=4e0ef48f-522a-48e2-be76-c8bb9b7fe6c7","ios":"levelo://app?vid=4e0ef48f-522a-48e2-be76-c8bb9b7fe6c7"},"vehicle_type_id":"4","last_reported":1736601166,"current_range_meters":38800,"station_id":"ce4bgqh2rcd13ifvqc5g","pricing_plan_id":"cebpf4jnsgd1na2vs0mg"},{"bike_id":"1e2223a2-c032-49e7-8dbf-982df86a0520","system_id":"levelo_inurba_marseille","lat":43.22938,"lon":5.35384,"is_reserved":false,"is_disabled":false,"rental_uris":{"android":"levelo://app?vid=1e2223a2-c032-49e7-8dbf-982df86a0520","ios":"levelo://app?vid=1e2223a2-c032-49e7-8dbf-982df86a0520"},"vehicle_type_id":"4","last_reported":1736601166,"current_range_meters":28400,"station_id":"cpo3532slgdg3j2ikp40","pricing_plan_id":"cebpf4jnsgd1na2vs0mg"},{"bike_id":"5b25f68e-6a89-4589-a9a1-567c1c49d1e3","system_id":"levelo_inurba_marseille","lat":43.29173,"lon":5.37153,"is_reserved":false,"is_disabled":false,"rental_uris":{"android":"levelo://app?vid=5b25f68e-6a89-4589-a9a1-567c1c49d1e3","ios":"levelo://app?vid=5b25f68e-6a89-4589-a9a1-567c1c49d1e3"},"vehicle_type_id":"4","last_reported":1736601166,"current_range_meters":38800,"station_id":"ce4bha92rcd13ifvqeh0","pricing_plan_id":"cebpf4jnsgd1na2vs0mg"},{"bike_id":"540fad5b-d975-43cc-b386-6dd08caf613c","system_id":"levelo_inurba_marseille","lat":43.24072,"lon":5.37761,"is_reserved":false,"is_disabled":true,"rental_uris":{"android":"levelo://app?vid=540fad5b-d975-43cc-b386-6dd08caf613c","ios":"levelo://app?vid=540fad5b-d975-43cc-b386-6dd08caf613c"},"vehicle_type_id":"4","last_reported":1736601166,"current_range_meters":400,"station_id":"ce4bhnp2rcd13ifvqgvg","pricing_plan_id":"cebpf4jnsgd1na2vs0mg"},{"bike_id":"5f2cf356-122a-4d24-85ba-e38bc4612223","system_id":"levelo_inurba_marseille","lat":43.25581,"lon":5.38233,"is_reserved":false,"is_disabled":true,"rental_uris":{"android":"levelo://app?vid=5f2cf356-122a-4d24-85ba-e38bc4612223","ios":"levelo://app?vid=5f2cf356-122a-4d24-85ba-e38bc4612223"},"vehicle_type_id":"4","last_reported":1736601166,"current_range_meters":33200,"station_id":"ce4bhih2rcd13ifvqfs0","pricing_plan_id":"cebpf4jnsgd1na2vs0mg"},{"bike_id":"be8a233f-ad85-41b2-af03-bfa1e3033438","system_id":"levelo_inurba_marseille","lat":43.23198,"lon":5.35552,"is_reserved":false,"is_disabled":false,"rental_uris":{"android":"levelo://app?vid=be8a233f-ad85-41b2-af03-bfa1e3033438","ios":"levelo://app?vid=be8a233f-ad85-41b2-af03-bfa1e3033438"},"vehicle_type_id":"4","last_reported":1736601166,"current_range_meters":19200,"station_id":"ce4bhu92rcd13ifvqi70","pricing_plan_id":"cebpf4jnsgd1na2vs0mg"},{"bike_id":"d7284d59-0fa0-4e55-88c3-9102035d8a99","system_id":"levelo_inurba_marseille","lat":43.30226,"lon":5.40021,"is_reserved":false,"is_disabled":true,"rental_uris":{"android":"levelo://app?vid=d7284d59-0fa0-4e55-88c3-9102035d8a99","ios":"levelo://app?vid=d7284d59-0fa0-4e55-88c3-9102035d8a99"},"vehicle_type_id":"4","last_reported":1736601166,"current_range_meters":38800,"station_id":"","pricing_plan_id":"cebpf4jnsgd1na2vs0mg"},{"bike_id":"38944aa2-8166-438d-bb3a-cc9e8cbdaaec","system_id":"levelo_inurba_marseille","lat":43.27815,"lon":5.40716,"is_reserved":false,"is_disabled":false,"rental_uris":{"android":"levelo://app?vid=38944aa2-8166-438d-bb3a-cc9e8cbdaaec","ios":"levelo://app?vid=38944aa2-8166-438d-bb3a-cc9e8cbdaaec"},"vehicle_type_id":"4","last_reported":1736601166,"current_range_meters":24800,"station_id":"ce4bhnh2rcd13ifvqgtg","pricing_plan_id":"cebpf4jnsgd1na2vs0mg"},{"bike_id":"8242826e-ab20-43ea-95c1-e76b426a119e","system_id":"levelo_inurba_marseille","lat":43.33719,"lon":5.37436,"is_reserved":false,"is_disabled":false,"rental_uris":{"android":"levelo://app?vid=8242826e-ab20-43ea-95c1-e76b426a119e","ios":"levelo://app?vid=8242826e-ab20-43ea-95c1-e76b426a119e"},"vehicle_type_id":"4","last_reported":1736601166,"current_range_meters":36800,"station_id":"","pricing_plan_id":"cebpf4jnsgd1na2vs0mg"},{"bike_id":"57f5a8a9-f2e5-4673-966d-ca04b8d8c8e6","system_id":"levelo_inurba_marseille","lat":43.31101,"lon":5.37771,"is_reserved":false,"is_disabled":true,"rental_uris":{"android":"levelo://app?vid=57f5a8a9-f2e5-4673-966d-ca04b8d8c8e6","ios":"levelo://app?vid=57f5a8a9-f2e5-4673-966d-ca04b8d8c8e6"},"vehicle_type_id":"4","last_reported":1736601166,"current_range_meters":6800,"station_id":"ce4bgt92rcd13ifvqcg0","pricing_plan_id":"cebpf4jnsgd1na2vs0mg"},{"bike_id":"85427a88-99f5-4856-b496-8ef79c1ec2f5","system_id":"levelo_inurba_marseille","lat":43.24673,"lon":5.38172,"is_reserved":false,"is_disabled":false,"rental_uris":{"android":"levelo://app?vid=85427a88-99f5-4856-b496-8ef79c1ec2f5","ios":"levelo://app?vid=85427a88-99f5-4856-b496-8ef79c1ec2f5"},"vehicle_type_id":"4","last_reported":1736601166,"current_range_meters":34000,"station_id":"ce4bhih2rcd13ifvqfr0","pricing_plan_id":"cebpf4jnsgd1na2vs0mg"},{"bike_id":"b9187d71-fe07-45bd-b2ae-49577031a026","system_id":"levelo_inurba_marseille","lat":43.29004,"lon":5.3561,"is_reserved":false,"is_disabled":false,"rental_uris":{"android":"levelo://app?vid=b9187d71-fe07-45bd-b2ae-49577031a026","ios":"levelo://app?vid=b9187d71-fe07-45bd-b2ae-49577031a026"},"vehicle_type_id":"4","last_reported":1736601166,"current_range_meters":16000,"station_id":"ce4bhb92rcd13ifvqen0","pricing_plan_id":"cebpf4jnsgd1na2vs0mg"},{"bike_id":"c16776c7-a6fa-441e-93e5-442c798bb533","system_id":"levelo_inurba_marseille","lat":43.2926,"lon":5.4012,"is_reserved":false,"is_disabled":false,"rental_uris":{"android":"levelo://app?vid=c16776c7-a6fa-441e-93e5-442c798bb533","ios":"levelo://app?vid=c16776c7-a6fa-441e-93e5-442c798bb533"},"vehicle_type_id":"4","last_reported":1736601166,"current_range_meters":38800,"station_id":"ce4bh312rcd13ifvqdk0","pricing_plan_id":"cebpf4jnsgd1na2vs0mg"},{"bike_id":"2ebbe722-1578-4260-86ec-9d078af85fb5","system_id":"levelo_inurba_marseille","lat":43.27074,"lon":5.42278,"is_reserved":false,"is_disabled":false,"rental_uris":{"android":"levelo://app?vid=2ebbe722-1578-4260-86ec-9d078af85fb5","ios":"levelo://app?vid=2ebbe722-1578-4260-86ec-9d078af85fb5"},"vehicle_type_id":"4","last_reported":1736601166,"current_range_meters":19600,"station_id":"ce4bhk92rcd13ifvqgb0","pricing_plan_id":"cebpf4jnsgd1na2vs0mg"},{"bike_id":"91291e8f-d824-472a-8638-bad6f379f32e","system_id":"levelo_inurba_marseille","lat":43.3049,"lon":5.38099,"is_reserved":false,"is_disabled":false,"rental_uris":{"android":"levelo://app?vid=91291e8f-d824-472a-8638-bad6f379f32e","ios":"levelo://app?vid=91291e8f-d824-472a-8638-bad6f379f32e"},"vehicle_type_id":"4","last_reported":1736601166,"current_range_meters":34000,"station_id":"","pricing_plan_id":"cebpf4jnsgd1na2vs0mg"},{"bike_id":"485fdec8-2aed-40f2-9793-3fe38757820e","system_id":"levelo_inurba_marseille","lat":43.2904,"lon":5.37589,"is_reserved":false,"is_disabled":false,"rental_uris":{"android":"levelo://app?vid=485fdec8-2aed-40f2-9793-3fe38757820e","ios":"levelo://app?vid=485fdec8-2aed-40f2-9793-3fe38757820e"},"vehicle_type_id":"4","last_reported":1736601166,"current_range_meters":22000,"station_id":"ce4bh692rcd13ifvqe90","pricing_plan_id":"cebpf4jnsgd1na2vs0mg"},{"bike_id":"6f8d5613-68e8-453b-9903-0b6c2da05e2d","system_id":"levelo_inurba_marseille","lat":43.2417,"lon":5.36395,"is_reserved":false,"is_disabled":false,"rental_uris":{"android":"levelo://app?vid=6f8d5613-68e8-453b-9903-0b6c2da05e2d","ios":"levelo://app?vid=6f8d5613-68e8-453b-9903-0b6c2da05e2d"},"vehicle_type_id":"4","last_reported":1736601166,"current_range_meters":7200,"station_id":"cpo36qri1sfpv3e86is0","pricing_plan_id":"cebpf4jnsgd1na2vs0mg"},{"bike_id":"7f87f4d1-7163-4672-b749-6f67bc6cccfd","system_id":"levelo_inurba_marseille","lat":43.29702,"lon":5.3658,"is_reserved":false,"is_disabled":false,"rental_uris":{"android":"levelo://app?vid=7f87f4d1-7163-4672-b749-6f67bc6cccfd","ios":"levelo://app?vid=7f87f4d1-7163-4672-b749-6f67bc6cccfd"},"vehicle_type_id":"4","last_reported":1736601166,"current_range_meters":8400,"station_id":"ce4bgn12rcd13ifvqbt0","pricing_plan_id":"cebpf4jnsgd1na2vs0mg"},{"bike_id":"682cd5fd-b988-4d00-8a4d-ff0b261ebbaa","system_id":"levelo_inurba_marseille","lat":43.27175,"lon":5.40996,"is_reserved":false,"is_disabled":false,"rental_uris":{"android":"levelo://app?vid=682cd5fd-b988-4d00-8a4d-ff0b261ebbaa","ios":"levelo://app?vid=682cd5fd-b988-4d00-8a4d-ff0b261ebbaa"},"vehicle_type_id":"4","last_reported":1736601166,"current_range_meters":22800,"station_id":"ce4bhl12rcd13ifvqgf0","pricing_plan_id":"cebpf4jnsgd1na2vs0mg"},{"bike_id":"ddbb6c22-ce6c-4a2b-9053-6349e4af3c9a","system_id":"levelo_inurba_marseille","lat":43.25847,"lon":5.39909,"is_reserved":false,"is_disabled":false,"rental_uris":{"android":"levelo://app?vid=ddbb6c22-ce6c-4a2b-9053-6349e4af3c9a","ios":"levelo://app?vid=ddbb6c22-ce6c-4a2b-9053-6349e4af3c9a"},"vehicle_type_id":"4","last_reported":1736601166,"current_range_meters":37600,"station_id":"ce4bhl92rcd13ifvqghg","pricing_plan_id":"cebpf4jnsgd1na2vs0mg"},{"bike_id":"17a8896e-9a1b-48ed-9a17-244bc88bdbd9","system_id":"levelo_inurba_marseille","lat":43.30943,"lon":5.3905,"is_reserved":false,"is_disabled":false,"rental_uris":{"android":"levelo://app?vid=17a8896e-9a1b-48ed-9a17-244bc88bdbd9","ios":"levelo://app?vid=17a8896e-9a1b-48ed-9a17-244bc88bdbd9"},"vehicle_type_id":"4","last_reported":1736601166,"current_range_meters":27600,"station_id":"ce4bgup2rcd13ifvqco0","pricing_plan_id":"cebpf4jnsgd1na2vs0mg"},{"bike_id":"b52cf5d7-d0ff-45b3-ac5b-ffe5c33591d4","system_id":"levelo_inurba_marseille","lat":43.23062,"lon":5.35502,"is_reserved":false,"is_disabled":false,"rental_uris":{"android":"levelo://app?vid=b52cf5d7-d0ff-45b3-ac5b-ffe5c33591d4","ios":"levelo://app?vid=b52cf5d7-d0ff-45b3-ac5b-ffe5c33591d4"},"vehicle_type_id":"4","last_reported":1736601166,"current_range_meters":3600,"station_id":"cpo3342slgdg3j2ifvpg","pricing_plan_id":"cebpf4jnsgd1na2vs0mg"},{"bike_id":"8b88170d-e695-4530-8583-a66b3ec41a93","system_id":"levelo_inurba_marseille","lat":43.336113,"lon":5.410363,"is_reserved":false,"is_disabled":true,"rental_uris":{"android":"levelo://app?vid=8b88170d-e695-4530-8583-a66b3ec41a93","ios":"levelo://app?vid=8b88170d-e695-4530-8583-a66b3ec41a93"},"vehicle_type_id":"4","last_reported":1736601166,"current_range_meters":11600,"station_id":"ce4bhqh2rcd13ifvqhmg","pricing_plan_id":"cebpf4jnsgd1na2vs0mg"},{"bike_id":"b8acbba0-a715-4ced-a2aa-0517db10ac9d","system_id":"levelo_inurba_marseille","lat":43.22933,"lon":5.35383,"is_reserved":false,"is_disabled":true,"rental_uris":{"android":"levelo://app?vid=b8acbba0-a715-4ced-a2aa-0517db10ac9d","ios":"levelo://app?vid=b8acbba0-a715-4ced-a2aa-0517db10ac9d"},"vehicle_type_id":"4","last_reported":1736601166,"current_range_meters":36400,"station_id":"cpo3532slgdg3j2ikp40","pricing_plan_id":"cebpf4jnsgd1na2vs0mg"},{"bike_id":"f7a5e165-5043-4ba0-b06c-270f257dffbd","system_id":"levelo_inurba_marseille","lat":43.27298,"lon":5.39103,"is_reserved":false,"is_disabled":false,"rental_uris":{"android":"levelo://app?vid=f7a5e165-5043-4ba0-b06c-270f257dffbd","ios":"levelo://app?vid=f7a5e165-5043-4ba0-b06c-270f257dffbd"},"vehicle_type_id":"4","last_reported":1736601166,"current_range_meters":39200,"station_id":"ce4bhgp2rcd13ifvqfe0","pricing_plan_id":"cebpf4jnsgd1na2vs0mg"},{"bike_id":"10805d30-f651-42fc-83dc-af6ada96f984","system_id":"levelo_inurba_marseille","lat":43.23196,"lon":5.39984,"is_reserved":false,"is_disabled":false,"rental_uris":{"android":"levelo://app?vid=10805d30-f651-42fc-83dc-af6ada96f984","ios":"levelo://app?vid=10805d30-f651-42fc-83dc-af6ada96f984"},"vehicle_type_id":"4","last_reported":1736601166,"current_range_meters":39200,"station_id":"ce4bhn12rcd13ifvqgqg","pricing_plan_id":"cebpf4jnsgd1na2vs0mg"},{"bike_id":"100a4f23-ec2b-4825-8f0c-65e84ef19fc7","system_id":"levelo_inurba_marseille","lat":43.33003,"lon":5.39025,"is_reserved":false,"is_disabled":false,"rental_uris":{"android":"levelo://app?vid=100a4f23-ec2b-4825-8f0c-65e84ef19fc7","ios":"levelo://app?vid=100a4f23-ec2b-4825-8f0c-65e84ef19fc7"},"vehicle_type_id":"4","last_reported":1736601166,"current_range_meters":17200,"station_id":"ce4bhr92rcd13ifvqhrg","pricing_plan_id":"cebpf4jnsgd1na2vs0mg"},{"bike_id":"a629db01-3382-4ad3-9e7a-94c3ab64ac1e","system_id":"levelo_inurba_marseille","lat":43.29956,"lon":5.41318,"is_reserved":false,"is_disabled":false,"rental_uris":{"android":"levelo://app?vid=a629db01-3382-4ad3-9e7a-94c3ab64ac1e","ios":"levelo://app?vid=a629db01-3382-4ad3-9e7a-94c3ab64ac1e"},"vehicle_type_id":"4","last_reported":1736601166,"current_range_meters":19200,"station_id":"ce4bhp12rcd13ifvqh9g","pricing_plan_id":"cebpf4jnsgd1na2vs0mg"},{"bike_id":"9836eca7-dfbc-4c75-8a0c-93fe9c78de9e","system_id":"levelo_inurba_marseille","lat":43.33719,"lon":5.39196,"is_reserved":false,"is_disabled":false,"rental_uris":{"android":"levelo://app?vid=9836eca7-dfbc-4c75-8a0c-93fe9c78de9e","ios":"levelo://app?vid=9836eca7-dfbc-4c75-8a0c-93fe9c78de9e"},"vehicle_type_id":"4","last_reported":1736601166,"current_range_meters":23200,"station_id":"ce4bhr92rcd13ifvqhsg","pricing_plan_id":"cebpf4jnsgd1na2vs0mg"},{"bike_id":"48d6e8f6-9337-4202-a2d3-7ee3009e1916","system_id":"levelo_inurba_marseille","lat":43.29628,"lon":5.40597,"is_reserved":false,"is_disabled":false,"rental_uris":{"android":"levelo://app?vid=48d6e8f6-9337-4202-a2d3-7ee3009e1916","ios":"levelo://app?vid=48d6e8f6-9337-4202-a2d3-7ee3009e1916"},"vehicle_type_id":"4","last_reported":1736601166,"current_range_meters":4800,"station_id":"ce4bh0h2rcd13ifvqd60","pricing_plan_id":"cebpf4jnsgd1na2vs0mg"},{"bike_id":"9273e0d3-e036-4dab-901c-7570e2557655","system_id":"levelo_inurba_marseille","lat":43.3094,"lon":5.39027,"is_reserved":false,"is_disabled":false,"rental_uris":{"android":"levelo://app?vid=9273e0d3-e036-4dab-901c-7570e2557655","ios":"levelo://app?vid=9273e0d3-e036-4dab-901c-7570e2557655"},"vehicle_type_id":"4","last_reported":1736601166,"current_range_meters":37600,"station_id":"ce4bgup2rcd13ifvqco0","pricing_plan_id":"cebpf4jnsgd1na2vs0mg"},{"bike_id":"60bead8e-89cf-478c-b055-b7e4858ff279","system_id":"levelo_inurba_marseille","lat":43.26203,"lon":5.37915,"is_reserved":false,"is_disabled":false,"rental_uris":{"android":"levelo://app?vid=60bead8e-89cf-478c-b055-b7e4858ff279","ios":"levelo://app?vid=60bead8e-89cf-478c-b055-b7e4858ff279"},"vehicle_type_id":"4","last_reported":1736601166,"current_range_meters":24800,"station_id":"ce4bhjp2rcd13ifvqg90","pricing_plan_id":"cebpf4jnsgd1na2vs0mg"},{"bike_id":"377730c6-0336-4c78-9c46-cdee41ff19a9","system_id":"levelo_inurba_marseille","lat":43.28075,"lon":5.41185,"is_reserved":false,"is_disabled":true,"rental_uris":{"android":"levelo://app?vid=377730c6-0336-4c78-9c46-cdee41ff19a9","ios":"levelo://app?vid=377730c6-0336-4c78-9c46-cdee41ff19a9"},"vehicle_type_id":"4","last_reported":1736601166,"current_range_meters":1200,"station_id":"","pricing_plan_id":"cebpf4jnsgd1na2vs0mg"},{"bike_id":"2675047a-b299-466d-9e09-5b500242f203","system_id":"levelo_inurba_marseille","lat":43.30349,"lon":5.41874,"is_reserved":false,"is_disabled":false,"rental_uris":{"android":"levelo://app?vid=2675047a-b299-466d-9e09-5b500242f203","ios":"levelo://app?vid=2675047a-b299-466d-9e09-5b500242f203"},"vehicle_type_id":"4","last_reported":1736601166,"current_range_meters":38000,"station_id":"ce4bhop2rcd13ifvqh7g","pricing_plan_id":"cebpf4jnsgd1na2vs0mg"},{"bike_id":"054cd636-1c92-4b02-9f52-65bb09761079","system_id":"levelo_inurba_marseille","lat":43.27617,"lon":5.36123,"is_reserved":false,"is_disabled":true,"rental_uris":{"android":"levelo://app?vid=054cd636-1c92-4b02-9f52-65bb09761079","ios":"levelo://app?vid=054cd636-1c92-4b02-9f52-65bb09761079"},"vehicle_type_id":"4","last_reported":1736601166,"current_range_meters":38800,"station_id":"ce4bgj92rcd13ifvqbe0","pricing_plan_id":"cebpf4jnsgd1na2vs0mg"},{"bike_id":"266859f2-18fe-482a-8c9f-5bdad982c716","system_id":"levelo_inurba_marseille","lat":43.28029,"lon":5.41109,"is_reserved":false,"is_disabled":true,"rental_uris":{"android":"levelo://app?vid=266859f2-18fe-482a-8c9f-5bdad982c716","ios":"levelo://app?vid=266859f2-18fe-482a-8c9f-5bdad982c716"},"vehicle_type_id":"4","last_reported":1736601166,"current_range_meters":0,"station_id":"","pricing_plan_id":"cebpf4jnsgd1na2vs0mg"},{"bike_id":"fd01bc8c-af59-4352-a996-47a66c3328f9","system_id":"levelo_inurba_marseille","lat":43.29899,"lon":5.38147,"is_reserved":false,"is_disabled":true,"rental_uris":{"android":"levelo://app?vid=fd01bc8c-af59-4352-a996-47a66c3328f9","ios":"levelo://app?vid=fd01bc8c-af59-4352-a996-47a66c3328f9"},"vehicle_type_id":"4","last_reported":1736601166,"current_range_meters":38800,"station_id":"ce4bgj12rcd13ifvqbc0","pricing_plan_id":"cebpf4jnsgd1na2vs0mg"},{"bike_id":"d9300a8b-6c12-4bc9-89e4-3b33c0a79159","system_id":"levelo_inurba_marseille","lat":43.29928,"lon":5.37484,"is_reserved":false,"is_disabled":false,"rental_uris":{"android":"levelo://app?vid=d9300a8b-6c12-4bc9-89e4-3b33c0a79159","ios":"levelo://app?vid=d9300a8b-6c12-4bc9-89e4-3b33c0a79159"},"vehicle_type_id":"4","last_reported":1736601166,"current_range_meters":21600,"station_id":"ce4bgjh2rcd13ifvqbg0","pricing_plan_id":"cebpf4jnsgd1na2vs0mg"},{"bike_id":"90a09054-f4e6-45d8-804d-6b33d5b4d235","system_id":"levelo_inurba_marseille","lat":43.28037,"lon":5.36949,"is_reserved":false,"is_disabled":true,"rental_uris":{"android":"levelo://app?vid=90a09054-f4e6-45d8-804d-6b33d5b4d235","ios":"levelo://app?vid=90a09054-f4e6-45d8-804d-6b33d5b4d235"},"vehicle_type_id":"4","last_reported":1736601166,"current_range_meters":0,"station_id":"ce4bha12rcd13ifvqef0","pricing_plan_id":"cebpf4jnsgd1na2vs0mg"},{"bike_id":"604ee3d1-5e86-41f7-9037-599fe3357dd5","system_id":"levelo_inurba_marseille","lat":43.27363,"lon":5.36261,"is_reserved":false,"is_disabled":false,"rental_uris":{"android":"levelo://app?vid=604ee3d1-5e86-41f7-9037-599fe3357dd5","ios":"levelo://app?vid=604ee3d1-5e86-41f7-9037-599fe3357dd5"},"vehicle_type_id":"4","last_reported":1736601166,"current_range_meters":2800,"station_id":"ce4bhbh2rcd13ifvqeo0","pricing_plan_id":"cebpf4jnsgd1na2vs0mg"},{"bike_id":"b34fe07c-3da7-4a75-8cd9-19656e3479e4","system_id":"levelo_inurba_marseille","lat":43.30953,"lon":5.39051,"is_reserved":false,"is_disabled":false,"rental_uris":{"android":"levelo://app?vid=b34fe07c-3da7-4a75-8cd9-19656e3479e4","ios":"levelo://app?vid=b34fe07c-3da7-4a75-8cd9-19656e3479e4"},"vehicle_type_id":"4","last_reported":1736601166,"current_range_meters":16400,"station_id":"ce4bgup2rcd13ifvqco0","pricing_plan_id":"cebpf4jnsgd1na2vs0mg"},{"bike_id":"e53ac43a-53d3-47b2-af6c-16783631ac47","system_id":"levelo_inurba_marseille","lat":43.27998,"lon":5.40029,"is_reserved":false,"is_disabled":false,"rental_uris":{"android":"levelo://app?vid=e53ac43a-53d3-47b2-af6c-16783631ac47","ios":"levelo://app?vid=e53ac43a-53d3-47b2-af6c-16783631ac47"},"vehicle_type_id":"4","last_reported":1736601166,"current_range_meters":38800,"station_id":"ce4bho92rcd13ifvqh4g","pricing_plan_id":"cebpf4jnsgd1na2vs0mg"},{"bike_id":"c30d8612-b90b-4a2a-b0c4-468de2eb82c6","system_id":"levelo_inurba_marseille","lat":43.2737,"lon":5.36253,"is_reserved":false,"is_disabled":false,"rental_uris":{"android":"levelo://app?vid=c30d8612-b90b-4a2a-b0c4-468de2eb82c6","ios":"levelo://app?vid=c30d8612-b90b-4a2a-b0c4-468de2eb82c6"},"vehicle_type_id":"4","last_reported":1736601166,"current_range_meters":21600,"station_id":"ce4bhbh2rcd13ifvqeo0","pricing_plan_id":"cebpf4jnsgd1na2vs0mg"},{"bike_id":"c8aef9ab-ffaf-4274-a001-16a43e134b7d","system_id":"levelo_inurba_marseille","lat":43.30862,"lon":5.37789,"is_reserved":false,"is_disabled":false,"rental_uris":{"android":"levelo://app?vid=c8aef9ab-ffaf-4274-a001-16a43e134b7d","ios":"levelo://app?vid=c8aef9ab-ffaf-4274-a001-16a43e134b7d"},"vehicle_type_id":"4","last_reported":1736601166,"current_range_meters":30400,"station_id":"","pricing_plan_id":"cebpf4jnsgd1na2vs0mg"},{"bike_id":"e1cf2823-1b48-4a2a-a96a-bbc41e753ad0","system_id":"levelo_inurba_marseille","lat":43.25856,"lon":5.3992,"is_reserved":false,"is_disabled":false,"rental_uris":{"android":"levelo://app?vid=e1cf2823-1b48-4a2a-a96a-bbc41e753ad0","ios":"levelo://app?vid=e1cf2823-1b48-4a2a-a96a-bbc41e753ad0"},"vehicle_type_id":"4","last_reported":1736601166,"current_range_meters":32400,"station_id":"ce4bhl92rcd13ifvqghg","pricing_plan_id":"cebpf4jnsgd1na2vs0mg"},{"bike_id":"e77b10a5-d949-41d9-8dc1-f24aeb11f6e4","system_id":"levelo_inurba_marseille","lat":43.29607,"lon":5.37737,"is_reserved":false,"is_disabled":false,"rental_uris":{"android":"levelo://app?vid=e77b10a5-d949-41d9-8dc1-f24aeb11f6e4","ios":"levelo://app?vid=e77b10a5-d949-41d9-8dc1-f24aeb11f6e4"},"vehicle_type_id":"4","last_reported":1736601166,"current_range_meters":36400,"station_id":"ce4bgi92rcd13ifvqb90","pricing_plan_id":"cebpf4jnsgd1na2vs0mg"},{"bike_id":"967adf1b-e900-42da-b3f2-d601d0dd7ce2","system_id":"levelo_inurba_marseille","lat":43.27551,"lon":5.38411,"is_reserved":false,"is_disabled":false,"rental_uris":{"android":"levelo://app?vid=967adf1b-e900-42da-b3f2-d601d0dd7ce2","ios":"levelo://app?vid=967adf1b-e900-42da-b3f2-d601d0dd7ce2"},"vehicle_type_id":"4","last_reported":1736601166,"current_range_meters":21600,"station_id":"ce4bhh92rcd13ifvqfi0","pricing_plan_id":"cebpf4jnsgd1na2vs0mg"},{"bike_id":"2a0992e2-e202-445e-9017-db4ba74dcffe","system_id":"levelo_inurba_marseille","lat":43.25001,"lon":5.3893,"is_reserved":false,"is_disabled":false,"rental_uris":{"android":"levelo://app?vid=2a0992e2-e202-445e-9017-db4ba74dcffe","ios":"levelo://app?vid=2a0992e2-e202-445e-9017-db4ba74dcffe"},"vehicle_type_id":"4","last_reported":1736601166,"current_range_meters":10000,"station_id":"ce4bhgp2rcd13ifvqfd0","pricing_plan_id":"cebpf4jnsgd1na2vs0mg"},{"bike_id":"2a24b350-5eda-4fc4-abda-e1ffc7fb1178","system_id":"levelo_inurba_marseille","lat":43.29914,"lon":5.37465,"is_reserved":false,"is_disabled":false,"rental_uris":{"android":"levelo://app?vid=2a24b350-5eda-4fc4-abda-e1ffc7fb1178","ios":"levelo://app?vid=2a24b350-5eda-4fc4-abda-e1ffc7fb1178"},"vehicle_type_id":"4","last_reported":1736601166,"current_range_meters":38000,"station_id":"ce4bgjh2rcd13ifvqbg0","pricing_plan_id":"cebpf4jnsgd1na2vs0mg"},{"bike_id":"3e8b7527-e89d-4d31-a3a1-bab5d9961c5a","system_id":"levelo_inurba_marseille","lat":43.33603,"lon":5.41033,"is_reserved":false,"is_disabled":true,"rental_uris":{"android":"levelo://app?vid=3e8b7527-e89d-4d31-a3a1-bab5d9961c5a","ios":"levelo://app?vid=3e8b7527-e89d-4d31-a3a1-bab5d9961c5a"},"vehicle_type_id":"4","last_reported":1736601166,"current_range_meters":36800,"station_id":"ce4bhqh2rcd13ifvqhmg","pricing_plan_id":"cebpf4jnsgd1na2vs0mg"},{"bike_id":"c5a4cc0a-368f-444e-923b-d63fe711e2e2","system_id":"levelo_inurba_marseille","lat":43.28005,"lon":5.40003,"is_reserved":false,"is_disabled":false,"rental_uris":{"android":"levelo://app?vid=c5a4cc0a-368f-444e-923b-d63fe711e2e2","ios":"levelo://app?vid=c5a4cc0a-368f-444e-923b-d63fe711e2e2"},"vehicle_type_id":"4","last_reported":1736601166,"current_range_meters":25600,"station_id":"ce4bho92rcd13ifvqh4g","pricing_plan_id":"cebpf4jnsgd1na2vs0mg"},{"bike_id":"a3fefaf9-4ba7-4bbe-ad11-cda9aaf6b6a6","system_id":"levelo_inurba_marseille","lat":43.3171,"lon":5.43714,"is_reserved":false,"is_disabled":false,"rental_uris":{"android":"levelo://app?vid=a3fefaf9-4ba7-4bbe-ad11-cda9aaf6b6a6","ios":"levelo://app?vid=a3fefaf9-4ba7-4bbe-ad11-cda9aaf6b6a6"},"vehicle_type_id":"4","last_reported":1736601166,"current_range_meters":38400,"station_id":"ce4bhp92rcd13ifvqhcg","pricing_plan_id":"cebpf4jnsgd1na2vs0mg"},{"bike_id":"97a8ad5a-a836-4f68-83f7-bbdda563764b","system_id":"levelo_inurba_marseille","lat":43.30246,"lon":5.40074,"is_reserved":false,"is_disabled":false,"rental_uris":{"android":"levelo://app?vid=97a8ad5a-a836-4f68-83f7-bbdda563764b","ios":"levelo://app?vid=97a8ad5a-a836-4f68-83f7-bbdda563764b"},"vehicle_type_id":"4","last_reported":1736601166,"current_range_meters":26000,"station_id":"ce4bgvh2rcd13ifvqcs0","pricing_plan_id":"cebpf4jnsgd1na2vs0mg"},{"bike_id":"cfbaf99c-c14a-433d-9b69-8289fb3cd1c5","system_id":"levelo_inurba_marseille","lat":43.26944,"lon":5.40285,"is_reserved":false,"is_disabled":false,"rental_uris":{"android":"levelo://app?vid=cfbaf99c-c14a-433d-9b69-8289fb3cd1c5","ios":"levelo://app?vid=cfbaf99c-c14a-433d-9b69-8289fb3cd1c5"},"vehicle_type_id":"4","last_reported":1736601166,"current_range_meters":38800,"station_id":"cjm6bp8fraef2m0cb0m0","pricing_plan_id":"cebpf4jnsgd1na2vs0mg"},{"bike_id":"b9619dd7-91f7-432e-b0ef-695b4d3f299d","system_id":"levelo_inurba_marseille","lat":43.32007,"lon":5.38154,"is_reserved":false,"is_disabled":false,"rental_uris":{"android":"levelo://app?vid=b9619dd7-91f7-432e-b0ef-695b4d3f299d","ios":"levelo://app?vid=b9619dd7-91f7-432e-b0ef-695b4d3f299d"},"vehicle_type_id":"4","last_reported":1736601166,"current_range_meters":38800,"station_id":"ce4bhr12rcd13ifvqhpg","pricing_plan_id":"cebpf4jnsgd1na2vs0mg"},{"bike_id":"fbbf4dc3-18b8-4d18-bf2f-037bcaa17a42","system_id":"levelo_inurba_marseille","lat":43.29708,"lon":5.37706,"is_reserved":false,"is_disabled":false,"rental_uris":{"android":"levelo://app?vid=fbbf4dc3-18b8-4d18-bf2f-037bcaa17a42","ios":"levelo://app?vid=fbbf4dc3-18b8-4d18-bf2f-037bcaa17a42"},"vehicle_type_id":"4","last_reported":1736601166,"current_range_meters":38400,"station_id":"ce4bgkh2rcd13ifvqbl0","pricing_plan_id":"cebpf4jnsgd1na2vs0mg"},{"bike_id":"5b428fa4-d470-4c18-ab8c-78256dfe635c","system_id":"levelo_inurba_marseille","lat":43.25111,"lon":5.40321,"is_reserved":false,"is_disabled":false,"rental_uris":{"android":"levelo://app?vid=5b428fa4-d470-4c18-ab8c-78256dfe635c","ios":"levelo://app?vid=5b428fa4-d470-4c18-ab8c-78256dfe635c"},"vehicle_type_id":"4","last_reported":1736601166,"current_range_meters":24800,"station_id":"ce4bhlh2rcd13ifvqgig","pricing_plan_id":"cebpf4jnsgd1na2vs0mg"},{"bike_id":"ae6648f6-3794-4862-84ad-5c1ef550b80c","system_id":"levelo_inurba_marseille","lat":43.30143,"lon":5.38091,"is_reserved":false,"is_disabled":false,"rental_uris":{"android":"levelo://app?vid=ae6648f6-3794-4862-84ad-5c1ef550b80c","ios":"levelo://app?vid=ae6648f6-3794-4862-84ad-5c1ef550b80c"},"vehicle_type_id":"4","last_reported":1736601166,"current_range_meters":26800,"station_id":"ce4bgjp2rcd13ifvqbh0","pricing_plan_id":"cebpf4jnsgd1na2vs0mg"},{"bike_id":"ca2450e7-5c66-4bdc-b528-943118702b91","system_id":"levelo_inurba_marseille","lat":43.33717,"lon":5.39188,"is_reserved":false,"is_disabled":false,"rental_uris":{"android":"levelo://app?vid=ca2450e7-5c66-4bdc-b528-943118702b91","ios":"levelo://app?vid=ca2450e7-5c66-4bdc-b528-943118702b91"},"vehicle_type_id":"4","last_reported":1736601166,"current_range_meters":38800,"station_id":"ce4bhr92rcd13ifvqhsg","pricing_plan_id":"cebpf4jnsgd1na2vs0mg"},{"bike_id":"9417f5e2-fd0d-41fb-a081-845b7126b20e","system_id":"levelo_inurba_marseille","lat":43.28809,"lon":5.3585,"is_reserved":false,"is_disabled":false,"rental_uris":{"android":"levelo://app?vid=9417f5e2-fd0d-41fb-a081-845b7126b20e","ios":"levelo://app?vid=9417f5e2-fd0d-41fb-a081-845b7126b20e"},"vehicle_type_id":"4","last_reported":1736601166,"current_range_meters":38400,"station_id":"ce4bhb12rcd13ifvqem0","pricing_plan_id":"cebpf4jnsgd1na2vs0mg"},{"bike_id":"5857e3f3-6cbb-42ca-90fb-664267279097","system_id":"levelo_inurba_marseille","lat":43.30355,"lon":5.41876,"is_reserved":false,"is_disabled":false,"rental_uris":{"android":"levelo://app?vid=5857e3f3-6cbb-42ca-90fb-664267279097","ios":"levelo://app?vid=5857e3f3-6cbb-42ca-90fb-664267279097"},"vehicle_type_id":"4","last_reported":1736601166,"current_range_meters":37600,"station_id":"ce4bhop2rcd13ifvqh7g","pricing_plan_id":"cebpf4jnsgd1na2vs0mg"},{"bike_id":"7cd8987d-b617-40d8-a8c3-e4eb9a33636b","system_id":"levelo_inurba_marseille","lat":43.30329,"lon":5.40436,"is_reserved":false,"is_disabled":false,"rental_uris":{"android":"levelo://app?vid=7cd8987d-b617-40d8-a8c3-e4eb9a33636b","ios":"levelo://app?vid=7cd8987d-b617-40d8-a8c3-e4eb9a33636b"},"vehicle_type_id":"4","last_reported":1736601166,"current_range_meters":37600,"station_id":"ce4bh012rcd13ifvqd10","pricing_plan_id":"cebpf4jnsgd1na2vs0mg"},{"bike_id":"6ff8e734-d6db-4e6f-869b-cb7aa0c28dea","system_id":"levelo_inurba_marseille","lat":43.30146,"lon":5.38086,"is_reserved":false,"is_disabled":false,"rental_uris":{"android":"levelo://app?vid=6ff8e734-d6db-4e6f-869b-cb7aa0c28dea","ios":"levelo://app?vid=6ff8e734-d6db-4e6f-869b-cb7aa0c28dea"},"vehicle_type_id":"4","last_reported":1736601166,"current_range_meters":38800,"station_id":"ce4bgjp2rcd13ifvqbh0","pricing_plan_id":"cebpf4jnsgd1na2vs0mg"},{"bike_id":"440308ca-347e-4608-93d7-b8430e680213","system_id":"levelo_inurba_marseille","lat":43.31118,"lon":5.37788,"is_reserved":false,"is_disabled":false,"rental_uris":{"android":"levelo://app?vid=440308ca-347e-4608-93d7-b8430e680213","ios":"levelo://app?vid=440308ca-347e-4608-93d7-b8430e680213"},"vehicle_type_id":"4","last_reported":1736601166,"current_range_meters":36400,"station_id":"ce4bgt92rcd13ifvqcg0","pricing_plan_id":"cebpf4jnsgd1na2vs0mg"},{"bike_id":"829ddfbe-8cdb-4dcc-abde-9acf8693e400","system_id":"levelo_inurba_marseille","lat":43.30465,"lon":5.37905,"is_reserved":false,"is_disabled":false,"rental_uris":{"android":"levelo://app?vid=829ddfbe-8cdb-4dcc-abde-9acf8693e400","ios":"levelo://app?vid=829ddfbe-8cdb-4dcc-abde-9acf8693e400"},"vehicle_type_id":"4","last_reported":1736601166,"current_range_meters":34000,"station_id":"ce4bgup2rcd13ifvqcn0","pricing_plan_id":"cebpf4jnsgd1na2vs0mg"},{"bike_id":"a5363611-b409-4b82-872f-bcbdcc80ff67","system_id":"levelo_inurba_marseille","lat":43.2315,"lon":5.43713,"is_reserved":false,"is_disabled":false,"rental_uris":{"android":"levelo://app?vid=a5363611-b409-4b82-872f-bcbdcc80ff67","ios":"levelo://app?vid=a5363611-b409-4b82-872f-bcbdcc80ff67"},"vehicle_type_id":"4","last_reported":1736601166,"current_range_meters":18000,"station_id":"ce4bhmp2rcd13ifvqgog","pricing_plan_id":"cebpf4jnsgd1na2vs0mg"},{"bike_id":"b3cb95fb-9c38-4961-8032-9e7e1343adcd","system_id":"levelo_inurba_marseille","lat":43.32353,"lon":5.38896,"is_reserved":false,"is_disabled":false,"rental_uris":{"android":"levelo://app?vid=b3cb95fb-9c38-4961-8032-9e7e1343adcd","ios":"levelo://app?vid=b3cb95fb-9c38-4961-8032-9e7e1343adcd"},"vehicle_type_id":"4","last_reported":1736601166,"current_range_meters":23200,"station_id":"ce4bhqp2rcd13ifvqhog","pricing_plan_id":"cebpf4jnsgd1na2vs0mg"},{"bike_id":"6e1d1b80-39ed-44bb-a24f-5119a696b179","system_id":"levelo_inurba_marseille","lat":43.29896,"lon":5.43671,"is_reserved":false,"is_disabled":false,"rental_uris":{"android":"levelo://app?vid=6e1d1b80-39ed-44bb-a24f-5119a696b179","ios":"levelo://app?vid=6e1d1b80-39ed-44bb-a24f-5119a696b179"},"vehicle_type_id":"4","last_reported":1736601166,"current_range_meters":25600,"station_id":"ce4bhpp2rcd13ifvqhfg","pricing_plan_id":"cebpf4jnsgd1na2vs0mg"},{"bike_id":"6fdecff2-2545-405f-8c66-4d246590b289","system_id":"levelo_inurba_marseille","lat":43.24166,"lon":5.36411,"is_reserved":false,"is_disabled":false,"rental_uris":{"android":"levelo://app?vid=6fdecff2-2545-405f-8c66-4d246590b289","ios":"levelo://app?vid=6fdecff2-2545-405f-8c66-4d246590b289"},"vehicle_type_id":"4","last_reported":1736601166,"current_range_meters":9600,"station_id":"cpo36qri1sfpv3e86is0","pricing_plan_id":"cebpf4jnsgd1na2vs0mg"},{"bike_id":"2880b973-4442-45d0-9d55-0d4ee051ed38","system_id":"levelo_inurba_marseille","lat":43.32285,"lon":5.38278,"is_reserved":false,"is_disabled":true,"rental_uris":{"android":"levelo://app?vid=2880b973-4442-45d0-9d55-0d4ee051ed38","ios":"levelo://app?vid=2880b973-4442-45d0-9d55-0d4ee051ed38"},"vehicle_type_id":"4","last_reported":1736601166,"current_range_meters":8000,"station_id":"ce4bhr12rcd13ifvqhqg","pricing_plan_id":"cebpf4jnsgd1na2vs0mg"},{"bike_id":"6fee95d9-c21d-49a0-b43b-16727bbcf354","system_id":"levelo_inurba_marseille","lat":43.28932,"lon":5.3839,"is_reserved":false,"is_disabled":false,"rental_uris":{"android":"levelo://app?vid=6fee95d9-c21d-49a0-b43b-16727bbcf354","ios":"levelo://app?vid=6fee95d9-c21d-49a0-b43b-16727bbcf354"},"vehicle_type_id":"4","last_reported":1736601166,"current_range_meters":30400,"station_id":"ce4bh612rcd13ifvqe6g","pricing_plan_id":"cebpf4jnsgd1na2vs0mg"},{"bike_id":"2cb3fb61-b168-42b1-a995-2e4bf8761473","system_id":"levelo_inurba_marseille","lat":43.25577,"lon":5.3824,"is_reserved":false,"is_disabled":false,"rental_uris":{"android":"levelo://app?vid=2cb3fb61-b168-42b1-a995-2e4bf8761473","ios":"levelo://app?vid=2cb3fb61-b168-42b1-a995-2e4bf8761473"},"vehicle_type_id":"4","last_reported":1736601166,"current_range_meters":30000,"station_id":"ce4bhih2rcd13ifvqfs0","pricing_plan_id":"cebpf4jnsgd1na2vs0mg"},{"bike_id":"eabaf27b-72f2-4249-9a2c-a32234730eb2","system_id":"levelo_inurba_marseille","lat":43.30749,"lon":5.3786,"is_reserved":false,"is_disabled":true,"rental_uris":{"android":"levelo://app?vid=eabaf27b-72f2-4249-9a2c-a32234730eb2","ios":"levelo://app?vid=eabaf27b-72f2-4249-9a2c-a32234730eb2"},"vehicle_type_id":"4","last_reported":1736601166,"current_range_meters":800,"station_id":"","pricing_plan_id":"cebpf4jnsgd1na2vs0mg"},{"bike_id":"4b3e225b-05c9-4e5f-9334-8d38e27086cb","system_id":"levelo_inurba_marseille","lat":43.29315,"lon":5.37184,"is_reserved":false,"is_disabled":false,"rental_uris":{"android":"levelo://app?vid=4b3e225b-05c9-4e5f-9334-8d38e27086cb","ios":"levelo://app?vid=4b3e225b-05c9-4e5f-9334-8d38e27086cb"},"vehicle_type_id":"4","last_reported":1736601166,"current_range_meters":34000,"station_id":"ce4bgh92rcd13ifvqb40","pricing_plan_id":"cebpf4jnsgd1na2vs0mg"},{"bike_id":"2f352070-e6c2-4f02-a141-75efb41d0ef4","system_id":"levelo_inurba_marseille","lat":43.29796,"lon":5.40413,"is_reserved":false,"is_disabled":true,"rental_uris":{"android":"levelo://app?vid=2f352070-e6c2-4f02-a141-75efb41d0ef4","ios":"levelo://app?vid=2f352070-e6c2-4f02-a141-75efb41d0ef4"},"vehicle_type_id":"4","last_reported":1736601166,"current_range_meters":37600,"station_id":"ce4bh112rcd13ifvqd90","pricing_plan_id":"cebpf4jnsgd1na2vs0mg"},