{"last_updated":1756217369,"ttl":60,"version":"2.2","data":{"bikes":[{"bike_id":"248a3184-8abc-4a19-9e4e-1abe7e72e19e","system_id":"levelo_inurba_marseille","lat":43.22934,"lon":5.35377,"is_reserved":false,"is_disabled":false,"rental_uris":{"android":"levelo://app?vid=248a3184-8abc-4a19-9e4e-1abe7e72e19e","ios":"levelo://app?vid=248a3184-8abc-4a19-9e4e-1abe7e72e19e"},"vehicle_type_id":"4","last_reported":1756217369,"current_range_meters":2800,"station_id":"cpo3532slgdg3j2ikp40","pricing_plan_id":"cebpf4jnsgd1na2vs0mg"},{"bike_id":"6f0d03e6-2c6f-467b-8bff-d4818ae9b2a2","system_id":"levelo_inurba_marseille","lat":43.29632,"lon":5.40598,"is_reserved":false,"is_disabled":false,"rental_uris":{"android":"levelo://app?vid=6f0d03e6-2c6f-467b-8bff-d4818ae9b2a2","ios":"levelo://app?vid=6f0d03e6-2c6f-467b-8bff-d4818ae9b2a2"},"vehicle_type_id":"4","last_reported":1756217369,"current_range_meters":2800,"station_id":"","pricing_plan_id":"cebpf4jnsgd1na2vs0mg"},{"bike_id":"5a94cd1f-5ae1-47d0-a15d-d5554856827f","system_id":"levelo_inurba_marseille","lat":43.306,"lon":5.37555,"is_reserved":false,"is_disabled":false,"rental_uris":{"android":"levelo://app?vid=5a94cd1f-5ae1-47d0-a15d-d5554856827f","ios":"levelo://app?vid=5a94cd1f-5ae1-47d0-a15d-d5554856827f"},"vehicle_type_id":"4","last_reported":1756217369,"current_range_meters":2800,"station_id":"","pricing_plan_id":"cebpf4jnsgd1na2vs0mg"},{"bike_id":"0490c530-845d-44f9-bf75-09a8b4d2b9b9","system_id":"levelo_inurba_marseille","lat":43.29737,"lon":5.38078,"is_reserved":false,"is_disabled":false,"rental_uris":{"android":"levelo://app?vid=0490c530-845d-44f9-bf75-09a8b4d2b9b9","ios":"levelo://app?vid=0490c530-845d-44f9-bf75-09a8b4d2b9b9"},"vehicle_type_id":"4","last_reported":1756217369,"current_range_meters":2800,"station_id":"ce4bgip2rcd13ifvqbb0","pricing_plan_id":"cebpf4jnsgd1na2vs0mg"},{"bike_id":"2527c978-a1cc-4e4c-89ca-9b7e6a25535a","system_id":"levelo_inurba_marseille","lat":43.273736,"lon":5.362547,"is_reserved":false,"is_disabled":false,"rental_uris":{"android":"levelo://app?vid=2527c978-a1cc-4e4c-89ca-9b7e6a25535a","ios":"levelo://app?vid=2527c978-a1cc-4e4c-89ca-9b7e6a25535a"},"vehicle_type_id":"4","last_reported":1756217369,"current_range_meters":1200,"station_id":"ce4bhbh2rcd13ifvqeo0","pricing_plan_id":"cebpf4jnsgd1na2vs0mg"},{"bike_id":"158fe4a9-48cc-491f-95fd-2aa73bd55cc0","system_id":"levelo_inurba_marseille","lat":43.3057,"lon":5.36904,"is_reserved":false,"is_disabled":false,"rental_uris":{"android":"levelo://app?vid=158fe4a9-48cc-491f-95fd-2aa73bd55cc0","ios":"levelo://app?vid=158fe4a9-48cc-491f-95fd-2aa73bd55cc0"},"vehicle_type_id":"4","last_reported":1756217369,"current_range_meters":2800,"station_id":"","pricing_plan_id":"cebpf4jnsgd1na2vs0mg"},{"bike_id":"23b8706a-5387-41fd-a643-2a8da7b3b52e","system_id":"levelo_inurba_marseille","lat":43.29797,"lon":5.40403,"is_reserved":false,"is_disabled":false,"rental_uris":{"android":"levelo://app?vid=23b8706a-5387-41fd-a643-2a8da7b3b52e","ios":"levelo://app?vid=23b8706a-5387-41fd-a643-2a8da7b3b52e"},"vehicle_type_id":"4","last_reported":1756217369,"current_range_meters":2000,"station_id":"ce4bh112rcd13ifvqd90","pricing_plan_id":"cebpf4jnsgd1na2vs0mg"},{"bike_id":"b6d0d45c-ab35-4015-8332-cf12d2af0487","system_id":"levelo_inurba_marseille","lat":43.30143,"lon":5.39868,"is_reserved":false,"is_disabled":false,"rental_uris":{"android":"levelo://app?vid=b6d0d45c-ab35-4015-8332-cf12d2af0487","ios":"levelo://app?vid=b6d0d45c-ab35-4015-8332-cf12d2af0487"},"vehicle_type_id":"4","last_reported":1756217369,"current_range_meters":3200,"station_id":"ce4bh0h2rcd13ifvqd40","pricing_plan_id":"cebpf4jnsgd1na2vs0mg"},{"bike_id":"95531f39-7fbd-40ce-b539-68b1e315324a","system_id":"levelo_inurba_marseille","lat":43.30422,"lon":5.38884,"is_reserved":false,"is_disabled":false,"rental_uris":{"android":"levelo://app?vid=95531f39-7fbd-40ce-b539-68b1e315324a","ios":"levelo://app?vid=95531f39-7fbd-40ce-b539-68b1e315324a"},"vehicle_type_id":"4","last_reported":1756217369,"current_range_meters":3200,"station_id":"ce4bgk12rcd13ifvqbi0","pricing_plan_id":"cebpf4jnsgd1na2vs0mg"},{"bike_id":"c9e021c4-de4c-487c-9dd6-3cd9dd16eb66","system_id":"levelo_inurba_marseille","lat":43.30927,"lon":5.36844,"is_reserved":false,"is_disabled":false,"rental_uris":{"android":"levelo://app?vid=c9e021c4-de4c-487c-9dd6-3cd9dd16eb66","ios":"levelo://app?vid=c9e021c4-de4c-487c-9dd6-3cd9dd16eb66"},"vehicle_type_id":"4","last_reported":1756217369,"current_range_meters":3200,"station_id":"ce4bgn92rcd13ifvqbvg","pricing_plan_id":"cebpf4jnsgd1na2vs0mg"},{"bike_id":"8278d03d-5584-48a8-a86a-7847a162c713","system_id":"levelo_inurba_marseille","lat":43.3093,"lon":5.38169,"is_reserved":false,"is_disabled":false,"rental_uris":{"android":"levelo://app?vid=8278d03d-5584-48a8-a86a-7847a162c713","ios":"levelo://app?vid=8278d03d-5584-48a8-a86a-7847a162c713"},"vehicle_type_id":"4","last_reported":1756217369,"current_range_meters":3200,"station_id":"","pricing_plan_id":"cebpf4jnsgd1na2vs0mg"},{"bike_id":"83c93c98-b96b-4500-9f43-f91bef996815","system_id":"levelo_inurba_marseille","lat":43.29583,"lon":5.39973,"is_reserved":false,"is_disabled":false,"rental_uris":{"android":"levelo://app?vid=83c93c98-b96b-4500-9f43-f91bef996815","ios":"levelo://app?vid=83c93c98-b96b-4500-9f43-f91bef996815"},"vehicle_type_id":"4","last_reported":1756217369,"current_range_meters":2800,"station_id":"ce4bh312rcd13ifvqdj0","pricing_plan_id":"cebpf4jnsgd1na2vs0mg"},{"bike_id":"635c952a-5646-40c8-bcb0-4a6d12e7f099","system_id":"levelo_inurba_marseille","lat":43.23963,"lon":5.36622,"is_reserved":false,"is_disabled":false,"rental_uris":{"android":"levelo://app?vid=635c952a-5646-40c8-bcb0-4a6d12e7f099","ios":"levelo://app?vid=635c952a-5646-40c8-bcb0-4a6d12e7f099"},"vehicle_type_id":"4","last_reported":1756217369,"current_range_meters":3200,"station_id":"ce4bhi12rcd13ifvqfp0","pricing_plan_id":"cebpf4jnsgd1na2vs0mg"},{"bike_id":"09f8f31d-8397-429d-8dba-70149f805d4c","system_id":"levelo_inurba_marseille","lat":43.29598,"lon":5.3673,"is_reserved":false,"is_disabled":false,"rental_uris":{"android":"levelo://app?vid=09f8f31d-8397-429d-8dba-70149f805d4c","ios":"levelo://app?vid=09f8f31d-8397-429d-8dba-70149f805d4c"},"vehicle_type_id":"4","last_reported":1756217369,"current_range_meters":3600,"station_id":"ce4bgph2rcd13ifvqc2g","pricing_plan_id":"cebpf4jnsgd1na2vs0mg"},{"bike_id":"cacc6e65-e61d-4aba-8424-fac667447a34","system_id":"levelo_inurba_marseille","lat":43.30958,"lon":5.39045,"is_reserved":false,"is_disabled":false,"rental_uris":{"android":"levelo://app?vid=cacc6e65-e61d-4aba-8424-fac667447a34","ios":"levelo://app?vid=cacc6e65-e61d-4aba-8424-fac667447a34"},"vehicle_type_id":"4","last_reported":1756217369,"current_range_meters":3600,"station_id":"ce4bgup2rcd13ifvqco0","pricing_plan_id":"cebpf4jnsgd1na2vs0mg"},{"bike_id":"30a2651d-fb20-439a-a239-a82a3f08d674","system_id":"levelo_inurba_marseille","lat":43.2981,"lon":5.38097,"is_reserved":false,"is_disabled":false,"rental_uris":{"android":"levelo://app?vid=30a2651d-fb20-439a-a239-a82a3f08d674","ios":"levelo://app?vid=30a2651d-fb20-439a-a239-a82a3f08d674"},"vehicle_type_id":"4","last_reported":1756217369,"current_range_meters":3600,"station_id":"ce4bgip2rcd13ifvqbb0","pricing_plan_id":"cebpf4jnsgd1na2vs0mg"},{"bike_id":"709c90c3-83ee-4933-a642-590a81d86818","system_id":"levelo_inurba_marseille","lat":43.29203,"lon":5.39322,"is_reserved":false,"is_disabled":false,"rental_uris":{"android":"levelo://app?vid=709c90c3-83ee-4933-a642-590a81d86818","ios":"levelo://app?vid=709c90c3-83ee-4933-a642-590a81d86818"},"vehicle_type_id":"4","last_reported":1756217369,"current_range_meters":4000,"station_id":"ce4bh192rcd13ifvqdd0","pricing_plan_id":"cebpf4jnsgd1na2vs0mg"},{"bike_id":"487cbfad-84c9-4d52-96d5-269fdaa230df","system_id":"levelo_inurba_marseille","lat":43.23066,"lon":5.3549,"is_reserved":false,"is_disabled":false,"rental_uris":{"android":"levelo://app?vid=487cbfad-84c9-4d52-96d5-269fdaa230df","ios":"levelo://app?vid=487cbfad-84c9-4d52-96d5-269fdaa230df"},"vehicle_type_id":"4","last_reported":1756217369,"current_range_meters":3600,"station_id":"cpo3342slgdg3j2ifvpg","pricing_plan_id":"cebpf4jnsgd1na2vs0mg"},{"bike_id":"46c28713-bb2b-45d5-98fc-8d5e885d13cf","system_id":"levelo_inurba_marseille","lat":43.21209,"lon":5.35053,"is_reserved":false,"is_disabled":false,"rental_uris":{"android":"levelo://app?vid=46c28713-bb2b-45d5-98fc-8d5e885d13cf","ios":"levelo://app?vid=46c28713-bb2b-45d5-98fc-8d5e885d13cf"},"vehicle_type_id":"4","last_reported":1756217369,"current_range_meters":4000,"station_id":"st_cvj6sg6p6f1abm77japg","pricing_plan_id":"cebpf4jnsgd1na2vs0mg"},{"bike_id":"518b8630-4226-4083-80c4-822a9607e7b6","system_id":"levelo_inurba_marseille","lat":43.29037,"lon":5.37571,"is_reserved":false,"is_disabled":false,"rental_uris":{"android":"levelo://app?vid=518b8630-4226-4083-80c4-822a9607e7b6","ios":"levelo://app?vid=518b8630-4226-4083-80c4-822a9607e7b6"},"vehicle_type_id":"4","last_reported":1756217369,"current_range_meters":3600,"station_id":"ce4bh692rcd13ifvqe90","pricing_plan_id":"cebpf4jnsgd1na2vs0mg"},{"bike_id":"02b25a7c-e33f-4c01-a1cf-a58ff328624b","system_id":"levelo_inurba_marseille","lat":43.29778,"lon":5.39342,"is_reserved":false,"is_disabled":false,"rental_uris":{"android":"levelo://app?vid=02b25a7c-e33f-4c01-a1cf-a58ff328624b","ios":"levelo://app?vid=02b25a7c-e33f-4c01-a1cf-a58ff328624b"},"vehicle_type_id":"4","last_reported":1756217369,"current_range_meters":4000,"station_id":"chh1huq6cuj3fo74tm60","pricing_plan_id":"cebpf4jnsgd1na2vs0mg"},{"bike_id":"54d40941-6c26-4740-b445-0e4bc18241cb","system_id":"levelo_inurba_marseille","lat":43.29199,"lon":5.39324,"is_reserved":false,"is_disabled":false,"rental_uris":{"android":"levelo://app?vid=54d40941-6c26-4740-b445-0e4bc18241cb","ios":"levelo://app?vid=54d40941-6c26-4740-b445-0e4bc18241cb"},"vehicle_type_id":"4","last_reported":1756217369,"current_range_meters":4000,"station_id":"ce4bh192rcd13ifvqdd0","pricing_plan_id":"cebpf4jnsgd1na2vs0mg"},{"bike_id":"ae6e7466-f79a-43dd-ba01-51043638613b","system_id":"levelo_inurba_marseille","lat":43.22832,"lon":5.34917,"is_reserved":false,"is_disabled":false,"rental_uris":{"android":"levelo://app?vid=ae6e7466-f79a-43dd-ba01-51043638613b","ios":"levelo://app?vid=ae6e7466-f79a-43dd-ba01-51043638613b"},"vehicle_type_id":"4","last_reported":1756217369,"current_range_meters":4000,"station_id":"","pricing_plan_id":"cebpf4jnsgd1na2vs0mg"},{"bike_id":"3d1299a6-2182-4fb1-9f99-08ec896508d1","system_id":"levelo_inurba_marseille","lat":43.29897,"lon":5.38898,"is_reserved":false,"is_disabled":false,"rental_uris":{"android":"levelo://app?vid=3d1299a6-2182-4fb1-9f99-08ec896508d1","ios":"levelo://app?vid=3d1299a6-2182-4fb1-9f99-08ec896508d1"},"vehicle_type_id":"4","last_reported":1756217369,"current_range_meters":4000,"station_id":"ce4bh392rcd13ifvqdl0","pricing_plan_id":"cebpf4jnsgd1na2vs0mg"},{"bike_id":"18cadd98-ca5b-4518-98d8-bbb26e647823","system_id":"levelo_inurba_marseille","lat":43.21192,"lon":5.35072,"is_reserved":false,"is_disabled":false,"rental_uris":{"android":"levelo://app?vid=18cadd98-ca5b-4518-98d8-bbb26e647823","ios":"levelo://app?vid=18cadd98-ca5b-4518-98d8-bbb26e647823"},"vehicle_type_id":"4","last_reported":1756217369,"current_range_meters":4400,"station_id":"st_cvj6sg6p6f1abm77japg","pricing_plan_id":"cebpf4jnsgd1na2vs0mg"},{"bike_id":"ff32f56f-93e0-4899-b9e3-b7194b13ae03","system_id":"levelo_inurba_marseille","lat":43.28855,"lon":5.35864,"is_reserved":false,"is_disabled":false,"rental_uris":{"android":"levelo://app?vid=ff32f56f-93e0-4899-b9e3-b7194b13ae03","ios":"levelo://app?vid=ff32f56f-93e0-4899-b9e3-b7194b13ae03"},"vehicle_type_id":"4","last_reported":1756217369,"current_range_meters":4400,"station_id":"ce4bhb12rcd13ifvqem0","pricing_plan_id":"cebpf4jnsgd1na2vs0mg"},{"bike_id":"3acc3047-efe7-45ff-b4ec-c2ca733a66d5","system_id":"levelo_inurba_marseille","lat":43.27567,"lon":5.38407,"is_reserved":false,"is_disabled":false,"rental_uris":{"android":"levelo://app?vid=3acc3047-efe7-45ff-b4ec-c2ca733a66d5","ios":"levelo://app?vid=3acc3047-efe7-45ff-b4ec-c2ca733a66d5"},"vehicle_type_id":"4","last_reported":1756217369,"current_range_meters":4400,"station_id":"ce4bhh92rcd13ifvqfi0","pricing_plan_id":"cebpf4jnsgd1na2vs0mg"},{"bike_id":"c4ccc10f-8ccd-44be-a00a-f6ebdc6ec159","system_id":"levelo_inurba_marseille","lat":43.30403,"lon":5.43447,"is_reserved":false,"is_disabled":false,"rental_uris":{"android":"levelo://app?vid=c4ccc10f-8ccd-44be-a00a-f6ebdc6ec159","ios":"levelo://app?vid=c4ccc10f-8ccd-44be-a00a-f6ebdc6ec159"},"vehicle_type_id":"4","last_reported":1756217369,"current_range_meters":5600,"station_id":"","pricing_plan_id":"cebpf4jnsgd1na2vs0mg"},{"bike_id":"93b69523-18ca-40cb-9ca7-de9934618c9f","system_id":"levelo_inurba_marseille","lat":43.29799,"lon":5.39335,"is_reserved":false,"is_disabled":false,"rental_uris":{"android":"levelo://app?vid=93b69523-18ca-40cb-9ca7-de9934618c9f","ios":"levelo://app?vid=93b69523-18ca-40cb-9ca7-de9934618c9f"},"vehicle_type_id":"4","last_reported":1756217369,"current_range_meters":5600,"station_id":"chh1huq6cuj3fo74tm60","pricing_plan_id":"cebpf4jnsgd1na2vs0mg"},{"bike_id":"501a78ea-1144-4a61-8b78-a555924eaa16","system_id":"levelo_inurba_marseille","lat":43.2823,"lon":5.39064,"is_reserved":false,"is_disabled":false,"rental_uris":{"android":"levelo://app?vid=501a78ea-1144-4a61-8b78-a555924eaa16","ios":"levelo://app?vid=501a78ea-1144-4a61-8b78-a555924eaa16"},"vehicle_type_id":"4","last_reported":1756217369,"current_range_meters":5600,"station_id":"ce4bhn92rcd13ifvqgsg","pricing_plan_id":"cebpf4jnsgd1na2vs0mg"},{"bike_id":"d5745108-f0a2-4aa9-a119-1282fba272af","system_id":"levelo_inurba_marseille","lat":43.30171,"lon":5.37398,"is_reserved":false,"is_disabled":false,"rental_uris":{"android":"levelo://app?vid=d5745108-f0a2-4aa9-a119-1282fba272af","ios":"levelo://app?vid=d5745108-f0a2-4aa9-a119-1282fba272af"},"vehicle_type_id":"4","last_reported":1756217369,"current_range_meters":5600,"station_id":"ce4bgs92rcd13ifvqcc0","pricing_plan_id":"cebpf4jnsgd1na2vs0mg"},{"bike_id":"fb0ecd7c-2c0f-42f1-9e73-9448c9893367","system_id":"levelo_inurba_marseille","lat":43.26499,"lon":5.37015,"is_reserved":false,"is_disabled":false,"rental_uris":{"android":"levelo://app?vid=fb0ecd7c-2c0f-42f1-9e73-9448c9893367","ios":"levelo://app?vid=fb0ecd7c-2c0f-42f1-9e73-9448c9893367"},"vehicle_type_id":"4","last_reported":1756217369,"current_range_meters":5600,"station_id":"","pricing_plan_id":"cebpf4jnsgd1na2vs0mg"},{"bike_id":"9e1a24db-e24e-4440-a80d-3a4c6b803a7d","system_id":"levelo_inurba_marseille","lat":43.286865,"lon":5.37402,"is_reserved":false,"is_disabled":false,"rental_uris":{"android":"levelo://app?vid=9e1a24db-e24e-4440-a80d-3a4c6b803a7d","ios":"levelo://app?vid=9e1a24db-e24e-4440-a80d-3a4c6b803a7d"},"vehicle_type_id":"4","last_reported":1756217369,"current_range_meters":5600,"station_id":"ce4bh3p2rcd13ifvqdq0","pricing_plan_id":"cebpf4jnsgd1na2vs0mg"},{"bike_id":"26661ec6-8b70-4584-81cf-1e94dccc41ea","system_id":"levelo_inurba_marseille","lat":43.284178,"lon":5.349823,"is_reserved":false,"is_disabled":false,"rental_uris":{"android":"levelo://app?vid=26661ec6-8b70-4584-81cf-1e94dccc41ea","ios":"levelo://app?vid=26661ec6-8b70-4584-81cf-1e94dccc41ea"},"vehicle_type_id":"4","last_reported":1756217369,"current_range_meters":5600,"station_id":"ce4bhbh2rcd13ifvqepg","pricing_plan_id":"cebpf4jnsgd1na2vs0mg"},{"bike_id":"b1fe4be7-ce34-4c11-a120-91d990b2206d","system_id":"levelo_inurba_marseille","lat":43.29608,"lon":5.38111,"is_reserved":false,"is_disabled":false,"rental_uris":{"android":"levelo://app?vid=b1fe4be7-ce34-4c11-a120-91d990b2206d","ios":"levelo://app?vid=b1fe4be7-ce34-4c11-a120-91d990b2206d"},"vehicle_type_id":"4","last_reported":1756217369,"current_range_meters":4800,"station_id":"ce4bgl12rcd13ifvqbo0","pricing_plan_id":"cebpf4jnsgd1na2vs0mg"},{"bike_id":"63236404-8533-4001-bab3-e0439bffb150","system_id":"levelo_inurba_marseille","lat":43.217528,"lon":5.345986,"is_reserved":false,"is_disabled":false,"rental_uris":{"android":"levelo://app?vid=63236404-8533-4001-bab3-e0439bffb150","ios":"levelo://app?vid=63236404-8533-4001-bab3-e0439bffb150"},"vehicle_type_id":"4","last_reported":1756217369,"current_range_meters":6000,"station_id":"","pricing_plan_id":"cebpf4jnsgd1na2vs0mg"},{"bike_id":"48a0a9b6-4030-4fa5-ab8c-3f88a887c731","system_id":"levelo_inurba_marseille","lat":43.30457,"lon":5.38895,"is_reserved":false,"is_disabled":false,"rental_uris":{"android":"levelo://app?vid=48a0a9b6-4030-4fa5-ab8c-3f88a887c731","ios":"levelo://app?vid=48a0a9b6-4030-4fa5-ab8c-3f88a887c731"},"vehicle_type_id":"4","last_reported":1756217369,"current_range_meters":6000,"station_id":"ce4bgk12rcd13ifvqbi0","pricing_plan_id":"cebpf4jnsgd1na2vs0mg"},{"bike_id":"2dbe503c-79b3-48c6-86b4-8a8d3fd09c8a","system_id":"levelo_inurba_marseille","lat":43.29877,"lon":5.39731,"is_reserved":false,"is_disabled":false,"rental_uris":{"android":"levelo://app?vid=2dbe503c-79b3-48c6-86b4-8a8d3fd09c8a","ios":"levelo://app?vid=2dbe503c-79b3-48c6-86b4-8a8d3fd09c8a"},"vehicle_type_id":"4","last_reported":1756217369,"current_range_meters":6400,"station_id":"ce4bh0h2rcd13ifvqd50","pricing_plan_id":"cebpf4jnsgd1na2vs0mg"},{"bike_id":"5f7eef9f-cffc-4983-b691-ca76cfe84362","system_id":"levelo_inurba_marseille","lat":43.29784,"lon":5.3935,"is_reserved":false,"is_disabled":false,"rental_uris":{"android":"levelo://app?vid=5f7eef9f-cffc-4983-b691-ca76cfe84362","ios":"levelo://app?vid=5f7eef9f-cffc-4983-b691-ca76cfe84362"},"vehicle_type_id":"4","last_reported":1756217369,"current_range_meters":6000,"station_id":"chh1huq6cuj3fo74tm60","pricing_plan_id":"cebpf4jnsgd1na2vs0mg"},{"bike_id":"1dfd7719-f6fc-438e-b94c-9dbde86d2483","system_id":"levelo_inurba_marseille","lat":43.28285,"lon":5.35076,"is_reserved":false,"is_disabled":false,"rental_uris":{"android":"levelo://app?vid=1dfd7719-f6fc-438e-b94c-9dbde86d2483","ios":"levelo://app?vid=1dfd7719-f6fc-438e-b94c-9dbde86d2483"},"vehicle_type_id":"4","last_reported":1756217369,"current_range_meters":6400,"station_id":"ce4bhbp2rcd13ifvqerg","pricing_plan_id":"cebpf4jnsgd1na2vs0mg"},{"bike_id":"8ad776da-df0e-4140-b1be-cc271931fcd1","system_id":"levelo_inurba_marseille","lat":43.2656,"lon":5.37283,"is_reserved":false,"is_disabled":false,"rental_uris":{"android":"levelo://app?vid=8ad776da-df0e-4140-b1be-cc271931fcd1","ios":"levelo://app?vid=8ad776da-df0e-4140-b1be-cc271931fcd1"},"vehicle_type_id":"4","last_reported":1756217369,"current_range_meters":6400,"station_id":"ce4bhg12rcd13ifvqf70","pricing_plan_id":"cebpf4jnsgd1na2vs0mg"},{"bike_id":"68c2b5a2-e1b6-4b62-854e-7b5decbb7ffe","system_id":"levelo_inurba_marseille","lat":43.24813,"lon":5.37462,"is_reserved":false,"is_disabled":false,"rental_uris":{"android":"levelo://app?vid=68c2b5a2-e1b6-4b62-854e-7b5decbb7ffe","ios":"levelo://app?vid=68c2b5a2-e1b6-4b62-854e-7b5decbb7ffe"},"vehicle_type_id":"4","last_reported":1756217369,"current_range_meters":6400,"station_id":"ce4bhgh2rcd13ifvqfb0","pricing_plan_id":"cebpf4jnsgd1na2vs0mg"},{"bike_id":"f3637d45-7ffa-4c62-9424-720d70884836","system_id":"levelo_inurba_marseille","lat":43.25124,"lon":5.40316,"is_reserved":false,"is_disabled":false,"rental_uris":{"android":"levelo://app?vid=f3637d45-7ffa-4c62-9424-720d70884836","ios":"levelo://app?vid=f3637d45-7ffa-4c62-9424-720d70884836"},"vehicle_type_id":"4","last_reported":1756217369,"current_range_meters":6000,"station_id":"ce4bhlh2rcd13ifvqgig","pricing_plan_id":"cebpf4jnsgd1na2vs0mg"},{"bike_id":"d6a05197-5da5-4fbc-82e0-f7ea593c06dd","system_id":"levelo_inurba_marseille","lat":43.27958,"lon":5.38709,"is_reserved":false,"is_disabled":true,"rental_uris":{"android":"levelo://app?vid=d6a05197-5da5-4fbc-82e0-f7ea593c06dd","ios":"levelo://app?vid=d6a05197-5da5-4fbc-82e0-f7ea593c06dd"},"vehicle_type_id":"4","last_reported":1756217369,"current_range_meters":6800,"station_id":"ce4bhg12rcd13ifvqf80","pricing_plan_id":"cebpf4jnsgd1na2vs0mg"},{"bike_id":"910a2fe9-c763-44c1-8de4-85789a7f1606","system_id":"levelo_inurba_marseille","lat":43.27429,"lon":5.39418,"is_reserved":false,"is_disabled":true,"rental_uris":{"android":"levelo://app?vid=910a2fe9-c763-44c1-8de4-85789a7f1606","ios":"levelo://app?vid=910a2fe9-c763-44c1-8de4-85789a7f1606"},"vehicle_type_id":"4","last_reported":1756217369,"current_range_meters":6800,"station_id":"ce4bhdp2rcd13ifvqf20","pricing_plan_id":"cebpf4jnsgd1na2vs0mg"},{"bike_id":"c13993cb-de2d-4057-8e03-e7515cb64881","system_id":"levelo_inurba_marseille","lat":43.29894,"lon":5.38895,"is_reserved":false,"is_disabled":false,"rental_uris":{"android":"levelo://app?vid=c13993cb-de2d-4057-8e03-e7515cb64881","ios":"levelo://app?vid=c13993cb-de2d-4057-8e03-e7515cb64881"},"vehicle_type_id":"4","last_reported":1756217369,"current_range_meters":6800,"station_id":"ce4bh392rcd13ifvqdl0","pricing_plan_id":"cebpf4jnsgd1na2vs0mg"},{"bike_id":"8faef99e-650e-40c1-83cb-01aa86a4cd0e","system_id":"levelo_inurba_marseille","lat":43.308929,"lon":5.372049,"is_reserved":false,"is_disabled":false,"rental_uris":{"android":"levelo://app?vid=8faef99e-650e-40c1-83cb-01aa86a4cd0e","ios":"levelo://app?vid=8faef99e-650e-40c1-83cb-01aa86a4cd0e"},"vehicle_type_id":"4","last_reported":1756217369,"current_range_meters":6800,"station_id":"ce4bguh2rcd13ifvqckg","pricing_plan_id":"cebpf4jnsgd1na2vs0mg"},{"bike_id":"d96666f1-96a8-48c5-aad9-ec67d9b99af0","system_id":"levelo_inurba_marseille","lat":43.232,"lon":5.35557,"is_reserved":false,"is_disabled":false,"rental_uris":{"android":"levelo://app?vid=d96666f1-96a8-48c5-aad9-ec67d9b99af0","ios":"levelo://app?vid=d96666f1-96a8-48c5-aad9-ec67d9b99af0"},"vehicle_type_id":"4","last_reported":1756217369,"current_range_meters":6800,"station_id":"ce4bhu92rcd13ifvqi70","pricing_plan_id":"cebpf4jnsgd1na2vs0mg"},{"bike_id":"b1dcfd07-f0eb-42e4-881e-820e8bbf3296","system_id":"levelo_inurba_marseille","lat":43.2816,"lon":5.42642,"is_reserved":false,"is_disabled":false,"rental_uris":{"android":"levelo://app?vid=b1dcfd07-f0eb-42e4-881e-820e8bbf3296","ios":"levelo://app?vid=b1dcfd07-f0eb-42e4-881e-820e8bbf3296"},"vehicle_type_id":"4","last_reported":1756217369,"current_range_meters":6800,"station_id":"ce4bhnh2rcd13ifvqgug","pricing_plan_id":"cebpf4jnsgd1na2vs0mg"},{"bike_id":"f36610ba-0240-452d-ad70-a353a94669f5","system_id":"levelo_inurba_marseille","lat":43.29444,"lon":5.39755,"is_reserved":false,"is_disabled":false,"rental_uris":{"android":"levelo://app?vid=f36610ba-0240-452d-ad70-a353a94669f5","ios":"levelo://app?vid=f36610ba-0240-452d-ad70-a353a94669f5"},"vehicle_type_id":"4","last_reported":1756217369,"current_range_meters":6800,"station_id":"ce4bh3h2rcd13ifvqdo0","pricing_plan_id":"cebpf4jnsgd1na2vs0mg"},{"bike_id":"f0cc5fc9-c901-42a0-a2b2-d9cc44cd1a99","system_id":"levelo_inurba_marseille","lat":43.29568,"lon":5.38552,"is_reserved":false,"is_disabled":false,"rental_uris":{"android":"levelo://app?vid=f0cc5fc9-c901-42a0-a2b2-d9cc44cd1a99","ios":"levelo://app?vid=f0cc5fc9-c901-42a0-a2b2-d9cc44cd1a99"},"vehicle_type_id":"4","last_reported":1756217369,"current_range_meters":6800,"station_id":"ce4bgih2rcd13ifvqba0","pricing_plan_id":"cebpf4jnsgd1na2vs0mg"},{"bike_id":"761e2286-9e05-43a5-a48d-2b1181602eab","system_id":"levelo_inurba_marseille","lat":43.2119,"lon":5.35088,"is_reserved":false,"is_disabled":false,"rental_uris":{"android":"levelo://app?vid=761e2286-9e05-43a5-a48d-2b1181602eab","ios":"levelo://app?vid=761e2286-9e05-43a5-a48d-2b1181602eab"},"vehicle_type_id":"4","last_reported":1756217369,"current_range_meters":6800,"station_id":"st_cvj6sg6p6f1abm77japg","pricing_plan_id":"cebpf4jnsgd1na2vs0mg"},{"bike_id":"3c77b571-b3bc-465c-bbeb-50308e64267d","system_id":"levelo_inurba_marseille","lat":43.30182,"lon":5.36611,"is_reserved":false,"is_disabled":false,"rental_uris":{"android":"levelo://app?vid=3c77b571-b3bc-465c-bbeb-50308e64267d","ios":"levelo://app?vid=3c77b571-b3bc-465c-bbeb-50308e64267d"},"vehicle_type_id":"4","last_reported":1756217369,"current_range_meters":6800,"station_id":"ce4bgrh2rcd13ifvqc8g","pricing_plan_id":"cebpf4jnsgd1na2vs0mg"},{"bike_id":"38ad1a97-0458-472a-84e5-68f0bffe7ff6","system_id":"levelo_inurba_marseille","lat":43.2848,"lon":5.3843,"is_reserved":false,"is_disabled":false,"rental_uris":{"android":"levelo://app?vid=38ad1a97-0458-472a-84e5-68f0bffe7ff6","ios":"levelo://app?vid=38ad1a97-0458-472a-84e5-68f0bffe7ff6"},"vehicle_type_id":"4","last_reported":1756217369,"current_range_meters":6800,"station_id":"ce4bh512rcd13ifvqe3g","pricing_plan_id":"cebpf4jnsgd1na2vs0mg"},{"bike_id":"824cd227-e1fd-4e05-b87e-05768514bec2","system_id":"levelo_inurba_marseille","lat":43.211918,"lon":5.350689,"is_reserved":false,"is_disabled":false,"rental_uris":{"android":"levelo://app?vid=824cd227-e1fd-4e05-b87e-05768514bec2","ios":"levelo://app?vid=824cd227-e1fd-4e05-b87e-05768514bec2"},"vehicle_type_id":"4","last_reported":1756217369,"current_range_meters":6800,"station_id":"st_cvj6sg6p6f1abm77japg","pricing_plan_id":"cebpf4jnsgd1na2vs0mg"},{"bike_id":"4ede7471-4081-4c15-a338-aa6f20b65073","system_id":"levelo_inurba_marseille","lat":43.29258,"lon":5.40902,"is_reserved":false,"is_disabled":false,"rental_uris":{"android":"levelo://app?vid=4ede7471-4081-4c15-a338-aa6f20b65073","ios":"levelo://app?vid=4ede7471-4081-4c15-a338-aa6f20b65073"},"vehicle_type_id":"4","last_reported":1756217369,"current_range_meters":7200,"station_id":"ce4bh192rcd13ifvqdc0","pricing_plan_id":"cebpf4jnsgd1na2vs0mg"},{"bike_id":"abfa5b93-3365-41af-b914-86fcdc16c104","system_id":"levelo_inurba_marseille","lat":43.26552,"lon":5.37284,"is_reserved":false,"is_disabled":false,"rental_uris":{"android":"levelo://app?vid=abfa5b93-3365-41af-b914-86fcdc16c104","ios":"levelo://app?vid=abfa5b93-3365-41af-b914-86fcdc16c104"},"vehicle_type_id":"4","last_reported":1756217369,"current_range_meters":7200,"station_id":"ce4bhg12rcd13ifvqf70","pricing_plan_id":"cebpf4jnsgd1na2vs0mg"},{"bike_id":"3eb31e4b-f676-421c-ad84-fa9f66f432a3","system_id":"levelo_inurba_marseille","lat":43.26066,"lon":5.39398,"is_reserved":false,"is_disabled":false,"rental_uris":{"android":"levelo://app?vid=3eb31e4b-f676-421c-ad84-fa9f66f432a3","ios":"levelo://app?vid=3eb31e4b-f676-421c-ad84-fa9f66f432a3"},"vehicle_type_id":"4","last_reported":1756217369,"current_range_meters":7200,"station_id":"ce4bhh92rcd13ifvqfj0","pricing_plan_id":"cebpf4jnsgd1na2vs0mg"},{"bike_id":"bbefa2eb-9b95-4390-9aab-26669e08b1ad","system_id":"levelo_inurba_marseille","lat":43.29921,"lon":5.37494,"is_reserved":false,"is_disabled":false,"rental_uris":{"android":"levelo://app?vid=bbefa2eb-9b95-4390-9aab-26669e08b1ad","ios":"levelo://app?vid=bbefa2eb-9b95-4390-9aab-26669e08b1ad"},"vehicle_type_id":"4","last_reported":1756217369,"current_range_meters":8000,"station_id":"ce4bgjh2rcd13ifvqbg0","pricing_plan_id":"cebpf4jnsgd1na2vs0mg"},{"bike_id":"a4045011-0b09-47da-b9db-3105946ba4e5","system_id":"levelo_inurba_marseille","lat":43.30903,"lon":5.37195,"is_reserved":false,"is_disabled":false,"rental_uris":{"android":"levelo://app?vid=a4045011-0b09-47da-b9db-3105946ba4e5","ios":"levelo://app?vid=a4045011-0b09-47da-b9db-3105946ba4e5"},"vehicle_type_id":"4","last_reported":1756217369,"current_range_meters":8000,"station_id":"ce4bguh2rcd13ifvqckg","pricing_plan_id":"cebpf4jnsgd1na2vs0mg"},{"bike_id":"e9394074-896a-4f73-a276-5c6582d4957c","system_id":"levelo_inurba_marseille","lat":43.25058,"lon":5.38913,"is_reserved":false,"is_disabled":false,"rental_uris":{"android":"levelo://app?vid=e9394074-896a-4f73-a276-5c6582d4957c","ios":"levelo://app?vid=e9394074-896a-4f73-a276-5c6582d4957c"},"vehicle_type_id":"4","last_reported":1756217369,"current_range_meters":8000,"station_id":"","pricing_plan_id":"cebpf4jnsgd1na2vs0mg"},{"bike_id":"4a521723-47ea-43bf-ba30-013282769494","system_id":"levelo_inurba_marseille","lat":43.29568,"lon":5.37527,"is_reserved":false,"is_disabled":false,"rental_uris":{"android":"levelo://app?vid=4a521723-47ea-43bf-ba30-013282769494","ios":"levelo://app?vid=4a521723-47ea-43bf-ba30-013282769494"},"vehicle_type_id":"4","last_reported":1756217369,"current_range_meters":8000,"station_id":"","pricing_plan_id":"cebpf4jnsgd1na2vs0mg"},{"bike_id":"173dd041-ccb5-44d0-be85-62a6c609ce84","system_id":"levelo_inurba_marseille","lat":43.308,"lon":5.38163,"is_reserved":false,"is_disabled":false,"rental_uris":{"android":"levelo://app?vid=173dd041-ccb5-44d0-be85-62a6c609ce84","ios":"levelo://app?vid=173dd041-ccb5-44d0-be85-62a6c609ce84"},"vehicle_type_id":"4","last_reported":1756217369,"current_range_meters":7200,"station_id":"ce4bgt12rcd13ifvqce0","pricing_plan_id":"cebpf4jnsgd1na2vs0mg"},{"bike_id":"b72ddfe3-c483-48b6-a880-a138054f95e8","system_id":"levelo_inurba_marseille","lat":43.21191,"lon":5.35078,"is_reserved":false,"is_disabled":false,"rental_uris":{"android":"levelo://app?vid=b72ddfe3-c483-48b6-a880-a138054f95e8","ios":"levelo://app?vid=b72ddfe3-c483-48b6-a880-a138054f95e8"},"vehicle_type_id":"4","last_reported":1756217369,"current_range_meters":8400,"station_id":"st_cvj6sg6p6f1abm77japg","pricing_plan_id":"cebpf4jnsgd1na2vs0mg"},{"bike_id":"baf1e75f-6603-4be6-a673-efe7efcdac10","system_id":"levelo_inurba_marseille","lat":43.21771,"lon":5.34578,"is_reserved":false,"is_disabled":false,"rental_uris":{"android":"levelo://app?vid=baf1e75f-6603-4be6-a673-efe7efcdac10","ios":"levelo://app?vid=baf1e75f-6603-4be6-a673-efe7efcdac10"},"vehicle_type_id":"4","last_reported":1756217369,"current_range_meters":8400,"station_id":"st_cvj6r9ubvosntc0bgbag","pricing_plan_id":"cebpf4jnsgd1na2vs0mg"},{"bike_id":"3d6497ab-d3b8-4f21-8cbf-87c0994ad765","system_id":"levelo_inurba_marseille","lat":43.24664,"lon":5.38894,"is_reserved":false,"is_disabled":false,"rental_uris":{"android":"levelo://app?vid=3d6497ab-d3b8-4f21-8cbf-87c0994ad765","ios":"levelo://app?vid=3d6497ab-d3b8-4f21-8cbf-87c0994ad765"},"vehicle_type_id":"4","last_reported":1756217369,"current_range_meters":8400,"station_id":"ce4bhg12rcd13ifvqf60","pricing_plan_id":"cebpf4jnsgd1na2vs0mg"},{"bike_id":"236f1a17-bd84-4b8e-977f-7df7d8cf402c","system_id":"levelo_inurba_marseille","lat":43.308117,"lon":5.435259,"is_reserved":false,"is_disabled":true,"rental_uris":{"android":"levelo://app?vid=236f1a17-bd84-4b8e-977f-7df7d8cf402c","ios":"levelo://app?vid=236f1a17-bd84-4b8e-977f-7df7d8cf402c"},"vehicle_type_id":"4","last_reported":1756217369,"current_range_meters":8400,"station_id":"ce4bhph2rcd13ifvqheg","pricing_plan_id":"cebpf4jnsgd1na2vs0mg"},{"bike_id":"fcdfb1d4-2f58-4004-b07f-bc087fd0169f","system_id":"levelo_inurba_marseille","lat":43.303887,"lon":5.373754,"is_reserved":false,"is_disabled":false,"rental_uris":{"android":"levelo://app?vid=fcdfb1d4-2f58-4004-b07f-bc087fd0169f","ios":"levelo://app?vid=fcdfb1d4-2f58-4004-b07f-bc087fd0169f"},"vehicle_type_id":"4","last_reported":1756217369,"current_range_meters":8800,"station_id":"","pricing_plan_id":"cebpf4jnsgd1na2vs0mg"},{"bike_id":"044e5214-8028-4adf-a3bc-9becba8fc3e7","system_id":"levelo_inurba_marseille","lat":43.29276,"lon":5.36842,"is_reserved":false,"is_disabled":false,"rental_uris":{"android":"levelo://app?vid=044e5214-8028-4adf-a3bc-9becba8fc3e7","ios":"levelo://app?vid=044e5214-8028-4adf-a3bc-9becba8fc3e7"},"vehicle_type_id":"4","last_reported":1756217369,"current_range_meters":8800,"station_id":"ce4bhbp2rcd13ifvqesg","pricing_plan_id":"cebpf4jnsgd1na2vs0mg"},{"bike_id":"df75f1fa-75ae-4074-a5b6-5911a8c1b6a8","system_id":"levelo_inurba_marseille","lat":43.30761,"lon":5.3721,"is_reserved":false,"is_disabled":false,"rental_uris":{"android":"levelo://app?vid=df75f1fa-75ae-4074-a5b6-5911a8c1b6a8","ios":"levelo://app?vid=df75f1fa-75ae-4074-a5b6-5911a8c1b6a8"},"vehicle_type_id":"4","last_reported":1756217369,"current_range_meters":8800,"station_id":"","pricing_plan_id":"cebpf4jnsgd1na2vs0mg"},{"bike_id":"b6057390-9456-46a9-bc98-f033148d1f90","system_id":"levelo_inurba_marseille","lat":43.29566,"lon":5.37503,"is_reserved":false,"is_disabled":false,"rental_uris":{"android":"levelo://app?vid=b6057390-9456-46a9-bc98-f033148d1f90","ios":"levelo://app?vid=b6057390-9456-46a9-bc98-f033148d1f90"},"vehicle_type_id":"4","last_reported":1756217369,"current_range_meters":9200,"station_id":"","pricing_plan_id":"cebpf4jnsgd1na2vs0mg"},{"bike_id":"ecd4c314-07e5-4cf7-a462-8b3e73577465","system_id":"levelo_inurba_marseille","lat":43.28618,"lon":5.35106,"is_reserved":false,"is_disabled":false,"rental_uris":{"android":"levelo://app?vid=ecd4c314-07e5-4cf7-a462-8b3e73577465","ios":"levelo://app?vid=ecd4c314-07e5-4cf7-a462-8b3e73577465"},"vehicle_type_id":"4","last_reported":1756217369,"current_range_meters":9200,"station_id":"ce4bhch2rcd13ifvqeug","pricing_plan_id":"cebpf4jnsgd1na2vs0mg"},{"bike_id":"d4dfb875-85eb-45d0-b13f-4e64a05defc1","system_id":"levelo_inurba_marseille","lat":43.3148,"lon":5.37164,"is_reserved":false,"is_disabled":false,"rental_uris":{"android":"levelo://app?vid=d4dfb875-85eb-45d0-b13f-4e64a05defc1","ios":"levelo://app?vid=d4dfb875-85eb-45d0-b13f-4e64a05defc1"},"vehicle_type_id":"4","last_reported":1756217369,"current_range_meters":9600,"station_id":"","pricing_plan_id":"cebpf4jnsgd1na2vs0mg"},{"bike_id":"4e1efb38-964e-4880-9058-88349c36716d","system_id":"levelo_inurba_marseille","lat":43.29877,"lon":5.38899,"is_reserved":false,"is_disabled":false,"rental_uris":{"android":"levelo://app?vid=4e1efb38-964e-4880-9058-88349c36716d","ios":"levelo://app?vid=4e1efb38-964e-4880-9058-88349c36716d"},"vehicle_type_id":"4","last_reported":1756217369,"current_range_meters":9200,"station_id":"ce4bh392rcd13ifvqdl0","pricing_plan_id":"cebpf4jnsgd1na2vs0mg"},{"bike_id":"04217c61-dd97-4a08-aee0-eea38d1aa6c7","system_id":"levelo_inurba_marseille","lat":43.25116,"lon":5.40326,"is_reserved":false,"is_disabled":false,"rental_uris":{"android":"levelo://app?vid=04217c61-dd97-4a08-aee0-eea38d1aa6c7","ios":"levelo://app?vid=04217c61-dd97-4a08-aee0-eea38d1aa6c7"},"vehicle_type_id":"4","last_reported":1756217369,"current_range_meters":9200,"station_id":"ce4bhlh2rcd13ifvqgig","pricing_plan_id":"cebpf4jnsgd1na2vs0mg"},{"bike_id":"96290dcb-5422-4c66-b871-eb048cbeec71","system_id":"levelo_inurba_marseille","lat":43.21223,"lon":5.35047,"is_reserved":false,"is_disabled":false,"rental_uris":{"android":"levelo://app?vid=96290dcb-5422-4c66-b871-eb048cbeec71","ios":"levelo://app?vid=96290dcb-5422-4c66-b871-eb048cbeec71"},"vehicle_type_id":"4","last_reported":1756217369,"current_range_meters":9600,"station_id":"","pricing_plan_id":"cebpf4jnsgd1na2vs0mg"},{"bike_id":"408513d4-b9df-4811-af19-8f53934a256b","system_id":"levelo_inurba_marseille","lat":43.29873,"lon":5.39732,"is_reserved":false,"is_disabled":false,"rental_uris":{"android":"levelo://app?vid=408513d4-b9df-4811-af19-8f53934a256b","ios":"levelo://app?vid=408513d4-b9df-4811-af19-8f53934a256b"},"vehicle_type_id":"4","last_reported":1756217369,"current_range_meters":9200,"station_id":"ce4bh0h2rcd13ifvqd50","pricing_plan_id":"cebpf4jnsgd1na2vs0mg"},{"bike_id":"a7617eaa-1f94-4263-82ae-df4c6a62a5c5","system_id":"levelo_inurba_marseille","lat":43.217521,"lon":5.345992,"is_reserved":false,"is_disabled":false,"rental_uris":{"android":"levelo://app?vid=a7617eaa-1f94-4263-82ae-df4c6a62a5c5","ios":"levelo://app?vid=a7617eaa-1f94-4263-82ae-df4c6a62a5c5"},"vehicle_type_id":"4","last_reported":1756217369,"current_range_meters":9600,"station_id":"st_cvj6r9ubvosntc0bgbag","pricing_plan_id":"cebpf4jnsgd1na2vs0mg"},{"bike_id":"bea9b573-b0c0-471b-a983-7d2a5da760bb","system_id":"levelo_inurba_marseille","lat":43.303763,"lon":5.424866,"is_reserved":false,"is_disabled":false,"rental_uris":{"android":"levelo://app?vid=bea9b573-b0c0-471b-a983-7d2a5da760bb","ios":"levelo://app?vid=bea9b573-b0c0-471b-a983-7d2a5da760bb"},"vehicle_type_id":"4","last_reported":1756217369,"current_range_meters":10000,"station_id":"ce4bhoh2rcd13ifvqh6g","pricing_plan_id":"cebpf4jnsgd1na2vs0mg"},{"bike_id":"9ebbca0f-8b0f-49e0-bbc0-5934ebb0e846","system_id":"levelo_inurba_marseille","lat":43.21206,"lon":5.35058,"is_reserved":false,"is_disabled":false,"rental_uris":{"android":"levelo://app?vid=9ebbca0f-8b0f-49e0-bbc0-5934ebb0e846","ios":"levelo://app?vid=9ebbca0f-8b0f-49e0-bbc0-5934ebb0e846"},"vehicle_type_id":"4","last_reported":1756217369,"current_range_meters":10000,"station_id":"st_cvj6sg6p6f1abm77japg","pricing_plan_id":"cebpf4jnsgd1na2vs0mg"},{"bike_id":"eb5d013a-33c1-494c-86c8-308c683d2af4","system_id":"levelo_inurba_marseille","lat":43.32121,"lon":5.36769,"is_reserved":false,"is_disabled":false,"rental_uris":{"android":"levelo://app?vid=eb5d013a-33c1-494c-86c8-308c683d2af4","ios":"levelo://app?vid=eb5d013a-33c1-494c-86c8-308c683d2af4"},"vehicle_type_id":"4","last_reported":1756217369,"current_range_meters":10000,"station_id":"ce4bhrh2rcd13ifvqhug","pricing_plan_id":"cebpf4jnsgd1na2vs0mg"},{"bike_id":"f781d014-afa9-4acc-b6f7-3670b0862de3","system_id":"levelo_inurba_marseille","lat":43.21192,"lon":5.35072,"is_reserved":false,"is_disabled":false,"rental_uris":{"android":"levelo://app?vid=f781d014-afa9-4acc-b6f7-3670b0862de3","ios":"levelo://app?vid=f781d014-afa9-4acc-b6f7-3670b0862de3"},"vehicle_type_id":"4","last_reported":1756217369,"current_range_meters":10000,"station_id":"st_cvj6sg6p6f1abm77japg","pricing_plan_id":"cebpf4jnsgd1na2vs0mg"},{"bike_id":"7c8f3a51-5187-4ccb-b454-f6565d98a191","system_id":"levelo_inurba_marseille","lat":43.28273,"lon":5.35076,"is_reserved":false,"is_disabled":false,"rental_uris":{"android":"levelo://app?vid=7c8f3a51-5187-4ccb-b454-f6565d98a191","ios":"levelo://app?vid=7c8f3a51-5187-4ccb-b454-f6565d98a191"},"vehicle_type_id":"4","last_reported":1756217369,"current_range_meters":10800,"station_id":"ce4bhbp2rcd13ifvqerg","pricing_plan_id":"cebpf4jnsgd1na2vs0mg"},{"bike_id":"17e906cb-49eb-4e61-bca8-05815c099054","system_id":"levelo_inurba_marseille","lat":43.29038,"lon":5.38636,"is_reserved":false,"is_disabled":false,"rental_uris":{"android":"levelo://app?vid=17e906cb-49eb-4e61-bca8-05815c099054","ios":"levelo://app?vid=17e906cb-49eb-4e61-bca8-05815c099054"},"vehicle_type_id":"4","last_reported":1756217369,"current_range_meters":10000,"station_id":"ce4bh4p2rcd13ifvqe0g","pricing_plan_id":"cebpf4jnsgd1na2vs0mg"},{"bike_id":"c8f19ab0-2650-42bf-bf99-315bb14cecb1","system_id":"levelo_inurba_marseille","lat":43.32399,"lon":5.36854,"is_reserved":false,"is_disabled":false,"rental_uris":{"android":"levelo://app?vid=c8f19ab0-2650-42bf-bf99-315bb14cecb1","ios":"levelo://app?vid=c8f19ab0-2650-42bf-bf99-315bb14cecb1"},"vehicle_type_id":"4","last_reported":1756217369,"current_range_meters":10800,"station_id":"ce4bhsh2rcd13ifvqi2g","pricing_plan_id":"cebpf4jnsgd1na2vs0mg"},{"bike_id":"096474a5-4aa2-4465-a57a-c4a51326a3d4","system_id":"levelo_inurba_marseille","lat":43.28282,"lon":5.35058,"is_reserved":false,"is_disabled":false,"rental_uris":{"android":"levelo://app?vid=096474a5-4aa2-4465-a57a-c4a51326a3d4","ios":"levelo://app?vid=096474a5-4aa2-4465-a57a-c4a51326a3d4"},"vehicle_type_id":"4","last_reported":1756217369,"current_range_meters":10800,"station_id":"ce4bhbp2rcd13ifvqerg","pricing_plan_id":"cebpf4jnsgd1na2vs0mg"},{"bike_id":"23952167-4e57-4f0e-9e6d-7bc6d149e6ac","system_id":"levelo_inurba_marseille","lat":43.30893,"lon":5.37198,"is_reserved":false,"is_disabled":false,"rental_uris":{"android":"levelo://app?vid=23952167-4e57-4f0e-9e6d-7bc6d149e6ac","ios":"levelo://app?vid=23952167-4e57-4f0e-9e6d-7bc6d149e6ac"},"vehicle_type_id":"4","last_reported":1756217369,"current_range_meters":10800,"station_id":"ce4bguh2rcd13ifvqckg","pricing_plan_id":"cebpf4jnsgd1na2vs0mg"},{"bike_id":"4e326991-524a-498f-8eda-9c8ae7d86a4d","system_id":"levelo_inurba_marseille","lat":43.3055,"lon":5.36516,"is_reserved":false,"is_disabled":false,"rental_uris":{"android":"levelo://app?vid=4e326991-524a-498f-8eda-9c8ae7d86a4d","ios":"levelo://app?vid=4e326991-524a-498f-8eda-9c8ae7d86a4d"},"vehicle_type_id":"4","last_reported":1756217369,"current_range_meters":10800,"station_id":"ce4bgs12rcd13ifvqcag","pricing_plan_id":"cebpf4jnsgd1na2vs0mg"},{"bike_id":"040e2b1b-f97a-4837-b465-79f0165276ec","system_id":"levelo_inurba_marseille","lat":43.28469,"lon":5.38416,"is_reserved":false,"is_disabled":false,"rental_uris":{"android":"levelo://app?vid=040e2b1b-f97a-4837-b465-79f0165276ec","ios":"levelo://app?vid=040e2b1b-f97a-4837-b465-79f0165276ec"},"vehicle_type_id":"4","last_reported":1756217369,"current_range_meters":10800,"station_id":"ce4bh512rcd13ifvqe3g","pricing_plan_id":"cebpf4jnsgd1na2vs0mg"},{"bike_id":"c14d2678-48fa-4d63-ac9b-b3687dd66c68","system_id":"levelo_inurba_marseille","lat":43.28428,"lon":5.34979,"is_reserved":false,"is_disabled":false,"rental_uris":{"android":"levelo://app?vid=c14d2678-48fa-4d63-ac9b-b3687dd66c68","ios":"levelo://app?vid=c14d2678-48fa-4d63-ac9b-b3687dd66c68"},"vehicle_type_id":"4","last_reported":1756217369,"current_range_meters":10800,"station_id":"ce4bhbh2rcd13ifvqepg","pricing_plan_id":"cebpf4jnsgd1na2vs0mg"},{"bike_id":"5726a359-98ce-447c-b279-3a0e732f36e6","system_id":"levelo_inurba_marseille","lat":43.24548,"lon":5.39521,"is_reserved":false,"is_disabled":false,"rental_uris":{"android":"levelo://app?vid=5726a359-98ce-447c-b279-3a0e732f36e6","ios":"levelo://app?vid=5726a359-98ce-447c-b279-3a0e732f36e6"},"vehicle_type_id":"4","last_reported":1756217369,"current_range_meters":10800,"station_id":"ce4bhlp2rcd13ifvqgjg","pricing_plan_id":"cebpf4jnsgd1na2vs0mg"},{"bike_id":"9567aee8-84f6-4a3f-b9a3-4ed9adef3fc3","system_id":"levelo_inurba_marseille","lat":43.24399,"lon":5.37062,"is_reserved":false,"is_disabled":false,"rental_uris":{"android":"levelo://app?vid=9567aee8-84f6-4a3f-b9a3-4ed9adef3fc3","ios":"levelo://app?vid=9567aee8-84f6-4a3f-b9a3-4ed9adef3fc3"},"vehicle_type_id":"4","last_reported":1756217369,"current_range_meters":11200,"station_id":"ce4bhhh2rcd13ifvqfk0","pricing_plan_id":"cebpf4jnsgd1na2vs0mg"},{"bike_id":"61bf6fa7-0d13-44dc-ad1f-c873abce392b","system_id":"levelo_inurba_marseille","lat":43.30356,"lon":5.41877,"is_reserved":false,"is_disabled":false,"rental_uris":{"android":"levelo://app?vid=61bf6fa7-0d13-44dc-ad1f-c873abce392b","ios":"levelo://app?vid=61bf6fa7-0d13-44dc-ad1f-c873abce392b"},"vehicle_type_id":"4","last_reported":1756217369,"current_range_meters":11200,"station_id":"ce4bhop2rcd13ifvqh7g","pricing_plan_id":"cebpf4jnsgd1na2vs0mg"},{"bike_id":"3fdab342-812b-4e87-a622-3fd4fcd806fa","system_id":"levelo_inurba_marseille","lat":43.31274,"lon":5.36859,"is_reserved":false,"is_disabled":false,"rental_uris":{"android":"levelo://app?vid=3fdab342-812b-4e87-a622-3fd4fcd806fa","ios":"levelo://app?vid=3fdab342-812b-4e87-a622-3fd4fcd806fa"},"vehicle_type_id":"4","last_reported":1756217369,"current_range_meters":11200,"station_id":"","pricing_plan_id":"cebpf4jnsgd1na2vs0mg"},{"bike_id":"37068f66-ef46-4a22-8fbc-a1a35fc51be4","system_id":"levelo_inurba_marseille","lat":43.29603,"lon":5.38106,"is_reserved":false,"is_disabled":false,"rental_uris":{"android":"levelo://app?vid=37068f66-ef46-4a22-8fbc-a1a35fc51be4","ios":"levelo://app?vid=37068f66-ef46-4a22-8fbc-a1a35fc51be4"},"vehicle_type_id":"4","last_reported":1756217369,"current_range_meters":10800,"station_id":"ce4bgl12rcd13ifvqbo0","pricing_plan_id":"cebpf4jnsgd1na2vs0mg"},{"bike_id":"bb3b1f8e-8cc5-4b98-b134-1d38210e2d7b","system_id":"levelo_inurba_marseille","lat":43.28426,"lon":5.35002,"is_reserved":false,"is_disabled":false,"rental_uris":{"android":"levelo://app?vid=bb3b1f8e-8cc5-4b98-b134-1d38210e2d7b","ios":"levelo://app?vid=bb3b1f8e-8cc5-4b98-b134-1d38210e2d7b"},"vehicle_type_id":"4","last_reported":1756217369,"current_range_meters":11600,"station_id":"ce4bhbh2rcd13ifvqepg","pricing_plan_id":"cebpf4jnsgd1na2vs0mg"},{"bike_id":"7853e986-59fb-41c7-974a-c3bf728020df","system_id":"levelo_inurba_marseille","lat":43.284092,"lon":5.349849,"is_reserved":false,"is_disabled":false,"rental_uris":{"android":"levelo://app?vid=7853e986-59fb-41c7-974a-c3bf728020df","ios":"levelo://app?vid=7853e986-59fb-41c7-974a-c3bf728020df"},"vehicle_type_id":"4","last_reported":1756217369,"current_range_meters":11600,"station_id":"ce4bhbh2rcd13ifvqepg","pricing_plan_id":"cebpf4jnsgd1na2vs0mg"},{"bike_id":"3e130ff4-87da-4c51-a264-44d1f277fd66","system_id":"levelo_inurba_marseille","lat":43.32093,"lon":5.36756,"is_reserved":false,"is_disabled":false,"rental_uris":{"android":"levelo://app?vid=3e130ff4-87da-4c51-a264-44d1f277fd66","ios":"levelo://app?vid=3e130ff4-87da-4c51-a264-44d1f277fd66"},"vehicle_type_id":"4","last_reported":1756217369,"current_range_meters":11600,"station_id":"ce4bhrh2rcd13ifvqhug","pricing_plan_id":"cebpf4jnsgd1na2vs0mg"},{"bike_id":"e2b0f307-cfe9-4ad5-b104-d661fcb0d809","system_id":"levelo_inurba_marseille","lat":43.2293,"lon":5.35375,"is_reserved":false,"is_disabled":false,"rental_uris":{"android":"levelo://app?vid=e2b0f307-cfe9-4ad5-b104-d661fcb0d809","ios":"levelo://app?vid=e2b0f307-cfe9-4ad5-b104-d661fcb0d809"},"vehicle_type_id":"4","last_reported":1756217369,"current_range_meters":12000,"station_id":"cpo3532slgdg3j2ikp40","pricing_plan_id":"cebpf4jnsgd1na2vs0mg"},{"bike_id":"38cad485-62ca-47da-8616-810cb925a7fd","system_id":"levelo_inurba_marseille","lat":43.30931,"lon":5.40143,"is_reserved":false,"is_disabled":false,"rental_uris":{"android":"levelo://app?vid=38cad485-62ca-47da-8616-810cb925a7fd","ios":"levelo://app?vid=38cad485-62ca-47da-8616-810cb925a7fd"},"vehicle_type_id":"4","last_reported":1756217369,"current_range_meters":12000,"station_id":"ce4bgvp2rcd13ifvqct0","pricing_plan_id":"cebpf4jnsgd1na2vs0mg"},{"bike_id":"9a25a217-0875-4991-a53a-f6f506199362","system_id":"levelo_inurba_marseille","lat":43.28264,"lon":5.3507,"is_reserved":false,"is_disabled":true,"rental_uris":{"android":"levelo://app?vid=9a25a217-0875-4991-a53a-f6f506199362","ios":"levelo://app?vid=9a25a217-0875-4991-a53a-f6f506199362"},"vehicle_type_id":"4","last_reported":1756217369,"current_range_meters":12000,"station_id":"ce4bhbp2rcd13ifvqerg","pricing_plan_id":"cebpf4jnsgd1na2vs0mg"},{"bike_id":"4cc018f4-5cd5-4be4-91ab-3d8ac7f2c0a2","system_id":"levelo_inurba_marseille","lat":43.30604,"lon":5.37228,"is_reserved":false,"is_disabled":false,"rental_uris":{"android":"levelo://app?vid=4cc018f4-5cd5-4be4-91ab-3d8ac7f2c0a2","ios":"levelo://app?vid=4cc018f4-5cd5-4be4-91ab-3d8ac7f2c0a2"},"vehicle_type_id":"4","last_reported":1756217369,"current_range_meters":12000,"station_id":"ce4bgqh2rcd13ifvqc4g","pricing_plan_id":"cebpf4jnsgd1na2vs0mg"},{"bike_id":"22db5e36-ef34-4e34-9d20-a6d5219e8570","system_id":"levelo_inurba_marseille","lat":43.30146,"lon":5.3742,"is_reserved":false,"is_disabled":false,"rental_uris":{"android":"levelo://app?vid=22db5e36-ef34-4e34-9d20-a6d5219e8570","ios":"levelo://app?vid=22db5e36-ef34-4e34-9d20-a6d5219e8570"},"vehicle_type_id":"4","last_reported":1756217369,"current_range_meters":12000,"station_id":"ce4bgs92rcd13ifvqcc0","pricing_plan_id":"cebpf4jnsgd1na2vs0mg"},{"bike_id":"47c72c85-64e7-43b8-ada4-0f17a3d10859","system_id":"levelo_inurba_marseille","lat":43.21745,"lon":5.34601,"is_reserved":false,"is_disabled":true,"rental_uris":{"android":"levelo://app?vid=47c72c85-64e7-43b8-ada4-0f17a3d10859","ios":"levelo://app?vid=47c72c85-64e7-43b8-ada4-0f17a3d10859"},"vehicle_type_id":"4","last_reported":1756217369,"current_range_meters":12000,"station_id":"","pricing_plan_id":"cebpf4jnsgd1na2vs0mg"},{"bike_id":"bf69c5a9-2dda-478b-a044-670a6c6ee1c5","system_id":"levelo_inurba_marseille","lat":43.27387,"lon":5.36264,"is_reserved":false,"is_disabled":false,"rental_uris":{"android":"levelo://app?vid=bf69c5a9-2dda-478b-a044-670a6c6ee1c5","ios":"levelo://app?vid=bf69c5a9-2dda-478b-a044-670a6c6ee1c5"},"vehicle_type_id":"4","last_reported":1756217369,"current_range_meters":12000,"station_id":"ce4bhbh2rcd13ifvqeo0","pricing_plan_id":"cebpf4jnsgd1na2vs0mg"},{"bike_id":"ede25cca-5631-4ac9-986a-943b64192036","system_id":"levelo_inurba_marseille","lat":43.23183,"lon":5.39991,"is_reserved":false,"is_disabled":false,"rental_uris":{"android":"levelo://app?vid=ede25cca-5631-4ac9-986a-943b64192036","ios":"levelo://app?vid=ede25cca-5631-4ac9-986a-943b64192036"},"vehicle_type_id":"4","last_reported":1756217369,"current_range_meters":12400,"station_id":"ce4bhn12rcd13ifvqgqg","pricing_plan_id":"cebpf4jnsgd1na2vs0mg"},{"bike_id":"a02c36f2-5c73-4274-9dab-3dcfac8b6d0b","system_id":"levelo_inurba_marseille","lat":43.32353,"lon":5.36743,"is_reserved":false,"is_disabled":false,"rental_uris":{"android":"levelo://app?vid=a02c36f2-5c73-4274-9dab-3dcfac8b6d0b","ios":"levelo://app?vid=a02c36f2-5c73-4274-9dab-3dcfac8b6d0b"},"vehicle_type_id":"4","last_reported":1756217369,"current_range_meters":12400,"station_id":"ce4bhsh2rcd13ifvqi2g","pricing_plan_id":"cebpf4jnsgd1na2vs0mg"},{"bike_id":"0d502687-08ef-4491-8893-8a03d8688be8","system_id":"levelo_inurba_marseille","lat":43.2964,"lon":5.36102,"is_reserved":false,"is_disabled":false,"rental_uris":{"android":"levelo://app?vid=0d502687-08ef-4491-8893-8a03d8688be8","ios":"levelo://app?vid=0d502687-08ef-4491-8893-8a03d8688be8"},"vehicle_type_id":"4","last_reported":1756217369,"current_range_meters":12400,"station_id":"","pricing_plan_id":"cebpf4jnsgd1na2vs0mg"},{"bike_id":"39bef640-d521-4bb2-866a-256acb1bc0ed","system_id":"levelo_inurba_marseille","lat":43.28696,"lon":5.37393,"is_reserved":false,"is_disabled":false,"rental_uris":{"android":"levelo://app?vid=39bef640-d521-4bb2-866a-256acb1bc0ed","ios":"levelo://app?vid=39bef640-d521-4bb2-866a-256acb1bc0ed"},"vehicle_type_id":"4","last_reported":1756217369,"current_range_meters":12800,"station_id":"ce4bh3p2rcd13ifvqdq0","pricing_plan_id":"cebpf4jnsgd1na2vs0mg"},{"bike_id":"632030b5-1498-47c0-aa28-dfb19d01a1ea","system_id":"levelo_inurba_marseille","lat":43.2622,"lon":5.37436,"is_reserved":false,"is_disabled":false,"rental_uris":{"android":"levelo://app?vid=632030b5-1498-47c0-aa28-dfb19d01a1ea","ios":"levelo://app?vid=632030b5-1498-47c0-aa28-dfb19d01a1ea"},"vehicle_type_id":"4","last_reported":1756217369,"current_range_meters":12800,"station_id":"ce4bhgp2rcd13ifvqfc0","pricing_plan_id":"cebpf4jnsgd1na2vs0mg"},{"bike_id":"b375d41b-9575-4c77-a6a9-d089747042e7","system_id":"levelo_inurba_marseille","lat":43.32282,"lon":5.36775,"is_reserved":false,"is_disabled":false,"rental_uris":{"android":"levelo://app?vid=b375d41b-9575-4c77-a6a9-d089747042e7","ios":"levelo://app?vid=b375d41b-9575-4c77-a6a9-d089747042e7"},"vehicle_type_id":"4","last_reported":1756217369,"current_range_meters":12800,"station_id":"","pricing_plan_id":"cebpf4jnsgd1na2vs0mg"},{"bike_id":"83e818dd-7ff3-45dd-b46a-ecfe9cbc3bf8","system_id":"levelo_inurba_marseille","lat":43.26239,"lon":5.37425,"is_reserved":false,"is_disabled":false,"rental_uris":{"android":"levelo://app?vid=83e818dd-7ff3-45dd-b46a-ecfe9cbc3bf8","ios":"levelo://app?vid=83e818dd-7ff3-45dd-b46a-ecfe9cbc3bf8"},"vehicle_type_id":"4","last_reported":1756217369,"current_range_meters":12800,"station_id":"","pricing_plan_id":"cebpf4jnsgd1na2vs0mg"},{"bike_id":"cb0a8ef9-2aa8-4b39-b79a-aa4b5daffc47","system_id":"levelo_inurba_marseille","lat":43.337223,"lon":5.391755,"is_reserved":false,"is_disabled":false,"rental_uris":{"android":"levelo://app?vid=cb0a8ef9-2aa8-4b39-b79a-aa4b5daffc47","ios":"levelo://app?vid=cb0a8ef9-2aa8-4b39-b79a-aa4b5daffc47"},"vehicle_type_id":"4","last_reported":1756217369,"current_range_meters":12800,"station_id":"ce4bhr92rcd13ifvqhsg","pricing_plan_id":"cebpf4jnsgd1na2vs0mg"},{"bike_id":"a25faefd-0357-4bc0-914c-e2f2949d57b3","system_id":"levelo_inurba_marseille","lat":43.2708,"lon":5.42271,"is_reserved":false,"is_disabled":false,"rental_uris":{"android":"levelo://app?vid=a25faefd-0357-4bc0-914c-e2f2949d57b3","ios":"levelo://app?vid=a25faefd-0357-4bc0-914c-e2f2949d57b3"},"vehicle_type_id":"4","last_reported":1756217369,"current_range_meters":12800,"station_id":"ce4bhk92rcd13ifvqgb0","pricing_plan_id":"cebpf4jnsgd1na2vs0mg"},{"bike_id":"49eec2c5-900f-441c-bbed-cc4391f2a50b","system_id":"levelo_inurba_marseille","lat":43.25522,"lon":5.37628,"is_reserved":false,"is_disabled":false,"rental_uris":{"android":"levelo://app?vid=49eec2c5-900f-441c-bbed-cc4391f2a50b","ios":"levelo://app?vid=49eec2c5-900f-441c-bbed-cc4391f2a50b"},"vehicle_type_id":"4","last_reported":1756217369,"current_range_meters":12800,"station_id":"ce4bhh12rcd13ifvqff0","pricing_plan_id":"cebpf4jnsgd1na2vs0mg"},{"bike_id":"163890c7-82c1-421e-9428-649d10d9002c","system_id":"levelo_inurba_marseille","lat":43.30536,"lon":5.36549,"is_reserved":false,"is_disabled":false,"rental_uris":{"android":"levelo://app?vid=163890c7-82c1-421e-9428-649d10d9002c","ios":"levelo://app?vid=163890c7-82c1-421e-9428-649d10d9002c"},"vehicle_type_id":"4","last_reported":1756217369,"current_range_meters":12800,"station_id":"ce4bgs12rcd13ifvqcag","pricing_plan_id":"cebpf4jnsgd1na2vs0mg"},{"bike_id":"b6d727d8-b5ab-46d2-9978-fd5ba1dad8e0","system_id":"levelo_inurba_marseille","lat":43.30924,"lon":5.36852,"is_reserved":false,"is_disabled":false,"rental_uris":{"android":"levelo://app?vid=b6d727d8-b5ab-46d2-9978-fd5ba1dad8e0","ios":"levelo://app?vid=b6d727d8-b5ab-46d2-9978-fd5ba1dad8e0"},"vehicle_type_id":"4","last_reported":1756217369,"current_range_meters":13600,"station_id":"ce4bgn92rcd13ifvqbvg","pricing_plan_id":"cebpf4jnsgd1na2vs0mg"},{"bike_id":"1be27069-4d94-4dca-8c1b-fe8396c40f21","system_id":"levelo_inurba_marseille","lat":43.31325,"lon":5.39694,"is_reserved":false,"is_disabled":false,"rental_uris":{"android":"levelo://app?vid=1be27069-4d94-4dca-8c1b-fe8396c40f21","ios":"levelo://app?vid=1be27069-4d94-4dca-8c1b-fe8396c40f21"},"vehicle_type_id":"4","last_reported":1756217369,"current_range_meters":12800,"station_id":"ce4bgvp2rcd13ifvqcu0","pricing_plan_id":"cebpf4jnsgd1na2vs0mg"},{"bike_id":"322c13d7-5103-40c7-9806-91edae6ced8c","system_id":"levelo_inurba_marseille","lat":43.31276,"lon":5.40163,"is_reserved":false,"is_disabled":false,"rental_uris":{"android":"levelo://app?vid=322c13d7-5103-40c7-9806-91edae6ced8c","ios":"levelo://app?vid=322c13d7-5103-40c7-9806-91edae6ced8c"},"vehicle_type_id":"4","last_reported":1756217369,"current_range_meters":13600,"station_id":"ce4bh092rcd13ifvqd30","pricing_plan_id":"cebpf4jnsgd1na2vs0mg"},{"bike_id":"81d63cb5-de51-4d5b-904e-59e37c00bb3b","system_id":"levelo_inurba_marseille","lat":43.31284,"lon":5.39676,"is_reserved":false,"is_disabled":false,"rental_uris":{"android":"levelo://app?vid=81d63cb5-de51-4d5b-904e-59e37c00bb3b","ios":"levelo://app?vid=81d63cb5-de51-4d5b-904e-59e37c00bb3b"},"vehicle_type_id":"4","last_reported":1756217369,"current_range_meters":13600,"station_id":"ce4bgvp2rcd13ifvqcu0","pricing_plan_id":"cebpf4jnsgd1na2vs0mg"},{"bike_id":"9653b575-f3f0-481f-b5ab-adc0a30148e8","system_id":"levelo_inurba_marseille","lat":43.23066,"lon":5.35491,"is_reserved":false,"is_disabled":false,"rental_uris":{"android":"levelo://app?vid=9653b575-f3f0-481f-b5ab-adc0a30148e8","ios":"levelo://app?vid=9653b575-f3f0-481f-b5ab-adc0a30148e8"},"vehicle_type_id":"4","last_reported":1756217369,"current_range_meters":13600,"station_id":"cpo3342slgdg3j2ifvpg","pricing_plan_id":"cebpf4jnsgd1na2vs0mg"},{"bike_id":"c47b2876-c564-417f-9d7f-97cdd2f94270","system_id":"levelo_inurba_marseille","lat":43.24183,"lon":5.36367,"is_reserved":false,"is_disabled":false,"rental_uris":{"android":"levelo://app?vid=c47b2876-c564-417f-9d7f-97cdd2f94270","ios":"levelo://app?vid=c47b2876-c564-417f-9d7f-97cdd2f94270"},"vehicle_type_id":"4","last_reported":1756217369,"current_range_meters":13600,"station_id":"cpo36qri1sfpv3e86is0","pricing_plan_id":"cebpf4jnsgd1na2vs0mg"},{"bike_id":"c2f5aa2d-f5a6-4cff-b9de-666245edd824","system_id":"levelo_inurba_marseille","lat":43.29568,"lon":5.39982,"is_reserved":false,"is_disabled":false,"rental_uris":{"android":"levelo://app?vid=c2f5aa2d-f5a6-4cff-b9de-666245edd824","ios":"levelo://app?vid=c2f5aa2d-f5a6-4cff-b9de-666245edd824"},"vehicle_type_id":"4","last_reported":1756217369,"current_range_meters":13600,"station_id":"ce4bh312rcd13ifvqdj0","pricing_plan_id":"cebpf4jnsgd1na2vs0mg"},{"bike_id":"f84f46c8-243d-42cd-b308-2b289e4c09d3","system_id":"levelo_inurba_marseille","lat":43.334514,"lon":5.356717,"is_reserved":false,"is_disabled":false,"rental_uris":{"android":"levelo://app?vid=f84f46c8-243d-42cd-b308-2b289e4c09d3","ios":"levelo://app?vid=f84f46c8-243d-42cd-b308-2b289e4c09d3"},"vehicle_type_id":"4","last_reported":1756217369,"current_range_meters":13600,"station_id":"","pricing_plan_id":"cebpf4jnsgd1na2vs0mg"},{"bike_id":"b17e9630-4e67-4e4a-bb95-0a4f7773f222","system_id":"levelo_inurba_marseille","lat":43.29694,"lon":5.37659,"is_reserved":false,"is_disabled":false,"rental_uris":{"android":"levelo://app?vid=b17e9630-4e67-4e4a-bb95-0a4f7773f222","ios":"levelo://app?vid=b17e9630-4e67-4e4a-bb95-0a4f7773f222"},"vehicle_type_id":"4","last_reported":1756217369,"current_range_meters":13600,"station_id":"ce4bgkh2rcd13ifvqbl0","pricing_plan_id":"cebpf4jnsgd1na2vs0mg"},{"bike_id":"eaac1ac6-6c5d-4274-970f-7bad9d177f4b","system_id":"levelo_inurba_marseille","lat":43.33767,"lon":5.37473,"is_reserved":false,"is_disabled":false,"rental_uris":{"android":"levelo://app?vid=eaac1ac6-6c5d-4274-970f-7bad9d177f4b","ios":"levelo://app?vid=eaac1ac6-6c5d-4274-970f-7bad9d177f4b"},"vehicle_type_id":"4","last_reported":1756217369,"current_range_meters":14000,"station_id":"","pricing_plan_id":"cebpf4jnsgd1na2vs0mg"},{"bike_id":"9a42c314-a0d5-4b01-858e-e6cd82182601","system_id":"levelo_inurba_marseille","lat":43.30438,"lon":5.38902,"is_reserved":false,"is_disabled":false,"rental_uris":{"android":"levelo://app?vid=9a42c314-a0d5-4b01-858e-e6cd82182601","ios":"levelo://app?vid=9a42c314-a0d5-4b01-858e-e6cd82182601"},"vehicle_type_id":"4","last_reported":1756217369,"current_range_meters":14000,"station_id":"ce4bgk12rcd13ifvqbi0","pricing_plan_id":"cebpf4jnsgd1na2vs0mg"},{"bike_id":"6efb02f4-7fb2-48f0-917f-f06f6bf8a699","system_id":"levelo_inurba_marseille","lat":43.29309,"lon":5.37172,"is_reserved":false,"is_disabled":false,"rental_uris":{"android":"levelo://app?vid=6efb02f4-7fb2-48f0-917f-f06f6bf8a699","ios":"levelo://app?vid=6efb02f4-7fb2-48f0-917f-f06f6bf8a699"},"vehicle_type_id":"4","last_reported":1756217369,"current_range_meters":14000,"station_id":"ce4bgh92rcd13ifvqb40","pricing_plan_id":"cebpf4jnsgd1na2vs0mg"},{"bike_id":"37027406-50fb-40be-aa96-1257bd2a89a6","system_id":"levelo_inurba_marseille","lat":43.23155,"lon":5.43708,"is_reserved":false,"is_disabled":false,"rental_uris":{"android":"levelo://app?vid=37027406-50fb-40be-aa96-1257bd2a89a6","ios":"levelo://app?vid=37027406-50fb-40be-aa96-1257bd2a89a6"},"vehicle_type_id":"4","last_reported":1756217369,"current_range_meters":14000,"station_id":"ce4bhmp2rcd13ifvqgog","pricing_plan_id":"cebpf4jnsgd1na2vs0mg"},{"bike_id":"579783a7-a252-4cb1-9163-6c5a986fedf9","system_id":"levelo_inurba_marseille","lat":43.24173,"lon":5.364,"is_reserved":false,"is_disabled":false,"rental_uris":{"android":"levelo://app?vid=579783a7-a252-4cb1-9163-6c5a986fedf9","ios":"levelo://app?vid=579783a7-a252-4cb1-9163-6c5a986fedf9"},"vehicle_type_id":"4","last_reported":1756217369,"current_range_meters":14000,"station_id":"cpo36qri1sfpv3e86is0","pricing_plan_id":"cebpf4jnsgd1na2vs0mg"},{"bike_id":"18a387b9-0861-4130-9697-e1d2d80e32cd","system_id":"levelo_inurba_marseille","lat":43.31121,"lon":5.37761,"is_reserved":false,"is_disabled":false,"rental_uris":{"android":"levelo://app?vid=18a387b9-0861-4130-9697-e1d2d80e32cd","ios":"levelo://app?vid=18a387b9-0861-4130-9697-e1d2d80e32cd"},"vehicle_type_id":"4","last_reported":1756217369,"current_range_meters":14000,"station_id":"ce4bgt92rcd13ifvqcg0","pricing_plan_id":"cebpf4jnsgd1na2vs0mg"},{"bike_id":"a15a1c44-718b-407d-acaa-0383628c87d7","system_id":"levelo_inurba_marseille","lat":43.32706,"lon":5.392,"is_reserved":false,"is_disabled":false,"rental_uris":{"android":"levelo://app?vid=a15a1c44-718b-407d-acaa-0383628c87d7","ios":"levelo://app?vid=a15a1c44-718b-407d-acaa-0383628c87d7"},"vehicle_type_id":"4","last_reported":1756217369,"current_range_meters":14000,"station_id":"","pricing_plan_id":"cebpf4jnsgd1na2vs0mg"},{"bike_id":"f16a5eea-a360-42fb-aa80-4db87d817d11","system_id":"levelo_inurba_marseille","lat":43.29066,"lon":5.36639,"is_reserved":false,"is_disabled":false,"rental_uris":{"android":"levelo://app?vid=f16a5eea-a360-42fb-aa80-4db87d817d11","ios":"levelo://app?vid=f16a5eea-a360-42fb-aa80-4db87d817d11"},"vehicle_type_id":"4","last_reported":1756217369,"current_range_meters":14000,"station_id":"","pricing_plan_id":"cebpf4jnsgd1na2vs0mg"},{"bike_id":"51842e17-ef10-4624-a23e-c8a182427991","system_id":"levelo_inurba_marseille","lat":43.316166,"lon":5.382526,"is_reserved":false,"is_disabled":false,"rental_uris":{"android":"levelo://app?vid=51842e17-ef10-4624-a23e-c8a182427991","ios":"levelo://app?vid=51842e17-ef10-4624-a23e-c8a182427991"},"vehicle_type_id":"4","last_reported":1756217369,"current_range_meters":14000,"station_id":"","pricing_plan_id":"cebpf4jnsgd1na2vs0mg"},{"bike_id":"5f9365e2-60dc-4158-a2c3-0e40911a7a32","system_id":"levelo_inurba_marseille","lat":43.334195,"lon":5.400471,"is_reserved":false,"is_disabled":false,"rental_uris":{"android":"levelo://app?vid=5f9365e2-60dc-4158-a2c3-0e40911a7a32","ios":"levelo://app?vid=5f9365e2-60dc-4158-a2c3-0e40911a7a32"},"vehicle_type_id":"4","last_reported":1756217369,"current_range_meters":14000,"station_id":"","pricing_plan_id":"cebpf4jnsgd1na2vs0mg"},{"bike_id":"3dce5674-15e9-490f-9ab6-3f58320071f8","system_id":"levelo_inurba_marseille","lat":43.27423,"lon":5.39412,"is_reserved":false,"is_disabled":false,"rental_uris":{"android":"levelo://app?vid=3dce5674-15e9-490f-9ab6-3f58320071f8","ios":"levelo://app?vid=3dce5674-15e9-490f-9ab6-3f58320071f8"},"vehicle_type_id":"4","last_reported":1756217369,"current_range_meters":14400,"station_id":"ce4bhdp2rcd13ifvqf20","pricing_plan_id":"cebpf4jnsgd1na2vs0mg"},{"bike_id":"15f79efe-f691-44b8-bddb-17af1b9052ef","system_id":"levelo_inurba_marseille","lat":43.26553,"lon":5.37301,"is_reserved":false,"is_disabled":false,"rental_uris":{"android":"levelo://app?vid=15f79efe-f691-44b8-bddb-17af1b9052ef","ios":"levelo://app?vid=15f79efe-f691-44b8-bddb-17af1b9052ef"},"vehicle_type_id":"4","last_reported":1756217369,"current_range_meters":16000,"station_id":"ce4bhg12rcd13ifvqf70","pricing_plan_id":"cebpf4jnsgd1na2vs0mg"},{"bike_id":"0843825f-6559-43f2-866a-37cadfae5689","system_id":"levelo_inurba_marseille","lat":43.2119,"lon":5.35073,"is_reserved":false,"is_disabled":false,"rental_uris":{"android":"levelo://app?vid=0843825f-6559-43f2-866a-37cadfae5689","ios":"levelo://app?vid=0843825f-6559-43f2-866a-37cadfae5689"},"vehicle_type_id":"4","last_reported":1756217369,"current_range_meters":14400,"station_id":"st_cvj6sg6p6f1abm77japg","pricing_plan_id":"cebpf4jnsgd1na2vs0mg"},{"bike_id":"f50e029c-78e4-4943-96e6-f587e062386c","system_id":"levelo_inurba_marseille","lat":43.31718,"lon":5.42412,"is_reserved":false,"is_disabled":false,"rental_uris":{"android":"levelo://app?vid=f50e029c-78e4-4943-96e6-f587e062386c","ios":"levelo://app?vid=f50e029c-78e4-4943-96e6-f587e062386c"},"vehicle_type_id":"4","last_reported":1756217369,"current_range_meters":14400,"station_id":"ce4bhp92rcd13ifvqhbg","pricing_plan_id":"cebpf4jnsgd1na2vs0mg"},{"bike_id":"92a6daf4-52a3-4912-9963-677bd6223717","system_id":"levelo_inurba_marseille","lat":43.21193,"lon":5.35066,"is_reserved":false,"is_disabled":false,"rental_uris":{"android":"levelo://app?vid=92a6daf4-52a3-4912-9963-677bd6223717","ios":"levelo://app?vid=92a6daf4-52a3-4912-9963-677bd6223717"},"vehicle_type_id":"4","last_reported":1756217369,"current_range_meters":14400,"station_id":"st_cvj6sg6p6f1abm77japg","pricing_plan_id":"cebpf4jnsgd1na2vs0mg"},{"bike_id":"fd67696d-ef93-4fd1-be0a-8a9116cbc5b1","system_id":"levelo_inurba_marseille","lat":43.25006,"lon":5.389113,"is_reserved":false,"is_disabled":false,"rental_uris":{"android":"levelo://app?vid=fd67696d-ef93-4fd1-be0a-8a9116cbc5b1","ios":"levelo://app?vid=fd67696d-ef93-4fd1-be0a-8a9116cbc5b1"},"vehicle_type_id":"4","last_reported":1756217369,"current_range_meters":14400,"station_id":"","pricing_plan_id":"cebpf4jnsgd1na2vs0mg"},{"bike_id":"026e3973-93d1-4c5c-ae15-8b22641bac68","system_id":"levelo_inurba_marseille","lat":43.28618,"lon":5.35115,"is_reserved":false,"is_disabled":false,"rental_uris":{"android":"levelo://app?vid=026e3973-93d1-4c5c-ae15-8b22641bac68","ios":"levelo://app?vid=026e3973-93d1-4c5c-ae15-8b22641bac68"},"vehicle_type_id":"4","last_reported":1756217369,"current_range_meters":14800,"station_id":"ce4bhch2rcd13ifvqeug","pricing_plan_id":"cebpf4jnsgd1na2vs0mg"},{"bike_id":"1027bb83-a668-47de-9094-84302cb909d4","system_id":"levelo_inurba_marseille","lat":43.2122,"lon":5.35032,"is_reserved":false,"is_disabled":false,"rental_uris":{"android":"levelo://app?vid=1027bb83-a668-47de-9094-84302cb909d4","ios":"levelo://app?vid=1027bb83-a668-47de-9094-84302cb909d4"},"vehicle_type_id":"4","last_reported":1756217369,"current_range_meters":14800,"station_id":"","pricing_plan_id":"cebpf4jnsgd1na2vs0mg"},{"bike_id":"0e256118-fe33-4307-b7cb-16c76027513c","system_id":"levelo_inurba_marseille","lat":43.24067,"lon":5.37776,"is_reserved":false,"is_disabled":false,"rental_uris":{"android":"levelo://app?vid=0e256118-fe33-4307-b7cb-16c76027513c","ios":"levelo://app?vid=0e256118-fe33-4307-b7cb-16c76027513c"},"vehicle_type_id":"4","last_reported":1756217369,"current_range_meters":14800,"station_id":"ce4bhnp2rcd13ifvqgvg","pricing_plan_id":"cebpf4jnsgd1na2vs0mg"},{"bike_id":"b243651b-cb07-42ce-afd0-8c676d14595c","system_id":"levelo_inurba_marseille","lat":43.25007,"lon":5.389302,"is_reserved":false,"is_disabled":false,"rental_uris":{"android":"levelo://app?vid=b243651b-cb07-42ce-afd0-8c676d14595c","ios":"levelo://app?vid=b243651b-cb07-42ce-afd0-8c676d14595c"},"vehicle_type_id":"4","last_reported":1756217369,"current_range_meters":15200,"station_id":"ce4bhgp2rcd13ifvqfd0","pricing_plan_id":"cebpf4jnsgd1na2vs0mg"},{"bike_id":"89bb2efc-5c45-48e0-b659-b8ecb63211d5","system_id":"levelo_inurba_marseille","lat":43.29811,"lon":5.39341,"is_reserved":false,"is_disabled":false,"rental_uris":{"android":"levelo://app?vid=89bb2efc-5c45-48e0-b659-b8ecb63211d5","ios":"levelo://app?vid=89bb2efc-5c45-48e0-b659-b8ecb63211d5"},"vehicle_type_id":"4","last_reported":1756217369,"current_range_meters":15200,"station_id":"chh1huq6cuj3fo74tm60","pricing_plan_id":"cebpf4jnsgd1na2vs0mg"},{"bike_id":"b4d6c33d-a0bf-42a3-9ab7-0db80b72b559","system_id":"levelo_inurba_marseille","lat":43.28951,"lon":5.36635,"is_reserved":false,"is_disabled":true,"rental_uris":{"android":"levelo://app?vid=b4d6c33d-a0bf-42a3-9ab7-0db80b72b559","ios":"levelo://app?vid=b4d6c33d-a0bf-42a3-9ab7-0db80b72b559"},"vehicle_type_id":"4","last_reported":1756217369,"current_range_meters":15200,"station_id":"ce4bhap2rcd13ifvqek0","pricing_plan_id":"cebpf4jnsgd1na2vs0mg"},{"bike_id":"af732ca8-2cea-448a-9928-59e03d12656f","system_id":"levelo_inurba_marseille","lat":43.33553,"lon":5.35912,"is_reserved":false,"is_disabled":false,"rental_uris":{"android":"levelo://app?vid=af732ca8-2cea-448a-9928-59e03d12656f","ios":"levelo://app?vid=af732ca8-2cea-448a-9928-59e03d12656f"},"vehicle_type_id":"4","last_reported":1756217369,"current_range_meters":15200,"station_id":"","pricing_plan_id":"cebpf4jnsgd1na2vs0mg"},{"bike_id":"65cd04ba-0889-4d66-83e5-6d42d6556aa9","system_id":"levelo_inurba_marseille","lat":43.286853,"lon":5.390138,"is_reserved":false,"is_disabled":false,"rental_uris":{"android":"levelo://app?vid=65cd04ba-0889-4d66-83e5-6d42d6556aa9","ios":"levelo://app?vid=65cd04ba-0889-4d66-83e5-6d42d6556aa9"},"vehicle_type_id":"4","last_reported":1756217369,"current_range_meters":15200,"station_id":"ce4bh2p2rcd13ifvqdi0","pricing_plan_id":"cebpf4jnsgd1na2vs0mg"},{"bike_id":"db7d3d83-f39a-4469-8445-29697e69fec4","system_id":"levelo_inurba_marseille","lat":43.32231,"lon":5.38565,"is_reserved":false,"is_disabled":false,"rental_uris":{"android":"levelo://app?vid=db7d3d83-f39a-4469-8445-29697e69fec4","ios":"levelo://app?vid=db7d3d83-f39a-4469-8445-29697e69fec4"},"vehicle_type_id":"4","last_reported":1756217369,"current_range_meters":15200,"station_id":"","pricing_plan_id":"cebpf4jnsgd1na2vs0mg"},{"bike_id":"93a34b84-fb61-4ec1-8670-f1316b82365f","system_id":"levelo_inurba_marseille","lat":43.2293,"lon":5.35373,"is_reserved":false,"is_disabled":false,"rental_uris":{"android":"levelo://app?vid=93a34b84-fb61-4ec1-8670-f1316b82365f","ios":"levelo://app?vid=93a34b84-fb61-4ec1-8670-f1316b82365f"},"vehicle_type_id":"4","last_reported":1756217369,"current_range_meters":16000,"station_id":"cpo3532slgdg3j2ikp40","pricing_plan_id":"cebpf4jnsgd1na2vs0mg"},{"bike_id":"977df7ca-21e9-43e2-ade8-22de20bad5aa","system_id":"levelo_inurba_marseille","lat":43.26211,"lon":5.37443,"is_reserved":false,"is_disabled":false,"rental_uris":{"android":"levelo://app?vid=977df7ca-21e9-43e2-ade8-22de20bad5aa","ios":"levelo://app?vid=977df7ca-21e9-43e2-ade8-22de20bad5aa"},"vehicle_type_id":"4","last_reported":1756217369,"current_range_meters":16000,"station_id":"ce4bhgp2rcd13ifvqfc0","pricing_plan_id":"cebpf4jnsgd1na2vs0mg"},{"bike_id":"444185a1-99b2-4724-a588-1f691746c053","system_id":"levelo_inurba_marseille","lat":43.27072,"lon":5.42267,"is_reserved":false,"is_disabled":false,"rental_uris":{"android":"levelo://app?vid=444185a1-99b2-4724-a588-1f691746c053","ios":"levelo://app?vid=444185a1-99b2-4724-a588-1f691746c053"},"vehicle_type_id":"4","last_reported":1756217369,"current_range_meters":16000,"station_id":"ce4bhk92rcd13ifvqgb0","pricing_plan_id":"cebpf4jnsgd1na2vs0mg"},{"bike_id":"0988fa91-9cc7-4f9a-af6e-fc691961b1a8","system_id":"levelo_inurba_marseille","lat":43.2552,"lon":5.37637,"is_reserved":false,"is_disabled":false,"rental_uris":{"android":"levelo://app?vid=0988fa91-9cc7-4f9a-af6e-fc691961b1a8","ios":"levelo://app?vid=0988fa91-9cc7-4f9a-af6e-fc691961b1a8"},"vehicle_type_id":"4","last_reported":1756217369,"current_range_meters":16000,"station_id":"ce4bhh12rcd13ifvqff0","pricing_plan_id":"cebpf4jnsgd1na2vs0mg"},{"bike_id":"826f9c0a-980b-43d8-bf4c-e43d77c221ed","system_id":"levelo_inurba_marseille","lat":43.23177,"lon":5.39988,"is_reserved":false,"is_disabled":false,"rental_uris":{"android":"levelo://app?vid=826f9c0a-980b-43d8-bf4c-e43d77c221ed","ios":"levelo://app?vid=826f9c0a-980b-43d8-bf4c-e43d77c221ed"},"vehicle_type_id":"4","last_reported":1756217369,"current_range_meters":16000,"station_id":"ce4bhn12rcd13ifvqgqg","pricing_plan_id":"cebpf4jnsgd1na2vs0mg"},{"bike_id":"f0400c37-c7f6-4929-b1ac-d92430ff6f2d","system_id":"levelo_inurba_marseille","lat":43.275779,"lon":5.397049,"is_reserved":false,"is_disabled":false,"rental_uris":{"android":"levelo://app?vid=f0400c37-c7f6-4929-b1ac-d92430ff6f2d","ios":"levelo://app?vid=f0400c37-c7f6-4929-b1ac-d92430ff6f2d"},"vehicle_type_id":"4","last_reported":1756217369,"current_range_meters":16000,"station_id":"","pricing_plan_id":"cebpf4jnsgd1na2vs0mg"},{"bike_id":"5bce688b-fc81-4596-8277-b66f54be87c1","system_id":"levelo_inurba_marseille","lat":43.33768,"lon":5.37438,"is_reserved":false,"is_disabled":false,"rental_uris":{"android":"levelo://app?vid=5bce688b-fc81-4596-8277-b66f54be87c1","ios":"levelo://app?vid=5bce688b-fc81-4596-8277-b66f54be87c1"},"vehicle_type_id":"4","last_reported":1756217369,"current_range_meters":16000,"station_id":"","pricing_plan_id":"cebpf4jnsgd1na2vs0mg"},{"bike_id":"84d12ccb-6366-409a-bb47-44f6ad184127","system_id":"levelo_inurba_marseille","lat":43.31244,"lon":5.36883,"is_reserved":false,"is_disabled":false,"rental_uris":{"android":"levelo://app?vid=84d12ccb-6366-409a-bb47-44f6ad184127","ios":"levelo://app?vid=84d12ccb-6366-409a-bb47-44f6ad184127"},"vehicle_type_id":"4","last_reported":1756217369,"current_range_meters":16000,"station_id":"ce4bgl92rcd13ifvqbq0","pricing_plan_id":"cebpf4jnsgd1na2vs0mg"},{"bike_id":"5ea5de96-ab5a-4443-984f-50a4d21f7918","system_id":"levelo_inurba_marseille","lat":43.30888,"lon":5.37186,"is_reserved":false,"is_disabled":false,"rental_uris":{"android":"levelo://app?vid=5ea5de96-ab5a-4443-984f-50a4d21f7918","ios":"levelo://app?vid=5ea5de96-ab5a-4443-984f-50a4d21f7918"},"vehicle_type_id":"4","last_reported":1756217369,"current_range_meters":16000,"station_id":"ce4bguh2rcd13ifvqckg","pricing_plan_id":"cebpf4jnsgd1na2vs0mg"},{"bike_id":"e55c5166-258e-4ef1-8bb0-61c40d73cb1f","system_id":"levelo_inurba_marseille","lat":43.28428,"lon":5.34989,"is_reserved":false,"is_disabled":false,"rental_uris":{"android":"levelo://app?vid=e55c5166-258e-4ef1-8bb0-61c40d73cb1f","ios":"levelo://app?vid=e55c5166-258e-4ef1-8bb0-61c40d73cb1f"},"vehicle_type_id":"4","last_reported":1756217369,"current_range_meters":16000,"station_id":"ce4bhbh2rcd13ifvqepg","pricing_plan_id":"cebpf4jnsgd1na2vs0mg"},{"bike_id":"a960176b-429a-4474-a38c-d2cc22be0718","system_id":"levelo_inurba_marseille","lat":43.2827,"lon":5.35082,"is_reserved":false,"is_disabled":false,"rental_uris":{"android":"levelo://app?vid=a960176b-429a-4474-a38c-d2cc22be0718","ios":"levelo://app?vid=a960176b-429a-4474-a38c-d2cc22be0718"},"vehicle_type_id":"4","last_reported":1756217369,"current_range_meters":16000,"station_id":"ce4bhbp2rcd13ifvqerg","pricing_plan_id":"cebpf4jnsgd1na2vs0mg"},{"bike_id":"777a8c83-aed8-4881-84b6-34465956e738","system_id":"levelo_inurba_marseille","lat":43.25757,"lon":5.41011,"is_reserved":false,"is_disabled":false,"rental_uris":{"android":"levelo://app?vid=777a8c83-aed8-4881-84b6-34465956e738","ios":"levelo://app?vid=777a8c83-aed8-4881-84b6-34465956e738"},"vehicle_type_id":"4","last_reported":1756217369,"current_range_meters":16000,"station_id":"","pricing_plan_id":"cebpf4jnsgd1na2vs0mg"},{"bike_id":"507bfa7a-77ad-4faf-874f-5e94ad334f53","system_id":"levelo_inurba_marseille","lat":43.2316,"lon":5.40015,"is_reserved":false,"is_disabled":false,"rental_uris":{"android":"levelo://app?vid=507bfa7a-77ad-4faf-874f-5e94ad334f53","ios":"levelo://app?vid=507bfa7a-77ad-4faf-874f-5e94ad334f53"},"vehicle_type_id":"4","last_reported":1756217369,"current_range_meters":16000,"station_id":"ce4bhn12rcd13ifvqgqg","pricing_plan_id":"cebpf4jnsgd1na2vs0mg"},{"bike_id":"077e40b0-1cf3-4918-8e9a-5e3f681b7533","system_id":"levelo_inurba_marseille","lat":43.30546,"lon":5.36497,"is_reserved":false,"is_disabled":false,"rental_uris":{"android":"levelo://app?vid=077e40b0-1cf3-4918-8e9a-5e3f681b7533","ios":"levelo://app?vid=077e40b0-1cf3-4918-8e9a-5e3f681b7533"},"vehicle_type_id":"4","last_reported":1756217369,"current_range_meters":16000,"station_id":"","pricing_plan_id":"cebpf4jnsgd1na2vs0mg"},{"bike_id":"35dd852d-a54c-4caa-b4fa-375a44518b2a","system_id":"levelo_inurba_marseille","lat":43.30734,"lon":5.42448,"is_reserved":false,"is_disabled":false,"rental_uris":{"android":"levelo://app?vid=35dd852d-a54c-4caa-b4fa-375a44518b2a","ios":"levelo://app?vid=35dd852d-a54c-4caa-b4fa-375a44518b2a"},"vehicle_type_id":"4","last_reported":1756217369,"current_range_meters":16400,"station_id":"st_cvj6ca6bvosntc0bfgr0","pricing_plan_id":"cebpf4jnsgd1na2vs0mg"},{"bike_id":"ac684350-3014-45f3-875d-af933fb50867","system_id":"levelo_inurba_marseille","lat":43.26188,"lon":5.37455,"is_reserved":false,"is_disabled":true,"rental_uris":{"android":"levelo://app?vid=ac684350-3014-45f3-875d-af933fb50867","ios":"levelo://app?vid=ac684350-3014-45f3-875d-af933fb50867"},"vehicle_type_id":"4","last_reported":1756217369,"current_range_meters":16400,"station_id":"ce4bhgp2rcd13ifvqfc0","pricing_plan_id":"cebpf4jnsgd1na2vs0mg"},{"bike_id":"4fc0d636-130b-4784-b54f-8e669b16fbd9","system_id":"levelo_inurba_marseille","lat":43.32498,"lon":5.36594,"is_reserved":false,"is_disabled":false,"rental_uris":{"android":"levelo://app?vid=4fc0d636-130b-4784-b54f-8e669b16fbd9","ios":"levelo://app?vid=4fc0d636-130b-4784-b54f-8e669b16fbd9"},"vehicle_type_id":"4","last_reported":1756217369,"current_range_meters":16400,"station_id":"ce4bhs12rcd13ifvqhvg","pricing_plan_id":"cebpf4jnsgd1na2vs0mg"},{"bike_id":"f20d33e7-7322-492b-a458-228c763f42cf","system_id":"levelo_inurba_marseille","lat":43.28421,"lon":5.34982,"is_reserved":false,"is_disabled":false,"rental_uris":{"android":"levelo://app?vid=f20d33e7-7322-492b-a458-228c763f42cf","ios":"levelo://app?vid=f20d33e7-7322-492b-a458-228c763f42cf"},"vehicle_type_id":"4","last_reported":1756217369,"current_range_meters":16400,"station_id":"ce4bhbh2rcd13ifvqepg","pricing_plan_id":"cebpf4jnsgd1na2vs0mg"},{"bike_id":"5972aad8-9aef-48ac-bbd2-428042178c91","system_id":"levelo_inurba_marseille","lat":43.28572,"lon":5.39497,"is_reserved":false,"is_disabled":false,"rental_uris":{"android":"levelo://app?vid=5972aad8-9aef-48ac-bbd2-428042178c91","ios":"levelo://app?vid=5972aad8-9aef-48ac-bbd2-428042178c91"},"vehicle_type_id":"4","last_reported":1756217369,"current_range_meters":16400,"station_id":"ce4bh292rcd13ifvqdg0","pricing_plan_id":"cebpf4jnsgd1na2vs0mg"},{"bike_id":"af744081-2681-4d1e-9525-a9843cca33d2","system_id":"levelo_inurba_marseille","lat":43.32534,"lon":5.3647,"is_reserved":false,"is_disabled":false,"rental_uris":{"android":"levelo://app?vid=af744081-2681-4d1e-9525-a9843cca33d2","ios":"levelo://app?vid=af744081-2681-4d1e-9525-a9843cca33d2"},"vehicle_type_id":"4","last_reported":1756217369,"current_range_meters":16400,"station_id":"","pricing_plan_id":"cebpf4jnsgd1na2vs0mg"},{"bike_id":"115bb91b-9401-49fb-9bc0-e71d219acec0","system_id":"levelo_inurba_marseille","lat":43.287155,"lon":5.360879,"is_reserved":false,"is_disabled":false,"rental_uris":{"android":"levelo://app?vid=115bb91b-9401-49fb-9bc0-e71d219acec0","ios":"levelo://app?vid=115bb91b-9401-49fb-9bc0-e71d219acec0"},"vehicle_type_id":"4","last_reported":1756217369,"current_range_meters":16800,"station_id":"cki0cbj6b192h4jlfktg","pricing_plan_id":"cebpf4jnsgd1na2vs0mg"},{"bike_id":"4e0659a5-be1d-4124-8848-780f119099aa","system_id":"levelo_inurba_marseille","lat":43.28418,"lon":5.3498,"is_reserved":false,"is_disabled":false,"rental_uris":{"android":"levelo://app?vid=4e0659a5-be1d-4124-8848-780f119099aa","ios":"levelo://app?vid=4e0659a5-be1d-4124-8848-780f119099aa"},"vehicle_type_id":"4","last_reported":1756217369,"current_range_meters":16800,"station_id":"ce4bhbh2rcd13ifvqepg","pricing_plan_id":"cebpf4jnsgd1na2vs0mg"},{"bike_id":"91e2f3be-19b5-4aea-8c69-4b59eaea104f","system_id":"levelo_inurba_marseille","lat":43.28621,"lon":5.35098,"is_reserved":false,"is_disabled":false,"rental_uris":{"android":"levelo://app?vid=91e2f3be-19b5-4aea-8c69-4b59eaea104f","ios":"levelo://app?vid=91e2f3be-19b5-4aea-8c69-4b59eaea104f"},"vehicle_type_id":"4","last_reported":1756217369,"current_range_meters":16800,"station_id":"ce4bhch2rcd13ifvqeug","pricing_plan_id":"cebpf4jnsgd1na2vs0mg"},{"bike_id":"215b611b-8ae2-48b4-be08-3ec8e923bab6","system_id":"levelo_inurba_marseille","lat":43.28694,"lon":5.37372,"is_reserved":false,"is_disabled":false,"rental_uris":{"android":"levelo://app?vid=215b611b-8ae2-48b4-be08-3ec8e923bab6","ios":"levelo://app?vid=215b611b-8ae2-48b4-be08-3ec8e923bab6"},"vehicle_type_id":"4","last_reported":1756217369,"current_range_meters":17200,"station_id":"ce4bh3p2rcd13ifvqdq0","pricing_plan_id":"cebpf4jnsgd1na2vs0mg"},{"bike_id":"f03fd8b5-820c-4428-a47c-214be68d7e64","system_id":"levelo_inurba_marseille","lat":43.243193,"lon":5.379899,"is_reserved":false,"is_disabled":false,"rental_uris":{"android":"levelo://app?vid=f03fd8b5-820c-4428-a47c-214be68d7e64","ios":"levelo://app?vid=f03fd8b5-820c-4428-a47c-214be68d7e64"},"vehicle_type_id":"4","last_reported":1756217369,"current_range_meters":17200,"station_id":"ce4bhnp2rcd13ifvqgvg","pricing_plan_id":"cebpf4jnsgd1na2vs0mg"},{"bike_id":"090c3fa3-f0e9-4591-9145-76b67868dcf3","system_id":"levelo_inurba_marseille","lat":43.28264,"lon":5.35053,"is_reserved":false,"is_disabled":false,"rental_uris":{"android":"levelo://app?vid=090c3fa3-f0e9-4591-9145-76b67868dcf3","ios":"levelo://app?vid=090c3fa3-f0e9-4591-9145-76b67868dcf3"},"vehicle_type_id":"4","last_reported":1756217369,"current_range_meters":17200,"station_id":"ce4bhbp2rcd13ifvqerg","pricing_plan_id":"cebpf4jnsgd1na2vs0mg"},{"bike_id":"be00e296-420d-411a-933e-59cf249e8cad","system_id":"levelo_inurba_marseille","lat":43.212639,"lon":5.352733,"is_reserved":false,"is_disabled":false,"rental_uris":{"android":"levelo://app?vid=be00e296-420d-411a-933e-59cf249e8cad","ios":"levelo://app?vid=be00e296-420d-411a-933e-59cf249e8cad"},"vehicle_type_id":"4","last_reported":1756217369,"current_range_meters":17200,"station_id":"","pricing_plan_id":"cebpf4jnsgd1na2vs0mg"},{"bike_id":"f8d714df-0fbd-4c44-a8ff-1115ab398f4d","system_id":"levelo_inurba_marseille","lat":43.21602,"lon":5.34851,"is_reserved":false,"is_disabled":false,"rental_uris":{"android":"levelo://app?vid=f8d714df-0fbd-4c44-a8ff-1115ab398f4d","ios":"levelo://app?vid=f8d714df-0fbd-4c44-a8ff-1115ab398f4d"},"vehicle_type_id":"4","last_reported":1756217369,"current_range_meters":17600,"station_id":"","pricing_plan_id":"cebpf4jnsgd1na2vs0mg"},{"bike_id":"0306ba73-3d0f-4523-9d11-9a4554b2d8ff","system_id":"levelo_inurba_marseille","lat":43.21203,"lon":5.35068,"is_reserved":false,"is_disabled":false,"rental_uris":{"android":"levelo://app?vid=0306ba73-3d0f-4523-9d11-9a4554b2d8ff","ios":"levelo://app?vid=0306ba73-3d0f-4523-9d11-9a4554b2d8ff"},"vehicle_type_id":"4","last_reported":1756217369,"current_range_meters":17600,"station_id":"st_cvj6sg6p6f1abm77japg","pricing_plan_id":"cebpf4jnsgd1na2vs0mg"},{"bike_id":"cd822ebe-8d01-44f2-b9e8-1f0b3a981bae","system_id":"levelo_inurba_marseille","lat":43.2883,"lon":5.35846,"is_reserved":false,"is_disabled":true,"rental_uris":{"android":"levelo://app?vid=cd822ebe-8d01-44f2-b9e8-1f0b3a981bae","ios":"levelo://app?vid=cd822ebe-8d01-44f2-b9e8-1f0b3a981bae"},"vehicle_type_id":"4","last_reported":1756217369,"current_range_meters":17600,"station_id":"ce4bhb12rcd13ifvqem0","pricing_plan_id":"cebpf4jnsgd1na2vs0mg"},{"bike_id":"40c1fb45-9550-4904-9c4b-5647cd1299ba","system_id":"levelo_inurba_marseille","lat":43.21191,"lon":5.35051,"is_reserved":false,"is_disabled":false,"rental_uris":{"android":"levelo://app?vid=40c1fb45-9550-4904-9c4b-5647cd1299ba","ios":"levelo://app?vid=40c1fb45-9550-4904-9c4b-5647cd1299ba"},"vehicle_type_id":"4","last_reported":1756217369,"current_range_meters":18000,"station_id":"st_cvj6sg6p6f1abm77japg","pricing_plan_id":"cebpf4jnsgd1na2vs0mg"},{"bike_id":"248bf14d-378d-4e2f-9999-982acfdf56f9","system_id":"levelo_inurba_marseille","lat":43.284139,"lon":5.349827,"is_reserved":false,"is_disabled":false,"rental_uris":{"android":"levelo://app?vid=248bf14d-378d-4e2f-9999-982acfdf56f9","ios":"levelo://app?vid=248bf14d-378d-4e2f-9999-982acfdf56f9"},"vehicle_type_id":"4","last_reported":1756217369,"current_range_meters":18000,"station_id":"ce4bhbh2rcd13ifvqepg","pricing_plan_id":"cebpf4jnsgd1na2vs0mg"},{"bike_id":"fbf0e9b4-0244-4455-89e8-bb336b1646cf","system_id":"levelo_inurba_marseille","lat":43.23187,"lon":5.3999,"is_reserved":false,"is_disabled":false,"rental_uris":{"android":"levelo://app?vid=fbf0e9b4-0244-4455-89e8-bb336b1646cf","ios":"levelo://app?vid=fbf0e9b4-0244-4455-89e8-bb336b1646cf"},"vehicle_type_id":"4","last_reported":1756217369,"current_range_meters":18000,"station_id":"ce4bhn12rcd13ifvqgqg","pricing_plan_id":"cebpf4jnsgd1na2vs0mg"},{"bike_id":"abaf99ca-5823-4460-ba5c-ff01280743d0","system_id":"levelo_inurba_marseille","lat":43.27065,"lon":5.42275,"is_reserved":false,"is_disabled":false,"rental_uris":{"android":"levelo://app?vid=abaf99ca-5823-4460-ba5c-ff01280743d0","ios":"levelo://app?vid=abaf99ca-5823-4460-ba5c-ff01280743d0"},"vehicle_type_id":"4","last_reported":1756217369,"current_range_meters":18000,"station_id":"ce4bhk92rcd13ifvqgb0","pricing_plan_id":"cebpf4jnsgd1na2vs0mg"},{"bike_id":"a87139b2-6ac9-4703-97f1-87ae6e0b1344","system_id":"levelo_inurba_marseille","lat":43.23062,"lon":5.35493,"is_reserved":false,"is_disabled":false,"rental_uris":{"android":"levelo://app?vid=a87139b2-6ac9-4703-97f1-87ae6e0b1344","ios":"levelo://app?vid=a87139b2-6ac9-4703-97f1-87ae6e0b1344"},"vehicle_type_id":"4","last_reported":1756217369,"current_range_meters":18000,"station_id":"cpo3342slgdg3j2ifvpg","pricing_plan_id":"cebpf4jnsgd1na2vs0mg"},{"bike_id":"c8b31377-ee53-43c7-9f37-c4e3dbbde6f6","system_id":"levelo_inurba_marseille","lat":43.26569,"lon":5.37298,"is_reserved":false,"is_disabled":false,"rental_uris":{"android":"levelo://app?vid=c8b31377-ee53-43c7-9f37-c4e3dbbde6f6","ios":"levelo://app?vid=c8b31377-ee53-43c7-9f37-c4e3dbbde6f6"},"vehicle_type_id":"4","last_reported":1756217369,"current_range_meters":18000,"station_id":"ce4bhg12rcd13ifvqf70","pricing_plan_id":"cebpf4jnsgd1na2vs0mg"},{"bike_id":"4dd066a3-5039-4c08-96e4-92ee4cbb306d","system_id":"levelo_inurba_marseille","lat":43.23219,"lon":5.35536,"is_reserved":false,"is_disabled":false,"rental_uris":{"android":"levelo://app?vid=4dd066a3-5039-4c08-96e4-92ee4cbb306d","ios":"levelo://app?vid=4dd066a3-5039-4c08-96e4-92ee4cbb306d"},"vehicle_type_id":"4","last_reported":1756217369,"current_range_meters":18000,"station_id":"ce4bhu92rcd13ifvqi70","pricing_plan_id":"cebpf4jnsgd1na2vs0mg"},{"bike_id":"9b9468b9-b89c-4ef2-abea-137fdef6fad2","system_id":"levelo_inurba_marseille","lat":43.28158,"lon":5.42647,"is_reserved":false,"is_disabled":false,"rental_uris":{"android":"levelo://app?vid=9b9468b9-b89c-4ef2-abea-137fdef6fad2","ios":"levelo://app?vid=9b9468b9-b89c-4ef2-abea-137fdef6fad2"},"vehicle_type_id":"4","last_reported":1756217369,"current_range_meters":18000,"station_id":"ce4bhnh2rcd13ifvqgug","pricing_plan_id":"cebpf4jnsgd1na2vs0mg"},{"bike_id":"cffb9860-c072-4d79-84ca-f16f958c53f7","system_id":"levelo_inurba_marseille","lat":43.25114,"lon":5.4032,"is_reserved":false,"is_disabled":false,"rental_uris":{"android":"levelo://app?vid=cffb9860-c072-4d79-84ca-f16f958c53f7","ios":"levelo://app?vid=cffb9860-c072-4d79-84ca-f16f958c53f7"},"vehicle_type_id":"4","last_reported":1756217369,"current_range_meters":18000,"station_id":"ce4bhlh2rcd13ifvqgig","pricing_plan_id":"cebpf4jnsgd1na2vs0mg"},{"bike_id":"7ad2097a-7ea1-460f-83ed-a57e958e7c46","system_id":"levelo_inurba_marseille","lat":43.29993,"lon":5.36771,"is_reserved":false,"is_disabled":false,"rental_uris":{"android":"levelo://app?vid=7ad2097a-7ea1-460f-83ed-a57e958e7c46","ios":"levelo://app?vid=7ad2097a-7ea1-460f-83ed-a57e958e7c46"},"vehicle_type_id":"4","last_reported":1756217369,"current_range_meters":18000,"station_id":"","pricing_plan_id":"cebpf4jnsgd1na2vs0mg"},{"bike_id":"4b0d93f7-3771-495c-9005-291b4de410ec","system_id":"levelo_inurba_marseille","lat":43.26942,"lon":5.40256,"is_reserved":false,"is_disabled":false,"rental_uris":{"android":"levelo://app?vid=4b0d93f7-3771-495c-9005-291b4de410ec","ios":"levelo://app?vid=4b0d93f7-3771-495c-9005-291b4de410ec"},"vehicle_type_id":"4","last_reported":1756217369,"current_range_meters":18000,"station_id":"cjm6bp8fraef2m0cb0m0","pricing_plan_id":"cebpf4jnsgd1na2vs0mg"},{"bike_id":"3dff11d5-3872-4ffe-8cce-b5631d6c6058","system_id":"levelo_inurba_marseille","lat":43.32669,"lon":5.39171,"is_reserved":false,"is_disabled":false,"rental_uris":{"android":"levelo://app?vid=3dff11d5-3872-4ffe-8cce-b5631d6c6058","ios":"levelo://app?vid=3dff11d5-3872-4ffe-8cce-b5631d6c6058"},"vehicle_type_id":"4","last_reported":1756217369,"current_range_meters":18000,"station_id":"","pricing_plan_id":"cebpf4jnsgd1na2vs0mg"},{"bike_id":"a78c16ad-366d-4781-aac7-605a2fd3997b","system_id":"levelo_inurba_marseille","lat":43.2844,"lon":5.34962,"is_reserved":false,"is_disabled":false,"rental_uris":{"android":"levelo://app?vid=a78c16ad-366d-4781-aac7-605a2fd3997b","ios":"levelo://app?vid=a78c16ad-366d-4781-aac7-605a2fd3997b"},"vehicle_type_id":"4","last_reported":1756217369,"current_range_meters":18000,"station_id":"ce4bhbh2rcd13ifvqepg","pricing_plan_id":"cebpf4jnsgd1na2vs0mg"},{"bike_id":"59cb1d66-e8fa-40c7-a382-cc2758820b0a","system_id":"levelo_inurba_marseille","lat":43.24173,"lon":5.36396,"is_reserved":false,"is_disabled":false,"rental_uris":{"android":"levelo://app?vid=59cb1d66-e8fa-40c7-a382-cc2758820b0a","ios":"levelo://app?vid=59cb1d66-e8fa-40c7-a382-cc2758820b0a"},"vehicle_type_id":"4","last_reported":1756217369,"current_range_meters":18000,"station_id":"cpo36qri1sfpv3e86is0","pricing_plan_id":"cebpf4jnsgd1na2vs0mg"},{"bike_id":"96b99427-8885-496e-ab85-145187f2bdf1","system_id":"levelo_inurba_marseille","lat":43.32118,"lon":5.36767,"is_reserved":false,"is_disabled":false,"rental_uris":{"android":"levelo://app?vid=96b99427-8885-496e-ab85-145187f2bdf1","ios":"levelo://app?vid=96b99427-8885-496e-ab85-145187f2bdf1"},"vehicle_type_id":"4","last_reported":1756217369,"current_range_meters":18000,"station_id":"ce4bhrh2rcd13ifvqhug","pricing_plan_id":"cebpf4jnsgd1na2vs0mg"},{"bike_id":"dce64f74-02ff-4382-b0b2-2575a1a14e5f","system_id":"levelo_inurba_marseille","lat":43.28281,"lon":5.3506,"is_reserved":false,"is_disabled":false,"rental_uris":{"android":"levelo://app?vid=dce64f74-02ff-4382-b0b2-2575a1a14e5f","ios":"levelo://app?vid=dce64f74-02ff-4382-b0b2-2575a1a14e5f"},"vehicle_type_id":"4","last_reported":1756217369,"current_range_meters":18800,"station_id":"ce4bhbp2rcd13ifvqerg","pricing_plan_id":"cebpf4jnsgd1na2vs0mg"},{"bike_id":"e5eabf25-4e1c-476e-b130-9f83cdcfc80c","system_id":"levelo_inurba_marseille","lat":43.298074,"lon":5.417164,"is_reserved":false,"is_disabled":false,"rental_uris":{"android":"levelo://app?vid=e5eabf25-4e1c-476e-b130-9f83cdcfc80c","ios":"levelo://app?vid=e5eabf25-4e1c-476e-b130-9f83cdcfc80c"},"vehicle_type_id":"4","last_reported":1756217369,"current_range_meters":18800,"station_id":"","pricing_plan_id":"cebpf4jnsgd1na2vs0mg"},{"bike_id":"a53d899e-6e95-43dc-8d18-2c41f2eda36e","system_id":"levelo_inurba_marseille","lat":43.28283,"lon":5.35063,"is_reserved":false,"is_disabled":false,"rental_uris":{"android":"levelo://app?vid=a53d899e-6e95-43dc-8d18-2c41f2eda36e","ios":"levelo://app?vid=a53d899e-6e95-43dc-8d18-2c41f2eda36e"},"vehicle_type_id":"4","last_reported":1756217369,"current_range_meters":18800,"station_id":"ce4bhbp2rcd13ifvqerg","pricing_plan_id":"cebpf4jnsgd1na2vs0mg"},{"bike_id":"d5edd176-dc20-48cc-aea0-c4b4119653a3","system_id":"levelo_inurba_marseille","lat":43.28409,"lon":5.34995,"is_reserved":false,"is_disabled":false,"rental_uris":{"android":"levelo://app?vid=d5edd176-dc20-48cc-aea0-c4b4119653a3","ios":"levelo://app?vid=d5edd176-dc20-48cc-aea0-c4b4119653a3"},"vehicle_type_id":"4","last_reported":1756217369,"current_range_meters":18800,"station_id":"ce4bhbh2rcd13ifvqepg","pricing_plan_id":"cebpf4jnsgd1na2vs0mg"},{"bike_id":"3efd5b4c-544b-47ae-b771-88c8225668bb","system_id":"levelo_inurba_marseille","lat":43.24177,"lon":5.3639,"is_reserved":false,"is_disabled":false,"rental_uris":{"android":"levelo://app?vid=3efd5b4c-544b-47ae-b771-88c8225668bb","ios":"levelo://app?vid=3efd5b4c-544b-47ae-b771-88c8225668bb"},"vehicle_type_id":"4","last_reported":1756217369,"current_range_meters":19200,"station_id":"cpo36qri1sfpv3e86is0","pricing_plan_id":"cebpf4jnsgd1na2vs0mg"},{"bike_id":"d54d40f4-651c-422f-bbf0-9741c47753a6","system_id":"levelo_inurba_marseille","lat":43.232022,"lon":5.355463,"is_reserved":false,"is_disabled":false,"rental_uris":{"android":"levelo://app?vid=d54d40f4-651c-422f-bbf0-9741c47753a6","ios":"levelo://app?vid=d54d40f4-651c-422f-bbf0-9741c47753a6"},"vehicle_type_id":"4","last_reported":1756217369,"current_range_meters":19200,"station_id":"ce4bhu92rcd13ifvqi70","pricing_plan_id":"cebpf4jnsgd1na2vs0mg"},{"bike_id":"b8fce5eb-c282-4806-abc7-b928917ad91f","system_id":"levelo_inurba_marseille","lat":43.30326,"lon":5.40441,"is_reserved":false,"is_disabled":false,"rental_uris":{"android":"levelo://app?vid=b8fce5eb-c282-4806-abc7-b928917ad91f","ios":"levelo://app?vid=b8fce5eb-c282-4806-abc7-b928917ad91f"},"vehicle_type_id":"4","last_reported":1756217369,"current_range_meters":19200,"station_id":"ce4bh012rcd13ifvqd10","pricing_plan_id":"cebpf4jnsgd1na2vs0mg"},{"bike_id":"f5b9bdf3-e981-4ec9-b3c8-e8477d05dbe8","system_id":"levelo_inurba_marseille","lat":43.32541,"lon":5.41444,"is_reserved":false,"is_disabled":false,"rental_uris":{"android":"levelo://app?vid=f5b9bdf3-e981-4ec9-b3c8-e8477d05dbe8","ios":"levelo://app?vid=f5b9bdf3-e981-4ec9-b3c8-e8477d05dbe8"},"vehicle_type_id":"4","last_reported":1756217369,"current_range_meters":19200,"station_id":"ce4bhq12rcd13ifvqhhg","pricing_plan_id":"cebpf4jnsgd1na2vs0mg"},{"bike_id":"108b622f-741f-46bc-a63e-f53025af3542","system_id":"levelo_inurba_marseille","lat":43.23968,"lon":5.36625,"is_reserved":false,"is_disabled":false,"rental_uris":{"android":"levelo://app?vid=108b622f-741f-46bc-a63e-f53025af3542","ios":"levelo://app?vid=108b622f-741f-46bc-a63e-f53025af3542"},"vehicle_type_id":"4","last_reported":1756217369,"current_range_meters":19600,"station_id":"ce4bhi12rcd13ifvqfp0","pricing_plan_id":"cebpf4jnsgd1na2vs0mg"},{"bike_id":"5002ab8f-0c9d-4313-b523-fd24100199d7","system_id":"levelo_inurba_marseille","lat":43.32472,"lon":5.36585,"is_reserved":false,"is_disabled":false,"rental_uris":{"android":"levelo://app?vid=5002ab8f-0c9d-4313-b523-fd24100199d7","ios":"levelo://app?vid=5002ab8f-0c9d-4313-b523-fd24100199d7"},"vehicle_type_id":"4","last_reported":1756217369,"current_range_meters":19600,"station_id":"ce4bhs12rcd13ifvqhvg","pricing_plan_id":"cebpf4jnsgd1na2vs0mg"},{"bike_id":"5c26a54e-1e97-4ad3-a16d-614ad930b130","system_id":"levelo_inurba_marseille","lat":43.32102,"lon":5.36786,"is_reserved":false,"is_disabled":false,"rental_uris":{"android":"levelo://app?vid=5c26a54e-1e97-4ad3-a16d-614ad930b130","ios":"levelo://app?vid=5c26a54e-1e97-4ad3-a16d-614ad930b130"},"vehicle_type_id":"4","last_reported":1756217369,"current_range_meters":19600,"station_id":"ce4bhrh2rcd13ifvqhug","pricing_plan_id":"cebpf4jnsgd1na2vs0mg"},{"bike_id":"71136ea1-3aaf-4521-8084-554abe261412","system_id":"levelo_inurba_marseille","lat":43.303037,"lon":5.369059,"is_reserved":false,"is_disabled":true,"rental_uris":{"android":"levelo://app?vid=71136ea1-3aaf-4521-8084-554abe261412","ios":"levelo://app?vid=71136ea1-3aaf-4521-8084-554abe261412"},"vehicle_type_id":"4","last_reported":1756217369,"current_range_meters":19600,"station_id":"","pricing_plan_id":"cebpf4jnsgd1na2vs0mg"},{"bike_id":"3115c199-1541-45cb-a98a-f6ff5bbd4b1f","system_id":"levelo_inurba_marseille","lat":43.30812,"lon":5.369916,"is_reserved":false,"is_disabled":false,"rental_uris":{"android":"levelo://app?vid=3115c199-1541-45cb-a98a-f6ff5bbd4b1f","ios":"levelo://app?vid=3115c199-1541-45cb-a98a-f6ff5bbd4b1f"},"vehicle_type_id":"4","last_reported":1756217369,"current_range_meters":19600,"station_id":"","pricing_plan_id":"cebpf4jnsgd1na2vs0mg"},{"bike_id":"a9d83b21-9821-4029-bb59-40c830188146","system_id":"levelo_inurba_marseille","lat":43.32377,"lon":5.36749,"is_reserved":false,"is_disabled":false,"rental_uris":{"android":"levelo://app?vid=a9d83b21-9821-4029-bb59-40c830188146","ios":"levelo://app?vid=a9d83b21-9821-4029-bb59-40c830188146"},"vehicle_type_id":"4","last_reported":1756217369,"current_range_meters":19600,"station_id":"ce4bhsh2rcd13ifvqi2g","pricing_plan_id":"cebpf4jnsgd1na2vs0mg"},{"bike_id":"f67c8e5e-7af8-4847-a4ce-1e12088b4291","system_id":"levelo_inurba_marseille","lat":43.32492,"lon":5.36858,"is_reserved":false,"is_disabled":false,"rental_uris":{"android":"levelo://app?vid=f67c8e5e-7af8-4847-a4ce-1e12088b4291","ios":"levelo://app?vid=f67c8e5e-7af8-4847-a4ce-1e12088b4291"},"vehicle_type_id":"4","last_reported":1756217369,"current_range_meters":19600,"station_id":"","pricing_plan_id":"cebpf4jnsgd1na2vs0mg"},{"bike_id":"182848e1-c128-499b-944e-cad0c910e9fb","system_id":"levelo_inurba_marseille","lat":43.212,"lon":5.35072,"is_reserved":false,"is_disabled":false,"rental_uris":{"android":"levelo://app?vid=182848e1-c128-499b-944e-cad0c910e9fb","ios":"levelo://app?vid=182848e1-c128-499b-944e-cad0c910e9fb"},"vehicle_type_id":"4","last_reported":1756217369,"current_range_meters":19600,"station_id":"st_cvj6sg6p6f1abm77japg","pricing_plan_id":"cebpf4jnsgd1na2vs0mg"},{"bike_id":"c561b3be-23f4-46ed-8d38-1fc2450f503d","system_id":"levelo_inurba_marseille","lat":43.23652,"lon":5.36241,"is_reserved":false,"is_disabled":false,"rental_uris":{"android":"levelo://app?vid=c561b3be-23f4-46ed-8d38-1fc2450f503d","ios":"levelo://app?vid=c561b3be-23f4-46ed-8d38-1fc2450f503d"},"vehicle_type_id":"4","last_reported":1756217369,"current_range_meters":19600,"station_id":"","pricing_plan_id":"cebpf4jnsgd1na2vs0mg"},{"bike_id":"70573650-9cf4-4bd3-81cb-ccd1ff54a0ac","system_id":"levelo_inurba_marseille","lat":43.2621,"lon":5.37467,"is_reserved":false,"is_disabled":false,"rental_uris":{"android":"levelo://app?vid=70573650-9cf4-4bd3-81cb-ccd1ff54a0ac","ios":"levelo://app?vid=70573650-9cf4-4bd3-81cb-ccd1ff54a0ac"},"vehicle_type_id":"4","last_reported":1756217369,"current_range_meters":19600,"station_id":"ce4bhgp2rcd13ifvqfc0","pricing_plan_id":"cebpf4jnsgd1na2vs0mg"},{"bike_id":"5ae0b730-282c-47e7-ad5d-6c44221d9fc5","system_id":"levelo_inurba_marseille","lat":43.28618,"lon":5.351019,"is_reserved":false,"is_disabled":false,"rental_uris":{"android":"levelo://app?vid=5ae0b730-282c-47e7-ad5d-6c44221d9fc5","ios":"levelo://app?vid=5ae0b730-282c-47e7-ad5d-6c44221d9fc5"},"vehicle_type_id":"4","last_reported":1756217369,"current_range_meters":19600,"station_id":"ce4bhch2rcd13ifvqeug","pricing_plan_id":"cebpf4jnsgd1na2vs0mg"},{"bike_id":"fa50f2a0-0dfe-4497-bffc-e4662e9da35c","system_id":"levelo_inurba_marseille","lat":43.3249,"lon":5.36568,"is_reserved":false,"is_disabled":false,"rental_uris":{"android":"levelo://app?vid=fa50f2a0-0dfe-4497-bffc-e4662e9da35c","ios":"levelo://app?vid=fa50f2a0-0dfe-4497-bffc-e4662e9da35c"},"vehicle_type_id":"4","last_reported":1756217369,"current_range_meters":19600,"station_id":"ce4bhs12rcd13ifvqhvg","pricing_plan_id":"cebpf4jnsgd1na2vs0mg"},{"bike_id":"14b632f3-46c3-4f99-952f-a30e5d662407","system_id":"levelo_inurba_marseille","lat":43.29225,"lon":5.36076,"is_reserved":false,"is_disabled":false,"rental_uris":{"android":"levelo://app?vid=14b632f3-46c3-4f99-952f-a30e5d662407","ios":"levelo://app?vid=14b632f3-46c3-4f99-952f-a30e5d662407"},"vehicle_type_id":"4","last_reported":1756217369,"current_range_meters":16800,"station_id":"ce4bhbh2rcd13ifvqeqg","pricing_plan_id":"cebpf4jnsgd1na2vs0mg"},{"bike_id":"3e0a512a-7c42-442c-b11d-aa6736d5c7f3","system_id":"levelo_inurba_marseille","lat":43.27426,"lon":5.39415,"is_reserved":false,"is_disabled":false,"rental_uris":{"android":"levelo://app?vid=3e0a512a-7c42-442c-b11d-aa6736d5c7f3","ios":"levelo://app?vid=3e0a512a-7c42-442c-b11d-aa6736d5c7f3"},"vehicle_type_id":"4","last_reported":1756217369,"current_range_meters":20000,"station_id":"ce4bhdp2rcd13ifvqf20","pricing_plan_id":"cebpf4jnsgd1na2vs0mg"},{"bike_id":"9debf4d9-b244-4d97-8654-802b3ec59894","system_id":"levelo_inurba_marseille","lat":43.23194,"lon":5.35551,"is_reserved":false,"is_disabled":false,"rental_uris":{"android":"levelo://app?vid=9debf4d9-b244-4d97-8654-802b3ec59894","ios":"levelo://app?vid=9debf4d9-b244-4d97-8654-802b3ec59894"},"vehicle_type_id":"4","last_reported":1756217369,"current_range_meters":20000,"station_id":"ce4bhu92rcd13ifvqi70","pricing_plan_id":"cebpf4jnsgd1na2vs0mg"},{"bike_id":"d5c57a1a-928a-455d-918b-cbd133cfbe71","system_id":"levelo_inurba_marseille","lat":43.21758,"lon":5.346,"is_reserved":false,"is_disabled":false,"rental_uris":{"android":"levelo://app?vid=d5c57a1a-928a-455d-918b-cbd133cfbe71","ios":"levelo://app?vid=d5c57a1a-928a-455d-918b-cbd133cfbe71"},"vehicle_type_id":"4","last_reported":1756217369,"current_range_meters":20000,"station_id":"st_cvj6r9ubvosntc0bgbag","pricing_plan_id":"cebpf4jnsgd1na2vs0mg"},{"bike_id":"6a20d436-781f-46ba-8d3b-648b429dd6bc","system_id":"levelo_inurba_marseille","lat":43.28076,"lon":5.39661,"is_reserved":false,"is_disabled":false,"rental_uris":{"android":"levelo://app?vid=6a20d436-781f-46ba-8d3b-648b429dd6bc","ios":"levelo://app?vid=6a20d436-781f-46ba-8d3b-648b429dd6bc"},"vehicle_type_id":"4","last_reported":1756217369,"current_range_meters":19600,"station_id":"ce4bho12rcd13ifvqh2g","pricing_plan_id":"cebpf4jnsgd1na2vs0mg"},{"bike_id":"2e41017f-66f0-41e8-bb81-64ddf09bab53","system_id":"levelo_inurba_marseille","lat":43.276215,"lon":5.360986,"is_reserved":false,"is_disabled":false,"rental_uris":{"android":"levelo://app?vid=2e41017f-66f0-41e8-bb81-64ddf09bab53","ios":"levelo://app?vid=2e41017f-66f0-41e8-bb81-64ddf09bab53"},