{"last_updated":1778352199,"ttl":60,"version":"2.2","data":{"bikes":[{"bike_id":"7d4051a1-abfc-469f-84eb-b6089e11763d","system_id":"levelo_inurba_marseille","lat":43.24549,"lon":5.39526,"is_reserved":false,"is_disabled":false,"rental_uris":{"android":"levelo://app?vid=7d4051a1-abfc-469f-84eb-b6089e11763d","ios":"levelo://app?vid=7d4051a1-abfc-469f-84eb-b6089e11763d"},"vehicle_type_id":"4","last_reported":1778352200,"current_range_meters":2800,"station_id":"ce4bhlp2rcd13ifvqgjg","pricing_plan_id":"cebpf4jnsgd1na2vs0mg"},{"bike_id":"adbdae24-1b6d-4e05-9f3d-b7d760c284d0","system_id":"levelo_inurba_marseille","lat":43.2901,"lon":5.38125,"is_reserved":false,"is_disabled":true,"rental_uris":{"android":"levelo://app?vid=adbdae24-1b6d-4e05-9f3d-b7d760c284d0","ios":"levelo://app?vid=adbdae24-1b6d-4e05-9f3d-b7d760c284d0"},"vehicle_type_id":"4","last_reported":1778352200,"current_range_meters":2800,"station_id":"ce4bh4p2rcd13ifvqe1g","pricing_plan_id":"cebpf4jnsgd1na2vs0mg"},{"bike_id":"77f489b5-b872-474e-a526-73ff0da2b77c","system_id":"levelo_inurba_marseille","lat":43.26234,"lon":5.40433,"is_reserved":false,"is_disabled":false,"rental_uris":{"android":"levelo://app?vid=77f489b5-b872-474e-a526-73ff0da2b77c","ios":"levelo://app?vid=77f489b5-b872-474e-a526-73ff0da2b77c"},"vehicle_type_id":"4","last_reported":1778352200,"current_range_meters":2800,"station_id":"ce4bhmh2rcd13ifvqgmg","pricing_plan_id":"cebpf4jnsgd1na2vs0mg"},{"bike_id":"eaa8a62d-db6e-40c4-8e86-2c97e5bb72c1","system_id":"levelo_inurba_marseille","lat":43.295339,"lon":5.385441,"is_reserved":false,"is_disabled":false,"rental_uris":{"android":"levelo://app?vid=eaa8a62d-db6e-40c4-8e86-2c97e5bb72c1","ios":"levelo://app?vid=eaa8a62d-db6e-40c4-8e86-2c97e5bb72c1"},"vehicle_type_id":"4","last_reported":1778352200,"current_range_meters":2800,"station_id":"ce4bgih2rcd13ifvqba0","pricing_plan_id":"cebpf4jnsgd1na2vs0mg"},{"bike_id":"65af105d-5c5e-4afa-bb8e-8c7a072ebfc4","system_id":"levelo_inurba_marseille","lat":43.26563,"lon":5.40323,"is_reserved":false,"is_disabled":false,"rental_uris":{"android":"levelo://app?vid=65af105d-5c5e-4afa-bb8e-8c7a072ebfc4","ios":"levelo://app?vid=65af105d-5c5e-4afa-bb8e-8c7a072ebfc4"},"vehicle_type_id":"4","last_reported":1778352200,"current_range_meters":2800,"station_id":"ce4bhmp2rcd13ifvqgng","pricing_plan_id":"cebpf4jnsgd1na2vs0mg"},{"bike_id":"1d981626-3199-46a5-b8bc-3328517365c9","system_id":"levelo_inurba_marseille","lat":43.2849,"lon":5.48394,"is_reserved":false,"is_disabled":false,"rental_uris":{"android":"levelo://app?vid=1d981626-3199-46a5-b8bc-3328517365c9","ios":"levelo://app?vid=1d981626-3199-46a5-b8bc-3328517365c9"},"vehicle_type_id":"4","last_reported":1778352200,"current_range_meters":2800,"station_id":"","pricing_plan_id":"cebpf4jnsgd1na2vs0mg"},{"bike_id":"0fc44256-1de0-494e-9359-c3d613616330","system_id":"levelo_inurba_marseille","lat":43.2909,"lon":5.38132,"is_reserved":false,"is_disabled":false,"rental_uris":{"android":"levelo://app?vid=0fc44256-1de0-494e-9359-c3d613616330","ios":"levelo://app?vid=0fc44256-1de0-494e-9359-c3d613616330"},"vehicle_type_id":"4","last_reported":1778352200,"current_range_meters":2800,"station_id":"ce4bh512rcd13ifvqe2g","pricing_plan_id":"cebpf4jnsgd1na2vs0mg"},{"bike_id":"6400099d-f713-4246-a4ce-1b44f22e3329","system_id":"levelo_inurba_marseille","lat":43.32102,"lon":5.36773,"is_reserved":false,"is_disabled":false,"rental_uris":{"android":"levelo://app?vid=6400099d-f713-4246-a4ce-1b44f22e3329","ios":"levelo://app?vid=6400099d-f713-4246-a4ce-1b44f22e3329"},"vehicle_type_id":"4","last_reported":1778352200,"current_range_meters":2800,"station_id":"ce4bhrh2rcd13ifvqhug","pricing_plan_id":"cebpf4jnsgd1na2vs0mg"},{"bike_id":"c32661d8-2da8-4ddd-b087-54ab5080d50c","system_id":"levelo_inurba_marseille","lat":43.24947,"lon":5.4049,"is_reserved":false,"is_disabled":false,"rental_uris":{"android":"levelo://app?vid=c32661d8-2da8-4ddd-b087-54ab5080d50c","ios":"levelo://app?vid=c32661d8-2da8-4ddd-b087-54ab5080d50c"},"vehicle_type_id":"4","last_reported":1778352200,"current_range_meters":2800,"station_id":"st_d2ngiaodas8pm72gd1h0","pricing_plan_id":"cebpf4jnsgd1na2vs0mg"},{"bike_id":"8173e95f-e0ab-49bc-93b6-200c75305dd4","system_id":"levelo_inurba_marseille","lat":43.26779,"lon":5.39415,"is_reserved":false,"is_disabled":false,"rental_uris":{"android":"levelo://app?vid=8173e95f-e0ab-49bc-93b6-200c75305dd4","ios":"levelo://app?vid=8173e95f-e0ab-49bc-93b6-200c75305dd4"},"vehicle_type_id":"4","last_reported":1778352200,"current_range_meters":2800,"station_id":"ce4bhh12rcd13ifvqfg0","pricing_plan_id":"cebpf4jnsgd1na2vs0mg"},{"bike_id":"c51c5232-6324-41c6-9f23-f5fca3f31349","system_id":"levelo_inurba_marseille","lat":43.2693,"lon":5.3892,"is_reserved":false,"is_disabled":false,"rental_uris":{"android":"levelo://app?vid=c51c5232-6324-41c6-9f23-f5fca3f31349","ios":"levelo://app?vid=c51c5232-6324-41c6-9f23-f5fca3f31349"},"vehicle_type_id":"4","last_reported":1778352200,"current_range_meters":2800,"station_id":"ce4bhhh2rcd13ifvqfl0","pricing_plan_id":"cebpf4jnsgd1na2vs0mg"},{"bike_id":"6bd67c95-d5dd-4c99-8f17-e519760c33d6","system_id":"levelo_inurba_marseille","lat":43.29526,"lon":5.37497,"is_reserved":false,"is_disabled":false,"rental_uris":{"android":"levelo://app?vid=6bd67c95-d5dd-4c99-8f17-e519760c33d6","ios":"levelo://app?vid=6bd67c95-d5dd-4c99-8f17-e519760c33d6"},"vehicle_type_id":"4","last_reported":1778352200,"current_range_meters":2800,"station_id":"ce4bgkp2rcd13ifvqbmg","pricing_plan_id":"cebpf4jnsgd1na2vs0mg"},{"bike_id":"7ef634ec-86ff-4409-88aa-c4927badd725","system_id":"levelo_inurba_marseille","lat":43.25005,"lon":5.3896,"is_reserved":false,"is_disabled":false,"rental_uris":{"android":"levelo://app?vid=7ef634ec-86ff-4409-88aa-c4927badd725","ios":"levelo://app?vid=7ef634ec-86ff-4409-88aa-c4927badd725"},"vehicle_type_id":"4","last_reported":1778352200,"current_range_meters":2800,"station_id":"ce4bhgp2rcd13ifvqfd0","pricing_plan_id":"cebpf4jnsgd1na2vs0mg"},{"bike_id":"33d7f954-7575-4f77-9a35-09ab08dcf5bc","system_id":"levelo_inurba_marseille","lat":43.27203,"lon":5.39202,"is_reserved":false,"is_disabled":false,"rental_uris":{"android":"levelo://app?vid=33d7f954-7575-4f77-9a35-09ab08dcf5bc","ios":"levelo://app?vid=33d7f954-7575-4f77-9a35-09ab08dcf5bc"},"vehicle_type_id":"4","last_reported":1778352200,"current_range_meters":2800,"station_id":"ce4bhhp2rcd13ifvqfm0","pricing_plan_id":"cebpf4jnsgd1na2vs0mg"},{"bike_id":"91d78913-28b2-401d-850a-f1af99bf6768","system_id":"levelo_inurba_marseille","lat":43.28805,"lon":5.42518,"is_reserved":false,"is_disabled":false,"rental_uris":{"android":"levelo://app?vid=91d78913-28b2-401d-850a-f1af99bf6768","ios":"levelo://app?vid=91d78913-28b2-401d-850a-f1af99bf6768"},"vehicle_type_id":"4","last_reported":1778352200,"current_range_meters":3200,"station_id":"","pricing_plan_id":"cebpf4jnsgd1na2vs0mg"},{"bike_id":"f03e9416-653d-45fd-aba7-c2ee459eb1bb","system_id":"levelo_inurba_marseille","lat":43.33547,"lon":5.37423,"is_reserved":false,"is_disabled":false,"rental_uris":{"android":"levelo://app?vid=f03e9416-653d-45fd-aba7-c2ee459eb1bb","ios":"levelo://app?vid=f03e9416-653d-45fd-aba7-c2ee459eb1bb"},"vehicle_type_id":"4","last_reported":1778352200,"current_range_meters":3200,"station_id":"st_d46tts09ee8s73dlu43g","pricing_plan_id":"cebpf4jnsgd1na2vs0mg"},{"bike_id":"9a3140d6-e3fa-492e-8460-9c6f22636700","system_id":"levelo_inurba_marseille","lat":43.31368,"lon":5.39957,"is_reserved":false,"is_disabled":false,"rental_uris":{"android":"levelo://app?vid=9a3140d6-e3fa-492e-8460-9c6f22636700","ios":"levelo://app?vid=9a3140d6-e3fa-492e-8460-9c6f22636700"},"vehicle_type_id":"4","last_reported":1778352200,"current_range_meters":3200,"station_id":"","pricing_plan_id":"cebpf4jnsgd1na2vs0mg"},{"bike_id":"d887cdf3-66ee-4a37-985b-e7ed35671fff","system_id":"levelo_inurba_marseille","lat":43.2737,"lon":5.39036,"is_reserved":false,"is_disabled":false,"rental_uris":{"android":"levelo://app?vid=d887cdf3-66ee-4a37-985b-e7ed35671fff","ios":"levelo://app?vid=d887cdf3-66ee-4a37-985b-e7ed35671fff"},"vehicle_type_id":"4","last_reported":1778352200,"current_range_meters":3200,"station_id":"ce4bhgp2rcd13ifvqfe0","pricing_plan_id":"cebpf4jnsgd1na2vs0mg"},{"bike_id":"415142c7-f50e-411e-adf6-f39700e22f6d","system_id":"levelo_inurba_marseille","lat":43.32719,"lon":5.3561,"is_reserved":false,"is_disabled":false,"rental_uris":{"android":"levelo://app?vid=415142c7-f50e-411e-adf6-f39700e22f6d","ios":"levelo://app?vid=415142c7-f50e-411e-adf6-f39700e22f6d"},"vehicle_type_id":"4","last_reported":1778352200,"current_range_meters":3200,"station_id":"","pricing_plan_id":"cebpf4jnsgd1na2vs0mg"},{"bike_id":"31e3bdd3-26c2-4084-a93d-199a4e07cfe9","system_id":"levelo_inurba_marseille","lat":43.27315,"lon":5.39107,"is_reserved":false,"is_disabled":false,"rental_uris":{"android":"levelo://app?vid=31e3bdd3-26c2-4084-a93d-199a4e07cfe9","ios":"levelo://app?vid=31e3bdd3-26c2-4084-a93d-199a4e07cfe9"},"vehicle_type_id":"4","last_reported":1778352200,"current_range_meters":3200,"station_id":"ce4bhgp2rcd13ifvqfe0","pricing_plan_id":"cebpf4jnsgd1na2vs0mg"},{"bike_id":"7fbbaa54-f508-411f-8e1e-c4fe39b1debd","system_id":"levelo_inurba_marseille","lat":43.31742,"lon":5.40417,"is_reserved":false,"is_disabled":false,"rental_uris":{"android":"levelo://app?vid=7fbbaa54-f508-411f-8e1e-c4fe39b1debd","ios":"levelo://app?vid=7fbbaa54-f508-411f-8e1e-c4fe39b1debd"},"vehicle_type_id":"4","last_reported":1778352200,"current_range_meters":3200,"station_id":"","pricing_plan_id":"cebpf4jnsgd1na2vs0mg"},{"bike_id":"5fc85a70-cd51-491b-a363-a46b0850da15","system_id":"levelo_inurba_marseille","lat":43.32878,"lon":5.36688,"is_reserved":false,"is_disabled":false,"rental_uris":{"android":"levelo://app?vid=5fc85a70-cd51-491b-a363-a46b0850da15","ios":"levelo://app?vid=5fc85a70-cd51-491b-a363-a46b0850da15"},"vehicle_type_id":"4","last_reported":1778352200,"current_range_meters":3200,"station_id":"","pricing_plan_id":"cebpf4jnsgd1na2vs0mg"},{"bike_id":"89ae5690-28bf-4b15-ae03-941d1c512dfe","system_id":"levelo_inurba_marseille","lat":43.30052,"lon":5.37962,"is_reserved":false,"is_disabled":false,"rental_uris":{"android":"levelo://app?vid=89ae5690-28bf-4b15-ae03-941d1c512dfe","ios":"levelo://app?vid=89ae5690-28bf-4b15-ae03-941d1c512dfe"},"vehicle_type_id":"4","last_reported":1778352200,"current_range_meters":3200,"station_id":"","pricing_plan_id":"cebpf4jnsgd1na2vs0mg"},{"bike_id":"c63ff33a-ae31-4c7f-ab16-4903dd497608","system_id":"levelo_inurba_marseille","lat":43.267761,"lon":5.394177,"is_reserved":false,"is_disabled":false,"rental_uris":{"android":"levelo://app?vid=c63ff33a-ae31-4c7f-ab16-4903dd497608","ios":"levelo://app?vid=c63ff33a-ae31-4c7f-ab16-4903dd497608"},"vehicle_type_id":"4","last_reported":1778352200,"current_range_meters":3200,"station_id":"ce4bhh12rcd13ifvqfg0","pricing_plan_id":"cebpf4jnsgd1na2vs0mg"},{"bike_id":"feed6869-4f51-4662-9ae3-00c43cc86309","system_id":"levelo_inurba_marseille","lat":43.27315,"lon":5.39077,"is_reserved":false,"is_disabled":false,"rental_uris":{"android":"levelo://app?vid=feed6869-4f51-4662-9ae3-00c43cc86309","ios":"levelo://app?vid=feed6869-4f51-4662-9ae3-00c43cc86309"},"vehicle_type_id":"4","last_reported":1778352200,"current_range_meters":3200,"station_id":"ce4bhgp2rcd13ifvqfe0","pricing_plan_id":"cebpf4jnsgd1na2vs0mg"},{"bike_id":"8aba812c-c815-4a1c-aa19-2d1b97ab1a6e","system_id":"levelo_inurba_marseille","lat":43.26955,"lon":5.38622,"is_reserved":false,"is_disabled":false,"rental_uris":{"android":"levelo://app?vid=8aba812c-c815-4a1c-aa19-2d1b97ab1a6e","ios":"levelo://app?vid=8aba812c-c815-4a1c-aa19-2d1b97ab1a6e"},"vehicle_type_id":"4","last_reported":1778352200,"current_range_meters":3200,"station_id":"ce4bhh92rcd13ifvqfh0","pricing_plan_id":"cebpf4jnsgd1na2vs0mg"},{"bike_id":"3a446dca-2681-481e-a8b8-aa8030f0bdbc","system_id":"levelo_inurba_marseille","lat":43.2904,"lon":5.35934,"is_reserved":false,"is_disabled":false,"rental_uris":{"android":"levelo://app?vid=3a446dca-2681-481e-a8b8-aa8030f0bdbc","ios":"levelo://app?vid=3a446dca-2681-481e-a8b8-aa8030f0bdbc"},"vehicle_type_id":"4","last_reported":1778352200,"current_range_meters":3200,"station_id":"ce4bha92rcd13ifvqeg0","pricing_plan_id":"cebpf4jnsgd1na2vs0mg"},{"bike_id":"88e957fe-47b6-4513-9ed3-2091e3817ca9","system_id":"levelo_inurba_marseille","lat":43.293933,"lon":5.385915,"is_reserved":false,"is_disabled":false,"rental_uris":{"android":"levelo://app?vid=88e957fe-47b6-4513-9ed3-2091e3817ca9","ios":"levelo://app?vid=88e957fe-47b6-4513-9ed3-2091e3817ca9"},"vehicle_type_id":"4","last_reported":1778352200,"current_range_meters":3200,"station_id":"ce4bh692rcd13ifvqea0","pricing_plan_id":"cebpf4jnsgd1na2vs0mg"},{"bike_id":"7e0d3b80-d12c-4c39-aaeb-f84840e2c036","system_id":"levelo_inurba_marseille","lat":43.31184,"lon":5.38713,"is_reserved":false,"is_disabled":false,"rental_uris":{"android":"levelo://app?vid=7e0d3b80-d12c-4c39-aaeb-f84840e2c036","ios":"levelo://app?vid=7e0d3b80-d12c-4c39-aaeb-f84840e2c036"},"vehicle_type_id":"4","last_reported":1778352200,"current_range_meters":3200,"station_id":"ce4bgv12rcd13ifvqcp0","pricing_plan_id":"cebpf4jnsgd1na2vs0mg"},{"bike_id":"a1682fee-d9df-4ccd-bcf4-7fd38b087de5","system_id":"levelo_inurba_marseille","lat":43.28473,"lon":5.38405,"is_reserved":false,"is_disabled":false,"rental_uris":{"android":"levelo://app?vid=a1682fee-d9df-4ccd-bcf4-7fd38b087de5","ios":"levelo://app?vid=a1682fee-d9df-4ccd-bcf4-7fd38b087de5"},"vehicle_type_id":"4","last_reported":1778352200,"current_range_meters":3600,"station_id":"ce4bh512rcd13ifvqe3g","pricing_plan_id":"cebpf4jnsgd1na2vs0mg"},{"bike_id":"83c53200-e80f-47bb-b870-a7652825089e","system_id":"levelo_inurba_marseille","lat":43.246577,"lon":5.381577,"is_reserved":false,"is_disabled":false,"rental_uris":{"android":"levelo://app?vid=83c53200-e80f-47bb-b870-a7652825089e","ios":"levelo://app?vid=83c53200-e80f-47bb-b870-a7652825089e"},"vehicle_type_id":"4","last_reported":1778352200,"current_range_meters":3600,"station_id":"ce4bhih2rcd13ifvqfr0","pricing_plan_id":"cebpf4jnsgd1na2vs0mg"},{"bike_id":"b44a9cd4-5b24-4ba8-878e-e9ddbed75cb6","system_id":"levelo_inurba_marseille","lat":43.27958,"lon":5.38736,"is_reserved":false,"is_disabled":true,"rental_uris":{"android":"levelo://app?vid=b44a9cd4-5b24-4ba8-878e-e9ddbed75cb6","ios":"levelo://app?vid=b44a9cd4-5b24-4ba8-878e-e9ddbed75cb6"},"vehicle_type_id":"4","last_reported":1778352200,"current_range_meters":3600,"station_id":"ce4bhg12rcd13ifvqf80","pricing_plan_id":"cebpf4jnsgd1na2vs0mg"},{"bike_id":"4b65741e-5ed9-4da8-8620-3a00f88659d6","system_id":"levelo_inurba_marseille","lat":43.28477,"lon":5.48399,"is_reserved":false,"is_disabled":false,"rental_uris":{"android":"levelo://app?vid=4b65741e-5ed9-4da8-8620-3a00f88659d6","ios":"levelo://app?vid=4b65741e-5ed9-4da8-8620-3a00f88659d6"},"vehicle_type_id":"4","last_reported":1778352200,"current_range_meters":3600,"station_id":"","pricing_plan_id":"cebpf4jnsgd1na2vs0mg"},{"bike_id":"e325c233-47c0-4ae2-aa4c-eec8eb06567d","system_id":"levelo_inurba_marseille","lat":43.26061,"lon":5.39402,"is_reserved":false,"is_disabled":false,"rental_uris":{"android":"levelo://app?vid=e325c233-47c0-4ae2-aa4c-eec8eb06567d","ios":"levelo://app?vid=e325c233-47c0-4ae2-aa4c-eec8eb06567d"},"vehicle_type_id":"4","last_reported":1778352200,"current_range_meters":3600,"station_id":"ce4bhh92rcd13ifvqfj0","pricing_plan_id":"cebpf4jnsgd1na2vs0mg"},{"bike_id":"0ecddad9-091b-47fd-a45d-db67559668c1","system_id":"levelo_inurba_marseille","lat":43.27991,"lon":5.38778,"is_reserved":false,"is_disabled":true,"rental_uris":{"android":"levelo://app?vid=0ecddad9-091b-47fd-a45d-db67559668c1","ios":"levelo://app?vid=0ecddad9-091b-47fd-a45d-db67559668c1"},"vehicle_type_id":"4","last_reported":1778352200,"current_range_meters":3600,"station_id":"ce4bhg12rcd13ifvqf80","pricing_plan_id":"cebpf4jnsgd1na2vs0mg"},{"bike_id":"3cea0c61-5600-40f7-8bdd-cd8df0e98936","system_id":"levelo_inurba_marseille","lat":43.31426,"lon":5.38296,"is_reserved":false,"is_disabled":false,"rental_uris":{"android":"levelo://app?vid=3cea0c61-5600-40f7-8bdd-cd8df0e98936","ios":"levelo://app?vid=3cea0c61-5600-40f7-8bdd-cd8df0e98936"},"vehicle_type_id":"4","last_reported":1778352200,"current_range_meters":3600,"station_id":"","pricing_plan_id":"cebpf4jnsgd1na2vs0mg"},{"bike_id":"5f96cfd5-6eb0-4dc7-85b6-78aceb7e068b","system_id":"levelo_inurba_marseille","lat":43.32656,"lon":5.40994,"is_reserved":false,"is_disabled":false,"rental_uris":{"android":"levelo://app?vid=5f96cfd5-6eb0-4dc7-85b6-78aceb7e068b","ios":"levelo://app?vid=5f96cfd5-6eb0-4dc7-85b6-78aceb7e068b"},"vehicle_type_id":"4","last_reported":1778352200,"current_range_meters":3600,"station_id":"ce4bhpp2rcd13ifvqhgg","pricing_plan_id":"cebpf4jnsgd1na2vs0mg"},{"bike_id":"79f2a195-c1d7-4545-8ee1-e2f28860b4d7","system_id":"levelo_inurba_marseille","lat":43.30958,"lon":5.39041,"is_reserved":false,"is_disabled":false,"rental_uris":{"android":"levelo://app?vid=79f2a195-c1d7-4545-8ee1-e2f28860b4d7","ios":"levelo://app?vid=79f2a195-c1d7-4545-8ee1-e2f28860b4d7"},"vehicle_type_id":"4","last_reported":1778352200,"current_range_meters":3600,"station_id":"ce4bgup2rcd13ifvqco0","pricing_plan_id":"cebpf4jnsgd1na2vs0mg"},{"bike_id":"db1ac9e8-2733-492b-8480-e00e6de58734","system_id":"levelo_inurba_marseille","lat":43.27322,"lon":5.39092,"is_reserved":false,"is_disabled":false,"rental_uris":{"android":"levelo://app?vid=db1ac9e8-2733-492b-8480-e00e6de58734","ios":"levelo://app?vid=db1ac9e8-2733-492b-8480-e00e6de58734"},"vehicle_type_id":"4","last_reported":1778352200,"current_range_meters":3600,"station_id":"ce4bhgp2rcd13ifvqfe0","pricing_plan_id":"cebpf4jnsgd1na2vs0mg"},{"bike_id":"639e2ee0-236e-4cfd-ad26-7e3f6111102b","system_id":"levelo_inurba_marseille","lat":43.2679,"lon":5.39418,"is_reserved":false,"is_disabled":false,"rental_uris":{"android":"levelo://app?vid=639e2ee0-236e-4cfd-ad26-7e3f6111102b","ios":"levelo://app?vid=639e2ee0-236e-4cfd-ad26-7e3f6111102b"},"vehicle_type_id":"4","last_reported":1778352200,"current_range_meters":3600,"station_id":"ce4bhh12rcd13ifvqfg0","pricing_plan_id":"cebpf4jnsgd1na2vs0mg"},{"bike_id":"fa833790-fea7-4b87-ab01-22a9071ab066","system_id":"levelo_inurba_marseille","lat":43.28492,"lon":5.48423,"is_reserved":false,"is_disabled":false,"rental_uris":{"android":"levelo://app?vid=fa833790-fea7-4b87-ab01-22a9071ab066","ios":"levelo://app?vid=fa833790-fea7-4b87-ab01-22a9071ab066"},"vehicle_type_id":"4","last_reported":1778352200,"current_range_meters":3600,"station_id":"","pricing_plan_id":"cebpf4jnsgd1na2vs0mg"},{"bike_id":"95489a07-b280-4aea-935b-70fc8cc33653","system_id":"levelo_inurba_marseille","lat":43.21765,"lon":5.3464,"is_reserved":false,"is_disabled":true,"rental_uris":{"android":"levelo://app?vid=95489a07-b280-4aea-935b-70fc8cc33653","ios":"levelo://app?vid=95489a07-b280-4aea-935b-70fc8cc33653"},"vehicle_type_id":"4","last_reported":1778352200,"current_range_meters":3600,"station_id":"st_cvj6r9ubvosntc0bgbag","pricing_plan_id":"cebpf4jnsgd1na2vs0mg"},{"bike_id":"e89e2959-9886-4a87-a481-94fb714afa0a","system_id":"levelo_inurba_marseille","lat":43.29534,"lon":5.38541,"is_reserved":false,"is_disabled":false,"rental_uris":{"android":"levelo://app?vid=e89e2959-9886-4a87-a481-94fb714afa0a","ios":"levelo://app?vid=e89e2959-9886-4a87-a481-94fb714afa0a"},"vehicle_type_id":"4","last_reported":1778352200,"current_range_meters":3600,"station_id":"ce4bgih2rcd13ifvqba0","pricing_plan_id":"cebpf4jnsgd1na2vs0mg"},{"bike_id":"f1d8985e-40a5-489e-acf4-52ee14bb0d55","system_id":"levelo_inurba_marseille","lat":43.30957,"lon":5.39092,"is_reserved":false,"is_disabled":false,"rental_uris":{"android":"levelo://app?vid=f1d8985e-40a5-489e-acf4-52ee14bb0d55","ios":"levelo://app?vid=f1d8985e-40a5-489e-acf4-52ee14bb0d55"},"vehicle_type_id":"4","last_reported":1778352200,"current_range_meters":3600,"station_id":"","pricing_plan_id":"cebpf4jnsgd1na2vs0mg"},{"bike_id":"7afac39b-ec7f-441c-854a-bc035a5b385e","system_id":"levelo_inurba_marseille","lat":43.27555,"lon":5.38448,"is_reserved":false,"is_disabled":false,"rental_uris":{"android":"levelo://app?vid=7afac39b-ec7f-441c-854a-bc035a5b385e","ios":"levelo://app?vid=7afac39b-ec7f-441c-854a-bc035a5b385e"},"vehicle_type_id":"4","last_reported":1778352200,"current_range_meters":3600,"station_id":"ce4bhh92rcd13ifvqfi0","pricing_plan_id":"cebpf4jnsgd1na2vs0mg"},{"bike_id":"26743cb5-dbca-4258-abf7-76897c188d59","system_id":"levelo_inurba_marseille","lat":43.26499,"lon":5.3954,"is_reserved":false,"is_disabled":false,"rental_uris":{"android":"levelo://app?vid=26743cb5-dbca-4258-abf7-76897c188d59","ios":"levelo://app?vid=26743cb5-dbca-4258-abf7-76897c188d59"},"vehicle_type_id":"4","last_reported":1778352200,"current_range_meters":3600,"station_id":"ce4bhi12rcd13ifvqfq0","pricing_plan_id":"cebpf4jnsgd1na2vs0mg"},{"bike_id":"13b1bcc7-e9d8-48b8-a72f-6d1f9d17e51d","system_id":"levelo_inurba_marseille","lat":43.24909,"lon":5.38965,"is_reserved":false,"is_disabled":false,"rental_uris":{"android":"levelo://app?vid=13b1bcc7-e9d8-48b8-a72f-6d1f9d17e51d","ios":"levelo://app?vid=13b1bcc7-e9d8-48b8-a72f-6d1f9d17e51d"},"vehicle_type_id":"4","last_reported":1778352200,"current_range_meters":3600,"station_id":"","pricing_plan_id":"cebpf4jnsgd1na2vs0mg"},{"bike_id":"138fd523-ab17-4987-9430-1b46314f5d15","system_id":"levelo_inurba_marseille","lat":43.26924,"lon":5.40264,"is_reserved":false,"is_disabled":false,"rental_uris":{"android":"levelo://app?vid=138fd523-ab17-4987-9430-1b46314f5d15","ios":"levelo://app?vid=138fd523-ab17-4987-9430-1b46314f5d15"},"vehicle_type_id":"4","last_reported":1778352200,"current_range_meters":3600,"station_id":"cjm6bp8fraef2m0cb0m0","pricing_plan_id":"cebpf4jnsgd1na2vs0mg"},{"bike_id":"5b17b337-4e55-486b-b310-212b10614e57","system_id":"levelo_inurba_marseille","lat":43.32354,"lon":5.3675,"is_reserved":false,"is_disabled":false,"rental_uris":{"android":"levelo://app?vid=5b17b337-4e55-486b-b310-212b10614e57","ios":"levelo://app?vid=5b17b337-4e55-486b-b310-212b10614e57"},"vehicle_type_id":"4","last_reported":1778352200,"current_range_meters":3600,"station_id":"ce4bhsh2rcd13ifvqi2g","pricing_plan_id":"cebpf4jnsgd1na2vs0mg"},{"bike_id":"61cb1397-1a26-475c-9e61-55d1c35d7b39","system_id":"levelo_inurba_marseille","lat":43.265917,"lon":5.372879,"is_reserved":false,"is_disabled":false,"rental_uris":{"android":"levelo://app?vid=61cb1397-1a26-475c-9e61-55d1c35d7b39","ios":"levelo://app?vid=61cb1397-1a26-475c-9e61-55d1c35d7b39"},"vehicle_type_id":"4","last_reported":1778352200,"current_range_meters":3600,"station_id":"ce4bhg12rcd13ifvqf70","pricing_plan_id":"cebpf4jnsgd1na2vs0mg"},{"bike_id":"b814abf4-d77d-4013-8042-4e39661fb9e7","system_id":"levelo_inurba_marseille","lat":43.27278,"lon":5.39268,"is_reserved":false,"is_disabled":false,"rental_uris":{"android":"levelo://app?vid=b814abf4-d77d-4013-8042-4e39661fb9e7","ios":"levelo://app?vid=b814abf4-d77d-4013-8042-4e39661fb9e7"},"vehicle_type_id":"4","last_reported":1778352200,"current_range_meters":3600,"station_id":"","pricing_plan_id":"cebpf4jnsgd1na2vs0mg"},{"bike_id":"ba1a84df-99bc-4f91-b102-9b8b01f50ffc","system_id":"levelo_inurba_marseille","lat":43.31891,"lon":5.36826,"is_reserved":false,"is_disabled":false,"rental_uris":{"android":"levelo://app?vid=ba1a84df-99bc-4f91-b102-9b8b01f50ffc","ios":"levelo://app?vid=ba1a84df-99bc-4f91-b102-9b8b01f50ffc"},"vehicle_type_id":"4","last_reported":1778352200,"current_range_meters":4000,"station_id":"st_d6o2h0d0559c73evc1b0","pricing_plan_id":"cebpf4jnsgd1na2vs0mg"},{"bike_id":"e45215d3-57d1-42e4-b2d1-e55418d036f4","system_id":"levelo_inurba_marseille","lat":43.2963,"lon":5.37159,"is_reserved":false,"is_disabled":false,"rental_uris":{"android":"levelo://app?vid=e45215d3-57d1-42e4-b2d1-e55418d036f4","ios":"levelo://app?vid=e45215d3-57d1-42e4-b2d1-e55418d036f4"},"vehicle_type_id":"4","last_reported":1778352200,"current_range_meters":4000,"station_id":"ce4bgnh2rcd13ifvqc0g","pricing_plan_id":"cebpf4jnsgd1na2vs0mg"},{"bike_id":"09f03c71-3135-488b-aa1b-16f1834011a9","system_id":"levelo_inurba_marseille","lat":43.29198,"lon":5.35677,"is_reserved":false,"is_disabled":false,"rental_uris":{"android":"levelo://app?vid=09f03c71-3135-488b-aa1b-16f1834011a9","ios":"levelo://app?vid=09f03c71-3135-488b-aa1b-16f1834011a9"},"vehicle_type_id":"4","last_reported":1778352200,"current_range_meters":4000,"station_id":"","pricing_plan_id":"cebpf4jnsgd1na2vs0mg"},{"bike_id":"aea747f8-311b-4ded-9e0e-45c22d0f6c1f","system_id":"levelo_inurba_marseille","lat":43.27327,"lon":5.39133,"is_reserved":false,"is_disabled":false,"rental_uris":{"android":"levelo://app?vid=aea747f8-311b-4ded-9e0e-45c22d0f6c1f","ios":"levelo://app?vid=aea747f8-311b-4ded-9e0e-45c22d0f6c1f"},"vehicle_type_id":"4","last_reported":1778352200,"current_range_meters":4000,"station_id":"","pricing_plan_id":"cebpf4jnsgd1na2vs0mg"},{"bike_id":"075e7a6c-4f4b-400a-a226-e30e8c6d4f53","system_id":"levelo_inurba_marseille","lat":43.2781,"lon":5.40712,"is_reserved":false,"is_disabled":false,"rental_uris":{"android":"levelo://app?vid=075e7a6c-4f4b-400a-a226-e30e8c6d4f53","ios":"levelo://app?vid=075e7a6c-4f4b-400a-a226-e30e8c6d4f53"},"vehicle_type_id":"4","last_reported":1778352200,"current_range_meters":4000,"station_id":"ce4bhnh2rcd13ifvqgtg","pricing_plan_id":"cebpf4jnsgd1na2vs0mg"},{"bike_id":"4e439951-b038-4836-9ad5-387115b4b494","system_id":"levelo_inurba_marseille","lat":43.313612,"lon":5.38488,"is_reserved":false,"is_disabled":false,"rental_uris":{"android":"levelo://app?vid=4e439951-b038-4836-9ad5-387115b4b494","ios":"levelo://app?vid=4e439951-b038-4836-9ad5-387115b4b494"},"vehicle_type_id":"4","last_reported":1778352200,"current_range_meters":4000,"station_id":"ce4bgt92rcd13ifvqcf0","pricing_plan_id":"cebpf4jnsgd1na2vs0mg"},{"bike_id":"2e95cbe4-b1d3-418e-b43c-322812e33691","system_id":"levelo_inurba_marseille","lat":43.27308,"lon":5.3908,"is_reserved":false,"is_disabled":false,"rental_uris":{"android":"levelo://app?vid=2e95cbe4-b1d3-418e-b43c-322812e33691","ios":"levelo://app?vid=2e95cbe4-b1d3-418e-b43c-322812e33691"},"vehicle_type_id":"4","last_reported":1778352200,"current_range_meters":4000,"station_id":"ce4bhgp2rcd13ifvqfe0","pricing_plan_id":"cebpf4jnsgd1na2vs0mg"},{"bike_id":"26ff3971-3ad3-421f-b953-66789697f23b","system_id":"levelo_inurba_marseille","lat":43.2722,"lon":5.39197,"is_reserved":false,"is_disabled":false,"rental_uris":{"android":"levelo://app?vid=26ff3971-3ad3-421f-b953-66789697f23b","ios":"levelo://app?vid=26ff3971-3ad3-421f-b953-66789697f23b"},"vehicle_type_id":"4","last_reported":1778352200,"current_range_meters":4000,"station_id":"ce4bhhp2rcd13ifvqfm0","pricing_plan_id":"cebpf4jnsgd1na2vs0mg"},{"bike_id":"c1b768b5-78ad-4562-8b11-acf628f13106","system_id":"levelo_inurba_marseille","lat":43.27959,"lon":5.44181,"is_reserved":false,"is_disabled":false,"rental_uris":{"android":"levelo://app?vid=c1b768b5-78ad-4562-8b11-acf628f13106","ios":"levelo://app?vid=c1b768b5-78ad-4562-8b11-acf628f13106"},"vehicle_type_id":"4","last_reported":1778352200,"current_range_meters":4000,"station_id":"","pricing_plan_id":"cebpf4jnsgd1na2vs0mg"},{"bike_id":"b8dc5208-9fa7-4c40-a1ac-7f81efbb4339","system_id":"levelo_inurba_marseille","lat":43.272008,"lon":5.391821,"is_reserved":false,"is_disabled":false,"rental_uris":{"android":"levelo://app?vid=b8dc5208-9fa7-4c40-a1ac-7f81efbb4339","ios":"levelo://app?vid=b8dc5208-9fa7-4c40-a1ac-7f81efbb4339"},"vehicle_type_id":"4","last_reported":1778352200,"current_range_meters":4000,"station_id":"ce4bhhp2rcd13ifvqfm0","pricing_plan_id":"cebpf4jnsgd1na2vs0mg"},{"bike_id":"bb0834da-6a15-448e-9e09-2b812f93558d","system_id":"levelo_inurba_marseille","lat":43.30466,"lon":5.37896,"is_reserved":false,"is_disabled":false,"rental_uris":{"android":"levelo://app?vid=bb0834da-6a15-448e-9e09-2b812f93558d","ios":"levelo://app?vid=bb0834da-6a15-448e-9e09-2b812f93558d"},"vehicle_type_id":"4","last_reported":1778352200,"current_range_meters":4000,"station_id":"ce4bgup2rcd13ifvqcn0","pricing_plan_id":"cebpf4jnsgd1na2vs0mg"},{"bike_id":"4acb43ed-3642-4736-9baa-453b9005f3a4","system_id":"levelo_inurba_marseille","lat":43.29559,"lon":5.38693,"is_reserved":false,"is_disabled":false,"rental_uris":{"android":"levelo://app?vid=4acb43ed-3642-4736-9baa-453b9005f3a4","ios":"levelo://app?vid=4acb43ed-3642-4736-9baa-453b9005f3a4"},"vehicle_type_id":"4","last_reported":1778352200,"current_range_meters":4000,"station_id":"","pricing_plan_id":"cebpf4jnsgd1na2vs0mg"},{"bike_id":"eee51eae-5aaa-4a90-b6bb-0ee2250819e2","system_id":"levelo_inurba_marseille","lat":43.27918,"lon":5.38732,"is_reserved":false,"is_disabled":false,"rental_uris":{"android":"levelo://app?vid=eee51eae-5aaa-4a90-b6bb-0ee2250819e2","ios":"levelo://app?vid=eee51eae-5aaa-4a90-b6bb-0ee2250819e2"},"vehicle_type_id":"4","last_reported":1778352200,"current_range_meters":4400,"station_id":"","pricing_plan_id":"cebpf4jnsgd1na2vs0mg"},{"bike_id":"36bf5966-883a-4820-975e-e8801ce08727","system_id":"levelo_inurba_marseille","lat":43.29317,"lon":5.37143,"is_reserved":false,"is_disabled":false,"rental_uris":{"android":"levelo://app?vid=36bf5966-883a-4820-975e-e8801ce08727","ios":"levelo://app?vid=36bf5966-883a-4820-975e-e8801ce08727"},"vehicle_type_id":"4","last_reported":1778352200,"current_range_meters":4400,"station_id":"ce4bgh92rcd13ifvqb40","pricing_plan_id":"cebpf4jnsgd1na2vs0mg"},{"bike_id":"e9603e54-ff6b-4fae-9e9b-b17dd395cbe4","system_id":"levelo_inurba_marseille","lat":43.26337,"lon":5.39947,"is_reserved":false,"is_disabled":false,"rental_uris":{"android":"levelo://app?vid=e9603e54-ff6b-4fae-9e9b-b17dd395cbe4","ios":"levelo://app?vid=e9603e54-ff6b-4fae-9e9b-b17dd395cbe4"},"vehicle_type_id":"4","last_reported":1778352200,"current_range_meters":4400,"station_id":"","pricing_plan_id":"cebpf4jnsgd1na2vs0mg"},{"bike_id":"d69f6eb3-aa00-4256-80f4-db52b67c4552","system_id":"levelo_inurba_marseille","lat":43.29795,"lon":5.38098,"is_reserved":false,"is_disabled":false,"rental_uris":{"android":"levelo://app?vid=d69f6eb3-aa00-4256-80f4-db52b67c4552","ios":"levelo://app?vid=d69f6eb3-aa00-4256-80f4-db52b67c4552"},"vehicle_type_id":"4","last_reported":1778352200,"current_range_meters":4400,"station_id":"ce4bgip2rcd13ifvqbb0","pricing_plan_id":"cebpf4jnsgd1na2vs0mg"},{"bike_id":"3eaa98fe-19f3-481a-ab88-1a1c39a88d31","system_id":"levelo_inurba_marseille","lat":43.30916,"lon":5.36872,"is_reserved":false,"is_disabled":false,"rental_uris":{"android":"levelo://app?vid=3eaa98fe-19f3-481a-ab88-1a1c39a88d31","ios":"levelo://app?vid=3eaa98fe-19f3-481a-ab88-1a1c39a88d31"},"vehicle_type_id":"4","last_reported":1778352200,"current_range_meters":4400,"station_id":"ce4bgn92rcd13ifvqbvg","pricing_plan_id":"cebpf4jnsgd1na2vs0mg"},{"bike_id":"2604fbbc-e049-4cc7-8069-721d8cb88417","system_id":"levelo_inurba_marseille","lat":43.24468,"lon":5.42552,"is_reserved":false,"is_disabled":false,"rental_uris":{"android":"levelo://app?vid=2604fbbc-e049-4cc7-8069-721d8cb88417","ios":"levelo://app?vid=2604fbbc-e049-4cc7-8069-721d8cb88417"},"vehicle_type_id":"4","last_reported":1778352200,"current_range_meters":4400,"station_id":"st_d4a3vfp97mjs738cd8kg","pricing_plan_id":"cebpf4jnsgd1na2vs0mg"},{"bike_id":"e8461b56-9af7-4d44-a288-92e063783260","system_id":"levelo_inurba_marseille","lat":43.26229,"lon":5.40444,"is_reserved":false,"is_disabled":false,"rental_uris":{"android":"levelo://app?vid=e8461b56-9af7-4d44-a288-92e063783260","ios":"levelo://app?vid=e8461b56-9af7-4d44-a288-92e063783260"},"vehicle_type_id":"4","last_reported":1778352200,"current_range_meters":4400,"station_id":"ce4bhmh2rcd13ifvqgmg","pricing_plan_id":"cebpf4jnsgd1na2vs0mg"},{"bike_id":"cad34172-e400-49e7-804c-04a869e760a9","system_id":"levelo_inurba_marseille","lat":43.27331,"lon":5.39075,"is_reserved":false,"is_disabled":false,"rental_uris":{"android":"levelo://app?vid=cad34172-e400-49e7-804c-04a869e760a9","ios":"levelo://app?vid=cad34172-e400-49e7-804c-04a869e760a9"},"vehicle_type_id":"4","last_reported":1778352200,"current_range_meters":4400,"station_id":"ce4bhgp2rcd13ifvqfe0","pricing_plan_id":"cebpf4jnsgd1na2vs0mg"},{"bike_id":"880e051b-7094-4932-8bb5-844bfcfa70d3","system_id":"levelo_inurba_marseille","lat":43.2994,"lon":5.36553,"is_reserved":false,"is_disabled":false,"rental_uris":{"android":"levelo://app?vid=880e051b-7094-4932-8bb5-844bfcfa70d3","ios":"levelo://app?vid=880e051b-7094-4932-8bb5-844bfcfa70d3"},"vehicle_type_id":"4","last_reported":1778352200,"current_range_meters":4400,"station_id":"ce4bgm92rcd13ifvqbr0","pricing_plan_id":"cebpf4jnsgd1na2vs0mg"},{"bike_id":"117df91d-a795-482a-b7d6-a71fcdef9a1d","system_id":"levelo_inurba_marseille","lat":43.28568,"lon":5.39492,"is_reserved":false,"is_disabled":false,"rental_uris":{"android":"levelo://app?vid=117df91d-a795-482a-b7d6-a71fcdef9a1d","ios":"levelo://app?vid=117df91d-a795-482a-b7d6-a71fcdef9a1d"},"vehicle_type_id":"4","last_reported":1778352200,"current_range_meters":4800,"station_id":"ce4bh292rcd13ifvqdg0","pricing_plan_id":"cebpf4jnsgd1na2vs0mg"},{"bike_id":"798dd442-ecce-41be-b4b9-436ee7f8a467","system_id":"levelo_inurba_marseille","lat":43.272094,"lon":5.390291,"is_reserved":false,"is_disabled":false,"rental_uris":{"android":"levelo://app?vid=798dd442-ecce-41be-b4b9-436ee7f8a467","ios":"levelo://app?vid=798dd442-ecce-41be-b4b9-436ee7f8a467"},"vehicle_type_id":"4","last_reported":1778352200,"current_range_meters":4800,"station_id":"ce4bhhp2rcd13ifvqfm0","pricing_plan_id":"cebpf4jnsgd1na2vs0mg"},{"bike_id":"751cdc66-8641-4875-a1dd-40c6831f96d1","system_id":"levelo_inurba_marseille","lat":43.26789,"lon":5.39403,"is_reserved":false,"is_disabled":false,"rental_uris":{"android":"levelo://app?vid=751cdc66-8641-4875-a1dd-40c6831f96d1","ios":"levelo://app?vid=751cdc66-8641-4875-a1dd-40c6831f96d1"},"vehicle_type_id":"4","last_reported":1778352200,"current_range_meters":4800,"station_id":"ce4bhh12rcd13ifvqfg0","pricing_plan_id":"cebpf4jnsgd1na2vs0mg"},{"bike_id":"53780355-d1e0-4841-830c-960744bd25a6","system_id":"levelo_inurba_marseille","lat":43.295227,"lon":5.390359,"is_reserved":false,"is_disabled":false,"rental_uris":{"android":"levelo://app?vid=53780355-d1e0-4841-830c-960744bd25a6","ios":"levelo://app?vid=53780355-d1e0-4841-830c-960744bd25a6"},"vehicle_type_id":"4","last_reported":1778352200,"current_range_meters":4800,"station_id":"ce4bh3p2rcd13ifvqdp0","pricing_plan_id":"cebpf4jnsgd1na2vs0mg"},{"bike_id":"012436db-213f-4ce3-a46b-2b318f2b65c1","system_id":"levelo_inurba_marseille","lat":43.29593,"lon":5.37499,"is_reserved":false,"is_disabled":true,"rental_uris":{"android":"levelo://app?vid=012436db-213f-4ce3-a46b-2b318f2b65c1","ios":"levelo://app?vid=012436db-213f-4ce3-a46b-2b318f2b65c1"},"vehicle_type_id":"4","last_reported":1778352200,"current_range_meters":4800,"station_id":"ce4bgh92rcd13ifvqb50","pricing_plan_id":"cebpf4jnsgd1na2vs0mg"},{"bike_id":"1937ddf2-8f40-43c9-bdf8-cf74b0160312","system_id":"levelo_inurba_marseille","lat":43.2985,"lon":5.3629,"is_reserved":false,"is_disabled":false,"rental_uris":{"android":"levelo://app?vid=1937ddf2-8f40-43c9-bdf8-cf74b0160312","ios":"levelo://app?vid=1937ddf2-8f40-43c9-bdf8-cf74b0160312"},"vehicle_type_id":"4","last_reported":1778352200,"current_range_meters":4800,"station_id":"ce4bgpp2rcd13ifvqc3g","pricing_plan_id":"cebpf4jnsgd1na2vs0mg"},{"bike_id":"5361539f-a584-4329-8108-172e9f5f2d2f","system_id":"levelo_inurba_marseille","lat":43.26069,"lon":5.39388,"is_reserved":false,"is_disabled":false,"rental_uris":{"android":"levelo://app?vid=5361539f-a584-4329-8108-172e9f5f2d2f","ios":"levelo://app?vid=5361539f-a584-4329-8108-172e9f5f2d2f"},"vehicle_type_id":"4","last_reported":1778352200,"current_range_meters":4800,"station_id":"ce4bhh92rcd13ifvqfj0","pricing_plan_id":"cebpf4jnsgd1na2vs0mg"},{"bike_id":"b8425fa1-a298-4679-ba8a-777546e14eca","system_id":"levelo_inurba_marseille","lat":43.33781,"lon":5.37454,"is_reserved":false,"is_disabled":false,"rental_uris":{"android":"levelo://app?vid=b8425fa1-a298-4679-ba8a-777546e14eca","ios":"levelo://app?vid=b8425fa1-a298-4679-ba8a-777546e14eca"},"vehicle_type_id":"4","last_reported":1778352200,"current_range_meters":4800,"station_id":"","pricing_plan_id":"cebpf4jnsgd1na2vs0mg"},{"bike_id":"8e7bacc7-a10b-4c25-9a0c-638743c4cdd3","system_id":"levelo_inurba_marseille","lat":43.30134,"lon":5.38768,"is_reserved":false,"is_disabled":false,"rental_uris":{"android":"levelo://app?vid=8e7bacc7-a10b-4c25-9a0c-638743c4cdd3","ios":"levelo://app?vid=8e7bacc7-a10b-4c25-9a0c-638743c4cdd3"},"vehicle_type_id":"4","last_reported":1778352200,"current_range_meters":4800,"station_id":"ce4bghh2rcd13ifvqb60","pricing_plan_id":"cebpf4jnsgd1na2vs0mg"},{"bike_id":"b888d006-5d40-4555-be47-19d4d1263d91","system_id":"levelo_inurba_marseille","lat":43.27321,"lon":5.39077,"is_reserved":false,"is_disabled":false,"rental_uris":{"android":"levelo://app?vid=b888d006-5d40-4555-be47-19d4d1263d91","ios":"levelo://app?vid=b888d006-5d40-4555-be47-19d4d1263d91"},"vehicle_type_id":"4","last_reported":1778352200,"current_range_meters":4800,"station_id":"ce4bhgp2rcd13ifvqfe0","pricing_plan_id":"cebpf4jnsgd1na2vs0mg"},{"bike_id":"348bfdba-9d6e-4aa7-8d67-36f0a3487da5","system_id":"levelo_inurba_marseille","lat":43.31385,"lon":5.38488,"is_reserved":false,"is_disabled":false,"rental_uris":{"android":"levelo://app?vid=348bfdba-9d6e-4aa7-8d67-36f0a3487da5","ios":"levelo://app?vid=348bfdba-9d6e-4aa7-8d67-36f0a3487da5"},"vehicle_type_id":"4","last_reported":1778352200,"current_range_meters":4800,"station_id":"ce4bgt92rcd13ifvqcf0","pricing_plan_id":"cebpf4jnsgd1na2vs0mg"},{"bike_id":"e60ed1d5-836c-4a31-a2c1-7d038468aa52","system_id":"levelo_inurba_marseille","lat":43.29957,"lon":5.38525,"is_reserved":false,"is_disabled":false,"rental_uris":{"android":"levelo://app?vid=e60ed1d5-836c-4a31-a2c1-7d038468aa52","ios":"levelo://app?vid=e60ed1d5-836c-4a31-a2c1-7d038468aa52"},"vehicle_type_id":"4","last_reported":1778352200,"current_range_meters":4800,"station_id":"ce4bgj92rcd13ifvqbd0","pricing_plan_id":"cebpf4jnsgd1na2vs0mg"},{"bike_id":"3475b4c6-520c-46fb-aa90-b574cb8c81fb","system_id":"levelo_inurba_marseille","lat":43.31686,"lon":5.40471,"is_reserved":false,"is_disabled":false,"rental_uris":{"android":"levelo://app?vid=3475b4c6-520c-46fb-aa90-b574cb8c81fb","ios":"levelo://app?vid=3475b4c6-520c-46fb-aa90-b574cb8c81fb"},"vehicle_type_id":"4","last_reported":1778352200,"current_range_meters":4800,"station_id":"ce4bh012rcd13ifvqd00","pricing_plan_id":"cebpf4jnsgd1na2vs0mg"},{"bike_id":"b7785eb4-2ec2-477e-84df-a4c7edcf4b95","system_id":"levelo_inurba_marseille","lat":43.29262,"lon":5.38427,"is_reserved":false,"is_disabled":false,"rental_uris":{"android":"levelo://app?vid=b7785eb4-2ec2-477e-84df-a4c7edcf4b95","ios":"levelo://app?vid=b7785eb4-2ec2-477e-84df-a4c7edcf4b95"},"vehicle_type_id":"4","last_reported":1778352200,"current_range_meters":4800,"station_id":"ce4bh692rcd13ifvqea0","pricing_plan_id":"cebpf4jnsgd1na2vs0mg"},{"bike_id":"92c9d0a0-7699-4a8f-9822-768984018037","system_id":"levelo_inurba_marseille","lat":43.337444,"lon":5.374475,"is_reserved":false,"is_disabled":false,"rental_uris":{"android":"levelo://app?vid=92c9d0a0-7699-4a8f-9822-768984018037","ios":"levelo://app?vid=92c9d0a0-7699-4a8f-9822-768984018037"},"vehicle_type_id":"4","last_reported":1778352200,"current_range_meters":4800,"station_id":"ce4bhbh2rcd13ifvqeqg","pricing_plan_id":"cebpf4jnsgd1na2vs0mg"},{"bike_id":"8127a179-0b6c-4390-978d-34e331e55652","system_id":"levelo_inurba_marseille","lat":43.31694,"lon":5.40473,"is_reserved":false,"is_disabled":false,"rental_uris":{"android":"levelo://app?vid=8127a179-0b6c-4390-978d-34e331e55652","ios":"levelo://app?vid=8127a179-0b6c-4390-978d-34e331e55652"},"vehicle_type_id":"4","last_reported":1778352200,"current_range_meters":5600,"station_id":"ce4bh012rcd13ifvqd00","pricing_plan_id":"cebpf4jnsgd1na2vs0mg"},{"bike_id":"3d6aabb2-897c-462b-b2a5-511a9ca22a13","system_id":"levelo_inurba_marseille","lat":43.29533,"lon":5.38536,"is_reserved":false,"is_disabled":false,"rental_uris":{"android":"levelo://app?vid=3d6aabb2-897c-462b-b2a5-511a9ca22a13","ios":"levelo://app?vid=3d6aabb2-897c-462b-b2a5-511a9ca22a13"},"vehicle_type_id":"4","last_reported":1778352200,"current_range_meters":5600,"station_id":"ce4bgih2rcd13ifvqba0","pricing_plan_id":"cebpf4jnsgd1na2vs0mg"},{"bike_id":"1f2e3678-2790-4134-b0b0-63d504b63bcc","system_id":"levelo_inurba_marseille","lat":43.29832,"lon":5.36314,"is_reserved":false,"is_disabled":false,"rental_uris":{"android":"levelo://app?vid=1f2e3678-2790-4134-b0b0-63d504b63bcc","ios":"levelo://app?vid=1f2e3678-2790-4134-b0b0-63d504b63bcc"},"vehicle_type_id":"4","last_reported":1778352200,"current_range_meters":5600,"station_id":"ce4bgpp2rcd13ifvqc3g","pricing_plan_id":"cebpf4jnsgd1na2vs0mg"},{"bike_id":"48c264b9-5774-4c84-bbfe-2fb5a55e097d","system_id":"levelo_inurba_marseille","lat":43.27211,"lon":5.39187,"is_reserved":false,"is_disabled":false,"rental_uris":{"android":"levelo://app?vid=48c264b9-5774-4c84-bbfe-2fb5a55e097d","ios":"levelo://app?vid=48c264b9-5774-4c84-bbfe-2fb5a55e097d"},"vehicle_type_id":"4","last_reported":1778352200,"current_range_meters":5600,"station_id":"ce4bhhp2rcd13ifvqfm0","pricing_plan_id":"cebpf4jnsgd1na2vs0mg"},{"bike_id":"8d433cd8-ede2-498a-84f5-0980fac50dc8","system_id":"levelo_inurba_marseille","lat":43.3041,"lon":5.42353,"is_reserved":false,"is_disabled":false,"rental_uris":{"android":"levelo://app?vid=8d433cd8-ede2-498a-84f5-0980fac50dc8","ios":"levelo://app?vid=8d433cd8-ede2-498a-84f5-0980fac50dc8"},"vehicle_type_id":"4","last_reported":1778352200,"current_range_meters":5600,"station_id":"","pricing_plan_id":"cebpf4jnsgd1na2vs0mg"},{"bike_id":"c5f72ad7-1242-4a4d-ba25-d7d97c483db7","system_id":"levelo_inurba_marseille","lat":43.2731,"lon":5.39102,"is_reserved":false,"is_disabled":false,"rental_uris":{"android":"levelo://app?vid=c5f72ad7-1242-4a4d-ba25-d7d97c483db7","ios":"levelo://app?vid=c5f72ad7-1242-4a4d-ba25-d7d97c483db7"},"vehicle_type_id":"4","last_reported":1778352200,"current_range_meters":5600,"station_id":"ce4bhgp2rcd13ifvqfe0","pricing_plan_id":"cebpf4jnsgd1na2vs0mg"},{"bike_id":"10c1c852-27c1-4a93-8a9e-687fcc741284","system_id":"levelo_inurba_marseille","lat":43.29851,"lon":5.36289,"is_reserved":false,"is_disabled":false,"rental_uris":{"android":"levelo://app?vid=10c1c852-27c1-4a93-8a9e-687fcc741284","ios":"levelo://app?vid=10c1c852-27c1-4a93-8a9e-687fcc741284"},"vehicle_type_id":"4","last_reported":1778352200,"current_range_meters":5600,"station_id":"ce4bgpp2rcd13ifvqc3g","pricing_plan_id":"cebpf4jnsgd1na2vs0mg"},{"bike_id":"86547ce3-580f-4a4b-8a18-dc8187299d67","system_id":"levelo_inurba_marseille","lat":43.28926,"lon":5.38394,"is_reserved":false,"is_disabled":false,"rental_uris":{"android":"levelo://app?vid=86547ce3-580f-4a4b-8a18-dc8187299d67","ios":"levelo://app?vid=86547ce3-580f-4a4b-8a18-dc8187299d67"},"vehicle_type_id":"4","last_reported":1778352200,"current_range_meters":5600,"station_id":"ce4bh612rcd13ifvqe6g","pricing_plan_id":"cebpf4jnsgd1na2vs0mg"},{"bike_id":"07829fdc-c599-44a2-8a5d-d38b8b9f7bb8","system_id":"levelo_inurba_marseille","lat":43.30374,"lon":5.42488,"is_reserved":false,"is_disabled":true,"rental_uris":{"android":"levelo://app?vid=07829fdc-c599-44a2-8a5d-d38b8b9f7bb8","ios":"levelo://app?vid=07829fdc-c599-44a2-8a5d-d38b8b9f7bb8"},"vehicle_type_id":"4","last_reported":1778352200,"current_range_meters":5600,"station_id":"ce4bhoh2rcd13ifvqh6g","pricing_plan_id":"cebpf4jnsgd1na2vs0mg"},{"bike_id":"0b681233-b2db-42a7-9e47-9b790247974a","system_id":"levelo_inurba_marseille","lat":43.27565,"lon":5.38417,"is_reserved":false,"is_disabled":false,"rental_uris":{"android":"levelo://app?vid=0b681233-b2db-42a7-9e47-9b790247974a","ios":"levelo://app?vid=0b681233-b2db-42a7-9e47-9b790247974a"},"vehicle_type_id":"4","last_reported":1778352200,"current_range_meters":5600,"station_id":"ce4bhh92rcd13ifvqfi0","pricing_plan_id":"cebpf4jnsgd1na2vs0mg"},{"bike_id":"21a8a262-5f9b-4990-b361-fe99868df2f8","system_id":"levelo_inurba_marseille","lat":43.28977,"lon":5.37866,"is_reserved":false,"is_disabled":false,"rental_uris":{"android":"levelo://app?vid=21a8a262-5f9b-4990-b361-fe99868df2f8","ios":"levelo://app?vid=21a8a262-5f9b-4990-b361-fe99868df2f8"},"vehicle_type_id":"4","last_reported":1778352200,"current_range_meters":5600,"station_id":"ce4bh9p2rcd13ifvqed0","pricing_plan_id":"cebpf4jnsgd1na2vs0mg"},{"bike_id":"82c4ff89-91b4-412f-8c54-04b006cf67f6","system_id":"levelo_inurba_marseille","lat":43.31216,"lon":5.36919,"is_reserved":false,"is_disabled":false,"rental_uris":{"android":"levelo://app?vid=82c4ff89-91b4-412f-8c54-04b006cf67f6","ios":"levelo://app?vid=82c4ff89-91b4-412f-8c54-04b006cf67f6"},"vehicle_type_id":"4","last_reported":1778352200,"current_range_meters":5600,"station_id":"ce4bgl92rcd13ifvqbq0","pricing_plan_id":"cebpf4jnsgd1na2vs0mg"},{"bike_id":"382659e0-07d5-4da9-ba48-6efa46905232","system_id":"levelo_inurba_marseille","lat":43.29554,"lon":5.39043,"is_reserved":false,"is_disabled":false,"rental_uris":{"android":"levelo://app?vid=382659e0-07d5-4da9-ba48-6efa46905232","ios":"levelo://app?vid=382659e0-07d5-4da9-ba48-6efa46905232"},"vehicle_type_id":"4","last_reported":1778352200,"current_range_meters":5600,"station_id":"ce4bh3p2rcd13ifvqdp0","pricing_plan_id":"cebpf4jnsgd1na2vs0mg"},{"bike_id":"508620f1-bd8f-4901-8032-07545299bae4","system_id":"levelo_inurba_marseille","lat":43.26028,"lon":5.37552,"is_reserved":false,"is_disabled":false,"rental_uris":{"android":"levelo://app?vid=508620f1-bd8f-4901-8032-07545299bae4","ios":"levelo://app?vid=508620f1-bd8f-4901-8032-07545299bae4"},"vehicle_type_id":"4","last_reported":1778352200,"current_range_meters":5600,"station_id":"ce4bhgh2rcd13ifvqfa0","pricing_plan_id":"cebpf4jnsgd1na2vs0mg"},{"bike_id":"8087124c-aa6c-4336-a428-e149e243cd29","system_id":"levelo_inurba_marseille","lat":43.31699,"lon":5.37769,"is_reserved":false,"is_disabled":false,"rental_uris":{"android":"levelo://app?vid=8087124c-aa6c-4336-a428-e149e243cd29","ios":"levelo://app?vid=8087124c-aa6c-4336-a428-e149e243cd29"},"vehicle_type_id":"4","last_reported":1778352200,"current_range_meters":5600,"station_id":"ce4bgth2rcd13ifvqch0","pricing_plan_id":"cebpf4jnsgd1na2vs0mg"},{"bike_id":"5a436f11-afe4-43ad-a9a1-056bd0578be1","system_id":"levelo_inurba_marseille","lat":43.2797,"lon":5.38748,"is_reserved":false,"is_disabled":true,"rental_uris":{"android":"levelo://app?vid=5a436f11-afe4-43ad-a9a1-056bd0578be1","ios":"levelo://app?vid=5a436f11-afe4-43ad-a9a1-056bd0578be1"},"vehicle_type_id":"4","last_reported":1778352200,"current_range_meters":5600,"station_id":"ce4bhg12rcd13ifvqf80","pricing_plan_id":"cebpf4jnsgd1na2vs0mg"},{"bike_id":"c3358461-a003-4d48-93e3-5a53a2752b01","system_id":"levelo_inurba_marseille","lat":43.3054,"lon":5.36576,"is_reserved":false,"is_disabled":false,"rental_uris":{"android":"levelo://app?vid=c3358461-a003-4d48-93e3-5a53a2752b01","ios":"levelo://app?vid=c3358461-a003-4d48-93e3-5a53a2752b01"},"vehicle_type_id":"4","last_reported":1778352200,"current_range_meters":5600,"station_id":"ce4bgs12rcd13ifvqcag","pricing_plan_id":"cebpf4jnsgd1na2vs0mg"},{"bike_id":"d4b73cc5-f3e9-4c24-9184-b074a037f328","system_id":"levelo_inurba_marseille","lat":43.27216,"lon":5.39219,"is_reserved":false,"is_disabled":false,"rental_uris":{"android":"levelo://app?vid=d4b73cc5-f3e9-4c24-9184-b074a037f328","ios":"levelo://app?vid=d4b73cc5-f3e9-4c24-9184-b074a037f328"},"vehicle_type_id":"4","last_reported":1778352200,"current_range_meters":5600,"station_id":"ce4bhhp2rcd13ifvqfm0","pricing_plan_id":"cebpf4jnsgd1na2vs0mg"},{"bike_id":"d9140a1a-e5f9-4121-b14b-30aafe7008a1","system_id":"levelo_inurba_marseille","lat":43.27222,"lon":5.39174,"is_reserved":false,"is_disabled":false,"rental_uris":{"android":"levelo://app?vid=d9140a1a-e5f9-4121-b14b-30aafe7008a1","ios":"levelo://app?vid=d9140a1a-e5f9-4121-b14b-30aafe7008a1"},"vehicle_type_id":"4","last_reported":1778352200,"current_range_meters":5600,"station_id":"ce4bhhp2rcd13ifvqfm0","pricing_plan_id":"cebpf4jnsgd1na2vs0mg"},{"bike_id":"3a7a6490-34c7-4e66-a967-52dc19722c9c","system_id":"levelo_inurba_marseille","lat":43.25386,"lon":5.39423,"is_reserved":false,"is_disabled":false,"rental_uris":{"android":"levelo://app?vid=3a7a6490-34c7-4e66-a967-52dc19722c9c","ios":"levelo://app?vid=3a7a6490-34c7-4e66-a967-52dc19722c9c"},"vehicle_type_id":"4","last_reported":1778352200,"current_range_meters":5600,"station_id":"","pricing_plan_id":"cebpf4jnsgd1na2vs0mg"},{"bike_id":"496d9d23-0758-4b07-831b-1c112b733a7b","system_id":"levelo_inurba_marseille","lat":43.2788,"lon":5.37977,"is_reserved":false,"is_disabled":false,"rental_uris":{"android":"levelo://app?vid=496d9d23-0758-4b07-831b-1c112b733a7b","ios":"levelo://app?vid=496d9d23-0758-4b07-831b-1c112b733a7b"},"vehicle_type_id":"4","last_reported":1778352200,"current_range_meters":5600,"station_id":"ce4bhf92rcd13ifvqf50","pricing_plan_id":"cebpf4jnsgd1na2vs0mg"},{"bike_id":"ef4c0d2f-d37c-409b-be4c-7cceaa4aabfa","system_id":"levelo_inurba_marseille","lat":43.2848,"lon":5.48405,"is_reserved":false,"is_disabled":false,"rental_uris":{"android":"levelo://app?vid=ef4c0d2f-d37c-409b-be4c-7cceaa4aabfa","ios":"levelo://app?vid=ef4c0d2f-d37c-409b-be4c-7cceaa4aabfa"},"vehicle_type_id":"4","last_reported":1778352200,"current_range_meters":6000,"station_id":"","pricing_plan_id":"cebpf4jnsgd1na2vs0mg"},{"bike_id":"052ba0ff-1efd-45bf-a179-9941738bf622","system_id":"levelo_inurba_marseille","lat":43.27319,"lon":5.3914,"is_reserved":false,"is_disabled":false,"rental_uris":{"android":"levelo://app?vid=052ba0ff-1efd-45bf-a179-9941738bf622","ios":"levelo://app?vid=052ba0ff-1efd-45bf-a179-9941738bf622"},"vehicle_type_id":"4","last_reported":1778352200,"current_range_meters":6000,"station_id":"","pricing_plan_id":"cebpf4jnsgd1na2vs0mg"},{"bike_id":"8fdbe986-716a-4dce-a50d-3af695e9688c","system_id":"levelo_inurba_marseille","lat":43.33553,"lon":5.37477,"is_reserved":false,"is_disabled":false,"rental_uris":{"android":"levelo://app?vid=8fdbe986-716a-4dce-a50d-3af695e9688c","ios":"levelo://app?vid=8fdbe986-716a-4dce-a50d-3af695e9688c"},"vehicle_type_id":"4","last_reported":1778352200,"current_range_meters":6000,"station_id":"st_d46tts09ee8s73dlu43g","pricing_plan_id":"cebpf4jnsgd1na2vs0mg"},{"bike_id":"64ca439b-a2a6-4835-bc6b-b3a491984dcf","system_id":"levelo_inurba_marseille","lat":43.27242,"lon":5.38986,"is_reserved":false,"is_disabled":false,"rental_uris":{"android":"levelo://app?vid=64ca439b-a2a6-4835-bc6b-b3a491984dcf","ios":"levelo://app?vid=64ca439b-a2a6-4835-bc6b-b3a491984dcf"},"vehicle_type_id":"4","last_reported":1778352200,"current_range_meters":6000,"station_id":"","pricing_plan_id":"cebpf4jnsgd1na2vs0mg"},{"bike_id":"0c1e5de2-2f01-4591-ab3b-3a5ae0e1c12e","system_id":"levelo_inurba_marseille","lat":43.26041,"lon":5.37543,"is_reserved":false,"is_disabled":false,"rental_uris":{"android":"levelo://app?vid=0c1e5de2-2f01-4591-ab3b-3a5ae0e1c12e","ios":"levelo://app?vid=0c1e5de2-2f01-4591-ab3b-3a5ae0e1c12e"},"vehicle_type_id":"4","last_reported":1778352200,"current_range_meters":6000,"station_id":"ce4bhgh2rcd13ifvqfa0","pricing_plan_id":"cebpf4jnsgd1na2vs0mg"},{"bike_id":"558ecc7a-7ed0-4d4d-8eaf-a0bf6d6ce907","system_id":"levelo_inurba_marseille","lat":43.28223,"lon":5.40507,"is_reserved":false,"is_disabled":false,"rental_uris":{"android":"levelo://app?vid=558ecc7a-7ed0-4d4d-8eaf-a0bf6d6ce907","ios":"levelo://app?vid=558ecc7a-7ed0-4d4d-8eaf-a0bf6d6ce907"},"vehicle_type_id":"4","last_reported":1778352200,"current_range_meters":6000,"station_id":"","pricing_plan_id":"cebpf4jnsgd1na2vs0mg"},{"bike_id":"ede8a63a-2c56-46c1-b549-940b666fa307","system_id":"levelo_inurba_marseille","lat":43.27318,"lon":5.39092,"is_reserved":false,"is_disabled":false,"rental_uris":{"android":"levelo://app?vid=ede8a63a-2c56-46c1-b549-940b666fa307","ios":"levelo://app?vid=ede8a63a-2c56-46c1-b549-940b666fa307"},"vehicle_type_id":"4","last_reported":1778352200,"current_range_meters":6000,"station_id":"ce4bhgp2rcd13ifvqfe0","pricing_plan_id":"cebpf4jnsgd1na2vs0mg"},{"bike_id":"e744fd51-d53a-4993-92a1-3a6752e7a33c","system_id":"levelo_inurba_marseille","lat":43.32112,"lon":5.36766,"is_reserved":false,"is_disabled":false,"rental_uris":{"android":"levelo://app?vid=e744fd51-d53a-4993-92a1-3a6752e7a33c","ios":"levelo://app?vid=e744fd51-d53a-4993-92a1-3a6752e7a33c"},"vehicle_type_id":"4","last_reported":1778352200,"current_range_meters":6000,"station_id":"ce4bhrh2rcd13ifvqhug","pricing_plan_id":"cebpf4jnsgd1na2vs0mg"},{"bike_id":"5dda00a1-f787-488a-aa64-058079c40c64","system_id":"levelo_inurba_marseille","lat":43.26991,"lon":5.39374,"is_reserved":false,"is_disabled":false,"rental_uris":{"android":"levelo://app?vid=5dda00a1-f787-488a-aa64-058079c40c64","ios":"levelo://app?vid=5dda00a1-f787-488a-aa64-058079c40c64"},"vehicle_type_id":"4","last_reported":1778352200,"current_range_meters":6000,"station_id":"","pricing_plan_id":"cebpf4jnsgd1na2vs0mg"},{"bike_id":"a09974e0-f4db-4236-81b3-bcf87fe260b7","system_id":"levelo_inurba_marseille","lat":43.27923,"lon":5.39579,"is_reserved":false,"is_disabled":false,"rental_uris":{"android":"levelo://app?vid=a09974e0-f4db-4236-81b3-bcf87fe260b7","ios":"levelo://app?vid=a09974e0-f4db-4236-81b3-bcf87fe260b7"},"vehicle_type_id":"4","last_reported":1778352200,"current_range_meters":6000,"station_id":"ce4bhf92rcd13ifvqf40","pricing_plan_id":"cebpf4jnsgd1na2vs0mg"},{"bike_id":"c8839437-c286-4318-b7be-1ada9dfcd256","system_id":"levelo_inurba_marseille","lat":43.26386,"lon":5.41071,"is_reserved":false,"is_disabled":false,"rental_uris":{"android":"levelo://app?vid=c8839437-c286-4318-b7be-1ada9dfcd256","ios":"levelo://app?vid=c8839437-c286-4318-b7be-1ada9dfcd256"},"vehicle_type_id":"4","last_reported":1778352200,"current_range_meters":6000,"station_id":"st_d4e5ca6na9uc73bfl5fg","pricing_plan_id":"cebpf4jnsgd1na2vs0mg"},{"bike_id":"2ff9251c-7b0d-4f23-9ffb-0b20d3d095d6","system_id":"levelo_inurba_marseille","lat":43.2926,"lon":5.37625,"is_reserved":false,"is_disabled":false,"rental_uris":{"android":"levelo://app?vid=2ff9251c-7b0d-4f23-9ffb-0b20d3d095d6","ios":"levelo://app?vid=2ff9251c-7b0d-4f23-9ffb-0b20d3d095d6"},"vehicle_type_id":"4","last_reported":1778352200,"current_range_meters":6000,"station_id":"ce4bgi12rcd13ifvqb80","pricing_plan_id":"cebpf4jnsgd1na2vs0mg"},{"bike_id":"d68f2949-ee2b-40bd-ba94-a6744b88d767","system_id":"levelo_inurba_marseille","lat":43.2721,"lon":5.39195,"is_reserved":false,"is_disabled":false,"rental_uris":{"android":"levelo://app?vid=d68f2949-ee2b-40bd-ba94-a6744b88d767","ios":"levelo://app?vid=d68f2949-ee2b-40bd-ba94-a6744b88d767"},"vehicle_type_id":"4","last_reported":1778352200,"current_range_meters":6000,"station_id":"ce4bhhp2rcd13ifvqfm0","pricing_plan_id":"cebpf4jnsgd1na2vs0mg"},{"bike_id":"b04be0b9-e1f1-4b3a-a624-da85cca3a01a","system_id":"levelo_inurba_marseille","lat":43.24615,"lon":5.38184,"is_reserved":false,"is_disabled":false,"rental_uris":{"android":"levelo://app?vid=b04be0b9-e1f1-4b3a-a624-da85cca3a01a","ios":"levelo://app?vid=b04be0b9-e1f1-4b3a-a624-da85cca3a01a"},"vehicle_type_id":"4","last_reported":1778352200,"current_range_meters":6000,"station_id":"","pricing_plan_id":"cebpf4jnsgd1na2vs0mg"},{"bike_id":"bfa36569-a25b-433a-a398-dfd0d6dc914e","system_id":"levelo_inurba_marseille","lat":43.29964,"lon":5.38499,"is_reserved":false,"is_disabled":false,"rental_uris":{"android":"levelo://app?vid=bfa36569-a25b-433a-a398-dfd0d6dc914e","ios":"levelo://app?vid=bfa36569-a25b-433a-a398-dfd0d6dc914e"},"vehicle_type_id":"4","last_reported":1778352200,"current_range_meters":6000,"station_id":"ce4bgj92rcd13ifvqbd0","pricing_plan_id":"cebpf4jnsgd1na2vs0mg"},{"bike_id":"45f8fdb7-2cb1-45b9-8a88-adeab1f325d7","system_id":"levelo_inurba_marseille","lat":43.29249,"lon":5.38337,"is_reserved":false,"is_disabled":false,"rental_uris":{"android":"levelo://app?vid=45f8fdb7-2cb1-45b9-8a88-adeab1f325d7","ios":"levelo://app?vid=45f8fdb7-2cb1-45b9-8a88-adeab1f325d7"},"vehicle_type_id":"4","last_reported":1778352200,"current_range_meters":6000,"station_id":"","pricing_plan_id":"cebpf4jnsgd1na2vs0mg"},{"bike_id":"8aef007d-daa1-430b-a994-b047de146132","system_id":"levelo_inurba_marseille","lat":43.28429,"lon":5.34976,"is_reserved":false,"is_disabled":true,"rental_uris":{"android":"levelo://app?vid=8aef007d-daa1-430b-a994-b047de146132","ios":"levelo://app?vid=8aef007d-daa1-430b-a994-b047de146132"},"vehicle_type_id":"4","last_reported":1778352200,"current_range_meters":6400,"station_id":"ce4bhbh2rcd13ifvqepg","pricing_plan_id":"cebpf4jnsgd1na2vs0mg"},{"bike_id":"c697e4ab-e311-4735-b88a-50c7c706d7e6","system_id":"levelo_inurba_marseille","lat":43.26927,"lon":5.40241,"is_reserved":false,"is_disabled":false,"rental_uris":{"android":"levelo://app?vid=c697e4ab-e311-4735-b88a-50c7c706d7e6","ios":"levelo://app?vid=c697e4ab-e311-4735-b88a-50c7c706d7e6"},"vehicle_type_id":"4","last_reported":1778352200,"current_range_meters":6400,"station_id":"cjm6bp8fraef2m0cb0m0","pricing_plan_id":"cebpf4jnsgd1na2vs0mg"},{"bike_id":"0905bf26-d1df-4967-bcf7-a2c7f347956a","system_id":"levelo_inurba_marseille","lat":43.28952,"lon":5.39631,"is_reserved":false,"is_disabled":true,"rental_uris":{"android":"levelo://app?vid=0905bf26-d1df-4967-bcf7-a2c7f347956a","ios":"levelo://app?vid=0905bf26-d1df-4967-bcf7-a2c7f347956a"},"vehicle_type_id":"4","last_reported":1778352200,"current_range_meters":6400,"station_id":"ce4bh3h2rcd13ifvqdn0","pricing_plan_id":"cebpf4jnsgd1na2vs0mg"},{"bike_id":"365f5c28-6148-41e1-9064-4136e9124cb6","system_id":"levelo_inurba_marseille","lat":43.26211,"lon":5.37841,"is_reserved":false,"is_disabled":false,"rental_uris":{"android":"levelo://app?vid=365f5c28-6148-41e1-9064-4136e9124cb6","ios":"levelo://app?vid=365f5c28-6148-41e1-9064-4136e9124cb6"},"vehicle_type_id":"4","last_reported":1778352200,"current_range_meters":6400,"station_id":"","pricing_plan_id":"cebpf4jnsgd1na2vs0mg"},{"bike_id":"a72a4bad-7473-4221-b947-1493b6657f86","system_id":"levelo_inurba_marseille","lat":43.2926,"lon":5.38435,"is_reserved":false,"is_disabled":false,"rental_uris":{"android":"levelo://app?vid=a72a4bad-7473-4221-b947-1493b6657f86","ios":"levelo://app?vid=a72a4bad-7473-4221-b947-1493b6657f86"},"vehicle_type_id":"4","last_reported":1778352200,"current_range_meters":6400,"station_id":"ce4bh692rcd13ifvqea0","pricing_plan_id":"cebpf4jnsgd1na2vs0mg"},{"bike_id":"aad10db8-b026-409c-9558-2748d08f6222","system_id":"levelo_inurba_marseille","lat":43.29272,"lon":5.38429,"is_reserved":false,"is_disabled":false,"rental_uris":{"android":"levelo://app?vid=aad10db8-b026-409c-9558-2748d08f6222","ios":"levelo://app?vid=aad10db8-b026-409c-9558-2748d08f6222"},"vehicle_type_id":"4","last_reported":1778352200,"current_range_meters":6400,"station_id":"ce4bh692rcd13ifvqea0","pricing_plan_id":"cebpf4jnsgd1na2vs0mg"},{"bike_id":"d7034f93-2a20-4b39-86e6-dfed9ad83cd3","system_id":"levelo_inurba_marseille","lat":43.2175,"lon":5.34599,"is_reserved":false,"is_disabled":false,"rental_uris":{"android":"levelo://app?vid=d7034f93-2a20-4b39-86e6-dfed9ad83cd3","ios":"levelo://app?vid=d7034f93-2a20-4b39-86e6-dfed9ad83cd3"},"vehicle_type_id":"4","last_reported":1778352200,"current_range_meters":6400,"station_id":"st_cvj6r9ubvosntc0bgbag","pricing_plan_id":"cebpf4jnsgd1na2vs0mg"},{"bike_id":"407e9612-ad93-4d7c-a713-0ff1764d5034","system_id":"levelo_inurba_marseille","lat":43.31351,"lon":5.41506,"is_reserved":false,"is_disabled":false,"rental_uris":{"android":"levelo://app?vid=407e9612-ad93-4d7c-a713-0ff1764d5034","ios":"levelo://app?vid=407e9612-ad93-4d7c-a713-0ff1764d5034"},"vehicle_type_id":"4","last_reported":1778352200,"current_range_meters":6400,"station_id":"","pricing_plan_id":"cebpf4jnsgd1na2vs0mg"},{"bike_id":"855e564a-862e-4b74-b9d5-84abd9decc1d","system_id":"levelo_inurba_marseille","lat":43.26472,"lon":5.39583,"is_reserved":false,"is_disabled":false,"rental_uris":{"android":"levelo://app?vid=855e564a-862e-4b74-b9d5-84abd9decc1d","ios":"levelo://app?vid=855e564a-862e-4b74-b9d5-84abd9decc1d"},"vehicle_type_id":"4","last_reported":1778352200,"current_range_meters":6400,"station_id":"ce4bhi12rcd13ifvqfq0","pricing_plan_id":"cebpf4jnsgd1na2vs0mg"},{"bike_id":"a30008ae-a2df-4129-8ea6-0f377536b8ba","system_id":"levelo_inurba_marseille","lat":43.32099,"lon":5.36767,"is_reserved":false,"is_disabled":false,"rental_uris":{"android":"levelo://app?vid=a30008ae-a2df-4129-8ea6-0f377536b8ba","ios":"levelo://app?vid=a30008ae-a2df-4129-8ea6-0f377536b8ba"},"vehicle_type_id":"4","last_reported":1778352200,"current_range_meters":6400,"station_id":"ce4bhrh2rcd13ifvqhug","pricing_plan_id":"cebpf4jnsgd1na2vs0mg"},{"bike_id":"1a852f94-46ee-4ca3-9862-f6881d023d67","system_id":"levelo_inurba_marseille","lat":43.292,"lon":5.39314,"is_reserved":false,"is_disabled":false,"rental_uris":{"android":"levelo://app?vid=1a852f94-46ee-4ca3-9862-f6881d023d67","ios":"levelo://app?vid=1a852f94-46ee-4ca3-9862-f6881d023d67"},"vehicle_type_id":"4","last_reported":1778352200,"current_range_meters":6400,"station_id":"ce4bh192rcd13ifvqdd0","pricing_plan_id":"cebpf4jnsgd1na2vs0mg"},{"bike_id":"817edfed-f2dc-46cf-993c-dc316a3cc92b","system_id":"levelo_inurba_marseille","lat":43.27492,"lon":5.42449,"is_reserved":false,"is_disabled":false,"rental_uris":{"android":"levelo://app?vid=817edfed-f2dc-46cf-993c-dc316a3cc92b","ios":"levelo://app?vid=817edfed-f2dc-46cf-993c-dc316a3cc92b"},"vehicle_type_id":"4","last_reported":1778352200,"current_range_meters":6400,"station_id":"ce4bhn92rcd13ifvqgrg","pricing_plan_id":"cebpf4jnsgd1na2vs0mg"},{"bike_id":"b1eefa37-96ae-4f95-a344-438091e1d04d","system_id":"levelo_inurba_marseille","lat":43.31028,"lon":5.39399,"is_reserved":false,"is_disabled":false,"rental_uris":{"android":"levelo://app?vid=b1eefa37-96ae-4f95-a344-438091e1d04d","ios":"levelo://app?vid=b1eefa37-96ae-4f95-a344-438091e1d04d"},"vehicle_type_id":"4","last_reported":1778352200,"current_range_meters":6400,"station_id":"","pricing_plan_id":"cebpf4jnsgd1na2vs0mg"},{"bike_id":"9ad0ed79-58f9-4fdb-a428-5fe7fae086e3","system_id":"levelo_inurba_marseille","lat":43.27916,"lon":5.39578,"is_reserved":false,"is_disabled":false,"rental_uris":{"android":"levelo://app?vid=9ad0ed79-58f9-4fdb-a428-5fe7fae086e3","ios":"levelo://app?vid=9ad0ed79-58f9-4fdb-a428-5fe7fae086e3"},"vehicle_type_id":"4","last_reported":1778352200,"current_range_meters":6400,"station_id":"ce4bhf92rcd13ifvqf40","pricing_plan_id":"cebpf4jnsgd1na2vs0mg"},{"bike_id":"024c6892-203c-4eeb-b7a9-cce2defb82a6","system_id":"levelo_inurba_marseille","lat":43.2706,"lon":5.38309,"is_reserved":false,"is_disabled":false,"rental_uris":{"android":"levelo://app?vid=024c6892-203c-4eeb-b7a9-cce2defb82a6","ios":"levelo://app?vid=024c6892-203c-4eeb-b7a9-cce2defb82a6"},"vehicle_type_id":"4","last_reported":1778352200,"current_range_meters":6400,"station_id":"st_d3n2fo6cfp8s73cte1j0","pricing_plan_id":"cebpf4jnsgd1na2vs0mg"},{"bike_id":"61f9d179-f41a-45b6-807c-36194eb68ffc","system_id":"levelo_inurba_marseille","lat":43.2731,"lon":5.39119,"is_reserved":false,"is_disabled":false,"rental_uris":{"android":"levelo://app?vid=61f9d179-f41a-45b6-807c-36194eb68ffc","ios":"levelo://app?vid=61f9d179-f41a-45b6-807c-36194eb68ffc"},"vehicle_type_id":"4","last_reported":1778352200,"current_range_meters":6400,"station_id":"ce4bhgp2rcd13ifvqfe0","pricing_plan_id":"cebpf4jnsgd1na2vs0mg"},{"bike_id":"296921d4-d837-47f5-8f08-d0f78154b13e","system_id":"levelo_inurba_marseille","lat":43.29774,"lon":5.38115,"is_reserved":false,"is_disabled":false,"rental_uris":{"android":"levelo://app?vid=296921d4-d837-47f5-8f08-d0f78154b13e","ios":"levelo://app?vid=296921d4-d837-47f5-8f08-d0f78154b13e"},"vehicle_type_id":"4","last_reported":1778352200,"current_range_meters":6400,"station_id":"ce4bgip2rcd13ifvqbb0","pricing_plan_id":"cebpf4jnsgd1na2vs0mg"},{"bike_id":"fd15faf6-f969-4bda-be30-e042b3108596","system_id":"levelo_inurba_marseille","lat":43.26379,"lon":5.41059,"is_reserved":false,"is_disabled":false,"rental_uris":{"android":"levelo://app?vid=fd15faf6-f969-4bda-be30-e042b3108596","ios":"levelo://app?vid=fd15faf6-f969-4bda-be30-e042b3108596"},"vehicle_type_id":"4","last_reported":1778352200,"current_range_meters":6400,"station_id":"st_d4e5ca6na9uc73bfl5fg","pricing_plan_id":"cebpf4jnsgd1na2vs0mg"},{"bike_id":"60b72859-7178-4071-a243-51206e711677","system_id":"levelo_inurba_marseille","lat":43.286172,"lon":5.351008,"is_reserved":false,"is_disabled":false,"rental_uris":{"android":"levelo://app?vid=60b72859-7178-4071-a243-51206e711677","ios":"levelo://app?vid=60b72859-7178-4071-a243-51206e711677"},"vehicle_type_id":"4","last_reported":1778352200,"current_range_meters":6400,"station_id":"ce4bhch2rcd13ifvqeug","pricing_plan_id":"cebpf4jnsgd1na2vs0mg"},{"bike_id":"7e3edbc6-9133-4ee6-bd4e-b81c10b1074f","system_id":"levelo_inurba_marseille","lat":43.28446,"lon":5.3921,"is_reserved":false,"is_disabled":false,"rental_uris":{"android":"levelo://app?vid=7e3edbc6-9133-4ee6-bd4e-b81c10b1074f","ios":"levelo://app?vid=7e3edbc6-9133-4ee6-bd4e-b81c10b1074f"},"vehicle_type_id":"4","last_reported":1778352200,"current_range_meters":6400,"station_id":"ce4bhoh2rcd13ifvqh5g","pricing_plan_id":"cebpf4jnsgd1na2vs0mg"},{"bike_id":"0259c7f9-4a67-468b-967d-555f1f780b18","system_id":"levelo_inurba_marseille","lat":43.24656,"lon":5.3817,"is_reserved":false,"is_disabled":false,"rental_uris":{"android":"levelo://app?vid=0259c7f9-4a67-468b-967d-555f1f780b18","ios":"levelo://app?vid=0259c7f9-4a67-468b-967d-555f1f780b18"},"vehicle_type_id":"4","last_reported":1778352200,"current_range_meters":6400,"station_id":"ce4bhih2rcd13ifvqfr0","pricing_plan_id":"cebpf4jnsgd1na2vs0mg"},{"bike_id":"7f40cbde-87c3-42fc-aa50-19e2d097a2b7","system_id":"levelo_inurba_marseille","lat":43.27207,"lon":5.391809,"is_reserved":false,"is_disabled":false,"rental_uris":{"android":"levelo://app?vid=7f40cbde-87c3-42fc-aa50-19e2d097a2b7","ios":"levelo://app?vid=7f40cbde-87c3-42fc-aa50-19e2d097a2b7"},"vehicle_type_id":"4","last_reported":1778352200,"current_range_meters":6400,"station_id":"ce4bhhp2rcd13ifvqfm0","pricing_plan_id":"cebpf4jnsgd1na2vs0mg"},{"bike_id":"6dfe43ac-6131-42a7-8c3d-86b7cfec6e79","system_id":"levelo_inurba_marseille","lat":43.29026,"lon":5.372,"is_reserved":false,"is_disabled":false,"rental_uris":{"android":"levelo://app?vid=6dfe43ac-6131-42a7-8c3d-86b7cfec6e79","ios":"levelo://app?vid=6dfe43ac-6131-42a7-8c3d-86b7cfec6e79"},"vehicle_type_id":"4","last_reported":1778352200,"current_range_meters":6400,"station_id":"","pricing_plan_id":"cebpf4jnsgd1na2vs0mg"},{"bike_id":"80ce62aa-95db-4134-a27f-af6f321881d8","system_id":"levelo_inurba_marseille","lat":43.3303,"lon":5.39033,"is_reserved":false,"is_disabled":false,"rental_uris":{"android":"levelo://app?vid=80ce62aa-95db-4134-a27f-af6f321881d8","ios":"levelo://app?vid=80ce62aa-95db-4134-a27f-af6f321881d8"},"vehicle_type_id":"4","last_reported":1778352200,"current_range_meters":6400,"station_id":"ce4bhr92rcd13ifvqhrg","pricing_plan_id":"cebpf4jnsgd1na2vs0mg"},{"bike_id":"627ea465-4e71-4046-a508-023e31352421","system_id":"levelo_inurba_marseille","lat":43.25065,"lon":5.40511,"is_reserved":false,"is_disabled":false,"rental_uris":{"android":"levelo://app?vid=627ea465-4e71-4046-a508-023e31352421","ios":"levelo://app?vid=627ea465-4e71-4046-a508-023e31352421"},"vehicle_type_id":"4","last_reported":1778352200,"current_range_meters":6400,"station_id":"","pricing_plan_id":"cebpf4jnsgd1na2vs0mg"},{"bike_id":"038f20db-53a0-417e-8564-80b1b53a64be","system_id":"levelo_inurba_marseille","lat":43.295319,"lon":5.385415,"is_reserved":false,"is_disabled":false,"rental_uris":{"android":"levelo://app?vid=038f20db-53a0-417e-8564-80b1b53a64be","ios":"levelo://app?vid=038f20db-53a0-417e-8564-80b1b53a64be"},"vehicle_type_id":"4","last_reported":1778352200,"current_range_meters":6400,"station_id":"ce4bgih2rcd13ifvqba0","pricing_plan_id":"cebpf4jnsgd1na2vs0mg"},{"bike_id":"6eec760c-5e8b-4ec2-8818-5088580d0e9c","system_id":"levelo_inurba_marseille","lat":43.25141,"lon":5.37424,"is_reserved":false,"is_disabled":false,"rental_uris":{"android":"levelo://app?vid=6eec760c-5e8b-4ec2-8818-5088580d0e9c","ios":"levelo://app?vid=6eec760c-5e8b-4ec2-8818-5088580d0e9c"},"vehicle_type_id":"4","last_reported":1778352200,"current_range_meters":6400,"station_id":"","pricing_plan_id":"cebpf4jnsgd1na2vs0mg"},{"bike_id":"95e738ec-8ee1-4cb8-a54b-441de10104fe","system_id":"levelo_inurba_marseille","lat":43.29844,"lon":5.36284,"is_reserved":false,"is_disabled":false,"rental_uris":{"android":"levelo://app?vid=95e738ec-8ee1-4cb8-a54b-441de10104fe","ios":"levelo://app?vid=95e738ec-8ee1-4cb8-a54b-441de10104fe"},"vehicle_type_id":"4","last_reported":1778352200,"current_range_meters":6800,"station_id":"ce4bgpp2rcd13ifvqc3g","pricing_plan_id":"cebpf4jnsgd1na2vs0mg"},{"bike_id":"e6bd8138-3d56-4ae6-9878-8794caa087c5","system_id":"levelo_inurba_marseille","lat":43.244691,"lon":5.425392,"is_reserved":false,"is_disabled":true,"rental_uris":{"android":"levelo://app?vid=e6bd8138-3d56-4ae6-9878-8794caa087c5","ios":"levelo://app?vid=e6bd8138-3d56-4ae6-9878-8794caa087c5"},"vehicle_type_id":"4","last_reported":1778352200,"current_range_meters":6800,"station_id":"st_d4a3vfp97mjs738cd8kg","pricing_plan_id":"cebpf4jnsgd1na2vs0mg"},{"bike_id":"138467ad-d1d6-4fa2-9e1d-a00e9b60cef7","system_id":"levelo_inurba_marseille","lat":43.29526,"lon":5.39048,"is_reserved":false,"is_disabled":false,"rental_uris":{"android":"levelo://app?vid=138467ad-d1d6-4fa2-9e1d-a00e9b60cef7","ios":"levelo://app?vid=138467ad-d1d6-4fa2-9e1d-a00e9b60cef7"},"vehicle_type_id":"4","last_reported":1778352200,"current_range_meters":6800,"station_id":"ce4bh3p2rcd13ifvqdp0","pricing_plan_id":"cebpf4jnsgd1na2vs0mg"},{"bike_id":"782f2c83-00d8-41a1-b1ac-0980907c62a9","system_id":"levelo_inurba_marseille","lat":43.29608,"lon":5.37727,"is_reserved":false,"is_disabled":false,"rental_uris":{"android":"levelo://app?vid=782f2c83-00d8-41a1-b1ac-0980907c62a9","ios":"levelo://app?vid=782f2c83-00d8-41a1-b1ac-0980907c62a9"},"vehicle_type_id":"4","last_reported":1778352200,"current_range_meters":6800,"station_id":"ce4bgi92rcd13ifvqb90","pricing_plan_id":"cebpf4jnsgd1na2vs0mg"},{"bike_id":"f539bb17-16cf-4505-8a99-d64e79a69d9e","system_id":"levelo_inurba_marseille","lat":43.32116,"lon":5.36756,"is_reserved":false,"is_disabled":false,"rental_uris":{"android":"levelo://app?vid=f539bb17-16cf-4505-8a99-d64e79a69d9e","ios":"levelo://app?vid=f539bb17-16cf-4505-8a99-d64e79a69d9e"},"vehicle_type_id":"4","last_reported":1778352200,"current_range_meters":6800,"station_id":"ce4bhrh2rcd13ifvqhug","pricing_plan_id":"cebpf4jnsgd1na2vs0mg"},{"bike_id":"605edcc0-7379-490e-a193-3bb1fd5145bb","system_id":"levelo_inurba_marseille","lat":43.24812,"lon":5.37452,"is_reserved":false,"is_disabled":false,"rental_uris":{"android":"levelo://app?vid=605edcc0-7379-490e-a193-3bb1fd5145bb","ios":"levelo://app?vid=605edcc0-7379-490e-a193-3bb1fd5145bb"},"vehicle_type_id":"4","last_reported":1778352200,"current_range_meters":6800,"station_id":"ce4bhgh2rcd13ifvqfb0","pricing_plan_id":"cebpf4jnsgd1na2vs0mg"},{"bike_id":"9c6f744c-0e72-49bc-9387-3a540d0fe052","system_id":"levelo_inurba_marseille","lat":43.24807,"lon":5.37451,"is_reserved":false,"is_disabled":false,"rental_uris":{"android":"levelo://app?vid=9c6f744c-0e72-49bc-9387-3a540d0fe052","ios":"levelo://app?vid=9c6f744c-0e72-49bc-9387-3a540d0fe052"},"vehicle_type_id":"4","last_reported":1778352200,"current_range_meters":6800,"station_id":"ce4bhgh2rcd13ifvqfb0","pricing_plan_id":"cebpf4jnsgd1na2vs0mg"},{"bike_id":"234d937c-0a51-4b7b-a5da-54c58b1cfe2d","system_id":"levelo_inurba_marseille","lat":43.30538,"lon":5.36707,"is_reserved":false,"is_disabled":true,"rental_uris":{"android":"levelo://app?vid=234d937c-0a51-4b7b-a5da-54c58b1cfe2d","ios":"levelo://app?vid=234d937c-0a51-4b7b-a5da-54c58b1cfe2d"},"vehicle_type_id":"4","last_reported":1778352200,"current_range_meters":6800,"station_id":"ce4bgrp2rcd13ifvqc9g","pricing_plan_id":"cebpf4jnsgd1na2vs0mg"},{"bike_id":"866ec33b-a477-4b13-846b-352217bbcea1","system_id":"levelo_inurba_marseille","lat":43.29257,"lon":5.40911,"is_reserved":false,"is_disabled":false,"rental_uris":{"android":"levelo://app?vid=866ec33b-a477-4b13-846b-352217bbcea1","ios":"levelo://app?vid=866ec33b-a477-4b13-846b-352217bbcea1"},"vehicle_type_id":"4","last_reported":1778352200,"current_range_meters":6800,"station_id":"ce4bh192rcd13ifvqdc0","pricing_plan_id":"cebpf4jnsgd1na2vs0mg"},{"bike_id":"ecf92bf1-23fa-4dba-86f9-340b231f2d04","system_id":"levelo_inurba_marseille","lat":43.29278,"lon":5.40119,"is_reserved":false,"is_disabled":false,"rental_uris":{"android":"levelo://app?vid=ecf92bf1-23fa-4dba-86f9-340b231f2d04","ios":"levelo://app?vid=ecf92bf1-23fa-4dba-86f9-340b231f2d04"},"vehicle_type_id":"4","last_reported":1778352200,"current_range_meters":6800,"station_id":"ce4bh312rcd13ifvqdk0","pricing_plan_id":"cebpf4jnsgd1na2vs0mg"},{"bike_id":"f422b51e-1ef9-42a2-8365-1d33f807a8e0","system_id":"levelo_inurba_marseille","lat":43.23902,"lon":5.37461,"is_reserved":false,"is_disabled":true,"rental_uris":{"android":"levelo://app?vid=f422b51e-1ef9-42a2-8365-1d33f807a8e0","ios":"levelo://app?vid=f422b51e-1ef9-42a2-8365-1d33f807a8e0"},"vehicle_type_id":"4","last_reported":1778352200,"current_range_meters":6800,"station_id":"st_d6sm7csbq4hs73f8fpjg","pricing_plan_id":"cebpf4jnsgd1na2vs0mg"},{"bike_id":"ac669cf6-3802-49e7-8567-a514ce79081d","system_id":"levelo_inurba_marseille","lat":43.29132,"lon":5.38532,"is_reserved":false,"is_disabled":true,"rental_uris":{"android":"levelo://app?vid=ac669cf6-3802-49e7-8567-a514ce79081d","ios":"levelo://app?vid=ac669cf6-3802-49e7-8567-a514ce79081d"},"vehicle_type_id":"4","last_reported":1778352200,"current_range_meters":6800,"station_id":"","pricing_plan_id":"cebpf4jnsgd1na2vs0mg"},{"bike_id":"a78ff157-1b8e-4ad5-ab08-d95a02a3a6e9","system_id":"levelo_inurba_marseille","lat":43.2921,"lon":5.36061,"is_reserved":false,"is_disabled":false,"rental_uris":{"android":"levelo://app?vid=a78ff157-1b8e-4ad5-ab08-d95a02a3a6e9","ios":"levelo://app?vid=a78ff157-1b8e-4ad5-ab08-d95a02a3a6e9"},"vehicle_type_id":"4","last_reported":1778352200,"current_range_meters":6800,"station_id":"ce4bhbh2rcd13ifvqeqg","pricing_plan_id":"cebpf4jnsgd1na2vs0mg"},{"bike_id":"74a938f2-f578-4294-9976-174677fe2f35","system_id":"levelo_inurba_marseille","lat":43.29485,"lon":5.43308,"is_reserved":false,"is_disabled":false,"rental_uris":{"android":"levelo://app?vid=74a938f2-f578-4294-9976-174677fe2f35","ios":"levelo://app?vid=74a938f2-f578-4294-9976-174677fe2f35"},"vehicle_type_id":"4","last_reported":1778352200,"current_range_meters":6800,"station_id":"st_d3j5ugp08ojc73fj9d10","pricing_plan_id":"cebpf4jnsgd1na2vs0mg"},{"bike_id":"bf199b2e-2f10-4962-a950-e1d2d8cd97cb","system_id":"levelo_inurba_marseille","lat":43.28046,"lon":5.35367,"is_reserved":false,"is_disabled":false,"rental_uris":{"android":"levelo://app?vid=bf199b2e-2f10-4962-a950-e1d2d8cd97cb","ios":"levelo://app?vid=bf199b2e-2f10-4962-a950-e1d2d8cd97cb"},"vehicle_type_id":"4","last_reported":1778352200,"current_range_meters":6800,"station_id":"","pricing_plan_id":"cebpf4jnsgd1na2vs0mg"},{"bike_id":"0459c2a8-c413-48e7-a118-d2b5e126c8f8","system_id":"levelo_inurba_marseille","lat":43.26785,"lon":5.39424,"is_reserved":false,"is_disabled":false,"rental_uris":{"android":"levelo://app?vid=0459c2a8-c413-48e7-a118-d2b5e126c8f8","ios":"levelo://app?vid=0459c2a8-c413-48e7-a118-d2b5e126c8f8"},"vehicle_type_id":"4","last_reported":1778352200,"current_range_meters":6800,"station_id":"ce4bhh12rcd13ifvqfg0","pricing_plan_id":"cebpf4jnsgd1na2vs0mg"},{"bike_id":"0152740e-06db-4ade-88eb-e3632fbb8a1f","system_id":"levelo_inurba_marseille","lat":43.28264,"lon":5.3507,"is_reserved":false,"is_disabled":true,"rental_uris":{"android":"levelo://app?vid=0152740e-06db-4ade-88eb-e3632fbb8a1f","ios":"levelo://app?vid=0152740e-06db-4ade-88eb-e3632fbb8a1f"},"vehicle_type_id":"4","last_reported":1778352200,"current_range_meters":6800,"station_id":"ce4bhbp2rcd13ifvqerg","pricing_plan_id":"cebpf4jnsgd1na2vs0mg"},{"bike_id":"eafc974d-1cb4-4654-a818-19c8e516df05","system_id":"levelo_inurba_marseille","lat":43.28319,"lon":5.35041,"is_reserved":false,"is_disabled":false,"rental_uris":{"android":"levelo://app?vid=eafc974d-1cb4-4654-a818-19c8e516df05","ios":"levelo://app?vid=eafc974d-1cb4-4654-a818-19c8e516df05"},"vehicle_type_id":"4","last_reported":1778352200,"current_range_meters":6800,"station_id":"","pricing_plan_id":"cebpf4jnsgd1na2vs0mg"},{"bike_id":"cccda472-7561-4978-9b74-a8c6197a578e","system_id":"levelo_inurba_marseille","lat":43.331604,"lon":5.376802,"is_reserved":false,"is_disabled":false,"rental_uris":{"android":"levelo://app?vid=cccda472-7561-4978-9b74-a8c6197a578e","ios":"levelo://app?vid=cccda472-7561-4978-9b74-a8c6197a578e"},"vehicle_type_id":"4","last_reported":1778352200,"current_range_meters":6800,"station_id":"st_d46cu089ee8s73dldbu0","pricing_plan_id":"cebpf4jnsgd1na2vs0mg"},{"bike_id":"f62f892b-35da-4575-91cd-6ff29b858255","system_id":"levelo_inurba_marseille","lat":43.29987,"lon":5.38462,"is_reserved":false,"is_disabled":true,"rental_uris":{"android":"levelo://app?vid=f62f892b-35da-4575-91cd-6ff29b858255","ios":"levelo://app?vid=f62f892b-35da-4575-91cd-6ff29b858255"},"vehicle_type_id":"4","last_reported":1778352200,"current_range_meters":6800,"station_id":"ce4bgj92rcd13ifvqbd0","pricing_plan_id":"cebpf4jnsgd1na2vs0mg"},{"bike_id":"e202313f-e4ee-4e2a-a4e1-521eb64606ae","system_id":"levelo_inurba_marseille","lat":43.28873,"lon":5.42512,"is_reserved":false,"is_disabled":false,"rental_uris":{"android":"levelo://app?vid=e202313f-e4ee-4e2a-a4e1-521eb64606ae","ios":"levelo://app?vid=e202313f-e4ee-4e2a-a4e1-521eb64606ae"},"vehicle_type_id":"4","last_reported":1778352200,"current_range_meters":6800,"station_id":"st_d3b462108ojc7389ooeg","pricing_plan_id":"cebpf4jnsgd1na2vs0mg"},{"bike_id":"d450aa31-a41b-4132-b097-69a46cdb9c7c","system_id":"levelo_inurba_marseille","lat":43.29618,"lon":5.3808,"is_reserved":false,"is_disabled":false,"rental_uris":{"android":"levelo://app?vid=d450aa31-a41b-4132-b097-69a46cdb9c7c","ios":"levelo://app?vid=d450aa31-a41b-4132-b097-69a46cdb9c7c"},"vehicle_type_id":"4","last_reported":1778352200,"current_range_meters":6800,"station_id":"ce4bgl12rcd13ifvqbo0","pricing_plan_id":"cebpf4jnsgd1na2vs0mg"},{"bike_id":"1e0ff7a5-cf49-44a5-8fcd-1964e4c88462","system_id":"levelo_inurba_marseille","lat":43.28523,"lon":5.39469,"is_reserved":false,"is_disabled":false,"rental_uris":{"android":"levelo://app?vid=1e0ff7a5-cf49-44a5-8fcd-1964e4c88462","ios":"levelo://app?vid=1e0ff7a5-cf49-44a5-8fcd-1964e4c88462"},"vehicle_type_id":"4","last_reported":1778352200,"current_range_meters":6800,"station_id":"","pricing_plan_id":"cebpf4jnsgd1na2vs0mg"},{"bike_id":"7ab5c60f-aa12-49fb-978d-56d9b566674c","system_id":"levelo_inurba_marseille","lat":43.29254,"lon":5.38433,"is_reserved":false,"is_disabled":false,"rental_uris":{"android":"levelo://app?vid=7ab5c60f-aa12-49fb-978d-56d9b566674c","ios":"levelo://app?vid=7ab5c60f-aa12-49fb-978d-56d9b566674c"},"vehicle_type_id":"4","last_reported":1778352200,"current_range_meters":6800,"station_id":"ce4bh692rcd13ifvqea0","pricing_plan_id":"cebpf4jnsgd1na2vs0mg"},{"bike_id":"bb0f772a-f014-43a9-a0b2-8fbd6222a254","system_id":"levelo_inurba_marseille","lat":43.23152,"lon":5.43721,"is_reserved":false,"is_disabled":false,"rental_uris":{"android":"levelo://app?vid=bb0f772a-f014-43a9-a0b2-8fbd6222a254","ios":"levelo://app?vid=bb0f772a-f014-43a9-a0b2-8fbd6222a254"},"vehicle_type_id":"4","last_reported":1778352200,"current_range_meters":7200,"station_id":"ce4bhmp2rcd13ifvqgog","pricing_plan_id":"cebpf4jnsgd1na2vs0mg"},{"bike_id":"d0422a3d-e193-4cef-8d02-e1260b86002b","system_id":"levelo_inurba_marseille","lat":43.29266,"lon":5.37634,"is_reserved":false,"is_disabled":true,"rental_uris":{"android":"levelo://app?vid=d0422a3d-e193-4cef-8d02-e1260b86002b","ios":"levelo://app?vid=d0422a3d-e193-4cef-8d02-e1260b86002b"},"vehicle_type_id":"4","last_reported":1778352200,"current_range_meters":7200,"station_id":"ce4bgi12rcd13ifvqb80","pricing_plan_id":"cebpf4jnsgd1na2vs0mg"},{"bike_id":"2a9350d8-84a8-4aa8-a1c7-35bc993f67c8","system_id":"levelo_inurba_marseille","lat":43.29213,"lon":5.3608,"is_reserved":false,"is_disabled":false,"rental_uris":{"android":"levelo://app?vid=2a9350d8-84a8-4aa8-a1c7-35bc993f67c8","ios":"levelo://app?vid=2a9350d8-84a8-4aa8-a1c7-35bc993f67c8"},"vehicle_type_id":"4","last_reported":1778352200,"current_range_meters":7200,"station_id":"ce4bhbh2rcd13ifvqeqg","pricing_plan_id":"cebpf4jnsgd1na2vs0mg"},{"bike_id":"4fd5b212-cba9-47fe-a389-1fe7b66457c2","system_id":"levelo_inurba_marseille","lat":43.30401,"lon":5.3687,"is_reserved":false,"is_disabled":false,"rental_uris":{"android":"levelo://app?vid=4fd5b212-cba9-47fe-a389-1fe7b66457c2","ios":"levelo://app?vid=4fd5b212-cba9-47fe-a389-1fe7b66457c2"},"vehicle_type_id":"4","last_reported":1778352200,"current_range_meters":7200,"station_id":"","pricing_plan_id":"cebpf4jnsgd1na2vs0mg"},{"bike_id":"9a45abed-8a50-4591-a381-dce67a2e04c0","system_id":"levelo_inurba_marseille","lat":43.29784,"lon":5.39367,"is_reserved":false,"is_disabled":true,"rental_uris":{"android":"levelo://app?vid=9a45abed-8a50-4591-a381-dce67a2e04c0","ios":"levelo://app?vid=9a45abed-8a50-4591-a381-dce67a2e04c0"},"vehicle_type_id":"4","last_reported":1778352200,"current_range_meters":7200,"station_id":"chh1huq6cuj3fo74tm60","pricing_plan_id":"cebpf4jnsgd1na2vs0mg"},{"bike_id":"3c5f0f52-deec-4478-b1b8-43df5890b0b6","system_id":"levelo_inurba_marseille","lat":43.23955,"lon":5.36639,"is_reserved":false,"is_disabled":false,"rental_uris":{"android":"levelo://app?vid=3c5f0f52-deec-4478-b1b8-43df5890b0b6","ios":"levelo://app?vid=3c5f0f52-deec-4478-b1b8-43df5890b0b6"},"vehicle_type_id":"4","last_reported":1778352200,"current_range_meters":7200,"station_id":"ce4bhi12rcd13ifvqfp0","pricing_plan_id":"cebpf4jnsgd1na2vs0mg"},{"bike_id":"4a09775a-a802-431c-9a22-0b7f36fe45c8","system_id":"levelo_inurba_marseille","lat":43.24809,"lon":5.37458,"is_reserved":false,"is_disabled":false,"rental_uris":{"android":"levelo://app?vid=4a09775a-a802-431c-9a22-0b7f36fe45c8","ios":"levelo://app?vid=4a09775a-a802-431c-9a22-0b7f36fe45c8"},"vehicle_type_id":"4","last_reported":1778352200,"current_range_meters":7200,"station_id":"ce4bhgh2rcd13ifvqfb0","pricing_plan_id":"cebpf4jnsgd1na2vs0mg"},{"bike_id":"d2c999d6-6f2e-4b22-ad1f-aefd95ebbd7e","system_id":"levelo_inurba_marseille","lat":43.24385,"lon":5.37054,"is_reserved":false,"is_disabled":false,"rental_uris":{"android":"levelo://app?vid=d2c999d6-6f2e-4b22-ad1f-aefd95ebbd7e","ios":"levelo://app?vid=d2c999d6-6f2e-4b22-ad1f-aefd95ebbd7e"},"vehicle_type_id":"4","last_reported":1778352200,"current_range_meters":7200,"station_id":"ce4bhhh2rcd13ifvqfk0","pricing_plan_id":"cebpf4jnsgd1na2vs0mg"},{"bike_id":"549fead8-4793-4cb0-823e-06fcb4efd395","system_id":"levelo_inurba_marseille","lat":43.24658,"lon":5.3814,"is_reserved":false,"is_disabled":false,"rental_uris":{"android":"levelo://app?vid=549fead8-4793-4cb0-823e-06fcb4efd395","ios":"levelo://app?vid=549fead8-4793-4cb0-823e-06fcb4efd395"},"vehicle_type_id":"4","last_reported":1778352200,"current_range_meters":7200,"station_id":"ce4bhih2rcd13ifvqfr0","pricing_plan_id":"cebpf4jnsgd1na2vs0mg"},{"bike_id":"4de69c21-4e52-4585-bc07-e7ddcf6e8936","system_id":"levelo_inurba_marseille","lat":43.29047,"lon":5.37592,"is_reserved":false,"is_disabled":false,"rental_uris":{"android":"levelo://app?vid=4de69c21-4e52-4585-bc07-e7ddcf6e8936","ios":"levelo://app?vid=4de69c21-4e52-4585-bc07-e7ddcf6e8936"},"vehicle_type_id":"4","last_reported":1778352200,"current_range_meters":7200,"station_id":"ce4bh692rcd13ifvqe90","pricing_plan_id":"cebpf4jnsgd1na2vs0mg"},{"bike_id":"cdd278be-6985-4e01-a1e8-4899861427d9","system_id":"levelo_inurba_marseille","lat":43.25823,"lon":5.39434,"is_reserved":false,"is_disabled":false,"rental_uris":{"android":"levelo://app?vid=cdd278be-6985-4e01-a1e8-4899861427d9","ios":"levelo://app?vid=cdd278be-6985-4e01-a1e8-4899861427d9"},"vehicle_type_id":"4","last_reported":1778352200,"current_range_meters":7200,"station_id":"ce4bhip2rcd13ifvqft0","pricing_plan_id":"cebpf4jnsgd1na2vs0mg"},{"bike_id":"681166ac-bad3-4adb-8db7-6cd2cc3d7ab7","system_id":"levelo_inurba_marseille","lat":43.29965,"lon":5.38505,"is_reserved":false,"is_disabled":false,"rental_uris":{"android":"levelo://app?vid=681166ac-bad3-4adb-8db7-6cd2cc3d7ab7","ios":"levelo://app?vid=681166ac-bad3-4adb-8db7-6cd2cc3d7ab7"},"vehicle_type_id":"4","last_reported":1778352200,"current_range_meters":7200,"station_id":"ce4bgj92rcd13ifvqbd0","pricing_plan_id":"cebpf4jnsgd1na2vs0mg"},{"bike_id":"d5b1780b-e346-4f12-b171-c0fd994c9f82","system_id":"levelo_inurba_marseille","lat":43.2693,"lon":5.40248,"is_reserved":false,"is_disabled":false,"rental_uris":{"android":"levelo://app?vid=d5b1780b-e346-4f12-b171-c0fd994c9f82","ios":"levelo://app?vid=d5b1780b-e346-4f12-b171-c0fd994c9f82"},"vehicle_type_id":"4","last_reported":1778352200,"current_range_meters":7200,"station_id":"cjm6bp8fraef2m0cb0m0","pricing_plan_id":"cebpf4jnsgd1na2vs0mg"},{"bike_id":"264dd0a7-16d8-48c6-b8bf-1ef756773377","system_id":"levelo_inurba_marseille","lat":43.31899,"lon":5.368,"is_reserved":false,"is_disabled":false,"rental_uris":{"android":"levelo://app?vid=264dd0a7-16d8-48c6-b8bf-1ef756773377","ios":"levelo://app?vid=264dd0a7-16d8-48c6-b8bf-1ef756773377"},"vehicle_type_id":"4","last_reported":1778352200,"current_range_meters":7200,"station_id":"st_d6o2h0d0559c73evc1b0","pricing_plan_id":"cebpf4jnsgd1na2vs0mg"},{"bike_id":"51d5b294-35d0-46bc-bba3-28f79376e313","system_id":"levelo_inurba_marseille","lat":43.28399,"lon":5.3754,"is_reserved":false,"is_disabled":false,"rental_uris":{"android":"levelo://app?vid=51d5b294-35d0-46bc-bba3-28f79376e313","ios":"levelo://app?vid=51d5b294-35d0-46bc-bba3-28f79376e313"},"vehicle_type_id":"4","last_reported":1778352200,"current_range_meters":7200,"station_id":"ce4bh412rcd13ifvqds0","pricing_plan_id":"cebpf4jnsgd1na2vs0mg"},{"bike_id":"6bbf159d-0868-45e7-af98-a9fb8f8d21c3","system_id":"levelo_inurba_marseille","lat":43.2893,"lon":5.36648,"is_reserved":false,"is_disabled":false,"rental_uris":{"android":"levelo://app?vid=6bbf159d-0868-45e7-af98-a9fb8f8d21c3","ios":"levelo://app?vid=6bbf159d-0868-45e7-af98-a9fb8f8d21c3"},"vehicle_type_id":"4","last_reported":1778352200,"current_range_meters":7200,"station_id":"ce4bhap2rcd13ifvqek0","pricing_plan_id":"cebpf4jnsgd1na2vs0mg"},{"bike_id":"4bc6302e-723c-444e-9c1c-2353d2969136","system_id":"levelo_inurba_marseille","lat":43.29454,"lon":5.39628,"is_reserved":false,"is_disabled":true,"rental_uris":{"android":"levelo://app?vid=4bc6302e-723c-444e-9c1c-2353d2969136","ios":"levelo://app?vid=4bc6302e-723c-444e-9c1c-2353d2969136"},"vehicle_type_id":"4","last_reported":1778352200,"current_range_meters":7200,"station_id":"","pricing_plan_id":"cebpf4jnsgd1na2vs0mg"},{"bike_id":"ed58a147-194b-403c-8ed5-feb97489bc7e","system_id":"levelo_inurba_marseille","lat":43.27208,"lon":5.39185,"is_reserved":false,"is_disabled":false,"rental_uris":{"android":"levelo://app?vid=ed58a147-194b-403c-8ed5-feb97489bc7e","ios":"levelo://app?vid=ed58a147-194b-403c-8ed5-feb97489bc7e"},"vehicle_type_id":"4","last_reported":1778352200,"current_range_meters":7200,"station_id":"ce4bhhp2rcd13ifvqfm0","pricing_plan_id":"cebpf4jnsgd1na2vs0mg"},{"bike_id":"0cdbcb90-cdfd-41b2-b3ad-5d18561f62ca","system_id":"levelo_inurba_marseille","lat":43.29529,"lon":5.38555,"is_reserved":false,"is_disabled":false,"rental_uris":{"android":"levelo://app?vid=0cdbcb90-cdfd-41b2-b3ad-5d18561f62ca","ios":"levelo://app?vid=0cdbcb90-cdfd-41b2-b3ad-5d18561f62ca"},"vehicle_type_id":"4","last_reported":1778352200,"current_range_meters":7200,"station_id":"ce4bgih2rcd13ifvqba0","pricing_plan_id":"cebpf4jnsgd1na2vs0mg"},{"bike_id":"bb423f61-aacc-4850-b46f-9e886a2c189d","system_id":"levelo_inurba_marseille","lat":43.29257,"lon":5.38443,"is_reserved":false,"is_disabled":false,"rental_uris":{"android":"levelo://app?vid=bb423f61-aacc-4850-b46f-9e886a2c189d","ios":"levelo://app?vid=bb423f61-aacc-4850-b46f-9e886a2c189d"},"vehicle_type_id":"4","last_reported":1778352200,"current_range_meters":7200,"station_id":"ce4bh692rcd13ifvqea0","pricing_plan_id":"cebpf4jnsgd1na2vs0mg"},{"bike_id":"3e63ca9f-52b9-4901-a1d9-7f430e423bd0","system_id":"levelo_inurba_marseille","lat":43.31441,"lon":5.44148,"is_reserved":false,"is_disabled":false,"rental_uris":{"android":"levelo://app?vid=3e63ca9f-52b9-4901-a1d9-7f430e423bd0","ios":"levelo://app?vid=3e63ca9f-52b9-4901-a1d9-7f430e423bd0"},"vehicle_type_id":"4","last_reported":1778352200,"current_range_meters":7200,"station_id":"","pricing_plan_id":"cebpf4jnsgd1na2vs0mg"},{"bike_id":"e13ce7ab-68a5-4266-9a6d-6a537005fe90","system_id":"levelo_inurba_marseille","lat":43.27997,"lon":5.40022,"is_reserved":false,"is_disabled":false,"rental_uris":{"android":"levelo://app?vid=e13ce7ab-68a5-4266-9a6d-6a537005fe90","ios":"levelo://app?vid=e13ce7ab-68a5-4266-9a6d-6a537005fe90"},"vehicle_type_id":"4","last_reported":1778352200,"current_range_meters":7200,"station_id":"ce4bho92rcd13ifvqh4g","pricing_plan_id":"cebpf4jnsgd1na2vs0mg"},{"bike_id":"3a1a2b25-9f8e-47c8-8b2d-64c81b08598b","system_id":"levelo_inurba_marseille","lat":43.29903,"lon":5.37498,"is_reserved":false,"is_disabled":false,"rental_uris":{"android":"levelo://app?vid=3a1a2b25-9f8e-47c8-8b2d-64c81b08598b","ios":"levelo://app?vid=3a1a2b25-9f8e-47c8-8b2d-64c81b08598b"},"vehicle_type_id":"4","last_reported":1778352200,"current_range_meters":7200,"station_id":"ce4bgjh2rcd13ifvqbg0","pricing_plan_id":"cebpf4jnsgd1na2vs0mg"},{"bike_id":"4ab6ea9b-e80b-4f1f-afd2-030a92e4bb47","system_id":"levelo_inurba_marseille","lat":43.26057,"lon":5.39403,"is_reserved":false,"is_disabled":false,"rental_uris":{"android":"levelo://app?vid=4ab6ea9b-e80b-4f1f-afd2-030a92e4bb47","ios":"levelo://app?vid=4ab6ea9b-e80b-4f1f-afd2-030a92e4bb47"},"vehicle_type_id":"4","last_reported":1778352200,"current_range_meters":7200,"station_id":"ce4bhh92rcd13ifvqfj0","pricing_plan_id":"cebpf4jnsgd1na2vs0mg"},{"bike_id":"37c2fb2c-9a80-4684-95d5-4d33e54683b8","system_id":"levelo_inurba_marseille","lat":43.29259,"lon":5.40899,"is_reserved":false,"is_disabled":false,"rental_uris":{"android":"levelo://app?vid=37c2fb2c-9a80-4684-95d5-4d33e54683b8","ios":"levelo://app?vid=37c2fb2c-9a80-4684-95d5-4d33e54683b8"},"vehicle_type_id":"4","last_reported":1778352200,"current_range_meters":8000,"station_id":"ce4bh192rcd13ifvqdc0","pricing_plan_id":"cebpf4jnsgd1na2vs0mg"},{"bike_id":"2ae680ad-0d9a-4f77-85f4-4d8c1224898e","system_id":"levelo_inurba_marseille","lat":43.272094,"lon":5.391793,"is_reserved":false,"is_disabled":false,"rental_uris":{"android":"levelo://app?vid=2ae680ad-0d9a-4f77-85f4-4d8c1224898e","ios":"levelo://app?vid=2ae680ad-0d9a-4f77-85f4-4d8c1224898e"},"vehicle_type_id":"4","last_reported":1778352200,"current_range_meters":8000,"station_id":"ce4bhhp2rcd13ifvqfm0","pricing_plan_id":"cebpf4jnsgd1na2vs0mg"},{"bike_id":"97f964d8-1b4e-4439-a5e5-5bf9eca1819d","system_id":"levelo_inurba_marseille","lat":43.26366,"lon":5.41066,"is_reserved":false,"is_disabled":false,"rental_uris":{"android":"levelo://app?vid=97f964d8-1b4e-4439-a5e5-5bf9eca1819d","ios":"levelo://app?vid=97f964d8-1b4e-4439-a5e5-5bf9eca1819d"},"vehicle_type_id":"4","last_reported":1778352200,"current_range_meters":8000,"station_id":"st_d4e5ca6na9uc73bfl5fg","pricing_plan_id":"cebpf4jnsgd1na2vs0mg"},{"bike_id":"798edaef-bd54-4368-9500-a6ad4811f4c9","system_id":"levelo_inurba_marseille","lat":43.27211,"lon":5.39218,"is_reserved":false,"is_disabled":false,"rental_uris":{"android":"levelo://app?vid=798edaef-bd54-4368-9500-a6ad4811f4c9","ios":"levelo://app?vid=798edaef-bd54-4368-9500-a6ad4811f4c9"},"vehicle_type_id":"4","last_reported":1778352200,"current_range_meters":8000,"station_id":"ce4bhhp2rcd13ifvqfm0","pricing_plan_id":"cebpf4jnsgd1na2vs0mg"},{"bike_id":"88cc3f9c-c85c-468b-9944-9ad80ce3a21a","system_id":"levelo_inurba_marseille","lat":43.2731,"lon":5.39071,"is_reserved":false,"is_disabled":false,"rental_uris":{"android":"levelo://app?vid=88cc3f9c-c85c-468b-9944-9ad80ce3a21a","ios":"levelo://app?vid=88cc3f9c-c85c-468b-9944-9ad80ce3a21a"},"vehicle_type_id":"4","last_reported":1778352200,"current_range_meters":8000,"station_id":"ce4bhgp2rcd13ifvqfe0","pricing_plan_id":"cebpf4jnsgd1na2vs0mg"},{"bike_id":"261442be-df01-487c-b82d-848abe824608","system_id":"levelo_inurba_marseille","lat":43.26233,"lon":5.40472,"is_reserved":false,"is_disabled":false,"rental_uris":{"android":"levelo://app?vid=261442be-df01-487c-b82d-848abe824608","ios":"levelo://app?vid=261442be-df01-487c-b82d-848abe824608"},"vehicle_type_id":"4","last_reported":1778352200,"current_range_meters":8000,"station_id":"ce4bhmh2rcd13ifvqgmg","pricing_plan_id":"cebpf4jnsgd1na2vs0mg"},{"bike_id":"24b614b1-21fe-4a2b-a521-7a850622da21","system_id":"levelo_inurba_marseille","lat":43.23962,"lon":5.36631,"is_reserved":false,"is_disabled":false,"rental_uris":{"android":"levelo://app?vid=24b614b1-21fe-4a2b-a521-7a850622da21","ios":"levelo://app?vid=24b614b1-21fe-4a2b-a521-7a850622da21"},"vehicle_type_id":"4","last_reported":1778352200,"current_range_meters":8000,"station_id":"ce4bhi12rcd13ifvqfp0","pricing_plan_id":"cebpf4jnsgd1na2vs0mg"},{"bike_id":"6185c6b4-782e-4ff8-b9f0-cc828921242d","system_id":"levelo_inurba_marseille","lat":43.2707,"lon":5.42275,"is_reserved":false,"is_disabled":false,"rental_uris":{"android":"levelo://app?vid=6185c6b4-782e-4ff8-b9f0-cc828921242d","ios":"levelo://app?vid=6185c6b4-782e-4ff8-b9f0-cc828921242d"},"vehicle_type_id":"4","last_reported":1778352200,"current_range_meters":8000,"station_id":"ce4bhk92rcd13ifvqgb0","pricing_plan_id":"cebpf4jnsgd1na2vs0mg"},{"bike_id":"d6aa3b2f-3029-4676-9089-14b4fb6bf286","system_id":"levelo_inurba_marseille","lat":43.28729,"lon":5.46691,"is_reserved":false,"is_disabled":false,"rental_uris":{"android":"levelo://app?vid=d6aa3b2f-3029-4676-9089-14b4fb6bf286","ios":"levelo://app?vid=d6aa3b2f-3029-4676-9089-14b4fb6bf286"},"vehicle_type_id":"4","last_reported":1778352200,"current_range_meters":8000,"station_id":"st_d6tc3vkotcvc738tfjhg","pricing_plan_id":"cebpf4jnsgd1na2vs0mg"},{"bike_id":"d74b55b1-7186-4fc2-a7a8-58c5cdd1325a","system_id":"levelo_inurba_marseille","lat":43.29836,"lon":5.36255,"is_reserved":false,"is_disabled":false,"rental_uris":{"android":"levelo://app?vid=d74b55b1-7186-4fc2-a7a8-58c5cdd1325a","ios":"levelo://app?vid=d74b55b1-7186-4fc2-a7a8-58c5cdd1325a"},"vehicle_type_id":"4","last_reported":1778352200,"current_range_meters":8000,"station_id":"ce4bgpp2rcd13ifvqc3g","pricing_plan_id":"cebpf4jnsgd1na2vs0mg"},{"bike_id":"f43779d5-16c9-4f97-95b2-2f1f51b6ba6b","system_id":"levelo_inurba_marseille","lat":43.30885,"lon":5.37199,"is_reserved":false,"is_disabled":false,"rental_uris":{"android":"levelo://app?vid=f43779d5-16c9-4f97-95b2-2f1f51b6ba6b","ios":"levelo://app?vid=f43779d5-16c9-4f97-95b2-2f1f51b6ba6b"},"vehicle_type_id":"4","last_reported":1778352200,"current_range_meters":8000,"station_id":"ce4bguh2rcd13ifvqckg","pricing_plan_id":"cebpf4jnsgd1na2vs0mg"},{"bike_id":"41e821f9-d05f-4ef8-a6d6-c613a1df1d14","system_id":"levelo_inurba_marseille","lat":43.2679,"lon":5.3942,"is_reserved":false,"is_disabled":false,"rental_uris":{"android":"levelo://app?vid=41e821f9-d05f-4ef8-a6d6-c613a1df1d14","ios":"levelo://app?vid=41e821f9-d05f-4ef8-a6d6-c613a1df1d14"},"vehicle_type_id":"4","last_reported":1778352200,"current_range_meters":8000,"station_id":"ce4bhh12rcd13ifvqfg0","pricing_plan_id":"cebpf4jnsgd1na2vs0mg"},{"bike_id":"68234306-3737-4701-9a6f-8b470725aad8","system_id":"levelo_inurba_marseille","lat":43.29806,"lon":5.38082,"is_reserved":false,"is_disabled":false,"rental_uris":{"android":"levelo://app?vid=68234306-3737-4701-9a6f-8b470725aad8","ios":"levelo://app?vid=68234306-3737-4701-9a6f-8b470725aad8"},"vehicle_type_id":"4","last_reported":1778352200,"current_range_meters":8000,"station_id":"ce4bgip2rcd13ifvqbb0","pricing_plan_id":"cebpf4jnsgd1na2vs0mg"},{"bike_id":"808c4ecd-9bba-4ef5-91dc-62b4109dcc93","system_id":"levelo_inurba_marseille","lat":43.29535,"lon":5.38575,"is_reserved":false,"is_disabled":true,"rental_uris":{"android":"levelo://app?vid=808c4ecd-9bba-4ef5-91dc-62b4109dcc93","ios":"levelo://app?vid=808c4ecd-9bba-4ef5-91dc-62b4109dcc93"},"vehicle_type_id":"4","last_reported":1778352200,"current_range_meters":8000,"station_id":"ce4bgih2rcd13ifvqba0","pricing_plan_id":"cebpf4jnsgd1na2vs0mg"},{"bike_id":"9e9ec8bd-39f4-44d5-9150-2fe5a0480717","system_id":"levelo_inurba_marseille","lat":43.29045,"lon":5.38659,"is_reserved":false,"is_disabled":false,"rental_uris":{"android":"levelo://app?vid=9e9ec8bd-39f4-44d5-9150-2fe5a0480717","ios":"levelo://app?vid=9e9ec8bd-39f4-44d5-9150-2fe5a0480717"},"vehicle_type_id":"4","last_reported":1778352200,"current_range_meters":8000,"station_id":"ce4bh4p2rcd13ifvqe0g","pricing_plan_id":"cebpf4jnsgd1na2vs0mg"},{"bike_id":"8e8aab5d-f56d-4268-b84e-65829c53a53f","system_id":"levelo_inurba_marseille","lat":43.26569,"lon":5.37321,"is_reserved":false,"is_disabled":false,"rental_uris":{"android":"levelo://app?vid=8e8aab5d-f56d-4268-b84e-65829c53a53f","ios":"levelo://app?vid=8e8aab5d-f56d-4268-b84e-65829c53a53f"},"vehicle_type_id":"4","last_reported":1778352200,"current_range_meters":8000,"station_id":"ce4bhg12rcd13ifvqf70","pricing_plan_id":"cebpf4jnsgd1na2vs0mg"},{"bike_id":"bd7480d3-6159-4ac1-931c-038593a85b90","system_id":"levelo_inurba_marseille","lat":43.30936,"lon":5.40141,"is_reserved":false,"is_disabled":false,"rental_uris":{"android":"levelo://app?vid=bd7480d3-6159-4ac1-931c-038593a85b90","ios":"levelo://app?vid=bd7480d3-6159-4ac1-931c-038593a85b90"},"vehicle_type_id":"4","last_reported":1778352200,"current_range_meters":8000,"station_id":"ce4bgvp2rcd13ifvqct0","pricing_plan_id":"cebpf4jnsgd1na2vs0mg"},{"bike_id":"887fd6a9-4130-4158-a98a-2d6a96c9d6a7","system_id":"levelo_inurba_marseille","lat":43.2795,"lon":5.41041,"is_reserved":false,"is_disabled":false,"rental_uris":{"android":"levelo://app?vid=887fd6a9-4130-4158-a98a-2d6a96c9d6a7","ios":"levelo://app?vid=887fd6a9-4130-4158-a98a-2d6a96c9d6a7"},"vehicle_type_id":"4","last_reported":1778352200,"current_range_meters":8000,"station_id":"ce4bhnp2rcd13ifvqh0g","pricing_plan_id":"cebpf4jnsgd1na2vs0mg"},{"bike_id":"5e1f5986-ff69-4a2b-bb48-a1076b1b32aa","system_id":"levelo_inurba_marseille","lat":43.29308,"lon":5.37461,"is_reserved":false,"is_disabled":true,"rental_uris":{"android":"levelo://app?vid=5e1f5986-ff69-4a2b-bb48-a1076b1b32aa","ios":"levelo://app?vid=5e1f5986-ff69-4a2b-bb48-a1076b1b32aa"},"vehicle_type_id":"4","last_reported":1778352200,"current_range_meters":8000,"station_id":"ce4bgi12rcd13ifvqb70","pricing_plan_id":"cebpf4jnsgd1na2vs0mg"},{"bike_id":"df2e4e84-d8ad-4330-8d9e-0cea2f13e6ad","system_id":"levelo_inurba_marseille","lat":43.29303,"lon":5.37462,"is_reserved":false,"is_disabled":false,"rental_uris":{"android":"levelo://app?vid=df2e4e84-d8ad-4330-8d9e-0cea2f13e6ad","ios":"levelo://app?vid=df2e4e84-d8ad-4330-8d9e-0cea2f13e6ad"},"vehicle_type_id":"4","last_reported":1778352200,"current_range_meters":8000,"station_id":"ce4bgi12rcd13ifvqb70","pricing_plan_id":"cebpf4jnsgd1na2vs0mg"},{"bike_id":"b5652db3-ece8-43e8-a6df-9d9e5f8b37a9","system_id":"levelo_inurba_marseille","lat":43.29262,"lon":5.38434,"is_reserved":false,"is_disabled":false,"rental_uris":{"android":"levelo://app?vid=b5652db3-ece8-43e8-a6df-9d9e5f8b37a9","ios":"levelo://app?vid=b5652db3-ece8-43e8-a6df-9d9e5f8b37a9"},"vehicle_type_id":"4","last_reported":1778352200,"current_range_meters":8000,"station_id":"ce4bh692rcd13ifvqea0","pricing_plan_id":"cebpf4jnsgd1na2vs0mg"},{"bike_id":"8e7c1193-925a-45df-be4b-ba97ae807b6d","system_id":"levelo_inurba_marseille","lat":43.30184,"lon":5.36629,"is_reserved":false,"is_disabled":false,"rental_uris":{"android":"levelo://app?vid=8e7c1193-925a-45df-be4b-ba97ae807b6d","ios":"levelo://app?vid=8e7c1193-925a-45df-be4b-ba97ae807b6d"},