{"last_updated":1700917637,"ttl":30,"version":"2.2","data":{"bikes":[{"bike_id":"82d76360-0d65-4225-9782-1b13de45018f","system_id":"levelo_inurba_marseille","lat":43.312239,"lon":5.368562,"is_reserved":false,"is_disabled":false,"rental_uris":{"android":"levelo://app?vid=82d76360-0d65-4225-9782-1b13de45018f","ios":"levelo://app?vid=82d76360-0d65-4225-9782-1b13de45018f"},"vehicle_type_id":"4","last_reported":1700917637,"current_range_meters":24400,"station_id":"ce4bgl92rcd13ifvqbq0","pricing_plan_id":"free"},{"bike_id":"ff17466d-b9fb-41f8-9a5c-5b2446f5e426","system_id":"levelo_inurba_marseille","lat":43.309076,"lon":5.368465,"is_reserved":false,"is_disabled":false,"rental_uris":{"android":"levelo://app?vid=ff17466d-b9fb-41f8-9a5c-5b2446f5e426","ios":"levelo://app?vid=ff17466d-b9fb-41f8-9a5c-5b2446f5e426"},"vehicle_type_id":"4","last_reported":1700917637,"current_range_meters":12000,"station_id":"ce4bgn92rcd13ifvqbvg","pricing_plan_id":"free"},{"bike_id":"d22ca52b-06d9-4a47-bfcb-69364bed8d65","system_id":"levelo_inurba_marseille","lat":43.314811,"lon":5.373103,"is_reserved":false,"is_disabled":false,"rental_uris":{"android":"levelo://app?vid=d22ca52b-06d9-4a47-bfcb-69364bed8d65","ios":"levelo://app?vid=d22ca52b-06d9-4a47-bfcb-69364bed8d65"},"vehicle_type_id":"4","last_reported":1700917637,"current_range_meters":26000,"station_id":"ce4bgt12rcd13ifvqcd0","pricing_plan_id":"free"},{"bike_id":"2c4e2ab4-2bc9-4e71-8e28-b7f9c78b7444","system_id":"levelo_inurba_marseille","lat":43.305714,"lon":5.365633,"is_reserved":false,"is_disabled":false,"rental_uris":{"android":"levelo://app?vid=2c4e2ab4-2bc9-4e71-8e28-b7f9c78b7444","ios":"levelo://app?vid=2c4e2ab4-2bc9-4e71-8e28-b7f9c78b7444"},"vehicle_type_id":"4","last_reported":1700917637,"current_range_meters":3600,"station_id":"ce4bgs12rcd13ifvqcag","pricing_plan_id":"free"},{"bike_id":"04292301-7fde-4f9a-92f5-9623d9d80b51","system_id":"levelo_inurba_marseille","lat":43.305368,"lon":5.367343,"is_reserved":false,"is_disabled":false,"rental_uris":{"android":"levelo://app?vid=04292301-7fde-4f9a-92f5-9623d9d80b51","ios":"levelo://app?vid=04292301-7fde-4f9a-92f5-9623d9d80b51"},"vehicle_type_id":"4","last_reported":1700917637,"current_range_meters":15600,"station_id":"ce4bgrp2rcd13ifvqc9g","pricing_plan_id":"free"},{"bike_id":"2d0f40fd-a997-482d-bb00-7f3701ba87f7","system_id":"levelo_inurba_marseille","lat":43.305712,"lon":5.365641,"is_reserved":false,"is_disabled":false,"rental_uris":{"android":"levelo://app?vid=2d0f40fd-a997-482d-bb00-7f3701ba87f7","ios":"levelo://app?vid=2d0f40fd-a997-482d-bb00-7f3701ba87f7"},"vehicle_type_id":"4","last_reported":1700917637,"current_range_meters":28000,"station_id":"ce4bgs12rcd13ifvqcag","pricing_plan_id":"free"},{"bike_id":"56233194-2934-461c-a63c-8b691dc2ddc1","system_id":"levelo_inurba_marseille","lat":43.305706,"lon":5.365654,"is_reserved":false,"is_disabled":false,"rental_uris":{"android":"levelo://app?vid=56233194-2934-461c-a63c-8b691dc2ddc1","ios":"levelo://app?vid=56233194-2934-461c-a63c-8b691dc2ddc1"},"vehicle_type_id":"4","last_reported":1700917637,"current_range_meters":26400,"station_id":"ce4bgs12rcd13ifvqcag","pricing_plan_id":"free"},{"bike_id":"63511f93-478d-43b3-ae2f-a69ffbc95ad9","system_id":"levelo_inurba_marseille","lat":43.305706,"lon":5.365654,"is_reserved":false,"is_disabled":false,"rental_uris":{"android":"levelo://app?vid=63511f93-478d-43b3-ae2f-a69ffbc95ad9","ios":"levelo://app?vid=63511f93-478d-43b3-ae2f-a69ffbc95ad9"},"vehicle_type_id":"4","last_reported":1700917637,"current_range_meters":13600,"station_id":"ce4bgs12rcd13ifvqcag","pricing_plan_id":"free"},{"bike_id":"0a7e7d59-999c-46c6-aba2-27d2ef720f46","system_id":"levelo_inurba_marseille","lat":43.30517,"lon":5.36704,"is_reserved":false,"is_disabled":false,"rental_uris":{"android":"levelo://app?vid=0a7e7d59-999c-46c6-aba2-27d2ef720f46","ios":"levelo://app?vid=0a7e7d59-999c-46c6-aba2-27d2ef720f46"},"vehicle_type_id":"4","last_reported":1700917637,"current_range_meters":6400,"station_id":"ce4bgrp2rcd13ifvqc9g","pricing_plan_id":"free"},{"bike_id":"c5d94666-913b-421a-9fc5-2c86c972000f","system_id":"levelo_inurba_marseille","lat":43.305989,"lon":5.37225,"is_reserved":false,"is_disabled":false,"rental_uris":{"android":"levelo://app?vid=c5d94666-913b-421a-9fc5-2c86c972000f","ios":"levelo://app?vid=c5d94666-913b-421a-9fc5-2c86c972000f"},"vehicle_type_id":"4","last_reported":1700917637,"current_range_meters":20800,"station_id":"ce4bgqh2rcd13ifvqc4g","pricing_plan_id":"free"},{"bike_id":"f0897313-0f1d-4219-81b6-746f53811f15","system_id":"levelo_inurba_marseille","lat":43.307945,"lon":5.376487,"is_reserved":false,"is_disabled":false,"rental_uris":{"android":"levelo://app?vid=f0897313-0f1d-4219-81b6-746f53811f15","ios":"levelo://app?vid=f0897313-0f1d-4219-81b6-746f53811f15"},"vehicle_type_id":"4","last_reported":1700917637,"current_range_meters":11200,"station_id":"ce4bgv92rcd13ifvqcq0","pricing_plan_id":"free"},{"bike_id":"573a870a-b6c4-429d-8587-8103772b84bc","system_id":"levelo_inurba_marseille","lat":43.30817,"lon":5.376559,"is_reserved":false,"is_disabled":false,"rental_uris":{"android":"levelo://app?vid=573a870a-b6c4-429d-8587-8103772b84bc","ios":"levelo://app?vid=573a870a-b6c4-429d-8587-8103772b84bc"},"vehicle_type_id":"4","last_reported":1700917637,"current_range_meters":5200,"station_id":"ce4bgv92rcd13ifvqcq0","pricing_plan_id":"free"},{"bike_id":"f427a2c3-6e4a-446b-ae2f-9be8aa7f4122","system_id":"levelo_inurba_marseille","lat":43.31719,"lon":5.376813,"is_reserved":false,"is_disabled":false,"rental_uris":{"android":"levelo://app?vid=f427a2c3-6e4a-446b-ae2f-9be8aa7f4122","ios":"levelo://app?vid=f427a2c3-6e4a-446b-ae2f-9be8aa7f4122"},"vehicle_type_id":"4","last_reported":1700917637,"current_range_meters":24800,"station_id":"ce4bgth2rcd13ifvqch0","pricing_plan_id":"free"},{"bike_id":"968ffa98-2b6b-41d0-b900-d8fabbb09588","system_id":"levelo_inurba_marseille","lat":43.307945,"lon":5.376487,"is_reserved":false,"is_disabled":false,"rental_uris":{"android":"levelo://app?vid=968ffa98-2b6b-41d0-b900-d8fabbb09588","ios":"levelo://app?vid=968ffa98-2b6b-41d0-b900-d8fabbb09588"},"vehicle_type_id":"4","last_reported":1700917637,"current_range_meters":28000,"station_id":"ce4bgv92rcd13ifvqcq0","pricing_plan_id":"free"},{"bike_id":"b898b018-f57d-4901-bab2-fdd15d391de9","system_id":"levelo_inurba_marseille","lat":43.317168,"lon":5.376883,"is_reserved":false,"is_disabled":false,"rental_uris":{"android":"levelo://app?vid=b898b018-f57d-4901-bab2-fdd15d391de9","ios":"levelo://app?vid=b898b018-f57d-4901-bab2-fdd15d391de9"},"vehicle_type_id":"4","last_reported":1700917637,"current_range_meters":27200,"station_id":"ce4bgth2rcd13ifvqch0","pricing_plan_id":"free"},{"bike_id":"a959278e-801d-4b4c-95ff-ccaddcdfd8b0","system_id":"levelo_inurba_marseille","lat":43.307945,"lon":5.376487,"is_reserved":false,"is_disabled":false,"rental_uris":{"android":"levelo://app?vid=a959278e-801d-4b4c-95ff-ccaddcdfd8b0","ios":"levelo://app?vid=a959278e-801d-4b4c-95ff-ccaddcdfd8b0"},"vehicle_type_id":"4","last_reported":1700917637,"current_range_meters":26400,"station_id":"ce4bgv92rcd13ifvqcq0","pricing_plan_id":"free"},{"bike_id":"b8f6c4b5-d148-4cff-b6e8-a3b8e64daa87","system_id":"levelo_inurba_marseille","lat":43.303046,"lon":5.368981,"is_reserved":false,"is_disabled":false,"rental_uris":{"android":"levelo://app?vid=b8f6c4b5-d148-4cff-b6e8-a3b8e64daa87","ios":"levelo://app?vid=b8f6c4b5-d148-4cff-b6e8-a3b8e64daa87"},"vehicle_type_id":"4","last_reported":1700917637,"current_range_meters":29600,"station_id":"ce4bgqh2rcd13ifvqc5g","pricing_plan_id":"free"},{"bike_id":"d69025b0-8b89-4c4d-be9b-24cc15a18fef","system_id":"levelo_inurba_marseille","lat":43.30272,"lon":5.36906,"is_reserved":false,"is_disabled":false,"rental_uris":{"android":"levelo://app?vid=d69025b0-8b89-4c4d-be9b-24cc15a18fef","ios":"levelo://app?vid=d69025b0-8b89-4c4d-be9b-24cc15a18fef"},"vehicle_type_id":"4","last_reported":1700917637,"current_range_meters":17200,"station_id":"","pricing_plan_id":"free"},{"bike_id":"1611dee5-549d-45c3-b156-2cb059e56e36","system_id":"levelo_inurba_marseille","lat":43.301939,"lon":5.366286,"is_reserved":false,"is_disabled":false,"rental_uris":{"android":"levelo://app?vid=1611dee5-549d-45c3-b156-2cb059e56e36","ios":"levelo://app?vid=1611dee5-549d-45c3-b156-2cb059e56e36"},"vehicle_type_id":"4","last_reported":1700917637,"current_range_meters":24400,"station_id":"ce4bgrh2rcd13ifvqc8g","pricing_plan_id":"free"},{"bike_id":"4486b568-9623-4c9f-813f-7396bc05bd33","system_id":"levelo_inurba_marseille","lat":43.301939,"lon":5.366286,"is_reserved":false,"is_disabled":false,"rental_uris":{"android":"levelo://app?vid=4486b568-9623-4c9f-813f-7396bc05bd33","ios":"levelo://app?vid=4486b568-9623-4c9f-813f-7396bc05bd33"},"vehicle_type_id":"4","last_reported":1700917637,"current_range_meters":4000,"station_id":"ce4bgrh2rcd13ifvqc8g","pricing_plan_id":"free"},{"bike_id":"ad2f276d-e2ca-47b1-983f-0873bb8d9104","system_id":"levelo_inurba_marseille","lat":43.30809,"lon":5.38144,"is_reserved":false,"is_disabled":false,"rental_uris":{"android":"levelo://app?vid=ad2f276d-e2ca-47b1-983f-0873bb8d9104","ios":"levelo://app?vid=ad2f276d-e2ca-47b1-983f-0873bb8d9104"},"vehicle_type_id":"4","last_reported":1700917637,"current_range_meters":12800,"station_id":"ce4bgt12rcd13ifvqce0","pricing_plan_id":"free"},{"bike_id":"7ec8d4cc-3881-4970-9bdd-b55ca433222c","system_id":"levelo_inurba_marseille","lat":43.304606,"lon":5.379026,"is_reserved":false,"is_disabled":false,"rental_uris":{"android":"levelo://app?vid=7ec8d4cc-3881-4970-9bdd-b55ca433222c","ios":"levelo://app?vid=7ec8d4cc-3881-4970-9bdd-b55ca433222c"},"vehicle_type_id":"4","last_reported":1700917637,"current_range_meters":7600,"station_id":"ce4bgup2rcd13ifvqcn0","pricing_plan_id":"free"},{"bike_id":"b959be19-2b83-47d4-a05e-fbfbff8f2e08","system_id":"levelo_inurba_marseille","lat":43.304606,"lon":5.379026,"is_reserved":false,"is_disabled":false,"rental_uris":{"android":"levelo://app?vid=b959be19-2b83-47d4-a05e-fbfbff8f2e08","ios":"levelo://app?vid=b959be19-2b83-47d4-a05e-fbfbff8f2e08"},"vehicle_type_id":"4","last_reported":1700917637,"current_range_meters":26800,"station_id":"ce4bgup2rcd13ifvqcn0","pricing_plan_id":"free"},{"bike_id":"537c7734-29f9-4a7f-948d-445e2fddf357","system_id":"levelo_inurba_marseille","lat":43.302784,"lon":5.377158,"is_reserved":false,"is_disabled":false,"rental_uris":{"android":"levelo://app?vid=537c7734-29f9-4a7f-948d-445e2fddf357","ios":"levelo://app?vid=537c7734-29f9-4a7f-948d-445e2fddf357"},"vehicle_type_id":"4","last_reported":1700917637,"current_range_meters":24000,"station_id":"ce4bguh2rcd13ifvqcj0","pricing_plan_id":"free"},{"bike_id":"f9f251d2-c76f-433f-b1fa-246eee1b9a42","system_id":"levelo_inurba_marseille","lat":43.302784,"lon":5.377158,"is_reserved":false,"is_disabled":false,"rental_uris":{"android":"levelo://app?vid=f9f251d2-c76f-433f-b1fa-246eee1b9a42","ios":"levelo://app?vid=f9f251d2-c76f-433f-b1fa-246eee1b9a42"},"vehicle_type_id":"4","last_reported":1700917637,"current_range_meters":12400,"station_id":"ce4bguh2rcd13ifvqcj0","pricing_plan_id":"free"},{"bike_id":"8df9a0fe-6830-4755-97b2-b3c7ac66ef17","system_id":"levelo_inurba_marseille","lat":43.31994,"lon":5.38141,"is_reserved":false,"is_disabled":false,"rental_uris":{"android":"levelo://app?vid=8df9a0fe-6830-4755-97b2-b3c7ac66ef17","ios":"levelo://app?vid=8df9a0fe-6830-4755-97b2-b3c7ac66ef17"},"vehicle_type_id":"4","last_reported":1700917637,"current_range_meters":24400,"station_id":"ce4bhr12rcd13ifvqhpg","pricing_plan_id":"free"},{"bike_id":"297c48cb-ada2-41fa-a9b3-36f330453cd6","system_id":"levelo_inurba_marseille","lat":43.319934,"lon":5.381449,"is_reserved":false,"is_disabled":false,"rental_uris":{"android":"levelo://app?vid=297c48cb-ada2-41fa-a9b3-36f330453cd6","ios":"levelo://app?vid=297c48cb-ada2-41fa-a9b3-36f330453cd6"},"vehicle_type_id":"4","last_reported":1700917637,"current_range_meters":30000,"station_id":"ce4bhr12rcd13ifvqhpg","pricing_plan_id":"free"},{"bike_id":"9320e50a-994e-4770-8037-e827f3b9356c","system_id":"levelo_inurba_marseille","lat":43.31996,"lon":5.38161,"is_reserved":false,"is_disabled":false,"rental_uris":{"android":"levelo://app?vid=9320e50a-994e-4770-8037-e827f3b9356c","ios":"levelo://app?vid=9320e50a-994e-4770-8037-e827f3b9356c"},"vehicle_type_id":"4","last_reported":1700917637,"current_range_meters":14400,"station_id":"ce4bhr12rcd13ifvqhpg","pricing_plan_id":"free"},{"bike_id":"6030044a-7c77-4bbf-90c8-83305800809c","system_id":"levelo_inurba_marseille","lat":43.29987,"lon":5.37167,"is_reserved":false,"is_disabled":false,"rental_uris":{"android":"levelo://app?vid=6030044a-7c77-4bbf-90c8-83305800809c","ios":"levelo://app?vid=6030044a-7c77-4bbf-90c8-83305800809c"},"vehicle_type_id":"4","last_reported":1700917637,"current_range_meters":30000,"station_id":"ce4bgr92rcd13ifvqc7g","pricing_plan_id":"free"},{"bike_id":"f2618040-3673-41b1-bce5-20152aa59b35","system_id":"levelo_inurba_marseille","lat":43.299724,"lon":5.371829,"is_reserved":false,"is_disabled":false,"rental_uris":{"android":"levelo://app?vid=f2618040-3673-41b1-bce5-20152aa59b35","ios":"levelo://app?vid=f2618040-3673-41b1-bce5-20152aa59b35"},"vehicle_type_id":"4","last_reported":1700917637,"current_range_meters":11200,"station_id":"ce4bgr92rcd13ifvqc7g","pricing_plan_id":"free"},{"bike_id":"b3e9254b-8c34-4aaf-9b80-43a21f024ef4","system_id":"levelo_inurba_marseille","lat":43.29934,"lon":5.36551,"is_reserved":false,"is_disabled":false,"rental_uris":{"android":"levelo://app?vid=b3e9254b-8c34-4aaf-9b80-43a21f024ef4","ios":"levelo://app?vid=b3e9254b-8c34-4aaf-9b80-43a21f024ef4"},"vehicle_type_id":"4","last_reported":1700917637,"current_range_meters":8000,"station_id":"ce4bgm92rcd13ifvqbr0","pricing_plan_id":"free"},{"bike_id":"836fa7ff-4aee-43d0-ac47-83e27cb8cd43","system_id":"levelo_inurba_marseille","lat":43.299724,"lon":5.371829,"is_reserved":false,"is_disabled":false,"rental_uris":{"android":"levelo://app?vid=836fa7ff-4aee-43d0-ac47-83e27cb8cd43","ios":"levelo://app?vid=836fa7ff-4aee-43d0-ac47-83e27cb8cd43"},"vehicle_type_id":"4","last_reported":1700917637,"current_range_meters":18000,"station_id":"ce4bgr92rcd13ifvqc7g","pricing_plan_id":"free"},{"bike_id":"bcb17b74-e82b-4aa2-81eb-7009cf33f526","system_id":"levelo_inurba_marseille","lat":43.299724,"lon":5.371829,"is_reserved":false,"is_disabled":false,"rental_uris":{"android":"levelo://app?vid=bcb17b74-e82b-4aa2-81eb-7009cf33f526","ios":"levelo://app?vid=bcb17b74-e82b-4aa2-81eb-7009cf33f526"},"vehicle_type_id":"4","last_reported":1700917637,"current_range_meters":28400,"station_id":"ce4bgr92rcd13ifvqc7g","pricing_plan_id":"free"},{"bike_id":"167083ea-3d39-40e2-89ed-5f47211a740d","system_id":"levelo_inurba_marseille","lat":43.299222,"lon":5.365554,"is_reserved":false,"is_disabled":false,"rental_uris":{"android":"levelo://app?vid=167083ea-3d39-40e2-89ed-5f47211a740d","ios":"levelo://app?vid=167083ea-3d39-40e2-89ed-5f47211a740d"},"vehicle_type_id":"4","last_reported":1700917637,"current_range_meters":17600,"station_id":"ce4bgm92rcd13ifvqbr0","pricing_plan_id":"free"},{"bike_id":"a1da7563-4d9e-4be1-8f62-60c27ff39563","system_id":"levelo_inurba_marseille","lat":43.299222,"lon":5.365554,"is_reserved":false,"is_disabled":false,"rental_uris":{"android":"levelo://app?vid=a1da7563-4d9e-4be1-8f62-60c27ff39563","ios":"levelo://app?vid=a1da7563-4d9e-4be1-8f62-60c27ff39563"},"vehicle_type_id":"4","last_reported":1700917637,"current_range_meters":19200,"station_id":"ce4bgm92rcd13ifvqbr0","pricing_plan_id":"free"},{"bike_id":"08991d99-2da0-4655-9b9b-21bd65a2294a","system_id":"levelo_inurba_marseille","lat":43.299724,"lon":5.371829,"is_reserved":false,"is_disabled":false,"rental_uris":{"android":"levelo://app?vid=08991d99-2da0-4655-9b9b-21bd65a2294a","ios":"levelo://app?vid=08991d99-2da0-4655-9b9b-21bd65a2294a"},"vehicle_type_id":"4","last_reported":1700917637,"current_range_meters":400,"station_id":"ce4bgr92rcd13ifvqc7g","pricing_plan_id":"free"},{"bike_id":"09eebb08-1c76-4705-ad5d-21f288103669","system_id":"levelo_inurba_marseille","lat":43.298433,"lon":5.362774,"is_reserved":false,"is_disabled":false,"rental_uris":{"android":"levelo://app?vid=09eebb08-1c76-4705-ad5d-21f288103669","ios":"levelo://app?vid=09eebb08-1c76-4705-ad5d-21f288103669"},"vehicle_type_id":"4","last_reported":1700917637,"current_range_meters":30400,"station_id":"ce4bgpp2rcd13ifvqc3g","pricing_plan_id":"free"},{"bike_id":"00d1f15b-e104-4bc9-8676-18ac62d133b4","system_id":"levelo_inurba_marseille","lat":43.299243,"lon":5.37481,"is_reserved":false,"is_disabled":false,"rental_uris":{"android":"levelo://app?vid=00d1f15b-e104-4bc9-8676-18ac62d133b4","ios":"levelo://app?vid=00d1f15b-e104-4bc9-8676-18ac62d133b4"},"vehicle_type_id":"4","last_reported":1700917637,"current_range_meters":22400,"station_id":"ce4bgjh2rcd13ifvqbg0","pricing_plan_id":"free"},{"bike_id":"ac33c663-bada-4969-b0dd-5de29c260695","system_id":"levelo_inurba_marseille","lat":43.298433,"lon":5.362774,"is_reserved":false,"is_disabled":false,"rental_uris":{"android":"levelo://app?vid=ac33c663-bada-4969-b0dd-5de29c260695","ios":"levelo://app?vid=ac33c663-bada-4969-b0dd-5de29c260695"},"vehicle_type_id":"4","last_reported":1700917637,"current_range_meters":28000,"station_id":"ce4bgpp2rcd13ifvqc3g","pricing_plan_id":"free"},{"bike_id":"58750c6e-31bc-4d73-8b5a-b02157bb783e","system_id":"levelo_inurba_marseille","lat":43.298433,"lon":5.362774,"is_reserved":false,"is_disabled":false,"rental_uris":{"android":"levelo://app?vid=58750c6e-31bc-4d73-8b5a-b02157bb783e","ios":"levelo://app?vid=58750c6e-31bc-4d73-8b5a-b02157bb783e"},"vehicle_type_id":"4","last_reported":1700917637,"current_range_meters":18800,"station_id":"ce4bgpp2rcd13ifvqc3g","pricing_plan_id":"free"},{"bike_id":"3214173a-bf48-4c49-aca0-08d636007a40","system_id":"levelo_inurba_marseille","lat":43.305364,"lon":5.384119,"is_reserved":false,"is_disabled":false,"rental_uris":{"android":"levelo://app?vid=3214173a-bf48-4c49-aca0-08d636007a40","ios":"levelo://app?vid=3214173a-bf48-4c49-aca0-08d636007a40"},"vehicle_type_id":"4","last_reported":1700917637,"current_range_meters":18000,"station_id":"ce4bgg92rcd13ifvqb30","pricing_plan_id":"free"},{"bike_id":"f7e75503-c93b-434c-96e3-9e16e64014c7","system_id":"levelo_inurba_marseille","lat":43.311722,"lon":5.387247,"is_reserved":false,"is_disabled":false,"rental_uris":{"android":"levelo://app?vid=f7e75503-c93b-434c-96e3-9e16e64014c7","ios":"levelo://app?vid=f7e75503-c93b-434c-96e3-9e16e64014c7"},"vehicle_type_id":"4","last_reported":1700917637,"current_range_meters":26400,"station_id":"ce4bgv12rcd13ifvqcp0","pricing_plan_id":"free"},{"bike_id":"fa68b9e1-26d3-4e2e-9962-0a50f28e00b0","system_id":"levelo_inurba_marseille","lat":43.311722,"lon":5.387247,"is_reserved":false,"is_disabled":false,"rental_uris":{"android":"levelo://app?vid=fa68b9e1-26d3-4e2e-9962-0a50f28e00b0","ios":"levelo://app?vid=fa68b9e1-26d3-4e2e-9962-0a50f28e00b0"},"vehicle_type_id":"4","last_reported":1700917637,"current_range_meters":14000,"station_id":"ce4bgv12rcd13ifvqcp0","pricing_plan_id":"free"},{"bike_id":"db9584ac-89a4-4a6c-816d-70f7d5bbc90d","system_id":"levelo_inurba_marseille","lat":43.297794,"lon":5.370888,"is_reserved":false,"is_disabled":false,"rental_uris":{"android":"levelo://app?vid=db9584ac-89a4-4a6c-816d-70f7d5bbc90d","ios":"levelo://app?vid=db9584ac-89a4-4a6c-816d-70f7d5bbc90d"},"vehicle_type_id":"4","last_reported":1700917637,"current_range_meters":23200,"station_id":"ce4bgop2rcd13ifvqc1g","pricing_plan_id":"free"},{"bike_id":"a7156c28-1946-468b-9e64-3365962b5f30","system_id":"levelo_inurba_marseille","lat":43.32827,"lon":5.3668,"is_reserved":false,"is_disabled":false,"rental_uris":{"android":"levelo://app?vid=a7156c28-1946-468b-9e64-3365962b5f30","ios":"levelo://app?vid=a7156c28-1946-468b-9e64-3365962b5f30"},"vehicle_type_id":"4","last_reported":1700917637,"current_range_meters":13200,"station_id":"ce4bhs92rcd13ifvqi0g","pricing_plan_id":"free"},{"bike_id":"07a03e0e-e12b-474e-a940-8baf07c98432","system_id":"levelo_inurba_marseille","lat":43.328275,"lon":5.366703,"is_reserved":false,"is_disabled":false,"rental_uris":{"android":"levelo://app?vid=07a03e0e-e12b-474e-a940-8baf07c98432","ios":"levelo://app?vid=07a03e0e-e12b-474e-a940-8baf07c98432"},"vehicle_type_id":"4","last_reported":1700917637,"current_range_meters":15200,"station_id":"ce4bhs92rcd13ifvqi0g","pricing_plan_id":"free"},{"bike_id":"8791a58e-e3a0-43a8-b083-b15b0d3679b4","system_id":"levelo_inurba_marseille","lat":43.328371,"lon":5.366909,"is_reserved":false,"is_disabled":false,"rental_uris":{"android":"levelo://app?vid=8791a58e-e3a0-43a8-b083-b15b0d3679b4","ios":"levelo://app?vid=8791a58e-e3a0-43a8-b083-b15b0d3679b4"},"vehicle_type_id":"4","last_reported":1700917637,"current_range_meters":8800,"station_id":"ce4bhs92rcd13ifvqi0g","pricing_plan_id":"free"},{"bike_id":"f67ed7f6-6b2d-4c05-8943-cbd16257ad7d","system_id":"levelo_inurba_marseille","lat":43.32829,"lon":5.36692,"is_reserved":false,"is_disabled":false,"rental_uris":{"android":"levelo://app?vid=f67ed7f6-6b2d-4c05-8943-cbd16257ad7d","ios":"levelo://app?vid=f67ed7f6-6b2d-4c05-8943-cbd16257ad7d"},"vehicle_type_id":"4","last_reported":1700917637,"current_range_meters":12800,"station_id":"ce4bhs92rcd13ifvqi0g","pricing_plan_id":"free"},{"bike_id":"95825c38-6c59-4753-b43e-2f944bdb26b9","system_id":"levelo_inurba_marseille","lat":43.32835,"lon":5.3668,"is_reserved":false,"is_disabled":false,"rental_uris":{"android":"levelo://app?vid=95825c38-6c59-4753-b43e-2f944bdb26b9","ios":"levelo://app?vid=95825c38-6c59-4753-b43e-2f944bdb26b9"},"vehicle_type_id":"4","last_reported":1700917637,"current_range_meters":16000,"station_id":"ce4bhs92rcd13ifvqi0g","pricing_plan_id":"free"},{"bike_id":"6823e83e-b956-4974-bcd0-21d31215185e","system_id":"levelo_inurba_marseille","lat":43.297163,"lon":5.365866,"is_reserved":false,"is_disabled":false,"rental_uris":{"android":"levelo://app?vid=6823e83e-b956-4974-bcd0-21d31215185e","ios":"levelo://app?vid=6823e83e-b956-4974-bcd0-21d31215185e"},"vehicle_type_id":"4","last_reported":1700917637,"current_range_meters":16000,"station_id":"ce4bgn12rcd13ifvqbt0","pricing_plan_id":"free"},{"bike_id":"47fb327b-d450-4c62-b923-05c46f9681f0","system_id":"levelo_inurba_marseille","lat":43.2968,"lon":5.37291,"is_reserved":false,"is_disabled":false,"rental_uris":{"android":"levelo://app?vid=47fb327b-d450-4c62-b923-05c46f9681f0","ios":"levelo://app?vid=47fb327b-d450-4c62-b923-05c46f9681f0"},"vehicle_type_id":"4","last_reported":1700917637,"current_range_meters":25600,"station_id":"ce4bgk12rcd13ifvqbj0","pricing_plan_id":"free"},{"bike_id":"d5a8f000-fe71-457b-a948-f0c1c2e61bd1","system_id":"levelo_inurba_marseille","lat":43.296131,"lon":5.370773,"is_reserved":false,"is_disabled":false,"rental_uris":{"android":"levelo://app?vid=d5a8f000-fe71-457b-a948-f0c1c2e61bd1","ios":"levelo://app?vid=d5a8f000-fe71-457b-a948-f0c1c2e61bd1"},"vehicle_type_id":"4","last_reported":1700917637,"current_range_meters":17200,"station_id":"ce4bgnh2rcd13ifvqc0g","pricing_plan_id":"free"},{"bike_id":"e04f319c-cfff-486d-807f-158dca1e20c2","system_id":"levelo_inurba_marseille","lat":43.29573,"lon":5.367355,"is_reserved":false,"is_disabled":false,"rental_uris":{"android":"levelo://app?vid=e04f319c-cfff-486d-807f-158dca1e20c2","ios":"levelo://app?vid=e04f319c-cfff-486d-807f-158dca1e20c2"},"vehicle_type_id":"4","last_reported":1700917637,"current_range_meters":30800,"station_id":"ce4bgph2rcd13ifvqc2g","pricing_plan_id":"free"},{"bike_id":"efe46d5c-d828-4ab1-86a4-7f7e7e557a01","system_id":"levelo_inurba_marseille","lat":43.29573,"lon":5.367355,"is_reserved":false,"is_disabled":false,"rental_uris":{"android":"levelo://app?vid=efe46d5c-d828-4ab1-86a4-7f7e7e557a01","ios":"levelo://app?vid=efe46d5c-d828-4ab1-86a4-7f7e7e557a01"},"vehicle_type_id":"4","last_reported":1700917637,"current_range_meters":400,"station_id":"ce4bgph2rcd13ifvqc2g","pricing_plan_id":"free"},{"bike_id":"c257969f-624a-4ec3-9ff6-933d5e970979","system_id":"levelo_inurba_marseille","lat":43.29573,"lon":5.367355,"is_reserved":false,"is_disabled":false,"rental_uris":{"android":"levelo://app?vid=c257969f-624a-4ec3-9ff6-933d5e970979","ios":"levelo://app?vid=c257969f-624a-4ec3-9ff6-933d5e970979"},"vehicle_type_id":"4","last_reported":1700917637,"current_range_meters":19600,"station_id":"ce4bgph2rcd13ifvqc2g","pricing_plan_id":"free"},{"bike_id":"b0e9727e-f893-4d19-9210-285a5f44084f","system_id":"levelo_inurba_marseille","lat":43.296921,"lon":5.376579,"is_reserved":false,"is_disabled":false,"rental_uris":{"android":"levelo://app?vid=b0e9727e-f893-4d19-9210-285a5f44084f","ios":"levelo://app?vid=b0e9727e-f893-4d19-9210-285a5f44084f"},"vehicle_type_id":"4","last_reported":1700917637,"current_range_meters":22800,"station_id":"ce4bgkh2rcd13ifvqbl0","pricing_plan_id":"free"},{"bike_id":"2a8dc9bd-8f0b-42f9-9eac-4516de2805ec","system_id":"levelo_inurba_marseille","lat":43.296935,"lon":5.376544,"is_reserved":false,"is_disabled":false,"rental_uris":{"android":"levelo://app?vid=2a8dc9bd-8f0b-42f9-9eac-4516de2805ec","ios":"levelo://app?vid=2a8dc9bd-8f0b-42f9-9eac-4516de2805ec"},"vehicle_type_id":"4","last_reported":1700917637,"current_range_meters":24000,"station_id":"ce4bgkh2rcd13ifvqbl0","pricing_plan_id":"free"},{"bike_id":"d28846b4-98fe-4b99-b5b1-7ef2ffb06bf2","system_id":"levelo_inurba_marseille","lat":43.309589,"lon":5.390258,"is_reserved":false,"is_disabled":false,"rental_uris":{"android":"levelo://app?vid=d28846b4-98fe-4b99-b5b1-7ef2ffb06bf2","ios":"levelo://app?vid=d28846b4-98fe-4b99-b5b1-7ef2ffb06bf2"},"vehicle_type_id":"4","last_reported":1700917637,"current_range_meters":12800,"station_id":"ce4bgup2rcd13ifvqco0","pricing_plan_id":"free"},{"bike_id":"e3ddf8eb-9fd9-4ccf-ab08-b900dc71dbda","system_id":"levelo_inurba_marseille","lat":43.309589,"lon":5.390258,"is_reserved":false,"is_disabled":false,"rental_uris":{"android":"levelo://app?vid=e3ddf8eb-9fd9-4ccf-ab08-b900dc71dbda","ios":"levelo://app?vid=e3ddf8eb-9fd9-4ccf-ab08-b900dc71dbda"},"vehicle_type_id":"4","last_reported":1700917637,"current_range_meters":24800,"station_id":"ce4bgup2rcd13ifvqco0","pricing_plan_id":"free"},{"bike_id":"bb0c16d1-64cd-4832-aad5-13ede7a17c1a","system_id":"levelo_inurba_marseille","lat":43.296935,"lon":5.376544,"is_reserved":false,"is_disabled":false,"rental_uris":{"android":"levelo://app?vid=bb0c16d1-64cd-4832-aad5-13ede7a17c1a","ios":"levelo://app?vid=bb0c16d1-64cd-4832-aad5-13ede7a17c1a"},"vehicle_type_id":"4","last_reported":1700917637,"current_range_meters":3600,"station_id":"ce4bgkh2rcd13ifvqbl0","pricing_plan_id":"free"},{"bike_id":"3e39f29c-57d1-4728-a0c6-0eab88612c4d","system_id":"levelo_inurba_marseille","lat":43.296921,"lon":5.376579,"is_reserved":false,"is_disabled":false,"rental_uris":{"android":"levelo://app?vid=3e39f29c-57d1-4728-a0c6-0eab88612c4d","ios":"levelo://app?vid=3e39f29c-57d1-4728-a0c6-0eab88612c4d"},"vehicle_type_id":"4","last_reported":1700917637,"current_range_meters":21200,"station_id":"ce4bgkh2rcd13ifvqbl0","pricing_plan_id":"free"},{"bike_id":"f2669bf4-4b3e-4a92-ab1d-8f32824c20b2","system_id":"levelo_inurba_marseille","lat":43.309589,"lon":5.390258,"is_reserved":false,"is_disabled":false,"rental_uris":{"android":"levelo://app?vid=f2669bf4-4b3e-4a92-ab1d-8f32824c20b2","ios":"levelo://app?vid=f2669bf4-4b3e-4a92-ab1d-8f32824c20b2"},"vehicle_type_id":"4","last_reported":1700917637,"current_range_meters":12000,"station_id":"ce4bgup2rcd13ifvqco0","pricing_plan_id":"free"},{"bike_id":"79db08d7-c27f-497f-9bae-099123fafc3e","system_id":"levelo_inurba_marseille","lat":43.298433,"lon":5.362774,"is_reserved":false,"is_disabled":false,"rental_uris":{"android":"levelo://app?vid=79db08d7-c27f-497f-9bae-099123fafc3e","ios":"levelo://app?vid=79db08d7-c27f-497f-9bae-099123fafc3e"},"vehicle_type_id":"4","last_reported":1700917637,"current_range_meters":23600,"station_id":"ce4bgpp2rcd13ifvqc3g","pricing_plan_id":"free"},{"bike_id":"efa1f14f-855e-4da3-9368-817338ab7596","system_id":"levelo_inurba_marseille","lat":43.296263,"lon":5.377094,"is_reserved":false,"is_disabled":false,"rental_uris":{"android":"levelo://app?vid=efa1f14f-855e-4da3-9368-817338ab7596","ios":"levelo://app?vid=efa1f14f-855e-4da3-9368-817338ab7596"},"vehicle_type_id":"4","last_reported":1700917637,"current_range_meters":25600,"station_id":"ce4bgi92rcd13ifvqb90","pricing_plan_id":"free"},{"bike_id":"e5b9fe89-2bba-45ad-9844-69219c55f4a6","system_id":"levelo_inurba_marseille","lat":43.299707,"lon":5.384859,"is_reserved":false,"is_disabled":false,"rental_uris":{"android":"levelo://app?vid=e5b9fe89-2bba-45ad-9844-69219c55f4a6","ios":"levelo://app?vid=e5b9fe89-2bba-45ad-9844-69219c55f4a6"},"vehicle_type_id":"4","last_reported":1700917637,"current_range_meters":30000,"station_id":"ce4bgj92rcd13ifvqbd0","pricing_plan_id":"free"},{"bike_id":"72a5bd83-b492-4d92-a8eb-56265340ac63","system_id":"levelo_inurba_marseille","lat":43.299724,"lon":5.384848,"is_reserved":false,"is_disabled":false,"rental_uris":{"android":"levelo://app?vid=72a5bd83-b492-4d92-a8eb-56265340ac63","ios":"levelo://app?vid=72a5bd83-b492-4d92-a8eb-56265340ac63"},"vehicle_type_id":"4","last_reported":1700917637,"current_range_meters":10800,"station_id":"ce4bgj92rcd13ifvqbd0","pricing_plan_id":"free"},{"bike_id":"6b621983-5e9e-42f7-990d-ad5a093820d2","system_id":"levelo_inurba_marseille","lat":43.293801,"lon":5.363066,"is_reserved":false,"is_disabled":false,"rental_uris":{"android":"levelo://app?vid=6b621983-5e9e-42f7-990d-ad5a093820d2","ios":"levelo://app?vid=6b621983-5e9e-42f7-990d-ad5a093820d2"},"vehicle_type_id":"4","last_reported":1700917637,"current_range_meters":800,"station_id":"","pricing_plan_id":"free"},{"bike_id":"4cc7c3e1-fa5f-436e-9f10-aa2748506b5a","system_id":"levelo_inurba_marseille","lat":43.29601,"lon":5.381084,"is_reserved":false,"is_disabled":false,"rental_uris":{"android":"levelo://app?vid=4cc7c3e1-fa5f-436e-9f10-aa2748506b5a","ios":"levelo://app?vid=4cc7c3e1-fa5f-436e-9f10-aa2748506b5a"},"vehicle_type_id":"4","last_reported":1700917637,"current_range_meters":22800,"station_id":"ce4bgl12rcd13ifvqbo0","pricing_plan_id":"free"},{"bike_id":"8c4da8ad-38a9-41b5-ba4c-e648bf0a3389","system_id":"levelo_inurba_marseille","lat":43.29601,"lon":5.381084,"is_reserved":false,"is_disabled":false,"rental_uris":{"android":"levelo://app?vid=8c4da8ad-38a9-41b5-ba4c-e648bf0a3389","ios":"levelo://app?vid=8c4da8ad-38a9-41b5-ba4c-e648bf0a3389"},"vehicle_type_id":"4","last_reported":1700917637,"current_range_meters":9200,"station_id":"ce4bgl12rcd13ifvqbo0","pricing_plan_id":"free"},{"bike_id":"2a0f3a91-559b-4f21-9237-950faddf1577","system_id":"levelo_inurba_marseille","lat":43.29602,"lon":5.381084,"is_reserved":false,"is_disabled":false,"rental_uris":{"android":"levelo://app?vid=2a0f3a91-559b-4f21-9237-950faddf1577","ios":"levelo://app?vid=2a0f3a91-559b-4f21-9237-950faddf1577"},"vehicle_type_id":"4","last_reported":1700917637,"current_range_meters":29600,"station_id":"ce4bgl12rcd13ifvqbo0","pricing_plan_id":"free"},{"bike_id":"c08692de-893b-4842-ac6a-624a77fd78ec","system_id":"levelo_inurba_marseille","lat":43.32378,"lon":5.38939,"is_reserved":false,"is_disabled":false,"rental_uris":{"android":"levelo://app?vid=c08692de-893b-4842-ac6a-624a77fd78ec","ios":"levelo://app?vid=c08692de-893b-4842-ac6a-624a77fd78ec"},"vehicle_type_id":"4","last_reported":1700917637,"current_range_meters":3600,"station_id":"ce4bhqp2rcd13ifvqhog","pricing_plan_id":"free"},{"bike_id":"af10f356-134e-4294-a913-9143b13a9ae1","system_id":"levelo_inurba_marseille","lat":43.305994,"lon":5.393687,"is_reserved":false,"is_disabled":false,"rental_uris":{"android":"levelo://app?vid=af10f356-134e-4294-a913-9143b13a9ae1","ios":"levelo://app?vid=af10f356-134e-4294-a913-9143b13a9ae1"},"vehicle_type_id":"4","last_reported":1700917637,"current_range_meters":19600,"station_id":"ce4bh0p2rcd13ifvqd80","pricing_plan_id":"free"},{"bike_id":"5997a9c3-b2d9-4bf1-aab7-ad6fd6fad79c","system_id":"levelo_inurba_marseille","lat":43.2936,"lon":5.37835,"is_reserved":false,"is_disabled":false,"rental_uris":{"android":"levelo://app?vid=5997a9c3-b2d9-4bf1-aab7-ad6fd6fad79c","ios":"levelo://app?vid=5997a9c3-b2d9-4bf1-aab7-ad6fd6fad79c"},"vehicle_type_id":"4","last_reported":1700917637,"current_range_meters":19200,"station_id":"ce4bgjh2rcd13ifvqbf0","pricing_plan_id":"free"},{"bike_id":"134a8742-e9b1-45ad-8237-a78bd63a1149","system_id":"levelo_inurba_marseille","lat":43.30085,"lon":5.390856,"is_reserved":false,"is_disabled":false,"rental_uris":{"android":"levelo://app?vid=134a8742-e9b1-45ad-8237-a78bd63a1149","ios":"levelo://app?vid=134a8742-e9b1-45ad-8237-a78bd63a1149"},"vehicle_type_id":"4","last_reported":1700917637,"current_range_meters":7600,"station_id":"ce4bh192rcd13ifvqdb0","pricing_plan_id":"free"},{"bike_id":"7c79ef77-1064-4d57-82f9-9e36f0f06314","system_id":"levelo_inurba_marseille","lat":43.292311,"lon":5.360731,"is_reserved":false,"is_disabled":false,"rental_uris":{"android":"levelo://app?vid=7c79ef77-1064-4d57-82f9-9e36f0f06314","ios":"levelo://app?vid=7c79ef77-1064-4d57-82f9-9e36f0f06314"},"vehicle_type_id":"4","last_reported":1700917637,"current_range_meters":15600,"station_id":"ce4bhbh2rcd13ifvqeqg","pricing_plan_id":"free"},{"bike_id":"67ff6db3-f56b-4844-b87c-8d942eb51eb1","system_id":"levelo_inurba_marseille","lat":43.292311,"lon":5.360731,"is_reserved":false,"is_disabled":false,"rental_uris":{"android":"levelo://app?vid=67ff6db3-f56b-4844-b87c-8d942eb51eb1","ios":"levelo://app?vid=67ff6db3-f56b-4844-b87c-8d942eb51eb1"},"vehicle_type_id":"4","last_reported":1700917637,"current_range_meters":14400,"station_id":"ce4bhbh2rcd13ifvqeqg","pricing_plan_id":"free"},{"bike_id":"3da81a55-cde9-4f6a-906d-45fb8e5164f2","system_id":"levelo_inurba_marseille","lat":43.31324,"lon":5.39689,"is_reserved":false,"is_disabled":false,"rental_uris":{"android":"levelo://app?vid=3da81a55-cde9-4f6a-906d-45fb8e5164f2","ios":"levelo://app?vid=3da81a55-cde9-4f6a-906d-45fb8e5164f2"},"vehicle_type_id":"4","last_reported":1700917637,"current_range_meters":29200,"station_id":"ce4bgvp2rcd13ifvqcu0","pricing_plan_id":"free"},{"bike_id":"cbd1334b-213a-47ef-abd2-a759a55a8e5c","system_id":"levelo_inurba_marseille","lat":43.313291,"lon":5.396838,"is_reserved":false,"is_disabled":false,"rental_uris":{"android":"levelo://app?vid=cbd1334b-213a-47ef-abd2-a759a55a8e5c","ios":"levelo://app?vid=cbd1334b-213a-47ef-abd2-a759a55a8e5c"},"vehicle_type_id":"4","last_reported":1700917637,"current_range_meters":15200,"station_id":"ce4bgvp2rcd13ifvqcu0","pricing_plan_id":"free"},{"bike_id":"d258c452-983b-454c-995f-9bdec3736b63","system_id":"levelo_inurba_marseille","lat":43.31327,"lon":5.39691,"is_reserved":false,"is_disabled":false,"rental_uris":{"android":"levelo://app?vid=d258c452-983b-454c-995f-9bdec3736b63","ios":"levelo://app?vid=d258c452-983b-454c-995f-9bdec3736b63"},"vehicle_type_id":"4","last_reported":1700917637,"current_range_meters":18800,"station_id":"","pricing_plan_id":"free"},{"bike_id":"6ed3825c-32cf-408b-b3b1-c6801dd86f7e","system_id":"levelo_inurba_marseille","lat":43.313291,"lon":5.396838,"is_reserved":false,"is_disabled":false,"rental_uris":{"android":"levelo://app?vid=6ed3825c-32cf-408b-b3b1-c6801dd86f7e","ios":"levelo://app?vid=6ed3825c-32cf-408b-b3b1-c6801dd86f7e"},"vehicle_type_id":"4","last_reported":1700917637,"current_range_meters":21600,"station_id":"ce4bgvp2rcd13ifvqcu0","pricing_plan_id":"free"},{"bike_id":"08e318de-e6be-4d92-bb43-f34e2aee1130","system_id":"levelo_inurba_marseille","lat":43.313291,"lon":5.396838,"is_reserved":false,"is_disabled":false,"rental_uris":{"android":"levelo://app?vid=08e318de-e6be-4d92-bb43-f34e2aee1130","ios":"levelo://app?vid=08e318de-e6be-4d92-bb43-f34e2aee1130"},"vehicle_type_id":"4","last_reported":1700917637,"current_range_meters":25200,"station_id":"ce4bgvp2rcd13ifvqcu0","pricing_plan_id":"free"},{"bike_id":"cc855c93-8a14-410b-9e12-c947ee7a7399","system_id":"levelo_inurba_marseille","lat":43.291885,"lon":5.357963,"is_reserved":false,"is_disabled":false,"rental_uris":{"android":"levelo://app?vid=cc855c93-8a14-410b-9e12-c947ee7a7399","ios":"levelo://app?vid=cc855c93-8a14-410b-9e12-c947ee7a7399"},"vehicle_type_id":"4","last_reported":1700917637,"current_range_meters":0,"station_id":"ce4bhb12rcd13ifvqel0","pricing_plan_id":"free"},{"bike_id":"970005a8-1264-4ffd-87a3-53dfd72f5cd2","system_id":"levelo_inurba_marseille","lat":43.29529,"lon":5.385581,"is_reserved":false,"is_disabled":false,"rental_uris":{"android":"levelo://app?vid=970005a8-1264-4ffd-87a3-53dfd72f5cd2","ios":"levelo://app?vid=970005a8-1264-4ffd-87a3-53dfd72f5cd2"},"vehicle_type_id":"4","last_reported":1700917637,"current_range_meters":25600,"station_id":"ce4bgih2rcd13ifvqba0","pricing_plan_id":"free"},{"bike_id":"6fa6fb0c-6607-486b-a786-df42f39ee2d1","system_id":"levelo_inurba_marseille","lat":43.302008,"lon":5.394694,"is_reserved":false,"is_disabled":false,"rental_uris":{"android":"levelo://app?vid=6fa6fb0c-6607-486b-a786-df42f39ee2d1","ios":"levelo://app?vid=6fa6fb0c-6607-486b-a786-df42f39ee2d1"},"vehicle_type_id":"4","last_reported":1700917637,"current_range_meters":20400,"station_id":"ce4bh0p2rcd13ifvqd70","pricing_plan_id":"free"},{"bike_id":"2ee8fa13-81c8-479c-9ae0-98dc1f7a8274","system_id":"levelo_inurba_marseille","lat":43.290631,"lon":5.359244,"is_reserved":false,"is_disabled":false,"rental_uris":{"android":"levelo://app?vid=2ee8fa13-81c8-479c-9ae0-98dc1f7a8274","ios":"levelo://app?vid=2ee8fa13-81c8-479c-9ae0-98dc1f7a8274"},"vehicle_type_id":"4","last_reported":1700917637,"current_range_meters":22000,"station_id":"ce4bha92rcd13ifvqeg0","pricing_plan_id":"free"},{"bike_id":"58a1f65a-cd62-4d90-945c-0c87883e8c66","system_id":"levelo_inurba_marseille","lat":43.290631,"lon":5.359244,"is_reserved":false,"is_disabled":false,"rental_uris":{"android":"levelo://app?vid=58a1f65a-cd62-4d90-945c-0c87883e8c66","ios":"levelo://app?vid=58a1f65a-cd62-4d90-945c-0c87883e8c66"},"vehicle_type_id":"4","last_reported":1700917637,"current_range_meters":18800,"station_id":"ce4bha92rcd13ifvqeg0","pricing_plan_id":"free"},{"bike_id":"1b2446a0-4355-4ea9-8d73-be1fd2280515","system_id":"levelo_inurba_marseille","lat":43.294153,"lon":5.386305,"is_reserved":false,"is_disabled":false,"rental_uris":{"android":"levelo://app?vid=1b2446a0-4355-4ea9-8d73-be1fd2280515","ios":"levelo://app?vid=1b2446a0-4355-4ea9-8d73-be1fd2280515"},"vehicle_type_id":"4","last_reported":1700917637,"current_range_meters":27600,"station_id":"ce4bh2h2rcd13ifvqdh0","pricing_plan_id":"free"},{"bike_id":"723ffb4c-4cd3-4d0b-a02b-d3716dd33efd","system_id":"levelo_inurba_marseille","lat":43.294162,"lon":5.386292,"is_reserved":false,"is_disabled":false,"rental_uris":{"android":"levelo://app?vid=723ffb4c-4cd3-4d0b-a02b-d3716dd33efd","ios":"levelo://app?vid=723ffb4c-4cd3-4d0b-a02b-d3716dd33efd"},"vehicle_type_id":"4","last_reported":1700917637,"current_range_meters":27200,"station_id":"ce4bh2h2rcd13ifvqdh0","pricing_plan_id":"free"},{"bike_id":"b683d91d-02b4-428f-a004-cbdc73417ebc","system_id":"levelo_inurba_marseille","lat":43.294153,"lon":5.386305,"is_reserved":false,"is_disabled":false,"rental_uris":{"android":"levelo://app?vid=b683d91d-02b4-428f-a004-cbdc73417ebc","ios":"levelo://app?vid=b683d91d-02b4-428f-a004-cbdc73417ebc"},"vehicle_type_id":"4","last_reported":1700917637,"current_range_meters":9200,"station_id":"ce4bh2h2rcd13ifvqdh0","pricing_plan_id":"free"},{"bike_id":"472a6a25-689f-41d7-9f12-27b976e0900c","system_id":"levelo_inurba_marseille","lat":43.289184,"lon":5.366408,"is_reserved":false,"is_disabled":false,"rental_uris":{"android":"levelo://app?vid=472a6a25-689f-41d7-9f12-27b976e0900c","ios":"levelo://app?vid=472a6a25-689f-41d7-9f12-27b976e0900c"},"vehicle_type_id":"4","last_reported":1700917637,"current_range_meters":24000,"station_id":"ce4bhap2rcd13ifvqek0","pricing_plan_id":"free"},{"bike_id":"ae0ef494-f222-49f8-b108-77184096041b","system_id":"levelo_inurba_marseille","lat":43.289184,"lon":5.366408,"is_reserved":false,"is_disabled":false,"rental_uris":{"android":"levelo://app?vid=ae0ef494-f222-49f8-b108-77184096041b","ios":"levelo://app?vid=ae0ef494-f222-49f8-b108-77184096041b"},"vehicle_type_id":"4","last_reported":1700917637,"current_range_meters":10000,"station_id":"ce4bhap2rcd13ifvqek0","pricing_plan_id":"free"},{"bike_id":"cce7e8de-b4b8-4fee-bcb2-c92f1037674b","system_id":"levelo_inurba_marseille","lat":43.289184,"lon":5.366408,"is_reserved":false,"is_disabled":false,"rental_uris":{"android":"levelo://app?vid=cce7e8de-b4b8-4fee-bcb2-c92f1037674b","ios":"levelo://app?vid=cce7e8de-b4b8-4fee-bcb2-c92f1037674b"},"vehicle_type_id":"4","last_reported":1700917637,"current_range_meters":28800,"station_id":"ce4bhap2rcd13ifvqek0","pricing_plan_id":"free"},{"bike_id":"4ecd3456-4161-4628-9d37-d3e99454f6e6","system_id":"levelo_inurba_marseille","lat":43.290103,"lon":5.356114,"is_reserved":false,"is_disabled":false,"rental_uris":{"android":"levelo://app?vid=4ecd3456-4161-4628-9d37-d3e99454f6e6","ios":"levelo://app?vid=4ecd3456-4161-4628-9d37-d3e99454f6e6"},"vehicle_type_id":"4","last_reported":1700917637,"current_range_meters":24400,"station_id":"ce4bhb92rcd13ifvqen0","pricing_plan_id":"free"},{"bike_id":"6f32cb0e-fe69-49f7-8e50-dfd659209365","system_id":"levelo_inurba_marseille","lat":43.289743,"lon":5.378304,"is_reserved":false,"is_disabled":false,"rental_uris":{"android":"levelo://app?vid=6f32cb0e-fe69-49f7-8e50-dfd659209365","ios":"levelo://app?vid=6f32cb0e-fe69-49f7-8e50-dfd659209365"},"vehicle_type_id":"4","last_reported":1700917637,"current_range_meters":28000,"station_id":"ce4bh9p2rcd13ifvqed0","pricing_plan_id":"free"},{"bike_id":"ce2708f8-d0d9-43a9-a984-b57105da1157","system_id":"levelo_inurba_marseille","lat":43.289741,"lon":5.378306,"is_reserved":false,"is_disabled":false,"rental_uris":{"android":"levelo://app?vid=ce2708f8-d0d9-43a9-a984-b57105da1157","ios":"levelo://app?vid=ce2708f8-d0d9-43a9-a984-b57105da1157"},"vehicle_type_id":"4","last_reported":1700917637,"current_range_meters":21600,"station_id":"ce4bh9p2rcd13ifvqed0","pricing_plan_id":"free"},{"bike_id":"2b23f38a-1831-49fe-a943-86c9ec15f136","system_id":"levelo_inurba_marseille","lat":43.33736,"lon":5.37466,"is_reserved":false,"is_disabled":false,"rental_uris":{"android":"levelo://app?vid=2b23f38a-1831-49fe-a943-86c9ec15f136","ios":"levelo://app?vid=2b23f38a-1831-49fe-a943-86c9ec15f136"},"vehicle_type_id":"4","last_reported":1700917637,"current_range_meters":2800,"station_id":"","pricing_plan_id":"free"},{"bike_id":"6d3380cd-34a6-405f-9e14-9dfad01eb06b","system_id":"levelo_inurba_marseille","lat":43.31277,"lon":5.4017,"is_reserved":false,"is_disabled":false,"rental_uris":{"android":"levelo://app?vid=6d3380cd-34a6-405f-9e14-9dfad01eb06b","ios":"levelo://app?vid=6d3380cd-34a6-405f-9e14-9dfad01eb06b"},"vehicle_type_id":"4","last_reported":1700917637,"current_range_meters":25600,"station_id":"ce4bh092rcd13ifvqd30","pricing_plan_id":"free"},{"bike_id":"c1ebbdf6-241f-4370-a73c-7ba184d1658b","system_id":"levelo_inurba_marseille","lat":43.30642,"lon":5.401031,"is_reserved":false,"is_disabled":false,"rental_uris":{"android":"levelo://app?vid=c1ebbdf6-241f-4370-a73c-7ba184d1658b","ios":"levelo://app?vid=c1ebbdf6-241f-4370-a73c-7ba184d1658b"},"vehicle_type_id":"4","last_reported":1700917637,"current_range_meters":23600,"station_id":"ce4bh112rcd13ifvqda0","pricing_plan_id":"free"},{"bike_id":"108d71b6-98d6-4e0e-97c0-c738740c58ab","system_id":"levelo_inurba_marseille","lat":43.301117,"lon":5.398795,"is_reserved":false,"is_disabled":false,"rental_uris":{"android":"levelo://app?vid=108d71b6-98d6-4e0e-97c0-c738740c58ab","ios":"levelo://app?vid=108d71b6-98d6-4e0e-97c0-c738740c58ab"},"vehicle_type_id":"4","last_reported":1700917637,"current_range_meters":9600,"station_id":"ce4bh0h2rcd13ifvqd40","pricing_plan_id":"free"},{"bike_id":"fb795198-f6d2-44a4-a994-6a2dd39ed069","system_id":"levelo_inurba_marseille","lat":43.286591,"lon":5.363346,"is_reserved":false,"is_disabled":false,"rental_uris":{"android":"levelo://app?vid=fb795198-f6d2-44a4-a994-6a2dd39ed069","ios":"levelo://app?vid=fb795198-f6d2-44a4-a994-6a2dd39ed069"},"vehicle_type_id":"4","last_reported":1700917637,"current_range_meters":30400,"station_id":"ce4bhah2rcd13ifvqej0","pricing_plan_id":"free"},{"bike_id":"19625d22-a027-488e-81db-87fbae590e0d","system_id":"levelo_inurba_marseille","lat":43.286593,"lon":5.363346,"is_reserved":false,"is_disabled":false,"rental_uris":{"android":"levelo://app?vid=19625d22-a027-488e-81db-87fbae590e0d","ios":"levelo://app?vid=19625d22-a027-488e-81db-87fbae590e0d"},"vehicle_type_id":"4","last_reported":1700917637,"current_range_meters":28000,"station_id":"ce4bhah2rcd13ifvqej0","pricing_plan_id":"free"},{"bike_id":"0bdba9d9-d0bb-4fca-8f63-9a9cf684d57c","system_id":"levelo_inurba_marseille","lat":43.286039,"lon":5.370679,"is_reserved":false,"is_disabled":false,"rental_uris":{"android":"levelo://app?vid=0bdba9d9-d0bb-4fca-8f63-9a9cf684d57c","ios":"levelo://app?vid=0bdba9d9-d0bb-4fca-8f63-9a9cf684d57c"},"vehicle_type_id":"4","last_reported":1700917637,"current_range_meters":24400,"station_id":"ce4bht12rcd13ifvqi60","pricing_plan_id":"free"},{"bike_id":"a114aae6-8ceb-4886-b20a-6780de28c969","system_id":"levelo_inurba_marseille","lat":43.286039,"lon":5.370679,"is_reserved":false,"is_disabled":false,"rental_uris":{"android":"levelo://app?vid=a114aae6-8ceb-4886-b20a-6780de28c969","ios":"levelo://app?vid=a114aae6-8ceb-4886-b20a-6780de28c969"},"vehicle_type_id":"4","last_reported":1700917637,"current_range_meters":31600,"station_id":"ce4bht12rcd13ifvqi60","pricing_plan_id":"free"},{"bike_id":"c7405175-a7bf-4736-84f1-15fd1a6a9766","system_id":"levelo_inurba_marseille","lat":43.286039,"lon":5.370679,"is_reserved":false,"is_disabled":false,"rental_uris":{"android":"levelo://app?vid=c7405175-a7bf-4736-84f1-15fd1a6a9766","ios":"levelo://app?vid=c7405175-a7bf-4736-84f1-15fd1a6a9766"},"vehicle_type_id":"4","last_reported":1700917637,"current_range_meters":21600,"station_id":"ce4bht12rcd13ifvqi60","pricing_plan_id":"free"},{"bike_id":"a7954de4-238a-481e-81fc-ebde1787de1f","system_id":"levelo_inurba_marseille","lat":43.287184,"lon":5.37937,"is_reserved":false,"is_disabled":false,"rental_uris":{"android":"levelo://app?vid=a7954de4-238a-481e-81fc-ebde1787de1f","ios":"levelo://app?vid=a7954de4-238a-481e-81fc-ebde1787de1f"},"vehicle_type_id":"4","last_reported":1700917637,"current_range_meters":11600,"station_id":"ce4bh9p2rcd13ifvqec0","pricing_plan_id":"free"},{"bike_id":"5d92e8b9-11a0-4568-9c92-a63d0b8350c8","system_id":"levelo_inurba_marseille","lat":43.287184,"lon":5.37937,"is_reserved":false,"is_disabled":false,"rental_uris":{"android":"levelo://app?vid=5d92e8b9-11a0-4568-9c92-a63d0b8350c8","ios":"levelo://app?vid=5d92e8b9-11a0-4568-9c92-a63d0b8350c8"},"vehicle_type_id":"4","last_reported":1700917637,"current_range_meters":26400,"station_id":"ce4bh9p2rcd13ifvqec0","pricing_plan_id":"free"},{"bike_id":"bd98559b-af43-4ee2-90a4-4e5439233b22","system_id":"levelo_inurba_marseille","lat":43.29209,"lon":5.39328,"is_reserved":false,"is_disabled":false,"rental_uris":{"android":"levelo://app?vid=bd98559b-af43-4ee2-90a4-4e5439233b22","ios":"levelo://app?vid=bd98559b-af43-4ee2-90a4-4e5439233b22"},"vehicle_type_id":"4","last_reported":1700917637,"current_range_meters":22000,"station_id":"ce4bh192rcd13ifvqdd0","pricing_plan_id":"free"},{"bike_id":"5c26564b-c07c-4643-948e-d9eaf1f9b2c4","system_id":"levelo_inurba_marseille","lat":43.284538,"lon":5.358657,"is_reserved":false,"is_disabled":false,"rental_uris":{"android":"levelo://app?vid=5c26564b-c07c-4643-948e-d9eaf1f9b2c4","ios":"levelo://app?vid=5c26564b-c07c-4643-948e-d9eaf1f9b2c4"},"vehicle_type_id":"4","last_reported":1700917637,"current_range_meters":25600,"station_id":"ce4bhah2rcd13ifvqei0","pricing_plan_id":"free"},{"bike_id":"29f02d63-abd7-4e3d-955a-ba0367ce5681","system_id":"levelo_inurba_marseille","lat":43.284538,"lon":5.358657,"is_reserved":false,"is_disabled":false,"rental_uris":{"android":"levelo://app?vid=29f02d63-abd7-4e3d-955a-ba0367ce5681","ios":"levelo://app?vid=29f02d63-abd7-4e3d-955a-ba0367ce5681"},"vehicle_type_id":"4","last_reported":1700917637,"current_range_meters":400,"station_id":"ce4bhah2rcd13ifvqei0","pricing_plan_id":"free"},{"bike_id":"8e61a4ec-b78b-4bfc-9664-cb681f0ccdb3","system_id":"levelo_inurba_marseille","lat":43.284534,"lon":5.358662,"is_reserved":false,"is_disabled":false,"rental_uris":{"android":"levelo://app?vid=8e61a4ec-b78b-4bfc-9664-cb681f0ccdb3","ios":"levelo://app?vid=8e61a4ec-b78b-4bfc-9664-cb681f0ccdb3"},"vehicle_type_id":"4","last_reported":1700917637,"current_range_meters":14000,"station_id":"ce4bhah2rcd13ifvqei0","pricing_plan_id":"free"},{"bike_id":"cbb50cea-eb67-417d-a769-cb0e807d7915","system_id":"levelo_inurba_marseille","lat":43.297946,"lon":5.404063,"is_reserved":false,"is_disabled":false,"rental_uris":{"android":"levelo://app?vid=cbb50cea-eb67-417d-a769-cb0e807d7915","ios":"levelo://app?vid=cbb50cea-eb67-417d-a769-cb0e807d7915"},"vehicle_type_id":"4","last_reported":1700917637,"current_range_meters":27200,"station_id":"ce4bh112rcd13ifvqd90","pricing_plan_id":"free"},{"bike_id":"3f066187-e263-4881-8ff6-d18fc08cd2fd","system_id":"levelo_inurba_marseille","lat":43.29609,"lon":5.40035,"is_reserved":false,"is_disabled":false,"rental_uris":{"android":"levelo://app?vid=3f066187-e263-4881-8ff6-d18fc08cd2fd","ios":"levelo://app?vid=3f066187-e263-4881-8ff6-d18fc08cd2fd"},"vehicle_type_id":"4","last_reported":1700917637,"current_range_meters":22800,"station_id":"","pricing_plan_id":"free"},{"bike_id":"881395d3-68ef-4995-9fdb-f0e139e41a64","system_id":"levelo_inurba_marseille","lat":43.286595,"lon":5.386795,"is_reserved":false,"is_disabled":false,"rental_uris":{"android":"levelo://app?vid=881395d3-68ef-4995-9fdb-f0e139e41a64","ios":"levelo://app?vid=881395d3-68ef-4995-9fdb-f0e139e41a64"},"vehicle_type_id":"4","last_reported":1700917637,"current_range_meters":11200,"station_id":"ce4bh492rcd13ifvqdug","pricing_plan_id":"free"},{"bike_id":"2f5ad77e-8883-43e8-8b82-85e232a0b505","system_id":"levelo_inurba_marseille","lat":43.29795,"lon":5.404086,"is_reserved":false,"is_disabled":false,"rental_uris":{"android":"levelo://app?vid=2f5ad77e-8883-43e8-8b82-85e232a0b505","ios":"levelo://app?vid=2f5ad77e-8883-43e8-8b82-85e232a0b505"},"vehicle_type_id":"4","last_reported":1700917637,"current_range_meters":28000,"station_id":"ce4bh112rcd13ifvqd90","pricing_plan_id":"free"},{"bike_id":"8cbecb8a-d5e9-4aa2-a459-a2fe1c4a267d","system_id":"levelo_inurba_marseille","lat":43.288501,"lon":5.393087,"is_reserved":false,"is_disabled":false,"rental_uris":{"android":"levelo://app?vid=8cbecb8a-d5e9-4aa2-a459-a2fe1c4a267d","ios":"levelo://app?vid=8cbecb8a-d5e9-4aa2-a459-a2fe1c4a267d"},"vehicle_type_id":"4","last_reported":1700917637,"current_range_meters":7200,"station_id":"ce4bh2p2rcd13ifvqdi0","pricing_plan_id":"free"},{"bike_id":"e2284003-4e46-4e0a-93e7-73d05c3666d9","system_id":"levelo_inurba_marseille","lat":43.33508,"lon":5.397755,"is_reserved":false,"is_disabled":false,"rental_uris":{"android":"levelo://app?vid=e2284003-4e46-4e0a-93e7-73d05c3666d9","ios":"levelo://app?vid=e2284003-4e46-4e0a-93e7-73d05c3666d9"},"vehicle_type_id":"4","last_reported":1700917637,"current_range_meters":22400,"station_id":"","pricing_plan_id":"free"},{"bike_id":"85f990b4-56cc-495b-a158-f97e3e163b2e","system_id":"levelo_inurba_marseille","lat":43.282754,"lon":5.350519,"is_reserved":false,"is_disabled":false,"rental_uris":{"android":"levelo://app?vid=85f990b4-56cc-495b-a158-f97e3e163b2e","ios":"levelo://app?vid=85f990b4-56cc-495b-a158-f97e3e163b2e"},"vehicle_type_id":"4","last_reported":1700917637,"current_range_meters":7600,"station_id":"ce4bhbp2rcd13ifvqerg","pricing_plan_id":"free"},{"bike_id":"84faa65a-7f66-46cb-bb08-a8e550a2c41d","system_id":"levelo_inurba_marseille","lat":43.283502,"lon":5.386471,"is_reserved":false,"is_disabled":false,"rental_uris":{"android":"levelo://app?vid=84faa65a-7f66-46cb-bb08-a8e550a2c41d","ios":"levelo://app?vid=84faa65a-7f66-46cb-bb08-a8e550a2c41d"},"vehicle_type_id":"4","last_reported":1700917637,"current_range_meters":21200,"station_id":"ce4bh492rcd13ifvqdvg","pricing_plan_id":"free"},{"bike_id":"ebbe83b1-d852-484d-966c-98cc8da66fae","system_id":"levelo_inurba_marseille","lat":43.282754,"lon":5.350519,"is_reserved":false,"is_disabled":false,"rental_uris":{"android":"levelo://app?vid=ebbe83b1-d852-484d-966c-98cc8da66fae","ios":"levelo://app?vid=ebbe83b1-d852-484d-966c-98cc8da66fae"},"vehicle_type_id":"4","last_reported":1700917637,"current_range_meters":16000,"station_id":"ce4bhbp2rcd13ifvqerg","pricing_plan_id":"free"},{"bike_id":"6c124473-587f-41f5-b201-fb33060c2f82","system_id":"levelo_inurba_marseille","lat":43.28043,"lon":5.36939,"is_reserved":false,"is_disabled":false,"rental_uris":{"android":"levelo://app?vid=6c124473-587f-41f5-b201-fb33060c2f82","ios":"levelo://app?vid=6c124473-587f-41f5-b201-fb33060c2f82"},"vehicle_type_id":"4","last_reported":1700917637,"current_range_meters":2000,"station_id":"ce4bha12rcd13ifvqef0","pricing_plan_id":"free"},{"bike_id":"8d26ebb1-4696-4523-943d-d1120dc0e7a2","system_id":"levelo_inurba_marseille","lat":43.28039,"lon":5.369297,"is_reserved":false,"is_disabled":false,"rental_uris":{"android":"levelo://app?vid=8d26ebb1-4696-4523-943d-d1120dc0e7a2","ios":"levelo://app?vid=8d26ebb1-4696-4523-943d-d1120dc0e7a2"},"vehicle_type_id":"4","last_reported":1700917637,"current_range_meters":14000,"station_id":"ce4bha12rcd13ifvqef0","pricing_plan_id":"free"},{"bike_id":"509b8f74-53b7-4776-8f70-b15efa089d8e","system_id":"levelo_inurba_marseille","lat":43.28039,"lon":5.369297,"is_reserved":false,"is_disabled":false,"rental_uris":{"android":"levelo://app?vid=509b8f74-53b7-4776-8f70-b15efa089d8e","ios":"levelo://app?vid=509b8f74-53b7-4776-8f70-b15efa089d8e"},"vehicle_type_id":"4","last_reported":1700917637,"current_range_meters":26000,"station_id":"ce4bha12rcd13ifvqef0","pricing_plan_id":"free"},{"bike_id":"1dfbd59b-31e6-4e08-84bd-70faa50150a3","system_id":"levelo_inurba_marseille","lat":43.280382,"lon":5.369291,"is_reserved":false,"is_disabled":false,"rental_uris":{"android":"levelo://app?vid=1dfbd59b-31e6-4e08-84bd-70faa50150a3","ios":"levelo://app?vid=1dfbd59b-31e6-4e08-84bd-70faa50150a3"},"vehicle_type_id":"4","last_reported":1700917637,"current_range_meters":12800,"station_id":"ce4bha12rcd13ifvqef0","pricing_plan_id":"free"},{"bike_id":"a00a4e98-46a8-48ff-9344-4bf0c2a35df8","system_id":"levelo_inurba_marseille","lat":43.290412,"lon":5.399633,"is_reserved":false,"is_disabled":false,"rental_uris":{"android":"levelo://app?vid=a00a4e98-46a8-48ff-9344-4bf0c2a35df8","ios":"levelo://app?vid=a00a4e98-46a8-48ff-9344-4bf0c2a35df8"},"vehicle_type_id":"4","last_reported":1700917637,"current_range_meters":18400,"station_id":"ce4bh392rcd13ifvqdm0","pricing_plan_id":"free"},{"bike_id":"a03f6f5f-a4c4-48cf-ac6a-9472f6137696","system_id":"levelo_inurba_marseille","lat":43.281044,"lon":5.378308,"is_reserved":false,"is_disabled":false,"rental_uris":{"android":"levelo://app?vid=a03f6f5f-a4c4-48cf-ac6a-9472f6137696","ios":"levelo://app?vid=a03f6f5f-a4c4-48cf-ac6a-9472f6137696"},"vehicle_type_id":"4","last_reported":1700917637,"current_range_meters":18400,"station_id":"ce4bha12rcd13ifvqee0","pricing_plan_id":"free"},{"bike_id":"71a4e9aa-26e1-4118-8063-2c225c0d697f","system_id":"levelo_inurba_marseille","lat":43.28573,"lon":5.394992,"is_reserved":false,"is_disabled":false,"rental_uris":{"android":"levelo://app?vid=71a4e9aa-26e1-4118-8063-2c225c0d697f","ios":"levelo://app?vid=71a4e9aa-26e1-4118-8063-2c225c0d697f"},"vehicle_type_id":"4","last_reported":1700917637,"current_range_meters":31200,"station_id":"ce4bh292rcd13ifvqdg0","pricing_plan_id":"free"},{"bike_id":"026fdd0a-f873-40cb-a96b-63afcdeff60b","system_id":"levelo_inurba_marseille","lat":43.28573,"lon":5.394992,"is_reserved":false,"is_disabled":false,"rental_uris":{"android":"levelo://app?vid=026fdd0a-f873-40cb-a96b-63afcdeff60b","ios":"levelo://app?vid=026fdd0a-f873-40cb-a96b-63afcdeff60b"},"vehicle_type_id":"4","last_reported":1700917637,"current_range_meters":18800,"station_id":"ce4bh292rcd13ifvqdg0","pricing_plan_id":"free"},{"bike_id":"21b69c99-16a6-49e1-9b9a-efc354b5eabe","system_id":"levelo_inurba_marseille","lat":43.304188,"lon":5.412904,"is_reserved":false,"is_disabled":false,"rental_uris":{"android":"levelo://app?vid=21b69c99-16a6-49e1-9b9a-efc354b5eabe","ios":"levelo://app?vid=21b69c99-16a6-49e1-9b9a-efc354b5eabe"},"vehicle_type_id":"4","last_reported":1700917637,"current_range_meters":2000,"station_id":"ce4bhop2rcd13ifvqh8g","pricing_plan_id":"free"},{"bike_id":"9fedd3dd-4e80-4824-ac2c-7d42bc0d2622","system_id":"levelo_inurba_marseille","lat":43.279087,"lon":5.380114,"is_reserved":false,"is_disabled":false,"rental_uris":{"android":"levelo://app?vid=9fedd3dd-4e80-4824-ac2c-7d42bc0d2622","ios":"levelo://app?vid=9fedd3dd-4e80-4824-ac2c-7d42bc0d2622"},"vehicle_type_id":"4","last_reported":1700917637,"current_range_meters":31200,"station_id":"ce4bhf92rcd13ifvqf50","pricing_plan_id":"free"},{"bike_id":"d690f06d-3abc-41a6-ac72-cc5703f6353d","system_id":"levelo_inurba_marseille","lat":43.299579,"lon":5.413255,"is_reserved":false,"is_disabled":false,"rental_uris":{"android":"levelo://app?vid=d690f06d-3abc-41a6-ac72-cc5703f6353d","ios":"levelo://app?vid=d690f06d-3abc-41a6-ac72-cc5703f6353d"},"vehicle_type_id":"4","last_reported":1700917637,"current_range_meters":31200,"station_id":"ce4bhp12rcd13ifvqh9g","pricing_plan_id":"free"},{"bike_id":"5188ffe9-2845-40b9-9990-ae0b356840d1","system_id":"levelo_inurba_marseille","lat":43.320045,"lon":5.415048,"is_reserved":false,"is_disabled":false,"rental_uris":{"android":"levelo://app?vid=5188ffe9-2845-40b9-9990-ae0b356840d1","ios":"levelo://app?vid=5188ffe9-2845-40b9-9990-ae0b356840d1"},"vehicle_type_id":"4","last_reported":1700917637,"current_range_meters":12800,"station_id":"ce4bhq92rcd13ifvqhkg","pricing_plan_id":"free"},{"bike_id":"0a00d757-9674-4c0b-b307-dbfbe9e7a2b2","system_id":"levelo_inurba_marseille","lat":43.320045,"lon":5.415046,"is_reserved":false,"is_disabled":false,"rental_uris":{"android":"levelo://app?vid=0a00d757-9674-4c0b-b307-dbfbe9e7a2b2","ios":"levelo://app?vid=0a00d757-9674-4c0b-b307-dbfbe9e7a2b2"},"vehicle_type_id":"4","last_reported":1700917637,"current_range_meters":24800,"station_id":"ce4bhq92rcd13ifvqhkg","pricing_plan_id":"free"},{"bike_id":"c25ea147-e804-4786-9d25-91f61a8ed59a","system_id":"levelo_inurba_marseille","lat":43.293651,"lon":5.41268,"is_reserved":false,"is_disabled":false,"rental_uris":{"android":"levelo://app?vid=c25ea147-e804-4786-9d25-91f61a8ed59a","ios":"levelo://app?vid=c25ea147-e804-4786-9d25-91f61a8ed59a"},"vehicle_type_id":"4","last_reported":1700917637,"current_range_meters":0,"station_id":"","pricing_plan_id":"free"},{"bike_id":"5d5ac311-b9ba-4673-ba04-8c2b02d7b37a","system_id":"levelo_inurba_marseille","lat":43.280784,"lon":5.396622,"is_reserved":false,"is_disabled":false,"rental_uris":{"android":"levelo://app?vid=5d5ac311-b9ba-4673-ba04-8c2b02d7b37a","ios":"levelo://app?vid=5d5ac311-b9ba-4673-ba04-8c2b02d7b37a"},"vehicle_type_id":"4","last_reported":1700917637,"current_range_meters":27600,"station_id":"ce4bho12rcd13ifvqh2g","pricing_plan_id":"free"},{"bike_id":"8670ca7b-285a-4814-b162-7cbb021d4da6","system_id":"levelo_inurba_marseille","lat":43.278401,"lon":5.392152,"is_reserved":false,"is_disabled":false,"rental_uris":{"android":"levelo://app?vid=8670ca7b-285a-4814-b162-7cbb021d4da6","ios":"levelo://app?vid=8670ca7b-285a-4814-b162-7cbb021d4da6"},"vehicle_type_id":"4","last_reported":1700917637,"current_range_meters":12400,"station_id":"ce4bhjp2rcd13ifvqga0","pricing_plan_id":"free"},{"bike_id":"0b1bcf62-dee8-4f9f-8b8f-29f463c114f8","system_id":"levelo_inurba_marseille","lat":43.278399,"lon":5.392139,"is_reserved":false,"is_disabled":false,"rental_uris":{"android":"levelo://app?vid=0b1bcf62-dee8-4f9f-8b8f-29f463c114f8","ios":"levelo://app?vid=0b1bcf62-dee8-4f9f-8b8f-29f463c114f8"},"vehicle_type_id":"4","last_reported":1700917637,"current_range_meters":14400,"station_id":"ce4bhjp2rcd13ifvqga0","pricing_plan_id":"free"},{"bike_id":"dfe8d0a2-b335-4dac-8701-3cc04ff74909","system_id":"levelo_inurba_marseille","lat":43.275625,"lon":5.384392,"is_reserved":false,"is_disabled":false,"rental_uris":{"android":"levelo://app?vid=dfe8d0a2-b335-4dac-8701-3cc04ff74909","ios":"levelo://app?vid=dfe8d0a2-b335-4dac-8701-3cc04ff74909"},"vehicle_type_id":"4","last_reported":1700917637,"current_range_meters":22000,"station_id":"ce4bhh92rcd13ifvqfi0","pricing_plan_id":"free"},{"bike_id":"01da612a-be08-4fd8-8ee4-35a1e02f0ba4","system_id":"levelo_inurba_marseille","lat":43.273613,"lon":5.362705,"is_reserved":false,"is_disabled":false,"rental_uris":{"android":"levelo://app?vid=01da612a-be08-4fd8-8ee4-35a1e02f0ba4","ios":"levelo://app?vid=01da612a-be08-4fd8-8ee4-35a1e02f0ba4"},"vehicle_type_id":"4","last_reported":1700917637,"current_range_meters":25600,"station_id":"ce4bhbh2rcd13ifvqeo0","pricing_plan_id":"free"},{"bike_id":"9b04727e-afbb-44e0-b1ff-0ebd3e38ec7b","system_id":"levelo_inurba_marseille","lat":43.33612,"lon":5.410321,"is_reserved":false,"is_disabled":false,"rental_uris":{"android":"levelo://app?vid=9b04727e-afbb-44e0-b1ff-0ebd3e38ec7b","ios":"levelo://app?vid=9b04727e-afbb-44e0-b1ff-0ebd3e38ec7b"},"vehicle_type_id":"4","last_reported":1700917637,"current_range_meters":11200,"station_id":"ce4bhqh2rcd13ifvqhmg","pricing_plan_id":"free"},{"bike_id":"5a5efdd6-6bd8-4276-ba71-296aa9e70631","system_id":"levelo_inurba_marseille","lat":43.33612,"lon":5.410321,"is_reserved":false,"is_disabled":false,"rental_uris":{"android":"levelo://app?vid=5a5efdd6-6bd8-4276-ba71-296aa9e70631","ios":"levelo://app?vid=5a5efdd6-6bd8-4276-ba71-296aa9e70631"},"vehicle_type_id":"4","last_reported":1700917637,"current_range_meters":17200,"station_id":"ce4bhqh2rcd13ifvqhmg","pricing_plan_id":"free"},{"bike_id":"91897150-b96d-4815-a5a4-fd580b4a552d","system_id":"levelo_inurba_marseille","lat":43.276769,"lon":5.388787,"is_reserved":false,"is_disabled":false,"rental_uris":{"android":"levelo://app?vid=91897150-b96d-4815-a5a4-fd580b4a552d","ios":"levelo://app?vid=91897150-b96d-4815-a5a4-fd580b4a552d"},"vehicle_type_id":"4","last_reported":1700917637,"current_range_meters":23600,"station_id":"ce4bhi12rcd13ifvqfo0","pricing_plan_id":"free"},{"bike_id":"31a4ddc9-6a18-4dfe-b7dd-50c30c5d963b","system_id":"levelo_inurba_marseille","lat":43.28003,"lon":5.4,"is_reserved":false,"is_disabled":false,"rental_uris":{"android":"levelo://app?vid=31a4ddc9-6a18-4dfe-b7dd-50c30c5d963b","ios":"levelo://app?vid=31a4ddc9-6a18-4dfe-b7dd-50c30c5d963b"},"vehicle_type_id":"4","last_reported":1700917637,"current_range_meters":20000,"station_id":"ce4bho92rcd13ifvqh4g","pricing_plan_id":"free"},{"bike_id":"0bdd442b-4f16-4277-88cc-be64a671c3ce","system_id":"levelo_inurba_marseille","lat":43.27999,"lon":5.40006,"is_reserved":false,"is_disabled":false,"rental_uris":{"android":"levelo://app?vid=0bdd442b-4f16-4277-88cc-be64a671c3ce","ios":"levelo://app?vid=0bdd442b-4f16-4277-88cc-be64a671c3ce"},"vehicle_type_id":"4","last_reported":1700917637,"current_range_meters":6400,"station_id":"ce4bho92rcd13ifvqh4g","pricing_plan_id":"free"},{"bike_id":"561d56c0-616a-4955-bd15-b0e0ddd3d6ba","system_id":"levelo_inurba_marseille","lat":43.279952,"lon":5.400085,"is_reserved":false,"is_disabled":false,"rental_uris":{"android":"levelo://app?vid=561d56c0-616a-4955-bd15-b0e0ddd3d6ba","ios":"levelo://app?vid=561d56c0-616a-4955-bd15-b0e0ddd3d6ba"},"vehicle_type_id":"4","last_reported":1700917637,"current_range_meters":30800,"station_id":"ce4bho92rcd13ifvqh4g","pricing_plan_id":"free"},{"bike_id":"2aba52bf-9cdb-4dd3-a1ea-4c8b2bed0e7d","system_id":"levelo_inurba_marseille","lat":43.279952,"lon":5.400085,"is_reserved":false,"is_disabled":false,"rental_uris":{"android":"levelo://app?vid=2aba52bf-9cdb-4dd3-a1ea-4c8b2bed0e7d","ios":"levelo://app?vid=2aba52bf-9cdb-4dd3-a1ea-4c8b2bed0e7d"},"vehicle_type_id":"4","last_reported":1700917637,"current_range_meters":6800,"station_id":"ce4bho92rcd13ifvqh4g","pricing_plan_id":"free"},{"bike_id":"4b13ec3a-f479-4ba3-866e-1d22741bc577","system_id":"levelo_inurba_marseille","lat":43.27991,"lon":5.40004,"is_reserved":false,"is_disabled":false,"rental_uris":{"android":"levelo://app?vid=4b13ec3a-f479-4ba3-866e-1d22741bc577","ios":"levelo://app?vid=4b13ec3a-f479-4ba3-866e-1d22741bc577"},"vehicle_type_id":"4","last_reported":1700917637,"current_range_meters":19600,"station_id":"ce4bho92rcd13ifvqh4g","pricing_plan_id":"free"},{"bike_id":"b13ed452-b20e-41ad-9c4a-25ac5c96fef3","system_id":"levelo_inurba_marseille","lat":43.27999,"lon":5.40019,"is_reserved":false,"is_disabled":false,"rental_uris":{"android":"levelo://app?vid=b13ed452-b20e-41ad-9c4a-25ac5c96fef3","ios":"levelo://app?vid=b13ed452-b20e-41ad-9c4a-25ac5c96fef3"},"vehicle_type_id":"4","last_reported":1700917637,"current_range_meters":6400,"station_id":"ce4bho92rcd13ifvqh4g","pricing_plan_id":"free"},{"bike_id":"249b954e-668d-41dc-91ac-6fd8484f66fb","system_id":"levelo_inurba_marseille","lat":43.310785,"lon":5.424305,"is_reserved":false,"is_disabled":false,"rental_uris":{"android":"levelo://app?vid=249b954e-668d-41dc-91ac-6fd8484f66fb","ios":"levelo://app?vid=249b954e-668d-41dc-91ac-6fd8484f66fb"},"vehicle_type_id":"4","last_reported":1700917637,"current_range_meters":23600,"station_id":"ce4bhp92rcd13ifvqhag","pricing_plan_id":"free"},{"bike_id":"34656dac-dbe4-467c-afe3-11f5636a82c8","system_id":"levelo_inurba_marseille","lat":43.273125,"lon":5.390731,"is_reserved":false,"is_disabled":false,"rental_uris":{"android":"levelo://app?vid=34656dac-dbe4-467c-afe3-11f5636a82c8","ios":"levelo://app?vid=34656dac-dbe4-467c-afe3-11f5636a82c8"},"vehicle_type_id":"4","last_reported":1700917637,"current_range_meters":25600,"station_id":"ce4bhgp2rcd13ifvqfe0","pricing_plan_id":"free"},{"bike_id":"3375e5bf-8001-486e-9f2f-264d0e99620d","system_id":"levelo_inurba_marseille","lat":43.273129,"lon":5.390725,"is_reserved":false,"is_disabled":false,"rental_uris":{"android":"levelo://app?vid=3375e5bf-8001-486e-9f2f-264d0e99620d","ios":"levelo://app?vid=3375e5bf-8001-486e-9f2f-264d0e99620d"},"vehicle_type_id":"4","last_reported":1700917637,"current_range_meters":18400,"station_id":"ce4bhgp2rcd13ifvqfe0","pricing_plan_id":"free"},{"bike_id":"d032f6fd-2fad-4d4b-840c-c4b36059bfc3","system_id":"levelo_inurba_marseille","lat":43.29556,"lon":5.42284,"is_reserved":false,"is_disabled":false,"rental_uris":{"android":"levelo://app?vid=d032f6fd-2fad-4d4b-840c-c4b36059bfc3","ios":"levelo://app?vid=d032f6fd-2fad-4d4b-840c-c4b36059bfc3"},"vehicle_type_id":"4","last_reported":1700917637,"current_range_meters":29600,"station_id":"ce4bhph2rcd13ifvqhdg","pricing_plan_id":"free"},{"bike_id":"1052d100-bfed-4f3e-a202-ed9b2825b805","system_id":"levelo_inurba_marseille","lat":43.29561,"lon":5.42292,"is_reserved":false,"is_disabled":false,"rental_uris":{"android":"levelo://app?vid=1052d100-bfed-4f3e-a202-ed9b2825b805","ios":"levelo://app?vid=1052d100-bfed-4f3e-a202-ed9b2825b805"},"vehicle_type_id":"4","last_reported":1700917637,"current_range_meters":22000,"station_id":"ce4bhph2rcd13ifvqhdg","pricing_plan_id":"free"},{"bike_id":"c3fb94fd-6603-473e-8a4b-c5c10ef0337d","system_id":"levelo_inurba_marseille","lat":43.272116,"lon":5.391763,"is_reserved":false,"is_disabled":false,"rental_uris":{"android":"levelo://app?vid=c3fb94fd-6603-473e-8a4b-c5c10ef0337d","ios":"levelo://app?vid=c3fb94fd-6603-473e-8a4b-c5c10ef0337d"},"vehicle_type_id":"4","last_reported":1700917637,"current_range_meters":23200,"station_id":"ce4bhhp2rcd13ifvqfm0","pricing_plan_id":"free"},{"bike_id":"a18071c5-8d15-40f5-bca5-597b6d20b01e","system_id":"levelo_inurba_marseille","lat":43.278128,"lon":5.407195,"is_reserved":false,"is_disabled":false,"rental_uris":{"android":"levelo://app?vid=a18071c5-8d15-40f5-bca5-597b6d20b01e","ios":"levelo://app?vid=a18071c5-8d15-40f5-bca5-597b6d20b01e"},"vehicle_type_id":"4","last_reported":1700917637,"current_range_meters":27200,"station_id":"ce4bhnh2rcd13ifvqgtg","pricing_plan_id":"free"},{"bike_id":"49046dcd-a03d-49f3-bc05-77df9871f101","system_id":"levelo_inurba_marseille","lat":43.27811,"lon":5.4072,"is_reserved":false,"is_disabled":false,"rental_uris":{"android":"levelo://app?vid=49046dcd-a03d-49f3-bc05-77df9871f101","ios":"levelo://app?vid=49046dcd-a03d-49f3-bc05-77df9871f101"},"vehicle_type_id":"4","last_reported":1700917637,"current_range_meters":0,"station_id":"ce4bhnh2rcd13ifvqgtg","pricing_plan_id":"free"},{"bike_id":"11e8c655-7db3-455e-a4b3-d0fe6b5a4ea5","system_id":"levelo_inurba_marseille","lat":43.26953,"lon":5.3863,"is_reserved":false,"is_disabled":false,"rental_uris":{"android":"levelo://app?vid=11e8c655-7db3-455e-a4b3-d0fe6b5a4ea5","ios":"levelo://app?vid=11e8c655-7db3-455e-a4b3-d0fe6b5a4ea5"},"vehicle_type_id":"4","last_reported":1700917637,"current_range_meters":29600,"station_id":"ce4bhh92rcd13ifvqfh0","pricing_plan_id":"free"},{"bike_id":"ca807144-67cc-4077-9a1c-63e77036328b","system_id":"levelo_inurba_marseille","lat":43.269467,"lon":5.386439,"is_reserved":false,"is_disabled":false,"rental_uris":{"android":"levelo://app?vid=ca807144-67cc-4077-9a1c-63e77036328b","ios":"levelo://app?vid=ca807144-67cc-4077-9a1c-63e77036328b"},"vehicle_type_id":"4","last_reported":1700917637,"current_range_meters":14400,"station_id":"ce4bhh92rcd13ifvqfh0","pricing_plan_id":"free"},{"bike_id":"6a294583-8a22-4f3d-b383-fd77450a83a0","system_id":"levelo_inurba_marseille","lat":43.26556,"lon":5.37283,"is_reserved":false,"is_disabled":false,"rental_uris":{"android":"levelo://app?vid=6a294583-8a22-4f3d-b383-fd77450a83a0","ios":"levelo://app?vid=6a294583-8a22-4f3d-b383-fd77450a83a0"},"vehicle_type_id":"4","last_reported":1700917637,"current_range_meters":15600,"station_id":"ce4bhg12rcd13ifvqf70","pricing_plan_id":"free"},{"bike_id":"5d8dd0a6-d6ce-472c-8605-b1618cbc6442","system_id":"levelo_inurba_marseille","lat":43.26554,"lon":5.37286,"is_reserved":false,"is_disabled":false,"rental_uris":{"android":"levelo://app?vid=5d8dd0a6-d6ce-472c-8605-b1618cbc6442","ios":"levelo://app?vid=5d8dd0a6-d6ce-472c-8605-b1618cbc6442"},"vehicle_type_id":"4","last_reported":1700917637,"current_range_meters":24400,"station_id":"ce4bhg12rcd13ifvqf70","pricing_plan_id":"free"},{"bike_id":"f23d8119-b478-4639-98c5-6883279f9f84","system_id":"levelo_inurba_marseille","lat":43.32592,"lon":5.43067,"is_reserved":false,"is_disabled":false,"rental_uris":{"android":"levelo://app?vid=f23d8119-b478-4639-98c5-6883279f9f84","ios":"levelo://app?vid=f23d8119-b478-4639-98c5-6883279f9f84"},"vehicle_type_id":"4","last_reported":1700917637,"current_range_meters":26800,"station_id":"","pricing_plan_id":"free"},{"bike_id":"e7b368e8-9edf-4ac8-acef-7e9558d427aa","system_id":"levelo_inurba_marseille","lat":43.32591,"lon":5.430713,"is_reserved":false,"is_disabled":false,"rental_uris":{"android":"levelo://app?vid=e7b368e8-9edf-4ac8-acef-7e9558d427aa","ios":"levelo://app?vid=e7b368e8-9edf-4ac8-acef-7e9558d427aa"},"vehicle_type_id":"4","last_reported":1700917637,"current_range_meters":0,"station_id":"","pricing_plan_id":"free"},{"bike_id":"ed30d6a1-b23a-49e5-9c83-5546be72a734","system_id":"levelo_inurba_marseille","lat":43.3259,"lon":5.43075,"is_reserved":false,"is_disabled":false,"rental_uris":{"android":"levelo://app?vid=ed30d6a1-b23a-49e5-9c83-5546be72a734","ios":"levelo://app?vid=ed30d6a1-b23a-49e5-9c83-5546be72a734"},"vehicle_type_id":"4","last_reported":1700917637,"current_range_meters":21600,"station_id":"","pricing_plan_id":"free"},{"bike_id":"d67469ee-5362-4610-a163-fe05ae3cf4f7","system_id":"levelo_inurba_marseille","lat":43.32604,"lon":5.430817,"is_reserved":false,"is_disabled":false,"rental_uris":{"android":"levelo://app?vid=d67469ee-5362-4610-a163-fe05ae3cf4f7","ios":"levelo://app?vid=d67469ee-5362-4610-a163-fe05ae3cf4f7"},"vehicle_type_id":"4","last_reported":1700917637,"current_range_meters":10000,"station_id":"","pricing_plan_id":"free"},{"bike_id":"2b5f0b27-ae58-4e9e-bd76-c585f78e8a73","system_id":"levelo_inurba_marseille","lat":43.26386,"lon":5.37454,"is_reserved":false,"is_disabled":false,"rental_uris":{"android":"levelo://app?vid=2b5f0b27-ae58-4e9e-bd76-c585f78e8a73","ios":"levelo://app?vid=2b5f0b27-ae58-4e9e-bd76-c585f78e8a73"},"vehicle_type_id":"4","last_reported":1700917637,"current_range_meters":10800,"station_id":"","pricing_plan_id":"free"},{"bike_id":"7e069ca0-1860-42fd-a0ca-8e88d4c665ec","system_id":"levelo_inurba_marseille","lat":43.26935,"lon":5.40258,"is_reserved":false,"is_disabled":false,"rental_uris":{"android":"levelo://app?vid=7e069ca0-1860-42fd-a0ca-8e88d4c665ec","ios":"levelo://app?vid=7e069ca0-1860-42fd-a0ca-8e88d4c665ec"},"vehicle_type_id":"4","last_reported":1700917637,"current_range_meters":22000,"station_id":"cjm6bp8fraef2m0cb0m0","pricing_plan_id":"free"},{"bike_id":"2f6c0997-0166-449e-899d-5e6a1cc36a1c","system_id":"levelo_inurba_marseille","lat":43.26949,"lon":5.40262,"is_reserved":false,"is_disabled":false,"rental_uris":{"android":"levelo://app?vid=2f6c0997-0166-449e-899d-5e6a1cc36a1c","ios":"levelo://app?vid=2f6c0997-0166-449e-899d-5e6a1cc36a1c"},"vehicle_type_id":"4","last_reported":1700917637,"current_range_meters":15200,"station_id":"cjm6bp8fraef2m0cb0m0","pricing_plan_id":"free"},{"bike_id":"f809b2bb-3716-4d7b-8de4-7c32b60e559d","system_id":"levelo_inurba_marseille","lat":43.317075,"lon":5.43702,"is_reserved":false,"is_disabled":false,"rental_uris":{"android":"levelo://app?vid=f809b2bb-3716-4d7b-8de4-7c32b60e559d","ios":"levelo://app?vid=f809b2bb-3716-4d7b-8de4-7c32b60e559d"},"vehicle_type_id":"4","last_reported":1700917637,"current_range_meters":16800,"station_id":"ce4bhp92rcd13ifvqhcg","pricing_plan_id":"free"},{"bike_id":"1b98b7d3-c287-45d9-80ab-ed0171f3329e","system_id":"levelo_inurba_marseille","lat":43.3171,"lon":5.43706,"is_reserved":false,"is_disabled":false,"rental_uris":{"android":"levelo://app?vid=1b98b7d3-c287-45d9-80ab-ed0171f3329e","ios":"levelo://app?vid=1b98b7d3-c287-45d9-80ab-ed0171f3329e"},"vehicle_type_id":"4","last_reported":1700917637,"current_range_meters":31200,"station_id":"ce4bhp92rcd13ifvqhcg","pricing_plan_id":"free"},{"bike_id":"46163101-d36f-4b9d-b2d0-b570d3e9c51c","system_id":"levelo_inurba_marseille","lat":43.31712,"lon":5.43708,"is_reserved":false,"is_disabled":false,"rental_uris":{"android":"levelo://app?vid=46163101-d36f-4b9d-b2d0-b570d3e9c51c","ios":"levelo://app?vid=46163101-d36f-4b9d-b2d0-b570d3e9c51c"},"vehicle_type_id":"4","last_reported":1700917637,"current_range_meters":29600,"station_id":"ce4bhp92rcd13ifvqhcg","pricing_plan_id":"free"},{"bike_id":"b31a2a0d-1d54-454b-837f-16f48a4ead1d","system_id":"levelo_inurba_marseille","lat":43.26949,"lon":5.40262,"is_reserved":false,"is_disabled":false,"rental_uris":{"android":"levelo://app?vid=b31a2a0d-1d54-454b-837f-16f48a4ead1d","ios":"levelo://app?vid=b31a2a0d-1d54-454b-837f-16f48a4ead1d"},"vehicle_type_id":"4","last_reported":1700917637,"current_range_meters":25600,"station_id":"cjm6bp8fraef2m0cb0m0","pricing_plan_id":"free"},{"bike_id":"2c4d5ebd-20a5-4930-b6d4-59de038f9215","system_id":"levelo_inurba_marseille","lat":43.262012,"lon":5.379307,"is_reserved":false,"is_disabled":false,"rental_uris":{"android":"levelo://app?vid=2c4d5ebd-20a5-4930-b6d4-59de038f9215","ios":"levelo://app?vid=2c4d5ebd-20a5-4930-b6d4-59de038f9215"},"vehicle_type_id":"4","last_reported":1700917637,"current_range_meters":25200,"station_id":"ce4bhjp2rcd13ifvqg90","pricing_plan_id":"free"},{"bike_id":"dbf62bfb-d43b-46dc-b301-0e9e00d707fe","system_id":"levelo_inurba_marseille","lat":43.26202,"lon":5.379299,"is_reserved":false,"is_disabled":false,"rental_uris":{"android":"levelo://app?vid=dbf62bfb-d43b-46dc-b301-0e9e00d707fe","ios":"levelo://app?vid=dbf62bfb-d43b-46dc-b301-0e9e00d707fe"},"vehicle_type_id":"4","last_reported":1700917637,"current_range_meters":28400,"station_id":"ce4bhjp2rcd13ifvqg90","pricing_plan_id":"free"},{"bike_id":"7c5a83ac-336c-4b91-a5ea-82b3c6d6127d","system_id":"levelo_inurba_marseille","lat":43.298768,"lon":5.43643,"is_reserved":false,"is_disabled":false,"rental_uris":{"android":"levelo://app?vid=7c5a83ac-336c-4b91-a5ea-82b3c6d6127d","ios":"levelo://app?vid=7c5a83ac-336c-4b91-a5ea-82b3c6d6127d"},"vehicle_type_id":"4","last_reported":1700917637,"current_range_meters":31600,"station_id":"ce4bhpp2rcd13ifvqhfg","pricing_plan_id":"free"},{"bike_id":"91794d0e-e2e6-4dd9-a1b6-ff7501e49342","system_id":"levelo_inurba_marseille","lat":43.29899,"lon":5.43671,"is_reserved":false,"is_disabled":false,"rental_uris":{"android":"levelo://app?vid=91794d0e-e2e6-4dd9-a1b6-ff7501e49342","ios":"levelo://app?vid=91794d0e-e2e6-4dd9-a1b6-ff7501e49342"},"vehicle_type_id":"4","last_reported":1700917637,"current_range_meters":31200,"station_id":"ce4bhpp2rcd13ifvqhfg","pricing_plan_id":"free"},{"bike_id":"8af0d2ed-93d1-485d-9803-40c71e52d0d9","system_id":"levelo_inurba_marseille","lat":43.29901,"lon":5.43672,"is_reserved":false,"is_disabled":false,"rental_uris":{"android":"levelo://app?vid=8af0d2ed-93d1-485d-9803-40c71e52d0d9","ios":"levelo://app?vid=8af0d2ed-93d1-485d-9803-40c71e52d0d9"},"vehicle_type_id":"4","last_reported":1700917637,"current_range_meters":13600,"station_id":"ce4bhpp2rcd13ifvqhfg","pricing_plan_id":"free"},{"bike_id":"f0185995-5ea5-4188-8b2e-cb34dfece5eb","system_id":"levelo_inurba_marseille","lat":43.298768,"lon":5.43643,"is_reserved":false,"is_disabled":false,"rental_uris":{"android":"levelo://app?vid=f0185995-5ea5-4188-8b2e-cb34dfece5eb","ios":"levelo://app?vid=f0185995-5ea5-4188-8b2e-cb34dfece5eb"},"vehicle_type_id":"4","last_reported":1700917637,"current_range_meters":26400,"station_id":"ce4bhpp2rcd13ifvqhfg","pricing_plan_id":"free"},{"bike_id":"5ac38179-4d98-4b89-80f2-dc6cd474e479","system_id":"levelo_inurba_marseille","lat":43.28153,"lon":5.42638,"is_reserved":false,"is_disabled":false,"rental_uris":{"android":"levelo://app?vid=5ac38179-4d98-4b89-80f2-dc6cd474e479","ios":"levelo://app?vid=5ac38179-4d98-4b89-80f2-dc6cd474e479"},"vehicle_type_id":"4","last_reported":1700917637,"current_range_meters":16800,"station_id":"ce4bhnh2rcd13ifvqgug","pricing_plan_id":"free"},{"bike_id":"21b9b76e-b5f8-47d2-91b4-6cac3525ef69","system_id":"levelo_inurba_marseille","lat":43.281548,"lon":5.42643,"is_reserved":false,"is_disabled":false,"rental_uris":{"android":"levelo://app?vid=21b9b76e-b5f8-47d2-91b4-6cac3525ef69","ios":"levelo://app?vid=21b9b76e-b5f8-47d2-91b4-6cac3525ef69"},"vehicle_type_id":"4","last_reported":1700917637,"current_range_meters":6800,"station_id":"ce4bhnh2rcd13ifvqgug","pricing_plan_id":"free"},{"bike_id":"5cc76595-4035-4213-b74e-41dabe622aaf","system_id":"levelo_inurba_marseille","lat":43.281504,"lon":5.426425,"is_reserved":false,"is_disabled":false,"rental_uris":{"android":"levelo://app?vid=5cc76595-4035-4213-b74e-41dabe622aaf","ios":"levelo://app?vid=5cc76595-4035-4213-b74e-41dabe622aaf"},"vehicle_type_id":"4","last_reported":1700917637,"current_range_meters":4400,"station_id":"ce4bhnh2rcd13ifvqgug","pricing_plan_id":"free"},{"bike_id":"6181795c-d57f-4dce-a524-f46690bf06cb","system_id":"levelo_inurba_marseille","lat":43.281508,"lon":5.426495,"is_reserved":false,"is_disabled":false,"rental_uris":{"android":"levelo://app?vid=6181795c-d57f-4dce-a524-f46690bf06cb","ios":"levelo://app?vid=6181795c-d57f-4dce-a524-f46690bf06cb"},"vehicle_type_id":"4","last_reported":1700917637,"current_range_meters":25200,"station_id":"ce4bhnh2rcd13ifvqgug","pricing_plan_id":"free"},{"bike_id":"4a0ccbba-de4c-4f27-b7e0-4c2581f4bfe3","system_id":"levelo_inurba_marseille","lat":43.26057,"lon":5.39397,"is_reserved":false,"is_disabled":false,"rental_uris":{"android":"levelo://app?vid=4a0ccbba-de4c-4f27-b7e0-4c2581f4bfe3","ios":"levelo://app?vid=4a0ccbba-de4c-4f27-b7e0-4c2581f4bfe3"},"vehicle_type_id":"4","last_reported":1700917637,"current_range_meters":29200,"station_id":"ce4bhh92rcd13ifvqfj0","pricing_plan_id":"free"},{"bike_id":"24f1bf1f-5268-45e6-a816-869a92bcc51d","system_id":"levelo_inurba_marseille","lat":43.275028,"lon":5.424534,"is_reserved":false,"is_disabled":false,"rental_uris":{"android":"levelo://app?vid=24f1bf1f-5268-45e6-a816-869a92bcc51d","ios":"levelo://app?vid=24f1bf1f-5268-45e6-a816-869a92bcc51d"},"vehicle_type_id":"4","last_reported":1700917637,"current_range_meters":31200,"station_id":"ce4bhn92rcd13ifvqgrg","pricing_plan_id":"free"},{"bike_id":"ff385c11-2b7e-45df-b8ce-aac89ab149ad","system_id":"levelo_inurba_marseille","lat":43.275028,"lon":5.424534,"is_reserved":false,"is_disabled":false,"rental_uris":{"android":"levelo://app?vid=ff385c11-2b7e-45df-b8ce-aac89ab149ad","ios":"levelo://app?vid=ff385c11-2b7e-45df-b8ce-aac89ab149ad"},"vehicle_type_id":"4","last_reported":1700917637,"current_range_meters":31200,"station_id":"ce4bhn92rcd13ifvqgrg","pricing_plan_id":"free"},{"bike_id":"c85f7616-3a9e-47a4-ae16-28a03e51ab4f","system_id":"levelo_inurba_marseille","lat":43.28933,"lon":5.43865,"is_reserved":false,"is_disabled":false,"rental_uris":{"android":"levelo://app?vid=c85f7616-3a9e-47a4-ae16-28a03e51ab4f","ios":"levelo://app?vid=c85f7616-3a9e-47a4-ae16-28a03e51ab4f"},"vehicle_type_id":"4","last_reported":1700917637,"current_range_meters":7600,"station_id":"","pricing_plan_id":"free"},{"bike_id":"6e217f56-8d85-4e91-95a0-83971d20c177","system_id":"levelo_inurba_marseille","lat":43.26681,"lon":5.382694,"is_reserved":false,"is_disabled":false,"rental_uris":{"android":"levelo://app?vid=6e217f56-8d85-4e91-95a0-83971d20c177","ios":"levelo://app?vid=6e217f56-8d85-4e91-95a0-83971d20c177"},"vehicle_type_id":"4","last_reported":1700917637,"current_range_meters":11600,"station_id":"ce4bhg92rcd13ifvqf90","pricing_plan_id":"free"},{"bike_id":"7596707c-49c3-4eae-95e1-008467641ac2","system_id":"levelo_inurba_marseille","lat":43.270721,"lon":5.422764,"is_reserved":false,"is_disabled":false,"rental_uris":{"android":"levelo://app?vid=7596707c-49c3-4eae-95e1-008467641ac2","ios":"levelo://app?vid=7596707c-49c3-4eae-95e1-008467641ac2"},"vehicle_type_id":"4","last_reported":1700917637,"current_range_meters":31600,"station_id":"ce4bhk92rcd13ifvqgb0","pricing_plan_id":"free"},{"bike_id":"cfd2dccf-2ef8-4b4a-8469-7caa00dd869f","system_id":"levelo_inurba_marseille","lat":43.270721,"lon":5.422764,"is_reserved":false,"is_disabled":false,"rental_uris":{"android":"levelo://app?vid=cfd2dccf-2ef8-4b4a-8469-7caa00dd869f","ios":"levelo://app?vid=cfd2dccf-2ef8-4b4a-8469-7caa00dd869f"},"vehicle_type_id":"4","last_reported":1700917637,"current_range_meters":25600,"station_id":"ce4bhk92rcd13ifvqgb0","pricing_plan_id":"free"},{"bike_id":"ad657e31-d5a7-459b-a7ef-89532e280c6c","system_id":"levelo_inurba_marseille","lat":43.270721,"lon":5.422764,"is_reserved":false,"is_disabled":false,"rental_uris":{"android":"levelo://app?vid=ad657e31-d5a7-459b-a7ef-89532e280c6c","ios":"levelo://app?vid=ad657e31-d5a7-459b-a7ef-89532e280c6c"},"vehicle_type_id":"4","last_reported":1700917637,"current_range_meters":26000,"station_id":"ce4bhk92rcd13ifvqgb0","pricing_plan_id":"free"},{"bike_id":"4efeab10-fc64-4315-b907-003206a4c0c2","system_id":"levelo_inurba_marseille","lat":43.270721,"lon":5.422764,"is_reserved":false,"is_disabled":false,"rental_uris":{"android":"levelo://app?vid=4efeab10-fc64-4315-b907-003206a4c0c2","ios":"levelo://app?vid=4efeab10-fc64-4315-b907-003206a4c0c2"},"vehicle_type_id":"4","last_reported":1700917637,"current_range_meters":21200,"station_id":"ce4bhk92rcd13ifvqgb0","pricing_plan_id":"free"},{"bike_id":"34b8976c-6036-4b67-9ec8-e013a6ceb002","system_id":"levelo_inurba_marseille","lat":43.25929,"lon":5.40909,"is_reserved":false,"is_disabled":false,"rental_uris":{"android":"levelo://app?vid=34b8976c-6036-4b67-9ec8-e013a6ceb002","ios":"levelo://app?vid=34b8976c-6036-4b67-9ec8-e013a6ceb002"},"vehicle_type_id":"4","last_reported":1700917637,"current_range_meters":29200,"station_id":"ce4bhm92rcd13ifvqglg","pricing_plan_id":"free"},{"bike_id":"b188803f-a222-4671-9494-e9454bcafff8","system_id":"levelo_inurba_marseille","lat":43.250009,"lon":5.389195,"is_reserved":false,"is_disabled":false,"rental_uris":{"android":"levelo://app?vid=b188803f-a222-4671-9494-e9454bcafff8","ios":"levelo://app?vid=b188803f-a222-4671-9494-e9454bcafff8"},"vehicle_type_id":"4","last_reported":1700917637,"current_range_meters":16800,"station_id":"ce4bhgp2rcd13ifvqfd0","pricing_plan_id":"free"},{"bike_id":"a5ca764c-ded3-4aea-8945-a652e92e0484","system_id":"levelo_inurba_marseille","lat":43.250009,"lon":5.389195,"is_reserved":false,"is_disabled":false,"rental_uris":{"android":"levelo://app?vid=a5ca764c-ded3-4aea-8945-a652e92e0484","ios":"levelo://app?vid=a5ca764c-ded3-4aea-8945-a652e92e0484"},"vehicle_type_id":"4","last_reported":1700917637,"current_range_meters":18400,"station_id":"ce4bhgp2rcd13ifvqfd0","pricing_plan_id":"free"},{"bike_id":"09d25779-2227-45a6-98fb-aacf35cb6d23","system_id":"levelo_inurba_marseille","lat":43.250009,"lon":5.389195,"is_reserved":false,"is_disabled":false,"rental_uris":{"android":"levelo://app?vid=09d25779-2227-45a6-98fb-aacf35cb6d23","ios":"levelo://app?vid=09d25779-2227-45a6-98fb-aacf35cb6d23"},"vehicle_type_id":"4","last_reported":1700917637,"current_range_meters":14400,"station_id":"ce4bhgp2rcd13ifvqfd0","pricing_plan_id":"free"},{"bike_id":"3f20f57c-8543-4c4a-ac72-1f52e9edd47d","system_id":"levelo_inurba_marseille","lat":43.250966,"lon":5.395186,"is_reserved":false,"is_disabled":false,"rental_uris":{"android":"levelo://app?vid=3f20f57c-8543-4c4a-ac72-1f52e9edd47d","ios":"levelo://app?vid=3f20f57c-8543-4c4a-ac72-1f52e9edd47d"},"vehicle_type_id":"4","last_reported":1700917637,"current_range_meters":18000,"station_id":"ce4bhm12rcd13ifvqgkg","pricing_plan_id":"free"},{"bike_id":"9dd1764f-05de-4839-b10a-1f5e6454740a","system_id":"levelo_inurba_marseille","lat":43.250897,"lon":5.395161,"is_reserved":false,"is_disabled":false,"rental_uris":{"android":"levelo://app?vid=9dd1764f-05de-4839-b10a-1f5e6454740a","ios":"levelo://app?vid=9dd1764f-05de-4839-b10a-1f5e6454740a"},"vehicle_type_id":"4","last_reported":1700917637,"current_range_meters":28000,"station_id":"ce4bhm12rcd13ifvqgkg","pricing_plan_id":"free"},{"bike_id":"7f09f9cd-a541-4c22-93b0-54660f481f18","system_id":"levelo_inurba_marseille","lat":43.25087,"lon":5.39523,"is_reserved":false,"is_disabled":false,"rental_uris":{"android":"levelo://app?vid=7f09f9cd-a541-4c22-93b0-54660f481f18","ios":"levelo://app?vid=7f09f9cd-a541-4c22-93b0-54660f481f18"},"vehicle_type_id":"4","last_reported":1700917637,"current_range_meters":10400,"station_id":"ce4bhm12rcd13ifvqgkg","pricing_plan_id":"free"},{"bike_id":"4e22f755-9fb8-454a-aed8-0ce31691dc80","system_id":"levelo_inurba_marseille","lat":43.2473,"lon":5.37395,"is_reserved":false,"is_disabled":false,"rental_uris":{"android":"levelo://app?vid=4e22f755-9fb8-454a-aed8-0ce31691dc80","ios":"levelo://app?vid=4e22f755-9fb8-454a-aed8-0ce31691dc80"},"vehicle_type_id":"4","last_reported":1700917637,"current_range_meters":19200,"station_id":"","pricing_plan_id":"free"},{"bike_id":"d5db60fe-faa0-45d7-a662-e298c1601409","system_id":"levelo_inurba_marseille","lat":43.25102,"lon":5.403214,"is_reserved":false,"is_disabled":false,"rental_uris":{"android":"levelo://app?vid=d5db60fe-faa0-45d7-a662-e298c1601409","ios":"levelo://app?vid=d5db60fe-faa0-45d7-a662-e298c1601409"},"vehicle_type_id":"4","last_reported":1700917637,"current_range_meters":13600,"station_id":"ce4bhlh2rcd13ifvqgig","pricing_plan_id":"free"},{"bike_id":"42455b55-4ce2-4b12-b8ab-2cd7b65c32c9","system_id":"levelo_inurba_marseille","lat":43.25102,"lon":5.403214,"is_reserved":false,"is_disabled":false,"rental_uris":{"android":"levelo://app?vid=42455b55-4ce2-4b12-b8ab-2cd7b65c32c9","ios":"levelo://app?vid=42455b55-4ce2-4b12-b8ab-2cd7b65c32c9"},"vehicle_type_id":"4","last_reported":1700917637,"current_range_meters":6800,"station_id":"ce4bhlh2rcd13ifvqgig","pricing_plan_id":"free"},{"bike_id":"9f3ea2e9-6451-47c6-a33b-7778f251ffad","system_id":"levelo_inurba_marseille","lat":43.25107,"lon":5.40328,"is_reserved":false,"is_disabled":false,"rental_uris":{"android":"levelo://app?vid=9f3ea2e9-6451-47c6-a33b-7778f251ffad","ios":"levelo://app?vid=9f3ea2e9-6451-47c6-a33b-7778f251ffad"},"vehicle_type_id":"4","last_reported":1700917637,"current_range_meters":2400,"station_id":"ce4bhlh2rcd13ifvqgig","pricing_plan_id":"free"},{"bike_id":"21250e32-4f07-423b-9e58-726b2352f4f3","system_id":"levelo_inurba_marseille","lat":43.243884,"lon":5.370737,"is_reserved":false,"is_disabled":false,"rental_uris":{"android":"levelo://app?vid=21250e32-4f07-423b-9e58-726b2352f4f3","ios":"levelo://app?vid=21250e32-4f07-423b-9e58-726b2352f4f3"},"vehicle_type_id":"4","last_reported":1700917637,"current_range_meters":3600,"station_id":"ce4bhhh2rcd13ifvqfk0","pricing_plan_id":"free"},{"bike_id":"90604205-3676-4845-9812-e9f9728828ed","system_id":"levelo_inurba_marseille","lat":43.243884,"lon":5.370737,"is_reserved":false,"is_disabled":false,"rental_uris":{"android":"levelo://app?vid=90604205-3676-4845-9812-e9f9728828ed","ios":"levelo://app?vid=90604205-3676-4845-9812-e9f9728828ed"},"vehicle_type_id":"4","last_reported":1700917637,"current_range_meters":30800,"station_id":"ce4bhhh2rcd13ifvqfk0","pricing_plan_id":"free"},{"bike_id":"33dded6d-c001-4bce-bbc5-04b6725cd25d","system_id":"levelo_inurba_marseille","lat":43.24388,"lon":5.37063,"is_reserved":false,"is_disabled":false,"rental_uris":{"android":"levelo://app?vid=33dded6d-c001-4bce-bbc5-04b6725cd25d","ios":"levelo://app?vid=33dded6d-c001-4bce-bbc5-04b6725cd25d"},"vehicle_type_id":"4","last_reported":1700917637,"current_range_meters":20400,"station_id":"ce4bhhh2rcd13ifvqfk0","pricing_plan_id":"free"},{"bike_id":"768424e9-ddf3-4733-903b-2d0e006982a0","system_id":"levelo_inurba_marseille","lat":43.243884,"lon":5.370736,"is_reserved":false,"is_disabled":false,"rental_uris":{"android":"levelo://app?vid=768424e9-ddf3-4733-903b-2d0e006982a0","ios":"levelo://app?vid=768424e9-ddf3-4733-903b-2d0e006982a0"},"vehicle_type_id":"4","last_reported":1700917637,"current_range_meters":12800,"station_id":"ce4bhhh2rcd13ifvqfk0","pricing_plan_id":"free"},{"bike_id":"e3e077a5-9aa8-4310-b6fb-4c93741689dc","system_id":"levelo_inurba_marseille","lat":43.243884,"lon":5.370736,"is_reserved":false,"is_disabled":false,"rental_uris":{"android":"levelo://app?vid=e3e077a5-9aa8-4310-b6fb-4c93741689dc","ios":"levelo://app?vid=e3e077a5-9aa8-4310-b6fb-4c93741689dc"},"vehicle_type_id":"4","last_reported":1700917637,"current_range_meters":14000,"station_id":"ce4bhhh2rcd13ifvqfk0","pricing_plan_id":"free"},{"bike_id":"842d9291-1bbd-4aa4-a0e3-0ad73dbb8c2e","system_id":"levelo_inurba_marseille","lat":43.243884,"lon":5.370736,"is_reserved":false,"is_disabled":false,"rental_uris":{"android":"levelo://app?vid=842d9291-1bbd-4aa4-a0e3-0ad73dbb8c2e","ios":"levelo://app?vid=842d9291-1bbd-4aa4-a0e3-0ad73dbb8c2e"},"vehicle_type_id":"4","last_reported":1700917637,"current_range_meters":21200,"station_id":"ce4bhhh2rcd13ifvqfk0","pricing_plan_id":"free"},{"bike_id":"96424d46-9504-4976-b733-408b7f10c853","system_id":"levelo_inurba_marseille","lat":43.245581,"lon":5.395069,"is_reserved":false,"is_disabled":false,"rental_uris":{"android":"levelo://app?vid=96424d46-9504-4976-b733-408b7f10c853","ios":"levelo://app?vid=96424d46-9504-4976-b733-408b7f10c853"},"vehicle_type_id":"4","last_reported":1700917637,"current_range_meters":30400,"station_id":"ce4bhlp2rcd13ifvqgjg","pricing_plan_id":"free"},{"bike_id":"aacee138-95eb-4dc4-8c3b-28f2bee62089","system_id":"levelo_inurba_marseille","lat":43.24074,"lon":5.37758,"is_reserved":false,"is_disabled":false,"rental_uris":{"android":"levelo://app?vid=aacee138-95eb-4dc4-8c3b-28f2bee62089","ios":"levelo://app?vid=aacee138-95eb-4dc4-8c3b-28f2bee62089"},"vehicle_type_id":"4","last_reported":1700917637,"current_range_meters":17600,"station_id":"ce4bhnp2rcd13ifvqgvg","pricing_plan_id":"free"},{"bike_id":"1cb96f04-f422-460b-925f-998463caffcc","system_id":"levelo_inurba_marseille","lat":43.24071,"lon":5.37754,"is_reserved":false,"is_disabled":false,"rental_uris":{"android":"levelo://app?vid=1cb96f04-f422-460b-925f-998463caffcc","ios":"levelo://app?vid=1cb96f04-f422-460b-925f-998463caffcc"},"vehicle_type_id":"4","last_reported":1700917637,"current_range_meters":11600,"station_id":"ce4bhnp2rcd13ifvqgvg","pricing_plan_id":"free"},{"bike_id":"44753933-251e-471e-8435-27aad442d759","system_id":"levelo_inurba_marseille","lat":43.24071,"lon":5.3776,"is_reserved":false,"is_disabled":false,"rental_uris":{"android":"levelo://app?vid=44753933-251e-471e-8435-27aad442d759","ios":"levelo://app?vid=44753933-251e-471e-8435-27aad442d759"},"vehicle_type_id":"4","last_reported":1700917637,"current_range_meters":31200,"station_id":"ce4bhnp2rcd13ifvqgvg","pricing_plan_id":"free"},{"bike_id":"034cdb61-d747-4bb4-87d3-ed49b55b9556","system_id":"levelo_inurba_marseille","lat":43.240623,"lon":5.377642,"is_reserved":false,"is_disabled":false,"rental_uris":{"android":"levelo://app?vid=034cdb61-d747-4bb4-87d3-ed49b55b9556","ios":"levelo://app?vid=034cdb61-d747-4bb4-87d3-ed49b55b9556"},"vehicle_type_id":"4","last_reported":1700917637,"current_range_meters":29600,"station_id":"ce4bhnp2rcd13ifvqgvg","pricing_plan_id":"free"},{"bike_id":"bed15832-4559-4b29-8eb1-6a2b5c17528a","system_id":"levelo_inurba_marseille","lat":43.24069,"lon":5.37744,"is_reserved":false,"is_disabled":false,"rental_uris":{"android":"levelo://app?vid=bed15832-4559-4b29-8eb1-6a2b5c17528a","ios":"levelo://app?vid=bed15832-4559-4b29-8eb1-6a2b5c17528a"},"vehicle_type_id":"4","last_reported":1700917637,"current_range_meters":20800,"station_id":"ce4bhnp2rcd13ifvqgvg","pricing_plan_id":"free"},{"bike_id":"99d4dd88-7ee5-45bd-9c7f-ce77aca5b5a4","system_id":"levelo_inurba_marseille","lat":43.24068,"lon":5.37755,"is_reserved":false,"is_disabled":false,"rental_uris":{"android":"levelo://app?vid=99d4dd88-7ee5-45bd-9c7f-ce77aca5b5a4","ios":"levelo://app?vid=99d4dd88-7ee5-45bd-9c7f-ce77aca5b5a4"},"vehicle_type_id":"4","last_reported":1700917637,"current_range_meters":22800,"station_id":"ce4bhnp2rcd13ifvqgvg","pricing_plan_id":"free"},{"bike_id":"56c7f400-414b-4a88-83d6-f063b9f27bea","system_id":"levelo_inurba_marseille","lat":43.24068,"lon":5.37759,"is_reserved":false,"is_disabled":false,"rental_uris":{"android":"levelo://app?vid=56c7f400-414b-4a88-83d6-f063b9f27bea","ios":"levelo://app?vid=56c7f400-414b-4a88-83d6-f063b9f27bea"},"vehicle_type_id":"4","last_reported":1700917637,"current_range_meters":27200,"station_id":"ce4bhnp2rcd13ifvqgvg","pricing_plan_id":"free"},{"bike_id":"ff01dbe1-223f-43a9-b0c6-51a5a8d2ed05","system_id":"levelo_inurba_marseille","lat":43.239588,"lon":5.366238,"is_reserved":false,"is_disabled":false,"rental_uris":{"android":"levelo://app?vid=ff01dbe1-223f-43a9-b0c6-51a5a8d2ed05","ios":"levelo://app?vid=ff01dbe1-223f-43a9-b0c6-51a5a8d2ed05"},"vehicle_type_id":"4","last_reported":1700917637,"current_range_meters":31600,"station_id":"ce4bhi12rcd13ifvqfp0","pricing_plan_id":"free"},{"bike_id":"2928aec4-a092-4b20-8697-2fcf599c9821","system_id":"levelo_inurba_marseille","lat":43.239588,"lon":5.366238,"is_reserved":false,"is_disabled":false,"rental_uris":{"android":"levelo://app?vid=2928aec4-a092-4b20-8697-2fcf599c9821","ios":"levelo://app?vid=2928aec4-a092-4b20-8697-2fcf599c9821"},"vehicle_type_id":"4","last_reported":1700917637,"current_range_meters":26400,"station_id":"ce4bhi12rcd13ifvqfp0","pricing_plan_id":"free"},{"bike_id":"c8b0fc92-e06b-450c-b7d7-d6ab9ca59443","system_id":"levelo_inurba_marseille","lat":43.239588,"lon":5.366238,"is_reserved":false,"is_disabled":false,"rental_uris":{"android":"levelo://app?vid=c8b0fc92-e06b-450c-b7d7-d6ab9ca59443","ios":"levelo://app?vid=c8b0fc92-e06b-450c-b7d7-d6ab9ca59443"},"vehicle_type_id":"4","last_reported":1700917637,"current_range_meters":17600,"station_id":"ce4bhi12rcd13ifvqfp0","pricing_plan_id":"free"},{"bike_id":"340ba89e-beb6-4edd-9f37-a6ad2b2c6a9c","system_id":"levelo_inurba_marseille","lat":43.239588,"lon":5.366238,"is_reserved":false,"is_disabled":false,"rental_uris":{"android":"levelo://app?vid=340ba89e-beb6-4edd-9f37-a6ad2b2c6a9c","ios":"levelo://app?vid=340ba89e-beb6-4edd-9f37-a6ad2b2c6a9c"},"vehicle_type_id":"4","last_reported":1700917637,"current_range_meters":15200,"station_id":"ce4bhi12rcd13ifvqfp0","pricing_plan_id":"free"},{"bike_id":"6a80754d-d19c-44e3-b85f-afe20e8d4da1","system_id":"levelo_inurba_marseille","lat":43.239655,"lon":5.366305,"is_reserved":false,"is_disabled":false,"rental_uris":{"android":"levelo://app?vid=6a80754d-d19c-44e3-b85f-afe20e8d4da1","ios":"levelo://app?vid=6a80754d-d19c-44e3-b85f-afe20e8d4da1"},"vehicle_type_id":"4","last_reported":1700917637,"current_range_meters":4400,"station_id":"ce4bhi12rcd13ifvqfp0","pricing_plan_id":"free"},{"bike_id":"8ddc8e40-82e4-4cc6-90af-c119357648f0","system_id":"levelo_inurba_marseille","lat":43.239588,"lon":5.366238,"is_reserved":false,"is_disabled":false,"rental_uris":{"android":"levelo://app?vid=8ddc8e40-82e4-4cc6-90af-c119357648f0","ios":"levelo://app?vid=8ddc8e40-82e4-4cc6-90af-c119357648f0"},"vehicle_type_id":"4","last_reported":1700917637,"current_range_meters":26400,"station_id":"ce4bhi12rcd13ifvqfp0","pricing_plan_id":"free"},{"bike_id":"4da7c850-c01b-49e2-97e3-0a093981264d","system_id":"levelo_inurba_marseille","lat":43.239588,"lon":5.366238,"is_reserved":false,"is_disabled":false,"rental_uris":{"android":"levelo://app?vid=4da7c850-c01b-49e2-97e3-0a093981264d","ios":"levelo://app?vid=4da7c850-c01b-49e2-97e3-0a093981264d"},"vehicle_type_id":"4","last_reported":1700917637,"current_range_meters":25200,"station_id":"ce4bhi12rcd13ifvqfp0","pricing_plan_id":"free"},{"bike_id":"47e43998-06a7-44f6-a336-05874a757f9d","system_id":"levelo_inurba_marseille","lat":43.239588,"lon":5.366238,"is_reserved":false,"is_disabled":false,"rental_uris":{"android":"levelo://app?vid=47e43998-06a7-44f6-a336-05874a757f9d","ios":"levelo://app?vid=47e43998-06a7-44f6-a336-05874a757f9d"},"vehicle_type_id":"4","last_reported":1700917637,"current_range_meters":16800,"station_id":"ce4bhi12rcd13ifvqfp0","pricing_plan_id":"free"},{"bike_id":"fc6ccc5a-bc4d-4544-a669-27960c9fde66","system_id":"levelo_inurba_marseille","lat":43.239588,"lon":5.366238,"is_reserved":false,"is_disabled":false,"rental_uris":{"android":"levelo://app?vid=fc6ccc5a-bc4d-4544-a669-27960c9fde66","ios":"levelo://app?vid=fc6ccc5a-bc4d-4544-a669-27960c9fde66"},"vehicle_type_id":"4","last_reported":1700917637,"current_range_meters":20000,"station_id":"ce4bhi12rcd13ifvqfp0","pricing_plan_id":"free"},{"bike_id":"58a58866-eb62-4645-9cea-dfc48132ebca","system_id":"levelo_inurba_marseille","lat":43.23962,"lon":5.3663,"is_reserved":false,"is_disabled":false,"rental_uris":{"android":"levelo://app?vid=58a58866-eb62-4645-9cea-dfc48132ebca","ios":"levelo://app?vid=58a58866-eb62-4645-9cea-dfc48132ebca"},"vehicle_type_id":"4","last_reported":1700917637,"current_range_meters":16400,"station_id":"ce4bhi12rcd13ifvqfp0","pricing_plan_id":"free"},{"bike_id":"7136fe83-e669-4cf1-a166-53531a5f3b53","system_id":"levelo_inurba_marseille","lat":43.241782,"lon":5.397261,"is_reserved":false,"is_disabled":false,"rental_uris":{"android":"levelo://app?vid=7136fe83-e669-4cf1-a166-53531a5f3b53","ios":"levelo://app?vid=7136fe83-e669-4cf1-a166-53531a5f3b53"},"vehicle_type_id":"4","last_reported":1700917637,"current_range_meters":10400,"station_id":"ce4bhn12rcd13ifvqgpg","pricing_plan_id":"free"},{"bike_id":"43681cb1-80b5-4457-bc0d-4145b1f41dfc","system_id":"levelo_inurba_marseille","lat":43.231923,"lon":5.355545,"is_reserved":false,"is_disabled":false,"rental_uris":{"android":"levelo://app?vid=43681cb1-80b5-4457-bc0d-4145b1f41dfc","ios":"levelo://app?vid=43681cb1-80b5-4457-bc0d-4145b1f41dfc"},"vehicle_type_id":"4","last_reported":1700917637,"current_range_meters":30000,"station_id":"ce4bhu92rcd13ifvqi70","pricing_plan_id":"free"},{"bike_id":"76da77ba-a8a2-45d9-bea0-75d9631bba15","system_id":"levelo_inurba_marseille","lat":43.231923,"lon":5.355545,"is_reserved":false,"is_disabled":false,"rental_uris":{"android":"levelo://app?vid=76da77ba-a8a2-45d9-bea0-75d9631bba15","ios":"levelo://app?vid=76da77ba-a8a2-45d9-bea0-75d9631bba15"},