{"last_updated":1750349574,"ttl":60,"version":"2.2","data":{"bikes":[{"bike_id":"3da29fb8-fc97-44c6-b9ac-31dd456b2fd4","system_id":"levelo_inurba_marseille","lat":43.33771,"lon":5.37424,"is_reserved":false,"is_disabled":true,"rental_uris":{"android":"levelo://app?vid=3da29fb8-fc97-44c6-b9ac-31dd456b2fd4","ios":"levelo://app?vid=3da29fb8-fc97-44c6-b9ac-31dd456b2fd4"},"vehicle_type_id":"4","last_reported":1750349574,"current_range_meters":0,"station_id":"","pricing_plan_id":"cebpf4jnsgd1na2vs0mg"},{"bike_id":"01861ad8-a8d7-4be6-816e-651927c87584","system_id":"levelo_inurba_marseille","lat":43.33751,"lon":5.37456,"is_reserved":false,"is_disabled":true,"rental_uris":{"android":"levelo://app?vid=01861ad8-a8d7-4be6-816e-651927c87584","ios":"levelo://app?vid=01861ad8-a8d7-4be6-816e-651927c87584"},"vehicle_type_id":"4","last_reported":1750349574,"current_range_meters":0,"station_id":"","pricing_plan_id":"cebpf4jnsgd1na2vs0mg"},{"bike_id":"dbfce7a3-3423-4296-b193-a177dea644ac","system_id":"levelo_inurba_marseille","lat":43.27288,"lon":5.41623,"is_reserved":false,"is_disabled":true,"rental_uris":{"android":"levelo://app?vid=dbfce7a3-3423-4296-b193-a177dea644ac","ios":"levelo://app?vid=dbfce7a3-3423-4296-b193-a177dea644ac"},"vehicle_type_id":"4","last_reported":1750349574,"current_range_meters":0,"station_id":"","pricing_plan_id":"cebpf4jnsgd1na2vs0mg"},{"bike_id":"eff675e9-75ca-47c9-bd95-5090bc060d4f","system_id":"levelo_inurba_marseille","lat":43.34075,"lon":5.36093,"is_reserved":false,"is_disabled":true,"rental_uris":{"android":"levelo://app?vid=eff675e9-75ca-47c9-bd95-5090bc060d4f","ios":"levelo://app?vid=eff675e9-75ca-47c9-bd95-5090bc060d4f"},"vehicle_type_id":"4","last_reported":1750349574,"current_range_meters":0,"station_id":"","pricing_plan_id":"cebpf4jnsgd1na2vs0mg"},{"bike_id":"e5b80e95-5886-4c2b-8f0b-dfb63dd82be2","system_id":"levelo_inurba_marseille","lat":43.2851,"lon":5.35846,"is_reserved":false,"is_disabled":true,"rental_uris":{"android":"levelo://app?vid=e5b80e95-5886-4c2b-8f0b-dfb63dd82be2","ios":"levelo://app?vid=e5b80e95-5886-4c2b-8f0b-dfb63dd82be2"},"vehicle_type_id":"4","last_reported":1750349574,"current_range_meters":0,"station_id":"","pricing_plan_id":"cebpf4jnsgd1na2vs0mg"},{"bike_id":"d2bd57c8-6b64-48db-ad24-5398eb3fd9d6","system_id":"levelo_inurba_marseille","lat":43.337444,"lon":5.374475,"is_reserved":false,"is_disabled":true,"rental_uris":{"android":"levelo://app?vid=d2bd57c8-6b64-48db-ad24-5398eb3fd9d6","ios":"levelo://app?vid=d2bd57c8-6b64-48db-ad24-5398eb3fd9d6"},"vehicle_type_id":"4","last_reported":1750349574,"current_range_meters":0,"station_id":"","pricing_plan_id":"cebpf4jnsgd1na2vs0mg"},{"bike_id":"62a493c7-4534-4419-ad43-0582de34a72a","system_id":"levelo_inurba_marseille","lat":43.21366,"lon":5.355183,"is_reserved":false,"is_disabled":true,"rental_uris":{"android":"levelo://app?vid=62a493c7-4534-4419-ad43-0582de34a72a","ios":"levelo://app?vid=62a493c7-4534-4419-ad43-0582de34a72a"},"vehicle_type_id":"4","last_reported":1750349574,"current_range_meters":0,"station_id":"","pricing_plan_id":"cebpf4jnsgd1na2vs0mg"},{"bike_id":"b9e37238-9abe-4b8b-b932-edaee33a7e59","system_id":"levelo_inurba_marseille","lat":43.274616,"lon":5.390163,"is_reserved":false,"is_disabled":true,"rental_uris":{"android":"levelo://app?vid=b9e37238-9abe-4b8b-b932-edaee33a7e59","ios":"levelo://app?vid=b9e37238-9abe-4b8b-b932-edaee33a7e59"},"vehicle_type_id":"4","last_reported":1750349574,"current_range_meters":0,"station_id":"","pricing_plan_id":"cebpf4jnsgd1na2vs0mg"},{"bike_id":"8ad9234e-001a-4549-8bba-9baf2ef98804","system_id":"levelo_inurba_marseille","lat":43.2689,"lon":5.39883,"is_reserved":false,"is_disabled":true,"rental_uris":{"android":"levelo://app?vid=8ad9234e-001a-4549-8bba-9baf2ef98804","ios":"levelo://app?vid=8ad9234e-001a-4549-8bba-9baf2ef98804"},"vehicle_type_id":"4","last_reported":1750349574,"current_range_meters":0,"station_id":"","pricing_plan_id":"cebpf4jnsgd1na2vs0mg"},{"bike_id":"4ce5b165-f22d-40cf-abd3-1cb294861955","system_id":"levelo_inurba_marseille","lat":43.21191,"lon":5.350763,"is_reserved":false,"is_disabled":true,"rental_uris":{"android":"levelo://app?vid=4ce5b165-f22d-40cf-abd3-1cb294861955","ios":"levelo://app?vid=4ce5b165-f22d-40cf-abd3-1cb294861955"},"vehicle_type_id":"4","last_reported":1750349574,"current_range_meters":0,"station_id":"","pricing_plan_id":"cebpf4jnsgd1na2vs0mg"},{"bike_id":"47196f00-388f-4b3b-a4de-3dba126cd107","system_id":"levelo_inurba_marseille","lat":43.24373,"lon":5.4117,"is_reserved":false,"is_disabled":true,"rental_uris":{"android":"levelo://app?vid=47196f00-388f-4b3b-a4de-3dba126cd107","ios":"levelo://app?vid=47196f00-388f-4b3b-a4de-3dba126cd107"},"vehicle_type_id":"4","last_reported":1750349574,"current_range_meters":0,"station_id":"","pricing_plan_id":"cebpf4jnsgd1na2vs0mg"},{"bike_id":"4fa45ca6-f376-4694-b527-69a47b552011","system_id":"levelo_inurba_marseille","lat":43.28308,"lon":5.39032,"is_reserved":false,"is_disabled":true,"rental_uris":{"android":"levelo://app?vid=4fa45ca6-f376-4694-b527-69a47b552011","ios":"levelo://app?vid=4fa45ca6-f376-4694-b527-69a47b552011"},"vehicle_type_id":"4","last_reported":1750349574,"current_range_meters":0,"station_id":"","pricing_plan_id":"cebpf4jnsgd1na2vs0mg"},{"bike_id":"d6609b4f-333b-43c1-9ebe-8726f5e76e88","system_id":"levelo_inurba_marseille","lat":43.337444,"lon":5.374475,"is_reserved":false,"is_disabled":true,"rental_uris":{"android":"levelo://app?vid=d6609b4f-333b-43c1-9ebe-8726f5e76e88","ios":"levelo://app?vid=d6609b4f-333b-43c1-9ebe-8726f5e76e88"},"vehicle_type_id":"4","last_reported":1750349574,"current_range_meters":0,"station_id":"","pricing_plan_id":"cebpf4jnsgd1na2vs0mg"},{"bike_id":"57c83ce1-960e-466a-b6c5-d93bc130c53a","system_id":"levelo_inurba_marseille","lat":43.24874,"lon":5.39003,"is_reserved":false,"is_disabled":true,"rental_uris":{"android":"levelo://app?vid=57c83ce1-960e-466a-b6c5-d93bc130c53a","ios":"levelo://app?vid=57c83ce1-960e-466a-b6c5-d93bc130c53a"},"vehicle_type_id":"4","last_reported":1750349574,"current_range_meters":0,"station_id":"","pricing_plan_id":"cebpf4jnsgd1na2vs0mg"},{"bike_id":"9d9e5752-e5e0-4d97-a4c7-1dbc40ec418d","system_id":"levelo_inurba_marseille","lat":43.29901,"lon":5.38148,"is_reserved":false,"is_disabled":true,"rental_uris":{"android":"levelo://app?vid=9d9e5752-e5e0-4d97-a4c7-1dbc40ec418d","ios":"levelo://app?vid=9d9e5752-e5e0-4d97-a4c7-1dbc40ec418d"},"vehicle_type_id":"4","last_reported":1750349574,"current_range_meters":0,"station_id":"ce4bgj12rcd13ifvqbc0","pricing_plan_id":"cebpf4jnsgd1na2vs0mg"},{"bike_id":"3af1020d-5cca-4da4-ba60-dcacd727d863","system_id":"levelo_inurba_marseille","lat":43.29977,"lon":5.38536,"is_reserved":false,"is_disabled":true,"rental_uris":{"android":"levelo://app?vid=3af1020d-5cca-4da4-ba60-dcacd727d863","ios":"levelo://app?vid=3af1020d-5cca-4da4-ba60-dcacd727d863"},"vehicle_type_id":"4","last_reported":1750349574,"current_range_meters":0,"station_id":"ce4bgj92rcd13ifvqbd0","pricing_plan_id":"cebpf4jnsgd1na2vs0mg"},{"bike_id":"8c4e0ffa-78d4-4529-bf56-19c89508dbaa","system_id":"levelo_inurba_marseille","lat":43.30808,"lon":5.38141,"is_reserved":false,"is_disabled":true,"rental_uris":{"android":"levelo://app?vid=8c4e0ffa-78d4-4529-bf56-19c89508dbaa","ios":"levelo://app?vid=8c4e0ffa-78d4-4529-bf56-19c89508dbaa"},"vehicle_type_id":"4","last_reported":1750349574,"current_range_meters":0,"station_id":"ce4bgt12rcd13ifvqce0","pricing_plan_id":"cebpf4jnsgd1na2vs0mg"},{"bike_id":"51398f41-c05e-48ff-b826-7d4eafd7c620","system_id":"levelo_inurba_marseille","lat":43.28698,"lon":5.37394,"is_reserved":false,"is_disabled":true,"rental_uris":{"android":"levelo://app?vid=51398f41-c05e-48ff-b826-7d4eafd7c620","ios":"levelo://app?vid=51398f41-c05e-48ff-b826-7d4eafd7c620"},"vehicle_type_id":"4","last_reported":1750349574,"current_range_meters":0,"station_id":"ce4bh3p2rcd13ifvqdq0","pricing_plan_id":"cebpf4jnsgd1na2vs0mg"},{"bike_id":"16c5e991-567b-4725-8d2a-d7a9478f0150","system_id":"levelo_inurba_marseille","lat":43.28458,"lon":5.35891,"is_reserved":false,"is_disabled":true,"rental_uris":{"android":"levelo://app?vid=16c5e991-567b-4725-8d2a-d7a9478f0150","ios":"levelo://app?vid=16c5e991-567b-4725-8d2a-d7a9478f0150"},"vehicle_type_id":"4","last_reported":1750349574,"current_range_meters":0,"station_id":"ce4bhah2rcd13ifvqei0","pricing_plan_id":"cebpf4jnsgd1na2vs0mg"},{"bike_id":"64547097-b94e-4b70-8b3c-0844a050b9f4","system_id":"levelo_inurba_marseille","lat":43.28254,"lon":5.35062,"is_reserved":false,"is_disabled":true,"rental_uris":{"android":"levelo://app?vid=64547097-b94e-4b70-8b3c-0844a050b9f4","ios":"levelo://app?vid=64547097-b94e-4b70-8b3c-0844a050b9f4"},"vehicle_type_id":"4","last_reported":1750349574,"current_range_meters":0,"station_id":"ce4bhbp2rcd13ifvqerg","pricing_plan_id":"cebpf4jnsgd1na2vs0mg"},{"bike_id":"c21d4c4a-4436-49c1-a430-e1820ed9762b","system_id":"levelo_inurba_marseille","lat":43.282593,"lon":5.350582,"is_reserved":false,"is_disabled":true,"rental_uris":{"android":"levelo://app?vid=c21d4c4a-4436-49c1-a430-e1820ed9762b","ios":"levelo://app?vid=c21d4c4a-4436-49c1-a430-e1820ed9762b"},"vehicle_type_id":"4","last_reported":1750349574,"current_range_meters":0,"station_id":"ce4bhbp2rcd13ifvqerg","pricing_plan_id":"cebpf4jnsgd1na2vs0mg"},{"bike_id":"b976c029-3c00-4f00-b0ba-cd911f3ed1bd","system_id":"levelo_inurba_marseille","lat":43.26561,"lon":5.38995,"is_reserved":false,"is_disabled":true,"rental_uris":{"android":"levelo://app?vid=b976c029-3c00-4f00-b0ba-cd911f3ed1bd","ios":"levelo://app?vid=b976c029-3c00-4f00-b0ba-cd911f3ed1bd"},"vehicle_type_id":"4","last_reported":1750349574,"current_range_meters":0,"station_id":"ce4bhe12rcd13ifvqf30","pricing_plan_id":"cebpf4jnsgd1na2vs0mg"},{"bike_id":"624dccc8-91ab-43d8-a0b8-ca3a42852713","system_id":"levelo_inurba_marseille","lat":43.27057,"lon":5.40258,"is_reserved":false,"is_disabled":true,"rental_uris":{"android":"levelo://app?vid=624dccc8-91ab-43d8-a0b8-ca3a42852713","ios":"levelo://app?vid=624dccc8-91ab-43d8-a0b8-ca3a42852713"},"vehicle_type_id":"4","last_reported":1750349574,"current_range_meters":0,"station_id":"ce4bhk92rcd13ifvqgc0","pricing_plan_id":"cebpf4jnsgd1na2vs0mg"},{"bike_id":"26b3ff76-101f-4251-ab64-e53344c3642d","system_id":"levelo_inurba_marseille","lat":43.28145,"lon":5.42619,"is_reserved":false,"is_disabled":true,"rental_uris":{"android":"levelo://app?vid=26b3ff76-101f-4251-ab64-e53344c3642d","ios":"levelo://app?vid=26b3ff76-101f-4251-ab64-e53344c3642d"},"vehicle_type_id":"4","last_reported":1750349574,"current_range_meters":0,"station_id":"ce4bhnh2rcd13ifvqgug","pricing_plan_id":"cebpf4jnsgd1na2vs0mg"},{"bike_id":"3bbb3ce5-c63f-42a2-b2a1-470bb9065f9e","system_id":"levelo_inurba_marseille","lat":43.21179,"lon":5.35062,"is_reserved":false,"is_disabled":true,"rental_uris":{"android":"levelo://app?vid=3bbb3ce5-c63f-42a2-b2a1-470bb9065f9e","ios":"levelo://app?vid=3bbb3ce5-c63f-42a2-b2a1-470bb9065f9e"},"vehicle_type_id":"4","last_reported":1750349574,"current_range_meters":0,"station_id":"st_cvj6sg6p6f1abm77japg","pricing_plan_id":"cebpf4jnsgd1na2vs0mg"},{"bike_id":"dabc6c41-b12b-4140-9777-01447687696b","system_id":"levelo_inurba_marseille","lat":43.29809,"lon":5.37307,"is_reserved":false,"is_disabled":true,"rental_uris":{"android":"levelo://app?vid=dabc6c41-b12b-4140-9777-01447687696b","ios":"levelo://app?vid=dabc6c41-b12b-4140-9777-01447687696b"},"vehicle_type_id":"4","last_reported":1750349574,"current_range_meters":400,"station_id":"","pricing_plan_id":"cebpf4jnsgd1na2vs0mg"},{"bike_id":"4addca1f-4051-43eb-a1bd-4e427413f91d","system_id":"levelo_inurba_marseille","lat":43.300821,"lon":5.38705,"is_reserved":false,"is_disabled":true,"rental_uris":{"android":"levelo://app?vid=4addca1f-4051-43eb-a1bd-4e427413f91d","ios":"levelo://app?vid=4addca1f-4051-43eb-a1bd-4e427413f91d"},"vehicle_type_id":"4","last_reported":1750349574,"current_range_meters":400,"station_id":"ce4bghh2rcd13ifvqb60","pricing_plan_id":"cebpf4jnsgd1na2vs0mg"},{"bike_id":"bf712c42-9735-4bd0-badf-c9a9fb603f15","system_id":"levelo_inurba_marseille","lat":43.299678,"lon":5.384867,"is_reserved":false,"is_disabled":false,"rental_uris":{"android":"levelo://app?vid=bf712c42-9735-4bd0-badf-c9a9fb603f15","ios":"levelo://app?vid=bf712c42-9735-4bd0-badf-c9a9fb603f15"},"vehicle_type_id":"4","last_reported":1750349574,"current_range_meters":400,"station_id":"ce4bgj92rcd13ifvqbd0","pricing_plan_id":"cebpf4jnsgd1na2vs0mg"},{"bike_id":"9ea17caa-b80c-4344-ba27-3acd59414f09","system_id":"levelo_inurba_marseille","lat":43.30945,"lon":5.39011,"is_reserved":false,"is_disabled":true,"rental_uris":{"android":"levelo://app?vid=9ea17caa-b80c-4344-ba27-3acd59414f09","ios":"levelo://app?vid=9ea17caa-b80c-4344-ba27-3acd59414f09"},"vehicle_type_id":"4","last_reported":1750349574,"current_range_meters":400,"station_id":"ce4bgup2rcd13ifvqco0","pricing_plan_id":"cebpf4jnsgd1na2vs0mg"},{"bike_id":"ce704a64-8fb9-4d5c-a6b6-58f4d2784c28","system_id":"levelo_inurba_marseille","lat":43.295325,"lon":5.394081,"is_reserved":false,"is_disabled":true,"rental_uris":{"android":"levelo://app?vid=ce704a64-8fb9-4d5c-a6b6-58f4d2784c28","ios":"levelo://app?vid=ce704a64-8fb9-4d5c-a6b6-58f4d2784c28"},"vehicle_type_id":"4","last_reported":1750349574,"current_range_meters":400,"station_id":"ce4bh292rcd13ifvqdf0","pricing_plan_id":"cebpf4jnsgd1na2vs0mg"},{"bike_id":"32d55e80-ceda-4026-baa1-e3b96cec02cb","system_id":"levelo_inurba_marseille","lat":43.25428,"lon":5.37564,"is_reserved":false,"is_disabled":true,"rental_uris":{"android":"levelo://app?vid=32d55e80-ceda-4026-baa1-e3b96cec02cb","ios":"levelo://app?vid=32d55e80-ceda-4026-baa1-e3b96cec02cb"},"vehicle_type_id":"4","last_reported":1750349574,"current_range_meters":800,"station_id":"","pricing_plan_id":"cebpf4jnsgd1na2vs0mg"},{"bike_id":"84809e29-a242-48ab-85ce-31433edda68b","system_id":"levelo_inurba_marseille","lat":43.29631,"lon":5.40602,"is_reserved":false,"is_disabled":true,"rental_uris":{"android":"levelo://app?vid=84809e29-a242-48ab-85ce-31433edda68b","ios":"levelo://app?vid=84809e29-a242-48ab-85ce-31433edda68b"},"vehicle_type_id":"4","last_reported":1750349574,"current_range_meters":800,"station_id":"ce4bh0h2rcd13ifvqd60","pricing_plan_id":"cebpf4jnsgd1na2vs0mg"},{"bike_id":"d941ece0-97d1-47cb-8a60-c8d868f220bb","system_id":"levelo_inurba_marseille","lat":43.29219,"lon":5.36068,"is_reserved":false,"is_disabled":true,"rental_uris":{"android":"levelo://app?vid=d941ece0-97d1-47cb-8a60-c8d868f220bb","ios":"levelo://app?vid=d941ece0-97d1-47cb-8a60-c8d868f220bb"},"vehicle_type_id":"4","last_reported":1750349574,"current_range_meters":800,"station_id":"ce4bhbh2rcd13ifvqeqg","pricing_plan_id":"cebpf4jnsgd1na2vs0mg"},{"bike_id":"b376b14c-3932-4f4a-a98e-8f1f8e06ff32","system_id":"levelo_inurba_marseille","lat":43.28262,"lon":5.35055,"is_reserved":false,"is_disabled":true,"rental_uris":{"android":"levelo://app?vid=b376b14c-3932-4f4a-a98e-8f1f8e06ff32","ios":"levelo://app?vid=b376b14c-3932-4f4a-a98e-8f1f8e06ff32"},"vehicle_type_id":"4","last_reported":1750349574,"current_range_meters":800,"station_id":"ce4bhbp2rcd13ifvqerg","pricing_plan_id":"cebpf4jnsgd1na2vs0mg"},{"bike_id":"2a3e1034-6165-4ddd-bdfd-e8830b91c1ad","system_id":"levelo_inurba_marseille","lat":43.282623,"lon":5.350578,"is_reserved":false,"is_disabled":true,"rental_uris":{"android":"levelo://app?vid=2a3e1034-6165-4ddd-bdfd-e8830b91c1ad","ios":"levelo://app?vid=2a3e1034-6165-4ddd-bdfd-e8830b91c1ad"},"vehicle_type_id":"4","last_reported":1750349574,"current_range_meters":800,"station_id":"ce4bhbp2rcd13ifvqerg","pricing_plan_id":"cebpf4jnsgd1na2vs0mg"},{"bike_id":"ad463a1a-536d-4adb-8c1a-752bbb52016a","system_id":"levelo_inurba_marseille","lat":43.26556,"lon":5.37294,"is_reserved":false,"is_disabled":true,"rental_uris":{"android":"levelo://app?vid=ad463a1a-536d-4adb-8c1a-752bbb52016a","ios":"levelo://app?vid=ad463a1a-536d-4adb-8c1a-752bbb52016a"},"vehicle_type_id":"4","last_reported":1750349574,"current_range_meters":800,"station_id":"ce4bhg12rcd13ifvqf70","pricing_plan_id":"cebpf4jnsgd1na2vs0mg"},{"bike_id":"cd062f92-0589-4223-9bdf-2061a581c538","system_id":"levelo_inurba_marseille","lat":43.26189,"lon":5.37446,"is_reserved":false,"is_disabled":true,"rental_uris":{"android":"levelo://app?vid=cd062f92-0589-4223-9bdf-2061a581c538","ios":"levelo://app?vid=cd062f92-0589-4223-9bdf-2061a581c538"},"vehicle_type_id":"4","last_reported":1750349574,"current_range_meters":800,"station_id":"ce4bhgp2rcd13ifvqfc0","pricing_plan_id":"cebpf4jnsgd1na2vs0mg"},{"bike_id":"f0a89d55-916d-402b-b4d3-58f97ba6eac7","system_id":"levelo_inurba_marseille","lat":43.31743,"lon":5.39016,"is_reserved":false,"is_disabled":true,"rental_uris":{"android":"levelo://app?vid=f0a89d55-916d-402b-b4d3-58f97ba6eac7","ios":"levelo://app?vid=f0a89d55-916d-402b-b4d3-58f97ba6eac7"},"vehicle_type_id":"4","last_reported":1750349574,"current_range_meters":800,"station_id":"ce4bhqp2rcd13ifvqhng","pricing_plan_id":"cebpf4jnsgd1na2vs0mg"},{"bike_id":"651764ad-d4f4-48d6-bd2b-a7c85472281b","system_id":"levelo_inurba_marseille","lat":43.31758,"lon":5.39018,"is_reserved":false,"is_disabled":true,"rental_uris":{"android":"levelo://app?vid=651764ad-d4f4-48d6-bd2b-a7c85472281b","ios":"levelo://app?vid=651764ad-d4f4-48d6-bd2b-a7c85472281b"},"vehicle_type_id":"4","last_reported":1750349574,"current_range_meters":800,"station_id":"ce4bhqp2rcd13ifvqhng","pricing_plan_id":"cebpf4jnsgd1na2vs0mg"},{"bike_id":"d4b2375e-15c2-4b2f-a628-6d423b46231b","system_id":"levelo_inurba_marseille","lat":43.24269,"lon":5.41134,"is_reserved":false,"is_disabled":true,"rental_uris":{"android":"levelo://app?vid=d4b2375e-15c2-4b2f-a628-6d423b46231b","ios":"levelo://app?vid=d4b2375e-15c2-4b2f-a628-6d423b46231b"},"vehicle_type_id":"4","last_reported":1750349574,"current_range_meters":1200,"station_id":"","pricing_plan_id":"cebpf4jnsgd1na2vs0mg"},{"bike_id":"64b8b83e-503a-4015-b7c1-3bd9b6c0bb97","system_id":"levelo_inurba_marseille","lat":43.3032,"lon":5.45177,"is_reserved":false,"is_disabled":true,"rental_uris":{"android":"levelo://app?vid=64b8b83e-503a-4015-b7c1-3bd9b6c0bb97","ios":"levelo://app?vid=64b8b83e-503a-4015-b7c1-3bd9b6c0bb97"},"vehicle_type_id":"4","last_reported":1750349574,"current_range_meters":1200,"station_id":"","pricing_plan_id":"cebpf4jnsgd1na2vs0mg"},{"bike_id":"c62c31a5-f6c9-4c5c-a7a9-8cec57597bac","system_id":"levelo_inurba_marseille","lat":43.295145,"lon":5.390315,"is_reserved":false,"is_disabled":true,"rental_uris":{"android":"levelo://app?vid=c62c31a5-f6c9-4c5c-a7a9-8cec57597bac","ios":"levelo://app?vid=c62c31a5-f6c9-4c5c-a7a9-8cec57597bac"},"vehicle_type_id":"4","last_reported":1750349574,"current_range_meters":1200,"station_id":"ce4bh3p2rcd13ifvqdp0","pricing_plan_id":"cebpf4jnsgd1na2vs0mg"},{"bike_id":"5ddac63a-0f76-44a3-a920-51ef3d37e891","system_id":"levelo_inurba_marseille","lat":43.27948,"lon":5.41041,"is_reserved":false,"is_disabled":true,"rental_uris":{"android":"levelo://app?vid=5ddac63a-0f76-44a3-a920-51ef3d37e891","ios":"levelo://app?vid=5ddac63a-0f76-44a3-a920-51ef3d37e891"},"vehicle_type_id":"4","last_reported":1750349574,"current_range_meters":1200,"station_id":"ce4bhnp2rcd13ifvqh0g","pricing_plan_id":"cebpf4jnsgd1na2vs0mg"},{"bike_id":"9f330ac5-5f1d-46ed-a6b0-51cde3054b1a","system_id":"levelo_inurba_marseille","lat":43.21191,"lon":5.35067,"is_reserved":false,"is_disabled":true,"rental_uris":{"android":"levelo://app?vid=9f330ac5-5f1d-46ed-a6b0-51cde3054b1a","ios":"levelo://app?vid=9f330ac5-5f1d-46ed-a6b0-51cde3054b1a"},"vehicle_type_id":"4","last_reported":1750349574,"current_range_meters":1200,"station_id":"st_cvj6sg6p6f1abm77japg","pricing_plan_id":"cebpf4jnsgd1na2vs0mg"},{"bike_id":"dd3bb894-0e31-46cf-9f63-da1ad1fda454","system_id":"levelo_inurba_marseille","lat":43.284252,"lon":5.349704,"is_reserved":false,"is_disabled":true,"rental_uris":{"android":"levelo://app?vid=dd3bb894-0e31-46cf-9f63-da1ad1fda454","ios":"levelo://app?vid=dd3bb894-0e31-46cf-9f63-da1ad1fda454"},"vehicle_type_id":"4","last_reported":1750349574,"current_range_meters":1600,"station_id":"","pricing_plan_id":"cebpf4jnsgd1na2vs0mg"},{"bike_id":"caecec20-bb01-4fd7-a00e-ff845a53c8fd","system_id":"levelo_inurba_marseille","lat":43.30947,"lon":5.39026,"is_reserved":false,"is_disabled":true,"rental_uris":{"android":"levelo://app?vid=caecec20-bb01-4fd7-a00e-ff845a53c8fd","ios":"levelo://app?vid=caecec20-bb01-4fd7-a00e-ff845a53c8fd"},"vehicle_type_id":"4","last_reported":1750349574,"current_range_meters":1600,"station_id":"ce4bgup2rcd13ifvqco0","pricing_plan_id":"cebpf4jnsgd1na2vs0mg"},{"bike_id":"fc167380-8746-486b-ad5b-c2fdeba79bb8","system_id":"levelo_inurba_marseille","lat":43.3133,"lon":5.39687,"is_reserved":false,"is_disabled":true,"rental_uris":{"android":"levelo://app?vid=fc167380-8746-486b-ad5b-c2fdeba79bb8","ios":"levelo://app?vid=fc167380-8746-486b-ad5b-c2fdeba79bb8"},"vehicle_type_id":"4","last_reported":1750349574,"current_range_meters":1600,"station_id":"ce4bgvp2rcd13ifvqcu0","pricing_plan_id":"cebpf4jnsgd1na2vs0mg"},{"bike_id":"6db6d496-707b-4543-bf3a-0954a32432a3","system_id":"levelo_inurba_marseille","lat":43.27204,"lon":5.39181,"is_reserved":false,"is_disabled":true,"rental_uris":{"android":"levelo://app?vid=6db6d496-707b-4543-bf3a-0954a32432a3","ios":"levelo://app?vid=6db6d496-707b-4543-bf3a-0954a32432a3"},"vehicle_type_id":"4","last_reported":1750349574,"current_range_meters":1600,"station_id":"ce4bhhp2rcd13ifvqfm0","pricing_plan_id":"cebpf4jnsgd1na2vs0mg"},{"bike_id":"da67666b-b6db-4f43-9ef0-af90e8d5c9d3","system_id":"levelo_inurba_marseille","lat":43.2815,"lon":5.4265,"is_reserved":false,"is_disabled":true,"rental_uris":{"android":"levelo://app?vid=da67666b-b6db-4f43-9ef0-af90e8d5c9d3","ios":"levelo://app?vid=da67666b-b6db-4f43-9ef0-af90e8d5c9d3"},"vehicle_type_id":"4","last_reported":1750349574,"current_range_meters":1600,"station_id":"ce4bhnh2rcd13ifvqgug","pricing_plan_id":"cebpf4jnsgd1na2vs0mg"},{"bike_id":"d95763e8-dc28-46b7-8e25-5308d58587e9","system_id":"levelo_inurba_marseille","lat":43.29522,"lon":5.39038,"is_reserved":false,"is_disabled":false,"rental_uris":{"android":"levelo://app?vid=d95763e8-dc28-46b7-8e25-5308d58587e9","ios":"levelo://app?vid=d95763e8-dc28-46b7-8e25-5308d58587e9"},"vehicle_type_id":"4","last_reported":1750349574,"current_range_meters":2000,"station_id":"ce4bh3p2rcd13ifvqdp0","pricing_plan_id":"cebpf4jnsgd1na2vs0mg"},{"bike_id":"693578b8-285c-4aa1-bc9d-48c3de556eb4","system_id":"levelo_inurba_marseille","lat":43.29096,"lon":5.38143,"is_reserved":false,"is_disabled":true,"rental_uris":{"android":"levelo://app?vid=693578b8-285c-4aa1-bc9d-48c3de556eb4","ios":"levelo://app?vid=693578b8-285c-4aa1-bc9d-48c3de556eb4"},"vehicle_type_id":"4","last_reported":1750349574,"current_range_meters":2000,"station_id":"ce4bh512rcd13ifvqe2g","pricing_plan_id":"cebpf4jnsgd1na2vs0mg"},{"bike_id":"7540366c-3936-4392-9384-5f0ccdc107f9","system_id":"levelo_inurba_marseille","lat":43.29267,"lon":5.38453,"is_reserved":false,"is_disabled":true,"rental_uris":{"android":"levelo://app?vid=7540366c-3936-4392-9384-5f0ccdc107f9","ios":"levelo://app?vid=7540366c-3936-4392-9384-5f0ccdc107f9"},"vehicle_type_id":"4","last_reported":1750349574,"current_range_meters":2000,"station_id":"ce4bh692rcd13ifvqea0","pricing_plan_id":"cebpf4jnsgd1na2vs0mg"},{"bike_id":"4582e221-248c-4c1a-9e34-0f0ff7357a3c","system_id":"levelo_inurba_marseille","lat":43.29191,"lon":5.358,"is_reserved":false,"is_disabled":true,"rental_uris":{"android":"levelo://app?vid=4582e221-248c-4c1a-9e34-0f0ff7357a3c","ios":"levelo://app?vid=4582e221-248c-4c1a-9e34-0f0ff7357a3c"},"vehicle_type_id":"4","last_reported":1750349574,"current_range_meters":2000,"station_id":"ce4bhb12rcd13ifvqel0","pricing_plan_id":"cebpf4jnsgd1na2vs0mg"},{"bike_id":"998ef17f-7a9f-42a0-aff8-01926811b4a4","system_id":"levelo_inurba_marseille","lat":43.282593,"lon":5.350626,"is_reserved":false,"is_disabled":true,"rental_uris":{"android":"levelo://app?vid=998ef17f-7a9f-42a0-aff8-01926811b4a4","ios":"levelo://app?vid=998ef17f-7a9f-42a0-aff8-01926811b4a4"},"vehicle_type_id":"4","last_reported":1750349574,"current_range_meters":2000,"station_id":"ce4bhbp2rcd13ifvqerg","pricing_plan_id":"cebpf4jnsgd1na2vs0mg"},{"bike_id":"ecd2484d-3c16-415f-8d73-f8c716114dd5","system_id":"levelo_inurba_marseille","lat":43.27675,"lon":5.38902,"is_reserved":false,"is_disabled":true,"rental_uris":{"android":"levelo://app?vid=ecd2484d-3c16-415f-8d73-f8c716114dd5","ios":"levelo://app?vid=ecd2484d-3c16-415f-8d73-f8c716114dd5"},"vehicle_type_id":"4","last_reported":1750349574,"current_range_meters":2000,"station_id":"ce4bhi12rcd13ifvqfo0","pricing_plan_id":"cebpf4jnsgd1na2vs0mg"},{"bike_id":"ceb1f9f7-8d2a-43e2-8c7e-b9d75e037192","system_id":"levelo_inurba_marseille","lat":43.307979,"lon":5.43529,"is_reserved":false,"is_disabled":true,"rental_uris":{"android":"levelo://app?vid=ceb1f9f7-8d2a-43e2-8c7e-b9d75e037192","ios":"levelo://app?vid=ceb1f9f7-8d2a-43e2-8c7e-b9d75e037192"},"vehicle_type_id":"4","last_reported":1750349574,"current_range_meters":2000,"station_id":"ce4bhph2rcd13ifvqheg","pricing_plan_id":"cebpf4jnsgd1na2vs0mg"},{"bike_id":"80f486f9-830e-4e1b-b050-e77dcfb9daea","system_id":"levelo_inurba_marseille","lat":43.30137,"lon":5.38052,"is_reserved":false,"is_disabled":false,"rental_uris":{"android":"levelo://app?vid=80f486f9-830e-4e1b-b050-e77dcfb9daea","ios":"levelo://app?vid=80f486f9-830e-4e1b-b050-e77dcfb9daea"},"vehicle_type_id":"4","last_reported":1750349574,"current_range_meters":2800,"station_id":"ce4bgjp2rcd13ifvqbh0","pricing_plan_id":"cebpf4jnsgd1na2vs0mg"},{"bike_id":"924fb546-f0b4-4f8e-847c-73f992908c14","system_id":"levelo_inurba_marseille","lat":43.30954,"lon":5.3902,"is_reserved":false,"is_disabled":false,"rental_uris":{"android":"levelo://app?vid=924fb546-f0b4-4f8e-847c-73f992908c14","ios":"levelo://app?vid=924fb546-f0b4-4f8e-847c-73f992908c14"},"vehicle_type_id":"4","last_reported":1750349574,"current_range_meters":2800,"station_id":"ce4bgup2rcd13ifvqco0","pricing_plan_id":"cebpf4jnsgd1na2vs0mg"},{"bike_id":"80e578aa-0dd0-44b1-bf48-a76bbba6f0e3","system_id":"levelo_inurba_marseille","lat":43.29875,"lon":5.38897,"is_reserved":false,"is_disabled":false,"rental_uris":{"android":"levelo://app?vid=80e578aa-0dd0-44b1-bf48-a76bbba6f0e3","ios":"levelo://app?vid=80e578aa-0dd0-44b1-bf48-a76bbba6f0e3"},"vehicle_type_id":"4","last_reported":1750349574,"current_range_meters":2800,"station_id":"ce4bh392rcd13ifvqdl0","pricing_plan_id":"cebpf4jnsgd1na2vs0mg"},{"bike_id":"b79b6918-d119-4a84-8a0b-03548df8a143","system_id":"levelo_inurba_marseille","lat":43.28615,"lon":5.35107,"is_reserved":false,"is_disabled":false,"rental_uris":{"android":"levelo://app?vid=b79b6918-d119-4a84-8a0b-03548df8a143","ios":"levelo://app?vid=b79b6918-d119-4a84-8a0b-03548df8a143"},"vehicle_type_id":"4","last_reported":1750349574,"current_range_meters":2800,"station_id":"ce4bhch2rcd13ifvqeug","pricing_plan_id":"cebpf4jnsgd1na2vs0mg"},{"bike_id":"ec01be80-b228-49a9-bb2c-57dc2fb1f199","system_id":"levelo_inurba_marseille","lat":43.27274,"lon":5.40953,"is_reserved":false,"is_disabled":false,"rental_uris":{"android":"levelo://app?vid=ec01be80-b228-49a9-bb2c-57dc2fb1f199","ios":"levelo://app?vid=ec01be80-b228-49a9-bb2c-57dc2fb1f199"},"vehicle_type_id":"4","last_reported":1750349574,"current_range_meters":3200,"station_id":"","pricing_plan_id":"cebpf4jnsgd1na2vs0mg"},{"bike_id":"65518aa9-5c18-4732-b217-5a3362f6ff4c","system_id":"levelo_inurba_marseille","lat":43.23181,"lon":5.39984,"is_reserved":false,"is_disabled":false,"rental_uris":{"android":"levelo://app?vid=65518aa9-5c18-4732-b217-5a3362f6ff4c","ios":"levelo://app?vid=65518aa9-5c18-4732-b217-5a3362f6ff4c"},"vehicle_type_id":"4","last_reported":1750349574,"current_range_meters":3200,"station_id":"ce4bhn12rcd13ifvqgqg","pricing_plan_id":"cebpf4jnsgd1na2vs0mg"},{"bike_id":"8803f48f-ee75-4735-9100-71133a7d7d50","system_id":"levelo_inurba_marseille","lat":43.2979,"lon":5.38091,"is_reserved":false,"is_disabled":false,"rental_uris":{"android":"levelo://app?vid=8803f48f-ee75-4735-9100-71133a7d7d50","ios":"levelo://app?vid=8803f48f-ee75-4735-9100-71133a7d7d50"},"vehicle_type_id":"4","last_reported":1750349574,"current_range_meters":3600,"station_id":"ce4bgip2rcd13ifvqbb0","pricing_plan_id":"cebpf4jnsgd1na2vs0mg"},{"bike_id":"ae096de4-5320-4099-a357-4e42df607ec9","system_id":"levelo_inurba_marseille","lat":43.29721,"lon":5.37692,"is_reserved":false,"is_disabled":false,"rental_uris":{"android":"levelo://app?vid=ae096de4-5320-4099-a357-4e42df607ec9","ios":"levelo://app?vid=ae096de4-5320-4099-a357-4e42df607ec9"},"vehicle_type_id":"4","last_reported":1750349574,"current_range_meters":3600,"station_id":"ce4bgkh2rcd13ifvqbl0","pricing_plan_id":"cebpf4jnsgd1na2vs0mg"},{"bike_id":"99e07ded-35d8-466b-94bb-820fc41e648c","system_id":"levelo_inurba_marseille","lat":43.2784,"lon":5.39199,"is_reserved":false,"is_disabled":false,"rental_uris":{"android":"levelo://app?vid=99e07ded-35d8-466b-94bb-820fc41e648c","ios":"levelo://app?vid=99e07ded-35d8-466b-94bb-820fc41e648c"},"vehicle_type_id":"4","last_reported":1750349574,"current_range_meters":3600,"station_id":"ce4bhjp2rcd13ifvqga0","pricing_plan_id":"cebpf4jnsgd1na2vs0mg"},{"bike_id":"e3117a03-c7ed-46b0-a46d-5dfdf9471025","system_id":"levelo_inurba_marseille","lat":43.2781,"lon":5.4071,"is_reserved":false,"is_disabled":false,"rental_uris":{"android":"levelo://app?vid=e3117a03-c7ed-46b0-a46d-5dfdf9471025","ios":"levelo://app?vid=e3117a03-c7ed-46b0-a46d-5dfdf9471025"},"vehicle_type_id":"4","last_reported":1750349574,"current_range_meters":3600,"station_id":"ce4bhnh2rcd13ifvqgtg","pricing_plan_id":"cebpf4jnsgd1na2vs0mg"},{"bike_id":"5b2fb681-ac43-4743-ae6f-bf421e740f20","system_id":"levelo_inurba_marseille","lat":43.2668,"lon":5.38269,"is_reserved":false,"is_disabled":false,"rental_uris":{"android":"levelo://app?vid=5b2fb681-ac43-4743-ae6f-bf421e740f20","ios":"levelo://app?vid=5b2fb681-ac43-4743-ae6f-bf421e740f20"},"vehicle_type_id":"4","last_reported":1750349574,"current_range_meters":4000,"station_id":"ce4bhg92rcd13ifvqf90","pricing_plan_id":"cebpf4jnsgd1na2vs0mg"},{"bike_id":"71ba7c8f-fac7-4f51-b6a2-ccfab903bb11","system_id":"levelo_inurba_marseille","lat":43.26025,"lon":5.37547,"is_reserved":false,"is_disabled":false,"rental_uris":{"android":"levelo://app?vid=71ba7c8f-fac7-4f51-b6a2-ccfab903bb11","ios":"levelo://app?vid=71ba7c8f-fac7-4f51-b6a2-ccfab903bb11"},"vehicle_type_id":"4","last_reported":1750349574,"current_range_meters":4400,"station_id":"ce4bhgh2rcd13ifvqfa0","pricing_plan_id":"cebpf4jnsgd1na2vs0mg"},{"bike_id":"23705e57-f5a3-40f7-945a-01e3b08e1763","system_id":"levelo_inurba_marseille","lat":43.29419,"lon":5.38626,"is_reserved":false,"is_disabled":false,"rental_uris":{"android":"levelo://app?vid=23705e57-f5a3-40f7-945a-01e3b08e1763","ios":"levelo://app?vid=23705e57-f5a3-40f7-945a-01e3b08e1763"},"vehicle_type_id":"4","last_reported":1750349574,"current_range_meters":4800,"station_id":"","pricing_plan_id":"cebpf4jnsgd1na2vs0mg"},{"bike_id":"6ca61b3d-4358-49cf-bec4-b4a55fb2185f","system_id":"levelo_inurba_marseille","lat":43.28269,"lon":5.35053,"is_reserved":false,"is_disabled":false,"rental_uris":{"android":"levelo://app?vid=6ca61b3d-4358-49cf-bec4-b4a55fb2185f","ios":"levelo://app?vid=6ca61b3d-4358-49cf-bec4-b4a55fb2185f"},"vehicle_type_id":"4","last_reported":1750349574,"current_range_meters":4800,"station_id":"ce4bhbp2rcd13ifvqerg","pricing_plan_id":"cebpf4jnsgd1na2vs0mg"},{"bike_id":"f2e8f1f1-badb-46a8-a106-361e30dce995","system_id":"levelo_inurba_marseille","lat":43.32368,"lon":5.36766,"is_reserved":false,"is_disabled":false,"rental_uris":{"android":"levelo://app?vid=f2e8f1f1-badb-46a8-a106-361e30dce995","ios":"levelo://app?vid=f2e8f1f1-badb-46a8-a106-361e30dce995"},"vehicle_type_id":"4","last_reported":1750349574,"current_range_meters":4800,"station_id":"ce4bhsh2rcd13ifvqi2g","pricing_plan_id":"cebpf4jnsgd1na2vs0mg"},{"bike_id":"84fc744e-387c-4597-871c-2f7a7ccd1bb9","system_id":"levelo_inurba_marseille","lat":43.28447,"lon":5.39201,"is_reserved":false,"is_disabled":false,"rental_uris":{"android":"levelo://app?vid=84fc744e-387c-4597-871c-2f7a7ccd1bb9","ios":"levelo://app?vid=84fc744e-387c-4597-871c-2f7a7ccd1bb9"},"vehicle_type_id":"4","last_reported":1750349574,"current_range_meters":5600,"station_id":"ce4bhoh2rcd13ifvqh5g","pricing_plan_id":"cebpf4jnsgd1na2vs0mg"},{"bike_id":"6ce5e639-29fb-414c-b819-513389943347","system_id":"levelo_inurba_marseille","lat":43.2953,"lon":5.39028,"is_reserved":false,"is_disabled":false,"rental_uris":{"android":"levelo://app?vid=6ce5e639-29fb-414c-b819-513389943347","ios":"levelo://app?vid=6ce5e639-29fb-414c-b819-513389943347"},"vehicle_type_id":"4","last_reported":1750349574,"current_range_meters":6000,"station_id":"ce4bh3p2rcd13ifvqdp0","pricing_plan_id":"cebpf4jnsgd1na2vs0mg"},{"bike_id":"23f3feed-e6a0-4a28-bf48-8571d41ec480","system_id":"levelo_inurba_marseille","lat":43.315227,"lon":5.374951,"is_reserved":false,"is_disabled":false,"rental_uris":{"android":"levelo://app?vid=23f3feed-e6a0-4a28-bf48-8571d41ec480","ios":"levelo://app?vid=23f3feed-e6a0-4a28-bf48-8571d41ec480"},"vehicle_type_id":"4","last_reported":1750349574,"current_range_meters":6400,"station_id":"","pricing_plan_id":"cebpf4jnsgd1na2vs0mg"},{"bike_id":"de0f7c2b-5974-4035-a240-8ed367c0e3f3","system_id":"levelo_inurba_marseille","lat":43.31967,"lon":5.37627,"is_reserved":false,"is_disabled":false,"rental_uris":{"android":"levelo://app?vid=de0f7c2b-5974-4035-a240-8ed367c0e3f3","ios":"levelo://app?vid=de0f7c2b-5974-4035-a240-8ed367c0e3f3"},"vehicle_type_id":"4","last_reported":1750349574,"current_range_meters":6400,"station_id":"","pricing_plan_id":"cebpf4jnsgd1na2vs0mg"},{"bike_id":"6640517b-d519-4976-be62-00401593ee25","system_id":"levelo_inurba_marseille","lat":43.33117,"lon":5.381,"is_reserved":false,"is_disabled":false,"rental_uris":{"android":"levelo://app?vid=6640517b-d519-4976-be62-00401593ee25","ios":"levelo://app?vid=6640517b-d519-4976-be62-00401593ee25"},"vehicle_type_id":"4","last_reported":1750349574,"current_range_meters":6400,"station_id":"","pricing_plan_id":"cebpf4jnsgd1na2vs0mg"},{"bike_id":"2775c481-185c-426c-919d-9317756d825a","system_id":"levelo_inurba_marseille","lat":43.30422,"lon":5.39739,"is_reserved":false,"is_disabled":false,"rental_uris":{"android":"levelo://app?vid=2775c481-185c-426c-919d-9317756d825a","ios":"levelo://app?vid=2775c481-185c-426c-919d-9317756d825a"},"vehicle_type_id":"4","last_reported":1750349574,"current_range_meters":6400,"station_id":"ce4bh092rcd13ifvqd20","pricing_plan_id":"cebpf4jnsgd1na2vs0mg"},{"bike_id":"02c628f4-346d-4770-9a3e-d5092fae8ba8","system_id":"levelo_inurba_marseille","lat":43.294385,"lon":5.385552,"is_reserved":false,"is_disabled":false,"rental_uris":{"android":"levelo://app?vid=02c628f4-346d-4770-9a3e-d5092fae8ba8","ios":"levelo://app?vid=02c628f4-346d-4770-9a3e-d5092fae8ba8"},"vehicle_type_id":"4","last_reported":1750349574,"current_range_meters":6400,"station_id":"ce4bh192rcd13ifvqdd0","pricing_plan_id":"cebpf4jnsgd1na2vs0mg"},{"bike_id":"ef2745a2-0b97-40aa-834a-8cb0f0f9b25a","system_id":"levelo_inurba_marseille","lat":43.29571,"lon":5.39976,"is_reserved":false,"is_disabled":false,"rental_uris":{"android":"levelo://app?vid=ef2745a2-0b97-40aa-834a-8cb0f0f9b25a","ios":"levelo://app?vid=ef2745a2-0b97-40aa-834a-8cb0f0f9b25a"},"vehicle_type_id":"4","last_reported":1750349574,"current_range_meters":6400,"station_id":"ce4bh312rcd13ifvqdj0","pricing_plan_id":"cebpf4jnsgd1na2vs0mg"},{"bike_id":"751f0ac5-9ec3-442d-a26e-9a0cb5e84219","system_id":"levelo_inurba_marseille","lat":43.239687,"lon":5.366264,"is_reserved":false,"is_disabled":false,"rental_uris":{"android":"levelo://app?vid=751f0ac5-9ec3-442d-a26e-9a0cb5e84219","ios":"levelo://app?vid=751f0ac5-9ec3-442d-a26e-9a0cb5e84219"},"vehicle_type_id":"4","last_reported":1750349574,"current_range_meters":6400,"station_id":"ce4bhi12rcd13ifvqfp0","pricing_plan_id":"cebpf4jnsgd1na2vs0mg"},{"bike_id":"e4fbe49d-c3f2-4609-aa47-12a8578fe31c","system_id":"levelo_inurba_marseille","lat":43.25724,"lon":5.41109,"is_reserved":false,"is_disabled":false,"rental_uris":{"android":"levelo://app?vid=e4fbe49d-c3f2-4609-aa47-12a8578fe31c","ios":"levelo://app?vid=e4fbe49d-c3f2-4609-aa47-12a8578fe31c"},"vehicle_type_id":"4","last_reported":1750349574,"current_range_meters":6400,"station_id":"ce4bhkp2rcd13ifvqgd0","pricing_plan_id":"cebpf4jnsgd1na2vs0mg"},{"bike_id":"f0e377d2-d553-4468-8134-de5badcd1e24","system_id":"levelo_inurba_marseille","lat":43.2799,"lon":5.41667,"is_reserved":false,"is_disabled":false,"rental_uris":{"android":"levelo://app?vid=f0e377d2-d553-4468-8134-de5badcd1e24","ios":"levelo://app?vid=f0e377d2-d553-4468-8134-de5badcd1e24"},"vehicle_type_id":"4","last_reported":1750349574,"current_range_meters":6400,"station_id":"ce4bho12rcd13ifvqh1g","pricing_plan_id":"cebpf4jnsgd1na2vs0mg"},{"bike_id":"46c6f74b-18fd-4009-9331-9600f424b58b","system_id":"levelo_inurba_marseille","lat":43.29569,"lon":5.42267,"is_reserved":false,"is_disabled":false,"rental_uris":{"android":"levelo://app?vid=46c6f74b-18fd-4009-9331-9600f424b58b","ios":"levelo://app?vid=46c6f74b-18fd-4009-9331-9600f424b58b"},"vehicle_type_id":"4","last_reported":1750349574,"current_range_meters":6400,"station_id":"ce4bhph2rcd13ifvqhdg","pricing_plan_id":"cebpf4jnsgd1na2vs0mg"},{"bike_id":"5758f02d-ab77-4076-9ccd-2538e67f35b9","system_id":"levelo_inurba_marseille","lat":43.301398,"lon":5.379798,"is_reserved":false,"is_disabled":false,"rental_uris":{"android":"levelo://app?vid=5758f02d-ab77-4076-9ccd-2538e67f35b9","ios":"levelo://app?vid=5758f02d-ab77-4076-9ccd-2538e67f35b9"},"vehicle_type_id":"4","last_reported":1750349574,"current_range_meters":6800,"station_id":"","pricing_plan_id":"cebpf4jnsgd1na2vs0mg"},{"bike_id":"65586224-b803-42da-a4db-8c0ab7cea6a2","system_id":"levelo_inurba_marseille","lat":43.30137,"lon":5.39877,"is_reserved":false,"is_disabled":false,"rental_uris":{"android":"levelo://app?vid=65586224-b803-42da-a4db-8c0ab7cea6a2","ios":"levelo://app?vid=65586224-b803-42da-a4db-8c0ab7cea6a2"},"vehicle_type_id":"4","last_reported":1750349574,"current_range_meters":6800,"station_id":"ce4bh0h2rcd13ifvqd40","pricing_plan_id":"cebpf4jnsgd1na2vs0mg"},{"bike_id":"28b4a40a-cfd0-4abf-abbe-25c1d63905b8","system_id":"levelo_inurba_marseille","lat":43.2867,"lon":5.36358,"is_reserved":false,"is_disabled":false,"rental_uris":{"android":"levelo://app?vid=28b4a40a-cfd0-4abf-abbe-25c1d63905b8","ios":"levelo://app?vid=28b4a40a-cfd0-4abf-abbe-25c1d63905b8"},"vehicle_type_id":"4","last_reported":1750349574,"current_range_meters":7200,"station_id":"ce4bhah2rcd13ifvqej0","pricing_plan_id":"cebpf4jnsgd1na2vs0mg"},{"bike_id":"1ebe19ea-1568-47a1-9a7e-954e45122206","system_id":"levelo_inurba_marseille","lat":43.28613,"lon":5.35103,"is_reserved":false,"is_disabled":false,"rental_uris":{"android":"levelo://app?vid=1ebe19ea-1568-47a1-9a7e-954e45122206","ios":"levelo://app?vid=1ebe19ea-1568-47a1-9a7e-954e45122206"},"vehicle_type_id":"4","last_reported":1750349574,"current_range_meters":7200,"station_id":"ce4bhch2rcd13ifvqeug","pricing_plan_id":"cebpf4jnsgd1na2vs0mg"},{"bike_id":"3636e47a-04c7-44cd-9a10-93ae1202ae27","system_id":"levelo_inurba_marseille","lat":43.26204,"lon":5.37443,"is_reserved":false,"is_disabled":false,"rental_uris":{"android":"levelo://app?vid=3636e47a-04c7-44cd-9a10-93ae1202ae27","ios":"levelo://app?vid=3636e47a-04c7-44cd-9a10-93ae1202ae27"},"vehicle_type_id":"4","last_reported":1750349574,"current_range_meters":7200,"station_id":"ce4bhgp2rcd13ifvqfc0","pricing_plan_id":"cebpf4jnsgd1na2vs0mg"},{"bike_id":"ee7d9f46-74ad-4788-9185-b672eb2cf105","system_id":"levelo_inurba_marseille","lat":43.24387,"lon":5.37063,"is_reserved":false,"is_disabled":false,"rental_uris":{"android":"levelo://app?vid=ee7d9f46-74ad-4788-9185-b672eb2cf105","ios":"levelo://app?vid=ee7d9f46-74ad-4788-9185-b672eb2cf105"},"vehicle_type_id":"4","last_reported":1750349574,"current_range_meters":7200,"station_id":"ce4bhhh2rcd13ifvqfk0","pricing_plan_id":"cebpf4jnsgd1na2vs0mg"},{"bike_id":"4490e40b-912a-4f17-9ff9-a18cb8222cb5","system_id":"levelo_inurba_marseille","lat":43.28142,"lon":5.42657,"is_reserved":false,"is_disabled":false,"rental_uris":{"android":"levelo://app?vid=4490e40b-912a-4f17-9ff9-a18cb8222cb5","ios":"levelo://app?vid=4490e40b-912a-4f17-9ff9-a18cb8222cb5"},"vehicle_type_id":"4","last_reported":1750349574,"current_range_meters":7200,"station_id":"ce4bhnh2rcd13ifvqgug","pricing_plan_id":"cebpf4jnsgd1na2vs0mg"},{"bike_id":"db36f56e-fe5c-47eb-811d-82071741e9f6","system_id":"levelo_inurba_marseille","lat":43.282654,"lon":5.350605,"is_reserved":false,"is_disabled":false,"rental_uris":{"android":"levelo://app?vid=db36f56e-fe5c-47eb-811d-82071741e9f6","ios":"levelo://app?vid=db36f56e-fe5c-47eb-811d-82071741e9f6"},"vehicle_type_id":"4","last_reported":1750349574,"current_range_meters":8000,"station_id":"","pricing_plan_id":"cebpf4jnsgd1na2vs0mg"},{"bike_id":"48ca7aef-48c0-4d2a-b352-ad5ba6a9452c","system_id":"levelo_inurba_marseille","lat":43.30905,"lon":5.3686,"is_reserved":false,"is_disabled":false,"rental_uris":{"android":"levelo://app?vid=48ca7aef-48c0-4d2a-b352-ad5ba6a9452c","ios":"levelo://app?vid=48ca7aef-48c0-4d2a-b352-ad5ba6a9452c"},"vehicle_type_id":"4","last_reported":1750349574,"current_range_meters":8000,"station_id":"ce4bgn92rcd13ifvqbvg","pricing_plan_id":"cebpf4jnsgd1na2vs0mg"},{"bike_id":"b9a48e4a-b92a-4d65-82e4-5fec70af54ed","system_id":"levelo_inurba_marseille","lat":43.246638,"lon":5.381723,"is_reserved":false,"is_disabled":false,"rental_uris":{"android":"levelo://app?vid=b9a48e4a-b92a-4d65-82e4-5fec70af54ed","ios":"levelo://app?vid=b9a48e4a-b92a-4d65-82e4-5fec70af54ed"},"vehicle_type_id":"4","last_reported":1750349574,"current_range_meters":8000,"station_id":"ce4bhg92rcd13ifvqf90","pricing_plan_id":"cebpf4jnsgd1na2vs0mg"},{"bike_id":"2f3c7322-c712-4c11-ac3b-9df328c12012","system_id":"levelo_inurba_marseille","lat":43.26062,"lon":5.39396,"is_reserved":false,"is_disabled":false,"rental_uris":{"android":"levelo://app?vid=2f3c7322-c712-4c11-ac3b-9df328c12012","ios":"levelo://app?vid=2f3c7322-c712-4c11-ac3b-9df328c12012"},"vehicle_type_id":"4","last_reported":1750349574,"current_range_meters":8000,"station_id":"ce4bhh92rcd13ifvqfj0","pricing_plan_id":"cebpf4jnsgd1na2vs0mg"},{"bike_id":"4b8da722-ee9e-48a4-a5e5-3a8a10364708","system_id":"levelo_inurba_marseille","lat":43.31197,"lon":5.37835,"is_reserved":false,"is_disabled":false,"rental_uris":{"android":"levelo://app?vid=4b8da722-ee9e-48a4-a5e5-3a8a10364708","ios":"levelo://app?vid=4b8da722-ee9e-48a4-a5e5-3a8a10364708"},"vehicle_type_id":"4","last_reported":1750349574,"current_range_meters":8400,"station_id":"","pricing_plan_id":"cebpf4jnsgd1na2vs0mg"},{"bike_id":"3518210a-6d90-482f-a11b-11cb7c94acd1","system_id":"levelo_inurba_marseille","lat":43.264775,"lon":5.392078,"is_reserved":false,"is_disabled":false,"rental_uris":{"android":"levelo://app?vid=3518210a-6d90-482f-a11b-11cb7c94acd1","ios":"levelo://app?vid=3518210a-6d90-482f-a11b-11cb7c94acd1"},"vehicle_type_id":"4","last_reported":1750349574,"current_range_meters":8400,"station_id":"","pricing_plan_id":"cebpf4jnsgd1na2vs0mg"},{"bike_id":"df480dbe-c78a-4f53-a4b6-715dc67028d7","system_id":"levelo_inurba_marseille","lat":43.29573,"lon":5.3997,"is_reserved":false,"is_disabled":false,"rental_uris":{"android":"levelo://app?vid=df480dbe-c78a-4f53-a4b6-715dc67028d7","ios":"levelo://app?vid=df480dbe-c78a-4f53-a4b6-715dc67028d7"},"vehicle_type_id":"4","last_reported":1750349574,"current_range_meters":8400,"station_id":"ce4bh312rcd13ifvqdj0","pricing_plan_id":"cebpf4jnsgd1na2vs0mg"},{"bike_id":"250dd28e-3930-4c46-96fd-61cade7620a2","system_id":"levelo_inurba_marseille","lat":43.29005,"lon":5.35612,"is_reserved":false,"is_disabled":false,"rental_uris":{"android":"levelo://app?vid=250dd28e-3930-4c46-96fd-61cade7620a2","ios":"levelo://app?vid=250dd28e-3930-4c46-96fd-61cade7620a2"},"vehicle_type_id":"4","last_reported":1750349574,"current_range_meters":8400,"station_id":"ce4bhb92rcd13ifvqen0","pricing_plan_id":"cebpf4jnsgd1na2vs0mg"},{"bike_id":"f0428e76-8006-4707-8eb7-1716c0a87958","system_id":"levelo_inurba_marseille","lat":43.24385,"lon":5.37066,"is_reserved":false,"is_disabled":false,"rental_uris":{"android":"levelo://app?vid=f0428e76-8006-4707-8eb7-1716c0a87958","ios":"levelo://app?vid=f0428e76-8006-4707-8eb7-1716c0a87958"},"vehicle_type_id":"4","last_reported":1750349574,"current_range_meters":8400,"station_id":"ce4bhhh2rcd13ifvqfk0","pricing_plan_id":"cebpf4jnsgd1na2vs0mg"},{"bike_id":"c2976c42-7cb9-4496-9434-eb484c836926","system_id":"levelo_inurba_marseille","lat":43.306042,"lon":5.372368,"is_reserved":false,"is_disabled":false,"rental_uris":{"android":"levelo://app?vid=c2976c42-7cb9-4496-9434-eb484c836926","ios":"levelo://app?vid=c2976c42-7cb9-4496-9434-eb484c836926"},"vehicle_type_id":"4","last_reported":1750349574,"current_range_meters":8800,"station_id":"ce4bgqh2rcd13ifvqc4g","pricing_plan_id":"cebpf4jnsgd1na2vs0mg"},{"bike_id":"74dbf2fb-bdfd-4970-bf4a-e732eaac3998","system_id":"levelo_inurba_marseille","lat":43.29007,"lon":5.35606,"is_reserved":false,"is_disabled":false,"rental_uris":{"android":"levelo://app?vid=74dbf2fb-bdfd-4970-bf4a-e732eaac3998","ios":"levelo://app?vid=74dbf2fb-bdfd-4970-bf4a-e732eaac3998"},"vehicle_type_id":"4","last_reported":1750349574,"current_range_meters":8800,"station_id":"ce4bhb92rcd13ifvqen0","pricing_plan_id":"cebpf4jnsgd1na2vs0mg"},{"bike_id":"007d6b5e-bae1-462c-8cb5-c2a8f7bef917","system_id":"levelo_inurba_marseille","lat":43.26189,"lon":5.37439,"is_reserved":false,"is_disabled":false,"rental_uris":{"android":"levelo://app?vid=007d6b5e-bae1-462c-8cb5-c2a8f7bef917","ios":"levelo://app?vid=007d6b5e-bae1-462c-8cb5-c2a8f7bef917"},"vehicle_type_id":"4","last_reported":1750349574,"current_range_meters":8800,"station_id":"ce4bhgp2rcd13ifvqfc0","pricing_plan_id":"cebpf4jnsgd1na2vs0mg"},{"bike_id":"88179473-4f7c-44ee-8b63-2c1885477987","system_id":"levelo_inurba_marseille","lat":43.25492,"lon":5.37648,"is_reserved":false,"is_disabled":false,"rental_uris":{"android":"levelo://app?vid=88179473-4f7c-44ee-8b63-2c1885477987","ios":"levelo://app?vid=88179473-4f7c-44ee-8b63-2c1885477987"},"vehicle_type_id":"4","last_reported":1750349574,"current_range_meters":8800,"station_id":"ce4bhh12rcd13ifvqff0","pricing_plan_id":"cebpf4jnsgd1na2vs0mg"},{"bike_id":"0dedb6f6-6801-483b-bfb8-9cd4533d158f","system_id":"levelo_inurba_marseille","lat":43.31137,"lon":5.38112,"is_reserved":false,"is_disabled":false,"rental_uris":{"android":"levelo://app?vid=0dedb6f6-6801-483b-bfb8-9cd4533d158f","ios":"levelo://app?vid=0dedb6f6-6801-483b-bfb8-9cd4533d158f"},"vehicle_type_id":"4","last_reported":1750349574,"current_range_meters":9200,"station_id":"","pricing_plan_id":"cebpf4jnsgd1na2vs0mg"},{"bike_id":"cd2f12c4-33af-4e46-ac9d-2ab2e6d08d65","system_id":"levelo_inurba_marseille","lat":43.31704,"lon":5.37733,"is_reserved":false,"is_disabled":false,"rental_uris":{"android":"levelo://app?vid=cd2f12c4-33af-4e46-ac9d-2ab2e6d08d65","ios":"levelo://app?vid=cd2f12c4-33af-4e46-ac9d-2ab2e6d08d65"},"vehicle_type_id":"4","last_reported":1750349574,"current_range_meters":9200,"station_id":"ce4bgth2rcd13ifvqch0","pricing_plan_id":"cebpf4jnsgd1na2vs0mg"},{"bike_id":"2dc1812e-0d63-4dd1-9bdf-d7e2816b9476","system_id":"levelo_inurba_marseille","lat":43.30875,"lon":5.39666,"is_reserved":false,"is_disabled":false,"rental_uris":{"android":"levelo://app?vid=2dc1812e-0d63-4dd1-9bdf-d7e2816b9476","ios":"levelo://app?vid=2dc1812e-0d63-4dd1-9bdf-d7e2816b9476"},"vehicle_type_id":"4","last_reported":1750349574,"current_range_meters":9200,"station_id":"ce4bh012rcd13ifvqcv0","pricing_plan_id":"cebpf4jnsgd1na2vs0mg"},{"bike_id":"469ebb19-dd5f-4ca9-9eed-28ea77bcf329","system_id":"levelo_inurba_marseille","lat":43.30651,"lon":5.40098,"is_reserved":false,"is_disabled":false,"rental_uris":{"android":"levelo://app?vid=469ebb19-dd5f-4ca9-9eed-28ea77bcf329","ios":"levelo://app?vid=469ebb19-dd5f-4ca9-9eed-28ea77bcf329"},"vehicle_type_id":"4","last_reported":1750349574,"current_range_meters":9200,"station_id":"ce4bh112rcd13ifvqda0","pricing_plan_id":"cebpf4jnsgd1na2vs0mg"},{"bike_id":"35fe7050-6e56-49cb-a468-bdef0b08d7ab","system_id":"levelo_inurba_marseille","lat":43.2886,"lon":5.35851,"is_reserved":false,"is_disabled":false,"rental_uris":{"android":"levelo://app?vid=35fe7050-6e56-49cb-a468-bdef0b08d7ab","ios":"levelo://app?vid=35fe7050-6e56-49cb-a468-bdef0b08d7ab"},"vehicle_type_id":"4","last_reported":1750349574,"current_range_meters":9600,"station_id":"ce4bhb12rcd13ifvqem0","pricing_plan_id":"cebpf4jnsgd1na2vs0mg"},{"bike_id":"bc9b133f-45f3-4247-b3ef-38421497fd6b","system_id":"levelo_inurba_marseille","lat":43.25087,"lon":5.39518,"is_reserved":false,"is_disabled":false,"rental_uris":{"android":"levelo://app?vid=bc9b133f-45f3-4247-b3ef-38421497fd6b","ios":"levelo://app?vid=bc9b133f-45f3-4247-b3ef-38421497fd6b"},"vehicle_type_id":"4","last_reported":1750349574,"current_range_meters":9600,"station_id":"ce4bhm12rcd13ifvqgkg","pricing_plan_id":"cebpf4jnsgd1na2vs0mg"},{"bike_id":"268aafb4-1331-426c-97bc-a7d6564caeb6","system_id":"levelo_inurba_marseille","lat":43.32933,"lon":5.37919,"is_reserved":false,"is_disabled":false,"rental_uris":{"android":"levelo://app?vid=268aafb4-1331-426c-97bc-a7d6564caeb6","ios":"levelo://app?vid=268aafb4-1331-426c-97bc-a7d6564caeb6"},"vehicle_type_id":"4","last_reported":1750349574,"current_range_meters":10000,"station_id":"","pricing_plan_id":"cebpf4jnsgd1na2vs0mg"},{"bike_id":"3a152316-b50e-491f-92d9-d7be08967fea","system_id":"levelo_inurba_marseille","lat":43.29298,"lon":5.37453,"is_reserved":false,"is_disabled":false,"rental_uris":{"android":"levelo://app?vid=3a152316-b50e-491f-92d9-d7be08967fea","ios":"levelo://app?vid=3a152316-b50e-491f-92d9-d7be08967fea"},"vehicle_type_id":"4","last_reported":1750349574,"current_range_meters":10000,"station_id":"ce4bgi12rcd13ifvqb70","pricing_plan_id":"cebpf4jnsgd1na2vs0mg"},{"bike_id":"16919fdc-c86e-4b2d-9c0f-5ab3141acf86","system_id":"levelo_inurba_marseille","lat":43.28418,"lon":5.34998,"is_reserved":false,"is_disabled":false,"rental_uris":{"android":"levelo://app?vid=16919fdc-c86e-4b2d-9c0f-5ab3141acf86","ios":"levelo://app?vid=16919fdc-c86e-4b2d-9c0f-5ab3141acf86"},"vehicle_type_id":"4","last_reported":1750349574,"current_range_meters":10000,"station_id":"ce4bhbh2rcd13ifvqepg","pricing_plan_id":"cebpf4jnsgd1na2vs0mg"},{"bike_id":"4e19da38-6461-47ff-a0c2-54c6e0d66498","system_id":"levelo_inurba_marseille","lat":43.28259,"lon":5.35079,"is_reserved":false,"is_disabled":false,"rental_uris":{"android":"levelo://app?vid=4e19da38-6461-47ff-a0c2-54c6e0d66498","ios":"levelo://app?vid=4e19da38-6461-47ff-a0c2-54c6e0d66498"},"vehicle_type_id":"4","last_reported":1750349574,"current_range_meters":10000,"station_id":"ce4bhbp2rcd13ifvqerg","pricing_plan_id":"cebpf4jnsgd1na2vs0mg"},{"bike_id":"ea967898-2e06-4fe3-9a27-c663bcb9c48d","system_id":"levelo_inurba_marseille","lat":43.282609,"lon":5.350739,"is_reserved":false,"is_disabled":false,"rental_uris":{"android":"levelo://app?vid=ea967898-2e06-4fe3-9a27-c663bcb9c48d","ios":"levelo://app?vid=ea967898-2e06-4fe3-9a27-c663bcb9c48d"},"vehicle_type_id":"4","last_reported":1750349574,"current_range_meters":10000,"station_id":"ce4bhbp2rcd13ifvqerg","pricing_plan_id":"cebpf4jnsgd1na2vs0mg"},{"bike_id":"2e84c174-c769-49f6-9e32-4421d18e652a","system_id":"levelo_inurba_marseille","lat":43.26699,"lon":5.38232,"is_reserved":false,"is_disabled":false,"rental_uris":{"android":"levelo://app?vid=2e84c174-c769-49f6-9e32-4421d18e652a","ios":"levelo://app?vid=2e84c174-c769-49f6-9e32-4421d18e652a"},"vehicle_type_id":"4","last_reported":1750349574,"current_range_meters":10000,"station_id":"ce4bhg92rcd13ifvqf90","pricing_plan_id":"cebpf4jnsgd1na2vs0mg"},{"bike_id":"41427841-d839-40c1-81bd-45e69072b2cd","system_id":"levelo_inurba_marseille","lat":43.22504,"lon":5.34792,"is_reserved":false,"is_disabled":false,"rental_uris":{"android":"levelo://app?vid=41427841-d839-40c1-81bd-45e69072b2cd","ios":"levelo://app?vid=41427841-d839-40c1-81bd-45e69072b2cd"},"vehicle_type_id":"4","last_reported":1750349574,"current_range_meters":10000,"station_id":"st_cvj5dfep6f1abm77gieg","pricing_plan_id":"cebpf4jnsgd1na2vs0mg"},{"bike_id":"f025e0b0-8595-426c-b214-cb9b74c5fcfd","system_id":"levelo_inurba_marseille","lat":43.32222,"lon":5.40584,"is_reserved":false,"is_disabled":false,"rental_uris":{"android":"levelo://app?vid=f025e0b0-8595-426c-b214-cb9b74c5fcfd","ios":"levelo://app?vid=f025e0b0-8595-426c-b214-cb9b74c5fcfd"},"vehicle_type_id":"4","last_reported":1750349574,"current_range_meters":10800,"station_id":"","pricing_plan_id":"cebpf4jnsgd1na2vs0mg"},{"bike_id":"56fdfc4e-979c-4ed5-9885-57018d76de79","system_id":"levelo_inurba_marseille","lat":43.2937,"lon":5.42803,"is_reserved":false,"is_disabled":false,"rental_uris":{"android":"levelo://app?vid=56fdfc4e-979c-4ed5-9885-57018d76de79","ios":"levelo://app?vid=56fdfc4e-979c-4ed5-9885-57018d76de79"},"vehicle_type_id":"4","last_reported":1750349574,"current_range_meters":10800,"station_id":"","pricing_plan_id":"cebpf4jnsgd1na2vs0mg"},{"bike_id":"f52c7888-20c8-44e5-8e00-d256fea8ca0d","system_id":"levelo_inurba_marseille","lat":43.29034,"lon":5.35923,"is_reserved":false,"is_disabled":false,"rental_uris":{"android":"levelo://app?vid=f52c7888-20c8-44e5-8e00-d256fea8ca0d","ios":"levelo://app?vid=f52c7888-20c8-44e5-8e00-d256fea8ca0d"},"vehicle_type_id":"4","last_reported":1750349574,"current_range_meters":10800,"station_id":"ce4bha92rcd13ifvqeg0","pricing_plan_id":"cebpf4jnsgd1na2vs0mg"},{"bike_id":"1191d9e2-545b-41dc-918f-dfe49e7e2ba5","system_id":"levelo_inurba_marseille","lat":43.28933,"lon":5.36647,"is_reserved":false,"is_disabled":false,"rental_uris":{"android":"levelo://app?vid=1191d9e2-545b-41dc-918f-dfe49e7e2ba5","ios":"levelo://app?vid=1191d9e2-545b-41dc-918f-dfe49e7e2ba5"},"vehicle_type_id":"4","last_reported":1750349574,"current_range_meters":10800,"station_id":"ce4bhap2rcd13ifvqek0","pricing_plan_id":"cebpf4jnsgd1na2vs0mg"},{"bike_id":"9363e402-86bb-40dd-9ae0-e72b5689218a","system_id":"levelo_inurba_marseille","lat":43.28264,"lon":5.35081,"is_reserved":false,"is_disabled":false,"rental_uris":{"android":"levelo://app?vid=9363e402-86bb-40dd-9ae0-e72b5689218a","ios":"levelo://app?vid=9363e402-86bb-40dd-9ae0-e72b5689218a"},"vehicle_type_id":"4","last_reported":1750349574,"current_range_meters":10800,"station_id":"ce4bhbp2rcd13ifvqerg","pricing_plan_id":"cebpf4jnsgd1na2vs0mg"},{"bike_id":"39f3eab2-2d60-4309-b447-a8248b18f4cd","system_id":"levelo_inurba_marseille","lat":43.29274,"lon":5.36839,"is_reserved":false,"is_disabled":false,"rental_uris":{"android":"levelo://app?vid=39f3eab2-2d60-4309-b447-a8248b18f4cd","ios":"levelo://app?vid=39f3eab2-2d60-4309-b447-a8248b18f4cd"},"vehicle_type_id":"4","last_reported":1750349574,"current_range_meters":10800,"station_id":"ce4bhbp2rcd13ifvqesg","pricing_plan_id":"cebpf4jnsgd1na2vs0mg"},{"bike_id":"5d0ba06c-f6b1-434d-b9bf-f40948d4b20b","system_id":"levelo_inurba_marseille","lat":43.28608,"lon":5.37061,"is_reserved":false,"is_disabled":false,"rental_uris":{"android":"levelo://app?vid=5d0ba06c-f6b1-434d-b9bf-f40948d4b20b","ios":"levelo://app?vid=5d0ba06c-f6b1-434d-b9bf-f40948d4b20b"},"vehicle_type_id":"4","last_reported":1750349574,"current_range_meters":10800,"station_id":"ce4bht12rcd13ifvqi60","pricing_plan_id":"cebpf4jnsgd1na2vs0mg"},{"bike_id":"6d9576a5-cb1c-4708-9646-c0cb01350f45","system_id":"levelo_inurba_marseille","lat":43.272066,"lon":5.391823,"is_reserved":false,"is_disabled":false,"rental_uris":{"android":"levelo://app?vid=6d9576a5-cb1c-4708-9646-c0cb01350f45","ios":"levelo://app?vid=6d9576a5-cb1c-4708-9646-c0cb01350f45"},"vehicle_type_id":"4","last_reported":1750349574,"current_range_meters":11200,"station_id":"","pricing_plan_id":"cebpf4jnsgd1na2vs0mg"},{"bike_id":"534efeb1-9846-4aee-8130-df4d28e740dd","system_id":"levelo_inurba_marseille","lat":43.29833,"lon":5.41621,"is_reserved":false,"is_disabled":false,"rental_uris":{"android":"levelo://app?vid=534efeb1-9846-4aee-8130-df4d28e740dd","ios":"levelo://app?vid=534efeb1-9846-4aee-8130-df4d28e740dd"},"vehicle_type_id":"4","last_reported":1750349574,"current_range_meters":11200,"station_id":"","pricing_plan_id":"cebpf4jnsgd1na2vs0mg"},{"bike_id":"b78f702e-db91-477d-af59-0c358769bc40","system_id":"levelo_inurba_marseille","lat":43.283997,"lon":5.375102,"is_reserved":false,"is_disabled":false,"rental_uris":{"android":"levelo://app?vid=b78f702e-db91-477d-af59-0c358769bc40","ios":"levelo://app?vid=b78f702e-db91-477d-af59-0c358769bc40"},"vehicle_type_id":"4","last_reported":1750349574,"current_range_meters":11600,"station_id":"ce4bh412rcd13ifvqds0","pricing_plan_id":"cebpf4jnsgd1na2vs0mg"},{"bike_id":"fc23a671-d8b2-4212-8482-2dfe61a7b83b","system_id":"levelo_inurba_marseille","lat":43.28044,"lon":5.36939,"is_reserved":false,"is_disabled":false,"rental_uris":{"android":"levelo://app?vid=fc23a671-d8b2-4212-8482-2dfe61a7b83b","ios":"levelo://app?vid=fc23a671-d8b2-4212-8482-2dfe61a7b83b"},"vehicle_type_id":"4","last_reported":1750349574,"current_range_meters":11600,"station_id":"ce4bha12rcd13ifvqef0","pricing_plan_id":"cebpf4jnsgd1na2vs0mg"},{"bike_id":"1a96aed9-5b44-4fac-92b5-af664d35ef0b","system_id":"levelo_inurba_marseille","lat":43.28417,"lon":5.34972,"is_reserved":false,"is_disabled":false,"rental_uris":{"android":"levelo://app?vid=1a96aed9-5b44-4fac-92b5-af664d35ef0b","ios":"levelo://app?vid=1a96aed9-5b44-4fac-92b5-af664d35ef0b"},"vehicle_type_id":"4","last_reported":1750349574,"current_range_meters":11600,"station_id":"ce4bhbh2rcd13ifvqepg","pricing_plan_id":"cebpf4jnsgd1na2vs0mg"},{"bike_id":"d6c8cc77-3cf5-4614-92f7-f843e1f78ac1","system_id":"levelo_inurba_marseille","lat":43.28619,"lon":5.35088,"is_reserved":false,"is_disabled":false,"rental_uris":{"android":"levelo://app?vid=d6c8cc77-3cf5-4614-92f7-f843e1f78ac1","ios":"levelo://app?vid=d6c8cc77-3cf5-4614-92f7-f843e1f78ac1"},"vehicle_type_id":"4","last_reported":1750349574,"current_range_meters":11600,"station_id":"ce4bhch2rcd13ifvqeug","pricing_plan_id":"cebpf4jnsgd1na2vs0mg"},{"bike_id":"402d4091-0fc1-485d-8942-d2ac7fe3d4c3","system_id":"levelo_inurba_marseille","lat":43.26207,"lon":5.37451,"is_reserved":false,"is_disabled":false,"rental_uris":{"android":"levelo://app?vid=402d4091-0fc1-485d-8942-d2ac7fe3d4c3","ios":"levelo://app?vid=402d4091-0fc1-485d-8942-d2ac7fe3d4c3"},"vehicle_type_id":"4","last_reported":1750349574,"current_range_meters":11600,"station_id":"ce4bhgp2rcd13ifvqfc0","pricing_plan_id":"cebpf4jnsgd1na2vs0mg"},{"bike_id":"a8d71be1-c60e-40bf-be7a-952893cb8918","system_id":"levelo_inurba_marseille","lat":43.28287,"lon":5.3507,"is_reserved":false,"is_disabled":false,"rental_uris":{"android":"levelo://app?vid=a8d71be1-c60e-40bf-be7a-952893cb8918","ios":"levelo://app?vid=a8d71be1-c60e-40bf-be7a-952893cb8918"},"vehicle_type_id":"4","last_reported":1750349574,"current_range_meters":12000,"station_id":"ce4bhbp2rcd13ifvqerg","pricing_plan_id":"cebpf4jnsgd1na2vs0mg"},{"bike_id":"59c754be-7a6f-4155-b894-101e385b0030","system_id":"levelo_inurba_marseille","lat":43.26207,"lon":5.37441,"is_reserved":false,"is_disabled":false,"rental_uris":{"android":"levelo://app?vid=59c754be-7a6f-4155-b894-101e385b0030","ios":"levelo://app?vid=59c754be-7a6f-4155-b894-101e385b0030"},"vehicle_type_id":"4","last_reported":1750349574,"current_range_meters":12000,"station_id":"ce4bhgp2rcd13ifvqfc0","pricing_plan_id":"cebpf4jnsgd1na2vs0mg"},{"bike_id":"ba2583fe-b5c4-4a30-9782-6c8b10ef5bbd","system_id":"levelo_inurba_marseille","lat":43.21746,"lon":5.34602,"is_reserved":false,"is_disabled":false,"rental_uris":{"android":"levelo://app?vid=ba2583fe-b5c4-4a30-9782-6c8b10ef5bbd","ios":"levelo://app?vid=ba2583fe-b5c4-4a30-9782-6c8b10ef5bbd"},"vehicle_type_id":"4","last_reported":1750349574,"current_range_meters":12000,"station_id":"st_cvj6r9ubvosntc0bgbag","pricing_plan_id":"cebpf4jnsgd1na2vs0mg"},{"bike_id":"2c555767-5c9b-4c10-a745-6bbf5ccfa066","system_id":"levelo_inurba_marseille","lat":43.2539,"lon":5.37641,"is_reserved":false,"is_disabled":false,"rental_uris":{"android":"levelo://app?vid=2c555767-5c9b-4c10-a745-6bbf5ccfa066","ios":"levelo://app?vid=2c555767-5c9b-4c10-a745-6bbf5ccfa066"},"vehicle_type_id":"4","last_reported":1750349574,"current_range_meters":12400,"station_id":"","pricing_plan_id":"cebpf4jnsgd1na2vs0mg"},{"bike_id":"f22a4e09-6ce2-4dce-83b5-b13a30ff5f77","system_id":"levelo_inurba_marseille","lat":43.30244,"lon":5.38614,"is_reserved":false,"is_disabled":false,"rental_uris":{"android":"levelo://app?vid=f22a4e09-6ce2-4dce-83b5-b13a30ff5f77","ios":"levelo://app?vid=f22a4e09-6ce2-4dce-83b5-b13a30ff5f77"},"vehicle_type_id":"4","last_reported":1750349574,"current_range_meters":12400,"station_id":"","pricing_plan_id":"cebpf4jnsgd1na2vs0mg"},{"bike_id":"778f7bf7-7568-4006-89e9-43b986dd857a","system_id":"levelo_inurba_marseille","lat":43.29689,"lon":5.37271,"is_reserved":false,"is_disabled":false,"rental_uris":{"android":"levelo://app?vid=778f7bf7-7568-4006-89e9-43b986dd857a","ios":"levelo://app?vid=778f7bf7-7568-4006-89e9-43b986dd857a"},"vehicle_type_id":"4","last_reported":1750349574,"current_range_meters":12800,"station_id":"ce4bgk12rcd13ifvqbj0","pricing_plan_id":"cebpf4jnsgd1na2vs0mg"},{"bike_id":"d713d41c-ad70-4bb0-bc4e-4b4dba3c9176","system_id":"levelo_inurba_marseille","lat":43.30525,"lon":5.36534,"is_reserved":false,"is_disabled":false,"rental_uris":{"android":"levelo://app?vid=d713d41c-ad70-4bb0-bc4e-4b4dba3c9176","ios":"levelo://app?vid=d713d41c-ad70-4bb0-bc4e-4b4dba3c9176"},"vehicle_type_id":"4","last_reported":1750349574,"current_range_meters":12800,"station_id":"ce4bgs12rcd13ifvqcag","pricing_plan_id":"cebpf4jnsgd1na2vs0mg"},{"bike_id":"e21139bb-f8b0-4d30-a406-1bf8271b62bd","system_id":"levelo_inurba_marseille","lat":43.28688,"lon":5.37397,"is_reserved":false,"is_disabled":false,"rental_uris":{"android":"levelo://app?vid=e21139bb-f8b0-4d30-a406-1bf8271b62bd","ios":"levelo://app?vid=e21139bb-f8b0-4d30-a406-1bf8271b62bd"},"vehicle_type_id":"4","last_reported":1750349574,"current_range_meters":12800,"station_id":"ce4bh3p2rcd13ifvqdq0","pricing_plan_id":"cebpf4jnsgd1na2vs0mg"},{"bike_id":"df77b6d2-6834-4a44-a94b-20f11853c902","system_id":"levelo_inurba_marseille","lat":43.28421,"lon":5.34992,"is_reserved":false,"is_disabled":false,"rental_uris":{"android":"levelo://app?vid=df77b6d2-6834-4a44-a94b-20f11853c902","ios":"levelo://app?vid=df77b6d2-6834-4a44-a94b-20f11853c902"},"vehicle_type_id":"4","last_reported":1750349574,"current_range_meters":12800,"station_id":"ce4bhbh2rcd13ifvqepg","pricing_plan_id":"cebpf4jnsgd1na2vs0mg"},{"bike_id":"edd63433-ddbd-4651-a174-4c63d2df31da","system_id":"levelo_inurba_marseille","lat":43.28267,"lon":5.3506,"is_reserved":false,"is_disabled":false,"rental_uris":{"android":"levelo://app?vid=edd63433-ddbd-4651-a174-4c63d2df31da","ios":"levelo://app?vid=edd63433-ddbd-4651-a174-4c63d2df31da"},"vehicle_type_id":"4","last_reported":1750349574,"current_range_meters":12800,"station_id":"ce4bhbp2rcd13ifvqerg","pricing_plan_id":"cebpf4jnsgd1na2vs0mg"},{"bike_id":"a3593b0c-c970-4588-8963-a053f0a5744c","system_id":"levelo_inurba_marseille","lat":43.245414,"lon":5.395273,"is_reserved":false,"is_disabled":false,"rental_uris":{"android":"levelo://app?vid=a3593b0c-c970-4588-8963-a053f0a5744c","ios":"levelo://app?vid=a3593b0c-c970-4588-8963-a053f0a5744c"},"vehicle_type_id":"4","last_reported":1750349574,"current_range_meters":12800,"station_id":"ce4bhlp2rcd13ifvqgjg","pricing_plan_id":"cebpf4jnsgd1na2vs0mg"},{"bike_id":"120313ea-a70f-48d0-90eb-072fcb2d4cd7","system_id":"levelo_inurba_marseille","lat":43.33738,"lon":5.39178,"is_reserved":false,"is_disabled":false,"rental_uris":{"android":"levelo://app?vid=120313ea-a70f-48d0-90eb-072fcb2d4cd7","ios":"levelo://app?vid=120313ea-a70f-48d0-90eb-072fcb2d4cd7"},"vehicle_type_id":"4","last_reported":1750349574,"current_range_meters":12800,"station_id":"ce4bhr92rcd13ifvqhsg","pricing_plan_id":"cebpf4jnsgd1na2vs0mg"},{"bike_id":"89053cde-c162-4e51-80c6-490d489ad24a","system_id":"levelo_inurba_marseille","lat":43.30932,"lon":5.40155,"is_reserved":false,"is_disabled":false,"rental_uris":{"android":"levelo://app?vid=89053cde-c162-4e51-80c6-490d489ad24a","ios":"levelo://app?vid=89053cde-c162-4e51-80c6-490d489ad24a"},"vehicle_type_id":"4","last_reported":1750349574,"current_range_meters":13600,"station_id":"ce4bgvp2rcd13ifvqct0","pricing_plan_id":"cebpf4jnsgd1na2vs0mg"},{"bike_id":"96efdb29-a86a-4dee-ac0b-6da8345639de","system_id":"levelo_inurba_marseille","lat":43.28118,"lon":5.37843,"is_reserved":false,"is_disabled":false,"rental_uris":{"android":"levelo://app?vid=96efdb29-a86a-4dee-ac0b-6da8345639de","ios":"levelo://app?vid=96efdb29-a86a-4dee-ac0b-6da8345639de"},"vehicle_type_id":"4","last_reported":1750349574,"current_range_meters":13600,"station_id":"ce4bha12rcd13ifvqee0","pricing_plan_id":"cebpf4jnsgd1na2vs0mg"},{"bike_id":"70083776-afc4-42b4-8ebe-95815720e050","system_id":"levelo_inurba_marseille","lat":43.28409,"lon":5.34988,"is_reserved":false,"is_disabled":false,"rental_uris":{"android":"levelo://app?vid=70083776-afc4-42b4-8ebe-95815720e050","ios":"levelo://app?vid=70083776-afc4-42b4-8ebe-95815720e050"},"vehicle_type_id":"4","last_reported":1750349574,"current_range_meters":13600,"station_id":"ce4bhbh2rcd13ifvqepg","pricing_plan_id":"cebpf4jnsgd1na2vs0mg"},{"bike_id":"4e843060-018f-4f9f-97c4-3e11f372dca1","system_id":"levelo_inurba_marseille","lat":43.24763,"lon":5.4123,"is_reserved":false,"is_disabled":false,"rental_uris":{"android":"levelo://app?vid=4e843060-018f-4f9f-97c4-3e11f372dca1","ios":"levelo://app?vid=4e843060-018f-4f9f-97c4-3e11f372dca1"},"vehicle_type_id":"4","last_reported":1750349574,"current_range_meters":14000,"station_id":"","pricing_plan_id":"cebpf4jnsgd1na2vs0mg"},{"bike_id":"ca22fa2e-c6e3-4f47-bb16-6f7833f5306c","system_id":"levelo_inurba_marseille","lat":43.28382,"lon":5.35006,"is_reserved":false,"is_disabled":false,"rental_uris":{"android":"levelo://app?vid=ca22fa2e-c6e3-4f47-bb16-6f7833f5306c","ios":"levelo://app?vid=ca22fa2e-c6e3-4f47-bb16-6f7833f5306c"},"vehicle_type_id":"4","last_reported":1750349574,"current_range_meters":14000,"station_id":"","pricing_plan_id":"cebpf4jnsgd1na2vs0mg"},{"bike_id":"f02ac7f1-a5fc-4ebf-8282-4a4773d0063b","system_id":"levelo_inurba_marseille","lat":43.24384,"lon":5.37059,"is_reserved":false,"is_disabled":false,"rental_uris":{"android":"levelo://app?vid=f02ac7f1-a5fc-4ebf-8282-4a4773d0063b","ios":"levelo://app?vid=f02ac7f1-a5fc-4ebf-8282-4a4773d0063b"},"vehicle_type_id":"4","last_reported":1750349574,"current_range_meters":14000,"station_id":"ce4bhhh2rcd13ifvqfk0","pricing_plan_id":"cebpf4jnsgd1na2vs0mg"},{"bike_id":"54210a61-fe87-4d66-814d-631d7f0e9060","system_id":"levelo_inurba_marseille","lat":43.29009,"lon":5.35609,"is_reserved":false,"is_disabled":false,"rental_uris":{"android":"levelo://app?vid=54210a61-fe87-4d66-814d-631d7f0e9060","ios":"levelo://app?vid=54210a61-fe87-4d66-814d-631d7f0e9060"},"vehicle_type_id":"4","last_reported":1750349574,"current_range_meters":14400,"station_id":"ce4bhb92rcd13ifvqen0","pricing_plan_id":"cebpf4jnsgd1na2vs0mg"},{"bike_id":"1e2946e4-fea3-457d-93a5-b35053a9af4f","system_id":"levelo_inurba_marseille","lat":43.29005,"lon":5.35612,"is_reserved":false,"is_disabled":false,"rental_uris":{"android":"levelo://app?vid=1e2946e4-fea3-457d-93a5-b35053a9af4f","ios":"levelo://app?vid=1e2946e4-fea3-457d-93a5-b35053a9af4f"},"vehicle_type_id":"4","last_reported":1750349574,"current_range_meters":14400,"station_id":"ce4bhb92rcd13ifvqen0","pricing_plan_id":"cebpf4jnsgd1na2vs0mg"},{"bike_id":"a6fe0ec7-64ea-4b18-8695-9b78b78fc37d","system_id":"levelo_inurba_marseille","lat":43.27374,"lon":5.36263,"is_reserved":false,"is_disabled":false,"rental_uris":{"android":"levelo://app?vid=a6fe0ec7-64ea-4b18-8695-9b78b78fc37d","ios":"levelo://app?vid=a6fe0ec7-64ea-4b18-8695-9b78b78fc37d"},"vehicle_type_id":"4","last_reported":1750349574,"current_range_meters":14400,"station_id":"ce4bhbh2rcd13ifvqeo0","pricing_plan_id":"cebpf4jnsgd1na2vs0mg"},{"bike_id":"4fd11d57-6d19-4ca8-a590-6b0075c56825","system_id":"levelo_inurba_marseille","lat":43.22503,"lon":5.34786,"is_reserved":false,"is_disabled":false,"rental_uris":{"android":"levelo://app?vid=4fd11d57-6d19-4ca8-a590-6b0075c56825","ios":"levelo://app?vid=4fd11d57-6d19-4ca8-a590-6b0075c56825"},"vehicle_type_id":"4","last_reported":1750349574,"current_range_meters":14800,"station_id":"","pricing_plan_id":"cebpf4jnsgd1na2vs0mg"},{"bike_id":"d9b2950a-cd4b-488f-8f1a-b2421b953666","system_id":"levelo_inurba_marseille","lat":43.31499,"lon":5.39209,"is_reserved":false,"is_disabled":false,"rental_uris":{"android":"levelo://app?vid=d9b2950a-cd4b-488f-8f1a-b2421b953666","ios":"levelo://app?vid=d9b2950a-cd4b-488f-8f1a-b2421b953666"},"vehicle_type_id":"4","last_reported":1750349574,"current_range_meters":14800,"station_id":"","pricing_plan_id":"cebpf4jnsgd1na2vs0mg"},{"bike_id":"71e0ab88-eb6d-442f-bd78-2ebb8a29168d","system_id":"levelo_inurba_marseille","lat":43.26214,"lon":5.37438,"is_reserved":false,"is_disabled":false,"rental_uris":{"android":"levelo://app?vid=71e0ab88-eb6d-442f-bd78-2ebb8a29168d","ios":"levelo://app?vid=71e0ab88-eb6d-442f-bd78-2ebb8a29168d"},"vehicle_type_id":"4","last_reported":1750349574,"current_range_meters":14800,"station_id":"ce4bhgp2rcd13ifvqfc0","pricing_plan_id":"cebpf4jnsgd1na2vs0mg"},{"bike_id":"ac2384ad-a0da-47da-a8d0-a1bc051d8279","system_id":"levelo_inurba_marseille","lat":43.28155,"lon":5.42653,"is_reserved":false,"is_disabled":false,"rental_uris":{"android":"levelo://app?vid=ac2384ad-a0da-47da-a8d0-a1bc051d8279","ios":"levelo://app?vid=ac2384ad-a0da-47da-a8d0-a1bc051d8279"},"vehicle_type_id":"4","last_reported":1750349574,"current_range_meters":14800,"station_id":"ce4bhnh2rcd13ifvqgug","pricing_plan_id":"cebpf4jnsgd1na2vs0mg"},{"bike_id":"d5364f3f-2192-4e6f-89c0-9c187fbc4f9b","system_id":"levelo_inurba_marseille","lat":43.28606,"lon":5.3704,"is_reserved":false,"is_disabled":false,"rental_uris":{"android":"levelo://app?vid=d5364f3f-2192-4e6f-89c0-9c187fbc4f9b","ios":"levelo://app?vid=d5364f3f-2192-4e6f-89c0-9c187fbc4f9b"},"vehicle_type_id":"4","last_reported":1750349574,"current_range_meters":14800,"station_id":"ce4bht12rcd13ifvqi60","pricing_plan_id":"cebpf4jnsgd1na2vs0mg"},{"bike_id":"60563cbb-9061-4006-8e41-2def95d43c6c","system_id":"levelo_inurba_marseille","lat":43.32711,"lon":5.39599,"is_reserved":false,"is_disabled":false,"rental_uris":{"android":"levelo://app?vid=60563cbb-9061-4006-8e41-2def95d43c6c","ios":"levelo://app?vid=60563cbb-9061-4006-8e41-2def95d43c6c"},"vehicle_type_id":"4","last_reported":1750349574,"current_range_meters":15200,"station_id":"","pricing_plan_id":"cebpf4jnsgd1na2vs0mg"},{"bike_id":"54bbaa15-050c-4526-b172-09f06af97620","system_id":"levelo_inurba_marseille","lat":43.28424,"lon":5.34983,"is_reserved":false,"is_disabled":false,"rental_uris":{"android":"levelo://app?vid=54bbaa15-050c-4526-b172-09f06af97620","ios":"levelo://app?vid=54bbaa15-050c-4526-b172-09f06af97620"},"vehicle_type_id":"4","last_reported":1750349574,"current_range_meters":16000,"station_id":"ce4bhbh2rcd13ifvqepg","pricing_plan_id":"cebpf4jnsgd1na2vs0mg"},{"bike_id":"a9a99511-61a8-4890-8915-7e87b20c150d","system_id":"levelo_inurba_marseille","lat":43.28258,"lon":5.35069,"is_reserved":false,"is_disabled":false,"rental_uris":{"android":"levelo://app?vid=a9a99511-61a8-4890-8915-7e87b20c150d","ios":"levelo://app?vid=a9a99511-61a8-4890-8915-7e87b20c150d"},"vehicle_type_id":"4","last_reported":1750349574,"current_range_meters":16000,"station_id":"ce4bhbp2rcd13ifvqerg","pricing_plan_id":"cebpf4jnsgd1na2vs0mg"},{"bike_id":"112ec9ae-a901-45ff-a08e-5e7fde785f43","system_id":"levelo_inurba_marseille","lat":43.24659,"lon":5.38864,"is_reserved":false,"is_disabled":false,"rental_uris":{"android":"levelo://app?vid=112ec9ae-a901-45ff-a08e-5e7fde785f43","ios":"levelo://app?vid=112ec9ae-a901-45ff-a08e-5e7fde785f43"},"vehicle_type_id":"4","last_reported":1750349574,"current_range_meters":16000,"station_id":"ce4bhg12rcd13ifvqf60","pricing_plan_id":"cebpf4jnsgd1na2vs0mg"},{"bike_id":"9c036fd3-f18b-4d96-81ef-3a3b44f0c371","system_id":"levelo_inurba_marseille","lat":43.30351,"lon":5.41881,"is_reserved":false,"is_disabled":false,"rental_uris":{"android":"levelo://app?vid=9c036fd3-f18b-4d96-81ef-3a3b44f0c371","ios":"levelo://app?vid=9c036fd3-f18b-4d96-81ef-3a3b44f0c371"},"vehicle_type_id":"4","last_reported":1750349574,"current_range_meters":16000,"station_id":"ce4bhop2rcd13ifvqh7g","pricing_plan_id":"cebpf4jnsgd1na2vs0mg"},{"bike_id":"dc39e9df-7330-4303-9cdd-6bb46e47798c","system_id":"levelo_inurba_marseille","lat":43.23057,"lon":5.3549,"is_reserved":false,"is_disabled":false,"rental_uris":{"android":"levelo://app?vid=dc39e9df-7330-4303-9cdd-6bb46e47798c","ios":"levelo://app?vid=dc39e9df-7330-4303-9cdd-6bb46e47798c"},"vehicle_type_id":"4","last_reported":1750349574,"current_range_meters":16000,"station_id":"cpo3342slgdg3j2ifvpg","pricing_plan_id":"cebpf4jnsgd1na2vs0mg"},{"bike_id":"c08ce5b0-7b02-4204-a925-87c16aedeea6","system_id":"levelo_inurba_marseille","lat":43.28227,"lon":5.35088,"is_reserved":false,"is_disabled":false,"rental_uris":{"android":"levelo://app?vid=c08ce5b0-7b02-4204-a925-87c16aedeea6","ios":"levelo://app?vid=c08ce5b0-7b02-4204-a925-87c16aedeea6"},"vehicle_type_id":"4","last_reported":1750349574,"current_range_meters":16400,"station_id":"","pricing_plan_id":"cebpf4jnsgd1na2vs0mg"},{"bike_id":"fe75accb-bd3a-4946-b9b9-4541e6661814","system_id":"levelo_inurba_marseille","lat":43.27366,"lon":5.36245,"is_reserved":false,"is_disabled":false,"rental_uris":{"android":"levelo://app?vid=fe75accb-bd3a-4946-b9b9-4541e6661814","ios":"levelo://app?vid=fe75accb-bd3a-4946-b9b9-4541e6661814"},"vehicle_type_id":"4","last_reported":1750349574,"current_range_meters":16400,"station_id":"ce4bhbh2rcd13ifvqeo0","pricing_plan_id":"cebpf4jnsgd1na2vs0mg"},{"bike_id":"5c17f474-67ea-463c-abb4-6621c8a461db","system_id":"levelo_inurba_marseille","lat":43.28403,"lon":5.34989,"is_reserved":false,"is_disabled":false,"rental_uris":{"android":"levelo://app?vid=5c17f474-67ea-463c-abb4-6621c8a461db","ios":"levelo://app?vid=5c17f474-67ea-463c-abb4-6621c8a461db"},"vehicle_type_id":"4","last_reported":1750349574,"current_range_meters":16400,"station_id":"ce4bhbh2rcd13ifvqepg","pricing_plan_id":"cebpf4jnsgd1na2vs0mg"},{"bike_id":"47e3a548-00d3-421a-96dd-59b385f0f268","system_id":"levelo_inurba_marseille","lat":43.28614,"lon":5.35103,"is_reserved":false,"is_disabled":false,"rental_uris":{"android":"levelo://app?vid=47e3a548-00d3-421a-96dd-59b385f0f268","ios":"levelo://app?vid=47e3a548-00d3-421a-96dd-59b385f0f268"},"vehicle_type_id":"4","last_reported":1750349574,"current_range_meters":16400,"station_id":"ce4bhch2rcd13ifvqeug","pricing_plan_id":"cebpf4jnsgd1na2vs0mg"},{"bike_id":"05617efb-0532-432b-8463-4c11af64d106","system_id":"levelo_inurba_marseille","lat":43.2791,"lon":5.39578,"is_reserved":false,"is_disabled":false,"rental_uris":{"android":"levelo://app?vid=05617efb-0532-432b-8463-4c11af64d106","ios":"levelo://app?vid=05617efb-0532-432b-8463-4c11af64d106"},"vehicle_type_id":"4","last_reported":1750349574,"current_range_meters":16400,"station_id":"ce4bhf92rcd13ifvqf40","pricing_plan_id":"cebpf4jnsgd1na2vs0mg"},{"bike_id":"6ae6e39c-0b1b-4f8a-be05-3ee0ef03885a","system_id":"levelo_inurba_marseille","lat":43.24174,"lon":5.39722,"is_reserved":false,"is_disabled":false,"rental_uris":{"android":"levelo://app?vid=6ae6e39c-0b1b-4f8a-be05-3ee0ef03885a","ios":"levelo://app?vid=6ae6e39c-0b1b-4f8a-be05-3ee0ef03885a"},"vehicle_type_id":"4","last_reported":1750349574,"current_range_meters":16400,"station_id":"ce4bhn12rcd13ifvqgpg","pricing_plan_id":"cebpf4jnsgd1na2vs0mg"},{"bike_id":"6431d412-2932-4980-ac7e-f8538d699ec7","system_id":"levelo_inurba_marseille","lat":43.28938,"lon":5.36626,"is_reserved":false,"is_disabled":false,"rental_uris":{"android":"levelo://app?vid=6431d412-2932-4980-ac7e-f8538d699ec7","ios":"levelo://app?vid=6431d412-2932-4980-ac7e-f8538d699ec7"},"vehicle_type_id":"4","last_reported":1750349574,"current_range_meters":16800,"station_id":"ce4bhap2rcd13ifvqek0","pricing_plan_id":"cebpf4jnsgd1na2vs0mg"},{"bike_id":"4447f6d0-e11d-4e77-b2aa-3af0cbdb515f","system_id":"levelo_inurba_marseille","lat":43.28395,"lon":5.35004,"is_reserved":false,"is_disabled":false,"rental_uris":{"android":"levelo://app?vid=4447f6d0-e11d-4e77-b2aa-3af0cbdb515f","ios":"levelo://app?vid=4447f6d0-e11d-4e77-b2aa-3af0cbdb515f"},"vehicle_type_id":"4","last_reported":1750349574,"current_range_meters":16800,"station_id":"ce4bhbh2rcd13ifvqepg","pricing_plan_id":"cebpf4jnsgd1na2vs0mg"},{"bike_id":"adaeb88f-f9fe-467d-a342-0c5166479803","system_id":"levelo_inurba_marseille","lat":43.28615,"lon":5.35101,"is_reserved":false,"is_disabled":false,"rental_uris":{"android":"levelo://app?vid=adaeb88f-f9fe-467d-a342-0c5166479803","ios":"levelo://app?vid=adaeb88f-f9fe-467d-a342-0c5166479803"},"vehicle_type_id":"4","last_reported":1750349574,"current_range_meters":16800,"station_id":"ce4bhch2rcd13ifvqeug","pricing_plan_id":"cebpf4jnsgd1na2vs0mg"},{"bike_id":"82915371-7334-4dd2-8e36-149dd712deb4","system_id":"levelo_inurba_marseille","lat":43.26206,"lon":5.37442,"is_reserved":false,"is_disabled":false,"rental_uris":{"android":"levelo://app?vid=82915371-7334-4dd2-8e36-149dd712deb4","ios":"levelo://app?vid=82915371-7334-4dd2-8e36-149dd712deb4"},"vehicle_type_id":"4","last_reported":1750349574,"current_range_meters":16800,"station_id":"ce4bhgp2rcd13ifvqfc0","pricing_plan_id":"cebpf4jnsgd1na2vs0mg"},{"bike_id":"90b16cae-cb1b-43e3-bbae-1c8bccde67e7","system_id":"levelo_inurba_marseille","lat":43.23059,"lon":5.35492,"is_reserved":false,"is_disabled":false,"rental_uris":{"android":"levelo://app?vid=90b16cae-cb1b-43e3-bbae-1c8bccde67e7","ios":"levelo://app?vid=90b16cae-cb1b-43e3-bbae-1c8bccde67e7"},"vehicle_type_id":"4","last_reported":1750349574,"current_range_meters":16800,"station_id":"cpo3342slgdg3j2ifvpg","pricing_plan_id":"cebpf4jnsgd1na2vs0mg"},{"bike_id":"7e65b096-aa08-41c8-9b2a-e94078d8b578","system_id":"levelo_inurba_marseille","lat":43.21164,"lon":5.35087,"is_reserved":false,"is_disabled":false,"rental_uris":{"android":"levelo://app?vid=7e65b096-aa08-41c8-9b2a-e94078d8b578","ios":"levelo://app?vid=7e65b096-aa08-41c8-9b2a-e94078d8b578"},"vehicle_type_id":"4","last_reported":1750349574,"current_range_meters":16800,"station_id":"st_cvj6sg6p6f1abm77japg","pricing_plan_id":"cebpf4jnsgd1na2vs0mg"},{"bike_id":"ed647391-d36e-4592-a3f3-2e2da5105e2b","system_id":"levelo_inurba_marseille","lat":43.2841,"lon":5.34979,"is_reserved":false,"is_disabled":false,"rental_uris":{"android":"levelo://app?vid=ed647391-d36e-4592-a3f3-2e2da5105e2b","ios":"levelo://app?vid=ed647391-d36e-4592-a3f3-2e2da5105e2b"},"vehicle_type_id":"4","last_reported":1750349574,"current_range_meters":17200,"station_id":"","pricing_plan_id":"cebpf4jnsgd1na2vs0mg"},{"bike_id":"20e00570-f6d7-4dfc-b32f-f073957c4d3a","system_id":"levelo_inurba_marseille","lat":43.29252,"lon":5.38448,"is_reserved":false,"is_disabled":false,"rental_uris":{"android":"levelo://app?vid=20e00570-f6d7-4dfc-b32f-f073957c4d3a","ios":"levelo://app?vid=20e00570-f6d7-4dfc-b32f-f073957c4d3a"},"vehicle_type_id":"4","last_reported":1750349574,"current_range_meters":17200,"station_id":"ce4bh692rcd13ifvqea0","pricing_plan_id":"cebpf4jnsgd1na2vs0mg"},{"bike_id":"082e3d54-c88b-49a8-875d-5cfa97490ab7","system_id":"levelo_inurba_marseille","lat":43.29004,"lon":5.35604,"is_reserved":false,"is_disabled":false,"rental_uris":{"android":"levelo://app?vid=082e3d54-c88b-49a8-875d-5cfa97490ab7","ios":"levelo://app?vid=082e3d54-c88b-49a8-875d-5cfa97490ab7"},"vehicle_type_id":"4","last_reported":1750349574,"current_range_meters":17200,"station_id":"ce4bhb92rcd13ifvqen0","pricing_plan_id":"cebpf4jnsgd1na2vs0mg"},{"bike_id":"bae8d7db-8cfd-4cec-a975-665b0c8785e2","system_id":"levelo_inurba_marseille","lat":43.28267,"lon":5.35085,"is_reserved":false,"is_disabled":false,"rental_uris":{"android":"levelo://app?vid=bae8d7db-8cfd-4cec-a975-665b0c8785e2","ios":"levelo://app?vid=bae8d7db-8cfd-4cec-a975-665b0c8785e2"},"vehicle_type_id":"4","last_reported":1750349574,"current_range_meters":17200,"station_id":"ce4bhbp2rcd13ifvqerg","pricing_plan_id":"cebpf4jnsgd1na2vs0mg"},{"bike_id":"bccdc658-56fe-4e9d-8d96-2e2a4523cc9a","system_id":"levelo_inurba_marseille","lat":43.24805,"lon":5.37457,"is_reserved":false,"is_disabled":false,"rental_uris":{"android":"levelo://app?vid=bccdc658-56fe-4e9d-8d96-2e2a4523cc9a","ios":"levelo://app?vid=bccdc658-56fe-4e9d-8d96-2e2a4523cc9a"},"vehicle_type_id":"4","last_reported":1750349574,"current_range_meters":17200,"station_id":"ce4bhgh2rcd13ifvqfb0","pricing_plan_id":"cebpf4jnsgd1na2vs0mg"},{"bike_id":"2162d617-bae6-458f-8b2a-ab7352d65232","system_id":"levelo_inurba_marseille","lat":43.33024,"lon":5.39037,"is_reserved":false,"is_disabled":false,"rental_uris":{"android":"levelo://app?vid=2162d617-bae6-458f-8b2a-ab7352d65232","ios":"levelo://app?vid=2162d617-bae6-458f-8b2a-ab7352d65232"},"vehicle_type_id":"4","last_reported":1750349574,"current_range_meters":17200,"station_id":"ce4bhr92rcd13ifvqhrg","pricing_plan_id":"cebpf4jnsgd1na2vs0mg"},{"bike_id":"02446148-c9f7-4f78-b18f-149730da9a75","system_id":"levelo_inurba_marseille","lat":43.2322,"lon":5.35552,"is_reserved":false,"is_disabled":false,"rental_uris":{"android":"levelo://app?vid=02446148-c9f7-4f78-b18f-149730da9a75","ios":"levelo://app?vid=02446148-c9f7-4f78-b18f-149730da9a75"},"vehicle_type_id":"4","last_reported":1750349574,"current_range_meters":17200,"station_id":"ce4bhu92rcd13ifvqi70","pricing_plan_id":"cebpf4jnsgd1na2vs0mg"},{"bike_id":"528bef72-46e9-41b0-b04e-843b9766aec6","system_id":"levelo_inurba_marseille","lat":43.29248,"lon":5.37618,"is_reserved":false,"is_disabled":false,"rental_uris":{"android":"levelo://app?vid=528bef72-46e9-41b0-b04e-843b9766aec6","ios":"levelo://app?vid=528bef72-46e9-41b0-b04e-843b9766aec6"},"vehicle_type_id":"4","last_reported":1750349574,"current_range_meters":17600,"station_id":"ce4bgi12rcd13ifvqb80","pricing_plan_id":"cebpf4jnsgd1na2vs0mg"},{"bike_id":"78630f49-7303-4da0-b7cc-3b2f5de8cb5d","system_id":"levelo_inurba_marseille","lat":43.28942,"lon":5.3661,"is_reserved":false,"is_disabled":false,"rental_uris":{"android":"levelo://app?vid=78630f49-7303-4da0-b7cc-3b2f5de8cb5d","ios":"levelo://app?vid=78630f49-7303-4da0-b7cc-3b2f5de8cb5d"},"vehicle_type_id":"4","last_reported":1750349574,"current_range_meters":17600,"station_id":"ce4bhap2rcd13ifvqek0","pricing_plan_id":"cebpf4jnsgd1na2vs0mg"},{"bike_id":"cc34d586-b82f-4a34-8fa6-12192bd50232","system_id":"levelo_inurba_marseille","lat":43.28416,"lon":5.34996,"is_reserved":false,"is_disabled":false,"rental_uris":{"android":"levelo://app?vid=cc34d586-b82f-4a34-8fa6-12192bd50232","ios":"levelo://app?vid=cc34d586-b82f-4a34-8fa6-12192bd50232"},"vehicle_type_id":"4","last_reported":1750349574,"current_range_meters":17600,"station_id":"ce4bhbh2rcd13ifvqepg","pricing_plan_id":"cebpf4jnsgd1na2vs0mg"},{"bike_id":"943f49cc-0adb-4419-b3a1-6a5e9d1d39b3","system_id":"levelo_inurba_marseille","lat":43.28259,"lon":5.35086,"is_reserved":false,"is_disabled":false,"rental_uris":{"android":"levelo://app?vid=943f49cc-0adb-4419-b3a1-6a5e9d1d39b3","ios":"levelo://app?vid=943f49cc-0adb-4419-b3a1-6a5e9d1d39b3"},"vehicle_type_id":"4","last_reported":1750349574,"current_range_meters":17600,"station_id":"ce4bhbp2rcd13ifvqerg","pricing_plan_id":"cebpf4jnsgd1na2vs0mg"},{"bike_id":"784efc61-b1c0-4015-bd86-20f443ceb29d","system_id":"levelo_inurba_marseille","lat":43.23965,"lon":5.36638,"is_reserved":false,"is_disabled":false,"rental_uris":{"android":"levelo://app?vid=784efc61-b1c0-4015-bd86-20f443ceb29d","ios":"levelo://app?vid=784efc61-b1c0-4015-bd86-20f443ceb29d"},"vehicle_type_id":"4","last_reported":1750349574,"current_range_meters":17600,"station_id":"ce4bhi12rcd13ifvqfp0","pricing_plan_id":"cebpf4jnsgd1na2vs0mg"},{"bike_id":"0371a5af-71b5-4cbd-b4d4-4cecebe1731a","system_id":"levelo_inurba_marseille","lat":43.29006,"lon":5.35617,"is_reserved":false,"is_disabled":false,"rental_uris":{"android":"levelo://app?vid=0371a5af-71b5-4cbd-b4d4-4cecebe1731a","ios":"levelo://app?vid=0371a5af-71b5-4cbd-b4d4-4cecebe1731a"},"vehicle_type_id":"4","last_reported":1750349574,"current_range_meters":18000,"station_id":"ce4bhb92rcd13ifvqen0","pricing_plan_id":"cebpf4jnsgd1na2vs0mg"},{"bike_id":"650dfdbc-4825-47e6-ad0c-e18215952ca4","system_id":"levelo_inurba_marseille","lat":43.27369,"lon":5.36266,"is_reserved":false,"is_disabled":false,"rental_uris":{"android":"levelo://app?vid=650dfdbc-4825-47e6-ad0c-e18215952ca4","ios":"levelo://app?vid=650dfdbc-4825-47e6-ad0c-e18215952ca4"},"vehicle_type_id":"4","last_reported":1750349574,"current_range_meters":18000,"station_id":"ce4bhbh2rcd13ifvqeo0","pricing_plan_id":"cebpf4jnsgd1na2vs0mg"},{"bike_id":"e363306f-53a7-42d8-a215-bdbce499e1dd","system_id":"levelo_inurba_marseille","lat":43.28426,"lon":5.34989,"is_reserved":false,"is_disabled":false,"rental_uris":{"android":"levelo://app?vid=e363306f-53a7-42d8-a215-bdbce499e1dd","ios":"levelo://app?vid=e363306f-53a7-42d8-a215-bdbce499e1dd"},"vehicle_type_id":"4","last_reported":1750349574,"current_range_meters":18000,"station_id":"ce4bhbh2rcd13ifvqepg","pricing_plan_id":"cebpf4jnsgd1na2vs0mg"},{"bike_id":"5d61a476-d928-43bc-a2d3-8e2cb86cdc7d","system_id":"levelo_inurba_marseille","lat":43.28616,"lon":5.35087,"is_reserved":false,"is_disabled":false,"rental_uris":{"android":"levelo://app?vid=5d61a476-d928-43bc-a2d3-8e2cb86cdc7d","ios":"levelo://app?vid=5d61a476-d928-43bc-a2d3-8e2cb86cdc7d"},"vehicle_type_id":"4","last_reported":1750349574,"current_range_meters":18000,"station_id":"ce4bhch2rcd13ifvqeug","pricing_plan_id":"cebpf4jnsgd1na2vs0mg"},{"bike_id":"754b8b52-43f3-4b62-95b5-ddb42968d4af","system_id":"levelo_inurba_marseille","lat":43.26207,"lon":5.37442,"is_reserved":false,"is_disabled":false,"rental_uris":{"android":"levelo://app?vid=754b8b52-43f3-4b62-95b5-ddb42968d4af","ios":"levelo://app?vid=754b8b52-43f3-4b62-95b5-ddb42968d4af"},"vehicle_type_id":"4","last_reported":1750349574,"current_range_meters":18000,"station_id":"ce4bhgp2rcd13ifvqfc0","pricing_plan_id":"cebpf4jnsgd1na2vs0mg"},{"bike_id":"1e99a5ea-8ebd-4563-9248-e9f883ad9b66","system_id":"levelo_inurba_marseille","lat":43.27807,"lon":5.40715,"is_reserved":false,"is_disabled":false,"rental_uris":{"android":"levelo://app?vid=1e99a5ea-8ebd-4563-9248-e9f883ad9b66","ios":"levelo://app?vid=1e99a5ea-8ebd-4563-9248-e9f883ad9b66"},"vehicle_type_id":"4","last_reported":1750349574,"current_range_meters":18000,"station_id":"ce4bhnh2rcd13ifvqgtg","pricing_plan_id":"cebpf4jnsgd1na2vs0mg"},{"bike_id":"6e32e3bc-2e61-4835-afa7-19f1fa304cc5","system_id":"levelo_inurba_marseille","lat":43.32288,"lon":5.38272,"is_reserved":false,"is_disabled":false,"rental_uris":{"android":"levelo://app?vid=6e32e3bc-2e61-4835-afa7-19f1fa304cc5","ios":"levelo://app?vid=6e32e3bc-2e61-4835-afa7-19f1fa304cc5"},"vehicle_type_id":"4","last_reported":1750349574,"current_range_meters":18000,"station_id":"ce4bhr12rcd13ifvqhqg","pricing_plan_id":"cebpf4jnsgd1na2vs0mg"},{"bike_id":"f138f97c-9184-4423-8851-43001f2097b7","system_id":"levelo_inurba_marseille","lat":43.21187,"lon":5.35085,"is_reserved":false,"is_disabled":false,"rental_uris":{"android":"levelo://app?vid=f138f97c-9184-4423-8851-43001f2097b7","ios":"levelo://app?vid=f138f97c-9184-4423-8851-43001f2097b7"},"vehicle_type_id":"4","last_reported":1750349574,"current_range_meters":18000,"station_id":"st_cvj6sg6p6f1abm77japg","pricing_plan_id":"cebpf4jnsgd1na2vs0mg"},{"bike_id":"f5035d12-6f6d-499b-8c76-01bbb6677f60","system_id":"levelo_inurba_marseille","lat":43.31289,"lon":5.37538,"is_reserved":false,"is_disabled":false,"rental_uris":{"android":"levelo://app?vid=f5035d12-6f6d-499b-8c76-01bbb6677f60","ios":"levelo://app?vid=f5035d12-6f6d-499b-8c76-01bbb6677f60"},"vehicle_type_id":"4","last_reported":1750349574,"current_range_meters":18800,"station_id":"","pricing_plan_id":"cebpf4jnsgd1na2vs0mg"},{"bike_id":"7fb8f777-502e-4027-8e9f-d463bb7373be","system_id":"levelo_inurba_marseille","lat":43.29661,"lon":5.38021,"is_reserved":false,"is_disabled":false,"rental_uris":{"android":"levelo://app?vid=7fb8f777-502e-4027-8e9f-d463bb7373be","ios":"levelo://app?vid=7fb8f777-502e-4027-8e9f-d463bb7373be"},"vehicle_type_id":"4","last_reported":1750349574,"current_range_meters":18800,"station_id":"","pricing_plan_id":"cebpf4jnsgd1na2vs0mg"},{"bike_id":"ddd64ad8-2943-4b92-abbf-415a9064e534","system_id":"levelo_inurba_marseille","lat":43.30431,"lon":5.38893,"is_reserved":false,"is_disabled":false,"rental_uris":{"android":"levelo://app?vid=ddd64ad8-2943-4b92-abbf-415a9064e534","ios":"levelo://app?vid=ddd64ad8-2943-4b92-abbf-415a9064e534"},"vehicle_type_id":"4","last_reported":1750349574,"current_range_meters":18800,"station_id":"ce4bgk12rcd13ifvqbi0","pricing_plan_id":"cebpf4jnsgd1na2vs0mg"},{"bike_id":"474fe8de-6467-4685-b711-e41603c5f858","system_id":"levelo_inurba_marseille","lat":43.297205,"lon":5.3765,"is_reserved":false,"is_disabled":false,"rental_uris":{"android":"levelo://app?vid=474fe8de-6467-4685-b711-e41603c5f858","ios":"levelo://app?vid=474fe8de-6467-4685-b711-e41603c5f858"},"vehicle_type_id":"4","last_reported":1750349574,"current_range_meters":18800,"station_id":"ce4bgkh2rcd13ifvqbl0","pricing_plan_id":"cebpf4jnsgd1na2vs0mg"},{"bike_id":"27970314-2047-48cf-8f5a-47edda0d779f","system_id":"levelo_inurba_marseille","lat":43.28405,"lon":5.34995,"is_reserved":false,"is_disabled":false,"rental_uris":{"android":"levelo://app?vid=27970314-2047-48cf-8f5a-47edda0d779f","ios":"levelo://app?vid=27970314-2047-48cf-8f5a-47edda0d779f"},"vehicle_type_id":"4","last_reported":1750349574,"current_range_meters":18800,"station_id":"ce4bhbh2rcd13ifvqepg","pricing_plan_id":"cebpf4jnsgd1na2vs0mg"},{"bike_id":"b381d487-6fae-405c-83c8-68446987b737","system_id":"levelo_inurba_marseille","lat":43.26191,"lon":5.37445,"is_reserved":false,"is_disabled":false,"rental_uris":{"android":"levelo://app?vid=b381d487-6fae-405c-83c8-68446987b737","ios":"levelo://app?vid=b381d487-6fae-405c-83c8-68446987b737"},"vehicle_type_id":"4","last_reported":1750349574,"current_range_meters":18800,"station_id":"ce4bhgp2rcd13ifvqfc0","pricing_plan_id":"cebpf4jnsgd1na2vs0mg"},{"bike_id":"11e60fe5-7081-4cc5-a354-46f7e64cae32","system_id":"levelo_inurba_marseille","lat":43.2757,"lon":5.38407,"is_reserved":false,"is_disabled":false,"rental_uris":{"android":"levelo://app?vid=11e60fe5-7081-4cc5-a354-46f7e64cae32","ios":"levelo://app?vid=11e60fe5-7081-4cc5-a354-46f7e64cae32"},"vehicle_type_id":"4","last_reported":1750349574,"current_range_meters":18800,"station_id":"ce4bhh92rcd13ifvqfi0","pricing_plan_id":"cebpf4jnsgd1na2vs0mg"},{"bike_id":"32c8c1a1-a0e7-4a63-a191-fe37a5f45194","system_id":"levelo_inurba_marseille","lat":43.21163,"lon":5.35067,"is_reserved":false,"is_disabled":false,"rental_uris":{"android":"levelo://app?vid=32c8c1a1-a0e7-4a63-a191-fe37a5f45194","ios":"levelo://app?vid=32c8c1a1-a0e7-4a63-a191-fe37a5f45194"},"vehicle_type_id":"4","last_reported":1750349574,"current_range_meters":18800,"station_id":"st_cvj6sg6p6f1abm77japg","pricing_plan_id":"cebpf4jnsgd1na2vs0mg"},{"bike_id":"cf938ffb-6c00-47b6-8541-ae03bc50cdfc","system_id":"levelo_inurba_marseille","lat":43.2901,"lon":5.35598,"is_reserved":false,"is_disabled":false,"rental_uris":{"android":"levelo://app?vid=cf938ffb-6c00-47b6-8541-ae03bc50cdfc","ios":"levelo://app?vid=cf938ffb-6c00-47b6-8541-ae03bc50cdfc"},"vehicle_type_id":"4","last_reported":1750349574,"current_range_meters":19200,"station_id":"ce4bhb92rcd13ifvqen0","pricing_plan_id":"cebpf4jnsgd1na2vs0mg"},{"bike_id":"d4c4bb36-02dd-4270-afd8-8909dbb361be","system_id":"levelo_inurba_marseille","lat":43.28405,"lon":5.34996,"is_reserved":false,"is_disabled":false,"rental_uris":{"android":"levelo://app?vid=d4c4bb36-02dd-4270-afd8-8909dbb361be","ios":"levelo://app?vid=d4c4bb36-02dd-4270-afd8-8909dbb361be"},"vehicle_type_id":"4","last_reported":1750349574,"current_range_meters":19200,"station_id":"ce4bhbh2rcd13ifvqepg","pricing_plan_id":"cebpf4jnsgd1na2vs0mg"},{"bike_id":"3939df6a-c644-4caf-9fc0-3fbc572e8f68","system_id":"levelo_inurba_marseille","lat":43.28246,"lon":5.35095,"is_reserved":false,"is_disabled":false,"rental_uris":{"android":"levelo://app?vid=3939df6a-c644-4caf-9fc0-3fbc572e8f68","ios":"levelo://app?vid=3939df6a-c644-4caf-9fc0-3fbc572e8f68"},"vehicle_type_id":"4","last_reported":1750349574,"current_range_meters":19200,"station_id":"ce4bhbp2rcd13ifvqerg","pricing_plan_id":"cebpf4jnsgd1na2vs0mg"},{"bike_id":"44369bae-8d02-4e16-94ec-ebf91efba22a","system_id":"levelo_inurba_marseille","lat":43.28616,"lon":5.35106,"is_reserved":false,"is_disabled":false,"rental_uris":{"android":"levelo://app?vid=44369bae-8d02-4e16-94ec-ebf91efba22a","ios":"levelo://app?vid=44369bae-8d02-4e16-94ec-ebf91efba22a"},"vehicle_type_id":"4","last_reported":1750349574,"current_range_meters":19200,"station_id":"ce4bhch2rcd13ifvqeug","pricing_plan_id":"cebpf4jnsgd1na2vs0mg"},{"bike_id":"2240cb6f-1169-417d-bb9c-470c7e61f023","system_id":"levelo_inurba_marseille","lat":43.26213,"lon":5.37437,"is_reserved":false,"is_disabled":false,"rental_uris":{"android":"levelo://app?vid=2240cb6f-1169-417d-bb9c-470c7e61f023","ios":"levelo://app?vid=2240cb6f-1169-417d-bb9c-470c7e61f023"},"vehicle_type_id":"4","last_reported":1750349574,"current_range_meters":19200,"station_id":"ce4bhgp2rcd13ifvqfc0","pricing_plan_id":"cebpf4jnsgd1na2vs0mg"},{"bike_id":"e17fa418-1a03-4493-b8fb-b937788d83b7","system_id":"levelo_inurba_marseille","lat":43.24181,"lon":5.36386,"is_reserved":false,"is_disabled":false,"rental_uris":{"android":"levelo://app?vid=e17fa418-1a03-4493-b8fb-b937788d83b7","ios":"levelo://app?vid=e17fa418-1a03-4493-b8fb-b937788d83b7"},"vehicle_type_id":"4","last_reported":1750349574,"current_range_meters":19200,"station_id":"cpo36qri1sfpv3e86is0","pricing_plan_id":"cebpf4jnsgd1na2vs0mg"},{"bike_id":"104b1bd5-55a1-4d5b-96b5-b484f607ce6d","system_id":"levelo_inurba_marseille","lat":43.28923,"lon":5.36659,"is_reserved":false,"is_disabled":false,"rental_uris":{"android":"levelo://app?vid=104b1bd5-55a1-4d5b-96b5-b484f607ce6d","ios":"levelo://app?vid=104b1bd5-55a1-4d5b-96b5-b484f607ce6d"},"vehicle_type_id":"4","last_reported":1750349574,"current_range_meters":19600,"station_id":"ce4bhap2rcd13ifvqek0","pricing_plan_id":"cebpf4jnsgd1na2vs0mg"},{"bike_id":"5fd3b9b5-a9a6-4143-8f5e-8e826c127288","system_id":"levelo_inurba_marseille","lat":43.282573,"lon":5.350743,"is_reserved":false,"is_disabled":false,"rental_uris":{"android":"levelo://app?vid=5fd3b9b5-a9a6-4143-8f5e-8e826c127288","ios":"levelo://app?vid=5fd3b9b5-a9a6-4143-8f5e-8e826c127288"},"vehicle_type_id":"4","last_reported":1750349574,"current_range_meters":19600,"station_id":"ce4bhbp2rcd13ifvqerg","pricing_plan_id":"cebpf4jnsgd1na2vs0mg"},{"bike_id":"72ace9d9-c92b-49de-aef1-08296e13698c","system_id":"levelo_inurba_marseille","lat":43.286123,"lon":5.351024,"is_reserved":false,"is_disabled":false,"rental_uris":{"android":"levelo://app?vid=72ace9d9-c92b-49de-aef1-08296e13698c","ios":"levelo://app?vid=72ace9d9-c92b-49de-aef1-08296e13698c"},"vehicle_type_id":"4","last_reported":1750349574,"current_range_meters":19600,"station_id":"ce4bhch2rcd13ifvqeug","pricing_plan_id":"cebpf4jnsgd1na2vs0mg"},{"bike_id":"261a658f-71d3-458e-bd96-e98a429eba85","system_id":"levelo_inurba_marseille","lat":43.26555,"lon":5.39064,"is_reserved":false,"is_disabled":false,"rental_uris":{"android":"levelo://app?vid=261a658f-71d3-458e-bd96-e98a429eba85","ios":"levelo://app?vid=261a658f-71d3-458e-bd96-e98a429eba85"},"vehicle_type_id":"4","last_reported":1750349574,"current_range_meters":19600,"station_id":"ce4bhe12rcd13ifvqf30","pricing_plan_id":"cebpf4jnsgd1na2vs0mg"},{"bike_id":"e0222858-fdee-4e3d-a517-1dd356051947","system_id":"levelo_inurba_marseille","lat":43.24403,"lon":5.37102,"is_reserved":false,"is_disabled":false,"rental_uris":{"android":"levelo://app?vid=e0222858-fdee-4e3d-a517-1dd356051947","ios":"levelo://app?vid=e0222858-fdee-4e3d-a517-1dd356051947"},"vehicle_type_id":"4","last_reported":1750349574,"current_range_meters":19600,"station_id":"ce4bhhh2rcd13ifvqfk0","pricing_plan_id":"cebpf4jnsgd1na2vs0mg"},{"bike_id":"d995dacb-8051-4fc6-aa29-27460090e377","system_id":"levelo_inurba_marseille","lat":43.28143,"lon":5.42653,"is_reserved":false,"is_disabled":false,"rental_uris":{"android":"levelo://app?vid=d995dacb-8051-4fc6-aa29-27460090e377","ios":"levelo://app?vid=d995dacb-8051-4fc6-aa29-27460090e377"},"vehicle_type_id":"4","last_reported":1750349574,"current_range_meters":19600,"station_id":"ce4bhnh2rcd13ifvqgug","pricing_plan_id":"cebpf4jnsgd1na2vs0mg"},{"bike_id":"57029dcb-f8f0-4879-af98-4454df02d01f","system_id":"levelo_inurba_marseille","lat":43.27949,"lon":5.41056,"is_reserved":false,"is_disabled":false,"rental_uris":{"android":"levelo://app?vid=57029dcb-f8f0-4879-af98-4454df02d01f","ios":"levelo://app?vid=57029dcb-f8f0-4879-af98-4454df02d01f"},"vehicle_type_id":"4","last_reported":1750349574,"current_range_meters":19600,"station_id":"ce4bhnp2rcd13ifvqh0g","pricing_plan_id":"cebpf4jnsgd1na2vs0mg"},{"bike_id":"94968cc8-da1e-439c-9a9f-b1d94c7ec21d","system_id":"levelo_inurba_marseille","lat":43.31992,"lon":5.38159,"is_reserved":false,"is_disabled":false,"rental_uris":{"android":"levelo://app?vid=94968cc8-da1e-439c-9a9f-b1d94c7ec21d","ios":"levelo://app?vid=94968cc8-da1e-439c-9a9f-b1d94c7ec21d"},"vehicle_type_id":"4","last_reported":1750349574,"current_range_meters":19600,"station_id":"ce4bhr12rcd13ifvqhpg","pricing_plan_id":"cebpf4jnsgd1na2vs0mg"},{"bike_id":"dc540ba2-fb63-45eb-b83a-1826fb3d30b7","system_id":"levelo_inurba_marseille","lat":43.24607,"lon":5.39272,"is_reserved":false,"is_disabled":false,"rental_uris":{"android":"levelo://app?vid=dc540ba2-fb63-45eb-b83a-1826fb3d30b7","ios":"levelo://app?vid=dc540ba2-fb63-45eb-b83a-1826fb3d30b7"},"vehicle_type_id":"4","last_reported":1750349574,"current_range_meters":20000,"station_id":"","pricing_plan_id":"cebpf4jnsgd1na2vs0mg"},{"bike_id":"b984307d-92ed-4266-95fb-9b5f0088eafe","system_id":"levelo_inurba_marseille","lat":43.28238,"lon":5.35094,"is_reserved":false,"is_disabled":false,"rental_uris":{"android":"levelo://app?vid=b984307d-92ed-4266-95fb-9b5f0088eafe","ios":"levelo://app?vid=b984307d-92ed-4266-95fb-9b5f0088eafe"},"vehicle_type_id":"4","last_reported":1750349574,"current_range_meters":20000,"station_id":"","pricing_plan_id":"cebpf4jnsgd1na2vs0mg"},{"bike_id":"a1687005-d6a6-41d3-b60e-c23a83102fc3","system_id":"levelo_inurba_marseille","lat":43.28406,"lon":5.34988,"is_reserved":false,"is_disabled":false,"rental_uris":{"android":"levelo://app?vid=a1687005-d6a6-41d3-b60e-c23a83102fc3","ios":"levelo://app?vid=a1687005-d6a6-41d3-b60e-c23a83102fc3"},"vehicle_type_id":"4","last_reported":1750349574,"current_range_meters":20000,"station_id":"ce4bhbh2rcd13ifvqepg","pricing_plan_id":"cebpf4jnsgd1na2vs0mg"},{"bike_id":"6246db46-b045-4c48-8d1a-61a555580290","system_id":"levelo_inurba_marseille","lat":43.28267,"lon":5.35076,"is_reserved":false,"is_disabled":false,"rental_uris":{"android":"levelo://app?vid=6246db46-b045-4c48-8d1a-61a555580290","ios":"levelo://app?vid=6246db46-b045-4c48-8d1a-61a555580290"},"vehicle_type_id":"4","last_reported":1750349574,"current_range_meters":20000,"station_id":"ce4bhbp2rcd13ifvqerg","pricing_plan_id":"cebpf4jnsgd1na2vs0mg"},{"bike_id":"d17fcb68-5f23-430f-99f8-f08fdbf9d419","system_id":"levelo_inurba_marseille","lat":43.26216,"lon":5.37439,"is_reserved":false,"is_disabled":false,"rental_uris":{"android":"levelo://app?vid=d17fcb68-5f23-430f-99f8-f08fdbf9d419","ios":"levelo://app?vid=d17fcb68-5f23-430f-99f8-f08fdbf9d419"},"vehicle_type_id":"4","last_reported":1750349574,"current_range_meters":20000,"station_id":"ce4bhgp2rcd13ifvqfc0","pricing_plan_id":"cebpf4jnsgd1na2vs0mg"},