{"last_updated":1743704048,"ttl":60,"version":"2.2","data":{"bikes":[{"bike_id":"2086d0e9-485f-4e5e-bed9-77a1892e934a","system_id":"levelo_inurba_marseille","lat":43.28723,"lon":5.37947,"is_reserved":false,"is_disabled":false,"rental_uris":{"android":"levelo://app?vid=2086d0e9-485f-4e5e-bed9-77a1892e934a","ios":"levelo://app?vid=2086d0e9-485f-4e5e-bed9-77a1892e934a"},"vehicle_type_id":"4","last_reported":1743704048,"current_range_meters":2800,"station_id":"ce4bh9p2rcd13ifvqec0","pricing_plan_id":"cebpf4jnsgd1na2vs0mg"},{"bike_id":"442b2378-584a-451d-8deb-4d911de3a673","system_id":"levelo_inurba_marseille","lat":43.23068,"lon":5.35479,"is_reserved":false,"is_disabled":false,"rental_uris":{"android":"levelo://app?vid=442b2378-584a-451d-8deb-4d911de3a673","ios":"levelo://app?vid=442b2378-584a-451d-8deb-4d911de3a673"},"vehicle_type_id":"4","last_reported":1743704048,"current_range_meters":2800,"station_id":"cpo3342slgdg3j2ifvpg","pricing_plan_id":"cebpf4jnsgd1na2vs0mg"},{"bike_id":"e4efd48d-39d2-474c-bc4e-93a330e8ccd6","system_id":"levelo_inurba_marseille","lat":43.29418,"lon":5.38632,"is_reserved":false,"is_disabled":false,"rental_uris":{"android":"levelo://app?vid=e4efd48d-39d2-474c-bc4e-93a330e8ccd6","ios":"levelo://app?vid=e4efd48d-39d2-474c-bc4e-93a330e8ccd6"},"vehicle_type_id":"4","last_reported":1743704048,"current_range_meters":2800,"station_id":"ce4bh2h2rcd13ifvqdh0","pricing_plan_id":"cebpf4jnsgd1na2vs0mg"},{"bike_id":"d7442a8d-ddb9-4595-80d2-d17d487026dd","system_id":"levelo_inurba_marseille","lat":43.24077,"lon":5.37756,"is_reserved":false,"is_disabled":false,"rental_uris":{"android":"levelo://app?vid=d7442a8d-ddb9-4595-80d2-d17d487026dd","ios":"levelo://app?vid=d7442a8d-ddb9-4595-80d2-d17d487026dd"},"vehicle_type_id":"4","last_reported":1743704048,"current_range_meters":2800,"station_id":"ce4bhnp2rcd13ifvqgvg","pricing_plan_id":"cebpf4jnsgd1na2vs0mg"},{"bike_id":"d748d8e9-0050-43f2-a9c8-d28ed0c7002c","system_id":"levelo_inurba_marseille","lat":43.27575,"lon":5.38422,"is_reserved":false,"is_disabled":true,"rental_uris":{"android":"levelo://app?vid=d748d8e9-0050-43f2-a9c8-d28ed0c7002c","ios":"levelo://app?vid=d748d8e9-0050-43f2-a9c8-d28ed0c7002c"},"vehicle_type_id":"4","last_reported":1743704048,"current_range_meters":2800,"station_id":"ce4bhh92rcd13ifvqfi0","pricing_plan_id":"cebpf4jnsgd1na2vs0mg"},{"bike_id":"4435f31d-dea9-404b-8104-599d8116678c","system_id":"levelo_inurba_marseille","lat":43.31101,"lon":5.37776,"is_reserved":false,"is_disabled":false,"rental_uris":{"android":"levelo://app?vid=4435f31d-dea9-404b-8104-599d8116678c","ios":"levelo://app?vid=4435f31d-dea9-404b-8104-599d8116678c"},"vehicle_type_id":"4","last_reported":1743704048,"current_range_meters":2800,"station_id":"ce4bgt92rcd13ifvqcg0","pricing_plan_id":"cebpf4jnsgd1na2vs0mg"},{"bike_id":"b6aa1c76-66e7-47c0-a7c1-e74cb745bcd7","system_id":"levelo_inurba_marseille","lat":43.297069,"lon":5.376945,"is_reserved":false,"is_disabled":false,"rental_uris":{"android":"levelo://app?vid=b6aa1c76-66e7-47c0-a7c1-e74cb745bcd7","ios":"levelo://app?vid=b6aa1c76-66e7-47c0-a7c1-e74cb745bcd7"},"vehicle_type_id":"4","last_reported":1743704048,"current_range_meters":2800,"station_id":"ce4bgkh2rcd13ifvqbl0","pricing_plan_id":"cebpf4jnsgd1na2vs0mg"},{"bike_id":"e6b69cd2-f965-4a12-9e02-6f28a269f9f9","system_id":"levelo_inurba_marseille","lat":43.23061,"lon":5.35502,"is_reserved":false,"is_disabled":true,"rental_uris":{"android":"levelo://app?vid=e6b69cd2-f965-4a12-9e02-6f28a269f9f9","ios":"levelo://app?vid=e6b69cd2-f965-4a12-9e02-6f28a269f9f9"},"vehicle_type_id":"4","last_reported":1743704048,"current_range_meters":3200,"station_id":"cpo3342slgdg3j2ifvpg","pricing_plan_id":"cebpf4jnsgd1na2vs0mg"},{"bike_id":"4292e08f-1038-4dcc-99f5-04d78541de5a","system_id":"levelo_inurba_marseille","lat":43.25578,"lon":5.38248,"is_reserved":false,"is_disabled":false,"rental_uris":{"android":"levelo://app?vid=4292e08f-1038-4dcc-99f5-04d78541de5a","ios":"levelo://app?vid=4292e08f-1038-4dcc-99f5-04d78541de5a"},"vehicle_type_id":"4","last_reported":1743704048,"current_range_meters":3200,"station_id":"ce4bhih2rcd13ifvqfs0","pricing_plan_id":"cebpf4jnsgd1na2vs0mg"},{"bike_id":"6dd0b526-6746-4c72-9546-fd074df902fd","system_id":"levelo_inurba_marseille","lat":43.22931,"lon":5.35378,"is_reserved":false,"is_disabled":false,"rental_uris":{"android":"levelo://app?vid=6dd0b526-6746-4c72-9546-fd074df902fd","ios":"levelo://app?vid=6dd0b526-6746-4c72-9546-fd074df902fd"},"vehicle_type_id":"4","last_reported":1743704048,"current_range_meters":3200,"station_id":"cpo3532slgdg3j2ikp40","pricing_plan_id":"cebpf4jnsgd1na2vs0mg"},{"bike_id":"d94de94a-970b-4924-8326-67b952cd2bd1","system_id":"levelo_inurba_marseille","lat":43.29372,"lon":5.37854,"is_reserved":false,"is_disabled":false,"rental_uris":{"android":"levelo://app?vid=d94de94a-970b-4924-8326-67b952cd2bd1","ios":"levelo://app?vid=d94de94a-970b-4924-8326-67b952cd2bd1"},"vehicle_type_id":"4","last_reported":1743704048,"current_range_meters":3200,"station_id":"ce4bgjh2rcd13ifvqbf0","pricing_plan_id":"cebpf4jnsgd1na2vs0mg"},{"bike_id":"a4ba0203-0771-4195-8ecd-997d1ee36e29","system_id":"levelo_inurba_marseille","lat":43.28437,"lon":5.3921,"is_reserved":false,"is_disabled":false,"rental_uris":{"android":"levelo://app?vid=a4ba0203-0771-4195-8ecd-997d1ee36e29","ios":"levelo://app?vid=a4ba0203-0771-4195-8ecd-997d1ee36e29"},"vehicle_type_id":"4","last_reported":1743704048,"current_range_meters":3200,"station_id":"ce4bhoh2rcd13ifvqh5g","pricing_plan_id":"cebpf4jnsgd1na2vs0mg"},{"bike_id":"aa2b10d5-4698-48b0-aa9a-57d64ed5d087","system_id":"levelo_inurba_marseille","lat":43.2942,"lon":5.38586,"is_reserved":false,"is_disabled":false,"rental_uris":{"android":"levelo://app?vid=aa2b10d5-4698-48b0-aa9a-57d64ed5d087","ios":"levelo://app?vid=aa2b10d5-4698-48b0-aa9a-57d64ed5d087"},"vehicle_type_id":"4","last_reported":1743704048,"current_range_meters":3200,"station_id":"ce4bh2h2rcd13ifvqdh0","pricing_plan_id":"cebpf4jnsgd1na2vs0mg"},{"bike_id":"3fb25925-8851-4724-8c1a-238b348d9a04","system_id":"levelo_inurba_marseille","lat":43.24202,"lon":5.39706,"is_reserved":false,"is_disabled":false,"rental_uris":{"android":"levelo://app?vid=3fb25925-8851-4724-8c1a-238b348d9a04","ios":"levelo://app?vid=3fb25925-8851-4724-8c1a-238b348d9a04"},"vehicle_type_id":"4","last_reported":1743704048,"current_range_meters":3600,"station_id":"ce4bhn12rcd13ifvqgpg","pricing_plan_id":"cebpf4jnsgd1na2vs0mg"},{"bike_id":"16b1fd21-6e7d-42df-bc68-51407ffeea25","system_id":"levelo_inurba_marseille","lat":43.30951,"lon":5.39034,"is_reserved":false,"is_disabled":false,"rental_uris":{"android":"levelo://app?vid=16b1fd21-6e7d-42df-bc68-51407ffeea25","ios":"levelo://app?vid=16b1fd21-6e7d-42df-bc68-51407ffeea25"},"vehicle_type_id":"4","last_reported":1743704048,"current_range_meters":1600,"station_id":"ce4bgup2rcd13ifvqco0","pricing_plan_id":"cebpf4jnsgd1na2vs0mg"},{"bike_id":"d157a8ac-f1ea-480a-a1ee-9ac00962bb01","system_id":"levelo_inurba_marseille","lat":43.29547,"lon":5.42287,"is_reserved":false,"is_disabled":false,"rental_uris":{"android":"levelo://app?vid=d157a8ac-f1ea-480a-a1ee-9ac00962bb01","ios":"levelo://app?vid=d157a8ac-f1ea-480a-a1ee-9ac00962bb01"},"vehicle_type_id":"4","last_reported":1743704048,"current_range_meters":3600,"station_id":"ce4bhph2rcd13ifvqhdg","pricing_plan_id":"cebpf4jnsgd1na2vs0mg"},{"bike_id":"dff07cb4-c60f-4c0e-9b86-1576ff98ca28","system_id":"levelo_inurba_marseille","lat":43.287034,"lon":5.373584,"is_reserved":false,"is_disabled":false,"rental_uris":{"android":"levelo://app?vid=dff07cb4-c60f-4c0e-9b86-1576ff98ca28","ios":"levelo://app?vid=dff07cb4-c60f-4c0e-9b86-1576ff98ca28"},"vehicle_type_id":"4","last_reported":1743704048,"current_range_meters":3600,"station_id":"ce4bh3p2rcd13ifvqdq0","pricing_plan_id":"cebpf4jnsgd1na2vs0mg"},{"bike_id":"f656fe50-61b1-4b6c-bde8-770244a23035","system_id":"levelo_inurba_marseille","lat":43.32998,"lon":5.395653,"is_reserved":false,"is_disabled":false,"rental_uris":{"android":"levelo://app?vid=f656fe50-61b1-4b6c-bde8-770244a23035","ios":"levelo://app?vid=f656fe50-61b1-4b6c-bde8-770244a23035"},"vehicle_type_id":"4","last_reported":1743704048,"current_range_meters":4000,"station_id":"","pricing_plan_id":"cebpf4jnsgd1na2vs0mg"},{"bike_id":"5bcd8b31-8ebe-45e4-8835-121aa7b3ba47","system_id":"levelo_inurba_marseille","lat":43.27995,"lon":5.41664,"is_reserved":false,"is_disabled":false,"rental_uris":{"android":"levelo://app?vid=5bcd8b31-8ebe-45e4-8835-121aa7b3ba47","ios":"levelo://app?vid=5bcd8b31-8ebe-45e4-8835-121aa7b3ba47"},"vehicle_type_id":"4","last_reported":1743704048,"current_range_meters":4000,"station_id":"ce4bho12rcd13ifvqh1g","pricing_plan_id":"cebpf4jnsgd1na2vs0mg"},{"bike_id":"7b87d739-7f80-4552-bbfb-cf6073708985","system_id":"levelo_inurba_marseille","lat":43.2971,"lon":5.3772,"is_reserved":false,"is_disabled":false,"rental_uris":{"android":"levelo://app?vid=7b87d739-7f80-4552-bbfb-cf6073708985","ios":"levelo://app?vid=7b87d739-7f80-4552-bbfb-cf6073708985"},"vehicle_type_id":"4","last_reported":1743704048,"current_range_meters":4000,"station_id":"ce4bgkh2rcd13ifvqbl0","pricing_plan_id":"cebpf4jnsgd1na2vs0mg"},{"bike_id":"ca499c5b-cec8-4fd9-9569-1a77d55c5612","system_id":"levelo_inurba_marseille","lat":43.30312,"lon":5.39211,"is_reserved":false,"is_disabled":false,"rental_uris":{"android":"levelo://app?vid=ca499c5b-cec8-4fd9-9569-1a77d55c5612","ios":"levelo://app?vid=ca499c5b-cec8-4fd9-9569-1a77d55c5612"},"vehicle_type_id":"4","last_reported":1743704048,"current_range_meters":4000,"station_id":"ce4bgkh2rcd13ifvqbk0","pricing_plan_id":"cebpf4jnsgd1na2vs0mg"},{"bike_id":"b6f9f842-d54a-45eb-80eb-927b4bd1ed8b","system_id":"levelo_inurba_marseille","lat":43.33745,"lon":5.39158,"is_reserved":false,"is_disabled":false,"rental_uris":{"android":"levelo://app?vid=b6f9f842-d54a-45eb-80eb-927b4bd1ed8b","ios":"levelo://app?vid=b6f9f842-d54a-45eb-80eb-927b4bd1ed8b"},"vehicle_type_id":"4","last_reported":1743704048,"current_range_meters":4400,"station_id":"ce4bhr92rcd13ifvqhsg","pricing_plan_id":"cebpf4jnsgd1na2vs0mg"},{"bike_id":"f57d0422-46ac-4f80-92ef-db11bf210f22","system_id":"levelo_inurba_marseille","lat":43.30734,"lon":5.42446,"is_reserved":false,"is_disabled":false,"rental_uris":{"android":"levelo://app?vid=f57d0422-46ac-4f80-92ef-db11bf210f22","ios":"levelo://app?vid=f57d0422-46ac-4f80-92ef-db11bf210f22"},"vehicle_type_id":"4","last_reported":1743704048,"current_range_meters":4400,"station_id":"st_cvj6ca6bvosntc0bfgr0","pricing_plan_id":"cebpf4jnsgd1na2vs0mg"},{"bike_id":"27c1a669-fc81-4b2e-a315-f250306bf664","system_id":"levelo_inurba_marseille","lat":43.2319,"lon":5.39975,"is_reserved":false,"is_disabled":false,"rental_uris":{"android":"levelo://app?vid=27c1a669-fc81-4b2e-a315-f250306bf664","ios":"levelo://app?vid=27c1a669-fc81-4b2e-a315-f250306bf664"},"vehicle_type_id":"4","last_reported":1743704048,"current_range_meters":4400,"station_id":"ce4bhn12rcd13ifvqgqg","pricing_plan_id":"cebpf4jnsgd1na2vs0mg"},{"bike_id":"f5d7f8f3-4971-41c2-a4ff-774452d26ef7","system_id":"levelo_inurba_marseille","lat":43.29883,"lon":5.39734,"is_reserved":false,"is_disabled":false,"rental_uris":{"android":"levelo://app?vid=f5d7f8f3-4971-41c2-a4ff-774452d26ef7","ios":"levelo://app?vid=f5d7f8f3-4971-41c2-a4ff-774452d26ef7"},"vehicle_type_id":"4","last_reported":1743704048,"current_range_meters":4000,"station_id":"ce4bh0h2rcd13ifvqd50","pricing_plan_id":"cebpf4jnsgd1na2vs0mg"},{"bike_id":"179d36d6-5494-4ad0-a6a1-5527b92e5697","system_id":"levelo_inurba_marseille","lat":43.23062,"lon":5.35495,"is_reserved":false,"is_disabled":false,"rental_uris":{"android":"levelo://app?vid=179d36d6-5494-4ad0-a6a1-5527b92e5697","ios":"levelo://app?vid=179d36d6-5494-4ad0-a6a1-5527b92e5697"},"vehicle_type_id":"4","last_reported":1743704048,"current_range_meters":4400,"station_id":"cpo3342slgdg3j2ifvpg","pricing_plan_id":"cebpf4jnsgd1na2vs0mg"},{"bike_id":"48e47fda-e3a1-4204-8e03-94ac1f90f7f5","system_id":"levelo_inurba_marseille","lat":43.29274,"lon":5.36842,"is_reserved":false,"is_disabled":false,"rental_uris":{"android":"levelo://app?vid=48e47fda-e3a1-4204-8e03-94ac1f90f7f5","ios":"levelo://app?vid=48e47fda-e3a1-4204-8e03-94ac1f90f7f5"},"vehicle_type_id":"4","last_reported":1743704048,"current_range_meters":4400,"station_id":"ce4bhbp2rcd13ifvqesg","pricing_plan_id":"cebpf4jnsgd1na2vs0mg"},{"bike_id":"423ce9e8-609d-4741-8453-18c8bb743659","system_id":"levelo_inurba_marseille","lat":43.29266,"lon":5.38452,"is_reserved":false,"is_disabled":false,"rental_uris":{"android":"levelo://app?vid=423ce9e8-609d-4741-8453-18c8bb743659","ios":"levelo://app?vid=423ce9e8-609d-4741-8453-18c8bb743659"},"vehicle_type_id":"4","last_reported":1743704048,"current_range_meters":4400,"station_id":"ce4bh692rcd13ifvqea0","pricing_plan_id":"cebpf4jnsgd1na2vs0mg"},{"bike_id":"9e644c02-4a7a-42cd-ad87-c0e4f7c6a8cf","system_id":"levelo_inurba_marseille","lat":43.28152,"lon":5.42642,"is_reserved":false,"is_disabled":false,"rental_uris":{"android":"levelo://app?vid=9e644c02-4a7a-42cd-ad87-c0e4f7c6a8cf","ios":"levelo://app?vid=9e644c02-4a7a-42cd-ad87-c0e4f7c6a8cf"},"vehicle_type_id":"4","last_reported":1743704048,"current_range_meters":4400,"station_id":"ce4bhnh2rcd13ifvqgug","pricing_plan_id":"cebpf4jnsgd1na2vs0mg"},{"bike_id":"dfc10afb-6cae-4c57-a8de-38aa28a33d3b","system_id":"levelo_inurba_marseille","lat":43.28939,"lon":5.36616,"is_reserved":false,"is_disabled":false,"rental_uris":{"android":"levelo://app?vid=dfc10afb-6cae-4c57-a8de-38aa28a33d3b","ios":"levelo://app?vid=dfc10afb-6cae-4c57-a8de-38aa28a33d3b"},"vehicle_type_id":"4","last_reported":1743704048,"current_range_meters":4800,"station_id":"ce4bhap2rcd13ifvqek0","pricing_plan_id":"cebpf4jnsgd1na2vs0mg"},{"bike_id":"7544b465-2c57-4ad7-bdba-b30a26a428b7","system_id":"levelo_inurba_marseille","lat":43.30787,"lon":5.38136,"is_reserved":false,"is_disabled":false,"rental_uris":{"android":"levelo://app?vid=7544b465-2c57-4ad7-bdba-b30a26a428b7","ios":"levelo://app?vid=7544b465-2c57-4ad7-bdba-b30a26a428b7"},"vehicle_type_id":"4","last_reported":1743704048,"current_range_meters":4800,"station_id":"ce4bgt12rcd13ifvqce0","pricing_plan_id":"cebpf4jnsgd1na2vs0mg"},{"bike_id":"e8aab4e9-9e2b-4cdd-86ea-3bd95733a52b","system_id":"levelo_inurba_marseille","lat":43.29535,"lon":5.38543,"is_reserved":false,"is_disabled":false,"rental_uris":{"android":"levelo://app?vid=e8aab4e9-9e2b-4cdd-86ea-3bd95733a52b","ios":"levelo://app?vid=e8aab4e9-9e2b-4cdd-86ea-3bd95733a52b"},"vehicle_type_id":"4","last_reported":1743704048,"current_range_meters":4800,"station_id":"ce4bgih2rcd13ifvqba0","pricing_plan_id":"cebpf4jnsgd1na2vs0mg"},{"bike_id":"7bc507c4-187b-4cb2-a5ef-07322f924baf","system_id":"levelo_inurba_marseille","lat":43.22939,"lon":5.35402,"is_reserved":false,"is_disabled":false,"rental_uris":{"android":"levelo://app?vid=7bc507c4-187b-4cb2-a5ef-07322f924baf","ios":"levelo://app?vid=7bc507c4-187b-4cb2-a5ef-07322f924baf"},"vehicle_type_id":"4","last_reported":1743704048,"current_range_meters":4800,"station_id":"cpo3532slgdg3j2ikp40","pricing_plan_id":"cebpf4jnsgd1na2vs0mg"},{"bike_id":"79c27bee-619d-485f-841c-9d82a8348d1f","system_id":"levelo_inurba_marseille","lat":43.288696,"lon":5.35901,"is_reserved":false,"is_disabled":false,"rental_uris":{"android":"levelo://app?vid=79c27bee-619d-485f-841c-9d82a8348d1f","ios":"levelo://app?vid=79c27bee-619d-485f-841c-9d82a8348d1f"},"vehicle_type_id":"4","last_reported":1743704048,"current_range_meters":4800,"station_id":"ce4bgpp2rcd13ifvqc3g","pricing_plan_id":"cebpf4jnsgd1na2vs0mg"},{"bike_id":"08db227a-b24c-4a47-86fe-674492868bd7","system_id":"levelo_inurba_marseille","lat":43.28086,"lon":5.39667,"is_reserved":false,"is_disabled":false,"rental_uris":{"android":"levelo://app?vid=08db227a-b24c-4a47-86fe-674492868bd7","ios":"levelo://app?vid=08db227a-b24c-4a47-86fe-674492868bd7"},"vehicle_type_id":"4","last_reported":1743704048,"current_range_meters":4800,"station_id":"ce4bho12rcd13ifvqh2g","pricing_plan_id":"cebpf4jnsgd1na2vs0mg"},{"bike_id":"782f2d77-d592-4ef7-a6f2-7929a70f693a","system_id":"levelo_inurba_marseille","lat":43.27615,"lon":5.36118,"is_reserved":false,"is_disabled":false,"rental_uris":{"android":"levelo://app?vid=782f2d77-d592-4ef7-a6f2-7929a70f693a","ios":"levelo://app?vid=782f2d77-d592-4ef7-a6f2-7929a70f693a"},"vehicle_type_id":"4","last_reported":1743704048,"current_range_meters":4800,"station_id":"ce4bgj92rcd13ifvqbe0","pricing_plan_id":"cebpf4jnsgd1na2vs0mg"},{"bike_id":"cffe934f-cc0a-450d-a650-02081bca5bd8","system_id":"levelo_inurba_marseille","lat":43.30377,"lon":5.42485,"is_reserved":false,"is_disabled":false,"rental_uris":{"android":"levelo://app?vid=cffe934f-cc0a-450d-a650-02081bca5bd8","ios":"levelo://app?vid=cffe934f-cc0a-450d-a650-02081bca5bd8"},"vehicle_type_id":"4","last_reported":1743704048,"current_range_meters":4800,"station_id":"ce4bhoh2rcd13ifvqh6g","pricing_plan_id":"cebpf4jnsgd1na2vs0mg"},{"bike_id":"eb1c664a-e730-4745-8498-b250f954637e","system_id":"levelo_inurba_marseille","lat":43.28276,"lon":5.35079,"is_reserved":false,"is_disabled":false,"rental_uris":{"android":"levelo://app?vid=eb1c664a-e730-4745-8498-b250f954637e","ios":"levelo://app?vid=eb1c664a-e730-4745-8498-b250f954637e"},"vehicle_type_id":"4","last_reported":1743704048,"current_range_meters":4800,"station_id":"ce4bhbp2rcd13ifvqerg","pricing_plan_id":"cebpf4jnsgd1na2vs0mg"},{"bike_id":"aefde4af-f02e-48a1-9729-0e7e29a0c245","system_id":"levelo_inurba_marseille","lat":43.29781,"lon":5.37108,"is_reserved":false,"is_disabled":false,"rental_uris":{"android":"levelo://app?vid=aefde4af-f02e-48a1-9729-0e7e29a0c245","ios":"levelo://app?vid=aefde4af-f02e-48a1-9729-0e7e29a0c245"},"vehicle_type_id":"4","last_reported":1743704048,"current_range_meters":5600,"station_id":"ce4bgop2rcd13ifvqc1g","pricing_plan_id":"cebpf4jnsgd1na2vs0mg"},{"bike_id":"fd28a293-c0b2-4928-a368-50f6acfc2a22","system_id":"levelo_inurba_marseille","lat":43.240692,"lon":5.377617,"is_reserved":false,"is_disabled":false,"rental_uris":{"android":"levelo://app?vid=fd28a293-c0b2-4928-a368-50f6acfc2a22","ios":"levelo://app?vid=fd28a293-c0b2-4928-a368-50f6acfc2a22"},"vehicle_type_id":"4","last_reported":1743704048,"current_range_meters":5600,"station_id":"ce4bhnp2rcd13ifvqgvg","pricing_plan_id":"cebpf4jnsgd1na2vs0mg"},{"bike_id":"2bdbe7ee-37bf-4a09-bb1c-db0d38b1b1f5","system_id":"levelo_inurba_marseille","lat":43.29539,"lon":5.38554,"is_reserved":false,"is_disabled":false,"rental_uris":{"android":"levelo://app?vid=2bdbe7ee-37bf-4a09-bb1c-db0d38b1b1f5","ios":"levelo://app?vid=2bdbe7ee-37bf-4a09-bb1c-db0d38b1b1f5"},"vehicle_type_id":"4","last_reported":1743704048,"current_range_meters":5600,"station_id":"ce4bgih2rcd13ifvqba0","pricing_plan_id":"cebpf4jnsgd1na2vs0mg"},{"bike_id":"68d61715-cfad-4f9e-917c-be8d047ab0c1","system_id":"levelo_inurba_marseille","lat":43.26228,"lon":5.40453,"is_reserved":false,"is_disabled":false,"rental_uris":{"android":"levelo://app?vid=68d61715-cfad-4f9e-917c-be8d047ab0c1","ios":"levelo://app?vid=68d61715-cfad-4f9e-917c-be8d047ab0c1"},"vehicle_type_id":"4","last_reported":1743704048,"current_range_meters":5600,"station_id":"ce4bhmh2rcd13ifvqgmg","pricing_plan_id":"cebpf4jnsgd1na2vs0mg"},{"bike_id":"4f289e29-f4e9-45d3-bd4f-83308745e543","system_id":"levelo_inurba_marseille","lat":43.23192,"lon":5.35521,"is_reserved":false,"is_disabled":false,"rental_uris":{"android":"levelo://app?vid=4f289e29-f4e9-45d3-bd4f-83308745e543","ios":"levelo://app?vid=4f289e29-f4e9-45d3-bd4f-83308745e543"},"vehicle_type_id":"4","last_reported":1743704048,"current_range_meters":5600,"station_id":"ce4bhu92rcd13ifvqi70","pricing_plan_id":"cebpf4jnsgd1na2vs0mg"},{"bike_id":"04556df8-715f-45d8-b288-9c8fd51282f9","system_id":"levelo_inurba_marseille","lat":43.23209,"lon":5.35565,"is_reserved":false,"is_disabled":false,"rental_uris":{"android":"levelo://app?vid=04556df8-715f-45d8-b288-9c8fd51282f9","ios":"levelo://app?vid=04556df8-715f-45d8-b288-9c8fd51282f9"},"vehicle_type_id":"4","last_reported":1743704048,"current_range_meters":6000,"station_id":"ce4bhu92rcd13ifvqi70","pricing_plan_id":"cebpf4jnsgd1na2vs0mg"},{"bike_id":"988a4b2a-1fca-4561-9342-57ad8b6adb1c","system_id":"levelo_inurba_marseille","lat":43.2294,"lon":5.35385,"is_reserved":false,"is_disabled":false,"rental_uris":{"android":"levelo://app?vid=988a4b2a-1fca-4561-9342-57ad8b6adb1c","ios":"levelo://app?vid=988a4b2a-1fca-4561-9342-57ad8b6adb1c"},"vehicle_type_id":"4","last_reported":1743704048,"current_range_meters":6000,"station_id":"cpo3532slgdg3j2ikp40","pricing_plan_id":"cebpf4jnsgd1na2vs0mg"},{"bike_id":"f87e996c-206a-47d9-8697-84a2d463fdc3","system_id":"levelo_inurba_marseille","lat":43.23219,"lon":5.35572,"is_reserved":false,"is_disabled":false,"rental_uris":{"android":"levelo://app?vid=f87e996c-206a-47d9-8697-84a2d463fdc3","ios":"levelo://app?vid=f87e996c-206a-47d9-8697-84a2d463fdc3"},"vehicle_type_id":"4","last_reported":1743704048,"current_range_meters":6000,"station_id":"ce4bhu92rcd13ifvqi70","pricing_plan_id":"cebpf4jnsgd1na2vs0mg"},{"bike_id":"c649d525-0414-4075-acaa-9167c4801419","system_id":"levelo_inurba_marseille","lat":43.306576,"lon":5.39492,"is_reserved":false,"is_disabled":false,"rental_uris":{"android":"levelo://app?vid=c649d525-0414-4075-acaa-9167c4801419","ios":"levelo://app?vid=c649d525-0414-4075-acaa-9167c4801419"},"vehicle_type_id":"4","last_reported":1743704048,"current_range_meters":6000,"station_id":"ce4bgqh2rcd13ifvqc4g","pricing_plan_id":"cebpf4jnsgd1na2vs0mg"},{"bike_id":"7a72cf66-833c-46b9-a04a-8568706b9a44","system_id":"levelo_inurba_marseille","lat":43.2419,"lon":5.39734,"is_reserved":false,"is_disabled":false,"rental_uris":{"android":"levelo://app?vid=7a72cf66-833c-46b9-a04a-8568706b9a44","ios":"levelo://app?vid=7a72cf66-833c-46b9-a04a-8568706b9a44"},"vehicle_type_id":"4","last_reported":1743704048,"current_range_meters":6000,"station_id":"ce4bhn12rcd13ifvqgpg","pricing_plan_id":"cebpf4jnsgd1na2vs0mg"},{"bike_id":"22987ff2-118b-4b71-93b3-0a2bc3fe4d66","system_id":"levelo_inurba_marseille","lat":43.2797,"lon":5.41048,"is_reserved":false,"is_disabled":false,"rental_uris":{"android":"levelo://app?vid=22987ff2-118b-4b71-93b3-0a2bc3fe4d66","ios":"levelo://app?vid=22987ff2-118b-4b71-93b3-0a2bc3fe4d66"},"vehicle_type_id":"4","last_reported":1743704048,"current_range_meters":6000,"station_id":"ce4bhnp2rcd13ifvqh0g","pricing_plan_id":"cebpf4jnsgd1na2vs0mg"},{"bike_id":"5a4bba22-b8bd-485a-9124-e201f115a77b","system_id":"levelo_inurba_marseille","lat":43.248081,"lon":5.374641,"is_reserved":false,"is_disabled":true,"rental_uris":{"android":"levelo://app?vid=5a4bba22-b8bd-485a-9124-e201f115a77b","ios":"levelo://app?vid=5a4bba22-b8bd-485a-9124-e201f115a77b"},"vehicle_type_id":"4","last_reported":1743704048,"current_range_meters":6400,"station_id":"","pricing_plan_id":"cebpf4jnsgd1na2vs0mg"},{"bike_id":"261cef1e-9651-4af1-9c17-5fdcb739420e","system_id":"levelo_inurba_marseille","lat":43.27994,"lon":5.400103,"is_reserved":false,"is_disabled":false,"rental_uris":{"android":"levelo://app?vid=261cef1e-9651-4af1-9c17-5fdcb739420e","ios":"levelo://app?vid=261cef1e-9651-4af1-9c17-5fdcb739420e"},"vehicle_type_id":"4","last_reported":1743704048,"current_range_meters":6400,"station_id":"ce4bho92rcd13ifvqh4g","pricing_plan_id":"cebpf4jnsgd1na2vs0mg"},{"bike_id":"6aea377c-b7e9-42fe-8ba9-033144039f82","system_id":"levelo_inurba_marseille","lat":43.28993,"lon":5.37856,"is_reserved":false,"is_disabled":false,"rental_uris":{"android":"levelo://app?vid=6aea377c-b7e9-42fe-8ba9-033144039f82","ios":"levelo://app?vid=6aea377c-b7e9-42fe-8ba9-033144039f82"},"vehicle_type_id":"4","last_reported":1743704048,"current_range_meters":6400,"station_id":"ce4bh9p2rcd13ifvqed0","pricing_plan_id":"cebpf4jnsgd1na2vs0mg"},{"bike_id":"f201cc7e-0456-4ac2-8d4c-1c50dcc75a18","system_id":"levelo_inurba_marseille","lat":43.29558,"lon":5.42269,"is_reserved":false,"is_disabled":false,"rental_uris":{"android":"levelo://app?vid=f201cc7e-0456-4ac2-8d4c-1c50dcc75a18","ios":"levelo://app?vid=f201cc7e-0456-4ac2-8d4c-1c50dcc75a18"},"vehicle_type_id":"4","last_reported":1743704048,"current_range_meters":6400,"station_id":"ce4bhph2rcd13ifvqhdg","pricing_plan_id":"cebpf4jnsgd1na2vs0mg"},{"bike_id":"c60d92ac-c2dd-4c56-b16a-3608fa04e2cf","system_id":"levelo_inurba_marseille","lat":43.31364,"lon":5.38485,"is_reserved":false,"is_disabled":false,"rental_uris":{"android":"levelo://app?vid=c60d92ac-c2dd-4c56-b16a-3608fa04e2cf","ios":"levelo://app?vid=c60d92ac-c2dd-4c56-b16a-3608fa04e2cf"},"vehicle_type_id":"4","last_reported":1743704048,"current_range_meters":6400,"station_id":"ce4bgt92rcd13ifvqcf0","pricing_plan_id":"cebpf4jnsgd1na2vs0mg"},{"bike_id":"4928ccd3-0cff-4039-8e3d-58739e5c2709","system_id":"levelo_inurba_marseille","lat":43.2737,"lon":5.36253,"is_reserved":false,"is_disabled":false,"rental_uris":{"android":"levelo://app?vid=4928ccd3-0cff-4039-8e3d-58739e5c2709","ios":"levelo://app?vid=4928ccd3-0cff-4039-8e3d-58739e5c2709"},"vehicle_type_id":"4","last_reported":1743704048,"current_range_meters":6400,"station_id":"ce4bhbh2rcd13ifvqeo0","pricing_plan_id":"cebpf4jnsgd1na2vs0mg"},{"bike_id":"57571352-e70d-47d9-872b-7765631dca1d","system_id":"levelo_inurba_marseille","lat":43.25586,"lon":5.382274,"is_reserved":false,"is_disabled":false,"rental_uris":{"android":"levelo://app?vid=57571352-e70d-47d9-872b-7765631dca1d","ios":"levelo://app?vid=57571352-e70d-47d9-872b-7765631dca1d"},"vehicle_type_id":"4","last_reported":1743704048,"current_range_meters":6400,"station_id":"ce4bh4p2rcd13ifvqe1g","pricing_plan_id":"cebpf4jnsgd1na2vs0mg"},{"bike_id":"6ee95226-f23d-4e5e-8b9a-4222466567e4","system_id":"levelo_inurba_marseille","lat":43.26227,"lon":5.404417,"is_reserved":false,"is_disabled":false,"rental_uris":{"android":"levelo://app?vid=6ee95226-f23d-4e5e-8b9a-4222466567e4","ios":"levelo://app?vid=6ee95226-f23d-4e5e-8b9a-4222466567e4"},"vehicle_type_id":"4","last_reported":1743704048,"current_range_meters":6400,"station_id":"","pricing_plan_id":"cebpf4jnsgd1na2vs0mg"},{"bike_id":"2e1d0491-8046-4a1c-910c-6d230f4ca468","system_id":"levelo_inurba_marseille","lat":43.3064,"lon":5.37319,"is_reserved":false,"is_disabled":false,"rental_uris":{"android":"levelo://app?vid=2e1d0491-8046-4a1c-910c-6d230f4ca468","ios":"levelo://app?vid=2e1d0491-8046-4a1c-910c-6d230f4ca468"},"vehicle_type_id":"4","last_reported":1743704048,"current_range_meters":6400,"station_id":"","pricing_plan_id":"cebpf4jnsgd1na2vs0mg"},{"bike_id":"83aa3c8e-91bd-485c-a041-0adac5639e00","system_id":"levelo_inurba_marseille","lat":43.3062,"lon":5.37161,"is_reserved":false,"is_disabled":false,"rental_uris":{"android":"levelo://app?vid=83aa3c8e-91bd-485c-a041-0adac5639e00","ios":"levelo://app?vid=83aa3c8e-91bd-485c-a041-0adac5639e00"},"vehicle_type_id":"4","last_reported":1743704048,"current_range_meters":6800,"station_id":"","pricing_plan_id":"cebpf4jnsgd1na2vs0mg"},{"bike_id":"9d13c440-da3b-4535-b70d-8105619f88bd","system_id":"levelo_inurba_marseille","lat":43.32385,"lon":5.3889,"is_reserved":false,"is_disabled":true,"rental_uris":{"android":"levelo://app?vid=9d13c440-da3b-4535-b70d-8105619f88bd","ios":"levelo://app?vid=9d13c440-da3b-4535-b70d-8105619f88bd"},"vehicle_type_id":"4","last_reported":1743704048,"current_range_meters":6800,"station_id":"ce4bhqp2rcd13ifvqhog","pricing_plan_id":"cebpf4jnsgd1na2vs0mg"},{"bike_id":"78d6b7cd-ac07-453b-bc94-98692716d8c6","system_id":"levelo_inurba_marseille","lat":43.23218,"lon":5.35549,"is_reserved":false,"is_disabled":false,"rental_uris":{"android":"levelo://app?vid=78d6b7cd-ac07-453b-bc94-98692716d8c6","ios":"levelo://app?vid=78d6b7cd-ac07-453b-bc94-98692716d8c6"},"vehicle_type_id":"4","last_reported":1743704048,"current_range_meters":6800,"station_id":"ce4bhu92rcd13ifvqi70","pricing_plan_id":"cebpf4jnsgd1na2vs0mg"},{"bike_id":"7f4f0a5b-bfc5-41b1-9ca8-7b777a0aeb4f","system_id":"levelo_inurba_marseille","lat":43.23052,"lon":5.35521,"is_reserved":false,"is_disabled":false,"rental_uris":{"android":"levelo://app?vid=7f4f0a5b-bfc5-41b1-9ca8-7b777a0aeb4f","ios":"levelo://app?vid=7f4f0a5b-bfc5-41b1-9ca8-7b777a0aeb4f"},"vehicle_type_id":"4","last_reported":1743704048,"current_range_meters":6800,"station_id":"cpo3342slgdg3j2ifvpg","pricing_plan_id":"cebpf4jnsgd1na2vs0mg"},{"bike_id":"cc9c952d-7850-4dae-b639-94d63cf7223f","system_id":"levelo_inurba_marseille","lat":43.29191,"lon":5.35808,"is_reserved":false,"is_disabled":false,"rental_uris":{"android":"levelo://app?vid=cc9c952d-7850-4dae-b639-94d63cf7223f","ios":"levelo://app?vid=cc9c952d-7850-4dae-b639-94d63cf7223f"},"vehicle_type_id":"4","last_reported":1743704048,"current_range_meters":6800,"station_id":"ce4bhb12rcd13ifvqel0","pricing_plan_id":"cebpf4jnsgd1na2vs0mg"},{"bike_id":"756c5dd1-0c54-4f3f-86fc-6304b7d184d1","system_id":"levelo_inurba_marseille","lat":43.32293,"lon":5.3826,"is_reserved":false,"is_disabled":false,"rental_uris":{"android":"levelo://app?vid=756c5dd1-0c54-4f3f-86fc-6304b7d184d1","ios":"levelo://app?vid=756c5dd1-0c54-4f3f-86fc-6304b7d184d1"},"vehicle_type_id":"4","last_reported":1743704048,"current_range_meters":6400,"station_id":"ce4bhr12rcd13ifvqhqg","pricing_plan_id":"cebpf4jnsgd1na2vs0mg"},{"bike_id":"6e0ac892-eb5a-4e58-b40d-44ea2a6de718","system_id":"levelo_inurba_marseille","lat":43.23198,"lon":5.35558,"is_reserved":false,"is_disabled":false,"rental_uris":{"android":"levelo://app?vid=6e0ac892-eb5a-4e58-b40d-44ea2a6de718","ios":"levelo://app?vid=6e0ac892-eb5a-4e58-b40d-44ea2a6de718"},"vehicle_type_id":"4","last_reported":1743704048,"current_range_meters":6800,"station_id":"ce4bhu92rcd13ifvqi70","pricing_plan_id":"cebpf4jnsgd1na2vs0mg"},{"bike_id":"d0d94f01-340a-4d01-a88e-81e0d7656928","system_id":"levelo_inurba_marseille","lat":43.31171,"lon":5.38711,"is_reserved":false,"is_disabled":false,"rental_uris":{"android":"levelo://app?vid=d0d94f01-340a-4d01-a88e-81e0d7656928","ios":"levelo://app?vid=d0d94f01-340a-4d01-a88e-81e0d7656928"},"vehicle_type_id":"4","last_reported":1743704048,"current_range_meters":6800,"station_id":"ce4bgv12rcd13ifvqcp0","pricing_plan_id":"cebpf4jnsgd1na2vs0mg"},{"bike_id":"476eac49-77f2-4aa0-9d5d-23082fb7e121","system_id":"levelo_inurba_marseille","lat":43.28612,"lon":5.35107,"is_reserved":false,"is_disabled":false,"rental_uris":{"android":"levelo://app?vid=476eac49-77f2-4aa0-9d5d-23082fb7e121","ios":"levelo://app?vid=476eac49-77f2-4aa0-9d5d-23082fb7e121"},"vehicle_type_id":"4","last_reported":1743704048,"current_range_meters":7200,"station_id":"ce4bhch2rcd13ifvqeug","pricing_plan_id":"cebpf4jnsgd1na2vs0mg"},{"bike_id":"746f8ad5-be06-4c30-8ca0-7e222fdfa3b2","system_id":"levelo_inurba_marseille","lat":43.30938,"lon":5.40148,"is_reserved":false,"is_disabled":false,"rental_uris":{"android":"levelo://app?vid=746f8ad5-be06-4c30-8ca0-7e222fdfa3b2","ios":"levelo://app?vid=746f8ad5-be06-4c30-8ca0-7e222fdfa3b2"},"vehicle_type_id":"4","last_reported":1743704048,"current_range_meters":7200,"station_id":"ce4bgvp2rcd13ifvqct0","pricing_plan_id":"cebpf4jnsgd1na2vs0mg"},{"bike_id":"b6e8a908-5916-4c0d-b1b6-1b4a3ef7fdac","system_id":"levelo_inurba_marseille","lat":43.24167,"lon":5.36411,"is_reserved":false,"is_disabled":false,"rental_uris":{"android":"levelo://app?vid=b6e8a908-5916-4c0d-b1b6-1b4a3ef7fdac","ios":"levelo://app?vid=b6e8a908-5916-4c0d-b1b6-1b4a3ef7fdac"},"vehicle_type_id":"4","last_reported":1743704048,"current_range_meters":7200,"station_id":"cpo36qri1sfpv3e86is0","pricing_plan_id":"cebpf4jnsgd1na2vs0mg"},{"bike_id":"cfc63700-d586-46bd-a83f-6eea227d4dab","system_id":"levelo_inurba_marseille","lat":43.29975,"lon":5.37186,"is_reserved":false,"is_disabled":false,"rental_uris":{"android":"levelo://app?vid=cfc63700-d586-46bd-a83f-6eea227d4dab","ios":"levelo://app?vid=cfc63700-d586-46bd-a83f-6eea227d4dab"},"vehicle_type_id":"4","last_reported":1743704048,"current_range_meters":7200,"station_id":"ce4bgr92rcd13ifvqc7g","pricing_plan_id":"cebpf4jnsgd1na2vs0mg"},{"bike_id":"d998dd99-71c0-455e-99f9-bf815dbe3f9a","system_id":"levelo_inurba_marseille","lat":43.29262,"lon":5.37616,"is_reserved":false,"is_disabled":false,"rental_uris":{"android":"levelo://app?vid=d998dd99-71c0-455e-99f9-bf815dbe3f9a","ios":"levelo://app?vid=d998dd99-71c0-455e-99f9-bf815dbe3f9a"},"vehicle_type_id":"4","last_reported":1743704048,"current_range_meters":7200,"station_id":"ce4bgi12rcd13ifvqb80","pricing_plan_id":"cebpf4jnsgd1na2vs0mg"},{"bike_id":"32a978e0-d0c2-43d4-9b03-19a5c41c27de","system_id":"levelo_inurba_marseille","lat":43.31086,"lon":5.38374,"is_reserved":false,"is_disabled":true,"rental_uris":{"android":"levelo://app?vid=32a978e0-d0c2-43d4-9b03-19a5c41c27de","ios":"levelo://app?vid=32a978e0-d0c2-43d4-9b03-19a5c41c27de"},"vehicle_type_id":"4","last_reported":1743704048,"current_range_meters":7200,"station_id":"ce4bgv92rcd13ifvqcr0","pricing_plan_id":"cebpf4jnsgd1na2vs0mg"},{"bike_id":"786c394d-7a39-478d-bc3b-6370e46e83a2","system_id":"levelo_inurba_marseille","lat":43.29977,"lon":5.37186,"is_reserved":false,"is_disabled":false,"rental_uris":{"android":"levelo://app?vid=786c394d-7a39-478d-bc3b-6370e46e83a2","ios":"levelo://app?vid=786c394d-7a39-478d-bc3b-6370e46e83a2"},"vehicle_type_id":"4","last_reported":1743704048,"current_range_meters":7200,"station_id":"ce4bgr92rcd13ifvqc7g","pricing_plan_id":"cebpf4jnsgd1na2vs0mg"},{"bike_id":"4b4a6d88-da31-47ac-ac98-9882efef7dde","system_id":"levelo_inurba_marseille","lat":43.25575,"lon":5.3824,"is_reserved":false,"is_disabled":false,"rental_uris":{"android":"levelo://app?vid=4b4a6d88-da31-47ac-ac98-9882efef7dde","ios":"levelo://app?vid=4b4a6d88-da31-47ac-ac98-9882efef7dde"},"vehicle_type_id":"4","last_reported":1743704048,"current_range_meters":7200,"station_id":"ce4bhih2rcd13ifvqfs0","pricing_plan_id":"cebpf4jnsgd1na2vs0mg"},{"bike_id":"7c134059-ab09-481f-a9d2-418ddc55a872","system_id":"levelo_inurba_marseille","lat":43.28859,"lon":5.35858,"is_reserved":false,"is_disabled":false,"rental_uris":{"android":"levelo://app?vid=7c134059-ab09-481f-a9d2-418ddc55a872","ios":"levelo://app?vid=7c134059-ab09-481f-a9d2-418ddc55a872"},"vehicle_type_id":"4","last_reported":1743704048,"current_range_meters":6800,"station_id":"ce4bhb12rcd13ifvqem0","pricing_plan_id":"cebpf4jnsgd1na2vs0mg"},{"bike_id":"e1bcd518-a3a1-4a25-9b9e-794fbd0bdf0a","system_id":"levelo_inurba_marseille","lat":43.23965,"lon":5.36632,"is_reserved":false,"is_disabled":false,"rental_uris":{"android":"levelo://app?vid=e1bcd518-a3a1-4a25-9b9e-794fbd0bdf0a","ios":"levelo://app?vid=e1bcd518-a3a1-4a25-9b9e-794fbd0bdf0a"},"vehicle_type_id":"4","last_reported":1743704048,"current_range_meters":7200,"station_id":"ce4bhi12rcd13ifvqfp0","pricing_plan_id":"cebpf4jnsgd1na2vs0mg"},{"bike_id":"cba43085-0168-48ca-8e88-1d0b1614975b","system_id":"levelo_inurba_marseille","lat":43.23964,"lon":5.36638,"is_reserved":false,"is_disabled":false,"rental_uris":{"android":"levelo://app?vid=cba43085-0168-48ca-8e88-1d0b1614975b","ios":"levelo://app?vid=cba43085-0168-48ca-8e88-1d0b1614975b"},"vehicle_type_id":"4","last_reported":1743704048,"current_range_meters":7200,"station_id":"ce4bhi12rcd13ifvqfp0","pricing_plan_id":"cebpf4jnsgd1na2vs0mg"},{"bike_id":"75dae32f-059a-4b5b-a5e8-963c6eda2f66","system_id":"levelo_inurba_marseille","lat":43.27516,"lon":5.41017,"is_reserved":false,"is_disabled":false,"rental_uris":{"android":"levelo://app?vid=75dae32f-059a-4b5b-a5e8-963c6eda2f66","ios":"levelo://app?vid=75dae32f-059a-4b5b-a5e8-963c6eda2f66"},"vehicle_type_id":"4","last_reported":1743704048,"current_range_meters":7200,"station_id":"","pricing_plan_id":"cebpf4jnsgd1na2vs0mg"},{"bike_id":"bddd4ccf-1482-4a9d-a8d7-0870910ef155","system_id":"levelo_inurba_marseille","lat":43.2795,"lon":5.41048,"is_reserved":false,"is_disabled":false,"rental_uris":{"android":"levelo://app?vid=bddd4ccf-1482-4a9d-a8d7-0870910ef155","ios":"levelo://app?vid=bddd4ccf-1482-4a9d-a8d7-0870910ef155"},"vehicle_type_id":"4","last_reported":1743704048,"current_range_meters":8000,"station_id":"ce4bhnp2rcd13ifvqh0g","pricing_plan_id":"cebpf4jnsgd1na2vs0mg"},{"bike_id":"3374421a-949f-40b6-870f-59a2d8ba0de4","system_id":"levelo_inurba_marseille","lat":43.24167,"lon":5.36405,"is_reserved":false,"is_disabled":false,"rental_uris":{"android":"levelo://app?vid=3374421a-949f-40b6-870f-59a2d8ba0de4","ios":"levelo://app?vid=3374421a-949f-40b6-870f-59a2d8ba0de4"},"vehicle_type_id":"4","last_reported":1743704048,"current_range_meters":8000,"station_id":"cpo36qri1sfpv3e86is0","pricing_plan_id":"cebpf4jnsgd1na2vs0mg"},{"bike_id":"c2e6881a-04a3-4a38-9cc0-75cacf165e78","system_id":"levelo_inurba_marseille","lat":43.28832,"lon":5.364645,"is_reserved":false,"is_disabled":false,"rental_uris":{"android":"levelo://app?vid=c2e6881a-04a3-4a38-9cc0-75cacf165e78","ios":"levelo://app?vid=c2e6881a-04a3-4a38-9cc0-75cacf165e78"},"vehicle_type_id":"4","last_reported":1743704048,"current_range_meters":8000,"station_id":"","pricing_plan_id":"cebpf4jnsgd1na2vs0mg"},{"bike_id":"b42e30f3-e4b2-4766-a2e5-dfd7324e86a1","system_id":"levelo_inurba_marseille","lat":43.23218,"lon":5.35561,"is_reserved":false,"is_disabled":false,"rental_uris":{"android":"levelo://app?vid=b42e30f3-e4b2-4766-a2e5-dfd7324e86a1","ios":"levelo://app?vid=b42e30f3-e4b2-4766-a2e5-dfd7324e86a1"},"vehicle_type_id":"4","last_reported":1743704048,"current_range_meters":8000,"station_id":"ce4bhu92rcd13ifvqi70","pricing_plan_id":"cebpf4jnsgd1na2vs0mg"},{"bike_id":"4dee6ca8-58ea-4ecd-af76-b65056efa11a","system_id":"levelo_inurba_marseille","lat":43.2929,"lon":5.37452,"is_reserved":false,"is_disabled":false,"rental_uris":{"android":"levelo://app?vid=4dee6ca8-58ea-4ecd-af76-b65056efa11a","ios":"levelo://app?vid=4dee6ca8-58ea-4ecd-af76-b65056efa11a"},"vehicle_type_id":"4","last_reported":1743704048,"current_range_meters":8000,"station_id":"ce4bgi12rcd13ifvqb70","pricing_plan_id":"cebpf4jnsgd1na2vs0mg"},{"bike_id":"c71f15b6-2590-4f8b-9c5c-e81cc022cc3d","system_id":"levelo_inurba_marseille","lat":43.2842,"lon":5.34995,"is_reserved":false,"is_disabled":false,"rental_uris":{"android":"levelo://app?vid=c71f15b6-2590-4f8b-9c5c-e81cc022cc3d","ios":"levelo://app?vid=c71f15b6-2590-4f8b-9c5c-e81cc022cc3d"},"vehicle_type_id":"4","last_reported":1743704048,"current_range_meters":8000,"station_id":"ce4bhbh2rcd13ifvqepg","pricing_plan_id":"cebpf4jnsgd1na2vs0mg"},{"bike_id":"723c1a48-7279-427c-b4ea-2eb936bad6dc","system_id":"levelo_inurba_marseille","lat":43.29963,"lon":5.38486,"is_reserved":false,"is_disabled":false,"rental_uris":{"android":"levelo://app?vid=723c1a48-7279-427c-b4ea-2eb936bad6dc","ios":"levelo://app?vid=723c1a48-7279-427c-b4ea-2eb936bad6dc"},"vehicle_type_id":"4","last_reported":1743704048,"current_range_meters":8000,"station_id":"ce4bgj92rcd13ifvqbd0","pricing_plan_id":"cebpf4jnsgd1na2vs0mg"},{"bike_id":"fede0e43-1609-4a28-9f97-913c3f149703","system_id":"levelo_inurba_marseille","lat":43.23209,"lon":5.35558,"is_reserved":false,"is_disabled":false,"rental_uris":{"android":"levelo://app?vid=fede0e43-1609-4a28-9f97-913c3f149703","ios":"levelo://app?vid=fede0e43-1609-4a28-9f97-913c3f149703"},"vehicle_type_id":"4","last_reported":1743704048,"current_range_meters":8000,"station_id":"ce4bhu92rcd13ifvqi70","pricing_plan_id":"cebpf4jnsgd1na2vs0mg"},{"bike_id":"b4ab96b8-b55f-442c-98bf-22ba91464e26","system_id":"levelo_inurba_marseille","lat":43.31736,"lon":5.42407,"is_reserved":false,"is_disabled":false,"rental_uris":{"android":"levelo://app?vid=b4ab96b8-b55f-442c-98bf-22ba91464e26","ios":"levelo://app?vid=b4ab96b8-b55f-442c-98bf-22ba91464e26"},"vehicle_type_id":"4","last_reported":1743704048,"current_range_meters":8000,"station_id":"ce4bhp92rcd13ifvqhbg","pricing_plan_id":"cebpf4jnsgd1na2vs0mg"},{"bike_id":"c9fb25a7-e723-41fe-abac-05d32f3d4f9d","system_id":"levelo_inurba_marseille","lat":43.26026,"lon":5.41733,"is_reserved":false,"is_disabled":false,"rental_uris":{"android":"levelo://app?vid=c9fb25a7-e723-41fe-abac-05d32f3d4f9d","ios":"levelo://app?vid=c9fb25a7-e723-41fe-abac-05d32f3d4f9d"},"vehicle_type_id":"4","last_reported":1743704048,"current_range_meters":8000,"station_id":"","pricing_plan_id":"cebpf4jnsgd1na2vs0mg"},{"bike_id":"50cd9731-ff0d-45a9-b9cf-fc9af1d94a25","system_id":"levelo_inurba_marseille","lat":43.27426,"lon":5.39418,"is_reserved":false,"is_disabled":false,"rental_uris":{"android":"levelo://app?vid=50cd9731-ff0d-45a9-b9cf-fc9af1d94a25","ios":"levelo://app?vid=50cd9731-ff0d-45a9-b9cf-fc9af1d94a25"},"vehicle_type_id":"4","last_reported":1743704048,"current_range_meters":8000,"station_id":"ce4bhdp2rcd13ifvqf20","pricing_plan_id":"cebpf4jnsgd1na2vs0mg"},{"bike_id":"15ea3e20-e3c1-434f-8b50-88d1ebba3f71","system_id":"levelo_inurba_marseille","lat":43.23193,"lon":5.35572,"is_reserved":false,"is_disabled":false,"rental_uris":{"android":"levelo://app?vid=15ea3e20-e3c1-434f-8b50-88d1ebba3f71","ios":"levelo://app?vid=15ea3e20-e3c1-434f-8b50-88d1ebba3f71"},"vehicle_type_id":"4","last_reported":1743704048,"current_range_meters":8000,"station_id":"ce4bhu92rcd13ifvqi70","pricing_plan_id":"cebpf4jnsgd1na2vs0mg"},{"bike_id":"22a0ab1e-03b1-4f23-aa15-fc7e75128700","system_id":"levelo_inurba_marseille","lat":43.29625,"lon":5.37161,"is_reserved":false,"is_disabled":false,"rental_uris":{"android":"levelo://app?vid=22a0ab1e-03b1-4f23-aa15-fc7e75128700","ios":"levelo://app?vid=22a0ab1e-03b1-4f23-aa15-fc7e75128700"},"vehicle_type_id":"4","last_reported":1743704048,"current_range_meters":7200,"station_id":"ce4bgnh2rcd13ifvqc0g","pricing_plan_id":"cebpf4jnsgd1na2vs0mg"},{"bike_id":"e455f027-7382-4e09-a1cc-b8ca97ab36c9","system_id":"levelo_inurba_marseille","lat":43.30327,"lon":5.4044,"is_reserved":false,"is_disabled":false,"rental_uris":{"android":"levelo://app?vid=e455f027-7382-4e09-a1cc-b8ca97ab36c9","ios":"levelo://app?vid=e455f027-7382-4e09-a1cc-b8ca97ab36c9"},"vehicle_type_id":"4","last_reported":1743704048,"current_range_meters":8000,"station_id":"ce4bh012rcd13ifvqd10","pricing_plan_id":"cebpf4jnsgd1na2vs0mg"},{"bike_id":"b13d3432-293b-4902-a3f1-a51b231e2d99","system_id":"levelo_inurba_marseille","lat":43.2864,"lon":5.35085,"is_reserved":false,"is_disabled":false,"rental_uris":{"android":"levelo://app?vid=b13d3432-293b-4902-a3f1-a51b231e2d99","ios":"levelo://app?vid=b13d3432-293b-4902-a3f1-a51b231e2d99"},"vehicle_type_id":"4","last_reported":1743704048,"current_range_meters":8000,"station_id":"ce4bhch2rcd13ifvqeug","pricing_plan_id":"cebpf4jnsgd1na2vs0mg"},{"bike_id":"0890fa60-049f-44ea-96c8-ca3ae6292ced","system_id":"levelo_inurba_marseille","lat":43.248,"lon":5.37466,"is_reserved":false,"is_disabled":false,"rental_uris":{"android":"levelo://app?vid=0890fa60-049f-44ea-96c8-ca3ae6292ced","ios":"levelo://app?vid=0890fa60-049f-44ea-96c8-ca3ae6292ced"},"vehicle_type_id":"4","last_reported":1743704048,"current_range_meters":8400,"station_id":"ce4bhgh2rcd13ifvqfb0","pricing_plan_id":"cebpf4jnsgd1na2vs0mg"},{"bike_id":"d509cec8-8e30-49e3-8c6e-b33fa539ed06","system_id":"levelo_inurba_marseille","lat":43.298897,"lon":5.385048,"is_reserved":false,"is_disabled":false,"rental_uris":{"android":"levelo://app?vid=d509cec8-8e30-49e3-8c6e-b33fa539ed06","ios":"levelo://app?vid=d509cec8-8e30-49e3-8c6e-b33fa539ed06"},"vehicle_type_id":"4","last_reported":1743704048,"current_range_meters":8400,"station_id":"ce4bgj92rcd13ifvqbd0","pricing_plan_id":"cebpf4jnsgd1na2vs0mg"},{"bike_id":"0120aca8-afff-4adc-9309-60ae0db44796","system_id":"levelo_inurba_marseille","lat":43.28858,"lon":5.35858,"is_reserved":false,"is_disabled":false,"rental_uris":{"android":"levelo://app?vid=0120aca8-afff-4adc-9309-60ae0db44796","ios":"levelo://app?vid=0120aca8-afff-4adc-9309-60ae0db44796"},"vehicle_type_id":"4","last_reported":1743704048,"current_range_meters":8400,"station_id":"ce4bhb12rcd13ifvqem0","pricing_plan_id":"cebpf4jnsgd1na2vs0mg"},{"bike_id":"db253690-85f7-4eae-9a99-76df6b4cfdb6","system_id":"levelo_inurba_marseille","lat":43.27937,"lon":5.41047,"is_reserved":false,"is_disabled":false,"rental_uris":{"android":"levelo://app?vid=db253690-85f7-4eae-9a99-76df6b4cfdb6","ios":"levelo://app?vid=db253690-85f7-4eae-9a99-76df6b4cfdb6"},"vehicle_type_id":"4","last_reported":1743704048,"current_range_meters":8400,"station_id":"ce4bhnp2rcd13ifvqh0g","pricing_plan_id":"cebpf4jnsgd1na2vs0mg"},{"bike_id":"71e55f99-90e5-4133-8167-5af8b2b35d7e","system_id":"levelo_inurba_marseille","lat":43.23063,"lon":5.35489,"is_reserved":false,"is_disabled":false,"rental_uris":{"android":"levelo://app?vid=71e55f99-90e5-4133-8167-5af8b2b35d7e","ios":"levelo://app?vid=71e55f99-90e5-4133-8167-5af8b2b35d7e"},"vehicle_type_id":"4","last_reported":1743704048,"current_range_meters":8400,"station_id":"cpo3342slgdg3j2ifvpg","pricing_plan_id":"cebpf4jnsgd1na2vs0mg"},{"bike_id":"23bdb39b-6123-4505-befc-0c57d62b43ba","system_id":"levelo_inurba_marseille","lat":43.27997,"lon":5.40018,"is_reserved":false,"is_disabled":false,"rental_uris":{"android":"levelo://app?vid=23bdb39b-6123-4505-befc-0c57d62b43ba","ios":"levelo://app?vid=23bdb39b-6123-4505-befc-0c57d62b43ba"},"vehicle_type_id":"4","last_reported":1743704048,"current_range_meters":8400,"station_id":"ce4bho92rcd13ifvqh4g","pricing_plan_id":"cebpf4jnsgd1na2vs0mg"},{"bike_id":"55a458b5-99f0-4a0e-bf15-969bb5b742d8","system_id":"levelo_inurba_marseille","lat":43.316219,"lon":5.394509,"is_reserved":false,"is_disabled":false,"rental_uris":{"android":"levelo://app?vid=55a458b5-99f0-4a0e-bf15-969bb5b742d8","ios":"levelo://app?vid=55a458b5-99f0-4a0e-bf15-969bb5b742d8"},"vehicle_type_id":"4","last_reported":1743704048,"current_range_meters":8400,"station_id":"","pricing_plan_id":"cebpf4jnsgd1na2vs0mg"},{"bike_id":"4a8d215f-728c-4424-bfbf-5faa62888e2d","system_id":"levelo_inurba_marseille","lat":43.295101,"lon":5.394076,"is_reserved":false,"is_disabled":true,"rental_uris":{"android":"levelo://app?vid=4a8d215f-728c-4424-bfbf-5faa62888e2d","ios":"levelo://app?vid=4a8d215f-728c-4424-bfbf-5faa62888e2d"},"vehicle_type_id":"4","last_reported":1743704048,"current_range_meters":8400,"station_id":"ce4bh292rcd13ifvqdf0","pricing_plan_id":"cebpf4jnsgd1na2vs0mg"},{"bike_id":"348a2868-ab4e-43c2-afc1-a0751b76de3a","system_id":"levelo_inurba_marseille","lat":43.32672,"lon":5.40984,"is_reserved":false,"is_disabled":false,"rental_uris":{"android":"levelo://app?vid=348a2868-ab4e-43c2-afc1-a0751b76de3a","ios":"levelo://app?vid=348a2868-ab4e-43c2-afc1-a0751b76de3a"},"vehicle_type_id":"4","last_reported":1743704048,"current_range_meters":8800,"station_id":"ce4bhpp2rcd13ifvqhgg","pricing_plan_id":"cebpf4jnsgd1na2vs0mg"},{"bike_id":"cd83c8ac-ed09-4369-9279-b6f36f2bbd3c","system_id":"levelo_inurba_marseille","lat":43.3081,"lon":5.38235,"is_reserved":false,"is_disabled":false,"rental_uris":{"android":"levelo://app?vid=cd83c8ac-ed09-4369-9279-b6f36f2bbd3c","ios":"levelo://app?vid=cd83c8ac-ed09-4369-9279-b6f36f2bbd3c"},"vehicle_type_id":"4","last_reported":1743704048,"current_range_meters":8800,"station_id":"","pricing_plan_id":"cebpf4jnsgd1na2vs0mg"},{"bike_id":"b31ed20a-7366-48c8-9a08-4f2938fd31ad","system_id":"levelo_inurba_marseille","lat":43.2816,"lon":5.42646,"is_reserved":false,"is_disabled":false,"rental_uris":{"android":"levelo://app?vid=b31ed20a-7366-48c8-9a08-4f2938fd31ad","ios":"levelo://app?vid=b31ed20a-7366-48c8-9a08-4f2938fd31ad"},"vehicle_type_id":"4","last_reported":1743704048,"current_range_meters":8800,"station_id":"ce4bhnh2rcd13ifvqgug","pricing_plan_id":"cebpf4jnsgd1na2vs0mg"},{"bike_id":"98b9000e-9e01-4f7f-bfe1-be4f1522b23c","system_id":"levelo_inurba_marseille","lat":43.28422,"lon":5.34978,"is_reserved":false,"is_disabled":false,"rental_uris":{"android":"levelo://app?vid=98b9000e-9e01-4f7f-bfe1-be4f1522b23c","ios":"levelo://app?vid=98b9000e-9e01-4f7f-bfe1-be4f1522b23c"},"vehicle_type_id":"4","last_reported":1743704048,"current_range_meters":8800,"station_id":"ce4bhbh2rcd13ifvqepg","pricing_plan_id":"cebpf4jnsgd1na2vs0mg"},{"bike_id":"d5ca9471-edb9-49e2-b8bc-9d550f1c4eab","system_id":"levelo_inurba_marseille","lat":43.28624,"lon":5.35098,"is_reserved":false,"is_disabled":false,"rental_uris":{"android":"levelo://app?vid=d5ca9471-edb9-49e2-b8bc-9d550f1c4eab","ios":"levelo://app?vid=d5ca9471-edb9-49e2-b8bc-9d550f1c4eab"},"vehicle_type_id":"4","last_reported":1743704048,"current_range_meters":8800,"station_id":"ce4bhch2rcd13ifvqeug","pricing_plan_id":"cebpf4jnsgd1na2vs0mg"},{"bike_id":"e590fe23-e0aa-4322-a597-417c816f1dd9","system_id":"levelo_inurba_marseille","lat":43.27946,"lon":5.41045,"is_reserved":false,"is_disabled":false,"rental_uris":{"android":"levelo://app?vid=e590fe23-e0aa-4322-a597-417c816f1dd9","ios":"levelo://app?vid=e590fe23-e0aa-4322-a597-417c816f1dd9"},"vehicle_type_id":"4","last_reported":1743704048,"current_range_meters":8800,"station_id":"ce4bhnp2rcd13ifvqh0g","pricing_plan_id":"cebpf4jnsgd1na2vs0mg"},{"bike_id":"4ffc69d3-a520-4864-b8dd-ade1bc25264d","system_id":"levelo_inurba_marseille","lat":43.29258,"lon":5.3844,"is_reserved":false,"is_disabled":false,"rental_uris":{"android":"levelo://app?vid=4ffc69d3-a520-4864-b8dd-ade1bc25264d","ios":"levelo://app?vid=4ffc69d3-a520-4864-b8dd-ade1bc25264d"},"vehicle_type_id":"4","last_reported":1743704048,"current_range_meters":8800,"station_id":"ce4bh692rcd13ifvqea0","pricing_plan_id":"cebpf4jnsgd1na2vs0mg"},{"bike_id":"14c9f94d-f492-461c-a216-a5ab51853817","system_id":"levelo_inurba_marseille","lat":43.23184,"lon":5.39992,"is_reserved":false,"is_disabled":false,"rental_uris":{"android":"levelo://app?vid=14c9f94d-f492-461c-a216-a5ab51853817","ios":"levelo://app?vid=14c9f94d-f492-461c-a216-a5ab51853817"},"vehicle_type_id":"4","last_reported":1743704048,"current_range_meters":8400,"station_id":"ce4bhn12rcd13ifvqgqg","pricing_plan_id":"cebpf4jnsgd1na2vs0mg"},{"bike_id":"adc7c9ce-b53e-4de2-b00a-4c41160f4ff8","system_id":"levelo_inurba_marseille","lat":43.28591,"lon":5.36991,"is_reserved":false,"is_disabled":false,"rental_uris":{"android":"levelo://app?vid=adc7c9ce-b53e-4de2-b00a-4c41160f4ff8","ios":"levelo://app?vid=adc7c9ce-b53e-4de2-b00a-4c41160f4ff8"},"vehicle_type_id":"4","last_reported":1743704048,"current_range_meters":8800,"station_id":"ce4bht12rcd13ifvqi60","pricing_plan_id":"cebpf4jnsgd1na2vs0mg"},{"bike_id":"0825224a-2180-4a2a-9400-de09e3a8a7a4","system_id":"levelo_inurba_marseille","lat":43.31326,"lon":5.39692,"is_reserved":false,"is_disabled":false,"rental_uris":{"android":"levelo://app?vid=0825224a-2180-4a2a-9400-de09e3a8a7a4","ios":"levelo://app?vid=0825224a-2180-4a2a-9400-de09e3a8a7a4"},"vehicle_type_id":"4","last_reported":1743704048,"current_range_meters":8800,"station_id":"ce4bgvp2rcd13ifvqcu0","pricing_plan_id":"cebpf4jnsgd1na2vs0mg"},{"bike_id":"d28c10af-935d-4d27-99a7-11bf94daaa7e","system_id":"levelo_inurba_marseille","lat":43.290222,"lon":5.399542,"is_reserved":false,"is_disabled":false,"rental_uris":{"android":"levelo://app?vid=d28c10af-935d-4d27-99a7-11bf94daaa7e","ios":"levelo://app?vid=d28c10af-935d-4d27-99a7-11bf94daaa7e"},"vehicle_type_id":"4","last_reported":1743704048,"current_range_meters":9200,"station_id":"ce4bh392rcd13ifvqdm0","pricing_plan_id":"cebpf4jnsgd1na2vs0mg"},{"bike_id":"809ab426-da69-405a-9ff2-30b58e1aceb6","system_id":"levelo_inurba_marseille","lat":43.299873,"lon":5.387183,"is_reserved":false,"is_disabled":false,"rental_uris":{"android":"levelo://app?vid=809ab426-da69-405a-9ff2-30b58e1aceb6","ios":"levelo://app?vid=809ab426-da69-405a-9ff2-30b58e1aceb6"},"vehicle_type_id":"4","last_reported":1743704048,"current_range_meters":9200,"station_id":"","pricing_plan_id":"cebpf4jnsgd1na2vs0mg"},{"bike_id":"d76832c4-3604-4de9-b7a5-182f7c6e995c","system_id":"levelo_inurba_marseille","lat":43.31373,"lon":5.38498,"is_reserved":false,"is_disabled":true,"rental_uris":{"android":"levelo://app?vid=d76832c4-3604-4de9-b7a5-182f7c6e995c","ios":"levelo://app?vid=d76832c4-3604-4de9-b7a5-182f7c6e995c"},"vehicle_type_id":"4","last_reported":1743704048,"current_range_meters":9200,"station_id":"ce4bgt92rcd13ifvqcf0","pricing_plan_id":"cebpf4jnsgd1na2vs0mg"},{"bike_id":"61f8655e-c99f-47c6-89f8-92ada757664b","system_id":"levelo_inurba_marseille","lat":43.301147,"lon":5.398851,"is_reserved":false,"is_disabled":false,"rental_uris":{"android":"levelo://app?vid=61f8655e-c99f-47c6-89f8-92ada757664b","ios":"levelo://app?vid=61f8655e-c99f-47c6-89f8-92ada757664b"},"vehicle_type_id":"4","last_reported":1743704048,"current_range_meters":9200,"station_id":"ce4bh292rcd13ifvqdf0","pricing_plan_id":"cebpf4jnsgd1na2vs0mg"},{"bike_id":"f2306e54-2291-4059-b339-40dcc6f3dc9d","system_id":"levelo_inurba_marseille","lat":43.33108,"lon":5.39367,"is_reserved":false,"is_disabled":false,"rental_uris":{"android":"levelo://app?vid=f2306e54-2291-4059-b339-40dcc6f3dc9d","ios":"levelo://app?vid=f2306e54-2291-4059-b339-40dcc6f3dc9d"},"vehicle_type_id":"4","last_reported":1743704048,"current_range_meters":10000,"station_id":"","pricing_plan_id":"cebpf4jnsgd1na2vs0mg"},{"bike_id":"15f3e7d8-43eb-428d-938a-70a761df7193","system_id":"levelo_inurba_marseille","lat":43.299504,"lon":5.413153,"is_reserved":false,"is_disabled":false,"rental_uris":{"android":"levelo://app?vid=15f3e7d8-43eb-428d-938a-70a761df7193","ios":"levelo://app?vid=15f3e7d8-43eb-428d-938a-70a761df7193"},"vehicle_type_id":"4","last_reported":1743704048,"current_range_meters":9200,"station_id":"ce4bhp12rcd13ifvqh9g","pricing_plan_id":"cebpf4jnsgd1na2vs0mg"},{"bike_id":"5db53e4b-2005-4dad-8440-47aeca35d414","system_id":"levelo_inurba_marseille","lat":43.29063,"lon":5.3593,"is_reserved":false,"is_disabled":false,"rental_uris":{"android":"levelo://app?vid=5db53e4b-2005-4dad-8440-47aeca35d414","ios":"levelo://app?vid=5db53e4b-2005-4dad-8440-47aeca35d414"},"vehicle_type_id":"4","last_reported":1743704048,"current_range_meters":9200,"station_id":"ce4bha92rcd13ifvqeg0","pricing_plan_id":"cebpf4jnsgd1na2vs0mg"},{"bike_id":"e2c29150-7e87-41b1-b13b-239b85655316","system_id":"levelo_inurba_marseille","lat":43.2511,"lon":5.4033,"is_reserved":false,"is_disabled":false,"rental_uris":{"android":"levelo://app?vid=e2c29150-7e87-41b1-b13b-239b85655316","ios":"levelo://app?vid=e2c29150-7e87-41b1-b13b-239b85655316"},"vehicle_type_id":"4","last_reported":1743704048,"current_range_meters":9200,"station_id":"ce4bhlh2rcd13ifvqgig","pricing_plan_id":"cebpf4jnsgd1na2vs0mg"},{"bike_id":"ed4d7350-318a-444b-bf62-19f86e0514aa","system_id":"levelo_inurba_marseille","lat":43.27818,"lon":5.40726,"is_reserved":false,"is_disabled":false,"rental_uris":{"android":"levelo://app?vid=ed4d7350-318a-444b-bf62-19f86e0514aa","ios":"levelo://app?vid=ed4d7350-318a-444b-bf62-19f86e0514aa"},"vehicle_type_id":"4","last_reported":1743704048,"current_range_meters":9200,"station_id":"ce4bhnh2rcd13ifvqgtg","pricing_plan_id":"cebpf4jnsgd1na2vs0mg"},{"bike_id":"73d854ad-9eb6-4d68-8878-e9b2295ae65a","system_id":"levelo_inurba_marseille","lat":43.230634,"lon":5.35492,"is_reserved":false,"is_disabled":false,"rental_uris":{"android":"levelo://app?vid=73d854ad-9eb6-4d68-8878-e9b2295ae65a","ios":"levelo://app?vid=73d854ad-9eb6-4d68-8878-e9b2295ae65a"},"vehicle_type_id":"4","last_reported":1743704048,"current_range_meters":9600,"station_id":"cpo3342slgdg3j2ifvpg","pricing_plan_id":"cebpf4jnsgd1na2vs0mg"},{"bike_id":"a70dd447-21ca-46bd-a382-5aae3946670b","system_id":"levelo_inurba_marseille","lat":43.25586,"lon":5.38218,"is_reserved":false,"is_disabled":false,"rental_uris":{"android":"levelo://app?vid=a70dd447-21ca-46bd-a382-5aae3946670b","ios":"levelo://app?vid=a70dd447-21ca-46bd-a382-5aae3946670b"},"vehicle_type_id":"4","last_reported":1743704048,"current_range_meters":9600,"station_id":"ce4bhih2rcd13ifvqfs0","pricing_plan_id":"cebpf4jnsgd1na2vs0mg"},{"bike_id":"dea58ccb-4c0d-4636-a83a-585a7a79f58b","system_id":"levelo_inurba_marseille","lat":43.289388,"lon":5.396264,"is_reserved":false,"is_disabled":false,"rental_uris":{"android":"levelo://app?vid=dea58ccb-4c0d-4636-a83a-585a7a79f58b","ios":"levelo://app?vid=dea58ccb-4c0d-4636-a83a-585a7a79f58b"},"vehicle_type_id":"4","last_reported":1743704048,"current_range_meters":9600,"station_id":"ce4bh4p2rcd13ifvqe0g","pricing_plan_id":"cebpf4jnsgd1na2vs0mg"},{"bike_id":"590d7074-66ed-48f2-a6f6-157a475f7797","system_id":"levelo_inurba_marseille","lat":43.293945,"lon":5.386195,"is_reserved":false,"is_disabled":false,"rental_uris":{"android":"levelo://app?vid=590d7074-66ed-48f2-a6f6-157a475f7797","ios":"levelo://app?vid=590d7074-66ed-48f2-a6f6-157a475f7797"},"vehicle_type_id":"4","last_reported":1743704048,"current_range_meters":9600,"station_id":"ce4bh2h2rcd13ifvqdh0","pricing_plan_id":"cebpf4jnsgd1na2vs0mg"},{"bike_id":"56fa35ac-6972-4e20-b120-6fc5faddbdac","system_id":"levelo_inurba_marseille","lat":43.27206,"lon":5.41004,"is_reserved":false,"is_disabled":false,"rental_uris":{"android":"levelo://app?vid=56fa35ac-6972-4e20-b120-6fc5faddbdac","ios":"levelo://app?vid=56fa35ac-6972-4e20-b120-6fc5faddbdac"},"vehicle_type_id":"4","last_reported":1743704048,"current_range_meters":9600,"station_id":"ce4bhl12rcd13ifvqgf0","pricing_plan_id":"cebpf4jnsgd1na2vs0mg"},{"bike_id":"a7d00eb4-0ee1-423f-9fb0-ed399fbe0022","system_id":"levelo_inurba_marseille","lat":43.281568,"lon":5.426428,"is_reserved":false,"is_disabled":false,"rental_uris":{"android":"levelo://app?vid=a7d00eb4-0ee1-423f-9fb0-ed399fbe0022","ios":"levelo://app?vid=a7d00eb4-0ee1-423f-9fb0-ed399fbe0022"},"vehicle_type_id":"4","last_reported":1743704048,"current_range_meters":9600,"station_id":"ce4bhnh2rcd13ifvqgug","pricing_plan_id":"cebpf4jnsgd1na2vs0mg"},{"bike_id":"1332db18-e77f-4084-9e91-8cb56440097a","system_id":"levelo_inurba_marseille","lat":43.28273,"lon":5.35071,"is_reserved":false,"is_disabled":false,"rental_uris":{"android":"levelo://app?vid=1332db18-e77f-4084-9e91-8cb56440097a","ios":"levelo://app?vid=1332db18-e77f-4084-9e91-8cb56440097a"},"vehicle_type_id":"4","last_reported":1743704048,"current_range_meters":9600,"station_id":"ce4bhbp2rcd13ifvqerg","pricing_plan_id":"cebpf4jnsgd1na2vs0mg"},{"bike_id":"2635283e-ffd4-4c1f-b9e8-1b146ac4c8cc","system_id":"levelo_inurba_marseille","lat":43.3021,"lon":5.41896,"is_reserved":false,"is_disabled":false,"rental_uris":{"android":"levelo://app?vid=2635283e-ffd4-4c1f-b9e8-1b146ac4c8cc","ios":"levelo://app?vid=2635283e-ffd4-4c1f-b9e8-1b146ac4c8cc"},"vehicle_type_id":"4","last_reported":1743704048,"current_range_meters":9600,"station_id":"","pricing_plan_id":"cebpf4jnsgd1na2vs0mg"},{"bike_id":"0dac6cbf-70aa-4c5b-9bd6-89ce0f38fbc3","system_id":"levelo_inurba_marseille","lat":43.313017,"lon":5.373251,"is_reserved":false,"is_disabled":false,"rental_uris":{"android":"levelo://app?vid=0dac6cbf-70aa-4c5b-9bd6-89ce0f38fbc3","ios":"levelo://app?vid=0dac6cbf-70aa-4c5b-9bd6-89ce0f38fbc3"},"vehicle_type_id":"4","last_reported":1743704048,"current_range_meters":9600,"station_id":"","pricing_plan_id":"cebpf4jnsgd1na2vs0mg"},{"bike_id":"5ec1c68d-c836-4720-a623-de562b6a07f3","system_id":"levelo_inurba_marseille","lat":43.30354,"lon":5.41876,"is_reserved":false,"is_disabled":false,"rental_uris":{"android":"levelo://app?vid=5ec1c68d-c836-4720-a623-de562b6a07f3","ios":"levelo://app?vid=5ec1c68d-c836-4720-a623-de562b6a07f3"},"vehicle_type_id":"4","last_reported":1743704048,"current_range_meters":9200,"station_id":"ce4bhop2rcd13ifvqh7g","pricing_plan_id":"cebpf4jnsgd1na2vs0mg"},{"bike_id":"06c14053-3a7f-4851-bac2-ca082d400ea4","system_id":"levelo_inurba_marseille","lat":43.29421,"lon":5.38617,"is_reserved":false,"is_disabled":false,"rental_uris":{"android":"levelo://app?vid=06c14053-3a7f-4851-bac2-ca082d400ea4","ios":"levelo://app?vid=06c14053-3a7f-4851-bac2-ca082d400ea4"},"vehicle_type_id":"4","last_reported":1743704048,"current_range_meters":10000,"station_id":"ce4bh2h2rcd13ifvqdh0","pricing_plan_id":"cebpf4jnsgd1na2vs0mg"},{"bike_id":"3cf22d29-90b6-4c79-a643-886bc3743ca7","system_id":"levelo_inurba_marseille","lat":43.33442,"lon":5.40092,"is_reserved":false,"is_disabled":false,"rental_uris":{"android":"levelo://app?vid=3cf22d29-90b6-4c79-a643-886bc3743ca7","ios":"levelo://app?vid=3cf22d29-90b6-4c79-a643-886bc3743ca7"},"vehicle_type_id":"4","last_reported":1743704048,"current_range_meters":10000,"station_id":"","pricing_plan_id":"cebpf4jnsgd1na2vs0mg"},{"bike_id":"857ae049-7926-4695-815c-dcc0cb61dd15","system_id":"levelo_inurba_marseille","lat":43.29732,"lon":5.36619,"is_reserved":false,"is_disabled":false,"rental_uris":{"android":"levelo://app?vid=857ae049-7926-4695-815c-dcc0cb61dd15","ios":"levelo://app?vid=857ae049-7926-4695-815c-dcc0cb61dd15"},"vehicle_type_id":"4","last_reported":1743704048,"current_range_meters":10000,"station_id":"ce4bgn12rcd13ifvqbt0","pricing_plan_id":"cebpf4jnsgd1na2vs0mg"},{"bike_id":"5c540eab-ece5-4a70-bad9-8ff578f521cb","system_id":"levelo_inurba_marseille","lat":43.28407,"lon":5.37539,"is_reserved":false,"is_disabled":false,"rental_uris":{"android":"levelo://app?vid=5c540eab-ece5-4a70-bad9-8ff578f521cb","ios":"levelo://app?vid=5c540eab-ece5-4a70-bad9-8ff578f521cb"},"vehicle_type_id":"4","last_reported":1743704048,"current_range_meters":10000,"station_id":"ce4bh412rcd13ifvqds0","pricing_plan_id":"cebpf4jnsgd1na2vs0mg"},{"bike_id":"e3a29d38-a611-4b12-87ef-2fb8a21c41d5","system_id":"levelo_inurba_marseille","lat":43.229377,"lon":5.353796,"is_reserved":false,"is_disabled":false,"rental_uris":{"android":"levelo://app?vid=e3a29d38-a611-4b12-87ef-2fb8a21c41d5","ios":"levelo://app?vid=e3a29d38-a611-4b12-87ef-2fb8a21c41d5"},"vehicle_type_id":"4","last_reported":1743704048,"current_range_meters":10000,"station_id":"cpo3532slgdg3j2ikp40","pricing_plan_id":"cebpf4jnsgd1na2vs0mg"},{"bike_id":"efddeda7-6eb2-4c14-868d-fa0ce0b35ef3","system_id":"levelo_inurba_marseille","lat":43.31307,"lon":5.38287,"is_reserved":false,"is_disabled":false,"rental_uris":{"android":"levelo://app?vid=efddeda7-6eb2-4c14-868d-fa0ce0b35ef3","ios":"levelo://app?vid=efddeda7-6eb2-4c14-868d-fa0ce0b35ef3"},"vehicle_type_id":"4","last_reported":1743704048,"current_range_meters":10000,"station_id":"","pricing_plan_id":"cebpf4jnsgd1na2vs0mg"},{"bike_id":"5122ad34-7e86-490e-a68b-7f178671e351","system_id":"levelo_inurba_marseille","lat":43.28274,"lon":5.35089,"is_reserved":false,"is_disabled":false,"rental_uris":{"android":"levelo://app?vid=5122ad34-7e86-490e-a68b-7f178671e351","ios":"levelo://app?vid=5122ad34-7e86-490e-a68b-7f178671e351"},"vehicle_type_id":"4","last_reported":1743704048,"current_range_meters":10000,"station_id":"ce4bhbp2rcd13ifvqerg","pricing_plan_id":"cebpf4jnsgd1na2vs0mg"},{"bike_id":"4d021dc5-da23-461e-96b2-594066586ca8","system_id":"levelo_inurba_marseille","lat":43.27963,"lon":5.40857,"is_reserved":false,"is_disabled":false,"rental_uris":{"android":"levelo://app?vid=4d021dc5-da23-461e-96b2-594066586ca8","ios":"levelo://app?vid=4d021dc5-da23-461e-96b2-594066586ca8"},"vehicle_type_id":"4","last_reported":1743704048,"current_range_meters":10000,"station_id":"","pricing_plan_id":"cebpf4jnsgd1na2vs0mg"},{"bike_id":"71315f2a-9e3b-43af-8af7-363b3b061c73","system_id":"levelo_inurba_marseille","lat":43.27378,"lon":5.36272,"is_reserved":false,"is_disabled":false,"rental_uris":{"android":"levelo://app?vid=71315f2a-9e3b-43af-8af7-363b3b061c73","ios":"levelo://app?vid=71315f2a-9e3b-43af-8af7-363b3b061c73"},"vehicle_type_id":"4","last_reported":1743704048,"current_range_meters":10000,"station_id":"ce4bhbh2rcd13ifvqeo0","pricing_plan_id":"cebpf4jnsgd1na2vs0mg"},{"bike_id":"f78932fa-0bac-4734-911f-ea786847da38","system_id":"levelo_inurba_marseille","lat":43.24071,"lon":5.37769,"is_reserved":false,"is_disabled":false,"rental_uris":{"android":"levelo://app?vid=f78932fa-0bac-4734-911f-ea786847da38","ios":"levelo://app?vid=f78932fa-0bac-4734-911f-ea786847da38"},"vehicle_type_id":"4","last_reported":1743704048,"current_range_meters":10000,"station_id":"ce4bhnp2rcd13ifvqgvg","pricing_plan_id":"cebpf4jnsgd1na2vs0mg"},{"bike_id":"09acc38a-ce9e-4339-b410-bdafaf8d5a13","system_id":"levelo_inurba_marseille","lat":43.25095,"lon":5.39519,"is_reserved":false,"is_disabled":true,"rental_uris":{"android":"levelo://app?vid=09acc38a-ce9e-4339-b410-bdafaf8d5a13","ios":"levelo://app?vid=09acc38a-ce9e-4339-b410-bdafaf8d5a13"},"vehicle_type_id":"4","last_reported":1743704048,"current_range_meters":10000,"station_id":"ce4bhm12rcd13ifvqgkg","pricing_plan_id":"cebpf4jnsgd1na2vs0mg"},{"bike_id":"c13336a2-47ce-488c-b5b6-77c01a3ac1d1","system_id":"levelo_inurba_marseille","lat":43.31897,"lon":5.40746,"is_reserved":false,"is_disabled":true,"rental_uris":{"android":"levelo://app?vid=c13336a2-47ce-488c-b5b6-77c01a3ac1d1","ios":"levelo://app?vid=c13336a2-47ce-488c-b5b6-77c01a3ac1d1"},"vehicle_type_id":"4","last_reported":1743704048,"current_range_meters":10000,"station_id":"ce4bhq12rcd13ifvqhig","pricing_plan_id":"cebpf4jnsgd1na2vs0mg"},{"bike_id":"b928b935-b147-4d20-93f2-7362a3c43cf4","system_id":"levelo_inurba_marseille","lat":43.29192,"lon":5.35805,"is_reserved":false,"is_disabled":false,"rental_uris":{"android":"levelo://app?vid=b928b935-b147-4d20-93f2-7362a3c43cf4","ios":"levelo://app?vid=b928b935-b147-4d20-93f2-7362a3c43cf4"},"vehicle_type_id":"4","last_reported":1743704048,"current_range_meters":10000,"station_id":"ce4bhb12rcd13ifvqel0","pricing_plan_id":"cebpf4jnsgd1na2vs0mg"},{"bike_id":"63c19073-a7de-46ed-a396-8639743b910e","system_id":"levelo_inurba_marseille","lat":43.23233,"lon":5.35583,"is_reserved":false,"is_disabled":false,"rental_uris":{"android":"levelo://app?vid=63c19073-a7de-46ed-a396-8639743b910e","ios":"levelo://app?vid=63c19073-a7de-46ed-a396-8639743b910e"},"vehicle_type_id":"4","last_reported":1743704048,"current_range_meters":10000,"station_id":"","pricing_plan_id":"cebpf4jnsgd1na2vs0mg"},{"bike_id":"20880086-e9f3-4f88-a58d-d5598ff76a19","system_id":"levelo_inurba_marseille","lat":43.29553,"lon":5.42295,"is_reserved":false,"is_disabled":false,"rental_uris":{"android":"levelo://app?vid=20880086-e9f3-4f88-a58d-d5598ff76a19","ios":"levelo://app?vid=20880086-e9f3-4f88-a58d-d5598ff76a19"},"vehicle_type_id":"4","last_reported":1743704048,"current_range_meters":10000,"station_id":"ce4bhph2rcd13ifvqhdg","pricing_plan_id":"cebpf4jnsgd1na2vs0mg"},{"bike_id":"8b57f888-14be-4c3c-b445-bc36d68e6053","system_id":"levelo_inurba_marseille","lat":43.30211,"lon":5.39464,"is_reserved":false,"is_disabled":false,"rental_uris":{"android":"levelo://app?vid=8b57f888-14be-4c3c-b445-bc36d68e6053","ios":"levelo://app?vid=8b57f888-14be-4c3c-b445-bc36d68e6053"},"vehicle_type_id":"4","last_reported":1743704048,"current_range_meters":10000,"station_id":"ce4bh0p2rcd13ifvqd70","pricing_plan_id":"cebpf4jnsgd1na2vs0mg"},{"bike_id":"b65a535b-82ed-46a6-b796-0039c43c6b37","system_id":"levelo_inurba_marseille","lat":43.29005,"lon":5.35609,"is_reserved":false,"is_disabled":false,"rental_uris":{"android":"levelo://app?vid=b65a535b-82ed-46a6-b796-0039c43c6b37","ios":"levelo://app?vid=b65a535b-82ed-46a6-b796-0039c43c6b37"},"vehicle_type_id":"4","last_reported":1743704048,"current_range_meters":10000,"station_id":"ce4bhb92rcd13ifvqen0","pricing_plan_id":"cebpf4jnsgd1na2vs0mg"},{"bike_id":"c6dbfbad-c5e4-4444-9b15-94527aba01a5","system_id":"levelo_inurba_marseille","lat":43.30549,"lon":5.3655,"is_reserved":false,"is_disabled":true,"rental_uris":{"android":"levelo://app?vid=c6dbfbad-c5e4-4444-9b15-94527aba01a5","ios":"levelo://app?vid=c6dbfbad-c5e4-4444-9b15-94527aba01a5"},"vehicle_type_id":"4","last_reported":1743704048,"current_range_meters":10000,"station_id":"ce4bgs12rcd13ifvqcag","pricing_plan_id":"cebpf4jnsgd1na2vs0mg"},{"bike_id":"ed5cd752-8daf-46ca-a4f5-922f0066abe0","system_id":"levelo_inurba_marseille","lat":43.27816,"lon":5.40707,"is_reserved":false,"is_disabled":false,"rental_uris":{"android":"levelo://app?vid=ed5cd752-8daf-46ca-a4f5-922f0066abe0","ios":"levelo://app?vid=ed5cd752-8daf-46ca-a4f5-922f0066abe0"},"vehicle_type_id":"4","last_reported":1743704048,"current_range_meters":10000,"station_id":"ce4bhnh2rcd13ifvqgtg","pricing_plan_id":"cebpf4jnsgd1na2vs0mg"},{"bike_id":"95c6afc1-751b-4335-9455-2a5c25d7f064","system_id":"levelo_inurba_marseille","lat":43.28956,"lon":5.36634,"is_reserved":false,"is_disabled":false,"rental_uris":{"android":"levelo://app?vid=95c6afc1-751b-4335-9455-2a5c25d7f064","ios":"levelo://app?vid=95c6afc1-751b-4335-9455-2a5c25d7f064"},"vehicle_type_id":"4","last_reported":1743704048,"current_range_meters":10800,"station_id":"ce4bhap2rcd13ifvqek0","pricing_plan_id":"cebpf4jnsgd1na2vs0mg"},{"bike_id":"bf219784-3680-44e1-abb0-c19db8b8d5b7","system_id":"levelo_inurba_marseille","lat":43.28936,"lon":5.36651,"is_reserved":false,"is_disabled":false,"rental_uris":{"android":"levelo://app?vid=bf219784-3680-44e1-abb0-c19db8b8d5b7","ios":"levelo://app?vid=bf219784-3680-44e1-abb0-c19db8b8d5b7"},"vehicle_type_id":"4","last_reported":1743704048,"current_range_meters":10800,"station_id":"ce4bhap2rcd13ifvqek0","pricing_plan_id":"cebpf4jnsgd1na2vs0mg"},{"bike_id":"757175f4-ba55-4066-8ebb-642dcac25be7","system_id":"levelo_inurba_marseille","lat":43.31363,"lon":5.38494,"is_reserved":false,"is_disabled":false,"rental_uris":{"android":"levelo://app?vid=757175f4-ba55-4066-8ebb-642dcac25be7","ios":"levelo://app?vid=757175f4-ba55-4066-8ebb-642dcac25be7"},"vehicle_type_id":"4","last_reported":1743704048,"current_range_meters":10800,"station_id":"ce4bgt92rcd13ifvqcf0","pricing_plan_id":"cebpf4jnsgd1na2vs0mg"},{"bike_id":"b78813ab-9cc2-445a-8216-bb1633b5e93f","system_id":"levelo_inurba_marseille","lat":43.28452,"lon":5.35916,"is_reserved":false,"is_disabled":false,"rental_uris":{"android":"levelo://app?vid=b78813ab-9cc2-445a-8216-bb1633b5e93f","ios":"levelo://app?vid=b78813ab-9cc2-445a-8216-bb1633b5e93f"},"vehicle_type_id":"4","last_reported":1743704048,"current_range_meters":10800,"station_id":"ce4bhah2rcd13ifvqei0","pricing_plan_id":"cebpf4jnsgd1na2vs0mg"},{"bike_id":"7c8aa83d-7691-4e3b-9fdd-777e0d678d2a","system_id":"levelo_inurba_marseille","lat":43.24211,"lon":5.39747,"is_reserved":false,"is_disabled":false,"rental_uris":{"android":"levelo://app?vid=7c8aa83d-7691-4e3b-9fdd-777e0d678d2a","ios":"levelo://app?vid=7c8aa83d-7691-4e3b-9fdd-777e0d678d2a"},"vehicle_type_id":"4","last_reported":1743704048,"current_range_meters":10800,"station_id":"ce4bhn12rcd13ifvqgpg","pricing_plan_id":"cebpf4jnsgd1na2vs0mg"},{"bike_id":"bd8458f6-0df0-494d-bd1f-126971954020","system_id":"levelo_inurba_marseille","lat":43.276123,"lon":5.36105,"is_reserved":false,"is_disabled":false,"rental_uris":{"android":"levelo://app?vid=bd8458f6-0df0-494d-bd1f-126971954020","ios":"levelo://app?vid=bd8458f6-0df0-494d-bd1f-126971954020"},"vehicle_type_id":"4","last_reported":1743704048,"current_range_meters":11200,"station_id":"ce4bgj92rcd13ifvqbe0","pricing_plan_id":"cebpf4jnsgd1na2vs0mg"},{"bike_id":"dde79109-f605-48c0-bb4d-897e53dfbcf1","system_id":"levelo_inurba_marseille","lat":43.29718,"lon":5.36627,"is_reserved":false,"is_disabled":false,"rental_uris":{"android":"levelo://app?vid=dde79109-f605-48c0-bb4d-897e53dfbcf1","ios":"levelo://app?vid=dde79109-f605-48c0-bb4d-897e53dfbcf1"},"vehicle_type_id":"4","last_reported":1743704048,"current_range_meters":11200,"station_id":"ce4bgn12rcd13ifvqbt0","pricing_plan_id":"cebpf4jnsgd1na2vs0mg"},{"bike_id":"7aafecc6-162c-4e65-a83b-a414363ed47a","system_id":"levelo_inurba_marseille","lat":43.2843,"lon":5.34999,"is_reserved":false,"is_disabled":false,"rental_uris":{"android":"levelo://app?vid=7aafecc6-162c-4e65-a83b-a414363ed47a","ios":"levelo://app?vid=7aafecc6-162c-4e65-a83b-a414363ed47a"},"vehicle_type_id":"4","last_reported":1743704048,"current_range_meters":11200,"station_id":"ce4bhbh2rcd13ifvqepg","pricing_plan_id":"cebpf4jnsgd1na2vs0mg"},{"bike_id":"e2930d69-9593-4983-aac6-b0b94f43e9c0","system_id":"levelo_inurba_marseille","lat":43.27844,"lon":5.39216,"is_reserved":false,"is_disabled":false,"rental_uris":{"android":"levelo://app?vid=e2930d69-9593-4983-aac6-b0b94f43e9c0","ios":"levelo://app?vid=e2930d69-9593-4983-aac6-b0b94f43e9c0"},"vehicle_type_id":"4","last_reported":1743704048,"current_range_meters":11200,"station_id":"ce4bhjp2rcd13ifvqga0","pricing_plan_id":"cebpf4jnsgd1na2vs0mg"},{"bike_id":"7a35bc7c-495e-4bc2-b955-e382afe51ba7","system_id":"levelo_inurba_marseille","lat":43.30144,"lon":5.38787,"is_reserved":false,"is_disabled":false,"rental_uris":{"android":"levelo://app?vid=7a35bc7c-495e-4bc2-b955-e382afe51ba7","ios":"levelo://app?vid=7a35bc7c-495e-4bc2-b955-e382afe51ba7"},"vehicle_type_id":"4","last_reported":1743704048,"current_range_meters":11200,"station_id":"ce4bghh2rcd13ifvqb60","pricing_plan_id":"cebpf4jnsgd1na2vs0mg"},{"bike_id":"069feb28-9c06-4535-8070-12f86469d30d","system_id":"levelo_inurba_marseille","lat":43.28414,"lon":5.34987,"is_reserved":false,"is_disabled":false,"rental_uris":{"android":"levelo://app?vid=069feb28-9c06-4535-8070-12f86469d30d","ios":"levelo://app?vid=069feb28-9c06-4535-8070-12f86469d30d"},"vehicle_type_id":"4","last_reported":1743704048,"current_range_meters":11200,"station_id":"ce4bhbh2rcd13ifvqepg","pricing_plan_id":"cebpf4jnsgd1na2vs0mg"},{"bike_id":"65d8b169-befc-497e-8501-ad38ae972a8e","system_id":"levelo_inurba_marseille","lat":43.28158,"lon":5.42649,"is_reserved":false,"is_disabled":false,"rental_uris":{"android":"levelo://app?vid=65d8b169-befc-497e-8501-ad38ae972a8e","ios":"levelo://app?vid=65d8b169-befc-497e-8501-ad38ae972a8e"},"vehicle_type_id":"4","last_reported":1743704048,"current_range_meters":11200,"station_id":"ce4bhnh2rcd13ifvqgug","pricing_plan_id":"cebpf4jnsgd1na2vs0mg"},{"bike_id":"319e510a-e834-4202-a2f0-4fe76e9ebcfd","system_id":"levelo_inurba_marseille","lat":43.25824,"lon":5.39427,"is_reserved":false,"is_disabled":false,"rental_uris":{"android":"levelo://app?vid=319e510a-e834-4202-a2f0-4fe76e9ebcfd","ios":"levelo://app?vid=319e510a-e834-4202-a2f0-4fe76e9ebcfd"},"vehicle_type_id":"4","last_reported":1743704048,"current_range_meters":11600,"station_id":"ce4bhip2rcd13ifvqft0","pricing_plan_id":"cebpf4jnsgd1na2vs0mg"},{"bike_id":"453f3e5c-0253-4552-89b6-768b5577bd3e","system_id":"levelo_inurba_marseille","lat":43.2827,"lon":5.35064,"is_reserved":false,"is_disabled":false,"rental_uris":{"android":"levelo://app?vid=453f3e5c-0253-4552-89b6-768b5577bd3e","ios":"levelo://app?vid=453f3e5c-0253-4552-89b6-768b5577bd3e"},"vehicle_type_id":"4","last_reported":1743704048,"current_range_meters":11600,"station_id":"ce4bhbp2rcd13ifvqerg","pricing_plan_id":"cebpf4jnsgd1na2vs0mg"},{"bike_id":"becd4d9c-f5b2-4018-aadd-5312c9b4ec50","system_id":"levelo_inurba_marseille","lat":43.23956,"lon":5.3664,"is_reserved":false,"is_disabled":false,"rental_uris":{"android":"levelo://app?vid=becd4d9c-f5b2-4018-aadd-5312c9b4ec50","ios":"levelo://app?vid=becd4d9c-f5b2-4018-aadd-5312c9b4ec50"},"vehicle_type_id":"4","last_reported":1743704048,"current_range_meters":11600,"station_id":"ce4bhi12rcd13ifvqfp0","pricing_plan_id":"cebpf4jnsgd1na2vs0mg"},{"bike_id":"63139285-137c-4e8d-8e95-6c2a275f8333","system_id":"levelo_inurba_marseille","lat":43.32114,"lon":5.36801,"is_reserved":false,"is_disabled":false,"rental_uris":{"android":"levelo://app?vid=63139285-137c-4e8d-8e95-6c2a275f8333","ios":"levelo://app?vid=63139285-137c-4e8d-8e95-6c2a275f8333"},"vehicle_type_id":"4","last_reported":1743704048,"current_range_meters":11600,"station_id":"ce4bhrh2rcd13ifvqhug","pricing_plan_id":"cebpf4jnsgd1na2vs0mg"},{"bike_id":"516d101d-bf37-44c2-af86-0695ad22de02","system_id":"levelo_inurba_marseille","lat":43.33027,"lon":5.3904,"is_reserved":false,"is_disabled":false,"rental_uris":{"android":"levelo://app?vid=516d101d-bf37-44c2-af86-0695ad22de02","ios":"levelo://app?vid=516d101d-bf37-44c2-af86-0695ad22de02"},"vehicle_type_id":"4","last_reported":1743704048,"current_range_meters":11600,"station_id":"ce4bhr92rcd13ifvqhrg","pricing_plan_id":"cebpf4jnsgd1na2vs0mg"},{"bike_id":"9ccd652e-535f-4ea4-99e0-2f46d1599847","system_id":"levelo_inurba_marseille","lat":43.32835,"lon":5.39865,"is_reserved":false,"is_disabled":false,"rental_uris":{"android":"levelo://app?vid=9ccd652e-535f-4ea4-99e0-2f46d1599847","ios":"levelo://app?vid=9ccd652e-535f-4ea4-99e0-2f46d1599847"},"vehicle_type_id":"4","last_reported":1743704048,"current_range_meters":12000,"station_id":"","pricing_plan_id":"cebpf4jnsgd1na2vs0mg"},{"bike_id":"57a27ac4-a3c6-4053-86ec-45699790a38d","system_id":"levelo_inurba_marseille","lat":43.25586,"lon":5.38246,"is_reserved":false,"is_disabled":false,"rental_uris":{"android":"levelo://app?vid=57a27ac4-a3c6-4053-86ec-45699790a38d","ios":"levelo://app?vid=57a27ac4-a3c6-4053-86ec-45699790a38d"},"vehicle_type_id":"4","last_reported":1743704048,"current_range_meters":11600,"station_id":"ce4bhih2rcd13ifvqfs0","pricing_plan_id":"cebpf4jnsgd1na2vs0mg"},{"bike_id":"fc709b2a-6eef-4d1f-bb40-5af954035ad4","system_id":"levelo_inurba_marseille","lat":43.27377,"lon":5.36256,"is_reserved":false,"is_disabled":false,"rental_uris":{"android":"levelo://app?vid=fc709b2a-6eef-4d1f-bb40-5af954035ad4","ios":"levelo://app?vid=fc709b2a-6eef-4d1f-bb40-5af954035ad4"},"vehicle_type_id":"4","last_reported":1743704048,"current_range_meters":11600,"station_id":"ce4bhbh2rcd13ifvqeo0","pricing_plan_id":"cebpf4jnsgd1na2vs0mg"},{"bike_id":"009d6d4b-a538-4a72-b1d5-4a6b604d8a37","system_id":"levelo_inurba_marseille","lat":43.2951,"lon":5.375,"is_reserved":false,"is_disabled":false,"rental_uris":{"android":"levelo://app?vid=009d6d4b-a538-4a72-b1d5-4a6b604d8a37","ios":"levelo://app?vid=009d6d4b-a538-4a72-b1d5-4a6b604d8a37"},"vehicle_type_id":"4","last_reported":1743704048,"current_range_meters":12000,"station_id":"ce4bgkp2rcd13ifvqbmg","pricing_plan_id":"cebpf4jnsgd1na2vs0mg"},{"bike_id":"785b2f0e-7d62-42c5-bd7e-93f3c8a74d6a","system_id":"levelo_inurba_marseille","lat":43.28448,"lon":5.35003,"is_reserved":false,"is_disabled":false,"rental_uris":{"android":"levelo://app?vid=785b2f0e-7d62-42c5-bd7e-93f3c8a74d6a","ios":"levelo://app?vid=785b2f0e-7d62-42c5-bd7e-93f3c8a74d6a"},"vehicle_type_id":"4","last_reported":1743704048,"current_range_meters":12000,"station_id":"ce4bhbh2rcd13ifvqepg","pricing_plan_id":"cebpf4jnsgd1na2vs0mg"},{"bike_id":"089042cf-6617-4654-a0c7-d2d30ab2133e","system_id":"levelo_inurba_marseille","lat":43.23964,"lon":5.36635,"is_reserved":false,"is_disabled":false,"rental_uris":{"android":"levelo://app?vid=089042cf-6617-4654-a0c7-d2d30ab2133e","ios":"levelo://app?vid=089042cf-6617-4654-a0c7-d2d30ab2133e"},"vehicle_type_id":"4","last_reported":1743704048,"current_range_meters":12000,"station_id":"ce4bhi12rcd13ifvqfp0","pricing_plan_id":"cebpf4jnsgd1na2vs0mg"},{"bike_id":"6828a273-3385-4362-823d-d4c2d47ece88","system_id":"levelo_inurba_marseille","lat":43.30863,"lon":5.36786,"is_reserved":false,"is_disabled":false,"rental_uris":{"android":"levelo://app?vid=6828a273-3385-4362-823d-d4c2d47ece88","ios":"levelo://app?vid=6828a273-3385-4362-823d-d4c2d47ece88"},"vehicle_type_id":"4","last_reported":1743704048,"current_range_meters":12000,"station_id":"","pricing_plan_id":"cebpf4jnsgd1na2vs0mg"},{"bike_id":"cbd4310c-f083-4693-99b0-f8cad625994c","system_id":"levelo_inurba_marseille","lat":43.28936,"lon":5.36379,"is_reserved":false,"is_disabled":false,"rental_uris":{"android":"levelo://app?vid=cbd4310c-f083-4693-99b0-f8cad625994c","ios":"levelo://app?vid=cbd4310c-f083-4693-99b0-f8cad625994c"},"vehicle_type_id":"4","last_reported":1743704048,"current_range_meters":12000,"station_id":"ce4bhc92rcd13ifvqetg","pricing_plan_id":"cebpf4jnsgd1na2vs0mg"},{"bike_id":"01358a5c-7d56-4fa9-8fe1-2068e5607610","system_id":"levelo_inurba_marseille","lat":43.298178,"lon":5.436047,"is_reserved":false,"is_disabled":false,"rental_uris":{"android":"levelo://app?vid=01358a5c-7d56-4fa9-8fe1-2068e5607610","ios":"levelo://app?vid=01358a5c-7d56-4fa9-8fe1-2068e5607610"},"vehicle_type_id":"4","last_reported":1743704048,"current_range_meters":12000,"station_id":"ce4bhpp2rcd13ifvqhfg","pricing_plan_id":"cebpf4jnsgd1na2vs0mg"},{"bike_id":"5f46717b-05d1-4f34-a220-8087932d755b","system_id":"levelo_inurba_marseille","lat":43.3015,"lon":5.37041,"is_reserved":false,"is_disabled":false,"rental_uris":{"android":"levelo://app?vid=5f46717b-05d1-4f34-a220-8087932d755b","ios":"levelo://app?vid=5f46717b-05d1-4f34-a220-8087932d755b"},"vehicle_type_id":"4","last_reported":1743704048,"current_range_meters":12000,"station_id":"","pricing_plan_id":"cebpf4jnsgd1na2vs0mg"},{"bike_id":"c457b9c7-aa79-427b-a586-05626b6d92be","system_id":"levelo_inurba_marseille","lat":43.23191,"lon":5.35545,"is_reserved":false,"is_disabled":false,"rental_uris":{"android":"levelo://app?vid=c457b9c7-aa79-427b-a586-05626b6d92be","ios":"levelo://app?vid=c457b9c7-aa79-427b-a586-05626b6d92be"},"vehicle_type_id":"4","last_reported":1743704048,"current_range_meters":12400,"station_id":"ce4bhu92rcd13ifvqi70","pricing_plan_id":"cebpf4jnsgd1na2vs0mg"},{"bike_id":"a6303451-5b45-435c-bf0e-748f94cc010d","system_id":"levelo_inurba_marseille","lat":43.23205,"lon":5.35559,"is_reserved":false,"is_disabled":false,"rental_uris":{"android":"levelo://app?vid=a6303451-5b45-435c-bf0e-748f94cc010d","ios":"levelo://app?vid=a6303451-5b45-435c-bf0e-748f94cc010d"},"vehicle_type_id":"4","last_reported":1743704048,"current_range_meters":12400,"station_id":"ce4bhu92rcd13ifvqi70","pricing_plan_id":"cebpf4jnsgd1na2vs0mg"},{"bike_id":"69c0db05-6ded-4dc6-9720-2452c83c1020","system_id":"levelo_inurba_marseille","lat":43.22941,"lon":5.35396,"is_reserved":false,"is_disabled":false,"rental_uris":{"android":"levelo://app?vid=69c0db05-6ded-4dc6-9720-2452c83c1020","ios":"levelo://app?vid=69c0db05-6ded-4dc6-9720-2452c83c1020"},"vehicle_type_id":"4","last_reported":1743704048,"current_range_meters":12400,"station_id":"cpo3532slgdg3j2ikp40","pricing_plan_id":"cebpf4jnsgd1na2vs0mg"},{"bike_id":"eeec52ab-e445-4d6a-b024-f980df80891a","system_id":"levelo_inurba_marseille","lat":43.29536,"lon":5.38546,"is_reserved":false,"is_disabled":false,"rental_uris":{"android":"levelo://app?vid=eeec52ab-e445-4d6a-b024-f980df80891a","ios":"levelo://app?vid=eeec52ab-e445-4d6a-b024-f980df80891a"},"vehicle_type_id":"4","last_reported":1743704048,"current_range_meters":12400,"station_id":"ce4bgih2rcd13ifvqba0","pricing_plan_id":"cebpf4jnsgd1na2vs0mg"},{"bike_id":"5f82ecf5-06d6-4ab7-af3c-4c04a6155512","system_id":"levelo_inurba_marseille","lat":43.28727,"lon":5.37935,"is_reserved":false,"is_disabled":false,"rental_uris":{"android":"levelo://app?vid=5f82ecf5-06d6-4ab7-af3c-4c04a6155512","ios":"levelo://app?vid=5f82ecf5-06d6-4ab7-af3c-4c04a6155512"},"vehicle_type_id":"4","last_reported":1743704048,"current_range_meters":12000,"station_id":"ce4bh9p2rcd13ifvqec0","pricing_plan_id":"cebpf4jnsgd1na2vs0mg"},{"bike_id":"c611372a-1bd7-4682-a269-9a02ba50eeab","system_id":"levelo_inurba_marseille","lat":43.29969,"lon":5.38496,"is_reserved":false,"is_disabled":true,"rental_uris":{"android":"levelo://app?vid=c611372a-1bd7-4682-a269-9a02ba50eeab","ios":"levelo://app?vid=c611372a-1bd7-4682-a269-9a02ba50eeab"},"vehicle_type_id":"4","last_reported":1743704048,"current_range_meters":12400,"station_id":"ce4bgj92rcd13ifvqbd0","pricing_plan_id":"cebpf4jnsgd1na2vs0mg"},{"bike_id":"6bae748d-6031-41ef-83a6-0e495485c08e","system_id":"levelo_inurba_marseille","lat":43.2886,"lon":5.3586,"is_reserved":false,"is_disabled":false,"rental_uris":{"android":"levelo://app?vid=6bae748d-6031-41ef-83a6-0e495485c08e","ios":"levelo://app?vid=6bae748d-6031-41ef-83a6-0e495485c08e"},"vehicle_type_id":"4","last_reported":1743704048,"current_range_meters":12400,"station_id":"ce4bhb12rcd13ifvqem0","pricing_plan_id":"cebpf4jnsgd1na2vs0mg"},{"bike_id":"6bca0a29-b040-49bc-b07b-918965c53d85","system_id":"levelo_inurba_marseille","lat":43.28922,"lon":5.36387,"is_reserved":false,"is_disabled":false,"rental_uris":{"android":"levelo://app?vid=6bca0a29-b040-49bc-b07b-918965c53d85","ios":"levelo://app?vid=6bca0a29-b040-49bc-b07b-918965c53d85"},"vehicle_type_id":"4","last_reported":1743704048,"current_range_meters":12800,"station_id":"ce4bhc92rcd13ifvqetg","pricing_plan_id":"cebpf4jnsgd1na2vs0mg"},{"bike_id":"a2cc56b1-ff5c-4d49-8794-6951d2d93f41","system_id":"levelo_inurba_marseille","lat":43.23963,"lon":5.36637,"is_reserved":false,"is_disabled":false,"rental_uris":{"android":"levelo://app?vid=a2cc56b1-ff5c-4d49-8794-6951d2d93f41","ios":"levelo://app?vid=a2cc56b1-ff5c-4d49-8794-6951d2d93f41"},"vehicle_type_id":"4","last_reported":1743704048,"current_range_meters":12800,"station_id":"ce4bhi12rcd13ifvqfp0","pricing_plan_id":"cebpf4jnsgd1na2vs0mg"},{"bike_id":"dc3fa298-239e-4650-bbdd-1d26ca85405a","system_id":"levelo_inurba_marseille","lat":43.318233,"lon":5.378451,"is_reserved":false,"is_disabled":false,"rental_uris":{"android":"levelo://app?vid=dc3fa298-239e-4650-bbdd-1d26ca85405a","ios":"levelo://app?vid=dc3fa298-239e-4650-bbdd-1d26ca85405a"},"vehicle_type_id":"4","last_reported":1743704048,"current_range_meters":12800,"station_id":"ce4bgth2rcd13ifvqch0","pricing_plan_id":"cebpf4jnsgd1na2vs0mg"},{"bike_id":"fecdf8db-9dbd-40b3-94dc-7929427ae470","system_id":"levelo_inurba_marseille","lat":43.2739,"lon":5.36273,"is_reserved":false,"is_disabled":false,"rental_uris":{"android":"levelo://app?vid=fecdf8db-9dbd-40b3-94dc-7929427ae470","ios":"levelo://app?vid=fecdf8db-9dbd-40b3-94dc-7929427ae470"},"vehicle_type_id":"4","last_reported":1743704048,"current_range_meters":12800,"station_id":"ce4bhbh2rcd13ifvqeo0","pricing_plan_id":"cebpf4jnsgd1na2vs0mg"},{"bike_id":"d8c503e7-712e-4e2e-8c9f-51d1259ef79c","system_id":"levelo_inurba_marseille","lat":43.281017,"lon":5.37838,"is_reserved":false,"is_disabled":false,"rental_uris":{"android":"levelo://app?vid=d8c503e7-712e-4e2e-8c9f-51d1259ef79c","ios":"levelo://app?vid=d8c503e7-712e-4e2e-8c9f-51d1259ef79c"},"vehicle_type_id":"4","last_reported":1743704048,"current_range_meters":12800,"station_id":"ce4bha12rcd13ifvqee0","pricing_plan_id":"cebpf4jnsgd1na2vs0mg"},{"bike_id":"f1e5f20d-e5bb-4349-9a72-f7ab8a004414","system_id":"levelo_inurba_marseille","lat":43.30325,"lon":5.40452,"is_reserved":false,"is_disabled":true,"rental_uris":{"android":"levelo://app?vid=f1e5f20d-e5bb-4349-9a72-f7ab8a004414","ios":"levelo://app?vid=f1e5f20d-e5bb-4349-9a72-f7ab8a004414"},"vehicle_type_id":"4","last_reported":1743704048,"current_range_meters":12800,"station_id":"ce4bh012rcd13ifvqd10","pricing_plan_id":"cebpf4jnsgd1na2vs0mg"},{"bike_id":"3043fe6a-728d-48c9-8372-8e728a15bd89","system_id":"levelo_inurba_marseille","lat":43.2816,"lon":5.42648,"is_reserved":false,"is_disabled":false,"rental_uris":{"android":"levelo://app?vid=3043fe6a-728d-48c9-8372-8e728a15bd89","ios":"levelo://app?vid=3043fe6a-728d-48c9-8372-8e728a15bd89"},"vehicle_type_id":"4","last_reported":1743704048,"current_range_meters":12800,"station_id":"ce4bhnh2rcd13ifvqgug","pricing_plan_id":"cebpf4jnsgd1na2vs0mg"},{"bike_id":"0da307f0-a737-4f3f-8786-4dd451d57e79","system_id":"levelo_inurba_marseille","lat":43.30872,"lon":5.36777,"is_reserved":false,"is_disabled":false,"rental_uris":{"android":"levelo://app?vid=0da307f0-a737-4f3f-8786-4dd451d57e79","ios":"levelo://app?vid=0da307f0-a737-4f3f-8786-4dd451d57e79"},"vehicle_type_id":"4","last_reported":1743704048,"current_range_meters":14000,"station_id":"","pricing_plan_id":"cebpf4jnsgd1na2vs0mg"},{"bike_id":"860fcb92-16da-4860-9260-cfb47f5cb16e","system_id":"levelo_inurba_marseille","lat":43.29706,"lon":5.36608,"is_reserved":false,"is_disabled":false,"rental_uris":{"android":"levelo://app?vid=860fcb92-16da-4860-9260-cfb47f5cb16e","ios":"levelo://app?vid=860fcb92-16da-4860-9260-cfb47f5cb16e"},"vehicle_type_id":"4","last_reported":1743704048,"current_range_meters":13600,"station_id":"ce4bgn12rcd13ifvqbt0","pricing_plan_id":"cebpf4jnsgd1na2vs0mg"},{"bike_id":"2907afc2-01ac-4aec-9b08-c3a75d8347bc","system_id":"levelo_inurba_marseille","lat":43.26224,"lon":5.40465,"is_reserved":false,"is_disabled":false,"rental_uris":{"android":"levelo://app?vid=2907afc2-01ac-4aec-9b08-c3a75d8347bc","ios":"levelo://app?vid=2907afc2-01ac-4aec-9b08-c3a75d8347bc"},"vehicle_type_id":"4","last_reported":1743704048,"current_range_meters":13600,"station_id":"ce4bhmh2rcd13ifvqgmg","pricing_plan_id":"cebpf4jnsgd1na2vs0mg"},{"bike_id":"42f532f2-d7bd-4c2e-8810-585bc9998121","system_id":"levelo_inurba_marseille","lat":43.2925,"lon":5.38443,"is_reserved":false,"is_disabled":false,"rental_uris":{"android":"levelo://app?vid=42f532f2-d7bd-4c2e-8810-585bc9998121","ios":"levelo://app?vid=42f532f2-d7bd-4c2e-8810-585bc9998121"},"vehicle_type_id":"4","last_reported":1743704048,"current_range_meters":13600,"station_id":"ce4bh692rcd13ifvqea0","pricing_plan_id":"cebpf4jnsgd1na2vs0mg"},{"bike_id":"74a13a18-430a-4f50-ba26-e7dfbad23482","system_id":"levelo_inurba_marseille","lat":43.23083,"lon":5.35477,"is_reserved":false,"is_disabled":false,"rental_uris":{"android":"levelo://app?vid=74a13a18-430a-4f50-ba26-e7dfbad23482","ios":"levelo://app?vid=74a13a18-430a-4f50-ba26-e7dfbad23482"},"vehicle_type_id":"4","last_reported":1743704048,"current_range_meters":13600,"station_id":"cpo3342slgdg3j2ifvpg","pricing_plan_id":"cebpf4jnsgd1na2vs0mg"},{"bike_id":"3364e4f5-1011-4d87-9ea6-6547a5333933","system_id":"levelo_inurba_marseille","lat":43.29576,"lon":5.36739,"is_reserved":false,"is_disabled":false,"rental_uris":{"android":"levelo://app?vid=3364e4f5-1011-4d87-9ea6-6547a5333933","ios":"levelo://app?vid=3364e4f5-1011-4d87-9ea6-6547a5333933"},"vehicle_type_id":"4","last_reported":1743704048,"current_range_meters":13600,"station_id":"ce4bgph2rcd13ifvqc2g","pricing_plan_id":"cebpf4jnsgd1na2vs0mg"},{"bike_id":"9396f31d-e485-4f45-a818-9888089b5bb6","system_id":"levelo_inurba_marseille","lat":43.23196,"lon":5.35553,"is_reserved":false,"is_disabled":false,"rental_uris":{"android":"levelo://app?vid=9396f31d-e485-4f45-a818-9888089b5bb6","ios":"levelo://app?vid=9396f31d-e485-4f45-a818-9888089b5bb6"},"vehicle_type_id":"4","last_reported":1743704048,"current_range_meters":13600,"station_id":"ce4bhu92rcd13ifvqi70","pricing_plan_id":"cebpf4jnsgd1na2vs0mg"},{"bike_id":"c6862948-1edf-4fc3-a5ff-69194aa75788","system_id":"levelo_inurba_marseille","lat":43.26233,"lon":5.40467,"is_reserved":false,"is_disabled":false,"rental_uris":{"android":"levelo://app?vid=c6862948-1edf-4fc3-a5ff-69194aa75788","ios":"levelo://app?vid=c6862948-1edf-4fc3-a5ff-69194aa75788"},"vehicle_type_id":"4","last_reported":1743704048,"current_range_meters":14000,"station_id":"ce4bhmh2rcd13ifvqgmg","pricing_plan_id":"cebpf4jnsgd1na2vs0mg"},{"bike_id":"45a03a62-cba3-4c8c-96b4-cc5c74ca70cc","system_id":"levelo_inurba_marseille","lat":43.25829,"lon":5.39431,"is_reserved":false,"is_disabled":false,"rental_uris":{"android":"levelo://app?vid=45a03a62-cba3-4c8c-96b4-cc5c74ca70cc","ios":"levelo://app?vid=45a03a62-cba3-4c8c-96b4-cc5c74ca70cc"},"vehicle_type_id":"4","last_reported":1743704048,"current_range_meters":14000,"station_id":"ce4bhip2rcd13ifvqft0","pricing_plan_id":"cebpf4jnsgd1na2vs0mg"},{"bike_id":"c1489b24-eb9e-4d02-b65f-e719f411900b","system_id":"levelo_inurba_marseille","lat":43.2827,"lon":5.35076,"is_reserved":false,"is_disabled":false,"rental_uris":{"android":"levelo://app?vid=c1489b24-eb9e-4d02-b65f-e719f411900b","ios":"levelo://app?vid=c1489b24-eb9e-4d02-b65f-e719f411900b"},"vehicle_type_id":"4","last_reported":1743704048,"current_range_meters":14000,"station_id":"ce4bhbp2rcd13ifvqerg","pricing_plan_id":"cebpf4jnsgd1na2vs0mg"},{"bike_id":"27c7fc6d-e1c0-412f-b3f8-51018472192c","system_id":"levelo_inurba_marseille","lat":43.28936,"lon":5.38407,"is_reserved":false,"is_disabled":false,"rental_uris":{"android":"levelo://app?vid=27c7fc6d-e1c0-412f-b3f8-51018472192c","ios":"levelo://app?vid=27c7fc6d-e1c0-412f-b3f8-51018472192c"},"vehicle_type_id":"4","last_reported":1743704048,"current_range_meters":14000,"station_id":"ce4bh612rcd13ifvqe6g","pricing_plan_id":"cebpf4jnsgd1na2vs0mg"},{"bike_id":"59db9786-7d0c-4870-b6e9-df9c4ab5f946","system_id":"levelo_inurba_marseille","lat":43.2943,"lon":5.38639,"is_reserved":false,"is_disabled":false,"rental_uris":{"android":"levelo://app?vid=59db9786-7d0c-4870-b6e9-df9c4ab5f946","ios":"levelo://app?vid=59db9786-7d0c-4870-b6e9-df9c4ab5f946"},"vehicle_type_id":"4","last_reported":1743704048,"current_range_meters":14000,"station_id":"ce4bh2h2rcd13ifvqdh0","pricing_plan_id":"cebpf4jnsgd1na2vs0mg"},{"bike_id":"266c3b32-3559-493d-8f0a-9a6f7ea354d8","system_id":"levelo_inurba_marseille","lat":43.29426,"lon":5.3862,"is_reserved":false,"is_disabled":false,"rental_uris":{"android":"levelo://app?vid=266c3b32-3559-493d-8f0a-9a6f7ea354d8","ios":"levelo://app?vid=266c3b32-3559-493d-8f0a-9a6f7ea354d8"},"vehicle_type_id":"4","last_reported":1743704048,"current_range_meters":14000,"station_id":"ce4bh2h2rcd13ifvqdh0","pricing_plan_id":"cebpf4jnsgd1na2vs0mg"},{"bike_id":"ed034283-1492-4da7-9409-35bdead80f30","system_id":"levelo_inurba_marseille","lat":43.3014,"lon":5.38819,"is_reserved":false,"is_disabled":true,"rental_uris":{"android":"levelo://app?vid=ed034283-1492-4da7-9409-35bdead80f30","ios":"levelo://app?vid=ed034283-1492-4da7-9409-35bdead80f30"},"vehicle_type_id":"4","last_reported":1743704048,"current_range_meters":14000,"station_id":"ce4bghh2rcd13ifvqb60","pricing_plan_id":"cebpf4jnsgd1na2vs0mg"},{"bike_id":"38fc986d-b07d-483d-8662-9cc3d2ebc616","system_id":"levelo_inurba_marseille","lat":43.2873,"lon":5.3608,"is_reserved":false,"is_disabled":false,"rental_uris":{"android":"levelo://app?vid=38fc986d-b07d-483d-8662-9cc3d2ebc616","ios":"levelo://app?vid=38fc986d-b07d-483d-8662-9cc3d2ebc616"},"vehicle_type_id":"4","last_reported":1743704048,"current_range_meters":14000,"station_id":"cki0cbj6b192h4jlfktg","pricing_plan_id":"cebpf4jnsgd1na2vs0mg"},{"bike_id":"65c86302-8ef0-46f4-ab6e-bac7149a2865","system_id":"levelo_inurba_marseille","lat":43.32116,"lon":5.36809,"is_reserved":false,"is_disabled":false,"rental_uris":{"android":"levelo://app?vid=65c86302-8ef0-46f4-ab6e-bac7149a2865","ios":"levelo://app?vid=65c86302-8ef0-46f4-ab6e-bac7149a2865"},"vehicle_type_id":"4","last_reported":1743704048,"current_range_meters":14000,"station_id":"ce4bhrh2rcd13ifvqhug","pricing_plan_id":"cebpf4jnsgd1na2vs0mg"},{"bike_id":"60a3a60e-8a0d-40b6-a60f-0c2eac5fb8d4","system_id":"levelo_inurba_marseille","lat":43.26934,"lon":5.38916,"is_reserved":false,"is_disabled":false,"rental_uris":{"android":"levelo://app?vid=60a3a60e-8a0d-40b6-a60f-0c2eac5fb8d4","ios":"levelo://app?vid=60a3a60e-8a0d-40b6-a60f-0c2eac5fb8d4"},"vehicle_type_id":"4","last_reported":1743704048,"current_range_meters":14400,"station_id":"ce4bhhh2rcd13ifvqfl0","pricing_plan_id":"cebpf4jnsgd1na2vs0mg"},{"bike_id":"19224d95-e048-4cbb-8884-43e0e6b3db9b","system_id":"levelo_inurba_marseille","lat":43.29885,"lon":5.39748,"is_reserved":false,"is_disabled":true,"rental_uris":{"android":"levelo://app?vid=19224d95-e048-4cbb-8884-43e0e6b3db9b","ios":"levelo://app?vid=19224d95-e048-4cbb-8884-43e0e6b3db9b"},"vehicle_type_id":"4","last_reported":1743704048,"current_range_meters":14400,"station_id":"ce4bh0h2rcd13ifvqd50","pricing_plan_id":"cebpf4jnsgd1na2vs0mg"},{"bike_id":"821620e4-ad6d-4bf4-9100-664ee25fd19f","system_id":"levelo_inurba_marseille","lat":43.29439,"lon":5.38606,"is_reserved":false,"is_disabled":false,"rental_uris":{"android":"levelo://app?vid=821620e4-ad6d-4bf4-9100-664ee25fd19f","ios":"levelo://app?vid=821620e4-ad6d-4bf4-9100-664ee25fd19f"},"vehicle_type_id":"4","last_reported":1743704048,"current_range_meters":14800,"station_id":"ce4bh2h2rcd13ifvqdh0","pricing_plan_id":"cebpf4jnsgd1na2vs0mg"},{"bike_id":"3a0b0f90-790c-4160-b50c-b4d5547d0490","system_id":"levelo_inurba_marseille","lat":43.30329,"lon":5.42589,"is_reserved":false,"is_disabled":false,"rental_uris":{"android":"levelo://app?vid=3a0b0f90-790c-4160-b50c-b4d5547d0490","ios":"levelo://app?vid=3a0b0f90-790c-4160-b50c-b4d5547d0490"},"vehicle_type_id":"4","last_reported":1743704048,"current_range_meters":14800,"station_id":"ce4bhoh2rcd13ifvqh6g","pricing_plan_id":"cebpf4jnsgd1na2vs0mg"},{"bike_id":"7eb035ee-50af-4b7e-bdc6-599a6c03bdae","system_id":"levelo_inurba_marseille","lat":43.24161,"lon":5.36405,"is_reserved":false,"is_disabled":false,"rental_uris":{"android":"levelo://app?vid=7eb035ee-50af-4b7e-bdc6-599a6c03bdae","ios":"levelo://app?vid=7eb035ee-50af-4b7e-bdc6-599a6c03bdae"},"vehicle_type_id":"4","last_reported":1743704048,"current_range_meters":14800,"station_id":"cpo36qri1sfpv3e86is0","pricing_plan_id":"cebpf4jnsgd1na2vs0mg"},{"bike_id":"fb348b09-6abb-47a4-a266-91f2eeaee291","system_id":"levelo_inurba_marseille","lat":43.32103,"lon":5.368,"is_reserved":false,"is_disabled":false,"rental_uris":{"android":"levelo://app?vid=fb348b09-6abb-47a4-a266-91f2eeaee291","ios":"levelo://app?vid=fb348b09-6abb-47a4-a266-91f2eeaee291"},"vehicle_type_id":"4","last_reported":1743704048,"current_range_meters":14800,"station_id":"ce4bhrh2rcd13ifvqhug","pricing_plan_id":"cebpf4jnsgd1na2vs0mg"},{"bike_id":"0379a0c3-5669-4751-8fd8-55bdfec5aee7","system_id":"levelo_inurba_marseille","lat":43.29529,"lon":5.38539,"is_reserved":false,"is_disabled":false,"rental_uris":{"android":"levelo://app?vid=0379a0c3-5669-4751-8fd8-55bdfec5aee7","ios":"levelo://app?vid=0379a0c3-5669-4751-8fd8-55bdfec5aee7"},"vehicle_type_id":"4","last_reported":1743704048,"current_range_meters":14800,"station_id":"ce4bh292rcd13ifvqdg0","pricing_plan_id":"cebpf4jnsgd1na2vs0mg"},{"bike_id":"aab85d2a-da53-45c7-ae9c-554ffa706d4a","system_id":"levelo_inurba_marseille","lat":43.28425,"lon":5.37537,"is_reserved":false,"is_disabled":false,"rental_uris":{"android":"levelo://app?vid=aab85d2a-da53-45c7-ae9c-554ffa706d4a","ios":"levelo://app?vid=aab85d2a-da53-45c7-ae9c-554ffa706d4a"},"vehicle_type_id":"4","last_reported":1743704048,"current_range_meters":14800,"station_id":"ce4bh412rcd13ifvqds0","pricing_plan_id":"cebpf4jnsgd1na2vs0mg"},{"bike_id":"758c2355-846a-4f3d-bcd8-eac4b3145cd6","system_id":"levelo_inurba_marseille","lat":43.231941,"lon":5.355551,"is_reserved":false,"is_disabled":false,"rental_uris":{"android":"levelo://app?vid=758c2355-846a-4f3d-bcd8-eac4b3145cd6","ios":"levelo://app?vid=758c2355-846a-4f3d-bcd8-eac4b3145cd6"},"vehicle_type_id":"4","last_reported":1743704048,"current_range_meters":14800,"station_id":"ce4bhu92rcd13ifvqi70","pricing_plan_id":"cebpf4jnsgd1na2vs0mg"},{"bike_id":"1ff1dfb4-3317-4cb2-bd19-ace9b87ce6d9","system_id":"levelo_inurba_marseille","lat":43.25124,"lon":5.40312,"is_reserved":false,"is_disabled":false,"rental_uris":{"android":"levelo://app?vid=1ff1dfb4-3317-4cb2-bd19-ace9b87ce6d9","ios":"levelo://app?vid=1ff1dfb4-3317-4cb2-bd19-ace9b87ce6d9"},"vehicle_type_id":"4","last_reported":1743704048,"current_range_meters":14800,"station_id":"ce4bhlh2rcd13ifvqgig","pricing_plan_id":"cebpf4jnsgd1na2vs0mg"},{"bike_id":"cc4dca24-e2ff-4356-a104-6e3f1dba333e","system_id":"levelo_inurba_marseille","lat":43.2926,"lon":5.3844,"is_reserved":false,"is_disabled":false,"rental_uris":{"android":"levelo://app?vid=cc4dca24-e2ff-4356-a104-6e3f1dba333e","ios":"levelo://app?vid=cc4dca24-e2ff-4356-a104-6e3f1dba333e"},"vehicle_type_id":"4","last_reported":1743704048,"current_range_meters":14800,"station_id":"ce4bh692rcd13ifvqea0","pricing_plan_id":"cebpf4jnsgd1na2vs0mg"},{"bike_id":"9c08e159-1fd1-4c29-8530-05c1c0529479","system_id":"levelo_inurba_marseille","lat":43.29251,"lon":5.40901,"is_reserved":false,"is_disabled":false,"rental_uris":{"android":"levelo://app?vid=9c08e159-1fd1-4c29-8530-05c1c0529479","ios":"levelo://app?vid=9c08e159-1fd1-4c29-8530-05c1c0529479"},"vehicle_type_id":"4","last_reported":1743704048,"current_range_meters":14400,"station_id":"ce4bh192rcd13ifvqdc0","pricing_plan_id":"cebpf4jnsgd1na2vs0mg"},{"bike_id":"a6ef5cd1-2230-43ef-9387-a698600d7b9f","system_id":"levelo_inurba_marseille","lat":43.2738,"lon":5.36257,"is_reserved":false,"is_disabled":false,"rental_uris":{"android":"levelo://app?vid=a6ef5cd1-2230-43ef-9387-a698600d7b9f","ios":"levelo://app?vid=a6ef5cd1-2230-43ef-9387-a698600d7b9f"},"vehicle_type_id":"4","last_reported":1743704048,"current_range_meters":15200,"station_id":"ce4bhbh2rcd13ifvqeo0","pricing_plan_id":"cebpf4jnsgd1na2vs0mg"},{"bike_id":"b00fcd21-100c-4c03-b49f-17ef99b3801c","system_id":"levelo_inurba_marseille","lat":43.248071,"lon":5.374598,"is_reserved":false,"is_disabled":false,"rental_uris":{"android":"levelo://app?vid=b00fcd21-100c-4c03-b49f-17ef99b3801c","ios":"levelo://app?vid=b00fcd21-100c-4c03-b49f-17ef99b3801c"},