{"last_updated":1751440310,"ttl":60,"version":"2.2","data":{"bikes":[{"bike_id":"3da29fb8-fc97-44c6-b9ac-31dd456b2fd4","system_id":"levelo_inurba_marseille","lat":43.33771,"lon":5.37424,"is_reserved":false,"is_disabled":true,"rental_uris":{"android":"levelo://app?vid=3da29fb8-fc97-44c6-b9ac-31dd456b2fd4","ios":"levelo://app?vid=3da29fb8-fc97-44c6-b9ac-31dd456b2fd4"},"vehicle_type_id":"4","last_reported":1751440310,"current_range_meters":0,"station_id":"","pricing_plan_id":"cebpf4jnsgd1na2vs0mg"},{"bike_id":"01861ad8-a8d7-4be6-816e-651927c87584","system_id":"levelo_inurba_marseille","lat":43.33751,"lon":5.37456,"is_reserved":false,"is_disabled":true,"rental_uris":{"android":"levelo://app?vid=01861ad8-a8d7-4be6-816e-651927c87584","ios":"levelo://app?vid=01861ad8-a8d7-4be6-816e-651927c87584"},"vehicle_type_id":"4","last_reported":1751440310,"current_range_meters":0,"station_id":"","pricing_plan_id":"cebpf4jnsgd1na2vs0mg"},{"bike_id":"3168b9fb-97d2-4a0e-b7ee-673bb8cf7525","system_id":"levelo_inurba_marseille","lat":43.277665,"lon":5.355769,"is_reserved":false,"is_disabled":true,"rental_uris":{"android":"levelo://app?vid=3168b9fb-97d2-4a0e-b7ee-673bb8cf7525","ios":"levelo://app?vid=3168b9fb-97d2-4a0e-b7ee-673bb8cf7525"},"vehicle_type_id":"4","last_reported":1751440310,"current_range_meters":0,"station_id":"","pricing_plan_id":"cebpf4jnsgd1na2vs0mg"},{"bike_id":"a0c739b7-33d0-407a-9ce5-2e701bb7e0fe","system_id":"levelo_inurba_marseille","lat":43.27031,"lon":5.43137,"is_reserved":false,"is_disabled":true,"rental_uris":{"android":"levelo://app?vid=a0c739b7-33d0-407a-9ce5-2e701bb7e0fe","ios":"levelo://app?vid=a0c739b7-33d0-407a-9ce5-2e701bb7e0fe"},"vehicle_type_id":"4","last_reported":1751440310,"current_range_meters":0,"station_id":"","pricing_plan_id":"cebpf4jnsgd1na2vs0mg"},{"bike_id":"2ccccc82-c8a9-4c3b-909d-52c0bf697aa3","system_id":"levelo_inurba_marseille","lat":43.27618,"lon":5.35864,"is_reserved":false,"is_disabled":true,"rental_uris":{"android":"levelo://app?vid=2ccccc82-c8a9-4c3b-909d-52c0bf697aa3","ios":"levelo://app?vid=2ccccc82-c8a9-4c3b-909d-52c0bf697aa3"},"vehicle_type_id":"4","last_reported":1751440310,"current_range_meters":0,"station_id":"","pricing_plan_id":"cebpf4jnsgd1na2vs0mg"},{"bike_id":"f4c3bf38-9763-45a3-be90-5e6bfe303582","system_id":"levelo_inurba_marseille","lat":43.32724,"lon":5.36644,"is_reserved":false,"is_disabled":true,"rental_uris":{"android":"levelo://app?vid=f4c3bf38-9763-45a3-be90-5e6bfe303582","ios":"levelo://app?vid=f4c3bf38-9763-45a3-be90-5e6bfe303582"},"vehicle_type_id":"4","last_reported":1751440310,"current_range_meters":0,"station_id":"","pricing_plan_id":"cebpf4jnsgd1na2vs0mg"},{"bike_id":"7547e1e4-2d85-4907-971d-6c8e5c4cb529","system_id":"levelo_inurba_marseille","lat":43.25331,"lon":5.3746,"is_reserved":false,"is_disabled":true,"rental_uris":{"android":"levelo://app?vid=7547e1e4-2d85-4907-971d-6c8e5c4cb529","ios":"levelo://app?vid=7547e1e4-2d85-4907-971d-6c8e5c4cb529"},"vehicle_type_id":"4","last_reported":1751440310,"current_range_meters":0,"station_id":"","pricing_plan_id":"cebpf4jnsgd1na2vs0mg"},{"bike_id":"a820e15a-282e-4858-8312-0300c2fa011c","system_id":"levelo_inurba_marseille","lat":43.29597,"lon":5.38103,"is_reserved":false,"is_disabled":true,"rental_uris":{"android":"levelo://app?vid=a820e15a-282e-4858-8312-0300c2fa011c","ios":"levelo://app?vid=a820e15a-282e-4858-8312-0300c2fa011c"},"vehicle_type_id":"4","last_reported":1751440310,"current_range_meters":0,"station_id":"ce4bgl12rcd13ifvqbo0","pricing_plan_id":"cebpf4jnsgd1na2vs0mg"},{"bike_id":"02a6e3c2-fad0-4d52-aae0-b29b620958c9","system_id":"levelo_inurba_marseille","lat":43.27372,"lon":5.3626,"is_reserved":false,"is_disabled":true,"rental_uris":{"android":"levelo://app?vid=02a6e3c2-fad0-4d52-aae0-b29b620958c9","ios":"levelo://app?vid=02a6e3c2-fad0-4d52-aae0-b29b620958c9"},"vehicle_type_id":"4","last_reported":1751440310,"current_range_meters":0,"station_id":"ce4bhbh2rcd13ifvqeo0","pricing_plan_id":"cebpf4jnsgd1na2vs0mg"},{"bike_id":"754343a6-eb52-4c16-91cb-4c257cf9bb72","system_id":"levelo_inurba_marseille","lat":43.31484,"lon":5.37304,"is_reserved":false,"is_disabled":true,"rental_uris":{"android":"levelo://app?vid=754343a6-eb52-4c16-91cb-4c257cf9bb72","ios":"levelo://app?vid=754343a6-eb52-4c16-91cb-4c257cf9bb72"},"vehicle_type_id":"4","last_reported":1751440310,"current_range_meters":400,"station_id":"ce4bgt12rcd13ifvqcd0","pricing_plan_id":"cebpf4jnsgd1na2vs0mg"},{"bike_id":"c644f3be-31ae-4b0a-b9fd-d1a4cd2c04a3","system_id":"levelo_inurba_marseille","lat":43.241789,"lon":5.397303,"is_reserved":false,"is_disabled":true,"rental_uris":{"android":"levelo://app?vid=c644f3be-31ae-4b0a-b9fd-d1a4cd2c04a3","ios":"levelo://app?vid=c644f3be-31ae-4b0a-b9fd-d1a4cd2c04a3"},"vehicle_type_id":"4","last_reported":1751440310,"current_range_meters":400,"station_id":"ce4bhn12rcd13ifvqgpg","pricing_plan_id":"cebpf4jnsgd1na2vs0mg"},{"bike_id":"2b79eac2-8d7f-455a-ab7b-57d1965acf5f","system_id":"levelo_inurba_marseille","lat":43.320124,"lon":5.381119,"is_reserved":false,"is_disabled":true,"rental_uris":{"android":"levelo://app?vid=2b79eac2-8d7f-455a-ab7b-57d1965acf5f","ios":"levelo://app?vid=2b79eac2-8d7f-455a-ab7b-57d1965acf5f"},"vehicle_type_id":"4","last_reported":1751440310,"current_range_meters":800,"station_id":"","pricing_plan_id":"cebpf4jnsgd1na2vs0mg"},{"bike_id":"7b0ed95c-e14d-49b4-a56c-e6862708548c","system_id":"levelo_inurba_marseille","lat":43.30946,"lon":5.39036,"is_reserved":false,"is_disabled":true,"rental_uris":{"android":"levelo://app?vid=7b0ed95c-e14d-49b4-a56c-e6862708548c","ios":"levelo://app?vid=7b0ed95c-e14d-49b4-a56c-e6862708548c"},"vehicle_type_id":"4","last_reported":1751440310,"current_range_meters":800,"station_id":"ce4bgup2rcd13ifvqco0","pricing_plan_id":"cebpf4jnsgd1na2vs0mg"},{"bike_id":"6960606a-5c18-408b-80b4-f0649224d06c","system_id":"levelo_inurba_marseille","lat":43.28435,"lon":5.39128,"is_reserved":false,"is_disabled":true,"rental_uris":{"android":"levelo://app?vid=6960606a-5c18-408b-80b4-f0649224d06c","ios":"levelo://app?vid=6960606a-5c18-408b-80b4-f0649224d06c"},"vehicle_type_id":"4","last_reported":1751440310,"current_range_meters":1200,"station_id":"","pricing_plan_id":"cebpf4jnsgd1na2vs0mg"},{"bike_id":"083e00bc-1317-4b70-aa97-63eacb2d59ec","system_id":"levelo_inurba_marseille","lat":43.29742,"lon":5.37735,"is_reserved":false,"is_disabled":true,"rental_uris":{"android":"levelo://app?vid=083e00bc-1317-4b70-aa97-63eacb2d59ec","ios":"levelo://app?vid=083e00bc-1317-4b70-aa97-63eacb2d59ec"},"vehicle_type_id":"4","last_reported":1751440310,"current_range_meters":1200,"station_id":"","pricing_plan_id":"cebpf4jnsgd1na2vs0mg"},{"bike_id":"172f84ab-9225-4827-9de7-14d4d5aa1aca","system_id":"levelo_inurba_marseille","lat":43.2836,"lon":5.38095,"is_reserved":false,"is_disabled":true,"rental_uris":{"android":"levelo://app?vid=172f84ab-9225-4827-9de7-14d4d5aa1aca","ios":"levelo://app?vid=172f84ab-9225-4827-9de7-14d4d5aa1aca"},"vehicle_type_id":"4","last_reported":1751440310,"current_range_meters":1600,"station_id":"ce4bh412rcd13ifvqdr0","pricing_plan_id":"cebpf4jnsgd1na2vs0mg"},{"bike_id":"162af4e6-d224-4240-aeac-6cb0ae06de53","system_id":"levelo_inurba_marseille","lat":43.29896,"lon":5.37842,"is_reserved":false,"is_disabled":true,"rental_uris":{"android":"levelo://app?vid=162af4e6-d224-4240-aeac-6cb0ae06de53","ios":"levelo://app?vid=162af4e6-d224-4240-aeac-6cb0ae06de53"},"vehicle_type_id":"4","last_reported":1751440310,"current_range_meters":2000,"station_id":"","pricing_plan_id":"cebpf4jnsgd1na2vs0mg"},{"bike_id":"b8143f21-c04d-4da2-a11b-dc4b558b4c2e","system_id":"levelo_inurba_marseille","lat":43.29224,"lon":5.36054,"is_reserved":false,"is_disabled":true,"rental_uris":{"android":"levelo://app?vid=b8143f21-c04d-4da2-a11b-dc4b558b4c2e","ios":"levelo://app?vid=b8143f21-c04d-4da2-a11b-dc4b558b4c2e"},"vehicle_type_id":"4","last_reported":1751440310,"current_range_meters":2000,"station_id":"ce4bhbh2rcd13ifvqeqg","pricing_plan_id":"cebpf4jnsgd1na2vs0mg"},{"bike_id":"d54d20e4-11f0-4db8-825e-01cd594caa7e","system_id":"levelo_inurba_marseille","lat":43.21751,"lon":5.34604,"is_reserved":false,"is_disabled":true,"rental_uris":{"android":"levelo://app?vid=d54d20e4-11f0-4db8-825e-01cd594caa7e","ios":"levelo://app?vid=d54d20e4-11f0-4db8-825e-01cd594caa7e"},"vehicle_type_id":"4","last_reported":1751440310,"current_range_meters":2000,"station_id":"st_cvj6r9ubvosntc0bgbag","pricing_plan_id":"cebpf4jnsgd1na2vs0mg"},{"bike_id":"141413f3-0157-43a0-b548-f95473ce2555","system_id":"levelo_inurba_marseille","lat":43.29879,"lon":5.38895,"is_reserved":false,"is_disabled":false,"rental_uris":{"android":"levelo://app?vid=141413f3-0157-43a0-b548-f95473ce2555","ios":"levelo://app?vid=141413f3-0157-43a0-b548-f95473ce2555"},"vehicle_type_id":"4","last_reported":1751440310,"current_range_meters":2800,"station_id":"ce4bh392rcd13ifvqdl0","pricing_plan_id":"cebpf4jnsgd1na2vs0mg"},{"bike_id":"6ca4e9a0-f238-4827-ab90-37a874cbe48b","system_id":"levelo_inurba_marseille","lat":43.292352,"lon":5.36471,"is_reserved":false,"is_disabled":false,"rental_uris":{"android":"levelo://app?vid=6ca4e9a0-f238-4827-ab90-37a874cbe48b","ios":"levelo://app?vid=6ca4e9a0-f238-4827-ab90-37a874cbe48b"},"vehicle_type_id":"4","last_reported":1751440310,"current_range_meters":2800,"station_id":"ce4bhbh2rcd13ifvqeqg","pricing_plan_id":"cebpf4jnsgd1na2vs0mg"},{"bike_id":"9c17b5e7-ce14-4f93-aecc-823f855a019f","system_id":"levelo_inurba_marseille","lat":43.290516,"lon":5.405261,"is_reserved":false,"is_disabled":false,"rental_uris":{"android":"levelo://app?vid=9c17b5e7-ce14-4f93-aecc-823f855a019f","ios":"levelo://app?vid=9c17b5e7-ce14-4f93-aecc-823f855a019f"},"vehicle_type_id":"4","last_reported":1751440310,"current_range_meters":3200,"station_id":"","pricing_plan_id":"cebpf4jnsgd1na2vs0mg"},{"bike_id":"0d1e3143-a23b-4621-9f8d-07636471f1cd","system_id":"levelo_inurba_marseille","lat":43.30791,"lon":5.37638,"is_reserved":false,"is_disabled":false,"rental_uris":{"android":"levelo://app?vid=0d1e3143-a23b-4621-9f8d-07636471f1cd","ios":"levelo://app?vid=0d1e3143-a23b-4621-9f8d-07636471f1cd"},"vehicle_type_id":"4","last_reported":1751440310,"current_range_meters":3200,"station_id":"ce4bgv92rcd13ifvqcq0","pricing_plan_id":"cebpf4jnsgd1na2vs0mg"},{"bike_id":"21e2c51d-4563-4efd-afbf-0ddeff93c862","system_id":"levelo_inurba_marseille","lat":43.217519,"lon":5.34602,"is_reserved":false,"is_disabled":false,"rental_uris":{"android":"levelo://app?vid=21e2c51d-4563-4efd-afbf-0ddeff93c862","ios":"levelo://app?vid=21e2c51d-4563-4efd-afbf-0ddeff93c862"},"vehicle_type_id":"4","last_reported":1751440310,"current_range_meters":3200,"station_id":"st_cvj6r9ubvosntc0bgbag","pricing_plan_id":"cebpf4jnsgd1na2vs0mg"},{"bike_id":"13624bb3-72a8-4556-9dfe-f9b87c8c465f","system_id":"levelo_inurba_marseille","lat":43.287119,"lon":5.389111,"is_reserved":false,"is_disabled":false,"rental_uris":{"android":"levelo://app?vid=13624bb3-72a8-4556-9dfe-f9b87c8c465f","ios":"levelo://app?vid=13624bb3-72a8-4556-9dfe-f9b87c8c465f"},"vehicle_type_id":"4","last_reported":1751440310,"current_range_meters":3600,"station_id":"","pricing_plan_id":"cebpf4jnsgd1na2vs0mg"},{"bike_id":"20818f11-5315-4965-bdc0-75acef71341d","system_id":"levelo_inurba_marseille","lat":43.29779,"lon":5.37099,"is_reserved":false,"is_disabled":false,"rental_uris":{"android":"levelo://app?vid=20818f11-5315-4965-bdc0-75acef71341d","ios":"levelo://app?vid=20818f11-5315-4965-bdc0-75acef71341d"},"vehicle_type_id":"4","last_reported":1751440310,"current_range_meters":3600,"station_id":"ce4bgop2rcd13ifvqc1g","pricing_plan_id":"cebpf4jnsgd1na2vs0mg"},{"bike_id":"0ead9a04-e30c-4fd0-98a0-c5d325f13aae","system_id":"levelo_inurba_marseille","lat":43.292572,"lon":5.409022,"is_reserved":false,"is_disabled":false,"rental_uris":{"android":"levelo://app?vid=0ead9a04-e30c-4fd0-98a0-c5d325f13aae","ios":"levelo://app?vid=0ead9a04-e30c-4fd0-98a0-c5d325f13aae"},"vehicle_type_id":"4","last_reported":1751440310,"current_range_meters":3600,"station_id":"ce4bh192rcd13ifvqdc0","pricing_plan_id":"cebpf4jnsgd1na2vs0mg"},{"bike_id":"43fcb430-53f7-4349-b49c-62f8e6ea8db4","system_id":"levelo_inurba_marseille","lat":43.284617,"lon":5.437071,"is_reserved":false,"is_disabled":false,"rental_uris":{"android":"levelo://app?vid=43fcb430-53f7-4349-b49c-62f8e6ea8db4","ios":"levelo://app?vid=43fcb430-53f7-4349-b49c-62f8e6ea8db4"},"vehicle_type_id":"4","last_reported":1751440310,"current_range_meters":4000,"station_id":"","pricing_plan_id":"cebpf4jnsgd1na2vs0mg"},{"bike_id":"b5636840-c48f-4b58-b10a-a57152e1767a","system_id":"levelo_inurba_marseille","lat":43.30091,"lon":5.3908,"is_reserved":false,"is_disabled":false,"rental_uris":{"android":"levelo://app?vid=b5636840-c48f-4b58-b10a-a57152e1767a","ios":"levelo://app?vid=b5636840-c48f-4b58-b10a-a57152e1767a"},"vehicle_type_id":"4","last_reported":1751440310,"current_range_meters":4000,"station_id":"ce4bh192rcd13ifvqdb0","pricing_plan_id":"cebpf4jnsgd1na2vs0mg"},{"bike_id":"50226d02-02cc-4ec8-a99c-e5a906f6bf74","system_id":"levelo_inurba_marseille","lat":43.26579,"lon":5.39008,"is_reserved":false,"is_disabled":false,"rental_uris":{"android":"levelo://app?vid=50226d02-02cc-4ec8-a99c-e5a906f6bf74","ios":"levelo://app?vid=50226d02-02cc-4ec8-a99c-e5a906f6bf74"},"vehicle_type_id":"4","last_reported":1751440310,"current_range_meters":4000,"station_id":"ce4bhe12rcd13ifvqf30","pricing_plan_id":"cebpf4jnsgd1na2vs0mg"},{"bike_id":"a2017121-8342-439c-9853-789b6ff0806f","system_id":"levelo_inurba_marseille","lat":43.21188,"lon":5.35071,"is_reserved":false,"is_disabled":false,"rental_uris":{"android":"levelo://app?vid=a2017121-8342-439c-9853-789b6ff0806f","ios":"levelo://app?vid=a2017121-8342-439c-9853-789b6ff0806f"},"vehicle_type_id":"4","last_reported":1751440310,"current_range_meters":4000,"station_id":"st_cvj6sg6p6f1abm77japg","pricing_plan_id":"cebpf4jnsgd1na2vs0mg"},{"bike_id":"16b10b85-8028-4ef4-afe4-7aa88a019a42","system_id":"levelo_inurba_marseille","lat":43.30909,"lon":5.36846,"is_reserved":false,"is_disabled":false,"rental_uris":{"android":"levelo://app?vid=16b10b85-8028-4ef4-afe4-7aa88a019a42","ios":"levelo://app?vid=16b10b85-8028-4ef4-afe4-7aa88a019a42"},"vehicle_type_id":"4","last_reported":1751440310,"current_range_meters":4400,"station_id":"ce4bgn92rcd13ifvqbvg","pricing_plan_id":"cebpf4jnsgd1na2vs0mg"},{"bike_id":"310d5c80-fdd3-4926-b2cd-5f31fd45627d","system_id":"levelo_inurba_marseille","lat":43.24664,"lon":5.38172,"is_reserved":false,"is_disabled":false,"rental_uris":{"android":"levelo://app?vid=310d5c80-fdd3-4926-b2cd-5f31fd45627d","ios":"levelo://app?vid=310d5c80-fdd3-4926-b2cd-5f31fd45627d"},"vehicle_type_id":"4","last_reported":1751440310,"current_range_meters":4400,"station_id":"ce4bhih2rcd13ifvqfr0","pricing_plan_id":"cebpf4jnsgd1na2vs0mg"},{"bike_id":"1fcf6d24-a9bf-4640-82af-6ce45d039582","system_id":"levelo_inurba_marseille","lat":43.31084,"lon":5.42429,"is_reserved":false,"is_disabled":false,"rental_uris":{"android":"levelo://app?vid=1fcf6d24-a9bf-4640-82af-6ce45d039582","ios":"levelo://app?vid=1fcf6d24-a9bf-4640-82af-6ce45d039582"},"vehicle_type_id":"4","last_reported":1751440310,"current_range_meters":4400,"station_id":"ce4bhp92rcd13ifvqhag","pricing_plan_id":"cebpf4jnsgd1na2vs0mg"},{"bike_id":"5683d2b4-d960-4ce6-8162-df1a4f7e1426","system_id":"levelo_inurba_marseille","lat":43.31075,"lon":5.38327,"is_reserved":false,"is_disabled":false,"rental_uris":{"android":"levelo://app?vid=5683d2b4-d960-4ce6-8162-df1a4f7e1426","ios":"levelo://app?vid=5683d2b4-d960-4ce6-8162-df1a4f7e1426"},"vehicle_type_id":"4","last_reported":1751440310,"current_range_meters":4800,"station_id":"ce4bgv92rcd13ifvqcr0","pricing_plan_id":"cebpf4jnsgd1na2vs0mg"},{"bike_id":"1a7bd66e-b729-468e-9731-6800639d29ec","system_id":"levelo_inurba_marseille","lat":43.25939,"lon":5.40911,"is_reserved":false,"is_disabled":false,"rental_uris":{"android":"levelo://app?vid=1a7bd66e-b729-468e-9731-6800639d29ec","ios":"levelo://app?vid=1a7bd66e-b729-468e-9731-6800639d29ec"},"vehicle_type_id":"4","last_reported":1751440310,"current_range_meters":4800,"station_id":"ce4bhm92rcd13ifvqglg","pricing_plan_id":"cebpf4jnsgd1na2vs0mg"},{"bike_id":"e9497a27-6e1d-4fe1-b21d-2c97e21c8559","system_id":"levelo_inurba_marseille","lat":43.32058,"lon":5.41554,"is_reserved":false,"is_disabled":false,"rental_uris":{"android":"levelo://app?vid=e9497a27-6e1d-4fe1-b21d-2c97e21c8559","ios":"levelo://app?vid=e9497a27-6e1d-4fe1-b21d-2c97e21c8559"},"vehicle_type_id":"4","last_reported":1751440310,"current_range_meters":5600,"station_id":"ce4bhq92rcd13ifvqhkg","pricing_plan_id":"cebpf4jnsgd1na2vs0mg"},{"bike_id":"8252b44a-d048-4379-9209-2efa2e627825","system_id":"levelo_inurba_marseille","lat":43.292245,"lon":5.405707,"is_reserved":false,"is_disabled":false,"rental_uris":{"android":"levelo://app?vid=8252b44a-d048-4379-9209-2efa2e627825","ios":"levelo://app?vid=8252b44a-d048-4379-9209-2efa2e627825"},"vehicle_type_id":"4","last_reported":1751440310,"current_range_meters":6400,"station_id":"","pricing_plan_id":"cebpf4jnsgd1na2vs0mg"},{"bike_id":"d74019c7-282e-4c36-b825-efa682247dbc","system_id":"levelo_inurba_marseille","lat":43.30919,"lon":5.36847,"is_reserved":false,"is_disabled":false,"rental_uris":{"android":"levelo://app?vid=d74019c7-282e-4c36-b825-efa682247dbc","ios":"levelo://app?vid=d74019c7-282e-4c36-b825-efa682247dbc"},"vehicle_type_id":"4","last_reported":1751440310,"current_range_meters":6400,"station_id":"ce4bgn92rcd13ifvqbvg","pricing_plan_id":"cebpf4jnsgd1na2vs0mg"},{"bike_id":"e3ff2741-2c53-4741-96b7-d2ff3c39c0e2","system_id":"levelo_inurba_marseille","lat":43.30773,"lon":5.37619,"is_reserved":false,"is_disabled":false,"rental_uris":{"android":"levelo://app?vid=e3ff2741-2c53-4741-96b7-d2ff3c39c0e2","ios":"levelo://app?vid=e3ff2741-2c53-4741-96b7-d2ff3c39c0e2"},"vehicle_type_id":"4","last_reported":1751440310,"current_range_meters":6800,"station_id":"ce4bgv92rcd13ifvqcq0","pricing_plan_id":"cebpf4jnsgd1na2vs0mg"},{"bike_id":"f646c3bf-fb37-4e48-9ea7-335d7b49f8a3","system_id":"levelo_inurba_marseille","lat":43.28267,"lon":5.35067,"is_reserved":false,"is_disabled":false,"rental_uris":{"android":"levelo://app?vid=f646c3bf-fb37-4e48-9ea7-335d7b49f8a3","ios":"levelo://app?vid=f646c3bf-fb37-4e48-9ea7-335d7b49f8a3"},"vehicle_type_id":"4","last_reported":1751440310,"current_range_meters":6800,"station_id":"ce4bhbp2rcd13ifvqerg","pricing_plan_id":"cebpf4jnsgd1na2vs0mg"},{"bike_id":"569027a7-02b0-4149-af7e-21ec913c321e","system_id":"levelo_inurba_marseille","lat":43.26032,"lon":5.37548,"is_reserved":false,"is_disabled":false,"rental_uris":{"android":"levelo://app?vid=569027a7-02b0-4149-af7e-21ec913c321e","ios":"levelo://app?vid=569027a7-02b0-4149-af7e-21ec913c321e"},"vehicle_type_id":"4","last_reported":1751440310,"current_range_meters":6800,"station_id":"ce4bhgh2rcd13ifvqfa0","pricing_plan_id":"cebpf4jnsgd1na2vs0mg"},{"bike_id":"e10f8c65-dc6d-4061-b24e-b72ace6ed43b","system_id":"levelo_inurba_marseille","lat":43.31717,"lon":5.43694,"is_reserved":false,"is_disabled":false,"rental_uris":{"android":"levelo://app?vid=e10f8c65-dc6d-4061-b24e-b72ace6ed43b","ios":"levelo://app?vid=e10f8c65-dc6d-4061-b24e-b72ace6ed43b"},"vehicle_type_id":"4","last_reported":1751440310,"current_range_meters":6800,"station_id":"ce4bhp92rcd13ifvqhcg","pricing_plan_id":"cebpf4jnsgd1na2vs0mg"},{"bike_id":"1bfd3af0-99c5-4c81-92cc-15a247192118","system_id":"levelo_inurba_marseille","lat":43.30422,"lon":5.41284,"is_reserved":false,"is_disabled":false,"rental_uris":{"android":"levelo://app?vid=1bfd3af0-99c5-4c81-92cc-15a247192118","ios":"levelo://app?vid=1bfd3af0-99c5-4c81-92cc-15a247192118"},"vehicle_type_id":"4","last_reported":1751440310,"current_range_meters":7200,"station_id":"ce4bhop2rcd13ifvqh8g","pricing_plan_id":"cebpf4jnsgd1na2vs0mg"},{"bike_id":"83015633-1b29-4bf9-9024-4fe2ee97954a","system_id":"levelo_inurba_marseille","lat":43.324097,"lon":5.38896,"is_reserved":false,"is_disabled":false,"rental_uris":{"android":"levelo://app?vid=83015633-1b29-4bf9-9024-4fe2ee97954a","ios":"levelo://app?vid=83015633-1b29-4bf9-9024-4fe2ee97954a"},"vehicle_type_id":"4","last_reported":1751440310,"current_range_meters":7200,"station_id":"ce4bhqp2rcd13ifvqhog","pricing_plan_id":"cebpf4jnsgd1na2vs0mg"},{"bike_id":"76ff7f5f-a58b-41c3-a1fd-b228c5466cd6","system_id":"levelo_inurba_marseille","lat":43.27321,"lon":5.3908,"is_reserved":false,"is_disabled":false,"rental_uris":{"android":"levelo://app?vid=76ff7f5f-a58b-41c3-a1fd-b228c5466cd6","ios":"levelo://app?vid=76ff7f5f-a58b-41c3-a1fd-b228c5466cd6"},"vehicle_type_id":"4","last_reported":1751440310,"current_range_meters":8000,"station_id":"ce4bhgp2rcd13ifvqfe0","pricing_plan_id":"cebpf4jnsgd1na2vs0mg"},{"bike_id":"d09163a0-75f2-4272-88eb-5531aa2f6e0d","system_id":"levelo_inurba_marseille","lat":43.24194,"lon":5.39719,"is_reserved":false,"is_disabled":false,"rental_uris":{"android":"levelo://app?vid=d09163a0-75f2-4272-88eb-5531aa2f6e0d","ios":"levelo://app?vid=d09163a0-75f2-4272-88eb-5531aa2f6e0d"},"vehicle_type_id":"4","last_reported":1751440310,"current_range_meters":8000,"station_id":"ce4bhn12rcd13ifvqgpg","pricing_plan_id":"cebpf4jnsgd1na2vs0mg"},{"bike_id":"36f0a6b6-db44-4c0f-9926-7476aeb9355f","system_id":"levelo_inurba_marseille","lat":43.24181,"lon":5.39724,"is_reserved":false,"is_disabled":false,"rental_uris":{"android":"levelo://app?vid=36f0a6b6-db44-4c0f-9926-7476aeb9355f","ios":"levelo://app?vid=36f0a6b6-db44-4c0f-9926-7476aeb9355f"},"vehicle_type_id":"4","last_reported":1751440310,"current_range_meters":8000,"station_id":"ce4bhn12rcd13ifvqgpg","pricing_plan_id":"cebpf4jnsgd1na2vs0mg"},{"bike_id":"7f00d50b-b6fd-4ccc-8e9c-b840a69fefa4","system_id":"levelo_inurba_marseille","lat":43.27497,"lon":5.42449,"is_reserved":false,"is_disabled":false,"rental_uris":{"android":"levelo://app?vid=7f00d50b-b6fd-4ccc-8e9c-b840a69fefa4","ios":"levelo://app?vid=7f00d50b-b6fd-4ccc-8e9c-b840a69fefa4"},"vehicle_type_id":"4","last_reported":1751440310,"current_range_meters":8000,"station_id":"ce4bhn92rcd13ifvqgrg","pricing_plan_id":"cebpf4jnsgd1na2vs0mg"},{"bike_id":"ffe5e5ee-9f6b-497d-ac36-802d5b7fe686","system_id":"levelo_inurba_marseille","lat":43.30157,"lon":5.38083,"is_reserved":false,"is_disabled":false,"rental_uris":{"android":"levelo://app?vid=ffe5e5ee-9f6b-497d-ac36-802d5b7fe686","ios":"levelo://app?vid=ffe5e5ee-9f6b-497d-ac36-802d5b7fe686"},"vehicle_type_id":"4","last_reported":1751440310,"current_range_meters":8400,"station_id":"ce4bgjp2rcd13ifvqbh0","pricing_plan_id":"cebpf4jnsgd1na2vs0mg"},{"bike_id":"f02e194f-f495-4ad9-87df-421a7a51e6f5","system_id":"levelo_inurba_marseille","lat":43.29851,"lon":5.36289,"is_reserved":false,"is_disabled":false,"rental_uris":{"android":"levelo://app?vid=f02e194f-f495-4ad9-87df-421a7a51e6f5","ios":"levelo://app?vid=f02e194f-f495-4ad9-87df-421a7a51e6f5"},"vehicle_type_id":"4","last_reported":1751440310,"current_range_meters":8400,"station_id":"ce4bgpp2rcd13ifvqc3g","pricing_plan_id":"cebpf4jnsgd1na2vs0mg"},{"bike_id":"8dfc132a-bfbb-4fbb-b5b8-4d96075bdda9","system_id":"levelo_inurba_marseille","lat":43.31099,"lon":5.38344,"is_reserved":false,"is_disabled":false,"rental_uris":{"android":"levelo://app?vid=8dfc132a-bfbb-4fbb-b5b8-4d96075bdda9","ios":"levelo://app?vid=8dfc132a-bfbb-4fbb-b5b8-4d96075bdda9"},"vehicle_type_id":"4","last_reported":1751440310,"current_range_meters":8400,"station_id":"ce4bgv92rcd13ifvqcr0","pricing_plan_id":"cebpf4jnsgd1na2vs0mg"},{"bike_id":"2726f14f-8d32-4e17-9b3e-62cc809675e1","system_id":"levelo_inurba_marseille","lat":43.32107,"lon":5.36779,"is_reserved":false,"is_disabled":false,"rental_uris":{"android":"levelo://app?vid=2726f14f-8d32-4e17-9b3e-62cc809675e1","ios":"levelo://app?vid=2726f14f-8d32-4e17-9b3e-62cc809675e1"},"vehicle_type_id":"4","last_reported":1751440310,"current_range_meters":8400,"station_id":"ce4bhrh2rcd13ifvqhug","pricing_plan_id":"cebpf4jnsgd1na2vs0mg"},{"bike_id":"b2ec7371-4e1a-4f7b-ae6c-60c5a54c237b","system_id":"levelo_inurba_marseille","lat":43.21195,"lon":5.35065,"is_reserved":false,"is_disabled":false,"rental_uris":{"android":"levelo://app?vid=b2ec7371-4e1a-4f7b-ae6c-60c5a54c237b","ios":"levelo://app?vid=b2ec7371-4e1a-4f7b-ae6c-60c5a54c237b"},"vehicle_type_id":"4","last_reported":1751440310,"current_range_meters":8400,"station_id":"st_cvj6sg6p6f1abm77japg","pricing_plan_id":"cebpf4jnsgd1na2vs0mg"},{"bike_id":"54564586-1bb7-4c80-acec-330d62dd3140","system_id":"levelo_inurba_marseille","lat":43.29623,"lon":5.37171,"is_reserved":false,"is_disabled":false,"rental_uris":{"android":"levelo://app?vid=54564586-1bb7-4c80-acec-330d62dd3140","ios":"levelo://app?vid=54564586-1bb7-4c80-acec-330d62dd3140"},"vehicle_type_id":"4","last_reported":1751440310,"current_range_meters":8800,"station_id":"ce4bgnh2rcd13ifvqc0g","pricing_plan_id":"cebpf4jnsgd1na2vs0mg"},{"bike_id":"86c8e1a5-b5c2-42b1-99f8-14e6e2096d9b","system_id":"levelo_inurba_marseille","lat":43.31355,"lon":5.36718,"is_reserved":false,"is_disabled":false,"rental_uris":{"android":"levelo://app?vid=86c8e1a5-b5c2-42b1-99f8-14e6e2096d9b","ios":"levelo://app?vid=86c8e1a5-b5c2-42b1-99f8-14e6e2096d9b"},"vehicle_type_id":"4","last_reported":1751440310,"current_range_meters":8800,"station_id":"ce4bgr92rcd13ifvqc6g","pricing_plan_id":"cebpf4jnsgd1na2vs0mg"},{"bike_id":"2e246c94-15be-44fd-9bca-67882c84f8fa","system_id":"levelo_inurba_marseille","lat":43.24822,"lon":5.37457,"is_reserved":false,"is_disabled":false,"rental_uris":{"android":"levelo://app?vid=2e246c94-15be-44fd-9bca-67882c84f8fa","ios":"levelo://app?vid=2e246c94-15be-44fd-9bca-67882c84f8fa"},"vehicle_type_id":"4","last_reported":1751440310,"current_range_meters":8800,"station_id":"ce4bhgh2rcd13ifvqfb0","pricing_plan_id":"cebpf4jnsgd1na2vs0mg"},{"bike_id":"c1ffd0ba-c6ad-4e96-b8d3-fa7c688a245a","system_id":"levelo_inurba_marseille","lat":43.30912,"lon":5.36852,"is_reserved":false,"is_disabled":false,"rental_uris":{"android":"levelo://app?vid=c1ffd0ba-c6ad-4e96-b8d3-fa7c688a245a","ios":"levelo://app?vid=c1ffd0ba-c6ad-4e96-b8d3-fa7c688a245a"},"vehicle_type_id":"4","last_reported":1751440310,"current_range_meters":9200,"station_id":"ce4bgn92rcd13ifvqbvg","pricing_plan_id":"cebpf4jnsgd1na2vs0mg"},{"bike_id":"c2b72fe0-bae6-4c7b-ad48-9e771b203dc8","system_id":"levelo_inurba_marseille","lat":43.313469,"lon":5.384625,"is_reserved":false,"is_disabled":false,"rental_uris":{"android":"levelo://app?vid=c2b72fe0-bae6-4c7b-ad48-9e771b203dc8","ios":"levelo://app?vid=c2b72fe0-bae6-4c7b-ad48-9e771b203dc8"},"vehicle_type_id":"4","last_reported":1751440310,"current_range_meters":9200,"station_id":"ce4bgt92rcd13ifvqcf0","pricing_plan_id":"cebpf4jnsgd1na2vs0mg"},{"bike_id":"3f51ceec-447c-4a8a-af78-5029e9c36989","system_id":"levelo_inurba_marseille","lat":43.3089,"lon":5.37184,"is_reserved":false,"is_disabled":false,"rental_uris":{"android":"levelo://app?vid=3f51ceec-447c-4a8a-af78-5029e9c36989","ios":"levelo://app?vid=3f51ceec-447c-4a8a-af78-5029e9c36989"},"vehicle_type_id":"4","last_reported":1751440310,"current_range_meters":9200,"station_id":"ce4bguh2rcd13ifvqckg","pricing_plan_id":"cebpf4jnsgd1na2vs0mg"},{"bike_id":"b28aa0a0-791c-4a08-9a16-c7bf6ea0ed5a","system_id":"levelo_inurba_marseille","lat":43.22502,"lon":5.34777,"is_reserved":false,"is_disabled":false,"rental_uris":{"android":"levelo://app?vid=b28aa0a0-791c-4a08-9a16-c7bf6ea0ed5a","ios":"levelo://app?vid=b28aa0a0-791c-4a08-9a16-c7bf6ea0ed5a"},"vehicle_type_id":"4","last_reported":1751440310,"current_range_meters":9200,"station_id":"st_cvj5dfep6f1abm77gieg","pricing_plan_id":"cebpf4jnsgd1na2vs0mg"},{"bike_id":"8f10a9ab-b2d1-48a1-84c5-75424f1b18f7","system_id":"levelo_inurba_marseille","lat":43.211882,"lon":5.350723,"is_reserved":false,"is_disabled":false,"rental_uris":{"android":"levelo://app?vid=8f10a9ab-b2d1-48a1-84c5-75424f1b18f7","ios":"levelo://app?vid=8f10a9ab-b2d1-48a1-84c5-75424f1b18f7"},"vehicle_type_id":"4","last_reported":1751440310,"current_range_meters":9200,"station_id":"st_cvj6sg6p6f1abm77japg","pricing_plan_id":"cebpf4jnsgd1na2vs0mg"},{"bike_id":"8433bf94-a287-463f-bc6d-4c8bc510dc0a","system_id":"levelo_inurba_marseille","lat":43.29918,"lon":5.37467,"is_reserved":false,"is_disabled":false,"rental_uris":{"android":"levelo://app?vid=8433bf94-a287-463f-bc6d-4c8bc510dc0a","ios":"levelo://app?vid=8433bf94-a287-463f-bc6d-4c8bc510dc0a"},"vehicle_type_id":"4","last_reported":1751440310,"current_range_meters":9600,"station_id":"ce4bgjh2rcd13ifvqbg0","pricing_plan_id":"cebpf4jnsgd1na2vs0mg"},{"bike_id":"929cf6c5-3651-4364-a318-fdb8659adf9f","system_id":"levelo_inurba_marseille","lat":43.29783,"lon":5.37108,"is_reserved":false,"is_disabled":false,"rental_uris":{"android":"levelo://app?vid=929cf6c5-3651-4364-a318-fdb8659adf9f","ios":"levelo://app?vid=929cf6c5-3651-4364-a318-fdb8659adf9f"},"vehicle_type_id":"4","last_reported":1751440310,"current_range_meters":9600,"station_id":"ce4bgop2rcd13ifvqc1g","pricing_plan_id":"cebpf4jnsgd1na2vs0mg"},{"bike_id":"1bf55e84-ea98-40db-bdcd-49fd06c95f55","system_id":"levelo_inurba_marseille","lat":43.29036,"lon":5.39957,"is_reserved":false,"is_disabled":false,"rental_uris":{"android":"levelo://app?vid=1bf55e84-ea98-40db-bdcd-49fd06c95f55","ios":"levelo://app?vid=1bf55e84-ea98-40db-bdcd-49fd06c95f55"},"vehicle_type_id":"4","last_reported":1751440310,"current_range_meters":9600,"station_id":"ce4bh392rcd13ifvqdm0","pricing_plan_id":"cebpf4jnsgd1na2vs0mg"},{"bike_id":"c176876a-4a9d-4955-8b4b-ef400edf6f01","system_id":"levelo_inurba_marseille","lat":43.27318,"lon":5.39083,"is_reserved":false,"is_disabled":false,"rental_uris":{"android":"levelo://app?vid=c176876a-4a9d-4955-8b4b-ef400edf6f01","ios":"levelo://app?vid=c176876a-4a9d-4955-8b4b-ef400edf6f01"},"vehicle_type_id":"4","last_reported":1751440310,"current_range_meters":10000,"station_id":"ce4bhgp2rcd13ifvqfe0","pricing_plan_id":"cebpf4jnsgd1na2vs0mg"},{"bike_id":"34ef8d19-abd3-418b-af23-9942dadb071a","system_id":"levelo_inurba_marseille","lat":43.211961,"lon":5.350707,"is_reserved":false,"is_disabled":false,"rental_uris":{"android":"levelo://app?vid=34ef8d19-abd3-418b-af23-9942dadb071a","ios":"levelo://app?vid=34ef8d19-abd3-418b-af23-9942dadb071a"},"vehicle_type_id":"4","last_reported":1751440310,"current_range_meters":10000,"station_id":"st_cvj6sg6p6f1abm77japg","pricing_plan_id":"cebpf4jnsgd1na2vs0mg"},{"bike_id":"c0228700-5312-4a39-89af-ec53a5d729c5","system_id":"levelo_inurba_marseille","lat":43.28328,"lon":5.43248,"is_reserved":false,"is_disabled":false,"rental_uris":{"android":"levelo://app?vid=c0228700-5312-4a39-89af-ec53a5d729c5","ios":"levelo://app?vid=c0228700-5312-4a39-89af-ec53a5d729c5"},"vehicle_type_id":"4","last_reported":1751440310,"current_range_meters":10800,"station_id":"","pricing_plan_id":"cebpf4jnsgd1na2vs0mg"},{"bike_id":"b39af8ec-0a05-4a49-bac0-525eb7a0daf0","system_id":"levelo_inurba_marseille","lat":43.29259,"lon":5.37623,"is_reserved":false,"is_disabled":false,"rental_uris":{"android":"levelo://app?vid=b39af8ec-0a05-4a49-bac0-525eb7a0daf0","ios":"levelo://app?vid=b39af8ec-0a05-4a49-bac0-525eb7a0daf0"},"vehicle_type_id":"4","last_reported":1751440310,"current_range_meters":10800,"station_id":"ce4bgi12rcd13ifvqb80","pricing_plan_id":"cebpf4jnsgd1na2vs0mg"},{"bike_id":"90deedad-5729-44ac-95e8-3f24aa141e8f","system_id":"levelo_inurba_marseille","lat":43.30954,"lon":5.39035,"is_reserved":false,"is_disabled":false,"rental_uris":{"android":"levelo://app?vid=90deedad-5729-44ac-95e8-3f24aa141e8f","ios":"levelo://app?vid=90deedad-5729-44ac-95e8-3f24aa141e8f"},"vehicle_type_id":"4","last_reported":1751440310,"current_range_meters":10800,"station_id":"ce4bgup2rcd13ifvqco0","pricing_plan_id":"cebpf4jnsgd1na2vs0mg"},{"bike_id":"a0ffdf28-d659-45dc-b870-b2d591eeef83","system_id":"levelo_inurba_marseille","lat":43.25712,"lon":5.41081,"is_reserved":false,"is_disabled":false,"rental_uris":{"android":"levelo://app?vid=a0ffdf28-d659-45dc-b870-b2d591eeef83","ios":"levelo://app?vid=a0ffdf28-d659-45dc-b870-b2d591eeef83"},"vehicle_type_id":"4","last_reported":1751440310,"current_range_meters":10800,"station_id":"ce4bhkp2rcd13ifvqgd0","pricing_plan_id":"cebpf4jnsgd1na2vs0mg"},{"bike_id":"ddf528b1-4427-4205-b74c-58daba4bcb9d","system_id":"levelo_inurba_marseille","lat":43.32569,"lon":5.4147,"is_reserved":false,"is_disabled":false,"rental_uris":{"android":"levelo://app?vid=ddf528b1-4427-4205-b74c-58daba4bcb9d","ios":"levelo://app?vid=ddf528b1-4427-4205-b74c-58daba4bcb9d"},"vehicle_type_id":"4","last_reported":1751440310,"current_range_meters":10800,"station_id":"ce4bhq12rcd13ifvqhhg","pricing_plan_id":"cebpf4jnsgd1na2vs0mg"},{"bike_id":"c61036a9-1a66-4480-8bd4-cd2fb585b287","system_id":"levelo_inurba_marseille","lat":43.269852,"lon":5.405536,"is_reserved":false,"is_disabled":false,"rental_uris":{"android":"levelo://app?vid=c61036a9-1a66-4480-8bd4-cd2fb585b287","ios":"levelo://app?vid=c61036a9-1a66-4480-8bd4-cd2fb585b287"},"vehicle_type_id":"4","last_reported":1751440310,"current_range_meters":11200,"station_id":"","pricing_plan_id":"cebpf4jnsgd1na2vs0mg"},{"bike_id":"282852d0-af67-46a4-a478-b04fb0fa04a4","system_id":"levelo_inurba_marseille","lat":43.31352,"lon":5.36712,"is_reserved":false,"is_disabled":false,"rental_uris":{"android":"levelo://app?vid=282852d0-af67-46a4-a478-b04fb0fa04a4","ios":"levelo://app?vid=282852d0-af67-46a4-a478-b04fb0fa04a4"},"vehicle_type_id":"4","last_reported":1751440310,"current_range_meters":11200,"station_id":"ce4bgr92rcd13ifvqc6g","pricing_plan_id":"cebpf4jnsgd1na2vs0mg"},{"bike_id":"bf0025eb-fc53-4492-99f0-1745fef4c3f3","system_id":"levelo_inurba_marseille","lat":43.30147,"lon":5.37426,"is_reserved":false,"is_disabled":false,"rental_uris":{"android":"levelo://app?vid=bf0025eb-fc53-4492-99f0-1745fef4c3f3","ios":"levelo://app?vid=bf0025eb-fc53-4492-99f0-1745fef4c3f3"},"vehicle_type_id":"4","last_reported":1751440310,"current_range_meters":11200,"station_id":"ce4bgs92rcd13ifvqcc0","pricing_plan_id":"cebpf4jnsgd1na2vs0mg"},{"bike_id":"3647a314-ae70-4637-9d4a-59e4fd0b2191","system_id":"levelo_inurba_marseille","lat":43.3065,"lon":5.40099,"is_reserved":false,"is_disabled":false,"rental_uris":{"android":"levelo://app?vid=3647a314-ae70-4637-9d4a-59e4fd0b2191","ios":"levelo://app?vid=3647a314-ae70-4637-9d4a-59e4fd0b2191"},"vehicle_type_id":"4","last_reported":1751440310,"current_range_meters":11600,"station_id":"ce4bh112rcd13ifvqda0","pricing_plan_id":"cebpf4jnsgd1na2vs0mg"},{"bike_id":"640e6394-a886-40f3-acba-22a7edee16d5","system_id":"levelo_inurba_marseille","lat":43.294159,"lon":5.386246,"is_reserved":false,"is_disabled":false,"rental_uris":{"android":"levelo://app?vid=640e6394-a886-40f3-acba-22a7edee16d5","ios":"levelo://app?vid=640e6394-a886-40f3-acba-22a7edee16d5"},"vehicle_type_id":"4","last_reported":1751440310,"current_range_meters":11600,"station_id":"ce4bh2h2rcd13ifvqdh0","pricing_plan_id":"cebpf4jnsgd1na2vs0mg"},{"bike_id":"6335e18e-9829-4571-82f7-23b6ce10fe5e","system_id":"levelo_inurba_marseille","lat":43.241643,"lon":5.364006,"is_reserved":false,"is_disabled":false,"rental_uris":{"android":"levelo://app?vid=6335e18e-9829-4571-82f7-23b6ce10fe5e","ios":"levelo://app?vid=6335e18e-9829-4571-82f7-23b6ce10fe5e"},"vehicle_type_id":"4","last_reported":1751440310,"current_range_meters":11600,"station_id":"cpo36qri1sfpv3e86is0","pricing_plan_id":"cebpf4jnsgd1na2vs0mg"},{"bike_id":"86fa6ce7-8cbe-47ff-b5d3-c2b4938fd05c","system_id":"levelo_inurba_marseille","lat":43.21192,"lon":5.35063,"is_reserved":false,"is_disabled":false,"rental_uris":{"android":"levelo://app?vid=86fa6ce7-8cbe-47ff-b5d3-c2b4938fd05c","ios":"levelo://app?vid=86fa6ce7-8cbe-47ff-b5d3-c2b4938fd05c"},"vehicle_type_id":"4","last_reported":1751440310,"current_range_meters":11600,"station_id":"st_cvj6sg6p6f1abm77japg","pricing_plan_id":"cebpf4jnsgd1na2vs0mg"},{"bike_id":"aa1f0896-c203-4adb-b7f5-b41be7d1cc4c","system_id":"levelo_inurba_marseille","lat":43.29425,"lon":5.38631,"is_reserved":false,"is_disabled":false,"rental_uris":{"android":"levelo://app?vid=aa1f0896-c203-4adb-b7f5-b41be7d1cc4c","ios":"levelo://app?vid=aa1f0896-c203-4adb-b7f5-b41be7d1cc4c"},"vehicle_type_id":"4","last_reported":1751440310,"current_range_meters":12000,"station_id":"ce4bh2h2rcd13ifvqdh0","pricing_plan_id":"cebpf4jnsgd1na2vs0mg"},{"bike_id":"96b6b043-817e-45a0-a067-97c1bfcd6862","system_id":"levelo_inurba_marseille","lat":43.27507,"lon":5.42452,"is_reserved":false,"is_disabled":false,"rental_uris":{"android":"levelo://app?vid=96b6b043-817e-45a0-a067-97c1bfcd6862","ios":"levelo://app?vid=96b6b043-817e-45a0-a067-97c1bfcd6862"},"vehicle_type_id":"4","last_reported":1751440310,"current_range_meters":12000,"station_id":"ce4bhn92rcd13ifvqgrg","pricing_plan_id":"cebpf4jnsgd1na2vs0mg"},{"bike_id":"4548c4c7-6772-4dc8-ab50-15000725b517","system_id":"levelo_inurba_marseille","lat":43.301411,"lon":5.374108,"is_reserved":false,"is_disabled":false,"rental_uris":{"android":"levelo://app?vid=4548c4c7-6772-4dc8-ab50-15000725b517","ios":"levelo://app?vid=4548c4c7-6772-4dc8-ab50-15000725b517"},"vehicle_type_id":"4","last_reported":1751440310,"current_range_meters":12400,"station_id":"ce4bgs92rcd13ifvqcc0","pricing_plan_id":"cebpf4jnsgd1na2vs0mg"},{"bike_id":"77e652d2-27e3-4b7e-8763-af4a4bbd0999","system_id":"levelo_inurba_marseille","lat":43.26212,"lon":5.37449,"is_reserved":false,"is_disabled":false,"rental_uris":{"android":"levelo://app?vid=77e652d2-27e3-4b7e-8763-af4a4bbd0999","ios":"levelo://app?vid=77e652d2-27e3-4b7e-8763-af4a4bbd0999"},"vehicle_type_id":"4","last_reported":1751440310,"current_range_meters":12400,"station_id":"ce4bhgp2rcd13ifvqfc0","pricing_plan_id":"cebpf4jnsgd1na2vs0mg"},{"bike_id":"4bcd58de-55d3-4f1d-9ef8-d5bbc3dc11d2","system_id":"levelo_inurba_marseille","lat":43.25567,"lon":5.38275,"is_reserved":false,"is_disabled":false,"rental_uris":{"android":"levelo://app?vid=4bcd58de-55d3-4f1d-9ef8-d5bbc3dc11d2","ios":"levelo://app?vid=4bcd58de-55d3-4f1d-9ef8-d5bbc3dc11d2"},"vehicle_type_id":"4","last_reported":1751440310,"current_range_meters":12400,"station_id":"ce4bhih2rcd13ifvqfs0","pricing_plan_id":"cebpf4jnsgd1na2vs0mg"},{"bike_id":"617abdb6-0a3b-41f0-8138-2b6bd92183fe","system_id":"levelo_inurba_marseille","lat":43.25942,"lon":5.40921,"is_reserved":false,"is_disabled":false,"rental_uris":{"android":"levelo://app?vid=617abdb6-0a3b-41f0-8138-2b6bd92183fe","ios":"levelo://app?vid=617abdb6-0a3b-41f0-8138-2b6bd92183fe"},"vehicle_type_id":"4","last_reported":1751440310,"current_range_meters":12400,"station_id":"ce4bhm92rcd13ifvqglg","pricing_plan_id":"cebpf4jnsgd1na2vs0mg"},{"bike_id":"5ea1dd93-3c49-4f8f-bb7f-00d3c982b0ae","system_id":"levelo_inurba_marseille","lat":43.229302,"lon":5.353673,"is_reserved":false,"is_disabled":false,"rental_uris":{"android":"levelo://app?vid=5ea1dd93-3c49-4f8f-bb7f-00d3c982b0ae","ios":"levelo://app?vid=5ea1dd93-3c49-4f8f-bb7f-00d3c982b0ae"},"vehicle_type_id":"4","last_reported":1751440310,"current_range_meters":12400,"station_id":"cpo3532slgdg3j2ikp40","pricing_plan_id":"cebpf4jnsgd1na2vs0mg"},{"bike_id":"bf9a42f0-3236-41b2-aead-463e94f79ff6","system_id":"levelo_inurba_marseille","lat":43.2329,"lon":5.354,"is_reserved":false,"is_disabled":false,"rental_uris":{"android":"levelo://app?vid=bf9a42f0-3236-41b2-aead-463e94f79ff6","ios":"levelo://app?vid=bf9a42f0-3236-41b2-aead-463e94f79ff6"},"vehicle_type_id":"4","last_reported":1751440310,"current_range_meters":12800,"station_id":"","pricing_plan_id":"cebpf4jnsgd1na2vs0mg"},{"bike_id":"4810f33f-d5e0-4478-89ab-5e50f6676b57","system_id":"levelo_inurba_marseille","lat":43.2574,"lon":5.41107,"is_reserved":false,"is_disabled":false,"rental_uris":{"android":"levelo://app?vid=4810f33f-d5e0-4478-89ab-5e50f6676b57","ios":"levelo://app?vid=4810f33f-d5e0-4478-89ab-5e50f6676b57"},"vehicle_type_id":"4","last_reported":1751440310,"current_range_meters":12800,"station_id":"ce4bhkp2rcd13ifvqgd0","pricing_plan_id":"cebpf4jnsgd1na2vs0mg"},{"bike_id":"b91f0c35-1074-4055-9ea4-8bce700995fc","system_id":"levelo_inurba_marseille","lat":43.25934,"lon":5.40913,"is_reserved":false,"is_disabled":false,"rental_uris":{"android":"levelo://app?vid=b91f0c35-1074-4055-9ea4-8bce700995fc","ios":"levelo://app?vid=b91f0c35-1074-4055-9ea4-8bce700995fc"},"vehicle_type_id":"4","last_reported":1751440310,"current_range_meters":12800,"station_id":"ce4bhm92rcd13ifvqglg","pricing_plan_id":"cebpf4jnsgd1na2vs0mg"},{"bike_id":"0c1b4f74-5294-4b59-932d-b742ce647d9e","system_id":"levelo_inurba_marseille","lat":43.21191,"lon":5.35076,"is_reserved":false,"is_disabled":false,"rental_uris":{"android":"levelo://app?vid=0c1b4f74-5294-4b59-932d-b742ce647d9e","ios":"levelo://app?vid=0c1b4f74-5294-4b59-932d-b742ce647d9e"},"vehicle_type_id":"4","last_reported":1751440310,"current_range_meters":12800,"station_id":"st_cvj6sg6p6f1abm77japg","pricing_plan_id":"cebpf4jnsgd1na2vs0mg"},{"bike_id":"d4c73a67-6ae9-4da7-86b1-c540a417377a","system_id":"levelo_inurba_marseille","lat":43.32348,"lon":5.40617,"is_reserved":false,"is_disabled":false,"rental_uris":{"android":"levelo://app?vid=d4c73a67-6ae9-4da7-86b1-c540a417377a","ios":"levelo://app?vid=d4c73a67-6ae9-4da7-86b1-c540a417377a"},"vehicle_type_id":"4","last_reported":1751440310,"current_range_meters":13600,"station_id":"ce4bhq92rcd13ifvqhjg","pricing_plan_id":"cebpf4jnsgd1na2vs0mg"},{"bike_id":"8a74f5cd-9efa-4362-bea7-a32db4dcc85c","system_id":"levelo_inurba_marseille","lat":43.21171,"lon":5.35062,"is_reserved":false,"is_disabled":false,"rental_uris":{"android":"levelo://app?vid=8a74f5cd-9efa-4362-bea7-a32db4dcc85c","ios":"levelo://app?vid=8a74f5cd-9efa-4362-bea7-a32db4dcc85c"},"vehicle_type_id":"4","last_reported":1751440310,"current_range_meters":13600,"station_id":"st_cvj6sg6p6f1abm77japg","pricing_plan_id":"cebpf4jnsgd1na2vs0mg"},{"bike_id":"6236efdf-636a-44a1-b96f-2a26ce70a78b","system_id":"levelo_inurba_marseille","lat":43.33762,"lon":5.37444,"is_reserved":false,"is_disabled":false,"rental_uris":{"android":"levelo://app?vid=6236efdf-636a-44a1-b96f-2a26ce70a78b","ios":"levelo://app?vid=6236efdf-636a-44a1-b96f-2a26ce70a78b"},"vehicle_type_id":"4","last_reported":1751440310,"current_range_meters":14000,"station_id":"","pricing_plan_id":"cebpf4jnsgd1na2vs0mg"},{"bike_id":"135ecdfc-247b-43fd-89d9-e3dc4b3fb2a8","system_id":"levelo_inurba_marseille","lat":43.3096,"lon":5.39036,"is_reserved":false,"is_disabled":false,"rental_uris":{"android":"levelo://app?vid=135ecdfc-247b-43fd-89d9-e3dc4b3fb2a8","ios":"levelo://app?vid=135ecdfc-247b-43fd-89d9-e3dc4b3fb2a8"},"vehicle_type_id":"4","last_reported":1751440310,"current_range_meters":14000,"station_id":"ce4bgup2rcd13ifvqco0","pricing_plan_id":"cebpf4jnsgd1na2vs0mg"},{"bike_id":"31368e19-4dbb-4e11-9c71-f57aa9479fe5","system_id":"levelo_inurba_marseille","lat":43.25004,"lon":5.38927,"is_reserved":false,"is_disabled":false,"rental_uris":{"android":"levelo://app?vid=31368e19-4dbb-4e11-9c71-f57aa9479fe5","ios":"levelo://app?vid=31368e19-4dbb-4e11-9c71-f57aa9479fe5"},"vehicle_type_id":"4","last_reported":1751440310,"current_range_meters":14000,"station_id":"ce4bhgp2rcd13ifvqfd0","pricing_plan_id":"cebpf4jnsgd1na2vs0mg"},{"bike_id":"539ed013-9e80-448a-999f-a7819f54786a","system_id":"levelo_inurba_marseille","lat":43.26205,"lon":5.37921,"is_reserved":false,"is_disabled":true,"rental_uris":{"android":"levelo://app?vid=539ed013-9e80-448a-999f-a7819f54786a","ios":"levelo://app?vid=539ed013-9e80-448a-999f-a7819f54786a"},"vehicle_type_id":"4","last_reported":1751440310,"current_range_meters":14000,"station_id":"ce4bhjp2rcd13ifvqg90","pricing_plan_id":"cebpf4jnsgd1na2vs0mg"},{"bike_id":"16fe4b8f-aa54-4e34-9437-7dd47aac9baf","system_id":"levelo_inurba_marseille","lat":43.29029,"lon":5.3996,"is_reserved":false,"is_disabled":false,"rental_uris":{"android":"levelo://app?vid=16fe4b8f-aa54-4e34-9437-7dd47aac9baf","ios":"levelo://app?vid=16fe4b8f-aa54-4e34-9437-7dd47aac9baf"},"vehicle_type_id":"4","last_reported":1751440310,"current_range_meters":14400,"station_id":"ce4bh392rcd13ifvqdm0","pricing_plan_id":"cebpf4jnsgd1na2vs0mg"},{"bike_id":"c2cc3873-3136-4ba7-984d-6514f2a6bcc2","system_id":"levelo_inurba_marseille","lat":43.26692,"lon":5.3827,"is_reserved":false,"is_disabled":false,"rental_uris":{"android":"levelo://app?vid=c2cc3873-3136-4ba7-984d-6514f2a6bcc2","ios":"levelo://app?vid=c2cc3873-3136-4ba7-984d-6514f2a6bcc2"},"vehicle_type_id":"4","last_reported":1751440310,"current_range_meters":14400,"station_id":"ce4bhg92rcd13ifvqf90","pricing_plan_id":"cebpf4jnsgd1na2vs0mg"},{"bike_id":"e42c8f7e-cdaa-4725-ab88-07c869696347","system_id":"levelo_inurba_marseille","lat":43.255015,"lon":5.376503,"is_reserved":false,"is_disabled":false,"rental_uris":{"android":"levelo://app?vid=e42c8f7e-cdaa-4725-ab88-07c869696347","ios":"levelo://app?vid=e42c8f7e-cdaa-4725-ab88-07c869696347"},"vehicle_type_id":"4","last_reported":1751440310,"current_range_meters":14400,"station_id":"ce4bhh12rcd13ifvqff0","pricing_plan_id":"cebpf4jnsgd1na2vs0mg"},{"bike_id":"2ccb66bb-c9f9-40e0-b14d-53b83732ff14","system_id":"levelo_inurba_marseille","lat":43.3176,"lon":5.39013,"is_reserved":false,"is_disabled":false,"rental_uris":{"android":"levelo://app?vid=2ccb66bb-c9f9-40e0-b14d-53b83732ff14","ios":"levelo://app?vid=2ccb66bb-c9f9-40e0-b14d-53b83732ff14"},"vehicle_type_id":"4","last_reported":1751440310,"current_range_meters":14400,"station_id":"ce4bhqp2rcd13ifvqhng","pricing_plan_id":"cebpf4jnsgd1na2vs0mg"},{"bike_id":"ee0317a9-0b3d-4631-9294-b4dddc155611","system_id":"levelo_inurba_marseille","lat":43.323572,"lon":5.367478,"is_reserved":false,"is_disabled":false,"rental_uris":{"android":"levelo://app?vid=ee0317a9-0b3d-4631-9294-b4dddc155611","ios":"levelo://app?vid=ee0317a9-0b3d-4631-9294-b4dddc155611"},"vehicle_type_id":"4","last_reported":1751440310,"current_range_meters":14400,"station_id":"ce4bhsh2rcd13ifvqi2g","pricing_plan_id":"cebpf4jnsgd1na2vs0mg"},{"bike_id":"c37ea1d2-e116-4a5e-b3db-a06cc699c41d","system_id":"levelo_inurba_marseille","lat":43.30946,"lon":5.39042,"is_reserved":false,"is_disabled":false,"rental_uris":{"android":"levelo://app?vid=c37ea1d2-e116-4a5e-b3db-a06cc699c41d","ios":"levelo://app?vid=c37ea1d2-e116-4a5e-b3db-a06cc699c41d"},"vehicle_type_id":"4","last_reported":1751440310,"current_range_meters":14800,"station_id":"ce4bgup2rcd13ifvqco0","pricing_plan_id":"cebpf4jnsgd1na2vs0mg"},{"bike_id":"483ba61c-e9d3-4100-9ca2-9f76b3853385","system_id":"levelo_inurba_marseille","lat":43.31287,"lon":5.40173,"is_reserved":false,"is_disabled":false,"rental_uris":{"android":"levelo://app?vid=483ba61c-e9d3-4100-9ca2-9f76b3853385","ios":"levelo://app?vid=483ba61c-e9d3-4100-9ca2-9f76b3853385"},"vehicle_type_id":"4","last_reported":1751440310,"current_range_meters":14800,"station_id":"ce4bh092rcd13ifvqd30","pricing_plan_id":"cebpf4jnsgd1na2vs0mg"},{"bike_id":"7c45792d-b840-4764-ae44-cb6fb2ecaa61","system_id":"levelo_inurba_marseille","lat":43.294159,"lon":5.386245,"is_reserved":false,"is_disabled":false,"rental_uris":{"android":"levelo://app?vid=7c45792d-b840-4764-ae44-cb6fb2ecaa61","ios":"levelo://app?vid=7c45792d-b840-4764-ae44-cb6fb2ecaa61"},"vehicle_type_id":"4","last_reported":1751440310,"current_range_meters":14800,"station_id":"ce4bh2h2rcd13ifvqdh0","pricing_plan_id":"cebpf4jnsgd1na2vs0mg"},{"bike_id":"d2686da2-7f93-400e-86d4-66c3d4b5f6bc","system_id":"levelo_inurba_marseille","lat":43.27947,"lon":5.41044,"is_reserved":false,"is_disabled":false,"rental_uris":{"android":"levelo://app?vid=d2686da2-7f93-400e-86d4-66c3d4b5f6bc","ios":"levelo://app?vid=d2686da2-7f93-400e-86d4-66c3d4b5f6bc"},"vehicle_type_id":"4","last_reported":1751440310,"current_range_meters":14800,"station_id":"ce4bhnp2rcd13ifvqh0g","pricing_plan_id":"cebpf4jnsgd1na2vs0mg"},{"bike_id":"f00e3044-9bd1-48b5-b342-151af21b34fa","system_id":"levelo_inurba_marseille","lat":43.29985,"lon":5.37412,"is_reserved":false,"is_disabled":false,"rental_uris":{"android":"levelo://app?vid=f00e3044-9bd1-48b5-b342-151af21b34fa","ios":"levelo://app?vid=f00e3044-9bd1-48b5-b342-151af21b34fa"},"vehicle_type_id":"4","last_reported":1751440310,"current_range_meters":15200,"station_id":"","pricing_plan_id":"cebpf4jnsgd1na2vs0mg"},{"bike_id":"5f16540d-3f89-42ea-a3c8-6852c66835ae","system_id":"levelo_inurba_marseille","lat":43.25937,"lon":5.40911,"is_reserved":false,"is_disabled":false,"rental_uris":{"android":"levelo://app?vid=5f16540d-3f89-42ea-a3c8-6852c66835ae","ios":"levelo://app?vid=5f16540d-3f89-42ea-a3c8-6852c66835ae"},"vehicle_type_id":"4","last_reported":1751440310,"current_range_meters":15200,"station_id":"ce4bhm92rcd13ifvqglg","pricing_plan_id":"cebpf4jnsgd1na2vs0mg"},{"bike_id":"7c65c4b3-f4fa-4b54-8076-2af6b2629340","system_id":"levelo_inurba_marseille","lat":43.25935,"lon":5.40907,"is_reserved":false,"is_disabled":false,"rental_uris":{"android":"levelo://app?vid=7c65c4b3-f4fa-4b54-8076-2af6b2629340","ios":"levelo://app?vid=7c65c4b3-f4fa-4b54-8076-2af6b2629340"},"vehicle_type_id":"4","last_reported":1751440310,"current_range_meters":15200,"station_id":"ce4bhm92rcd13ifvqglg","pricing_plan_id":"cebpf4jnsgd1na2vs0mg"},{"bike_id":"b012d461-6d4d-496c-9187-d0151883ac2d","system_id":"levelo_inurba_marseille","lat":43.24178,"lon":5.39722,"is_reserved":false,"is_disabled":false,"rental_uris":{"android":"levelo://app?vid=b012d461-6d4d-496c-9187-d0151883ac2d","ios":"levelo://app?vid=b012d461-6d4d-496c-9187-d0151883ac2d"},"vehicle_type_id":"4","last_reported":1751440310,"current_range_meters":15200,"station_id":"ce4bhn12rcd13ifvqgpg","pricing_plan_id":"cebpf4jnsgd1na2vs0mg"},{"bike_id":"7087d28a-158e-468d-9394-fb85e8b29b60","system_id":"levelo_inurba_marseille","lat":43.32472,"lon":5.36565,"is_reserved":false,"is_disabled":false,"rental_uris":{"android":"levelo://app?vid=7087d28a-158e-468d-9394-fb85e8b29b60","ios":"levelo://app?vid=7087d28a-158e-468d-9394-fb85e8b29b60"},"vehicle_type_id":"4","last_reported":1751440310,"current_range_meters":15200,"station_id":"ce4bhs12rcd13ifvqhvg","pricing_plan_id":"cebpf4jnsgd1na2vs0mg"},{"bike_id":"d0f90c24-dd03-411b-9731-55305f76b7c8","system_id":"levelo_inurba_marseille","lat":43.211917,"lon":5.350707,"is_reserved":false,"is_disabled":false,"rental_uris":{"android":"levelo://app?vid=d0f90c24-dd03-411b-9731-55305f76b7c8","ios":"levelo://app?vid=d0f90c24-dd03-411b-9731-55305f76b7c8"},"vehicle_type_id":"4","last_reported":1751440310,"current_range_meters":15200,"station_id":"st_cvj6sg6p6f1abm77japg","pricing_plan_id":"cebpf4jnsgd1na2vs0mg"},{"bike_id":"fdcc33b3-b27b-4fd9-90cb-c9421efe9db6","system_id":"levelo_inurba_marseille","lat":43.27809,"lon":5.41428,"is_reserved":false,"is_disabled":false,"rental_uris":{"android":"levelo://app?vid=fdcc33b3-b27b-4fd9-90cb-c9421efe9db6","ios":"levelo://app?vid=fdcc33b3-b27b-4fd9-90cb-c9421efe9db6"},"vehicle_type_id":"4","last_reported":1751440310,"current_range_meters":16000,"station_id":"","pricing_plan_id":"cebpf4jnsgd1na2vs0mg"},{"bike_id":"92666b38-d0d8-4cbe-823f-19316154295c","system_id":"levelo_inurba_marseille","lat":43.29791,"lon":5.39349,"is_reserved":false,"is_disabled":false,"rental_uris":{"android":"levelo://app?vid=92666b38-d0d8-4cbe-823f-19316154295c","ios":"levelo://app?vid=92666b38-d0d8-4cbe-823f-19316154295c"},"vehicle_type_id":"4","last_reported":1751440310,"current_range_meters":16000,"station_id":"chh1huq6cuj3fo74tm60","pricing_plan_id":"cebpf4jnsgd1na2vs0mg"},{"bike_id":"cfc0aa67-590a-4038-b894-cb7b8f074cc7","system_id":"levelo_inurba_marseille","lat":43.21748,"lon":5.34592,"is_reserved":false,"is_disabled":false,"rental_uris":{"android":"levelo://app?vid=cfc0aa67-590a-4038-b894-cb7b8f074cc7","ios":"levelo://app?vid=cfc0aa67-590a-4038-b894-cb7b8f074cc7"},"vehicle_type_id":"4","last_reported":1751440310,"current_range_meters":16000,"station_id":"st_cvj6r9ubvosntc0bgbag","pricing_plan_id":"cebpf4jnsgd1na2vs0mg"},{"bike_id":"dbe6a7d8-6edc-4015-8658-f68eeb46a661","system_id":"levelo_inurba_marseille","lat":43.33578,"lon":5.39873,"is_reserved":false,"is_disabled":false,"rental_uris":{"android":"levelo://app?vid=dbe6a7d8-6edc-4015-8658-f68eeb46a661","ios":"levelo://app?vid=dbe6a7d8-6edc-4015-8658-f68eeb46a661"},"vehicle_type_id":"4","last_reported":1751440310,"current_range_meters":16400,"station_id":"","pricing_plan_id":"cebpf4jnsgd1na2vs0mg"},{"bike_id":"7e62b058-a7ed-4634-80f1-04d3de596de7","system_id":"levelo_inurba_marseille","lat":43.29847,"lon":5.368,"is_reserved":false,"is_disabled":false,"rental_uris":{"android":"levelo://app?vid=7e62b058-a7ed-4634-80f1-04d3de596de7","ios":"levelo://app?vid=7e62b058-a7ed-4634-80f1-04d3de596de7"},"vehicle_type_id":"4","last_reported":1751440310,"current_range_meters":16400,"station_id":"","pricing_plan_id":"cebpf4jnsgd1na2vs0mg"},{"bike_id":"d68dacc3-2ebb-4596-94df-9035662fd853","system_id":"levelo_inurba_marseille","lat":43.25718,"lon":5.41115,"is_reserved":false,"is_disabled":false,"rental_uris":{"android":"levelo://app?vid=d68dacc3-2ebb-4596-94df-9035662fd853","ios":"levelo://app?vid=d68dacc3-2ebb-4596-94df-9035662fd853"},"vehicle_type_id":"4","last_reported":1751440310,"current_range_meters":16400,"station_id":"ce4bhkp2rcd13ifvqgd0","pricing_plan_id":"cebpf4jnsgd1na2vs0mg"},{"bike_id":"4fd602b9-b9fc-471c-b938-5990c9f13902","system_id":"levelo_inurba_marseille","lat":43.32386,"lon":5.38911,"is_reserved":false,"is_disabled":false,"rental_uris":{"android":"levelo://app?vid=4fd602b9-b9fc-471c-b938-5990c9f13902","ios":"levelo://app?vid=4fd602b9-b9fc-471c-b938-5990c9f13902"},"vehicle_type_id":"4","last_reported":1751440310,"current_range_meters":16400,"station_id":"ce4bhqp2rcd13ifvqhog","pricing_plan_id":"cebpf4jnsgd1na2vs0mg"},{"bike_id":"c2f01fb1-132d-45a4-a7bc-c28f7a300f91","system_id":"levelo_inurba_marseille","lat":43.2843,"lon":5.34988,"is_reserved":false,"is_disabled":false,"rental_uris":{"android":"levelo://app?vid=c2f01fb1-132d-45a4-a7bc-c28f7a300f91","ios":"levelo://app?vid=c2f01fb1-132d-45a4-a7bc-c28f7a300f91"},"vehicle_type_id":"4","last_reported":1751440310,"current_range_meters":16800,"station_id":"","pricing_plan_id":"cebpf4jnsgd1na2vs0mg"},{"bike_id":"098ecf00-6e86-4f15-87cf-8e7c1dd0e2d7","system_id":"levelo_inurba_marseille","lat":43.302554,"lon":5.36664,"is_reserved":false,"is_disabled":false,"rental_uris":{"android":"levelo://app?vid=098ecf00-6e86-4f15-87cf-8e7c1dd0e2d7","ios":"levelo://app?vid=098ecf00-6e86-4f15-87cf-8e7c1dd0e2d7"},"vehicle_type_id":"4","last_reported":1751440310,"current_range_meters":16800,"station_id":"ce4bgrh2rcd13ifvqc8g","pricing_plan_id":"cebpf4jnsgd1na2vs0mg"},{"bike_id":"14dad34d-851b-4a7f-8458-59cd62f580fe","system_id":"levelo_inurba_marseille","lat":43.30952,"lon":5.39043,"is_reserved":false,"is_disabled":false,"rental_uris":{"android":"levelo://app?vid=14dad34d-851b-4a7f-8458-59cd62f580fe","ios":"levelo://app?vid=14dad34d-851b-4a7f-8458-59cd62f580fe"},"vehicle_type_id":"4","last_reported":1751440310,"current_range_meters":16800,"station_id":"ce4bgup2rcd13ifvqco0","pricing_plan_id":"cebpf4jnsgd1na2vs0mg"},{"bike_id":"695c8693-5f2a-4be0-a439-c0dd856fd224","system_id":"levelo_inurba_marseille","lat":43.27921,"lon":5.39577,"is_reserved":false,"is_disabled":false,"rental_uris":{"android":"levelo://app?vid=695c8693-5f2a-4be0-a439-c0dd856fd224","ios":"levelo://app?vid=695c8693-5f2a-4be0-a439-c0dd856fd224"},"vehicle_type_id":"4","last_reported":1751440310,"current_range_meters":16800,"station_id":"ce4bhf92rcd13ifvqf40","pricing_plan_id":"cebpf4jnsgd1na2vs0mg"},{"bike_id":"b696af2c-41b3-423f-a4b0-447ccba26af2","system_id":"levelo_inurba_marseille","lat":43.24192,"lon":5.39738,"is_reserved":false,"is_disabled":false,"rental_uris":{"android":"levelo://app?vid=b696af2c-41b3-423f-a4b0-447ccba26af2","ios":"levelo://app?vid=b696af2c-41b3-423f-a4b0-447ccba26af2"},"vehicle_type_id":"4","last_reported":1751440310,"current_range_meters":16800,"station_id":"ce4bhn12rcd13ifvqgpg","pricing_plan_id":"cebpf4jnsgd1na2vs0mg"},{"bike_id":"7440a83d-d2eb-4aec-843d-e9a2bc12e9e7","system_id":"levelo_inurba_marseille","lat":43.24173,"lon":5.39721,"is_reserved":false,"is_disabled":false,"rental_uris":{"android":"levelo://app?vid=7440a83d-d2eb-4aec-843d-e9a2bc12e9e7","ios":"levelo://app?vid=7440a83d-d2eb-4aec-843d-e9a2bc12e9e7"},"vehicle_type_id":"4","last_reported":1751440310,"current_range_meters":16800,"station_id":"ce4bhn12rcd13ifvqgpg","pricing_plan_id":"cebpf4jnsgd1na2vs0mg"},{"bike_id":"fcbc011c-6e76-43d0-b794-85c54e6bf231","system_id":"levelo_inurba_marseille","lat":43.243315,"lon":5.396626,"is_reserved":false,"is_disabled":false,"rental_uris":{"android":"levelo://app?vid=fcbc011c-6e76-43d0-b794-85c54e6bf231","ios":"levelo://app?vid=fcbc011c-6e76-43d0-b794-85c54e6bf231"},"vehicle_type_id":"4","last_reported":1751440310,"current_range_meters":16800,"station_id":"ce4bhn12rcd13ifvqgpg","pricing_plan_id":"cebpf4jnsgd1na2vs0mg"},{"bike_id":"16a8afe6-e43e-4d1b-a7bd-ed83d113735a","system_id":"levelo_inurba_marseille","lat":43.32436,"lon":5.41185,"is_reserved":false,"is_disabled":false,"rental_uris":{"android":"levelo://app?vid=16a8afe6-e43e-4d1b-a7bd-ed83d113735a","ios":"levelo://app?vid=16a8afe6-e43e-4d1b-a7bd-ed83d113735a"},"vehicle_type_id":"4","last_reported":1751440310,"current_range_meters":17200,"station_id":"","pricing_plan_id":"cebpf4jnsgd1na2vs0mg"},{"bike_id":"8c52f046-5b7a-4a8f-81bc-d0cac5b8b1f4","system_id":"levelo_inurba_marseille","lat":43.30946,"lon":5.39035,"is_reserved":false,"is_disabled":false,"rental_uris":{"android":"levelo://app?vid=8c52f046-5b7a-4a8f-81bc-d0cac5b8b1f4","ios":"levelo://app?vid=8c52f046-5b7a-4a8f-81bc-d0cac5b8b1f4"},"vehicle_type_id":"4","last_reported":1751440310,"current_range_meters":17200,"station_id":"ce4bgup2rcd13ifvqco0","pricing_plan_id":"cebpf4jnsgd1na2vs0mg"},{"bike_id":"bcfd0eda-b9ab-4bec-9ca3-3f2b86617415","system_id":"levelo_inurba_marseille","lat":43.211897,"lon":5.350735,"is_reserved":false,"is_disabled":false,"rental_uris":{"android":"levelo://app?vid=bcfd0eda-b9ab-4bec-9ca3-3f2b86617415","ios":"levelo://app?vid=bcfd0eda-b9ab-4bec-9ca3-3f2b86617415"},"vehicle_type_id":"4","last_reported":1751440310,"current_range_meters":17200,"station_id":"st_cvj6sg6p6f1abm77japg","pricing_plan_id":"cebpf4jnsgd1na2vs0mg"},{"bike_id":"110be0f7-19b6-4419-935c-8afdb1f29359","system_id":"levelo_inurba_marseille","lat":43.21286,"lon":5.34854,"is_reserved":false,"is_disabled":false,"rental_uris":{"android":"levelo://app?vid=110be0f7-19b6-4419-935c-8afdb1f29359","ios":"levelo://app?vid=110be0f7-19b6-4419-935c-8afdb1f29359"},"vehicle_type_id":"4","last_reported":1751440310,"current_range_meters":17600,"station_id":"","pricing_plan_id":"cebpf4jnsgd1na2vs0mg"},{"bike_id":"a0cef316-ad95-4855-8f78-a31341a2b90e","system_id":"levelo_inurba_marseille","lat":43.31286,"lon":5.37782,"is_reserved":false,"is_disabled":false,"rental_uris":{"android":"levelo://app?vid=a0cef316-ad95-4855-8f78-a31341a2b90e","ios":"levelo://app?vid=a0cef316-ad95-4855-8f78-a31341a2b90e"},"vehicle_type_id":"4","last_reported":1751440310,"current_range_meters":17600,"station_id":"","pricing_plan_id":"cebpf4jnsgd1na2vs0mg"},{"bike_id":"0e030323-4386-4e72-9a0d-0f6a2ff539de","system_id":"levelo_inurba_marseille","lat":43.29627,"lon":5.40541,"is_reserved":false,"is_disabled":false,"rental_uris":{"android":"levelo://app?vid=0e030323-4386-4e72-9a0d-0f6a2ff539de","ios":"levelo://app?vid=0e030323-4386-4e72-9a0d-0f6a2ff539de"},"vehicle_type_id":"4","last_reported":1751440310,"current_range_meters":17600,"station_id":"ce4bh0h2rcd13ifvqd60","pricing_plan_id":"cebpf4jnsgd1na2vs0mg"},{"bike_id":"805ced4b-0d8a-45e2-a3c5-924003f420ff","system_id":"levelo_inurba_marseille","lat":43.27073,"lon":5.42287,"is_reserved":false,"is_disabled":false,"rental_uris":{"android":"levelo://app?vid=805ced4b-0d8a-45e2-a3c5-924003f420ff","ios":"levelo://app?vid=805ced4b-0d8a-45e2-a3c5-924003f420ff"},"vehicle_type_id":"4","last_reported":1751440310,"current_range_meters":17600,"station_id":"ce4bhk92rcd13ifvqgb0","pricing_plan_id":"cebpf4jnsgd1na2vs0mg"},{"bike_id":"379ef670-edf1-407c-8b70-7fbadd4aecff","system_id":"levelo_inurba_marseille","lat":43.32479,"lon":5.36569,"is_reserved":false,"is_disabled":false,"rental_uris":{"android":"levelo://app?vid=379ef670-edf1-407c-8b70-7fbadd4aecff","ios":"levelo://app?vid=379ef670-edf1-407c-8b70-7fbadd4aecff"},"vehicle_type_id":"4","last_reported":1751440310,"current_range_meters":17600,"station_id":"ce4bhs12rcd13ifvqhvg","pricing_plan_id":"cebpf4jnsgd1na2vs0mg"},{"bike_id":"959e6f20-8ed0-4d36-bc1d-3efb82d6190b","system_id":"levelo_inurba_marseille","lat":43.21198,"lon":5.35091,"is_reserved":false,"is_disabled":false,"rental_uris":{"android":"levelo://app?vid=959e6f20-8ed0-4d36-bc1d-3efb82d6190b","ios":"levelo://app?vid=959e6f20-8ed0-4d36-bc1d-3efb82d6190b"},"vehicle_type_id":"4","last_reported":1751440310,"current_range_meters":17600,"station_id":"st_cvj6sg6p6f1abm77japg","pricing_plan_id":"cebpf4jnsgd1na2vs0mg"},{"bike_id":"1459db28-f784-4bd4-aae8-61799288bd8e","system_id":"levelo_inurba_marseille","lat":43.31703,"lon":5.40462,"is_reserved":false,"is_disabled":false,"rental_uris":{"android":"levelo://app?vid=1459db28-f784-4bd4-aae8-61799288bd8e","ios":"levelo://app?vid=1459db28-f784-4bd4-aae8-61799288bd8e"},"vehicle_type_id":"4","last_reported":1751440310,"current_range_meters":18000,"station_id":"ce4bh012rcd13ifvqd00","pricing_plan_id":"cebpf4jnsgd1na2vs0mg"},{"bike_id":"cd773a11-aa34-43ef-aeb9-1ed064df35ee","system_id":"levelo_inurba_marseille","lat":43.31275,"lon":5.40169,"is_reserved":false,"is_disabled":false,"rental_uris":{"android":"levelo://app?vid=cd773a11-aa34-43ef-aeb9-1ed064df35ee","ios":"levelo://app?vid=cd773a11-aa34-43ef-aeb9-1ed064df35ee"},"vehicle_type_id":"4","last_reported":1751440310,"current_range_meters":18000,"station_id":"ce4bh092rcd13ifvqd30","pricing_plan_id":"cebpf4jnsgd1na2vs0mg"},{"bike_id":"81368af7-a73e-4132-9250-25370a686b1d","system_id":"levelo_inurba_marseille","lat":43.294152,"lon":5.386246,"is_reserved":false,"is_disabled":false,"rental_uris":{"android":"levelo://app?vid=81368af7-a73e-4132-9250-25370a686b1d","ios":"levelo://app?vid=81368af7-a73e-4132-9250-25370a686b1d"},"vehicle_type_id":"4","last_reported":1751440310,"current_range_meters":18000,"station_id":"ce4bh692rcd13ifvqea0","pricing_plan_id":"cebpf4jnsgd1na2vs0mg"},{"bike_id":"09a94feb-8911-4d3d-9f22-a7f611710ea1","system_id":"levelo_inurba_marseille","lat":43.211901,"lon":5.350733,"is_reserved":false,"is_disabled":false,"rental_uris":{"android":"levelo://app?vid=09a94feb-8911-4d3d-9f22-a7f611710ea1","ios":"levelo://app?vid=09a94feb-8911-4d3d-9f22-a7f611710ea1"},"vehicle_type_id":"4","last_reported":1751440310,"current_range_meters":18000,"station_id":"st_cvj6sg6p6f1abm77japg","pricing_plan_id":"cebpf4jnsgd1na2vs0mg"},{"bike_id":"8bf0d992-d2a0-428e-940a-091ee9b7c2a4","system_id":"levelo_inurba_marseille","lat":43.21171,"lon":5.35047,"is_reserved":false,"is_disabled":false,"rental_uris":{"android":"levelo://app?vid=8bf0d992-d2a0-428e-940a-091ee9b7c2a4","ios":"levelo://app?vid=8bf0d992-d2a0-428e-940a-091ee9b7c2a4"},"vehicle_type_id":"4","last_reported":1751440310,"current_range_meters":18000,"station_id":"st_cvj6sg6p6f1abm77japg","pricing_plan_id":"cebpf4jnsgd1na2vs0mg"},{"bike_id":"0b52d53f-0bd6-47f1-b5e3-7fc98dc501bd","system_id":"levelo_inurba_marseille","lat":43.30547,"lon":5.36545,"is_reserved":false,"is_disabled":false,"rental_uris":{"android":"levelo://app?vid=0b52d53f-0bd6-47f1-b5e3-7fc98dc501bd","ios":"levelo://app?vid=0b52d53f-0bd6-47f1-b5e3-7fc98dc501bd"},"vehicle_type_id":"4","last_reported":1751440310,"current_range_meters":18800,"station_id":"ce4bgs12rcd13ifvqcag","pricing_plan_id":"cebpf4jnsgd1na2vs0mg"},{"bike_id":"c10a4283-320d-4e64-8d75-ff83e94026ba","system_id":"levelo_inurba_marseille","lat":43.21194,"lon":5.350727,"is_reserved":false,"is_disabled":false,"rental_uris":{"android":"levelo://app?vid=c10a4283-320d-4e64-8d75-ff83e94026ba","ios":"levelo://app?vid=c10a4283-320d-4e64-8d75-ff83e94026ba"},"vehicle_type_id":"4","last_reported":1751440310,"current_range_meters":18800,"station_id":"st_cvj6sg6p6f1abm77japg","pricing_plan_id":"cebpf4jnsgd1na2vs0mg"},{"bike_id":"6d2da863-a742-45db-855b-55a94467cfa4","system_id":"levelo_inurba_marseille","lat":43.32539,"lon":5.42831,"is_reserved":false,"is_disabled":false,"rental_uris":{"android":"levelo://app?vid=6d2da863-a742-45db-855b-55a94467cfa4","ios":"levelo://app?vid=6d2da863-a742-45db-855b-55a94467cfa4"},"vehicle_type_id":"4","last_reported":1751440310,"current_range_meters":19200,"station_id":"","pricing_plan_id":"cebpf4jnsgd1na2vs0mg"},{"bike_id":"8c9371b2-692d-48da-b841-7893055c2b2f","system_id":"levelo_inurba_marseille","lat":43.30541,"lon":5.36541,"is_reserved":false,"is_disabled":false,"rental_uris":{"android":"levelo://app?vid=8c9371b2-692d-48da-b841-7893055c2b2f","ios":"levelo://app?vid=8c9371b2-692d-48da-b841-7893055c2b2f"},"vehicle_type_id":"4","last_reported":1751440310,"current_range_meters":19200,"station_id":"ce4bgs12rcd13ifvqcag","pricing_plan_id":"cebpf4jnsgd1na2vs0mg"},{"bike_id":"78811adb-f50c-4bb7-82e3-1b69d586dfc1","system_id":"levelo_inurba_marseille","lat":43.293111,"lon":5.374691,"is_reserved":false,"is_disabled":false,"rental_uris":{"android":"levelo://app?vid=78811adb-f50c-4bb7-82e3-1b69d586dfc1","ios":"levelo://app?vid=78811adb-f50c-4bb7-82e3-1b69d586dfc1"},"vehicle_type_id":"4","last_reported":1751440310,"current_range_meters":19600,"station_id":"","pricing_plan_id":"cebpf4jnsgd1na2vs0mg"},{"bike_id":"bfa88f67-5f5b-49db-81cc-e4921c6889b1","system_id":"levelo_inurba_marseille","lat":43.32121,"lon":5.36775,"is_reserved":false,"is_disabled":false,"rental_uris":{"android":"levelo://app?vid=bfa88f67-5f5b-49db-81cc-e4921c6889b1","ios":"levelo://app?vid=bfa88f67-5f5b-49db-81cc-e4921c6889b1"},"vehicle_type_id":"4","last_reported":1751440310,"current_range_meters":19600,"station_id":"ce4bhrh2rcd13ifvqhug","pricing_plan_id":"cebpf4jnsgd1na2vs0mg"},{"bike_id":"9df2c538-ff65-4fc9-b504-87c87f04b757","system_id":"levelo_inurba_marseille","lat":43.32468,"lon":5.365643,"is_reserved":false,"is_disabled":false,"rental_uris":{"android":"levelo://app?vid=9df2c538-ff65-4fc9-b504-87c87f04b757","ios":"levelo://app?vid=9df2c538-ff65-4fc9-b504-87c87f04b757"},"vehicle_type_id":"4","last_reported":1751440310,"current_range_meters":19600,"station_id":"ce4bhs12rcd13ifvqhvg","pricing_plan_id":"cebpf4jnsgd1na2vs0mg"},{"bike_id":"d393009a-4549-46b8-9394-75871ff606d4","system_id":"levelo_inurba_marseille","lat":43.32335,"lon":5.36715,"is_reserved":false,"is_disabled":false,"rental_uris":{"android":"levelo://app?vid=d393009a-4549-46b8-9394-75871ff606d4","ios":"levelo://app?vid=d393009a-4549-46b8-9394-75871ff606d4"},"vehicle_type_id":"4","last_reported":1751440310,"current_range_meters":19600,"station_id":"ce4bhsh2rcd13ifvqi2g","pricing_plan_id":"cebpf4jnsgd1na2vs0mg"},{"bike_id":"3b8a94db-0cac-4a11-82a5-145ce2df9de5","system_id":"levelo_inurba_marseille","lat":43.30539,"lon":5.36709,"is_reserved":false,"is_disabled":false,"rental_uris":{"android":"levelo://app?vid=3b8a94db-0cac-4a11-82a5-145ce2df9de5","ios":"levelo://app?vid=3b8a94db-0cac-4a11-82a5-145ce2df9de5"},"vehicle_type_id":"4","last_reported":1751440310,"current_range_meters":20000,"station_id":"ce4bgrp2rcd13ifvqc9g","pricing_plan_id":"cebpf4jnsgd1na2vs0mg"},{"bike_id":"1c85175b-3cdf-4570-954b-2d220e24b51a","system_id":"levelo_inurba_marseille","lat":43.30467,"lon":5.37899,"is_reserved":false,"is_disabled":false,"rental_uris":{"android":"levelo://app?vid=1c85175b-3cdf-4570-954b-2d220e24b51a","ios":"levelo://app?vid=1c85175b-3cdf-4570-954b-2d220e24b51a"},"vehicle_type_id":"4","last_reported":1751440310,"current_range_meters":20000,"station_id":"ce4bgup2rcd13ifvqcn0","pricing_plan_id":"cebpf4jnsgd1na2vs0mg"},{"bike_id":"4b0048a7-5617-41e3-b515-a0853bc75865","system_id":"levelo_inurba_marseille","lat":43.28851,"lon":5.3934,"is_reserved":false,"is_disabled":false,"rental_uris":{"android":"levelo://app?vid=4b0048a7-5617-41e3-b515-a0853bc75865","ios":"levelo://app?vid=4b0048a7-5617-41e3-b515-a0853bc75865"},"vehicle_type_id":"4","last_reported":1751440310,"current_range_meters":20000,"station_id":"ce4bh2p2rcd13ifvqdi0","pricing_plan_id":"cebpf4jnsgd1na2vs0mg"},{"bike_id":"7d53a919-0adb-424c-8971-a1b3adc3797a","system_id":"levelo_inurba_marseille","lat":43.28941,"lon":5.36379,"is_reserved":false,"is_disabled":false,"rental_uris":{"android":"levelo://app?vid=7d53a919-0adb-424c-8971-a1b3adc3797a","ios":"levelo://app?vid=7d53a919-0adb-424c-8971-a1b3adc3797a"},"vehicle_type_id":"4","last_reported":1751440310,"current_range_meters":20000,"station_id":"ce4bhc92rcd13ifvqetg","pricing_plan_id":"cebpf4jnsgd1na2vs0mg"},{"bike_id":"f865c311-655f-48fa-8c8b-ae36728850ec","system_id":"levelo_inurba_marseille","lat":43.24179,"lon":5.39728,"is_reserved":false,"is_disabled":false,"rental_uris":{"android":"levelo://app?vid=f865c311-655f-48fa-8c8b-ae36728850ec","ios":"levelo://app?vid=f865c311-655f-48fa-8c8b-ae36728850ec"},"vehicle_type_id":"4","last_reported":1751440310,"current_range_meters":20000,"station_id":"ce4bhn12rcd13ifvqgpg","pricing_plan_id":"cebpf4jnsgd1na2vs0mg"},{"bike_id":"6c7c1d32-0ac9-4a15-af93-f80da591f143","system_id":"levelo_inurba_marseille","lat":43.32506,"lon":5.36574,"is_reserved":false,"is_disabled":false,"rental_uris":{"android":"levelo://app?vid=6c7c1d32-0ac9-4a15-af93-f80da591f143","ios":"levelo://app?vid=6c7c1d32-0ac9-4a15-af93-f80da591f143"},"vehicle_type_id":"4","last_reported":1751440310,"current_range_meters":20000,"station_id":"ce4bhs12rcd13ifvqhvg","pricing_plan_id":"cebpf4jnsgd1na2vs0mg"},{"bike_id":"0f590c2a-c81e-469d-a7d1-2741de3642a2","system_id":"levelo_inurba_marseille","lat":43.211938,"lon":5.350703,"is_reserved":false,"is_disabled":false,"rental_uris":{"android":"levelo://app?vid=0f590c2a-c81e-469d-a7d1-2741de3642a2","ios":"levelo://app?vid=0f590c2a-c81e-469d-a7d1-2741de3642a2"},"vehicle_type_id":"4","last_reported":1751440310,"current_range_meters":20000,"station_id":"st_cvj6sg6p6f1abm77japg","pricing_plan_id":"cebpf4jnsgd1na2vs0mg"},{"bike_id":"84fe93f6-d5ae-40c7-b760-d82650982324","system_id":"levelo_inurba_marseille","lat":43.224573,"lon":5.347009,"is_reserved":false,"is_disabled":false,"rental_uris":{"android":"levelo://app?vid=84fe93f6-d5ae-40c7-b760-d82650982324","ios":"levelo://app?vid=84fe93f6-d5ae-40c7-b760-d82650982324"},"vehicle_type_id":"4","last_reported":1751440310,"current_range_meters":20000,"station_id":"st_cvj6sg6p6f1abm77japg","pricing_plan_id":"cebpf4jnsgd1na2vs0mg"},{"bike_id":"b7c4f4e7-ddbb-4243-982d-1ca4f75e59a6","system_id":"levelo_inurba_marseille","lat":43.32257,"lon":5.36786,"is_reserved":false,"is_disabled":false,"rental_uris":{"android":"levelo://app?vid=b7c4f4e7-ddbb-4243-982d-1ca4f75e59a6","ios":"levelo://app?vid=b7c4f4e7-ddbb-4243-982d-1ca4f75e59a6"},"vehicle_type_id":"4","last_reported":1751440310,"current_range_meters":20400,"station_id":"","pricing_plan_id":"cebpf4jnsgd1na2vs0mg"},{"bike_id":"b2325bea-9a74-459a-a713-509c2ba84f3e","system_id":"levelo_inurba_marseille","lat":43.283186,"lon":5.412879,"is_reserved":false,"is_disabled":false,"rental_uris":{"android":"levelo://app?vid=b2325bea-9a74-459a-a713-509c2ba84f3e","ios":"levelo://app?vid=b2325bea-9a74-459a-a713-509c2ba84f3e"},"vehicle_type_id":"4","last_reported":1751440310,"current_range_meters":20400,"station_id":"","pricing_plan_id":"cebpf4jnsgd1na2vs0mg"},{"bike_id":"b33afe91-554d-4de9-93ab-c071dd6f25e3","system_id":"levelo_inurba_marseille","lat":43.30422,"lon":5.378543,"is_reserved":false,"is_disabled":false,"rental_uris":{"android":"levelo://app?vid=b33afe91-554d-4de9-93ab-c071dd6f25e3","ios":"levelo://app?vid=b33afe91-554d-4de9-93ab-c071dd6f25e3"},"vehicle_type_id":"4","last_reported":1751440310,"current_range_meters":20400,"station_id":"","pricing_plan_id":"cebpf4jnsgd1na2vs0mg"},{"bike_id":"aaae32df-99f5-43e3-813f-c870b5943dc8","system_id":"levelo_inurba_marseille","lat":43.30543,"lon":5.36539,"is_reserved":false,"is_disabled":false,"rental_uris":{"android":"levelo://app?vid=aaae32df-99f5-43e3-813f-c870b5943dc8","ios":"levelo://app?vid=aaae32df-99f5-43e3-813f-c870b5943dc8"},"vehicle_type_id":"4","last_reported":1751440310,"current_range_meters":20400,"station_id":"ce4bgs12rcd13ifvqcag","pricing_plan_id":"cebpf4jnsgd1na2vs0mg"},{"bike_id":"40132e43-42e8-441a-89ec-7aa856995191","system_id":"levelo_inurba_marseille","lat":43.28973,"lon":5.37833,"is_reserved":false,"is_disabled":false,"rental_uris":{"android":"levelo://app?vid=40132e43-42e8-441a-89ec-7aa856995191","ios":"levelo://app?vid=40132e43-42e8-441a-89ec-7aa856995191"},"vehicle_type_id":"4","last_reported":1751440310,"current_range_meters":20400,"station_id":"ce4bh9p2rcd13ifvqed0","pricing_plan_id":"cebpf4jnsgd1na2vs0mg"},{"bike_id":"515ec3ca-f5c6-46fa-a700-b09851f49068","system_id":"levelo_inurba_marseille","lat":43.21195,"lon":5.35078,"is_reserved":false,"is_disabled":false,"rental_uris":{"android":"levelo://app?vid=515ec3ca-f5c6-46fa-a700-b09851f49068","ios":"levelo://app?vid=515ec3ca-f5c6-46fa-a700-b09851f49068"},"vehicle_type_id":"4","last_reported":1751440310,"current_range_meters":20400,"station_id":"st_cvj6sg6p6f1abm77japg","pricing_plan_id":"cebpf4jnsgd1na2vs0mg"},{"bike_id":"79a3aeb2-a2b2-4cad-9b86-ba6ca4824427","system_id":"levelo_inurba_marseille","lat":43.3015,"lon":5.38106,"is_reserved":false,"is_disabled":false,"rental_uris":{"android":"levelo://app?vid=79a3aeb2-a2b2-4cad-9b86-ba6ca4824427","ios":"levelo://app?vid=79a3aeb2-a2b2-4cad-9b86-ba6ca4824427"},"vehicle_type_id":"4","last_reported":1751440310,"current_range_meters":20800,"station_id":"ce4bgjp2rcd13ifvqbh0","pricing_plan_id":"cebpf4jnsgd1na2vs0mg"},{"bike_id":"2c7bb3c6-a47d-4d9a-acbe-a4eb483d1069","system_id":"levelo_inurba_marseille","lat":43.30905,"lon":5.36842,"is_reserved":false,"is_disabled":false,"rental_uris":{"android":"levelo://app?vid=2c7bb3c6-a47d-4d9a-acbe-a4eb483d1069","ios":"levelo://app?vid=2c7bb3c6-a47d-4d9a-acbe-a4eb483d1069"},"vehicle_type_id":"4","last_reported":1751440310,"current_range_meters":20800,"station_id":"ce4bgn92rcd13ifvqbvg","pricing_plan_id":"cebpf4jnsgd1na2vs0mg"},{"bike_id":"48a8b866-9a64-4b58-8b3a-d988de0d4af0","system_id":"levelo_inurba_marseille","lat":43.24167,"lon":5.36436,"is_reserved":false,"is_disabled":false,"rental_uris":{"android":"levelo://app?vid=48a8b866-9a64-4b58-8b3a-d988de0d4af0","ios":"levelo://app?vid=48a8b866-9a64-4b58-8b3a-d988de0d4af0"},"vehicle_type_id":"4","last_reported":1751440310,"current_range_meters":20800,"station_id":"cpo36qri1sfpv3e86is0","pricing_plan_id":"cebpf4jnsgd1na2vs0mg"},{"bike_id":"37b84a38-055a-4a6e-a56a-8ff3d0c1b2ec","system_id":"levelo_inurba_marseille","lat":43.21196,"lon":5.35081,"is_reserved":false,"is_disabled":false,"rental_uris":{"android":"levelo://app?vid=37b84a38-055a-4a6e-a56a-8ff3d0c1b2ec","ios":"levelo://app?vid=37b84a38-055a-4a6e-a56a-8ff3d0c1b2ec"},"vehicle_type_id":"4","last_reported":1751440310,"current_range_meters":20800,"station_id":"st_cvj6sg6p6f1abm77japg","pricing_plan_id":"cebpf4jnsgd1na2vs0mg"},{"bike_id":"b09b6811-b9c9-42fc-8543-505981941909","system_id":"levelo_inurba_marseille","lat":43.29622,"lon":5.37153,"is_reserved":false,"is_disabled":false,"rental_uris":{"android":"levelo://app?vid=b09b6811-b9c9-42fc-8543-505981941909","ios":"levelo://app?vid=b09b6811-b9c9-42fc-8543-505981941909"},"vehicle_type_id":"4","last_reported":1751440310,"current_range_meters":21600,"station_id":"ce4bgnh2rcd13ifvqc0g","pricing_plan_id":"cebpf4jnsgd1na2vs0mg"},{"bike_id":"e18e94ab-0f57-4709-a8e0-594be1c2822b","system_id":"levelo_inurba_marseille","lat":43.31368,"lon":5.36708,"is_reserved":false,"is_disabled":false,"rental_uris":{"android":"levelo://app?vid=e18e94ab-0f57-4709-a8e0-594be1c2822b","ios":"levelo://app?vid=e18e94ab-0f57-4709-a8e0-594be1c2822b"},"vehicle_type_id":"4","last_reported":1751440310,"current_range_meters":21600,"station_id":"ce4bgr92rcd13ifvqc6g","pricing_plan_id":"cebpf4jnsgd1na2vs0mg"},{"bike_id":"0d90bd42-80f6-481f-b1de-91270327c5d3","system_id":"levelo_inurba_marseille","lat":43.31338,"lon":5.36711,"is_reserved":false,"is_disabled":false,"rental_uris":{"android":"levelo://app?vid=0d90bd42-80f6-481f-b1de-91270327c5d3","ios":"levelo://app?vid=0d90bd42-80f6-481f-b1de-91270327c5d3"},"vehicle_type_id":"4","last_reported":1751440310,"current_range_meters":21600,"station_id":"ce4bgr92rcd13ifvqc6g","pricing_plan_id":"cebpf4jnsgd1na2vs0mg"},{"bike_id":"1e906e16-ccd1-4c63-8f5a-74e622a4658c","system_id":"levelo_inurba_marseille","lat":43.33718,"lon":5.39187,"is_reserved":false,"is_disabled":false,"rental_uris":{"android":"levelo://app?vid=1e906e16-ccd1-4c63-8f5a-74e622a4658c","ios":"levelo://app?vid=1e906e16-ccd1-4c63-8f5a-74e622a4658c"},"vehicle_type_id":"4","last_reported":1751440310,"current_range_meters":21600,"station_id":"ce4bhr92rcd13ifvqhsg","pricing_plan_id":"cebpf4jnsgd1na2vs0mg"},{"bike_id":"d23b80f5-f82b-4fc7-b1db-4261c9e8ee00","system_id":"levelo_inurba_marseille","lat":43.32475,"lon":5.36569,"is_reserved":false,"is_disabled":false,"rental_uris":{"android":"levelo://app?vid=d23b80f5-f82b-4fc7-b1db-4261c9e8ee00","ios":"levelo://app?vid=d23b80f5-f82b-4fc7-b1db-4261c9e8ee00"},"vehicle_type_id":"4","last_reported":1751440310,"current_range_meters":21600,"station_id":"ce4bhs12rcd13ifvqhvg","pricing_plan_id":"cebpf4jnsgd1na2vs0mg"},{"bike_id":"2d7ab8c9-ccb6-4168-91f8-ffbbd54cc09d","system_id":"levelo_inurba_marseille","lat":43.297463,"lon":5.369764,"is_reserved":false,"is_disabled":false,"rental_uris":{"android":"levelo://app?vid=2d7ab8c9-ccb6-4168-91f8-ffbbd54cc09d","ios":"levelo://app?vid=2d7ab8c9-ccb6-4168-91f8-ffbbd54cc09d"},"vehicle_type_id":"4","last_reported":1751440310,"current_range_meters":22000,"station_id":"","pricing_plan_id":"cebpf4jnsgd1na2vs0mg"},{"bike_id":"879367be-d1fe-4d9b-9652-4d4a7987e13f","system_id":"levelo_inurba_marseille","lat":43.30918,"lon":5.36854,"is_reserved":false,"is_disabled":false,"rental_uris":{"android":"levelo://app?vid=879367be-d1fe-4d9b-9652-4d4a7987e13f","ios":"levelo://app?vid=879367be-d1fe-4d9b-9652-4d4a7987e13f"},"vehicle_type_id":"4","last_reported":1751440310,"current_range_meters":22000,"station_id":"ce4bgn92rcd13ifvqbvg","pricing_plan_id":"cebpf4jnsgd1na2vs0mg"},{"bike_id":"4d4995e7-0bba-4ac2-a238-afd84a5e99b5","system_id":"levelo_inurba_marseille","lat":43.304848,"lon":5.398345,"is_reserved":false,"is_disabled":false,"rental_uris":{"android":"levelo://app?vid=4d4995e7-0bba-4ac2-a238-afd84a5e99b5","ios":"levelo://app?vid=4d4995e7-0bba-4ac2-a238-afd84a5e99b5"},"vehicle_type_id":"4","last_reported":1751440310,"current_range_meters":22400,"station_id":"","pricing_plan_id":"cebpf4jnsgd1na2vs0mg"},{"bike_id":"50bb0fdb-2cc1-4d8d-af26-b7febba54985","system_id":"levelo_inurba_marseille","lat":43.274139,"lon":5.39007,"is_reserved":false,"is_disabled":false,"rental_uris":{"android":"levelo://app?vid=50bb0fdb-2cc1-4d8d-af26-b7febba54985","ios":"levelo://app?vid=50bb0fdb-2cc1-4d8d-af26-b7febba54985"},"vehicle_type_id":"4","last_reported":1751440310,"current_range_meters":22400,"station_id":"","pricing_plan_id":"cebpf4jnsgd1na2vs0mg"},{"bike_id":"c8a46510-4a11-4eaa-b75b-3607284dafdc","system_id":"levelo_inurba_marseille","lat":43.308971,"lon":5.368319,"is_reserved":false,"is_disabled":false,"rental_uris":{"android":"levelo://app?vid=c8a46510-4a11-4eaa-b75b-3607284dafdc","ios":"levelo://app?vid=c8a46510-4a11-4eaa-b75b-3607284dafdc"},"vehicle_type_id":"4","last_reported":1751440310,"current_range_meters":22400,"station_id":"ce4bgn92rcd13ifvqbvg","pricing_plan_id":"cebpf4jnsgd1na2vs0mg"},{"bike_id":"26e1cd53-ce80-4f26-8f93-18bdcecac2a5","system_id":"levelo_inurba_marseille","lat":43.305405,"lon":5.365495,"is_reserved":false,"is_disabled":false,"rental_uris":{"android":"levelo://app?vid=26e1cd53-ce80-4f26-8f93-18bdcecac2a5","ios":"levelo://app?vid=26e1cd53-ce80-4f26-8f93-18bdcecac2a5"},"vehicle_type_id":"4","last_reported":1751440310,"current_range_meters":22400,"station_id":"ce4bgs12rcd13ifvqcag","pricing_plan_id":"cebpf4jnsgd1na2vs0mg"},{"bike_id":"f284169f-db85-435b-9697-6a04579909a2","system_id":"levelo_inurba_marseille","lat":43.29036,"lon":5.3997,"is_reserved":false,"is_disabled":false,"rental_uris":{"android":"levelo://app?vid=f284169f-db85-435b-9697-6a04579909a2","ios":"levelo://app?vid=f284169f-db85-435b-9697-6a04579909a2"},"vehicle_type_id":"4","last_reported":1751440310,"current_range_meters":22400,"station_id":"ce4bh392rcd13ifvqdm0","pricing_plan_id":"cebpf4jnsgd1na2vs0mg"},{"bike_id":"02e0325b-4923-4994-92cd-cc109d4590ac","system_id":"levelo_inurba_marseille","lat":43.24183,"lon":5.3973,"is_reserved":false,"is_disabled":false,"rental_uris":{"android":"levelo://app?vid=02e0325b-4923-4994-92cd-cc109d4590ac","ios":"levelo://app?vid=02e0325b-4923-4994-92cd-cc109d4590ac"},"vehicle_type_id":"4","last_reported":1751440310,"current_range_meters":22400,"station_id":"ce4bhn12rcd13ifvqgpg","pricing_plan_id":"cebpf4jnsgd1na2vs0mg"},{"bike_id":"592be7a5-5037-4e4a-b75c-ffe83ae0992e","system_id":"levelo_inurba_marseille","lat":43.31333,"lon":5.36724,"is_reserved":false,"is_disabled":false,"rental_uris":{"android":"levelo://app?vid=592be7a5-5037-4e4a-b75c-ffe83ae0992e","ios":"levelo://app?vid=592be7a5-5037-4e4a-b75c-ffe83ae0992e"},"vehicle_type_id":"4","last_reported":1751440310,"current_range_meters":22800,"station_id":"ce4bgr92rcd13ifvqc6g","pricing_plan_id":"cebpf4jnsgd1na2vs0mg"},{"bike_id":"37e221f2-e062-4e7b-aaa4-6a9751a3f49f","system_id":"levelo_inurba_marseille","lat":43.3054,"lon":5.36532,"is_reserved":false,"is_disabled":false,"rental_uris":{"android":"levelo://app?vid=37e221f2-e062-4e7b-aaa4-6a9751a3f49f","ios":"levelo://app?vid=37e221f2-e062-4e7b-aaa4-6a9751a3f49f"},"vehicle_type_id":"4","last_reported":1751440310,"current_range_meters":22800,"station_id":"ce4bgs12rcd13ifvqcag","pricing_plan_id":"cebpf4jnsgd1na2vs0mg"},{"bike_id":"0a5722fe-c4ed-40a0-b5e2-51d1add23a84","system_id":"levelo_inurba_marseille","lat":43.31064,"lon":5.38334,"is_reserved":false,"is_disabled":false,"rental_uris":{"android":"levelo://app?vid=0a5722fe-c4ed-40a0-b5e2-51d1add23a84","ios":"levelo://app?vid=0a5722fe-c4ed-40a0-b5e2-51d1add23a84"},"vehicle_type_id":"4","last_reported":1751440310,"current_range_meters":22800,"station_id":"ce4bgv92rcd13ifvqcr0","pricing_plan_id":"cebpf4jnsgd1na2vs0mg"},{"bike_id":"c83cdff9-0942-489f-8778-d902264436d0","system_id":"levelo_inurba_marseille","lat":43.301529,"lon":5.380867,"is_reserved":false,"is_disabled":false,"rental_uris":{"android":"levelo://app?vid=c83cdff9-0942-489f-8778-d902264436d0","ios":"levelo://app?vid=c83cdff9-0942-489f-8778-d902264436d0"},"vehicle_type_id":"4","last_reported":1751440310,"current_range_meters":23200,"station_id":"ce4bgjp2rcd13ifvqbh0","pricing_plan_id":"cebpf4jnsgd1na2vs0mg"},{"bike_id":"d3e5df8b-4b67-4af6-800a-9d27b16d9d24","system_id":"levelo_inurba_marseille","lat":43.31336,"lon":5.36717,"is_reserved":false,"is_disabled":false,"rental_uris":{"android":"levelo://app?vid=d3e5df8b-4b67-4af6-800a-9d27b16d9d24","ios":"levelo://app?vid=d3e5df8b-4b67-4af6-800a-9d27b16d9d24"},"vehicle_type_id":"4","last_reported":1751440310,"current_range_meters":23200,"station_id":"ce4bgr92rcd13ifvqc6g","pricing_plan_id":"cebpf4jnsgd1na2vs0mg"},{"bike_id":"cb89a847-dc46-4d57-acd3-312757d6a57f","system_id":"levelo_inurba_marseille","lat":43.26686,"lon":5.38275,"is_reserved":false,"is_disabled":false,"rental_uris":{"android":"levelo://app?vid=cb89a847-dc46-4d57-acd3-312757d6a57f","ios":"levelo://app?vid=cb89a847-dc46-4d57-acd3-312757d6a57f"},"vehicle_type_id":"4","last_reported":1751440310,"current_range_meters":23200,"station_id":"ce4bhg92rcd13ifvqf90","pricing_plan_id":"cebpf4jnsgd1na2vs0mg"},{"bike_id":"56728ab6-0958-4242-90c4-03845a0c2614","system_id":"levelo_inurba_marseille","lat":43.26785,"lon":5.39415,"is_reserved":false,"is_disabled":false,"rental_uris":{"android":"levelo://app?vid=56728ab6-0958-4242-90c4-03845a0c2614","ios":"levelo://app?vid=56728ab6-0958-4242-90c4-03845a0c2614"},"vehicle_type_id":"4","last_reported":1751440310,"current_range_meters":23200,"station_id":"ce4bhh12rcd13ifvqfg0","pricing_plan_id":"cebpf4jnsgd1na2vs0mg"},{"bike_id":"bed3e8a6-b151-4512-8ecd-b49dd3969a2c","system_id":"levelo_inurba_marseille","lat":43.3211,"lon":5.36778,"is_reserved":false,"is_disabled":false,"rental_uris":{"android":"levelo://app?vid=bed3e8a6-b151-4512-8ecd-b49dd3969a2c","ios":"levelo://app?vid=bed3e8a6-b151-4512-8ecd-b49dd3969a2c"},"vehicle_type_id":"4","last_reported":1751440310,"current_range_meters":23200,"station_id":"ce4bhrh2rcd13ifvqhug","pricing_plan_id":"cebpf4jnsgd1na2vs0mg"},{"bike_id":"17ac7197-6b46-4ef2-9d3c-c6f266d9cca1","system_id":"levelo_inurba_marseille","lat":43.29084,"lon":5.39893,"is_reserved":false,"is_disabled":false,"rental_uris":{"android":"levelo://app?vid=17ac7197-6b46-4ef2-9d3c-c6f266d9cca1","ios":"levelo://app?vid=17ac7197-6b46-4ef2-9d3c-c6f266d9cca1"},"vehicle_type_id":"4","last_reported":1751440310,"current_range_meters":24000,"station_id":"","pricing_plan_id":"cebpf4jnsgd1na2vs0mg"},{"bike_id":"1c8ab180-05fd-405f-9922-b2b2c2d5142f","system_id":"levelo_inurba_marseille","lat":43.33806,"lon":5.38099,"is_reserved":false,"is_disabled":false,"rental_uris":{"android":"levelo://app?vid=1c8ab180-05fd-405f-9922-b2b2c2d5142f","ios":"levelo://app?vid=1c8ab180-05fd-405f-9922-b2b2c2d5142f"},"vehicle_type_id":"4","last_reported":1751440310,"current_range_meters":24000,"station_id":"","pricing_plan_id":"cebpf4jnsgd1na2vs0mg"},{"bike_id":"0a3dfcb1-1042-49e8-989a-145199f2ad51","system_id":"levelo_inurba_marseille","lat":43.30534,"lon":5.36711,"is_reserved":false,"is_disabled":false,"rental_uris":{"android":"levelo://app?vid=0a3dfcb1-1042-49e8-989a-145199f2ad51","ios":"levelo://app?vid=0a3dfcb1-1042-49e8-989a-145199f2ad51"},"vehicle_type_id":"4","last_reported":1751440310,"current_range_meters":24000,"station_id":"ce4bgrp2rcd13ifvqc9g","pricing_plan_id":"cebpf4jnsgd1na2vs0mg"},{"bike_id":"0404a6a3-7d8c-4873-a814-2934ac0ec02e","system_id":"levelo_inurba_marseille","lat":43.3092,"lon":5.4015,"is_reserved":false,"is_disabled":false,"rental_uris":{"android":"levelo://app?vid=0404a6a3-7d8c-4873-a814-2934ac0ec02e","ios":"levelo://app?vid=0404a6a3-7d8c-4873-a814-2934ac0ec02e"},"vehicle_type_id":"4","last_reported":1751440310,"current_range_meters":24000,"station_id":"ce4bgvp2rcd13ifvqct0","pricing_plan_id":"cebpf4jnsgd1na2vs0mg"},{"bike_id":"178baff3-6691-4cdb-b8bb-aaa2c3e835ad","system_id":"levelo_inurba_marseille","lat":43.24383,"lon":5.3706,"is_reserved":false,"is_disabled":false,"rental_uris":{"android":"levelo://app?vid=178baff3-6691-4cdb-b8bb-aaa2c3e835ad","ios":"levelo://app?vid=178baff3-6691-4cdb-b8bb-aaa2c3e835ad"},"vehicle_type_id":"4","last_reported":1751440310,"current_range_meters":24000,"station_id":"ce4bhhh2rcd13ifvqfk0","pricing_plan_id":"cebpf4jnsgd1na2vs0mg"},{"bike_id":"24976bf2-1b37-4dfa-a4ce-25f3cdf556d1","system_id":"levelo_inurba_marseille","lat":43.32336,"lon":5.40613,"is_reserved":false,"is_disabled":false,"rental_uris":{"android":"levelo://app?vid=24976bf2-1b37-4dfa-a4ce-25f3cdf556d1","ios":"levelo://app?vid=24976bf2-1b37-4dfa-a4ce-25f3cdf556d1"},"vehicle_type_id":"4","last_reported":1751440310,"current_range_meters":24000,"station_id":"ce4bhq92rcd13ifvqhjg","pricing_plan_id":"cebpf4jnsgd1na2vs0mg"},{"bike_id":"cc04118e-9312-4bf8-9106-d64e829afbaa","system_id":"levelo_inurba_marseille","lat":43.212,"lon":5.35057,"is_reserved":false,"is_disabled":false,"rental_uris":{"android":"levelo://app?vid=cc04118e-9312-4bf8-9106-d64e829afbaa","ios":"levelo://app?vid=cc04118e-9312-4bf8-9106-d64e829afbaa"},"vehicle_type_id":"4","last_reported":1751440310,"current_range_meters":24000,"station_id":"st_cvj6sg6p6f1abm77japg","pricing_plan_id":"cebpf4jnsgd1na2vs0mg"},{"bike_id":"4d5f7c70-3d92-4fe8-a7f4-225fda9e33ca","system_id":"levelo_inurba_marseille","lat":43.30911,"lon":5.36853,"is_reserved":false,"is_disabled":false,"rental_uris":{"android":"levelo://app?vid=4d5f7c70-3d92-4fe8-a7f4-225fda9e33ca","ios":"levelo://app?vid=4d5f7c70-3d92-4fe8-a7f4-225fda9e33ca"},"vehicle_type_id":"4","last_reported":1751440310,"current_range_meters":24400,"station_id":"ce4bgn92rcd13ifvqbvg","pricing_plan_id":"cebpf4jnsgd1na2vs0mg"},{"bike_id":"7af9f78b-8216-43ee-a369-4a24baea425e","system_id":"levelo_inurba_marseille","lat":43.31339,"lon":5.36715,"is_reserved":false,"is_disabled":false,"rental_uris":{"android":"levelo://app?vid=7af9f78b-8216-43ee-a369-4a24baea425e","ios":"levelo://app?vid=7af9f78b-8216-43ee-a369-4a24baea425e"},"vehicle_type_id":"4","last_reported":1751440310,"current_range_meters":24400,"station_id":"ce4bgr92rcd13ifvqc6g","pricing_plan_id":"cebpf4jnsgd1na2vs0mg"},{"bike_id":"bf3a7ea3-39df-418d-9fc6-ab3d5bc1a92b","system_id":"levelo_inurba_marseille","lat":43.2574,"lon":5.41099,"is_reserved":false,"is_disabled":false,"rental_uris":{"android":"levelo://app?vid=bf3a7ea3-39df-418d-9fc6-ab3d5bc1a92b","ios":"levelo://app?vid=bf3a7ea3-39df-418d-9fc6-ab3d5bc1a92b"},"vehicle_type_id":"4","last_reported":1751440310,"current_range_meters":24400,"station_id":"ce4bhkp2rcd13ifvqgd0","pricing_plan_id":"cebpf4jnsgd1na2vs0mg"},{"bike_id":"e1e7c15b-5724-49e7-b0fb-d736d8c51249","system_id":"levelo_inurba_marseille","lat":43.24176,"lon":5.39718,"is_reserved":false,"is_disabled":false,"rental_uris":{"android":"levelo://app?vid=e1e7c15b-5724-49e7-b0fb-d736d8c51249","ios":"levelo://app?vid=e1e7c15b-5724-49e7-b0fb-d736d8c51249"},"vehicle_type_id":"4","last_reported":1751440310,"current_range_meters":24400,"station_id":"ce4bhn12rcd13ifvqgpg","pricing_plan_id":"cebpf4jnsgd1na2vs0mg"},{"bike_id":"eeb9e60b-5385-4f47-81ca-632b8a7a79bb","system_id":"levelo_inurba_marseille","lat":43.280822,"lon":5.396612,"is_reserved":false,"is_disabled":false,"rental_uris":{"android":"levelo://app?vid=eeb9e60b-5385-4f47-81ca-632b8a7a79bb","ios":"levelo://app?vid=eeb9e60b-5385-4f47-81ca-632b8a7a79bb"},"vehicle_type_id":"4","last_reported":1751440310,"current_range_meters":24400,"station_id":"ce4bho12rcd13ifvqh2g","pricing_plan_id":"cebpf4jnsgd1na2vs0mg"},{"bike_id":"03e33685-5670-4bca-9374-d969bc91eba3","system_id":"levelo_inurba_marseille","lat":43.233417,"lon":5.357891,"is_reserved":false,"is_disabled":false,"rental_uris":{"android":"levelo://app?vid=03e33685-5670-4bca-9374-d969bc91eba3","ios":"levelo://app?vid=03e33685-5670-4bca-9374-d969bc91eba3"},"vehicle_type_id":"4","last_reported":1751440310,"current_range_meters":24400,"station_id":"ce4bhu92rcd13ifvqi70","pricing_plan_id":"cebpf4jnsgd1na2vs0mg"},{"bike_id":"5f1e5526-9ff8-4075-8194-48a897f058b4","system_id":"levelo_inurba_marseille","lat":43.211952,"lon":5.350681,"is_reserved":false,"is_disabled":false,"rental_uris":{"android":"levelo://app?vid=5f1e5526-9ff8-4075-8194-48a897f058b4","ios":"levelo://app?vid=5f1e5526-9ff8-4075-8194-48a897f058b4"},"vehicle_type_id":"4","last_reported":1751440310,"current_range_meters":24400,"station_id":"st_cvj6sg6p6f1abm77japg","pricing_plan_id":"cebpf4jnsgd1na2vs0mg"},{"bike_id":"8dcbd70c-d9da-48c4-b21d-3510ccca8727","system_id":"levelo_inurba_marseille","lat":43.313507,"lon":5.368244,"is_reserved":false,"is_disabled":false,"rental_uris":{"android":"levelo://app?vid=8dcbd70c-d9da-48c4-b21d-3510ccca8727","ios":"levelo://app?vid=8dcbd70c-d9da-48c4-b21d-3510ccca8727"},"vehicle_type_id":"4","last_reported":1751440310,"current_range_meters":24800,"station_id":"ce4bgr92rcd13ifvqc6g","pricing_plan_id":"cebpf4jnsgd1na2vs0mg"},{"bike_id":"ec0b546d-573b-4fe6-8634-9ac5618ccfce","system_id":"levelo_inurba_marseille","lat":43.25941,"lon":5.40894,"is_reserved":false,"is_disabled":false,"rental_uris":{"android":"levelo://app?vid=ec0b546d-573b-4fe6-8634-9ac5618ccfce","ios":"levelo://app?vid=ec0b546d-573b-4fe6-8634-9ac5618ccfce"},"vehicle_type_id":"4","last_reported":1751440310,"current_range_meters":24800,"station_id":"ce4bhm92rcd13ifvqglg","pricing_plan_id":"cebpf4jnsgd1na2vs0mg"},{"bike_id":"39c00b4c-2f71-467a-88de-7c69527e7556","system_id":"levelo_inurba_marseille","lat":43.27813,"lon":5.40721,"is_reserved":false,"is_disabled":false,"rental_uris":{"android":"levelo://app?vid=39c00b4c-2f71-467a-88de-7c69527e7556","ios":"levelo://app?vid=39c00b4c-2f71-467a-88de-7c69527e7556"},"vehicle_type_id":"4","last_reported":1751440310,"current_range_meters":24800,"station_id":"ce4bhnh2rcd13ifvqgtg","pricing_plan_id":"cebpf4jnsgd1na2vs0mg"},{"bike_id":"5b482134-0927-4a66-a62a-aaac84345e78","system_id":"levelo_inurba_marseille","lat":43.240967,"lon":5.378342,"is_reserved":false,"is_disabled":false,"rental_uris":{"android":"levelo://app?vid=5b482134-0927-4a66-a62a-aaac84345e78","ios":"levelo://app?vid=5b482134-0927-4a66-a62a-aaac84345e78"},"vehicle_type_id":"4","last_reported":1751440310,"current_range_meters":24800,"station_id":"ce4bhnp2rcd13ifvqgvg","pricing_plan_id":"cebpf4jnsgd1na2vs0mg"},{"bike_id":"57c172e0-a10c-46e0-8c4e-eba1bc70ecb6","system_id":"levelo_inurba_marseille","lat":43.32478,"lon":5.36561,"is_reserved":false,"is_disabled":false,"rental_uris":{"android":"levelo://app?vid=57c172e0-a10c-46e0-8c4e-eba1bc70ecb6","ios":"levelo://app?vid=57c172e0-a10c-46e0-8c4e-eba1bc70ecb6"},"vehicle_type_id":"4","last_reported":1751440310,"current_range_meters":24800,"station_id":"ce4bhs12rcd13ifvqhvg","pricing_plan_id":"cebpf4jnsgd1na2vs0mg"},{"bike_id":"3eabe1e2-f9f5-41cb-a4ed-73ca7f909c5c","system_id":"levelo_inurba_marseille","lat":43.21185,"lon":5.35078,"is_reserved":false,"is_disabled":false,"rental_uris":{"android":"levelo://app?vid=3eabe1e2-f9f5-41cb-a4ed-73ca7f909c5c","ios":"levelo://app?vid=3eabe1e2-f9f5-41cb-a4ed-73ca7f909c5c"},"vehicle_type_id":"4","last_reported":1751440310,"current_range_meters":24800,"station_id":"st_cvj6sg6p6f1abm77japg","pricing_plan_id":"cebpf4jnsgd1na2vs0mg"},{"bike_id":"b13877a6-4825-4d82-b46b-67fa8ad66c5d","system_id":"levelo_inurba_marseille","lat":43.2122,"lon":5.35068,"is_reserved":false,"is_disabled":false,"rental_uris":{"android":"levelo://app?vid=b13877a6-4825-4d82-b46b-67fa8ad66c5d","ios":"levelo://app?vid=b13877a6-4825-4d82-b46b-67fa8ad66c5d"},"vehicle_type_id":"4","last_reported":1751440310,"current_range_meters":24800,"station_id":"st_cvj6sg6p6f1abm77japg","pricing_plan_id":"cebpf4jnsgd1na2vs0mg"},{"bike_id":"7712491c-e18b-4b09-bb79-30880b357c07","system_id":"levelo_inurba_marseille","lat":43.21198,"lon":5.35076,"is_reserved":false,"is_disabled":false,"rental_uris":{"android":"levelo://app?vid=7712491c-e18b-4b09-bb79-30880b357c07","ios":"levelo://app?vid=7712491c-e18b-4b09-bb79-30880b357c07"},"vehicle_type_id":"4","last_reported":1751440310,"current_range_meters":25200,"station_id":"","pricing_plan_id":"cebpf4jnsgd1na2vs0mg"},{"bike_id":"7e239bad-f48b-4a59-97f5-8a43debb506d","system_id":"levelo_inurba_marseille","lat":43.31344,"lon":5.36722,"is_reserved":false,"is_disabled":false,"rental_uris":{"android":"levelo://app?vid=7e239bad-f48b-4a59-97f5-8a43debb506d","ios":"levelo://app?vid=7e239bad-f48b-4a59-97f5-8a43debb506d"},"vehicle_type_id":"4","last_reported":1751440310,"current_range_meters":25200,"station_id":"ce4bgr92rcd13ifvqc6g","pricing_plan_id":"cebpf4jnsgd1na2vs0mg"},{"bike_id":"377263f6-48b0-4959-b1b2-2059206f1c6d","system_id":"levelo_inurba_marseille","lat":43.30949,"lon":5.3905,"is_reserved":false,"is_disabled":false,"rental_uris":{"android":"levelo://app?vid=377263f6-48b0-4959-b1b2-2059206f1c6d","ios":"levelo://app?vid=377263f6-48b0-4959-b1b2-2059206f1c6d"},"vehicle_type_id":"4","last_reported":1751440310,"current_range_meters":25200,"station_id":"ce4bgup2rcd13ifvqco0","pricing_plan_id":"cebpf4jnsgd1na2vs0mg"},{"bike_id":"ff258679-780d-487f-8cfc-baaa8ecea544","system_id":"levelo_inurba_marseille","lat":43.31326,"lon":5.39695,"is_reserved":false,"is_disabled":false,"rental_uris":{"android":"levelo://app?vid=ff258679-780d-487f-8cfc-baaa8ecea544","ios":"levelo://app?vid=ff258679-780d-487f-8cfc-baaa8ecea544"},"vehicle_type_id":"4","last_reported":1751440310,"current_range_meters":25200,"station_id":"ce4bgvp2rcd13ifvqcu0","pricing_plan_id":"cebpf4jnsgd1na2vs0mg"},{"bike_id":"da77a745-1c65-4d54-93f1-cf7c91061294","system_id":"levelo_inurba_marseille","lat":43.29044,"lon":5.39954,"is_reserved":false,"is_disabled":false,"rental_uris":{"android":"levelo://app?vid=da77a745-1c65-4d54-93f1-cf7c91061294","ios":"levelo://app?vid=da77a745-1c65-4d54-93f1-cf7c91061294"},"vehicle_type_id":"4","last_reported":1751440310,"current_range_meters":25200,"station_id":"ce4bh392rcd13ifvqdm0","pricing_plan_id":"cebpf4jnsgd1na2vs0mg"},{"bike_id":"d4aadeb7-e30c-441c-a3c0-32eb2405bfd7","system_id":"levelo_inurba_marseille","lat":43.290794,"lon":5.371578,"is_reserved":false,"is_disabled":false,"rental_uris":{"android":"levelo://app?vid=d4aadeb7-e30c-441c-a3c0-32eb2405bfd7","ios":"levelo://app?vid=d4aadeb7-e30c-441c-a3c0-32eb2405bfd7"},"vehicle_type_id":"4","last_reported":1751440310,"current_range_meters":25200,"station_id":"ce4bh5p2rcd13ifvqe4g","pricing_plan_id":"cebpf4jnsgd1na2vs0mg"},{"bike_id":"0c919d96-b700-41cd-b89e-dff4d5145008","system_id":"levelo_inurba_marseille","lat":43.27055,"lon":5.4026,"is_reserved":false,"is_disabled":false,"rental_uris":{"android":"levelo://app?vid=0c919d96-b700-41cd-b89e-dff4d5145008","ios":"levelo://app?vid=0c919d96-b700-41cd-b89e-dff4d5145008"},"vehicle_type_id":"4","last_reported":1751440310,"current_range_meters":25200,"station_id":"ce4bhk92rcd13ifvqgc0","pricing_plan_id":"cebpf4jnsgd1na2vs0mg"},{"bike_id":"f89c4b4e-8496-4009-a879-494292d7747b","system_id":"levelo_inurba_marseille","lat":43.245766,"lon":5.394776,"is_reserved":false,"is_disabled":false,"rental_uris":{"android":"levelo://app?vid=f89c4b4e-8496-4009-a879-494292d7747b","ios":"levelo://app?vid=f89c4b4e-8496-4009-a879-494292d7747b"},"vehicle_type_id":"4","last_reported":1751440310,"current_range_meters":25200,"station_id":"ce4bhlp2rcd13ifvqgjg","pricing_plan_id":"cebpf4jnsgd1na2vs0mg"},{"bike_id":"31fab6ac-cee8-4404-87e8-15e94cf1944e","system_id":"levelo_inurba_marseille","lat":43.24172,"lon":5.364,"is_reserved":false,"is_disabled":false,"rental_uris":{"android":"levelo://app?vid=31fab6ac-cee8-4404-87e8-15e94cf1944e","ios":"levelo://app?vid=31fab6ac-cee8-4404-87e8-15e94cf1944e"},"vehicle_type_id":"4","last_reported":1751440310,"current_range_meters":25200,"station_id":"cpo36qri1sfpv3e86is0","pricing_plan_id":"cebpf4jnsgd1na2vs0mg"},{"bike_id":"ba926bfc-9632-4680-b0ed-32a040d6fb83","system_id":"levelo_inurba_marseille","lat":43.2119,"lon":5.3508,"is_reserved":false,"is_disabled":false,"rental_uris":{"android":"levelo://app?vid=ba926bfc-9632-4680-b0ed-32a040d6fb83","ios":"levelo://app?vid=ba926bfc-9632-4680-b0ed-32a040d6fb83"},"vehicle_type_id":"4","last_reported":1751440310,"current_range_meters":25200,"station_id":"st_cvj6sg6p6f1abm77japg","pricing_plan_id":"cebpf4jnsgd1na2vs0mg"},{"bike_id":"76c312b0-317b-4406-acf8-e116aeeb337a","system_id":"levelo_inurba_marseille","lat":43.31225,"lon":5.36859,"is_reserved":false,"is_disabled":false,"rental_uris":{"android":"levelo://app?vid=76c312b0-317b-4406-acf8-e116aeeb337a","ios":"levelo://app?vid=76c312b0-317b-4406-acf8-e116aeeb337a"},"vehicle_type_id":"4","last_reported":1751440310,"current_range_meters":25600,"station_id":"ce4bgl92rcd13ifvqbq0","pricing_plan_id":"cebpf4jnsgd1na2vs0mg"},{"bike_id":"ce5d4f22-1174-4a1d-aaba-44bf500559f2","system_id":"levelo_inurba_marseille","lat":43.31496,"lon":5.37315,"is_reserved":false,"is_disabled":false,"rental_uris":{"android":"levelo://app?vid=ce5d4f22-1174-4a1d-aaba-44bf500559f2","ios":"levelo://app?vid=ce5d4f22-1174-4a1d-aaba-44bf500559f2"},"vehicle_type_id":"4","last_reported":1751440310,"current_range_meters":25600,"station_id":"ce4bgt12rcd13ifvqcd0","pricing_plan_id":"cebpf4jnsgd1na2vs0mg"},{"bike_id":"06aa78d9-9659-4a6e-9ddf-46dd722a9736","system_id":"levelo_inurba_marseille","lat":43.29414,"lon":5.38634,"is_reserved":false,"is_disabled":false,"rental_uris":{"android":"levelo://app?vid=06aa78d9-9659-4a6e-9ddf-46dd722a9736","ios":"levelo://app?vid=06aa78d9-9659-4a6e-9ddf-46dd722a9736"},"vehicle_type_id":"4","last_reported":1751440310,"current_range_meters":25600,"station_id":"ce4bh2h2rcd13ifvqdh0","pricing_plan_id":"cebpf4jnsgd1na2vs0mg"},