{"last_updated":1737565707,"ttl":60,"version":"2.2","data":{"bikes":[{"bike_id":"3c3ccabd-91d5-4e6f-80c3-770c5ae6e2d1","system_id":"levelo_inurba_marseille","lat":43.26568,"lon":5.39018,"is_reserved":false,"is_disabled":false,"rental_uris":{"android":"levelo://app?vid=3c3ccabd-91d5-4e6f-80c3-770c5ae6e2d1","ios":"levelo://app?vid=3c3ccabd-91d5-4e6f-80c3-770c5ae6e2d1"},"vehicle_type_id":"4","last_reported":1737565707,"current_range_meters":8000,"station_id":"ce4bhe12rcd13ifvqf30","pricing_plan_id":"cebpf4jnsgd1na2vs0mg"},{"bike_id":"bc87ebb9-79d8-48ae-98f1-73024abdc038","system_id":"levelo_inurba_marseille","lat":43.29223,"lon":5.3605,"is_reserved":false,"is_disabled":true,"rental_uris":{"android":"levelo://app?vid=bc87ebb9-79d8-48ae-98f1-73024abdc038","ios":"levelo://app?vid=bc87ebb9-79d8-48ae-98f1-73024abdc038"},"vehicle_type_id":"4","last_reported":1737565707,"current_range_meters":1200,"station_id":"ce4bhbh2rcd13ifvqeqg","pricing_plan_id":"cebpf4jnsgd1na2vs0mg"},{"bike_id":"5b0a91b8-fa98-4cdc-88c1-8bdff24a02ca","system_id":"levelo_inurba_marseille","lat":43.29966,"lon":5.41318,"is_reserved":false,"is_disabled":false,"rental_uris":{"android":"levelo://app?vid=5b0a91b8-fa98-4cdc-88c1-8bdff24a02ca","ios":"levelo://app?vid=5b0a91b8-fa98-4cdc-88c1-8bdff24a02ca"},"vehicle_type_id":"4","last_reported":1737565707,"current_range_meters":38800,"station_id":"ce4bhp12rcd13ifvqh9g","pricing_plan_id":"cebpf4jnsgd1na2vs0mg"},{"bike_id":"a4fa50ac-f498-48af-a472-624159680442","system_id":"levelo_inurba_marseille","lat":43.27371,"lon":5.36252,"is_reserved":false,"is_disabled":false,"rental_uris":{"android":"levelo://app?vid=a4fa50ac-f498-48af-a472-624159680442","ios":"levelo://app?vid=a4fa50ac-f498-48af-a472-624159680442"},"vehicle_type_id":"4","last_reported":1737565707,"current_range_meters":35600,"station_id":"ce4bhbh2rcd13ifvqeo0","pricing_plan_id":"cebpf4jnsgd1na2vs0mg"},{"bike_id":"ff060429-cc6d-4458-9900-0e68272bb722","system_id":"levelo_inurba_marseille","lat":43.29019,"lon":5.3864,"is_reserved":false,"is_disabled":false,"rental_uris":{"android":"levelo://app?vid=ff060429-cc6d-4458-9900-0e68272bb722","ios":"levelo://app?vid=ff060429-cc6d-4458-9900-0e68272bb722"},"vehicle_type_id":"4","last_reported":1737565707,"current_range_meters":13600,"station_id":"ce4bh4p2rcd13ifvqe0g","pricing_plan_id":"cebpf4jnsgd1na2vs0mg"},{"bike_id":"a972d5b6-0a76-4dce-b034-eedfeb75aeb2","system_id":"levelo_inurba_marseille","lat":43.28929,"lon":5.38397,"is_reserved":false,"is_disabled":false,"rental_uris":{"android":"levelo://app?vid=a972d5b6-0a76-4dce-b034-eedfeb75aeb2","ios":"levelo://app?vid=a972d5b6-0a76-4dce-b034-eedfeb75aeb2"},"vehicle_type_id":"4","last_reported":1737565707,"current_range_meters":34000,"station_id":"ce4bh612rcd13ifvqe6g","pricing_plan_id":"cebpf4jnsgd1na2vs0mg"},{"bike_id":"a1763a7c-1139-4e94-94ba-75f40470248a","system_id":"levelo_inurba_marseille","lat":43.30906,"lon":5.40166,"is_reserved":false,"is_disabled":false,"rental_uris":{"android":"levelo://app?vid=a1763a7c-1139-4e94-94ba-75f40470248a","ios":"levelo://app?vid=a1763a7c-1139-4e94-94ba-75f40470248a"},"vehicle_type_id":"4","last_reported":1737565707,"current_range_meters":38800,"station_id":"ce4bgvp2rcd13ifvqct0","pricing_plan_id":"cebpf4jnsgd1na2vs0mg"},{"bike_id":"1d112a4c-9e7e-41d8-8ffb-8c02b95439bd","system_id":"levelo_inurba_marseille","lat":43.28406,"lon":5.37532,"is_reserved":false,"is_disabled":false,"rental_uris":{"android":"levelo://app?vid=1d112a4c-9e7e-41d8-8ffb-8c02b95439bd","ios":"levelo://app?vid=1d112a4c-9e7e-41d8-8ffb-8c02b95439bd"},"vehicle_type_id":"4","last_reported":1737565707,"current_range_meters":37600,"station_id":"ce4bh412rcd13ifvqds0","pricing_plan_id":"cebpf4jnsgd1na2vs0mg"},{"bike_id":"31ae3073-1386-4275-978a-19018719abb2","system_id":"levelo_inurba_marseille","lat":43.29077,"lon":5.37153,"is_reserved":false,"is_disabled":false,"rental_uris":{"android":"levelo://app?vid=31ae3073-1386-4275-978a-19018719abb2","ios":"levelo://app?vid=31ae3073-1386-4275-978a-19018719abb2"},"vehicle_type_id":"4","last_reported":1737565707,"current_range_meters":38800,"station_id":"ce4bh5p2rcd13ifvqe4g","pricing_plan_id":"cebpf4jnsgd1na2vs0mg"},{"bike_id":"f80daf71-64ee-49e9-aa12-8ec2343a46ac","system_id":"levelo_inurba_marseille","lat":43.33023,"lon":5.39032,"is_reserved":false,"is_disabled":false,"rental_uris":{"android":"levelo://app?vid=f80daf71-64ee-49e9-aa12-8ec2343a46ac","ios":"levelo://app?vid=f80daf71-64ee-49e9-aa12-8ec2343a46ac"},"vehicle_type_id":"4","last_reported":1737565707,"current_range_meters":38800,"station_id":"ce4bhr92rcd13ifvqhrg","pricing_plan_id":"cebpf4jnsgd1na2vs0mg"},{"bike_id":"fae7bd23-62ad-47c0-b32e-0983912a4dc8","system_id":"levelo_inurba_marseille","lat":43.262,"lon":5.37931,"is_reserved":false,"is_disabled":false,"rental_uris":{"android":"levelo://app?vid=fae7bd23-62ad-47c0-b32e-0983912a4dc8","ios":"levelo://app?vid=fae7bd23-62ad-47c0-b32e-0983912a4dc8"},"vehicle_type_id":"4","last_reported":1737565707,"current_range_meters":38400,"station_id":"ce4bhjp2rcd13ifvqg90","pricing_plan_id":"cebpf4jnsgd1na2vs0mg"},{"bike_id":"2d89806f-db31-45f9-ab39-70b15ff8deae","system_id":"levelo_inurba_marseille","lat":43.29783,"lon":5.39359,"is_reserved":false,"is_disabled":false,"rental_uris":{"android":"levelo://app?vid=2d89806f-db31-45f9-ab39-70b15ff8deae","ios":"levelo://app?vid=2d89806f-db31-45f9-ab39-70b15ff8deae"},"vehicle_type_id":"4","last_reported":1737565707,"current_range_meters":38800,"station_id":"chh1huq6cuj3fo74tm60","pricing_plan_id":"cebpf4jnsgd1na2vs0mg"},{"bike_id":"9c071769-a041-4506-8df3-32107bf66832","system_id":"levelo_inurba_marseille","lat":43.23192,"lon":5.39987,"is_reserved":false,"is_disabled":false,"rental_uris":{"android":"levelo://app?vid=9c071769-a041-4506-8df3-32107bf66832","ios":"levelo://app?vid=9c071769-a041-4506-8df3-32107bf66832"},"vehicle_type_id":"4","last_reported":1737565707,"current_range_meters":12000,"station_id":"ce4bhn12rcd13ifvqgqg","pricing_plan_id":"cebpf4jnsgd1na2vs0mg"},{"bike_id":"69c96a4a-07e9-4b48-846f-6e107cf55d38","system_id":"levelo_inurba_marseille","lat":43.31474,"lon":5.37274,"is_reserved":false,"is_disabled":false,"rental_uris":{"android":"levelo://app?vid=69c96a4a-07e9-4b48-846f-6e107cf55d38","ios":"levelo://app?vid=69c96a4a-07e9-4b48-846f-6e107cf55d38"},"vehicle_type_id":"4","last_reported":1737565707,"current_range_meters":16400,"station_id":"ce4bgt12rcd13ifvqcd0","pricing_plan_id":"cebpf4jnsgd1na2vs0mg"},{"bike_id":"03029508-7ed2-4693-b735-f7deaf763344","system_id":"levelo_inurba_marseille","lat":43.255725,"lon":5.382378,"is_reserved":false,"is_disabled":false,"rental_uris":{"android":"levelo://app?vid=03029508-7ed2-4693-b735-f7deaf763344","ios":"levelo://app?vid=03029508-7ed2-4693-b735-f7deaf763344"},"vehicle_type_id":"4","last_reported":1737565707,"current_range_meters":21600,"station_id":"ce4bhih2rcd13ifvqfs0","pricing_plan_id":"cebpf4jnsgd1na2vs0mg"},{"bike_id":"201c8e51-d726-45d3-bc5e-74fe162ab769","system_id":"levelo_inurba_marseille","lat":43.31324,"lon":5.39693,"is_reserved":false,"is_disabled":false,"rental_uris":{"android":"levelo://app?vid=201c8e51-d726-45d3-bc5e-74fe162ab769","ios":"levelo://app?vid=201c8e51-d726-45d3-bc5e-74fe162ab769"},"vehicle_type_id":"4","last_reported":1737565707,"current_range_meters":13600,"station_id":"ce4bgvp2rcd13ifvqcu0","pricing_plan_id":"cebpf4jnsgd1na2vs0mg"},{"bike_id":"4920d6f6-8670-4936-b3f9-eca676954082","system_id":"levelo_inurba_marseille","lat":43.27993,"lon":5.40019,"is_reserved":false,"is_disabled":false,"rental_uris":{"android":"levelo://app?vid=4920d6f6-8670-4936-b3f9-eca676954082","ios":"levelo://app?vid=4920d6f6-8670-4936-b3f9-eca676954082"},"vehicle_type_id":"4","last_reported":1737565707,"current_range_meters":7200,"station_id":"ce4bho92rcd13ifvqh4g","pricing_plan_id":"cebpf4jnsgd1na2vs0mg"},{"bike_id":"cac15169-486f-43a5-9e95-33c702c4876b","system_id":"levelo_inurba_marseille","lat":43.30794,"lon":5.43532,"is_reserved":false,"is_disabled":false,"rental_uris":{"android":"levelo://app?vid=cac15169-486f-43a5-9e95-33c702c4876b","ios":"levelo://app?vid=cac15169-486f-43a5-9e95-33c702c4876b"},"vehicle_type_id":"4","last_reported":1737565707,"current_range_meters":38800,"station_id":"ce4bhph2rcd13ifvqheg","pricing_plan_id":"cebpf4jnsgd1na2vs0mg"},{"bike_id":"d3605b6c-5d73-4207-b045-1e2ecb211735","system_id":"levelo_inurba_marseille","lat":43.2847,"lon":5.38426,"is_reserved":false,"is_disabled":false,"rental_uris":{"android":"levelo://app?vid=d3605b6c-5d73-4207-b045-1e2ecb211735","ios":"levelo://app?vid=d3605b6c-5d73-4207-b045-1e2ecb211735"},"vehicle_type_id":"4","last_reported":1737565707,"current_range_meters":16400,"station_id":"ce4bh512rcd13ifvqe3g","pricing_plan_id":"cebpf4jnsgd1na2vs0mg"},{"bike_id":"83605aa5-7454-44b1-ad80-c4bd80921f2d","system_id":"levelo_inurba_marseille","lat":43.29031,"lon":5.37566,"is_reserved":false,"is_disabled":false,"rental_uris":{"android":"levelo://app?vid=83605aa5-7454-44b1-ad80-c4bd80921f2d","ios":"levelo://app?vid=83605aa5-7454-44b1-ad80-c4bd80921f2d"},"vehicle_type_id":"4","last_reported":1737565707,"current_range_meters":29600,"station_id":"ce4bh692rcd13ifvqe90","pricing_plan_id":"cebpf4jnsgd1na2vs0mg"},{"bike_id":"5a874f97-e53a-486b-bf03-022b93e71acd","system_id":"levelo_inurba_marseille","lat":43.25505,"lon":5.37644,"is_reserved":false,"is_disabled":false,"rental_uris":{"android":"levelo://app?vid=5a874f97-e53a-486b-bf03-022b93e71acd","ios":"levelo://app?vid=5a874f97-e53a-486b-bf03-022b93e71acd"},"vehicle_type_id":"4","last_reported":1737565707,"current_range_meters":26800,"station_id":"ce4bhh12rcd13ifvqff0","pricing_plan_id":"cebpf4jnsgd1na2vs0mg"},{"bike_id":"8046e182-c43a-4567-b1b0-c8a3e2ad7dc6","system_id":"levelo_inurba_marseille","lat":43.29587,"lon":5.39965,"is_reserved":false,"is_disabled":false,"rental_uris":{"android":"levelo://app?vid=8046e182-c43a-4567-b1b0-c8a3e2ad7dc6","ios":"levelo://app?vid=8046e182-c43a-4567-b1b0-c8a3e2ad7dc6"},"vehicle_type_id":"4","last_reported":1737565707,"current_range_meters":33200,"station_id":"ce4bh312rcd13ifvqdj0","pricing_plan_id":"cebpf4jnsgd1na2vs0mg"},{"bike_id":"1a7ae9b9-108c-498f-8bac-48904d23f7bc","system_id":"levelo_inurba_marseille","lat":43.28468,"lon":5.38422,"is_reserved":false,"is_disabled":true,"rental_uris":{"android":"levelo://app?vid=1a7ae9b9-108c-498f-8bac-48904d23f7bc","ios":"levelo://app?vid=1a7ae9b9-108c-498f-8bac-48904d23f7bc"},"vehicle_type_id":"4","last_reported":1737565707,"current_range_meters":37600,"station_id":"ce4bh512rcd13ifvqe3g","pricing_plan_id":"cebpf4jnsgd1na2vs0mg"},{"bike_id":"a6147b27-84e1-44d4-a89b-3e70b583724c","system_id":"levelo_inurba_marseille","lat":43.26576,"lon":5.39021,"is_reserved":false,"is_disabled":false,"rental_uris":{"android":"levelo://app?vid=a6147b27-84e1-44d4-a89b-3e70b583724c","ios":"levelo://app?vid=a6147b27-84e1-44d4-a89b-3e70b583724c"},"vehicle_type_id":"4","last_reported":1737565707,"current_range_meters":28800,"station_id":"ce4bhe12rcd13ifvqf30","pricing_plan_id":"cebpf4jnsgd1na2vs0mg"},{"bike_id":"4a1877ac-0eba-4d1d-a5b6-5c57a0d326b7","system_id":"levelo_inurba_marseille","lat":43.31082,"lon":5.42432,"is_reserved":false,"is_disabled":false,"rental_uris":{"android":"levelo://app?vid=4a1877ac-0eba-4d1d-a5b6-5c57a0d326b7","ios":"levelo://app?vid=4a1877ac-0eba-4d1d-a5b6-5c57a0d326b7"},"vehicle_type_id":"4","last_reported":1737565707,"current_range_meters":17200,"station_id":"ce4bhp92rcd13ifvqhag","pricing_plan_id":"cebpf4jnsgd1na2vs0mg"},{"bike_id":"1c5350bc-b85e-4a3a-a39b-e473b0f89be6","system_id":"levelo_inurba_marseille","lat":43.31761,"lon":5.39003,"is_reserved":false,"is_disabled":false,"rental_uris":{"android":"levelo://app?vid=1c5350bc-b85e-4a3a-a39b-e473b0f89be6","ios":"levelo://app?vid=1c5350bc-b85e-4a3a-a39b-e473b0f89be6"},"vehicle_type_id":"4","last_reported":1737565707,"current_range_meters":22800,"station_id":"ce4bhqp2rcd13ifvqhng","pricing_plan_id":"cebpf4jnsgd1na2vs0mg"},{"bike_id":"827ee07f-7f02-4079-af62-be5d001f5eac","system_id":"levelo_inurba_marseille","lat":43.296997,"lon":5.365933,"is_reserved":false,"is_disabled":false,"rental_uris":{"android":"levelo://app?vid=827ee07f-7f02-4079-af62-be5d001f5eac","ios":"levelo://app?vid=827ee07f-7f02-4079-af62-be5d001f5eac"},"vehicle_type_id":"4","last_reported":1737565707,"current_range_meters":36800,"station_id":"ce4bgn12rcd13ifvqbt0","pricing_plan_id":"cebpf4jnsgd1na2vs0mg"},{"bike_id":"f5e2031e-550f-42af-a94f-265b764c6478","system_id":"levelo_inurba_marseille","lat":43.2961,"lon":5.37162,"is_reserved":false,"is_disabled":false,"rental_uris":{"android":"levelo://app?vid=f5e2031e-550f-42af-a94f-265b764c6478","ios":"levelo://app?vid=f5e2031e-550f-42af-a94f-265b764c6478"},"vehicle_type_id":"4","last_reported":1737565707,"current_range_meters":19600,"station_id":"ce4bgnh2rcd13ifvqc0g","pricing_plan_id":"cebpf4jnsgd1na2vs0mg"},{"bike_id":"42ffd8be-59bd-4e3d-829a-b035d16c04f3","system_id":"levelo_inurba_marseille","lat":43.284013,"lon":5.374847,"is_reserved":false,"is_disabled":false,"rental_uris":{"android":"levelo://app?vid=42ffd8be-59bd-4e3d-829a-b035d16c04f3","ios":"levelo://app?vid=42ffd8be-59bd-4e3d-829a-b035d16c04f3"},"vehicle_type_id":"4","last_reported":1737565707,"current_range_meters":20800,"station_id":"ce4bh412rcd13ifvqds0","pricing_plan_id":"cebpf4jnsgd1na2vs0mg"},{"bike_id":"f4064b91-d50f-4faa-b80a-c4b38df2d08b","system_id":"levelo_inurba_marseille","lat":43.22936,"lon":5.35372,"is_reserved":false,"is_disabled":false,"rental_uris":{"android":"levelo://app?vid=f4064b91-d50f-4faa-b80a-c4b38df2d08b","ios":"levelo://app?vid=f4064b91-d50f-4faa-b80a-c4b38df2d08b"},"vehicle_type_id":"4","last_reported":1737565707,"current_range_meters":38800,"station_id":"cpo3532slgdg3j2ikp40","pricing_plan_id":"cebpf4jnsgd1na2vs0mg"},{"bike_id":"7275e7a8-a9a0-4d0f-af97-dcb3617ee1cc","system_id":"levelo_inurba_marseille","lat":43.29441,"lon":5.39732,"is_reserved":false,"is_disabled":false,"rental_uris":{"android":"levelo://app?vid=7275e7a8-a9a0-4d0f-af97-dcb3617ee1cc","ios":"levelo://app?vid=7275e7a8-a9a0-4d0f-af97-dcb3617ee1cc"},"vehicle_type_id":"4","last_reported":1737565707,"current_range_meters":20800,"station_id":"ce4bh3h2rcd13ifvqdo0","pricing_plan_id":"cebpf4jnsgd1na2vs0mg"},{"bike_id":"c608a355-799a-42b0-8df8-e6a61a956853","system_id":"levelo_inurba_marseille","lat":43.31724,"lon":5.42384,"is_reserved":false,"is_disabled":false,"rental_uris":{"android":"levelo://app?vid=c608a355-799a-42b0-8df8-e6a61a956853","ios":"levelo://app?vid=c608a355-799a-42b0-8df8-e6a61a956853"},"vehicle_type_id":"4","last_reported":1737565707,"current_range_meters":38800,"station_id":"ce4bhp92rcd13ifvqhbg","pricing_plan_id":"cebpf4jnsgd1na2vs0mg"},{"bike_id":"5e75dd30-ab3b-44d3-8dcb-cb5fd4a0eb65","system_id":"levelo_inurba_marseille","lat":43.246446,"lon":5.388866,"is_reserved":false,"is_disabled":false,"rental_uris":{"android":"levelo://app?vid=5e75dd30-ab3b-44d3-8dcb-cb5fd4a0eb65","ios":"levelo://app?vid=5e75dd30-ab3b-44d3-8dcb-cb5fd4a0eb65"},"vehicle_type_id":"4","last_reported":1737565707,"current_range_meters":38800,"station_id":"ce4bhg12rcd13ifvqf60","pricing_plan_id":"cebpf4jnsgd1na2vs0mg"},{"bike_id":"57ab3b82-4819-4045-842b-dfc1557d7602","system_id":"levelo_inurba_marseille","lat":43.2952,"lon":5.39044,"is_reserved":false,"is_disabled":false,"rental_uris":{"android":"levelo://app?vid=57ab3b82-4819-4045-842b-dfc1557d7602","ios":"levelo://app?vid=57ab3b82-4819-4045-842b-dfc1557d7602"},"vehicle_type_id":"4","last_reported":1737565707,"current_range_meters":38800,"station_id":"ce4bh3p2rcd13ifvqdp0","pricing_plan_id":"cebpf4jnsgd1na2vs0mg"},{"bike_id":"ca231ad9-da2a-4434-a1d6-2ea5a619c307","system_id":"levelo_inurba_marseille","lat":43.29218,"lon":5.36065,"is_reserved":false,"is_disabled":false,"rental_uris":{"android":"levelo://app?vid=ca231ad9-da2a-4434-a1d6-2ea5a619c307","ios":"levelo://app?vid=ca231ad9-da2a-4434-a1d6-2ea5a619c307"},"vehicle_type_id":"4","last_reported":1737565707,"current_range_meters":28400,"station_id":"ce4bhbh2rcd13ifvqeqg","pricing_plan_id":"cebpf4jnsgd1na2vs0mg"},{"bike_id":"65094a7f-b962-43c6-b0af-b51087b9f16f","system_id":"levelo_inurba_marseille","lat":43.28944,"lon":5.36642,"is_reserved":false,"is_disabled":false,"rental_uris":{"android":"levelo://app?vid=65094a7f-b962-43c6-b0af-b51087b9f16f","ios":"levelo://app?vid=65094a7f-b962-43c6-b0af-b51087b9f16f"},"vehicle_type_id":"4","last_reported":1737565707,"current_range_meters":33600,"station_id":"ce4bhap2rcd13ifvqek0","pricing_plan_id":"cebpf4jnsgd1na2vs0mg"},{"bike_id":"7f8bd4de-5bff-4276-aecd-3b4aa9e249f5","system_id":"levelo_inurba_marseille","lat":43.31759,"lon":5.39005,"is_reserved":false,"is_disabled":false,"rental_uris":{"android":"levelo://app?vid=7f8bd4de-5bff-4276-aecd-3b4aa9e249f5","ios":"levelo://app?vid=7f8bd4de-5bff-4276-aecd-3b4aa9e249f5"},"vehicle_type_id":"4","last_reported":1737565707,"current_range_meters":32000,"station_id":"ce4bhqp2rcd13ifvqhng","pricing_plan_id":"cebpf4jnsgd1na2vs0mg"},{"bike_id":"d793e0cd-95ed-4b3b-909d-776172b9e161","system_id":"levelo_inurba_marseille","lat":43.29571,"lon":5.39989,"is_reserved":false,"is_disabled":false,"rental_uris":{"android":"levelo://app?vid=d793e0cd-95ed-4b3b-909d-776172b9e161","ios":"levelo://app?vid=d793e0cd-95ed-4b3b-909d-776172b9e161"},"vehicle_type_id":"4","last_reported":1737565707,"current_range_meters":33200,"station_id":"ce4bh312rcd13ifvqdj0","pricing_plan_id":"cebpf4jnsgd1na2vs0mg"},{"bike_id":"0095f608-c8a3-464a-9e01-fb511f5fe6c3","system_id":"levelo_inurba_marseille","lat":43.31495,"lon":5.37305,"is_reserved":false,"is_disabled":false,"rental_uris":{"android":"levelo://app?vid=0095f608-c8a3-464a-9e01-fb511f5fe6c3","ios":"levelo://app?vid=0095f608-c8a3-464a-9e01-fb511f5fe6c3"},"vehicle_type_id":"4","last_reported":1737565707,"current_range_meters":29600,"station_id":"ce4bgt12rcd13ifvqcd0","pricing_plan_id":"cebpf4jnsgd1na2vs0mg"},{"bike_id":"88cee832-bfb0-4a5f-aff7-54ecdf930906","system_id":"levelo_inurba_marseille","lat":43.28953,"lon":5.36578,"is_reserved":false,"is_disabled":false,"rental_uris":{"android":"levelo://app?vid=88cee832-bfb0-4a5f-aff7-54ecdf930906","ios":"levelo://app?vid=88cee832-bfb0-4a5f-aff7-54ecdf930906"},"vehicle_type_id":"4","last_reported":1737565707,"current_range_meters":37600,"station_id":"","pricing_plan_id":"cebpf4jnsgd1na2vs0mg"},{"bike_id":"2d3bc297-d5b6-49a9-90d0-7fda3fff0ed7","system_id":"levelo_inurba_marseille","lat":43.31474,"lon":5.37305,"is_reserved":false,"is_disabled":false,"rental_uris":{"android":"levelo://app?vid=2d3bc297-d5b6-49a9-90d0-7fda3fff0ed7","ios":"levelo://app?vid=2d3bc297-d5b6-49a9-90d0-7fda3fff0ed7"},"vehicle_type_id":"4","last_reported":1737565707,"current_range_meters":8000,"station_id":"ce4bgt12rcd13ifvqcd0","pricing_plan_id":"cebpf4jnsgd1na2vs0mg"},{"bike_id":"b1ab1bd4-5cab-4639-9df6-ada6bfcc5075","system_id":"levelo_inurba_marseille","lat":43.30929,"lon":5.40147,"is_reserved":false,"is_disabled":false,"rental_uris":{"android":"levelo://app?vid=b1ab1bd4-5cab-4639-9df6-ada6bfcc5075","ios":"levelo://app?vid=b1ab1bd4-5cab-4639-9df6-ada6bfcc5075"},"vehicle_type_id":"4","last_reported":1737565707,"current_range_meters":25600,"station_id":"ce4bgvp2rcd13ifvqct0","pricing_plan_id":"cebpf4jnsgd1na2vs0mg"},{"bike_id":"73f7eaea-23b5-4269-ae09-8dd32205a848","system_id":"levelo_inurba_marseille","lat":43.29014,"lon":5.38132,"is_reserved":false,"is_disabled":false,"rental_uris":{"android":"levelo://app?vid=73f7eaea-23b5-4269-ae09-8dd32205a848","ios":"levelo://app?vid=73f7eaea-23b5-4269-ae09-8dd32205a848"},"vehicle_type_id":"4","last_reported":1737565707,"current_range_meters":24400,"station_id":"ce4bh4p2rcd13ifvqe1g","pricing_plan_id":"cebpf4jnsgd1na2vs0mg"},{"bike_id":"6a9e6fb3-1965-43ab-a598-cf1f58670842","system_id":"levelo_inurba_marseille","lat":43.2319,"lon":5.39979,"is_reserved":false,"is_disabled":false,"rental_uris":{"android":"levelo://app?vid=6a9e6fb3-1965-43ab-a598-cf1f58670842","ios":"levelo://app?vid=6a9e6fb3-1965-43ab-a598-cf1f58670842"},"vehicle_type_id":"4","last_reported":1737565707,"current_range_meters":30400,"station_id":"ce4bhn12rcd13ifvqgqg","pricing_plan_id":"cebpf4jnsgd1na2vs0mg"},{"bike_id":"110f4d36-27c9-49b8-86bf-d85558408b80","system_id":"levelo_inurba_marseille","lat":43.32367,"lon":5.38859,"is_reserved":false,"is_disabled":false,"rental_uris":{"android":"levelo://app?vid=110f4d36-27c9-49b8-86bf-d85558408b80","ios":"levelo://app?vid=110f4d36-27c9-49b8-86bf-d85558408b80"},"vehicle_type_id":"4","last_reported":1737565707,"current_range_meters":23200,"station_id":"ce4bhqp2rcd13ifvqhog","pricing_plan_id":"cebpf4jnsgd1na2vs0mg"},{"bike_id":"e2151eb3-314b-404c-b259-cf12a3a3e0c6","system_id":"levelo_inurba_marseille","lat":43.31589,"lon":5.4022,"is_reserved":false,"is_disabled":false,"rental_uris":{"android":"levelo://app?vid=e2151eb3-314b-404c-b259-cf12a3a3e0c6","ios":"levelo://app?vid=e2151eb3-314b-404c-b259-cf12a3a3e0c6"},"vehicle_type_id":"4","last_reported":1737565707,"current_range_meters":25600,"station_id":"","pricing_plan_id":"cebpf4jnsgd1na2vs0mg"},{"bike_id":"cd94cc44-1306-4635-a7a5-07ce336e6bed","system_id":"levelo_inurba_marseille","lat":43.30923,"lon":5.40149,"is_reserved":false,"is_disabled":false,"rental_uris":{"android":"levelo://app?vid=cd94cc44-1306-4635-a7a5-07ce336e6bed","ios":"levelo://app?vid=cd94cc44-1306-4635-a7a5-07ce336e6bed"},"vehicle_type_id":"4","last_reported":1737565707,"current_range_meters":16800,"station_id":"ce4bgvp2rcd13ifvqct0","pricing_plan_id":"cebpf4jnsgd1na2vs0mg"},{"bike_id":"3bcd921d-810c-4845-87ab-d96c2ac5451e","system_id":"levelo_inurba_marseille","lat":43.27819,"lon":5.40708,"is_reserved":false,"is_disabled":false,"rental_uris":{"android":"levelo://app?vid=3bcd921d-810c-4845-87ab-d96c2ac5451e","ios":"levelo://app?vid=3bcd921d-810c-4845-87ab-d96c2ac5451e"},"vehicle_type_id":"4","last_reported":1737565707,"current_range_meters":12000,"station_id":"ce4bhnh2rcd13ifvqgtg","pricing_plan_id":"cebpf4jnsgd1na2vs0mg"},{"bike_id":"4c971e6d-b710-4290-acc2-3a58649cc69c","system_id":"levelo_inurba_marseille","lat":43.3151,"lon":5.37286,"is_reserved":false,"is_disabled":false,"rental_uris":{"android":"levelo://app?vid=4c971e6d-b710-4290-acc2-3a58649cc69c","ios":"levelo://app?vid=4c971e6d-b710-4290-acc2-3a58649cc69c"},"vehicle_type_id":"4","last_reported":1737565707,"current_range_meters":31200,"station_id":"ce4bgt12rcd13ifvqcd0","pricing_plan_id":"cebpf4jnsgd1na2vs0mg"},{"bike_id":"c01ff322-934e-4fed-b8ab-096213fbdb3c","system_id":"levelo_inurba_marseille","lat":43.32003,"lon":5.3815,"is_reserved":false,"is_disabled":false,"rental_uris":{"android":"levelo://app?vid=c01ff322-934e-4fed-b8ab-096213fbdb3c","ios":"levelo://app?vid=c01ff322-934e-4fed-b8ab-096213fbdb3c"},"vehicle_type_id":"4","last_reported":1737565707,"current_range_meters":38800,"station_id":"ce4bhr12rcd13ifvqhpg","pricing_plan_id":"cebpf4jnsgd1na2vs0mg"},{"bike_id":"231469da-5eee-4532-8c14-61263c6875eb","system_id":"levelo_inurba_marseille","lat":43.30672,"lon":5.38268,"is_reserved":false,"is_disabled":false,"rental_uris":{"android":"levelo://app?vid=231469da-5eee-4532-8c14-61263c6875eb","ios":"levelo://app?vid=231469da-5eee-4532-8c14-61263c6875eb"},"vehicle_type_id":"4","last_reported":1737565707,"current_range_meters":30000,"station_id":"ce4bgt12rcd13ifvqce0","pricing_plan_id":"cebpf4jnsgd1na2vs0mg"},{"bike_id":"69db6415-9707-42d2-aff6-bddac8adc810","system_id":"levelo_inurba_marseille","lat":43.28406,"lon":5.37519,"is_reserved":false,"is_disabled":false,"rental_uris":{"android":"levelo://app?vid=69db6415-9707-42d2-aff6-bddac8adc810","ios":"levelo://app?vid=69db6415-9707-42d2-aff6-bddac8adc810"},"vehicle_type_id":"4","last_reported":1737565707,"current_range_meters":38800,"station_id":"ce4bh412rcd13ifvqds0","pricing_plan_id":"cebpf4jnsgd1na2vs0mg"},{"bike_id":"8cf72ef7-e99d-4251-a909-d1924caef0b7","system_id":"levelo_inurba_marseille","lat":43.295773,"lon":5.367422,"is_reserved":false,"is_disabled":false,"rental_uris":{"android":"levelo://app?vid=8cf72ef7-e99d-4251-a909-d1924caef0b7","ios":"levelo://app?vid=8cf72ef7-e99d-4251-a909-d1924caef0b7"},"vehicle_type_id":"4","last_reported":1737565707,"current_range_meters":39200,"station_id":"ce4bgph2rcd13ifvqc2g","pricing_plan_id":"cebpf4jnsgd1na2vs0mg"},{"bike_id":"6440f376-b0ac-4979-8b74-813c76d7599b","system_id":"levelo_inurba_marseille","lat":43.24172,"lon":5.39704,"is_reserved":false,"is_disabled":false,"rental_uris":{"android":"levelo://app?vid=6440f376-b0ac-4979-8b74-813c76d7599b","ios":"levelo://app?vid=6440f376-b0ac-4979-8b74-813c76d7599b"},"vehicle_type_id":"4","last_reported":1737565707,"current_range_meters":28400,"station_id":"ce4bhn12rcd13ifvqgpg","pricing_plan_id":"cebpf4jnsgd1na2vs0mg"},{"bike_id":"07222054-6bcd-45e4-8545-43979da21269","system_id":"levelo_inurba_marseille","lat":43.3014,"lon":5.39912,"is_reserved":false,"is_disabled":false,"rental_uris":{"android":"levelo://app?vid=07222054-6bcd-45e4-8545-43979da21269","ios":"levelo://app?vid=07222054-6bcd-45e4-8545-43979da21269"},"vehicle_type_id":"4","last_reported":1737565707,"current_range_meters":38800,"station_id":"ce4bh0h2rcd13ifvqd40","pricing_plan_id":"cebpf4jnsgd1na2vs0mg"},{"bike_id":"53608539-8cd0-47e7-9cfb-d1161556d6fb","system_id":"levelo_inurba_marseille","lat":43.25514,"lon":5.37654,"is_reserved":false,"is_disabled":false,"rental_uris":{"android":"levelo://app?vid=53608539-8cd0-47e7-9cfb-d1161556d6fb","ios":"levelo://app?vid=53608539-8cd0-47e7-9cfb-d1161556d6fb"},"vehicle_type_id":"4","last_reported":1737565707,"current_range_meters":24800,"station_id":"ce4bhh12rcd13ifvqff0","pricing_plan_id":"cebpf4jnsgd1na2vs0mg"},{"bike_id":"8fca4091-c5fa-4154-84ea-a7460f617841","system_id":"levelo_inurba_marseille","lat":43.30218,"lon":5.39471,"is_reserved":false,"is_disabled":false,"rental_uris":{"android":"levelo://app?vid=8fca4091-c5fa-4154-84ea-a7460f617841","ios":"levelo://app?vid=8fca4091-c5fa-4154-84ea-a7460f617841"},"vehicle_type_id":"4","last_reported":1737565707,"current_range_meters":10800,"station_id":"ce4bh0p2rcd13ifvqd70","pricing_plan_id":"cebpf4jnsgd1na2vs0mg"},{"bike_id":"8d687d01-0086-487a-a814-0afe95bbf5e0","system_id":"levelo_inurba_marseille","lat":43.28459,"lon":5.35894,"is_reserved":false,"is_disabled":false,"rental_uris":{"android":"levelo://app?vid=8d687d01-0086-487a-a814-0afe95bbf5e0","ios":"levelo://app?vid=8d687d01-0086-487a-a814-0afe95bbf5e0"},"vehicle_type_id":"4","last_reported":1737565707,"current_range_meters":27600,"station_id":"ce4bhah2rcd13ifvqei0","pricing_plan_id":"cebpf4jnsgd1na2vs0mg"},{"bike_id":"57b2d636-becf-44d5-aa20-a7133085263d","system_id":"levelo_inurba_marseille","lat":43.31331,"lon":5.397,"is_reserved":false,"is_disabled":false,"rental_uris":{"android":"levelo://app?vid=57b2d636-becf-44d5-aa20-a7133085263d","ios":"levelo://app?vid=57b2d636-becf-44d5-aa20-a7133085263d"},"vehicle_type_id":"4","last_reported":1737565707,"current_range_meters":32000,"station_id":"ce4bgvp2rcd13ifvqcu0","pricing_plan_id":"cebpf4jnsgd1na2vs0mg"},{"bike_id":"9677c675-00a9-4cc1-9aae-217d43e2c369","system_id":"levelo_inurba_marseille","lat":43.25493,"lon":5.3765,"is_reserved":false,"is_disabled":true,"rental_uris":{"android":"levelo://app?vid=9677c675-00a9-4cc1-9aae-217d43e2c369","ios":"levelo://app?vid=9677c675-00a9-4cc1-9aae-217d43e2c369"},"vehicle_type_id":"4","last_reported":1737565707,"current_range_meters":400,"station_id":"ce4bhh12rcd13ifvqff0","pricing_plan_id":"cebpf4jnsgd1na2vs0mg"},{"bike_id":"91f957bd-7ae6-4841-8ac4-1ecdcd0c697e","system_id":"levelo_inurba_marseille","lat":43.31555,"lon":5.40177,"is_reserved":false,"is_disabled":false,"rental_uris":{"android":"levelo://app?vid=91f957bd-7ae6-4841-8ac4-1ecdcd0c697e","ios":"levelo://app?vid=91f957bd-7ae6-4841-8ac4-1ecdcd0c697e"},"vehicle_type_id":"4","last_reported":1737565707,"current_range_meters":28400,"station_id":"","pricing_plan_id":"cebpf4jnsgd1na2vs0mg"},{"bike_id":"96663138-92b9-4343-9a11-314ee4531fc0","system_id":"levelo_inurba_marseille","lat":43.30779,"lon":5.37653,"is_reserved":false,"is_disabled":true,"rental_uris":{"android":"levelo://app?vid=96663138-92b9-4343-9a11-314ee4531fc0","ios":"levelo://app?vid=96663138-92b9-4343-9a11-314ee4531fc0"},"vehicle_type_id":"4","last_reported":1737565707,"current_range_meters":18000,"station_id":"ce4bgv92rcd13ifvqcq0","pricing_plan_id":"cebpf4jnsgd1na2vs0mg"},{"bike_id":"8da43991-38e7-499b-a0d7-f6ae558bffed","system_id":"levelo_inurba_marseille","lat":43.30801,"lon":5.43549,"is_reserved":false,"is_disabled":false,"rental_uris":{"android":"levelo://app?vid=8da43991-38e7-499b-a0d7-f6ae558bffed","ios":"levelo://app?vid=8da43991-38e7-499b-a0d7-f6ae558bffed"},"vehicle_type_id":"4","last_reported":1737565707,"current_range_meters":20400,"station_id":"ce4bhph2rcd13ifvqheg","pricing_plan_id":"cebpf4jnsgd1na2vs0mg"},{"bike_id":"32f6995a-f8a7-4e54-a58d-c2dec4ca3d87","system_id":"levelo_inurba_marseille","lat":43.3035,"lon":5.41878,"is_reserved":false,"is_disabled":false,"rental_uris":{"android":"levelo://app?vid=32f6995a-f8a7-4e54-a58d-c2dec4ca3d87","ios":"levelo://app?vid=32f6995a-f8a7-4e54-a58d-c2dec4ca3d87"},"vehicle_type_id":"4","last_reported":1737565707,"current_range_meters":19600,"station_id":"ce4bhop2rcd13ifvqh7g","pricing_plan_id":"cebpf4jnsgd1na2vs0mg"},{"bike_id":"2965a976-302f-43d1-97a6-16afd2455155","system_id":"levelo_inurba_marseille","lat":43.27374,"lon":5.36249,"is_reserved":false,"is_disabled":false,"rental_uris":{"android":"levelo://app?vid=2965a976-302f-43d1-97a6-16afd2455155","ios":"levelo://app?vid=2965a976-302f-43d1-97a6-16afd2455155"},"vehicle_type_id":"4","last_reported":1737565707,"current_range_meters":25200,"station_id":"ce4bhbh2rcd13ifvqeo0","pricing_plan_id":"cebpf4jnsgd1na2vs0mg"},{"bike_id":"671a624e-4572-4a73-878a-56cac04af55b","system_id":"levelo_inurba_marseille","lat":43.29019,"lon":5.38635,"is_reserved":false,"is_disabled":false,"rental_uris":{"android":"levelo://app?vid=671a624e-4572-4a73-878a-56cac04af55b","ios":"levelo://app?vid=671a624e-4572-4a73-878a-56cac04af55b"},"vehicle_type_id":"4","last_reported":1737565707,"current_range_meters":21600,"station_id":"ce4bh4p2rcd13ifvqe0g","pricing_plan_id":"cebpf4jnsgd1na2vs0mg"},{"bike_id":"53792794-8cf4-45fd-bbea-1c58be27c71e","system_id":"levelo_inurba_marseille","lat":43.2884,"lon":5.35867,"is_reserved":false,"is_disabled":false,"rental_uris":{"android":"levelo://app?vid=53792794-8cf4-45fd-bbea-1c58be27c71e","ios":"levelo://app?vid=53792794-8cf4-45fd-bbea-1c58be27c71e"},"vehicle_type_id":"4","last_reported":1737565707,"current_range_meters":27200,"station_id":"ce4bhb12rcd13ifvqem0","pricing_plan_id":"cebpf4jnsgd1na2vs0mg"},{"bike_id":"8ab0346c-8001-4067-8852-009244e2b53d","system_id":"levelo_inurba_marseille","lat":43.31082,"lon":5.4243,"is_reserved":false,"is_disabled":false,"rental_uris":{"android":"levelo://app?vid=8ab0346c-8001-4067-8852-009244e2b53d","ios":"levelo://app?vid=8ab0346c-8001-4067-8852-009244e2b53d"},"vehicle_type_id":"4","last_reported":1737565707,"current_range_meters":38800,"station_id":"ce4bhp92rcd13ifvqhag","pricing_plan_id":"cebpf4jnsgd1na2vs0mg"},{"bike_id":"80fe8ffe-d43c-442b-a228-9c041694be6c","system_id":"levelo_inurba_marseille","lat":43.3009,"lon":5.39067,"is_reserved":false,"is_disabled":false,"rental_uris":{"android":"levelo://app?vid=80fe8ffe-d43c-442b-a228-9c041694be6c","ios":"levelo://app?vid=80fe8ffe-d43c-442b-a228-9c041694be6c"},"vehicle_type_id":"4","last_reported":1737565707,"current_range_meters":0,"station_id":"ce4bh192rcd13ifvqdb0","pricing_plan_id":"cebpf4jnsgd1na2vs0mg"},{"bike_id":"739f7b1b-f042-4588-924b-06586f85c8d8","system_id":"levelo_inurba_marseille","lat":43.298,"lon":5.38111,"is_reserved":false,"is_disabled":false,"rental_uris":{"android":"levelo://app?vid=739f7b1b-f042-4588-924b-06586f85c8d8","ios":"levelo://app?vid=739f7b1b-f042-4588-924b-06586f85c8d8"},"vehicle_type_id":"4","last_reported":1737565707,"current_range_meters":38800,"station_id":"ce4bgip2rcd13ifvqbb0","pricing_plan_id":"cebpf4jnsgd1na2vs0mg"},{"bike_id":"837cc4d5-7c8b-45f6-adbb-1fc4fe2dbcef","system_id":"levelo_inurba_marseille","lat":43.29846,"lon":5.36266,"is_reserved":false,"is_disabled":false,"rental_uris":{"android":"levelo://app?vid=837cc4d5-7c8b-45f6-adbb-1fc4fe2dbcef","ios":"levelo://app?vid=837cc4d5-7c8b-45f6-adbb-1fc4fe2dbcef"},"vehicle_type_id":"4","last_reported":1737565707,"current_range_meters":38400,"station_id":"ce4bgpp2rcd13ifvqc3g","pricing_plan_id":"cebpf4jnsgd1na2vs0mg"},{"bike_id":"e14baba4-7381-4ad7-9450-30b4b09a275b","system_id":"levelo_inurba_marseille","lat":43.31077,"lon":5.42429,"is_reserved":false,"is_disabled":false,"rental_uris":{"android":"levelo://app?vid=e14baba4-7381-4ad7-9450-30b4b09a275b","ios":"levelo://app?vid=e14baba4-7381-4ad7-9450-30b4b09a275b"},"vehicle_type_id":"4","last_reported":1737565707,"current_range_meters":38000,"station_id":"ce4bhp92rcd13ifvqhag","pricing_plan_id":"cebpf4jnsgd1na2vs0mg"},{"bike_id":"46df303c-af7b-4bd6-88dd-7d9758a3ac21","system_id":"levelo_inurba_marseille","lat":43.30438,"lon":5.38888,"is_reserved":false,"is_disabled":true,"rental_uris":{"android":"levelo://app?vid=46df303c-af7b-4bd6-88dd-7d9758a3ac21","ios":"levelo://app?vid=46df303c-af7b-4bd6-88dd-7d9758a3ac21"},"vehicle_type_id":"4","last_reported":1737565707,"current_range_meters":24000,"station_id":"ce4bgk12rcd13ifvqbi0","pricing_plan_id":"cebpf4jnsgd1na2vs0mg"},{"bike_id":"80c8ea3f-4e82-4dce-89bf-eba20958e196","system_id":"levelo_inurba_marseille","lat":43.28939,"lon":5.36637,"is_reserved":false,"is_disabled":false,"rental_uris":{"android":"levelo://app?vid=80c8ea3f-4e82-4dce-89bf-eba20958e196","ios":"levelo://app?vid=80c8ea3f-4e82-4dce-89bf-eba20958e196"},"vehicle_type_id":"4","last_reported":1737565707,"current_range_meters":3600,"station_id":"ce4bhap2rcd13ifvqek0","pricing_plan_id":"cebpf4jnsgd1na2vs0mg"},{"bike_id":"787ba3e4-3c22-45e8-b941-5696c02395a0","system_id":"levelo_inurba_marseille","lat":43.26778,"lon":5.39414,"is_reserved":false,"is_disabled":false,"rental_uris":{"android":"levelo://app?vid=787ba3e4-3c22-45e8-b941-5696c02395a0","ios":"levelo://app?vid=787ba3e4-3c22-45e8-b941-5696c02395a0"},"vehicle_type_id":"4","last_reported":1737565707,"current_range_meters":31200,"station_id":"ce4bhh12rcd13ifvqfg0","pricing_plan_id":"cebpf4jnsgd1na2vs0mg"},{"bike_id":"8967e85a-3e41-4bc0-8027-6de87f527f5d","system_id":"levelo_inurba_marseille","lat":43.3025,"lon":5.40076,"is_reserved":false,"is_disabled":false,"rental_uris":{"android":"levelo://app?vid=8967e85a-3e41-4bc0-8027-6de87f527f5d","ios":"levelo://app?vid=8967e85a-3e41-4bc0-8027-6de87f527f5d"},"vehicle_type_id":"4","last_reported":1737565707,"current_range_meters":19200,"station_id":"ce4bgvh2rcd13ifvqcs0","pricing_plan_id":"cebpf4jnsgd1na2vs0mg"},{"bike_id":"18110634-8656-4425-868c-91f0e5cdb086","system_id":"levelo_inurba_marseille","lat":43.25087,"lon":5.39525,"is_reserved":false,"is_disabled":false,"rental_uris":{"android":"levelo://app?vid=18110634-8656-4425-868c-91f0e5cdb086","ios":"levelo://app?vid=18110634-8656-4425-868c-91f0e5cdb086"},"vehicle_type_id":"4","last_reported":1737565707,"current_range_meters":38800,"station_id":"ce4bhm12rcd13ifvqgkg","pricing_plan_id":"cebpf4jnsgd1na2vs0mg"},{"bike_id":"01fcf9b4-cc6f-42a9-ac42-522c5f1e9a44","system_id":"levelo_inurba_marseille","lat":43.28701,"lon":5.39985,"is_reserved":false,"is_disabled":false,"rental_uris":{"android":"levelo://app?vid=01fcf9b4-cc6f-42a9-ac42-522c5f1e9a44","ios":"levelo://app?vid=01fcf9b4-cc6f-42a9-ac42-522c5f1e9a44"},"vehicle_type_id":"4","last_reported":1737565707,"current_range_meters":18800,"station_id":"ce4bho92rcd13ifvqh3g","pricing_plan_id":"cebpf4jnsgd1na2vs0mg"},{"bike_id":"ac52e5e6-328b-4f23-a066-b7264a8eeff0","system_id":"levelo_inurba_marseille","lat":43.29908,"lon":5.3816,"is_reserved":false,"is_disabled":false,"rental_uris":{"android":"levelo://app?vid=ac52e5e6-328b-4f23-a066-b7264a8eeff0","ios":"levelo://app?vid=ac52e5e6-328b-4f23-a066-b7264a8eeff0"},"vehicle_type_id":"4","last_reported":1737565707,"current_range_meters":22000,"station_id":"ce4bgj12rcd13ifvqbc0","pricing_plan_id":"cebpf4jnsgd1na2vs0mg"},{"bike_id":"a4775b02-7ad5-49fe-92f0-2e70e3ac843a","system_id":"levelo_inurba_marseille","lat":43.297011,"lon":5.376899,"is_reserved":false,"is_disabled":false,"rental_uris":{"android":"levelo://app?vid=a4775b02-7ad5-49fe-92f0-2e70e3ac843a","ios":"levelo://app?vid=a4775b02-7ad5-49fe-92f0-2e70e3ac843a"},"vehicle_type_id":"4","last_reported":1737565707,"current_range_meters":32400,"station_id":"ce4bgkh2rcd13ifvqbl0","pricing_plan_id":"cebpf4jnsgd1na2vs0mg"},{"bike_id":"4c9f6cfd-d151-4620-961f-d7dee6c2c476","system_id":"levelo_inurba_marseille","lat":43.292538,"lon":5.409126,"is_reserved":false,"is_disabled":false,"rental_uris":{"android":"levelo://app?vid=4c9f6cfd-d151-4620-961f-d7dee6c2c476","ios":"levelo://app?vid=4c9f6cfd-d151-4620-961f-d7dee6c2c476"},"vehicle_type_id":"4","last_reported":1737565707,"current_range_meters":38800,"station_id":"ce4bh192rcd13ifvqdc0","pricing_plan_id":"cebpf4jnsgd1na2vs0mg"},{"bike_id":"c46f4d0b-f188-452b-bfe9-91201e7f4a27","system_id":"levelo_inurba_marseille","lat":43.298,"lon":5.3811,"is_reserved":false,"is_disabled":false,"rental_uris":{"android":"levelo://app?vid=c46f4d0b-f188-452b-bfe9-91201e7f4a27","ios":"levelo://app?vid=c46f4d0b-f188-452b-bfe9-91201e7f4a27"},"vehicle_type_id":"4","last_reported":1737565707,"current_range_meters":4400,"station_id":"ce4bgip2rcd13ifvqbb0","pricing_plan_id":"cebpf4jnsgd1na2vs0mg"},{"bike_id":"328ed847-7cc0-43c6-a049-c0223415b297","system_id":"levelo_inurba_marseille","lat":43.26598,"lon":5.39057,"is_reserved":false,"is_disabled":false,"rental_uris":{"android":"levelo://app?vid=328ed847-7cc0-43c6-a049-c0223415b297","ios":"levelo://app?vid=328ed847-7cc0-43c6-a049-c0223415b297"},"vehicle_type_id":"4","last_reported":1737565707,"current_range_meters":28800,"station_id":"ce4bhe12rcd13ifvqf30","pricing_plan_id":"cebpf4jnsgd1na2vs0mg"},{"bike_id":"1450bd64-05c1-4364-83aa-daa0fb011f91","system_id":"levelo_inurba_marseille","lat":43.29981,"lon":5.41293,"is_reserved":false,"is_disabled":false,"rental_uris":{"android":"levelo://app?vid=1450bd64-05c1-4364-83aa-daa0fb011f91","ios":"levelo://app?vid=1450bd64-05c1-4364-83aa-daa0fb011f91"},"vehicle_type_id":"4","last_reported":1737565707,"current_range_meters":38800,"station_id":"ce4bhp12rcd13ifvqh9g","pricing_plan_id":"cebpf4jnsgd1na2vs0mg"},{"bike_id":"d8913ec1-b9e4-4840-802c-743a22ef4a3d","system_id":"levelo_inurba_marseille","lat":43.28389,"lon":5.37515,"is_reserved":false,"is_disabled":false,"rental_uris":{"android":"levelo://app?vid=d8913ec1-b9e4-4840-802c-743a22ef4a3d","ios":"levelo://app?vid=d8913ec1-b9e4-4840-802c-743a22ef4a3d"},"vehicle_type_id":"4","last_reported":1737565707,"current_range_meters":13600,"station_id":"ce4bh412rcd13ifvqds0","pricing_plan_id":"cebpf4jnsgd1na2vs0mg"},{"bike_id":"b626bcd0-a858-4d3b-beef-9635c8fc6579","system_id":"levelo_inurba_marseille","lat":43.31474,"lon":5.3728,"is_reserved":false,"is_disabled":false,"rental_uris":{"android":"levelo://app?vid=b626bcd0-a858-4d3b-beef-9635c8fc6579","ios":"levelo://app?vid=b626bcd0-a858-4d3b-beef-9635c8fc6579"},"vehicle_type_id":"4","last_reported":1737565707,"current_range_meters":33600,"station_id":"ce4bgt12rcd13ifvqcd0","pricing_plan_id":"cebpf4jnsgd1na2vs0mg"},{"bike_id":"40e74f31-6cce-4be3-8991-4bbccd7923f6","system_id":"levelo_inurba_marseille","lat":43.28459,"lon":5.35947,"is_reserved":false,"is_disabled":false,"rental_uris":{"android":"levelo://app?vid=40e74f31-6cce-4be3-8991-4bbccd7923f6","ios":"levelo://app?vid=40e74f31-6cce-4be3-8991-4bbccd7923f6"},"vehicle_type_id":"4","last_reported":1737565707,"current_range_meters":36000,"station_id":"","pricing_plan_id":"cebpf4jnsgd1na2vs0mg"},{"bike_id":"b72ddc83-3731-426e-9702-e3b97f9dddfa","system_id":"levelo_inurba_marseille","lat":43.29227,"lon":5.3605,"is_reserved":false,"is_disabled":false,"rental_uris":{"android":"levelo://app?vid=b72ddc83-3731-426e-9702-e3b97f9dddfa","ios":"levelo://app?vid=b72ddc83-3731-426e-9702-e3b97f9dddfa"},"vehicle_type_id":"4","last_reported":1737565707,"current_range_meters":37600,"station_id":"ce4bhbh2rcd13ifvqeqg","pricing_plan_id":"cebpf4jnsgd1na2vs0mg"},{"bike_id":"f6cbdea0-0d1b-41be-a0b9-e65b4bf39824","system_id":"levelo_inurba_marseille","lat":43.29197,"lon":5.3576,"is_reserved":false,"is_disabled":false,"rental_uris":{"android":"levelo://app?vid=f6cbdea0-0d1b-41be-a0b9-e65b4bf39824","ios":"levelo://app?vid=f6cbdea0-0d1b-41be-a0b9-e65b4bf39824"},"vehicle_type_id":"4","last_reported":1737565707,"current_range_meters":28400,"station_id":"ce4bhb12rcd13ifvqel0","pricing_plan_id":"cebpf4jnsgd1na2vs0mg"},{"bike_id":"872ff2df-07a5-4962-bb93-66cf55b27b49","system_id":"levelo_inurba_marseille","lat":43.28077,"lon":5.39663,"is_reserved":false,"is_disabled":false,"rental_uris":{"android":"levelo://app?vid=872ff2df-07a5-4962-bb93-66cf55b27b49","ios":"levelo://app?vid=872ff2df-07a5-4962-bb93-66cf55b27b49"},"vehicle_type_id":"4","last_reported":1737565707,"current_range_meters":22000,"station_id":"ce4bho12rcd13ifvqh2g","pricing_plan_id":"cebpf4jnsgd1na2vs0mg"},{"bike_id":"01a62aad-27ed-4a1b-9567-1dda5f235805","system_id":"levelo_inurba_marseille","lat":43.32367,"lon":5.38873,"is_reserved":false,"is_disabled":false,"rental_uris":{"android":"levelo://app?vid=01a62aad-27ed-4a1b-9567-1dda5f235805","ios":"levelo://app?vid=01a62aad-27ed-4a1b-9567-1dda5f235805"},"vehicle_type_id":"4","last_reported":1737565707,"current_range_meters":17600,"station_id":"ce4bhqp2rcd13ifvqhog","pricing_plan_id":"cebpf4jnsgd1na2vs0mg"},{"bike_id":"b36c4aaf-9cc4-4626-af08-1b7d616d5a43","system_id":"levelo_inurba_marseille","lat":43.28973,"lon":5.37843,"is_reserved":false,"is_disabled":false,"rental_uris":{"android":"levelo://app?vid=b36c4aaf-9cc4-4626-af08-1b7d616d5a43","ios":"levelo://app?vid=b36c4aaf-9cc4-4626-af08-1b7d616d5a43"},"vehicle_type_id":"4","last_reported":1737565707,"current_range_meters":28400,"station_id":"ce4bh9p2rcd13ifvqed0","pricing_plan_id":"cebpf4jnsgd1na2vs0mg"},{"bike_id":"c8207e0e-f323-464e-b32f-58e506472352","system_id":"levelo_inurba_marseille","lat":43.26202,"lon":5.37439,"is_reserved":false,"is_disabled":false,"rental_uris":{"android":"levelo://app?vid=c8207e0e-f323-464e-b32f-58e506472352","ios":"levelo://app?vid=c8207e0e-f323-464e-b32f-58e506472352"},"vehicle_type_id":"4","last_reported":1737565707,"current_range_meters":38000,"station_id":"ce4bhgp2rcd13ifvqfc0","pricing_plan_id":"cebpf4jnsgd1na2vs0mg"},{"bike_id":"cc7c3071-962f-4b64-b728-a68ed33e51bb","system_id":"levelo_inurba_marseille","lat":43.28693,"lon":5.37411,"is_reserved":false,"is_disabled":true,"rental_uris":{"android":"levelo://app?vid=cc7c3071-962f-4b64-b728-a68ed33e51bb","ios":"levelo://app?vid=cc7c3071-962f-4b64-b728-a68ed33e51bb"},"vehicle_type_id":"4","last_reported":1737565707,"current_range_meters":800,"station_id":"ce4bh3p2rcd13ifvqdq0","pricing_plan_id":"cebpf4jnsgd1na2vs0mg"},{"bike_id":"13a64475-e4c7-493c-900a-0bcfe86942ca","system_id":"levelo_inurba_marseille","lat":43.30805,"lon":5.43509,"is_reserved":false,"is_disabled":false,"rental_uris":{"android":"levelo://app?vid=13a64475-e4c7-493c-900a-0bcfe86942ca","ios":"levelo://app?vid=13a64475-e4c7-493c-900a-0bcfe86942ca"},"vehicle_type_id":"4","last_reported":1737565707,"current_range_meters":16400,"station_id":"ce4bhph2rcd13ifvqheg","pricing_plan_id":"cebpf4jnsgd1na2vs0mg"},{"bike_id":"ac3fa518-fef3-4a6f-9e1e-03befa6efc87","system_id":"levelo_inurba_marseille","lat":43.27945,"lon":5.41047,"is_reserved":false,"is_disabled":false,"rental_uris":{"android":"levelo://app?vid=ac3fa518-fef3-4a6f-9e1e-03befa6efc87","ios":"levelo://app?vid=ac3fa518-fef3-4a6f-9e1e-03befa6efc87"},"vehicle_type_id":"4","last_reported":1737565707,"current_range_meters":14000,"station_id":"ce4bhnp2rcd13ifvqh0g","pricing_plan_id":"cebpf4jnsgd1na2vs0mg"},{"bike_id":"8662c7d5-3319-4ca7-979b-70f2a633bed5","system_id":"levelo_inurba_marseille","lat":43.29594,"lon":5.36722,"is_reserved":false,"is_disabled":false,"rental_uris":{"android":"levelo://app?vid=8662c7d5-3319-4ca7-979b-70f2a633bed5","ios":"levelo://app?vid=8662c7d5-3319-4ca7-979b-70f2a633bed5"},"vehicle_type_id":"4","last_reported":1737565707,"current_range_meters":38800,"station_id":"ce4bgph2rcd13ifvqc2g","pricing_plan_id":"cebpf4jnsgd1na2vs0mg"},{"bike_id":"4784f4d0-8541-4160-ac19-b8ca95746303","system_id":"levelo_inurba_marseille","lat":43.25083,"lon":5.39516,"is_reserved":false,"is_disabled":false,"rental_uris":{"android":"levelo://app?vid=4784f4d0-8541-4160-ac19-b8ca95746303","ios":"levelo://app?vid=4784f4d0-8541-4160-ac19-b8ca95746303"},"vehicle_type_id":"4","last_reported":1737565707,"current_range_meters":38800,"station_id":"ce4bhm12rcd13ifvqgkg","pricing_plan_id":"cebpf4jnsgd1na2vs0mg"},{"bike_id":"b0ee3244-b915-4f05-8704-8eb07d0c50b6","system_id":"levelo_inurba_marseille","lat":43.31711,"lon":5.37723,"is_reserved":false,"is_disabled":false,"rental_uris":{"android":"levelo://app?vid=b0ee3244-b915-4f05-8704-8eb07d0c50b6","ios":"levelo://app?vid=b0ee3244-b915-4f05-8704-8eb07d0c50b6"},"vehicle_type_id":"4","last_reported":1737565707,"current_range_meters":38400,"station_id":"ce4bgth2rcd13ifvqch0","pricing_plan_id":"cebpf4jnsgd1na2vs0mg"},{"bike_id":"5069a344-4113-4403-b5b7-4de9bbac1d09","system_id":"levelo_inurba_marseille","lat":43.28922,"lon":5.38396,"is_reserved":false,"is_disabled":false,"rental_uris":{"android":"levelo://app?vid=5069a344-4113-4403-b5b7-4de9bbac1d09","ios":"levelo://app?vid=5069a344-4113-4403-b5b7-4de9bbac1d09"},"vehicle_type_id":"4","last_reported":1737565707,"current_range_meters":30800,"station_id":"ce4bh612rcd13ifvqe6g","pricing_plan_id":"cebpf4jnsgd1na2vs0mg"},{"bike_id":"e763fbba-b8cc-400e-9b8a-1db13f8509f9","system_id":"levelo_inurba_marseille","lat":43.29905,"lon":5.43659,"is_reserved":false,"is_disabled":false,"rental_uris":{"android":"levelo://app?vid=e763fbba-b8cc-400e-9b8a-1db13f8509f9","ios":"levelo://app?vid=e763fbba-b8cc-400e-9b8a-1db13f8509f9"},"vehicle_type_id":"4","last_reported":1737565707,"current_range_meters":11600,"station_id":"ce4bhpp2rcd13ifvqhfg","pricing_plan_id":"cebpf4jnsgd1na2vs0mg"},{"bike_id":"f8216a2b-e7c5-4eea-8c3d-912daef0d729","system_id":"levelo_inurba_marseille","lat":43.29895,"lon":5.43673,"is_reserved":false,"is_disabled":false,"rental_uris":{"android":"levelo://app?vid=f8216a2b-e7c5-4eea-8c3d-912daef0d729","ios":"levelo://app?vid=f8216a2b-e7c5-4eea-8c3d-912daef0d729"},"vehicle_type_id":"4","last_reported":1737565707,"current_range_meters":24000,"station_id":"ce4bhpp2rcd13ifvqhfg","pricing_plan_id":"cebpf4jnsgd1na2vs0mg"},{"bike_id":"86fce387-d25e-46bb-928c-c6923257e7fb","system_id":"levelo_inurba_marseille","lat":43.28425,"lon":5.37516,"is_reserved":false,"is_disabled":false,"rental_uris":{"android":"levelo://app?vid=86fce387-d25e-46bb-928c-c6923257e7fb","ios":"levelo://app?vid=86fce387-d25e-46bb-928c-c6923257e7fb"},"vehicle_type_id":"4","last_reported":1737565707,"current_range_meters":38400,"station_id":"ce4bh412rcd13ifvqds0","pricing_plan_id":"cebpf4jnsgd1na2vs0mg"},{"bike_id":"f69be3dd-5c08-41a5-a494-c4d2892249c1","system_id":"levelo_inurba_marseille","lat":43.33741,"lon":5.392,"is_reserved":false,"is_disabled":false,"rental_uris":{"android":"levelo://app?vid=f69be3dd-5c08-41a5-a494-c4d2892249c1","ios":"levelo://app?vid=f69be3dd-5c08-41a5-a494-c4d2892249c1"},"vehicle_type_id":"4","last_reported":1737565707,"current_range_meters":38800,"station_id":"ce4bhr92rcd13ifvqhsg","pricing_plan_id":"cebpf4jnsgd1na2vs0mg"},{"bike_id":"372937d6-93d0-42e5-bc7c-51687f040a60","system_id":"levelo_inurba_marseille","lat":43.31715,"lon":5.42402,"is_reserved":false,"is_disabled":false,"rental_uris":{"android":"levelo://app?vid=372937d6-93d0-42e5-bc7c-51687f040a60","ios":"levelo://app?vid=372937d6-93d0-42e5-bc7c-51687f040a60"},"vehicle_type_id":"4","last_reported":1737565707,"current_range_meters":38800,"station_id":"ce4bhp92rcd13ifvqhbg","pricing_plan_id":"cebpf4jnsgd1na2vs0mg"},{"bike_id":"88424ed9-cd35-4f8a-adab-e49c6f5de084","system_id":"levelo_inurba_marseille","lat":43.31368,"lon":5.38494,"is_reserved":false,"is_disabled":false,"rental_uris":{"android":"levelo://app?vid=88424ed9-cd35-4f8a-adab-e49c6f5de084","ios":"levelo://app?vid=88424ed9-cd35-4f8a-adab-e49c6f5de084"},"vehicle_type_id":"4","last_reported":1737565707,"current_range_meters":25200,"station_id":"ce4bgt92rcd13ifvqcf0","pricing_plan_id":"cebpf4jnsgd1na2vs0mg"},{"bike_id":"b4b8b8ad-4ad7-4155-943f-90d66aac77c6","system_id":"levelo_inurba_marseille","lat":43.28687,"lon":5.38671,"is_reserved":false,"is_disabled":false,"rental_uris":{"android":"levelo://app?vid=b4b8b8ad-4ad7-4155-943f-90d66aac77c6","ios":"levelo://app?vid=b4b8b8ad-4ad7-4155-943f-90d66aac77c6"},"vehicle_type_id":"4","last_reported":1737565707,"current_range_meters":28800,"station_id":"ce4bh492rcd13ifvqdug","pricing_plan_id":"cebpf4jnsgd1na2vs0mg"},{"bike_id":"9863b7f9-4316-4322-9f6c-3cc66b0448e2","system_id":"levelo_inurba_marseille","lat":43.279439,"lon":5.389008,"is_reserved":false,"is_disabled":true,"rental_uris":{"android":"levelo://app?vid=9863b7f9-4316-4322-9f6c-3cc66b0448e2","ios":"levelo://app?vid=9863b7f9-4316-4322-9f6c-3cc66b0448e2"},"vehicle_type_id":"4","last_reported":1737565707,"current_range_meters":28400,"station_id":"","pricing_plan_id":"cebpf4jnsgd1na2vs0mg"},{"bike_id":"41558aff-4493-4695-8a6b-37d89836b9c2","system_id":"levelo_inurba_marseille","lat":43.27556,"lon":5.38429,"is_reserved":false,"is_disabled":true,"rental_uris":{"android":"levelo://app?vid=41558aff-4493-4695-8a6b-37d89836b9c2","ios":"levelo://app?vid=41558aff-4493-4695-8a6b-37d89836b9c2"},"vehicle_type_id":"4","last_reported":1737565707,"current_range_meters":1600,"station_id":"ce4bhh92rcd13ifvqfi0","pricing_plan_id":"cebpf4jnsgd1na2vs0mg"},{"bike_id":"1a078beb-5d6b-4cdb-a1c1-8de6904fb10e","system_id":"levelo_inurba_marseille","lat":43.30106,"lon":5.39868,"is_reserved":false,"is_disabled":false,"rental_uris":{"android":"levelo://app?vid=1a078beb-5d6b-4cdb-a1c1-8de6904fb10e","ios":"levelo://app?vid=1a078beb-5d6b-4cdb-a1c1-8de6904fb10e"},"vehicle_type_id":"4","last_reported":1737565707,"current_range_meters":16400,"station_id":"ce4bh0h2rcd13ifvqd40","pricing_plan_id":"cebpf4jnsgd1na2vs0mg"},{"bike_id":"f71dd93e-fb3b-4f99-806d-64bc976a3954","system_id":"levelo_inurba_marseille","lat":43.29216,"lon":5.36067,"is_reserved":false,"is_disabled":false,"rental_uris":{"android":"levelo://app?vid=f71dd93e-fb3b-4f99-806d-64bc976a3954","ios":"levelo://app?vid=f71dd93e-fb3b-4f99-806d-64bc976a3954"},"vehicle_type_id":"4","last_reported":1737565707,"current_range_meters":22800,"station_id":"ce4bhbh2rcd13ifvqeqg","pricing_plan_id":"cebpf4jnsgd1na2vs0mg"},{"bike_id":"eddb6b89-082b-479c-b34f-44c352a03897","system_id":"levelo_inurba_marseille","lat":43.25497,"lon":5.37649,"is_reserved":false,"is_disabled":false,"rental_uris":{"android":"levelo://app?vid=eddb6b89-082b-479c-b34f-44c352a03897","ios":"levelo://app?vid=eddb6b89-082b-479c-b34f-44c352a03897"},"vehicle_type_id":"4","last_reported":1737565707,"current_range_meters":38800,"station_id":"ce4bhh12rcd13ifvqff0","pricing_plan_id":"cebpf4jnsgd1na2vs0mg"},{"bike_id":"f315bc93-4512-466f-b8ea-ac633e98ac21","system_id":"levelo_inurba_marseille","lat":43.284246,"lon":5.349923,"is_reserved":false,"is_disabled":false,"rental_uris":{"android":"levelo://app?vid=f315bc93-4512-466f-b8ea-ac633e98ac21","ios":"levelo://app?vid=f315bc93-4512-466f-b8ea-ac633e98ac21"},"vehicle_type_id":"4","last_reported":1737565707,"current_range_meters":38800,"station_id":"ce4bhbh2rcd13ifvqepg","pricing_plan_id":"cebpf4jnsgd1na2vs0mg"},{"bike_id":"3c3a7ef9-6af7-4b28-917e-e6ba18feb67f","system_id":"levelo_inurba_marseille","lat":43.3024,"lon":5.40049,"is_reserved":false,"is_disabled":false,"rental_uris":{"android":"levelo://app?vid=3c3a7ef9-6af7-4b28-917e-e6ba18feb67f","ios":"levelo://app?vid=3c3a7ef9-6af7-4b28-917e-e6ba18feb67f"},"vehicle_type_id":"4","last_reported":1737565707,"current_range_meters":30400,"station_id":"ce4bgvh2rcd13ifvqcs0","pricing_plan_id":"cebpf4jnsgd1na2vs0mg"},{"bike_id":"71dadf1d-7daf-40cc-84d2-9745b102a8dc","system_id":"levelo_inurba_marseille","lat":43.31489,"lon":5.37301,"is_reserved":false,"is_disabled":false,"rental_uris":{"android":"levelo://app?vid=71dadf1d-7daf-40cc-84d2-9745b102a8dc","ios":"levelo://app?vid=71dadf1d-7daf-40cc-84d2-9745b102a8dc"},"vehicle_type_id":"4","last_reported":1737565707,"current_range_meters":38400,"station_id":"ce4bgt12rcd13ifvqcd0","pricing_plan_id":"cebpf4jnsgd1na2vs0mg"},{"bike_id":"a47dc228-b782-4f12-9c4b-99c774b9b852","system_id":"levelo_inurba_marseille","lat":43.28951,"lon":5.36389,"is_reserved":false,"is_disabled":false,"rental_uris":{"android":"levelo://app?vid=a47dc228-b782-4f12-9c4b-99c774b9b852","ios":"levelo://app?vid=a47dc228-b782-4f12-9c4b-99c774b9b852"},"vehicle_type_id":"4","last_reported":1737565707,"current_range_meters":33600,"station_id":"ce4bhc92rcd13ifvqetg","pricing_plan_id":"cebpf4jnsgd1na2vs0mg"},{"bike_id":"8e2fe138-ff09-4b92-834b-8fe11a686c0f","system_id":"levelo_inurba_marseille","lat":43.30132,"lon":5.39885,"is_reserved":false,"is_disabled":false,"rental_uris":{"android":"levelo://app?vid=8e2fe138-ff09-4b92-834b-8fe11a686c0f","ios":"levelo://app?vid=8e2fe138-ff09-4b92-834b-8fe11a686c0f"},"vehicle_type_id":"4","last_reported":1737565707,"current_range_meters":16400,"station_id":"ce4bh0h2rcd13ifvqd40","pricing_plan_id":"cebpf4jnsgd1na2vs0mg"},{"bike_id":"e1d0098d-4445-44de-8122-239d13e4b205","system_id":"levelo_inurba_marseille","lat":43.29222,"lon":5.3607,"is_reserved":false,"is_disabled":false,"rental_uris":{"android":"levelo://app?vid=e1d0098d-4445-44de-8122-239d13e4b205","ios":"levelo://app?vid=e1d0098d-4445-44de-8122-239d13e4b205"},"vehicle_type_id":"4","last_reported":1737565707,"current_range_meters":34800,"station_id":"ce4bhbh2rcd13ifvqeqg","pricing_plan_id":"cebpf4jnsgd1na2vs0mg"},{"bike_id":"219ad3c6-1426-4bdc-a11b-eb543a9af6b4","system_id":"levelo_inurba_marseille","lat":43.29515,"lon":5.39053,"is_reserved":false,"is_disabled":false,"rental_uris":{"android":"levelo://app?vid=219ad3c6-1426-4bdc-a11b-eb543a9af6b4","ios":"levelo://app?vid=219ad3c6-1426-4bdc-a11b-eb543a9af6b4"},"vehicle_type_id":"4","last_reported":1737565707,"current_range_meters":30000,"station_id":"ce4bh3p2rcd13ifvqdp0","pricing_plan_id":"cebpf4jnsgd1na2vs0mg"},{"bike_id":"0d555cab-a3ac-493c-97d1-05fb30170afc","system_id":"levelo_inurba_marseille","lat":43.27813,"lon":5.40699,"is_reserved":false,"is_disabled":false,"rental_uris":{"android":"levelo://app?vid=0d555cab-a3ac-493c-97d1-05fb30170afc","ios":"levelo://app?vid=0d555cab-a3ac-493c-97d1-05fb30170afc"},"vehicle_type_id":"4","last_reported":1737565707,"current_range_meters":9600,"station_id":"ce4bhnh2rcd13ifvqgtg","pricing_plan_id":"cebpf4jnsgd1na2vs0mg"},{"bike_id":"49052dc3-4d8a-4007-89e4-6a2b13d47195","system_id":"levelo_inurba_marseille","lat":43.24391,"lon":5.37067,"is_reserved":false,"is_disabled":true,"rental_uris":{"android":"levelo://app?vid=49052dc3-4d8a-4007-89e4-6a2b13d47195","ios":"levelo://app?vid=49052dc3-4d8a-4007-89e4-6a2b13d47195"},"vehicle_type_id":"4","last_reported":1737565707,"current_range_meters":14000,"station_id":"ce4bhhh2rcd13ifvqfk0","pricing_plan_id":"cebpf4jnsgd1na2vs0mg"},{"bike_id":"f943e760-db8f-4166-9037-f55554dc1cbd","system_id":"levelo_inurba_marseille","lat":43.29258,"lon":5.40897,"is_reserved":false,"is_disabled":false,"rental_uris":{"android":"levelo://app?vid=f943e760-db8f-4166-9037-f55554dc1cbd","ios":"levelo://app?vid=f943e760-db8f-4166-9037-f55554dc1cbd"},"vehicle_type_id":"4","last_reported":1737565707,"current_range_meters":7200,"station_id":"ce4bh192rcd13ifvqdc0","pricing_plan_id":"cebpf4jnsgd1na2vs0mg"},{"bike_id":"115b114d-8f9f-4503-8de2-b2a7ad2f3c24","system_id":"levelo_inurba_marseille","lat":43.28,"lon":5.4001,"is_reserved":false,"is_disabled":false,"rental_uris":{"android":"levelo://app?vid=115b114d-8f9f-4503-8de2-b2a7ad2f3c24","ios":"levelo://app?vid=115b114d-8f9f-4503-8de2-b2a7ad2f3c24"},"vehicle_type_id":"4","last_reported":1737565707,"current_range_meters":39200,"station_id":"ce4bho92rcd13ifvqh4g","pricing_plan_id":"cebpf4jnsgd1na2vs0mg"},{"bike_id":"fcd4837f-6e09-4786-bcf5-c3a686cbcfef","system_id":"levelo_inurba_marseille","lat":43.29898,"lon":5.43652,"is_reserved":false,"is_disabled":false,"rental_uris":{"android":"levelo://app?vid=fcd4837f-6e09-4786-bcf5-c3a686cbcfef","ios":"levelo://app?vid=fcd4837f-6e09-4786-bcf5-c3a686cbcfef"},"vehicle_type_id":"4","last_reported":1737565707,"current_range_meters":31200,"station_id":"ce4bhpp2rcd13ifvqhfg","pricing_plan_id":"cebpf4jnsgd1na2vs0mg"},{"bike_id":"690952aa-4cf6-4ec8-a1ef-02ddc0138251","system_id":"levelo_inurba_marseille","lat":43.2616,"lon":5.42067,"is_reserved":false,"is_disabled":false,"rental_uris":{"android":"levelo://app?vid=690952aa-4cf6-4ec8-a1ef-02ddc0138251","ios":"levelo://app?vid=690952aa-4cf6-4ec8-a1ef-02ddc0138251"},"vehicle_type_id":"4","last_reported":1737565707,"current_range_meters":32000,"station_id":"","pricing_plan_id":"cebpf4jnsgd1na2vs0mg"},{"bike_id":"03af5a1d-20f6-4b21-b63e-8bec9df4705a","system_id":"levelo_inurba_marseille","lat":43.27568,"lon":5.38595,"is_reserved":false,"is_disabled":false,"rental_uris":{"android":"levelo://app?vid=03af5a1d-20f6-4b21-b63e-8bec9df4705a","ios":"levelo://app?vid=03af5a1d-20f6-4b21-b63e-8bec9df4705a"},"vehicle_type_id":"4","last_reported":1737565707,"current_range_meters":21600,"station_id":"ce4bhh92rcd13ifvqfi0","pricing_plan_id":"cebpf4jnsgd1na2vs0mg"},{"bike_id":"587483c9-2e76-4dd6-8e62-cfbf184f34f9","system_id":"levelo_inurba_marseille","lat":43.28151,"lon":5.42641,"is_reserved":false,"is_disabled":false,"rental_uris":{"android":"levelo://app?vid=587483c9-2e76-4dd6-8e62-cfbf184f34f9","ios":"levelo://app?vid=587483c9-2e76-4dd6-8e62-cfbf184f34f9"},"vehicle_type_id":"4","last_reported":1737565707,"current_range_meters":36800,"station_id":"ce4bhnh2rcd13ifvqgug","pricing_plan_id":"cebpf4jnsgd1na2vs0mg"},{"bike_id":"477a9bbc-d0b1-4f23-920e-fab66e06cb8f","system_id":"levelo_inurba_marseille","lat":43.245881,"lon":5.420949,"is_reserved":false,"is_disabled":false,"rental_uris":{"android":"levelo://app?vid=477a9bbc-d0b1-4f23-920e-fab66e06cb8f","ios":"levelo://app?vid=477a9bbc-d0b1-4f23-920e-fab66e06cb8f"},"vehicle_type_id":"4","last_reported":1737565707,"current_range_meters":36400,"station_id":"ce4bhhh2rcd13ifvqfl0","pricing_plan_id":"cebpf4jnsgd1na2vs0mg"},{"bike_id":"d0fce4c7-8ecd-4add-9fae-0520fd48c84d","system_id":"levelo_inurba_marseille","lat":43.302979,"lon":5.392105,"is_reserved":false,"is_disabled":false,"rental_uris":{"android":"levelo://app?vid=d0fce4c7-8ecd-4add-9fae-0520fd48c84d","ios":"levelo://app?vid=d0fce4c7-8ecd-4add-9fae-0520fd48c84d"},"vehicle_type_id":"4","last_reported":1737565707,"current_range_meters":39200,"station_id":"ce4bgkh2rcd13ifvqbk0","pricing_plan_id":"cebpf4jnsgd1na2vs0mg"},{"bike_id":"d1250c0e-35f2-48fb-8fd7-0880ffa98732","system_id":"levelo_inurba_marseille","lat":43.29569,"lon":5.37511,"is_reserved":false,"is_disabled":true,"rental_uris":{"android":"levelo://app?vid=d1250c0e-35f2-48fb-8fd7-0880ffa98732","ios":"levelo://app?vid=d1250c0e-35f2-48fb-8fd7-0880ffa98732"},"vehicle_type_id":"4","last_reported":1737565707,"current_range_meters":1600,"station_id":"ce4bgh92rcd13ifvqb50","pricing_plan_id":"cebpf4jnsgd1na2vs0mg"},{"bike_id":"aea2f667-826c-4577-8a9e-95c32518c39f","system_id":"levelo_inurba_marseille","lat":43.29829,"lon":5.38092,"is_reserved":false,"is_disabled":false,"rental_uris":{"android":"levelo://app?vid=aea2f667-826c-4577-8a9e-95c32518c39f","ios":"levelo://app?vid=aea2f667-826c-4577-8a9e-95c32518c39f"},"vehicle_type_id":"4","last_reported":1737565707,"current_range_meters":38800,"station_id":"ce4bgip2rcd13ifvqbb0","pricing_plan_id":"cebpf4jnsgd1na2vs0mg"},{"bike_id":"f3a7056e-e03d-4aaf-9a2e-99546ddcad83","system_id":"levelo_inurba_marseille","lat":43.29797,"lon":5.38099,"is_reserved":false,"is_disabled":false,"rental_uris":{"android":"levelo://app?vid=f3a7056e-e03d-4aaf-9a2e-99546ddcad83","ios":"levelo://app?vid=f3a7056e-e03d-4aaf-9a2e-99546ddcad83"},"vehicle_type_id":"4","last_reported":1737565707,"current_range_meters":38800,"station_id":"ce4bgip2rcd13ifvqbb0","pricing_plan_id":"cebpf4jnsgd1na2vs0mg"},{"bike_id":"085df028-b516-4f5f-9122-1438dd5aa2f4","system_id":"levelo_inurba_marseille","lat":43.28947,"lon":5.38416,"is_reserved":false,"is_disabled":false,"rental_uris":{"android":"levelo://app?vid=085df028-b516-4f5f-9122-1438dd5aa2f4","ios":"levelo://app?vid=085df028-b516-4f5f-9122-1438dd5aa2f4"},"vehicle_type_id":"4","last_reported":1737565707,"current_range_meters":9600,"station_id":"ce4bh612rcd13ifvqe6g","pricing_plan_id":"cebpf4jnsgd1na2vs0mg"},{"bike_id":"51a36b3c-6a3c-4a10-8421-cf3855c7a215","system_id":"levelo_inurba_marseille","lat":43.2558,"lon":5.38226,"is_reserved":false,"is_disabled":false,"rental_uris":{"android":"levelo://app?vid=51a36b3c-6a3c-4a10-8421-cf3855c7a215","ios":"levelo://app?vid=51a36b3c-6a3c-4a10-8421-cf3855c7a215"},"vehicle_type_id":"4","last_reported":1737565707,"current_range_meters":9600,"station_id":"ce4bhih2rcd13ifvqfs0","pricing_plan_id":"cebpf4jnsgd1na2vs0mg"},{"bike_id":"6de73019-65d6-47fd-96ca-5c865cb56b4b","system_id":"levelo_inurba_marseille","lat":43.30301,"lon":5.3688,"is_reserved":false,"is_disabled":false,"rental_uris":{"android":"levelo://app?vid=6de73019-65d6-47fd-96ca-5c865cb56b4b","ios":"levelo://app?vid=6de73019-65d6-47fd-96ca-5c865cb56b4b"},"vehicle_type_id":"4","last_reported":1737565707,"current_range_meters":2800,"station_id":"ce4bgqh2rcd13ifvqc5g","pricing_plan_id":"cebpf4jnsgd1na2vs0mg"},{"bike_id":"cff1680f-636c-4c21-adec-aee2428512db","system_id":"levelo_inurba_marseille","lat":43.28607,"lon":5.37053,"is_reserved":false,"is_disabled":false,"rental_uris":{"android":"levelo://app?vid=cff1680f-636c-4c21-adec-aee2428512db","ios":"levelo://app?vid=cff1680f-636c-4c21-adec-aee2428512db"},"vehicle_type_id":"4","last_reported":1737565707,"current_range_meters":37600,"station_id":"ce4bht12rcd13ifvqi60","pricing_plan_id":"cebpf4jnsgd1na2vs0mg"},{"bike_id":"13ff516e-16cf-4543-8540-9030b8b296b4","system_id":"levelo_inurba_marseille","lat":43.232,"lon":5.35544,"is_reserved":false,"is_disabled":false,"rental_uris":{"android":"levelo://app?vid=13ff516e-16cf-4543-8540-9030b8b296b4","ios":"levelo://app?vid=13ff516e-16cf-4543-8540-9030b8b296b4"},"vehicle_type_id":"4","last_reported":1737565707,"current_range_meters":32800,"station_id":"ce4bhu92rcd13ifvqi70","pricing_plan_id":"cebpf4jnsgd1na2vs0mg"},{"bike_id":"fd83409d-5557-46c9-83a4-f7f5c8eee24a","system_id":"levelo_inurba_marseille","lat":43.29027,"lon":5.38147,"is_reserved":false,"is_disabled":false,"rental_uris":{"android":"levelo://app?vid=fd83409d-5557-46c9-83a4-f7f5c8eee24a","ios":"levelo://app?vid=fd83409d-5557-46c9-83a4-f7f5c8eee24a"},"vehicle_type_id":"4","last_reported":1737565707,"current_range_meters":38800,"station_id":"ce4bh4p2rcd13ifvqe1g","pricing_plan_id":"cebpf4jnsgd1na2vs0mg"},{"bike_id":"9984a19d-448e-4ed2-8c95-d1103fd0e167","system_id":"levelo_inurba_marseille","lat":43.31702,"lon":5.38986,"is_reserved":false,"is_disabled":false,"rental_uris":{"android":"levelo://app?vid=9984a19d-448e-4ed2-8c95-d1103fd0e167","ios":"levelo://app?vid=9984a19d-448e-4ed2-8c95-d1103fd0e167"},"vehicle_type_id":"4","last_reported":1737565707,"current_range_meters":38800,"station_id":"ce4bhqp2rcd13ifvqhng","pricing_plan_id":"cebpf4jnsgd1na2vs0mg"},{"bike_id":"dc9afc0d-d533-431b-a32f-6f6423d7880b","system_id":"levelo_inurba_marseille","lat":43.3173,"lon":5.424,"is_reserved":false,"is_disabled":false,"rental_uris":{"android":"levelo://app?vid=dc9afc0d-d533-431b-a32f-6f6423d7880b","ios":"levelo://app?vid=dc9afc0d-d533-431b-a32f-6f6423d7880b"},"vehicle_type_id":"4","last_reported":1737565707,"current_range_meters":34800,"station_id":"ce4bhp92rcd13ifvqhbg","pricing_plan_id":"cebpf4jnsgd1na2vs0mg"},{"bike_id":"bfc7d970-e019-4665-84d5-e5a81d0af44a","system_id":"levelo_inurba_marseille","lat":43.27933,"lon":5.41039,"is_reserved":false,"is_disabled":false,"rental_uris":{"android":"levelo://app?vid=bfc7d970-e019-4665-84d5-e5a81d0af44a","ios":"levelo://app?vid=bfc7d970-e019-4665-84d5-e5a81d0af44a"},"vehicle_type_id":"4","last_reported":1737565707,"current_range_meters":24400,"station_id":"ce4bhnp2rcd13ifvqh0g","pricing_plan_id":"cebpf4jnsgd1na2vs0mg"},{"bike_id":"91220a62-ed0c-4d2f-831f-dba7816c7cd4","system_id":"levelo_inurba_marseille","lat":43.2909,"lon":5.38138,"is_reserved":false,"is_disabled":false,"rental_uris":{"android":"levelo://app?vid=91220a62-ed0c-4d2f-831f-dba7816c7cd4","ios":"levelo://app?vid=91220a62-ed0c-4d2f-831f-dba7816c7cd4"},"vehicle_type_id":"4","last_reported":1737565707,"current_range_meters":20800,"station_id":"ce4bh512rcd13ifvqe2g","pricing_plan_id":"cebpf4jnsgd1na2vs0mg"},{"bike_id":"6692b602-c83e-4476-ac47-1e4e78272701","system_id":"levelo_inurba_marseille","lat":43.28003,"lon":5.40014,"is_reserved":false,"is_disabled":false,"rental_uris":{"android":"levelo://app?vid=6692b602-c83e-4476-ac47-1e4e78272701","ios":"levelo://app?vid=6692b602-c83e-4476-ac47-1e4e78272701"},"vehicle_type_id":"4","last_reported":1737565707,"current_range_meters":24400,"station_id":"ce4bho92rcd13ifvqh4g","pricing_plan_id":"cebpf4jnsgd1na2vs0mg"},{"bike_id":"63b58a85-c734-416a-95e8-b0eb3bedbb80","system_id":"levelo_inurba_marseille","lat":43.28437,"lon":5.39209,"is_reserved":false,"is_disabled":false,"rental_uris":{"android":"levelo://app?vid=63b58a85-c734-416a-95e8-b0eb3bedbb80","ios":"levelo://app?vid=63b58a85-c734-416a-95e8-b0eb3bedbb80"},"vehicle_type_id":"4","last_reported":1737565707,"current_range_meters":11600,"station_id":"ce4bhoh2rcd13ifvqh5g","pricing_plan_id":"cebpf4jnsgd1na2vs0mg"},{"bike_id":"427ec049-7bdc-415e-93a1-e025c8b36d89","system_id":"levelo_inurba_marseille","lat":43.27984,"lon":5.40005,"is_reserved":false,"is_disabled":true,"rental_uris":{"android":"levelo://app?vid=427ec049-7bdc-415e-93a1-e025c8b36d89","ios":"levelo://app?vid=427ec049-7bdc-415e-93a1-e025c8b36d89"},"vehicle_type_id":"4","last_reported":1737565707,"current_range_meters":2000,"station_id":"ce4bho92rcd13ifvqh4g","pricing_plan_id":"cebpf4jnsgd1na2vs0mg"},{"bike_id":"5b88206a-0a8a-47c0-a7c7-9f50bd60e9a4","system_id":"levelo_inurba_marseille","lat":43.25579,"lon":5.38228,"is_reserved":false,"is_disabled":false,"rental_uris":{"android":"levelo://app?vid=5b88206a-0a8a-47c0-a7c7-9f50bd60e9a4","ios":"levelo://app?vid=5b88206a-0a8a-47c0-a7c7-9f50bd60e9a4"},"vehicle_type_id":"4","last_reported":1737565707,"current_range_meters":38800,"station_id":"ce4bhih2rcd13ifvqfs0","pricing_plan_id":"cebpf4jnsgd1na2vs0mg"},{"bike_id":"d25bd425-6815-43e4-975a-24891a0a0ca0","system_id":"levelo_inurba_marseille","lat":43.30409,"lon":5.4129,"is_reserved":false,"is_disabled":false,"rental_uris":{"android":"levelo://app?vid=d25bd425-6815-43e4-975a-24891a0a0ca0","ios":"levelo://app?vid=d25bd425-6815-43e4-975a-24891a0a0ca0"},"vehicle_type_id":"4","last_reported":1737565707,"current_range_meters":38800,"station_id":"ce4bhop2rcd13ifvqh8g","pricing_plan_id":"cebpf4jnsgd1na2vs0mg"},{"bike_id":"1fc174c7-67a6-45a8-a272-290faf925193","system_id":"levelo_inurba_marseille","lat":43.2962,"lon":5.37149,"is_reserved":false,"is_disabled":false,"rental_uris":{"android":"levelo://app?vid=1fc174c7-67a6-45a8-a272-290faf925193","ios":"levelo://app?vid=1fc174c7-67a6-45a8-a272-290faf925193"},"vehicle_type_id":"4","last_reported":1737565707,"current_range_meters":26800,"station_id":"ce4bgnh2rcd13ifvqc0g","pricing_plan_id":"cebpf4jnsgd1na2vs0mg"},{"bike_id":"1bc273db-9935-43f6-b35e-fb18e49503d1","system_id":"levelo_inurba_marseille","lat":43.29882,"lon":5.38902,"is_reserved":false,"is_disabled":false,"rental_uris":{"android":"levelo://app?vid=1bc273db-9935-43f6-b35e-fb18e49503d1","ios":"levelo://app?vid=1bc273db-9935-43f6-b35e-fb18e49503d1"},"vehicle_type_id":"4","last_reported":1737565707,"current_range_meters":24000,"station_id":"ce4bh392rcd13ifvqdl0","pricing_plan_id":"cebpf4jnsgd1na2vs0mg"},{"bike_id":"63d58c03-c5d6-46cb-ae98-9747f7a8a2c1","system_id":"levelo_inurba_marseille","lat":43.29793,"lon":5.38097,"is_reserved":false,"is_disabled":false,"rental_uris":{"android":"levelo://app?vid=63d58c03-c5d6-46cb-ae98-9747f7a8a2c1","ios":"levelo://app?vid=63d58c03-c5d6-46cb-ae98-9747f7a8a2c1"},"vehicle_type_id":"4","last_reported":1737565707,"current_range_meters":12400,"station_id":"ce4bgip2rcd13ifvqbb0","pricing_plan_id":"cebpf4jnsgd1na2vs0mg"},{"bike_id":"bd771a8e-666c-4f89-bb31-e000a937060f","system_id":"levelo_inurba_marseille","lat":43.28426,"lon":5.37527,"is_reserved":false,"is_disabled":true,"rental_uris":{"android":"levelo://app?vid=bd771a8e-666c-4f89-bb31-e000a937060f","ios":"levelo://app?vid=bd771a8e-666c-4f89-bb31-e000a937060f"},"vehicle_type_id":"4","last_reported":1737565707,"current_range_meters":8400,"station_id":"ce4bh412rcd13ifvqds0","pricing_plan_id":"cebpf4jnsgd1na2vs0mg"},{"bike_id":"adb26299-3e4f-4001-b2be-8fe3e3c1aef5","system_id":"levelo_inurba_marseille","lat":43.29235,"lon":5.36084,"is_reserved":false,"is_disabled":false,"rental_uris":{"android":"levelo://app?vid=adb26299-3e4f-4001-b2be-8fe3e3c1aef5","ios":"levelo://app?vid=adb26299-3e4f-4001-b2be-8fe3e3c1aef5"},"vehicle_type_id":"4","last_reported":1737565707,"current_range_meters":30800,"station_id":"ce4bhbh2rcd13ifvqeqg","pricing_plan_id":"cebpf4jnsgd1na2vs0mg"},{"bike_id":"64b5cd3e-b22b-4f38-913b-0495951311ed","system_id":"levelo_inurba_marseille","lat":43.253299,"lon":5.400674,"is_reserved":false,"is_disabled":false,"rental_uris":{"android":"levelo://app?vid=64b5cd3e-b22b-4f38-913b-0495951311ed","ios":"levelo://app?vid=64b5cd3e-b22b-4f38-913b-0495951311ed"},"vehicle_type_id":"4","last_reported":1737565707,"current_range_meters":18000,"station_id":"","pricing_plan_id":"cebpf4jnsgd1na2vs0mg"},{"bike_id":"884d6d54-f1b6-4b7b-8ae1-9d2ea87ca7d7","system_id":"levelo_inurba_marseille","lat":43.29426,"lon":5.39766,"is_reserved":false,"is_disabled":false,"rental_uris":{"android":"levelo://app?vid=884d6d54-f1b6-4b7b-8ae1-9d2ea87ca7d7","ios":"levelo://app?vid=884d6d54-f1b6-4b7b-8ae1-9d2ea87ca7d7"},"vehicle_type_id":"4","last_reported":1737565707,"current_range_meters":16400,"station_id":"ce4bh3h2rcd13ifvqdo0","pricing_plan_id":"cebpf4jnsgd1na2vs0mg"},{"bike_id":"f5b52696-dada-4db8-ac63-486420d431ea","system_id":"levelo_inurba_marseille","lat":43.24633,"lon":5.38899,"is_reserved":false,"is_disabled":false,"rental_uris":{"android":"levelo://app?vid=f5b52696-dada-4db8-ac63-486420d431ea","ios":"levelo://app?vid=f5b52696-dada-4db8-ac63-486420d431ea"},"vehicle_type_id":"4","last_reported":1737565707,"current_range_meters":39200,"station_id":"ce4bhg12rcd13ifvqf60","pricing_plan_id":"cebpf4jnsgd1na2vs0mg"},{"bike_id":"3d2884c8-e678-49ea-8adc-aa1053c2bea5","system_id":"levelo_inurba_marseille","lat":43.30256,"lon":5.40069,"is_reserved":false,"is_disabled":false,"rental_uris":{"android":"levelo://app?vid=3d2884c8-e678-49ea-8adc-aa1053c2bea5","ios":"levelo://app?vid=3d2884c8-e678-49ea-8adc-aa1053c2bea5"},"vehicle_type_id":"4","last_reported":1737565707,"current_range_meters":38800,"station_id":"ce4bgvh2rcd13ifvqcs0","pricing_plan_id":"cebpf4jnsgd1na2vs0mg"},{"bike_id":"238052dc-3526-4752-a3d3-85a5ee18f5c0","system_id":"levelo_inurba_marseille","lat":43.32288,"lon":5.38272,"is_reserved":false,"is_disabled":false,"rental_uris":{"android":"levelo://app?vid=238052dc-3526-4752-a3d3-85a5ee18f5c0","ios":"levelo://app?vid=238052dc-3526-4752-a3d3-85a5ee18f5c0"},"vehicle_type_id":"4","last_reported":1737565707,"current_range_meters":24000,"station_id":"ce4bhr12rcd13ifvqhqg","pricing_plan_id":"cebpf4jnsgd1na2vs0mg"},{"bike_id":"727ecb4a-c6ab-485c-8f41-2ddac85c00c2","system_id":"levelo_inurba_marseille","lat":43.2861,"lon":5.35099,"is_reserved":false,"is_disabled":false,"rental_uris":{"android":"levelo://app?vid=727ecb4a-c6ab-485c-8f41-2ddac85c00c2","ios":"levelo://app?vid=727ecb4a-c6ab-485c-8f41-2ddac85c00c2"},"vehicle_type_id":"4","last_reported":1737565707,"current_range_meters":38800,"station_id":"ce4bhch2rcd13ifvqeug","pricing_plan_id":"cebpf4jnsgd1na2vs0mg"},{"bike_id":"62126633-6db5-48fa-8960-d4ae58a1c980","system_id":"levelo_inurba_marseille","lat":43.28144,"lon":5.42644,"is_reserved":false,"is_disabled":false,"rental_uris":{"android":"levelo://app?vid=62126633-6db5-48fa-8960-d4ae58a1c980","ios":"levelo://app?vid=62126633-6db5-48fa-8960-d4ae58a1c980"},"vehicle_type_id":"4","last_reported":1737565707,"current_range_meters":8000,"station_id":"ce4bhnh2rcd13ifvqgug","pricing_plan_id":"cebpf4jnsgd1na2vs0mg"},{"bike_id":"7b9618e5-f073-41a0-b410-007d3084e088","system_id":"levelo_inurba_marseille","lat":43.30919,"lon":5.40132,"is_reserved":false,"is_disabled":false,"rental_uris":{"android":"levelo://app?vid=7b9618e5-f073-41a0-b410-007d3084e088","ios":"levelo://app?vid=7b9618e5-f073-41a0-b410-007d3084e088"},"vehicle_type_id":"4","last_reported":1737565707,"current_range_meters":35600,"station_id":"ce4bgvp2rcd13ifvqct0","pricing_plan_id":"cebpf4jnsgd1na2vs0mg"},{"bike_id":"78a5334e-9281-48a9-9a46-2eb6425db5b8","system_id":"levelo_inurba_marseille","lat":43.26933,"lon":5.38923,"is_reserved":false,"is_disabled":false,"rental_uris":{"android":"levelo://app?vid=78a5334e-9281-48a9-9a46-2eb6425db5b8","ios":"levelo://app?vid=78a5334e-9281-48a9-9a46-2eb6425db5b8"},"vehicle_type_id":"4","last_reported":1737565707,"current_range_meters":32000,"station_id":"ce4bhhh2rcd13ifvqfl0","pricing_plan_id":"cebpf4jnsgd1na2vs0mg"},{"bike_id":"ebdd864c-7126-489f-b386-60dc52d588f1","system_id":"levelo_inurba_marseille","lat":43.28108,"lon":5.37842,"is_reserved":false,"is_disabled":false,"rental_uris":{"android":"levelo://app?vid=ebdd864c-7126-489f-b386-60dc52d588f1","ios":"levelo://app?vid=ebdd864c-7126-489f-b386-60dc52d588f1"},"vehicle_type_id":"4","last_reported":1737565707,"current_range_meters":38000,"station_id":"ce4bha12rcd13ifvqee0","pricing_plan_id":"cebpf4jnsgd1na2vs0mg"},{"bike_id":"63d1b3d7-de81-4fd3-b4b9-f4f0d1d2bb72","system_id":"levelo_inurba_marseille","lat":43.29906,"lon":5.38118,"is_reserved":false,"is_disabled":false,"rental_uris":{"android":"levelo://app?vid=63d1b3d7-de81-4fd3-b4b9-f4f0d1d2bb72","ios":"levelo://app?vid=63d1b3d7-de81-4fd3-b4b9-f4f0d1d2bb72"},"vehicle_type_id":"4","last_reported":1737565707,"current_range_meters":19200,"station_id":"ce4bgj12rcd13ifvqbc0","pricing_plan_id":"cebpf4jnsgd1na2vs0mg"},{"bike_id":"f89b5621-a505-4081-ad8c-8add345ff050","system_id":"levelo_inurba_marseille","lat":43.30256,"lon":5.40083,"is_reserved":false,"is_disabled":false,"rental_uris":{"android":"levelo://app?vid=f89b5621-a505-4081-ad8c-8add345ff050","ios":"levelo://app?vid=f89b5621-a505-4081-ad8c-8add345ff050"},"vehicle_type_id":"4","last_reported":1737565707,"current_range_meters":6400,"station_id":"ce4bgvh2rcd13ifvqcs0","pricing_plan_id":"cebpf4jnsgd1na2vs0mg"},{"bike_id":"1cacc39b-8464-4517-8719-a5b46245be93","system_id":"levelo_inurba_marseille","lat":43.31076,"lon":5.42396,"is_reserved":false,"is_disabled":false,"rental_uris":{"android":"levelo://app?vid=1cacc39b-8464-4517-8719-a5b46245be93","ios":"levelo://app?vid=1cacc39b-8464-4517-8719-a5b46245be93"},"vehicle_type_id":"4","last_reported":1737565707,"current_range_meters":38800,"station_id":"ce4bhp92rcd13ifvqhag","pricing_plan_id":"cebpf4jnsgd1na2vs0mg"},{"bike_id":"6f04209d-0d8b-4bac-884f-364b7f4ac743","system_id":"levelo_inurba_marseille","lat":43.27947,"lon":5.41067,"is_reserved":false,"is_disabled":false,"rental_uris":{"android":"levelo://app?vid=6f04209d-0d8b-4bac-884f-364b7f4ac743","ios":"levelo://app?vid=6f04209d-0d8b-4bac-884f-364b7f4ac743"},"vehicle_type_id":"4","last_reported":1737565707,"current_range_meters":24400,"station_id":"ce4bhnp2rcd13ifvqh0g","pricing_plan_id":"cebpf4jnsgd1na2vs0mg"},{"bike_id":"2094d673-56a1-4b76-a92d-894a34210788","system_id":"levelo_inurba_marseille","lat":43.29201,"lon":5.36035,"is_reserved":false,"is_disabled":false,"rental_uris":{"android":"levelo://app?vid=2094d673-56a1-4b76-a92d-894a34210788","ios":"levelo://app?vid=2094d673-56a1-4b76-a92d-894a34210788"},"vehicle_type_id":"4","last_reported":1737565707,"current_range_meters":20400,"station_id":"ce4bhbh2rcd13ifvqeqg","pricing_plan_id":"cebpf4jnsgd1na2vs0mg"},{"bike_id":"713b4e02-a459-45c2-8b7f-670ded946bdb","system_id":"levelo_inurba_marseille","lat":43.29641,"lon":5.37125,"is_reserved":false,"is_disabled":false,"rental_uris":{"android":"levelo://app?vid=713b4e02-a459-45c2-8b7f-670ded946bdb","ios":"levelo://app?vid=713b4e02-a459-45c2-8b7f-670ded946bdb"},"vehicle_type_id":"4","last_reported":1737565707,"current_range_meters":38800,"station_id":"ce4bgnh2rcd13ifvqc0g","pricing_plan_id":"cebpf4jnsgd1na2vs0mg"},{"bike_id":"f1bebdb5-1620-4a4e-acee-e9ae7ec8bdd7","system_id":"levelo_inurba_marseille","lat":43.29527,"lon":5.39039,"is_reserved":false,"is_disabled":false,"rental_uris":{"android":"levelo://app?vid=f1bebdb5-1620-4a4e-acee-e9ae7ec8bdd7","ios":"levelo://app?vid=f1bebdb5-1620-4a4e-acee-e9ae7ec8bdd7"},"vehicle_type_id":"4","last_reported":1737565707,"current_range_meters":19200,"station_id":"ce4bh3p2rcd13ifvqdp0","pricing_plan_id":"cebpf4jnsgd1na2vs0mg"},{"bike_id":"38a62f0f-5642-4b4d-ab65-8ce22514d290","system_id":"levelo_inurba_marseille","lat":43.24662,"lon":5.38875,"is_reserved":false,"is_disabled":false,"rental_uris":{"android":"levelo://app?vid=38a62f0f-5642-4b4d-ab65-8ce22514d290","ios":"levelo://app?vid=38a62f0f-5642-4b4d-ab65-8ce22514d290"},"vehicle_type_id":"4","last_reported":1737565707,"current_range_meters":38800,"station_id":"ce4bhg12rcd13ifvqf60","pricing_plan_id":"cebpf4jnsgd1na2vs0mg"},{"bike_id":"9639a84d-ae1f-45e1-9c89-ad82d062216b","system_id":"levelo_inurba_marseille","lat":43.30261,"lon":5.40079,"is_reserved":false,"is_disabled":false,"rental_uris":{"android":"levelo://app?vid=9639a84d-ae1f-45e1-9c89-ad82d062216b","ios":"levelo://app?vid=9639a84d-ae1f-45e1-9c89-ad82d062216b"},"vehicle_type_id":"4","last_reported":1737565707,"current_range_meters":14800,"station_id":"ce4bgvh2rcd13ifvqcs0","pricing_plan_id":"cebpf4jnsgd1na2vs0mg"},{"bike_id":"6a8f4c49-6b64-4253-a847-2c87d98c04fd","system_id":"levelo_inurba_marseille","lat":43.2926,"lon":5.38438,"is_reserved":false,"is_disabled":false,"rental_uris":{"android":"levelo://app?vid=6a8f4c49-6b64-4253-a847-2c87d98c04fd","ios":"levelo://app?vid=6a8f4c49-6b64-4253-a847-2c87d98c04fd"},"vehicle_type_id":"4","last_reported":1737565707,"current_range_meters":38800,"station_id":"ce4bh692rcd13ifvqea0","pricing_plan_id":"cebpf4jnsgd1na2vs0mg"},{"bike_id":"6e277166-8ef9-4cd9-a6ab-7e45b1dc714f","system_id":"levelo_inurba_marseille","lat":43.26214,"lon":5.37443,"is_reserved":false,"is_disabled":false,"rental_uris":{"android":"levelo://app?vid=6e277166-8ef9-4cd9-a6ab-7e45b1dc714f","ios":"levelo://app?vid=6e277166-8ef9-4cd9-a6ab-7e45b1dc714f"},"vehicle_type_id":"4","last_reported":1737565707,"current_range_meters":36000,"station_id":"ce4bhgp2rcd13ifvqfc0","pricing_plan_id":"cebpf4jnsgd1na2vs0mg"},{"bike_id":"667e8587-049c-49ea-8524-5b3a76b72cf6","system_id":"levelo_inurba_marseille","lat":43.30944,"lon":5.40143,"is_reserved":false,"is_disabled":false,"rental_uris":{"android":"levelo://app?vid=667e8587-049c-49ea-8524-5b3a76b72cf6","ios":"levelo://app?vid=667e8587-049c-49ea-8524-5b3a76b72cf6"},"vehicle_type_id":"4","last_reported":1737565707,"current_range_meters":19600,"station_id":"ce4bgvp2rcd13ifvqct0","pricing_plan_id":"cebpf4jnsgd1na2vs0mg"},{"bike_id":"1f7c87db-d399-4f13-923d-8a98a4f000e9","system_id":"levelo_inurba_marseille","lat":43.23976,"lon":5.36611,"is_reserved":false,"is_disabled":false,"rental_uris":{"android":"levelo://app?vid=1f7c87db-d399-4f13-923d-8a98a4f000e9","ios":"levelo://app?vid=1f7c87db-d399-4f13-923d-8a98a4f000e9"},"vehicle_type_id":"4","last_reported":1737565707,"current_range_meters":8800,"station_id":"ce4bhi12rcd13ifvqfp0","pricing_plan_id":"cebpf4jnsgd1na2vs0mg"},{"bike_id":"6fa1466d-6a51-466c-8ae6-715092a8d118","system_id":"levelo_inurba_marseille","lat":43.28426,"lon":5.37524,"is_reserved":false,"is_disabled":false,"rental_uris":{"android":"levelo://app?vid=6fa1466d-6a51-466c-8ae6-715092a8d118","ios":"levelo://app?vid=6fa1466d-6a51-466c-8ae6-715092a8d118"},"vehicle_type_id":"4","last_reported":1737565707,"current_range_meters":20800,"station_id":"ce4bh412rcd13ifvqds0","pricing_plan_id":"cebpf4jnsgd1na2vs0mg"},{"bike_id":"48efccda-2111-452c-aa58-ecab3b6bef37","system_id":"levelo_inurba_marseille","lat":43.29291,"lon":5.37473,"is_reserved":false,"is_disabled":false,"rental_uris":{"android":"levelo://app?vid=48efccda-2111-452c-aa58-ecab3b6bef37","ios":"levelo://app?vid=48efccda-2111-452c-aa58-ecab3b6bef37"},"vehicle_type_id":"4","last_reported":1737565707,"current_range_meters":3600,"station_id":"ce4bgi12rcd13ifvqb70","pricing_plan_id":"cebpf4jnsgd1na2vs0mg"},{"bike_id":"9dea427a-253b-4905-a6ae-1b6d9893fb2b","system_id":"levelo_inurba_marseille","lat":43.27994,"lon":5.4001,"is_reserved":false,"is_disabled":false,"rental_uris":{"android":"levelo://app?vid=9dea427a-253b-4905-a6ae-1b6d9893fb2b","ios":"levelo://app?vid=9dea427a-253b-4905-a6ae-1b6d9893fb2b"},"vehicle_type_id":"4","last_reported":1737565707,"current_range_meters":31200,"station_id":"ce4bho92rcd13ifvqh4g","pricing_plan_id":"cebpf4jnsgd1na2vs0mg"},{"bike_id":"e7ac4ec6-432e-4ab9-a340-7a0f45957c4e","system_id":"levelo_inurba_marseille","lat":43.33721,"lon":5.39189,"is_reserved":false,"is_disabled":false,"rental_uris":{"android":"levelo://app?vid=e7ac4ec6-432e-4ab9-a340-7a0f45957c4e","ios":"levelo://app?vid=e7ac4ec6-432e-4ab9-a340-7a0f45957c4e"},"vehicle_type_id":"4","last_reported":1737565707,"current_range_meters":31200,"station_id":"ce4bhr92rcd13ifvqhsg","pricing_plan_id":"cebpf4jnsgd1na2vs0mg"},{"bike_id":"2c115182-c42c-491c-9297-b7a7447bfbd5","system_id":"levelo_inurba_marseille","lat":43.29225,"lon":5.36051,"is_reserved":false,"is_disabled":false,"rental_uris":{"android":"levelo://app?vid=2c115182-c42c-491c-9297-b7a7447bfbd5","ios":"levelo://app?vid=2c115182-c42c-491c-9297-b7a7447bfbd5"},"vehicle_type_id":"4","last_reported":1737565707,"current_range_meters":33600,"station_id":"ce4bhbh2rcd13ifvqeqg","pricing_plan_id":"cebpf4jnsgd1na2vs0mg"},{"bike_id":"a7322f25-c3d9-431d-9398-93f60a01ff0f","system_id":"levelo_inurba_marseille","lat":43.29784,"lon":5.39373,"is_reserved":false,"is_disabled":false,"rental_uris":{"android":"levelo://app?vid=a7322f25-c3d9-431d-9398-93f60a01ff0f","ios":"levelo://app?vid=a7322f25-c3d9-431d-9398-93f60a01ff0f"},"vehicle_type_id":"4","last_reported":1737565707,"current_range_meters":38800,"station_id":"chh1huq6cuj3fo74tm60","pricing_plan_id":"cebpf4jnsgd1na2vs0mg"},{"bike_id":"8b1bb583-b9f5-425f-85ae-32faf8276ccf","system_id":"levelo_inurba_marseille","lat":43.26935,"lon":5.40257,"is_reserved":false,"is_disabled":true,"rental_uris":{"android":"levelo://app?vid=8b1bb583-b9f5-425f-85ae-32faf8276ccf","ios":"levelo://app?vid=8b1bb583-b9f5-425f-85ae-32faf8276ccf"},"vehicle_type_id":"4","last_reported":1737565707,"current_range_meters":1200,"station_id":"cjm6bp8fraef2m0cb0m0","pricing_plan_id":"cebpf4jnsgd1na2vs0mg"},{"bike_id":"05eefeca-618b-4f43-bbb2-cd86ee63b097","system_id":"levelo_inurba_marseille","lat":43.23192,"lon":5.35552,"is_reserved":false,"is_disabled":false,"rental_uris":{"android":"levelo://app?vid=05eefeca-618b-4f43-bbb2-cd86ee63b097","ios":"levelo://app?vid=05eefeca-618b-4f43-bbb2-cd86ee63b097"},"vehicle_type_id":"4","last_reported":1737565707,"current_range_meters":30000,"station_id":"ce4bhu92rcd13ifvqi70","pricing_plan_id":"cebpf4jnsgd1na2vs0mg"},{"bike_id":"71f4c1a2-daf1-4e48-974d-08f1aa148807","system_id":"levelo_inurba_marseille","lat":43.25485,"lon":5.37654,"is_reserved":false,"is_disabled":false,"rental_uris":{"android":"levelo://app?vid=71f4c1a2-daf1-4e48-974d-08f1aa148807","ios":"levelo://app?vid=71f4c1a2-daf1-4e48-974d-08f1aa148807"},"vehicle_type_id":"4","last_reported":1737565707,"current_range_meters":32400,"station_id":"ce4bhh12rcd13ifvqff0","pricing_plan_id":"cebpf4jnsgd1na2vs0mg"},{"bike_id":"396a7e48-4f51-4717-be87-2ec175997273","system_id":"levelo_inurba_marseille","lat":43.28724,"lon":5.3794,"is_reserved":false,"is_disabled":false,"rental_uris":{"android":"levelo://app?vid=396a7e48-4f51-4717-be87-2ec175997273","ios":"levelo://app?vid=396a7e48-4f51-4717-be87-2ec175997273"},"vehicle_type_id":"4","last_reported":1737565707,"current_range_meters":6400,"station_id":"ce4bh9p2rcd13ifvqec0","pricing_plan_id":"cebpf4jnsgd1na2vs0mg"},{"bike_id":"8d795092-8d42-4d0c-8117-7692dec732c3","system_id":"levelo_inurba_marseille","lat":43.30206,"lon":5.39457,"is_reserved":false,"is_disabled":false,"rental_uris":{"android":"levelo://app?vid=8d795092-8d42-4d0c-8117-7692dec732c3","ios":"levelo://app?vid=8d795092-8d42-4d0c-8117-7692dec732c3"},"vehicle_type_id":"4","last_reported":1737565707,"current_range_meters":20400,"station_id":"ce4bh0p2rcd13ifvqd70","pricing_plan_id":"cebpf4jnsgd1na2vs0mg"},{"bike_id":"645b5c95-c5f9-4596-a275-f20010001be3","system_id":"levelo_inurba_marseille","lat":43.295999,"lon":5.377047,"is_reserved":false,"is_disabled":false,"rental_uris":{"android":"levelo://app?vid=645b5c95-c5f9-4596-a275-f20010001be3","ios":"levelo://app?vid=645b5c95-c5f9-4596-a275-f20010001be3"},"vehicle_type_id":"4","last_reported":1737565707,"current_range_meters":38800,"station_id":"ce4bgi92rcd13ifvqb90","pricing_plan_id":"cebpf4jnsgd1na2vs0mg"},{"bike_id":"64cdc2d3-d6ec-4254-8a08-fc3c9a17f77c","system_id":"levelo_inurba_marseille","lat":43.23197,"lon":5.39981,"is_reserved":false,"is_disabled":false,"rental_uris":{"android":"levelo://app?vid=64cdc2d3-d6ec-4254-8a08-fc3c9a17f77c","ios":"levelo://app?vid=64cdc2d3-d6ec-4254-8a08-fc3c9a17f77c"},"vehicle_type_id":"4","last_reported":1737565707,"current_range_meters":19600,"station_id":"ce4bhn12rcd13ifvqgqg","pricing_plan_id":"cebpf4jnsgd1na2vs0mg"},{"bike_id":"192ae307-f822-4bdc-ae55-efba16a2d2f2","system_id":"levelo_inurba_marseille","lat":43.31165,"lon":5.38724,"is_reserved":false,"is_disabled":false,"rental_uris":{"android":"levelo://app?vid=192ae307-f822-4bdc-ae55-efba16a2d2f2","ios":"levelo://app?vid=192ae307-f822-4bdc-ae55-efba16a2d2f2"},"vehicle_type_id":"4","last_reported":1737565707,"current_range_meters":14800,"station_id":"ce4bgv12rcd13ifvqcp0","pricing_plan_id":"cebpf4jnsgd1na2vs0mg"},{"bike_id":"a37144b3-c0b3-4f2f-b891-1366877f1661","system_id":"levelo_inurba_marseille","lat":43.30877,"lon":5.37209,"is_reserved":false,"is_disabled":true,"rental_uris":{"android":"levelo://app?vid=a37144b3-c0b3-4f2f-b891-1366877f1661","ios":"levelo://app?vid=a37144b3-c0b3-4f2f-b891-1366877f1661"},"vehicle_type_id":"4","last_reported":1737565707,"current_range_meters":0,"station_id":"ce4bguh2rcd13ifvqckg","pricing_plan_id":"cebpf4jnsgd1na2vs0mg"},{"bike_id":"6fb3dcdd-2462-49d2-9a3b-f8fda086713f","system_id":"levelo_inurba_marseille","lat":43.29623,"lon":5.37158,"is_reserved":false,"is_disabled":false,"rental_uris":{"android":"levelo://app?vid=6fb3dcdd-2462-49d2-9a3b-f8fda086713f","ios":"levelo://app?vid=6fb3dcdd-2462-49d2-9a3b-f8fda086713f"},"vehicle_type_id":"4","last_reported":1737565707,"current_range_meters":39200,"station_id":"ce4bgnh2rcd13ifvqc0g","pricing_plan_id":"cebpf4jnsgd1na2vs0mg"},{"bike_id":"090b65e4-873a-402a-ab32-1bdb7169dd65","system_id":"levelo_inurba_marseille","lat":43.31751,"lon":5.39014,"is_reserved":false,"is_disabled":true,"rental_uris":{"android":"levelo://app?vid=090b65e4-873a-402a-ab32-1bdb7169dd65","ios":"levelo://app?vid=090b65e4-873a-402a-ab32-1bdb7169dd65"},"vehicle_type_id":"4","last_reported":1737565707,"current_range_meters":400,"station_id":"ce4bhqp2rcd13ifvqhng","pricing_plan_id":"cebpf4jnsgd1na2vs0mg"},{"bike_id":"56777e47-9b99-4ab5-8e34-e78dda31d15b","system_id":"levelo_inurba_marseille","lat":43.29599,"lon":5.36724,"is_reserved":false,"is_disabled":false,"rental_uris":{"android":"levelo://app?vid=56777e47-9b99-4ab5-8e34-e78dda31d15b","ios":"levelo://app?vid=56777e47-9b99-4ab5-8e34-e78dda31d15b"},"vehicle_type_id":"4","last_reported":1737565707,"current_range_meters":38800,"station_id":"ce4bgph2rcd13ifvqc2g","pricing_plan_id":"cebpf4jnsgd1na2vs0mg"},{"bike_id":"5195b0ac-e7d8-4554-bfea-40b98b00896a","system_id":"levelo_inurba_marseille","lat":43.28927,"lon":5.38399,"is_reserved":false,"is_disabled":false,"rental_uris":{"android":"levelo://app?vid=5195b0ac-e7d8-4554-bfea-40b98b00896a","ios":"levelo://app?vid=5195b0ac-e7d8-4554-bfea-40b98b00896a"},"vehicle_type_id":"4","last_reported":1737565707,"current_range_meters":35200,"station_id":"ce4bh612rcd13ifvqe6g","pricing_plan_id":"cebpf4jnsgd1na2vs0mg"},{"bike_id":"6f91d618-21e7-4346-9444-3a1bb0416f40","system_id":"levelo_inurba_marseille","lat":43.29896,"lon":5.43672,"is_reserved":false,"is_disabled":false,"rental_uris":{"android":"levelo://app?vid=6f91d618-21e7-4346-9444-3a1bb0416f40","ios":"levelo://app?vid=6f91d618-21e7-4346-9444-3a1bb0416f40"},"vehicle_type_id":"4","last_reported":1737565707,"current_range_meters":27200,"station_id":"ce4bhpp2rcd13ifvqhfg","pricing_plan_id":"cebpf4jnsgd1na2vs0mg"},{"bike_id":"8df77682-c3dc-45c6-b0f2-414c3b926337","system_id":"levelo_inurba_marseille","lat":43.31718,"lon":5.37753,"is_reserved":false,"is_disabled":false,"rental_uris":{"android":"levelo://app?vid=8df77682-c3dc-45c6-b0f2-414c3b926337","ios":"levelo://app?vid=8df77682-c3dc-45c6-b0f2-414c3b926337"},"vehicle_type_id":"4","last_reported":1737565707,"current_range_meters":29600,"station_id":"ce4bgth2rcd13ifvqch0","pricing_plan_id":"cebpf4jnsgd1na2vs0mg"},{"bike_id":"3c77e7a5-3a31-41de-9373-52bb57399925","system_id":"levelo_inurba_marseille","lat":43.3102,"lon":5.37917,"is_reserved":false,"is_disabled":false,"rental_uris":{"android":"levelo://app?vid=3c77e7a5-3a31-41de-9373-52bb57399925","ios":"levelo://app?vid=3c77e7a5-3a31-41de-9373-52bb57399925"},"vehicle_type_id":"4","last_reported":1737565707,"current_range_meters":7200,"station_id":"","pricing_plan_id":"cebpf4jnsgd1na2vs0mg"},{"bike_id":"399e04a9-1ada-4fd9-9a8c-14f6a93a7f05","system_id":"levelo_inurba_marseille","lat":43.26839,"lon":5.39463,"is_reserved":false,"is_disabled":true,"rental_uris":{"android":"levelo://app?vid=399e04a9-1ada-4fd9-9a8c-14f6a93a7f05","ios":"levelo://app?vid=399e04a9-1ada-4fd9-9a8c-14f6a93a7f05"},"vehicle_type_id":"4","last_reported":1737565707,"current_range_meters":37600,"station_id":"","pricing_plan_id":"cebpf4jnsgd1na2vs0mg"},{"bike_id":"041cf880-e58b-472f-ba1f-12051b55de25","system_id":"levelo_inurba_marseille","lat":43.28939,"lon":5.36646,"is_reserved":false,"is_disabled":false,"rental_uris":{"android":"levelo://app?vid=041cf880-e58b-472f-ba1f-12051b55de25","ios":"levelo://app?vid=041cf880-e58b-472f-ba1f-12051b55de25"},"vehicle_type_id":"4","last_reported":1737565707,"current_range_meters":28400,"station_id":"ce4bhap2rcd13ifvqek0","pricing_plan_id":"cebpf4jnsgd1na2vs0mg"},{"bike_id":"745b699a-4f38-43cc-864c-cce4cbdbfe94","system_id":"levelo_inurba_marseille","lat":43.2418,"lon":5.39721,"is_reserved":false,"is_disabled":false,"rental_uris":{"android":"levelo://app?vid=745b699a-4f38-43cc-864c-cce4cbdbfe94","ios":"levelo://app?vid=745b699a-4f38-43cc-864c-cce4cbdbfe94"},"vehicle_type_id":"4","last_reported":1737565707,"current_range_meters":17200,"station_id":"ce4bhn12rcd13ifvqgpg","pricing_plan_id":"cebpf4jnsgd1na2vs0mg"},{"bike_id":"f65cafa9-dfaf-455c-98ba-c3cde6f273bc","system_id":"levelo_inurba_marseille","lat":43.2586,"lon":5.39906,"is_reserved":false,"is_disabled":false,"rental_uris":{"android":"levelo://app?vid=f65cafa9-dfaf-455c-98ba-c3cde6f273bc","ios":"levelo://app?vid=f65cafa9-dfaf-455c-98ba-c3cde6f273bc"},"vehicle_type_id":"4","last_reported":1737565707,"current_range_meters":36400,"station_id":"ce4bhl92rcd13ifvqghg","pricing_plan_id":"cebpf4jnsgd1na2vs0mg"},{"bike_id":"33a630d4-00bc-4719-8794-85c608af464a","system_id":"levelo_inurba_marseille","lat":43.29196,"lon":5.39331,"is_reserved":false,"is_disabled":false,"rental_uris":{"android":"levelo://app?vid=33a630d4-00bc-4719-8794-85c608af464a","ios":"levelo://app?vid=33a630d4-00bc-4719-8794-85c608af464a"},"vehicle_type_id":"4","last_reported":1737565707,"current_range_meters":4400,"station_id":"ce4bh192rcd13ifvqdd0","pricing_plan_id":"cebpf4jnsgd1na2vs0mg"},{"bike_id":"f1bb3101-edf1-4168-a007-37e50effa8e2","system_id":"levelo_inurba_marseille","lat":43.28935,"lon":5.36417,"is_reserved":false,"is_disabled":false,"rental_uris":{"android":"levelo://app?vid=f1bb3101-edf1-4168-a007-37e50effa8e2","ios":"levelo://app?vid=f1bb3101-edf1-4168-a007-37e50effa8e2"},"vehicle_type_id":"4","last_reported":1737565707,"current_range_meters":37600,"station_id":"ce4bhc92rcd13ifvqetg","pricing_plan_id":"cebpf4jnsgd1na2vs0mg"},{"bike_id":"f7f742be-f2ca-43eb-91c7-162330ac0de0","system_id":"levelo_inurba_marseille","lat":43.29571,"lon":5.39982,"is_reserved":false,"is_disabled":false,"rental_uris":{"android":"levelo://app?vid=f7f742be-f2ca-43eb-91c7-162330ac0de0","ios":"levelo://app?vid=f7f742be-f2ca-43eb-91c7-162330ac0de0"},"vehicle_type_id":"4","last_reported":1737565707,"current_range_meters":38800,"station_id":"ce4bh312rcd13ifvqdj0","pricing_plan_id":"cebpf4jnsgd1na2vs0mg"},{"bike_id":"05e5003d-9969-4d55-9b6f-fc821d0e70d6","system_id":"levelo_inurba_marseille","lat":43.2958,"lon":5.37501,"is_reserved":false,"is_disabled":false,"rental_uris":{"android":"levelo://app?vid=05e5003d-9969-4d55-9b6f-fc821d0e70d6","ios":"levelo://app?vid=05e5003d-9969-4d55-9b6f-fc821d0e70d6"},"vehicle_type_id":"4","last_reported":1737565707,"current_range_meters":38800,"station_id":"ce4bgh92rcd13ifvqb50","pricing_plan_id":"cebpf4jnsgd1na2vs0mg"},{"bike_id":"85ef8ccd-228d-432e-b751-d683b60a90c9","system_id":"levelo_inurba_marseille","lat":43.3128,"lon":5.3693,"is_reserved":false,"is_disabled":false,"rental_uris":{"android":"levelo://app?vid=85ef8ccd-228d-432e-b751-d683b60a90c9","ios":"levelo://app?vid=85ef8ccd-228d-432e-b751-d683b60a90c9"},"vehicle_type_id":"4","last_reported":1737565707,"current_range_meters":4400,"station_id":"","pricing_plan_id":"cebpf4jnsgd1na2vs0mg"},{"bike_id":"f98bbb9c-137b-4257-84a0-7992aa99dd31","system_id":"levelo_inurba_marseille","lat":43.29518,"lon":5.39038,"is_reserved":false,"is_disabled":false,"rental_uris":{"android":"levelo://app?vid=f98bbb9c-137b-4257-84a0-7992aa99dd31","ios":"levelo://app?vid=f98bbb9c-137b-4257-84a0-7992aa99dd31"},"vehicle_type_id":"4","last_reported":1737565707,"current_range_meters":37600,"station_id":"ce4bh3p2rcd13ifvqdp0","pricing_plan_id":"cebpf4jnsgd1na2vs0mg"},{"bike_id":"79677fc5-7a31-42d8-afe0-b3cd9306d2fc","system_id":"levelo_inurba_marseille","lat":43.2904,"lon":5.37561,"is_reserved":false,"is_disabled":false,"rental_uris":{"android":"levelo://app?vid=79677fc5-7a31-42d8-afe0-b3cd9306d2fc","ios":"levelo://app?vid=79677fc5-7a31-42d8-afe0-b3cd9306d2fc"},"vehicle_type_id":"4","last_reported":1737565707,"current_range_meters":23200,"station_id":"ce4bh692rcd13ifvqe90","pricing_plan_id":"cebpf4jnsgd1na2vs0mg"},{"bike_id":"aef37f39-12c6-465e-b0d3-1b277c3a70ff","system_id":"levelo_inurba_marseille","lat":43.30304,"lon":5.39206,"is_reserved":false,"is_disabled":true,"rental_uris":{"android":"levelo://app?vid=aef37f39-12c6-465e-b0d3-1b277c3a70ff","ios":"levelo://app?vid=aef37f39-12c6-465e-b0d3-1b277c3a70ff"},"vehicle_type_id":"4","last_reported":1737565707,"current_range_meters":37600,"station_id":"ce4bgkh2rcd13ifvqbk0","pricing_plan_id":"cebpf4jnsgd1na2vs0mg"},{"bike_id":"2f362065-6c60-4052-a8e0-7494e35f0544","system_id":"levelo_inurba_marseille","lat":43.26212,"lon":5.37442,"is_reserved":false,"is_disabled":false,"rental_uris":{"android":"levelo://app?vid=2f362065-6c60-4052-a8e0-7494e35f0544","ios":"levelo://app?vid=2f362065-6c60-4052-a8e0-7494e35f0544"},"vehicle_type_id":"4","last_reported":1737565707,"current_range_meters":4000,"station_id":"ce4bhgp2rcd13ifvqfc0","pricing_plan_id":"cebpf4jnsgd1na2vs0mg"},{"bike_id":"17c1db52-8c02-4e82-9353-b2e2bc30c5b8","system_id":"levelo_inurba_marseille","lat":43.27371,"lon":5.36258,"is_reserved":false,"is_disabled":false,"rental_uris":{"android":"levelo://app?vid=17c1db52-8c02-4e82-9353-b2e2bc30c5b8","ios":"levelo://app?vid=17c1db52-8c02-4e82-9353-b2e2bc30c5b8"},"vehicle_type_id":"4","last_reported":1737565707,"current_range_meters":38800,"station_id":"ce4bhbh2rcd13ifvqeo0","pricing_plan_id":"cebpf4jnsgd1na2vs0mg"},{"bike_id":"7318e7ae-a8bf-4033-a073-aabca99d0f6e","system_id":"levelo_inurba_marseille","lat":43.25871,"lon":5.39908,"is_reserved":false,"is_disabled":false,"rental_uris":{"android":"levelo://app?vid=7318e7ae-a8bf-4033-a073-aabca99d0f6e","ios":"levelo://app?vid=7318e7ae-a8bf-4033-a073-aabca99d0f6e"},"vehicle_type_id":"4","last_reported":1737565707,"current_range_meters":38800,"station_id":"ce4bhl92rcd13ifvqghg","pricing_plan_id":"cebpf4jnsgd1na2vs0mg"},{"bike_id":"181c0042-4f42-4db4-8730-18cd0a79cb8f","system_id":"levelo_inurba_marseille","lat":43.27564,"lon":5.38413,"is_reserved":false,"is_disabled":false,"rental_uris":{"android":"levelo://app?vid=181c0042-4f42-4db4-8730-18cd0a79cb8f","ios":"levelo://app?vid=181c0042-4f42-4db4-8730-18cd0a79cb8f"},"vehicle_type_id":"4","last_reported":1737565707,"current_range_meters":36400,"station_id":"ce4bhh92rcd13ifvqfi0","pricing_plan_id":"cebpf4jnsgd1na2vs0mg"},{"bike_id":"f01d0bdd-3931-40d8-a2b6-5d01ce8094ac","system_id":"levelo_inurba_marseille","lat":43.2892,"lon":5.38405,"is_reserved":false,"is_disabled":false,"rental_uris":{"android":"levelo://app?vid=f01d0bdd-3931-40d8-a2b6-5d01ce8094ac","ios":"levelo://app?vid=f01d0bdd-3931-40d8-a2b6-5d01ce8094ac"},"vehicle_type_id":"4","last_reported":1737565707,"current_range_meters":22400,"station_id":"ce4bh612rcd13ifvqe6g","pricing_plan_id":"cebpf4jnsgd1na2vs0mg"},{"bike_id":"3e6ab0e9-2f61-4e1b-bcec-4e17a44f9860","system_id":"levelo_inurba_marseille","lat":43.29263,"lon":5.40909,"is_reserved":false,"is_disabled":false,"rental_uris":{"android":"levelo://app?vid=3e6ab0e9-2f61-4e1b-bcec-4e17a44f9860","ios":"levelo://app?vid=3e6ab0e9-2f61-4e1b-bcec-4e17a44f9860"},"vehicle_type_id":"4","last_reported":1737565707,"current_range_meters":24400,"station_id":"ce4bh192rcd13ifvqdc0","pricing_plan_id":"cebpf4jnsgd1na2vs0mg"},{"bike_id":"fb3cade0-996a-4481-901d-636566b2c288","system_id":"levelo_inurba_marseille","lat":43.31022,"lon":5.38417,"is_reserved":false,"is_disabled":false,"rental_uris":{"android":"levelo://app?vid=fb3cade0-996a-4481-901d-636566b2c288","ios":"levelo://app?vid=fb3cade0-996a-4481-901d-636566b2c288"},"vehicle_type_id":"4","last_reported":1737565707,"current_range_meters":12800,"station_id":"","pricing_plan_id":"cebpf4jnsgd1na2vs0mg"},{"bike_id":"6d0b6013-4549-4198-ae01-6b1bdaac4c9b","system_id":"levelo_inurba_marseille","lat":43.28153,"lon":5.42652,"is_reserved":false,"is_disabled":false,"rental_uris":{"android":"levelo://app?vid=6d0b6013-4549-4198-ae01-6b1bdaac4c9b","ios":"levelo://app?vid=6d0b6013-4549-4198-ae01-6b1bdaac4c9b"},"vehicle_type_id":"4","last_reported":1737565707,"current_range_meters":22400,"station_id":"ce4bhnh2rcd13ifvqgug","pricing_plan_id":"cebpf4jnsgd1na2vs0mg"},{"bike_id":"f23e57d6-372b-4145-aadb-fb7895a8cb3d","system_id":"levelo_inurba_marseille","lat":43.29093,"lon":5.37159,"is_reserved":false,"is_disabled":false,"rental_uris":{"android":"levelo://app?vid=f23e57d6-372b-4145-aadb-fb7895a8cb3d","ios":"levelo://app?vid=f23e57d6-372b-4145-aadb-fb7895a8cb3d"},"vehicle_type_id":"4","last_reported":1737565707,"current_range_meters":38000,"station_id":"ce4bh5p2rcd13ifvqe4g","pricing_plan_id":"cebpf4jnsgd1na2vs0mg"},{"bike_id":"9d9a4c32-b270-46cc-b461-49768165ad77","system_id":"levelo_inurba_marseille","lat":43.25497,"lon":5.37635,"is_reserved":false,"is_disabled":false,"rental_uris":{"android":"levelo://app?vid=9d9a4c32-b270-46cc-b461-49768165ad77","ios":"levelo://app?vid=9d9a4c32-b270-46cc-b461-49768165ad77"},"vehicle_type_id":"4","last_reported":1737565707,"current_range_meters":38800,"station_id":"ce4bhh12rcd13ifvqff0","pricing_plan_id":"cebpf4jnsgd1na2vs0mg"},