{"last_updated":1685106536,"ttl":30,"version":"2.2","data":{"bikes":[{"bike_id":"cb8aed08-1c5d-42af-8a12-ce09e57acfaa","system_id":"levelo_inurba_marseille","lat":43.31341,"lon":5.367098,"is_reserved":false,"is_disabled":false,"rental_uris":{"android":"levelo://app?vid=cb8aed08-1c5d-42af-8a12-ce09e57acfaa","ios":"levelo://app?vid=cb8aed08-1c5d-42af-8a12-ce09e57acfaa"},"vehicle_type_id":"4","last_reported":1685106536,"current_range_meters":12800,"station_id":"ce4bgr92rcd13ifvqc6g","pricing_plan_id":"free"},{"bike_id":"a86528d7-736c-4504-91f9-e6477ff15da5","system_id":"levelo_inurba_marseille","lat":43.313391,"lon":5.36706,"is_reserved":false,"is_disabled":false,"rental_uris":{"android":"levelo://app?vid=a86528d7-736c-4504-91f9-e6477ff15da5","ios":"levelo://app?vid=a86528d7-736c-4504-91f9-e6477ff15da5"},"vehicle_type_id":"4","last_reported":1685106536,"current_range_meters":31600,"station_id":"ce4bgr92rcd13ifvqc6g","pricing_plan_id":"free"},{"bike_id":"7e90a573-56f1-4ae0-a34a-6326da3b2ad5","system_id":"levelo_inurba_marseille","lat":43.313391,"lon":5.36706,"is_reserved":false,"is_disabled":false,"rental_uris":{"android":"levelo://app?vid=7e90a573-56f1-4ae0-a34a-6326da3b2ad5","ios":"levelo://app?vid=7e90a573-56f1-4ae0-a34a-6326da3b2ad5"},"vehicle_type_id":"4","last_reported":1685106536,"current_range_meters":31200,"station_id":"ce4bgr92rcd13ifvqc6g","pricing_plan_id":"free"},{"bike_id":"02aabe85-d46f-4a36-893e-f49eb2731018","system_id":"levelo_inurba_marseille","lat":43.313391,"lon":5.36706,"is_reserved":false,"is_disabled":false,"rental_uris":{"android":"levelo://app?vid=02aabe85-d46f-4a36-893e-f49eb2731018","ios":"levelo://app?vid=02aabe85-d46f-4a36-893e-f49eb2731018"},"vehicle_type_id":"4","last_reported":1685106536,"current_range_meters":29600,"station_id":"ce4bgr92rcd13ifvqc6g","pricing_plan_id":"free"},{"bike_id":"55c2fe71-a87d-47b7-85bd-e67054483df4","system_id":"levelo_inurba_marseille","lat":43.313391,"lon":5.36706,"is_reserved":false,"is_disabled":false,"rental_uris":{"android":"levelo://app?vid=55c2fe71-a87d-47b7-85bd-e67054483df4","ios":"levelo://app?vid=55c2fe71-a87d-47b7-85bd-e67054483df4"},"vehicle_type_id":"4","last_reported":1685106536,"current_range_meters":31200,"station_id":"ce4bgr92rcd13ifvqc6g","pricing_plan_id":"free"},{"bike_id":"91c6d5f6-b851-4982-a801-dca4491f03cf","system_id":"levelo_inurba_marseille","lat":43.31341,"lon":5.367098,"is_reserved":false,"is_disabled":false,"rental_uris":{"android":"levelo://app?vid=91c6d5f6-b851-4982-a801-dca4491f03cf","ios":"levelo://app?vid=91c6d5f6-b851-4982-a801-dca4491f03cf"},"vehicle_type_id":"4","last_reported":1685106536,"current_range_meters":30400,"station_id":"ce4bgr92rcd13ifvqc6g","pricing_plan_id":"free"},{"bike_id":"cac6b0c4-8431-44d3-b1d6-852c7f21a8ce","system_id":"levelo_inurba_marseille","lat":43.313391,"lon":5.36706,"is_reserved":false,"is_disabled":false,"rental_uris":{"android":"levelo://app?vid=cac6b0c4-8431-44d3-b1d6-852c7f21a8ce","ios":"levelo://app?vid=cac6b0c4-8431-44d3-b1d6-852c7f21a8ce"},"vehicle_type_id":"4","last_reported":1685106536,"current_range_meters":31600,"station_id":"ce4bgr92rcd13ifvqc6g","pricing_plan_id":"free"},{"bike_id":"60dd061f-a04e-43c3-bac3-3201a0937b77","system_id":"levelo_inurba_marseille","lat":43.313391,"lon":5.36706,"is_reserved":false,"is_disabled":false,"rental_uris":{"android":"levelo://app?vid=60dd061f-a04e-43c3-bac3-3201a0937b77","ios":"levelo://app?vid=60dd061f-a04e-43c3-bac3-3201a0937b77"},"vehicle_type_id":"4","last_reported":1685106536,"current_range_meters":31600,"station_id":"ce4bgr92rcd13ifvqc6g","pricing_plan_id":"free"},{"bike_id":"6ea495a1-0d56-42b2-b3ae-c7d4aabab67d","system_id":"levelo_inurba_marseille","lat":43.31358,"lon":5.36703,"is_reserved":false,"is_disabled":false,"rental_uris":{"android":"levelo://app?vid=6ea495a1-0d56-42b2-b3ae-c7d4aabab67d","ios":"levelo://app?vid=6ea495a1-0d56-42b2-b3ae-c7d4aabab67d"},"vehicle_type_id":"4","last_reported":1685106536,"current_range_meters":15600,"station_id":"ce4bgr92rcd13ifvqc6g","pricing_plan_id":"free"},{"bike_id":"20c388d5-5b8d-4e26-9786-a5c40d2e0d85","system_id":"levelo_inurba_marseille","lat":43.3136,"lon":5.36697,"is_reserved":false,"is_disabled":false,"rental_uris":{"android":"levelo://app?vid=20c388d5-5b8d-4e26-9786-a5c40d2e0d85","ios":"levelo://app?vid=20c388d5-5b8d-4e26-9786-a5c40d2e0d85"},"vehicle_type_id":"4","last_reported":1685106536,"current_range_meters":25200,"station_id":"ce4bgr92rcd13ifvqc6g","pricing_plan_id":"free"},{"bike_id":"64b9b9d5-d825-4930-ad13-f339b36cf9d4","system_id":"levelo_inurba_marseille","lat":43.31361,"lon":5.36705,"is_reserved":false,"is_disabled":false,"rental_uris":{"android":"levelo://app?vid=64b9b9d5-d825-4930-ad13-f339b36cf9d4","ios":"levelo://app?vid=64b9b9d5-d825-4930-ad13-f339b36cf9d4"},"vehicle_type_id":"4","last_reported":1685106536,"current_range_meters":4400,"station_id":"ce4bgr92rcd13ifvqc6g","pricing_plan_id":"free"},{"bike_id":"d5bf0e8f-ef42-456c-8a42-2cd456448537","system_id":"levelo_inurba_marseille","lat":43.31363,"lon":5.36708,"is_reserved":false,"is_disabled":false,"rental_uris":{"android":"levelo://app?vid=d5bf0e8f-ef42-456c-8a42-2cd456448537","ios":"levelo://app?vid=d5bf0e8f-ef42-456c-8a42-2cd456448537"},"vehicle_type_id":"4","last_reported":1685106536,"current_range_meters":26800,"station_id":"ce4bgr92rcd13ifvqc6g","pricing_plan_id":"free"},{"bike_id":"15b462f4-12b6-466c-ba89-7f3ebebf8ed0","system_id":"levelo_inurba_marseille","lat":43.3137,"lon":5.36693,"is_reserved":false,"is_disabled":false,"rental_uris":{"android":"levelo://app?vid=15b462f4-12b6-466c-ba89-7f3ebebf8ed0","ios":"levelo://app?vid=15b462f4-12b6-466c-ba89-7f3ebebf8ed0"},"vehicle_type_id":"4","last_reported":1685106536,"current_range_meters":25600,"station_id":"ce4bgr92rcd13ifvqc6g","pricing_plan_id":"free"},{"bike_id":"3c529bc8-2dd4-4846-b377-da94b92479fd","system_id":"levelo_inurba_marseille","lat":43.312239,"lon":5.368562,"is_reserved":false,"is_disabled":false,"rental_uris":{"android":"levelo://app?vid=3c529bc8-2dd4-4846-b377-da94b92479fd","ios":"levelo://app?vid=3c529bc8-2dd4-4846-b377-da94b92479fd"},"vehicle_type_id":"4","last_reported":1685106536,"current_range_meters":30000,"station_id":"ce4bgl92rcd13ifvqbq0","pricing_plan_id":"free"},{"bike_id":"bf4a07b1-d31c-446f-bf2f-a4f0996e21e2","system_id":"levelo_inurba_marseille","lat":43.312239,"lon":5.368562,"is_reserved":false,"is_disabled":false,"rental_uris":{"android":"levelo://app?vid=bf4a07b1-d31c-446f-bf2f-a4f0996e21e2","ios":"levelo://app?vid=bf4a07b1-d31c-446f-bf2f-a4f0996e21e2"},"vehicle_type_id":"4","last_reported":1685106536,"current_range_meters":8400,"station_id":"ce4bgl92rcd13ifvqbq0","pricing_plan_id":"free"},{"bike_id":"a1944d3a-463b-409e-ad27-4ddcb2ed92c5","system_id":"levelo_inurba_marseille","lat":43.31229,"lon":5.36858,"is_reserved":false,"is_disabled":false,"rental_uris":{"android":"levelo://app?vid=a1944d3a-463b-409e-ad27-4ddcb2ed92c5","ios":"levelo://app?vid=a1944d3a-463b-409e-ad27-4ddcb2ed92c5"},"vehicle_type_id":"4","last_reported":1685106536,"current_range_meters":31200,"station_id":"ce4bgl92rcd13ifvqbq0","pricing_plan_id":"free"},{"bike_id":"a1bd3b5c-5cd5-4cd8-8360-530ac7ffb576","system_id":"levelo_inurba_marseille","lat":43.312239,"lon":5.368562,"is_reserved":false,"is_disabled":false,"rental_uris":{"android":"levelo://app?vid=a1bd3b5c-5cd5-4cd8-8360-530ac7ffb576","ios":"levelo://app?vid=a1bd3b5c-5cd5-4cd8-8360-530ac7ffb576"},"vehicle_type_id":"4","last_reported":1685106536,"current_range_meters":30000,"station_id":"ce4bgl92rcd13ifvqbq0","pricing_plan_id":"free"},{"bike_id":"59c0952f-ca1a-4e00-bd4c-7fd6d1ef756c","system_id":"levelo_inurba_marseille","lat":43.312239,"lon":5.368562,"is_reserved":false,"is_disabled":false,"rental_uris":{"android":"levelo://app?vid=59c0952f-ca1a-4e00-bd4c-7fd6d1ef756c","ios":"levelo://app?vid=59c0952f-ca1a-4e00-bd4c-7fd6d1ef756c"},"vehicle_type_id":"4","last_reported":1685106536,"current_range_meters":28400,"station_id":"ce4bgl92rcd13ifvqbq0","pricing_plan_id":"free"},{"bike_id":"786c1e68-db26-41e2-a8fd-7644133f89af","system_id":"levelo_inurba_marseille","lat":43.309076,"lon":5.368465,"is_reserved":false,"is_disabled":false,"rental_uris":{"android":"levelo://app?vid=786c1e68-db26-41e2-a8fd-7644133f89af","ios":"levelo://app?vid=786c1e68-db26-41e2-a8fd-7644133f89af"},"vehicle_type_id":"4","last_reported":1685106536,"current_range_meters":31600,"station_id":"ce4bgn92rcd13ifvqbvg","pricing_plan_id":"free"},{"bike_id":"e99c3e3d-49d2-4eb9-a7a2-7235a9714015","system_id":"levelo_inurba_marseille","lat":43.309076,"lon":5.368465,"is_reserved":false,"is_disabled":false,"rental_uris":{"android":"levelo://app?vid=e99c3e3d-49d2-4eb9-a7a2-7235a9714015","ios":"levelo://app?vid=e99c3e3d-49d2-4eb9-a7a2-7235a9714015"},"vehicle_type_id":"4","last_reported":1685106536,"current_range_meters":2800,"station_id":"ce4bgn92rcd13ifvqbvg","pricing_plan_id":"free"},{"bike_id":"31db7487-0b59-4e3a-b637-5584d1df38e1","system_id":"levelo_inurba_marseille","lat":43.309076,"lon":5.368465,"is_reserved":false,"is_disabled":false,"rental_uris":{"android":"levelo://app?vid=31db7487-0b59-4e3a-b637-5584d1df38e1","ios":"levelo://app?vid=31db7487-0b59-4e3a-b637-5584d1df38e1"},"vehicle_type_id":"4","last_reported":1685106536,"current_range_meters":31600,"station_id":"ce4bgn92rcd13ifvqbvg","pricing_plan_id":"free"},{"bike_id":"e4332597-4d8c-4aa9-802a-cf4490fbd227","system_id":"levelo_inurba_marseille","lat":43.309076,"lon":5.368465,"is_reserved":false,"is_disabled":false,"rental_uris":{"android":"levelo://app?vid=e4332597-4d8c-4aa9-802a-cf4490fbd227","ios":"levelo://app?vid=e4332597-4d8c-4aa9-802a-cf4490fbd227"},"vehicle_type_id":"4","last_reported":1685106536,"current_range_meters":24400,"station_id":"ce4bgn92rcd13ifvqbvg","pricing_plan_id":"free"},{"bike_id":"d4153fb1-e109-4dc5-ae0c-14ba5d4d3bb8","system_id":"levelo_inurba_marseille","lat":43.309076,"lon":5.368465,"is_reserved":false,"is_disabled":false,"rental_uris":{"android":"levelo://app?vid=d4153fb1-e109-4dc5-ae0c-14ba5d4d3bb8","ios":"levelo://app?vid=d4153fb1-e109-4dc5-ae0c-14ba5d4d3bb8"},"vehicle_type_id":"4","last_reported":1685106536,"current_range_meters":31600,"station_id":"ce4bgn92rcd13ifvqbvg","pricing_plan_id":"free"},{"bike_id":"d5aef3f2-8e23-46db-aaa0-8d2e6ddad328","system_id":"levelo_inurba_marseille","lat":43.30914,"lon":5.36853,"is_reserved":false,"is_disabled":false,"rental_uris":{"android":"levelo://app?vid=d5aef3f2-8e23-46db-aaa0-8d2e6ddad328","ios":"levelo://app?vid=d5aef3f2-8e23-46db-aaa0-8d2e6ddad328"},"vehicle_type_id":"4","last_reported":1685106536,"current_range_meters":31200,"station_id":"ce4bgn92rcd13ifvqbvg","pricing_plan_id":"free"},{"bike_id":"083d1aa9-8e3a-4124-a1c5-e3bc6fb7800a","system_id":"levelo_inurba_marseille","lat":43.309076,"lon":5.368465,"is_reserved":false,"is_disabled":false,"rental_uris":{"android":"levelo://app?vid=083d1aa9-8e3a-4124-a1c5-e3bc6fb7800a","ios":"levelo://app?vid=083d1aa9-8e3a-4124-a1c5-e3bc6fb7800a"},"vehicle_type_id":"4","last_reported":1685106536,"current_range_meters":27200,"station_id":"ce4bgn92rcd13ifvqbvg","pricing_plan_id":"free"},{"bike_id":"d88923dd-2608-4b0e-9644-8434bb596d44","system_id":"levelo_inurba_marseille","lat":43.309076,"lon":5.368465,"is_reserved":false,"is_disabled":false,"rental_uris":{"android":"levelo://app?vid=d88923dd-2608-4b0e-9644-8434bb596d44","ios":"levelo://app?vid=d88923dd-2608-4b0e-9644-8434bb596d44"},"vehicle_type_id":"4","last_reported":1685106536,"current_range_meters":29600,"station_id":"ce4bgn92rcd13ifvqbvg","pricing_plan_id":"free"},{"bike_id":"7a115e1e-c728-4011-9ed7-8694d64f3387","system_id":"levelo_inurba_marseille","lat":43.309076,"lon":5.368465,"is_reserved":false,"is_disabled":false,"rental_uris":{"android":"levelo://app?vid=7a115e1e-c728-4011-9ed7-8694d64f3387","ios":"levelo://app?vid=7a115e1e-c728-4011-9ed7-8694d64f3387"},"vehicle_type_id":"4","last_reported":1685106536,"current_range_meters":31600,"station_id":"ce4bgn92rcd13ifvqbvg","pricing_plan_id":"free"},{"bike_id":"1ca6b83f-0d41-43e5-944f-babf9c178bc9","system_id":"levelo_inurba_marseille","lat":43.309076,"lon":5.368465,"is_reserved":false,"is_disabled":false,"rental_uris":{"android":"levelo://app?vid=1ca6b83f-0d41-43e5-944f-babf9c178bc9","ios":"levelo://app?vid=1ca6b83f-0d41-43e5-944f-babf9c178bc9"},"vehicle_type_id":"4","last_reported":1685106536,"current_range_meters":31200,"station_id":"ce4bgn92rcd13ifvqbvg","pricing_plan_id":"free"},{"bike_id":"b6e79fdc-6aba-4da8-abf0-c571f21c5d49","system_id":"levelo_inurba_marseille","lat":43.309076,"lon":5.368465,"is_reserved":false,"is_disabled":false,"rental_uris":{"android":"levelo://app?vid=b6e79fdc-6aba-4da8-abf0-c571f21c5d49","ios":"levelo://app?vid=b6e79fdc-6aba-4da8-abf0-c571f21c5d49"},"vehicle_type_id":"4","last_reported":1685106536,"current_range_meters":4000,"station_id":"ce4bgn92rcd13ifvqbvg","pricing_plan_id":"free"},{"bike_id":"84d77e54-c4d5-4d1e-898e-ea6f5756aae3","system_id":"levelo_inurba_marseille","lat":43.314811,"lon":5.373103,"is_reserved":false,"is_disabled":false,"rental_uris":{"android":"levelo://app?vid=84d77e54-c4d5-4d1e-898e-ea6f5756aae3","ios":"levelo://app?vid=84d77e54-c4d5-4d1e-898e-ea6f5756aae3"},"vehicle_type_id":"4","last_reported":1685106536,"current_range_meters":0,"station_id":"ce4bgt12rcd13ifvqcd0","pricing_plan_id":"free"},{"bike_id":"d66ebc6a-82e2-4b38-ad34-66e7cecaf39d","system_id":"levelo_inurba_marseille","lat":43.314811,"lon":5.373103,"is_reserved":false,"is_disabled":false,"rental_uris":{"android":"levelo://app?vid=d66ebc6a-82e2-4b38-ad34-66e7cecaf39d","ios":"levelo://app?vid=d66ebc6a-82e2-4b38-ad34-66e7cecaf39d"},"vehicle_type_id":"4","last_reported":1685106536,"current_range_meters":18000,"station_id":"ce4bgt12rcd13ifvqcd0","pricing_plan_id":"free"},{"bike_id":"e4926883-595f-4a24-8eda-445abb73ae33","system_id":"levelo_inurba_marseille","lat":43.308614,"lon":5.372098,"is_reserved":false,"is_disabled":false,"rental_uris":{"android":"levelo://app?vid=e4926883-595f-4a24-8eda-445abb73ae33","ios":"levelo://app?vid=e4926883-595f-4a24-8eda-445abb73ae33"},"vehicle_type_id":"4","last_reported":1685106536,"current_range_meters":2000,"station_id":"ce4bguh2rcd13ifvqckg","pricing_plan_id":"free"},{"bike_id":"2e6f2336-002e-4405-bdf6-42c1291580f3","system_id":"levelo_inurba_marseille","lat":43.30901,"lon":5.37193,"is_reserved":false,"is_disabled":false,"rental_uris":{"android":"levelo://app?vid=2e6f2336-002e-4405-bdf6-42c1291580f3","ios":"levelo://app?vid=2e6f2336-002e-4405-bdf6-42c1291580f3"},"vehicle_type_id":"4","last_reported":1685106536,"current_range_meters":20400,"station_id":"","pricing_plan_id":"free"},{"bike_id":"c44b7c68-2351-4b64-aa9a-60240d683f20","system_id":"levelo_inurba_marseille","lat":43.31466,"lon":5.37539,"is_reserved":false,"is_disabled":false,"rental_uris":{"android":"levelo://app?vid=c44b7c68-2351-4b64-aa9a-60240d683f20","ios":"levelo://app?vid=c44b7c68-2351-4b64-aa9a-60240d683f20"},"vehicle_type_id":"4","last_reported":1685106536,"current_range_meters":30400,"station_id":"","pricing_plan_id":"free"},{"bike_id":"26ffb7c1-dfff-434c-8734-8723ca682b71","system_id":"levelo_inurba_marseille","lat":43.31693,"lon":5.37399,"is_reserved":false,"is_disabled":false,"rental_uris":{"android":"levelo://app?vid=26ffb7c1-dfff-434c-8734-8723ca682b71","ios":"levelo://app?vid=26ffb7c1-dfff-434c-8734-8723ca682b71"},"vehicle_type_id":"4","last_reported":1685106536,"current_range_meters":18800,"station_id":"","pricing_plan_id":"free"},{"bike_id":"e5e5eace-a679-46eb-9d95-65cb92b86a89","system_id":"levelo_inurba_marseille","lat":43.305368,"lon":5.367343,"is_reserved":false,"is_disabled":false,"rental_uris":{"android":"levelo://app?vid=e5e5eace-a679-46eb-9d95-65cb92b86a89","ios":"levelo://app?vid=e5e5eace-a679-46eb-9d95-65cb92b86a89"},"vehicle_type_id":"4","last_reported":1685106536,"current_range_meters":27200,"station_id":"ce4bgrp2rcd13ifvqc9g","pricing_plan_id":"free"},{"bike_id":"401d7608-3b9f-4b68-99c9-5b82130f5c5f","system_id":"levelo_inurba_marseille","lat":43.311131,"lon":5.377651,"is_reserved":false,"is_disabled":false,"rental_uris":{"android":"levelo://app?vid=401d7608-3b9f-4b68-99c9-5b82130f5c5f","ios":"levelo://app?vid=401d7608-3b9f-4b68-99c9-5b82130f5c5f"},"vehicle_type_id":"4","last_reported":1685106536,"current_range_meters":8400,"station_id":"ce4bgt92rcd13ifvqcg0","pricing_plan_id":"free"},{"bike_id":"db4e416f-454e-4520-b277-98527e0bed44","system_id":"levelo_inurba_marseille","lat":43.31125,"lon":5.37766,"is_reserved":false,"is_disabled":false,"rental_uris":{"android":"levelo://app?vid=db4e416f-454e-4520-b277-98527e0bed44","ios":"levelo://app?vid=db4e416f-454e-4520-b277-98527e0bed44"},"vehicle_type_id":"4","last_reported":1685106536,"current_range_meters":22400,"station_id":"ce4bgt92rcd13ifvqcg0","pricing_plan_id":"free"},{"bike_id":"1e3654da-4ca8-4941-8c9e-d7ae66415c19","system_id":"levelo_inurba_marseille","lat":43.317075,"lon":5.377367,"is_reserved":false,"is_disabled":false,"rental_uris":{"android":"levelo://app?vid=1e3654da-4ca8-4941-8c9e-d7ae66415c19","ios":"levelo://app?vid=1e3654da-4ca8-4941-8c9e-d7ae66415c19"},"vehicle_type_id":"4","last_reported":1685106536,"current_range_meters":17200,"station_id":"ce4bgth2rcd13ifvqch0","pricing_plan_id":"free"},{"bike_id":"f8244584-211c-4181-a1bf-eb712fd26abe","system_id":"levelo_inurba_marseille","lat":43.317075,"lon":5.377367,"is_reserved":false,"is_disabled":false,"rental_uris":{"android":"levelo://app?vid=f8244584-211c-4181-a1bf-eb712fd26abe","ios":"levelo://app?vid=f8244584-211c-4181-a1bf-eb712fd26abe"},"vehicle_type_id":"4","last_reported":1685106536,"current_range_meters":28000,"station_id":"ce4bgth2rcd13ifvqch0","pricing_plan_id":"free"},{"bike_id":"7b06dc8c-a57b-40ab-a84e-e88877074cf1","system_id":"levelo_inurba_marseille","lat":43.317075,"lon":5.377367,"is_reserved":false,"is_disabled":false,"rental_uris":{"android":"levelo://app?vid=7b06dc8c-a57b-40ab-a84e-e88877074cf1","ios":"levelo://app?vid=7b06dc8c-a57b-40ab-a84e-e88877074cf1"},"vehicle_type_id":"4","last_reported":1685106536,"current_range_meters":28800,"station_id":"ce4bgth2rcd13ifvqch0","pricing_plan_id":"free"},{"bike_id":"b6855b1f-51d1-440e-8236-2a00d5254915","system_id":"levelo_inurba_marseille","lat":43.317075,"lon":5.377367,"is_reserved":false,"is_disabled":false,"rental_uris":{"android":"levelo://app?vid=b6855b1f-51d1-440e-8236-2a00d5254915","ios":"levelo://app?vid=b6855b1f-51d1-440e-8236-2a00d5254915"},"vehicle_type_id":"4","last_reported":1685106536,"current_range_meters":15600,"station_id":"ce4bgth2rcd13ifvqch0","pricing_plan_id":"free"},{"bike_id":"2ab4639f-70ee-4cae-8aea-667b4c6c63d0","system_id":"levelo_inurba_marseille","lat":43.317075,"lon":5.377367,"is_reserved":false,"is_disabled":false,"rental_uris":{"android":"levelo://app?vid=2ab4639f-70ee-4cae-8aea-667b4c6c63d0","ios":"levelo://app?vid=2ab4639f-70ee-4cae-8aea-667b4c6c63d0"},"vehicle_type_id":"4","last_reported":1685106536,"current_range_meters":12800,"station_id":"ce4bgth2rcd13ifvqch0","pricing_plan_id":"free"},{"bike_id":"16e7282a-4eed-47c3-83b3-d7e0dee6c006","system_id":"levelo_inurba_marseille","lat":43.317075,"lon":5.377367,"is_reserved":false,"is_disabled":false,"rental_uris":{"android":"levelo://app?vid=16e7282a-4eed-47c3-83b3-d7e0dee6c006","ios":"levelo://app?vid=16e7282a-4eed-47c3-83b3-d7e0dee6c006"},"vehicle_type_id":"4","last_reported":1685106536,"current_range_meters":18000,"station_id":"ce4bgth2rcd13ifvqch0","pricing_plan_id":"free"},{"bike_id":"3022569d-6af5-45bd-8997-a0f8c384be8e","system_id":"levelo_inurba_marseille","lat":43.317075,"lon":5.377367,"is_reserved":false,"is_disabled":false,"rental_uris":{"android":"levelo://app?vid=3022569d-6af5-45bd-8997-a0f8c384be8e","ios":"levelo://app?vid=3022569d-6af5-45bd-8997-a0f8c384be8e"},"vehicle_type_id":"4","last_reported":1685106536,"current_range_meters":26400,"station_id":"ce4bgth2rcd13ifvqch0","pricing_plan_id":"free"},{"bike_id":"68553df9-2b4c-4244-a834-2447f191355a","system_id":"levelo_inurba_marseille","lat":43.317075,"lon":5.377367,"is_reserved":false,"is_disabled":false,"rental_uris":{"android":"levelo://app?vid=68553df9-2b4c-4244-a834-2447f191355a","ios":"levelo://app?vid=68553df9-2b4c-4244-a834-2447f191355a"},"vehicle_type_id":"4","last_reported":1685106536,"current_range_meters":29200,"station_id":"ce4bgth2rcd13ifvqch0","pricing_plan_id":"free"},{"bike_id":"8d3b898a-41aa-4f28-b1a2-33ce656ae17f","system_id":"levelo_inurba_marseille","lat":43.317075,"lon":5.377367,"is_reserved":false,"is_disabled":false,"rental_uris":{"android":"levelo://app?vid=8d3b898a-41aa-4f28-b1a2-33ce656ae17f","ios":"levelo://app?vid=8d3b898a-41aa-4f28-b1a2-33ce656ae17f"},"vehicle_type_id":"4","last_reported":1685106536,"current_range_meters":30400,"station_id":"ce4bgth2rcd13ifvqch0","pricing_plan_id":"free"},{"bike_id":"fd38c318-e10c-4ea0-8386-140691495f8d","system_id":"levelo_inurba_marseille","lat":43.31713,"lon":5.37832,"is_reserved":false,"is_disabled":false,"rental_uris":{"android":"levelo://app?vid=fd38c318-e10c-4ea0-8386-140691495f8d","ios":"levelo://app?vid=fd38c318-e10c-4ea0-8386-140691495f8d"},"vehicle_type_id":"4","last_reported":1685106536,"current_range_meters":24800,"station_id":"","pricing_plan_id":"free"},{"bike_id":"2b876213-311f-4ed6-b98f-56d14881bf20","system_id":"levelo_inurba_marseille","lat":43.315293,"lon":5.380349,"is_reserved":false,"is_disabled":false,"rental_uris":{"android":"levelo://app?vid=2b876213-311f-4ed6-b98f-56d14881bf20","ios":"levelo://app?vid=2b876213-311f-4ed6-b98f-56d14881bf20"},"vehicle_type_id":"4","last_reported":1685106536,"current_range_meters":22400,"station_id":"ce4bhsp2rcd13ifvqi50","pricing_plan_id":"free"},{"bike_id":"d92b070d-dc4e-46dc-b084-12a5f5cbc6ba","system_id":"levelo_inurba_marseille","lat":43.308012,"lon":5.381511,"is_reserved":false,"is_disabled":false,"rental_uris":{"android":"levelo://app?vid=d92b070d-dc4e-46dc-b084-12a5f5cbc6ba","ios":"levelo://app?vid=d92b070d-dc4e-46dc-b084-12a5f5cbc6ba"},"vehicle_type_id":"4","last_reported":1685106536,"current_range_meters":0,"station_id":"ce4bgt12rcd13ifvqce0","pricing_plan_id":"free"},{"bike_id":"bfdcad51-97fc-4fc5-8b82-c545596782cd","system_id":"levelo_inurba_marseille","lat":43.319935,"lon":5.381699,"is_reserved":false,"is_disabled":false,"rental_uris":{"android":"levelo://app?vid=bfdcad51-97fc-4fc5-8b82-c545596782cd","ios":"levelo://app?vid=bfdcad51-97fc-4fc5-8b82-c545596782cd"},"vehicle_type_id":"4","last_reported":1685106536,"current_range_meters":28400,"station_id":"ce4bhr12rcd13ifvqhpg","pricing_plan_id":"free"},{"bike_id":"ec2bf9d8-bdcd-4d00-823b-5e25cb80cc6b","system_id":"levelo_inurba_marseille","lat":43.31995,"lon":5.38155,"is_reserved":false,"is_disabled":false,"rental_uris":{"android":"levelo://app?vid=ec2bf9d8-bdcd-4d00-823b-5e25cb80cc6b","ios":"levelo://app?vid=ec2bf9d8-bdcd-4d00-823b-5e25cb80cc6b"},"vehicle_type_id":"4","last_reported":1685106536,"current_range_meters":28800,"station_id":"ce4bhr12rcd13ifvqhpg","pricing_plan_id":"free"},{"bike_id":"530a238a-2fe4-4ada-b174-d32325afbdf2","system_id":"levelo_inurba_marseille","lat":43.319935,"lon":5.381699,"is_reserved":false,"is_disabled":false,"rental_uris":{"android":"levelo://app?vid=530a238a-2fe4-4ada-b174-d32325afbdf2","ios":"levelo://app?vid=530a238a-2fe4-4ada-b174-d32325afbdf2"},"vehicle_type_id":"4","last_reported":1685106536,"current_range_meters":26000,"station_id":"ce4bhr12rcd13ifvqhpg","pricing_plan_id":"free"},{"bike_id":"e5571f58-adb6-49b7-8c86-2d757ae8e1a0","system_id":"levelo_inurba_marseille","lat":43.319935,"lon":5.381699,"is_reserved":false,"is_disabled":false,"rental_uris":{"android":"levelo://app?vid=e5571f58-adb6-49b7-8c86-2d757ae8e1a0","ios":"levelo://app?vid=e5571f58-adb6-49b7-8c86-2d757ae8e1a0"},"vehicle_type_id":"4","last_reported":1685106536,"current_range_meters":18400,"station_id":"ce4bhr12rcd13ifvqhpg","pricing_plan_id":"free"},{"bike_id":"ed0af2c9-d311-4056-bf56-2135ca45404c","system_id":"levelo_inurba_marseille","lat":43.319935,"lon":5.381699,"is_reserved":false,"is_disabled":false,"rental_uris":{"android":"levelo://app?vid=ed0af2c9-d311-4056-bf56-2135ca45404c","ios":"levelo://app?vid=ed0af2c9-d311-4056-bf56-2135ca45404c"},"vehicle_type_id":"4","last_reported":1685106536,"current_range_meters":18800,"station_id":"ce4bhr12rcd13ifvqhpg","pricing_plan_id":"free"},{"bike_id":"67d771cf-5063-4f6f-8d01-432caa748b18","system_id":"levelo_inurba_marseille","lat":43.319935,"lon":5.381699,"is_reserved":false,"is_disabled":false,"rental_uris":{"android":"levelo://app?vid=67d771cf-5063-4f6f-8d01-432caa748b18","ios":"levelo://app?vid=67d771cf-5063-4f6f-8d01-432caa748b18"},"vehicle_type_id":"4","last_reported":1685106536,"current_range_meters":7200,"station_id":"ce4bhr12rcd13ifvqhpg","pricing_plan_id":"free"},{"bike_id":"fe06adb7-2226-4e76-8bc4-dc6d2f7d20e5","system_id":"levelo_inurba_marseille","lat":43.313571,"lon":5.384829,"is_reserved":false,"is_disabled":false,"rental_uris":{"android":"levelo://app?vid=fe06adb7-2226-4e76-8bc4-dc6d2f7d20e5","ios":"levelo://app?vid=fe06adb7-2226-4e76-8bc4-dc6d2f7d20e5"},"vehicle_type_id":"4","last_reported":1685106536,"current_range_meters":20800,"station_id":"ce4bgt92rcd13ifvqcf0","pricing_plan_id":"free"},{"bike_id":"0d6739ca-c2fe-4c7a-a843-4491068a992b","system_id":"levelo_inurba_marseille","lat":43.31346,"lon":5.3853,"is_reserved":false,"is_disabled":false,"rental_uris":{"android":"levelo://app?vid=0d6739ca-c2fe-4c7a-a843-4491068a992b","ios":"levelo://app?vid=0d6739ca-c2fe-4c7a-a843-4491068a992b"},"vehicle_type_id":"4","last_reported":1685106536,"current_range_meters":24400,"station_id":"","pricing_plan_id":"free"},{"bike_id":"4a717007-557a-4a2a-a9bb-918c2f2867c8","system_id":"levelo_inurba_marseille","lat":43.299222,"lon":5.365554,"is_reserved":false,"is_disabled":false,"rental_uris":{"android":"levelo://app?vid=4a717007-557a-4a2a-a9bb-918c2f2867c8","ios":"levelo://app?vid=4a717007-557a-4a2a-a9bb-918c2f2867c8"},"vehicle_type_id":"4","last_reported":1685106536,"current_range_meters":0,"station_id":"ce4bgm92rcd13ifvqbr0","pricing_plan_id":"free"},{"bike_id":"c0f1031b-546c-402a-b658-2c9a1f0a4adb","system_id":"levelo_inurba_marseille","lat":43.299222,"lon":5.365554,"is_reserved":false,"is_disabled":false,"rental_uris":{"android":"levelo://app?vid=c0f1031b-546c-402a-b658-2c9a1f0a4adb","ios":"levelo://app?vid=c0f1031b-546c-402a-b658-2c9a1f0a4adb"},"vehicle_type_id":"4","last_reported":1685106536,"current_range_meters":6400,"station_id":"ce4bgm92rcd13ifvqbr0","pricing_plan_id":"free"},{"bike_id":"9126140c-3c2c-4822-ab80-96c575224bcd","system_id":"levelo_inurba_marseille","lat":43.299222,"lon":5.365554,"is_reserved":false,"is_disabled":false,"rental_uris":{"android":"levelo://app?vid=9126140c-3c2c-4822-ab80-96c575224bcd","ios":"levelo://app?vid=9126140c-3c2c-4822-ab80-96c575224bcd"},"vehicle_type_id":"4","last_reported":1685106536,"current_range_meters":10000,"station_id":"ce4bgm92rcd13ifvqbr0","pricing_plan_id":"free"},{"bike_id":"f77c6a3e-352c-479e-bc94-970de0523978","system_id":"levelo_inurba_marseille","lat":43.299222,"lon":5.365554,"is_reserved":false,"is_disabled":false,"rental_uris":{"android":"levelo://app?vid=f77c6a3e-352c-479e-bc94-970de0523978","ios":"levelo://app?vid=f77c6a3e-352c-479e-bc94-970de0523978"},"vehicle_type_id":"4","last_reported":1685106536,"current_range_meters":14000,"station_id":"ce4bgm92rcd13ifvqbr0","pricing_plan_id":"free"},{"bike_id":"ab44773c-c977-4f2c-8be6-b6956eae7b5f","system_id":"levelo_inurba_marseille","lat":43.299222,"lon":5.365554,"is_reserved":false,"is_disabled":false,"rental_uris":{"android":"levelo://app?vid=ab44773c-c977-4f2c-8be6-b6956eae7b5f","ios":"levelo://app?vid=ab44773c-c977-4f2c-8be6-b6956eae7b5f"},"vehicle_type_id":"4","last_reported":1685106536,"current_range_meters":26400,"station_id":"ce4bgm92rcd13ifvqbr0","pricing_plan_id":"free"},{"bike_id":"53133c4d-c701-4097-a43e-49cabbd6ea00","system_id":"levelo_inurba_marseille","lat":43.273613,"lon":5.362705,"is_reserved":false,"is_disabled":false,"rental_uris":{"android":"levelo://app?vid=53133c4d-c701-4097-a43e-49cabbd6ea00","ios":"levelo://app?vid=53133c4d-c701-4097-a43e-49cabbd6ea00"},"vehicle_type_id":"4","last_reported":1685106536,"current_range_meters":30400,"station_id":"ce4bhbh2rcd13ifvqeo0","pricing_plan_id":"free"},{"bike_id":"40342fc9-a861-4c74-9adc-b399540cce59","system_id":"levelo_inurba_marseille","lat":43.298433,"lon":5.362774,"is_reserved":false,"is_disabled":false,"rental_uris":{"android":"levelo://app?vid=40342fc9-a861-4c74-9adc-b399540cce59","ios":"levelo://app?vid=40342fc9-a861-4c74-9adc-b399540cce59"},"vehicle_type_id":"4","last_reported":1685106536,"current_range_meters":15600,"station_id":"ce4bgpp2rcd13ifvqc3g","pricing_plan_id":"free"},{"bike_id":"76114865-7f40-41f7-ae47-2b32e49d7397","system_id":"levelo_inurba_marseille","lat":43.298433,"lon":5.362774,"is_reserved":false,"is_disabled":false,"rental_uris":{"android":"levelo://app?vid=76114865-7f40-41f7-ae47-2b32e49d7397","ios":"levelo://app?vid=76114865-7f40-41f7-ae47-2b32e49d7397"},"vehicle_type_id":"4","last_reported":1685106536,"current_range_meters":23200,"station_id":"ce4bgpp2rcd13ifvqc3g","pricing_plan_id":"free"},{"bike_id":"d2d25fca-3667-43cf-a739-6d1518645353","system_id":"levelo_inurba_marseille","lat":43.298433,"lon":5.362774,"is_reserved":false,"is_disabled":false,"rental_uris":{"android":"levelo://app?vid=d2d25fca-3667-43cf-a739-6d1518645353","ios":"levelo://app?vid=d2d25fca-3667-43cf-a739-6d1518645353"},"vehicle_type_id":"4","last_reported":1685106536,"current_range_meters":31200,"station_id":"ce4bgpp2rcd13ifvqc3g","pricing_plan_id":"free"},{"bike_id":"faff57e9-7696-45f6-905d-bcd6403b7f7d","system_id":"levelo_inurba_marseille","lat":43.298433,"lon":5.362774,"is_reserved":false,"is_disabled":false,"rental_uris":{"android":"levelo://app?vid=faff57e9-7696-45f6-905d-bcd6403b7f7d","ios":"levelo://app?vid=faff57e9-7696-45f6-905d-bcd6403b7f7d"},"vehicle_type_id":"4","last_reported":1685106536,"current_range_meters":28000,"station_id":"ce4bgpp2rcd13ifvqc3g","pricing_plan_id":"free"},{"bike_id":"8d4ff4a0-810a-4423-80b1-f2b81abaa202","system_id":"levelo_inurba_marseille","lat":43.2985,"lon":5.36272,"is_reserved":false,"is_disabled":false,"rental_uris":{"android":"levelo://app?vid=8d4ff4a0-810a-4423-80b1-f2b81abaa202","ios":"levelo://app?vid=8d4ff4a0-810a-4423-80b1-f2b81abaa202"},"vehicle_type_id":"4","last_reported":1685106536,"current_range_meters":31200,"station_id":"ce4bgpp2rcd13ifvqc3g","pricing_plan_id":"free"},{"bike_id":"bb99bfe7-aa66-4ae9-bbad-72a26db2b4a8","system_id":"levelo_inurba_marseille","lat":43.298433,"lon":5.362774,"is_reserved":false,"is_disabled":false,"rental_uris":{"android":"levelo://app?vid=bb99bfe7-aa66-4ae9-bbad-72a26db2b4a8","ios":"levelo://app?vid=bb99bfe7-aa66-4ae9-bbad-72a26db2b4a8"},"vehicle_type_id":"4","last_reported":1685106536,"current_range_meters":18400,"station_id":"ce4bgpp2rcd13ifvqc3g","pricing_plan_id":"free"},{"bike_id":"bdc36f88-2fd5-4f81-8d2c-fb67169ef56d","system_id":"levelo_inurba_marseille","lat":43.298433,"lon":5.362774,"is_reserved":false,"is_disabled":false,"rental_uris":{"android":"levelo://app?vid=bdc36f88-2fd5-4f81-8d2c-fb67169ef56d","ios":"levelo://app?vid=bdc36f88-2fd5-4f81-8d2c-fb67169ef56d"},"vehicle_type_id":"4","last_reported":1685106536,"current_range_meters":26800,"station_id":"ce4bgpp2rcd13ifvqc3g","pricing_plan_id":"free"},{"bike_id":"e800b08c-c86e-4628-be14-fe2a6beb0d54","system_id":"levelo_inurba_marseille","lat":43.298433,"lon":5.362774,"is_reserved":false,"is_disabled":false,"rental_uris":{"android":"levelo://app?vid=e800b08c-c86e-4628-be14-fe2a6beb0d54","ios":"levelo://app?vid=e800b08c-c86e-4628-be14-fe2a6beb0d54"},"vehicle_type_id":"4","last_reported":1685106536,"current_range_meters":31200,"station_id":"ce4bgpp2rcd13ifvqc3g","pricing_plan_id":"free"},{"bike_id":"58025ee7-6a7d-480a-8c9a-77eefbdb03e5","system_id":"levelo_inurba_marseille","lat":43.298433,"lon":5.362774,"is_reserved":false,"is_disabled":false,"rental_uris":{"android":"levelo://app?vid=58025ee7-6a7d-480a-8c9a-77eefbdb03e5","ios":"levelo://app?vid=58025ee7-6a7d-480a-8c9a-77eefbdb03e5"},"vehicle_type_id":"4","last_reported":1685106536,"current_range_meters":30800,"station_id":"ce4bgpp2rcd13ifvqc3g","pricing_plan_id":"free"},{"bike_id":"96171e66-20fa-4af6-9b2b-f828a2c49069","system_id":"levelo_inurba_marseille","lat":43.299243,"lon":5.374807,"is_reserved":false,"is_disabled":false,"rental_uris":{"android":"levelo://app?vid=96171e66-20fa-4af6-9b2b-f828a2c49069","ios":"levelo://app?vid=96171e66-20fa-4af6-9b2b-f828a2c49069"},"vehicle_type_id":"4","last_reported":1685106536,"current_range_meters":29600,"station_id":"ce4bgjh2rcd13ifvqbg0","pricing_plan_id":"free"},{"bike_id":"1ff456a3-f8ed-4dd5-a806-682384a96576","system_id":"levelo_inurba_marseille","lat":43.298433,"lon":5.362774,"is_reserved":false,"is_disabled":false,"rental_uris":{"android":"levelo://app?vid=1ff456a3-f8ed-4dd5-a806-682384a96576","ios":"levelo://app?vid=1ff456a3-f8ed-4dd5-a806-682384a96576"},"vehicle_type_id":"4","last_reported":1685106536,"current_range_meters":24000,"station_id":"ce4bgpp2rcd13ifvqc3g","pricing_plan_id":"free"},{"bike_id":"1f0fe72e-6b0f-4fe5-9b2d-70f5f0f33e0b","system_id":"levelo_inurba_marseille","lat":43.2991,"lon":5.37479,"is_reserved":false,"is_disabled":false,"rental_uris":{"android":"levelo://app?vid=1f0fe72e-6b0f-4fe5-9b2d-70f5f0f33e0b","ios":"levelo://app?vid=1f0fe72e-6b0f-4fe5-9b2d-70f5f0f33e0b"},"vehicle_type_id":"4","last_reported":1685106536,"current_range_meters":9600,"station_id":"ce4bgjh2rcd13ifvqbg0","pricing_plan_id":"free"},{"bike_id":"07d0f5f8-594a-4c99-bd5f-efd86e16327f","system_id":"levelo_inurba_marseille","lat":43.328371,"lon":5.366912,"is_reserved":false,"is_disabled":false,"rental_uris":{"android":"levelo://app?vid=07d0f5f8-594a-4c99-bd5f-efd86e16327f","ios":"levelo://app?vid=07d0f5f8-594a-4c99-bd5f-efd86e16327f"},"vehicle_type_id":"4","last_reported":1685106536,"current_range_meters":8000,"station_id":"ce4bhs92rcd13ifvqi0g","pricing_plan_id":"free"},{"bike_id":"6a370644-37c5-4b8f-bc40-73ca29acbb71","system_id":"levelo_inurba_marseille","lat":43.328371,"lon":5.366912,"is_reserved":false,"is_disabled":false,"rental_uris":{"android":"levelo://app?vid=6a370644-37c5-4b8f-bc40-73ca29acbb71","ios":"levelo://app?vid=6a370644-37c5-4b8f-bc40-73ca29acbb71"},"vehicle_type_id":"4","last_reported":1685106536,"current_range_meters":24800,"station_id":"ce4bhs92rcd13ifvqi0g","pricing_plan_id":"free"},{"bike_id":"cd2ff10f-681c-4c0d-b23b-ed356d56ba93","system_id":"levelo_inurba_marseille","lat":43.328371,"lon":5.366912,"is_reserved":false,"is_disabled":false,"rental_uris":{"android":"levelo://app?vid=cd2ff10f-681c-4c0d-b23b-ed356d56ba93","ios":"levelo://app?vid=cd2ff10f-681c-4c0d-b23b-ed356d56ba93"},"vehicle_type_id":"4","last_reported":1685106536,"current_range_meters":24400,"station_id":"ce4bhs92rcd13ifvqi0g","pricing_plan_id":"free"},{"bike_id":"fad50468-bff6-4eb0-bc39-08e7203bec60","system_id":"levelo_inurba_marseille","lat":43.328371,"lon":5.366912,"is_reserved":false,"is_disabled":false,"rental_uris":{"android":"levelo://app?vid=fad50468-bff6-4eb0-bc39-08e7203bec60","ios":"levelo://app?vid=fad50468-bff6-4eb0-bc39-08e7203bec60"},"vehicle_type_id":"4","last_reported":1685106536,"current_range_meters":13200,"station_id":"ce4bhs92rcd13ifvqi0g","pricing_plan_id":"free"},{"bike_id":"beb58a24-32df-4292-805e-75c74c187706","system_id":"levelo_inurba_marseille","lat":43.328371,"lon":5.366912,"is_reserved":false,"is_disabled":false,"rental_uris":{"android":"levelo://app?vid=beb58a24-32df-4292-805e-75c74c187706","ios":"levelo://app?vid=beb58a24-32df-4292-805e-75c74c187706"},"vehicle_type_id":"4","last_reported":1685106536,"current_range_meters":28400,"station_id":"ce4bhs92rcd13ifvqi0g","pricing_plan_id":"free"},{"bike_id":"1acc9c82-a049-49b2-8802-6e37cdd32a71","system_id":"levelo_inurba_marseille","lat":43.328371,"lon":5.366912,"is_reserved":false,"is_disabled":false,"rental_uris":{"android":"levelo://app?vid=1acc9c82-a049-49b2-8802-6e37cdd32a71","ios":"levelo://app?vid=1acc9c82-a049-49b2-8802-6e37cdd32a71"},"vehicle_type_id":"4","last_reported":1685106536,"current_range_meters":22800,"station_id":"ce4bhs92rcd13ifvqi0g","pricing_plan_id":"free"},{"bike_id":"4fe812b5-a152-4f6f-a5e4-5b2d482ba70f","system_id":"levelo_inurba_marseille","lat":43.32831,"lon":5.36687,"is_reserved":false,"is_disabled":false,"rental_uris":{"android":"levelo://app?vid=4fe812b5-a152-4f6f-a5e4-5b2d482ba70f","ios":"levelo://app?vid=4fe812b5-a152-4f6f-a5e4-5b2d482ba70f"},"vehicle_type_id":"4","last_reported":1685106536,"current_range_meters":15200,"station_id":"ce4bhs92rcd13ifvqi0g","pricing_plan_id":"free"},{"bike_id":"15bdd509-ac6b-486d-a3af-74b1c552f2cb","system_id":"levelo_inurba_marseille","lat":43.32832,"lon":5.36688,"is_reserved":false,"is_disabled":false,"rental_uris":{"android":"levelo://app?vid=15bdd509-ac6b-486d-a3af-74b1c552f2cb","ios":"levelo://app?vid=15bdd509-ac6b-486d-a3af-74b1c552f2cb"},"vehicle_type_id":"4","last_reported":1685106536,"current_range_meters":15600,"station_id":"ce4bhs92rcd13ifvqi0g","pricing_plan_id":"free"},{"bike_id":"bbf06f8d-4083-4a31-beff-723604c0f8b8","system_id":"levelo_inurba_marseille","lat":43.32834,"lon":5.36692,"is_reserved":false,"is_disabled":false,"rental_uris":{"android":"levelo://app?vid=bbf06f8d-4083-4a31-beff-723604c0f8b8","ios":"levelo://app?vid=bbf06f8d-4083-4a31-beff-723604c0f8b8"},"vehicle_type_id":"4","last_reported":1685106536,"current_range_meters":0,"station_id":"ce4bhs92rcd13ifvqi0g","pricing_plan_id":"free"},{"bike_id":"4bd720e4-aec2-484b-bf84-7b6cf8400a43","system_id":"levelo_inurba_marseille","lat":43.29713,"lon":5.36607,"is_reserved":false,"is_disabled":false,"rental_uris":{"android":"levelo://app?vid=4bd720e4-aec2-484b-bf84-7b6cf8400a43","ios":"levelo://app?vid=4bd720e4-aec2-484b-bf84-7b6cf8400a43"},"vehicle_type_id":"4","last_reported":1685106536,"current_range_meters":11200,"station_id":"","pricing_plan_id":"free"},{"bike_id":"b5387c8b-1aeb-4c0b-bf7e-29bd1cef36b6","system_id":"levelo_inurba_marseille","lat":43.29706,"lon":5.36601,"is_reserved":false,"is_disabled":false,"rental_uris":{"android":"levelo://app?vid=b5387c8b-1aeb-4c0b-bf7e-29bd1cef36b6","ios":"levelo://app?vid=b5387c8b-1aeb-4c0b-bf7e-29bd1cef36b6"},"vehicle_type_id":"4","last_reported":1685106536,"current_range_meters":20000,"station_id":"","pricing_plan_id":"free"},{"bike_id":"fd2f7b4b-349a-4854-83fe-5b667e45995a","system_id":"levelo_inurba_marseille","lat":43.31504,"lon":5.38912,"is_reserved":false,"is_disabled":false,"rental_uris":{"android":"levelo://app?vid=fd2f7b4b-349a-4854-83fe-5b667e45995a","ios":"levelo://app?vid=fd2f7b4b-349a-4854-83fe-5b667e45995a"},"vehicle_type_id":"4","last_reported":1685106536,"current_range_meters":24400,"station_id":"","pricing_plan_id":"free"},{"bike_id":"7ea004ab-2ba1-45ff-925b-568fc565046d","system_id":"levelo_inurba_marseille","lat":43.30089,"lon":5.38243,"is_reserved":false,"is_disabled":false,"rental_uris":{"android":"levelo://app?vid=7ea004ab-2ba1-45ff-925b-568fc565046d","ios":"levelo://app?vid=7ea004ab-2ba1-45ff-925b-568fc565046d"},"vehicle_type_id":"4","last_reported":1685106536,"current_range_meters":0,"station_id":"","pricing_plan_id":"free"},{"bike_id":"ca3c588e-d120-4e58-b81c-c923653e14c5","system_id":"levelo_inurba_marseille","lat":43.29573,"lon":5.367355,"is_reserved":false,"is_disabled":false,"rental_uris":{"android":"levelo://app?vid=ca3c588e-d120-4e58-b81c-c923653e14c5","ios":"levelo://app?vid=ca3c588e-d120-4e58-b81c-c923653e14c5"},"vehicle_type_id":"4","last_reported":1685106536,"current_range_meters":2000,"station_id":"ce4bgph2rcd13ifvqc2g","pricing_plan_id":"free"},{"bike_id":"37dc507c-8c2a-4746-b6e9-3b2e61fc8343","system_id":"levelo_inurba_marseille","lat":43.296129,"lon":5.370777,"is_reserved":false,"is_disabled":false,"rental_uris":{"android":"levelo://app?vid=37dc507c-8c2a-4746-b6e9-3b2e61fc8343","ios":"levelo://app?vid=37dc507c-8c2a-4746-b6e9-3b2e61fc8343"},"vehicle_type_id":"4","last_reported":1685106536,"current_range_meters":18000,"station_id":"ce4bgnh2rcd13ifvqc0g","pricing_plan_id":"free"},{"bike_id":"24928545-e65e-482e-a91a-b337d76bfe12","system_id":"levelo_inurba_marseille","lat":43.29573,"lon":5.367355,"is_reserved":false,"is_disabled":false,"rental_uris":{"android":"levelo://app?vid=24928545-e65e-482e-a91a-b337d76bfe12","ios":"levelo://app?vid=24928545-e65e-482e-a91a-b337d76bfe12"},"vehicle_type_id":"4","last_reported":1685106536,"current_range_meters":3200,"station_id":"ce4bgph2rcd13ifvqc2g","pricing_plan_id":"free"},{"bike_id":"8d4af598-3d30-417e-8a9f-bdc3f08f6653","system_id":"levelo_inurba_marseille","lat":43.29732,"lon":5.37679,"is_reserved":false,"is_disabled":false,"rental_uris":{"android":"levelo://app?vid=8d4af598-3d30-417e-8a9f-bdc3f08f6653","ios":"levelo://app?vid=8d4af598-3d30-417e-8a9f-bdc3f08f6653"},"vehicle_type_id":"4","last_reported":1685106536,"current_range_meters":6000,"station_id":"","pricing_plan_id":"free"},{"bike_id":"ff76be9a-703d-4173-9292-6486ad49b2b1","system_id":"levelo_inurba_marseille","lat":43.309589,"lon":5.390258,"is_reserved":false,"is_disabled":false,"rental_uris":{"android":"levelo://app?vid=ff76be9a-703d-4173-9292-6486ad49b2b1","ios":"levelo://app?vid=ff76be9a-703d-4173-9292-6486ad49b2b1"},"vehicle_type_id":"4","last_reported":1685106536,"current_range_meters":17600,"station_id":"ce4bgup2rcd13ifvqco0","pricing_plan_id":"free"},{"bike_id":"cbd6fc03-fa27-45fd-9744-4fe02b3e9e30","system_id":"levelo_inurba_marseille","lat":43.317557,"lon":5.390173,"is_reserved":false,"is_disabled":false,"rental_uris":{"android":"levelo://app?vid=cbd6fc03-fa27-45fd-9744-4fe02b3e9e30","ios":"levelo://app?vid=cbd6fc03-fa27-45fd-9744-4fe02b3e9e30"},"vehicle_type_id":"4","last_reported":1685106536,"current_range_meters":26800,"station_id":"ce4bhqp2rcd13ifvqhng","pricing_plan_id":"free"},{"bike_id":"f57d3ad8-4dda-4e49-b556-c19be84f787a","system_id":"levelo_inurba_marseille","lat":43.317557,"lon":5.390173,"is_reserved":false,"is_disabled":false,"rental_uris":{"android":"levelo://app?vid=f57d3ad8-4dda-4e49-b556-c19be84f787a","ios":"levelo://app?vid=f57d3ad8-4dda-4e49-b556-c19be84f787a"},"vehicle_type_id":"4","last_reported":1685106536,"current_range_meters":18000,"station_id":"ce4bhqp2rcd13ifvqhng","pricing_plan_id":"free"},{"bike_id":"5d31d7df-61de-4081-b060-85fa4ed4537f","system_id":"levelo_inurba_marseille","lat":43.317557,"lon":5.390173,"is_reserved":false,"is_disabled":false,"rental_uris":{"android":"levelo://app?vid=5d31d7df-61de-4081-b060-85fa4ed4537f","ios":"levelo://app?vid=5d31d7df-61de-4081-b060-85fa4ed4537f"},"vehicle_type_id":"4","last_reported":1685106536,"current_range_meters":400,"station_id":"ce4bhqp2rcd13ifvqhng","pricing_plan_id":"free"},{"bike_id":"dd6087e1-47bc-4ecb-bd58-7f5ef6caccd8","system_id":"levelo_inurba_marseille","lat":43.296263,"lon":5.377094,"is_reserved":false,"is_disabled":false,"rental_uris":{"android":"levelo://app?vid=dd6087e1-47bc-4ecb-bd58-7f5ef6caccd8","ios":"levelo://app?vid=dd6087e1-47bc-4ecb-bd58-7f5ef6caccd8"},"vehicle_type_id":"4","last_reported":1685106536,"current_range_meters":17200,"station_id":"ce4bgi92rcd13ifvqb90","pricing_plan_id":"free"},{"bike_id":"a159b0ff-58a1-464a-b964-96a9960fa08f","system_id":"levelo_inurba_marseille","lat":43.29909,"lon":5.38414,"is_reserved":false,"is_disabled":false,"rental_uris":{"android":"levelo://app?vid=a159b0ff-58a1-464a-b964-96a9960fa08f","ios":"levelo://app?vid=a159b0ff-58a1-464a-b964-96a9960fa08f"},"vehicle_type_id":"4","last_reported":1685106536,"current_range_meters":21200,"station_id":"","pricing_plan_id":"free"},{"bike_id":"1427ad93-38b8-4d39-8e3e-0523295fc98f","system_id":"levelo_inurba_marseille","lat":43.296935,"lon":5.376544,"is_reserved":false,"is_disabled":false,"rental_uris":{"android":"levelo://app?vid=1427ad93-38b8-4d39-8e3e-0523295fc98f","ios":"levelo://app?vid=1427ad93-38b8-4d39-8e3e-0523295fc98f"},"vehicle_type_id":"4","last_reported":1685106536,"current_range_meters":11200,"station_id":"ce4bgkh2rcd13ifvqbl0","pricing_plan_id":"free"},{"bike_id":"d1ec6f0a-6ed5-4966-abd9-a579c92d97f2","system_id":"levelo_inurba_marseille","lat":43.296556,"lon":5.381226,"is_reserved":false,"is_disabled":false,"rental_uris":{"android":"levelo://app?vid=d1ec6f0a-6ed5-4966-abd9-a579c92d97f2","ios":"levelo://app?vid=d1ec6f0a-6ed5-4966-abd9-a579c92d97f2"},"vehicle_type_id":"4","last_reported":1685106536,"current_range_meters":16400,"station_id":"","pricing_plan_id":"free"},{"bike_id":"96c91e5e-1df6-4a07-8ff7-600bd9d1f35f","system_id":"levelo_inurba_marseille","lat":43.32367,"lon":5.388836,"is_reserved":false,"is_disabled":false,"rental_uris":{"android":"levelo://app?vid=96c91e5e-1df6-4a07-8ff7-600bd9d1f35f","ios":"levelo://app?vid=96c91e5e-1df6-4a07-8ff7-600bd9d1f35f"},"vehicle_type_id":"4","last_reported":1685106536,"current_range_meters":19600,"station_id":"ce4bhqp2rcd13ifvqhog","pricing_plan_id":"free"},{"bike_id":"eb919dee-7924-4349-b9ec-b54f7f96aefd","system_id":"levelo_inurba_marseille","lat":43.32367,"lon":5.388836,"is_reserved":false,"is_disabled":false,"rental_uris":{"android":"levelo://app?vid=eb919dee-7924-4349-b9ec-b54f7f96aefd","ios":"levelo://app?vid=eb919dee-7924-4349-b9ec-b54f7f96aefd"},"vehicle_type_id":"4","last_reported":1685106536,"current_range_meters":20000,"station_id":"ce4bhqp2rcd13ifvqhog","pricing_plan_id":"free"},{"bike_id":"ab6cae80-7f6e-4231-ae91-23f9c5cde088","system_id":"levelo_inurba_marseille","lat":43.32363,"lon":5.38886,"is_reserved":false,"is_disabled":false,"rental_uris":{"android":"levelo://app?vid=ab6cae80-7f6e-4231-ae91-23f9c5cde088","ios":"levelo://app?vid=ab6cae80-7f6e-4231-ae91-23f9c5cde088"},"vehicle_type_id":"4","last_reported":1685106536,"current_range_meters":19600,"station_id":"ce4bhqp2rcd13ifvqhog","pricing_plan_id":"free"},{"bike_id":"b378857d-4641-4254-8220-ed7b669fc974","system_id":"levelo_inurba_marseille","lat":43.29602,"lon":5.381084,"is_reserved":false,"is_disabled":false,"rental_uris":{"android":"levelo://app?vid=b378857d-4641-4254-8220-ed7b669fc974","ios":"levelo://app?vid=b378857d-4641-4254-8220-ed7b669fc974"},"vehicle_type_id":"4","last_reported":1685106536,"current_range_meters":29600,"station_id":"ce4bgl12rcd13ifvqbo0","pricing_plan_id":"free"},{"bike_id":"86815a26-688a-4fe4-9863-113d55650cb2","system_id":"levelo_inurba_marseille","lat":43.292749,"lon":5.368398,"is_reserved":false,"is_disabled":false,"rental_uris":{"android":"levelo://app?vid=86815a26-688a-4fe4-9863-113d55650cb2","ios":"levelo://app?vid=86815a26-688a-4fe4-9863-113d55650cb2"},"vehicle_type_id":"4","last_reported":1685106536,"current_range_meters":26400,"station_id":"ce4bhbp2rcd13ifvqesg","pricing_plan_id":"free"},{"bike_id":"41ac364c-1a78-43b8-8ceb-805cc97f3a2d","system_id":"levelo_inurba_marseille","lat":43.292749,"lon":5.368402,"is_reserved":false,"is_disabled":false,"rental_uris":{"android":"levelo://app?vid=41ac364c-1a78-43b8-8ceb-805cc97f3a2d","ios":"levelo://app?vid=41ac364c-1a78-43b8-8ceb-805cc97f3a2d"},"vehicle_type_id":"4","last_reported":1685106536,"current_range_meters":23600,"station_id":"ce4bhbp2rcd13ifvqesg","pricing_plan_id":"free"},{"bike_id":"d2925afd-527f-44aa-a698-8ad0d95520fc","system_id":"levelo_inurba_marseille","lat":43.302992,"lon":5.392136,"is_reserved":false,"is_disabled":false,"rental_uris":{"android":"levelo://app?vid=d2925afd-527f-44aa-a698-8ad0d95520fc","ios":"levelo://app?vid=d2925afd-527f-44aa-a698-8ad0d95520fc"},"vehicle_type_id":"4","last_reported":1685106536,"current_range_meters":3200,"station_id":"ce4bgkh2rcd13ifvqbk0","pricing_plan_id":"free"},{"bike_id":"f903bc7c-17dc-46d0-ba65-b687581f2911","system_id":"levelo_inurba_marseille","lat":43.291675,"lon":5.371583,"is_reserved":false,"is_disabled":false,"rental_uris":{"android":"levelo://app?vid=f903bc7c-17dc-46d0-ba65-b687581f2911","ios":"levelo://app?vid=f903bc7c-17dc-46d0-ba65-b687581f2911"},"vehicle_type_id":"4","last_reported":1685106536,"current_range_meters":22000,"station_id":"ce4bha92rcd13ifvqeh0","pricing_plan_id":"free"},{"bike_id":"5ecba61a-7347-4489-9241-0915d28ff3ca","system_id":"levelo_inurba_marseille","lat":43.291675,"lon":5.371583,"is_reserved":false,"is_disabled":false,"rental_uris":{"android":"levelo://app?vid=5ecba61a-7347-4489-9241-0915d28ff3ca","ios":"levelo://app?vid=5ecba61a-7347-4489-9241-0915d28ff3ca"},"vehicle_type_id":"4","last_reported":1685106536,"current_range_meters":29200,"station_id":"ce4bha92rcd13ifvqeh0","pricing_plan_id":"free"},{"bike_id":"328db0d7-2837-460b-a4cc-aff2fe6d0807","system_id":"levelo_inurba_marseille","lat":43.29165,"lon":5.37161,"is_reserved":false,"is_disabled":false,"rental_uris":{"android":"levelo://app?vid=328db0d7-2837-460b-a4cc-aff2fe6d0807","ios":"levelo://app?vid=328db0d7-2837-460b-a4cc-aff2fe6d0807"},"vehicle_type_id":"4","last_reported":1685106536,"current_range_meters":8000,"station_id":"ce4bha92rcd13ifvqeh0","pricing_plan_id":"free"},{"bike_id":"23634b21-d8d0-4538-a340-972667f99892","system_id":"levelo_inurba_marseille","lat":43.29861,"lon":5.38908,"is_reserved":false,"is_disabled":false,"rental_uris":{"android":"levelo://app?vid=23634b21-d8d0-4538-a340-972667f99892","ios":"levelo://app?vid=23634b21-d8d0-4538-a340-972667f99892"},"vehicle_type_id":"4","last_reported":1685106536,"current_range_meters":0,"station_id":"ce4bh392rcd13ifvqdl0","pricing_plan_id":"free"},{"bike_id":"92f4cc5f-8088-4245-ad81-bfe8cfcbd2b2","system_id":"levelo_inurba_marseille","lat":43.30894,"lon":5.39636,"is_reserved":false,"is_disabled":false,"rental_uris":{"android":"levelo://app?vid=92f4cc5f-8088-4245-ad81-bfe8cfcbd2b2","ios":"levelo://app?vid=92f4cc5f-8088-4245-ad81-bfe8cfcbd2b2"},"vehicle_type_id":"4","last_reported":1685106536,"current_range_meters":20800,"station_id":"","pricing_plan_id":"free"},{"bike_id":"868a92ff-d67a-424b-a493-d52d820c4252","system_id":"levelo_inurba_marseille","lat":43.291994,"lon":5.357886,"is_reserved":false,"is_disabled":false,"rental_uris":{"android":"levelo://app?vid=868a92ff-d67a-424b-a493-d52d820c4252","ios":"levelo://app?vid=868a92ff-d67a-424b-a493-d52d820c4252"},"vehicle_type_id":"4","last_reported":1685106536,"current_range_meters":17600,"station_id":"ce4bhb12rcd13ifvqel0","pricing_plan_id":"free"},{"bike_id":"aec93b4b-96a4-4325-9c1c-ca6c7210000d","system_id":"levelo_inurba_marseille","lat":43.313291,"lon":5.396838,"is_reserved":false,"is_disabled":false,"rental_uris":{"android":"levelo://app?vid=aec93b4b-96a4-4325-9c1c-ca6c7210000d","ios":"levelo://app?vid=aec93b4b-96a4-4325-9c1c-ca6c7210000d"},"vehicle_type_id":"4","last_reported":1685106536,"current_range_meters":5600,"station_id":"ce4bgvp2rcd13ifvqcu0","pricing_plan_id":"free"},{"bike_id":"86516d6f-73f1-4a8c-a53a-b0e4f44a0451","system_id":"levelo_inurba_marseille","lat":43.305994,"lon":5.393687,"is_reserved":false,"is_disabled":false,"rental_uris":{"android":"levelo://app?vid=86516d6f-73f1-4a8c-a53a-b0e4f44a0451","ios":"levelo://app?vid=86516d6f-73f1-4a8c-a53a-b0e4f44a0451"},"vehicle_type_id":"4","last_reported":1685106536,"current_range_meters":26000,"station_id":"ce4bh0p2rcd13ifvqd80","pricing_plan_id":"free"},{"bike_id":"295ca78e-7757-4afb-ae3e-2b749ac509fd","system_id":"levelo_inurba_marseille","lat":43.291994,"lon":5.357886,"is_reserved":false,"is_disabled":false,"rental_uris":{"android":"levelo://app?vid=295ca78e-7757-4afb-ae3e-2b749ac509fd","ios":"levelo://app?vid=295ca78e-7757-4afb-ae3e-2b749ac509fd"},"vehicle_type_id":"4","last_reported":1685106536,"current_range_meters":20000,"station_id":"ce4bhb12rcd13ifvqel0","pricing_plan_id":"free"},{"bike_id":"6b54a7c0-fb18-4ecf-93c6-53a01a487f14","system_id":"levelo_inurba_marseille","lat":43.29194,"lon":5.35735,"is_reserved":false,"is_disabled":false,"rental_uris":{"android":"levelo://app?vid=6b54a7c0-fb18-4ecf-93c6-53a01a487f14","ios":"levelo://app?vid=6b54a7c0-fb18-4ecf-93c6-53a01a487f14"},"vehicle_type_id":"4","last_reported":1685106536,"current_range_meters":20000,"station_id":"ce4bhbp2rcd13ifvqerg","pricing_plan_id":"free"},{"bike_id":"efbe7490-9b7c-4fab-a6bb-959ffaed7546","system_id":"levelo_inurba_marseille","lat":43.29079,"lon":5.3717,"is_reserved":false,"is_disabled":false,"rental_uris":{"android":"levelo://app?vid=efbe7490-9b7c-4fab-a6bb-959ffaed7546","ios":"levelo://app?vid=efbe7490-9b7c-4fab-a6bb-959ffaed7546"},"vehicle_type_id":"4","last_reported":1685106536,"current_range_meters":26800,"station_id":"ce4bh5p2rcd13ifvqe4g","pricing_plan_id":"free"},{"bike_id":"dbd22a1a-0323-4911-94e9-1fd3d62b44c3","system_id":"levelo_inurba_marseille","lat":43.290631,"lon":5.359244,"is_reserved":false,"is_disabled":false,"rental_uris":{"android":"levelo://app?vid=dbd22a1a-0323-4911-94e9-1fd3d62b44c3","ios":"levelo://app?vid=dbd22a1a-0323-4911-94e9-1fd3d62b44c3"},"vehicle_type_id":"4","last_reported":1685106536,"current_range_meters":28400,"station_id":"ce4bha92rcd13ifvqeg0","pricing_plan_id":"free"},{"bike_id":"299dcfda-e04a-4e9e-8ec7-da2a234f6724","system_id":"levelo_inurba_marseille","lat":43.290319,"lon":5.375732,"is_reserved":false,"is_disabled":false,"rental_uris":{"android":"levelo://app?vid=299dcfda-e04a-4e9e-8ec7-da2a234f6724","ios":"levelo://app?vid=299dcfda-e04a-4e9e-8ec7-da2a234f6724"},"vehicle_type_id":"4","last_reported":1685106536,"current_range_meters":21600,"station_id":"ce4bh692rcd13ifvqe90","pricing_plan_id":"free"},{"bike_id":"a787a0ae-aa93-4c14-b4a1-53c78272126e","system_id":"levelo_inurba_marseille","lat":43.294162,"lon":5.386292,"is_reserved":false,"is_disabled":false,"rental_uris":{"android":"levelo://app?vid=a787a0ae-aa93-4c14-b4a1-53c78272126e","ios":"levelo://app?vid=a787a0ae-aa93-4c14-b4a1-53c78272126e"},"vehicle_type_id":"4","last_reported":1685106536,"current_range_meters":17600,"station_id":"ce4bh2h2rcd13ifvqdh0","pricing_plan_id":"free"},{"bike_id":"e092ebbb-ab24-4dc8-bc0e-fcaa4aa94746","system_id":"levelo_inurba_marseille","lat":43.292642,"lon":5.384254,"is_reserved":false,"is_disabled":false,"rental_uris":{"android":"levelo://app?vid=e092ebbb-ab24-4dc8-bc0e-fcaa4aa94746","ios":"levelo://app?vid=e092ebbb-ab24-4dc8-bc0e-fcaa4aa94746"},"vehicle_type_id":"4","last_reported":1685106536,"current_range_meters":17200,"station_id":"ce4bh692rcd13ifvqea0","pricing_plan_id":"free"},{"bike_id":"ef316bba-5e9c-4067-ad01-5d805c22c7d9","system_id":"levelo_inurba_marseille","lat":43.292642,"lon":5.384254,"is_reserved":false,"is_disabled":false,"rental_uris":{"android":"levelo://app?vid=ef316bba-5e9c-4067-ad01-5d805c22c7d9","ios":"levelo://app?vid=ef316bba-5e9c-4067-ad01-5d805c22c7d9"},"vehicle_type_id":"4","last_reported":1685106536,"current_range_meters":3600,"station_id":"ce4bh692rcd13ifvqea0","pricing_plan_id":"free"},{"bike_id":"10a19735-ee0b-4655-b5f3-f7adddfbdc69","system_id":"levelo_inurba_marseille","lat":43.292642,"lon":5.384254,"is_reserved":false,"is_disabled":false,"rental_uris":{"android":"levelo://app?vid=10a19735-ee0b-4655-b5f3-f7adddfbdc69","ios":"levelo://app?vid=10a19735-ee0b-4655-b5f3-f7adddfbdc69"},"vehicle_type_id":"4","last_reported":1685106536,"current_range_meters":9600,"station_id":"ce4bh692rcd13ifvqea0","pricing_plan_id":"free"},{"bike_id":"79b5fe5b-e7cd-4dec-bf44-02d00fd980a4","system_id":"levelo_inurba_marseille","lat":43.33041,"lon":5.38915,"is_reserved":false,"is_disabled":false,"rental_uris":{"android":"levelo://app?vid=79b5fe5b-e7cd-4dec-bf44-02d00fd980a4","ios":"levelo://app?vid=79b5fe5b-e7cd-4dec-bf44-02d00fd980a4"},"vehicle_type_id":"4","last_reported":1685106536,"current_range_meters":23200,"station_id":"ce4bhr92rcd13ifvqhrg","pricing_plan_id":"free"},{"bike_id":"026908aa-f2f9-458b-8397-5b4489b3260b","system_id":"levelo_inurba_marseille","lat":43.33042,"lon":5.38916,"is_reserved":false,"is_disabled":false,"rental_uris":{"android":"levelo://app?vid=026908aa-f2f9-458b-8397-5b4489b3260b","ios":"levelo://app?vid=026908aa-f2f9-458b-8397-5b4489b3260b"},"vehicle_type_id":"4","last_reported":1685106536,"current_range_meters":22800,"station_id":"ce4bhr92rcd13ifvqhrg","pricing_plan_id":"free"},{"bike_id":"0aab3dce-8610-4860-a047-500ec7b371ea","system_id":"levelo_inurba_marseille","lat":43.33042,"lon":5.38919,"is_reserved":false,"is_disabled":false,"rental_uris":{"android":"levelo://app?vid=0aab3dce-8610-4860-a047-500ec7b371ea","ios":"levelo://app?vid=0aab3dce-8610-4860-a047-500ec7b371ea"},"vehicle_type_id":"4","last_reported":1685106536,"current_range_meters":6400,"station_id":"ce4bhr92rcd13ifvqhrg","pricing_plan_id":"free"},{"bike_id":"77c46813-217e-48e0-b7b5-5903a185deed","system_id":"levelo_inurba_marseille","lat":43.33045,"lon":5.38915,"is_reserved":false,"is_disabled":false,"rental_uris":{"android":"levelo://app?vid=77c46813-217e-48e0-b7b5-5903a185deed","ios":"levelo://app?vid=77c46813-217e-48e0-b7b5-5903a185deed"},"vehicle_type_id":"4","last_reported":1685106536,"current_range_meters":8800,"station_id":"ce4bhr92rcd13ifvqhrg","pricing_plan_id":"free"},{"bike_id":"a62cd272-6e2c-470d-9387-adcd6e94f432","system_id":"levelo_inurba_marseille","lat":43.33038,"lon":5.38927,"is_reserved":false,"is_disabled":false,"rental_uris":{"android":"levelo://app?vid=a62cd272-6e2c-470d-9387-adcd6e94f432","ios":"levelo://app?vid=a62cd272-6e2c-470d-9387-adcd6e94f432"},"vehicle_type_id":"4","last_reported":1685106536,"current_range_meters":22800,"station_id":"ce4bhr92rcd13ifvqhrg","pricing_plan_id":"free"},{"bike_id":"a4d3575c-90ca-48ac-b339-9dfa3c6b122c","system_id":"levelo_inurba_marseille","lat":43.33044,"lon":5.38919,"is_reserved":false,"is_disabled":false,"rental_uris":{"android":"levelo://app?vid=a4d3575c-90ca-48ac-b339-9dfa3c6b122c","ios":"levelo://app?vid=a4d3575c-90ca-48ac-b339-9dfa3c6b122c"},"vehicle_type_id":"4","last_reported":1685106536,"current_range_meters":0,"station_id":"ce4bhr92rcd13ifvqhrg","pricing_plan_id":"free"},{"bike_id":"42a3c7fb-a22b-480e-8e13-648be922e8ec","system_id":"levelo_inurba_marseille","lat":43.33045,"lon":5.38918,"is_reserved":false,"is_disabled":false,"rental_uris":{"android":"levelo://app?vid=42a3c7fb-a22b-480e-8e13-648be922e8ec","ios":"levelo://app?vid=42a3c7fb-a22b-480e-8e13-648be922e8ec"},"vehicle_type_id":"4","last_reported":1685106536,"current_range_meters":10000,"station_id":"ce4bhr92rcd13ifvqhrg","pricing_plan_id":"free"},{"bike_id":"8bcddeb4-931b-4ed4-9df4-5fee73c60dc3","system_id":"levelo_inurba_marseille","lat":43.33041,"lon":5.38924,"is_reserved":false,"is_disabled":false,"rental_uris":{"android":"levelo://app?vid=8bcddeb4-931b-4ed4-9df4-5fee73c60dc3","ios":"levelo://app?vid=8bcddeb4-931b-4ed4-9df4-5fee73c60dc3"},"vehicle_type_id":"4","last_reported":1685106536,"current_range_meters":28000,"station_id":"ce4bhr92rcd13ifvqhrg","pricing_plan_id":"free"},{"bike_id":"063f21ae-2708-465b-935a-7273059cedcc","system_id":"levelo_inurba_marseille","lat":43.289743,"lon":5.378304,"is_reserved":false,"is_disabled":false,"rental_uris":{"android":"levelo://app?vid=063f21ae-2708-465b-935a-7273059cedcc","ios":"levelo://app?vid=063f21ae-2708-465b-935a-7273059cedcc"},"vehicle_type_id":"4","last_reported":1685106536,"current_range_meters":20800,"station_id":"ce4bh9p2rcd13ifvqed0","pricing_plan_id":"free"},{"bike_id":"02362672-78e1-4667-9a77-d71f91f94365","system_id":"levelo_inurba_marseille","lat":43.33751,"lon":5.37432,"is_reserved":false,"is_disabled":false,"rental_uris":{"android":"levelo://app?vid=02362672-78e1-4667-9a77-d71f91f94365","ios":"levelo://app?vid=02362672-78e1-4667-9a77-d71f91f94365"},"vehicle_type_id":"4","last_reported":1685106536,"current_range_meters":20400,"station_id":"","pricing_plan_id":"free"},{"bike_id":"556c6db1-2600-4c2b-9521-aae8453517c1","system_id":"levelo_inurba_marseille","lat":43.33752,"lon":5.37439,"is_reserved":false,"is_disabled":false,"rental_uris":{"android":"levelo://app?vid=556c6db1-2600-4c2b-9521-aae8453517c1","ios":"levelo://app?vid=556c6db1-2600-4c2b-9521-aae8453517c1"},"vehicle_type_id":"4","last_reported":1685106536,"current_range_meters":21600,"station_id":"","pricing_plan_id":"free"},{"bike_id":"eb8ac404-8a95-4fc7-819a-ea19315069af","system_id":"levelo_inurba_marseille","lat":43.33752,"lon":5.37456,"is_reserved":false,"is_disabled":false,"rental_uris":{"android":"levelo://app?vid=eb8ac404-8a95-4fc7-819a-ea19315069af","ios":"levelo://app?vid=eb8ac404-8a95-4fc7-819a-ea19315069af"},"vehicle_type_id":"4","last_reported":1685106536,"current_range_meters":28000,"station_id":"","pricing_plan_id":"free"},{"bike_id":"141c14ea-594b-43ee-894e-8c44af1dcd73","system_id":"levelo_inurba_marseille","lat":43.33759,"lon":5.37447,"is_reserved":false,"is_disabled":false,"rental_uris":{"android":"levelo://app?vid=141c14ea-594b-43ee-894e-8c44af1dcd73","ios":"levelo://app?vid=141c14ea-594b-43ee-894e-8c44af1dcd73"},"vehicle_type_id":"4","last_reported":1685106536,"current_range_meters":16400,"station_id":"","pricing_plan_id":"free"},{"bike_id":"1490fad1-fe90-4399-a2f2-79545cf03a2b","system_id":"levelo_inurba_marseille","lat":43.337578,"lon":5.374791,"is_reserved":false,"is_disabled":false,"rental_uris":{"android":"levelo://app?vid=1490fad1-fe90-4399-a2f2-79545cf03a2b","ios":"levelo://app?vid=1490fad1-fe90-4399-a2f2-79545cf03a2b"},"vehicle_type_id":"4","last_reported":1685106536,"current_range_meters":31200,"station_id":"","pricing_plan_id":"free"},{"bike_id":"5a608983-d5b7-4ea9-8166-341678317010","system_id":"levelo_inurba_marseille","lat":43.30642,"lon":5.401031,"is_reserved":false,"is_disabled":false,"rental_uris":{"android":"levelo://app?vid=5a608983-d5b7-4ea9-8166-341678317010","ios":"levelo://app?vid=5a608983-d5b7-4ea9-8166-341678317010"},"vehicle_type_id":"4","last_reported":1685106536,"current_range_meters":8400,"station_id":"ce4bh112rcd13ifvqda0","pricing_plan_id":"free"},{"bike_id":"39685e1e-90d8-485e-ad07-faf5c4746ecb","system_id":"levelo_inurba_marseille","lat":43.30642,"lon":5.401031,"is_reserved":false,"is_disabled":false,"rental_uris":{"android":"levelo://app?vid=39685e1e-90d8-485e-ad07-faf5c4746ecb","ios":"levelo://app?vid=39685e1e-90d8-485e-ad07-faf5c4746ecb"},"vehicle_type_id":"4","last_reported":1685106536,"current_range_meters":800,"station_id":"ce4bh112rcd13ifvqda0","pricing_plan_id":"free"},{"bike_id":"0f915385-1fd5-4f54-896c-f56a11a31d3d","system_id":"levelo_inurba_marseille","lat":43.33784,"lon":5.3743,"is_reserved":false,"is_disabled":false,"rental_uris":{"android":"levelo://app?vid=0f915385-1fd5-4f54-896c-f56a11a31d3d","ios":"levelo://app?vid=0f915385-1fd5-4f54-896c-f56a11a31d3d"},"vehicle_type_id":"4","last_reported":1685106536,"current_range_meters":23200,"station_id":"","pricing_plan_id":"free"},{"bike_id":"5bd96745-9a19-4fe7-b597-4db9cabdc957","system_id":"levelo_inurba_marseille","lat":43.33784,"lon":5.37432,"is_reserved":false,"is_disabled":false,"rental_uris":{"android":"levelo://app?vid=5bd96745-9a19-4fe7-b597-4db9cabdc957","ios":"levelo://app?vid=5bd96745-9a19-4fe7-b597-4db9cabdc957"},"vehicle_type_id":"4","last_reported":1685106536,"current_range_meters":29600,"station_id":"","pricing_plan_id":"free"},{"bike_id":"7317bea4-d512-4f42-8b22-f7fdaf5994d9","system_id":"levelo_inurba_marseille","lat":43.30435,"lon":5.4009,"is_reserved":false,"is_disabled":false,"rental_uris":{"android":"levelo://app?vid=7317bea4-d512-4f42-8b22-f7fdaf5994d9","ios":"levelo://app?vid=7317bea4-d512-4f42-8b22-f7fdaf5994d9"},"vehicle_type_id":"4","last_reported":1685106536,"current_range_meters":6400,"station_id":"","pricing_plan_id":"free"},{"bike_id":"557336d2-c50f-4b76-a431-487e56f920f5","system_id":"levelo_inurba_marseille","lat":43.286591,"lon":5.363346,"is_reserved":false,"is_disabled":false,"rental_uris":{"android":"levelo://app?vid=557336d2-c50f-4b76-a431-487e56f920f5","ios":"levelo://app?vid=557336d2-c50f-4b76-a431-487e56f920f5"},"vehicle_type_id":"4","last_reported":1685106536,"current_range_meters":19600,"station_id":"ce4bhah2rcd13ifvqej0","pricing_plan_id":"free"},{"bike_id":"07733bc3-0b7d-44d6-b325-a9f1c3002c0e","system_id":"levelo_inurba_marseille","lat":43.286591,"lon":5.363346,"is_reserved":false,"is_disabled":false,"rental_uris":{"android":"levelo://app?vid=07733bc3-0b7d-44d6-b325-a9f1c3002c0e","ios":"levelo://app?vid=07733bc3-0b7d-44d6-b325-a9f1c3002c0e"},"vehicle_type_id":"4","last_reported":1685106536,"current_range_meters":24000,"station_id":"ce4bhah2rcd13ifvqej0","pricing_plan_id":"free"},{"bike_id":"667bd1de-c4d8-432e-a42e-4374997fc725","system_id":"levelo_inurba_marseille","lat":43.295194,"lon":5.39397,"is_reserved":false,"is_disabled":false,"rental_uris":{"android":"levelo://app?vid=667bd1de-c4d8-432e-a42e-4374997fc725","ios":"levelo://app?vid=667bd1de-c4d8-432e-a42e-4374997fc725"},"vehicle_type_id":"4","last_reported":1685106536,"current_range_meters":0,"station_id":"ce4bh292rcd13ifvqdf0","pricing_plan_id":"free"},{"bike_id":"d84dc970-a321-4bd7-8960-450112d6a2a6","system_id":"levelo_inurba_marseille","lat":43.3019,"lon":5.40039,"is_reserved":false,"is_disabled":false,"rental_uris":{"android":"levelo://app?vid=d84dc970-a321-4bd7-8960-450112d6a2a6","ios":"levelo://app?vid=d84dc970-a321-4bd7-8960-450112d6a2a6"},"vehicle_type_id":"4","last_reported":1685106536,"current_range_meters":8400,"station_id":"","pricing_plan_id":"free"},{"bike_id":"6837b368-6848-405f-b409-23b8fb1d8567","system_id":"levelo_inurba_marseille","lat":43.30242,"lon":5.4008,"is_reserved":false,"is_disabled":false,"rental_uris":{"android":"levelo://app?vid=6837b368-6848-405f-b409-23b8fb1d8567","ios":"levelo://app?vid=6837b368-6848-405f-b409-23b8fb1d8567"},"vehicle_type_id":"4","last_reported":1685106536,"current_range_meters":3200,"station_id":"","pricing_plan_id":"free"},{"bike_id":"5aa6ae8d-4f40-4761-97a8-35ff941437c8","system_id":"levelo_inurba_marseille","lat":43.286039,"lon":5.370679,"is_reserved":false,"is_disabled":false,"rental_uris":{"android":"levelo://app?vid=5aa6ae8d-4f40-4761-97a8-35ff941437c8","ios":"levelo://app?vid=5aa6ae8d-4f40-4761-97a8-35ff941437c8"},"vehicle_type_id":"4","last_reported":1685106536,"current_range_meters":29600,"station_id":"ce4bht12rcd13ifvqi60","pricing_plan_id":"free"},{"bike_id":"ec013eae-3e94-491e-94cb-3d0986c92b1e","system_id":"levelo_inurba_marseille","lat":43.28608,"lon":5.37064,"is_reserved":false,"is_disabled":false,"rental_uris":{"android":"levelo://app?vid=ec013eae-3e94-491e-94cb-3d0986c92b1e","ios":"levelo://app?vid=ec013eae-3e94-491e-94cb-3d0986c92b1e"},"vehicle_type_id":"4","last_reported":1685106536,"current_range_meters":31200,"station_id":"","pricing_plan_id":"free"},{"bike_id":"57039078-30f5-46a4-a75c-16ea7b6b283e","system_id":"levelo_inurba_marseille","lat":43.287184,"lon":5.37937,"is_reserved":false,"is_disabled":false,"rental_uris":{"android":"levelo://app?vid=57039078-30f5-46a4-a75c-16ea7b6b283e","ios":"levelo://app?vid=57039078-30f5-46a4-a75c-16ea7b6b283e"},"vehicle_type_id":"4","last_reported":1685106536,"current_range_meters":4400,"station_id":"ce4bh9p2rcd13ifvqec0","pricing_plan_id":"free"},{"bike_id":"ad2b096b-bdca-4aa3-acc9-493c625717c7","system_id":"levelo_inurba_marseille","lat":43.287184,"lon":5.37937,"is_reserved":false,"is_disabled":false,"rental_uris":{"android":"levelo://app?vid=ad2b096b-bdca-4aa3-acc9-493c625717c7","ios":"levelo://app?vid=ad2b096b-bdca-4aa3-acc9-493c625717c7"},"vehicle_type_id":"4","last_reported":1685106536,"current_range_meters":0,"station_id":"ce4bh9p2rcd13ifvqec0","pricing_plan_id":"free"},{"bike_id":"f278379e-a6a5-4cd3-8104-9596cdd8c074","system_id":"levelo_inurba_marseille","lat":43.287184,"lon":5.37937,"is_reserved":false,"is_disabled":false,"rental_uris":{"android":"levelo://app?vid=f278379e-a6a5-4cd3-8104-9596cdd8c074","ios":"levelo://app?vid=f278379e-a6a5-4cd3-8104-9596cdd8c074"},"vehicle_type_id":"4","last_reported":1685106536,"current_range_meters":12400,"station_id":"ce4bh9p2rcd13ifvqec0","pricing_plan_id":"free"},{"bike_id":"16f6b6a9-6f86-40ec-8111-17efa332ec7b","system_id":"levelo_inurba_marseille","lat":43.31646,"lon":5.40432,"is_reserved":false,"is_disabled":false,"rental_uris":{"android":"levelo://app?vid=16f6b6a9-6f86-40ec-8111-17efa332ec7b","ios":"levelo://app?vid=16f6b6a9-6f86-40ec-8111-17efa332ec7b"},"vehicle_type_id":"4","last_reported":1685106536,"current_range_meters":8000,"station_id":"ce4bh012rcd13ifvqd00","pricing_plan_id":"free"},{"bike_id":"b66d66a8-44fa-4de0-8740-656aec253a76","system_id":"levelo_inurba_marseille","lat":43.31646,"lon":5.40433,"is_reserved":false,"is_disabled":false,"rental_uris":{"android":"levelo://app?vid=b66d66a8-44fa-4de0-8740-656aec253a76","ios":"levelo://app?vid=b66d66a8-44fa-4de0-8740-656aec253a76"},"vehicle_type_id":"4","last_reported":1685106536,"current_range_meters":4800,"station_id":"ce4bh012rcd13ifvqd00","pricing_plan_id":"free"},{"bike_id":"3b28f934-3f9e-4857-8fe9-9b73c37b03a2","system_id":"levelo_inurba_marseille","lat":43.316517,"lon":5.404375,"is_reserved":false,"is_disabled":false,"rental_uris":{"android":"levelo://app?vid=3b28f934-3f9e-4857-8fe9-9b73c37b03a2","ios":"levelo://app?vid=3b28f934-3f9e-4857-8fe9-9b73c37b03a2"},"vehicle_type_id":"4","last_reported":1685106536,"current_range_meters":27200,"station_id":"ce4bh012rcd13ifvqd00","pricing_plan_id":"free"},{"bike_id":"bd6a57e9-9b7f-4b81-ac8d-a184c980e81a","system_id":"levelo_inurba_marseille","lat":43.317114,"lon":5.404302,"is_reserved":false,"is_disabled":false,"rental_uris":{"android":"levelo://app?vid=bd6a57e9-9b7f-4b81-ac8d-a184c980e81a","ios":"levelo://app?vid=bd6a57e9-9b7f-4b81-ac8d-a184c980e81a"},"vehicle_type_id":"4","last_reported":1685106536,"current_range_meters":17600,"station_id":"ce4bh012rcd13ifvqd00","pricing_plan_id":"free"},{"bike_id":"d5e5a346-f13f-4951-bcd1-a866e820b4d4","system_id":"levelo_inurba_marseille","lat":43.291994,"lon":5.392907,"is_reserved":false,"is_disabled":false,"rental_uris":{"android":"levelo://app?vid=d5e5a346-f13f-4951-bcd1-a866e820b4d4","ios":"levelo://app?vid=d5e5a346-f13f-4951-bcd1-a866e820b4d4"},"vehicle_type_id":"4","last_reported":1685106536,"current_range_meters":1200,"station_id":"ce4bh192rcd13ifvqdd0","pricing_plan_id":"free"},{"bike_id":"e17d914b-a40f-407f-b84e-9126e9bbea6c","system_id":"levelo_inurba_marseille","lat":43.28468,"lon":5.359,"is_reserved":false,"is_disabled":false,"rental_uris":{"android":"levelo://app?vid=e17d914b-a40f-407f-b84e-9126e9bbea6c","ios":"levelo://app?vid=e17d914b-a40f-407f-b84e-9126e9bbea6c"},"vehicle_type_id":"4","last_reported":1685106536,"current_range_meters":0,"station_id":"ce4bhah2rcd13ifvqei0","pricing_plan_id":"free"},{"bike_id":"91dd9eda-54a8-4ef6-b4dc-43fdc190a393","system_id":"levelo_inurba_marseille","lat":43.284534,"lon":5.358662,"is_reserved":false,"is_disabled":false,"rental_uris":{"android":"levelo://app?vid=91dd9eda-54a8-4ef6-b4dc-43fdc190a393","ios":"levelo://app?vid=91dd9eda-54a8-4ef6-b4dc-43fdc190a393"},"vehicle_type_id":"4","last_reported":1685106536,"current_range_meters":5200,"station_id":"ce4bhah2rcd13ifvqei0","pricing_plan_id":"free"},{"bike_id":"d275f9dc-65a7-4667-b758-1c7506b23d5d","system_id":"levelo_inurba_marseille","lat":43.284534,"lon":5.358662,"is_reserved":false,"is_disabled":false,"rental_uris":{"android":"levelo://app?vid=d275f9dc-65a7-4667-b758-1c7506b23d5d","ios":"levelo://app?vid=d275f9dc-65a7-4667-b758-1c7506b23d5d"},"vehicle_type_id":"4","last_reported":1685106536,"current_range_meters":16400,"station_id":"ce4bhah2rcd13ifvqei0","pricing_plan_id":"free"},{"bike_id":"c4809f32-f549-46a2-aef7-d5149773d7bc","system_id":"levelo_inurba_marseille","lat":43.285848,"lon":5.350787,"is_reserved":false,"is_disabled":false,"rental_uris":{"android":"levelo://app?vid=c4809f32-f549-46a2-aef7-d5149773d7bc","ios":"levelo://app?vid=c4809f32-f549-46a2-aef7-d5149773d7bc"},"vehicle_type_id":"4","last_reported":1685106536,"current_range_meters":1200,"station_id":"ce4bhch2rcd13ifvqeug","pricing_plan_id":"free"},{"bike_id":"d7852626-c36f-4db6-aebb-bd05991a9cdd","system_id":"levelo_inurba_marseille","lat":43.285856,"lon":5.350771,"is_reserved":false,"is_disabled":false,"rental_uris":{"android":"levelo://app?vid=d7852626-c36f-4db6-aebb-bd05991a9cdd","ios":"levelo://app?vid=d7852626-c36f-4db6-aebb-bd05991a9cdd"},"vehicle_type_id":"4","last_reported":1685106536,"current_range_meters":24800,"station_id":"ce4bhch2rcd13ifvqeug","pricing_plan_id":"free"},{"bike_id":"f869904a-024a-40de-82df-96b2be6c425b","system_id":"levelo_inurba_marseille","lat":43.28619,"lon":5.35093,"is_reserved":false,"is_disabled":false,"rental_uris":{"android":"levelo://app?vid=f869904a-024a-40de-82df-96b2be6c425b","ios":"levelo://app?vid=f869904a-024a-40de-82df-96b2be6c425b"},"vehicle_type_id":"4","last_reported":1685106536,"current_range_meters":19600,"station_id":"","pricing_plan_id":"free"},{"bike_id":"8615e419-6141-4061-abad-4dcc3df9f42f","system_id":"levelo_inurba_marseille","lat":43.28616,"lon":5.35096,"is_reserved":false,"is_disabled":false,"rental_uris":{"android":"levelo://app?vid=8615e419-6141-4061-abad-4dcc3df9f42f","ios":"levelo://app?vid=8615e419-6141-4061-abad-4dcc3df9f42f"},"vehicle_type_id":"4","last_reported":1685106536,"current_range_meters":20800,"station_id":"","pricing_plan_id":"free"},{"bike_id":"344269b0-d115-4d75-9ee7-384bbc7d4a6d","system_id":"levelo_inurba_marseille","lat":43.28613,"lon":5.35099,"is_reserved":false,"is_disabled":false,"rental_uris":{"android":"levelo://app?vid=344269b0-d115-4d75-9ee7-384bbc7d4a6d","ios":"levelo://app?vid=344269b0-d115-4d75-9ee7-384bbc7d4a6d"},"vehicle_type_id":"4","last_reported":1685106536,"current_range_meters":15200,"station_id":"","pricing_plan_id":"free"},{"bike_id":"c4d26c57-7abb-4084-be07-03a29a84f7b7","system_id":"levelo_inurba_marseille","lat":43.28614,"lon":5.35095,"is_reserved":false,"is_disabled":false,"rental_uris":{"android":"levelo://app?vid=c4d26c57-7abb-4084-be07-03a29a84f7b7","ios":"levelo://app?vid=c4d26c57-7abb-4084-be07-03a29a84f7b7"},"vehicle_type_id":"4","last_reported":1685106536,"current_range_meters":4400,"station_id":"","pricing_plan_id":"free"},{"bike_id":"e28a274d-67f0-472b-8b39-da84563c923e","system_id":"levelo_inurba_marseille","lat":43.323464,"lon":5.406297,"is_reserved":false,"is_disabled":false,"rental_uris":{"android":"levelo://app?vid=e28a274d-67f0-472b-8b39-da84563c923e","ios":"levelo://app?vid=e28a274d-67f0-472b-8b39-da84563c923e"},"vehicle_type_id":"4","last_reported":1685106536,"current_range_meters":15600,"station_id":"ce4bhq92rcd13ifvqhjg","pricing_plan_id":"free"},{"bike_id":"5371bbd7-c92f-4fd0-bddb-eca2c7cd5808","system_id":"levelo_inurba_marseille","lat":43.323464,"lon":5.406297,"is_reserved":false,"is_disabled":false,"rental_uris":{"android":"levelo://app?vid=5371bbd7-c92f-4fd0-bddb-eca2c7cd5808","ios":"levelo://app?vid=5371bbd7-c92f-4fd0-bddb-eca2c7cd5808"},"vehicle_type_id":"4","last_reported":1685106536,"current_range_meters":30000,"station_id":"ce4bhq92rcd13ifvqhjg","pricing_plan_id":"free"},{"bike_id":"227d7914-424e-4145-9504-8ada812925fb","system_id":"levelo_inurba_marseille","lat":43.32344,"lon":5.4062,"is_reserved":false,"is_disabled":false,"rental_uris":{"android":"levelo://app?vid=227d7914-424e-4145-9504-8ada812925fb","ios":"levelo://app?vid=227d7914-424e-4145-9504-8ada812925fb"},"vehicle_type_id":"4","last_reported":1685106536,"current_range_meters":14000,"station_id":"ce4bhq92rcd13ifvqhjg","pricing_plan_id":"free"},{"bike_id":"8233b1fc-cd93-4fa3-8a96-9704b82265f5","system_id":"levelo_inurba_marseille","lat":43.32342,"lon":5.40622,"is_reserved":false,"is_disabled":false,"rental_uris":{"android":"levelo://app?vid=8233b1fc-cd93-4fa3-8a96-9704b82265f5","ios":"levelo://app?vid=8233b1fc-cd93-4fa3-8a96-9704b82265f5"},"vehicle_type_id":"4","last_reported":1685106536,"current_range_meters":10800,"station_id":"ce4bhq92rcd13ifvqhjg","pricing_plan_id":"free"},{"bike_id":"d5fd31a8-b7a4-48f5-9751-f4ba7b16e78e","system_id":"levelo_inurba_marseille","lat":43.323464,"lon":5.406297,"is_reserved":false,"is_disabled":false,"rental_uris":{"android":"levelo://app?vid=d5fd31a8-b7a4-48f5-9751-f4ba7b16e78e","ios":"levelo://app?vid=d5fd31a8-b7a4-48f5-9751-f4ba7b16e78e"},"vehicle_type_id":"4","last_reported":1685106536,"current_range_meters":30400,"station_id":"ce4bhq92rcd13ifvqhjg","pricing_plan_id":"free"},{"bike_id":"5710062e-bb4c-4ff4-812e-cd9048c1ef20","system_id":"levelo_inurba_marseille","lat":43.283494,"lon":5.380945,"is_reserved":false,"is_disabled":false,"rental_uris":{"android":"levelo://app?vid=5710062e-bb4c-4ff4-812e-cd9048c1ef20","ios":"levelo://app?vid=5710062e-bb4c-4ff4-812e-cd9048c1ef20"},"vehicle_type_id":"4","last_reported":1685106536,"current_range_meters":3200,"station_id":"ce4bh412rcd13ifvqdr0","pricing_plan_id":"free"},{"bike_id":"a16c107e-f723-41df-80ee-73bf0cbcdd32","system_id":"levelo_inurba_marseille","lat":43.283494,"lon":5.380945,"is_reserved":false,"is_disabled":false,"rental_uris":{"android":"levelo://app?vid=a16c107e-f723-41df-80ee-73bf0cbcdd32","ios":"levelo://app?vid=a16c107e-f723-41df-80ee-73bf0cbcdd32"},"vehicle_type_id":"4","last_reported":1685106536,"current_range_meters":30800,"station_id":"ce4bh412rcd13ifvqdr0","pricing_plan_id":"free"},{"bike_id":"2c678155-d7a9-4fd0-949e-1bc278bcf8be","system_id":"levelo_inurba_marseille","lat":43.283498,"lon":5.380948,"is_reserved":false,"is_disabled":false,"rental_uris":{"android":"levelo://app?vid=2c678155-d7a9-4fd0-949e-1bc278bcf8be","ios":"levelo://app?vid=2c678155-d7a9-4fd0-949e-1bc278bcf8be"},"vehicle_type_id":"4","last_reported":1685106536,"current_range_meters":28400,"station_id":"ce4bh412rcd13ifvqdr0","pricing_plan_id":"free"},{"bike_id":"c5037e23-b327-4ef2-baf9-4c3b44487dda","system_id":"levelo_inurba_marseille","lat":43.28344,"lon":5.38101,"is_reserved":false,"is_disabled":false,"rental_uris":{"android":"levelo://app?vid=c5037e23-b327-4ef2-baf9-4c3b44487dda","ios":"levelo://app?vid=c5037e23-b327-4ef2-baf9-4c3b44487dda"},"vehicle_type_id":"4","last_reported":1685106536,"current_range_meters":29600,"station_id":"ce4bh412rcd13ifvqdr0","pricing_plan_id":"free"},{"bike_id":"0e591382-95d3-4511-8980-f7c9229c9391","system_id":"levelo_inurba_marseille","lat":43.284219,"lon":5.3497,"is_reserved":false,"is_disabled":false,"rental_uris":{"android":"levelo://app?vid=0e591382-95d3-4511-8980-f7c9229c9391","ios":"levelo://app?vid=0e591382-95d3-4511-8980-f7c9229c9391"},"vehicle_type_id":"4","last_reported":1685106536,"current_range_meters":24000,"station_id":"ce4bhbh2rcd13ifvqepg","pricing_plan_id":"free"},{"bike_id":"9ea88ce3-5f18-4e25-94d7-5ca15ad37761","system_id":"levelo_inurba_marseille","lat":43.284219,"lon":5.3497,"is_reserved":false,"is_disabled":false,"rental_uris":{"android":"levelo://app?vid=9ea88ce3-5f18-4e25-94d7-5ca15ad37761","ios":"levelo://app?vid=9ea88ce3-5f18-4e25-94d7-5ca15ad37761"},"vehicle_type_id":"4","last_reported":1685106536,"current_range_meters":24000,"station_id":"ce4bhbh2rcd13ifvqepg","pricing_plan_id":"free"},{"bike_id":"97cc22b0-a116-4fee-ab26-d49cafb040a0","system_id":"levelo_inurba_marseille","lat":43.284217,"lon":5.349697,"is_reserved":false,"is_disabled":false,"rental_uris":{"android":"levelo://app?vid=97cc22b0-a116-4fee-ab26-d49cafb040a0","ios":"levelo://app?vid=97cc22b0-a116-4fee-ab26-d49cafb040a0"},"vehicle_type_id":"4","last_reported":1685106536,"current_range_meters":21600,"station_id":"ce4bhbh2rcd13ifvqepg","pricing_plan_id":"free"},{"bike_id":"a72fe822-ad11-4b74-bd9f-9d65f8e38ce3","system_id":"levelo_inurba_marseille","lat":43.284219,"lon":5.3497,"is_reserved":false,"is_disabled":false,"rental_uris":{"android":"levelo://app?vid=a72fe822-ad11-4b74-bd9f-9d65f8e38ce3","ios":"levelo://app?vid=a72fe822-ad11-4b74-bd9f-9d65f8e38ce3"},"vehicle_type_id":"4","last_reported":1685106536,"current_range_meters":15200,"station_id":"ce4bhbh2rcd13ifvqepg","pricing_plan_id":"free"},{"bike_id":"44aca793-9416-423f-814c-ace47abd9708","system_id":"levelo_inurba_marseille","lat":43.284219,"lon":5.3497,"is_reserved":false,"is_disabled":false,"rental_uris":{"android":"levelo://app?vid=44aca793-9416-423f-814c-ace47abd9708","ios":"levelo://app?vid=44aca793-9416-423f-814c-ace47abd9708"},"vehicle_type_id":"4","last_reported":1685106536,"current_range_meters":31200,"station_id":"ce4bhbh2rcd13ifvqepg","pricing_plan_id":"free"},{"bike_id":"a865a68d-1f67-4b49-8400-a8ec1138c0d0","system_id":"levelo_inurba_marseille","lat":43.284219,"lon":5.3497,"is_reserved":false,"is_disabled":false,"rental_uris":{"android":"levelo://app?vid=a865a68d-1f67-4b49-8400-a8ec1138c0d0","ios":"levelo://app?vid=a865a68d-1f67-4b49-8400-a8ec1138c0d0"},"vehicle_type_id":"4","last_reported":1685106536,"current_range_meters":13200,"station_id":"ce4bhbh2rcd13ifvqepg","pricing_plan_id":"free"},{"bike_id":"b40d15e8-400c-428c-bdc6-1a8591d1c177","system_id":"levelo_inurba_marseille","lat":43.284219,"lon":5.3497,"is_reserved":false,"is_disabled":false,"rental_uris":{"android":"levelo://app?vid=b40d15e8-400c-428c-bdc6-1a8591d1c177","ios":"levelo://app?vid=b40d15e8-400c-428c-bdc6-1a8591d1c177"},"vehicle_type_id":"4","last_reported":1685106536,"current_range_meters":9200,"station_id":"ce4bhbh2rcd13ifvqepg","pricing_plan_id":"free"},{"bike_id":"803bf64c-127a-4e30-8230-35a70536eb00","system_id":"levelo_inurba_marseille","lat":43.284217,"lon":5.349697,"is_reserved":false,"is_disabled":false,"rental_uris":{"android":"levelo://app?vid=803bf64c-127a-4e30-8230-35a70536eb00","ios":"levelo://app?vid=803bf64c-127a-4e30-8230-35a70536eb00"},"vehicle_type_id":"4","last_reported":1685106536,"current_range_meters":24400,"station_id":"ce4bhbh2rcd13ifvqepg","pricing_plan_id":"free"},{"bike_id":"6af6a80a-de0d-445d-9b7d-d590e54ba869","system_id":"levelo_inurba_marseille","lat":43.284219,"lon":5.3497,"is_reserved":false,"is_disabled":false,"rental_uris":{"android":"levelo://app?vid=6af6a80a-de0d-445d-9b7d-d590e54ba869","ios":"levelo://app?vid=6af6a80a-de0d-445d-9b7d-d590e54ba869"},"vehicle_type_id":"4","last_reported":1685106536,"current_range_meters":22400,"station_id":"ce4bhbh2rcd13ifvqepg","pricing_plan_id":"free"},{"bike_id":"4dc559ac-db94-414e-8c27-fcf7e8c495e9","system_id":"levelo_inurba_marseille","lat":43.284212,"lon":5.349751,"is_reserved":false,"is_disabled":false,"rental_uris":{"android":"levelo://app?vid=4dc559ac-db94-414e-8c27-fcf7e8c495e9","ios":"levelo://app?vid=4dc559ac-db94-414e-8c27-fcf7e8c495e9"},"vehicle_type_id":"4","last_reported":1685106536,"current_range_meters":26000,"station_id":"","pricing_plan_id":"free"},{"bike_id":"7abf4691-2fbb-4295-9b1a-f3599ee3dc54","system_id":"levelo_inurba_marseille","lat":43.284219,"lon":5.3497,"is_reserved":false,"is_disabled":false,"rental_uris":{"android":"levelo://app?vid=7abf4691-2fbb-4295-9b1a-f3599ee3dc54","ios":"levelo://app?vid=7abf4691-2fbb-4295-9b1a-f3599ee3dc54"},"vehicle_type_id":"4","last_reported":1685106536,"current_range_meters":6800,"station_id":"ce4bhbh2rcd13ifvqepg","pricing_plan_id":"free"},{"bike_id":"a1a65f11-c52f-4086-8ff6-ae2bb85d6b44","system_id":"levelo_inurba_marseille","lat":43.284219,"lon":5.3497,"is_reserved":false,"is_disabled":false,"rental_uris":{"android":"levelo://app?vid=a1a65f11-c52f-4086-8ff6-ae2bb85d6b44","ios":"levelo://app?vid=a1a65f11-c52f-4086-8ff6-ae2bb85d6b44"},"vehicle_type_id":"4","last_reported":1685106536,"current_range_meters":25600,"station_id":"ce4bhbh2rcd13ifvqepg","pricing_plan_id":"free"},{"bike_id":"c2ff5c91-c3c2-432e-98c0-1dc3e5dea29b","system_id":"levelo_inurba_marseille","lat":43.28419,"lon":5.3498,"is_reserved":false,"is_disabled":false,"rental_uris":{"android":"levelo://app?vid=c2ff5c91-c3c2-432e-98c0-1dc3e5dea29b","ios":"levelo://app?vid=c2ff5c91-c3c2-432e-98c0-1dc3e5dea29b"},"vehicle_type_id":"4","last_reported":1685106536,"current_range_meters":24000,"station_id":"ce4bhbh2rcd13ifvqepg","pricing_plan_id":"free"},{"bike_id":"66830269-16b3-4d07-bf87-3e42c6cce05d","system_id":"levelo_inurba_marseille","lat":43.284219,"lon":5.3497,"is_reserved":false,"is_disabled":false,"rental_uris":{"android":"levelo://app?vid=66830269-16b3-4d07-bf87-3e42c6cce05d","ios":"levelo://app?vid=66830269-16b3-4d07-bf87-3e42c6cce05d"},"vehicle_type_id":"4","last_reported":1685106536,"current_range_meters":2400,"station_id":"ce4bhbh2rcd13ifvqepg","pricing_plan_id":"free"},{"bike_id":"89a6cc19-d709-4246-858e-77026ac30d4f","system_id":"levelo_inurba_marseille","lat":43.284219,"lon":5.3497,"is_reserved":false,"is_disabled":false,"rental_uris":{"android":"levelo://app?vid=89a6cc19-d709-4246-858e-77026ac30d4f","ios":"levelo://app?vid=89a6cc19-d709-4246-858e-77026ac30d4f"},"vehicle_type_id":"4","last_reported":1685106536,"current_range_meters":19600,"station_id":"ce4bhbh2rcd13ifvqepg","pricing_plan_id":"free"},{"bike_id":"3b5da2c0-edf3-45a3-8a0a-019a98d5412a","system_id":"levelo_inurba_marseille","lat":43.284219,"lon":5.3497,"is_reserved":false,"is_disabled":false,"rental_uris":{"android":"levelo://app?vid=3b5da2c0-edf3-45a3-8a0a-019a98d5412a","ios":"levelo://app?vid=3b5da2c0-edf3-45a3-8a0a-019a98d5412a"},"vehicle_type_id":"4","last_reported":1685106536,"current_range_meters":28400,"station_id":"ce4bhbh2rcd13ifvqepg","pricing_plan_id":"free"},{"bike_id":"053167a9-42a3-4d56-a4fc-a0262b708366","system_id":"levelo_inurba_marseille","lat":43.284217,"lon":5.349697,"is_reserved":false,"is_disabled":false,"rental_uris":{"android":"levelo://app?vid=053167a9-42a3-4d56-a4fc-a0262b708366","ios":"levelo://app?vid=053167a9-42a3-4d56-a4fc-a0262b708366"},"vehicle_type_id":"4","last_reported":1685106536,"current_range_meters":27600,"station_id":"ce4bhbh2rcd13ifvqepg","pricing_plan_id":"free"},{"bike_id":"fc481904-3c18-401f-9d5c-0fc24ce499bf","system_id":"levelo_inurba_marseille","lat":43.284219,"lon":5.3497,"is_reserved":false,"is_disabled":false,"rental_uris":{"android":"levelo://app?vid=fc481904-3c18-401f-9d5c-0fc24ce499bf","ios":"levelo://app?vid=fc481904-3c18-401f-9d5c-0fc24ce499bf"},"vehicle_type_id":"4","last_reported":1685106536,"current_range_meters":28400,"station_id":"ce4bhbh2rcd13ifvqepg","pricing_plan_id":"free"},{"bike_id":"ac982ae6-42ae-4c7d-82ab-4d1cafcd8812","system_id":"levelo_inurba_marseille","lat":43.284219,"lon":5.3497,"is_reserved":false,"is_disabled":false,"rental_uris":{"android":"levelo://app?vid=ac982ae6-42ae-4c7d-82ab-4d1cafcd8812","ios":"levelo://app?vid=ac982ae6-42ae-4c7d-82ab-4d1cafcd8812"},"vehicle_type_id":"4","last_reported":1685106536,"current_range_meters":18000,"station_id":"ce4bhbh2rcd13ifvqepg","pricing_plan_id":"free"},{"bike_id":"7497cf3a-da30-433b-b35c-7b88585b7d88","system_id":"levelo_inurba_marseille","lat":43.284217,"lon":5.349697,"is_reserved":false,"is_disabled":false,"rental_uris":{"android":"levelo://app?vid=7497cf3a-da30-433b-b35c-7b88585b7d88","ios":"levelo://app?vid=7497cf3a-da30-433b-b35c-7b88585b7d88"},"vehicle_type_id":"4","last_reported":1685106536,"current_range_meters":28000,"station_id":"ce4bhbh2rcd13ifvqepg","pricing_plan_id":"free"},{"bike_id":"b0c6a50f-f17d-44e6-9928-e382f4a6369c","system_id":"levelo_inurba_marseille","lat":43.284217,"lon":5.349697,"is_reserved":false,"is_disabled":false,"rental_uris":{"android":"levelo://app?vid=b0c6a50f-f17d-44e6-9928-e382f4a6369c","ios":"levelo://app?vid=b0c6a50f-f17d-44e6-9928-e382f4a6369c"},"vehicle_type_id":"4","last_reported":1685106536,"current_range_meters":27200,"station_id":"ce4bhbh2rcd13ifvqepg","pricing_plan_id":"free"},{"bike_id":"81e026e6-ad0c-463a-90d0-c27c4336147b","system_id":"levelo_inurba_marseille","lat":43.284217,"lon":5.349697,"is_reserved":false,"is_disabled":false,"rental_uris":{"android":"levelo://app?vid=81e026e6-ad0c-463a-90d0-c27c4336147b","ios":"levelo://app?vid=81e026e6-ad0c-463a-90d0-c27c4336147b"},"vehicle_type_id":"4","last_reported":1685106536,"current_range_meters":30800,"station_id":"ce4bhbh2rcd13ifvqepg","pricing_plan_id":"free"},{"bike_id":"9ec743a5-3b94-4ba2-ae58-bc2fa485b465","system_id":"levelo_inurba_marseille","lat":43.284217,"lon":5.349697,"is_reserved":false,"is_disabled":false,"rental_uris":{"android":"levelo://app?vid=9ec743a5-3b94-4ba2-ae58-bc2fa485b465","ios":"levelo://app?vid=9ec743a5-3b94-4ba2-ae58-bc2fa485b465"},"vehicle_type_id":"4","last_reported":1685106536,"current_range_meters":29600,"station_id":"ce4bhbh2rcd13ifvqepg","pricing_plan_id":"free"},{"bike_id":"8320c784-9548-430c-9366-269299032c44","system_id":"levelo_inurba_marseille","lat":43.28404,"lon":5.34971,"is_reserved":false,"is_disabled":false,"rental_uris":{"android":"levelo://app?vid=8320c784-9548-430c-9366-269299032c44","ios":"levelo://app?vid=8320c784-9548-430c-9366-269299032c44"},"vehicle_type_id":"4","last_reported":1685106536,"current_range_meters":16400,"station_id":"ce4bhbh2rcd13ifvqepg","pricing_plan_id":"free"},{"bike_id":"fa8a782c-a0b6-4c58-b177-e83e60b01492","system_id":"levelo_inurba_marseille","lat":43.289363,"lon":5.396322,"is_reserved":false,"is_disabled":false,"rental_uris":{"android":"levelo://app?vid=fa8a782c-a0b6-4c58-b177-e83e60b01492","ios":"levelo://app?vid=fa8a782c-a0b6-4c58-b177-e83e60b01492"},"vehicle_type_id":"4","last_reported":1685106536,"current_range_meters":26800,"station_id":"ce4bh3h2rcd13ifvqdn0","pricing_plan_id":"free"},{"bike_id":"e07634bf-e024-4389-9f9e-04bce7a38090","system_id":"levelo_inurba_marseille","lat":43.295169,"lon":5.390426,"is_reserved":false,"is_disabled":false,"rental_uris":{"android":"levelo://app?vid=e07634bf-e024-4389-9f9e-04bce7a38090","ios":"levelo://app?vid=e07634bf-e024-4389-9f9e-04bce7a38090"},"vehicle_type_id":"4","last_reported":1685106536,"current_range_meters":5600,"station_id":"ce4bh3p2rcd13ifvqdp0","pricing_plan_id":"free"},{"bike_id":"7e20c8b2-ae64-4289-abe7-b208f2e555dd","system_id":"levelo_inurba_marseille","lat":43.289363,"lon":5.396322,"is_reserved":false,"is_disabled":false,"rental_uris":{"android":"levelo://app?vid=7e20c8b2-ae64-4289-abe7-b208f2e555dd","ios":"levelo://app?vid=7e20c8b2-ae64-4289-abe7-b208f2e555dd"},"vehicle_type_id":"4","last_reported":1685106536,"current_range_meters":20400,"station_id":"ce4bh3h2rcd13ifvqdn0","pricing_plan_id":"free"},{"bike_id":"61a61e69-49ec-4599-9b04-7a7edfad2d8c","system_id":"levelo_inurba_marseille","lat":43.282744,"lon":5.350533,"is_reserved":false,"is_disabled":false,"rental_uris":{"android":"levelo://app?vid=61a61e69-49ec-4599-9b04-7a7edfad2d8c","ios":"levelo://app?vid=61a61e69-49ec-4599-9b04-7a7edfad2d8c"},"vehicle_type_id":"4","last_reported":1685106536,"current_range_meters":11600,"station_id":"ce4bhbp2rcd13ifvqerg","pricing_plan_id":"free"},{"bike_id":"3c2b8451-0cc3-4d72-89df-3128462d3559","system_id":"levelo_inurba_marseille","lat":43.28278,"lon":5.35058,"is_reserved":false,"is_disabled":false,"rental_uris":{"android":"levelo://app?vid=3c2b8451-0cc3-4d72-89df-3128462d3559","ios":"levelo://app?vid=3c2b8451-0cc3-4d72-89df-3128462d3559"},"vehicle_type_id":"4","last_reported":1685106536,"current_range_meters":2000,"station_id":"ce4bhbp2rcd13ifvqerg","pricing_plan_id":"free"},{"bike_id":"c35d2e73-643e-40ea-ad3a-0d9d9f818f3f","system_id":"levelo_inurba_marseille","lat":43.28272,"lon":5.35063,"is_reserved":false,"is_disabled":false,"rental_uris":{"android":"levelo://app?vid=c35d2e73-643e-40ea-ad3a-0d9d9f818f3f","ios":"levelo://app?vid=c35d2e73-643e-40ea-ad3a-0d9d9f818f3f"},"vehicle_type_id":"4","last_reported":1685106536,"current_range_meters":8000,"station_id":"ce4bhbp2rcd13ifvqerg","pricing_plan_id":"free"},{"bike_id":"c98261a9-8490-4d44-86bc-8903d824b95b","system_id":"levelo_inurba_marseille","lat":43.28269,"lon":5.35068,"is_reserved":false,"is_disabled":false,"rental_uris":{"android":"levelo://app?vid=c98261a9-8490-4d44-86bc-8903d824b95b","ios":"levelo://app?vid=c98261a9-8490-4d44-86bc-8903d824b95b"},"vehicle_type_id":"4","last_reported":1685106536,"current_range_meters":22000,"station_id":"ce4bhbp2rcd13ifvqerg","pricing_plan_id":"free"},{"bike_id":"fc626297-e4e4-49ad-830f-a6f110eb91e6","system_id":"levelo_inurba_marseille","lat":43.2827,"lon":5.3506,"is_reserved":false,"is_disabled":false,"rental_uris":{"android":"levelo://app?vid=fc626297-e4e4-49ad-830f-a6f110eb91e6","ios":"levelo://app?vid=fc626297-e4e4-49ad-830f-a6f110eb91e6"},"vehicle_type_id":"4","last_reported":1685106536,"current_range_meters":17600,"station_id":"ce4bhbp2rcd13ifvqerg","pricing_plan_id":"free"},{"bike_id":"286ee17d-922f-40b1-87cb-ba61bcb2364f","system_id":"levelo_inurba_marseille","lat":43.2827,"lon":5.3506,"is_reserved":false,"is_disabled":false,"rental_uris":{"android":"levelo://app?vid=286ee17d-922f-40b1-87cb-ba61bcb2364f","ios":"levelo://app?vid=286ee17d-922f-40b1-87cb-ba61bcb2364f"},"vehicle_type_id":"4","last_reported":1685106536,"current_range_meters":16800,"station_id":"ce4bhbp2rcd13ifvqerg","pricing_plan_id":"free"},{"bike_id":"2b440a59-e04b-4ccc-aaef-a40656d81740","system_id":"levelo_inurba_marseille","lat":43.283502,"lon":5.386471,"is_reserved":false,"is_disabled":false,"rental_uris":{"android":"levelo://app?vid=2b440a59-e04b-4ccc-aaef-a40656d81740","ios":"levelo://app?vid=2b440a59-e04b-4ccc-aaef-a40656d81740"},"vehicle_type_id":"4","last_reported":1685106536,"current_range_meters":4800,"station_id":"ce4bh492rcd13ifvqdvg","pricing_plan_id":"free"},{"bike_id":"e3232dbb-0eba-40a2-a7c5-c4fc60dc0d2c","system_id":"levelo_inurba_marseille","lat":43.28268,"lon":5.35059,"is_reserved":false,"is_disabled":false,"rental_uris":{"android":"levelo://app?vid=e3232dbb-0eba-40a2-a7c5-c4fc60dc0d2c","ios":"levelo://app?vid=e3232dbb-0eba-40a2-a7c5-c4fc60dc0d2c"},"vehicle_type_id":"4","last_reported":1685106536,"current_range_meters":14000,"station_id":"ce4bhbp2rcd13ifvqerg","pricing_plan_id":"free"},{"bike_id":"40b19453-514f-4fa5-966c-30f2868fa07a","system_id":"levelo_inurba_marseille","lat":43.28268,"lon":5.35053,"is_reserved":false,"is_disabled":false,"rental_uris":{"android":"levelo://app?vid=40b19453-514f-4fa5-966c-30f2868fa07a","ios":"levelo://app?vid=40b19453-514f-4fa5-966c-30f2868fa07a"},"vehicle_type_id":"4","last_reported":1685106536,"current_range_meters":6400,"station_id":"ce4bhbp2rcd13ifvqerg","pricing_plan_id":"free"},{"bike_id":"b503946f-47ef-4d10-aba5-55cf8af4ace7","system_id":"levelo_inurba_marseille","lat":43.282744,"lon":5.350533,"is_reserved":false,"is_disabled":false,"rental_uris":{"android":"levelo://app?vid=b503946f-47ef-4d10-aba5-55cf8af4ace7","ios":"levelo://app?vid=b503946f-47ef-4d10-aba5-55cf8af4ace7"},"vehicle_type_id":"4","last_reported":1685106536,"current_range_meters":15600,"station_id":"ce4bhbp2rcd13ifvqerg","pricing_plan_id":"free"},{"bike_id":"8796fa30-ef59-4eeb-ab00-d4648c0cdf85","system_id":"levelo_inurba_marseille","lat":43.28263,"lon":5.35056,"is_reserved":false,"is_disabled":false,"rental_uris":{"android":"levelo://app?vid=8796fa30-ef59-4eeb-ab00-d4648c0cdf85","ios":"levelo://app?vid=8796fa30-ef59-4eeb-ab00-d4648c0cdf85"},"vehicle_type_id":"4","last_reported":1685106536,"current_range_meters":13600,"station_id":"ce4bhbp2rcd13ifvqerg","pricing_plan_id":"free"},{"bike_id":"6021a549-ec8b-4dfc-bbca-e72bd8a13be3","system_id":"levelo_inurba_marseille","lat":43.283502,"lon":5.386471,"is_reserved":false,"is_disabled":false,"rental_uris":{"android":"levelo://app?vid=6021a549-ec8b-4dfc-bbca-e72bd8a13be3","ios":"levelo://app?vid=6021a549-ec8b-4dfc-bbca-e72bd8a13be3"},"vehicle_type_id":"4","last_reported":1685106536,"current_range_meters":3600,"station_id":"ce4bh492rcd13ifvqdvg","pricing_plan_id":"free"},{"bike_id":"402daf18-6b42-4be9-ab94-285d45086a40","system_id":"levelo_inurba_marseille","lat":43.28261,"lon":5.35051,"is_reserved":false,"is_disabled":false,"rental_uris":{"android":"levelo://app?vid=402daf18-6b42-4be9-ab94-285d45086a40","ios":"levelo://app?vid=402daf18-6b42-4be9-ab94-285d45086a40"},"vehicle_type_id":"4","last_reported":1685106536,"current_range_meters":24400,"station_id":"ce4bhbp2rcd13ifvqerg","pricing_plan_id":"free"},{"bike_id":"a46671cb-19b9-42a6-be4d-1c4509be14c2","system_id":"levelo_inurba_marseille","lat":43.280382,"lon":5.369291,"is_reserved":false,"is_disabled":false,"rental_uris":{"android":"levelo://app?vid=a46671cb-19b9-42a6-be4d-1c4509be14c2","ios":"levelo://app?vid=a46671cb-19b9-42a6-be4d-1c4509be14c2"},"vehicle_type_id":"4","last_reported":1685106536,"current_range_meters":16400,"station_id":"ce4bha12rcd13ifvqef0","pricing_plan_id":"free"},{"bike_id":"4d86ce40-e406-44d0-9e2e-59dcfae65e59","system_id":"levelo_inurba_marseille","lat":43.29041,"lon":5.39947,"is_reserved":false,"is_disabled":false,"rental_uris":{"android":"levelo://app?vid=4d86ce40-e406-44d0-9e2e-59dcfae65e59","ios":"levelo://app?vid=4d86ce40-e406-44d0-9e2e-59dcfae65e59"},"vehicle_type_id":"4","last_reported":1685106536,"current_range_meters":0,"station_id":"ce4bh392rcd13ifvqdm0","pricing_plan_id":"free"},{"bike_id":"5186ee19-2953-424a-a7f6-0d0e762afc93","system_id":"levelo_inurba_marseille","lat":43.296263,"lon":5.40601,"is_reserved":false,"is_disabled":false,"rental_uris":{"android":"levelo://app?vid=5186ee19-2953-424a-a7f6-0d0e762afc93","ios":"levelo://app?vid=5186ee19-2953-424a-a7f6-0d0e762afc93"},"vehicle_type_id":"4","last_reported":1685106536,"current_range_meters":1600,"station_id":"ce4bh0h2rcd13ifvqd60","pricing_plan_id":"free"},{"bike_id":"11860358-8499-4bf2-aec0-8d6d23623831","system_id":"levelo_inurba_marseille","lat":43.28099,"lon":5.37827,"is_reserved":false,"is_disabled":false,"rental_uris":{"android":"levelo://app?vid=11860358-8499-4bf2-aec0-8d6d23623831","ios":"levelo://app?vid=11860358-8499-4bf2-aec0-8d6d23623831"},"vehicle_type_id":"4","last_reported":1685106536,"current_range_meters":17600,"station_id":"ce4bha12rcd13ifvqee0","pricing_plan_id":"free"},{"bike_id":"7129851e-de9a-4251-88e4-4efeee908c9d","system_id":"levelo_inurba_marseille","lat":43.28101,"lon":5.37839,"is_reserved":false,"is_disabled":false,"rental_uris":{"android":"levelo://app?vid=7129851e-de9a-4251-88e4-4efeee908c9d","ios":"levelo://app?vid=7129851e-de9a-4251-88e4-4efeee908c9d"},"vehicle_type_id":"4","last_reported":1685106536,"current_range_meters":18000,"station_id":"ce4bha12rcd13ifvqee0","pricing_plan_id":"free"},{"bike_id":"15c7d953-5851-465d-b383-ee7a61eb6781","system_id":"levelo_inurba_marseille","lat":43.284462,"lon":5.392121,"is_reserved":false,"is_disabled":false,"rental_uris":{"android":"levelo://app?vid=15c7d953-5851-465d-b383-ee7a61eb6781","ios":"levelo://app?vid=15c7d953-5851-465d-b383-ee7a61eb6781"},"vehicle_type_id":"4","last_reported":1685106536,"current_range_meters":0,"station_id":"ce4bhoh2rcd13ifvqh5g","pricing_plan_id":"free"},{"bike_id":"b148cc65-10fd-4801-92ef-76eb82d0418b","system_id":"levelo_inurba_marseille","lat":43.30419,"lon":5.41278,"is_reserved":false,"is_disabled":false,"rental_uris":{"android":"levelo://app?vid=b148cc65-10fd-4801-92ef-76eb82d0418b","ios":"levelo://app?vid=b148cc65-10fd-4801-92ef-76eb82d0418b"},"vehicle_type_id":"4","last_reported":1685106536,"current_range_meters":26800,"station_id":"ce4bhop2rcd13ifvqh8g","pricing_plan_id":"free"},{"bike_id":"ea61cd9e-4be9-419e-a092-a5a6e707f43a","system_id":"levelo_inurba_marseille","lat":43.287154,"lon":5.399979,"is_reserved":false,"is_disabled":false,"rental_uris":{"android":"levelo://app?vid=ea61cd9e-4be9-419e-a092-a5a6e707f43a","ios":"levelo://app?vid=ea61cd9e-4be9-419e-a092-a5a6e707f43a"},"vehicle_type_id":"4","last_reported":1685106536,"current_range_meters":11200,"station_id":"ce4bho92rcd13ifvqh3g","pricing_plan_id":"free"},{"bike_id":"53ffe568-69ae-463a-987c-4bcc30fe3521","system_id":"levelo_inurba_marseille","lat":43.287154,"lon":5.399979,"is_reserved":false,"is_disabled":false,"rental_uris":{"android":"levelo://app?vid=53ffe568-69ae-463a-987c-4bcc30fe3521","ios":"levelo://app?vid=53ffe568-69ae-463a-987c-4bcc30fe3521"},"vehicle_type_id":"4","last_reported":1685106536,"current_range_meters":0,"station_id":"ce4bho92rcd13ifvqh3g","pricing_plan_id":"free"},{"bike_id":"b6b64acc-18bb-4115-8571-e3e4aea21729","system_id":"levelo_inurba_marseille","lat":43.28444,"lon":5.39549,"is_reserved":false,"is_disabled":false,"rental_uris":{"android":"levelo://app?vid=b6b64acc-18bb-4115-8571-e3e4aea21729","ios":"levelo://app?vid=b6b64acc-18bb-4115-8571-e3e4aea21729"},"vehicle_type_id":"4","last_reported":1685106536,"current_range_meters":20800,"station_id":"","pricing_plan_id":"free"},