{"last_updated":1713812779,"ttl":30,"version":"2.2","data":{"bikes":[{"bike_id":"9e7fa7fa-e832-4a66-9ea8-a96a9a07110c","system_id":"levelo_inurba_marseille","lat":43.309251,"lon":5.368675,"is_reserved":false,"is_disabled":false,"rental_uris":{"android":"levelo://app?vid=9e7fa7fa-e832-4a66-9ea8-a96a9a07110c","ios":"levelo://app?vid=9e7fa7fa-e832-4a66-9ea8-a96a9a07110c"},"vehicle_type_id":"4","last_reported":1713812779,"current_range_meters":1200,"station_id":"ce4bgt92rcd13ifvqcg0","pricing_plan_id":"cebpf4jnsgd1na2vs0mg"},{"bike_id":"5d0510eb-99f1-4a1f-9b15-c54eefdc515d","system_id":"levelo_inurba_marseille","lat":43.314811,"lon":5.373103,"is_reserved":false,"is_disabled":false,"rental_uris":{"android":"levelo://app?vid=5d0510eb-99f1-4a1f-9b15-c54eefdc515d","ios":"levelo://app?vid=5d0510eb-99f1-4a1f-9b15-c54eefdc515d"},"vehicle_type_id":"4","last_reported":1713812779,"current_range_meters":24000,"station_id":"ce4bgt12rcd13ifvqcd0","pricing_plan_id":"cebpf4jnsgd1na2vs0mg"},{"bike_id":"a0b6f137-2013-472b-a5a0-60c9b0ef68b6","system_id":"levelo_inurba_marseille","lat":43.309005,"lon":5.371996,"is_reserved":false,"is_disabled":false,"rental_uris":{"android":"levelo://app?vid=a0b6f137-2013-472b-a5a0-60c9b0ef68b6","ios":"levelo://app?vid=a0b6f137-2013-472b-a5a0-60c9b0ef68b6"},"vehicle_type_id":"4","last_reported":1713812779,"current_range_meters":26000,"station_id":"ce4bguh2rcd13ifvqckg","pricing_plan_id":"cebpf4jnsgd1na2vs0mg"},{"bike_id":"86fd9595-880c-4693-a25e-e2165167ddc2","system_id":"levelo_inurba_marseille","lat":43.309034,"lon":5.371783,"is_reserved":false,"is_disabled":false,"rental_uris":{"android":"levelo://app?vid=86fd9595-880c-4693-a25e-e2165167ddc2","ios":"levelo://app?vid=86fd9595-880c-4693-a25e-e2165167ddc2"},"vehicle_type_id":"4","last_reported":1713812779,"current_range_meters":16800,"station_id":"ce4bguh2rcd13ifvqckg","pricing_plan_id":"cebpf4jnsgd1na2vs0mg"},{"bike_id":"9e1a4c6c-6536-4c73-95c0-1127001d09e0","system_id":"levelo_inurba_marseille","lat":43.296263,"lon":5.40601,"is_reserved":false,"is_disabled":false,"rental_uris":{"android":"levelo://app?vid=9e1a4c6c-6536-4c73-95c0-1127001d09e0","ios":"levelo://app?vid=9e1a4c6c-6536-4c73-95c0-1127001d09e0"},"vehicle_type_id":"4","last_reported":1713812779,"current_range_meters":23200,"station_id":"ce4bh0h2rcd13ifvqd60","pricing_plan_id":"cebpf4jnsgd1na2vs0mg"},{"bike_id":"01297242-f819-4e00-9e6e-24e4b3ee8d60","system_id":"levelo_inurba_marseille","lat":43.309007,"lon":5.37211,"is_reserved":false,"is_disabled":false,"rental_uris":{"android":"levelo://app?vid=01297242-f819-4e00-9e6e-24e4b3ee8d60","ios":"levelo://app?vid=01297242-f819-4e00-9e6e-24e4b3ee8d60"},"vehicle_type_id":"4","last_reported":1713812779,"current_range_meters":19200,"station_id":"ce4bguh2rcd13ifvqckg","pricing_plan_id":"cebpf4jnsgd1na2vs0mg"},{"bike_id":"7ae33aad-de88-40da-9ffc-87a653e14e32","system_id":"levelo_inurba_marseille","lat":43.30897,"lon":5.37208,"is_reserved":false,"is_disabled":false,"rental_uris":{"android":"levelo://app?vid=7ae33aad-de88-40da-9ffc-87a653e14e32","ios":"levelo://app?vid=7ae33aad-de88-40da-9ffc-87a653e14e32"},"vehicle_type_id":"4","last_reported":1713812779,"current_range_meters":7600,"station_id":"ce4bguh2rcd13ifvqckg","pricing_plan_id":"cebpf4jnsgd1na2vs0mg"},{"bike_id":"f3c8e660-adb7-448d-9d5d-55a0433da1f6","system_id":"levelo_inurba_marseille","lat":43.309039,"lon":5.371797,"is_reserved":false,"is_disabled":false,"rental_uris":{"android":"levelo://app?vid=f3c8e660-adb7-448d-9d5d-55a0433da1f6","ios":"levelo://app?vid=f3c8e660-adb7-448d-9d5d-55a0433da1f6"},"vehicle_type_id":"4","last_reported":1713812779,"current_range_meters":23600,"station_id":"ce4bguh2rcd13ifvqckg","pricing_plan_id":"cebpf4jnsgd1na2vs0mg"},{"bike_id":"56b503c4-5488-4eaa-851e-cb5063c7be13","system_id":"levelo_inurba_marseille","lat":43.317075,"lon":5.377367,"is_reserved":false,"is_disabled":false,"rental_uris":{"android":"levelo://app?vid=56b503c4-5488-4eaa-851e-cb5063c7be13","ios":"levelo://app?vid=56b503c4-5488-4eaa-851e-cb5063c7be13"},"vehicle_type_id":"4","last_reported":1713812779,"current_range_meters":400,"station_id":"ce4bgth2rcd13ifvqch0","pricing_plan_id":"cebpf4jnsgd1na2vs0mg"},{"bike_id":"3de62ec9-d2aa-492c-86dc-f8df1c507e8b","system_id":"levelo_inurba_marseille","lat":43.305706,"lon":5.365654,"is_reserved":false,"is_disabled":false,"rental_uris":{"android":"levelo://app?vid=3de62ec9-d2aa-492c-86dc-f8df1c507e8b","ios":"levelo://app?vid=3de62ec9-d2aa-492c-86dc-f8df1c507e8b"},"vehicle_type_id":"4","last_reported":1713812779,"current_range_meters":2000,"station_id":"ce4bgs12rcd13ifvqcag","pricing_plan_id":"cebpf4jnsgd1na2vs0mg"},{"bike_id":"8aaf7958-d5bb-4e3a-8fa4-74e5302f6e46","system_id":"levelo_inurba_marseille","lat":43.287154,"lon":5.399979,"is_reserved":false,"is_disabled":false,"rental_uris":{"android":"levelo://app?vid=8aaf7958-d5bb-4e3a-8fa4-74e5302f6e46","ios":"levelo://app?vid=8aaf7958-d5bb-4e3a-8fa4-74e5302f6e46"},"vehicle_type_id":"4","last_reported":1713812779,"current_range_meters":7200,"station_id":"ce4bho92rcd13ifvqh3g","pricing_plan_id":"cebpf4jnsgd1na2vs0mg"},{"bike_id":"e3a2c7a9-b7b2-411e-a354-1eda2be0fd08","system_id":"levelo_inurba_marseille","lat":43.305989,"lon":5.37225,"is_reserved":false,"is_disabled":false,"rental_uris":{"android":"levelo://app?vid=e3a2c7a9-b7b2-411e-a354-1eda2be0fd08","ios":"levelo://app?vid=e3a2c7a9-b7b2-411e-a354-1eda2be0fd08"},"vehicle_type_id":"4","last_reported":1713812779,"current_range_meters":6800,"station_id":"ce4bgqh2rcd13ifvqc4g","pricing_plan_id":"cebpf4jnsgd1na2vs0mg"},{"bike_id":"94da8ace-1bb6-48a1-ae1b-26c9060454d4","system_id":"levelo_inurba_marseille","lat":43.305989,"lon":5.37225,"is_reserved":false,"is_disabled":false,"rental_uris":{"android":"levelo://app?vid=94da8ace-1bb6-48a1-ae1b-26c9060454d4","ios":"levelo://app?vid=94da8ace-1bb6-48a1-ae1b-26c9060454d4"},"vehicle_type_id":"4","last_reported":1713812779,"current_range_meters":25200,"station_id":"ce4bgqh2rcd13ifvqc4g","pricing_plan_id":"cebpf4jnsgd1na2vs0mg"},{"bike_id":"ed5eab22-9b68-4b64-8470-a9a37758d950","system_id":"levelo_inurba_marseille","lat":43.305989,"lon":5.37225,"is_reserved":false,"is_disabled":false,"rental_uris":{"android":"levelo://app?vid=ed5eab22-9b68-4b64-8470-a9a37758d950","ios":"levelo://app?vid=ed5eab22-9b68-4b64-8470-a9a37758d950"},"vehicle_type_id":"4","last_reported":1713812779,"current_range_meters":31200,"station_id":"ce4bgqh2rcd13ifvqc4g","pricing_plan_id":"cebpf4jnsgd1na2vs0mg"},{"bike_id":"0fb83330-f1aa-4b50-8a53-ed6e11df466b","system_id":"levelo_inurba_marseille","lat":43.305989,"lon":5.37225,"is_reserved":false,"is_disabled":false,"rental_uris":{"android":"levelo://app?vid=0fb83330-f1aa-4b50-8a53-ed6e11df466b","ios":"levelo://app?vid=0fb83330-f1aa-4b50-8a53-ed6e11df466b"},"vehicle_type_id":"4","last_reported":1713812779,"current_range_meters":15600,"station_id":"ce4bgqh2rcd13ifvqc4g","pricing_plan_id":"cebpf4jnsgd1na2vs0mg"},{"bike_id":"2345c9d5-5a8e-4e8b-98fc-70e818e0dfc9","system_id":"levelo_inurba_marseille","lat":43.295748,"lon":5.37522,"is_reserved":false,"is_disabled":false,"rental_uris":{"android":"levelo://app?vid=2345c9d5-5a8e-4e8b-98fc-70e818e0dfc9","ios":"levelo://app?vid=2345c9d5-5a8e-4e8b-98fc-70e818e0dfc9"},"vehicle_type_id":"4","last_reported":1713812779,"current_range_meters":6800,"station_id":"ce4bgh92rcd13ifvqb50","pricing_plan_id":"cebpf4jnsgd1na2vs0mg"},{"bike_id":"71339a0a-08ec-4af2-bb75-3a1a55362bf3","system_id":"levelo_inurba_marseille","lat":43.306019,"lon":5.372359,"is_reserved":false,"is_disabled":false,"rental_uris":{"android":"levelo://app?vid=71339a0a-08ec-4af2-bb75-3a1a55362bf3","ios":"levelo://app?vid=71339a0a-08ec-4af2-bb75-3a1a55362bf3"},"vehicle_type_id":"4","last_reported":1713812779,"current_range_meters":5600,"station_id":"ce4bgqh2rcd13ifvqc4g","pricing_plan_id":"cebpf4jnsgd1na2vs0mg"},{"bike_id":"7e96b56b-3613-4f12-a256-540e4ce354e9","system_id":"levelo_inurba_marseille","lat":43.305989,"lon":5.37225,"is_reserved":false,"is_disabled":false,"rental_uris":{"android":"levelo://app?vid=7e96b56b-3613-4f12-a256-540e4ce354e9","ios":"levelo://app?vid=7e96b56b-3613-4f12-a256-540e4ce354e9"},"vehicle_type_id":"4","last_reported":1713812779,"current_range_meters":31200,"station_id":"ce4bgqh2rcd13ifvqc4g","pricing_plan_id":"cebpf4jnsgd1na2vs0mg"},{"bike_id":"9ad04985-19b3-411b-9d37-d39d66559013","system_id":"levelo_inurba_marseille","lat":43.305989,"lon":5.37225,"is_reserved":false,"is_disabled":false,"rental_uris":{"android":"levelo://app?vid=9ad04985-19b3-411b-9d37-d39d66559013","ios":"levelo://app?vid=9ad04985-19b3-411b-9d37-d39d66559013"},"vehicle_type_id":"4","last_reported":1713812779,"current_range_meters":31200,"station_id":"ce4bgqh2rcd13ifvqc4g","pricing_plan_id":"cebpf4jnsgd1na2vs0mg"},{"bike_id":"d4eb8c8b-5f5f-4917-b4b4-3e5b23cd30e6","system_id":"levelo_inurba_marseille","lat":43.311123,"lon":5.377645,"is_reserved":false,"is_disabled":false,"rental_uris":{"android":"levelo://app?vid=d4eb8c8b-5f5f-4917-b4b4-3e5b23cd30e6","ios":"levelo://app?vid=d4eb8c8b-5f5f-4917-b4b4-3e5b23cd30e6"},"vehicle_type_id":"4","last_reported":1713812779,"current_range_meters":8800,"station_id":"ce4bgt92rcd13ifvqcg0","pricing_plan_id":"cebpf4jnsgd1na2vs0mg"},{"bike_id":"704f465e-073b-4f67-ae7e-676bb1da07e1","system_id":"levelo_inurba_marseille","lat":43.311125,"lon":5.377624,"is_reserved":false,"is_disabled":false,"rental_uris":{"android":"levelo://app?vid=704f465e-073b-4f67-ae7e-676bb1da07e1","ios":"levelo://app?vid=704f465e-073b-4f67-ae7e-676bb1da07e1"},"vehicle_type_id":"4","last_reported":1713812779,"current_range_meters":18000,"station_id":"ce4bgt92rcd13ifvqcg0","pricing_plan_id":"cebpf4jnsgd1na2vs0mg"},{"bike_id":"9603c8cd-2ede-4596-9ef4-b902113085e9","system_id":"levelo_inurba_marseille","lat":43.311125,"lon":5.377624,"is_reserved":false,"is_disabled":false,"rental_uris":{"android":"levelo://app?vid=9603c8cd-2ede-4596-9ef4-b902113085e9","ios":"levelo://app?vid=9603c8cd-2ede-4596-9ef4-b902113085e9"},"vehicle_type_id":"4","last_reported":1713812779,"current_range_meters":18800,"station_id":"ce4bgt92rcd13ifvqcg0","pricing_plan_id":"cebpf4jnsgd1na2vs0mg"},{"bike_id":"1ab46602-bb84-4af3-9b14-417959bb5e64","system_id":"levelo_inurba_marseille","lat":43.307945,"lon":5.376487,"is_reserved":false,"is_disabled":false,"rental_uris":{"android":"levelo://app?vid=1ab46602-bb84-4af3-9b14-417959bb5e64","ios":"levelo://app?vid=1ab46602-bb84-4af3-9b14-417959bb5e64"},"vehicle_type_id":"4","last_reported":1713812779,"current_range_meters":14800,"station_id":"ce4bgv92rcd13ifvqcq0","pricing_plan_id":"cebpf4jnsgd1na2vs0mg"},{"bike_id":"8c4a9ef0-f0cc-43cf-a599-9ac6660df75d","system_id":"levelo_inurba_marseille","lat":43.307945,"lon":5.376487,"is_reserved":false,"is_disabled":false,"rental_uris":{"android":"levelo://app?vid=8c4a9ef0-f0cc-43cf-a599-9ac6660df75d","ios":"levelo://app?vid=8c4a9ef0-f0cc-43cf-a599-9ac6660df75d"},"vehicle_type_id":"4","last_reported":1713812779,"current_range_meters":1600,"station_id":"ce4bgv92rcd13ifvqcq0","pricing_plan_id":"cebpf4jnsgd1na2vs0mg"},{"bike_id":"985ff651-e07c-4b18-afd2-37f3486ff16e","system_id":"levelo_inurba_marseille","lat":43.307945,"lon":5.376487,"is_reserved":false,"is_disabled":false,"rental_uris":{"android":"levelo://app?vid=985ff651-e07c-4b18-afd2-37f3486ff16e","ios":"levelo://app?vid=985ff651-e07c-4b18-afd2-37f3486ff16e"},"vehicle_type_id":"4","last_reported":1713812779,"current_range_meters":15200,"station_id":"ce4bgv92rcd13ifvqcq0","pricing_plan_id":"cebpf4jnsgd1na2vs0mg"},{"bike_id":"2577fb2a-9dc6-4b39-abe2-3b818e9d97a9","system_id":"levelo_inurba_marseille","lat":43.30784,"lon":5.37657,"is_reserved":false,"is_disabled":false,"rental_uris":{"android":"levelo://app?vid=2577fb2a-9dc6-4b39-abe2-3b818e9d97a9","ios":"levelo://app?vid=2577fb2a-9dc6-4b39-abe2-3b818e9d97a9"},"vehicle_type_id":"4","last_reported":1713812779,"current_range_meters":400,"station_id":"ce4bgv92rcd13ifvqcq0","pricing_plan_id":"cebpf4jnsgd1na2vs0mg"},{"bike_id":"3385ee2a-c550-4633-ade2-dfbb928c531a","system_id":"levelo_inurba_marseille","lat":43.317075,"lon":5.377367,"is_reserved":false,"is_disabled":false,"rental_uris":{"android":"levelo://app?vid=3385ee2a-c550-4633-ade2-dfbb928c531a","ios":"levelo://app?vid=3385ee2a-c550-4633-ade2-dfbb928c531a"},"vehicle_type_id":"4","last_reported":1713812779,"current_range_meters":31200,"station_id":"ce4bgth2rcd13ifvqch0","pricing_plan_id":"cebpf4jnsgd1na2vs0mg"},{"bike_id":"1bd93fe7-cbcc-4fc6-bbf5-18322dcb475a","system_id":"levelo_inurba_marseille","lat":43.317075,"lon":5.377367,"is_reserved":false,"is_disabled":false,"rental_uris":{"android":"levelo://app?vid=1bd93fe7-cbcc-4fc6-bbf5-18322dcb475a","ios":"levelo://app?vid=1bd93fe7-cbcc-4fc6-bbf5-18322dcb475a"},"vehicle_type_id":"4","last_reported":1713812779,"current_range_meters":18400,"station_id":"ce4bgth2rcd13ifvqch0","pricing_plan_id":"cebpf4jnsgd1na2vs0mg"},{"bike_id":"924ffc8a-1da0-4137-8ddd-75062e3ec9e2","system_id":"levelo_inurba_marseille","lat":43.317,"lon":5.3777,"is_reserved":false,"is_disabled":false,"rental_uris":{"android":"levelo://app?vid=924ffc8a-1da0-4137-8ddd-75062e3ec9e2","ios":"levelo://app?vid=924ffc8a-1da0-4137-8ddd-75062e3ec9e2"},"vehicle_type_id":"4","last_reported":1713812779,"current_range_meters":8400,"station_id":"ce4bgth2rcd13ifvqch0","pricing_plan_id":"cebpf4jnsgd1na2vs0mg"},{"bike_id":"7bd9dcd7-cfa4-4720-b545-724872c01541","system_id":"levelo_inurba_marseille","lat":43.317075,"lon":5.377367,"is_reserved":false,"is_disabled":false,"rental_uris":{"android":"levelo://app?vid=7bd9dcd7-cfa4-4720-b545-724872c01541","ios":"levelo://app?vid=7bd9dcd7-cfa4-4720-b545-724872c01541"},"vehicle_type_id":"4","last_reported":1713812779,"current_range_meters":26000,"station_id":"ce4bgth2rcd13ifvqch0","pricing_plan_id":"cebpf4jnsgd1na2vs0mg"},{"bike_id":"b15ef6e5-3a5b-45cf-bee8-70335f3d5f34","system_id":"levelo_inurba_marseille","lat":43.30304,"lon":5.368987,"is_reserved":false,"is_disabled":false,"rental_uris":{"android":"levelo://app?vid=b15ef6e5-3a5b-45cf-bee8-70335f3d5f34","ios":"levelo://app?vid=b15ef6e5-3a5b-45cf-bee8-70335f3d5f34"},"vehicle_type_id":"4","last_reported":1713812779,"current_range_meters":31200,"station_id":"ce4bgqh2rcd13ifvqc5g","pricing_plan_id":"cebpf4jnsgd1na2vs0mg"},{"bike_id":"3fe57c5f-ad80-4997-b059-460e086c908f","system_id":"levelo_inurba_marseille","lat":43.315289,"lon":5.380349,"is_reserved":false,"is_disabled":false,"rental_uris":{"android":"levelo://app?vid=3fe57c5f-ad80-4997-b059-460e086c908f","ios":"levelo://app?vid=3fe57c5f-ad80-4997-b059-460e086c908f"},"vehicle_type_id":"4","last_reported":1713812779,"current_range_meters":23600,"station_id":"ce4bhsp2rcd13ifvqi50","pricing_plan_id":"cebpf4jnsgd1na2vs0mg"},{"bike_id":"d337be9b-69c4-4168-824a-0e458e44d7f2","system_id":"levelo_inurba_marseille","lat":43.315289,"lon":5.380349,"is_reserved":false,"is_disabled":false,"rental_uris":{"android":"levelo://app?vid=d337be9b-69c4-4168-824a-0e458e44d7f2","ios":"levelo://app?vid=d337be9b-69c4-4168-824a-0e458e44d7f2"},"vehicle_type_id":"4","last_reported":1713812779,"current_range_meters":1200,"station_id":"ce4bhsp2rcd13ifvqi50","pricing_plan_id":"cebpf4jnsgd1na2vs0mg"},{"bike_id":"04a52809-4714-4f3c-866f-faa7c2ffb546","system_id":"levelo_inurba_marseille","lat":43.315289,"lon":5.380349,"is_reserved":false,"is_disabled":false,"rental_uris":{"android":"levelo://app?vid=04a52809-4714-4f3c-866f-faa7c2ffb546","ios":"levelo://app?vid=04a52809-4714-4f3c-866f-faa7c2ffb546"},"vehicle_type_id":"4","last_reported":1713812779,"current_range_meters":400,"station_id":"ce4bhsp2rcd13ifvqi50","pricing_plan_id":"cebpf4jnsgd1na2vs0mg"},{"bike_id":"a9e8ec94-fa8e-4599-a1e2-aca13c0d132e","system_id":"levelo_inurba_marseille","lat":43.315289,"lon":5.380349,"is_reserved":false,"is_disabled":false,"rental_uris":{"android":"levelo://app?vid=a9e8ec94-fa8e-4599-a1e2-aca13c0d132e","ios":"levelo://app?vid=a9e8ec94-fa8e-4599-a1e2-aca13c0d132e"},"vehicle_type_id":"4","last_reported":1713812779,"current_range_meters":15600,"station_id":"ce4bhsp2rcd13ifvqi50","pricing_plan_id":"cebpf4jnsgd1na2vs0mg"},{"bike_id":"ca6d80c3-3cff-4b2e-b35f-73ba4df90a28","system_id":"levelo_inurba_marseille","lat":43.301939,"lon":5.366286,"is_reserved":false,"is_disabled":false,"rental_uris":{"android":"levelo://app?vid=ca6d80c3-3cff-4b2e-b35f-73ba4df90a28","ios":"levelo://app?vid=ca6d80c3-3cff-4b2e-b35f-73ba4df90a28"},"vehicle_type_id":"4","last_reported":1713812779,"current_range_meters":21200,"station_id":"ce4bgrh2rcd13ifvqc8g","pricing_plan_id":"cebpf4jnsgd1na2vs0mg"},{"bike_id":"26f2f249-eef5-4abd-b814-0842e551a8fe","system_id":"levelo_inurba_marseille","lat":43.301939,"lon":5.366286,"is_reserved":false,"is_disabled":false,"rental_uris":{"android":"levelo://app?vid=26f2f249-eef5-4abd-b814-0842e551a8fe","ios":"levelo://app?vid=26f2f249-eef5-4abd-b814-0842e551a8fe"},"vehicle_type_id":"4","last_reported":1713812779,"current_range_meters":14000,"station_id":"ce4bgrh2rcd13ifvqc8g","pricing_plan_id":"cebpf4jnsgd1na2vs0mg"},{"bike_id":"cd550386-513c-45e1-aa91-16003d6b3786","system_id":"levelo_inurba_marseille","lat":43.301939,"lon":5.366286,"is_reserved":false,"is_disabled":false,"rental_uris":{"android":"levelo://app?vid=cd550386-513c-45e1-aa91-16003d6b3786","ios":"levelo://app?vid=cd550386-513c-45e1-aa91-16003d6b3786"},"vehicle_type_id":"4","last_reported":1713812779,"current_range_meters":27600,"station_id":"ce4bgrh2rcd13ifvqc8g","pricing_plan_id":"cebpf4jnsgd1na2vs0mg"},{"bike_id":"25d3b51a-ac6d-477a-bf4f-16b642a53050","system_id":"levelo_inurba_marseille","lat":43.30669,"lon":5.38019,"is_reserved":false,"is_disabled":false,"rental_uris":{"android":"levelo://app?vid=25d3b51a-ac6d-477a-bf4f-16b642a53050","ios":"levelo://app?vid=25d3b51a-ac6d-477a-bf4f-16b642a53050"},"vehicle_type_id":"4","last_reported":1713812779,"current_range_meters":14000,"station_id":"","pricing_plan_id":"cebpf4jnsgd1na2vs0mg"},{"bike_id":"cb919e17-4c70-4e63-8317-c4a2bc97ccd0","system_id":"levelo_inurba_marseille","lat":43.308012,"lon":5.381511,"is_reserved":false,"is_disabled":false,"rental_uris":{"android":"levelo://app?vid=cb919e17-4c70-4e63-8317-c4a2bc97ccd0","ios":"levelo://app?vid=cb919e17-4c70-4e63-8317-c4a2bc97ccd0"},"vehicle_type_id":"4","last_reported":1713812779,"current_range_meters":14400,"station_id":"ce4bgt12rcd13ifvqce0","pricing_plan_id":"cebpf4jnsgd1na2vs0mg"},{"bike_id":"93cf05cf-247c-44fd-8239-5459e93ea3ed","system_id":"levelo_inurba_marseille","lat":43.324771,"lon":5.36557,"is_reserved":false,"is_disabled":false,"rental_uris":{"android":"levelo://app?vid=93cf05cf-247c-44fd-8239-5459e93ea3ed","ios":"levelo://app?vid=93cf05cf-247c-44fd-8239-5459e93ea3ed"},"vehicle_type_id":"4","last_reported":1713812779,"current_range_meters":16400,"station_id":"ce4bhs12rcd13ifvqhvg","pricing_plan_id":"cebpf4jnsgd1na2vs0mg"},{"bike_id":"446414bd-fc0e-47c7-9693-79adaafb9dcd","system_id":"levelo_inurba_marseille","lat":43.324771,"lon":5.36557,"is_reserved":false,"is_disabled":false,"rental_uris":{"android":"levelo://app?vid=446414bd-fc0e-47c7-9693-79adaafb9dcd","ios":"levelo://app?vid=446414bd-fc0e-47c7-9693-79adaafb9dcd"},"vehicle_type_id":"4","last_reported":1713812779,"current_range_meters":4400,"station_id":"ce4bhs12rcd13ifvqhvg","pricing_plan_id":"cebpf4jnsgd1na2vs0mg"},{"bike_id":"4de203a6-e210-4aa0-bcb0-972d5a213134","system_id":"levelo_inurba_marseille","lat":43.324771,"lon":5.36557,"is_reserved":false,"is_disabled":false,"rental_uris":{"android":"levelo://app?vid=4de203a6-e210-4aa0-bcb0-972d5a213134","ios":"levelo://app?vid=4de203a6-e210-4aa0-bcb0-972d5a213134"},"vehicle_type_id":"4","last_reported":1713812779,"current_range_meters":3600,"station_id":"ce4bhs12rcd13ifvqhvg","pricing_plan_id":"cebpf4jnsgd1na2vs0mg"},{"bike_id":"63277bec-4ab8-48e6-b1a6-77979180a62b","system_id":"levelo_inurba_marseille","lat":43.301429,"lon":5.37413,"is_reserved":false,"is_disabled":false,"rental_uris":{"android":"levelo://app?vid=63277bec-4ab8-48e6-b1a6-77979180a62b","ios":"levelo://app?vid=63277bec-4ab8-48e6-b1a6-77979180a62b"},"vehicle_type_id":"4","last_reported":1713812779,"current_range_meters":24400,"station_id":"ce4bgs92rcd13ifvqcc0","pricing_plan_id":"cebpf4jnsgd1na2vs0mg"},{"bike_id":"e708ef37-37e6-4cd4-9c58-58c213efed3a","system_id":"levelo_inurba_marseille","lat":43.305395,"lon":5.380968,"is_reserved":false,"is_disabled":false,"rental_uris":{"android":"levelo://app?vid=e708ef37-37e6-4cd4-9c58-58c213efed3a","ios":"levelo://app?vid=e708ef37-37e6-4cd4-9c58-58c213efed3a"},"vehicle_type_id":"4","last_reported":1713812779,"current_range_meters":8800,"station_id":"","pricing_plan_id":"cebpf4jnsgd1na2vs0mg"},{"bike_id":"b6448e4e-bc8c-4096-befe-00e7d7b27d86","system_id":"levelo_inurba_marseille","lat":43.319935,"lon":5.381699,"is_reserved":false,"is_disabled":false,"rental_uris":{"android":"levelo://app?vid=b6448e4e-bc8c-4096-befe-00e7d7b27d86","ios":"levelo://app?vid=b6448e4e-bc8c-4096-befe-00e7d7b27d86"},"vehicle_type_id":"4","last_reported":1713812779,"current_range_meters":11600,"station_id":"ce4bhr12rcd13ifvqhpg","pricing_plan_id":"cebpf4jnsgd1na2vs0mg"},{"bike_id":"60497e5c-882c-4ac3-8384-449f8e5db08e","system_id":"levelo_inurba_marseille","lat":43.319935,"lon":5.381699,"is_reserved":false,"is_disabled":false,"rental_uris":{"android":"levelo://app?vid=60497e5c-882c-4ac3-8384-449f8e5db08e","ios":"levelo://app?vid=60497e5c-882c-4ac3-8384-449f8e5db08e"},"vehicle_type_id":"4","last_reported":1713812779,"current_range_meters":4800,"station_id":"ce4bhr12rcd13ifvqhpg","pricing_plan_id":"cebpf4jnsgd1na2vs0mg"},{"bike_id":"71adbe34-2f9a-470e-9db9-22e3f5446b00","system_id":"levelo_inurba_marseille","lat":43.319935,"lon":5.381699,"is_reserved":false,"is_disabled":false,"rental_uris":{"android":"levelo://app?vid=71adbe34-2f9a-470e-9db9-22e3f5446b00","ios":"levelo://app?vid=71adbe34-2f9a-470e-9db9-22e3f5446b00"},"vehicle_type_id":"4","last_reported":1713812779,"current_range_meters":18800,"station_id":"ce4bhr12rcd13ifvqhpg","pricing_plan_id":"cebpf4jnsgd1na2vs0mg"},{"bike_id":"fec8dffa-10ef-4635-82bc-fa57de892e01","system_id":"levelo_inurba_marseille","lat":43.319935,"lon":5.381699,"is_reserved":false,"is_disabled":false,"rental_uris":{"android":"levelo://app?vid=fec8dffa-10ef-4635-82bc-fa57de892e01","ios":"levelo://app?vid=fec8dffa-10ef-4635-82bc-fa57de892e01"},"vehicle_type_id":"4","last_reported":1713812779,"current_range_meters":1600,"station_id":"ce4bhr12rcd13ifvqhpg","pricing_plan_id":"cebpf4jnsgd1na2vs0mg"},{"bike_id":"433458f1-4592-4f2a-9af5-551c5a82a6c5","system_id":"levelo_inurba_marseille","lat":43.3199,"lon":5.38152,"is_reserved":false,"is_disabled":false,"rental_uris":{"android":"levelo://app?vid=433458f1-4592-4f2a-9af5-551c5a82a6c5","ios":"levelo://app?vid=433458f1-4592-4f2a-9af5-551c5a82a6c5"},"vehicle_type_id":"4","last_reported":1713812779,"current_range_meters":25600,"station_id":"ce4bhr12rcd13ifvqhpg","pricing_plan_id":"cebpf4jnsgd1na2vs0mg"},{"bike_id":"e86674fd-98fa-463e-8f3a-d88df7ed7ad6","system_id":"levelo_inurba_marseille","lat":43.313571,"lon":5.384829,"is_reserved":false,"is_disabled":false,"rental_uris":{"android":"levelo://app?vid=e86674fd-98fa-463e-8f3a-d88df7ed7ad6","ios":"levelo://app?vid=e86674fd-98fa-463e-8f3a-d88df7ed7ad6"},"vehicle_type_id":"4","last_reported":1713812779,"current_range_meters":4400,"station_id":"ce4bgt92rcd13ifvqcf0","pricing_plan_id":"cebpf4jnsgd1na2vs0mg"},{"bike_id":"f93eef6b-628d-49e2-addc-56cb17903cdc","system_id":"levelo_inurba_marseille","lat":43.319935,"lon":5.381699,"is_reserved":false,"is_disabled":false,"rental_uris":{"android":"levelo://app?vid=f93eef6b-628d-49e2-addc-56cb17903cdc","ios":"levelo://app?vid=f93eef6b-628d-49e2-addc-56cb17903cdc"},"vehicle_type_id":"4","last_reported":1713812779,"current_range_meters":9200,"station_id":"ce4bhr12rcd13ifvqhpg","pricing_plan_id":"cebpf4jnsgd1na2vs0mg"},{"bike_id":"7e34a868-f7f5-4cc8-ad38-12f475d2e78e","system_id":"levelo_inurba_marseille","lat":43.319935,"lon":5.381699,"is_reserved":false,"is_disabled":false,"rental_uris":{"android":"levelo://app?vid=7e34a868-f7f5-4cc8-ad38-12f475d2e78e","ios":"levelo://app?vid=7e34a868-f7f5-4cc8-ad38-12f475d2e78e"},"vehicle_type_id":"4","last_reported":1713812779,"current_range_meters":25600,"station_id":"ce4bhr12rcd13ifvqhpg","pricing_plan_id":"cebpf4jnsgd1na2vs0mg"},{"bike_id":"70ad4208-4ea1-48bc-a19d-39f226fe0387","system_id":"levelo_inurba_marseille","lat":43.319933,"lon":5.381572,"is_reserved":false,"is_disabled":false,"rental_uris":{"android":"levelo://app?vid=70ad4208-4ea1-48bc-a19d-39f226fe0387","ios":"levelo://app?vid=70ad4208-4ea1-48bc-a19d-39f226fe0387"},"vehicle_type_id":"4","last_reported":1713812779,"current_range_meters":0,"station_id":"ce4bhr12rcd13ifvqhpg","pricing_plan_id":"cebpf4jnsgd1na2vs0mg"},{"bike_id":"36e6c597-4c9b-44fd-b549-5a94fcfa18a9","system_id":"levelo_inurba_marseille","lat":43.319935,"lon":5.381699,"is_reserved":false,"is_disabled":false,"rental_uris":{"android":"levelo://app?vid=36e6c597-4c9b-44fd-b549-5a94fcfa18a9","ios":"levelo://app?vid=36e6c597-4c9b-44fd-b549-5a94fcfa18a9"},"vehicle_type_id":"4","last_reported":1713812779,"current_range_meters":18800,"station_id":"ce4bhr12rcd13ifvqhpg","pricing_plan_id":"cebpf4jnsgd1na2vs0mg"},{"bike_id":"e1519999-3512-414c-9b48-8555e785cef0","system_id":"levelo_inurba_marseille","lat":43.319935,"lon":5.381699,"is_reserved":false,"is_disabled":false,"rental_uris":{"android":"levelo://app?vid=e1519999-3512-414c-9b48-8555e785cef0","ios":"levelo://app?vid=e1519999-3512-414c-9b48-8555e785cef0"},"vehicle_type_id":"4","last_reported":1713812779,"current_range_meters":1600,"station_id":"ce4bhr12rcd13ifvqhpg","pricing_plan_id":"cebpf4jnsgd1na2vs0mg"},{"bike_id":"ddbf4337-37bc-469d-be39-395f9713422b","system_id":"levelo_inurba_marseille","lat":43.31359,"lon":5.38489,"is_reserved":false,"is_disabled":false,"rental_uris":{"android":"levelo://app?vid=ddbf4337-37bc-469d-be39-395f9713422b","ios":"levelo://app?vid=ddbf4337-37bc-469d-be39-395f9713422b"},"vehicle_type_id":"4","last_reported":1713812779,"current_range_meters":0,"station_id":"ce4bgt92rcd13ifvqcf0","pricing_plan_id":"cebpf4jnsgd1na2vs0mg"},{"bike_id":"1febad8b-55e4-4046-ba42-c9e193dbc955","system_id":"levelo_inurba_marseille","lat":43.31364,"lon":5.38497,"is_reserved":false,"is_disabled":false,"rental_uris":{"android":"levelo://app?vid=1febad8b-55e4-4046-ba42-c9e193dbc955","ios":"levelo://app?vid=1febad8b-55e4-4046-ba42-c9e193dbc955"},"vehicle_type_id":"4","last_reported":1713812779,"current_range_meters":6000,"station_id":"ce4bgt92rcd13ifvqcf0","pricing_plan_id":"cebpf4jnsgd1na2vs0mg"},{"bike_id":"3255c556-24c3-48ea-9443-245d28292754","system_id":"levelo_inurba_marseille","lat":43.31371,"lon":5.38498,"is_reserved":false,"is_disabled":false,"rental_uris":{"android":"levelo://app?vid=3255c556-24c3-48ea-9443-245d28292754","ios":"levelo://app?vid=3255c556-24c3-48ea-9443-245d28292754"},"vehicle_type_id":"4","last_reported":1713812779,"current_range_meters":7200,"station_id":"ce4bgt92rcd13ifvqcf0","pricing_plan_id":"cebpf4jnsgd1na2vs0mg"},{"bike_id":"4a97d4d0-809b-47e1-9d36-bcecb9d1f416","system_id":"levelo_inurba_marseille","lat":43.31357,"lon":5.38503,"is_reserved":false,"is_disabled":false,"rental_uris":{"android":"levelo://app?vid=4a97d4d0-809b-47e1-9d36-bcecb9d1f416","ios":"levelo://app?vid=4a97d4d0-809b-47e1-9d36-bcecb9d1f416"},"vehicle_type_id":"4","last_reported":1713812779,"current_range_meters":8400,"station_id":"ce4bgt92rcd13ifvqcf0","pricing_plan_id":"cebpf4jnsgd1na2vs0mg"},{"bike_id":"f9fe6498-9353-4e1c-b08d-e0706c2ac97e","system_id":"levelo_inurba_marseille","lat":43.299725,"lon":5.371763,"is_reserved":false,"is_disabled":false,"rental_uris":{"android":"levelo://app?vid=f9fe6498-9353-4e1c-b08d-e0706c2ac97e","ios":"levelo://app?vid=f9fe6498-9353-4e1c-b08d-e0706c2ac97e"},"vehicle_type_id":"4","last_reported":1713812779,"current_range_meters":7200,"station_id":"ce4bgr92rcd13ifvqc7g","pricing_plan_id":"cebpf4jnsgd1na2vs0mg"},{"bike_id":"b224c257-5b9a-4098-adc1-35bd23f7a473","system_id":"levelo_inurba_marseille","lat":43.29968,"lon":5.37178,"is_reserved":false,"is_disabled":false,"rental_uris":{"android":"levelo://app?vid=b224c257-5b9a-4098-adc1-35bd23f7a473","ios":"levelo://app?vid=b224c257-5b9a-4098-adc1-35bd23f7a473"},"vehicle_type_id":"4","last_reported":1713812779,"current_range_meters":1200,"station_id":"ce4bgr92rcd13ifvqc7g","pricing_plan_id":"cebpf4jnsgd1na2vs0mg"},{"bike_id":"23e3da02-758c-4951-87ff-59e157b830d2","system_id":"levelo_inurba_marseille","lat":43.305364,"lon":5.384119,"is_reserved":false,"is_disabled":false,"rental_uris":{"android":"levelo://app?vid=23e3da02-758c-4951-87ff-59e157b830d2","ios":"levelo://app?vid=23e3da02-758c-4951-87ff-59e157b830d2"},"vehicle_type_id":"4","last_reported":1713812779,"current_range_meters":31200,"station_id":"ce4bgg92rcd13ifvqb30","pricing_plan_id":"cebpf4jnsgd1na2vs0mg"},{"bike_id":"282a0637-f50e-40cb-9b67-bb3b8a56d2a3","system_id":"levelo_inurba_marseille","lat":43.298433,"lon":5.362774,"is_reserved":false,"is_disabled":false,"rental_uris":{"android":"levelo://app?vid=282a0637-f50e-40cb-9b67-bb3b8a56d2a3","ios":"levelo://app?vid=282a0637-f50e-40cb-9b67-bb3b8a56d2a3"},"vehicle_type_id":"4","last_reported":1713812779,"current_range_meters":3600,"station_id":"ce4bgpp2rcd13ifvqc3g","pricing_plan_id":"cebpf4jnsgd1na2vs0mg"},{"bike_id":"9b31c5cc-0e04-41b6-acaf-075e374232fa","system_id":"levelo_inurba_marseille","lat":43.298433,"lon":5.362774,"is_reserved":false,"is_disabled":false,"rental_uris":{"android":"levelo://app?vid=9b31c5cc-0e04-41b6-acaf-075e374232fa","ios":"levelo://app?vid=9b31c5cc-0e04-41b6-acaf-075e374232fa"},"vehicle_type_id":"4","last_reported":1713812779,"current_range_meters":31200,"station_id":"ce4bgpp2rcd13ifvqc3g","pricing_plan_id":"cebpf4jnsgd1na2vs0mg"},{"bike_id":"abadb87e-d6c9-4594-a4cb-277a49d5fa89","system_id":"levelo_inurba_marseille","lat":43.298433,"lon":5.362774,"is_reserved":false,"is_disabled":false,"rental_uris":{"android":"levelo://app?vid=abadb87e-d6c9-4594-a4cb-277a49d5fa89","ios":"levelo://app?vid=abadb87e-d6c9-4594-a4cb-277a49d5fa89"},"vehicle_type_id":"4","last_reported":1713812779,"current_range_meters":22800,"station_id":"ce4bgpp2rcd13ifvqc3g","pricing_plan_id":"cebpf4jnsgd1na2vs0mg"},{"bike_id":"bea8eece-a67d-4e27-8c47-5b0be0a8092a","system_id":"levelo_inurba_marseille","lat":43.298433,"lon":5.362774,"is_reserved":false,"is_disabled":false,"rental_uris":{"android":"levelo://app?vid=bea8eece-a67d-4e27-8c47-5b0be0a8092a","ios":"levelo://app?vid=bea8eece-a67d-4e27-8c47-5b0be0a8092a"},"vehicle_type_id":"4","last_reported":1713812779,"current_range_meters":12000,"station_id":"ce4bgpp2rcd13ifvqc3g","pricing_plan_id":"cebpf4jnsgd1na2vs0mg"},{"bike_id":"d909c883-9c04-4c3e-84b9-70bb12e28056","system_id":"levelo_inurba_marseille","lat":43.298433,"lon":5.362774,"is_reserved":false,"is_disabled":false,"rental_uris":{"android":"levelo://app?vid=d909c883-9c04-4c3e-84b9-70bb12e28056","ios":"levelo://app?vid=d909c883-9c04-4c3e-84b9-70bb12e28056"},"vehicle_type_id":"4","last_reported":1713812779,"current_range_meters":3200,"station_id":"ce4bgpp2rcd13ifvqc3g","pricing_plan_id":"cebpf4jnsgd1na2vs0mg"},{"bike_id":"f449c72a-1808-42ea-93a7-ff78a1744fcc","system_id":"levelo_inurba_marseille","lat":43.299243,"lon":5.374807,"is_reserved":false,"is_disabled":false,"rental_uris":{"android":"levelo://app?vid=f449c72a-1808-42ea-93a7-ff78a1744fcc","ios":"levelo://app?vid=f449c72a-1808-42ea-93a7-ff78a1744fcc"},"vehicle_type_id":"4","last_reported":1713812779,"current_range_meters":3600,"station_id":"ce4bgjh2rcd13ifvqbg0","pricing_plan_id":"cebpf4jnsgd1na2vs0mg"},{"bike_id":"140c0cd2-c45b-4f69-83eb-7a19c5df1251","system_id":"levelo_inurba_marseille","lat":43.305364,"lon":5.384119,"is_reserved":false,"is_disabled":false,"rental_uris":{"android":"levelo://app?vid=140c0cd2-c45b-4f69-83eb-7a19c5df1251","ios":"levelo://app?vid=140c0cd2-c45b-4f69-83eb-7a19c5df1251"},"vehicle_type_id":"4","last_reported":1713812779,"current_range_meters":26400,"station_id":"ce4bgg92rcd13ifvqb30","pricing_plan_id":"cebpf4jnsgd1na2vs0mg"},{"bike_id":"12d9c763-1e60-4ba5-99e3-cbaf5943b91b","system_id":"levelo_inurba_marseille","lat":43.297794,"lon":5.370888,"is_reserved":false,"is_disabled":false,"rental_uris":{"android":"levelo://app?vid=12d9c763-1e60-4ba5-99e3-cbaf5943b91b","ios":"levelo://app?vid=12d9c763-1e60-4ba5-99e3-cbaf5943b91b"},"vehicle_type_id":"4","last_reported":1713812779,"current_range_meters":26400,"station_id":"ce4bgop2rcd13ifvqc1g","pricing_plan_id":"cebpf4jnsgd1na2vs0mg"},{"bike_id":"0596a7bd-2488-4686-9e1b-913831b0e489","system_id":"levelo_inurba_marseille","lat":43.322872,"lon":5.382756,"is_reserved":false,"is_disabled":false,"rental_uris":{"android":"levelo://app?vid=0596a7bd-2488-4686-9e1b-913831b0e489","ios":"levelo://app?vid=0596a7bd-2488-4686-9e1b-913831b0e489"},"vehicle_type_id":"4","last_reported":1713812779,"current_range_meters":3600,"station_id":"ce4bhr12rcd13ifvqhqg","pricing_plan_id":"cebpf4jnsgd1na2vs0mg"},{"bike_id":"b87c4180-08df-49c8-872f-4a266b5c0162","system_id":"levelo_inurba_marseille","lat":43.322872,"lon":5.382756,"is_reserved":false,"is_disabled":false,"rental_uris":{"android":"levelo://app?vid=b87c4180-08df-49c8-872f-4a266b5c0162","ios":"levelo://app?vid=b87c4180-08df-49c8-872f-4a266b5c0162"},"vehicle_type_id":"4","last_reported":1713812779,"current_range_meters":19600,"station_id":"ce4bhr12rcd13ifvqhqg","pricing_plan_id":"cebpf4jnsgd1na2vs0mg"},{"bike_id":"a8737198-e98b-46d3-baa5-35bf8274f864","system_id":"levelo_inurba_marseille","lat":43.297774,"lon":5.370875,"is_reserved":false,"is_disabled":false,"rental_uris":{"android":"levelo://app?vid=a8737198-e98b-46d3-baa5-35bf8274f864","ios":"levelo://app?vid=a8737198-e98b-46d3-baa5-35bf8274f864"},"vehicle_type_id":"4","last_reported":1713812779,"current_range_meters":2800,"station_id":"ce4bgop2rcd13ifvqc1g","pricing_plan_id":"cebpf4jnsgd1na2vs0mg"},{"bike_id":"a4cc2678-1ae4-4d41-a3d2-cbb8a9fd73ac","system_id":"levelo_inurba_marseille","lat":43.322872,"lon":5.382756,"is_reserved":false,"is_disabled":false,"rental_uris":{"android":"levelo://app?vid=a4cc2678-1ae4-4d41-a3d2-cbb8a9fd73ac","ios":"levelo://app?vid=a4cc2678-1ae4-4d41-a3d2-cbb8a9fd73ac"},"vehicle_type_id":"4","last_reported":1713812779,"current_range_meters":31200,"station_id":"ce4bhr12rcd13ifvqhqg","pricing_plan_id":"cebpf4jnsgd1na2vs0mg"},{"bike_id":"454f2963-a870-401a-a816-3704b04ea77e","system_id":"levelo_inurba_marseille","lat":43.322872,"lon":5.382756,"is_reserved":false,"is_disabled":false,"rental_uris":{"android":"levelo://app?vid=454f2963-a870-401a-a816-3704b04ea77e","ios":"levelo://app?vid=454f2963-a870-401a-a816-3704b04ea77e"},"vehicle_type_id":"4","last_reported":1713812779,"current_range_meters":5600,"station_id":"ce4bhr12rcd13ifvqhqg","pricing_plan_id":"cebpf4jnsgd1na2vs0mg"},{"bike_id":"92c24665-badb-4ed7-9129-70f50714ed40","system_id":"levelo_inurba_marseille","lat":43.322872,"lon":5.382756,"is_reserved":false,"is_disabled":false,"rental_uris":{"android":"levelo://app?vid=92c24665-badb-4ed7-9129-70f50714ed40","ios":"levelo://app?vid=92c24665-badb-4ed7-9129-70f50714ed40"},"vehicle_type_id":"4","last_reported":1713812779,"current_range_meters":13200,"station_id":"ce4bhr12rcd13ifvqhqg","pricing_plan_id":"cebpf4jnsgd1na2vs0mg"},{"bike_id":"df9d1796-d26a-49fb-ae6b-eec6b58b83aa","system_id":"levelo_inurba_marseille","lat":43.297794,"lon":5.370888,"is_reserved":false,"is_disabled":false,"rental_uris":{"android":"levelo://app?vid=df9d1796-d26a-49fb-ae6b-eec6b58b83aa","ios":"levelo://app?vid=df9d1796-d26a-49fb-ae6b-eec6b58b83aa"},"vehicle_type_id":"4","last_reported":1713812779,"current_range_meters":31200,"station_id":"ce4bgop2rcd13ifvqc1g","pricing_plan_id":"cebpf4jnsgd1na2vs0mg"},{"bike_id":"0b32fa2b-6e99-4115-bc6d-55694d0bf299","system_id":"levelo_inurba_marseille","lat":43.322872,"lon":5.382756,"is_reserved":false,"is_disabled":false,"rental_uris":{"android":"levelo://app?vid=0b32fa2b-6e99-4115-bc6d-55694d0bf299","ios":"levelo://app?vid=0b32fa2b-6e99-4115-bc6d-55694d0bf299"},"vehicle_type_id":"4","last_reported":1713812779,"current_range_meters":31200,"station_id":"ce4bhr12rcd13ifvqhqg","pricing_plan_id":"cebpf4jnsgd1na2vs0mg"},{"bike_id":"c46d9a8d-ee81-498e-bbb5-006f1b556bbe","system_id":"levelo_inurba_marseille","lat":43.322872,"lon":5.382756,"is_reserved":false,"is_disabled":false,"rental_uris":{"android":"levelo://app?vid=c46d9a8d-ee81-498e-bbb5-006f1b556bbe","ios":"levelo://app?vid=c46d9a8d-ee81-498e-bbb5-006f1b556bbe"},"vehicle_type_id":"4","last_reported":1713812779,"current_range_meters":13200,"station_id":"ce4bhr12rcd13ifvqhqg","pricing_plan_id":"cebpf4jnsgd1na2vs0mg"},{"bike_id":"4aa6bbb6-acfe-4a72-b7aa-c41f660e7dba","system_id":"levelo_inurba_marseille","lat":43.322872,"lon":5.382756,"is_reserved":false,"is_disabled":false,"rental_uris":{"android":"levelo://app?vid=4aa6bbb6-acfe-4a72-b7aa-c41f660e7dba","ios":"levelo://app?vid=4aa6bbb6-acfe-4a72-b7aa-c41f660e7dba"},"vehicle_type_id":"4","last_reported":1713812779,"current_range_meters":27600,"station_id":"ce4bhr12rcd13ifvqhqg","pricing_plan_id":"cebpf4jnsgd1na2vs0mg"},{"bike_id":"ef61a51c-36c6-4c2f-9a98-9ec3cb0d9ad4","system_id":"levelo_inurba_marseille","lat":43.322872,"lon":5.382756,"is_reserved":false,"is_disabled":false,"rental_uris":{"android":"levelo://app?vid=ef61a51c-36c6-4c2f-9a98-9ec3cb0d9ad4","ios":"levelo://app?vid=ef61a51c-36c6-4c2f-9a98-9ec3cb0d9ad4"},"vehicle_type_id":"4","last_reported":1713812779,"current_range_meters":20400,"station_id":"ce4bhr12rcd13ifvqhqg","pricing_plan_id":"cebpf4jnsgd1na2vs0mg"},{"bike_id":"77423322-5b97-4d45-a055-63655884e5c2","system_id":"levelo_inurba_marseille","lat":43.297163,"lon":5.365866,"is_reserved":false,"is_disabled":false,"rental_uris":{"android":"levelo://app?vid=77423322-5b97-4d45-a055-63655884e5c2","ios":"levelo://app?vid=77423322-5b97-4d45-a055-63655884e5c2"},"vehicle_type_id":"4","last_reported":1713812779,"current_range_meters":28400,"station_id":"ce4bgn12rcd13ifvqbt0","pricing_plan_id":"cebpf4jnsgd1na2vs0mg"},{"bike_id":"56d91149-6e86-4d7c-a134-c4517c20ecff","system_id":"levelo_inurba_marseille","lat":43.297163,"lon":5.365866,"is_reserved":false,"is_disabled":false,"rental_uris":{"android":"levelo://app?vid=56d91149-6e86-4d7c-a134-c4517c20ecff","ios":"levelo://app?vid=56d91149-6e86-4d7c-a134-c4517c20ecff"},"vehicle_type_id":"4","last_reported":1713812779,"current_range_meters":13600,"station_id":"ce4bgn12rcd13ifvqbt0","pricing_plan_id":"cebpf4jnsgd1na2vs0mg"},{"bike_id":"6a42c106-fd22-4527-b3fb-387f2a4e3b9e","system_id":"levelo_inurba_marseille","lat":43.29529,"lon":5.385581,"is_reserved":false,"is_disabled":false,"rental_uris":{"android":"levelo://app?vid=6a42c106-fd22-4527-b3fb-387f2a4e3b9e","ios":"levelo://app?vid=6a42c106-fd22-4527-b3fb-387f2a4e3b9e"},"vehicle_type_id":"4","last_reported":1713812779,"current_range_meters":10800,"station_id":"ce4bgih2rcd13ifvqba0","pricing_plan_id":"cebpf4jnsgd1na2vs0mg"},{"bike_id":"9906b685-ad7b-4943-a072-1d1d7218458f","system_id":"levelo_inurba_marseille","lat":43.297163,"lon":5.365866,"is_reserved":false,"is_disabled":false,"rental_uris":{"android":"levelo://app?vid=9906b685-ad7b-4943-a072-1d1d7218458f","ios":"levelo://app?vid=9906b685-ad7b-4943-a072-1d1d7218458f"},"vehicle_type_id":"4","last_reported":1713812779,"current_range_meters":29200,"station_id":"ce4bgn12rcd13ifvqbt0","pricing_plan_id":"cebpf4jnsgd1na2vs0mg"},{"bike_id":"77e2e97c-2ddc-4b37-a291-c773bc266c90","system_id":"levelo_inurba_marseille","lat":43.2968,"lon":5.37291,"is_reserved":false,"is_disabled":false,"rental_uris":{"android":"levelo://app?vid=77e2e97c-2ddc-4b37-a291-c773bc266c90","ios":"levelo://app?vid=77e2e97c-2ddc-4b37-a291-c773bc266c90"},"vehicle_type_id":"4","last_reported":1713812779,"current_range_meters":24400,"station_id":"ce4bgk12rcd13ifvqbj0","pricing_plan_id":"cebpf4jnsgd1na2vs0mg"},{"bike_id":"fbfaecb0-cd2c-46d5-97dc-eb041d8f2d0f","system_id":"levelo_inurba_marseille","lat":43.296131,"lon":5.370791,"is_reserved":false,"is_disabled":false,"rental_uris":{"android":"levelo://app?vid=fbfaecb0-cd2c-46d5-97dc-eb041d8f2d0f","ios":"levelo://app?vid=fbfaecb0-cd2c-46d5-97dc-eb041d8f2d0f"},"vehicle_type_id":"4","last_reported":1713812779,"current_range_meters":22400,"station_id":"ce4bgnh2rcd13ifvqc0g","pricing_plan_id":"cebpf4jnsgd1na2vs0mg"},{"bike_id":"8142c0dc-44ba-4f01-99a8-66f5cd3737d4","system_id":"levelo_inurba_marseille","lat":43.296131,"lon":5.370791,"is_reserved":false,"is_disabled":false,"rental_uris":{"android":"levelo://app?vid=8142c0dc-44ba-4f01-99a8-66f5cd3737d4","ios":"levelo://app?vid=8142c0dc-44ba-4f01-99a8-66f5cd3737d4"},"vehicle_type_id":"4","last_reported":1713812779,"current_range_meters":6800,"station_id":"ce4bgnh2rcd13ifvqc0g","pricing_plan_id":"cebpf4jnsgd1na2vs0mg"},{"bike_id":"c1be5787-293b-4756-81dd-1ab8613f2897","system_id":"levelo_inurba_marseille","lat":43.296131,"lon":5.370791,"is_reserved":false,"is_disabled":false,"rental_uris":{"android":"levelo://app?vid=c1be5787-293b-4756-81dd-1ab8613f2897","ios":"levelo://app?vid=c1be5787-293b-4756-81dd-1ab8613f2897"},"vehicle_type_id":"4","last_reported":1713812779,"current_range_meters":30400,"station_id":"ce4bgnh2rcd13ifvqc0g","pricing_plan_id":"cebpf4jnsgd1na2vs0mg"},{"bike_id":"843d10ad-eb9e-4de5-94ec-175997efa1ca","system_id":"levelo_inurba_marseille","lat":43.29573,"lon":5.367355,"is_reserved":false,"is_disabled":false,"rental_uris":{"android":"levelo://app?vid=843d10ad-eb9e-4de5-94ec-175997efa1ca","ios":"levelo://app?vid=843d10ad-eb9e-4de5-94ec-175997efa1ca"},"vehicle_type_id":"4","last_reported":1713812779,"current_range_meters":19600,"station_id":"ce4bgph2rcd13ifvqc2g","pricing_plan_id":"cebpf4jnsgd1na2vs0mg"},{"bike_id":"22ee16ca-a245-4dc1-ad8a-db06da73955c","system_id":"levelo_inurba_marseille","lat":43.295889,"lon":5.3688,"is_reserved":false,"is_disabled":false,"rental_uris":{"android":"levelo://app?vid=22ee16ca-a245-4dc1-ad8a-db06da73955c","ios":"levelo://app?vid=22ee16ca-a245-4dc1-ad8a-db06da73955c"},"vehicle_type_id":"4","last_reported":1713812779,"current_range_meters":17200,"station_id":"","pricing_plan_id":"cebpf4jnsgd1na2vs0mg"},{"bike_id":"3358b587-b36d-4542-9ce3-6a7a731d9758","system_id":"levelo_inurba_marseille","lat":43.29573,"lon":5.367355,"is_reserved":false,"is_disabled":false,"rental_uris":{"android":"levelo://app?vid=3358b587-b36d-4542-9ce3-6a7a731d9758","ios":"levelo://app?vid=3358b587-b36d-4542-9ce3-6a7a731d9758"},"vehicle_type_id":"4","last_reported":1713812779,"current_range_meters":20000,"station_id":"ce4bgph2rcd13ifvqc2g","pricing_plan_id":"cebpf4jnsgd1na2vs0mg"},{"bike_id":"43e8387d-cf07-4dfd-9df1-e555e1be26bb","system_id":"levelo_inurba_marseille","lat":43.29573,"lon":5.367355,"is_reserved":false,"is_disabled":false,"rental_uris":{"android":"levelo://app?vid=43e8387d-cf07-4dfd-9df1-e555e1be26bb","ios":"levelo://app?vid=43e8387d-cf07-4dfd-9df1-e555e1be26bb"},"vehicle_type_id":"4","last_reported":1713812779,"current_range_meters":25600,"station_id":"ce4bgph2rcd13ifvqc2g","pricing_plan_id":"cebpf4jnsgd1na2vs0mg"},{"bike_id":"14f5ee4d-4337-4572-9327-1ba92ef57ed4","system_id":"levelo_inurba_marseille","lat":43.296921,"lon":5.376579,"is_reserved":false,"is_disabled":false,"rental_uris":{"android":"levelo://app?vid=14f5ee4d-4337-4572-9327-1ba92ef57ed4","ios":"levelo://app?vid=14f5ee4d-4337-4572-9327-1ba92ef57ed4"},"vehicle_type_id":"4","last_reported":1713812779,"current_range_meters":7200,"station_id":"ce4bgkh2rcd13ifvqbl0","pricing_plan_id":"cebpf4jnsgd1na2vs0mg"},{"bike_id":"6ea43500-1541-4425-8b7c-c7a208ace589","system_id":"levelo_inurba_marseille","lat":43.299028,"lon":5.381509,"is_reserved":false,"is_disabled":false,"rental_uris":{"android":"levelo://app?vid=6ea43500-1541-4425-8b7c-c7a208ace589","ios":"levelo://app?vid=6ea43500-1541-4425-8b7c-c7a208ace589"},"vehicle_type_id":"4","last_reported":1713812779,"current_range_meters":25200,"station_id":"ce4bgj12rcd13ifvqbc0","pricing_plan_id":"cebpf4jnsgd1na2vs0mg"},{"bike_id":"72bbed4a-a485-413a-aacb-c8ec38fdd611","system_id":"levelo_inurba_marseille","lat":43.299028,"lon":5.381509,"is_reserved":false,"is_disabled":false,"rental_uris":{"android":"levelo://app?vid=72bbed4a-a485-413a-aacb-c8ec38fdd611","ios":"levelo://app?vid=72bbed4a-a485-413a-aacb-c8ec38fdd611"},"vehicle_type_id":"4","last_reported":1713812779,"current_range_meters":8000,"station_id":"ce4bgj12rcd13ifvqbc0","pricing_plan_id":"cebpf4jnsgd1na2vs0mg"},{"bike_id":"01602c2a-a4b9-4418-a4b6-1c8aa616bc93","system_id":"levelo_inurba_marseille","lat":43.317557,"lon":5.390173,"is_reserved":false,"is_disabled":false,"rental_uris":{"android":"levelo://app?vid=01602c2a-a4b9-4418-a4b6-1c8aa616bc93","ios":"levelo://app?vid=01602c2a-a4b9-4418-a4b6-1c8aa616bc93"},"vehicle_type_id":"4","last_reported":1713812779,"current_range_meters":800,"station_id":"ce4bhqp2rcd13ifvqhng","pricing_plan_id":"cebpf4jnsgd1na2vs0mg"},{"bike_id":"95344211-cbfe-4331-8763-c545929e7e8e","system_id":"levelo_inurba_marseille","lat":43.317557,"lon":5.390173,"is_reserved":false,"is_disabled":false,"rental_uris":{"android":"levelo://app?vid=95344211-cbfe-4331-8763-c545929e7e8e","ios":"levelo://app?vid=95344211-cbfe-4331-8763-c545929e7e8e"},"vehicle_type_id":"4","last_reported":1713812779,"current_range_meters":2000,"station_id":"ce4bhqp2rcd13ifvqhng","pricing_plan_id":"cebpf4jnsgd1na2vs0mg"},{"bike_id":"11246085-2ea5-4b58-b2e0-7e774ac54885","system_id":"levelo_inurba_marseille","lat":43.317557,"lon":5.390173,"is_reserved":false,"is_disabled":false,"rental_uris":{"android":"levelo://app?vid=11246085-2ea5-4b58-b2e0-7e774ac54885","ios":"levelo://app?vid=11246085-2ea5-4b58-b2e0-7e774ac54885"},"vehicle_type_id":"4","last_reported":1713812779,"current_range_meters":28400,"station_id":"ce4bhqp2rcd13ifvqhng","pricing_plan_id":"cebpf4jnsgd1na2vs0mg"},{"bike_id":"5e34793c-68ce-483c-ac6a-83b0cb5bfac7","system_id":"levelo_inurba_marseille","lat":43.31753,"lon":5.39019,"is_reserved":false,"is_disabled":false,"rental_uris":{"android":"levelo://app?vid=5e34793c-68ce-483c-ac6a-83b0cb5bfac7","ios":"levelo://app?vid=5e34793c-68ce-483c-ac6a-83b0cb5bfac7"},"vehicle_type_id":"4","last_reported":1713812779,"current_range_meters":800,"station_id":"ce4bhqp2rcd13ifvqhng","pricing_plan_id":"cebpf4jnsgd1na2vs0mg"},{"bike_id":"e5e96777-b58d-4c12-a702-ce4e38968387","system_id":"levelo_inurba_marseille","lat":43.317557,"lon":5.390173,"is_reserved":false,"is_disabled":false,"rental_uris":{"android":"levelo://app?vid=e5e96777-b58d-4c12-a702-ce4e38968387","ios":"levelo://app?vid=e5e96777-b58d-4c12-a702-ce4e38968387"},"vehicle_type_id":"4","last_reported":1713812779,"current_range_meters":19200,"station_id":"ce4bhqp2rcd13ifvqhng","pricing_plan_id":"cebpf4jnsgd1na2vs0mg"},{"bike_id":"6af630f2-0740-4517-8c50-5a591d219236","system_id":"levelo_inurba_marseille","lat":43.317557,"lon":5.390173,"is_reserved":false,"is_disabled":false,"rental_uris":{"android":"levelo://app?vid=6af630f2-0740-4517-8c50-5a591d219236","ios":"levelo://app?vid=6af630f2-0740-4517-8c50-5a591d219236"},"vehicle_type_id":"4","last_reported":1713812779,"current_range_meters":16400,"station_id":"ce4bhqp2rcd13ifvqhng","pricing_plan_id":"cebpf4jnsgd1na2vs0mg"},{"bike_id":"500be5b9-370c-4a43-9012-a490e0e0e229","system_id":"levelo_inurba_marseille","lat":43.317557,"lon":5.390173,"is_reserved":false,"is_disabled":false,"rental_uris":{"android":"levelo://app?vid=500be5b9-370c-4a43-9012-a490e0e0e229","ios":"levelo://app?vid=500be5b9-370c-4a43-9012-a490e0e0e229"},"vehicle_type_id":"4","last_reported":1713812779,"current_range_meters":18000,"station_id":"ce4bhqp2rcd13ifvqhng","pricing_plan_id":"cebpf4jnsgd1na2vs0mg"},{"bike_id":"6d156540-28be-441b-be24-d4f7844984f2","system_id":"levelo_inurba_marseille","lat":43.317557,"lon":5.390173,"is_reserved":false,"is_disabled":false,"rental_uris":{"android":"levelo://app?vid=6d156540-28be-441b-be24-d4f7844984f2","ios":"levelo://app?vid=6d156540-28be-441b-be24-d4f7844984f2"},"vehicle_type_id":"4","last_reported":1713812779,"current_range_meters":7600,"station_id":"ce4bhqp2rcd13ifvqhng","pricing_plan_id":"cebpf4jnsgd1na2vs0mg"},{"bike_id":"e193cec9-2177-492f-9293-ade10b674bdb","system_id":"levelo_inurba_marseille","lat":43.295748,"lon":5.37522,"is_reserved":false,"is_disabled":false,"rental_uris":{"android":"levelo://app?vid=e193cec9-2177-492f-9293-ade10b674bdb","ios":"levelo://app?vid=e193cec9-2177-492f-9293-ade10b674bdb"},"vehicle_type_id":"4","last_reported":1713812779,"current_range_meters":27200,"station_id":"ce4bgh92rcd13ifvqb50","pricing_plan_id":"cebpf4jnsgd1na2vs0mg"},{"bike_id":"dbab2565-1b53-472f-aa77-0a31d75349d0","system_id":"levelo_inurba_marseille","lat":43.298037,"lon":5.381066,"is_reserved":false,"is_disabled":false,"rental_uris":{"android":"levelo://app?vid=dbab2565-1b53-472f-aa77-0a31d75349d0","ios":"levelo://app?vid=dbab2565-1b53-472f-aa77-0a31d75349d0"},"vehicle_type_id":"4","last_reported":1713812779,"current_range_meters":12800,"station_id":"ce4bgip2rcd13ifvqbb0","pricing_plan_id":"cebpf4jnsgd1na2vs0mg"},{"bike_id":"4d036b24-f1b9-4146-93c0-896f1ff1a13e","system_id":"levelo_inurba_marseille","lat":43.298037,"lon":5.381066,"is_reserved":false,"is_disabled":false,"rental_uris":{"android":"levelo://app?vid=4d036b24-f1b9-4146-93c0-896f1ff1a13e","ios":"levelo://app?vid=4d036b24-f1b9-4146-93c0-896f1ff1a13e"},"vehicle_type_id":"4","last_reported":1713812779,"current_range_meters":14800,"station_id":"ce4bgip2rcd13ifvqbb0","pricing_plan_id":"cebpf4jnsgd1na2vs0mg"},{"bike_id":"6965feda-4072-440b-90ac-71fbc425b5c2","system_id":"levelo_inurba_marseille","lat":43.304278,"lon":5.388868,"is_reserved":false,"is_disabled":false,"rental_uris":{"android":"levelo://app?vid=6965feda-4072-440b-90ac-71fbc425b5c2","ios":"levelo://app?vid=6965feda-4072-440b-90ac-71fbc425b5c2"},"vehicle_type_id":"4","last_reported":1713812779,"current_range_meters":23600,"station_id":"ce4bgk12rcd13ifvqbi0","pricing_plan_id":"cebpf4jnsgd1na2vs0mg"},{"bike_id":"ce09a7cc-64c6-4bc0-a0da-d5fee97014b3","system_id":"levelo_inurba_marseille","lat":43.304278,"lon":5.388868,"is_reserved":false,"is_disabled":false,"rental_uris":{"android":"levelo://app?vid=ce09a7cc-64c6-4bc0-a0da-d5fee97014b3","ios":"levelo://app?vid=ce09a7cc-64c6-4bc0-a0da-d5fee97014b3"},"vehicle_type_id":"4","last_reported":1713812779,"current_range_meters":10800,"station_id":"ce4bgk12rcd13ifvqbi0","pricing_plan_id":"cebpf4jnsgd1na2vs0mg"},{"bike_id":"5e5ec5d4-2f35-4d85-a98b-f3fa72410f05","system_id":"levelo_inurba_marseille","lat":43.30434,"lon":5.38889,"is_reserved":false,"is_disabled":false,"rental_uris":{"android":"levelo://app?vid=5e5ec5d4-2f35-4d85-a98b-f3fa72410f05","ios":"levelo://app?vid=5e5ec5d4-2f35-4d85-a98b-f3fa72410f05"},"vehicle_type_id":"4","last_reported":1713812779,"current_range_meters":17600,"station_id":"ce4bgk12rcd13ifvqbi0","pricing_plan_id":"cebpf4jnsgd1na2vs0mg"},{"bike_id":"24cc1f14-1228-447b-a81a-8ed481c71b02","system_id":"levelo_inurba_marseille","lat":43.304278,"lon":5.388868,"is_reserved":false,"is_disabled":false,"rental_uris":{"android":"levelo://app?vid=24cc1f14-1228-447b-a81a-8ed481c71b02","ios":"levelo://app?vid=24cc1f14-1228-447b-a81a-8ed481c71b02"},"vehicle_type_id":"4","last_reported":1713812779,"current_range_meters":10000,"station_id":"ce4bgk12rcd13ifvqbi0","pricing_plan_id":"cebpf4jnsgd1na2vs0mg"},{"bike_id":"3fc10532-f397-426d-8c70-d26979c8d82f","system_id":"levelo_inurba_marseille","lat":43.304278,"lon":5.388868,"is_reserved":false,"is_disabled":false,"rental_uris":{"android":"levelo://app?vid=3fc10532-f397-426d-8c70-d26979c8d82f","ios":"levelo://app?vid=3fc10532-f397-426d-8c70-d26979c8d82f"},"vehicle_type_id":"4","last_reported":1713812779,"current_range_meters":30400,"station_id":"ce4bgk12rcd13ifvqbi0","pricing_plan_id":"cebpf4jnsgd1na2vs0mg"},{"bike_id":"b37f8514-41c9-45d0-8560-04f4c255ade4","system_id":"levelo_inurba_marseille","lat":43.30432,"lon":5.388947,"is_reserved":false,"is_disabled":false,"rental_uris":{"android":"levelo://app?vid=b37f8514-41c9-45d0-8560-04f4c255ade4","ios":"levelo://app?vid=b37f8514-41c9-45d0-8560-04f4c255ade4"},"vehicle_type_id":"4","last_reported":1713812779,"current_range_meters":20400,"station_id":"ce4bgk12rcd13ifvqbi0","pricing_plan_id":"cebpf4jnsgd1na2vs0mg"},{"bike_id":"7254aba4-4d0e-435e-897b-76e01c26b132","system_id":"levelo_inurba_marseille","lat":43.296263,"lon":5.377094,"is_reserved":false,"is_disabled":false,"rental_uris":{"android":"levelo://app?vid=7254aba4-4d0e-435e-897b-76e01c26b132","ios":"levelo://app?vid=7254aba4-4d0e-435e-897b-76e01c26b132"},"vehicle_type_id":"4","last_reported":1713812779,"current_range_meters":21200,"station_id":"ce4bgi92rcd13ifvqb90","pricing_plan_id":"cebpf4jnsgd1na2vs0mg"},{"bike_id":"f684bf10-28ff-41d8-8bd0-7168c776ca03","system_id":"levelo_inurba_marseille","lat":43.296277,"lon":5.377108,"is_reserved":false,"is_disabled":false,"rental_uris":{"android":"levelo://app?vid=f684bf10-28ff-41d8-8bd0-7168c776ca03","ios":"levelo://app?vid=f684bf10-28ff-41d8-8bd0-7168c776ca03"},"vehicle_type_id":"4","last_reported":1713812779,"current_range_meters":10000,"station_id":"ce4bgi92rcd13ifvqb90","pricing_plan_id":"cebpf4jnsgd1na2vs0mg"},{"bike_id":"87fa2556-6777-49e9-bc54-30607260c114","system_id":"levelo_inurba_marseille","lat":43.299724,"lon":5.384848,"is_reserved":false,"is_disabled":false,"rental_uris":{"android":"levelo://app?vid=87fa2556-6777-49e9-bc54-30607260c114","ios":"levelo://app?vid=87fa2556-6777-49e9-bc54-30607260c114"},"vehicle_type_id":"4","last_reported":1713812779,"current_range_meters":0,"station_id":"ce4bgj92rcd13ifvqbd0","pricing_plan_id":"cebpf4jnsgd1na2vs0mg"},{"bike_id":"cdc6c4fa-a26b-4ba2-ae76-7093c10237c2","system_id":"levelo_inurba_marseille","lat":43.295279,"lon":5.375048,"is_reserved":false,"is_disabled":false,"rental_uris":{"android":"levelo://app?vid=cdc6c4fa-a26b-4ba2-ae76-7093c10237c2","ios":"levelo://app?vid=cdc6c4fa-a26b-4ba2-ae76-7093c10237c2"},"vehicle_type_id":"4","last_reported":1713812779,"current_range_meters":4800,"station_id":"ce4bgkp2rcd13ifvqbmg","pricing_plan_id":"cebpf4jnsgd1na2vs0mg"},{"bike_id":"73f79ec8-4c6a-4f53-bb4e-3d18fc90d0f3","system_id":"levelo_inurba_marseille","lat":43.299707,"lon":5.384859,"is_reserved":false,"is_disabled":false,"rental_uris":{"android":"levelo://app?vid=73f79ec8-4c6a-4f53-bb4e-3d18fc90d0f3","ios":"levelo://app?vid=73f79ec8-4c6a-4f53-bb4e-3d18fc90d0f3"},"vehicle_type_id":"4","last_reported":1713812779,"current_range_meters":3200,"station_id":"ce4bgj92rcd13ifvqbd0","pricing_plan_id":"cebpf4jnsgd1na2vs0mg"},{"bike_id":"1c752a23-7f66-49f3-b39d-5ed1981e0cd6","system_id":"levelo_inurba_marseille","lat":43.299724,"lon":5.384848,"is_reserved":false,"is_disabled":false,"rental_uris":{"android":"levelo://app?vid=1c752a23-7f66-49f3-b39d-5ed1981e0cd6","ios":"levelo://app?vid=1c752a23-7f66-49f3-b39d-5ed1981e0cd6"},"vehicle_type_id":"4","last_reported":1713812779,"current_range_meters":22800,"station_id":"ce4bgj92rcd13ifvqbd0","pricing_plan_id":"cebpf4jnsgd1na2vs0mg"},{"bike_id":"325d90a0-792b-4de9-a911-a9f919ec9897","system_id":"levelo_inurba_marseille","lat":43.299724,"lon":5.384848,"is_reserved":false,"is_disabled":false,"rental_uris":{"android":"levelo://app?vid=325d90a0-792b-4de9-a911-a9f919ec9897","ios":"levelo://app?vid=325d90a0-792b-4de9-a911-a9f919ec9897"},"vehicle_type_id":"4","last_reported":1713812779,"current_range_meters":29200,"station_id":"ce4bgj92rcd13ifvqbd0","pricing_plan_id":"cebpf4jnsgd1na2vs0mg"},{"bike_id":"b4524a4d-0232-4c80-b19e-8b39ab18b8c7","system_id":"levelo_inurba_marseille","lat":43.299724,"lon":5.384848,"is_reserved":false,"is_disabled":false,"rental_uris":{"android":"levelo://app?vid=b4524a4d-0232-4c80-b19e-8b39ab18b8c7","ios":"levelo://app?vid=b4524a4d-0232-4c80-b19e-8b39ab18b8c7"},"vehicle_type_id":"4","last_reported":1713812779,"current_range_meters":5200,"station_id":"ce4bgj92rcd13ifvqbd0","pricing_plan_id":"cebpf4jnsgd1na2vs0mg"},{"bike_id":"f93c7894-bbdc-46c1-aaa3-4f60015b7dc1","system_id":"levelo_inurba_marseille","lat":43.299717,"lon":5.384845,"is_reserved":false,"is_disabled":false,"rental_uris":{"android":"levelo://app?vid=f93c7894-bbdc-46c1-aaa3-4f60015b7dc1","ios":"levelo://app?vid=f93c7894-bbdc-46c1-aaa3-4f60015b7dc1"},"vehicle_type_id":"4","last_reported":1713812779,"current_range_meters":5200,"station_id":"ce4bgj92rcd13ifvqbd0","pricing_plan_id":"cebpf4jnsgd1na2vs0mg"},{"bike_id":"f612d0ed-9636-489d-ad10-eeb699238974","system_id":"levelo_inurba_marseille","lat":43.299717,"lon":5.384845,"is_reserved":false,"is_disabled":false,"rental_uris":{"android":"levelo://app?vid=f612d0ed-9636-489d-ad10-eeb699238974","ios":"levelo://app?vid=f612d0ed-9636-489d-ad10-eeb699238974"},"vehicle_type_id":"4","last_reported":1713812779,"current_range_meters":2400,"station_id":"ce4bgj92rcd13ifvqbd0","pricing_plan_id":"cebpf4jnsgd1na2vs0mg"},{"bike_id":"cf108709-e430-49d6-b453-3bed78158379","system_id":"levelo_inurba_marseille","lat":43.309589,"lon":5.390258,"is_reserved":false,"is_disabled":false,"rental_uris":{"android":"levelo://app?vid=cf108709-e430-49d6-b453-3bed78158379","ios":"levelo://app?vid=cf108709-e430-49d6-b453-3bed78158379"},"vehicle_type_id":"4","last_reported":1713812779,"current_range_meters":3200,"station_id":"ce4bgup2rcd13ifvqco0","pricing_plan_id":"cebpf4jnsgd1na2vs0mg"},{"bike_id":"8cbb994f-1564-40de-897f-ed9a42414af0","system_id":"levelo_inurba_marseille","lat":43.29602,"lon":5.381084,"is_reserved":false,"is_disabled":false,"rental_uris":{"android":"levelo://app?vid=8cbb994f-1564-40de-897f-ed9a42414af0","ios":"levelo://app?vid=8cbb994f-1564-40de-897f-ed9a42414af0"},"vehicle_type_id":"4","last_reported":1713812779,"current_range_meters":26800,"station_id":"ce4bgl12rcd13ifvqbo0","pricing_plan_id":"cebpf4jnsgd1na2vs0mg"},{"bike_id":"4fb23bfa-003a-4a6f-bb18-dc6e3c6c5f0c","system_id":"levelo_inurba_marseille","lat":43.29601,"lon":5.38096,"is_reserved":false,"is_disabled":false,"rental_uris":{"android":"levelo://app?vid=4fb23bfa-003a-4a6f-bb18-dc6e3c6c5f0c","ios":"levelo://app?vid=4fb23bfa-003a-4a6f-bb18-dc6e3c6c5f0c"},"vehicle_type_id":"4","last_reported":1713812779,"current_range_meters":12000,"station_id":"ce4bgl12rcd13ifvqbo0","pricing_plan_id":"cebpf4jnsgd1na2vs0mg"},{"bike_id":"53ca3e23-fe8b-46c7-bd98-bd08f69d7319","system_id":"levelo_inurba_marseille","lat":43.29604,"lon":5.38105,"is_reserved":false,"is_disabled":false,"rental_uris":{"android":"levelo://app?vid=53ca3e23-fe8b-46c7-bd98-bd08f69d7319","ios":"levelo://app?vid=53ca3e23-fe8b-46c7-bd98-bd08f69d7319"},"vehicle_type_id":"4","last_reported":1713812779,"current_range_meters":11200,"station_id":"ce4bgl12rcd13ifvqbo0","pricing_plan_id":"cebpf4jnsgd1na2vs0mg"},{"bike_id":"fed3979c-7621-431c-859d-87fe831a33e5","system_id":"levelo_inurba_marseille","lat":43.29602,"lon":5.381084,"is_reserved":false,"is_disabled":false,"rental_uris":{"android":"levelo://app?vid=fed3979c-7621-431c-859d-87fe831a33e5","ios":"levelo://app?vid=fed3979c-7621-431c-859d-87fe831a33e5"},"vehicle_type_id":"4","last_reported":1713812779,"current_range_meters":23200,"station_id":"ce4bgl12rcd13ifvqbo0","pricing_plan_id":"cebpf4jnsgd1na2vs0mg"},{"bike_id":"bc5b0b14-a1be-4c85-9101-98d6f6244812","system_id":"levelo_inurba_marseille","lat":43.29602,"lon":5.381084,"is_reserved":false,"is_disabled":false,"rental_uris":{"android":"levelo://app?vid=bc5b0b14-a1be-4c85-9101-98d6f6244812","ios":"levelo://app?vid=bc5b0b14-a1be-4c85-9101-98d6f6244812"},"vehicle_type_id":"4","last_reported":1713812779,"current_range_meters":12000,"station_id":"ce4bgl12rcd13ifvqbo0","pricing_plan_id":"cebpf4jnsgd1na2vs0mg"},{"bike_id":"81c1857c-115f-41df-a6e1-c4e077e0ff46","system_id":"levelo_inurba_marseille","lat":43.29602,"lon":5.381084,"is_reserved":false,"is_disabled":false,"rental_uris":{"android":"levelo://app?vid=81c1857c-115f-41df-a6e1-c4e077e0ff46","ios":"levelo://app?vid=81c1857c-115f-41df-a6e1-c4e077e0ff46"},"vehicle_type_id":"4","last_reported":1713812779,"current_range_meters":20400,"station_id":"ce4bgl12rcd13ifvqbo0","pricing_plan_id":"cebpf4jnsgd1na2vs0mg"},{"bike_id":"39215b93-01f5-4414-aa9a-8263e814237a","system_id":"levelo_inurba_marseille","lat":43.29602,"lon":5.381084,"is_reserved":false,"is_disabled":false,"rental_uris":{"android":"levelo://app?vid=39215b93-01f5-4414-aa9a-8263e814237a","ios":"levelo://app?vid=39215b93-01f5-4414-aa9a-8263e814237a"},"vehicle_type_id":"4","last_reported":1713812779,"current_range_meters":6400,"station_id":"ce4bgl12rcd13ifvqbo0","pricing_plan_id":"cebpf4jnsgd1na2vs0mg"},{"bike_id":"1578cf13-01c2-4b3b-9bb5-8981641df2b3","system_id":"levelo_inurba_marseille","lat":43.29602,"lon":5.381084,"is_reserved":false,"is_disabled":false,"rental_uris":{"android":"levelo://app?vid=1578cf13-01c2-4b3b-9bb5-8981641df2b3","ios":"levelo://app?vid=1578cf13-01c2-4b3b-9bb5-8981641df2b3"},"vehicle_type_id":"4","last_reported":1713812779,"current_range_meters":12800,"station_id":"ce4bgl12rcd13ifvqbo0","pricing_plan_id":"cebpf4jnsgd1na2vs0mg"},{"bike_id":"38277331-6a4d-4403-93bd-7c3d80669122","system_id":"levelo_inurba_marseille","lat":43.292871,"lon":5.368334,"is_reserved":false,"is_disabled":false,"rental_uris":{"android":"levelo://app?vid=38277331-6a4d-4403-93bd-7c3d80669122","ios":"levelo://app?vid=38277331-6a4d-4403-93bd-7c3d80669122"},"vehicle_type_id":"4","last_reported":1713812779,"current_range_meters":1600,"station_id":"ce4bhbp2rcd13ifvqesg","pricing_plan_id":"cebpf4jnsgd1na2vs0mg"},{"bike_id":"b9005e27-6177-41f3-977f-278ff0e8b17a","system_id":"levelo_inurba_marseille","lat":43.293259,"lon":5.371586,"is_reserved":false,"is_disabled":false,"rental_uris":{"android":"levelo://app?vid=b9005e27-6177-41f3-977f-278ff0e8b17a","ios":"levelo://app?vid=b9005e27-6177-41f3-977f-278ff0e8b17a"},"vehicle_type_id":"4","last_reported":1713812779,"current_range_meters":800,"station_id":"ce4bgh92rcd13ifvqb40","pricing_plan_id":"cebpf4jnsgd1na2vs0mg"},{"bike_id":"cc9e9ba2-1ec4-4695-9fea-618fc793f7aa","system_id":"levelo_inurba_marseille","lat":43.293259,"lon":5.371586,"is_reserved":false,"is_disabled":false,"rental_uris":{"android":"levelo://app?vid=cc9e9ba2-1ec4-4695-9fea-618fc793f7aa","ios":"levelo://app?vid=cc9e9ba2-1ec4-4695-9fea-618fc793f7aa"},"vehicle_type_id":"4","last_reported":1713812779,"current_range_meters":5200,"station_id":"ce4bgh92rcd13ifvqb40","pricing_plan_id":"cebpf4jnsgd1na2vs0mg"},{"bike_id":"b607da3d-bfc8-43e5-88a3-922b2deccb97","system_id":"levelo_inurba_marseille","lat":43.292749,"lon":5.368398,"is_reserved":false,"is_disabled":false,"rental_uris":{"android":"levelo://app?vid=b607da3d-bfc8-43e5-88a3-922b2deccb97","ios":"levelo://app?vid=b607da3d-bfc8-43e5-88a3-922b2deccb97"},"vehicle_type_id":"4","last_reported":1713812779,"current_range_meters":26400,"station_id":"ce4bhbp2rcd13ifvqesg","pricing_plan_id":"cebpf4jnsgd1na2vs0mg"},{"bike_id":"8662fc9d-da33-4d7b-b994-86f2badcccdc","system_id":"levelo_inurba_marseille","lat":43.292749,"lon":5.368402,"is_reserved":false,"is_disabled":false,"rental_uris":{"android":"levelo://app?vid=8662fc9d-da33-4d7b-b994-86f2badcccdc","ios":"levelo://app?vid=8662fc9d-da33-4d7b-b994-86f2badcccdc"},"vehicle_type_id":"4","last_reported":1713812779,"current_range_meters":12000,"station_id":"ce4bhbp2rcd13ifvqesg","pricing_plan_id":"cebpf4jnsgd1na2vs0mg"},{"bike_id":"428a8f11-ccf0-4505-a9a3-f7985702cebd","system_id":"levelo_inurba_marseille","lat":43.29271,"lon":5.36843,"is_reserved":false,"is_disabled":false,"rental_uris":{"android":"levelo://app?vid=428a8f11-ccf0-4505-a9a3-f7985702cebd","ios":"levelo://app?vid=428a8f11-ccf0-4505-a9a3-f7985702cebd"},"vehicle_type_id":"4","last_reported":1713812779,"current_range_meters":21600,"station_id":"ce4bhbp2rcd13ifvqesg","pricing_plan_id":"cebpf4jnsgd1na2vs0mg"},{"bike_id":"329f46ce-226e-4d5e-b03b-ad2ae0760065","system_id":"levelo_inurba_marseille","lat":43.293259,"lon":5.371586,"is_reserved":false,"is_disabled":false,"rental_uris":{"android":"levelo://app?vid=329f46ce-226e-4d5e-b03b-ad2ae0760065","ios":"levelo://app?vid=329f46ce-226e-4d5e-b03b-ad2ae0760065"},"vehicle_type_id":"4","last_reported":1713812779,"current_range_meters":19200,"station_id":"ce4bgh92rcd13ifvqb40","pricing_plan_id":"cebpf4jnsgd1na2vs0mg"},{"bike_id":"65c60e1c-b564-47e7-91ad-5972f7c00556","system_id":"levelo_inurba_marseille","lat":43.305994,"lon":5.393687,"is_reserved":false,"is_disabled":false,"rental_uris":{"android":"levelo://app?vid=65c60e1c-b564-47e7-91ad-5972f7c00556","ios":"levelo://app?vid=65c60e1c-b564-47e7-91ad-5972f7c00556"},"vehicle_type_id":"4","last_reported":1713812779,"current_range_meters":23600,"station_id":"ce4bh0p2rcd13ifvqd80","pricing_plan_id":"cebpf4jnsgd1na2vs0mg"},{"bike_id":"1ec9f218-8008-4400-bd31-eedb1af51339","system_id":"levelo_inurba_marseille","lat":43.305994,"lon":5.393687,"is_reserved":false,"is_disabled":false,"rental_uris":{"android":"levelo://app?vid=1ec9f218-8008-4400-bd31-eedb1af51339","ios":"levelo://app?vid=1ec9f218-8008-4400-bd31-eedb1af51339"},"vehicle_type_id":"4","last_reported":1713812779,"current_range_meters":19200,"station_id":"ce4bh0p2rcd13ifvqd80","pricing_plan_id":"cebpf4jnsgd1na2vs0mg"},{"bike_id":"b315ad9b-9a6d-476f-8755-563caa9bc51f","system_id":"levelo_inurba_marseille","lat":43.303002,"lon":5.392142,"is_reserved":false,"is_disabled":false,"rental_uris":{"android":"levelo://app?vid=b315ad9b-9a6d-476f-8755-563caa9bc51f","ios":"levelo://app?vid=b315ad9b-9a6d-476f-8755-563caa9bc51f"},"vehicle_type_id":"4","last_reported":1713812779,"current_range_meters":0,"station_id":"ce4bgkh2rcd13ifvqbk0","pricing_plan_id":"cebpf4jnsgd1na2vs0mg"},{"bike_id":"00c7e54d-391a-4c96-a543-eebd0aa0e0d4","system_id":"levelo_inurba_marseille","lat":43.303002,"lon":5.392142,"is_reserved":false,"is_disabled":false,"rental_uris":{"android":"levelo://app?vid=00c7e54d-391a-4c96-a543-eebd0aa0e0d4","ios":"levelo://app?vid=00c7e54d-391a-4c96-a543-eebd0aa0e0d4"},"vehicle_type_id":"4","last_reported":1713812779,"current_range_meters":12400,"station_id":"ce4bgkh2rcd13ifvqbk0","pricing_plan_id":"cebpf4jnsgd1na2vs0mg"},{"bike_id":"ad1ad587-14ff-4ee9-8640-3cae3b71893a","system_id":"levelo_inurba_marseille","lat":43.303002,"lon":5.392142,"is_reserved":false,"is_disabled":false,"rental_uris":{"android":"levelo://app?vid=ad1ad587-14ff-4ee9-8640-3cae3b71893a","ios":"levelo://app?vid=ad1ad587-14ff-4ee9-8640-3cae3b71893a"},"vehicle_type_id":"4","last_reported":1713812779,"current_range_meters":6000,"station_id":"ce4bgkh2rcd13ifvqbk0","pricing_plan_id":"cebpf4jnsgd1na2vs0mg"},{"bike_id":"8db8589a-fe99-4b56-ba77-79f98cc3342b","system_id":"levelo_inurba_marseille","lat":43.303002,"lon":5.392142,"is_reserved":false,"is_disabled":false,"rental_uris":{"android":"levelo://app?vid=8db8589a-fe99-4b56-ba77-79f98cc3342b","ios":"levelo://app?vid=8db8589a-fe99-4b56-ba77-79f98cc3342b"},"vehicle_type_id":"4","last_reported":1713812779,"current_range_meters":10000,"station_id":"ce4bgkh2rcd13ifvqbk0","pricing_plan_id":"cebpf4jnsgd1na2vs0mg"},{"bike_id":"e88cfc0c-dff0-4b9b-ae56-4ff0c168382f","system_id":"levelo_inurba_marseille","lat":43.2936,"lon":5.37835,"is_reserved":false,"is_disabled":false,"rental_uris":{"android":"levelo://app?vid=e88cfc0c-dff0-4b9b-ae56-4ff0c168382f","ios":"levelo://app?vid=e88cfc0c-dff0-4b9b-ae56-4ff0c168382f"},"vehicle_type_id":"4","last_reported":1713812779,"current_range_meters":9200,"station_id":"ce4bgjh2rcd13ifvqbf0","pricing_plan_id":"cebpf4jnsgd1na2vs0mg"},{"bike_id":"80a66af7-df3b-4735-85de-f0dd031150fb","system_id":"levelo_inurba_marseille","lat":43.302992,"lon":5.392136,"is_reserved":false,"is_disabled":false,"rental_uris":{"android":"levelo://app?vid=80a66af7-df3b-4735-85de-f0dd031150fb","ios":"levelo://app?vid=80a66af7-df3b-4735-85de-f0dd031150fb"},"vehicle_type_id":"4","last_reported":1713812779,"current_range_meters":23200,"station_id":"ce4bgkh2rcd13ifvqbk0","pricing_plan_id":"cebpf4jnsgd1na2vs0mg"},{"bike_id":"7130163a-b2ab-4e2e-86f9-0398214ed2a5","system_id":"levelo_inurba_marseille","lat":43.2936,"lon":5.37835,"is_reserved":false,"is_disabled":false,"rental_uris":{"android":"levelo://app?vid=7130163a-b2ab-4e2e-86f9-0398214ed2a5","ios":"levelo://app?vid=7130163a-b2ab-4e2e-86f9-0398214ed2a5"},"vehicle_type_id":"4","last_reported":1713812779,"current_range_meters":0,"station_id":"ce4bgjh2rcd13ifvqbf0","pricing_plan_id":"cebpf4jnsgd1na2vs0mg"},{"bike_id":"2acc8d06-e0cc-48ee-b8fb-af1fe12ceffa","system_id":"levelo_inurba_marseille","lat":43.302992,"lon":5.392136,"is_reserved":false,"is_disabled":false,"rental_uris":{"android":"levelo://app?vid=2acc8d06-e0cc-48ee-b8fb-af1fe12ceffa","ios":"levelo://app?vid=2acc8d06-e0cc-48ee-b8fb-af1fe12ceffa"},"vehicle_type_id":"4","last_reported":1713812779,"current_range_meters":30400,"station_id":"ce4bgkh2rcd13ifvqbk0","pricing_plan_id":"cebpf4jnsgd1na2vs0mg"},{"bike_id":"46f80415-8b26-4cc9-94ca-3376583f72cc","system_id":"levelo_inurba_marseille","lat":43.292311,"lon":5.360731,"is_reserved":false,"is_disabled":false,"rental_uris":{"android":"levelo://app?vid=46f80415-8b26-4cc9-94ca-3376583f72cc","ios":"levelo://app?vid=46f80415-8b26-4cc9-94ca-3376583f72cc"},"vehicle_type_id":"4","last_reported":1713812779,"current_range_meters":31200,"station_id":"ce4bhbh2rcd13ifvqeqg","pricing_plan_id":"cebpf4jnsgd1na2vs0mg"},{"bike_id":"4947c734-d858-488a-a451-494f736cc490","system_id":"levelo_inurba_marseille","lat":43.292311,"lon":5.360731,"is_reserved":false,"is_disabled":false,"rental_uris":{"android":"levelo://app?vid=4947c734-d858-488a-a451-494f736cc490","ios":"levelo://app?vid=4947c734-d858-488a-a451-494f736cc490"},"vehicle_type_id":"4","last_reported":1713812779,"current_range_meters":8400,"station_id":"ce4bhbh2rcd13ifvqeqg","pricing_plan_id":"cebpf4jnsgd1na2vs0mg"},{"bike_id":"d4b2af73-9a3d-4b01-a86d-81e3d5be95f5","system_id":"levelo_inurba_marseille","lat":43.300852,"lon":5.390859,"is_reserved":false,"is_disabled":false,"rental_uris":{"android":"levelo://app?vid=d4b2af73-9a3d-4b01-a86d-81e3d5be95f5","ios":"levelo://app?vid=d4b2af73-9a3d-4b01-a86d-81e3d5be95f5"},"vehicle_type_id":"4","last_reported":1713812779,"current_range_meters":24000,"station_id":"ce4bh192rcd13ifvqdb0","pricing_plan_id":"cebpf4jnsgd1na2vs0mg"},{"bike_id":"ddf0d506-77f3-4a2f-8878-66f0c7dbf28d","system_id":"levelo_inurba_marseille","lat":43.300852,"lon":5.390859,"is_reserved":false,"is_disabled":false,"rental_uris":{"android":"levelo://app?vid=ddf0d506-77f3-4a2f-8878-66f0c7dbf28d","ios":"levelo://app?vid=ddf0d506-77f3-4a2f-8878-66f0c7dbf28d"},"vehicle_type_id":"4","last_reported":1713812779,"current_range_meters":8400,"station_id":"ce4bh192rcd13ifvqdb0","pricing_plan_id":"cebpf4jnsgd1na2vs0mg"},{"bike_id":"8eb5a9d6-9e6b-4e4f-9d88-04cfbca5fd37","system_id":"levelo_inurba_marseille","lat":43.292311,"lon":5.360731,"is_reserved":false,"is_disabled":false,"rental_uris":{"android":"levelo://app?vid=8eb5a9d6-9e6b-4e4f-9d88-04cfbca5fd37","ios":"levelo://app?vid=8eb5a9d6-9e6b-4e4f-9d88-04cfbca5fd37"},"vehicle_type_id":"4","last_reported":1713812779,"current_range_meters":14400,"station_id":"ce4bhbh2rcd13ifvqeqg","pricing_plan_id":"cebpf4jnsgd1na2vs0mg"},{"bike_id":"0545cb67-7bdc-487e-963c-2ea1226b5379","system_id":"levelo_inurba_marseille","lat":43.292311,"lon":5.360731,"is_reserved":false,"is_disabled":false,"rental_uris":{"android":"levelo://app?vid=0545cb67-7bdc-487e-963c-2ea1226b5379","ios":"levelo://app?vid=0545cb67-7bdc-487e-963c-2ea1226b5379"},"vehicle_type_id":"4","last_reported":1713812779,"current_range_meters":10400,"station_id":"ce4bhbh2rcd13ifvqeqg","pricing_plan_id":"cebpf4jnsgd1na2vs0mg"},{"bike_id":"ade1c4fe-f587-43fe-8d98-c2d7c9c559dc","system_id":"levelo_inurba_marseille","lat":43.292311,"lon":5.360731,"is_reserved":false,"is_disabled":false,"rental_uris":{"android":"levelo://app?vid=ade1c4fe-f587-43fe-8d98-c2d7c9c559dc","ios":"levelo://app?vid=ade1c4fe-f587-43fe-8d98-c2d7c9c559dc"},"vehicle_type_id":"4","last_reported":1713812779,"current_range_meters":31200,"station_id":"ce4bhbh2rcd13ifvqeqg","pricing_plan_id":"cebpf4jnsgd1na2vs0mg"},{"bike_id":"aedd9d1b-5b45-40ed-8a37-f74d73ffe4dc","system_id":"levelo_inurba_marseille","lat":43.300852,"lon":5.390859,"is_reserved":false,"is_disabled":false,"rental_uris":{"android":"levelo://app?vid=aedd9d1b-5b45-40ed-8a37-f74d73ffe4dc","ios":"levelo://app?vid=aedd9d1b-5b45-40ed-8a37-f74d73ffe4dc"},"vehicle_type_id":"4","last_reported":1713812779,"current_range_meters":18000,"station_id":"ce4bh192rcd13ifvqdb0","pricing_plan_id":"cebpf4jnsgd1na2vs0mg"},{"bike_id":"6350c165-805b-4524-894b-4e5a9562c3ef","system_id":"levelo_inurba_marseille","lat":43.300852,"lon":5.390859,"is_reserved":false,"is_disabled":false,"rental_uris":{"android":"levelo://app?vid=6350c165-805b-4524-894b-4e5a9562c3ef","ios":"levelo://app?vid=6350c165-805b-4524-894b-4e5a9562c3ef"},"vehicle_type_id":"4","last_reported":1713812779,"current_range_meters":20800,"station_id":"ce4bh192rcd13ifvqdb0","pricing_plan_id":"cebpf4jnsgd1na2vs0mg"},{"bike_id":"409c2318-8b01-4fec-aeb6-c8adba8cf1c7","system_id":"levelo_inurba_marseille","lat":43.292311,"lon":5.360731,"is_reserved":false,"is_disabled":false,"rental_uris":{"android":"levelo://app?vid=409c2318-8b01-4fec-aeb6-c8adba8cf1c7","ios":"levelo://app?vid=409c2318-8b01-4fec-aeb6-c8adba8cf1c7"},"vehicle_type_id":"4","last_reported":1713812779,"current_range_meters":28400,"station_id":"ce4bhbh2rcd13ifvqeqg","pricing_plan_id":"cebpf4jnsgd1na2vs0mg"},{"bike_id":"cfa0e6fc-6600-4e6f-a5e6-b2cb4a3b7dec","system_id":"levelo_inurba_marseille","lat":43.300852,"lon":5.390859,"is_reserved":false,"is_disabled":false,"rental_uris":{"android":"levelo://app?vid=cfa0e6fc-6600-4e6f-a5e6-b2cb4a3b7dec","ios":"levelo://app?vid=cfa0e6fc-6600-4e6f-a5e6-b2cb4a3b7dec"},"vehicle_type_id":"4","last_reported":1713812779,"current_range_meters":12400,"station_id":"ce4bh192rcd13ifvqdb0","pricing_plan_id":"cebpf4jnsgd1na2vs0mg"},{"bike_id":"79d3ffd9-3332-452e-8618-d656bb6b26a0","system_id":"levelo_inurba_marseille","lat":43.300852,"lon":5.390859,"is_reserved":false,"is_disabled":false,"rental_uris":{"android":"levelo://app?vid=79d3ffd9-3332-452e-8618-d656bb6b26a0","ios":"levelo://app?vid=79d3ffd9-3332-452e-8618-d656bb6b26a0"},"vehicle_type_id":"4","last_reported":1713812779,"current_range_meters":20800,"station_id":"ce4bh192rcd13ifvqdb0","pricing_plan_id":"cebpf4jnsgd1na2vs0mg"},{"bike_id":"9b1ccdad-f419-4bf8-974e-22677719bbb4","system_id":"levelo_inurba_marseille","lat":43.292311,"lon":5.360731,"is_reserved":false,"is_disabled":false,"rental_uris":{"android":"levelo://app?vid=9b1ccdad-f419-4bf8-974e-22677719bbb4","ios":"levelo://app?vid=9b1ccdad-f419-4bf8-974e-22677719bbb4"},"vehicle_type_id":"4","last_reported":1713812779,"current_range_meters":31200,"station_id":"ce4bhbh2rcd13ifvqeqg","pricing_plan_id":"cebpf4jnsgd1na2vs0mg"},{"bike_id":"8f735605-e8cb-4490-b7b2-9d5e0967228c","system_id":"levelo_inurba_marseille","lat":43.298764,"lon":5.388973,"is_reserved":false,"is_disabled":false,"rental_uris":{"android":"levelo://app?vid=8f735605-e8cb-4490-b7b2-9d5e0967228c","ios":"levelo://app?vid=8f735605-e8cb-4490-b7b2-9d5e0967228c"},"vehicle_type_id":"4","last_reported":1713812779,"current_range_meters":5200,"station_id":"ce4bh392rcd13ifvqdl0","pricing_plan_id":"cebpf4jnsgd1na2vs0mg"},{"bike_id":"19e4604c-3c15-4bb7-bdf0-45109e85a0db","system_id":"levelo_inurba_marseille","lat":43.298764,"lon":5.388973,"is_reserved":false,"is_disabled":false,"rental_uris":{"android":"levelo://app?vid=19e4604c-3c15-4bb7-bdf0-45109e85a0db","ios":"levelo://app?vid=19e4604c-3c15-4bb7-bdf0-45109e85a0db"},"vehicle_type_id":"4","last_reported":1713812779,"current_range_meters":2000,"station_id":"ce4bh392rcd13ifvqdl0","pricing_plan_id":"cebpf4jnsgd1na2vs0mg"},{"bike_id":"932e461c-6bff-4c19-b9fd-2b3901f50c56","system_id":"levelo_inurba_marseille","lat":43.305994,"lon":5.393687,"is_reserved":false,"is_disabled":false,"rental_uris":{"android":"levelo://app?vid=932e461c-6bff-4c19-b9fd-2b3901f50c56","ios":"levelo://app?vid=932e461c-6bff-4c19-b9fd-2b3901f50c56"},"vehicle_type_id":"4","last_reported":1713812779,"current_range_meters":7600,"station_id":"ce4bh0p2rcd13ifvqd80","pricing_plan_id":"cebpf4jnsgd1na2vs0mg"},{"bike_id":"f563b70c-4252-4ce5-b0f2-340d01af7e4c","system_id":"levelo_inurba_marseille","lat":43.298764,"lon":5.388973,"is_reserved":false,"is_disabled":false,"rental_uris":{"android":"levelo://app?vid=f563b70c-4252-4ce5-b0f2-340d01af7e4c","ios":"levelo://app?vid=f563b70c-4252-4ce5-b0f2-340d01af7e4c"},"vehicle_type_id":"4","last_reported":1713812779,"current_range_meters":14000,"station_id":"ce4bh392rcd13ifvqdl0","pricing_plan_id":"cebpf4jnsgd1na2vs0mg"},{"bike_id":"cfc104ec-7e83-44fa-9395-e670234220fc","system_id":"levelo_inurba_marseille","lat":43.298764,"lon":5.388973,"is_reserved":false,"is_disabled":false,"rental_uris":{"android":"levelo://app?vid=cfc104ec-7e83-44fa-9395-e670234220fc","ios":"levelo://app?vid=cfc104ec-7e83-44fa-9395-e670234220fc"},"vehicle_type_id":"4","last_reported":1713812779,"current_range_meters":25600,"station_id":"ce4bh392rcd13ifvqdl0","pricing_plan_id":"cebpf4jnsgd1na2vs0mg"},{"bike_id":"b7df4546-baac-4ff6-8171-310806c5313c","system_id":"levelo_inurba_marseille","lat":43.298764,"lon":5.388973,"is_reserved":false,"is_disabled":false,"rental_uris":{"android":"levelo://app?vid=b7df4546-baac-4ff6-8171-310806c5313c","ios":"levelo://app?vid=b7df4546-baac-4ff6-8171-310806c5313c"},"vehicle_type_id":"4","last_reported":1713812779,"current_range_meters":0,"station_id":"ce4bh392rcd13ifvqdl0","pricing_plan_id":"cebpf4jnsgd1na2vs0mg"},{"bike_id":"5becfba2-544a-4552-8201-2d3f88bef667","system_id":"levelo_inurba_marseille","lat":43.298764,"lon":5.388973,"is_reserved":false,"is_disabled":false,"rental_uris":{"android":"levelo://app?vid=5becfba2-544a-4552-8201-2d3f88bef667","ios":"levelo://app?vid=5becfba2-544a-4552-8201-2d3f88bef667"},"vehicle_type_id":"4","last_reported":1713812779,"current_range_meters":21600,"station_id":"ce4bh392rcd13ifvqdl0","pricing_plan_id":"cebpf4jnsgd1na2vs0mg"},{"bike_id":"ec1daf2d-6015-4201-808b-0cf002992282","system_id":"levelo_inurba_marseille","lat":43.29885,"lon":5.38909,"is_reserved":false,"is_disabled":false,"rental_uris":{"android":"levelo://app?vid=ec1daf2d-6015-4201-808b-0cf002992282","ios":"levelo://app?vid=ec1daf2d-6015-4201-808b-0cf002992282"},"vehicle_type_id":"4","last_reported":1713812779,"current_range_meters":0,"station_id":"ce4bh392rcd13ifvqdl0","pricing_plan_id":"cebpf4jnsgd1na2vs0mg"},{"bike_id":"eda12945-f4f0-4453-9f72-fc5f48b025bb","system_id":"levelo_inurba_marseille","lat":43.298764,"lon":5.388973,"is_reserved":false,"is_disabled":false,"rental_uris":{"android":"levelo://app?vid=eda12945-f4f0-4453-9f72-fc5f48b025bb","ios":"levelo://app?vid=eda12945-f4f0-4453-9f72-fc5f48b025bb"},"vehicle_type_id":"4","last_reported":1713812779,"current_range_meters":30400,"station_id":"ce4bh392rcd13ifvqdl0","pricing_plan_id":"cebpf4jnsgd1na2vs0mg"},{"bike_id":"d1437bb2-4748-488f-84a1-087801b9c4b1","system_id":"levelo_inurba_marseille","lat":43.292311,"lon":5.360731,"is_reserved":false,"is_disabled":false,"rental_uris":{"android":"levelo://app?vid=d1437bb2-4748-488f-84a1-087801b9c4b1","ios":"levelo://app?vid=d1437bb2-4748-488f-84a1-087801b9c4b1"},"vehicle_type_id":"4","last_reported":1713812779,"current_range_meters":10400,"station_id":"ce4bhbh2rcd13ifvqeqg","pricing_plan_id":"cebpf4jnsgd1na2vs0mg"},{"bike_id":"c094f232-1acc-426a-bb3b-2bca148e5c94","system_id":"levelo_inurba_marseille","lat":43.298764,"lon":5.388973,"is_reserved":false,"is_disabled":false,"rental_uris":{"android":"levelo://app?vid=c094f232-1acc-426a-bb3b-2bca148e5c94","ios":"levelo://app?vid=c094f232-1acc-426a-bb3b-2bca148e5c94"},"vehicle_type_id":"4","last_reported":1713812779,"current_range_meters":14400,"station_id":"ce4bh392rcd13ifvqdl0","pricing_plan_id":"cebpf4jnsgd1na2vs0mg"},{"bike_id":"9d2e3e02-189b-4e75-a2e8-46c08345821e","system_id":"levelo_inurba_marseille","lat":43.298764,"lon":5.388973,"is_reserved":false,"is_disabled":false,"rental_uris":{"android":"levelo://app?vid=9d2e3e02-189b-4e75-a2e8-46c08345821e","ios":"levelo://app?vid=9d2e3e02-189b-4e75-a2e8-46c08345821e"},"vehicle_type_id":"4","last_reported":1713812779,"current_range_meters":7200,"station_id":"ce4bh392rcd13ifvqdl0","pricing_plan_id":"cebpf4jnsgd1na2vs0mg"},{"bike_id":"c7c65489-8486-4f60-a3d1-084deffd4b60","system_id":"levelo_inurba_marseille","lat":43.298764,"lon":5.388973,"is_reserved":false,"is_disabled":false,"rental_uris":{"android":"levelo://app?vid=c7c65489-8486-4f60-a3d1-084deffd4b60","ios":"levelo://app?vid=c7c65489-8486-4f60-a3d1-084deffd4b60"},"vehicle_type_id":"4","last_reported":1713812779,"current_range_meters":0,"station_id":"ce4bh392rcd13ifvqdl0","pricing_plan_id":"cebpf4jnsgd1na2vs0mg"},{"bike_id":"53b0e129-cf05-4059-b3b7-47df5a5e1cba","system_id":"levelo_inurba_marseille","lat":43.298764,"lon":5.388973,"is_reserved":false,"is_disabled":false,"rental_uris":{"android":"levelo://app?vid=53b0e129-cf05-4059-b3b7-47df5a5e1cba","ios":"levelo://app?vid=53b0e129-cf05-4059-b3b7-47df5a5e1cba"},"vehicle_type_id":"4","last_reported":1713812779,"current_range_meters":30400,"station_id":"ce4bh392rcd13ifvqdl0","pricing_plan_id":"cebpf4jnsgd1na2vs0mg"},{"bike_id":"6efce0b7-a6e5-4e3f-90d6-0a45b465c914","system_id":"levelo_inurba_marseille","lat":43.30299,"lon":5.39342,"is_reserved":false,"is_disabled":false,"rental_uris":{"android":"levelo://app?vid=6efce0b7-a6e5-4e3f-90d6-0a45b465c914","ios":"levelo://app?vid=6efce0b7-a6e5-4e3f-90d6-0a45b465c914"},"vehicle_type_id":"4","last_reported":1713812779,"current_range_meters":0,"station_id":"ce4bh012rcd13ifvqcv0","pricing_plan_id":"cebpf4jnsgd1na2vs0mg"},{"bike_id":"b873b1ac-6da7-4615-98f6-af1714efe1a7","system_id":"levelo_inurba_marseille","lat":43.292005,"lon":5.357875,"is_reserved":false,"is_disabled":false,"rental_uris":{"android":"levelo://app?vid=b873b1ac-6da7-4615-98f6-af1714efe1a7","ios":"levelo://app?vid=b873b1ac-6da7-4615-98f6-af1714efe1a7"},"vehicle_type_id":"4","last_reported":1713812779,"current_range_meters":24000,"station_id":"ce4bhb12rcd13ifvqel0","pricing_plan_id":"cebpf4jnsgd1na2vs0mg"},{"bike_id":"4d138198-ef7c-4d22-b29d-3afb05ebbab8","system_id":"levelo_inurba_marseille","lat":43.291994,"lon":5.357886,"is_reserved":false,"is_disabled":false,"rental_uris":{"android":"levelo://app?vid=4d138198-ef7c-4d22-b29d-3afb05ebbab8","ios":"levelo://app?vid=4d138198-ef7c-4d22-b29d-3afb05ebbab8"},"vehicle_type_id":"4","last_reported":1713812779,"current_range_meters":30000,"station_id":"ce4bhb12rcd13ifvqel0","pricing_plan_id":"cebpf4jnsgd1na2vs0mg"},{"bike_id":"8ca1668b-87c0-4300-8b62-8346ae23e915","system_id":"levelo_inurba_marseille","lat":43.292005,"lon":5.357875,"is_reserved":false,"is_disabled":false,"rental_uris":{"android":"levelo://app?vid=8ca1668b-87c0-4300-8b62-8346ae23e915","ios":"levelo://app?vid=8ca1668b-87c0-4300-8b62-8346ae23e915"},"vehicle_type_id":"4","last_reported":1713812779,"current_range_meters":18400,"station_id":"ce4bhb12rcd13ifvqel0","pricing_plan_id":"cebpf4jnsgd1na2vs0mg"},{"bike_id":"fdf103d3-19e6-4467-8acc-7565ab271e21","system_id":"levelo_inurba_marseille","lat":43.30889,"lon":5.39638,"is_reserved":false,"is_disabled":false,"rental_uris":{"android":"levelo://app?vid=fdf103d3-19e6-4467-8acc-7565ab271e21","ios":"levelo://app?vid=fdf103d3-19e6-4467-8acc-7565ab271e21"},"vehicle_type_id":"4","last_reported":1713812779,"current_range_meters":0,"station_id":"ce4bh012rcd13ifvqcv0","pricing_plan_id":"cebpf4jnsgd1na2vs0mg"},{"bike_id":"f5dd38a1-2246-4325-94ae-a49d31dab850","system_id":"levelo_inurba_marseille","lat":43.309038,"lon":5.396546,"is_reserved":false,"is_disabled":false,"rental_uris":{"android":"levelo://app?vid=f5dd38a1-2246-4325-94ae-a49d31dab850","ios":"levelo://app?vid=f5dd38a1-2246-4325-94ae-a49d31dab850"},"vehicle_type_id":"4","last_reported":1713812779,"current_range_meters":20000,"station_id":"ce4bh012rcd13ifvqcv0","pricing_plan_id":"cebpf4jnsgd1na2vs0mg"},{"bike_id":"543a512c-c67f-45eb-ab93-2358117ca2fd","system_id":"levelo_inurba_marseille","lat":43.313291,"lon":5.396838,"is_reserved":false,"is_disabled":false,"rental_uris":{"android":"levelo://app?vid=543a512c-c67f-45eb-ab93-2358117ca2fd","ios":"levelo://app?vid=543a512c-c67f-45eb-ab93-2358117ca2fd"},"vehicle_type_id":"4","last_reported":1713812779,"current_range_meters":20800,"station_id":"ce4bgvp2rcd13ifvqcu0","pricing_plan_id":"cebpf4jnsgd1na2vs0mg"},{"bike_id":"3164f708-d683-478a-a841-4be13c9b015e","system_id":"levelo_inurba_marseille","lat":43.313291,"lon":5.396838,"is_reserved":false,"is_disabled":false,"rental_uris":{"android":"levelo://app?vid=3164f708-d683-478a-a841-4be13c9b015e","ios":"levelo://app?vid=3164f708-d683-478a-a841-4be13c9b015e"},"vehicle_type_id":"4","last_reported":1713812779,"current_range_meters":22800,"station_id":"ce4bgvp2rcd13ifvqcu0","pricing_plan_id":"cebpf4jnsgd1na2vs0mg"},{"bike_id":"430bdb4d-6b65-4f2e-92e4-512ef52ef177","system_id":"levelo_inurba_marseille","lat":43.313291,"lon":5.396838,"is_reserved":false,"is_disabled":false,"rental_uris":{"android":"levelo://app?vid=430bdb4d-6b65-4f2e-92e4-512ef52ef177","ios":"levelo://app?vid=430bdb4d-6b65-4f2e-92e4-512ef52ef177"},"vehicle_type_id":"4","last_reported":1713812779,"current_range_meters":22400,"station_id":"ce4bgvp2rcd13ifvqcu0","pricing_plan_id":"cebpf4jnsgd1na2vs0mg"},{"bike_id":"acf70660-b535-4129-bd9c-f476b7a642f2","system_id":"levelo_inurba_marseille","lat":43.31334,"lon":5.39692,"is_reserved":false,"is_disabled":false,"rental_uris":{"android":"levelo://app?vid=acf70660-b535-4129-bd9c-f476b7a642f2","ios":"levelo://app?vid=acf70660-b535-4129-bd9c-f476b7a642f2"},"vehicle_type_id":"4","last_reported":1713812779,"current_range_meters":11600,"station_id":"ce4bgvp2rcd13ifvqcu0","pricing_plan_id":"cebpf4jnsgd1na2vs0mg"},{"bike_id":"c6c44270-f44e-4011-9e36-5b56fd688381","system_id":"levelo_inurba_marseille","lat":43.313291,"lon":5.396838,"is_reserved":false,"is_disabled":false,"rental_uris":{"android":"levelo://app?vid=c6c44270-f44e-4011-9e36-5b56fd688381","ios":"levelo://app?vid=c6c44270-f44e-4011-9e36-5b56fd688381"},"vehicle_type_id":"4","last_reported":1713812779,"current_range_meters":13600,"station_id":"ce4bgvp2rcd13ifvqcu0","pricing_plan_id":"cebpf4jnsgd1na2vs0mg"},{"bike_id":"57939d8d-f152-4244-84f4-766b3896623e","system_id":"levelo_inurba_marseille","lat":43.31332,"lon":5.39693,"is_reserved":false,"is_disabled":false,"rental_uris":{"android":"levelo://app?vid=57939d8d-f152-4244-84f4-766b3896623e","ios":"levelo://app?vid=57939d8d-f152-4244-84f4-766b3896623e"},"vehicle_type_id":"4","last_reported":1713812779,"current_range_meters":0,"station_id":"ce4bgvp2rcd13ifvqcu0","pricing_plan_id":"cebpf4jnsgd1na2vs0mg"},{"bike_id":"7cc17d6e-1627-4fa2-a565-622b7e16a0dc","system_id":"levelo_inurba_marseille","lat":43.309038,"lon":5.396546,"is_reserved":false,"is_disabled":false,"rental_uris":{"android":"levelo://app?vid=7cc17d6e-1627-4fa2-a565-622b7e16a0dc","ios":"levelo://app?vid=7cc17d6e-1627-4fa2-a565-622b7e16a0dc"},"vehicle_type_id":"4","last_reported":1713812779,"current_range_meters":27600,"station_id":"ce4bh012rcd13ifvqcv0","pricing_plan_id":"cebpf4jnsgd1na2vs0mg"},{"bike_id":"5aac2d0a-5c91-4141-90a0-584e517051f4","system_id":"levelo_inurba_marseille","lat":43.313291,"lon":5.396838,"is_reserved":false,"is_disabled":false,"rental_uris":{"android":"levelo://app?vid=5aac2d0a-5c91-4141-90a0-584e517051f4","ios":"levelo://app?vid=5aac2d0a-5c91-4141-90a0-584e517051f4"},"vehicle_type_id":"4","last_reported":1713812779,"current_range_meters":25200,"station_id":"ce4bgvp2rcd13ifvqcu0","pricing_plan_id":"cebpf4jnsgd1na2vs0mg"},{"bike_id":"1a43f498-88dd-4eed-b33d-508a8f02c184","system_id":"levelo_inurba_marseille","lat":43.313291,"lon":5.396838,"is_reserved":false,"is_disabled":false,"rental_uris":{"android":"levelo://app?vid=1a43f498-88dd-4eed-b33d-508a8f02c184","ios":"levelo://app?vid=1a43f498-88dd-4eed-b33d-508a8f02c184"},"vehicle_type_id":"4","last_reported":1713812779,"current_range_meters":26400,"station_id":"ce4bgvp2rcd13ifvqcu0","pricing_plan_id":"cebpf4jnsgd1na2vs0mg"},{"bike_id":"7ba63e03-66ca-46b0-86b7-18bfdcfcf6d2","system_id":"levelo_inurba_marseille","lat":43.309047,"lon":5.396551,"is_reserved":false,"is_disabled":false,"rental_uris":{"android":"levelo://app?vid=7ba63e03-66ca-46b0-86b7-18bfdcfcf6d2","ios":"levelo://app?vid=7ba63e03-66ca-46b0-86b7-18bfdcfcf6d2"},"vehicle_type_id":"4","last_reported":1713812779,"current_range_meters":1600,"station_id":"ce4bh012rcd13ifvqcv0","pricing_plan_id":"cebpf4jnsgd1na2vs0mg"},{"bike_id":"61130906-30b3-431e-8ab6-0086cad1849c","system_id":"levelo_inurba_marseille","lat":43.29529,"lon":5.385581,"is_reserved":false,"is_disabled":false,"rental_uris":{"android":"levelo://app?vid=61130906-30b3-431e-8ab6-0086cad1849c","ios":"levelo://app?vid=61130906-30b3-431e-8ab6-0086cad1849c"},"vehicle_type_id":"4","last_reported":1713812779,"current_range_meters":9600,"station_id":"ce4bgih2rcd13ifvqba0","pricing_plan_id":"cebpf4jnsgd1na2vs0mg"},{"bike_id":"2a0b9bb5-be31-4af3-8b59-4e0bbe14632a","system_id":"levelo_inurba_marseille","lat":43.29529,"lon":5.385581,"is_reserved":false,"is_disabled":false,"rental_uris":{"android":"levelo://app?vid=2a0b9bb5-be31-4af3-8b59-4e0bbe14632a","ios":"levelo://app?vid=2a0b9bb5-be31-4af3-8b59-4e0bbe14632a"},"vehicle_type_id":"4","last_reported":1713812779,"current_range_meters":18000,"station_id":"ce4bgih2rcd13ifvqba0","pricing_plan_id":"cebpf4jnsgd1na2vs0mg"},{"bike_id":"563e8145-56d5-42c5-83bf-9c9ec907f816","system_id":"levelo_inurba_marseille","lat":43.29529,"lon":5.385581,"is_reserved":false,"is_disabled":false,"rental_uris":{"android":"levelo://app?vid=563e8145-56d5-42c5-83bf-9c9ec907f816","ios":"levelo://app?vid=563e8145-56d5-42c5-83bf-9c9ec907f816"},"vehicle_type_id":"4","last_reported":1713812779,"current_range_meters":4800,"station_id":"ce4bgih2rcd13ifvqba0","pricing_plan_id":"cebpf4jnsgd1na2vs0mg"},{"bike_id":"cba84523-138e-4d2e-8585-b186507a7290","system_id":"levelo_inurba_marseille","lat":43.29529,"lon":5.385581,"is_reserved":false,"is_disabled":false,"rental_uris":{"android":"levelo://app?vid=cba84523-138e-4d2e-8585-b186507a7290","ios":"levelo://app?vid=cba84523-138e-4d2e-8585-b186507a7290"},"vehicle_type_id":"4","last_reported":1713812779,"current_range_meters":28400,"station_id":"ce4bgih2rcd13ifvqba0","pricing_plan_id":"cebpf4jnsgd1na2vs0mg"},{"bike_id":"f6fa3745-2fb3-482b-8939-5e42485f245a","system_id":"levelo_inurba_marseille","lat":43.29529,"lon":5.385581,"is_reserved":false,"is_disabled":false,"rental_uris":{"android":"levelo://app?vid=f6fa3745-2fb3-482b-8939-5e42485f245a","ios":"levelo://app?vid=f6fa3745-2fb3-482b-8939-5e42485f245a"},"vehicle_type_id":"4","last_reported":1713812779,"current_range_meters":6000,"station_id":"ce4bgih2rcd13ifvqba0","pricing_plan_id":"cebpf4jnsgd1na2vs0mg"},{"bike_id":"1b895de7-2d84-48df-8352-f70c2b4dfb87","system_id":"levelo_inurba_marseille","lat":43.286961,"lon":5.373785,"is_reserved":false,"is_disabled":false,"rental_uris":{"android":"levelo://app?vid=1b895de7-2d84-48df-8352-f70c2b4dfb87","ios":"levelo://app?vid=1b895de7-2d84-48df-8352-f70c2b4dfb87"},"vehicle_type_id":"4","last_reported":1713812779,"current_range_meters":18800,"station_id":"ce4bh3p2rcd13ifvqdq0","pricing_plan_id":"cebpf4jnsgd1na2vs0mg"},{"bike_id":"899a06b8-4745-4c2d-8940-442680f3ed55","system_id":"levelo_inurba_marseille","lat":43.29529,"lon":5.385581,"is_reserved":false,"is_disabled":false,"rental_uris":{"android":"levelo://app?vid=899a06b8-4745-4c2d-8940-442680f3ed55","ios":"levelo://app?vid=899a06b8-4745-4c2d-8940-442680f3ed55"},"vehicle_type_id":"4","last_reported":1713812779,"current_range_meters":15600,"station_id":"ce4bgih2rcd13ifvqba0","pricing_plan_id":"cebpf4jnsgd1na2vs0mg"},{"bike_id":"7474da02-cce3-4452-8f0a-99fa63240114","system_id":"levelo_inurba_marseille","lat":43.29529,"lon":5.385581,"is_reserved":false,"is_disabled":false,"rental_uris":{"android":"levelo://app?vid=7474da02-cce3-4452-8f0a-99fa63240114","ios":"levelo://app?vid=7474da02-cce3-4452-8f0a-99fa63240114"},"vehicle_type_id":"4","last_reported":1713812779,"current_range_meters":22400,"station_id":"ce4bgih2rcd13ifvqba0","pricing_plan_id":"cebpf4jnsgd1na2vs0mg"},{"bike_id":"73962a37-8a5f-4257-a3be-3805d9f2d260","system_id":"levelo_inurba_marseille","lat":43.29529,"lon":5.385581,"is_reserved":false,"is_disabled":false,"rental_uris":{"android":"levelo://app?vid=73962a37-8a5f-4257-a3be-3805d9f2d260","ios":"levelo://app?vid=73962a37-8a5f-4257-a3be-3805d9f2d260"},"vehicle_type_id":"4","last_reported":1713812779,"current_range_meters":16000,"station_id":"ce4bgih2rcd13ifvqba0","pricing_plan_id":"cebpf4jnsgd1na2vs0mg"},{"bike_id":"bf566e40-bde8-4c6e-9e32-90a261db2bd8","system_id":"levelo_inurba_marseille","lat":43.29529,"lon":5.385581,"is_reserved":false,"is_disabled":false,"rental_uris":{"android":"levelo://app?vid=bf566e40-bde8-4c6e-9e32-90a261db2bd8","ios":"levelo://app?vid=bf566e40-bde8-4c6e-9e32-90a261db2bd8"},"vehicle_type_id":"4","last_reported":1713812779,"current_range_meters":6400,"station_id":"ce4bgih2rcd13ifvqba0","pricing_plan_id":"cebpf4jnsgd1na2vs0mg"},{"bike_id":"d4f514ac-273e-4cb0-b6c5-b4559abc5981","system_id":"levelo_inurba_marseille","lat":43.29529,"lon":5.385581,"is_reserved":false,"is_disabled":false,"rental_uris":{"android":"levelo://app?vid=d4f514ac-273e-4cb0-b6c5-b4559abc5981","ios":"levelo://app?vid=d4f514ac-273e-4cb0-b6c5-b4559abc5981"},"vehicle_type_id":"4","last_reported":1713812779,"current_range_meters":6800,"station_id":"ce4bgih2rcd13ifvqba0","pricing_plan_id":"cebpf4jnsgd1na2vs0mg"},{"bike_id":"5ca0225f-6929-4888-b56c-24762f9488a9","system_id":"levelo_inurba_marseille","lat":43.29529,"lon":5.385581,"is_reserved":false,"is_disabled":false,"rental_uris":{"android":"levelo://app?vid=5ca0225f-6929-4888-b56c-24762f9488a9","ios":"levelo://app?vid=5ca0225f-6929-4888-b56c-24762f9488a9"},"vehicle_type_id":"4","last_reported":1713812779,"current_range_meters":11600,"station_id":"ce4bgih2rcd13ifvqba0","pricing_plan_id":"cebpf4jnsgd1na2vs0mg"},{"bike_id":"2777b68a-3fe8-4a31-9d1b-7a7c09d5880b","system_id":"levelo_inurba_marseille","lat":43.29529,"lon":5.385581,"is_reserved":false,"is_disabled":false,"rental_uris":{"android":"levelo://app?vid=2777b68a-3fe8-4a31-9d1b-7a7c09d5880b","ios":"levelo://app?vid=2777b68a-3fe8-4a31-9d1b-7a7c09d5880b"},"vehicle_type_id":"4","last_reported":1713812779,"current_range_meters":6800,"station_id":"ce4bgih2rcd13ifvqba0","pricing_plan_id":"cebpf4jnsgd1na2vs0mg"},{"bike_id":"12d06eee-d7d1-43ca-9860-c8c649d24523","system_id":"levelo_inurba_marseille","lat":43.29529,"lon":5.385581,"is_reserved":false,"is_disabled":false,"rental_uris":{"android":"levelo://app?vid=12d06eee-d7d1-43ca-9860-c8c649d24523","ios":"levelo://app?vid=12d06eee-d7d1-43ca-9860-c8c649d24523"},"vehicle_type_id":"4","last_reported":1713812779,"current_range_meters":15600,"station_id":"ce4bgih2rcd13ifvqba0","pricing_plan_id":"cebpf4jnsgd1na2vs0mg"},{"bike_id":"d997fdc8-bdc7-453a-8a71-a3dcc5ead7c7","system_id":"levelo_inurba_marseille","lat":43.29529,"lon":5.385581,"is_reserved":false,"is_disabled":false,"rental_uris":{"android":"levelo://app?vid=d997fdc8-bdc7-453a-8a71-a3dcc5ead7c7","ios":"levelo://app?vid=d997fdc8-bdc7-453a-8a71-a3dcc5ead7c7"},"vehicle_type_id":"4","last_reported":1713812779,"current_range_meters":23200,"station_id":"ce4bgih2rcd13ifvqba0","pricing_plan_id":"cebpf4jnsgd1na2vs0mg"},{"bike_id":"1fa70e5b-a652-4e45-b016-4a362a506b2f","system_id":"levelo_inurba_marseille","lat":43.29529,"lon":5.385581,"is_reserved":false,"is_disabled":false,"rental_uris":{"android":"levelo://app?vid=1fa70e5b-a652-4e45-b016-4a362a506b2f","ios":"levelo://app?vid=1fa70e5b-a652-4e45-b016-4a362a506b2f"},"vehicle_type_id":"4","last_reported":1713812779,"current_range_meters":17200,"station_id":"ce4bgih2rcd13ifvqba0","pricing_plan_id":"cebpf4jnsgd1na2vs0mg"},{"bike_id":"c152d0b5-2da7-445d-9c27-da9058a4d7d5","system_id":"levelo_inurba_marseille","lat":43.29529,"lon":5.385581,"is_reserved":false,"is_disabled":false,"rental_uris":{"android":"levelo://app?vid=c152d0b5-2da7-445d-9c27-da9058a4d7d5","ios":"levelo://app?vid=c152d0b5-2da7-445d-9c27-da9058a4d7d5"},"vehicle_type_id":"4","last_reported":1713812779,"current_range_meters":4000,"station_id":"ce4bgih2rcd13ifvqba0","pricing_plan_id":"cebpf4jnsgd1na2vs0mg"},{"bike_id":"a67a4d8b-3ccd-4571-ba3f-d926eced2209","system_id":"levelo_inurba_marseille","lat":43.29529,"lon":5.385581,"is_reserved":false,"is_disabled":false,"rental_uris":{"android":"levelo://app?vid=a67a4d8b-3ccd-4571-ba3f-d926eced2209","ios":"levelo://app?vid=a67a4d8b-3ccd-4571-ba3f-d926eced2209"},"vehicle_type_id":"4","last_reported":1713812779,"current_range_meters":20000,"station_id":"ce4bgih2rcd13ifvqba0","pricing_plan_id":"cebpf4jnsgd1na2vs0mg"},{"bike_id":"56ec0bbd-0563-4187-b938-379dee382495","system_id":"levelo_inurba_marseille","lat":43.29529,"lon":5.385581,"is_reserved":false,"is_disabled":false,"rental_uris":{"android":"levelo://app?vid=56ec0bbd-0563-4187-b938-379dee382495","ios":"levelo://app?vid=56ec0bbd-0563-4187-b938-379dee382495"},"vehicle_type_id":"4","last_reported":1713812779,"current_range_meters":20400,"station_id":"ce4bgih2rcd13ifvqba0","pricing_plan_id":"cebpf4jnsgd1na2vs0mg"},{"bike_id":"f41e0982-40af-400d-90b9-969156f8e3b1","system_id":"levelo_inurba_marseille","lat":43.29529,"lon":5.385581,"is_reserved":false,"is_disabled":false,"rental_uris":{"android":"levelo://app?vid=f41e0982-40af-400d-90b9-969156f8e3b1","ios":"levelo://app?vid=f41e0982-40af-400d-90b9-969156f8e3b1"},"vehicle_type_id":"4","last_reported":1713812779,"current_range_meters":8800,"station_id":"ce4bgih2rcd13ifvqba0","pricing_plan_id":"cebpf4jnsgd1na2vs0mg"},{"bike_id":"0499fa15-b183-4719-805f-5cf349501968","system_id":"levelo_inurba_marseille","lat":43.29529,"lon":5.385581,"is_reserved":false,"is_disabled":false,"rental_uris":{"android":"levelo://app?vid=0499fa15-b183-4719-805f-5cf349501968","ios":"levelo://app?vid=0499fa15-b183-4719-805f-5cf349501968"},"vehicle_type_id":"4","last_reported":1713812779,"current_range_meters":4800,"station_id":"ce4bgih2rcd13ifvqba0","pricing_plan_id":"cebpf4jnsgd1na2vs0mg"},{"bike_id":"6880ce84-c86c-4214-a4d9-a75413bb42ca","system_id":"levelo_inurba_marseille","lat":43.30213,"lon":5.394605,"is_reserved":false,"is_disabled":false,"rental_uris":{"android":"levelo://app?vid=6880ce84-c86c-4214-a4d9-a75413bb42ca","ios":"levelo://app?vid=6880ce84-c86c-4214-a4d9-a75413bb42ca"},"vehicle_type_id":"4","last_reported":1713812779,"current_range_meters":9200,"station_id":"ce4bh0p2rcd13ifvqd70","pricing_plan_id":"cebpf4jnsgd1na2vs0mg"},{"bike_id":"5e652336-211e-41c1-aff7-2dd9648ac264","system_id":"levelo_inurba_marseille","lat":43.302008,"lon":5.394694,"is_reserved":false,"is_disabled":false,"rental_uris":{"android":"levelo://app?vid=5e652336-211e-41c1-aff7-2dd9648ac264","ios":"levelo://app?vid=5e652336-211e-41c1-aff7-2dd9648ac264"},"vehicle_type_id":"4","last_reported":1713812779,"current_range_meters":28800,"station_id":"ce4bh0p2rcd13ifvqd70","pricing_plan_id":"cebpf4jnsgd1na2vs0mg"},{"bike_id":"f4ae150e-d9f3-4b9c-9f80-4a54f6ebc1bc","system_id":"levelo_inurba_marseille","lat":43.290624,"lon":5.359245,"is_reserved":false,"is_disabled":false,"rental_uris":{"android":"levelo://app?vid=f4ae150e-d9f3-4b9c-9f80-4a54f6ebc1bc","ios":"levelo://app?vid=f4ae150e-d9f3-4b9c-9f80-4a54f6ebc1bc"},"vehicle_type_id":"4","last_reported":1713812779,"current_range_meters":31200,"station_id":"ce4bha92rcd13ifvqeg0","pricing_plan_id":"cebpf4jnsgd1na2vs0mg"},{"bike_id":"19b23a02-734f-498c-b598-94983b64efcd","system_id":"levelo_inurba_marseille","lat":43.290624,"lon":5.359245,"is_reserved":false,"is_disabled":false,"rental_uris":{"android":"levelo://app?vid=19b23a02-734f-498c-b598-94983b64efcd","ios":"levelo://app?vid=19b23a02-734f-498c-b598-94983b64efcd"},"vehicle_type_id":"4","last_reported":1713812779,"current_range_meters":27200,"station_id":"ce4bha92rcd13ifvqeg0","pricing_plan_id":"cebpf4jnsgd1na2vs0mg"},