{"last_updated":1744678355,"ttl":60,"version":"2.2","data":{"bikes":[{"bike_id":"ae8e1f29-85bc-4c3c-997b-fc33f33f029f","system_id":"levelo_inurba_marseille","lat":43.28457,"lon":5.35882,"is_reserved":false,"is_disabled":false,"rental_uris":{"android":"levelo://app?vid=ae8e1f29-85bc-4c3c-997b-fc33f33f029f","ios":"levelo://app?vid=ae8e1f29-85bc-4c3c-997b-fc33f33f029f"},"vehicle_type_id":"4","last_reported":1744678355,"current_range_meters":2800,"station_id":"ce4bhah2rcd13ifvqei0","pricing_plan_id":"cebpf4jnsgd1na2vs0mg"},{"bike_id":"c63ed2ec-8177-467b-8581-8cb5a65609fb","system_id":"levelo_inurba_marseille","lat":43.24389,"lon":5.37051,"is_reserved":false,"is_disabled":true,"rental_uris":{"android":"levelo://app?vid=c63ed2ec-8177-467b-8581-8cb5a65609fb","ios":"levelo://app?vid=c63ed2ec-8177-467b-8581-8cb5a65609fb"},"vehicle_type_id":"4","last_reported":1744678355,"current_range_meters":2800,"station_id":"ce4bhhh2rcd13ifvqfk0","pricing_plan_id":"cebpf4jnsgd1na2vs0mg"},{"bike_id":"6db93bc8-c7a5-430b-85c6-1725072957c9","system_id":"levelo_inurba_marseille","lat":43.30051,"lon":5.37703,"is_reserved":false,"is_disabled":false,"rental_uris":{"android":"levelo://app?vid=6db93bc8-c7a5-430b-85c6-1725072957c9","ios":"levelo://app?vid=6db93bc8-c7a5-430b-85c6-1725072957c9"},"vehicle_type_id":"4","last_reported":1744678355,"current_range_meters":2800,"station_id":"","pricing_plan_id":"cebpf4jnsgd1na2vs0mg"},{"bike_id":"caffca0f-4aa3-4aaf-a020-b7190befb739","system_id":"levelo_inurba_marseille","lat":43.30139,"lon":5.3878,"is_reserved":false,"is_disabled":true,"rental_uris":{"android":"levelo://app?vid=caffca0f-4aa3-4aaf-a020-b7190befb739","ios":"levelo://app?vid=caffca0f-4aa3-4aaf-a020-b7190befb739"},"vehicle_type_id":"4","last_reported":1744678355,"current_range_meters":3200,"station_id":"ce4bghh2rcd13ifvqb60","pricing_plan_id":"cebpf4jnsgd1na2vs0mg"},{"bike_id":"c83810a8-e51a-4124-b3eb-ddba8eacd3a7","system_id":"levelo_inurba_marseille","lat":43.24071,"lon":5.37758,"is_reserved":false,"is_disabled":false,"rental_uris":{"android":"levelo://app?vid=c83810a8-e51a-4124-b3eb-ddba8eacd3a7","ios":"levelo://app?vid=c83810a8-e51a-4124-b3eb-ddba8eacd3a7"},"vehicle_type_id":"4","last_reported":1744678355,"current_range_meters":3200,"station_id":"ce4bhnp2rcd13ifvqgvg","pricing_plan_id":"cebpf4jnsgd1na2vs0mg"},{"bike_id":"baf83d6b-8d50-4670-b42c-602fb53844f2","system_id":"levelo_inurba_marseille","lat":43.30921,"lon":5.40145,"is_reserved":false,"is_disabled":false,"rental_uris":{"android":"levelo://app?vid=baf83d6b-8d50-4670-b42c-602fb53844f2","ios":"levelo://app?vid=baf83d6b-8d50-4670-b42c-602fb53844f2"},"vehicle_type_id":"4","last_reported":1744678355,"current_range_meters":3200,"station_id":"ce4bgvp2rcd13ifvqct0","pricing_plan_id":"cebpf4jnsgd1na2vs0mg"},{"bike_id":"f84d6537-7113-4639-9744-d3170677c29d","system_id":"levelo_inurba_marseille","lat":43.28466,"lon":5.35885,"is_reserved":false,"is_disabled":false,"rental_uris":{"android":"levelo://app?vid=f84d6537-7113-4639-9744-d3170677c29d","ios":"levelo://app?vid=f84d6537-7113-4639-9744-d3170677c29d"},"vehicle_type_id":"4","last_reported":1744678355,"current_range_meters":3600,"station_id":"ce4bhah2rcd13ifvqei0","pricing_plan_id":"cebpf4jnsgd1na2vs0mg"},{"bike_id":"76450c2c-888f-4d08-a5c0-d825237615aa","system_id":"levelo_inurba_marseille","lat":43.2722,"lon":5.42313,"is_reserved":false,"is_disabled":false,"rental_uris":{"android":"levelo://app?vid=76450c2c-888f-4d08-a5c0-d825237615aa","ios":"levelo://app?vid=76450c2c-888f-4d08-a5c0-d825237615aa"},"vehicle_type_id":"4","last_reported":1744678355,"current_range_meters":4000,"station_id":"","pricing_plan_id":"cebpf4jnsgd1na2vs0mg"},{"bike_id":"17637803-ed28-487c-b796-1f9bd7ef5a65","system_id":"levelo_inurba_marseille","lat":43.2306,"lon":5.35489,"is_reserved":false,"is_disabled":false,"rental_uris":{"android":"levelo://app?vid=17637803-ed28-487c-b796-1f9bd7ef5a65","ios":"levelo://app?vid=17637803-ed28-487c-b796-1f9bd7ef5a65"},"vehicle_type_id":"4","last_reported":1744678355,"current_range_meters":4000,"station_id":"cpo3342slgdg3j2ifvpg","pricing_plan_id":"cebpf4jnsgd1na2vs0mg"},{"bike_id":"01f418a6-9d3d-4b42-b963-d804fa33990b","system_id":"levelo_inurba_marseille","lat":43.28409,"lon":5.34963,"is_reserved":false,"is_disabled":false,"rental_uris":{"android":"levelo://app?vid=01f418a6-9d3d-4b42-b963-d804fa33990b","ios":"levelo://app?vid=01f418a6-9d3d-4b42-b963-d804fa33990b"},"vehicle_type_id":"4","last_reported":1744678355,"current_range_meters":4000,"station_id":"ce4bhbh2rcd13ifvqepg","pricing_plan_id":"cebpf4jnsgd1na2vs0mg"},{"bike_id":"78e5e9fc-0fc5-41fa-a1b1-617b5e4db10c","system_id":"levelo_inurba_marseille","lat":43.217529,"lon":5.345978,"is_reserved":false,"is_disabled":false,"rental_uris":{"android":"levelo://app?vid=78e5e9fc-0fc5-41fa-a1b1-617b5e4db10c","ios":"levelo://app?vid=78e5e9fc-0fc5-41fa-a1b1-617b5e4db10c"},"vehicle_type_id":"4","last_reported":1744678355,"current_range_meters":4000,"station_id":"st_cvj6r9ubvosntc0bgbag","pricing_plan_id":"cebpf4jnsgd1na2vs0mg"},{"bike_id":"2acf4c65-abd7-4a99-a435-635e0b9d0ff0","system_id":"levelo_inurba_marseille","lat":43.27049,"lon":5.40267,"is_reserved":false,"is_disabled":false,"rental_uris":{"android":"levelo://app?vid=2acf4c65-abd7-4a99-a435-635e0b9d0ff0","ios":"levelo://app?vid=2acf4c65-abd7-4a99-a435-635e0b9d0ff0"},"vehicle_type_id":"4","last_reported":1744678355,"current_range_meters":4800,"station_id":"ce4bhk92rcd13ifvqgc0","pricing_plan_id":"cebpf4jnsgd1na2vs0mg"},{"bike_id":"2f7c83e8-c28e-49f8-9393-775130069462","system_id":"levelo_inurba_marseille","lat":43.27199,"lon":5.39183,"is_reserved":false,"is_disabled":true,"rental_uris":{"android":"levelo://app?vid=2f7c83e8-c28e-49f8-9393-775130069462","ios":"levelo://app?vid=2f7c83e8-c28e-49f8-9393-775130069462"},"vehicle_type_id":"4","last_reported":1744678355,"current_range_meters":5600,"station_id":"ce4bhhp2rcd13ifvqfm0","pricing_plan_id":"cebpf4jnsgd1na2vs0mg"},{"bike_id":"f90608a1-c7a7-40b9-a224-5a7adb0bb20f","system_id":"levelo_inurba_marseille","lat":43.28487,"lon":5.38458,"is_reserved":false,"is_disabled":false,"rental_uris":{"android":"levelo://app?vid=f90608a1-c7a7-40b9-a224-5a7adb0bb20f","ios":"levelo://app?vid=f90608a1-c7a7-40b9-a224-5a7adb0bb20f"},"vehicle_type_id":"4","last_reported":1744678355,"current_range_meters":5600,"station_id":"ce4bh512rcd13ifvqe3g","pricing_plan_id":"cebpf4jnsgd1na2vs0mg"},{"bike_id":"5c75444e-1511-4f27-88e9-b00df5215a0f","system_id":"levelo_inurba_marseille","lat":43.24177,"lon":5.3973,"is_reserved":false,"is_disabled":false,"rental_uris":{"android":"levelo://app?vid=5c75444e-1511-4f27-88e9-b00df5215a0f","ios":"levelo://app?vid=5c75444e-1511-4f27-88e9-b00df5215a0f"},"vehicle_type_id":"4","last_reported":1744678355,"current_range_meters":5600,"station_id":"ce4bhn12rcd13ifvqgpg","pricing_plan_id":"cebpf4jnsgd1na2vs0mg"},{"bike_id":"88d7b2ca-2977-42e7-9bc3-f19ae12a2f71","system_id":"levelo_inurba_marseille","lat":43.283944,"lon":5.375149,"is_reserved":false,"is_disabled":false,"rental_uris":{"android":"levelo://app?vid=88d7b2ca-2977-42e7-9bc3-f19ae12a2f71","ios":"levelo://app?vid=88d7b2ca-2977-42e7-9bc3-f19ae12a2f71"},"vehicle_type_id":"4","last_reported":1744678355,"current_range_meters":5600,"station_id":"ce4bh412rcd13ifvqds0","pricing_plan_id":"cebpf4jnsgd1na2vs0mg"},{"bike_id":"515271b0-9b96-43f1-9b62-f663213b7c02","system_id":"levelo_inurba_marseille","lat":43.29043,"lon":5.35679,"is_reserved":false,"is_disabled":false,"rental_uris":{"android":"levelo://app?vid=515271b0-9b96-43f1-9b62-f663213b7c02","ios":"levelo://app?vid=515271b0-9b96-43f1-9b62-f663213b7c02"},"vehicle_type_id":"4","last_reported":1744678355,"current_range_meters":5600,"station_id":"","pricing_plan_id":"cebpf4jnsgd1na2vs0mg"},{"bike_id":"1db06f83-e2df-4c88-abff-fe3fd63cf02f","system_id":"levelo_inurba_marseille","lat":43.24558,"lon":5.39507,"is_reserved":false,"is_disabled":false,"rental_uris":{"android":"levelo://app?vid=1db06f83-e2df-4c88-abff-fe3fd63cf02f","ios":"levelo://app?vid=1db06f83-e2df-4c88-abff-fe3fd63cf02f"},"vehicle_type_id":"4","last_reported":1744678355,"current_range_meters":6000,"station_id":"ce4bhlp2rcd13ifvqgjg","pricing_plan_id":"cebpf4jnsgd1na2vs0mg"},{"bike_id":"cdefaf23-b564-4f66-ad44-d79e40a15561","system_id":"levelo_inurba_marseille","lat":43.304125,"lon":5.412808,"is_reserved":false,"is_disabled":true,"rental_uris":{"android":"levelo://app?vid=cdefaf23-b564-4f66-ad44-d79e40a15561","ios":"levelo://app?vid=cdefaf23-b564-4f66-ad44-d79e40a15561"},"vehicle_type_id":"4","last_reported":1744678355,"current_range_meters":6000,"station_id":"ce4bhop2rcd13ifvqh8g","pricing_plan_id":"cebpf4jnsgd1na2vs0mg"},{"bike_id":"48981f29-3bcb-416e-b2f0-7091b2fa2597","system_id":"levelo_inurba_marseille","lat":43.28165,"lon":5.4267,"is_reserved":false,"is_disabled":false,"rental_uris":{"android":"levelo://app?vid=48981f29-3bcb-416e-b2f0-7091b2fa2597","ios":"levelo://app?vid=48981f29-3bcb-416e-b2f0-7091b2fa2597"},"vehicle_type_id":"4","last_reported":1744678355,"current_range_meters":6000,"station_id":"ce4bhnh2rcd13ifvqgug","pricing_plan_id":"cebpf4jnsgd1na2vs0mg"},{"bike_id":"e164f831-c423-4a4c-ab46-aaa381e5dd7d","system_id":"levelo_inurba_marseille","lat":43.31091,"lon":5.37767,"is_reserved":false,"is_disabled":false,"rental_uris":{"android":"levelo://app?vid=e164f831-c423-4a4c-ab46-aaa381e5dd7d","ios":"levelo://app?vid=e164f831-c423-4a4c-ab46-aaa381e5dd7d"},"vehicle_type_id":"4","last_reported":1744678355,"current_range_meters":6400,"station_id":"ce4bgt92rcd13ifvqcg0","pricing_plan_id":"cebpf4jnsgd1na2vs0mg"},{"bike_id":"96a94ade-6c36-45c3-b9f3-3c3a0426b20d","system_id":"levelo_inurba_marseille","lat":43.28608,"lon":5.35113,"is_reserved":false,"is_disabled":false,"rental_uris":{"android":"levelo://app?vid=96a94ade-6c36-45c3-b9f3-3c3a0426b20d","ios":"levelo://app?vid=96a94ade-6c36-45c3-b9f3-3c3a0426b20d"},"vehicle_type_id":"4","last_reported":1744678355,"current_range_meters":6400,"station_id":"ce4bhch2rcd13ifvqeug","pricing_plan_id":"cebpf4jnsgd1na2vs0mg"},{"bike_id":"908a4406-d543-43dc-a517-e5c25834e9f3","system_id":"levelo_inurba_marseille","lat":43.28691,"lon":5.38668,"is_reserved":false,"is_disabled":false,"rental_uris":{"android":"levelo://app?vid=908a4406-d543-43dc-a517-e5c25834e9f3","ios":"levelo://app?vid=908a4406-d543-43dc-a517-e5c25834e9f3"},"vehicle_type_id":"4","last_reported":1744678355,"current_range_meters":6800,"station_id":"ce4bh492rcd13ifvqdug","pricing_plan_id":"cebpf4jnsgd1na2vs0mg"},{"bike_id":"bc1e941d-5514-4193-a637-cfb6de114bfa","system_id":"levelo_inurba_marseille","lat":43.25579,"lon":5.3823,"is_reserved":false,"is_disabled":false,"rental_uris":{"android":"levelo://app?vid=bc1e941d-5514-4193-a637-cfb6de114bfa","ios":"levelo://app?vid=bc1e941d-5514-4193-a637-cfb6de114bfa"},"vehicle_type_id":"4","last_reported":1744678355,"current_range_meters":6800,"station_id":"ce4bhih2rcd13ifvqfs0","pricing_plan_id":"cebpf4jnsgd1na2vs0mg"},{"bike_id":"8e257129-2fc1-4b7e-9af0-0037d9dd9fc9","system_id":"levelo_inurba_marseille","lat":43.28988,"lon":5.37605,"is_reserved":false,"is_disabled":false,"rental_uris":{"android":"levelo://app?vid=8e257129-2fc1-4b7e-9af0-0037d9dd9fc9","ios":"levelo://app?vid=8e257129-2fc1-4b7e-9af0-0037d9dd9fc9"},"vehicle_type_id":"4","last_reported":1744678355,"current_range_meters":7200,"station_id":"","pricing_plan_id":"cebpf4jnsgd1na2vs0mg"},{"bike_id":"b19c5299-cb1d-4bd6-bf45-649248c4e47f","system_id":"levelo_inurba_marseille","lat":43.262,"lon":5.37921,"is_reserved":false,"is_disabled":false,"rental_uris":{"android":"levelo://app?vid=b19c5299-cb1d-4bd6-bf45-649248c4e47f","ios":"levelo://app?vid=b19c5299-cb1d-4bd6-bf45-649248c4e47f"},"vehicle_type_id":"4","last_reported":1744678355,"current_range_meters":7200,"station_id":"ce4bhjp2rcd13ifvqg90","pricing_plan_id":"cebpf4jnsgd1na2vs0mg"},{"bike_id":"101df704-d3a4-4744-b23d-f516d37358f2","system_id":"levelo_inurba_marseille","lat":43.24172,"lon":5.397298,"is_reserved":false,"is_disabled":false,"rental_uris":{"android":"levelo://app?vid=101df704-d3a4-4744-b23d-f516d37358f2","ios":"levelo://app?vid=101df704-d3a4-4744-b23d-f516d37358f2"},"vehicle_type_id":"4","last_reported":1744678355,"current_range_meters":7200,"station_id":"ce4bhn12rcd13ifvqgpg","pricing_plan_id":"cebpf4jnsgd1na2vs0mg"},{"bike_id":"0a7cab43-9343-46f0-9a4d-34c8fb861430","system_id":"levelo_inurba_marseille","lat":43.29036,"lon":5.40054,"is_reserved":false,"is_disabled":false,"rental_uris":{"android":"levelo://app?vid=0a7cab43-9343-46f0-9a4d-34c8fb861430","ios":"levelo://app?vid=0a7cab43-9343-46f0-9a4d-34c8fb861430"},"vehicle_type_id":"4","last_reported":1744678355,"current_range_meters":7200,"station_id":"","pricing_plan_id":"cebpf4jnsgd1na2vs0mg"},{"bike_id":"e1cfb2db-9308-45d0-913f-899415789267","system_id":"levelo_inurba_marseille","lat":43.25832,"lon":5.39433,"is_reserved":false,"is_disabled":false,"rental_uris":{"android":"levelo://app?vid=e1cfb2db-9308-45d0-913f-899415789267","ios":"levelo://app?vid=e1cfb2db-9308-45d0-913f-899415789267"},"vehicle_type_id":"4","last_reported":1744678355,"current_range_meters":8000,"station_id":"ce4bhip2rcd13ifvqft0","pricing_plan_id":"cebpf4jnsgd1na2vs0mg"},{"bike_id":"509ab134-6120-4e27-96a8-d4c280f9dcae","system_id":"levelo_inurba_marseille","lat":43.28609,"lon":5.35116,"is_reserved":false,"is_disabled":false,"rental_uris":{"android":"levelo://app?vid=509ab134-6120-4e27-96a8-d4c280f9dcae","ios":"levelo://app?vid=509ab134-6120-4e27-96a8-d4c280f9dcae"},"vehicle_type_id":"4","last_reported":1744678355,"current_range_meters":8000,"station_id":"ce4bhch2rcd13ifvqeug","pricing_plan_id":"cebpf4jnsgd1na2vs0mg"},{"bike_id":"23513b38-7714-49c7-8754-f378019e100d","system_id":"levelo_inurba_marseille","lat":43.29883,"lon":5.39726,"is_reserved":false,"is_disabled":false,"rental_uris":{"android":"levelo://app?vid=23513b38-7714-49c7-8754-f378019e100d","ios":"levelo://app?vid=23513b38-7714-49c7-8754-f378019e100d"},"vehicle_type_id":"4","last_reported":1744678355,"current_range_meters":8000,"station_id":"ce4bh0h2rcd13ifvqd50","pricing_plan_id":"cebpf4jnsgd1na2vs0mg"},{"bike_id":"e8f703a1-eb3b-45ed-827d-ca43a8842bf7","system_id":"levelo_inurba_marseille","lat":43.29973,"lon":5.38508,"is_reserved":false,"is_disabled":true,"rental_uris":{"android":"levelo://app?vid=e8f703a1-eb3b-45ed-827d-ca43a8842bf7","ios":"levelo://app?vid=e8f703a1-eb3b-45ed-827d-ca43a8842bf7"},"vehicle_type_id":"4","last_reported":1744678355,"current_range_meters":8000,"station_id":"ce4bgj92rcd13ifvqbd0","pricing_plan_id":"cebpf4jnsgd1na2vs0mg"},{"bike_id":"19a89524-a9e5-411c-9a2d-95c0f553dcf9","system_id":"levelo_inurba_marseille","lat":43.319877,"lon":5.381307,"is_reserved":false,"is_disabled":false,"rental_uris":{"android":"levelo://app?vid=19a89524-a9e5-411c-9a2d-95c0f553dcf9","ios":"levelo://app?vid=19a89524-a9e5-411c-9a2d-95c0f553dcf9"},"vehicle_type_id":"4","last_reported":1744678355,"current_range_meters":8000,"station_id":"ce4bhr12rcd13ifvqhpg","pricing_plan_id":"cebpf4jnsgd1na2vs0mg"},{"bike_id":"e5fec748-d40e-4920-9754-2970802f80fb","system_id":"levelo_inurba_marseille","lat":43.30319,"lon":5.4044,"is_reserved":false,"is_disabled":false,"rental_uris":{"android":"levelo://app?vid=e5fec748-d40e-4920-9754-2970802f80fb","ios":"levelo://app?vid=e5fec748-d40e-4920-9754-2970802f80fb"},"vehicle_type_id":"4","last_reported":1744678355,"current_range_meters":8000,"station_id":"ce4bh012rcd13ifvqd10","pricing_plan_id":"cebpf4jnsgd1na2vs0mg"},{"bike_id":"f6151468-df2d-459f-ab57-449c0333cf42","system_id":"levelo_inurba_marseille","lat":43.24675,"lon":5.38189,"is_reserved":false,"is_disabled":false,"rental_uris":{"android":"levelo://app?vid=f6151468-df2d-459f-ab57-449c0333cf42","ios":"levelo://app?vid=f6151468-df2d-459f-ab57-449c0333cf42"},"vehicle_type_id":"4","last_reported":1744678355,"current_range_meters":8000,"station_id":"ce4bhih2rcd13ifvqfr0","pricing_plan_id":"cebpf4jnsgd1na2vs0mg"},{"bike_id":"8d24a072-21ed-41cd-b0aa-05b3f1373b74","system_id":"levelo_inurba_marseille","lat":43.31071,"lon":5.38353,"is_reserved":false,"is_disabled":true,"rental_uris":{"android":"levelo://app?vid=8d24a072-21ed-41cd-b0aa-05b3f1373b74","ios":"levelo://app?vid=8d24a072-21ed-41cd-b0aa-05b3f1373b74"},"vehicle_type_id":"4","last_reported":1744678355,"current_range_meters":8400,"station_id":"ce4bgv92rcd13ifvqcr0","pricing_plan_id":"cebpf4jnsgd1na2vs0mg"},{"bike_id":"8270c511-077f-4d2c-876b-7ebf8cc1418e","system_id":"levelo_inurba_marseille","lat":43.246607,"lon":5.38167,"is_reserved":false,"is_disabled":false,"rental_uris":{"android":"levelo://app?vid=8270c511-077f-4d2c-876b-7ebf8cc1418e","ios":"levelo://app?vid=8270c511-077f-4d2c-876b-7ebf8cc1418e"},"vehicle_type_id":"4","last_reported":1744678355,"current_range_meters":8400,"station_id":"ce4bhih2rcd13ifvqfr0","pricing_plan_id":"cebpf4jnsgd1na2vs0mg"},{"bike_id":"9d3b61ff-82e2-485f-8f1c-4536742c0738","system_id":"levelo_inurba_marseille","lat":43.24547,"lon":5.39519,"is_reserved":false,"is_disabled":false,"rental_uris":{"android":"levelo://app?vid=9d3b61ff-82e2-485f-8f1c-4536742c0738","ios":"levelo://app?vid=9d3b61ff-82e2-485f-8f1c-4536742c0738"},"vehicle_type_id":"4","last_reported":1744678355,"current_range_meters":8400,"station_id":"ce4bhlp2rcd13ifvqgjg","pricing_plan_id":"cebpf4jnsgd1na2vs0mg"},{"bike_id":"7d0ec726-0d16-44fc-8c71-db7e88ada914","system_id":"levelo_inurba_marseille","lat":43.26232,"lon":5.40434,"is_reserved":false,"is_disabled":false,"rental_uris":{"android":"levelo://app?vid=7d0ec726-0d16-44fc-8c71-db7e88ada914","ios":"levelo://app?vid=7d0ec726-0d16-44fc-8c71-db7e88ada914"},"vehicle_type_id":"4","last_reported":1744678355,"current_range_meters":8400,"station_id":"ce4bhmh2rcd13ifvqgmg","pricing_plan_id":"cebpf4jnsgd1na2vs0mg"},{"bike_id":"d373ed4c-aba0-4974-b8ad-53c5cbe85936","system_id":"levelo_inurba_marseille","lat":43.29446,"lon":5.3978,"is_reserved":false,"is_disabled":true,"rental_uris":{"android":"levelo://app?vid=d373ed4c-aba0-4974-b8ad-53c5cbe85936","ios":"levelo://app?vid=d373ed4c-aba0-4974-b8ad-53c5cbe85936"},"vehicle_type_id":"4","last_reported":1744678355,"current_range_meters":8400,"station_id":"ce4bh3h2rcd13ifvqdo0","pricing_plan_id":"cebpf4jnsgd1na2vs0mg"},{"bike_id":"52467ef2-bb23-4d5a-aebd-2782338dc161","system_id":"levelo_inurba_marseille","lat":43.211881,"lon":5.350762,"is_reserved":false,"is_disabled":false,"rental_uris":{"android":"levelo://app?vid=52467ef2-bb23-4d5a-aebd-2782338dc161","ios":"levelo://app?vid=52467ef2-bb23-4d5a-aebd-2782338dc161"},"vehicle_type_id":"4","last_reported":1744678355,"current_range_meters":8400,"station_id":"st_cvj6sg6p6f1abm77japg","pricing_plan_id":"cebpf4jnsgd1na2vs0mg"},{"bike_id":"7ba3577b-f14a-47b3-8ecb-35158daf49ef","system_id":"levelo_inurba_marseille","lat":43.30021,"lon":5.39832,"is_reserved":false,"is_disabled":false,"rental_uris":{"android":"levelo://app?vid=7ba3577b-f14a-47b3-8ecb-35158daf49ef","ios":"levelo://app?vid=7ba3577b-f14a-47b3-8ecb-35158daf49ef"},"vehicle_type_id":"4","last_reported":1744678355,"current_range_meters":8400,"station_id":"","pricing_plan_id":"cebpf4jnsgd1na2vs0mg"},{"bike_id":"729563a6-41a3-4ff3-a068-44e58651bb98","system_id":"levelo_inurba_marseille","lat":43.25878,"lon":5.39896,"is_reserved":false,"is_disabled":false,"rental_uris":{"android":"levelo://app?vid=729563a6-41a3-4ff3-a068-44e58651bb98","ios":"levelo://app?vid=729563a6-41a3-4ff3-a068-44e58651bb98"},"vehicle_type_id":"4","last_reported":1744678355,"current_range_meters":8400,"station_id":"ce4bhl92rcd13ifvqghg","pricing_plan_id":"cebpf4jnsgd1na2vs0mg"},{"bike_id":"2840dd03-7e3c-473f-8550-a29070d3bba2","system_id":"levelo_inurba_marseille","lat":43.29487,"lon":5.38268,"is_reserved":false,"is_disabled":false,"rental_uris":{"android":"levelo://app?vid=2840dd03-7e3c-473f-8550-a29070d3bba2","ios":"levelo://app?vid=2840dd03-7e3c-473f-8550-a29070d3bba2"},"vehicle_type_id":"4","last_reported":1744678355,"current_range_meters":8400,"station_id":"","pricing_plan_id":"cebpf4jnsgd1na2vs0mg"},{"bike_id":"8d220e8d-5197-4aac-999e-255051e03279","system_id":"levelo_inurba_marseille","lat":43.32363,"lon":5.36758,"is_reserved":false,"is_disabled":false,"rental_uris":{"android":"levelo://app?vid=8d220e8d-5197-4aac-999e-255051e03279","ios":"levelo://app?vid=8d220e8d-5197-4aac-999e-255051e03279"},"vehicle_type_id":"4","last_reported":1744678355,"current_range_meters":8400,"station_id":"ce4bhsh2rcd13ifvqi2g","pricing_plan_id":"cebpf4jnsgd1na2vs0mg"},{"bike_id":"f07728ba-90b2-4310-83fb-7ddced706373","system_id":"levelo_inurba_marseille","lat":43.31486,"lon":5.37301,"is_reserved":false,"is_disabled":false,"rental_uris":{"android":"levelo://app?vid=f07728ba-90b2-4310-83fb-7ddced706373","ios":"levelo://app?vid=f07728ba-90b2-4310-83fb-7ddced706373"},"vehicle_type_id":"4","last_reported":1744678355,"current_range_meters":8400,"station_id":"ce4bgt12rcd13ifvqcd0","pricing_plan_id":"cebpf4jnsgd1na2vs0mg"},{"bike_id":"23a8ea30-12ac-4461-bdc1-f4d97b82bc27","system_id":"levelo_inurba_marseille","lat":43.3022,"lon":5.39467,"is_reserved":false,"is_disabled":false,"rental_uris":{"android":"levelo://app?vid=23a8ea30-12ac-4461-bdc1-f4d97b82bc27","ios":"levelo://app?vid=23a8ea30-12ac-4461-bdc1-f4d97b82bc27"},"vehicle_type_id":"4","last_reported":1744678355,"current_range_meters":8800,"station_id":"ce4bh0p2rcd13ifvqd70","pricing_plan_id":"cebpf4jnsgd1na2vs0mg"},{"bike_id":"b4a19ddd-ec2c-4178-96c7-9e5bf749190e","system_id":"levelo_inurba_marseille","lat":43.29904,"lon":5.43667,"is_reserved":false,"is_disabled":false,"rental_uris":{"android":"levelo://app?vid=b4a19ddd-ec2c-4178-96c7-9e5bf749190e","ios":"levelo://app?vid=b4a19ddd-ec2c-4178-96c7-9e5bf749190e"},"vehicle_type_id":"4","last_reported":1744678355,"current_range_meters":8800,"station_id":"ce4bhpp2rcd13ifvqhfg","pricing_plan_id":"cebpf4jnsgd1na2vs0mg"},{"bike_id":"33ac4b06-6650-43dd-8223-418132dee349","system_id":"levelo_inurba_marseille","lat":43.30251,"lon":5.40029,"is_reserved":false,"is_disabled":false,"rental_uris":{"android":"levelo://app?vid=33ac4b06-6650-43dd-8223-418132dee349","ios":"levelo://app?vid=33ac4b06-6650-43dd-8223-418132dee349"},"vehicle_type_id":"4","last_reported":1744678355,"current_range_meters":8800,"station_id":"ce4bgvh2rcd13ifvqcs0","pricing_plan_id":"cebpf4jnsgd1na2vs0mg"},{"bike_id":"59b901c4-bf24-454b-ac51-6ab3e2ea0bdb","system_id":"levelo_inurba_marseille","lat":43.2885,"lon":5.3931,"is_reserved":false,"is_disabled":false,"rental_uris":{"android":"levelo://app?vid=59b901c4-bf24-454b-ac51-6ab3e2ea0bdb","ios":"levelo://app?vid=59b901c4-bf24-454b-ac51-6ab3e2ea0bdb"},"vehicle_type_id":"4","last_reported":1744678355,"current_range_meters":8800,"station_id":"ce4bh2p2rcd13ifvqdi0","pricing_plan_id":"cebpf4jnsgd1na2vs0mg"},{"bike_id":"b62d1434-c42b-4d2d-977d-d90a2291da9b","system_id":"levelo_inurba_marseille","lat":43.26932,"lon":5.4027,"is_reserved":false,"is_disabled":true,"rental_uris":{"android":"levelo://app?vid=b62d1434-c42b-4d2d-977d-d90a2291da9b","ios":"levelo://app?vid=b62d1434-c42b-4d2d-977d-d90a2291da9b"},"vehicle_type_id":"4","last_reported":1744678355,"current_range_meters":8800,"station_id":"cjm6bp8fraef2m0cb0m0","pricing_plan_id":"cebpf4jnsgd1na2vs0mg"},{"bike_id":"a805b716-d3f2-41f8-8ac2-43d02ff2936a","system_id":"levelo_inurba_marseille","lat":43.28334,"lon":5.38084,"is_reserved":false,"is_disabled":false,"rental_uris":{"android":"levelo://app?vid=a805b716-d3f2-41f8-8ac2-43d02ff2936a","ios":"levelo://app?vid=a805b716-d3f2-41f8-8ac2-43d02ff2936a"},"vehicle_type_id":"4","last_reported":1744678355,"current_range_meters":8800,"station_id":"ce4bh412rcd13ifvqdr0","pricing_plan_id":"cebpf4jnsgd1na2vs0mg"},{"bike_id":"4c6a994b-1f66-4f75-b0a4-f098669fe83f","system_id":"levelo_inurba_marseille","lat":43.30873,"lon":5.3965,"is_reserved":false,"is_disabled":false,"rental_uris":{"android":"levelo://app?vid=4c6a994b-1f66-4f75-b0a4-f098669fe83f","ios":"levelo://app?vid=4c6a994b-1f66-4f75-b0a4-f098669fe83f"},"vehicle_type_id":"4","last_reported":1744678355,"current_range_meters":9200,"station_id":"ce4bh012rcd13ifvqcv0","pricing_plan_id":"cebpf4jnsgd1na2vs0mg"},{"bike_id":"8f2adbcd-b044-4ad0-b1eb-0aa42ca31983","system_id":"levelo_inurba_marseille","lat":43.31073,"lon":5.38351,"is_reserved":false,"is_disabled":false,"rental_uris":{"android":"levelo://app?vid=8f2adbcd-b044-4ad0-b1eb-0aa42ca31983","ios":"levelo://app?vid=8f2adbcd-b044-4ad0-b1eb-0aa42ca31983"},"vehicle_type_id":"4","last_reported":1744678355,"current_range_meters":9200,"station_id":"ce4bgv92rcd13ifvqcr0","pricing_plan_id":"cebpf4jnsgd1na2vs0mg"},{"bike_id":"8a58a04e-f069-487b-905a-c2f308a407cd","system_id":"levelo_inurba_marseille","lat":43.330313,"lon":5.390427,"is_reserved":false,"is_disabled":false,"rental_uris":{"android":"levelo://app?vid=8a58a04e-f069-487b-905a-c2f308a407cd","ios":"levelo://app?vid=8a58a04e-f069-487b-905a-c2f308a407cd"},"vehicle_type_id":"4","last_reported":1744678355,"current_range_meters":9200,"station_id":"ce4bhr92rcd13ifvqhrg","pricing_plan_id":"cebpf4jnsgd1na2vs0mg"},{"bike_id":"0225a6fa-8aae-41aa-8002-5b03a49a0725","system_id":"levelo_inurba_marseille","lat":43.29279,"lon":5.40111,"is_reserved":false,"is_disabled":false,"rental_uris":{"android":"levelo://app?vid=0225a6fa-8aae-41aa-8002-5b03a49a0725","ios":"levelo://app?vid=0225a6fa-8aae-41aa-8002-5b03a49a0725"},"vehicle_type_id":"4","last_reported":1744678355,"current_range_meters":9200,"station_id":"ce4bh312rcd13ifvqdk0","pricing_plan_id":"cebpf4jnsgd1na2vs0mg"},{"bike_id":"000cce46-0aba-4c03-8967-d18cf441ccd3","system_id":"levelo_inurba_marseille","lat":43.302957,"lon":5.404257,"is_reserved":false,"is_disabled":false,"rental_uris":{"android":"levelo://app?vid=000cce46-0aba-4c03-8967-d18cf441ccd3","ios":"levelo://app?vid=000cce46-0aba-4c03-8967-d18cf441ccd3"},"vehicle_type_id":"4","last_reported":1744678355,"current_range_meters":9200,"station_id":"ce4bh012rcd13ifvqd10","pricing_plan_id":"cebpf4jnsgd1na2vs0mg"},{"bike_id":"ed947c2e-c195-47d9-8edd-b0c55014b09a","system_id":"levelo_inurba_marseille","lat":43.29421,"lon":5.38616,"is_reserved":false,"is_disabled":false,"rental_uris":{"android":"levelo://app?vid=ed947c2e-c195-47d9-8edd-b0c55014b09a","ios":"levelo://app?vid=ed947c2e-c195-47d9-8edd-b0c55014b09a"},"vehicle_type_id":"4","last_reported":1744678355,"current_range_meters":9600,"station_id":"ce4bh2h2rcd13ifvqdh0","pricing_plan_id":"cebpf4jnsgd1na2vs0mg"},{"bike_id":"16a2b383-68c4-40a9-8f59-77dc12518cf4","system_id":"levelo_inurba_marseille","lat":43.28696,"lon":5.37381,"is_reserved":false,"is_disabled":false,"rental_uris":{"android":"levelo://app?vid=16a2b383-68c4-40a9-8f59-77dc12518cf4","ios":"levelo://app?vid=16a2b383-68c4-40a9-8f59-77dc12518cf4"},"vehicle_type_id":"4","last_reported":1744678355,"current_range_meters":9600,"station_id":"ce4bh3p2rcd13ifvqdq0","pricing_plan_id":"cebpf4jnsgd1na2vs0mg"},{"bike_id":"e3c99b37-fd47-409b-b4da-3fe7d5fe9426","system_id":"levelo_inurba_marseille","lat":43.31329,"lon":5.39696,"is_reserved":false,"is_disabled":false,"rental_uris":{"android":"levelo://app?vid=e3c99b37-fd47-409b-b4da-3fe7d5fe9426","ios":"levelo://app?vid=e3c99b37-fd47-409b-b4da-3fe7d5fe9426"},"vehicle_type_id":"4","last_reported":1744678355,"current_range_meters":9600,"station_id":"ce4bgvp2rcd13ifvqcu0","pricing_plan_id":"cebpf4jnsgd1na2vs0mg"},{"bike_id":"ffd9a623-0631-4899-8f41-7f2e09483ce4","system_id":"levelo_inurba_marseille","lat":43.28463,"lon":5.35903,"is_reserved":false,"is_disabled":false,"rental_uris":{"android":"levelo://app?vid=ffd9a623-0631-4899-8f41-7f2e09483ce4","ios":"levelo://app?vid=ffd9a623-0631-4899-8f41-7f2e09483ce4"},"vehicle_type_id":"4","last_reported":1744678355,"current_range_meters":9600,"station_id":"ce4bhah2rcd13ifvqei0","pricing_plan_id":"cebpf4jnsgd1na2vs0mg"},{"bike_id":"2f93173f-d02c-4e29-ab59-1fff882697d7","system_id":"levelo_inurba_marseille","lat":43.2405,"lon":5.37758,"is_reserved":false,"is_disabled":false,"rental_uris":{"android":"levelo://app?vid=2f93173f-d02c-4e29-ab59-1fff882697d7","ios":"levelo://app?vid=2f93173f-d02c-4e29-ab59-1fff882697d7"},"vehicle_type_id":"4","last_reported":1744678355,"current_range_meters":9600,"station_id":"ce4bhnp2rcd13ifvqgvg","pricing_plan_id":"cebpf4jnsgd1na2vs0mg"},{"bike_id":"31d640de-ded1-4a23-82fc-8080e8c65b5f","system_id":"levelo_inurba_marseille","lat":43.2894,"lon":5.36638,"is_reserved":false,"is_disabled":false,"rental_uris":{"android":"levelo://app?vid=31d640de-ded1-4a23-82fc-8080e8c65b5f","ios":"levelo://app?vid=31d640de-ded1-4a23-82fc-8080e8c65b5f"},"vehicle_type_id":"4","last_reported":1744678355,"current_range_meters":10000,"station_id":"ce4bhap2rcd13ifvqek0","pricing_plan_id":"cebpf4jnsgd1na2vs0mg"},{"bike_id":"b3f4c05a-b8e2-47d5-8a37-55b62c22bc0d","system_id":"levelo_inurba_marseille","lat":43.27914,"lon":5.39578,"is_reserved":false,"is_disabled":false,"rental_uris":{"android":"levelo://app?vid=b3f4c05a-b8e2-47d5-8a37-55b62c22bc0d","ios":"levelo://app?vid=b3f4c05a-b8e2-47d5-8a37-55b62c22bc0d"},"vehicle_type_id":"4","last_reported":1744678355,"current_range_meters":10000,"station_id":"ce4bhf92rcd13ifvqf40","pricing_plan_id":"cebpf4jnsgd1na2vs0mg"},{"bike_id":"7fedcfdc-5cab-4206-a7e8-0ce468b983c4","system_id":"levelo_inurba_marseille","lat":43.28424,"lon":5.37539,"is_reserved":false,"is_disabled":false,"rental_uris":{"android":"levelo://app?vid=7fedcfdc-5cab-4206-a7e8-0ce468b983c4","ios":"levelo://app?vid=7fedcfdc-5cab-4206-a7e8-0ce468b983c4"},"vehicle_type_id":"4","last_reported":1744678355,"current_range_meters":10000,"station_id":"ce4bh412rcd13ifvqds0","pricing_plan_id":"cebpf4jnsgd1na2vs0mg"},{"bike_id":"fb13c941-1858-46a4-86ad-2a5e302996c3","system_id":"levelo_inurba_marseille","lat":43.25855,"lon":5.39892,"is_reserved":false,"is_disabled":true,"rental_uris":{"android":"levelo://app?vid=fb13c941-1858-46a4-86ad-2a5e302996c3","ios":"levelo://app?vid=fb13c941-1858-46a4-86ad-2a5e302996c3"},"vehicle_type_id":"4","last_reported":1744678355,"current_range_meters":10000,"station_id":"ce4bhl92rcd13ifvqghg","pricing_plan_id":"cebpf4jnsgd1na2vs0mg"},{"bike_id":"e0c49b4e-20fa-4104-917d-fcb54a76eaa0","system_id":"levelo_inurba_marseille","lat":43.28343,"lon":5.38076,"is_reserved":false,"is_disabled":false,"rental_uris":{"android":"levelo://app?vid=e0c49b4e-20fa-4104-917d-fcb54a76eaa0","ios":"levelo://app?vid=e0c49b4e-20fa-4104-917d-fcb54a76eaa0"},"vehicle_type_id":"4","last_reported":1744678355,"current_range_meters":10000,"station_id":"ce4bh412rcd13ifvqdr0","pricing_plan_id":"cebpf4jnsgd1na2vs0mg"},{"bike_id":"9e2b7a76-1a9e-4918-befb-c6b174749d9d","system_id":"levelo_inurba_marseille","lat":43.28565,"lon":5.39476,"is_reserved":false,"is_disabled":false,"rental_uris":{"android":"levelo://app?vid=9e2b7a76-1a9e-4918-befb-c6b174749d9d","ios":"levelo://app?vid=9e2b7a76-1a9e-4918-befb-c6b174749d9d"},"vehicle_type_id":"4","last_reported":1744678355,"current_range_meters":10000,"station_id":"ce4bh292rcd13ifvqdg0","pricing_plan_id":"cebpf4jnsgd1na2vs0mg"},{"bike_id":"df24e887-fe82-46f8-ad88-3f9e2f7268c0","system_id":"levelo_inurba_marseille","lat":43.28407,"lon":5.37513,"is_reserved":false,"is_disabled":false,"rental_uris":{"android":"levelo://app?vid=df24e887-fe82-46f8-ad88-3f9e2f7268c0","ios":"levelo://app?vid=df24e887-fe82-46f8-ad88-3f9e2f7268c0"},"vehicle_type_id":"4","last_reported":1744678355,"current_range_meters":10800,"station_id":"ce4bh412rcd13ifvqds0","pricing_plan_id":"cebpf4jnsgd1na2vs0mg"},{"bike_id":"ef734429-5e24-498b-98db-95ee16873a56","system_id":"levelo_inurba_marseille","lat":43.27074,"lon":5.42266,"is_reserved":false,"is_disabled":false,"rental_uris":{"android":"levelo://app?vid=ef734429-5e24-498b-98db-95ee16873a56","ios":"levelo://app?vid=ef734429-5e24-498b-98db-95ee16873a56"},"vehicle_type_id":"4","last_reported":1744678355,"current_range_meters":10800,"station_id":"ce4bhk92rcd13ifvqgb0","pricing_plan_id":"cebpf4jnsgd1na2vs0mg"},{"bike_id":"677b30b3-8594-46cc-a68a-9743c3dc2167","system_id":"levelo_inurba_marseille","lat":43.288357,"lon":5.358516,"is_reserved":false,"is_disabled":false,"rental_uris":{"android":"levelo://app?vid=677b30b3-8594-46cc-a68a-9743c3dc2167","ios":"levelo://app?vid=677b30b3-8594-46cc-a68a-9743c3dc2167"},"vehicle_type_id":"4","last_reported":1744678355,"current_range_meters":10800,"station_id":"ce4bhb12rcd13ifvqem0","pricing_plan_id":"cebpf4jnsgd1na2vs0mg"},{"bike_id":"b7f2ab3e-7333-4a50-9375-1a8103e49920","system_id":"levelo_inurba_marseille","lat":43.25825,"lon":5.3944,"is_reserved":false,"is_disabled":false,"rental_uris":{"android":"levelo://app?vid=b7f2ab3e-7333-4a50-9375-1a8103e49920","ios":"levelo://app?vid=b7f2ab3e-7333-4a50-9375-1a8103e49920"},"vehicle_type_id":"4","last_reported":1744678355,"current_range_meters":10800,"station_id":"ce4bhip2rcd13ifvqft0","pricing_plan_id":"cebpf4jnsgd1na2vs0mg"},{"bike_id":"ff6c5bbc-009f-4fe9-b11b-60ef4508468b","system_id":"levelo_inurba_marseille","lat":43.28447,"lon":5.39186,"is_reserved":false,"is_disabled":true,"rental_uris":{"android":"levelo://app?vid=ff6c5bbc-009f-4fe9-b11b-60ef4508468b","ios":"levelo://app?vid=ff6c5bbc-009f-4fe9-b11b-60ef4508468b"},"vehicle_type_id":"4","last_reported":1744678355,"current_range_meters":10800,"station_id":"ce4bhoh2rcd13ifvqh5g","pricing_plan_id":"cebpf4jnsgd1na2vs0mg"},{"bike_id":"2ed7ebbb-379a-46fd-8b26-cbbab63008ae","system_id":"levelo_inurba_marseille","lat":43.28366,"lon":5.38631,"is_reserved":false,"is_disabled":false,"rental_uris":{"android":"levelo://app?vid=2ed7ebbb-379a-46fd-8b26-cbbab63008ae","ios":"levelo://app?vid=2ed7ebbb-379a-46fd-8b26-cbbab63008ae"},"vehicle_type_id":"4","last_reported":1744678355,"current_range_meters":10800,"station_id":"ce4bh492rcd13ifvqdvg","pricing_plan_id":"cebpf4jnsgd1na2vs0mg"},{"bike_id":"843838ea-15ea-4750-a740-a6a4d52b3162","system_id":"levelo_inurba_marseille","lat":43.279896,"lon":5.416582,"is_reserved":false,"is_disabled":false,"rental_uris":{"android":"levelo://app?vid=843838ea-15ea-4750-a740-a6a4d52b3162","ios":"levelo://app?vid=843838ea-15ea-4750-a740-a6a4d52b3162"},"vehicle_type_id":"4","last_reported":1744678355,"current_range_meters":11200,"station_id":"ce4bho12rcd13ifvqh1g","pricing_plan_id":"cebpf4jnsgd1na2vs0mg"},{"bike_id":"a12a4ca1-f810-4d74-a484-47aa7a760bde","system_id":"levelo_inurba_marseille","lat":43.27073,"lon":5.42267,"is_reserved":false,"is_disabled":false,"rental_uris":{"android":"levelo://app?vid=a12a4ca1-f810-4d74-a484-47aa7a760bde","ios":"levelo://app?vid=a12a4ca1-f810-4d74-a484-47aa7a760bde"},"vehicle_type_id":"4","last_reported":1744678355,"current_range_meters":11200,"station_id":"ce4bhk92rcd13ifvqgb0","pricing_plan_id":"cebpf4jnsgd1na2vs0mg"},{"bike_id":"0e8e0d85-2932-4765-902a-4c3b14a3eac4","system_id":"levelo_inurba_marseille","lat":43.25636,"lon":5.37658,"is_reserved":false,"is_disabled":false,"rental_uris":{"android":"levelo://app?vid=0e8e0d85-2932-4765-902a-4c3b14a3eac4","ios":"levelo://app?vid=0e8e0d85-2932-4765-902a-4c3b14a3eac4"},"vehicle_type_id":"4","last_reported":1744678355,"current_range_meters":11200,"station_id":"","pricing_plan_id":"cebpf4jnsgd1na2vs0mg"},{"bike_id":"d2cd86fd-90ef-4a72-a4eb-a819062a3218","system_id":"levelo_inurba_marseille","lat":43.28405,"lon":5.37515,"is_reserved":false,"is_disabled":false,"rental_uris":{"android":"levelo://app?vid=d2cd86fd-90ef-4a72-a4eb-a819062a3218","ios":"levelo://app?vid=d2cd86fd-90ef-4a72-a4eb-a819062a3218"},"vehicle_type_id":"4","last_reported":1744678355,"current_range_meters":11200,"station_id":"ce4bh412rcd13ifvqds0","pricing_plan_id":"cebpf4jnsgd1na2vs0mg"},{"bike_id":"33c2ae9d-70c1-4a78-aa2d-f399064824ec","system_id":"levelo_inurba_marseille","lat":43.292574,"lon":5.409097,"is_reserved":false,"is_disabled":false,"rental_uris":{"android":"levelo://app?vid=33c2ae9d-70c1-4a78-aa2d-f399064824ec","ios":"levelo://app?vid=33c2ae9d-70c1-4a78-aa2d-f399064824ec"},"vehicle_type_id":"4","last_reported":1744678355,"current_range_meters":11600,"station_id":"ce4bh192rcd13ifvqdc0","pricing_plan_id":"cebpf4jnsgd1na2vs0mg"},{"bike_id":"27a55245-8dd2-4f1a-af63-95a9d7b71690","system_id":"levelo_inurba_marseille","lat":43.31076,"lon":5.37834,"is_reserved":false,"is_disabled":true,"rental_uris":{"android":"levelo://app?vid=27a55245-8dd2-4f1a-af63-95a9d7b71690","ios":"levelo://app?vid=27a55245-8dd2-4f1a-af63-95a9d7b71690"},"vehicle_type_id":"4","last_reported":1744678355,"current_range_meters":12000,"station_id":"","pricing_plan_id":"cebpf4jnsgd1na2vs0mg"},{"bike_id":"5bac84e2-3c94-4fdd-a5a6-3f7db5002922","system_id":"levelo_inurba_marseille","lat":43.26806,"lon":5.40268,"is_reserved":false,"is_disabled":false,"rental_uris":{"android":"levelo://app?vid=5bac84e2-3c94-4fdd-a5a6-3f7db5002922","ios":"levelo://app?vid=5bac84e2-3c94-4fdd-a5a6-3f7db5002922"},"vehicle_type_id":"4","last_reported":1744678355,"current_range_meters":12000,"station_id":"ce501612rcd8frsf0b60","pricing_plan_id":"cebpf4jnsgd1na2vs0mg"},{"bike_id":"0bb23cb5-5747-467a-a60e-5474e4c55bee","system_id":"levelo_inurba_marseille","lat":43.31104,"lon":5.37771,"is_reserved":false,"is_disabled":false,"rental_uris":{"android":"levelo://app?vid=0bb23cb5-5747-467a-a60e-5474e4c55bee","ios":"levelo://app?vid=0bb23cb5-5747-467a-a60e-5474e4c55bee"},"vehicle_type_id":"4","last_reported":1744678355,"current_range_meters":12000,"station_id":"ce4bgt92rcd13ifvqcg0","pricing_plan_id":"cebpf4jnsgd1na2vs0mg"},{"bike_id":"dd55a95c-84ae-4f2d-9924-3ca8c1853af4","system_id":"levelo_inurba_marseille","lat":43.26814,"lon":5.40249,"is_reserved":false,"is_disabled":false,"rental_uris":{"android":"levelo://app?vid=dd55a95c-84ae-4f2d-9924-3ca8c1853af4","ios":"levelo://app?vid=dd55a95c-84ae-4f2d-9924-3ca8c1853af4"},"vehicle_type_id":"4","last_reported":1744678355,"current_range_meters":12000,"station_id":"ce501612rcd8frsf0b60","pricing_plan_id":"cebpf4jnsgd1na2vs0mg"},{"bike_id":"073cf7d8-8976-45f8-a876-b8ff2d3c7521","system_id":"levelo_inurba_marseille","lat":43.31326,"lon":5.39709,"is_reserved":false,"is_disabled":false,"rental_uris":{"android":"levelo://app?vid=073cf7d8-8976-45f8-a876-b8ff2d3c7521","ios":"levelo://app?vid=073cf7d8-8976-45f8-a876-b8ff2d3c7521"},"vehicle_type_id":"4","last_reported":1744678355,"current_range_meters":12400,"station_id":"ce4bgvp2rcd13ifvqcu0","pricing_plan_id":"cebpf4jnsgd1na2vs0mg"},{"bike_id":"24dcb32d-a47a-42ed-aa7a-1c5a8f68b38c","system_id":"levelo_inurba_marseille","lat":43.27838,"lon":5.39206,"is_reserved":false,"is_disabled":false,"rental_uris":{"android":"levelo://app?vid=24dcb32d-a47a-42ed-aa7a-1c5a8f68b38c","ios":"levelo://app?vid=24dcb32d-a47a-42ed-aa7a-1c5a8f68b38c"},"vehicle_type_id":"4","last_reported":1744678355,"current_range_meters":12400,"station_id":"ce4bhjp2rcd13ifvqga0","pricing_plan_id":"cebpf4jnsgd1na2vs0mg"},{"bike_id":"e93a6700-c85e-4586-8fc9-b3f06c010eca","system_id":"levelo_inurba_marseille","lat":43.30312,"lon":5.36902,"is_reserved":false,"is_disabled":false,"rental_uris":{"android":"levelo://app?vid=e93a6700-c85e-4586-8fc9-b3f06c010eca","ios":"levelo://app?vid=e93a6700-c85e-4586-8fc9-b3f06c010eca"},"vehicle_type_id":"4","last_reported":1744678355,"current_range_meters":12400,"station_id":"ce4bgqh2rcd13ifvqc5g","pricing_plan_id":"cebpf4jnsgd1na2vs0mg"},{"bike_id":"9481a4d4-998c-4242-822b-0b8fa3017440","system_id":"levelo_inurba_marseille","lat":43.28855,"lon":5.39333,"is_reserved":false,"is_disabled":true,"rental_uris":{"android":"levelo://app?vid=9481a4d4-998c-4242-822b-0b8fa3017440","ios":"levelo://app?vid=9481a4d4-998c-4242-822b-0b8fa3017440"},"vehicle_type_id":"4","last_reported":1744678355,"current_range_meters":12800,"station_id":"ce4bh2p2rcd13ifvqdi0","pricing_plan_id":"cebpf4jnsgd1na2vs0mg"},{"bike_id":"56135a82-d19f-45ea-a72c-58b1131d0fcb","system_id":"levelo_inurba_marseille","lat":43.2809,"lon":5.39655,"is_reserved":false,"is_disabled":true,"rental_uris":{"android":"levelo://app?vid=56135a82-d19f-45ea-a72c-58b1131d0fcb","ios":"levelo://app?vid=56135a82-d19f-45ea-a72c-58b1131d0fcb"},"vehicle_type_id":"4","last_reported":1744678355,"current_range_meters":12800,"station_id":"ce4bho12rcd13ifvqh2g","pricing_plan_id":"cebpf4jnsgd1na2vs0mg"},{"bike_id":"0a901c4b-a6be-4ae3-9eea-df01ce0187d5","system_id":"levelo_inurba_marseille","lat":43.286943,"lon":5.374106,"is_reserved":false,"is_disabled":false,"rental_uris":{"android":"levelo://app?vid=0a901c4b-a6be-4ae3-9eea-df01ce0187d5","ios":"levelo://app?vid=0a901c4b-a6be-4ae3-9eea-df01ce0187d5"},"vehicle_type_id":"4","last_reported":1744678355,"current_range_meters":12800,"station_id":"ce4bh3p2rcd13ifvqdq0","pricing_plan_id":"cebpf4jnsgd1na2vs0mg"},{"bike_id":"ebc00508-063d-4173-a5d7-86b9fc557991","system_id":"levelo_inurba_marseille","lat":43.29571,"lon":5.3996,"is_reserved":false,"is_disabled":false,"rental_uris":{"android":"levelo://app?vid=ebc00508-063d-4173-a5d7-86b9fc557991","ios":"levelo://app?vid=ebc00508-063d-4173-a5d7-86b9fc557991"},"vehicle_type_id":"4","last_reported":1744678355,"current_range_meters":12800,"station_id":"ce4bh312rcd13ifvqdj0","pricing_plan_id":"cebpf4jnsgd1na2vs0mg"},{"bike_id":"3a6cf755-31cc-43c3-a198-985c52f2e7d1","system_id":"levelo_inurba_marseille","lat":43.28463,"lon":5.358929,"is_reserved":false,"is_disabled":false,"rental_uris":{"android":"levelo://app?vid=3a6cf755-31cc-43c3-a198-985c52f2e7d1","ios":"levelo://app?vid=3a6cf755-31cc-43c3-a198-985c52f2e7d1"},"vehicle_type_id":"4","last_reported":1744678355,"current_range_meters":12800,"station_id":"ce4bhah2rcd13ifvqei0","pricing_plan_id":"cebpf4jnsgd1na2vs0mg"},{"bike_id":"93b02a0f-e2f5-49ef-90ae-4a058707e43d","system_id":"levelo_inurba_marseille","lat":43.29687,"lon":5.37298,"is_reserved":false,"is_disabled":true,"rental_uris":{"android":"levelo://app?vid=93b02a0f-e2f5-49ef-90ae-4a058707e43d","ios":"levelo://app?vid=93b02a0f-e2f5-49ef-90ae-4a058707e43d"},"vehicle_type_id":"4","last_reported":1744678355,"current_range_meters":12800,"station_id":"ce4bgk12rcd13ifvqbj0","pricing_plan_id":"cebpf4jnsgd1na2vs0mg"},{"bike_id":"95feb6b0-42d5-455d-872a-d685cd4cebc3","system_id":"levelo_inurba_marseille","lat":43.2857,"lon":5.39505,"is_reserved":false,"is_disabled":false,"rental_uris":{"android":"levelo://app?vid=95feb6b0-42d5-455d-872a-d685cd4cebc3","ios":"levelo://app?vid=95feb6b0-42d5-455d-872a-d685cd4cebc3"},"vehicle_type_id":"4","last_reported":1744678355,"current_range_meters":13600,"station_id":"ce4bh292rcd13ifvqdg0","pricing_plan_id":"cebpf4jnsgd1na2vs0mg"},{"bike_id":"3f7a0290-593e-4845-993f-1d6ded91c193","system_id":"levelo_inurba_marseille","lat":43.316976,"lon":5.377802,"is_reserved":false,"is_disabled":false,"rental_uris":{"android":"levelo://app?vid=3f7a0290-593e-4845-993f-1d6ded91c193","ios":"levelo://app?vid=3f7a0290-593e-4845-993f-1d6ded91c193"},"vehicle_type_id":"4","last_reported":1744678355,"current_range_meters":13600,"station_id":"ce4bgth2rcd13ifvqch0","pricing_plan_id":"cebpf4jnsgd1na2vs0mg"},{"bike_id":"038f24e5-d8e3-47c1-a2bf-21ad4ab92bed","system_id":"levelo_inurba_marseille","lat":43.310713,"lon":5.383523,"is_reserved":false,"is_disabled":false,"rental_uris":{"android":"levelo://app?vid=038f24e5-d8e3-47c1-a2bf-21ad4ab92bed","ios":"levelo://app?vid=038f24e5-d8e3-47c1-a2bf-21ad4ab92bed"},"vehicle_type_id":"4","last_reported":1744678355,"current_range_meters":13600,"station_id":"ce4bgv92rcd13ifvqcr0","pricing_plan_id":"cebpf4jnsgd1na2vs0mg"},{"bike_id":"9050bcb2-4fea-4bae-b3fe-93394c76bda1","system_id":"levelo_inurba_marseille","lat":43.31699,"lon":5.40478,"is_reserved":false,"is_disabled":false,"rental_uris":{"android":"levelo://app?vid=9050bcb2-4fea-4bae-b3fe-93394c76bda1","ios":"levelo://app?vid=9050bcb2-4fea-4bae-b3fe-93394c76bda1"},"vehicle_type_id":"4","last_reported":1744678355,"current_range_meters":13600,"station_id":"ce4bh012rcd13ifvqd00","pricing_plan_id":"cebpf4jnsgd1na2vs0mg"},{"bike_id":"45152fd8-c07c-4d52-b7a7-6670add35e00","system_id":"levelo_inurba_marseille","lat":43.26102,"lon":5.42075,"is_reserved":false,"is_disabled":false,"rental_uris":{"android":"levelo://app?vid=45152fd8-c07c-4d52-b7a7-6670add35e00","ios":"levelo://app?vid=45152fd8-c07c-4d52-b7a7-6670add35e00"},"vehicle_type_id":"4","last_reported":1744678355,"current_range_meters":13600,"station_id":"","pricing_plan_id":"cebpf4jnsgd1na2vs0mg"},{"bike_id":"209a0192-0fdc-4e02-9c79-b42f732cc1f7","system_id":"levelo_inurba_marseille","lat":43.23969,"lon":5.3663,"is_reserved":false,"is_disabled":false,"rental_uris":{"android":"levelo://app?vid=209a0192-0fdc-4e02-9c79-b42f732cc1f7","ios":"levelo://app?vid=209a0192-0fdc-4e02-9c79-b42f732cc1f7"},"vehicle_type_id":"4","last_reported":1744678355,"current_range_meters":14000,"station_id":"ce4bhi12rcd13ifvqfp0","pricing_plan_id":"cebpf4jnsgd1na2vs0mg"},{"bike_id":"8d2c3122-2cf1-46ac-aadf-d3b55ac34a6b","system_id":"levelo_inurba_marseille","lat":43.292084,"lon":5.359081,"is_reserved":false,"is_disabled":false,"rental_uris":{"android":"levelo://app?vid=8d2c3122-2cf1-46ac-aadf-d3b55ac34a6b","ios":"levelo://app?vid=8d2c3122-2cf1-46ac-aadf-d3b55ac34a6b"},"vehicle_type_id":"4","last_reported":1744678355,"current_range_meters":13600,"station_id":"ce4bhb92rcd13ifvqen0","pricing_plan_id":"cebpf4jnsgd1na2vs0mg"},{"bike_id":"02dc5853-d17c-47ac-a646-82ded7ba5800","system_id":"levelo_inurba_marseille","lat":43.30246,"lon":5.40068,"is_reserved":false,"is_disabled":true,"rental_uris":{"android":"levelo://app?vid=02dc5853-d17c-47ac-a646-82ded7ba5800","ios":"levelo://app?vid=02dc5853-d17c-47ac-a646-82ded7ba5800"},"vehicle_type_id":"4","last_reported":1744678355,"current_range_meters":14400,"station_id":"ce4bgvh2rcd13ifvqcs0","pricing_plan_id":"cebpf4jnsgd1na2vs0mg"},{"bike_id":"31fec991-0241-4227-a02e-15ec03e5a057","system_id":"levelo_inurba_marseille","lat":43.27911,"lon":5.39574,"is_reserved":false,"is_disabled":false,"rental_uris":{"android":"levelo://app?vid=31fec991-0241-4227-a02e-15ec03e5a057","ios":"levelo://app?vid=31fec991-0241-4227-a02e-15ec03e5a057"},"vehicle_type_id":"4","last_reported":1744678355,"current_range_meters":14400,"station_id":"ce4bhf92rcd13ifvqf40","pricing_plan_id":"cebpf4jnsgd1na2vs0mg"},{"bike_id":"b225db6f-f59a-478a-a565-451dda7af67c","system_id":"levelo_inurba_marseille","lat":43.262241,"lon":5.404534,"is_reserved":false,"is_disabled":false,"rental_uris":{"android":"levelo://app?vid=b225db6f-f59a-478a-a565-451dda7af67c","ios":"levelo://app?vid=b225db6f-f59a-478a-a565-451dda7af67c"},"vehicle_type_id":"4","last_reported":1744678355,"current_range_meters":14400,"station_id":"ce4bhmh2rcd13ifvqgmg","pricing_plan_id":"cebpf4jnsgd1na2vs0mg"},{"bike_id":"0ba9f0ef-27e9-42c8-a2f6-855e52294283","system_id":"levelo_inurba_marseille","lat":43.30309,"lon":5.36895,"is_reserved":false,"is_disabled":false,"rental_uris":{"android":"levelo://app?vid=0ba9f0ef-27e9-42c8-a2f6-855e52294283","ios":"levelo://app?vid=0ba9f0ef-27e9-42c8-a2f6-855e52294283"},"vehicle_type_id":"4","last_reported":1744678355,"current_range_meters":14800,"station_id":"ce4bgqh2rcd13ifvqc5g","pricing_plan_id":"cebpf4jnsgd1na2vs0mg"},{"bike_id":"37342bdf-d586-43ba-a25b-da22b3393da6","system_id":"levelo_inurba_marseille","lat":43.29174,"lon":5.37512,"is_reserved":false,"is_disabled":false,"rental_uris":{"android":"levelo://app?vid=37342bdf-d586-43ba-a25b-da22b3393da6","ios":"levelo://app?vid=37342bdf-d586-43ba-a25b-da22b3393da6"},"vehicle_type_id":"4","last_reported":1744678355,"current_range_meters":14800,"station_id":"","pricing_plan_id":"cebpf4jnsgd1na2vs0mg"},{"bike_id":"86507adb-43c1-4a89-acc7-c74cd80a099f","system_id":"levelo_inurba_marseille","lat":43.2312,"lon":5.36645,"is_reserved":false,"is_disabled":false,"rental_uris":{"android":"levelo://app?vid=86507adb-43c1-4a89-acc7-c74cd80a099f","ios":"levelo://app?vid=86507adb-43c1-4a89-acc7-c74cd80a099f"},"vehicle_type_id":"4","last_reported":1744678355,"current_range_meters":14800,"station_id":"","pricing_plan_id":"cebpf4jnsgd1na2vs0mg"},{"bike_id":"9d18629a-09fb-499c-8bd0-400337810599","system_id":"levelo_inurba_marseille","lat":43.29898,"lon":5.39763,"is_reserved":false,"is_disabled":false,"rental_uris":{"android":"levelo://app?vid=9d18629a-09fb-499c-8bd0-400337810599","ios":"levelo://app?vid=9d18629a-09fb-499c-8bd0-400337810599"},"vehicle_type_id":"4","last_reported":1744678355,"current_range_meters":15200,"station_id":"ce4bh0h2rcd13ifvqd50","pricing_plan_id":"cebpf4jnsgd1na2vs0mg"},{"bike_id":"8300a52c-971f-43fc-b5ec-33d22e852aa6","system_id":"levelo_inurba_marseille","lat":43.3128,"lon":5.40168,"is_reserved":false,"is_disabled":false,"rental_uris":{"android":"levelo://app?vid=8300a52c-971f-43fc-b5ec-33d22e852aa6","ios":"levelo://app?vid=8300a52c-971f-43fc-b5ec-33d22e852aa6"},"vehicle_type_id":"4","last_reported":1744678355,"current_range_meters":15200,"station_id":"ce4bh092rcd13ifvqd30","pricing_plan_id":"cebpf4jnsgd1na2vs0mg"},{"bike_id":"925d9f60-adb9-4406-b446-d9ac73846ce0","system_id":"levelo_inurba_marseille","lat":43.3135,"lon":5.38484,"is_reserved":false,"is_disabled":false,"rental_uris":{"android":"levelo://app?vid=925d9f60-adb9-4406-b446-d9ac73846ce0","ios":"levelo://app?vid=925d9f60-adb9-4406-b446-d9ac73846ce0"},"vehicle_type_id":"4","last_reported":1744678355,"current_range_meters":15200,"station_id":"ce4bgt92rcd13ifvqcf0","pricing_plan_id":"cebpf4jnsgd1na2vs0mg"},{"bike_id":"b3f3917b-babe-4e57-b21e-9f79ef1e3bdd","system_id":"levelo_inurba_marseille","lat":43.29523,"lon":5.39392,"is_reserved":false,"is_disabled":false,"rental_uris":{"android":"levelo://app?vid=b3f3917b-babe-4e57-b21e-9f79ef1e3bdd","ios":"levelo://app?vid=b3f3917b-babe-4e57-b21e-9f79ef1e3bdd"},"vehicle_type_id":"4","last_reported":1744678355,"current_range_meters":15200,"station_id":"ce4bh292rcd13ifvqdf0","pricing_plan_id":"cebpf4jnsgd1na2vs0mg"},{"bike_id":"5c0cc5dd-7c03-4f8b-838c-65a8bfb31b5b","system_id":"levelo_inurba_marseille","lat":43.24649,"lon":5.3819,"is_reserved":false,"is_disabled":false,"rental_uris":{"android":"levelo://app?vid=5c0cc5dd-7c03-4f8b-838c-65a8bfb31b5b","ios":"levelo://app?vid=5c0cc5dd-7c03-4f8b-838c-65a8bfb31b5b"},"vehicle_type_id":"4","last_reported":1744678355,"current_range_meters":16000,"station_id":"ce4bhih2rcd13ifvqfr0","pricing_plan_id":"cebpf4jnsgd1na2vs0mg"},{"bike_id":"a6df17eb-3570-436e-862c-fc5ce65d2e7e","system_id":"levelo_inurba_marseille","lat":43.28631,"lon":5.35118,"is_reserved":false,"is_disabled":false,"rental_uris":{"android":"levelo://app?vid=a6df17eb-3570-436e-862c-fc5ce65d2e7e","ios":"levelo://app?vid=a6df17eb-3570-436e-862c-fc5ce65d2e7e"},"vehicle_type_id":"4","last_reported":1744678355,"current_range_meters":16000,"station_id":"ce4bhch2rcd13ifvqeug","pricing_plan_id":"cebpf4jnsgd1na2vs0mg"},{"bike_id":"eee1ae19-0a4d-4fb6-8b87-1e6d20ca2059","system_id":"levelo_inurba_marseille","lat":43.26807,"lon":5.4025,"is_reserved":false,"is_disabled":false,"rental_uris":{"android":"levelo://app?vid=eee1ae19-0a4d-4fb6-8b87-1e6d20ca2059","ios":"levelo://app?vid=eee1ae19-0a4d-4fb6-8b87-1e6d20ca2059"},"vehicle_type_id":"4","last_reported":1744678355,"current_range_meters":16000,"station_id":"ce501612rcd8frsf0b60","pricing_plan_id":"cebpf4jnsgd1na2vs0mg"},{"bike_id":"fedb9457-c408-43a0-8b5e-ccdff25947f5","system_id":"levelo_inurba_marseille","lat":43.26203,"lon":5.40419,"is_reserved":false,"is_disabled":true,"rental_uris":{"android":"levelo://app?vid=fedb9457-c408-43a0-8b5e-ccdff25947f5","ios":"levelo://app?vid=fedb9457-c408-43a0-8b5e-ccdff25947f5"},"vehicle_type_id":"4","last_reported":1744678355,"current_range_meters":16000,"station_id":"ce4bhlh2rcd13ifvqgig","pricing_plan_id":"cebpf4jnsgd1na2vs0mg"},{"bike_id":"7ef3f0fc-ca21-49eb-8462-8100de47b477","system_id":"levelo_inurba_marseille","lat":43.29869,"lon":5.39724,"is_reserved":false,"is_disabled":false,"rental_uris":{"android":"levelo://app?vid=7ef3f0fc-ca21-49eb-8462-8100de47b477","ios":"levelo://app?vid=7ef3f0fc-ca21-49eb-8462-8100de47b477"},"vehicle_type_id":"4","last_reported":1744678355,"current_range_meters":16000,"station_id":"ce4bh0h2rcd13ifvqd50","pricing_plan_id":"cebpf4jnsgd1na2vs0mg"},{"bike_id":"b9fc8cc3-945a-4db5-b7aa-66d235d9bf40","system_id":"levelo_inurba_marseille","lat":43.30904,"lon":5.37208,"is_reserved":false,"is_disabled":false,"rental_uris":{"android":"levelo://app?vid=b9fc8cc3-945a-4db5-b7aa-66d235d9bf40","ios":"levelo://app?vid=b9fc8cc3-945a-4db5-b7aa-66d235d9bf40"},"vehicle_type_id":"4","last_reported":1744678355,"current_range_meters":16000,"station_id":"ce4bguh2rcd13ifvqckg","pricing_plan_id":"cebpf4jnsgd1na2vs0mg"},{"bike_id":"382a1a40-cce5-4bcf-8677-ad51fb5a2457","system_id":"levelo_inurba_marseille","lat":43.28858,"lon":5.39329,"is_reserved":false,"is_disabled":true,"rental_uris":{"android":"levelo://app?vid=382a1a40-cce5-4bcf-8677-ad51fb5a2457","ios":"levelo://app?vid=382a1a40-cce5-4bcf-8677-ad51fb5a2457"},"vehicle_type_id":"4","last_reported":1744678355,"current_range_meters":16000,"station_id":"ce4bh2p2rcd13ifvqdi0","pricing_plan_id":"cebpf4jnsgd1na2vs0mg"},{"bike_id":"150c92f3-516d-41fe-89f9-fa7bb41a1f80","system_id":"levelo_inurba_marseille","lat":43.30315,"lon":5.40438,"is_reserved":false,"is_disabled":false,"rental_uris":{"android":"levelo://app?vid=150c92f3-516d-41fe-89f9-fa7bb41a1f80","ios":"levelo://app?vid=150c92f3-516d-41fe-89f9-fa7bb41a1f80"},"vehicle_type_id":"4","last_reported":1744678355,"current_range_meters":16400,"station_id":"ce4bh012rcd13ifvqd10","pricing_plan_id":"cebpf4jnsgd1na2vs0mg"},{"bike_id":"216c0a2c-fab0-4352-94a0-14b77c387959","system_id":"levelo_inurba_marseille","lat":43.24669,"lon":5.38162,"is_reserved":false,"is_disabled":false,"rental_uris":{"android":"levelo://app?vid=216c0a2c-fab0-4352-94a0-14b77c387959","ios":"levelo://app?vid=216c0a2c-fab0-4352-94a0-14b77c387959"},"vehicle_type_id":"4","last_reported":1744678355,"current_range_meters":16400,"station_id":"ce4bhih2rcd13ifvqfr0","pricing_plan_id":"cebpf4jnsgd1na2vs0mg"},{"bike_id":"d2d37f01-fa46-4fbc-a721-7789f4003663","system_id":"levelo_inurba_marseille","lat":43.24988,"lon":5.38973,"is_reserved":false,"is_disabled":false,"rental_uris":{"android":"levelo://app?vid=d2d37f01-fa46-4fbc-a721-7789f4003663","ios":"levelo://app?vid=d2d37f01-fa46-4fbc-a721-7789f4003663"},"vehicle_type_id":"4","last_reported":1744678355,"current_range_meters":16400,"station_id":"","pricing_plan_id":"cebpf4jnsgd1na2vs0mg"},{"bike_id":"690344b0-9f80-484a-9c0a-0cb50bc24e58","system_id":"levelo_inurba_marseille","lat":43.31492,"lon":5.37297,"is_reserved":false,"is_disabled":false,"rental_uris":{"android":"levelo://app?vid=690344b0-9f80-484a-9c0a-0cb50bc24e58","ios":"levelo://app?vid=690344b0-9f80-484a-9c0a-0cb50bc24e58"},"vehicle_type_id":"4","last_reported":1744678355,"current_range_meters":16400,"station_id":"ce4bgt12rcd13ifvqcd0","pricing_plan_id":"cebpf4jnsgd1na2vs0mg"},{"bike_id":"8a1fc1b6-9ba8-4eaa-8806-e8628dd9fd73","system_id":"levelo_inurba_marseille","lat":43.27315,"lon":5.41254,"is_reserved":false,"is_disabled":false,"rental_uris":{"android":"levelo://app?vid=8a1fc1b6-9ba8-4eaa-8806-e8628dd9fd73","ios":"levelo://app?vid=8a1fc1b6-9ba8-4eaa-8806-e8628dd9fd73"},"vehicle_type_id":"4","last_reported":1744678355,"current_range_meters":16400,"station_id":"","pricing_plan_id":"cebpf4jnsgd1na2vs0mg"},{"bike_id":"44071794-3eef-46de-a44a-01c839d4ab80","system_id":"levelo_inurba_marseille","lat":43.27912,"lon":5.39584,"is_reserved":false,"is_disabled":false,"rental_uris":{"android":"levelo://app?vid=44071794-3eef-46de-a44a-01c839d4ab80","ios":"levelo://app?vid=44071794-3eef-46de-a44a-01c839d4ab80"},"vehicle_type_id":"4","last_reported":1744678355,"current_range_meters":16400,"station_id":"ce4bhf92rcd13ifvqf40","pricing_plan_id":"cebpf4jnsgd1na2vs0mg"},{"bike_id":"205a676e-388e-4b5d-b5d4-92bca6b76c07","system_id":"levelo_inurba_marseille","lat":43.31155,"lon":5.38016,"is_reserved":false,"is_disabled":true,"rental_uris":{"android":"levelo://app?vid=205a676e-388e-4b5d-b5d4-92bca6b76c07","ios":"levelo://app?vid=205a676e-388e-4b5d-b5d4-92bca6b76c07"},"vehicle_type_id":"4","last_reported":1744678355,"current_range_meters":16400,"station_id":"","pricing_plan_id":"cebpf4jnsgd1na2vs0mg"},{"bike_id":"47a85634-40b2-4bd1-8409-1d1cf2f06bdc","system_id":"levelo_inurba_marseille","lat":43.240638,"lon":5.377804,"is_reserved":false,"is_disabled":false,"rental_uris":{"android":"levelo://app?vid=47a85634-40b2-4bd1-8409-1d1cf2f06bdc","ios":"levelo://app?vid=47a85634-40b2-4bd1-8409-1d1cf2f06bdc"},"vehicle_type_id":"4","last_reported":1744678355,"current_range_meters":16800,"station_id":"ce4bhnp2rcd13ifvqgvg","pricing_plan_id":"cebpf4jnsgd1na2vs0mg"},{"bike_id":"d1f397d9-e163-4a91-8b6b-a9eae5e1478e","system_id":"levelo_inurba_marseille","lat":43.285208,"lon":5.359773,"is_reserved":false,"is_disabled":false,"rental_uris":{"android":"levelo://app?vid=d1f397d9-e163-4a91-8b6b-a9eae5e1478e","ios":"levelo://app?vid=d1f397d9-e163-4a91-8b6b-a9eae5e1478e"},"vehicle_type_id":"4","last_reported":1744678355,"current_range_meters":16800,"station_id":"","pricing_plan_id":"cebpf4jnsgd1na2vs0mg"},{"bike_id":"e298fb17-60fe-4ee1-bc94-645f9b8b1bb4","system_id":"levelo_inurba_marseille","lat":43.29011,"lon":5.37612,"is_reserved":false,"is_disabled":false,"rental_uris":{"android":"levelo://app?vid=e298fb17-60fe-4ee1-bc94-645f9b8b1bb4","ios":"levelo://app?vid=e298fb17-60fe-4ee1-bc94-645f9b8b1bb4"},"vehicle_type_id":"4","last_reported":1744678355,"current_range_meters":16800,"station_id":"ce4bh692rcd13ifvqe90","pricing_plan_id":"cebpf4jnsgd1na2vs0mg"},{"bike_id":"3ab9c95d-7500-4a1b-8add-6e9d58866300","system_id":"levelo_inurba_marseille","lat":43.24674,"lon":5.38151,"is_reserved":false,"is_disabled":false,"rental_uris":{"android":"levelo://app?vid=3ab9c95d-7500-4a1b-8add-6e9d58866300","ios":"levelo://app?vid=3ab9c95d-7500-4a1b-8add-6e9d58866300"},"vehicle_type_id":"4","last_reported":1744678355,"current_range_meters":17200,"station_id":"ce4bhih2rcd13ifvqfr0","pricing_plan_id":"cebpf4jnsgd1na2vs0mg"},{"bike_id":"17b543ad-6f08-496d-bdd2-6337f67f5fc8","system_id":"levelo_inurba_marseille","lat":43.28415,"lon":5.37497,"is_reserved":false,"is_disabled":false,"rental_uris":{"android":"levelo://app?vid=17b543ad-6f08-496d-bdd2-6337f67f5fc8","ios":"levelo://app?vid=17b543ad-6f08-496d-bdd2-6337f67f5fc8"},"vehicle_type_id":"4","last_reported":1744678355,"current_range_meters":17200,"station_id":"ce4bh412rcd13ifvqds0","pricing_plan_id":"cebpf4jnsgd1na2vs0mg"},{"bike_id":"51155735-ca19-42c6-ab16-67979194f6eb","system_id":"levelo_inurba_marseille","lat":43.31315,"lon":5.39709,"is_reserved":false,"is_disabled":false,"rental_uris":{"android":"levelo://app?vid=51155735-ca19-42c6-ab16-67979194f6eb","ios":"levelo://app?vid=51155735-ca19-42c6-ab16-67979194f6eb"},"vehicle_type_id":"4","last_reported":1744678355,"current_range_meters":17200,"station_id":"ce4bgvp2rcd13ifvqcu0","pricing_plan_id":"cebpf4jnsgd1na2vs0mg"},{"bike_id":"7282ea70-0923-45fc-a703-28d7b3244700","system_id":"levelo_inurba_marseille","lat":43.29808,"lon":5.40399,"is_reserved":false,"is_disabled":false,"rental_uris":{"android":"levelo://app?vid=7282ea70-0923-45fc-a703-28d7b3244700","ios":"levelo://app?vid=7282ea70-0923-45fc-a703-28d7b3244700"},"vehicle_type_id":"4","last_reported":1744678355,"current_range_meters":17200,"station_id":"ce4bh112rcd13ifvqd90","pricing_plan_id":"cebpf4jnsgd1na2vs0mg"},{"bike_id":"08ca8e63-35b8-4bc6-809a-f02ef51474bb","system_id":"levelo_inurba_marseille","lat":43.28693,"lon":5.37386,"is_reserved":false,"is_disabled":false,"rental_uris":{"android":"levelo://app?vid=08ca8e63-35b8-4bc6-809a-f02ef51474bb","ios":"levelo://app?vid=08ca8e63-35b8-4bc6-809a-f02ef51474bb"},"vehicle_type_id":"4","last_reported":1744678355,"current_range_meters":17600,"station_id":"ce4bh3p2rcd13ifvqdq0","pricing_plan_id":"cebpf4jnsgd1na2vs0mg"},{"bike_id":"795050b8-16c0-4966-8647-df1dbd8db37a","system_id":"levelo_inurba_marseille","lat":43.28394,"lon":5.375,"is_reserved":false,"is_disabled":false,"rental_uris":{"android":"levelo://app?vid=795050b8-16c0-4966-8647-df1dbd8db37a","ios":"levelo://app?vid=795050b8-16c0-4966-8647-df1dbd8db37a"},"vehicle_type_id":"4","last_reported":1744678355,"current_range_meters":17600,"station_id":"ce4bh412rcd13ifvqds0","pricing_plan_id":"cebpf4jnsgd1na2vs0mg"},{"bike_id":"c1c136a9-3fe6-408a-a2d9-f5423d116933","system_id":"levelo_inurba_marseille","lat":43.28068,"lon":5.39601,"is_reserved":false,"is_disabled":false,"rental_uris":{"android":"levelo://app?vid=c1c136a9-3fe6-408a-a2d9-f5423d116933","ios":"levelo://app?vid=c1c136a9-3fe6-408a-a2d9-f5423d116933"},"vehicle_type_id":"4","last_reported":1744678355,"current_range_meters":17600,"station_id":"","pricing_plan_id":"cebpf4jnsgd1na2vs0mg"},{"bike_id":"c417c17e-b147-4f7d-a26a-1f902d139095","system_id":"levelo_inurba_marseille","lat":43.28169,"lon":5.42635,"is_reserved":false,"is_disabled":false,"rental_uris":{"android":"levelo://app?vid=c417c17e-b147-4f7d-a26a-1f902d139095","ios":"levelo://app?vid=c417c17e-b147-4f7d-a26a-1f902d139095"},"vehicle_type_id":"4","last_reported":1744678355,"current_range_meters":17600,"station_id":"ce4bhnh2rcd13ifvqgug","pricing_plan_id":"cebpf4jnsgd1na2vs0mg"},{"bike_id":"686d071e-6131-4f0b-bcc4-ab3418cac800","system_id":"levelo_inurba_marseille","lat":43.28104,"lon":5.37841,"is_reserved":false,"is_disabled":false,"rental_uris":{"android":"levelo://app?vid=686d071e-6131-4f0b-bcc4-ab3418cac800","ios":"levelo://app?vid=686d071e-6131-4f0b-bcc4-ab3418cac800"},"vehicle_type_id":"4","last_reported":1744678355,"current_range_meters":17600,"station_id":"ce4bha12rcd13ifvqee0","pricing_plan_id":"cebpf4jnsgd1na2vs0mg"},{"bike_id":"e789c081-55ce-45f3-afe7-648e153d0191","system_id":"levelo_inurba_marseille","lat":43.31323,"lon":5.3971,"is_reserved":false,"is_disabled":false,"rental_uris":{"android":"levelo://app?vid=e789c081-55ce-45f3-afe7-648e153d0191","ios":"levelo://app?vid=e789c081-55ce-45f3-afe7-648e153d0191"},"vehicle_type_id":"4","last_reported":1744678355,"current_range_meters":17600,"station_id":"ce4bgvp2rcd13ifvqcu0","pricing_plan_id":"cebpf4jnsgd1na2vs0mg"},{"bike_id":"32ef499e-ccb6-4e90-bac0-d4a1b914c43c","system_id":"levelo_inurba_marseille","lat":43.28728,"lon":5.3608,"is_reserved":false,"is_disabled":false,"rental_uris":{"android":"levelo://app?vid=32ef499e-ccb6-4e90-bac0-d4a1b914c43c","ios":"levelo://app?vid=32ef499e-ccb6-4e90-bac0-d4a1b914c43c"},"vehicle_type_id":"4","last_reported":1744678355,"current_range_meters":17600,"station_id":"cki0cbj6b192h4jlfktg","pricing_plan_id":"cebpf4jnsgd1na2vs0mg"},{"bike_id":"5447dc62-fd60-4585-9283-08e72056710b","system_id":"levelo_inurba_marseille","lat":43.248043,"lon":5.37449,"is_reserved":false,"is_disabled":false,"rental_uris":{"android":"levelo://app?vid=5447dc62-fd60-4585-9283-08e72056710b","ios":"levelo://app?vid=5447dc62-fd60-4585-9283-08e72056710b"},"vehicle_type_id":"4","last_reported":1744678355,"current_range_meters":17600,"station_id":"ce4bhgh2rcd13ifvqfb0","pricing_plan_id":"cebpf4jnsgd1na2vs0mg"},{"bike_id":"90ade505-5308-452c-ace7-cee618f45386","system_id":"levelo_inurba_marseille","lat":43.25275,"lon":5.39902,"is_reserved":false,"is_disabled":false,"rental_uris":{"android":"levelo://app?vid=90ade505-5308-452c-ace7-cee618f45386","ios":"levelo://app?vid=90ade505-5308-452c-ace7-cee618f45386"},"vehicle_type_id":"4","last_reported":1744678355,"current_range_meters":17600,"station_id":"","pricing_plan_id":"cebpf4jnsgd1na2vs0mg"},{"bike_id":"4aef0fa6-a0da-4fa2-9099-9fa1ba81c16a","system_id":"levelo_inurba_marseille","lat":43.2818,"lon":5.40452,"is_reserved":false,"is_disabled":false,"rental_uris":{"android":"levelo://app?vid=4aef0fa6-a0da-4fa2-9099-9fa1ba81c16a","ios":"levelo://app?vid=4aef0fa6-a0da-4fa2-9099-9fa1ba81c16a"},"vehicle_type_id":"4","last_reported":1744678355,"current_range_meters":18000,"station_id":"","pricing_plan_id":"cebpf4jnsgd1na2vs0mg"},{"bike_id":"7eacb872-0584-4b06-8fad-feb612d3799a","system_id":"levelo_inurba_marseille","lat":43.29695,"lon":5.38118,"is_reserved":false,"is_disabled":false,"rental_uris":{"android":"levelo://app?vid=7eacb872-0584-4b06-8fad-feb612d3799a","ios":"levelo://app?vid=7eacb872-0584-4b06-8fad-feb612d3799a"},"vehicle_type_id":"4","last_reported":1744678355,"current_range_meters":18000,"station_id":"","pricing_plan_id":"cebpf4jnsgd1na2vs0mg"},{"bike_id":"c8d24df4-b09f-432c-8af3-427efe4ed90b","system_id":"levelo_inurba_marseille","lat":43.30458,"lon":5.3671,"is_reserved":false,"is_disabled":false,"rental_uris":{"android":"levelo://app?vid=c8d24df4-b09f-432c-8af3-427efe4ed90b","ios":"levelo://app?vid=c8d24df4-b09f-432c-8af3-427efe4ed90b"},"vehicle_type_id":"4","last_reported":1744678355,"current_range_meters":18000,"station_id":"","pricing_plan_id":"cebpf4jnsgd1na2vs0mg"},{"bike_id":"9f815d1f-0f68-4c8f-b1b5-8479483fda1c","system_id":"levelo_inurba_marseille","lat":43.28402,"lon":5.37498,"is_reserved":false,"is_disabled":false,"rental_uris":{"android":"levelo://app?vid=9f815d1f-0f68-4c8f-b1b5-8479483fda1c","ios":"levelo://app?vid=9f815d1f-0f68-4c8f-b1b5-8479483fda1c"},"vehicle_type_id":"4","last_reported":1744678355,"current_range_meters":18000,"station_id":"ce4bh412rcd13ifvqds0","pricing_plan_id":"cebpf4jnsgd1na2vs0mg"},{"bike_id":"2caebf1c-7dd1-4d93-97aa-8cb87eccf6d4","system_id":"levelo_inurba_marseille","lat":43.31091,"lon":5.42447,"is_reserved":false,"is_disabled":false,"rental_uris":{"android":"levelo://app?vid=2caebf1c-7dd1-4d93-97aa-8cb87eccf6d4","ios":"levelo://app?vid=2caebf1c-7dd1-4d93-97aa-8cb87eccf6d4"},"vehicle_type_id":"4","last_reported":1744678355,"current_range_meters":18000,"station_id":"ce4bhp92rcd13ifvqhag","pricing_plan_id":"cebpf4jnsgd1na2vs0mg"},{"bike_id":"447b0138-f51d-4e74-8d74-14be01eaa9ba","system_id":"levelo_inurba_marseille","lat":43.297929,"lon":5.39343,"is_reserved":false,"is_disabled":false,"rental_uris":{"android":"levelo://app?vid=447b0138-f51d-4e74-8d74-14be01eaa9ba","ios":"levelo://app?vid=447b0138-f51d-4e74-8d74-14be01eaa9ba"},"vehicle_type_id":"4","last_reported":1744678355,"current_range_meters":18000,"station_id":"chh1huq6cuj3fo74tm60","pricing_plan_id":"cebpf4jnsgd1na2vs0mg"},{"bike_id":"53837df3-73ec-4e40-89dc-fba795da7d2e","system_id":"levelo_inurba_marseille","lat":43.28361,"lon":5.38099,"is_reserved":false,"is_disabled":false,"rental_uris":{"android":"levelo://app?vid=53837df3-73ec-4e40-89dc-fba795da7d2e","ios":"levelo://app?vid=53837df3-73ec-4e40-89dc-fba795da7d2e"},"vehicle_type_id":"4","last_reported":1744678355,"current_range_meters":18000,"station_id":"ce4bh412rcd13ifvqdr0","pricing_plan_id":"cebpf4jnsgd1na2vs0mg"},{"bike_id":"affbca8d-78d3-46b7-bfff-742df77116b5","system_id":"levelo_inurba_marseille","lat":43.28688,"lon":5.374,"is_reserved":false,"is_disabled":false,"rental_uris":{"android":"levelo://app?vid=affbca8d-78d3-46b7-bfff-742df77116b5","ios":"levelo://app?vid=affbca8d-78d3-46b7-bfff-742df77116b5"},"vehicle_type_id":"4","last_reported":1744678355,"current_range_meters":18800,"station_id":"ce4bh3p2rcd13ifvqdq0","pricing_plan_id":"cebpf4jnsgd1na2vs0mg"},{"bike_id":"396f2784-9564-438d-bf9a-316480e41a3e","system_id":"levelo_inurba_marseille","lat":43.25117,"lon":5.40316,"is_reserved":false,"is_disabled":false,"rental_uris":{"android":"levelo://app?vid=396f2784-9564-438d-bf9a-316480e41a3e","ios":"levelo://app?vid=396f2784-9564-438d-bf9a-316480e41a3e"},"vehicle_type_id":"4","last_reported":1744678355,"current_range_meters":18800,"station_id":"ce4bhlh2rcd13ifvqgig","pricing_plan_id":"cebpf4jnsgd1na2vs0mg"},{"bike_id":"80dcdbb4-df1d-42b0-9b04-d3646089ba95","system_id":"levelo_inurba_marseille","lat":43.2793,"lon":5.39588,"is_reserved":false,"is_disabled":false,"rental_uris":{"android":"levelo://app?vid=80dcdbb4-df1d-42b0-9b04-d3646089ba95","ios":"levelo://app?vid=80dcdbb4-df1d-42b0-9b04-d3646089ba95"},"vehicle_type_id":"4","last_reported":1744678355,"current_range_meters":18800,"station_id":"ce4bhf92rcd13ifvqf40","pricing_plan_id":"cebpf4jnsgd1na2vs0mg"},{"bike_id":"10b67fc8-d7f4-4ca4-8342-e9ded53bf972","system_id":"levelo_inurba_marseille","lat":43.301,"lon":5.39069,"is_reserved":false,"is_disabled":false,"rental_uris":{"android":"levelo://app?vid=10b67fc8-d7f4-4ca4-8342-e9ded53bf972","ios":"levelo://app?vid=10b67fc8-d7f4-4ca4-8342-e9ded53bf972"},"vehicle_type_id":"4","last_reported":1744678355,"current_range_meters":18800,"station_id":"ce4bh192rcd13ifvqdb0","pricing_plan_id":"cebpf4jnsgd1na2vs0mg"},{"bike_id":"013a924c-1ee5-4674-a305-ba7bd5a1d58b","system_id":"levelo_inurba_marseille","lat":43.230714,"lon":5.354931,"is_reserved":false,"is_disabled":false,"rental_uris":{"android":"levelo://app?vid=013a924c-1ee5-4674-a305-ba7bd5a1d58b","ios":"levelo://app?vid=013a924c-1ee5-4674-a305-ba7bd5a1d58b"},"vehicle_type_id":"4","last_reported":1744678355,"current_range_meters":18800,"station_id":"cpo3342slgdg3j2ifvpg","pricing_plan_id":"cebpf4jnsgd1na2vs0mg"},{"bike_id":"f7878edf-3ed4-4a3d-b98f-7ed55c542240","system_id":"levelo_inurba_marseille","lat":43.29267,"lon":5.40128,"is_reserved":false,"is_disabled":false,"rental_uris":{"android":"levelo://app?vid=f7878edf-3ed4-4a3d-b98f-7ed55c542240","ios":"levelo://app?vid=f7878edf-3ed4-4a3d-b98f-7ed55c542240"},"vehicle_type_id":"4","last_reported":1744678355,"current_range_meters":18800,"station_id":"ce4bh312rcd13ifvqdk0","pricing_plan_id":"cebpf4jnsgd1na2vs0mg"},{"bike_id":"dae75ed9-5269-4b58-adc5-ffcf573b6ae1","system_id":"levelo_inurba_marseille","lat":43.30883,"lon":5.37201,"is_reserved":false,"is_disabled":true,"rental_uris":{"android":"levelo://app?vid=dae75ed9-5269-4b58-adc5-ffcf573b6ae1","ios":"levelo://app?vid=dae75ed9-5269-4b58-adc5-ffcf573b6ae1"},"vehicle_type_id":"4","last_reported":1744678355,"current_range_meters":18800,"station_id":"ce4bguh2rcd13ifvqckg","pricing_plan_id":"cebpf4jnsgd1na2vs0mg"},{"bike_id":"504cf016-be85-40ae-bd6e-21fe1e837c30","system_id":"levelo_inurba_marseille","lat":43.32476,"lon":5.36554,"is_reserved":false,"is_disabled":false,"rental_uris":{"android":"levelo://app?vid=504cf016-be85-40ae-bd6e-21fe1e837c30","ios":"levelo://app?vid=504cf016-be85-40ae-bd6e-21fe1e837c30"},"vehicle_type_id":"4","last_reported":1744678355,"current_range_meters":19200,"station_id":"ce4bhs12rcd13ifvqhvg","pricing_plan_id":"cebpf4jnsgd1na2vs0mg"},{"bike_id":"f35ed168-71df-43cb-93de-9241fdfe2ff2","system_id":"levelo_inurba_marseille","lat":43.31757,"lon":5.3901,"is_reserved":false,"is_disabled":false,"rental_uris":{"android":"levelo://app?vid=f35ed168-71df-43cb-93de-9241fdfe2ff2","ios":"levelo://app?vid=f35ed168-71df-43cb-93de-9241fdfe2ff2"},"vehicle_type_id":"4","last_reported":1744678355,"current_range_meters":19200,"station_id":"ce4bhqp2rcd13ifvqhng","pricing_plan_id":"cebpf4jnsgd1na2vs0mg"},{"bike_id":"19c15561-15c8-46a6-b989-83b9818249ad","system_id":"levelo_inurba_marseille","lat":43.29624,"lon":5.38109,"is_reserved":false,"is_disabled":false,"rental_uris":{"android":"levelo://app?vid=19c15561-15c8-46a6-b989-83b9818249ad","ios":"levelo://app?vid=19c15561-15c8-46a6-b989-83b9818249ad"},"vehicle_type_id":"4","last_reported":1744678355,"current_range_meters":19200,"station_id":"ce4bgl12rcd13ifvqbo0","pricing_plan_id":"cebpf4jnsgd1na2vs0mg"},{"bike_id":"3cf53dd6-8b21-4e6c-ba52-3a63109baf27","system_id":"levelo_inurba_marseille","lat":43.29437,"lon":5.38511,"is_reserved":false,"is_disabled":false,"rental_uris":{"android":"levelo://app?vid=3cf53dd6-8b21-4e6c-ba52-3a63109baf27","ios":"levelo://app?vid=3cf53dd6-8b21-4e6c-ba52-3a63109baf27"},"vehicle_type_id":"4","last_reported":1744678355,"current_range_meters":19200,"station_id":"","pricing_plan_id":"cebpf4jnsgd1na2vs0mg"},{"bike_id":"c97a8c32-1f93-407c-8e87-642551de8e17","system_id":"levelo_inurba_marseille","lat":43.29275,"lon":5.40111,"is_reserved":false,"is_disabled":false,"rental_uris":{"android":"levelo://app?vid=c97a8c32-1f93-407c-8e87-642551de8e17","ios":"levelo://app?vid=c97a8c32-1f93-407c-8e87-642551de8e17"},"vehicle_type_id":"4","last_reported":1744678355,"current_range_meters":19200,"station_id":"ce4bh312rcd13ifvqdk0","pricing_plan_id":"cebpf4jnsgd1na2vs0mg"},{"bike_id":"f23f9551-a55e-4dd8-8f18-06e789d6ec00","system_id":"levelo_inurba_marseille","lat":43.28415,"lon":5.34972,"is_reserved":false,"is_disabled":false,"rental_uris":{"android":"levelo://app?vid=f23f9551-a55e-4dd8-8f18-06e789d6ec00","ios":"levelo://app?vid=f23f9551-a55e-4dd8-8f18-06e789d6ec00"},"vehicle_type_id":"4","last_reported":1744678355,"current_range_meters":19200,"station_id":"ce4bhbh2rcd13ifvqepg","pricing_plan_id":"cebpf4jnsgd1na2vs0mg"},{"bike_id":"803ac8b3-e9c8-4809-9332-d502fce4e3b8","system_id":"levelo_inurba_marseille","lat":43.26809,"lon":5.40256,"is_reserved":false,"is_disabled":false,"rental_uris":{"android":"levelo://app?vid=803ac8b3-e9c8-4809-9332-d502fce4e3b8","ios":"levelo://app?vid=803ac8b3-e9c8-4809-9332-d502fce4e3b8"},"vehicle_type_id":"4","last_reported":1744678355,"current_range_meters":19200,"station_id":"ce501612rcd8frsf0b60","pricing_plan_id":"cebpf4jnsgd1na2vs0mg"},{"bike_id":"9769e90d-325c-4b4a-a25b-a96792ed5293","system_id":"levelo_inurba_marseille","lat":43.29788,"lon":5.3934,"is_reserved":false,"is_disabled":false,"rental_uris":{"android":"levelo://app?vid=9769e90d-325c-4b4a-a25b-a96792ed5293","ios":"levelo://app?vid=9769e90d-325c-4b4a-a25b-a96792ed5293"},"vehicle_type_id":"4","last_reported":1744678355,"current_range_meters":19200,"station_id":"chh1huq6cuj3fo74tm60","pricing_plan_id":"cebpf4jnsgd1na2vs0mg"},{"bike_id":"bfd7d593-9547-4a2e-b8f7-834a141e4476","system_id":"levelo_inurba_marseille","lat":43.2467,"lon":5.38153,"is_reserved":false,"is_disabled":false,"rental_uris":{"android":"levelo://app?vid=bfd7d593-9547-4a2e-b8f7-834a141e4476","ios":"levelo://app?vid=bfd7d593-9547-4a2e-b8f7-834a141e4476"},"vehicle_type_id":"4","last_reported":1744678355,"current_range_meters":19200,"station_id":"ce4bhih2rcd13ifvqfr0","pricing_plan_id":"cebpf4jnsgd1na2vs0mg"},{"bike_id":"05664e36-336b-404a-b8de-2ca42d4238f0","system_id":"levelo_inurba_marseille","lat":43.250011,"lon":5.381813,"is_reserved":false,"is_disabled":false,"rental_uris":{"android":"levelo://app?vid=05664e36-336b-404a-b8de-2ca42d4238f0","ios":"levelo://app?vid=05664e36-336b-404a-b8de-2ca42d4238f0"},"vehicle_type_id":"4","last_reported":1744678355,"current_range_meters":19200,"station_id":"","pricing_plan_id":"cebpf4jnsgd1na2vs0mg"},{"bike_id":"e2183b1e-b3f1-404b-b3d3-510ec3ef77c0","system_id":"levelo_inurba_marseille","lat":43.281015,"lon":5.378362,"is_reserved":false,"is_disabled":false,"rental_uris":{"android":"levelo://app?vid=e2183b1e-b3f1-404b-b3d3-510ec3ef77c0","ios":"levelo://app?vid=e2183b1e-b3f1-404b-b3d3-510ec3ef77c0"},"vehicle_type_id":"4","last_reported":1744678355,"current_range_meters":19600,"station_id":"ce4bha12rcd13ifvqee0","pricing_plan_id":"cebpf4jnsgd1na2vs0mg"},{"bike_id":"f8a2aca9-a595-41b4-9746-786cf0fc2e07","system_id":"levelo_inurba_marseille","lat":43.295776,"lon":5.375044,"is_reserved":false,"is_disabled":true,"rental_uris":{"android":"levelo://app?vid=f8a2aca9-a595-41b4-9746-786cf0fc2e07","ios":"levelo://app?vid=f8a2aca9-a595-41b4-9746-786cf0fc2e07"},"vehicle_type_id":"4","last_reported":1744678355,"current_range_meters":19600,"station_id":"ce4bgh92rcd13ifvqb50","pricing_plan_id":"cebpf4jnsgd1na2vs0mg"},{"bike_id":"3863bcee-08b3-4b0a-9ee2-61a64262d924","system_id":"levelo_inurba_marseille","lat":43.29902,"lon":5.38126,"is_reserved":false,"is_disabled":false,"rental_uris":{"android":"levelo://app?vid=3863bcee-08b3-4b0a-9ee2-61a64262d924","ios":"levelo://app?vid=3863bcee-08b3-4b0a-9ee2-61a64262d924"},"vehicle_type_id":"4","last_reported":1744678355,"current_range_meters":20000,"station_id":"ce4bgj12rcd13ifvqbc0","pricing_plan_id":"cebpf4jnsgd1na2vs0mg"},{"bike_id":"079b03f9-db21-40c1-9899-ccf83eb158be","system_id":"levelo_inurba_marseille","lat":43.30887,"lon":5.39628,"is_reserved":false,"is_disabled":false,"rental_uris":{"android":"levelo://app?vid=079b03f9-db21-40c1-9899-ccf83eb158be","ios":"levelo://app?vid=079b03f9-db21-40c1-9899-ccf83eb158be"},"vehicle_type_id":"4","last_reported":1744678355,"current_range_meters":19600,"station_id":"ce4bh012rcd13ifvqcv0","pricing_plan_id":"cebpf4jnsgd1na2vs0mg"},{"bike_id":"5d58df85-a7c5-4c87-9736-3b1b20f3a4f9","system_id":"levelo_inurba_marseille","lat":43.2894,"lon":5.36422,"is_reserved":false,"is_disabled":true,"rental_uris":{"android":"levelo://app?vid=5d58df85-a7c5-4c87-9736-3b1b20f3a4f9","ios":"levelo://app?vid=5d58df85-a7c5-4c87-9736-3b1b20f3a4f9"},"vehicle_type_id":"4","last_reported":1744678355,"current_range_meters":19600,"station_id":"ce4bhc92rcd13ifvqetg","pricing_plan_id":"cebpf4jnsgd1na2vs0mg"},{"bike_id":"165baff9-59f4-49d4-b3ac-a0d99e236b9f","system_id":"levelo_inurba_marseille","lat":43.3079,"lon":5.37657,"is_reserved":false,"is_disabled":false,"rental_uris":{"android":"levelo://app?vid=165baff9-59f4-49d4-b3ac-a0d99e236b9f","ios":"levelo://app?vid=165baff9-59f4-49d4-b3ac-a0d99e236b9f"},"vehicle_type_id":"4","last_reported":1744678355,"current_range_meters":19600,"station_id":"ce4bgv92rcd13ifvqcq0","pricing_plan_id":"cebpf4jnsgd1na2vs0mg"},{"bike_id":"d2ff1eb5-8421-4af4-8b3e-ac1863520cda","system_id":"levelo_inurba_marseille","lat":43.279193,"lon":5.395791,"is_reserved":false,"is_disabled":false,"rental_uris":{"android":"levelo://app?vid=d2ff1eb5-8421-4af4-8b3e-ac1863520cda","ios":"levelo://app?vid=d2ff1eb5-8421-4af4-8b3e-ac1863520cda"},"vehicle_type_id":"4","last_reported":1744678355,"current_range_meters":20400,"station_id":"ce4bhf92rcd13ifvqf40","pricing_plan_id":"cebpf4jnsgd1na2vs0mg"},{"bike_id":"e61eb72d-2152-4e42-a8db-1ea20dfcb944","system_id":"levelo_inurba_marseille","lat":43.25094,"lon":5.39512,"is_reserved":false,"is_disabled":true,"rental_uris":{"android":"levelo://app?vid=e61eb72d-2152-4e42-a8db-1ea20dfcb944","ios":"levelo://app?vid=e61eb72d-2152-4e42-a8db-1ea20dfcb944"},"vehicle_type_id":"4","last_reported":1744678355,"current_range_meters":20400,"station_id":"ce4bhm12rcd13ifvqgkg","pricing_plan_id":"cebpf4jnsgd1na2vs0mg"},{"bike_id":"4d00c84e-12f0-4761-9b2f-094b53995bea","system_id":"levelo_inurba_marseille","lat":43.28349,"lon":5.38109,"is_reserved":false,"is_disabled":false,"rental_uris":{"android":"levelo://app?vid=4d00c84e-12f0-4761-9b2f-094b53995bea","ios":"levelo://app?vid=4d00c84e-12f0-4761-9b2f-094b53995bea"},"vehicle_type_id":"4","last_reported":1744678355,"current_range_meters":20800,"station_id":"ce4bh412rcd13ifvqdr0","pricing_plan_id":"cebpf4jnsgd1na2vs0mg"},{"bike_id":"37d43380-dd33-43e2-945d-54a4d347faee","system_id":"levelo_inurba_marseille","lat":43.26229,"lon":5.40448,"is_reserved":false,"is_disabled":false,"rental_uris":{"android":"levelo://app?vid=37d43380-dd33-43e2-945d-54a4d347faee","ios":"levelo://app?vid=37d43380-dd33-43e2-945d-54a4d347faee"},"vehicle_type_id":"4","last_reported":1744678355,"current_range_meters":20800,"station_id":"ce4bhmh2rcd13ifvqgmg","pricing_plan_id":"cebpf4jnsgd1na2vs0mg"},{"bike_id":"58865f51-d34a-49ac-8f37-d14aa3ef6ace","system_id":"levelo_inurba_marseille","lat":43.32418,"lon":5.39106,"is_reserved":false,"is_disabled":true,"rental_uris":{"android":"levelo://app?vid=58865f51-d34a-49ac-8f37-d14aa3ef6ace","ios":"levelo://app?vid=58865f51-d34a-49ac-8f37-d14aa3ef6ace"},"vehicle_type_id":"4","last_reported":1744678355,"current_range_meters":20800,"station_id":"","pricing_plan_id":"cebpf4jnsgd1na2vs0mg"},{"bike_id":"488ca2ad-29ab-4fd5-8ece-7e4ac0dd5749","system_id":"levelo_inurba_marseille","lat":43.28683,"lon":5.38653,"is_reserved":false,"is_disabled":false,"rental_uris":{"android":"levelo://app?vid=488ca2ad-29ab-4fd5-8ece-7e4ac0dd5749","ios":"levelo://app?vid=488ca2ad-29ab-4fd5-8ece-7e4ac0dd5749"},"vehicle_type_id":"4","last_reported":1744678355,"current_range_meters":20800,"station_id":"ce4bh492rcd13ifvqdug","pricing_plan_id":"cebpf4jnsgd1na2vs0mg"},{"bike_id":"34db5085-d418-4dbd-8526-5f1f824d59fe","system_id":"levelo_inurba_marseille","lat":43.29779,"lon":5.39336,"is_reserved":false,"is_disabled":false,"rental_uris":{"android":"levelo://app?vid=34db5085-d418-4dbd-8526-5f1f824d59fe","ios":"levelo://app?vid=34db5085-d418-4dbd-8526-5f1f824d59fe"},"vehicle_type_id":"4","last_reported":1744678355,"current_range_meters":20800,"station_id":"chh1huq6cuj3fo74tm60","pricing_plan_id":"cebpf4jnsgd1na2vs0mg"},{"bike_id":"fa4c2909-d365-4f55-8101-c90d1a93de8e","system_id":"levelo_inurba_marseille","lat":43.22925,"lon":5.35382,"is_reserved":false,"is_disabled":true,"rental_uris":{"android":"levelo://app?vid=fa4c2909-d365-4f55-8101-c90d1a93de8e","ios":"levelo://app?vid=fa4c2909-d365-4f55-8101-c90d1a93de8e"},"vehicle_type_id":"4","last_reported":1744678355,"current_range_meters":21600,"station_id":"cpo3532slgdg3j2ikp40","pricing_plan_id":"cebpf4jnsgd1na2vs0mg"},{"bike_id":"ee33e4a3-9ed1-445d-9974-26da2f858986","system_id":"levelo_inurba_marseille","lat":43.32421,"lon":5.39094,"is_reserved":false,"is_disabled":true,"rental_uris":{"android":"levelo://app?vid=ee33e4a3-9ed1-445d-9974-26da2f858986","ios":"levelo://app?vid=ee33e4a3-9ed1-445d-9974-26da2f858986"},"vehicle_type_id":"4","last_reported":1744678355,"current_range_meters":21600,"station_id":"","pricing_plan_id":"cebpf4jnsgd1na2vs0mg"},{"bike_id":"2cca94c9-f72b-4f89-aec8-29e64bccedb5","system_id":"levelo_inurba_marseille","lat":43.32367,"lon":5.3888,"is_reserved":false,"is_disabled":false,"rental_uris":{"android":"levelo://app?vid=2cca94c9-f72b-4f89-aec8-29e64bccedb5","ios":"levelo://app?vid=2cca94c9-f72b-4f89-aec8-29e64bccedb5"},"vehicle_type_id":"4","last_reported":1744678355,"current_range_meters":21600,"station_id":"ce4bhqp2rcd13ifvqhog","pricing_plan_id":"cebpf4jnsgd1na2vs0mg"},{"bike_id":"db06721d-1ee1-431c-a317-214c373163e8","system_id":"levelo_inurba_marseille","lat":43.31087,"lon":5.42433,"is_reserved":false,"is_disabled":false,"rental_uris":{"android":"levelo://app?vid=db06721d-1ee1-431c-a317-214c373163e8","ios":"levelo://app?vid=db06721d-1ee1-431c-a317-214c373163e8"},"vehicle_type_id":"4","last_reported":1744678355,"current_range_meters":21600,"station_id":"ce4bhp92rcd13ifvqhag","pricing_plan_id":"cebpf4jnsgd1na2vs0mg"},{"bike_id":"f28ab945-c9df-4b0b-be4c-c2ea61470e17","system_id":"levelo_inurba_marseille","lat":43.32484,"lon":5.36554,"is_reserved":false,"is_disabled":false,"rental_uris":{"android":"levelo://app?vid=f28ab945-c9df-4b0b-be4c-c2ea61470e17","ios":"levelo://app?vid=f28ab945-c9df-4b0b-be4c-c2ea61470e17"},"vehicle_type_id":"4","last_reported":1744678355,"current_range_meters":21600,"station_id":"ce4bhs12rcd13ifvqhvg","pricing_plan_id":"cebpf4jnsgd1na2vs0mg"},{"bike_id":"4d4d0d48-2b72-44fe-b3a8-f9dca5bf8536","system_id":"levelo_inurba_marseille","lat":43.26565,"lon":5.37297,"is_reserved":false,"is_disabled":false,"rental_uris":{"android":"levelo://app?vid=4d4d0d48-2b72-44fe-b3a8-f9dca5bf8536","ios":"levelo://app?vid=4d4d0d48-2b72-44fe-b3a8-f9dca5bf8536"},"vehicle_type_id":"4","last_reported":1744678355,"current_range_meters":22000,"station_id":"ce4bhg12rcd13ifvqf70","pricing_plan_id":"cebpf4jnsgd1na2vs0mg"},{"bike_id":"562fe525-e8ca-49df-b643-134667906845","system_id":"levelo_inurba_marseille","lat":43.24469,"lon":5.37165,"is_reserved":false,"is_disabled":false,"rental_uris":{"android":"levelo://app?vid=562fe525-e8ca-49df-b643-134667906845","ios":"levelo://app?vid=562fe525-e8ca-49df-b643-134667906845"},"vehicle_type_id":"4","last_reported":1744678355,"current_range_meters":22000,"station_id":"ce4bhhh2rcd13ifvqfk0","pricing_plan_id":"cebpf4jnsgd1na2vs0mg"},{"bike_id":"cb954038-5440-4077-813c-1c30865f131a","system_id":"levelo_inurba_marseille","lat":43.31163,"lon":5.38718,"is_reserved":false,"is_disabled":false,"rental_uris":{"android":"levelo://app?vid=cb954038-5440-4077-813c-1c30865f131a","ios":"levelo://app?vid=cb954038-5440-4077-813c-1c30865f131a"},"vehicle_type_id":"4","last_reported":1744678355,"current_range_meters":22000,"station_id":"ce4bgv12rcd13ifvqcp0","pricing_plan_id":"cebpf4jnsgd1na2vs0mg"},{"bike_id":"e574b3d2-7d50-422d-a320-1dbd226a92e3","system_id":"levelo_inurba_marseille","lat":43.24668,"lon":5.38167,"is_reserved":false,"is_disabled":false,"rental_uris":{"android":"levelo://app?vid=e574b3d2-7d50-422d-a320-1dbd226a92e3","ios":"levelo://app?vid=e574b3d2-7d50-422d-a320-1dbd226a92e3"},"vehicle_type_id":"4","last_reported":1744678355,"current_range_meters":22000,"station_id":"ce4bhih2rcd13ifvqfr0","pricing_plan_id":"cebpf4jnsgd1na2vs0mg"},{"bike_id":"497ce4e7-3b4f-456f-84da-71b5a2735a1d","system_id":"levelo_inurba_marseille","lat":43.28921,"lon":5.38403,"is_reserved":false,"is_disabled":false,"rental_uris":{"android":"levelo://app?vid=497ce4e7-3b4f-456f-84da-71b5a2735a1d","ios":"levelo://app?vid=497ce4e7-3b4f-456f-84da-71b5a2735a1d"},"vehicle_type_id":"4","last_reported":1744678355,"current_range_meters":22000,"station_id":"ce4bh612rcd13ifvqe6g","pricing_plan_id":"cebpf4jnsgd1na2vs0mg"},{"bike_id":"a8ed8bfe-e018-4ae7-b755-72caf268e29f","system_id":"levelo_inurba_marseille","lat":43.30162,"lon":5.38092,"is_reserved":false,"is_disabled":true,"rental_uris":{"android":"levelo://app?vid=a8ed8bfe-e018-4ae7-b755-72caf268e29f","ios":"levelo://app?vid=a8ed8bfe-e018-4ae7-b755-72caf268e29f"},"vehicle_type_id":"4","last_reported":1744678355,"current_range_meters":22000,"station_id":"ce4bgjp2rcd13ifvqbh0","pricing_plan_id":"cebpf4jnsgd1na2vs0mg"},{"bike_id":"d63afb62-4f7a-4bbb-83e2-290006116b33","system_id":"levelo_inurba_marseille","lat":43.2841,"lon":5.37508,"is_reserved":false,"is_disabled":false,"rental_uris":{"android":"levelo://app?vid=d63afb62-4f7a-4bbb-83e2-290006116b33","ios":"levelo://app?vid=d63afb62-4f7a-4bbb-83e2-290006116b33"},"vehicle_type_id":"4","last_reported":1744678355,"current_range_meters":22400,"station_id":"ce4bh412rcd13ifvqds0","pricing_plan_id":"cebpf4jnsgd1na2vs0mg"},{"bike_id":"b6698060-0f55-4ea2-a965-703f68491dd0","system_id":"levelo_inurba_marseille","lat":43.24994,"lon":5.38924,"is_reserved":false,"is_disabled":false,"rental_uris":{"android":"levelo://app?vid=b6698060-0f55-4ea2-a965-703f68491dd0","ios":"levelo://app?vid=b6698060-0f55-4ea2-a965-703f68491dd0"},"vehicle_type_id":"4","last_reported":1744678355,"current_range_meters":22400,"station_id":"ce4bhgp2rcd13ifvqfd0","pricing_plan_id":"cebpf4jnsgd1na2vs0mg"},{"bike_id":"d48ca38b-c380-453a-95d0-89a1f1332df3","system_id":"levelo_inurba_marseille","lat":43.28847,"lon":5.35862,"is_reserved":false,"is_disabled":false,"rental_uris":{"android":"levelo://app?vid=d48ca38b-c380-453a-95d0-89a1f1332df3","ios":"levelo://app?vid=d48ca38b-c380-453a-95d0-89a1f1332df3"},"vehicle_type_id":"4","last_reported":1744678355,"current_range_meters":22400,"station_id":"ce4bhb12rcd13ifvqem0","pricing_plan_id":"cebpf4jnsgd1na2vs0mg"},{"bike_id":"203a869e-285f-4353-9398-4547338c81e6","system_id":"levelo_inurba_marseille","lat":43.25093,"lon":5.39517,"is_reserved":false,"is_disabled":false,"rental_uris":{"android":"levelo://app?vid=203a869e-285f-4353-9398-4547338c81e6","ios":"levelo://app?vid=203a869e-285f-4353-9398-4547338c81e6"},"vehicle_type_id":"4","last_reported":1744678355,"current_range_meters":22400,"station_id":"ce4bhm12rcd13ifvqgkg","pricing_plan_id":"cebpf4jnsgd1na2vs0mg"},{"bike_id":"bb3b0a26-cba0-4bb6-9bfb-1eb8a4924a73","system_id":"levelo_inurba_marseille","lat":43.260661,"lon":5.408278,"is_reserved":false,"is_disabled":false,"rental_uris":{"android":"levelo://app?vid=bb3b0a26-cba0-4bb6-9bfb-1eb8a4924a73","ios":"levelo://app?vid=bb3b0a26-cba0-4bb6-9bfb-1eb8a4924a73"},"vehicle_type_id":"4","last_reported":1744678355,"current_range_meters":22400,"station_id":"ce4bhlh2rcd13ifvqgig","pricing_plan_id":"cebpf4jnsgd1na2vs0mg"},{"bike_id":"c96f8076-74c1-4118-9f4e-192049c4ecb4","system_id":"levelo_inurba_marseille","lat":43.25824,"lon":5.39439,"is_reserved":false,"is_disabled":false,"rental_uris":{"android":"levelo://app?vid=c96f8076-74c1-4118-9f4e-192049c4ecb4","ios":"levelo://app?vid=c96f8076-74c1-4118-9f4e-192049c4ecb4"},"vehicle_type_id":"4","last_reported":1744678355,"current_range_meters":22400,"station_id":"ce4bhip2rcd13ifvqft0","pricing_plan_id":"cebpf4jnsgd1na2vs0mg"},{"bike_id":"61e2dec8-2126-4a72-8370-3556050ebc47","system_id":"levelo_inurba_marseille","lat":43.30407,"lon":5.41267,"is_reserved":false,"is_disabled":false,"rental_uris":{"android":"levelo://app?vid=61e2dec8-2126-4a72-8370-3556050ebc47","ios":"levelo://app?vid=61e2dec8-2126-4a72-8370-3556050ebc47"},"vehicle_type_id":"4","last_reported":1744678355,"current_range_meters":22400,"station_id":"ce4bhop2rcd13ifvqh8g","pricing_plan_id":"cebpf4jnsgd1na2vs0mg"},{"bike_id":"fa8b5d88-c56b-4501-99c1-1b5a6dfd1f66","system_id":"levelo_inurba_marseille","lat":43.21191,"lon":5.35071,"is_reserved":false,"is_disabled":false,"rental_uris":{"android":"levelo://app?vid=fa8b5d88-c56b-4501-99c1-1b5a6dfd1f66","ios":"levelo://app?vid=fa8b5d88-c56b-4501-99c1-1b5a6dfd1f66"},"vehicle_type_id":"4","last_reported":1744678355,"current_range_meters":22400,"station_id":"st_cvj6sg6p6f1abm77japg","pricing_plan_id":"cebpf4jnsgd1na2vs0mg"},{"bike_id":"1175d9e6-e3ac-4aa2-a551-bea3d9efc2c5","system_id":"levelo_inurba_marseille","lat":43.27998,"lon":5.41684,"is_reserved":false,"is_disabled":false,"rental_uris":{"android":"levelo://app?vid=1175d9e6-e3ac-4aa2-a551-bea3d9efc2c5","ios":"levelo://app?vid=1175d9e6-e3ac-4aa2-a551-bea3d9efc2c5"},"vehicle_type_id":"4","last_reported":1744678355,"current_range_meters":22800,"station_id":"ce4bho12rcd13ifvqh1g","pricing_plan_id":"cebpf4jnsgd1na2vs0mg"},{"bike_id":"6bf5a380-400e-4cd6-bc1e-356afac9ee45","system_id":"levelo_inurba_marseille","lat":43.241622,"lon":5.36396,"is_reserved":false,"is_disabled":false,"rental_uris":{"android":"levelo://app?vid=6bf5a380-400e-4cd6-bc1e-356afac9ee45","ios":"levelo://app?vid=6bf5a380-400e-4cd6-bc1e-356afac9ee45"},"vehicle_type_id":"4","last_reported":1744678355,"current_range_meters":22800,"station_id":"cpo36qri1sfpv3e86is0","pricing_plan_id":"cebpf4jnsgd1na2vs0mg"},{"bike_id":"f679fd29-cbc0-4c84-adeb-cc493c0ff6fb","system_id":"levelo_inurba_marseille","lat":43.289376,"lon":5.366387,"is_reserved":false,"is_disabled":false,"rental_uris":{"android":"levelo://app?vid=f679fd29-cbc0-4c84-adeb-cc493c0ff6fb","ios":"levelo://app?vid=f679fd29-cbc0-4c84-adeb-cc493c0ff6fb"},"vehicle_type_id":"4","last_reported":1744678355,"current_range_meters":22800,"station_id":"ce4bhap2rcd13ifvqek0","pricing_plan_id":"cebpf4jnsgd1na2vs0mg"},{"bike_id":"1564f1c0-b56b-463c-b50b-def8e9116b7e","system_id":"levelo_inurba_marseille","lat":43.30932,"lon":5.40137,"is_reserved":false,"is_disabled":false,"rental_uris":{"android":"levelo://app?vid=1564f1c0-b56b-463c-b50b-def8e9116b7e","ios":"levelo://app?vid=1564f1c0-b56b-463c-b50b-def8e9116b7e"},"vehicle_type_id":"4","last_reported":1744678355,"current_range_meters":22800,"station_id":"ce4bgvp2rcd13ifvqct0","pricing_plan_id":"cebpf4jnsgd1na2vs0mg"},{"bike_id":"df48cf7d-f898-49eb-87ea-51f5181e82f8","system_id":"levelo_inurba_marseille","lat":43.29268,"lon":5.37626,"is_reserved":false,"is_disabled":false,"rental_uris":{"android":"levelo://app?vid=df48cf7d-f898-49eb-87ea-51f5181e82f8","ios":"levelo://app?vid=df48cf7d-f898-49eb-87ea-51f5181e82f8"},"vehicle_type_id":"4","last_reported":1744678355,"current_range_meters":22800,"station_id":"ce4bgi12rcd13ifvqb80","pricing_plan_id":"cebpf4jnsgd1na2vs0mg"},{"bike_id":"5c6c3fb8-7361-484d-9064-11db39d2d324","system_id":"levelo_inurba_marseille","lat":43.27066,"lon":5.42274,"is_reserved":false,"is_disabled":false,"rental_uris":{"android":"levelo://app?vid=5c6c3fb8-7361-484d-9064-11db39d2d324","ios":"levelo://app?vid=5c6c3fb8-7361-484d-9064-11db39d2d324"},"vehicle_type_id":"4","last_reported":1744678355,"current_range_meters":22800,"station_id":"ce4bhk92rcd13ifvqgb0","pricing_plan_id":"cebpf4jnsgd1na2vs0mg"},{"bike_id":"970f93c4-ff24-4554-b0ee-793542e2ad03","system_id":"levelo_inurba_marseille","lat":43.25122,"lon":5.40336,"is_reserved":false,"is_disabled":false,"rental_uris":{"android":"levelo://app?vid=970f93c4-ff24-4554-b0ee-793542e2ad03","ios":"levelo://app?vid=970f93c4-ff24-4554-b0ee-793542e2ad03"},"vehicle_type_id":"4","last_reported":1744678355,"current_range_meters":22400,"station_id":"ce4bhlh2rcd13ifvqgig","pricing_plan_id":"cebpf4jnsgd1na2vs0mg"},{"bike_id":"d7fc5277-51d3-410d-8282-0199be07a6f3","system_id":"levelo_inurba_marseille","lat":43.26238,"lon":5.40488,"is_reserved":false,"is_disabled":false,"rental_uris":{"android":"levelo://app?vid=d7fc5277-51d3-410d-8282-0199be07a6f3","ios":"levelo://app?vid=d7fc5277-51d3-410d-8282-0199be07a6f3"},"vehicle_type_id":"4","last_reported":1744678355,"current_range_meters":22800,"station_id":"ce4bhmh2rcd13ifvqgmg","pricing_plan_id":"cebpf4jnsgd1na2vs0mg"},{"bike_id":"75aeda06-bbc2-4b16-85f7-54753a374ed6","system_id":"levelo_inurba_marseille","lat":43.23589,"lon":5.40353,"is_reserved":false,"is_disabled":false,"rental_uris":{"android":"levelo://app?vid=75aeda06-bbc2-4b16-85f7-54753a374ed6","ios":"levelo://app?vid=75aeda06-bbc2-4b16-85f7-54753a374ed6"},"vehicle_type_id":"4","last_reported":1744678355,"current_range_meters":22800,"station_id":"","pricing_plan_id":"cebpf4jnsgd1na2vs0mg"},{"bike_id":"7ad0bf0f-5294-442b-8825-791f1416a999","system_id":"levelo_inurba_marseille","lat":43.24155,"lon":5.39718,"is_reserved":false,"is_disabled":false,"rental_uris":{"android":"levelo://app?vid=7ad0bf0f-5294-442b-8825-791f1416a999","ios":"levelo://app?vid=7ad0bf0f-5294-442b-8825-791f1416a999"},"vehicle_type_id":"4","last_reported":1744678355,"current_range_meters":22800,"station_id":"ce4bhn12rcd13ifvqgpg","pricing_plan_id":"cebpf4jnsgd1na2vs0mg"},{"bike_id":"7df30823-509e-46f1-8612-8c707669a797","system_id":"levelo_inurba_marseille","lat":43.303262,"lon":5.404464,"is_reserved":false,"is_disabled":false,"rental_uris":{"android":"levelo://app?vid=7df30823-509e-46f1-8612-8c707669a797","ios":"levelo://app?vid=7df30823-509e-46f1-8612-8c707669a797"},"vehicle_type_id":"4","last_reported":1744678355,"current_range_meters":22800,"station_id":"ce4bh012rcd13ifvqd10","pricing_plan_id":"cebpf4jnsgd1na2vs0mg"},{"bike_id":"ed884e62-a0a3-4003-9f0d-76d33ff3858a","system_id":"levelo_inurba_marseille","lat":43.284123,"lon":5.375233,"is_reserved":false,"is_disabled":false,"rental_uris":{"android":"levelo://app?vid=ed884e62-a0a3-4003-9f0d-76d33ff3858a","ios":"levelo://app?vid=ed884e62-a0a3-4003-9f0d-76d33ff3858a"},"vehicle_type_id":"4","last_reported":1744678355,"current_range_meters":23200,"station_id":"ce4bh412rcd13ifvqds0","pricing_plan_id":"cebpf4jnsgd1na2vs0mg"},{"bike_id":"5d998d80-5a11-426e-867a-a3bce34cc146","system_id":"levelo_inurba_marseille","lat":43.2549,"lon":5.37641,"is_reserved":false,"is_disabled":false,"rental_uris":{"android":"levelo://app?vid=5d998d80-5a11-426e-867a-a3bce34cc146","ios":"levelo://app?vid=5d998d80-5a11-426e-867a-a3bce34cc146"},"vehicle_type_id":"4","last_reported":1744678355,"current_range_meters":22800,"station_id":"ce4bhh12rcd13ifvqff0","pricing_plan_id":"cebpf4jnsgd1na2vs0mg"},{"bike_id":"5e54c3f0-5ad7-432d-b643-ac5c41ec9867","system_id":"levelo_inurba_marseille","lat":43.33543,"lon":5.36344,"is_reserved":false,"is_disabled":false,"rental_uris":{"android":"levelo://app?vid=5e54c3f0-5ad7-432d-b643-ac5c41ec9867","ios":"levelo://app?vid=5e54c3f0-5ad7-432d-b643-ac5c41ec9867"},"vehicle_type_id":"4","last_reported":1744678355,"current_range_meters":23200,"station_id":"","pricing_plan_id":"cebpf4jnsgd1na2vs0mg"},{"bike_id":"cc081437-40fb-493f-a74f-e6f72a75a51c","system_id":"levelo_inurba_marseille","lat":43.27995,"lon":5.41666,"is_reserved":false,"is_disabled":false,"rental_uris":{"android":"levelo://app?vid=cc081437-40fb-493f-a74f-e6f72a75a51c","ios":"levelo://app?vid=cc081437-40fb-493f-a74f-e6f72a75a51c"},"vehicle_type_id":"4","last_reported":1744678355,"current_range_meters":23200,"station_id":"ce4bho12rcd13ifvqh1g","pricing_plan_id":"cebpf4jnsgd1na2vs0mg"},{"bike_id":"473966a4-8134-4f96-a952-1f7a3ce10896","system_id":"levelo_inurba_marseille","lat":43.28412,"lon":5.37529,"is_reserved":false,"is_disabled":false,"rental_uris":{"android":"levelo://app?vid=473966a4-8134-4f96-a952-1f7a3ce10896","ios":"levelo://app?vid=473966a4-8134-4f96-a952-1f7a3ce10896"},"vehicle_type_id":"4","last_reported":1744678355,"current_range_meters":23200,"station_id":"ce4bh412rcd13ifvqds0","pricing_plan_id":"cebpf4jnsgd1na2vs0mg"},{"bike_id":"4c0ede51-6b22-44f8-8575-b86906a20779","system_id":"levelo_inurba_marseille","lat":43.2176,"lon":5.34632,"is_reserved":false,"is_disabled":false,"rental_uris":{"android":"levelo://app?vid=4c0ede51-6b22-44f8-8575-b86906a20779","ios":"levelo://app?vid=4c0ede51-6b22-44f8-8575-b86906a20779"},"vehicle_type_id":"4","last_reported":1744678355,"current_range_meters":23200,"station_id":"st_cvj6r9ubvosntc0bgbag","pricing_plan_id":"cebpf4jnsgd1na2vs0mg"},{"bike_id":"4b35b685-5fed-4de4-838c-4970d7589d89","system_id":"levelo_inurba_marseille","lat":43.2873,"lon":5.40032,"is_reserved":false,"is_disabled":true,"rental_uris":{"android":"levelo://app?vid=4b35b685-5fed-4de4-838c-4970d7589d89","ios":"levelo://app?vid=4b35b685-5fed-4de4-838c-4970d7589d89"},"vehicle_type_id":"4","last_reported":1744678355,"current_range_meters":23200,"station_id":"ce4bho92rcd13ifvqh3g","pricing_plan_id":"cebpf4jnsgd1na2vs0mg"},{"bike_id":"77f29589-fdae-4886-8022-2155a978ed5b","system_id":"levelo_inurba_marseille","lat":43.30796,"lon":5.43529,"is_reserved":false,"is_disabled":false,"rental_uris":{"android":"levelo://app?vid=77f29589-fdae-4886-8022-2155a978ed5b","ios":"levelo://app?vid=77f29589-fdae-4886-8022-2155a978ed5b"},"vehicle_type_id":"4","last_reported":1744678355,"current_range_meters":24000,"station_id":"ce4bhph2rcd13ifvqheg","pricing_plan_id":"cebpf4jnsgd1na2vs0mg"},{"bike_id":"960caa4c-48e7-4e00-bca7-aeefd828a0a0","system_id":"levelo_inurba_marseille","lat":43.28006,"lon":5.4093,"is_reserved":false,"is_disabled":false,"rental_uris":{"android":"levelo://app?vid=960caa4c-48e7-4e00-bca7-aeefd828a0a0","ios":"levelo://app?vid=960caa4c-48e7-4e00-bca7-aeefd828a0a0"},"vehicle_type_id":"4","last_reported":1744678355,"current_range_meters":24000,"station_id":"","pricing_plan_id":"cebpf4jnsgd1na2vs0mg"},{"bike_id":"174447d2-5dca-4955-b695-aa0dad7d99a5","system_id":"levelo_inurba_marseille","lat":43.28404,"lon":5.37535,"is_reserved":false,"is_disabled":false,"rental_uris":{"android":"levelo://app?vid=174447d2-5dca-4955-b695-aa0dad7d99a5","ios":"levelo://app?vid=174447d2-5dca-4955-b695-aa0dad7d99a5"},"vehicle_type_id":"4","last_reported":1744678355,"current_range_meters":24000,"station_id":"ce4bh412rcd13ifvqds0","pricing_plan_id":"cebpf4jnsgd1na2vs0mg"},{"bike_id":"6c103f9f-c959-46ad-a2e8-e44f9660c68e","system_id":"levelo_inurba_marseille","lat":43.2119,"lon":5.35081,"is_reserved":false,"is_disabled":false,"rental_uris":{"android":"levelo://app?vid=6c103f9f-c959-46ad-a2e8-e44f9660c68e","ios":"levelo://app?vid=6c103f9f-c959-46ad-a2e8-e44f9660c68e"},"vehicle_type_id":"4","last_reported":1744678355,"current_range_meters":24000,"station_id":"st_cvj6sg6p6f1abm77japg","pricing_plan_id":"cebpf4jnsgd1na2vs0mg"},{"bike_id":"174c2c9b-2f0a-47fb-998b-9f7260f2f135","system_id":"levelo_inurba_marseille","lat":43.3073,"lon":5.424419,"is_reserved":false,"is_disabled":false,"rental_uris":{"android":"levelo://app?vid=174c2c9b-2f0a-47fb-998b-9f7260f2f135","ios":"levelo://app?vid=174c2c9b-2f0a-47fb-998b-9f7260f2f135"},"vehicle_type_id":"4","last_reported":1744678355,"current_range_meters":24000,"station_id":"st_cvj6ca6bvosntc0bfgr0","pricing_plan_id":"cebpf4jnsgd1na2vs0mg"},{"bike_id":"8df07517-2b52-4ade-9f99-8e7da2882485","system_id":"levelo_inurba_marseille","lat":43.31333,"lon":5.39697,"is_reserved":false,"is_disabled":false,"rental_uris":{"android":"levelo://app?vid=8df07517-2b52-4ade-9f99-8e7da2882485","ios":"levelo://app?vid=8df07517-2b52-4ade-9f99-8e7da2882485"},"vehicle_type_id":"4","last_reported":1744678355,"current_range_meters":24000,"station_id":"ce4bgvp2rcd13ifvqcu0","pricing_plan_id":"cebpf4jnsgd1na2vs0mg"},{"bike_id":"54ed31a1-8300-4a0a-abe1-cade456d6177","system_id":"levelo_inurba_marseille","lat":43.26551,"lon":5.37296,"is_reserved":false,"is_disabled":false,"rental_uris":{"android":"levelo://app?vid=54ed31a1-8300-4a0a-abe1-cade456d6177","ios":"levelo://app?vid=54ed31a1-8300-4a0a-abe1-cade456d6177"},"vehicle_type_id":"4","last_reported":1744678355,"current_range_meters":24000,"station_id":"ce4bhg12rcd13ifvqf70","pricing_plan_id":"cebpf4jnsgd1na2vs0mg"},