{"last_updated":1744312043,"ttl":60,"version":"2.2","data":{"bikes":[{"bike_id":"bbd80319-1181-4d13-9170-930109d715a3","system_id":"levelo_inurba_marseille","lat":43.28038,"lon":5.3694,"is_reserved":false,"is_disabled":false,"rental_uris":{"android":"levelo://app?vid=bbd80319-1181-4d13-9170-930109d715a3","ios":"levelo://app?vid=bbd80319-1181-4d13-9170-930109d715a3"},"vehicle_type_id":"4","last_reported":1744312044,"current_range_meters":2800,"station_id":"ce4bha12rcd13ifvqef0","pricing_plan_id":"cebpf4jnsgd1na2vs0mg"},{"bike_id":"7a06fc79-e49d-4778-9cec-9bdf00b92342","system_id":"levelo_inurba_marseille","lat":43.30318,"lon":5.40431,"is_reserved":false,"is_disabled":false,"rental_uris":{"android":"levelo://app?vid=7a06fc79-e49d-4778-9cec-9bdf00b92342","ios":"levelo://app?vid=7a06fc79-e49d-4778-9cec-9bdf00b92342"},"vehicle_type_id":"4","last_reported":1744312044,"current_range_meters":2800,"station_id":"ce4bh012rcd13ifvqd10","pricing_plan_id":"cebpf4jnsgd1na2vs0mg"},{"bike_id":"80663e12-6b64-446d-88c9-20255bde1a8a","system_id":"levelo_inurba_marseille","lat":43.30858,"lon":5.39635,"is_reserved":false,"is_disabled":true,"rental_uris":{"android":"levelo://app?vid=80663e12-6b64-446d-88c9-20255bde1a8a","ios":"levelo://app?vid=80663e12-6b64-446d-88c9-20255bde1a8a"},"vehicle_type_id":"4","last_reported":1744312044,"current_range_meters":2800,"station_id":"ce4bh012rcd13ifvqcv0","pricing_plan_id":"cebpf4jnsgd1na2vs0mg"},{"bike_id":"caf2e612-0d07-4975-a511-be1f176bfca5","system_id":"levelo_inurba_marseille","lat":43.247619,"lon":5.400376,"is_reserved":false,"is_disabled":true,"rental_uris":{"android":"levelo://app?vid=caf2e612-0d07-4975-a511-be1f176bfca5","ios":"levelo://app?vid=caf2e612-0d07-4975-a511-be1f176bfca5"},"vehicle_type_id":"4","last_reported":1744312044,"current_range_meters":2800,"station_id":"","pricing_plan_id":"cebpf4jnsgd1na2vs0mg"},{"bike_id":"cc752d01-66c7-4766-9521-a699f63a89ef","system_id":"levelo_inurba_marseille","lat":43.30605,"lon":5.37222,"is_reserved":false,"is_disabled":false,"rental_uris":{"android":"levelo://app?vid=cc752d01-66c7-4766-9521-a699f63a89ef","ios":"levelo://app?vid=cc752d01-66c7-4766-9521-a699f63a89ef"},"vehicle_type_id":"4","last_reported":1744312044,"current_range_meters":2800,"station_id":"ce4bgqh2rcd13ifvqc4g","pricing_plan_id":"cebpf4jnsgd1na2vs0mg"},{"bike_id":"30627c75-4618-4df5-801a-902115454ce4","system_id":"levelo_inurba_marseille","lat":43.30126,"lon":5.3986,"is_reserved":false,"is_disabled":false,"rental_uris":{"android":"levelo://app?vid=30627c75-4618-4df5-801a-902115454ce4","ios":"levelo://app?vid=30627c75-4618-4df5-801a-902115454ce4"},"vehicle_type_id":"4","last_reported":1744312044,"current_range_meters":3200,"station_id":"ce4bh0h2rcd13ifvqd40","pricing_plan_id":"cebpf4jnsgd1na2vs0mg"},{"bike_id":"9d73e8d6-abd5-4fb7-a3eb-96ab852019a5","system_id":"levelo_inurba_marseille","lat":43.29368,"lon":5.37862,"is_reserved":false,"is_disabled":false,"rental_uris":{"android":"levelo://app?vid=9d73e8d6-abd5-4fb7-a3eb-96ab852019a5","ios":"levelo://app?vid=9d73e8d6-abd5-4fb7-a3eb-96ab852019a5"},"vehicle_type_id":"4","last_reported":1744312044,"current_range_meters":3200,"station_id":"ce4bgjh2rcd13ifvqbf0","pricing_plan_id":"cebpf4jnsgd1na2vs0mg"},{"bike_id":"5855c9ce-3014-4ed1-adee-16a6e9e5aa56","system_id":"levelo_inurba_marseille","lat":43.287188,"lon":5.37933,"is_reserved":false,"is_disabled":false,"rental_uris":{"android":"levelo://app?vid=5855c9ce-3014-4ed1-adee-16a6e9e5aa56","ios":"levelo://app?vid=5855c9ce-3014-4ed1-adee-16a6e9e5aa56"},"vehicle_type_id":"4","last_reported":1744312044,"current_range_meters":3200,"station_id":"ce4bh9p2rcd13ifvqec0","pricing_plan_id":"cebpf4jnsgd1na2vs0mg"},{"bike_id":"eee79d96-0006-4997-8a5b-8c396bc94214","system_id":"levelo_inurba_marseille","lat":43.27666,"lon":5.38901,"is_reserved":false,"is_disabled":false,"rental_uris":{"android":"levelo://app?vid=eee79d96-0006-4997-8a5b-8c396bc94214","ios":"levelo://app?vid=eee79d96-0006-4997-8a5b-8c396bc94214"},"vehicle_type_id":"4","last_reported":1744312044,"current_range_meters":3200,"station_id":"ce4bhi12rcd13ifvqfo0","pricing_plan_id":"cebpf4jnsgd1na2vs0mg"},{"bike_id":"3a5d5587-b23d-4114-aad1-1efc1909a514","system_id":"levelo_inurba_marseille","lat":43.27916,"lon":5.38026,"is_reserved":false,"is_disabled":true,"rental_uris":{"android":"levelo://app?vid=3a5d5587-b23d-4114-aad1-1efc1909a514","ios":"levelo://app?vid=3a5d5587-b23d-4114-aad1-1efc1909a514"},"vehicle_type_id":"4","last_reported":1744312044,"current_range_meters":3200,"station_id":"ce4bhf92rcd13ifvqf50","pricing_plan_id":"cebpf4jnsgd1na2vs0mg"},{"bike_id":"16e530bd-c628-4813-aaee-bc16c68ce937","system_id":"levelo_inurba_marseille","lat":43.30218,"lon":5.39474,"is_reserved":false,"is_disabled":false,"rental_uris":{"android":"levelo://app?vid=16e530bd-c628-4813-aaee-bc16c68ce937","ios":"levelo://app?vid=16e530bd-c628-4813-aaee-bc16c68ce937"},"vehicle_type_id":"4","last_reported":1744312044,"current_range_meters":3200,"station_id":"ce4bh0p2rcd13ifvqd70","pricing_plan_id":"cebpf4jnsgd1na2vs0mg"},{"bike_id":"f4de7990-3c7e-4093-b695-32ff5b456fb3","system_id":"levelo_inurba_marseille","lat":43.279968,"lon":5.400081,"is_reserved":false,"is_disabled":false,"rental_uris":{"android":"levelo://app?vid=f4de7990-3c7e-4093-b695-32ff5b456fb3","ios":"levelo://app?vid=f4de7990-3c7e-4093-b695-32ff5b456fb3"},"vehicle_type_id":"4","last_reported":1744312044,"current_range_meters":3200,"station_id":"ce4bho92rcd13ifvqh4g","pricing_plan_id":"cebpf4jnsgd1na2vs0mg"},{"bike_id":"8dc3e054-6c9d-492a-80e1-ed1d3342db65","system_id":"levelo_inurba_marseille","lat":43.279983,"lon":5.400207,"is_reserved":false,"is_disabled":false,"rental_uris":{"android":"levelo://app?vid=8dc3e054-6c9d-492a-80e1-ed1d3342db65","ios":"levelo://app?vid=8dc3e054-6c9d-492a-80e1-ed1d3342db65"},"vehicle_type_id":"4","last_reported":1744312044,"current_range_meters":3600,"station_id":"ce4bho92rcd13ifvqh4g","pricing_plan_id":"cebpf4jnsgd1na2vs0mg"},{"bike_id":"98bde375-1946-4247-9779-ef60c95239a6","system_id":"levelo_inurba_marseille","lat":43.308,"lon":5.43557,"is_reserved":false,"is_disabled":false,"rental_uris":{"android":"levelo://app?vid=98bde375-1946-4247-9779-ef60c95239a6","ios":"levelo://app?vid=98bde375-1946-4247-9779-ef60c95239a6"},"vehicle_type_id":"4","last_reported":1744312044,"current_range_meters":3600,"station_id":"ce4bhph2rcd13ifvqheg","pricing_plan_id":"cebpf4jnsgd1na2vs0mg"},{"bike_id":"807456d8-87c0-4fc6-b876-d1e72ab7ed13","system_id":"levelo_inurba_marseille","lat":43.28346,"lon":5.38111,"is_reserved":false,"is_disabled":false,"rental_uris":{"android":"levelo://app?vid=807456d8-87c0-4fc6-b876-d1e72ab7ed13","ios":"levelo://app?vid=807456d8-87c0-4fc6-b876-d1e72ab7ed13"},"vehicle_type_id":"4","last_reported":1744312044,"current_range_meters":3600,"station_id":"ce4bh412rcd13ifvqdr0","pricing_plan_id":"cebpf4jnsgd1na2vs0mg"},{"bike_id":"3f1a9ca9-fdb0-48b6-bbb2-ce1ccd7e0d71","system_id":"levelo_inurba_marseille","lat":43.29441,"lon":5.39737,"is_reserved":false,"is_disabled":false,"rental_uris":{"android":"levelo://app?vid=3f1a9ca9-fdb0-48b6-bbb2-ce1ccd7e0d71","ios":"levelo://app?vid=3f1a9ca9-fdb0-48b6-bbb2-ce1ccd7e0d71"},"vehicle_type_id":"4","last_reported":1744312044,"current_range_meters":3600,"station_id":"ce4bh3h2rcd13ifvqdo0","pricing_plan_id":"cebpf4jnsgd1na2vs0mg"},{"bike_id":"3d99dc14-b338-4db6-b747-3278b45d256e","system_id":"levelo_inurba_marseille","lat":43.29529,"lon":5.38551,"is_reserved":false,"is_disabled":false,"rental_uris":{"android":"levelo://app?vid=3d99dc14-b338-4db6-b747-3278b45d256e","ios":"levelo://app?vid=3d99dc14-b338-4db6-b747-3278b45d256e"},"vehicle_type_id":"4","last_reported":1744312044,"current_range_meters":3600,"station_id":"ce4bgih2rcd13ifvqba0","pricing_plan_id":"cebpf4jnsgd1na2vs0mg"},{"bike_id":"8d2ed55e-d424-463e-b3e3-8fb7e4daf832","system_id":"levelo_inurba_marseille","lat":43.29267,"lon":5.37618,"is_reserved":false,"is_disabled":false,"rental_uris":{"android":"levelo://app?vid=8d2ed55e-d424-463e-b3e3-8fb7e4daf832","ios":"levelo://app?vid=8d2ed55e-d424-463e-b3e3-8fb7e4daf832"},"vehicle_type_id":"4","last_reported":1744312044,"current_range_meters":3600,"station_id":"ce4bgi12rcd13ifvqb80","pricing_plan_id":"cebpf4jnsgd1na2vs0mg"},{"bike_id":"1811a7f6-a301-4552-a93c-d97f29fad7a0","system_id":"levelo_inurba_marseille","lat":43.30563,"lon":5.36561,"is_reserved":false,"is_disabled":false,"rental_uris":{"android":"levelo://app?vid=1811a7f6-a301-4552-a93c-d97f29fad7a0","ios":"levelo://app?vid=1811a7f6-a301-4552-a93c-d97f29fad7a0"},"vehicle_type_id":"4","last_reported":1744312044,"current_range_meters":3600,"station_id":"ce4bgs12rcd13ifvqcag","pricing_plan_id":"cebpf4jnsgd1na2vs0mg"},{"bike_id":"b633a7ed-70ee-4c20-b544-64b91fb9e6fd","system_id":"levelo_inurba_marseille","lat":43.25492,"lon":5.37649,"is_reserved":false,"is_disabled":false,"rental_uris":{"android":"levelo://app?vid=b633a7ed-70ee-4c20-b544-64b91fb9e6fd","ios":"levelo://app?vid=b633a7ed-70ee-4c20-b544-64b91fb9e6fd"},"vehicle_type_id":"4","last_reported":1744312044,"current_range_meters":3600,"station_id":"ce4bhh12rcd13ifvqff0","pricing_plan_id":"cebpf4jnsgd1na2vs0mg"},{"bike_id":"8642dacf-13fe-48f1-8823-af762815cb13","system_id":"levelo_inurba_marseille","lat":43.30419,"lon":5.39738,"is_reserved":false,"is_disabled":false,"rental_uris":{"android":"levelo://app?vid=8642dacf-13fe-48f1-8823-af762815cb13","ios":"levelo://app?vid=8642dacf-13fe-48f1-8823-af762815cb13"},"vehicle_type_id":"4","last_reported":1744312044,"current_range_meters":4400,"station_id":"ce4bh092rcd13ifvqd20","pricing_plan_id":"cebpf4jnsgd1na2vs0mg"},{"bike_id":"419d5ac1-ac7b-41fc-82d2-b2569888725b","system_id":"levelo_inurba_marseille","lat":43.30606,"lon":5.3723,"is_reserved":false,"is_disabled":false,"rental_uris":{"android":"levelo://app?vid=419d5ac1-ac7b-41fc-82d2-b2569888725b","ios":"levelo://app?vid=419d5ac1-ac7b-41fc-82d2-b2569888725b"},"vehicle_type_id":"4","last_reported":1744312044,"current_range_meters":4000,"station_id":"ce4bgqh2rcd13ifvqc4g","pricing_plan_id":"cebpf4jnsgd1na2vs0mg"},{"bike_id":"becb6d41-ef57-4f13-84bd-0272937802a7","system_id":"levelo_inurba_marseille","lat":43.29622,"lon":5.40626,"is_reserved":false,"is_disabled":false,"rental_uris":{"android":"levelo://app?vid=becb6d41-ef57-4f13-84bd-0272937802a7","ios":"levelo://app?vid=becb6d41-ef57-4f13-84bd-0272937802a7"},"vehicle_type_id":"4","last_reported":1744312044,"current_range_meters":4000,"station_id":"ce4bh0h2rcd13ifvqd60","pricing_plan_id":"cebpf4jnsgd1na2vs0mg"},{"bike_id":"e24916fb-7755-4e53-b60d-62182a1de7b1","system_id":"levelo_inurba_marseille","lat":43.30094,"lon":5.39081,"is_reserved":false,"is_disabled":false,"rental_uris":{"android":"levelo://app?vid=e24916fb-7755-4e53-b60d-62182a1de7b1","ios":"levelo://app?vid=e24916fb-7755-4e53-b60d-62182a1de7b1"},"vehicle_type_id":"4","last_reported":1744312044,"current_range_meters":4000,"station_id":"ce4bh192rcd13ifvqdb0","pricing_plan_id":"cebpf4jnsgd1na2vs0mg"},{"bike_id":"08f9c0c8-8b33-4578-8a03-20f44d582241","system_id":"levelo_inurba_marseille","lat":43.30509,"lon":5.36924,"is_reserved":false,"is_disabled":false,"rental_uris":{"android":"levelo://app?vid=08f9c0c8-8b33-4578-8a03-20f44d582241","ios":"levelo://app?vid=08f9c0c8-8b33-4578-8a03-20f44d582241"},"vehicle_type_id":"4","last_reported":1744312044,"current_range_meters":4000,"station_id":"","pricing_plan_id":"cebpf4jnsgd1na2vs0mg"},{"bike_id":"d4a1fc33-4313-4254-8a3d-5b22f97cf603","system_id":"levelo_inurba_marseille","lat":43.292257,"lon":5.401176,"is_reserved":false,"is_disabled":false,"rental_uris":{"android":"levelo://app?vid=d4a1fc33-4313-4254-8a3d-5b22f97cf603","ios":"levelo://app?vid=d4a1fc33-4313-4254-8a3d-5b22f97cf603"},"vehicle_type_id":"4","last_reported":1744312044,"current_range_meters":3600,"station_id":"ce4bh312rcd13ifvqdk0","pricing_plan_id":"cebpf4jnsgd1na2vs0mg"},{"bike_id":"1066df41-75c6-40c9-be1b-a76eee937607","system_id":"levelo_inurba_marseille","lat":43.29881,"lon":5.38905,"is_reserved":false,"is_disabled":false,"rental_uris":{"android":"levelo://app?vid=1066df41-75c6-40c9-be1b-a76eee937607","ios":"levelo://app?vid=1066df41-75c6-40c9-be1b-a76eee937607"},"vehicle_type_id":"4","last_reported":1744312044,"current_range_meters":4000,"station_id":"ce4bh392rcd13ifvqdl0","pricing_plan_id":"cebpf4jnsgd1na2vs0mg"},{"bike_id":"345a27ac-b42f-4e35-9473-442738ecfb0c","system_id":"levelo_inurba_marseille","lat":43.283852,"lon":5.375155,"is_reserved":false,"is_disabled":false,"rental_uris":{"android":"levelo://app?vid=345a27ac-b42f-4e35-9473-442738ecfb0c","ios":"levelo://app?vid=345a27ac-b42f-4e35-9473-442738ecfb0c"},"vehicle_type_id":"4","last_reported":1744312044,"current_range_meters":4000,"station_id":"","pricing_plan_id":"cebpf4jnsgd1na2vs0mg"},{"bike_id":"cf51f91b-1bb4-4f91-bca0-3d2fcc888606","system_id":"levelo_inurba_marseille","lat":43.27813,"lon":5.4072,"is_reserved":false,"is_disabled":false,"rental_uris":{"android":"levelo://app?vid=cf51f91b-1bb4-4f91-bca0-3d2fcc888606","ios":"levelo://app?vid=cf51f91b-1bb4-4f91-bca0-3d2fcc888606"},"vehicle_type_id":"4","last_reported":1744312044,"current_range_meters":4400,"station_id":"ce4bhnh2rcd13ifvqgtg","pricing_plan_id":"cebpf4jnsgd1na2vs0mg"},{"bike_id":"ff9b4c44-1639-46b2-b1c9-e5c9fc329b5b","system_id":"levelo_inurba_marseille","lat":43.30438,"lon":5.38886,"is_reserved":false,"is_disabled":false,"rental_uris":{"android":"levelo://app?vid=ff9b4c44-1639-46b2-b1c9-e5c9fc329b5b","ios":"levelo://app?vid=ff9b4c44-1639-46b2-b1c9-e5c9fc329b5b"},"vehicle_type_id":"4","last_reported":1744312044,"current_range_meters":4400,"station_id":"ce4bgvp2rcd13ifvqct0","pricing_plan_id":"cebpf4jnsgd1na2vs0mg"},{"bike_id":"b12d8568-a203-45cc-8fdd-dbc6f6d93b35","system_id":"levelo_inurba_marseille","lat":43.294402,"lon":5.39751,"is_reserved":false,"is_disabled":false,"rental_uris":{"android":"levelo://app?vid=b12d8568-a203-45cc-8fdd-dbc6f6d93b35","ios":"levelo://app?vid=b12d8568-a203-45cc-8fdd-dbc6f6d93b35"},"vehicle_type_id":"4","last_reported":1744312044,"current_range_meters":4400,"station_id":"ce4bh3h2rcd13ifvqdo0","pricing_plan_id":"cebpf4jnsgd1na2vs0mg"},{"bike_id":"08820514-2066-48fc-b55e-cfc717f98083","system_id":"levelo_inurba_marseille","lat":43.30214,"lon":5.39462,"is_reserved":false,"is_disabled":false,"rental_uris":{"android":"levelo://app?vid=08820514-2066-48fc-b55e-cfc717f98083","ios":"levelo://app?vid=08820514-2066-48fc-b55e-cfc717f98083"},"vehicle_type_id":"4","last_reported":1744312044,"current_range_meters":4400,"station_id":"ce4bh0p2rcd13ifvqd70","pricing_plan_id":"cebpf4jnsgd1na2vs0mg"},{"bike_id":"22188bf6-ab6f-4fbf-a82e-c384a3224c77","system_id":"levelo_inurba_marseille","lat":43.29417,"lon":5.38635,"is_reserved":false,"is_disabled":false,"rental_uris":{"android":"levelo://app?vid=22188bf6-ab6f-4fbf-a82e-c384a3224c77","ios":"levelo://app?vid=22188bf6-ab6f-4fbf-a82e-c384a3224c77"},"vehicle_type_id":"4","last_reported":1744312044,"current_range_meters":4400,"station_id":"ce4bh2h2rcd13ifvqdh0","pricing_plan_id":"cebpf4jnsgd1na2vs0mg"},{"bike_id":"7d1d5c74-4738-41ae-93a3-e064d8c8ee3e","system_id":"levelo_inurba_marseille","lat":43.26032,"lon":5.37551,"is_reserved":false,"is_disabled":false,"rental_uris":{"android":"levelo://app?vid=7d1d5c74-4738-41ae-93a3-e064d8c8ee3e","ios":"levelo://app?vid=7d1d5c74-4738-41ae-93a3-e064d8c8ee3e"},"vehicle_type_id":"4","last_reported":1744312044,"current_range_meters":4400,"station_id":"ce4bhgh2rcd13ifvqfa0","pricing_plan_id":"cebpf4jnsgd1na2vs0mg"},{"bike_id":"79879c0c-024f-499a-8092-e16592d83135","system_id":"levelo_inurba_marseille","lat":43.30137,"lon":5.38782,"is_reserved":false,"is_disabled":false,"rental_uris":{"android":"levelo://app?vid=79879c0c-024f-499a-8092-e16592d83135","ios":"levelo://app?vid=79879c0c-024f-499a-8092-e16592d83135"},"vehicle_type_id":"4","last_reported":1744312044,"current_range_meters":4400,"station_id":"ce4bghh2rcd13ifvqb60","pricing_plan_id":"cebpf4jnsgd1na2vs0mg"},{"bike_id":"477b92d3-de68-4576-8c59-1d2a2f0a4895","system_id":"levelo_inurba_marseille","lat":43.30213,"lon":5.39467,"is_reserved":false,"is_disabled":false,"rental_uris":{"android":"levelo://app?vid=477b92d3-de68-4576-8c59-1d2a2f0a4895","ios":"levelo://app?vid=477b92d3-de68-4576-8c59-1d2a2f0a4895"},"vehicle_type_id":"4","last_reported":1744312044,"current_range_meters":4800,"station_id":"ce4bh0p2rcd13ifvqd70","pricing_plan_id":"cebpf4jnsgd1na2vs0mg"},{"bike_id":"1d51e0f7-178c-4ae3-88a2-488d4f01b826","system_id":"levelo_inurba_marseille","lat":43.281677,"lon":5.42382,"is_reserved":false,"is_disabled":false,"rental_uris":{"android":"levelo://app?vid=1d51e0f7-178c-4ae3-88a2-488d4f01b826","ios":"levelo://app?vid=1d51e0f7-178c-4ae3-88a2-488d4f01b826"},"vehicle_type_id":"4","last_reported":1744312044,"current_range_meters":4800,"station_id":"","pricing_plan_id":"cebpf4jnsgd1na2vs0mg"},{"bike_id":"7c771e70-c4c7-44a9-8836-e6ddaac64a95","system_id":"levelo_inurba_marseille","lat":43.30803,"lon":5.38136,"is_reserved":false,"is_disabled":false,"rental_uris":{"android":"levelo://app?vid=7c771e70-c4c7-44a9-8836-e6ddaac64a95","ios":"levelo://app?vid=7c771e70-c4c7-44a9-8836-e6ddaac64a95"},"vehicle_type_id":"4","last_reported":1744312044,"current_range_meters":4800,"station_id":"ce4bgt12rcd13ifvqce0","pricing_plan_id":"cebpf4jnsgd1na2vs0mg"},{"bike_id":"66fff81c-63ad-4c56-884a-570f70cbc4af","system_id":"levelo_inurba_marseille","lat":43.29417,"lon":5.38626,"is_reserved":false,"is_disabled":false,"rental_uris":{"android":"levelo://app?vid=66fff81c-63ad-4c56-884a-570f70cbc4af","ios":"levelo://app?vid=66fff81c-63ad-4c56-884a-570f70cbc4af"},"vehicle_type_id":"4","last_reported":1744312044,"current_range_meters":4800,"station_id":"ce4bh2h2rcd13ifvqdh0","pricing_plan_id":"cebpf4jnsgd1na2vs0mg"},{"bike_id":"f0e98d81-0117-4b68-ad1c-512aceae0e2e","system_id":"levelo_inurba_marseille","lat":43.29097,"lon":5.381503,"is_reserved":false,"is_disabled":false,"rental_uris":{"android":"levelo://app?vid=f0e98d81-0117-4b68-ad1c-512aceae0e2e","ios":"levelo://app?vid=f0e98d81-0117-4b68-ad1c-512aceae0e2e"},"vehicle_type_id":"4","last_reported":1744312044,"current_range_meters":4800,"station_id":"ce4bh512rcd13ifvqe2g","pricing_plan_id":"cebpf4jnsgd1na2vs0mg"},{"bike_id":"488970c7-ad85-4166-a4ad-456252c5bcc5","system_id":"levelo_inurba_marseille","lat":43.27324,"lon":5.42907,"is_reserved":false,"is_disabled":false,"rental_uris":{"android":"levelo://app?vid=488970c7-ad85-4166-a4ad-456252c5bcc5","ios":"levelo://app?vid=488970c7-ad85-4166-a4ad-456252c5bcc5"},"vehicle_type_id":"4","last_reported":1744312044,"current_range_meters":4800,"station_id":"","pricing_plan_id":"cebpf4jnsgd1na2vs0mg"},{"bike_id":"cdf7f30c-b91f-42b3-b758-22ad26becd66","system_id":"levelo_inurba_marseille","lat":43.29047,"lon":5.35947,"is_reserved":false,"is_disabled":true,"rental_uris":{"android":"levelo://app?vid=cdf7f30c-b91f-42b3-b758-22ad26becd66","ios":"levelo://app?vid=cdf7f30c-b91f-42b3-b758-22ad26becd66"},"vehicle_type_id":"4","last_reported":1744312044,"current_range_meters":5600,"station_id":"ce4bha92rcd13ifvqeg0","pricing_plan_id":"cebpf4jnsgd1na2vs0mg"},{"bike_id":"75fd33a0-cfc3-46db-849b-08122c836afa","system_id":"levelo_inurba_marseille","lat":43.29418,"lon":5.38626,"is_reserved":false,"is_disabled":false,"rental_uris":{"android":"levelo://app?vid=75fd33a0-cfc3-46db-849b-08122c836afa","ios":"levelo://app?vid=75fd33a0-cfc3-46db-849b-08122c836afa"},"vehicle_type_id":"4","last_reported":1744312044,"current_range_meters":5600,"station_id":"ce4bh2h2rcd13ifvqdh0","pricing_plan_id":"cebpf4jnsgd1na2vs0mg"},{"bike_id":"3f8dd93b-c83e-45f2-a729-7d2ef0a98e6d","system_id":"levelo_inurba_marseille","lat":43.28983,"lon":5.37843,"is_reserved":false,"is_disabled":false,"rental_uris":{"android":"levelo://app?vid=3f8dd93b-c83e-45f2-a729-7d2ef0a98e6d","ios":"levelo://app?vid=3f8dd93b-c83e-45f2-a729-7d2ef0a98e6d"},"vehicle_type_id":"4","last_reported":1744312044,"current_range_meters":5600,"station_id":"ce4bh9p2rcd13ifvqed0","pricing_plan_id":"cebpf4jnsgd1na2vs0mg"},{"bike_id":"49873671-28b4-4b67-9500-6ab90128a5c8","system_id":"levelo_inurba_marseille","lat":43.29533,"lon":5.39028,"is_reserved":false,"is_disabled":false,"rental_uris":{"android":"levelo://app?vid=49873671-28b4-4b67-9500-6ab90128a5c8","ios":"levelo://app?vid=49873671-28b4-4b67-9500-6ab90128a5c8"},"vehicle_type_id":"4","last_reported":1744312044,"current_range_meters":5600,"station_id":"ce4bh3p2rcd13ifvqdp0","pricing_plan_id":"cebpf4jnsgd1na2vs0mg"},{"bike_id":"8795a189-59b6-42a9-ae53-771596120f98","system_id":"levelo_inurba_marseille","lat":43.30134,"lon":5.387837,"is_reserved":false,"is_disabled":false,"rental_uris":{"android":"levelo://app?vid=8795a189-59b6-42a9-ae53-771596120f98","ios":"levelo://app?vid=8795a189-59b6-42a9-ae53-771596120f98"},"vehicle_type_id":"4","last_reported":1744312044,"current_range_meters":6000,"station_id":"ce4bghh2rcd13ifvqb60","pricing_plan_id":"cebpf4jnsgd1na2vs0mg"},{"bike_id":"0d1a8749-e648-4471-9b60-d84f450c27cc","system_id":"levelo_inurba_marseille","lat":43.29303,"lon":5.37177,"is_reserved":false,"is_disabled":false,"rental_uris":{"android":"levelo://app?vid=0d1a8749-e648-4471-9b60-d84f450c27cc","ios":"levelo://app?vid=0d1a8749-e648-4471-9b60-d84f450c27cc"},"vehicle_type_id":"4","last_reported":1744312044,"current_range_meters":6000,"station_id":"ce4bgh92rcd13ifvqb40","pricing_plan_id":"cebpf4jnsgd1na2vs0mg"},{"bike_id":"e7de89d8-5ab1-4757-b9bc-cdd9e4869f74","system_id":"levelo_inurba_marseille","lat":43.29882,"lon":5.38901,"is_reserved":false,"is_disabled":false,"rental_uris":{"android":"levelo://app?vid=e7de89d8-5ab1-4757-b9bc-cdd9e4869f74","ios":"levelo://app?vid=e7de89d8-5ab1-4757-b9bc-cdd9e4869f74"},"vehicle_type_id":"4","last_reported":1744312044,"current_range_meters":6000,"station_id":"ce4bh392rcd13ifvqdl0","pricing_plan_id":"cebpf4jnsgd1na2vs0mg"},{"bike_id":"4f789314-c81d-481c-8c4a-fc8b1d5bcb14","system_id":"levelo_inurba_marseille","lat":43.27917,"lon":5.39577,"is_reserved":false,"is_disabled":false,"rental_uris":{"android":"levelo://app?vid=4f789314-c81d-481c-8c4a-fc8b1d5bcb14","ios":"levelo://app?vid=4f789314-c81d-481c-8c4a-fc8b1d5bcb14"},"vehicle_type_id":"4","last_reported":1744312044,"current_range_meters":6000,"station_id":"ce4bhf92rcd13ifvqf40","pricing_plan_id":"cebpf4jnsgd1na2vs0mg"},{"bike_id":"b906ea2c-fc8f-408d-bf5b-989c1a12d0d4","system_id":"levelo_inurba_marseille","lat":43.2957,"lon":5.39979,"is_reserved":false,"is_disabled":false,"rental_uris":{"android":"levelo://app?vid=b906ea2c-fc8f-408d-bf5b-989c1a12d0d4","ios":"levelo://app?vid=b906ea2c-fc8f-408d-bf5b-989c1a12d0d4"},"vehicle_type_id":"4","last_reported":1744312044,"current_range_meters":6000,"station_id":"ce4bh312rcd13ifvqdj0","pricing_plan_id":"cebpf4jnsgd1na2vs0mg"},{"bike_id":"d6d42ca5-ad92-4ca7-8c93-2cfe281f5b35","system_id":"levelo_inurba_marseille","lat":43.290981,"lon":5.381256,"is_reserved":false,"is_disabled":false,"rental_uris":{"android":"levelo://app?vid=d6d42ca5-ad92-4ca7-8c93-2cfe281f5b35","ios":"levelo://app?vid=d6d42ca5-ad92-4ca7-8c93-2cfe281f5b35"},"vehicle_type_id":"4","last_reported":1744312044,"current_range_meters":6400,"station_id":"ce4bh512rcd13ifvqe2g","pricing_plan_id":"cebpf4jnsgd1na2vs0mg"},{"bike_id":"9548b4e3-0351-4fc8-9d7f-50466c468d40","system_id":"levelo_inurba_marseille","lat":43.23057,"lon":5.35504,"is_reserved":false,"is_disabled":false,"rental_uris":{"android":"levelo://app?vid=9548b4e3-0351-4fc8-9d7f-50466c468d40","ios":"levelo://app?vid=9548b4e3-0351-4fc8-9d7f-50466c468d40"},"vehicle_type_id":"4","last_reported":1744312044,"current_range_meters":6400,"station_id":"cpo3342slgdg3j2ifvpg","pricing_plan_id":"cebpf4jnsgd1na2vs0mg"},{"bike_id":"66edaec2-8a8f-493d-b300-4bac9c9b13e3","system_id":"levelo_inurba_marseille","lat":43.2962,"lon":5.37168,"is_reserved":false,"is_disabled":false,"rental_uris":{"android":"levelo://app?vid=66edaec2-8a8f-493d-b300-4bac9c9b13e3","ios":"levelo://app?vid=66edaec2-8a8f-493d-b300-4bac9c9b13e3"},"vehicle_type_id":"4","last_reported":1744312044,"current_range_meters":6400,"station_id":"ce4bgnh2rcd13ifvqc0g","pricing_plan_id":"cebpf4jnsgd1na2vs0mg"},{"bike_id":"55740317-e725-4681-843b-1e884fcd8d82","system_id":"levelo_inurba_marseille","lat":43.2941,"lon":5.38626,"is_reserved":false,"is_disabled":false,"rental_uris":{"android":"levelo://app?vid=55740317-e725-4681-843b-1e884fcd8d82","ios":"levelo://app?vid=55740317-e725-4681-843b-1e884fcd8d82"},"vehicle_type_id":"4","last_reported":1744312044,"current_range_meters":6400,"station_id":"ce4bh2h2rcd13ifvqdh0","pricing_plan_id":"cebpf4jnsgd1na2vs0mg"},{"bike_id":"2e6001b8-f2f8-4bed-b558-4cbf7f5ae35d","system_id":"levelo_inurba_marseille","lat":43.29576,"lon":5.36741,"is_reserved":false,"is_disabled":false,"rental_uris":{"android":"levelo://app?vid=2e6001b8-f2f8-4bed-b558-4cbf7f5ae35d","ios":"levelo://app?vid=2e6001b8-f2f8-4bed-b558-4cbf7f5ae35d"},"vehicle_type_id":"4","last_reported":1744312044,"current_range_meters":6400,"station_id":"ce4bgph2rcd13ifvqc2g","pricing_plan_id":"cebpf4jnsgd1na2vs0mg"},{"bike_id":"c2d04246-33d1-4429-b4a8-ce97275bd035","system_id":"levelo_inurba_marseille","lat":43.29882,"lon":5.38898,"is_reserved":false,"is_disabled":false,"rental_uris":{"android":"levelo://app?vid=c2d04246-33d1-4429-b4a8-ce97275bd035","ios":"levelo://app?vid=c2d04246-33d1-4429-b4a8-ce97275bd035"},"vehicle_type_id":"4","last_reported":1744312044,"current_range_meters":6000,"station_id":"ce4bh392rcd13ifvqdl0","pricing_plan_id":"cebpf4jnsgd1na2vs0mg"},{"bike_id":"4d6f0b25-6620-4007-a775-35a6d21dbbf9","system_id":"levelo_inurba_marseille","lat":43.29419,"lon":5.38609,"is_reserved":false,"is_disabled":false,"rental_uris":{"android":"levelo://app?vid=4d6f0b25-6620-4007-a775-35a6d21dbbf9","ios":"levelo://app?vid=4d6f0b25-6620-4007-a775-35a6d21dbbf9"},"vehicle_type_id":"4","last_reported":1744312044,"current_range_meters":6400,"station_id":"ce4bh2h2rcd13ifvqdh0","pricing_plan_id":"cebpf4jnsgd1na2vs0mg"},{"bike_id":"df19e52c-0676-44f8-b866-ff54783edd4c","system_id":"levelo_inurba_marseille","lat":43.27621,"lon":5.36117,"is_reserved":false,"is_disabled":false,"rental_uris":{"android":"levelo://app?vid=df19e52c-0676-44f8-b866-ff54783edd4c","ios":"levelo://app?vid=df19e52c-0676-44f8-b866-ff54783edd4c"},"vehicle_type_id":"4","last_reported":1744312044,"current_range_meters":6400,"station_id":"ce4bgj92rcd13ifvqbe0","pricing_plan_id":"cebpf4jnsgd1na2vs0mg"},{"bike_id":"fd2b1bc2-88d5-4eae-8797-4a8b5ed563fd","system_id":"levelo_inurba_marseille","lat":43.248354,"lon":5.37519,"is_reserved":false,"is_disabled":false,"rental_uris":{"android":"levelo://app?vid=fd2b1bc2-88d5-4eae-8797-4a8b5ed563fd","ios":"levelo://app?vid=fd2b1bc2-88d5-4eae-8797-4a8b5ed563fd"},"vehicle_type_id":"4","last_reported":1744312044,"current_range_meters":6400,"station_id":"ce4bhi12rcd13ifvqfp0","pricing_plan_id":"cebpf4jnsgd1na2vs0mg"},{"bike_id":"18198008-2b79-4368-b512-7c83b96eebeb","system_id":"levelo_inurba_marseille","lat":43.28152,"lon":5.42641,"is_reserved":false,"is_disabled":false,"rental_uris":{"android":"levelo://app?vid=18198008-2b79-4368-b512-7c83b96eebeb","ios":"levelo://app?vid=18198008-2b79-4368-b512-7c83b96eebeb"},"vehicle_type_id":"4","last_reported":1744312044,"current_range_meters":6400,"station_id":"ce4bhnh2rcd13ifvqgug","pricing_plan_id":"cebpf4jnsgd1na2vs0mg"},{"bike_id":"c9bfb3ba-0ac2-4310-885d-7977ed291c04","system_id":"levelo_inurba_marseille","lat":43.29255,"lon":5.3762,"is_reserved":false,"is_disabled":false,"rental_uris":{"android":"levelo://app?vid=c9bfb3ba-0ac2-4310-885d-7977ed291c04","ios":"levelo://app?vid=c9bfb3ba-0ac2-4310-885d-7977ed291c04"},"vehicle_type_id":"4","last_reported":1744312044,"current_range_meters":6800,"station_id":"ce4bgi12rcd13ifvqb80","pricing_plan_id":"cebpf4jnsgd1na2vs0mg"},{"bike_id":"78869fdc-7828-4dde-a9a9-4fc9e8c27993","system_id":"levelo_inurba_marseille","lat":43.29299,"lon":5.37458,"is_reserved":false,"is_disabled":false,"rental_uris":{"android":"levelo://app?vid=78869fdc-7828-4dde-a9a9-4fc9e8c27993","ios":"levelo://app?vid=78869fdc-7828-4dde-a9a9-4fc9e8c27993"},"vehicle_type_id":"4","last_reported":1744312044,"current_range_meters":6800,"station_id":"ce4bgi12rcd13ifvqb70","pricing_plan_id":"cebpf4jnsgd1na2vs0mg"},{"bike_id":"8cb01b2e-bd48-4d6d-a6d8-32fa94eb40ba","system_id":"levelo_inurba_marseille","lat":43.2953,"lon":5.38539,"is_reserved":false,"is_disabled":false,"rental_uris":{"android":"levelo://app?vid=8cb01b2e-bd48-4d6d-a6d8-32fa94eb40ba","ios":"levelo://app?vid=8cb01b2e-bd48-4d6d-a6d8-32fa94eb40ba"},"vehicle_type_id":"4","last_reported":1744312044,"current_range_meters":6800,"station_id":"ce4bgih2rcd13ifvqba0","pricing_plan_id":"cebpf4jnsgd1na2vs0mg"},{"bike_id":"4c1f7691-a169-4713-b675-2a5153227ffe","system_id":"levelo_inurba_marseille","lat":43.2781,"lon":5.40725,"is_reserved":false,"is_disabled":false,"rental_uris":{"android":"levelo://app?vid=4c1f7691-a169-4713-b675-2a5153227ffe","ios":"levelo://app?vid=4c1f7691-a169-4713-b675-2a5153227ffe"},"vehicle_type_id":"4","last_reported":1744312044,"current_range_meters":6800,"station_id":"ce4bhnh2rcd13ifvqgtg","pricing_plan_id":"cebpf4jnsgd1na2vs0mg"},{"bike_id":"76021347-cdb0-4170-8fa7-32f61a2a6094","system_id":"levelo_inurba_marseille","lat":43.24813,"lon":5.3746,"is_reserved":false,"is_disabled":false,"rental_uris":{"android":"levelo://app?vid=76021347-cdb0-4170-8fa7-32f61a2a6094","ios":"levelo://app?vid=76021347-cdb0-4170-8fa7-32f61a2a6094"},"vehicle_type_id":"4","last_reported":1744312044,"current_range_meters":6800,"station_id":"ce4bhgh2rcd13ifvqfb0","pricing_plan_id":"cebpf4jnsgd1na2vs0mg"},{"bike_id":"8815bcd8-9eb5-41f4-b5ca-b15a8d67743c","system_id":"levelo_inurba_marseille","lat":43.241818,"lon":5.397594,"is_reserved":false,"is_disabled":false,"rental_uris":{"android":"levelo://app?vid=8815bcd8-9eb5-41f4-b5ca-b15a8d67743c","ios":"levelo://app?vid=8815bcd8-9eb5-41f4-b5ca-b15a8d67743c"},"vehicle_type_id":"4","last_reported":1744312044,"current_range_meters":6800,"station_id":"","pricing_plan_id":"cebpf4jnsgd1na2vs0mg"},{"bike_id":"cd3c3bf2-b472-4d16-a21d-24e9e624f0f8","system_id":"levelo_inurba_marseille","lat":43.28271,"lon":5.35078,"is_reserved":false,"is_disabled":false,"rental_uris":{"android":"levelo://app?vid=cd3c3bf2-b472-4d16-a21d-24e9e624f0f8","ios":"levelo://app?vid=cd3c3bf2-b472-4d16-a21d-24e9e624f0f8"},"vehicle_type_id":"4","last_reported":1744312044,"current_range_meters":6800,"station_id":"ce4bhbp2rcd13ifvqerg","pricing_plan_id":"cebpf4jnsgd1na2vs0mg"},{"bike_id":"0034db4b-efd6-4119-a358-80e858a45e83","system_id":"levelo_inurba_marseille","lat":43.31763,"lon":5.38914,"is_reserved":false,"is_disabled":false,"rental_uris":{"android":"levelo://app?vid=0034db4b-efd6-4119-a358-80e858a45e83","ios":"levelo://app?vid=0034db4b-efd6-4119-a358-80e858a45e83"},"vehicle_type_id":"4","last_reported":1744312044,"current_range_meters":6800,"station_id":"","pricing_plan_id":"cebpf4jnsgd1na2vs0mg"},{"bike_id":"7d2cb020-3a23-495f-93f8-26869ec94c00","system_id":"levelo_inurba_marseille","lat":43.32252,"lon":5.3679,"is_reserved":false,"is_disabled":false,"rental_uris":{"android":"levelo://app?vid=7d2cb020-3a23-495f-93f8-26869ec94c00","ios":"levelo://app?vid=7d2cb020-3a23-495f-93f8-26869ec94c00"},"vehicle_type_id":"4","last_reported":1744312044,"current_range_meters":6800,"station_id":"","pricing_plan_id":"cebpf4jnsgd1na2vs0mg"},{"bike_id":"f767a64f-41fd-4546-b0c8-0c15037a308e","system_id":"levelo_inurba_marseille","lat":43.303061,"lon":5.369009,"is_reserved":false,"is_disabled":false,"rental_uris":{"android":"levelo://app?vid=f767a64f-41fd-4546-b0c8-0c15037a308e","ios":"levelo://app?vid=f767a64f-41fd-4546-b0c8-0c15037a308e"},"vehicle_type_id":"4","last_reported":1744312044,"current_range_meters":6800,"station_id":"ce4bgqh2rcd13ifvqc5g","pricing_plan_id":"cebpf4jnsgd1na2vs0mg"},{"bike_id":"527b8c76-24bc-4283-843f-da0bb33f3134","system_id":"levelo_inurba_marseille","lat":43.30423,"lon":5.3976,"is_reserved":false,"is_disabled":false,"rental_uris":{"android":"levelo://app?vid=527b8c76-24bc-4283-843f-da0bb33f3134","ios":"levelo://app?vid=527b8c76-24bc-4283-843f-da0bb33f3134"},"vehicle_type_id":"4","last_reported":1744312044,"current_range_meters":6800,"station_id":"ce4bh092rcd13ifvqd20","pricing_plan_id":"cebpf4jnsgd1na2vs0mg"},{"bike_id":"354e95f8-fcb3-45dc-9d6a-3eabe13cf18e","system_id":"levelo_inurba_marseille","lat":43.243835,"lon":5.370571,"is_reserved":false,"is_disabled":false,"rental_uris":{"android":"levelo://app?vid=354e95f8-fcb3-45dc-9d6a-3eabe13cf18e","ios":"levelo://app?vid=354e95f8-fcb3-45dc-9d6a-3eabe13cf18e"},"vehicle_type_id":"4","last_reported":1744312044,"current_range_meters":6800,"station_id":"ce4bhhh2rcd13ifvqfk0","pricing_plan_id":"cebpf4jnsgd1na2vs0mg"},{"bike_id":"011c90b9-8896-4c9a-b2cf-9c272e01e7c2","system_id":"levelo_inurba_marseille","lat":43.30323,"lon":5.40433,"is_reserved":false,"is_disabled":false,"rental_uris":{"android":"levelo://app?vid=011c90b9-8896-4c9a-b2cf-9c272e01e7c2","ios":"levelo://app?vid=011c90b9-8896-4c9a-b2cf-9c272e01e7c2"},"vehicle_type_id":"4","last_reported":1744312044,"current_range_meters":6800,"station_id":"ce4bh012rcd13ifvqd10","pricing_plan_id":"cebpf4jnsgd1na2vs0mg"},{"bike_id":"47547968-ff75-4c83-8645-aded963a3406","system_id":"levelo_inurba_marseille","lat":43.29229,"lon":5.36089,"is_reserved":false,"is_disabled":false,"rental_uris":{"android":"levelo://app?vid=47547968-ff75-4c83-8645-aded963a3406","ios":"levelo://app?vid=47547968-ff75-4c83-8645-aded963a3406"},"vehicle_type_id":"4","last_reported":1744312044,"current_range_meters":7200,"station_id":"ce4bhbh2rcd13ifvqeqg","pricing_plan_id":"cebpf4jnsgd1na2vs0mg"},{"bike_id":"a9abfcfd-25a5-4fd2-8a65-9242c9846a4b","system_id":"levelo_inurba_marseille","lat":43.30892,"lon":5.39652,"is_reserved":false,"is_disabled":false,"rental_uris":{"android":"levelo://app?vid=a9abfcfd-25a5-4fd2-8a65-9242c9846a4b","ios":"levelo://app?vid=a9abfcfd-25a5-4fd2-8a65-9242c9846a4b"},"vehicle_type_id":"4","last_reported":1744312044,"current_range_meters":7200,"station_id":"ce4bh012rcd13ifvqcv0","pricing_plan_id":"cebpf4jnsgd1na2vs0mg"},{"bike_id":"393a2d61-ff1d-4efb-a49a-d8f565c70e78","system_id":"levelo_inurba_marseille","lat":43.277496,"lon":5.389161,"is_reserved":false,"is_disabled":false,"rental_uris":{"android":"levelo://app?vid=393a2d61-ff1d-4efb-a49a-d8f565c70e78","ios":"levelo://app?vid=393a2d61-ff1d-4efb-a49a-d8f565c70e78"},"vehicle_type_id":"4","last_reported":1744312044,"current_range_meters":7200,"station_id":"ce4bgnh2rcd13ifvqc0g","pricing_plan_id":"cebpf4jnsgd1na2vs0mg"},{"bike_id":"252d5874-aaf5-4c62-a799-a9e4d2d42077","system_id":"levelo_inurba_marseille","lat":43.29263,"lon":5.384336,"is_reserved":false,"is_disabled":false,"rental_uris":{"android":"levelo://app?vid=252d5874-aaf5-4c62-a799-a9e4d2d42077","ios":"levelo://app?vid=252d5874-aaf5-4c62-a799-a9e4d2d42077"},"vehicle_type_id":"4","last_reported":1744312044,"current_range_meters":7200,"station_id":"ce4bh692rcd13ifvqea0","pricing_plan_id":"cebpf4jnsgd1na2vs0mg"},{"bike_id":"6570c045-36cc-45fe-bca2-9fca4b46bcd6","system_id":"levelo_inurba_marseille","lat":43.29522,"lon":5.39044,"is_reserved":false,"is_disabled":false,"rental_uris":{"android":"levelo://app?vid=6570c045-36cc-45fe-bca2-9fca4b46bcd6","ios":"levelo://app?vid=6570c045-36cc-45fe-bca2-9fca4b46bcd6"},"vehicle_type_id":"4","last_reported":1744312044,"current_range_meters":7200,"station_id":"ce4bh3p2rcd13ifvqdp0","pricing_plan_id":"cebpf4jnsgd1na2vs0mg"},{"bike_id":"fd1b6ee7-8720-433f-93a6-d880377d25c6","system_id":"levelo_inurba_marseille","lat":43.2762,"lon":5.36133,"is_reserved":false,"is_disabled":false,"rental_uris":{"android":"levelo://app?vid=fd1b6ee7-8720-433f-93a6-d880377d25c6","ios":"levelo://app?vid=fd1b6ee7-8720-433f-93a6-d880377d25c6"},"vehicle_type_id":"4","last_reported":1744312044,"current_range_meters":8000,"station_id":"ce4bgj92rcd13ifvqbe0","pricing_plan_id":"cebpf4jnsgd1na2vs0mg"},{"bike_id":"01e31f15-bc9b-4d18-bebd-edf19bcedef2","system_id":"levelo_inurba_marseille","lat":43.28717,"lon":5.37937,"is_reserved":false,"is_disabled":true,"rental_uris":{"android":"levelo://app?vid=01e31f15-bc9b-4d18-bebd-edf19bcedef2","ios":"levelo://app?vid=01e31f15-bc9b-4d18-bebd-edf19bcedef2"},"vehicle_type_id":"4","last_reported":1744312044,"current_range_meters":8000,"station_id":"ce4bh9p2rcd13ifvqec0","pricing_plan_id":"cebpf4jnsgd1na2vs0mg"},{"bike_id":"5f163a41-c6ee-4ee7-bf33-5991a052746c","system_id":"levelo_inurba_marseille","lat":43.2949,"lon":5.38622,"is_reserved":false,"is_disabled":false,"rental_uris":{"android":"levelo://app?vid=5f163a41-c6ee-4ee7-bf33-5991a052746c","ios":"levelo://app?vid=5f163a41-c6ee-4ee7-bf33-5991a052746c"},"vehicle_type_id":"4","last_reported":1744312044,"current_range_meters":8000,"station_id":"","pricing_plan_id":"cebpf4jnsgd1na2vs0mg"},{"bike_id":"f35bf9dc-54a4-4991-936a-0ccd70a88e10","system_id":"levelo_inurba_marseille","lat":43.29531,"lon":5.38553,"is_reserved":false,"is_disabled":false,"rental_uris":{"android":"levelo://app?vid=f35bf9dc-54a4-4991-936a-0ccd70a88e10","ios":"levelo://app?vid=f35bf9dc-54a4-4991-936a-0ccd70a88e10"},"vehicle_type_id":"4","last_reported":1744312044,"current_range_meters":8000,"station_id":"ce4bgih2rcd13ifvqba0","pricing_plan_id":"cebpf4jnsgd1na2vs0mg"},{"bike_id":"5f30a5a4-de9f-499e-b151-b811ebb3b43a","system_id":"levelo_inurba_marseille","lat":43.31075,"lon":5.38351,"is_reserved":false,"is_disabled":true,"rental_uris":{"android":"levelo://app?vid=5f30a5a4-de9f-499e-b151-b811ebb3b43a","ios":"levelo://app?vid=5f30a5a4-de9f-499e-b151-b811ebb3b43a"},"vehicle_type_id":"4","last_reported":1744312044,"current_range_meters":8000,"station_id":"ce4bgv92rcd13ifvqcr0","pricing_plan_id":"cebpf4jnsgd1na2vs0mg"},{"bike_id":"03966440-177c-4ac6-8ad1-8fe190953eea","system_id":"levelo_inurba_marseille","lat":43.30598,"lon":5.39366,"is_reserved":false,"is_disabled":false,"rental_uris":{"android":"levelo://app?vid=03966440-177c-4ac6-8ad1-8fe190953eea","ios":"levelo://app?vid=03966440-177c-4ac6-8ad1-8fe190953eea"},"vehicle_type_id":"4","last_reported":1744312044,"current_range_meters":800,"station_id":"ce4bh0p2rcd13ifvqd80","pricing_plan_id":"cebpf4jnsgd1na2vs0mg"},{"bike_id":"36f43cf7-8ec9-448e-a60e-5a5b3f22fb4b","system_id":"levelo_inurba_marseille","lat":43.29285,"lon":5.36828,"is_reserved":false,"is_disabled":false,"rental_uris":{"android":"levelo://app?vid=36f43cf7-8ec9-448e-a60e-5a5b3f22fb4b","ios":"levelo://app?vid=36f43cf7-8ec9-448e-a60e-5a5b3f22fb4b"},"vehicle_type_id":"4","last_reported":1744312044,"current_range_meters":8000,"station_id":"ce4bhbp2rcd13ifvqesg","pricing_plan_id":"cebpf4jnsgd1na2vs0mg"},{"bike_id":"c243072f-6bd2-4d94-ba83-04162cf2a05c","system_id":"levelo_inurba_marseille","lat":43.27179,"lon":5.40155,"is_reserved":false,"is_disabled":false,"rental_uris":{"android":"levelo://app?vid=c243072f-6bd2-4d94-ba83-04162cf2a05c","ios":"levelo://app?vid=c243072f-6bd2-4d94-ba83-04162cf2a05c"},"vehicle_type_id":"4","last_reported":1744312044,"current_range_meters":8000,"station_id":"","pricing_plan_id":"cebpf4jnsgd1na2vs0mg"},{"bike_id":"8c9d40e8-d569-4424-ad10-32fb4b5f4855","system_id":"levelo_inurba_marseille","lat":43.31075,"lon":5.38355,"is_reserved":false,"is_disabled":false,"rental_uris":{"android":"levelo://app?vid=8c9d40e8-d569-4424-ad10-32fb4b5f4855","ios":"levelo://app?vid=8c9d40e8-d569-4424-ad10-32fb4b5f4855"},"vehicle_type_id":"4","last_reported":1744312044,"current_range_meters":8000,"station_id":"ce4bgv92rcd13ifvqcr0","pricing_plan_id":"cebpf4jnsgd1na2vs0mg"},{"bike_id":"1c543187-a26e-4795-b86f-ba6cec340c93","system_id":"levelo_inurba_marseille","lat":43.28711,"lon":5.37943,"is_reserved":false,"is_disabled":false,"rental_uris":{"android":"levelo://app?vid=1c543187-a26e-4795-b86f-ba6cec340c93","ios":"levelo://app?vid=1c543187-a26e-4795-b86f-ba6cec340c93"},"vehicle_type_id":"4","last_reported":1744312044,"current_range_meters":8000,"station_id":"ce4bh9p2rcd13ifvqec0","pricing_plan_id":"cebpf4jnsgd1na2vs0mg"},{"bike_id":"4a3e0919-27c2-445a-a961-2bd3243a227d","system_id":"levelo_inurba_marseille","lat":43.31651,"lon":5.37311,"is_reserved":false,"is_disabled":false,"rental_uris":{"android":"levelo://app?vid=4a3e0919-27c2-445a-a961-2bd3243a227d","ios":"levelo://app?vid=4a3e0919-27c2-445a-a961-2bd3243a227d"},"vehicle_type_id":"4","last_reported":1744312044,"current_range_meters":8400,"station_id":"","pricing_plan_id":"cebpf4jnsgd1na2vs0mg"},{"bike_id":"b9bdea0e-aa26-4fa1-8d47-a10236f96d33","system_id":"levelo_inurba_marseille","lat":43.283539,"lon":5.350118,"is_reserved":false,"is_disabled":false,"rental_uris":{"android":"levelo://app?vid=b9bdea0e-aa26-4fa1-8d47-a10236f96d33","ios":"levelo://app?vid=b9bdea0e-aa26-4fa1-8d47-a10236f96d33"},"vehicle_type_id":"4","last_reported":1744312044,"current_range_meters":8400,"station_id":"ce4bhah2rcd13ifvqei0","pricing_plan_id":"cebpf4jnsgd1na2vs0mg"},{"bike_id":"da86061e-1838-4f64-b36a-faf58722816b","system_id":"levelo_inurba_marseille","lat":43.31332,"lon":5.39707,"is_reserved":false,"is_disabled":false,"rental_uris":{"android":"levelo://app?vid=da86061e-1838-4f64-b36a-faf58722816b","ios":"levelo://app?vid=da86061e-1838-4f64-b36a-faf58722816b"},"vehicle_type_id":"4","last_reported":1744312044,"current_range_meters":8400,"station_id":"ce4bgvp2rcd13ifvqcu0","pricing_plan_id":"cebpf4jnsgd1na2vs0mg"},{"bike_id":"632cd09d-01af-445a-84a2-7670ec80df1e","system_id":"levelo_inurba_marseille","lat":43.29602,"lon":5.38111,"is_reserved":false,"is_disabled":false,"rental_uris":{"android":"levelo://app?vid=632cd09d-01af-445a-84a2-7670ec80df1e","ios":"levelo://app?vid=632cd09d-01af-445a-84a2-7670ec80df1e"},"vehicle_type_id":"4","last_reported":1744312044,"current_range_meters":8400,"station_id":"ce4bgl12rcd13ifvqbo0","pricing_plan_id":"cebpf4jnsgd1na2vs0mg"},{"bike_id":"872c2c56-2ca2-429f-bf74-abf0a69eeaca","system_id":"levelo_inurba_marseille","lat":43.30425,"lon":5.38889,"is_reserved":false,"is_disabled":false,"rental_uris":{"android":"levelo://app?vid=872c2c56-2ca2-429f-bf74-abf0a69eeaca","ios":"levelo://app?vid=872c2c56-2ca2-429f-bf74-abf0a69eeaca"},"vehicle_type_id":"4","last_reported":1744312044,"current_range_meters":8400,"station_id":"ce4bgk12rcd13ifvqbi0","pricing_plan_id":"cebpf4jnsgd1na2vs0mg"},{"bike_id":"77681eb7-0ca7-4181-8f4d-dc0d81e04ff3","system_id":"levelo_inurba_marseille","lat":43.24177,"lon":5.36398,"is_reserved":false,"is_disabled":false,"rental_uris":{"android":"levelo://app?vid=77681eb7-0ca7-4181-8f4d-dc0d81e04ff3","ios":"levelo://app?vid=77681eb7-0ca7-4181-8f4d-dc0d81e04ff3"},"vehicle_type_id":"4","last_reported":1744312044,"current_range_meters":8400,"station_id":"cpo36qri1sfpv3e86is0","pricing_plan_id":"cebpf4jnsgd1na2vs0mg"},{"bike_id":"4d4e0845-8ed6-4836-baf6-ef7cc522608a","system_id":"levelo_inurba_marseille","lat":43.29182,"lon":5.39324,"is_reserved":false,"is_disabled":false,"rental_uris":{"android":"levelo://app?vid=4d4e0845-8ed6-4836-baf6-ef7cc522608a","ios":"levelo://app?vid=4d4e0845-8ed6-4836-baf6-ef7cc522608a"},"vehicle_type_id":"4","last_reported":1744312044,"current_range_meters":8400,"station_id":"ce4bh192rcd13ifvqdd0","pricing_plan_id":"cebpf4jnsgd1na2vs0mg"},{"bike_id":"10f5b016-d273-422a-a279-772e843cae82","system_id":"levelo_inurba_marseille","lat":43.2655,"lon":5.37335,"is_reserved":false,"is_disabled":false,"rental_uris":{"android":"levelo://app?vid=10f5b016-d273-422a-a279-772e843cae82","ios":"levelo://app?vid=10f5b016-d273-422a-a279-772e843cae82"},"vehicle_type_id":"4","last_reported":1744312044,"current_range_meters":8800,"station_id":"ce4bhg12rcd13ifvqf70","pricing_plan_id":"cebpf4jnsgd1na2vs0mg"},{"bike_id":"d37408de-b5d7-4466-8973-ab7c2a7000bc","system_id":"levelo_inurba_marseille","lat":43.292791,"lon":5.368424,"is_reserved":false,"is_disabled":true,"rental_uris":{"android":"levelo://app?vid=d37408de-b5d7-4466-8973-ab7c2a7000bc","ios":"levelo://app?vid=d37408de-b5d7-4466-8973-ab7c2a7000bc"},"vehicle_type_id":"4","last_reported":1744312044,"current_range_meters":8800,"station_id":"ce4bhbp2rcd13ifvqesg","pricing_plan_id":"cebpf4jnsgd1na2vs0mg"},{"bike_id":"60f68600-e0f5-41c4-9759-56a2ea7cc82c","system_id":"levelo_inurba_marseille","lat":43.29264,"lon":5.38438,"is_reserved":false,"is_disabled":false,"rental_uris":{"android":"levelo://app?vid=60f68600-e0f5-41c4-9759-56a2ea7cc82c","ios":"levelo://app?vid=60f68600-e0f5-41c4-9759-56a2ea7cc82c"},"vehicle_type_id":"4","last_reported":1744312044,"current_range_meters":8800,"station_id":"ce4bh692rcd13ifvqea0","pricing_plan_id":"cebpf4jnsgd1na2vs0mg"},{"bike_id":"82c1309f-fee3-48d4-84bf-3892ff791528","system_id":"levelo_inurba_marseille","lat":43.29275,"lon":5.3845,"is_reserved":false,"is_disabled":false,"rental_uris":{"android":"levelo://app?vid=82c1309f-fee3-48d4-84bf-3892ff791528","ios":"levelo://app?vid=82c1309f-fee3-48d4-84bf-3892ff791528"},"vehicle_type_id":"4","last_reported":1744312044,"current_range_meters":8800,"station_id":"ce4bh692rcd13ifvqea0","pricing_plan_id":"cebpf4jnsgd1na2vs0mg"},{"bike_id":"1014355b-b524-4b6a-b8d3-8278438f8919","system_id":"levelo_inurba_marseille","lat":43.29259,"lon":5.38435,"is_reserved":false,"is_disabled":false,"rental_uris":{"android":"levelo://app?vid=1014355b-b524-4b6a-b8d3-8278438f8919","ios":"levelo://app?vid=1014355b-b524-4b6a-b8d3-8278438f8919"},"vehicle_type_id":"4","last_reported":1744312044,"current_range_meters":8800,"station_id":"ce4bh692rcd13ifvqea0","pricing_plan_id":"cebpf4jnsgd1na2vs0mg"},{"bike_id":"ba983684-f45a-413c-b4a7-994483e98f38","system_id":"levelo_inurba_marseille","lat":43.29603,"lon":5.3811,"is_reserved":false,"is_disabled":false,"rental_uris":{"android":"levelo://app?vid=ba983684-f45a-413c-b4a7-994483e98f38","ios":"levelo://app?vid=ba983684-f45a-413c-b4a7-994483e98f38"},"vehicle_type_id":"4","last_reported":1744312044,"current_range_meters":8800,"station_id":"ce4bgl12rcd13ifvqbo0","pricing_plan_id":"cebpf4jnsgd1na2vs0mg"},{"bike_id":"6b6b0fbd-83c8-41d3-a90f-92e3c0546369","system_id":"levelo_inurba_marseille","lat":43.28844,"lon":5.39313,"is_reserved":false,"is_disabled":false,"rental_uris":{"android":"levelo://app?vid=6b6b0fbd-83c8-41d3-a90f-92e3c0546369","ios":"levelo://app?vid=6b6b0fbd-83c8-41d3-a90f-92e3c0546369"},"vehicle_type_id":"4","last_reported":1744312044,"current_range_meters":8800,"station_id":"ce4bh2p2rcd13ifvqdi0","pricing_plan_id":"cebpf4jnsgd1na2vs0mg"},{"bike_id":"72e8bea8-61cf-477b-bade-da85800be398","system_id":"levelo_inurba_marseille","lat":43.30322,"lon":5.40435,"is_reserved":false,"is_disabled":false,"rental_uris":{"android":"levelo://app?vid=72e8bea8-61cf-477b-bade-da85800be398","ios":"levelo://app?vid=72e8bea8-61cf-477b-bade-da85800be398"},"vehicle_type_id":"4","last_reported":1744312044,"current_range_meters":8800,"station_id":"ce4bh012rcd13ifvqd10","pricing_plan_id":"cebpf4jnsgd1na2vs0mg"},{"bike_id":"d20a3427-133e-4248-b5b7-96b4719e3159","system_id":"levelo_inurba_marseille","lat":43.25491,"lon":5.37652,"is_reserved":false,"is_disabled":false,"rental_uris":{"android":"levelo://app?vid=d20a3427-133e-4248-b5b7-96b4719e3159","ios":"levelo://app?vid=d20a3427-133e-4248-b5b7-96b4719e3159"},"vehicle_type_id":"4","last_reported":1744312044,"current_range_meters":8800,"station_id":"ce4bhh12rcd13ifvqff0","pricing_plan_id":"cebpf4jnsgd1na2vs0mg"},{"bike_id":"bcb15260-9d20-4478-a5ae-598a769a30af","system_id":"levelo_inurba_marseille","lat":43.25491,"lon":5.37649,"is_reserved":false,"is_disabled":false,"rental_uris":{"android":"levelo://app?vid=bcb15260-9d20-4478-a5ae-598a769a30af","ios":"levelo://app?vid=bcb15260-9d20-4478-a5ae-598a769a30af"},"vehicle_type_id":"4","last_reported":1744312044,"current_range_meters":8800,"station_id":"ce4bhh12rcd13ifvqff0","pricing_plan_id":"cebpf4jnsgd1na2vs0mg"},{"bike_id":"b86c7357-c933-4368-ac0a-6cca6f2fb981","system_id":"levelo_inurba_marseille","lat":43.262006,"lon":5.379341,"is_reserved":false,"is_disabled":false,"rental_uris":{"android":"levelo://app?vid=b86c7357-c933-4368-ac0a-6cca6f2fb981","ios":"levelo://app?vid=b86c7357-c933-4368-ac0a-6cca6f2fb981"},"vehicle_type_id":"4","last_reported":1744312044,"current_range_meters":8800,"station_id":"ce4bhjp2rcd13ifvqg90","pricing_plan_id":"cebpf4jnsgd1na2vs0mg"},{"bike_id":"3895e913-419a-434e-b1bd-29e936f53470","system_id":"levelo_inurba_marseille","lat":43.30139,"lon":5.38784,"is_reserved":false,"is_disabled":false,"rental_uris":{"android":"levelo://app?vid=3895e913-419a-434e-b1bd-29e936f53470","ios":"levelo://app?vid=3895e913-419a-434e-b1bd-29e936f53470"},"vehicle_type_id":"4","last_reported":1744312044,"current_range_meters":9200,"station_id":"ce4bghh2rcd13ifvqb60","pricing_plan_id":"cebpf4jnsgd1na2vs0mg"},{"bike_id":"32858a8d-a537-4b01-bdf8-76eec2f7ecf3","system_id":"levelo_inurba_marseille","lat":43.29042,"lon":5.35912,"is_reserved":false,"is_disabled":false,"rental_uris":{"android":"levelo://app?vid=32858a8d-a537-4b01-bdf8-76eec2f7ecf3","ios":"levelo://app?vid=32858a8d-a537-4b01-bdf8-76eec2f7ecf3"},"vehicle_type_id":"4","last_reported":1744312044,"current_range_meters":9200,"station_id":"ce4bha92rcd13ifvqeg0","pricing_plan_id":"cebpf4jnsgd1na2vs0mg"},{"bike_id":"daee0a46-c00a-424c-afbd-e27c0461010d","system_id":"levelo_inurba_marseille","lat":43.29413,"lon":5.386331,"is_reserved":false,"is_disabled":false,"rental_uris":{"android":"levelo://app?vid=daee0a46-c00a-424c-afbd-e27c0461010d","ios":"levelo://app?vid=daee0a46-c00a-424c-afbd-e27c0461010d"},"vehicle_type_id":"4","last_reported":1744312044,"current_range_meters":9200,"station_id":"ce4bha92rcd13ifvqeg0","pricing_plan_id":"cebpf4jnsgd1na2vs0mg"},{"bike_id":"4f9036a8-f543-4268-8841-990af0dd1a61","system_id":"levelo_inurba_marseille","lat":43.27554,"lon":5.38433,"is_reserved":false,"is_disabled":false,"rental_uris":{"android":"levelo://app?vid=4f9036a8-f543-4268-8841-990af0dd1a61","ios":"levelo://app?vid=4f9036a8-f543-4268-8841-990af0dd1a61"},"vehicle_type_id":"4","last_reported":1744312044,"current_range_meters":9200,"station_id":"ce4bhh92rcd13ifvqfi0","pricing_plan_id":"cebpf4jnsgd1na2vs0mg"},{"bike_id":"a9b0236c-8173-49ae-9e78-5c6d85147e47","system_id":"levelo_inurba_marseille","lat":43.30215,"lon":5.39468,"is_reserved":false,"is_disabled":false,"rental_uris":{"android":"levelo://app?vid=a9b0236c-8173-49ae-9e78-5c6d85147e47","ios":"levelo://app?vid=a9b0236c-8173-49ae-9e78-5c6d85147e47"},"vehicle_type_id":"4","last_reported":1744312044,"current_range_meters":9200,"station_id":"ce4bh0p2rcd13ifvqd70","pricing_plan_id":"cebpf4jnsgd1na2vs0mg"},{"bike_id":"49fef583-e508-49d2-be9e-4b38c63e21b6","system_id":"levelo_inurba_marseille","lat":43.29264,"lon":5.3843,"is_reserved":false,"is_disabled":false,"rental_uris":{"android":"levelo://app?vid=49fef583-e508-49d2-be9e-4b38c63e21b6","ios":"levelo://app?vid=49fef583-e508-49d2-be9e-4b38c63e21b6"},"vehicle_type_id":"4","last_reported":1744312044,"current_range_meters":9200,"station_id":"ce4bh692rcd13ifvqea0","pricing_plan_id":"cebpf4jnsgd1na2vs0mg"},{"bike_id":"1b5e1a6a-30b1-49b2-8140-7fe8bbbd4144","system_id":"levelo_inurba_marseille","lat":43.29882,"lon":5.389113,"is_reserved":false,"is_disabled":false,"rental_uris":{"android":"levelo://app?vid=1b5e1a6a-30b1-49b2-8140-7fe8bbbd4144","ios":"levelo://app?vid=1b5e1a6a-30b1-49b2-8140-7fe8bbbd4144"},"vehicle_type_id":"4","last_reported":1744312044,"current_range_meters":9200,"station_id":"ce4bh392rcd13ifvqdl0","pricing_plan_id":"cebpf4jnsgd1na2vs0mg"},{"bike_id":"e6b27e51-7a6f-4c87-9cdb-e0dbaf392783","system_id":"levelo_inurba_marseille","lat":43.31004,"lon":5.3961,"is_reserved":false,"is_disabled":false,"rental_uris":{"android":"levelo://app?vid=e6b27e51-7a6f-4c87-9cdb-e0dbaf392783","ios":"levelo://app?vid=e6b27e51-7a6f-4c87-9cdb-e0dbaf392783"},"vehicle_type_id":"4","last_reported":1744312044,"current_range_meters":9200,"station_id":"","pricing_plan_id":"cebpf4jnsgd1na2vs0mg"},{"bike_id":"cec94938-5836-4fb1-b107-6be08662aa0a","system_id":"levelo_inurba_marseille","lat":43.274896,"lon":5.424514,"is_reserved":false,"is_disabled":false,"rental_uris":{"android":"levelo://app?vid=cec94938-5836-4fb1-b107-6be08662aa0a","ios":"levelo://app?vid=cec94938-5836-4fb1-b107-6be08662aa0a"},"vehicle_type_id":"4","last_reported":1744312044,"current_range_meters":9200,"station_id":"ce4bhn92rcd13ifvqgrg","pricing_plan_id":"cebpf4jnsgd1na2vs0mg"},{"bike_id":"0b038a1f-e858-436e-a7a1-95f6b304f9a8","system_id":"levelo_inurba_marseille","lat":43.246668,"lon":5.399281,"is_reserved":false,"is_disabled":false,"rental_uris":{"android":"levelo://app?vid=0b038a1f-e858-436e-a7a1-95f6b304f9a8","ios":"levelo://app?vid=0b038a1f-e858-436e-a7a1-95f6b304f9a8"},"vehicle_type_id":"4","last_reported":1744312044,"current_range_meters":9200,"station_id":"ce4bhn12rcd13ifvqgqg","pricing_plan_id":"cebpf4jnsgd1na2vs0mg"},{"bike_id":"9ce80678-2ca4-4baa-a7d2-19d4fc944020","system_id":"levelo_inurba_marseille","lat":43.241657,"lon":5.363919,"is_reserved":false,"is_disabled":false,"rental_uris":{"android":"levelo://app?vid=9ce80678-2ca4-4baa-a7d2-19d4fc944020","ios":"levelo://app?vid=9ce80678-2ca4-4baa-a7d2-19d4fc944020"},"vehicle_type_id":"4","last_reported":1744312044,"current_range_meters":9200,"station_id":"cpo36qri1sfpv3e86is0","pricing_plan_id":"cebpf4jnsgd1na2vs0mg"},{"bike_id":"19925b0c-bf13-433b-a8af-947f6f1941e5","system_id":"levelo_inurba_marseille","lat":43.2939,"lon":5.38604,"is_reserved":false,"is_disabled":false,"rental_uris":{"android":"levelo://app?vid=19925b0c-bf13-433b-a8af-947f6f1941e5","ios":"levelo://app?vid=19925b0c-bf13-433b-a8af-947f6f1941e5"},"vehicle_type_id":"4","last_reported":1744312044,"current_range_meters":9200,"station_id":"ce4bh2h2rcd13ifvqdh0","pricing_plan_id":"cebpf4jnsgd1na2vs0mg"},{"bike_id":"c66e0227-8dab-43f7-959d-ad39878fa71f","system_id":"levelo_inurba_marseille","lat":43.23077,"lon":5.35507,"is_reserved":false,"is_disabled":false,"rental_uris":{"android":"levelo://app?vid=c66e0227-8dab-43f7-959d-ad39878fa71f","ios":"levelo://app?vid=c66e0227-8dab-43f7-959d-ad39878fa71f"},"vehicle_type_id":"4","last_reported":1744312044,"current_range_meters":9600,"station_id":"cpo3342slgdg3j2ifvpg","pricing_plan_id":"cebpf4jnsgd1na2vs0mg"},{"bike_id":"9544e58f-863e-4776-8bcf-8ed5b564fd18","system_id":"levelo_inurba_marseille","lat":43.27554,"lon":5.38428,"is_reserved":false,"is_disabled":false,"rental_uris":{"android":"levelo://app?vid=9544e58f-863e-4776-8bcf-8ed5b564fd18","ios":"levelo://app?vid=9544e58f-863e-4776-8bcf-8ed5b564fd18"},"vehicle_type_id":"4","last_reported":1744312044,"current_range_meters":9600,"station_id":"ce4bhh92rcd13ifvqfi0","pricing_plan_id":"cebpf4jnsgd1na2vs0mg"},{"bike_id":"939d7f86-2993-4112-a879-7febd1724819","system_id":"levelo_inurba_marseille","lat":43.28082,"lon":5.39657,"is_reserved":false,"is_disabled":false,"rental_uris":{"android":"levelo://app?vid=939d7f86-2993-4112-a879-7febd1724819","ios":"levelo://app?vid=939d7f86-2993-4112-a879-7febd1724819"},"vehicle_type_id":"4","last_reported":1744312044,"current_range_meters":9600,"station_id":"ce4bho12rcd13ifvqh2g","pricing_plan_id":"cebpf4jnsgd1na2vs0mg"},{"bike_id":"4edadbd0-5515-47af-b7d9-99323fdd9db6","system_id":"levelo_inurba_marseille","lat":43.29293,"lon":5.37456,"is_reserved":false,"is_disabled":false,"rental_uris":{"android":"levelo://app?vid=4edadbd0-5515-47af-b7d9-99323fdd9db6","ios":"levelo://app?vid=4edadbd0-5515-47af-b7d9-99323fdd9db6"},"vehicle_type_id":"4","last_reported":1744312044,"current_range_meters":9600,"station_id":"ce4bgi12rcd13ifvqb70","pricing_plan_id":"cebpf4jnsgd1na2vs0mg"},{"bike_id":"a08fdf65-f7c3-4eb9-83c1-6d1abed3497e","system_id":"levelo_inurba_marseille","lat":43.286966,"lon":5.39983,"is_reserved":false,"is_disabled":true,"rental_uris":{"android":"levelo://app?vid=a08fdf65-f7c3-4eb9-83c1-6d1abed3497e","ios":"levelo://app?vid=a08fdf65-f7c3-4eb9-83c1-6d1abed3497e"},"vehicle_type_id":"4","last_reported":1744312044,"current_range_meters":9600,"station_id":"ce4bho92rcd13ifvqh3g","pricing_plan_id":"cebpf4jnsgd1na2vs0mg"},{"bike_id":"3332c36b-88a2-4998-ac9d-8c7b0e54c781","system_id":"levelo_inurba_marseille","lat":43.31525,"lon":5.38045,"is_reserved":false,"is_disabled":false,"rental_uris":{"android":"levelo://app?vid=3332c36b-88a2-4998-ac9d-8c7b0e54c781","ios":"levelo://app?vid=3332c36b-88a2-4998-ac9d-8c7b0e54c781"},"vehicle_type_id":"4","last_reported":1744312044,"current_range_meters":9200,"station_id":"ce4bhsp2rcd13ifvqi50","pricing_plan_id":"cebpf4jnsgd1na2vs0mg"},{"bike_id":"bff67837-c676-4b88-9fdc-8db7fe587121","system_id":"levelo_inurba_marseille","lat":43.30235,"lon":5.40044,"is_reserved":false,"is_disabled":true,"rental_uris":{"android":"levelo://app?vid=bff67837-c676-4b88-9fdc-8db7fe587121","ios":"levelo://app?vid=bff67837-c676-4b88-9fdc-8db7fe587121"},"vehicle_type_id":"4","last_reported":1744312044,"current_range_meters":9600,"station_id":"ce4bgvh2rcd13ifvqcs0","pricing_plan_id":"cebpf4jnsgd1na2vs0mg"},{"bike_id":"1ecae42f-523b-4530-acea-ee647547eede","system_id":"levelo_inurba_marseille","lat":43.30535,"lon":5.38412,"is_reserved":false,"is_disabled":false,"rental_uris":{"android":"levelo://app?vid=1ecae42f-523b-4530-acea-ee647547eede","ios":"levelo://app?vid=1ecae42f-523b-4530-acea-ee647547eede"},"vehicle_type_id":"4","last_reported":1744312044,"current_range_meters":9600,"station_id":"ce4bgg92rcd13ifvqb30","pricing_plan_id":"cebpf4jnsgd1na2vs0mg"},{"bike_id":"d202ed33-3cfb-4364-8875-74a7e34ed03a","system_id":"levelo_inurba_marseille","lat":43.26568,"lon":5.39027,"is_reserved":false,"is_disabled":false,"rental_uris":{"android":"levelo://app?vid=d202ed33-3cfb-4364-8875-74a7e34ed03a","ios":"levelo://app?vid=d202ed33-3cfb-4364-8875-74a7e34ed03a"},"vehicle_type_id":"4","last_reported":1744312044,"current_range_meters":10000,"station_id":"ce4bhe12rcd13ifvqf30","pricing_plan_id":"cebpf4jnsgd1na2vs0mg"},{"bike_id":"a1fdd794-2cd0-4fb6-96b3-8dafaa593e65","system_id":"levelo_inurba_marseille","lat":43.33793,"lon":5.37474,"is_reserved":false,"is_disabled":true,"rental_uris":{"android":"levelo://app?vid=a1fdd794-2cd0-4fb6-96b3-8dafaa593e65","ios":"levelo://app?vid=a1fdd794-2cd0-4fb6-96b3-8dafaa593e65"},"vehicle_type_id":"4","last_reported":1744312044,"current_range_meters":10000,"station_id":"","pricing_plan_id":"cebpf4jnsgd1na2vs0mg"},{"bike_id":"c7922c9e-df40-4d6f-92a1-640cc6bd2ff7","system_id":"levelo_inurba_marseille","lat":43.24189,"lon":5.36397,"is_reserved":false,"is_disabled":false,"rental_uris":{"android":"levelo://app?vid=c7922c9e-df40-4d6f-92a1-640cc6bd2ff7","ios":"levelo://app?vid=c7922c9e-df40-4d6f-92a1-640cc6bd2ff7"},"vehicle_type_id":"4","last_reported":1744312044,"current_range_meters":10000,"station_id":"cpo36qri1sfpv3e86is0","pricing_plan_id":"cebpf4jnsgd1na2vs0mg"},{"bike_id":"2000497b-6d4b-416f-b43b-2a4143aad53b","system_id":"levelo_inurba_marseille","lat":43.3229,"lon":5.38583,"is_reserved":false,"is_disabled":false,"rental_uris":{"android":"levelo://app?vid=2000497b-6d4b-416f-b43b-2a4143aad53b","ios":"levelo://app?vid=2000497b-6d4b-416f-b43b-2a4143aad53b"},"vehicle_type_id":"4","last_reported":1744312044,"current_range_meters":10000,"station_id":"","pricing_plan_id":"cebpf4jnsgd1na2vs0mg"},{"bike_id":"9bbee7e5-51f1-43c0-a4e2-1528cf04c891","system_id":"levelo_inurba_marseille","lat":43.29262,"lon":5.36866,"is_reserved":false,"is_disabled":false,"rental_uris":{"android":"levelo://app?vid=9bbee7e5-51f1-43c0-a4e2-1528cf04c891","ios":"levelo://app?vid=9bbee7e5-51f1-43c0-a4e2-1528cf04c891"},"vehicle_type_id":"4","last_reported":1744312044,"current_range_meters":10000,"station_id":"ce4bhbp2rcd13ifvqesg","pricing_plan_id":"cebpf4jnsgd1na2vs0mg"},{"bike_id":"b7cc970d-7266-49bc-bb92-240c586af233","system_id":"levelo_inurba_marseille","lat":43.27556,"lon":5.38426,"is_reserved":false,"is_disabled":false,"rental_uris":{"android":"levelo://app?vid=b7cc970d-7266-49bc-bb92-240c586af233","ios":"levelo://app?vid=b7cc970d-7266-49bc-bb92-240c586af233"},"vehicle_type_id":"4","last_reported":1744312044,"current_range_meters":10000,"station_id":"ce4bhh92rcd13ifvqfi0","pricing_plan_id":"cebpf4jnsgd1na2vs0mg"},{"bike_id":"33443bd1-63f0-4476-823e-4549241d83bd","system_id":"levelo_inurba_marseille","lat":43.229347,"lon":5.35379,"is_reserved":false,"is_disabled":false,"rental_uris":{"android":"levelo://app?vid=33443bd1-63f0-4476-823e-4549241d83bd","ios":"levelo://app?vid=33443bd1-63f0-4476-823e-4549241d83bd"},"vehicle_type_id":"4","last_reported":1744312044,"current_range_meters":10800,"station_id":"cpo3532slgdg3j2ikp40","pricing_plan_id":"cebpf4jnsgd1na2vs0mg"},{"bike_id":"40f7d30d-9bc5-4c5b-acb2-056a55647c6d","system_id":"levelo_inurba_marseille","lat":43.28702,"lon":5.37405,"is_reserved":false,"is_disabled":false,"rental_uris":{"android":"levelo://app?vid=40f7d30d-9bc5-4c5b-acb2-056a55647c6d","ios":"levelo://app?vid=40f7d30d-9bc5-4c5b-acb2-056a55647c6d"},"vehicle_type_id":"4","last_reported":1744312044,"current_range_meters":10800,"station_id":"ce4bh3p2rcd13ifvqdq0","pricing_plan_id":"cebpf4jnsgd1na2vs0mg"},{"bike_id":"2db89008-d841-44d6-9834-24f638848d6e","system_id":"levelo_inurba_marseille","lat":43.27812,"lon":5.40726,"is_reserved":false,"is_disabled":false,"rental_uris":{"android":"levelo://app?vid=2db89008-d841-44d6-9834-24f638848d6e","ios":"levelo://app?vid=2db89008-d841-44d6-9834-24f638848d6e"},"vehicle_type_id":"4","last_reported":1744312044,"current_range_meters":10000,"station_id":"ce4bhnh2rcd13ifvqgtg","pricing_plan_id":"cebpf4jnsgd1na2vs0mg"},{"bike_id":"ec660fae-e3a9-442c-b442-c3742f4f79bc","system_id":"levelo_inurba_marseille","lat":43.28452,"lon":5.39199,"is_reserved":false,"is_disabled":false,"rental_uris":{"android":"levelo://app?vid=ec660fae-e3a9-442c-b442-c3742f4f79bc","ios":"levelo://app?vid=ec660fae-e3a9-442c-b442-c3742f4f79bc"},"vehicle_type_id":"4","last_reported":1744312044,"current_range_meters":10800,"station_id":"ce4bhoh2rcd13ifvqh5g","pricing_plan_id":"cebpf4jnsgd1na2vs0mg"},{"bike_id":"30ee2873-7884-45b5-ad52-967ec2cd5388","system_id":"levelo_inurba_marseille","lat":43.27811,"lon":5.40718,"is_reserved":false,"is_disabled":false,"rental_uris":{"android":"levelo://app?vid=30ee2873-7884-45b5-ad52-967ec2cd5388","ios":"levelo://app?vid=30ee2873-7884-45b5-ad52-967ec2cd5388"},"vehicle_type_id":"4","last_reported":1744312044,"current_range_meters":10800,"station_id":"ce4bhnh2rcd13ifvqgtg","pricing_plan_id":"cebpf4jnsgd1na2vs0mg"},{"bike_id":"376e1679-56b1-4ff8-8190-e2949d5d5a0b","system_id":"levelo_inurba_marseille","lat":43.29302,"lon":5.37469,"is_reserved":false,"is_disabled":false,"rental_uris":{"android":"levelo://app?vid=376e1679-56b1-4ff8-8190-e2949d5d5a0b","ios":"levelo://app?vid=376e1679-56b1-4ff8-8190-e2949d5d5a0b"},"vehicle_type_id":"4","last_reported":1744312044,"current_range_meters":10800,"station_id":"ce4bgi12rcd13ifvqb70","pricing_plan_id":"cebpf4jnsgd1na2vs0mg"},{"bike_id":"b8559ad8-e571-45fa-92ff-1e0aa7813dbf","system_id":"levelo_inurba_marseille","lat":43.28154,"lon":5.42643,"is_reserved":false,"is_disabled":false,"rental_uris":{"android":"levelo://app?vid=b8559ad8-e571-45fa-92ff-1e0aa7813dbf","ios":"levelo://app?vid=b8559ad8-e571-45fa-92ff-1e0aa7813dbf"},"vehicle_type_id":"4","last_reported":1744312044,"current_range_meters":10800,"station_id":"ce4bhnh2rcd13ifvqgug","pricing_plan_id":"cebpf4jnsgd1na2vs0mg"},{"bike_id":"dc74f18f-e986-4a51-8ed5-d8b12f871fb8","system_id":"levelo_inurba_marseille","lat":43.28846,"lon":5.39317,"is_reserved":false,"is_disabled":false,"rental_uris":{"android":"levelo://app?vid=dc74f18f-e986-4a51-8ed5-d8b12f871fb8","ios":"levelo://app?vid=dc74f18f-e986-4a51-8ed5-d8b12f871fb8"},"vehicle_type_id":"4","last_reported":1744312044,"current_range_meters":10800,"station_id":"ce4bh2p2rcd13ifvqdi0","pricing_plan_id":"cebpf4jnsgd1na2vs0mg"},{"bike_id":"68e0119a-8645-4479-b5b1-70d812883054","system_id":"levelo_inurba_marseille","lat":43.28103,"lon":5.37847,"is_reserved":false,"is_disabled":false,"rental_uris":{"android":"levelo://app?vid=68e0119a-8645-4479-b5b1-70d812883054","ios":"levelo://app?vid=68e0119a-8645-4479-b5b1-70d812883054"},"vehicle_type_id":"4","last_reported":1744312044,"current_range_meters":11200,"station_id":"ce4bha12rcd13ifvqee0","pricing_plan_id":"cebpf4jnsgd1na2vs0mg"},{"bike_id":"8e433a30-bdd6-4211-bb03-d49d47ef3ecf","system_id":"levelo_inurba_marseille","lat":43.29102,"lon":5.38152,"is_reserved":false,"is_disabled":false,"rental_uris":{"android":"levelo://app?vid=8e433a30-bdd6-4211-bb03-d49d47ef3ecf","ios":"levelo://app?vid=8e433a30-bdd6-4211-bb03-d49d47ef3ecf"},"vehicle_type_id":"4","last_reported":1744312044,"current_range_meters":11200,"station_id":"ce4bh512rcd13ifvqe2g","pricing_plan_id":"cebpf4jnsgd1na2vs0mg"},{"bike_id":"cb83e91f-c3ea-4f26-837f-7d6a1c63be11","system_id":"levelo_inurba_marseille","lat":43.29419,"lon":5.38628,"is_reserved":false,"is_disabled":false,"rental_uris":{"android":"levelo://app?vid=cb83e91f-c3ea-4f26-837f-7d6a1c63be11","ios":"levelo://app?vid=cb83e91f-c3ea-4f26-837f-7d6a1c63be11"},"vehicle_type_id":"4","last_reported":1744312044,"current_range_meters":11200,"station_id":"ce4bh2h2rcd13ifvqdh0","pricing_plan_id":"cebpf4jnsgd1na2vs0mg"},{"bike_id":"65f52e07-c7c1-4b0b-a98a-2cb0cb6e9ef2","system_id":"levelo_inurba_marseille","lat":43.24082,"lon":5.37738,"is_reserved":false,"is_disabled":false,"rental_uris":{"android":"levelo://app?vid=65f52e07-c7c1-4b0b-a98a-2cb0cb6e9ef2","ios":"levelo://app?vid=65f52e07-c7c1-4b0b-a98a-2cb0cb6e9ef2"},"vehicle_type_id":"4","last_reported":1744312044,"current_range_meters":11200,"station_id":"ce4bhnp2rcd13ifvqgvg","pricing_plan_id":"cebpf4jnsgd1na2vs0mg"},{"bike_id":"98d0d7fa-e90e-4463-b77c-fa608a7bc43b","system_id":"levelo_inurba_marseille","lat":43.299774,"lon":5.37186,"is_reserved":false,"is_disabled":false,"rental_uris":{"android":"levelo://app?vid=98d0d7fa-e90e-4463-b77c-fa608a7bc43b","ios":"levelo://app?vid=98d0d7fa-e90e-4463-b77c-fa608a7bc43b"},"vehicle_type_id":"4","last_reported":1744312044,"current_range_meters":11600,"station_id":"ce4bgjh2rcd13ifvqbf0","pricing_plan_id":"cebpf4jnsgd1na2vs0mg"},{"bike_id":"f8be9081-c514-460d-9be3-4d086fbd951f","system_id":"levelo_inurba_marseille","lat":43.28618,"lon":5.3508,"is_reserved":false,"is_disabled":false,"rental_uris":{"android":"levelo://app?vid=f8be9081-c514-460d-9be3-4d086fbd951f","ios":"levelo://app?vid=f8be9081-c514-460d-9be3-4d086fbd951f"},"vehicle_type_id":"4","last_reported":1744312044,"current_range_meters":11600,"station_id":"ce4bhch2rcd13ifvqeug","pricing_plan_id":"cebpf4jnsgd1na2vs0mg"},{"bike_id":"15e3fe92-b295-4be5-b8f3-e8d97ed0a585","system_id":"levelo_inurba_marseille","lat":43.29301,"lon":5.37175,"is_reserved":false,"is_disabled":false,"rental_uris":{"android":"levelo://app?vid=15e3fe92-b295-4be5-b8f3-e8d97ed0a585","ios":"levelo://app?vid=15e3fe92-b295-4be5-b8f3-e8d97ed0a585"},"vehicle_type_id":"4","last_reported":1744312044,"current_range_meters":11600,"station_id":"ce4bgh92rcd13ifvqb40","pricing_plan_id":"cebpf4jnsgd1na2vs0mg"},{"bike_id":"39248001-e943-4cfc-874d-703469badf2b","system_id":"levelo_inurba_marseille","lat":43.303095,"lon":5.368885,"is_reserved":false,"is_disabled":false,"rental_uris":{"android":"levelo://app?vid=39248001-e943-4cfc-874d-703469badf2b","ios":"levelo://app?vid=39248001-e943-4cfc-874d-703469badf2b"},"vehicle_type_id":"4","last_reported":1744312044,"current_range_meters":11600,"station_id":"ce4bgh92rcd13ifvqb40","pricing_plan_id":"cebpf4jnsgd1na2vs0mg"},{"bike_id":"017f630a-7034-4a5f-b4ad-98139725e8f0","system_id":"levelo_inurba_marseille","lat":43.29029,"lon":5.38658,"is_reserved":false,"is_disabled":false,"rental_uris":{"android":"levelo://app?vid=017f630a-7034-4a5f-b4ad-98139725e8f0","ios":"levelo://app?vid=017f630a-7034-4a5f-b4ad-98139725e8f0"},"vehicle_type_id":"4","last_reported":1744312044,"current_range_meters":11200,"station_id":"ce4bh4p2rcd13ifvqe0g","pricing_plan_id":"cebpf4jnsgd1na2vs0mg"},{"bike_id":"df430bcb-5a2f-428c-82f6-ebc374b7f243","system_id":"levelo_inurba_marseille","lat":43.27171,"lon":5.40998,"is_reserved":false,"is_disabled":false,"rental_uris":{"android":"levelo://app?vid=df430bcb-5a2f-428c-82f6-ebc374b7f243","ios":"levelo://app?vid=df430bcb-5a2f-428c-82f6-ebc374b7f243"},"vehicle_type_id":"4","last_reported":1744312044,"current_range_meters":11600,"station_id":"ce4bhl12rcd13ifvqgf0","pricing_plan_id":"cebpf4jnsgd1na2vs0mg"},{"bike_id":"579b1f3c-9822-4861-a125-c2edfb9e093a","system_id":"levelo_inurba_marseille","lat":43.29416,"lon":5.38631,"is_reserved":false,"is_disabled":false,"rental_uris":{"android":"levelo://app?vid=579b1f3c-9822-4861-a125-c2edfb9e093a","ios":"levelo://app?vid=579b1f3c-9822-4861-a125-c2edfb9e093a"},"vehicle_type_id":"4","last_reported":1744312044,"current_range_meters":11600,"station_id":"ce4bh2h2rcd13ifvqdh0","pricing_plan_id":"cebpf4jnsgd1na2vs0mg"},{"bike_id":"b0542c6d-66fe-45e1-9c0f-12a0f17eb383","system_id":"levelo_inurba_marseille","lat":43.30093,"lon":5.3907,"is_reserved":false,"is_disabled":false,"rental_uris":{"android":"levelo://app?vid=b0542c6d-66fe-45e1-9c0f-12a0f17eb383","ios":"levelo://app?vid=b0542c6d-66fe-45e1-9c0f-12a0f17eb383"},"vehicle_type_id":"4","last_reported":1744312044,"current_range_meters":11600,"station_id":"ce4bh192rcd13ifvqdb0","pricing_plan_id":"cebpf4jnsgd1na2vs0mg"},{"bike_id":"13ad9988-1618-4fe6-8a3b-caae97152285","system_id":"levelo_inurba_marseille","lat":43.29444,"lon":5.39734,"is_reserved":false,"is_disabled":false,"rental_uris":{"android":"levelo://app?vid=13ad9988-1618-4fe6-8a3b-caae97152285","ios":"levelo://app?vid=13ad9988-1618-4fe6-8a3b-caae97152285"},"vehicle_type_id":"4","last_reported":1744312044,"current_range_meters":11600,"station_id":"ce4bh3h2rcd13ifvqdo0","pricing_plan_id":"cebpf4jnsgd1na2vs0mg"},{"bike_id":"674363a5-747a-4d33-89d6-adee419a8014","system_id":"levelo_inurba_marseille","lat":43.29414,"lon":5.38627,"is_reserved":false,"is_disabled":false,"rental_uris":{"android":"levelo://app?vid=674363a5-747a-4d33-89d6-adee419a8014","ios":"levelo://app?vid=674363a5-747a-4d33-89d6-adee419a8014"},"vehicle_type_id":"4","last_reported":1744312044,"current_range_meters":12000,"station_id":"ce4bh2h2rcd13ifvqdh0","pricing_plan_id":"cebpf4jnsgd1na2vs0mg"},{"bike_id":"eac420dd-0edc-47df-9dd1-4e69f09fc51b","system_id":"levelo_inurba_marseille","lat":43.29672,"lon":5.39417,"is_reserved":false,"is_disabled":false,"rental_uris":{"android":"levelo://app?vid=eac420dd-0edc-47df-9dd1-4e69f09fc51b","ios":"levelo://app?vid=eac420dd-0edc-47df-9dd1-4e69f09fc51b"},"vehicle_type_id":"4","last_reported":1744312044,"current_range_meters":12000,"station_id":"","pricing_plan_id":"cebpf4jnsgd1na2vs0mg"},{"bike_id":"cc7d8bc2-c0fb-4339-bd47-c23f8f77d5f4","system_id":"levelo_inurba_marseille","lat":43.25714,"lon":5.4112,"is_reserved":false,"is_disabled":true,"rental_uris":{"android":"levelo://app?vid=cc7d8bc2-c0fb-4339-bd47-c23f8f77d5f4","ios":"levelo://app?vid=cc7d8bc2-c0fb-4339-bd47-c23f8f77d5f4"},"vehicle_type_id":"4","last_reported":1744312044,"current_range_meters":12000,"station_id":"ce4bhkp2rcd13ifvqgd0","pricing_plan_id":"cebpf4jnsgd1na2vs0mg"},{"bike_id":"b7301e97-442f-41d8-8792-d3aaa4312f69","system_id":"levelo_inurba_marseille","lat":43.28726,"lon":5.37949,"is_reserved":false,"is_disabled":false,"rental_uris":{"android":"levelo://app?vid=b7301e97-442f-41d8-8792-d3aaa4312f69","ios":"levelo://app?vid=b7301e97-442f-41d8-8792-d3aaa4312f69"},"vehicle_type_id":"4","last_reported":1744312044,"current_range_meters":12400,"station_id":"ce4bh9p2rcd13ifvqec0","pricing_plan_id":"cebpf4jnsgd1na2vs0mg"},{"bike_id":"78cfc020-8002-452d-acc2-9e95dfb62042","system_id":"levelo_inurba_marseille","lat":43.29865,"lon":5.3974,"is_reserved":false,"is_disabled":false,"rental_uris":{"android":"levelo://app?vid=78cfc020-8002-452d-acc2-9e95dfb62042","ios":"levelo://app?vid=78cfc020-8002-452d-acc2-9e95dfb62042"},"vehicle_type_id":"4","last_reported":1744312044,"current_range_meters":16400,"station_id":"ce4bh0h2rcd13ifvqd50","pricing_plan_id":"cebpf4jnsgd1na2vs0mg"},{"bike_id":"989cfda3-e11f-45b5-a08c-71c9a276e15d","system_id":"levelo_inurba_marseille","lat":43.294211,"lon":5.386477,"is_reserved":false,"is_disabled":false,"rental_uris":{"android":"levelo://app?vid=989cfda3-e11f-45b5-a08c-71c9a276e15d","ios":"levelo://app?vid=989cfda3-e11f-45b5-a08c-71c9a276e15d"},"vehicle_type_id":"4","last_reported":1744312044,"current_range_meters":12400,"station_id":"chh1huq6cuj3fo74tm60","pricing_plan_id":"cebpf4jnsgd1na2vs0mg"},{"bike_id":"1741b489-a8ea-4c41-9d0d-75107d63165f","system_id":"levelo_inurba_marseille","lat":43.29415,"lon":5.38611,"is_reserved":false,"is_disabled":false,"rental_uris":{"android":"levelo://app?vid=1741b489-a8ea-4c41-9d0d-75107d63165f","ios":"levelo://app?vid=1741b489-a8ea-4c41-9d0d-75107d63165f"},"vehicle_type_id":"4","last_reported":1744312044,"current_range_meters":12400,"station_id":"ce4bh2h2rcd13ifvqdh0","pricing_plan_id":"cebpf4jnsgd1na2vs0mg"},{"bike_id":"682f263c-54c8-4f30-bab5-d540251a8124","system_id":"levelo_inurba_marseille","lat":43.29418,"lon":5.38634,"is_reserved":false,"is_disabled":false,"rental_uris":{"android":"levelo://app?vid=682f263c-54c8-4f30-bab5-d540251a8124","ios":"levelo://app?vid=682f263c-54c8-4f30-bab5-d540251a8124"},"vehicle_type_id":"4","last_reported":1744312044,"current_range_meters":12400,"station_id":"ce4bh2h2rcd13ifvqdh0","pricing_plan_id":"cebpf4jnsgd1na2vs0mg"},{"bike_id":"ba35821a-472a-4c0d-b1f7-213cd028055a","system_id":"levelo_inurba_marseille","lat":43.29505,"lon":5.37512,"is_reserved":false,"is_disabled":false,"rental_uris":{"android":"levelo://app?vid=ba35821a-472a-4c0d-b1f7-213cd028055a","ios":"levelo://app?vid=ba35821a-472a-4c0d-b1f7-213cd028055a"},"vehicle_type_id":"4","last_reported":1744312044,"current_range_meters":12400,"station_id":"ce4bgkp2rcd13ifvqbmg","pricing_plan_id":"cebpf4jnsgd1na2vs0mg"},{"bike_id":"0a6a8af9-1f6c-4781-9d8d-337d8bb1dffc","system_id":"levelo_inurba_marseille","lat":43.2707,"lon":5.42283,"is_reserved":false,"is_disabled":false,"rental_uris":{"android":"levelo://app?vid=0a6a8af9-1f6c-4781-9d8d-337d8bb1dffc","ios":"levelo://app?vid=0a6a8af9-1f6c-4781-9d8d-337d8bb1dffc"},"vehicle_type_id":"4","last_reported":1744312044,"current_range_meters":12400,"station_id":"ce4bhk92rcd13ifvqgb0","pricing_plan_id":"cebpf4jnsgd1na2vs0mg"},{"bike_id":"f3598fe6-c483-42ac-861a-5f57d4da37ab","system_id":"levelo_inurba_marseille","lat":43.29417,"lon":5.38636,"is_reserved":false,"is_disabled":false,"rental_uris":{"android":"levelo://app?vid=f3598fe6-c483-42ac-861a-5f57d4da37ab","ios":"levelo://app?vid=f3598fe6-c483-42ac-861a-5f57d4da37ab"},"vehicle_type_id":"4","last_reported":1744312044,"current_range_meters":12400,"station_id":"ce4bh2h2rcd13ifvqdh0","pricing_plan_id":"cebpf4jnsgd1na2vs0mg"},{"bike_id":"d40a5517-85b6-4699-bb97-bcacbe3fee9c","system_id":"levelo_inurba_marseille","lat":43.3013,"lon":5.39885,"is_reserved":false,"is_disabled":false,"rental_uris":{"android":"levelo://app?vid=d40a5517-85b6-4699-bb97-bcacbe3fee9c","ios":"levelo://app?vid=d40a5517-85b6-4699-bb97-bcacbe3fee9c"},"vehicle_type_id":"4","last_reported":1744312044,"current_range_meters":12400,"station_id":"ce4bh0h2rcd13ifvqd40","pricing_plan_id":"cebpf4jnsgd1na2vs0mg"},{"bike_id":"661f3d40-9be0-4cf8-bca2-b686307728de","system_id":"levelo_inurba_marseille","lat":43.29374,"lon":5.37849,"is_reserved":false,"is_disabled":false,"rental_uris":{"android":"levelo://app?vid=661f3d40-9be0-4cf8-bca2-b686307728de","ios":"levelo://app?vid=661f3d40-9be0-4cf8-bca2-b686307728de"},"vehicle_type_id":"4","last_reported":1744312044,"current_range_meters":12400,"station_id":"ce4bgjh2rcd13ifvqbf0","pricing_plan_id":"cebpf4jnsgd1na2vs0mg"},{"bike_id":"6a44d07f-efb6-44c9-9903-b0eb2ef1be59","system_id":"levelo_inurba_marseille","lat":43.22928,"lon":5.35378,"is_reserved":false,"is_disabled":false,"rental_uris":{"android":"levelo://app?vid=6a44d07f-efb6-44c9-9903-b0eb2ef1be59","ios":"levelo://app?vid=6a44d07f-efb6-44c9-9903-b0eb2ef1be59"},"vehicle_type_id":"4","last_reported":1744312044,"current_range_meters":12800,"station_id":"cpo3532slgdg3j2ikp40","pricing_plan_id":"cebpf4jnsgd1na2vs0mg"},{"bike_id":"de07953f-a368-43dd-aba2-34a7197efe50","system_id":"levelo_inurba_marseille","lat":43.256115,"lon":5.405147,"is_reserved":false,"is_disabled":false,"rental_uris":{"android":"levelo://app?vid=de07953f-a368-43dd-aba2-34a7197efe50","ios":"levelo://app?vid=de07953f-a368-43dd-aba2-34a7197efe50"},"vehicle_type_id":"4","last_reported":1744312044,"current_range_meters":12800,"station_id":"","pricing_plan_id":"cebpf4jnsgd1na2vs0mg"},{"bike_id":"2a200662-d2ef-46ec-84b6-caf2fde5ebb5","system_id":"levelo_inurba_marseille","lat":43.2953,"lon":5.38542,"is_reserved":false,"is_disabled":false,"rental_uris":{"android":"levelo://app?vid=2a200662-d2ef-46ec-84b6-caf2fde5ebb5","ios":"levelo://app?vid=2a200662-d2ef-46ec-84b6-caf2fde5ebb5"},"vehicle_type_id":"4","last_reported":1744312044,"current_range_meters":12800,"station_id":"ce4bgih2rcd13ifvqba0","pricing_plan_id":"cebpf4jnsgd1na2vs0mg"},{"bike_id":"1c08672f-0499-4ff0-9bcd-09fd3e792f91","system_id":"levelo_inurba_marseille","lat":43.28719,"lon":5.36099,"is_reserved":false,"is_disabled":false,"rental_uris":{"android":"levelo://app?vid=1c08672f-0499-4ff0-9bcd-09fd3e792f91","ios":"levelo://app?vid=1c08672f-0499-4ff0-9bcd-09fd3e792f91"},"vehicle_type_id":"4","last_reported":1744312044,"current_range_meters":12800,"station_id":"cki0cbj6b192h4jlfktg","pricing_plan_id":"cebpf4jnsgd1na2vs0mg"},{"bike_id":"b24b8b5e-d537-496c-8bfb-33c04905b018","system_id":"levelo_inurba_marseille","lat":43.3108,"lon":5.4243,"is_reserved":false,"is_disabled":false,"rental_uris":{"android":"levelo://app?vid=b24b8b5e-d537-496c-8bfb-33c04905b018","ios":"levelo://app?vid=b24b8b5e-d537-496c-8bfb-33c04905b018"},"vehicle_type_id":"4","last_reported":1744312044,"current_range_meters":12800,"station_id":"ce4bhp92rcd13ifvqhag","pricing_plan_id":"cebpf4jnsgd1na2vs0mg"},{"bike_id":"948fbb1b-9d5b-4325-b779-7fce26e83f32","system_id":"levelo_inurba_marseille","lat":43.30125,"lon":5.39874,"is_reserved":false,"is_disabled":false,"rental_uris":{"android":"levelo://app?vid=948fbb1b-9d5b-4325-b779-7fce26e83f32","ios":"levelo://app?vid=948fbb1b-9d5b-4325-b779-7fce26e83f32"},"vehicle_type_id":"4","last_reported":1744312044,"current_range_meters":12800,"station_id":"ce4bh0h2rcd13ifvqd40","pricing_plan_id":"cebpf4jnsgd1na2vs0mg"},{"bike_id":"3ad53623-47b3-40dd-9b67-205219c9f232","system_id":"levelo_inurba_marseille","lat":43.28944,"lon":5.36636,"is_reserved":false,"is_disabled":false,"rental_uris":{"android":"levelo://app?vid=3ad53623-47b3-40dd-9b67-205219c9f232","ios":"levelo://app?vid=3ad53623-47b3-40dd-9b67-205219c9f232"},"vehicle_type_id":"4","last_reported":1744312044,"current_range_meters":12800,"station_id":"ce4bhap2rcd13ifvqek0","pricing_plan_id":"cebpf4jnsgd1na2vs0mg"},{"bike_id":"09b26001-66aa-400c-a02c-685a7e2d6707","system_id":"levelo_inurba_marseille","lat":43.30424,"lon":5.39752,"is_reserved":false,"is_disabled":false,"rental_uris":{"android":"levelo://app?vid=09b26001-66aa-400c-a02c-685a7e2d6707","ios":"levelo://app?vid=09b26001-66aa-400c-a02c-685a7e2d6707"},"vehicle_type_id":"4","last_reported":1744312044,"current_range_meters":12800,"station_id":"ce4bh092rcd13ifvqd20","pricing_plan_id":"cebpf4jnsgd1na2vs0mg"},{"bike_id":"36dd2f5e-4014-41b9-8f6e-aa54636e0b8b","system_id":"levelo_inurba_marseille","lat":43.241645,"lon":5.363955,"is_reserved":false,"is_disabled":false,"rental_uris":{"android":"levelo://app?vid=36dd2f5e-4014-41b9-8f6e-aa54636e0b8b","ios":"levelo://app?vid=36dd2f5e-4014-41b9-8f6e-aa54636e0b8b"},"vehicle_type_id":"4","last_reported":1744312044,"current_range_meters":12800,"station_id":"cpo36qri1sfpv3e86is0","pricing_plan_id":"cebpf4jnsgd1na2vs0mg"},{"bike_id":"81fba91d-fd0b-485f-8f2b-2552aab3b307","system_id":"levelo_inurba_marseille","lat":43.23962,"lon":5.36636,"is_reserved":false,"is_disabled":false,"rental_uris":{"android":"levelo://app?vid=81fba91d-fd0b-485f-8f2b-2552aab3b307","ios":"levelo://app?vid=81fba91d-fd0b-485f-8f2b-2552aab3b307"},"vehicle_type_id":"4","last_reported":1744312044,"current_range_meters":13600,"station_id":"ce4bhi12rcd13ifvqfp0","pricing_plan_id":"cebpf4jnsgd1na2vs0mg"},{"bike_id":"f6cfea05-8f33-4e92-9d1c-ed06a50e2460","system_id":"levelo_inurba_marseille","lat":43.30804,"lon":5.43544,"is_reserved":false,"is_disabled":false,"rental_uris":{"android":"levelo://app?vid=f6cfea05-8f33-4e92-9d1c-ed06a50e2460","ios":"levelo://app?vid=f6cfea05-8f33-4e92-9d1c-ed06a50e2460"},"vehicle_type_id":"4","last_reported":1744312044,"current_range_meters":13600,"station_id":"ce4bhph2rcd13ifvqheg","pricing_plan_id":"cebpf4jnsgd1na2vs0mg"},{"bike_id":"673e71f3-6fb7-410d-931c-b6d19838b1fa","system_id":"levelo_inurba_marseille","lat":43.29099,"lon":5.38171,"is_reserved":false,"is_disabled":false,"rental_uris":{"android":"levelo://app?vid=673e71f3-6fb7-410d-931c-b6d19838b1fa","ios":"levelo://app?vid=673e71f3-6fb7-410d-931c-b6d19838b1fa"},"vehicle_type_id":"4","last_reported":1744312044,"current_range_meters":13600,"station_id":"ce4bh512rcd13ifvqe2g","pricing_plan_id":"cebpf4jnsgd1na2vs0mg"},{"bike_id":"55b77f0e-e270-4ece-8156-686d92f28ce6","system_id":"levelo_inurba_marseille","lat":43.29307,"lon":5.37174,"is_reserved":false,"is_disabled":false,"rental_uris":{"android":"levelo://app?vid=55b77f0e-e270-4ece-8156-686d92f28ce6","ios":"levelo://app?vid=55b77f0e-e270-4ece-8156-686d92f28ce6"},"vehicle_type_id":"4","last_reported":1744312044,"current_range_meters":13600,"station_id":"ce4bgh92rcd13ifvqb40","pricing_plan_id":"cebpf4jnsgd1na2vs0mg"},{"bike_id":"b0d68051-9288-41c8-8a15-60d411e42cbf","system_id":"levelo_inurba_marseille","lat":43.31754,"lon":5.3902,"is_reserved":false,"is_disabled":false,"rental_uris":{"android":"levelo://app?vid=b0d68051-9288-41c8-8a15-60d411e42cbf","ios":"levelo://app?vid=b0d68051-9288-41c8-8a15-60d411e42cbf"},"vehicle_type_id":"4","last_reported":1744312044,"current_range_meters":13600,"station_id":"ce4bhqp2rcd13ifvqhng","pricing_plan_id":"cebpf4jnsgd1na2vs0mg"},{"bike_id":"7166249f-5e32-40e1-8c16-dd8bfb75ee2c","system_id":"levelo_inurba_marseille","lat":43.29256,"lon":5.40904,"is_reserved":false,"is_disabled":false,"rental_uris":{"android":"levelo://app?vid=7166249f-5e32-40e1-8c16-dd8bfb75ee2c","ios":"levelo://app?vid=7166249f-5e32-40e1-8c16-dd8bfb75ee2c"},"vehicle_type_id":"4","last_reported":1744312044,"current_range_meters":13600,"station_id":"ce4bh192rcd13ifvqdc0","pricing_plan_id":"cebpf4jnsgd1na2vs0mg"},{"bike_id":"54691b81-5084-441d-bb18-f4cca3600336","system_id":"levelo_inurba_marseille","lat":43.29302,"lon":5.37183,"is_reserved":false,"is_disabled":false,"rental_uris":{"android":"levelo://app?vid=54691b81-5084-441d-bb18-f4cca3600336","ios":"levelo://app?vid=54691b81-5084-441d-bb18-f4cca3600336"},"vehicle_type_id":"4","last_reported":1744312044,"current_range_meters":13600,"station_id":"ce4bgh92rcd13ifvqb40","pricing_plan_id":"cebpf4jnsgd1na2vs0mg"},{"bike_id":"01928ea2-a99b-4ee7-a6dd-f7e9b60efba7","system_id":"levelo_inurba_marseille","lat":43.29298,"lon":5.37454,"is_reserved":false,"is_disabled":false,"rental_uris":{"android":"levelo://app?vid=01928ea2-a99b-4ee7-a6dd-f7e9b60efba7","ios":"levelo://app?vid=01928ea2-a99b-4ee7-a6dd-f7e9b60efba7"},"vehicle_type_id":"4","last_reported":1744312044,"current_range_meters":14000,"station_id":"ce4bgi12rcd13ifvqb70","pricing_plan_id":"cebpf4jnsgd1na2vs0mg"},{"bike_id":"f678cb81-4386-4594-8074-801a443cb2ed","system_id":"levelo_inurba_marseille","lat":43.28151,"lon":5.42637,"is_reserved":false,"is_disabled":false,"rental_uris":{"android":"levelo://app?vid=f678cb81-4386-4594-8074-801a443cb2ed","ios":"levelo://app?vid=f678cb81-4386-4594-8074-801a443cb2ed"},"vehicle_type_id":"4","last_reported":1744312044,"current_range_meters":14000,"station_id":"ce4bhnh2rcd13ifvqgug","pricing_plan_id":"cebpf4jnsgd1na2vs0mg"},{"bike_id":"2929edc8-47ed-402d-93c7-2daa8f43f208","system_id":"levelo_inurba_marseille","lat":43.23961,"lon":5.36632,"is_reserved":false,"is_disabled":false,"rental_uris":{"android":"levelo://app?vid=2929edc8-47ed-402d-93c7-2daa8f43f208","ios":"levelo://app?vid=2929edc8-47ed-402d-93c7-2daa8f43f208"},"vehicle_type_id":"4","last_reported":1744312044,"current_range_meters":14000,"station_id":"ce4bhi12rcd13ifvqfp0","pricing_plan_id":"cebpf4jnsgd1na2vs0mg"},{"bike_id":"ebf8090d-2da5-4c1e-9b4a-6206bca4e296","system_id":"levelo_inurba_marseille","lat":43.28849,"lon":5.35854,"is_reserved":false,"is_disabled":false,"rental_uris":{"android":"levelo://app?vid=ebf8090d-2da5-4c1e-9b4a-6206bca4e296","ios":"levelo://app?vid=ebf8090d-2da5-4c1e-9b4a-6206bca4e296"},"vehicle_type_id":"4","last_reported":1744312044,"current_range_meters":14000,"station_id":"ce4bhb12rcd13ifvqem0","pricing_plan_id":"cebpf4jnsgd1na2vs0mg"},{"bike_id":"eab6cbfa-cb8e-47d7-b0d6-226ab7facec7","system_id":"levelo_inurba_marseille","lat":43.31714,"lon":5.42412,"is_reserved":false,"is_disabled":true,"rental_uris":{"android":"levelo://app?vid=eab6cbfa-cb8e-47d7-b0d6-226ab7facec7","ios":"levelo://app?vid=eab6cbfa-cb8e-47d7-b0d6-226ab7facec7"},"vehicle_type_id":"4","last_reported":1744312044,"current_range_meters":14000,"station_id":"ce4bhp92rcd13ifvqhbg","pricing_plan_id":"cebpf4jnsgd1na2vs0mg"},{"bike_id":"784f6f6f-9f28-47b2-878e-a7ec8d21c437","system_id":"levelo_inurba_marseille","lat":43.33779,"lon":5.37484,"is_reserved":false,"is_disabled":false,"rental_uris":{"android":"levelo://app?vid=784f6f6f-9f28-47b2-878e-a7ec8d21c437","ios":"levelo://app?vid=784f6f6f-9f28-47b2-878e-a7ec8d21c437"},"vehicle_type_id":"4","last_reported":1744312044,"current_range_meters":14400,"station_id":"","pricing_plan_id":"cebpf4jnsgd1na2vs0mg"},{"bike_id":"c86a2a76-3251-4ebd-8e58-20d78be33f65","system_id":"levelo_inurba_marseille","lat":43.31167,"lon":5.3872,"is_reserved":false,"is_disabled":false,"rental_uris":{"android":"levelo://app?vid=c86a2a76-3251-4ebd-8e58-20d78be33f65","ios":"levelo://app?vid=c86a2a76-3251-4ebd-8e58-20d78be33f65"},"vehicle_type_id":"4","last_reported":1744312044,"current_range_meters":14800,"station_id":"ce4bgv12rcd13ifvqcp0","pricing_plan_id":"cebpf4jnsgd1na2vs0mg"},{"bike_id":"badfd41d-bbe0-48c1-a645-6e3b67ac22f9","system_id":"levelo_inurba_marseille","lat":43.26943,"lon":5.36669,"is_reserved":false,"is_disabled":false,"rental_uris":{"android":"levelo://app?vid=badfd41d-bbe0-48c1-a645-6e3b67ac22f9","ios":"levelo://app?vid=badfd41d-bbe0-48c1-a645-6e3b67ac22f9"},"vehicle_type_id":"4","last_reported":1744312044,"current_range_meters":14800,"station_id":"ce4bhg12rcd13ifvqf70","pricing_plan_id":"cebpf4jnsgd1na2vs0mg"},{"bike_id":"8c01c616-33d3-4f21-a94b-3bf76ab48ae7","system_id":"levelo_inurba_marseille","lat":43.28936,"lon":5.36629,"is_reserved":false,"is_disabled":true,"rental_uris":{"android":"levelo://app?vid=8c01c616-33d3-4f21-a94b-3bf76ab48ae7","ios":"levelo://app?vid=8c01c616-33d3-4f21-a94b-3bf76ab48ae7"},"vehicle_type_id":"4","last_reported":1744312044,"current_range_meters":14800,"station_id":"ce4bhap2rcd13ifvqek0","pricing_plan_id":"cebpf4jnsgd1na2vs0mg"},{"bike_id":"b15863de-8de0-4f96-a8a9-f23cdf3497f9","system_id":"levelo_inurba_marseille","lat":43.27911,"lon":5.39591,"is_reserved":false,"is_disabled":false,"rental_uris":{"android":"levelo://app?vid=b15863de-8de0-4f96-a8a9-f23cdf3497f9","ios":"levelo://app?vid=b15863de-8de0-4f96-a8a9-f23cdf3497f9"},"vehicle_type_id":"4","last_reported":1744312044,"current_range_meters":14800,"station_id":"ce4bhf92rcd13ifvqf40","pricing_plan_id":"cebpf4jnsgd1na2vs0mg"},{"bike_id":"8d928683-fd19-4e85-a705-949f44a3bf51","system_id":"levelo_inurba_marseille","lat":43.27626,"lon":5.3614,"is_reserved":false,"is_disabled":false,"rental_uris":{"android":"levelo://app?vid=8d928683-fd19-4e85-a705-949f44a3bf51","ios":"levelo://app?vid=8d928683-fd19-4e85-a705-949f44a3bf51"},"vehicle_type_id":"4","last_reported":1744312044,"current_range_meters":14800,"station_id":"ce4bgj92rcd13ifvqbe0","pricing_plan_id":"cebpf4jnsgd1na2vs0mg"},{"bike_id":"9c07b687-0cca-4a28-82f6-66c50d295640","system_id":"levelo_inurba_marseille","lat":43.32342,"lon":5.38328,"is_reserved":false,"is_disabled":false,"rental_uris":{"android":"levelo://app?vid=9c07b687-0cca-4a28-82f6-66c50d295640","ios":"levelo://app?vid=9c07b687-0cca-4a28-82f6-66c50d295640"},"vehicle_type_id":"4","last_reported":1744312044,"current_range_meters":14800,"station_id":"","pricing_plan_id":"cebpf4jnsgd1na2vs0mg"},{"bike_id":"9231697b-6013-4739-8145-946afd92531f","system_id":"levelo_inurba_marseille","lat":43.30038,"lon":5.39989,"is_reserved":false,"is_disabled":false,"rental_uris":{"android":"levelo://app?vid=9231697b-6013-4739-8145-946afd92531f","ios":"levelo://app?vid=9231697b-6013-4739-8145-946afd92531f"},"vehicle_type_id":"4","last_reported":1744312044,"current_range_meters":14800,"station_id":"","pricing_plan_id":"cebpf4jnsgd1na2vs0mg"},{"bike_id":"060e769c-6ffe-46c6-8a40-62d7f6d9c812","system_id":"levelo_inurba_marseille","lat":43.29256,"lon":5.38451,"is_reserved":false,"is_disabled":false,"rental_uris":{"android":"levelo://app?vid=060e769c-6ffe-46c6-8a40-62d7f6d9c812","ios":"levelo://app?vid=060e769c-6ffe-46c6-8a40-62d7f6d9c812"},"vehicle_type_id":"4","last_reported":1744312044,"current_range_meters":14800,"station_id":"ce4bh692rcd13ifvqea0","pricing_plan_id":"cebpf4jnsgd1na2vs0mg"},{"bike_id":"05ba2ca6-c64b-4097-bbd6-4f9188eb82e9","system_id":"levelo_inurba_marseille","lat":43.303785,"lon":5.393228,"is_reserved":false,"is_disabled":false,"rental_uris":{"android":"levelo://app?vid=05ba2ca6-c64b-4097-bbd6-4f9188eb82e9","ios":"levelo://app?vid=05ba2ca6-c64b-4097-bbd6-4f9188eb82e9"},"vehicle_type_id":"4","last_reported":1744312044,"current_range_meters":14400,"station_id":"ce4bh012rcd13ifvqcv0","pricing_plan_id":"cebpf4jnsgd1na2vs0mg"},{"bike_id":"f65dbe6f-a8a0-4aa1-87a6-a3a7af51000d","system_id":"levelo_inurba_marseille","lat":43.28631,"lon":5.35144,"is_reserved":false,"is_disabled":false,"rental_uris":{"android":"levelo://app?vid=f65dbe6f-a8a0-4aa1-87a6-a3a7af51000d","ios":"levelo://app?vid=f65dbe6f-a8a0-4aa1-87a6-a3a7af51000d"},"vehicle_type_id":"4","last_reported":1744312044,"current_range_meters":14800,"station_id":"ce4bhch2rcd13ifvqeug","pricing_plan_id":"cebpf4jnsgd1na2vs0mg"},{"bike_id":"28c2ee12-2948-4d1e-8706-f445681bfdff","system_id":"levelo_inurba_marseille","lat":43.3152,"lon":5.38758,"is_reserved":false,"is_disabled":true,"rental_uris":{"android":"levelo://app?vid=28c2ee12-2948-4d1e-8706-f445681bfdff","ios":"levelo://app?vid=28c2ee12-2948-4d1e-8706-f445681bfdff"},"vehicle_type_id":"4","last_reported":1744312044,"current_range_meters":14800,"station_id":"","pricing_plan_id":"cebpf4jnsgd1na2vs0mg"},{"bike_id":"88705a7f-6ae8-48ea-a342-7b9ccc596536","system_id":"levelo_inurba_marseille","lat":43.31176,"lon":5.38716,"is_reserved":false,"is_disabled":false,"rental_uris":{"android":"levelo://app?vid=88705a7f-6ae8-48ea-a342-7b9ccc596536","ios":"levelo://app?vid=88705a7f-6ae8-48ea-a342-7b9ccc596536"},"vehicle_type_id":"4","last_reported":1744312044,"current_range_meters":14800,"station_id":"ce4bgv12rcd13ifvqcp0","pricing_plan_id":"cebpf4jnsgd1na2vs0mg"},{"bike_id":"2f604b1b-d5c1-4825-8a1c-02d30e0bb26a","system_id":"levelo_inurba_marseille","lat":43.31074,"lon":5.38363,"is_reserved":false,"is_disabled":false,"rental_uris":{"android":"levelo://app?vid=2f604b1b-d5c1-4825-8a1c-02d30e0bb26a","ios":"levelo://app?vid=2f604b1b-d5c1-4825-8a1c-02d30e0bb26a"},"vehicle_type_id":"4","last_reported":1744312044,"current_range_meters":15200,"station_id":"ce4bgv92rcd13ifvqcr0","pricing_plan_id":"cebpf4jnsgd1na2vs0mg"},{"bike_id":"c7ddcdab-6de8-4331-8a47-3658f1010a12","system_id":"levelo_inurba_marseille","lat":43.2929,"lon":5.37463,"is_reserved":false,"is_disabled":false,"rental_uris":{"android":"levelo://app?vid=c7ddcdab-6de8-4331-8a47-3658f1010a12","ios":"levelo://app?vid=c7ddcdab-6de8-4331-8a47-3658f1010a12"},"vehicle_type_id":"4","last_reported":1744312044,"current_range_meters":15200,"station_id":"ce4bgi12rcd13ifvqb70","pricing_plan_id":"cebpf4jnsgd1na2vs0mg"},{"bike_id":"ca402c13-bf58-4718-8787-949de9b95d18","system_id":"levelo_inurba_marseille","lat":43.2953,"lon":5.38552,"is_reserved":false,"is_disabled":false,"rental_uris":{"android":"levelo://app?vid=ca402c13-bf58-4718-8787-949de9b95d18","ios":"levelo://app?vid=ca402c13-bf58-4718-8787-949de9b95d18"},"vehicle_type_id":"4","last_reported":1744312044,"current_range_meters":14800,"station_id":"ce4bgih2rcd13ifvqba0","pricing_plan_id":"cebpf4jnsgd1na2vs0mg"},{"bike_id":"fcf4356c-c9c4-42a1-981a-2c3487d95ef8","system_id":"levelo_inurba_marseille","lat":43.31172,"lon":5.38728,"is_reserved":false,"is_disabled":false,"rental_uris":{"android":"levelo://app?vid=fcf4356c-c9c4-42a1-981a-2c3487d95ef8","ios":"levelo://app?vid=fcf4356c-c9c4-42a1-981a-2c3487d95ef8"},"vehicle_type_id":"4","last_reported":1744312044,"current_range_meters":15200,"station_id":"ce4bgv12rcd13ifvqcp0","pricing_plan_id":"cebpf4jnsgd1na2vs0mg"},{"bike_id":"0922821c-4e1d-4817-9469-860e55f8f0d1","system_id":"levelo_inurba_marseille","lat":43.337444,"lon":5.374475,"is_reserved":false,"is_disabled":false,"rental_uris":{"android":"levelo://app?vid=0922821c-4e1d-4817-9469-860e55f8f0d1","ios":"levelo://app?vid=0922821c-4e1d-4817-9469-860e55f8f0d1"},"vehicle_type_id":"4","last_reported":1744312044,"current_range_meters":15200,"station_id":"","pricing_plan_id":"cebpf4jnsgd1na2vs0mg"},{"bike_id":"d156b243-2316-4a0c-9eb8-3100990ad19c","system_id":"levelo_inurba_marseille","lat":43.27676,"lon":5.38874,"is_reserved":false,"is_disabled":false,"rental_uris":{"android":"levelo://app?vid=d156b243-2316-4a0c-9eb8-3100990ad19c","ios":"levelo://app?vid=d156b243-2316-4a0c-9eb8-3100990ad19c"},"vehicle_type_id":"4","last_reported":1744312044,"current_range_meters":15200,"station_id":"ce4bhi12rcd13ifvqfo0","pricing_plan_id":"cebpf4jnsgd1na2vs0mg"},{"bike_id":"18c8aea9-216e-462b-a15e-03d0945ac2cf","system_id":"levelo_inurba_marseille","lat":43.29272,"lon":5.38444,"is_reserved":false,"is_disabled":false,"rental_uris":{"android":"levelo://app?vid=18c8aea9-216e-462b-a15e-03d0945ac2cf","ios":"levelo://app?vid=18c8aea9-216e-462b-a15e-03d0945ac2cf"},"vehicle_type_id":"4","last_reported":1744312044,"current_range_meters":15200,"station_id":"ce4bh692rcd13ifvqea0","pricing_plan_id":"cebpf4jnsgd1na2vs0mg"},{"bike_id":"8f2e0c19-7ca7-4de1-b508-a6bd53f47c54","system_id":"levelo_inurba_marseille","lat":43.3025,"lon":5.40075,"is_reserved":false,"is_disabled":false,"rental_uris":{"android":"levelo://app?vid=8f2e0c19-7ca7-4de1-b508-a6bd53f47c54","ios":"levelo://app?vid=8f2e0c19-7ca7-4de1-b508-a6bd53f47c54"},"vehicle_type_id":"4","last_reported":1744312044,"current_range_meters":16000,"station_id":"ce4bgvh2rcd13ifvqcs0","pricing_plan_id":"cebpf4jnsgd1na2vs0mg"},{"bike_id":"23718e9a-5ce7-4d28-99a5-8f754f56e13c","system_id":"levelo_inurba_marseille","lat":43.22517,"lon":5.34783,"is_reserved":false,"is_disabled":false,"rental_uris":{"android":"levelo://app?vid=23718e9a-5ce7-4d28-99a5-8f754f56e13c","ios":"levelo://app?vid=23718e9a-5ce7-4d28-99a5-8f754f56e13c"},"vehicle_type_id":"4","last_reported":1744312044,"current_range_meters":16000,"station_id":"","pricing_plan_id":"cebpf4jnsgd1na2vs0mg"},{"bike_id":"ad829087-0d59-451b-bd72-404eb742223f","system_id":"levelo_inurba_marseille","lat":43.2942,"lon":5.38621,"is_reserved":false,"is_disabled":false,"rental_uris":{"android":"levelo://app?vid=ad829087-0d59-451b-bd72-404eb742223f","ios":"levelo://app?vid=ad829087-0d59-451b-bd72-404eb742223f"},"vehicle_type_id":"4","last_reported":1744312044,"current_range_meters":16000,"station_id":"ce4bh2h2rcd13ifvqdh0","pricing_plan_id":"cebpf4jnsgd1na2vs0mg"},{"bike_id":"992d1ab1-2ef4-454c-a3db-15c7eedd594f","system_id":"levelo_inurba_marseille","lat":43.2885,"lon":5.35855,"is_reserved":false,"is_disabled":false,"rental_uris":{"android":"levelo://app?vid=992d1ab1-2ef4-454c-a3db-15c7eedd594f","ios":"levelo://app?vid=992d1ab1-2ef4-454c-a3db-15c7eedd594f"},"vehicle_type_id":"4","last_reported":1744312044,"current_range_meters":16000,"station_id":"ce4bhb12rcd13ifvqem0","pricing_plan_id":"cebpf4jnsgd1na2vs0mg"},{"bike_id":"d80bf1f1-6842-483b-b4f5-705ea1d87e65","system_id":"levelo_inurba_marseille","lat":43.30539,"lon":5.36553,"is_reserved":false,"is_disabled":false,"rental_uris":{"android":"levelo://app?vid=d80bf1f1-6842-483b-b4f5-705ea1d87e65","ios":"levelo://app?vid=d80bf1f1-6842-483b-b4f5-705ea1d87e65"},"vehicle_type_id":"4","last_reported":1744312044,"current_range_meters":16000,"station_id":"ce4bgs12rcd13ifvqcag","pricing_plan_id":"cebpf4jnsgd1na2vs0mg"},{"bike_id":"0be42ab3-a778-4754-bcb5-9073f31aa2e7","system_id":"levelo_inurba_marseille","lat":43.30887,"lon":5.39642,"is_reserved":false,"is_disabled":false,"rental_uris":{"android":"levelo://app?vid=0be42ab3-a778-4754-bcb5-9073f31aa2e7","ios":"levelo://app?vid=0be42ab3-a778-4754-bcb5-9073f31aa2e7"},"vehicle_type_id":"4","last_reported":1744312044,"current_range_meters":16000,"station_id":"ce4bh012rcd13ifvqcv0","pricing_plan_id":"cebpf4jnsgd1na2vs0mg"},{"bike_id":"218467a0-8f5c-443a-894e-22a845cccbc8","system_id":"levelo_inurba_marseille","lat":43.255,"lon":5.37653,"is_reserved":false,"is_disabled":false,"rental_uris":{"android":"levelo://app?vid=218467a0-8f5c-443a-894e-22a845cccbc8","ios":"levelo://app?vid=218467a0-8f5c-443a-894e-22a845cccbc8"},"vehicle_type_id":"4","last_reported":1744312044,"current_range_meters":16000,"station_id":"ce4bhh12rcd13ifvqff0","pricing_plan_id":"cebpf4jnsgd1na2vs0mg"},{"bike_id":"8fb8d6ed-5abb-4cad-ade9-ba6766c8cc84","system_id":"levelo_inurba_marseille","lat":43.295706,"lon":5.37526,"is_reserved":false,"is_disabled":false,"rental_uris":{"android":"levelo://app?vid=8fb8d6ed-5abb-4cad-ade9-ba6766c8cc84","ios":"levelo://app?vid=8fb8d6ed-5abb-4cad-ade9-ba6766c8cc84"},"vehicle_type_id":"4","last_reported":1744312044,"current_range_meters":16000,"station_id":"ce4bgh92rcd13ifvqb50","pricing_plan_id":"cebpf4jnsgd1na2vs0mg"},{"bike_id":"3f1723fa-f6bc-4518-a3c4-07192febf36b","system_id":"levelo_inurba_marseille","lat":43.25484,"lon":5.37665,"is_reserved":false,"is_disabled":false,"rental_uris":{"android":"levelo://app?vid=3f1723fa-f6bc-4518-a3c4-07192febf36b","ios":"levelo://app?vid=3f1723fa-f6bc-4518-a3c4-07192febf36b"},"vehicle_type_id":"4","last_reported":1744312044,"current_range_meters":16000,"station_id":"ce4bhh12rcd13ifvqff0","pricing_plan_id":"cebpf4jnsgd1na2vs0mg"},{"bike_id":"b6fa2fb1-b579-4458-a7b9-1ae3eb3a3e97","system_id":"levelo_inurba_marseille","lat":43.31113,"lon":5.37778,"is_reserved":false,"is_disabled":false,"rental_uris":{"android":"levelo://app?vid=b6fa2fb1-b579-4458-a7b9-1ae3eb3a3e97","ios":"levelo://app?vid=b6fa2fb1-b579-4458-a7b9-1ae3eb3a3e97"},"vehicle_type_id":"4","last_reported":1744312044,"current_range_meters":16000,"station_id":"ce4bgt92rcd13ifvqcg0","pricing_plan_id":"cebpf4jnsgd1na2vs0mg"},{"bike_id":"80d249c8-0662-4d03-929e-8febcdcd4a57","system_id":"levelo_inurba_marseille","lat":43.24069,"lon":5.37764,"is_reserved":false,"is_disabled":false,"rental_uris":{"android":"levelo://app?vid=80d249c8-0662-4d03-929e-8febcdcd4a57","ios":"levelo://app?vid=80d249c8-0662-4d03-929e-8febcdcd4a57"},"vehicle_type_id":"4","last_reported":1744312044,"current_range_meters":16000,"station_id":"ce4bhnp2rcd13ifvqgvg","pricing_plan_id":"cebpf4jnsgd1na2vs0mg"},{"bike_id":"5dcde913-efef-4318-98f5-046ad556fa31","system_id":"levelo_inurba_marseille","lat":43.28843,"lon":5.39305,"is_reserved":false,"is_disabled":false,"rental_uris":{"android":"levelo://app?vid=5dcde913-efef-4318-98f5-046ad556fa31","ios":"levelo://app?vid=5dcde913-efef-4318-98f5-046ad556fa31"},"vehicle_type_id":"4","last_reported":1744312044,"current_range_meters":16000,"station_id":"ce4bh2p2rcd13ifvqdi0","pricing_plan_id":"cebpf4jnsgd1na2vs0mg"},{"bike_id":"a737f5db-dfb3-4dd8-aeff-67617975e190","system_id":"levelo_inurba_marseille","lat":43.29604,"lon":5.3769,"is_reserved":false,"is_disabled":true,"rental_uris":{"android":"levelo://app?vid=a737f5db-dfb3-4dd8-aeff-67617975e190","ios":"levelo://app?vid=a737f5db-dfb3-4dd8-aeff-67617975e190"},