{"last_updated":1726740565,"ttl":30,"version":"2.2","data":{"bikes":[{"bike_id":"897a2a90-a513-4bc6-aa39-1ef51f15e559","system_id":"levelo_inurba_marseille","lat":43.26951,"lon":5.38635,"is_reserved":false,"is_disabled":false,"rental_uris":{"android":"levelo://app?vid=897a2a90-a513-4bc6-aa39-1ef51f15e559","ios":"levelo://app?vid=897a2a90-a513-4bc6-aa39-1ef51f15e559"},"vehicle_type_id":"4","last_reported":1726740565,"current_range_meters":28400,"station_id":"ce4bhh92rcd13ifvqfh0","pricing_plan_id":"cebpf4jnsgd1na2vs0mg"},{"bike_id":"5a3917e3-a8f6-41e7-b577-af838342f8e9","system_id":"levelo_inurba_marseille","lat":43.29585,"lon":5.36735,"is_reserved":false,"is_disabled":false,"rental_uris":{"android":"levelo://app?vid=5a3917e3-a8f6-41e7-b577-af838342f8e9","ios":"levelo://app?vid=5a3917e3-a8f6-41e7-b577-af838342f8e9"},"vehicle_type_id":"4","last_reported":1726740565,"current_range_meters":7200,"station_id":"ce4bgph2rcd13ifvqc2g","pricing_plan_id":"cebpf4jnsgd1na2vs0mg"},{"bike_id":"104fb511-d6f2-4a01-88d3-3e2b7c5ab661","system_id":"levelo_inurba_marseille","lat":43.31688,"lon":5.40471,"is_reserved":false,"is_disabled":false,"rental_uris":{"android":"levelo://app?vid=104fb511-d6f2-4a01-88d3-3e2b7c5ab661","ios":"levelo://app?vid=104fb511-d6f2-4a01-88d3-3e2b7c5ab661"},"vehicle_type_id":"4","last_reported":1726740565,"current_range_meters":36000,"station_id":"ce4bh012rcd13ifvqd00","pricing_plan_id":"cebpf4jnsgd1na2vs0mg"},{"bike_id":"20d916b6-22cb-4b5e-8970-14142ae4a1de","system_id":"levelo_inurba_marseille","lat":43.30954,"lon":5.39036,"is_reserved":false,"is_disabled":false,"rental_uris":{"android":"levelo://app?vid=20d916b6-22cb-4b5e-8970-14142ae4a1de","ios":"levelo://app?vid=20d916b6-22cb-4b5e-8970-14142ae4a1de"},"vehicle_type_id":"4","last_reported":1726740565,"current_range_meters":26800,"station_id":"ce4bgup2rcd13ifvqco0","pricing_plan_id":"cebpf4jnsgd1na2vs0mg"},{"bike_id":"d67c1e61-afc2-4146-b9fc-88e137531238","system_id":"levelo_inurba_marseille","lat":43.29549,"lon":5.42276,"is_reserved":false,"is_disabled":false,"rental_uris":{"android":"levelo://app?vid=d67c1e61-afc2-4146-b9fc-88e137531238","ios":"levelo://app?vid=d67c1e61-afc2-4146-b9fc-88e137531238"},"vehicle_type_id":"4","last_reported":1726740565,"current_range_meters":9200,"station_id":"ce4bhph2rcd13ifvqhdg","pricing_plan_id":"cebpf4jnsgd1na2vs0mg"},{"bike_id":"811185ca-cd6a-422c-b080-e3d3efd7cfd9","system_id":"levelo_inurba_marseille","lat":43.317352,"lon":5.390252,"is_reserved":false,"is_disabled":false,"rental_uris":{"android":"levelo://app?vid=811185ca-cd6a-422c-b080-e3d3efd7cfd9","ios":"levelo://app?vid=811185ca-cd6a-422c-b080-e3d3efd7cfd9"},"vehicle_type_id":"4","last_reported":1726740565,"current_range_meters":16400,"station_id":"ce4bhqp2rcd13ifvqhng","pricing_plan_id":"cebpf4jnsgd1na2vs0mg"},{"bike_id":"6cbf7334-272b-475e-b8aa-f44f29cebaae","system_id":"levelo_inurba_marseille","lat":43.30469,"lon":5.37907,"is_reserved":false,"is_disabled":false,"rental_uris":{"android":"levelo://app?vid=6cbf7334-272b-475e-b8aa-f44f29cebaae","ios":"levelo://app?vid=6cbf7334-272b-475e-b8aa-f44f29cebaae"},"vehicle_type_id":"4","last_reported":1726740565,"current_range_meters":38800,"station_id":"ce4bgup2rcd13ifvqcn0","pricing_plan_id":"cebpf4jnsgd1na2vs0mg"},{"bike_id":"ea518a3b-2ba6-4aef-8e8b-1da3cf82019a","system_id":"levelo_inurba_marseille","lat":43.27496,"lon":5.42454,"is_reserved":false,"is_disabled":false,"rental_uris":{"android":"levelo://app?vid=ea518a3b-2ba6-4aef-8e8b-1da3cf82019a","ios":"levelo://app?vid=ea518a3b-2ba6-4aef-8e8b-1da3cf82019a"},"vehicle_type_id":"4","last_reported":1726740565,"current_range_meters":6400,"station_id":"ce4bhn92rcd13ifvqgrg","pricing_plan_id":"cebpf4jnsgd1na2vs0mg"},{"bike_id":"9a8caa05-259e-4b84-bd68-de2f9c9d3fc6","system_id":"levelo_inurba_marseille","lat":43.30462,"lon":5.37894,"is_reserved":false,"is_disabled":false,"rental_uris":{"android":"levelo://app?vid=9a8caa05-259e-4b84-bd68-de2f9c9d3fc6","ios":"levelo://app?vid=9a8caa05-259e-4b84-bd68-de2f9c9d3fc6"},"vehicle_type_id":"4","last_reported":1726740565,"current_range_meters":13600,"station_id":"ce4bgup2rcd13ifvqcn0","pricing_plan_id":"cebpf4jnsgd1na2vs0mg"},{"bike_id":"e532fd53-ad12-4848-82ea-70ac934c1c37","system_id":"levelo_inurba_marseille","lat":43.33751,"lon":5.37454,"is_reserved":false,"is_disabled":false,"rental_uris":{"android":"levelo://app?vid=e532fd53-ad12-4848-82ea-70ac934c1c37","ios":"levelo://app?vid=e532fd53-ad12-4848-82ea-70ac934c1c37"},"vehicle_type_id":"4","last_reported":1726740565,"current_range_meters":37600,"station_id":"","pricing_plan_id":"cebpf4jnsgd1na2vs0mg"},{"bike_id":"16aff90c-07c9-446e-b8cf-7b04ea13322c","system_id":"levelo_inurba_marseille","lat":43.28152,"lon":5.42635,"is_reserved":false,"is_disabled":false,"rental_uris":{"android":"levelo://app?vid=16aff90c-07c9-446e-b8cf-7b04ea13322c","ios":"levelo://app?vid=16aff90c-07c9-446e-b8cf-7b04ea13322c"},"vehicle_type_id":"4","last_reported":1726740565,"current_range_meters":36000,"station_id":"ce4bhnh2rcd13ifvqgug","pricing_plan_id":"cebpf4jnsgd1na2vs0mg"},{"bike_id":"9a7bef7e-aa27-4b3e-b3a0-16082888faf1","system_id":"levelo_inurba_marseille","lat":43.25926,"lon":5.40911,"is_reserved":false,"is_disabled":false,"rental_uris":{"android":"levelo://app?vid=9a7bef7e-aa27-4b3e-b3a0-16082888faf1","ios":"levelo://app?vid=9a7bef7e-aa27-4b3e-b3a0-16082888faf1"},"vehicle_type_id":"4","last_reported":1726740565,"current_range_meters":35200,"station_id":"ce4bhm92rcd13ifvqglg","pricing_plan_id":"cebpf4jnsgd1na2vs0mg"},{"bike_id":"d197431f-647b-48f8-bb3e-78688a9c066f","system_id":"levelo_inurba_marseille","lat":43.30423,"lon":5.39758,"is_reserved":false,"is_disabled":false,"rental_uris":{"android":"levelo://app?vid=d197431f-647b-48f8-bb3e-78688a9c066f","ios":"levelo://app?vid=d197431f-647b-48f8-bb3e-78688a9c066f"},"vehicle_type_id":"4","last_reported":1726740565,"current_range_meters":38400,"station_id":"ce4bh092rcd13ifvqd20","pricing_plan_id":"cebpf4jnsgd1na2vs0mg"},{"bike_id":"efa4cf92-ef01-4f9b-ad9f-46088597f995","system_id":"levelo_inurba_marseille","lat":43.32472,"lon":5.36566,"is_reserved":false,"is_disabled":false,"rental_uris":{"android":"levelo://app?vid=efa4cf92-ef01-4f9b-ad9f-46088597f995","ios":"levelo://app?vid=efa4cf92-ef01-4f9b-ad9f-46088597f995"},"vehicle_type_id":"4","last_reported":1726740565,"current_range_meters":33600,"station_id":"ce4bhs12rcd13ifvqhvg","pricing_plan_id":"cebpf4jnsgd1na2vs0mg"},{"bike_id":"a48c0f10-3a7a-4fe8-8343-dded0834619f","system_id":"levelo_inurba_marseille","lat":43.2408,"lon":5.3775,"is_reserved":false,"is_disabled":false,"rental_uris":{"android":"levelo://app?vid=a48c0f10-3a7a-4fe8-8343-dded0834619f","ios":"levelo://app?vid=a48c0f10-3a7a-4fe8-8343-dded0834619f"},"vehicle_type_id":"4","last_reported":1726740565,"current_range_meters":14400,"station_id":"ce4bhnp2rcd13ifvqgvg","pricing_plan_id":"cebpf4jnsgd1na2vs0mg"},{"bike_id":"4af403ff-232e-437f-a15e-03f83dae4a86","system_id":"levelo_inurba_marseille","lat":43.30537,"lon":5.3655,"is_reserved":false,"is_disabled":false,"rental_uris":{"android":"levelo://app?vid=4af403ff-232e-437f-a15e-03f83dae4a86","ios":"levelo://app?vid=4af403ff-232e-437f-a15e-03f83dae4a86"},"vehicle_type_id":"4","last_reported":1726740565,"current_range_meters":24800,"station_id":"ce4bgs12rcd13ifvqcag","pricing_plan_id":"cebpf4jnsgd1na2vs0mg"},{"bike_id":"64b8db7b-e020-426b-bc67-cc08026eaa92","system_id":"levelo_inurba_marseille","lat":43.2984,"lon":5.36268,"is_reserved":false,"is_disabled":false,"rental_uris":{"android":"levelo://app?vid=64b8db7b-e020-426b-bc67-cc08026eaa92","ios":"levelo://app?vid=64b8db7b-e020-426b-bc67-cc08026eaa92"},"vehicle_type_id":"4","last_reported":1726740565,"current_range_meters":40000,"station_id":"ce4bgpp2rcd13ifvqc3g","pricing_plan_id":"cebpf4jnsgd1na2vs0mg"},{"bike_id":"422fb2d9-e531-4235-863b-a809f34dec48","system_id":"levelo_inurba_marseille","lat":43.29772,"lon":5.37104,"is_reserved":false,"is_disabled":false,"rental_uris":{"android":"levelo://app?vid=422fb2d9-e531-4235-863b-a809f34dec48","ios":"levelo://app?vid=422fb2d9-e531-4235-863b-a809f34dec48"},"vehicle_type_id":"4","last_reported":1726740565,"current_range_meters":27600,"station_id":"ce4bgop2rcd13ifvqc1g","pricing_plan_id":"cebpf4jnsgd1na2vs0mg"},{"bike_id":"b48e6f67-7739-4263-bb20-fd6a4fdec9fa","system_id":"levelo_inurba_marseille","lat":43.28101,"lon":5.37835,"is_reserved":false,"is_disabled":false,"rental_uris":{"android":"levelo://app?vid=b48e6f67-7739-4263-bb20-fd6a4fdec9fa","ios":"levelo://app?vid=b48e6f67-7739-4263-bb20-fd6a4fdec9fa"},"vehicle_type_id":"4","last_reported":1726740565,"current_range_meters":18800,"station_id":"ce4bha12rcd13ifvqee0","pricing_plan_id":"cebpf4jnsgd1na2vs0mg"},{"bike_id":"66f2ebb6-f107-4f8a-863a-75c42410b0c9","system_id":"levelo_inurba_marseille","lat":43.31165,"lon":5.39362,"is_reserved":false,"is_disabled":false,"rental_uris":{"android":"levelo://app?vid=66f2ebb6-f107-4f8a-863a-75c42410b0c9","ios":"levelo://app?vid=66f2ebb6-f107-4f8a-863a-75c42410b0c9"},"vehicle_type_id":"4","last_reported":1726740565,"current_range_meters":26000,"station_id":"","pricing_plan_id":"cebpf4jnsgd1na2vs0mg"},{"bike_id":"2bc21d36-e9c1-4ac7-aae9-a800945214f5","system_id":"levelo_inurba_marseille","lat":43.30141,"lon":5.37405,"is_reserved":false,"is_disabled":false,"rental_uris":{"android":"levelo://app?vid=2bc21d36-e9c1-4ac7-aae9-a800945214f5","ios":"levelo://app?vid=2bc21d36-e9c1-4ac7-aae9-a800945214f5"},"vehicle_type_id":"4","last_reported":1726740565,"current_range_meters":26800,"station_id":"ce4bgs92rcd13ifvqcc0","pricing_plan_id":"cebpf4jnsgd1na2vs0mg"},{"bike_id":"781f16a0-cc22-4498-ab74-3692f019830d","system_id":"levelo_inurba_marseille","lat":43.26204,"lon":5.37932,"is_reserved":false,"is_disabled":false,"rental_uris":{"android":"levelo://app?vid=781f16a0-cc22-4498-ab74-3692f019830d","ios":"levelo://app?vid=781f16a0-cc22-4498-ab74-3692f019830d"},"vehicle_type_id":"4","last_reported":1726740565,"current_range_meters":26800,"station_id":"ce4bhjp2rcd13ifvqg90","pricing_plan_id":"cebpf4jnsgd1na2vs0mg"},{"bike_id":"8c5b13f3-62c8-4a96-b86d-e5efbc61bc84","system_id":"levelo_inurba_marseille","lat":43.30959,"lon":5.39025,"is_reserved":false,"is_disabled":false,"rental_uris":{"android":"levelo://app?vid=8c5b13f3-62c8-4a96-b86d-e5efbc61bc84","ios":"levelo://app?vid=8c5b13f3-62c8-4a96-b86d-e5efbc61bc84"},"vehicle_type_id":"4","last_reported":1726740565,"current_range_meters":33200,"station_id":"ce4bgup2rcd13ifvqco0","pricing_plan_id":"cebpf4jnsgd1na2vs0mg"},{"bike_id":"8985a7e5-d9b7-4ee6-9335-fd8939fcdf07","system_id":"levelo_inurba_marseille","lat":43.2749,"lon":5.42456,"is_reserved":false,"is_disabled":false,"rental_uris":{"android":"levelo://app?vid=8985a7e5-d9b7-4ee6-9335-fd8939fcdf07","ios":"levelo://app?vid=8985a7e5-d9b7-4ee6-9335-fd8939fcdf07"},"vehicle_type_id":"4","last_reported":1726740565,"current_range_meters":24400,"station_id":"ce4bhn92rcd13ifvqgrg","pricing_plan_id":"cebpf4jnsgd1na2vs0mg"},{"bike_id":"b42c1ccd-c3b2-4cd9-ab94-486be42e6531","system_id":"levelo_inurba_marseille","lat":43.31327,"lon":5.39694,"is_reserved":false,"is_disabled":false,"rental_uris":{"android":"levelo://app?vid=b42c1ccd-c3b2-4cd9-ab94-486be42e6531","ios":"levelo://app?vid=b42c1ccd-c3b2-4cd9-ab94-486be42e6531"},"vehicle_type_id":"4","last_reported":1726740565,"current_range_meters":7200,"station_id":"ce4bgvp2rcd13ifvqcu0","pricing_plan_id":"cebpf4jnsgd1na2vs0mg"},{"bike_id":"78cd0229-63f4-4790-99c6-4a9a185a91ac","system_id":"levelo_inurba_marseille","lat":43.26055,"lon":5.39393,"is_reserved":false,"is_disabled":false,"rental_uris":{"android":"levelo://app?vid=78cd0229-63f4-4790-99c6-4a9a185a91ac","ios":"levelo://app?vid=78cd0229-63f4-4790-99c6-4a9a185a91ac"},"vehicle_type_id":"4","last_reported":1726740565,"current_range_meters":40000,"station_id":"ce4bhh92rcd13ifvqfj0","pricing_plan_id":"cebpf4jnsgd1na2vs0mg"},{"bike_id":"94b792e3-4671-44d8-9241-f3fb87ab6fe9","system_id":"levelo_inurba_marseille","lat":43.2318,"lon":5.39985,"is_reserved":false,"is_disabled":false,"rental_uris":{"android":"levelo://app?vid=94b792e3-4671-44d8-9241-f3fb87ab6fe9","ios":"levelo://app?vid=94b792e3-4671-44d8-9241-f3fb87ab6fe9"},"vehicle_type_id":"4","last_reported":1726740565,"current_range_meters":39200,"station_id":"ce4bhn12rcd13ifvqgqg","pricing_plan_id":"cebpf4jnsgd1na2vs0mg"},{"bike_id":"5ee72852-9360-467f-8628-81c7887b89c6","system_id":"levelo_inurba_marseille","lat":43.24077,"lon":5.37758,"is_reserved":false,"is_disabled":false,"rental_uris":{"android":"levelo://app?vid=5ee72852-9360-467f-8628-81c7887b89c6","ios":"levelo://app?vid=5ee72852-9360-467f-8628-81c7887b89c6"},"vehicle_type_id":"4","last_reported":1726740565,"current_range_meters":16400,"station_id":"ce4bhnp2rcd13ifvqgvg","pricing_plan_id":"cebpf4jnsgd1na2vs0mg"},{"bike_id":"b3f69feb-2153-480b-814f-20ad60f7040d","system_id":"levelo_inurba_marseille","lat":43.31076,"lon":5.38357,"is_reserved":false,"is_disabled":false,"rental_uris":{"android":"levelo://app?vid=b3f69feb-2153-480b-814f-20ad60f7040d","ios":"levelo://app?vid=b3f69feb-2153-480b-814f-20ad60f7040d"},"vehicle_type_id":"4","last_reported":1726740565,"current_range_meters":32800,"station_id":"ce4bgv92rcd13ifvqcr0","pricing_plan_id":"cebpf4jnsgd1na2vs0mg"},{"bike_id":"26aa31aa-cfe0-4d58-86ff-ca540824c108","system_id":"levelo_inurba_marseille","lat":43.297379,"lon":5.393551,"is_reserved":false,"is_disabled":false,"rental_uris":{"android":"levelo://app?vid=26aa31aa-cfe0-4d58-86ff-ca540824c108","ios":"levelo://app?vid=26aa31aa-cfe0-4d58-86ff-ca540824c108"},"vehicle_type_id":"4","last_reported":1726740565,"current_range_meters":38400,"station_id":"chh1huq6cuj3fo74tm60","pricing_plan_id":"cebpf4jnsgd1na2vs0mg"},{"bike_id":"036ab25f-0c34-4c45-8e88-1fc9200da6fd","system_id":"levelo_inurba_marseille","lat":43.27185,"lon":5.42703,"is_reserved":false,"is_disabled":false,"rental_uris":{"android":"levelo://app?vid=036ab25f-0c34-4c45-8e88-1fc9200da6fd","ios":"levelo://app?vid=036ab25f-0c34-4c45-8e88-1fc9200da6fd"},"vehicle_type_id":"4","last_reported":1726740565,"current_range_meters":30400,"station_id":"","pricing_plan_id":"cebpf4jnsgd1na2vs0mg"},{"bike_id":"c2272d1c-de85-40c3-8a06-70b6bf4106b7","system_id":"levelo_inurba_marseille","lat":43.30792,"lon":5.43521,"is_reserved":false,"is_disabled":false,"rental_uris":{"android":"levelo://app?vid=c2272d1c-de85-40c3-8a06-70b6bf4106b7","ios":"levelo://app?vid=c2272d1c-de85-40c3-8a06-70b6bf4106b7"},"vehicle_type_id":"4","last_reported":1726740565,"current_range_meters":38000,"station_id":"ce4bhph2rcd13ifvqheg","pricing_plan_id":"cebpf4jnsgd1na2vs0mg"},{"bike_id":"c1d8a9f0-cde4-474f-8d86-26987bae3190","system_id":"levelo_inurba_marseille","lat":43.33607,"lon":5.4103,"is_reserved":false,"is_disabled":false,"rental_uris":{"android":"levelo://app?vid=c1d8a9f0-cde4-474f-8d86-26987bae3190","ios":"levelo://app?vid=c1d8a9f0-cde4-474f-8d86-26987bae3190"},"vehicle_type_id":"4","last_reported":1726740565,"current_range_meters":24000,"station_id":"ce4bhqh2rcd13ifvqhmg","pricing_plan_id":"cebpf4jnsgd1na2vs0mg"},{"bike_id":"3a25a5b1-9593-4cec-86f9-39274f1b1719","system_id":"levelo_inurba_marseille","lat":43.27568,"lon":5.38442,"is_reserved":false,"is_disabled":false,"rental_uris":{"android":"levelo://app?vid=3a25a5b1-9593-4cec-86f9-39274f1b1719","ios":"levelo://app?vid=3a25a5b1-9593-4cec-86f9-39274f1b1719"},"vehicle_type_id":"4","last_reported":1726740565,"current_range_meters":30800,"station_id":"ce4bhh92rcd13ifvqfi0","pricing_plan_id":"cebpf4jnsgd1na2vs0mg"},{"bike_id":"38b7aaaa-5299-4007-8e90-4889ff1d3ce7","system_id":"levelo_inurba_marseille","lat":43.2315,"lon":5.4372,"is_reserved":false,"is_disabled":false,"rental_uris":{"android":"levelo://app?vid=38b7aaaa-5299-4007-8e90-4889ff1d3ce7","ios":"levelo://app?vid=38b7aaaa-5299-4007-8e90-4889ff1d3ce7"},"vehicle_type_id":"4","last_reported":1726740565,"current_range_meters":39200,"station_id":"ce4bhmp2rcd13ifvqgog","pricing_plan_id":"cebpf4jnsgd1na2vs0mg"},{"bike_id":"5cc53505-f644-47f4-8faa-c9e23f5803f2","system_id":"levelo_inurba_marseille","lat":43.24553,"lon":5.39525,"is_reserved":false,"is_disabled":false,"rental_uris":{"android":"levelo://app?vid=5cc53505-f644-47f4-8faa-c9e23f5803f2","ios":"levelo://app?vid=5cc53505-f644-47f4-8faa-c9e23f5803f2"},"vehicle_type_id":"4","last_reported":1726740565,"current_range_meters":33600,"station_id":"ce4bhlp2rcd13ifvqgjg","pricing_plan_id":"cebpf4jnsgd1na2vs0mg"},{"bike_id":"20e17120-8154-4ada-ad34-f42b9d13e9fb","system_id":"levelo_inurba_marseille","lat":43.30598,"lon":5.37211,"is_reserved":false,"is_disabled":false,"rental_uris":{"android":"levelo://app?vid=20e17120-8154-4ada-ad34-f42b9d13e9fb","ios":"levelo://app?vid=20e17120-8154-4ada-ad34-f42b9d13e9fb"},"vehicle_type_id":"4","last_reported":1726740565,"current_range_meters":40000,"station_id":"ce4bgqh2rcd13ifvqc4g","pricing_plan_id":"cebpf4jnsgd1na2vs0mg"},{"bike_id":"26f288b7-89b9-409b-9ddf-e2b7a23a52f6","system_id":"levelo_inurba_marseille","lat":43.33778,"lon":5.37431,"is_reserved":false,"is_disabled":false,"rental_uris":{"android":"levelo://app?vid=26f288b7-89b9-409b-9ddf-e2b7a23a52f6","ios":"levelo://app?vid=26f288b7-89b9-409b-9ddf-e2b7a23a52f6"},"vehicle_type_id":"4","last_reported":1726740565,"current_range_meters":36400,"station_id":"","pricing_plan_id":"cebpf4jnsgd1na2vs0mg"},{"bike_id":"8bc8eed8-03c1-41d0-a69b-10938ab2faad","system_id":"levelo_inurba_marseille","lat":43.29194,"lon":5.39313,"is_reserved":false,"is_disabled":false,"rental_uris":{"android":"levelo://app?vid=8bc8eed8-03c1-41d0-a69b-10938ab2faad","ios":"levelo://app?vid=8bc8eed8-03c1-41d0-a69b-10938ab2faad"},"vehicle_type_id":"4","last_reported":1726740565,"current_range_meters":38800,"station_id":"ce4bh192rcd13ifvqdd0","pricing_plan_id":"cebpf4jnsgd1na2vs0mg"},{"bike_id":"2ab68c25-c8ff-432e-bdc8-d9111aa92152","system_id":"levelo_inurba_marseille","lat":43.27812,"lon":5.40713,"is_reserved":false,"is_disabled":false,"rental_uris":{"android":"levelo://app?vid=2ab68c25-c8ff-432e-bdc8-d9111aa92152","ios":"levelo://app?vid=2ab68c25-c8ff-432e-bdc8-d9111aa92152"},"vehicle_type_id":"4","last_reported":1726740565,"current_range_meters":39200,"station_id":"ce4bhnh2rcd13ifvqgtg","pricing_plan_id":"cebpf4jnsgd1na2vs0mg"},{"bike_id":"f3ae04fa-4da7-4ab7-a2bd-eadbcc951f80","system_id":"levelo_inurba_marseille","lat":43.30464,"lon":5.37907,"is_reserved":false,"is_disabled":false,"rental_uris":{"android":"levelo://app?vid=f3ae04fa-4da7-4ab7-a2bd-eadbcc951f80","ios":"levelo://app?vid=f3ae04fa-4da7-4ab7-a2bd-eadbcc951f80"},"vehicle_type_id":"4","last_reported":1726740565,"current_range_meters":20800,"station_id":"ce4bgup2rcd13ifvqcn0","pricing_plan_id":"cebpf4jnsgd1na2vs0mg"},{"bike_id":"31674790-8365-40d2-bdef-19029206a5f3","system_id":"levelo_inurba_marseille","lat":43.30473,"lon":5.37907,"is_reserved":false,"is_disabled":false,"rental_uris":{"android":"levelo://app?vid=31674790-8365-40d2-bdef-19029206a5f3","ios":"levelo://app?vid=31674790-8365-40d2-bdef-19029206a5f3"},"vehicle_type_id":"4","last_reported":1726740565,"current_range_meters":34800,"station_id":"ce4bgup2rcd13ifvqcn0","pricing_plan_id":"cebpf4jnsgd1na2vs0mg"},{"bike_id":"7a34f971-a4db-40c7-9ba9-7d8849a4f6eb","system_id":"levelo_inurba_marseille","lat":43.30136,"lon":5.37422,"is_reserved":false,"is_disabled":false,"rental_uris":{"android":"levelo://app?vid=7a34f971-a4db-40c7-9ba9-7d8849a4f6eb","ios":"levelo://app?vid=7a34f971-a4db-40c7-9ba9-7d8849a4f6eb"},"vehicle_type_id":"4","last_reported":1726740565,"current_range_meters":13600,"station_id":"ce4bgs92rcd13ifvqcc0","pricing_plan_id":"cebpf4jnsgd1na2vs0mg"},{"bike_id":"b3d81444-f632-4a95-88b6-a30aa314cc07","system_id":"levelo_inurba_marseille","lat":43.28148,"lon":5.42655,"is_reserved":false,"is_disabled":false,"rental_uris":{"android":"levelo://app?vid=b3d81444-f632-4a95-88b6-a30aa314cc07","ios":"levelo://app?vid=b3d81444-f632-4a95-88b6-a30aa314cc07"},"vehicle_type_id":"4","last_reported":1726740565,"current_range_meters":28400,"station_id":"ce4bhnh2rcd13ifvqgug","pricing_plan_id":"cebpf4jnsgd1na2vs0mg"},{"bike_id":"61064d6b-12cb-4c7b-a862-f305a442f63b","system_id":"levelo_inurba_marseille","lat":43.33753,"lon":5.37448,"is_reserved":false,"is_disabled":false,"rental_uris":{"android":"levelo://app?vid=61064d6b-12cb-4c7b-a862-f305a442f63b","ios":"levelo://app?vid=61064d6b-12cb-4c7b-a862-f305a442f63b"},"vehicle_type_id":"4","last_reported":1726740565,"current_range_meters":36400,"station_id":"","pricing_plan_id":"cebpf4jnsgd1na2vs0mg"},{"bike_id":"1e543bff-8d11-4c7f-b24e-74e644073541","system_id":"levelo_inurba_marseille","lat":43.33607,"lon":5.41019,"is_reserved":false,"is_disabled":false,"rental_uris":{"android":"levelo://app?vid=1e543bff-8d11-4c7f-b24e-74e644073541","ios":"levelo://app?vid=1e543bff-8d11-4c7f-b24e-74e644073541"},"vehicle_type_id":"4","last_reported":1726740565,"current_range_meters":24000,"station_id":"ce4bhqh2rcd13ifvqhmg","pricing_plan_id":"cebpf4jnsgd1na2vs0mg"},{"bike_id":"a4b40a5b-b229-4030-b463-a72c1dad498e","system_id":"levelo_inurba_marseille","lat":43.2408,"lon":5.3775,"is_reserved":false,"is_disabled":false,"rental_uris":{"android":"levelo://app?vid=a4b40a5b-b229-4030-b463-a72c1dad498e","ios":"levelo://app?vid=a4b40a5b-b229-4030-b463-a72c1dad498e"},"vehicle_type_id":"4","last_reported":1726740565,"current_range_meters":17200,"station_id":"ce4bhnp2rcd13ifvqgvg","pricing_plan_id":"cebpf4jnsgd1na2vs0mg"},{"bike_id":"cc37381e-9335-4b4e-a554-8ca8c7c27f92","system_id":"levelo_inurba_marseille","lat":43.27488,"lon":5.4246,"is_reserved":false,"is_disabled":false,"rental_uris":{"android":"levelo://app?vid=cc37381e-9335-4b4e-a554-8ca8c7c27f92","ios":"levelo://app?vid=cc37381e-9335-4b4e-a554-8ca8c7c27f92"},"vehicle_type_id":"4","last_reported":1726740565,"current_range_meters":9200,"station_id":"ce4bhn92rcd13ifvqgrg","pricing_plan_id":"cebpf4jnsgd1na2vs0mg"},{"bike_id":"888ff640-8b2d-4406-bb74-d69912626280","system_id":"levelo_inurba_marseille","lat":43.3046,"lon":5.37901,"is_reserved":false,"is_disabled":false,"rental_uris":{"android":"levelo://app?vid=888ff640-8b2d-4406-bb74-d69912626280","ios":"levelo://app?vid=888ff640-8b2d-4406-bb74-d69912626280"},"vehicle_type_id":"4","last_reported":1726740565,"current_range_meters":38800,"station_id":"ce4bgup2rcd13ifvqcn0","pricing_plan_id":"cebpf4jnsgd1na2vs0mg"},{"bike_id":"9b28863a-3e97-421d-97d5-ca24e7512c8a","system_id":"levelo_inurba_marseille","lat":43.30596,"lon":5.37211,"is_reserved":false,"is_disabled":false,"rental_uris":{"android":"levelo://app?vid=9b28863a-3e97-421d-97d5-ca24e7512c8a","ios":"levelo://app?vid=9b28863a-3e97-421d-97d5-ca24e7512c8a"},"vehicle_type_id":"4","last_reported":1726740565,"current_range_meters":39200,"station_id":"ce4bgqh2rcd13ifvqc4g","pricing_plan_id":"cebpf4jnsgd1na2vs0mg"},{"bike_id":"a7ba0621-91e3-4669-b4dd-c57703025c57","system_id":"levelo_inurba_marseille","lat":43.31354,"lon":5.36697,"is_reserved":false,"is_disabled":false,"rental_uris":{"android":"levelo://app?vid=a7ba0621-91e3-4669-b4dd-c57703025c57","ios":"levelo://app?vid=a7ba0621-91e3-4669-b4dd-c57703025c57"},"vehicle_type_id":"4","last_reported":1726740565,"current_range_meters":33600,"station_id":"ce4bgr92rcd13ifvqc6g","pricing_plan_id":"cebpf4jnsgd1na2vs0mg"},{"bike_id":"959c90e6-ec36-4017-a7b3-70bfaedfb214","system_id":"levelo_inurba_marseille","lat":43.2783,"lon":5.39203,"is_reserved":false,"is_disabled":false,"rental_uris":{"android":"levelo://app?vid=959c90e6-ec36-4017-a7b3-70bfaedfb214","ios":"levelo://app?vid=959c90e6-ec36-4017-a7b3-70bfaedfb214"},"vehicle_type_id":"4","last_reported":1726740565,"current_range_meters":39200,"station_id":"ce4bhjp2rcd13ifvqga0","pricing_plan_id":"cebpf4jnsgd1na2vs0mg"},{"bike_id":"cea90d14-d4cd-44bb-a828-f022d2c2c276","system_id":"levelo_inurba_marseille","lat":43.26948,"lon":5.38639,"is_reserved":false,"is_disabled":false,"rental_uris":{"android":"levelo://app?vid=cea90d14-d4cd-44bb-a828-f022d2c2c276","ios":"levelo://app?vid=cea90d14-d4cd-44bb-a828-f022d2c2c276"},"vehicle_type_id":"4","last_reported":1726740565,"current_range_meters":38400,"station_id":"ce4bhh92rcd13ifvqfh0","pricing_plan_id":"cebpf4jnsgd1na2vs0mg"},{"bike_id":"5d4afdb8-0028-4c6b-a5d8-8520252fb486","system_id":"levelo_inurba_marseille","lat":43.26212,"lon":5.37439,"is_reserved":false,"is_disabled":false,"rental_uris":{"android":"levelo://app?vid=5d4afdb8-0028-4c6b-a5d8-8520252fb486","ios":"levelo://app?vid=5d4afdb8-0028-4c6b-a5d8-8520252fb486"},"vehicle_type_id":"4","last_reported":1726740565,"current_range_meters":24800,"station_id":"ce4bhgp2rcd13ifvqfc0","pricing_plan_id":"cebpf4jnsgd1na2vs0mg"},{"bike_id":"a0ea4c20-eeae-4054-a4b5-699b69c4c176","system_id":"levelo_inurba_marseille","lat":43.29558,"lon":5.42287,"is_reserved":false,"is_disabled":false,"rental_uris":{"android":"levelo://app?vid=a0ea4c20-eeae-4054-a4b5-699b69c4c176","ios":"levelo://app?vid=a0ea4c20-eeae-4054-a4b5-699b69c4c176"},"vehicle_type_id":"4","last_reported":1726740565,"current_range_meters":14400,"station_id":"ce4bhph2rcd13ifvqhdg","pricing_plan_id":"cebpf4jnsgd1na2vs0mg"},{"bike_id":"f7f5db0e-acdc-46e3-a241-02bb5c5ee4fc","system_id":"levelo_inurba_marseille","lat":43.33606,"lon":5.4103,"is_reserved":false,"is_disabled":false,"rental_uris":{"android":"levelo://app?vid=f7f5db0e-acdc-46e3-a241-02bb5c5ee4fc","ios":"levelo://app?vid=f7f5db0e-acdc-46e3-a241-02bb5c5ee4fc"},"vehicle_type_id":"4","last_reported":1726740565,"current_range_meters":35200,"station_id":"ce4bhqh2rcd13ifvqhmg","pricing_plan_id":"cebpf4jnsgd1na2vs0mg"},{"bike_id":"81981891-9de1-4c9a-a20f-55d1f58fb677","system_id":"levelo_inurba_marseille","lat":43.2731,"lon":5.39091,"is_reserved":false,"is_disabled":false,"rental_uris":{"android":"levelo://app?vid=81981891-9de1-4c9a-a20f-55d1f58fb677","ios":"levelo://app?vid=81981891-9de1-4c9a-a20f-55d1f58fb677"},"vehicle_type_id":"4","last_reported":1726740565,"current_range_meters":38000,"station_id":"ce4bhgp2rcd13ifvqfe0","pricing_plan_id":"cebpf4jnsgd1na2vs0mg"},{"bike_id":"5f43bb3a-e0b3-4d28-80e8-5953034cf64d","system_id":"levelo_inurba_marseille","lat":43.27316,"lon":5.39084,"is_reserved":false,"is_disabled":false,"rental_uris":{"android":"levelo://app?vid=5f43bb3a-e0b3-4d28-80e8-5953034cf64d","ios":"levelo://app?vid=5f43bb3a-e0b3-4d28-80e8-5953034cf64d"},"vehicle_type_id":"4","last_reported":1726740565,"current_range_meters":12800,"station_id":"ce4bhgp2rcd13ifvqfe0","pricing_plan_id":"cebpf4jnsgd1na2vs0mg"},{"bike_id":"ed27d86c-27cd-42da-88bc-8cc42d89a088","system_id":"levelo_inurba_marseille","lat":43.27574,"lon":5.38438,"is_reserved":false,"is_disabled":false,"rental_uris":{"android":"levelo://app?vid=ed27d86c-27cd-42da-88bc-8cc42d89a088","ios":"levelo://app?vid=ed27d86c-27cd-42da-88bc-8cc42d89a088"},"vehicle_type_id":"4","last_reported":1726740565,"current_range_meters":38800,"station_id":"ce4bhh92rcd13ifvqfi0","pricing_plan_id":"cebpf4jnsgd1na2vs0mg"},{"bike_id":"3478db76-45d7-45d3-b887-36ba03898ebd","system_id":"levelo_inurba_marseille","lat":43.23151,"lon":5.43709,"is_reserved":false,"is_disabled":false,"rental_uris":{"android":"levelo://app?vid=3478db76-45d7-45d3-b887-36ba03898ebd","ios":"levelo://app?vid=3478db76-45d7-45d3-b887-36ba03898ebd"},"vehicle_type_id":"4","last_reported":1726740565,"current_range_meters":40000,"station_id":"ce4bhmp2rcd13ifvqgog","pricing_plan_id":"cebpf4jnsgd1na2vs0mg"},{"bike_id":"309e1d83-dfdd-4727-8e23-3ad8e2d60153","system_id":"levelo_inurba_marseille","lat":43.23154,"lon":5.43693,"is_reserved":false,"is_disabled":false,"rental_uris":{"android":"levelo://app?vid=309e1d83-dfdd-4727-8e23-3ad8e2d60153","ios":"levelo://app?vid=309e1d83-dfdd-4727-8e23-3ad8e2d60153"},"vehicle_type_id":"4","last_reported":1726740565,"current_range_meters":16800,"station_id":"ce4bhmp2rcd13ifvqgog","pricing_plan_id":"cebpf4jnsgd1na2vs0mg"},{"bike_id":"853e6708-776b-4893-bf72-13102086e3de","system_id":"levelo_inurba_marseille","lat":43.26557,"lon":5.37292,"is_reserved":false,"is_disabled":false,"rental_uris":{"android":"levelo://app?vid=853e6708-776b-4893-bf72-13102086e3de","ios":"levelo://app?vid=853e6708-776b-4893-bf72-13102086e3de"},"vehicle_type_id":"4","last_reported":1726740565,"current_range_meters":24800,"station_id":"ce4bhg12rcd13ifvqf70","pricing_plan_id":"cebpf4jnsgd1na2vs0mg"},{"bike_id":"2ddac43b-c3bc-41d6-85d4-b443eb8a122b","system_id":"levelo_inurba_marseille","lat":43.30157,"lon":5.38103,"is_reserved":false,"is_disabled":false,"rental_uris":{"android":"levelo://app?vid=2ddac43b-c3bc-41d6-85d4-b443eb8a122b","ios":"levelo://app?vid=2ddac43b-c3bc-41d6-85d4-b443eb8a122b"},"vehicle_type_id":"4","last_reported":1726740565,"current_range_meters":38800,"station_id":"ce4bgjp2rcd13ifvqbh0","pricing_plan_id":"cebpf4jnsgd1na2vs0mg"},{"bike_id":"c68065d0-098d-49a1-a6e6-6b7287bf251d","system_id":"levelo_inurba_marseille","lat":43.24178,"lon":5.3973,"is_reserved":false,"is_disabled":false,"rental_uris":{"android":"levelo://app?vid=c68065d0-098d-49a1-a6e6-6b7287bf251d","ios":"levelo://app?vid=c68065d0-098d-49a1-a6e6-6b7287bf251d"},"vehicle_type_id":"4","last_reported":1726740565,"current_range_meters":8400,"station_id":"ce4bhn12rcd13ifvqgpg","pricing_plan_id":"cebpf4jnsgd1na2vs0mg"},{"bike_id":"86d2fbbc-c469-4ea8-9619-326d1c533696","system_id":"levelo_inurba_marseille","lat":43.25488,"lon":5.37648,"is_reserved":false,"is_disabled":false,"rental_uris":{"android":"levelo://app?vid=86d2fbbc-c469-4ea8-9619-326d1c533696","ios":"levelo://app?vid=86d2fbbc-c469-4ea8-9619-326d1c533696"},"vehicle_type_id":"4","last_reported":1726740565,"current_range_meters":36400,"station_id":"ce4bhh12rcd13ifvqff0","pricing_plan_id":"cebpf4jnsgd1na2vs0mg"},{"bike_id":"5f2c1faa-8d10-4465-ace3-9a9b8efda39f","system_id":"levelo_inurba_marseille","lat":43.33088,"lon":5.41074,"is_reserved":false,"is_disabled":false,"rental_uris":{"android":"levelo://app?vid=5f2c1faa-8d10-4465-ace3-9a9b8efda39f","ios":"levelo://app?vid=5f2c1faa-8d10-4465-ace3-9a9b8efda39f"},"vehicle_type_id":"4","last_reported":1726740565,"current_range_meters":19600,"station_id":"","pricing_plan_id":"cebpf4jnsgd1na2vs0mg"},{"bike_id":"a7ec649a-e17d-4f88-b0c2-2dd13506f258","system_id":"levelo_inurba_marseille","lat":43.28148,"lon":5.42641,"is_reserved":false,"is_disabled":false,"rental_uris":{"android":"levelo://app?vid=a7ec649a-e17d-4f88-b0c2-2dd13506f258","ios":"levelo://app?vid=a7ec649a-e17d-4f88-b0c2-2dd13506f258"},"vehicle_type_id":"4","last_reported":1726740565,"current_range_meters":20000,"station_id":"ce4bhnh2rcd13ifvqgug","pricing_plan_id":"cebpf4jnsgd1na2vs0mg"},{"bike_id":"d75818b3-a7ee-4b70-9ce8-5c23d00bb619","system_id":"levelo_inurba_marseille","lat":43.28148,"lon":5.42645,"is_reserved":false,"is_disabled":false,"rental_uris":{"android":"levelo://app?vid=d75818b3-a7ee-4b70-9ce8-5c23d00bb619","ios":"levelo://app?vid=d75818b3-a7ee-4b70-9ce8-5c23d00bb619"},"vehicle_type_id":"4","last_reported":1726740565,"current_range_meters":12800,"station_id":"ce4bhnh2rcd13ifvqgug","pricing_plan_id":"cebpf4jnsgd1na2vs0mg"},{"bike_id":"d3403a44-3f24-4c39-a46d-875f95948ebd","system_id":"levelo_inurba_marseille","lat":43.30422,"lon":5.41274,"is_reserved":false,"is_disabled":false,"rental_uris":{"android":"levelo://app?vid=d3403a44-3f24-4c39-a46d-875f95948ebd","ios":"levelo://app?vid=d3403a44-3f24-4c39-a46d-875f95948ebd"},"vehicle_type_id":"4","last_reported":1726740565,"current_range_meters":9200,"station_id":"ce4bhop2rcd13ifvqh8g","pricing_plan_id":"cebpf4jnsgd1na2vs0mg"},{"bike_id":"fdc1b110-9b7c-4b3f-ad3d-6f9dc5cf5157","system_id":"levelo_inurba_marseille","lat":43.29552,"lon":5.42287,"is_reserved":false,"is_disabled":false,"rental_uris":{"android":"levelo://app?vid=fdc1b110-9b7c-4b3f-ad3d-6f9dc5cf5157","ios":"levelo://app?vid=fdc1b110-9b7c-4b3f-ad3d-6f9dc5cf5157"},"vehicle_type_id":"4","last_reported":1726740565,"current_range_meters":40000,"station_id":"ce4bhph2rcd13ifvqhdg","pricing_plan_id":"cebpf4jnsgd1na2vs0mg"},{"bike_id":"c58a09e0-e27d-474f-b410-f612c6647346","system_id":"levelo_inurba_marseille","lat":43.30554,"lon":5.36705,"is_reserved":false,"is_disabled":false,"rental_uris":{"android":"levelo://app?vid=c58a09e0-e27d-474f-b410-f612c6647346","ios":"levelo://app?vid=c58a09e0-e27d-474f-b410-f612c6647346"},"vehicle_type_id":"4","last_reported":1726740565,"current_range_meters":27600,"station_id":"ce4bgrp2rcd13ifvqc9g","pricing_plan_id":"cebpf4jnsgd1na2vs0mg"},{"bike_id":"1424121a-67fa-4de4-92dd-fa6f69eb5346","system_id":"levelo_inurba_marseille","lat":43.28451,"lon":5.35883,"is_reserved":false,"is_disabled":false,"rental_uris":{"android":"levelo://app?vid=1424121a-67fa-4de4-92dd-fa6f69eb5346","ios":"levelo://app?vid=1424121a-67fa-4de4-92dd-fa6f69eb5346"},"vehicle_type_id":"4","last_reported":1726740565,"current_range_meters":2800,"station_id":"ce4bhah2rcd13ifvqei0","pricing_plan_id":"cebpf4jnsgd1na2vs0mg"},{"bike_id":"8458d447-9e19-4d40-aded-c974d1f20113","system_id":"levelo_inurba_marseille","lat":43.298461,"lon":5.362767,"is_reserved":false,"is_disabled":false,"rental_uris":{"android":"levelo://app?vid=8458d447-9e19-4d40-aded-c974d1f20113","ios":"levelo://app?vid=8458d447-9e19-4d40-aded-c974d1f20113"},"vehicle_type_id":"4","last_reported":1726740565,"current_range_meters":4800,"station_id":"ce4bgpp2rcd13ifvqc3g","pricing_plan_id":"cebpf4jnsgd1na2vs0mg"},{"bike_id":"a78358d4-2e0d-4d1b-9800-f677344b73bb","system_id":"levelo_inurba_marseille","lat":43.26944,"lon":5.38642,"is_reserved":false,"is_disabled":false,"rental_uris":{"android":"levelo://app?vid=a78358d4-2e0d-4d1b-9800-f677344b73bb","ios":"levelo://app?vid=a78358d4-2e0d-4d1b-9800-f677344b73bb"},"vehicle_type_id":"4","last_reported":1726740565,"current_range_meters":36400,"station_id":"ce4bhh92rcd13ifvqfh0","pricing_plan_id":"cebpf4jnsgd1na2vs0mg"},{"bike_id":"a01a4a21-dbb1-4a02-b900-30af3a75c27a","system_id":"levelo_inurba_marseille","lat":43.24654,"lon":5.38894,"is_reserved":false,"is_disabled":false,"rental_uris":{"android":"levelo://app?vid=a01a4a21-dbb1-4a02-b900-30af3a75c27a","ios":"levelo://app?vid=a01a4a21-dbb1-4a02-b900-30af3a75c27a"},"vehicle_type_id":"4","last_reported":1726740565,"current_range_meters":9600,"station_id":"ce4bhg12rcd13ifvqf60","pricing_plan_id":"cebpf4jnsgd1na2vs0mg"},{"bike_id":"7296939a-e07b-445c-bd52-40cde8ccbba2","system_id":"levelo_inurba_marseille","lat":43.2602,"lon":5.37556,"is_reserved":false,"is_disabled":false,"rental_uris":{"android":"levelo://app?vid=7296939a-e07b-445c-bd52-40cde8ccbba2","ios":"levelo://app?vid=7296939a-e07b-445c-bd52-40cde8ccbba2"},"vehicle_type_id":"4","last_reported":1726740565,"current_range_meters":38000,"station_id":"ce4bhgh2rcd13ifvqfa0","pricing_plan_id":"cebpf4jnsgd1na2vs0mg"},{"bike_id":"a84ccf15-a62f-4b0b-9163-e457f54dff33","system_id":"levelo_inurba_marseille","lat":43.28152,"lon":5.42642,"is_reserved":false,"is_disabled":false,"rental_uris":{"android":"levelo://app?vid=a84ccf15-a62f-4b0b-9163-e457f54dff33","ios":"levelo://app?vid=a84ccf15-a62f-4b0b-9163-e457f54dff33"},"vehicle_type_id":"4","last_reported":1726740565,"current_range_meters":10000,"station_id":"ce4bhnh2rcd13ifvqgug","pricing_plan_id":"cebpf4jnsgd1na2vs0mg"},{"bike_id":"e669bd6c-abbe-4921-ba26-9fc661d40bbb","system_id":"levelo_inurba_marseille","lat":43.30548,"lon":5.36543,"is_reserved":false,"is_disabled":false,"rental_uris":{"android":"levelo://app?vid=e669bd6c-abbe-4921-ba26-9fc661d40bbb","ios":"levelo://app?vid=e669bd6c-abbe-4921-ba26-9fc661d40bbb"},"vehicle_type_id":"4","last_reported":1726740565,"current_range_meters":35600,"station_id":"ce4bgs12rcd13ifvqcag","pricing_plan_id":"cebpf4jnsgd1na2vs0mg"},{"bike_id":"0fd6ffd3-6fdf-41b7-862f-53f31d64150e","system_id":"levelo_inurba_marseille","lat":43.248074,"lon":5.374847,"is_reserved":false,"is_disabled":false,"rental_uris":{"android":"levelo://app?vid=0fd6ffd3-6fdf-41b7-862f-53f31d64150e","ios":"levelo://app?vid=0fd6ffd3-6fdf-41b7-862f-53f31d64150e"},"vehicle_type_id":"4","last_reported":1726740565,"current_range_meters":38000,"station_id":"ce4bhgh2rcd13ifvqfb0","pricing_plan_id":"cebpf4jnsgd1na2vs0mg"},{"bike_id":"42aa6c64-bbbf-44d2-bd2c-7ab8c6ab0806","system_id":"levelo_inurba_marseille","lat":43.24076,"lon":5.37756,"is_reserved":false,"is_disabled":false,"rental_uris":{"android":"levelo://app?vid=42aa6c64-bbbf-44d2-bd2c-7ab8c6ab0806","ios":"levelo://app?vid=42aa6c64-bbbf-44d2-bd2c-7ab8c6ab0806"},"vehicle_type_id":"4","last_reported":1726740565,"current_range_meters":25200,"station_id":"ce4bhnp2rcd13ifvqgvg","pricing_plan_id":"cebpf4jnsgd1na2vs0mg"},{"bike_id":"0c903ba0-b4e3-4fea-8c51-2aa3188cd2ff","system_id":"levelo_inurba_marseille","lat":43.27489,"lon":5.42459,"is_reserved":false,"is_disabled":false,"rental_uris":{"android":"levelo://app?vid=0c903ba0-b4e3-4fea-8c51-2aa3188cd2ff","ios":"levelo://app?vid=0c903ba0-b4e3-4fea-8c51-2aa3188cd2ff"},"vehicle_type_id":"4","last_reported":1726740565,"current_range_meters":29600,"station_id":"ce4bhn92rcd13ifvqgrg","pricing_plan_id":"cebpf4jnsgd1na2vs0mg"},{"bike_id":"376e4ba1-7a4d-4c07-bc97-59fafac349c4","system_id":"levelo_inurba_marseille","lat":43.25002,"lon":5.38927,"is_reserved":false,"is_disabled":false,"rental_uris":{"android":"levelo://app?vid=376e4ba1-7a4d-4c07-bc97-59fafac349c4","ios":"levelo://app?vid=376e4ba1-7a4d-4c07-bc97-59fafac349c4"},"vehicle_type_id":"4","last_reported":1726740565,"current_range_meters":32400,"station_id":"ce4bhgp2rcd13ifvqfd0","pricing_plan_id":"cebpf4jnsgd1na2vs0mg"},{"bike_id":"30c1b1cb-ca04-4efd-95d7-557374bbf48b","system_id":"levelo_inurba_marseille","lat":43.29192,"lon":5.35791,"is_reserved":false,"is_disabled":false,"rental_uris":{"android":"levelo://app?vid=30c1b1cb-ca04-4efd-95d7-557374bbf48b","ios":"levelo://app?vid=30c1b1cb-ca04-4efd-95d7-557374bbf48b"},"vehicle_type_id":"4","last_reported":1726740565,"current_range_meters":31200,"station_id":"ce4bhb12rcd13ifvqel0","pricing_plan_id":"cebpf4jnsgd1na2vs0mg"},{"bike_id":"4637f38a-faa6-4c8b-ae8d-2112023d8ec3","system_id":"levelo_inurba_marseille","lat":43.2558,"lon":5.38235,"is_reserved":false,"is_disabled":false,"rental_uris":{"android":"levelo://app?vid=4637f38a-faa6-4c8b-ae8d-2112023d8ec3","ios":"levelo://app?vid=4637f38a-faa6-4c8b-ae8d-2112023d8ec3"},"vehicle_type_id":"4","last_reported":1726740565,"current_range_meters":38800,"station_id":"ce4bhih2rcd13ifvqfs0","pricing_plan_id":"cebpf4jnsgd1na2vs0mg"},{"bike_id":"13284a82-d46b-452e-9453-e0c32bdc4440","system_id":"levelo_inurba_marseille","lat":43.276154,"lon":5.361023,"is_reserved":false,"is_disabled":false,"rental_uris":{"android":"levelo://app?vid=13284a82-d46b-452e-9453-e0c32bdc4440","ios":"levelo://app?vid=13284a82-d46b-452e-9453-e0c32bdc4440"},"vehicle_type_id":"4","last_reported":1726740565,"current_range_meters":38400,"station_id":"ce4bgj92rcd13ifvqbe0","pricing_plan_id":"cebpf4jnsgd1na2vs0mg"},{"bike_id":"c32dc568-f10c-4010-ad55-d5f360cf461f","system_id":"levelo_inurba_marseille","lat":43.30549,"lon":5.36539,"is_reserved":false,"is_disabled":false,"rental_uris":{"android":"levelo://app?vid=c32dc568-f10c-4010-ad55-d5f360cf461f","ios":"levelo://app?vid=c32dc568-f10c-4010-ad55-d5f360cf461f"},"vehicle_type_id":"4","last_reported":1726740565,"current_range_meters":38800,"station_id":"ce4bgs12rcd13ifvqcag","pricing_plan_id":"cebpf4jnsgd1na2vs0mg"},{"bike_id":"af6fb80a-1c16-48fe-8247-ece07212261e","system_id":"levelo_inurba_marseille","lat":43.297987,"lon":5.381076,"is_reserved":false,"is_disabled":false,"rental_uris":{"android":"levelo://app?vid=af6fb80a-1c16-48fe-8247-ece07212261e","ios":"levelo://app?vid=af6fb80a-1c16-48fe-8247-ece07212261e"},"vehicle_type_id":"4","last_reported":1726740565,"current_range_meters":30800,"station_id":"ce4bgip2rcd13ifvqbb0","pricing_plan_id":"cebpf4jnsgd1na2vs0mg"},{"bike_id":"aaeae615-2194-47c5-84e0-363507d6e824","system_id":"levelo_inurba_marseille","lat":43.32289,"lon":5.38267,"is_reserved":false,"is_disabled":false,"rental_uris":{"android":"levelo://app?vid=aaeae615-2194-47c5-84e0-363507d6e824","ios":"levelo://app?vid=aaeae615-2194-47c5-84e0-363507d6e824"},"vehicle_type_id":"4","last_reported":1726740565,"current_range_meters":25200,"station_id":"ce4bhr12rcd13ifvqhqg","pricing_plan_id":"cebpf4jnsgd1na2vs0mg"},{"bike_id":"1397a30c-d848-4ca4-b952-1fb1c2bd8c48","system_id":"levelo_inurba_marseille","lat":43.30151,"lon":5.38069,"is_reserved":false,"is_disabled":false,"rental_uris":{"android":"levelo://app?vid=1397a30c-d848-4ca4-b952-1fb1c2bd8c48","ios":"levelo://app?vid=1397a30c-d848-4ca4-b952-1fb1c2bd8c48"},"vehicle_type_id":"4","last_reported":1726740565,"current_range_meters":14400,"station_id":"ce4bgjp2rcd13ifvqbh0","pricing_plan_id":"cebpf4jnsgd1na2vs0mg"},{"bike_id":"9912aeb9-97a8-4f7b-9d71-92fae5620f3f","system_id":"levelo_inurba_marseille","lat":43.2436,"lon":5.37071,"is_reserved":false,"is_disabled":false,"rental_uris":{"android":"levelo://app?vid=9912aeb9-97a8-4f7b-9d71-92fae5620f3f","ios":"levelo://app?vid=9912aeb9-97a8-4f7b-9d71-92fae5620f3f"},"vehicle_type_id":"4","last_reported":1726740565,"current_range_meters":14000,"station_id":"ce4bhhh2rcd13ifvqfl0","pricing_plan_id":"cebpf4jnsgd1na2vs0mg"},{"bike_id":"9be94feb-a495-4651-8693-da9a946157ae","system_id":"levelo_inurba_marseille","lat":43.25008,"lon":5.38919,"is_reserved":false,"is_disabled":false,"rental_uris":{"android":"levelo://app?vid=9be94feb-a495-4651-8693-da9a946157ae","ios":"levelo://app?vid=9be94feb-a495-4651-8693-da9a946157ae"},"vehicle_type_id":"4","last_reported":1726740565,"current_range_meters":16000,"station_id":"ce4bhgp2rcd13ifvqfd0","pricing_plan_id":"cebpf4jnsgd1na2vs0mg"},{"bike_id":"a5cd8307-20cc-4eb9-b57d-a4f6fffd25c4","system_id":"levelo_inurba_marseille","lat":43.26938,"lon":5.38636,"is_reserved":false,"is_disabled":false,"rental_uris":{"android":"levelo://app?vid=a5cd8307-20cc-4eb9-b57d-a4f6fffd25c4","ios":"levelo://app?vid=a5cd8307-20cc-4eb9-b57d-a4f6fffd25c4"},"vehicle_type_id":"4","last_reported":1726740565,"current_range_meters":6800,"station_id":"ce4bhh92rcd13ifvqfh0","pricing_plan_id":"cebpf4jnsgd1na2vs0mg"},{"bike_id":"5853071a-a7de-43ad-87c8-982495d79fa0","system_id":"levelo_inurba_marseille","lat":43.25009,"lon":5.38916,"is_reserved":false,"is_disabled":false,"rental_uris":{"android":"levelo://app?vid=5853071a-a7de-43ad-87c8-982495d79fa0","ios":"levelo://app?vid=5853071a-a7de-43ad-87c8-982495d79fa0"},"vehicle_type_id":"4","last_reported":1726740565,"current_range_meters":35600,"station_id":"ce4bhgp2rcd13ifvqfd0","pricing_plan_id":"cebpf4jnsgd1na2vs0mg"},{"bike_id":"0ce4d70b-7725-4024-8137-991d74643076","system_id":"levelo_inurba_marseille","lat":43.30156,"lon":5.38101,"is_reserved":false,"is_disabled":false,"rental_uris":{"android":"levelo://app?vid=0ce4d70b-7725-4024-8137-991d74643076","ios":"levelo://app?vid=0ce4d70b-7725-4024-8137-991d74643076"},"vehicle_type_id":"4","last_reported":1726740565,"current_range_meters":38800,"station_id":"ce4bgjp2rcd13ifvqbh0","pricing_plan_id":"cebpf4jnsgd1na2vs0mg"},{"bike_id":"3723f4fa-86d6-438c-88d3-6c0152a8939a","system_id":"levelo_inurba_marseille","lat":43.30149,"lon":5.38093,"is_reserved":false,"is_disabled":false,"rental_uris":{"android":"levelo://app?vid=3723f4fa-86d6-438c-88d3-6c0152a8939a","ios":"levelo://app?vid=3723f4fa-86d6-438c-88d3-6c0152a8939a"},"vehicle_type_id":"4","last_reported":1726740565,"current_range_meters":36400,"station_id":"ce4bgjp2rcd13ifvqbh0","pricing_plan_id":"cebpf4jnsgd1na2vs0mg"},{"bike_id":"7e1dfec0-1366-428b-9cba-3166cef6e91f","system_id":"levelo_inurba_marseille","lat":43.3055,"lon":5.36736,"is_reserved":false,"is_disabled":false,"rental_uris":{"android":"levelo://app?vid=7e1dfec0-1366-428b-9cba-3166cef6e91f","ios":"levelo://app?vid=7e1dfec0-1366-428b-9cba-3166cef6e91f"},"vehicle_type_id":"4","last_reported":1726740565,"current_range_meters":28000,"station_id":"ce4bgrp2rcd13ifvqc9g","pricing_plan_id":"cebpf4jnsgd1na2vs0mg"},{"bike_id":"80fe57d1-b34c-45a6-aa5e-f03a4432698f","system_id":"levelo_inurba_marseille","lat":43.26782,"lon":5.39421,"is_reserved":false,"is_disabled":false,"rental_uris":{"android":"levelo://app?vid=80fe57d1-b34c-45a6-aa5e-f03a4432698f","ios":"levelo://app?vid=80fe57d1-b34c-45a6-aa5e-f03a4432698f"},"vehicle_type_id":"4","last_reported":1726740565,"current_range_meters":17600,"station_id":"ce4bhh12rcd13ifvqfg0","pricing_plan_id":"cebpf4jnsgd1na2vs0mg"},{"bike_id":"e631b8a2-d40b-44b6-9396-30b5b3ab5f0b","system_id":"levelo_inurba_marseille","lat":43.29583,"lon":5.36733,"is_reserved":false,"is_disabled":false,"rental_uris":{"android":"levelo://app?vid=e631b8a2-d40b-44b6-9396-30b5b3ab5f0b","ios":"levelo://app?vid=e631b8a2-d40b-44b6-9396-30b5b3ab5f0b"},"vehicle_type_id":"4","last_reported":1726740565,"current_range_meters":6400,"station_id":"ce4bgph2rcd13ifvqc2g","pricing_plan_id":"cebpf4jnsgd1na2vs0mg"},{"bike_id":"247b413c-9246-40fe-8d26-4a68a671dadb","system_id":"levelo_inurba_marseille","lat":43.27304,"lon":5.39096,"is_reserved":false,"is_disabled":false,"rental_uris":{"android":"levelo://app?vid=247b413c-9246-40fe-8d26-4a68a671dadb","ios":"levelo://app?vid=247b413c-9246-40fe-8d26-4a68a671dadb"},"vehicle_type_id":"4","last_reported":1726740565,"current_range_meters":20400,"station_id":"ce4bhgp2rcd13ifvqfe0","pricing_plan_id":"cebpf4jnsgd1na2vs0mg"},{"bike_id":"02bb3f37-0be5-4a53-8ab2-0ad1754d6f88","system_id":"levelo_inurba_marseille","lat":43.30288,"lon":5.37702,"is_reserved":false,"is_disabled":false,"rental_uris":{"android":"levelo://app?vid=02bb3f37-0be5-4a53-8ab2-0ad1754d6f88","ios":"levelo://app?vid=02bb3f37-0be5-4a53-8ab2-0ad1754d6f88"},"vehicle_type_id":"4","last_reported":1726740565,"current_range_meters":40000,"station_id":"ce4bguh2rcd13ifvqcj0","pricing_plan_id":"cebpf4jnsgd1na2vs0mg"},{"bike_id":"ed08e990-72bf-488f-9476-64584a604f05","system_id":"levelo_inurba_marseille","lat":43.31999,"lon":5.38153,"is_reserved":false,"is_disabled":false,"rental_uris":{"android":"levelo://app?vid=ed08e990-72bf-488f-9476-64584a604f05","ios":"levelo://app?vid=ed08e990-72bf-488f-9476-64584a604f05"},"vehicle_type_id":"4","last_reported":1726740565,"current_range_meters":19600,"station_id":"ce4bhr12rcd13ifvqhpg","pricing_plan_id":"cebpf4jnsgd1na2vs0mg"},{"bike_id":"4f4c133c-b838-4ebb-976a-12965ad0d013","system_id":"levelo_inurba_marseille","lat":43.30538,"lon":5.36713,"is_reserved":false,"is_disabled":false,"rental_uris":{"android":"levelo://app?vid=4f4c133c-b838-4ebb-976a-12965ad0d013","ios":"levelo://app?vid=4f4c133c-b838-4ebb-976a-12965ad0d013"},"vehicle_type_id":"4","last_reported":1726740565,"current_range_meters":39200,"station_id":"ce4bgrp2rcd13ifvqc9g","pricing_plan_id":"cebpf4jnsgd1na2vs0mg"},{"bike_id":"dd8d4f71-d58c-4e01-a96d-60ab9d281e12","system_id":"levelo_inurba_marseille","lat":43.27316,"lon":5.3909,"is_reserved":false,"is_disabled":false,"rental_uris":{"android":"levelo://app?vid=dd8d4f71-d58c-4e01-a96d-60ab9d281e12","ios":"levelo://app?vid=dd8d4f71-d58c-4e01-a96d-60ab9d281e12"},"vehicle_type_id":"4","last_reported":1726740565,"current_range_meters":23200,"station_id":"ce4bhgp2rcd13ifvqfe0","pricing_plan_id":"cebpf4jnsgd1na2vs0mg"},{"bike_id":"c99d3b3a-0176-4df5-b988-b6d29e126bad","system_id":"levelo_inurba_marseille","lat":43.23177,"lon":5.39992,"is_reserved":false,"is_disabled":false,"rental_uris":{"android":"levelo://app?vid=c99d3b3a-0176-4df5-b988-b6d29e126bad","ios":"levelo://app?vid=c99d3b3a-0176-4df5-b988-b6d29e126bad"},"vehicle_type_id":"4","last_reported":1726740565,"current_range_meters":40000,"station_id":"ce4bhn12rcd13ifvqgqg","pricing_plan_id":"cebpf4jnsgd1na2vs0mg"},{"bike_id":"7f85c424-76bf-4e62-aa08-945834d9fa36","system_id":"levelo_inurba_marseille","lat":43.30459,"lon":5.37903,"is_reserved":false,"is_disabled":false,"rental_uris":{"android":"levelo://app?vid=7f85c424-76bf-4e62-aa08-945834d9fa36","ios":"levelo://app?vid=7f85c424-76bf-4e62-aa08-945834d9fa36"},"vehicle_type_id":"4","last_reported":1726740565,"current_range_meters":40000,"station_id":"ce4bgup2rcd13ifvqcn0","pricing_plan_id":"cebpf4jnsgd1na2vs0mg"},{"bike_id":"5c59cc01-d461-43c5-8a64-d13f65e90a88","system_id":"levelo_inurba_marseille","lat":43.30903,"lon":5.36853,"is_reserved":false,"is_disabled":false,"rental_uris":{"android":"levelo://app?vid=5c59cc01-d461-43c5-8a64-d13f65e90a88","ios":"levelo://app?vid=5c59cc01-d461-43c5-8a64-d13f65e90a88"},"vehicle_type_id":"4","last_reported":1726740565,"current_range_meters":24000,"station_id":"ce4bgn92rcd13ifvqbvg","pricing_plan_id":"cebpf4jnsgd1na2vs0mg"},{"bike_id":"55fed244-caf4-46e6-99fc-fcd916ddb5b7","system_id":"levelo_inurba_marseille","lat":43.23204,"lon":5.35548,"is_reserved":false,"is_disabled":false,"rental_uris":{"android":"levelo://app?vid=55fed244-caf4-46e6-99fc-fcd916ddb5b7","ios":"levelo://app?vid=55fed244-caf4-46e6-99fc-fcd916ddb5b7"},"vehicle_type_id":"4","last_reported":1726740565,"current_range_meters":19600,"station_id":"ce4bhu92rcd13ifvqi70","pricing_plan_id":"cebpf4jnsgd1na2vs0mg"},{"bike_id":"180adcd2-2c07-4d51-b7cb-0c8da7c9902f","system_id":"levelo_inurba_marseille","lat":43.26199,"lon":5.3792,"is_reserved":false,"is_disabled":false,"rental_uris":{"android":"levelo://app?vid=180adcd2-2c07-4d51-b7cb-0c8da7c9902f","ios":"levelo://app?vid=180adcd2-2c07-4d51-b7cb-0c8da7c9902f"},"vehicle_type_id":"4","last_reported":1726740565,"current_range_meters":34800,"station_id":"ce4bhjp2rcd13ifvqg90","pricing_plan_id":"cebpf4jnsgd1na2vs0mg"},{"bike_id":"6b4698aa-8c8e-42a9-a362-549f08d20012","system_id":"levelo_inurba_marseille","lat":43.25932,"lon":5.40907,"is_reserved":false,"is_disabled":false,"rental_uris":{"android":"levelo://app?vid=6b4698aa-8c8e-42a9-a362-549f08d20012","ios":"levelo://app?vid=6b4698aa-8c8e-42a9-a362-549f08d20012"},"vehicle_type_id":"4","last_reported":1726740565,"current_range_meters":30400,"station_id":"ce4bhm92rcd13ifvqglg","pricing_plan_id":"cebpf4jnsgd1na2vs0mg"},{"bike_id":"b85443b3-7fc7-4bab-9b96-932c0452a3de","system_id":"levelo_inurba_marseille","lat":43.26214,"lon":5.3744,"is_reserved":false,"is_disabled":false,"rental_uris":{"android":"levelo://app?vid=b85443b3-7fc7-4bab-9b96-932c0452a3de","ios":"levelo://app?vid=b85443b3-7fc7-4bab-9b96-932c0452a3de"},"vehicle_type_id":"4","last_reported":1726740565,"current_range_meters":19600,"station_id":"ce4bhgp2rcd13ifvqfc0","pricing_plan_id":"cebpf4jnsgd1na2vs0mg"},{"bike_id":"a5ac0cca-ed4c-48ca-a726-adfadbced234","system_id":"levelo_inurba_marseille","lat":43.2679,"lon":5.39414,"is_reserved":false,"is_disabled":false,"rental_uris":{"android":"levelo://app?vid=a5ac0cca-ed4c-48ca-a726-adfadbced234","ios":"levelo://app?vid=a5ac0cca-ed4c-48ca-a726-adfadbced234"},"vehicle_type_id":"4","last_reported":1726740565,"current_range_meters":4400,"station_id":"ce4bhh12rcd13ifvqfg0","pricing_plan_id":"cebpf4jnsgd1na2vs0mg"},{"bike_id":"ee68800c-f319-4020-b038-a34d6349dff4","system_id":"levelo_inurba_marseille","lat":43.2315,"lon":5.43714,"is_reserved":false,"is_disabled":false,"rental_uris":{"android":"levelo://app?vid=ee68800c-f319-4020-b038-a34d6349dff4","ios":"levelo://app?vid=ee68800c-f319-4020-b038-a34d6349dff4"},"vehicle_type_id":"4","last_reported":1726740565,"current_range_meters":19200,"station_id":"ce4bhmp2rcd13ifvqgog","pricing_plan_id":"cebpf4jnsgd1na2vs0mg"},{"bike_id":"7415dbdb-581c-4573-be92-9346ff9ba02e","system_id":"levelo_inurba_marseille","lat":43.26558,"lon":5.37283,"is_reserved":false,"is_disabled":false,"rental_uris":{"android":"levelo://app?vid=7415dbdb-581c-4573-be92-9346ff9ba02e","ios":"levelo://app?vid=7415dbdb-581c-4573-be92-9346ff9ba02e"},"vehicle_type_id":"4","last_reported":1726740565,"current_range_meters":26000,"station_id":"ce4bhg12rcd13ifvqf70","pricing_plan_id":"cebpf4jnsgd1na2vs0mg"},{"bike_id":"bb84d119-edcd-41c0-91e8-a062977a7329","system_id":"levelo_inurba_marseille","lat":43.31721,"lon":5.42404,"is_reserved":false,"is_disabled":false,"rental_uris":{"android":"levelo://app?vid=bb84d119-edcd-41c0-91e8-a062977a7329","ios":"levelo://app?vid=bb84d119-edcd-41c0-91e8-a062977a7329"},"vehicle_type_id":"4","last_reported":1726740565,"current_range_meters":19200,"station_id":"ce4bhp92rcd13ifvqhbg","pricing_plan_id":"cebpf4jnsgd1na2vs0mg"},{"bike_id":"855f1570-fe16-4686-8350-1a90e1db28af","system_id":"levelo_inurba_marseille","lat":43.28701,"lon":5.37393,"is_reserved":false,"is_disabled":false,"rental_uris":{"android":"levelo://app?vid=855f1570-fe16-4686-8350-1a90e1db28af","ios":"levelo://app?vid=855f1570-fe16-4686-8350-1a90e1db28af"},"vehicle_type_id":"4","last_reported":1726740565,"current_range_meters":28800,"station_id":"ce4bh3p2rcd13ifvqdq0","pricing_plan_id":"cebpf4jnsgd1na2vs0mg"},{"bike_id":"e9c12d1b-6da0-4cc3-83bb-95bd5eb4adbb","system_id":"levelo_inurba_marseille","lat":43.30138,"lon":5.37425,"is_reserved":false,"is_disabled":false,"rental_uris":{"android":"levelo://app?vid=e9c12d1b-6da0-4cc3-83bb-95bd5eb4adbb","ios":"levelo://app?vid=e9c12d1b-6da0-4cc3-83bb-95bd5eb4adbb"},"vehicle_type_id":"4","last_reported":1726740565,"current_range_meters":39200,"station_id":"ce4bgs92rcd13ifvqcc0","pricing_plan_id":"cebpf4jnsgd1na2vs0mg"},{"bike_id":"5d1f2d67-326c-4e16-bc37-f3225f007d61","system_id":"levelo_inurba_marseille","lat":43.269257,"lon":5.389146,"is_reserved":false,"is_disabled":false,"rental_uris":{"android":"levelo://app?vid=5d1f2d67-326c-4e16-bc37-f3225f007d61","ios":"levelo://app?vid=5d1f2d67-326c-4e16-bc37-f3225f007d61"},"vehicle_type_id":"4","last_reported":1726740565,"current_range_meters":19600,"station_id":"ce4bhhh2rcd13ifvqfl0","pricing_plan_id":"cebpf4jnsgd1na2vs0mg"},{"bike_id":"2cbb6dd5-2ec8-4ba5-808a-c5301f897d27","system_id":"levelo_inurba_marseille","lat":43.23957,"lon":5.36627,"is_reserved":false,"is_disabled":false,"rental_uris":{"android":"levelo://app?vid=2cbb6dd5-2ec8-4ba5-808a-c5301f897d27","ios":"levelo://app?vid=2cbb6dd5-2ec8-4ba5-808a-c5301f897d27"},"vehicle_type_id":"4","last_reported":1726740565,"current_range_meters":24000,"station_id":"ce4bhi12rcd13ifvqfp0","pricing_plan_id":"cebpf4jnsgd1na2vs0mg"},{"bike_id":"60a6f6c2-c23b-4cfd-a0cb-c3d4101e03a6","system_id":"levelo_inurba_marseille","lat":43.29839,"lon":5.36265,"is_reserved":false,"is_disabled":false,"rental_uris":{"android":"levelo://app?vid=60a6f6c2-c23b-4cfd-a0cb-c3d4101e03a6","ios":"levelo://app?vid=60a6f6c2-c23b-4cfd-a0cb-c3d4101e03a6"},"vehicle_type_id":"4","last_reported":1726740565,"current_range_meters":39200,"station_id":"ce4bgpp2rcd13ifvqc3g","pricing_plan_id":"cebpf4jnsgd1na2vs0mg"},{"bike_id":"522f25f9-f336-4203-8c67-1e466172e0bb","system_id":"levelo_inurba_marseille","lat":43.29041,"lon":5.37567,"is_reserved":false,"is_disabled":false,"rental_uris":{"android":"levelo://app?vid=522f25f9-f336-4203-8c67-1e466172e0bb","ios":"levelo://app?vid=522f25f9-f336-4203-8c67-1e466172e0bb"},"vehicle_type_id":"4","last_reported":1726740565,"current_range_meters":20000,"station_id":"ce4bh692rcd13ifvqe90","pricing_plan_id":"cebpf4jnsgd1na2vs0mg"},{"bike_id":"a271a571-7400-40e0-8e71-e83076131bee","system_id":"levelo_inurba_marseille","lat":43.24076,"lon":5.37753,"is_reserved":false,"is_disabled":false,"rental_uris":{"android":"levelo://app?vid=a271a571-7400-40e0-8e71-e83076131bee","ios":"levelo://app?vid=a271a571-7400-40e0-8e71-e83076131bee"},"vehicle_type_id":"4","last_reported":1726740565,"current_range_meters":34800,"station_id":"ce4bhnp2rcd13ifvqgvg","pricing_plan_id":"cebpf4jnsgd1na2vs0mg"},{"bike_id":"0f94c446-702d-4082-83a4-fa8d8d74a7cf","system_id":"levelo_inurba_marseille","lat":43.31325,"lon":5.39692,"is_reserved":false,"is_disabled":false,"rental_uris":{"android":"levelo://app?vid=0f94c446-702d-4082-83a4-fa8d8d74a7cf","ios":"levelo://app?vid=0f94c446-702d-4082-83a4-fa8d8d74a7cf"},"vehicle_type_id":"4","last_reported":1726740565,"current_range_meters":36800,"station_id":"ce4bgvp2rcd13ifvqcu0","pricing_plan_id":"cebpf4jnsgd1na2vs0mg"},{"bike_id":"cbdee263-28c4-4479-ae53-620b05016a58","system_id":"levelo_inurba_marseille","lat":43.31366,"lon":5.367,"is_reserved":false,"is_disabled":false,"rental_uris":{"android":"levelo://app?vid=cbdee263-28c4-4479-ae53-620b05016a58","ios":"levelo://app?vid=cbdee263-28c4-4479-ae53-620b05016a58"},"vehicle_type_id":"4","last_reported":1726740565,"current_range_meters":30400,"station_id":"ce4bgr92rcd13ifvqc6g","pricing_plan_id":"cebpf4jnsgd1na2vs0mg"},{"bike_id":"52fffaf1-dd98-4e0a-a39d-48011512624f","system_id":"levelo_inurba_marseille","lat":43.25498,"lon":5.3765,"is_reserved":false,"is_disabled":false,"rental_uris":{"android":"levelo://app?vid=52fffaf1-dd98-4e0a-a39d-48011512624f","ios":"levelo://app?vid=52fffaf1-dd98-4e0a-a39d-48011512624f"},"vehicle_type_id":"4","last_reported":1726740565,"current_range_meters":29600,"station_id":"ce4bhh12rcd13ifvqff0","pricing_plan_id":"cebpf4jnsgd1na2vs0mg"},{"bike_id":"54f0dbf5-a349-47b8-b649-bd849b46acd1","system_id":"levelo_inurba_marseille","lat":43.30139,"lon":5.37419,"is_reserved":false,"is_disabled":false,"rental_uris":{"android":"levelo://app?vid=54f0dbf5-a349-47b8-b649-bd849b46acd1","ios":"levelo://app?vid=54f0dbf5-a349-47b8-b649-bd849b46acd1"},"vehicle_type_id":"4","last_reported":1726740565,"current_range_meters":38000,"station_id":"ce4bgs92rcd13ifvqcc0","pricing_plan_id":"cebpf4jnsgd1na2vs0mg"},{"bike_id":"ab957eff-0a72-4c5a-a176-6c0e2015c982","system_id":"levelo_inurba_marseille","lat":43.29844,"lon":5.36282,"is_reserved":false,"is_disabled":false,"rental_uris":{"android":"levelo://app?vid=ab957eff-0a72-4c5a-a176-6c0e2015c982","ios":"levelo://app?vid=ab957eff-0a72-4c5a-a176-6c0e2015c982"},"vehicle_type_id":"4","last_reported":1726740565,"current_range_meters":20400,"station_id":"ce4bgpp2rcd13ifvqc3g","pricing_plan_id":"cebpf4jnsgd1na2vs0mg"},{"bike_id":"8bd80e68-8812-472c-8449-6f9a01120914","system_id":"levelo_inurba_marseille","lat":43.29876,"lon":5.4003,"is_reserved":false,"is_disabled":false,"rental_uris":{"android":"levelo://app?vid=8bd80e68-8812-472c-8449-6f9a01120914","ios":"levelo://app?vid=8bd80e68-8812-472c-8449-6f9a01120914"},"vehicle_type_id":"4","last_reported":1726740565,"current_range_meters":25200,"station_id":"","pricing_plan_id":"cebpf4jnsgd1na2vs0mg"},{"bike_id":"b26fecd7-c1ac-4151-a428-41fa0a383ebb","system_id":"levelo_inurba_marseille","lat":43.301449,"lon":5.380893,"is_reserved":false,"is_disabled":false,"rental_uris":{"android":"levelo://app?vid=b26fecd7-c1ac-4151-a428-41fa0a383ebb","ios":"levelo://app?vid=b26fecd7-c1ac-4151-a428-41fa0a383ebb"},"vehicle_type_id":"4","last_reported":1726740565,"current_range_meters":38400,"station_id":"ce4bguh2rcd13ifvqckg","pricing_plan_id":"cebpf4jnsgd1na2vs0mg"},{"bike_id":"d37aa318-9eec-42e5-ad66-edcb803356f0","system_id":"levelo_inurba_marseille","lat":43.27803,"lon":5.428,"is_reserved":false,"is_disabled":false,"rental_uris":{"android":"levelo://app?vid=d37aa318-9eec-42e5-ad66-edcb803356f0","ios":"levelo://app?vid=d37aa318-9eec-42e5-ad66-edcb803356f0"},"vehicle_type_id":"4","last_reported":1726740565,"current_range_meters":5600,"station_id":"","pricing_plan_id":"cebpf4jnsgd1na2vs0mg"},{"bike_id":"7617fe43-8fec-4602-b5d5-e996c1eb6a44","system_id":"levelo_inurba_marseille","lat":43.23192,"lon":5.35546,"is_reserved":false,"is_disabled":false,"rental_uris":{"android":"levelo://app?vid=7617fe43-8fec-4602-b5d5-e996c1eb6a44","ios":"levelo://app?vid=7617fe43-8fec-4602-b5d5-e996c1eb6a44"},"vehicle_type_id":"4","last_reported":1726740565,"current_range_meters":39200,"station_id":"ce4bhu92rcd13ifvqi70","pricing_plan_id":"cebpf4jnsgd1na2vs0mg"},{"bike_id":"bf481fac-aa2b-40b9-b84e-b23278a59f50","system_id":"levelo_inurba_marseille","lat":43.30418,"lon":5.4128,"is_reserved":false,"is_disabled":false,"rental_uris":{"android":"levelo://app?vid=bf481fac-aa2b-40b9-b84e-b23278a59f50","ios":"levelo://app?vid=bf481fac-aa2b-40b9-b84e-b23278a59f50"},"vehicle_type_id":"4","last_reported":1726740565,"current_range_meters":22400,"station_id":"ce4bhop2rcd13ifvqh8g","pricing_plan_id":"cebpf4jnsgd1na2vs0mg"},{"bike_id":"2b714e73-49f8-4f26-bb6d-7d72ce23aabc","system_id":"levelo_inurba_marseille","lat":43.23054,"lon":5.35493,"is_reserved":false,"is_disabled":false,"rental_uris":{"android":"levelo://app?vid=2b714e73-49f8-4f26-bb6d-7d72ce23aabc","ios":"levelo://app?vid=2b714e73-49f8-4f26-bb6d-7d72ce23aabc"},"vehicle_type_id":"4","last_reported":1726740565,"current_range_meters":2800,"station_id":"cpo3342slgdg3j2ifvpg","pricing_plan_id":"cebpf4jnsgd1na2vs0mg"},{"bike_id":"6abd6ed8-e9da-4163-9975-ae064d953b07","system_id":"levelo_inurba_marseille","lat":43.25937,"lon":5.40903,"is_reserved":false,"is_disabled":false,"rental_uris":{"android":"levelo://app?vid=6abd6ed8-e9da-4163-9975-ae064d953b07","ios":"levelo://app?vid=6abd6ed8-e9da-4163-9975-ae064d953b07"},"vehicle_type_id":"4","last_reported":1726740565,"current_range_meters":30800,"station_id":"ce4bhm92rcd13ifvqglg","pricing_plan_id":"cebpf4jnsgd1na2vs0mg"},{"bike_id":"87483675-10ba-4b90-9ed9-a62636228fd3","system_id":"levelo_inurba_marseille","lat":43.25934,"lon":5.40909,"is_reserved":false,"is_disabled":false,"rental_uris":{"android":"levelo://app?vid=87483675-10ba-4b90-9ed9-a62636228fd3","ios":"levelo://app?vid=87483675-10ba-4b90-9ed9-a62636228fd3"},"vehicle_type_id":"4","last_reported":1726740565,"current_range_meters":33200,"station_id":"ce4bhm92rcd13ifvqglg","pricing_plan_id":"cebpf4jnsgd1na2vs0mg"},{"bike_id":"12fd216c-4005-44e5-a188-d2b75f8e3663","system_id":"levelo_inurba_marseille","lat":43.29904,"lon":5.38133,"is_reserved":false,"is_disabled":false,"rental_uris":{"android":"levelo://app?vid=12fd216c-4005-44e5-a188-d2b75f8e3663","ios":"levelo://app?vid=12fd216c-4005-44e5-a188-d2b75f8e3663"},"vehicle_type_id":"4","last_reported":1726740565,"current_range_meters":36800,"station_id":"ce4bgj12rcd13ifvqbc0","pricing_plan_id":"cebpf4jnsgd1na2vs0mg"},{"bike_id":"7fc2139e-b73f-4d0a-9a46-039fcdbc41a4","system_id":"levelo_inurba_marseille","lat":43.337444,"lon":5.374475,"is_reserved":false,"is_disabled":false,"rental_uris":{"android":"levelo://app?vid=7fc2139e-b73f-4d0a-9a46-039fcdbc41a4","ios":"levelo://app?vid=7fc2139e-b73f-4d0a-9a46-039fcdbc41a4"},"vehicle_type_id":"4","last_reported":1726740565,"current_range_meters":24400,"station_id":"","pricing_plan_id":"cebpf4jnsgd1na2vs0mg"},{"bike_id":"fa0db3ec-c33f-4697-be37-31039aa03f65","system_id":"levelo_inurba_marseille","lat":43.24391,"lon":5.37048,"is_reserved":false,"is_disabled":false,"rental_uris":{"android":"levelo://app?vid=fa0db3ec-c33f-4697-be37-31039aa03f65","ios":"levelo://app?vid=fa0db3ec-c33f-4697-be37-31039aa03f65"},"vehicle_type_id":"4","last_reported":1726740565,"current_range_meters":36000,"station_id":"ce4bhhh2rcd13ifvqfk0","pricing_plan_id":"cebpf4jnsgd1na2vs0mg"},{"bike_id":"be5df729-f5f3-4260-8f93-c174d533b9fa","system_id":"levelo_inurba_marseille","lat":43.24999,"lon":5.38927,"is_reserved":false,"is_disabled":false,"rental_uris":{"android":"levelo://app?vid=be5df729-f5f3-4260-8f93-c174d533b9fa","ios":"levelo://app?vid=be5df729-f5f3-4260-8f93-c174d533b9fa"},"vehicle_type_id":"4","last_reported":1726740565,"current_range_meters":28800,"station_id":"ce4bhgp2rcd13ifvqfd0","pricing_plan_id":"cebpf4jnsgd1na2vs0mg"},{"bike_id":"bda43ea3-dbdd-4b08-a349-4b0d86fdb032","system_id":"levelo_inurba_marseille","lat":43.24073,"lon":5.37743,"is_reserved":false,"is_disabled":false,"rental_uris":{"android":"levelo://app?vid=bda43ea3-dbdd-4b08-a349-4b0d86fdb032","ios":"levelo://app?vid=bda43ea3-dbdd-4b08-a349-4b0d86fdb032"},"vehicle_type_id":"4","last_reported":1726740565,"current_range_meters":36400,"station_id":"ce4bhnp2rcd13ifvqgvg","pricing_plan_id":"cebpf4jnsgd1na2vs0mg"},{"bike_id":"b33f9936-8865-4e5f-97df-81a123127573","system_id":"levelo_inurba_marseille","lat":43.25931,"lon":5.40907,"is_reserved":false,"is_disabled":false,"rental_uris":{"android":"levelo://app?vid=b33f9936-8865-4e5f-97df-81a123127573","ios":"levelo://app?vid=b33f9936-8865-4e5f-97df-81a123127573"},"vehicle_type_id":"4","last_reported":1726740565,"current_range_meters":24400,"station_id":"ce4bhk92rcd13ifvqgb0","pricing_plan_id":"cebpf4jnsgd1na2vs0mg"},{"bike_id":"1a322a1f-5fd7-4184-b12a-87ecbc0d1d44","system_id":"levelo_inurba_marseille","lat":43.2985,"lon":5.36278,"is_reserved":false,"is_disabled":false,"rental_uris":{"android":"levelo://app?vid=1a322a1f-5fd7-4184-b12a-87ecbc0d1d44","ios":"levelo://app?vid=1a322a1f-5fd7-4184-b12a-87ecbc0d1d44"},"vehicle_type_id":"4","last_reported":1726740565,"current_range_meters":32800,"station_id":"ce4bgpp2rcd13ifvqc3g","pricing_plan_id":"cebpf4jnsgd1na2vs0mg"},{"bike_id":"6ad4bd65-2018-415b-af44-c744844bc858","system_id":"levelo_inurba_marseille","lat":43.24077,"lon":5.37757,"is_reserved":false,"is_disabled":false,"rental_uris":{"android":"levelo://app?vid=6ad4bd65-2018-415b-af44-c744844bc858","ios":"levelo://app?vid=6ad4bd65-2018-415b-af44-c744844bc858"},"vehicle_type_id":"4","last_reported":1726740565,"current_range_meters":14800,"station_id":"ce4bhnp2rcd13ifvqgvg","pricing_plan_id":"cebpf4jnsgd1na2vs0mg"},{"bike_id":"83ca9bd0-3343-425c-8a8c-6e8a7e31c55f","system_id":"levelo_inurba_marseille","lat":43.31356,"lon":5.36714,"is_reserved":false,"is_disabled":false,"rental_uris":{"android":"levelo://app?vid=83ca9bd0-3343-425c-8a8c-6e8a7e31c55f","ios":"levelo://app?vid=83ca9bd0-3343-425c-8a8c-6e8a7e31c55f"},"vehicle_type_id":"4","last_reported":1726740565,"current_range_meters":40000,"station_id":"ce4bgr92rcd13ifvqc6g","pricing_plan_id":"cebpf4jnsgd1na2vs0mg"},{"bike_id":"3054afe6-4c88-4656-9a5d-c31a1a4a065f","system_id":"levelo_inurba_marseille","lat":43.32476,"lon":5.36561,"is_reserved":false,"is_disabled":false,"rental_uris":{"android":"levelo://app?vid=3054afe6-4c88-4656-9a5d-c31a1a4a065f","ios":"levelo://app?vid=3054afe6-4c88-4656-9a5d-c31a1a4a065f"},"vehicle_type_id":"4","last_reported":1726740565,"current_range_meters":34800,"station_id":"ce4bhs12rcd13ifvqhvg","pricing_plan_id":"cebpf4jnsgd1na2vs0mg"},{"bike_id":"d702706d-cdf6-4cf9-9f3f-96ababd7ca5e","system_id":"levelo_inurba_marseille","lat":43.298431,"lon":5.362789,"is_reserved":false,"is_disabled":false,"rental_uris":{"android":"levelo://app?vid=d702706d-cdf6-4cf9-9f3f-96ababd7ca5e","ios":"levelo://app?vid=d702706d-cdf6-4cf9-9f3f-96ababd7ca5e"},"vehicle_type_id":"4","last_reported":1726740565,"current_range_meters":36400,"station_id":"ce4bgpp2rcd13ifvqc3g","pricing_plan_id":"cebpf4jnsgd1na2vs0mg"},{"bike_id":"c526b784-8123-40f4-8e13-055d54f8110a","system_id":"levelo_inurba_marseille","lat":43.27805,"lon":5.40707,"is_reserved":false,"is_disabled":false,"rental_uris":{"android":"levelo://app?vid=c526b784-8123-40f4-8e13-055d54f8110a","ios":"levelo://app?vid=c526b784-8123-40f4-8e13-055d54f8110a"},"vehicle_type_id":"4","last_reported":1726740565,"current_range_meters":36800,"station_id":"ce4bhnh2rcd13ifvqgtg","pricing_plan_id":"cebpf4jnsgd1na2vs0mg"},{"bike_id":"ebfc3d44-20fe-4937-b8eb-bf11c7aa5c57","system_id":"levelo_inurba_marseille","lat":43.30785,"lon":5.37648,"is_reserved":false,"is_disabled":false,"rental_uris":{"android":"levelo://app?vid=ebfc3d44-20fe-4937-b8eb-bf11c7aa5c57","ios":"levelo://app?vid=ebfc3d44-20fe-4937-b8eb-bf11c7aa5c57"},"vehicle_type_id":"4","last_reported":1726740565,"current_range_meters":9200,"station_id":"ce4bgv92rcd13ifvqcq0","pricing_plan_id":"cebpf4jnsgd1na2vs0mg"},{"bike_id":"e0b9fde8-8bce-456d-bdb9-1dbe3347f9ce","system_id":"levelo_inurba_marseille","lat":43.2315,"lon":5.43722,"is_reserved":false,"is_disabled":false,"rental_uris":{"android":"levelo://app?vid=e0b9fde8-8bce-456d-bdb9-1dbe3347f9ce","ios":"levelo://app?vid=e0b9fde8-8bce-456d-bdb9-1dbe3347f9ce"},"vehicle_type_id":"4","last_reported":1726740565,"current_range_meters":28800,"station_id":"ce4bhmp2rcd13ifvqgog","pricing_plan_id":"cebpf4jnsgd1na2vs0mg"},{"bike_id":"29affaf3-d71e-45cb-aab6-43585a820bd5","system_id":"levelo_inurba_marseille","lat":43.29846,"lon":5.3628,"is_reserved":false,"is_disabled":false,"rental_uris":{"android":"levelo://app?vid=29affaf3-d71e-45cb-aab6-43585a820bd5","ios":"levelo://app?vid=29affaf3-d71e-45cb-aab6-43585a820bd5"},"vehicle_type_id":"4","last_reported":1726740565,"current_range_meters":38800,"station_id":"ce4bgpp2rcd13ifvqc3g","pricing_plan_id":"cebpf4jnsgd1na2vs0mg"},{"bike_id":"7ed6941b-afc4-460f-8af3-ab9c555ffb27","system_id":"levelo_inurba_marseille","lat":43.30539,"lon":5.3668,"is_reserved":false,"is_disabled":false,"rental_uris":{"android":"levelo://app?vid=7ed6941b-afc4-460f-8af3-ab9c555ffb27","ios":"levelo://app?vid=7ed6941b-afc4-460f-8af3-ab9c555ffb27"},"vehicle_type_id":"4","last_reported":1726740565,"current_range_meters":40000,"station_id":"ce4bgrp2rcd13ifvqc9g","pricing_plan_id":"cebpf4jnsgd1na2vs0mg"},{"bike_id":"66979b52-14f7-44b1-a286-4b115afc35a7","system_id":"levelo_inurba_marseille","lat":43.25001,"lon":5.38925,"is_reserved":false,"is_disabled":false,"rental_uris":{"android":"levelo://app?vid=66979b52-14f7-44b1-a286-4b115afc35a7","ios":"levelo://app?vid=66979b52-14f7-44b1-a286-4b115afc35a7"},"vehicle_type_id":"4","last_reported":1726740565,"current_range_meters":36800,"station_id":"ce4bhgp2rcd13ifvqfd0","pricing_plan_id":"cebpf4jnsgd1na2vs0mg"},{"bike_id":"db5bed51-afb9-4548-98e9-7b7ae226c501","system_id":"levelo_inurba_marseille","lat":43.33756,"lon":5.37453,"is_reserved":false,"is_disabled":false,"rental_uris":{"android":"levelo://app?vid=db5bed51-afb9-4548-98e9-7b7ae226c501","ios":"levelo://app?vid=db5bed51-afb9-4548-98e9-7b7ae226c501"},"vehicle_type_id":"4","last_reported":1726740565,"current_range_meters":26000,"station_id":"","pricing_plan_id":"cebpf4jnsgd1na2vs0mg"},{"bike_id":"6864a05c-76c0-4648-ae7c-db87fef70f83","system_id":"levelo_inurba_marseille","lat":43.2749,"lon":5.42448,"is_reserved":false,"is_disabled":false,"rental_uris":{"android":"levelo://app?vid=6864a05c-76c0-4648-ae7c-db87fef70f83","ios":"levelo://app?vid=6864a05c-76c0-4648-ae7c-db87fef70f83"},"vehicle_type_id":"4","last_reported":1726740565,"current_range_meters":6400,"station_id":"ce4bhn92rcd13ifvqgrg","pricing_plan_id":"cebpf4jnsgd1na2vs0mg"},{"bike_id":"f1925469-9217-450d-9259-fc5ba656a5ff","system_id":"levelo_inurba_marseille","lat":43.25928,"lon":5.40902,"is_reserved":false,"is_disabled":false,"rental_uris":{"android":"levelo://app?vid=f1925469-9217-450d-9259-fc5ba656a5ff","ios":"levelo://app?vid=f1925469-9217-450d-9259-fc5ba656a5ff"},"vehicle_type_id":"4","last_reported":1726740566,"current_range_meters":38000,"station_id":"ce4bhm92rcd13ifvqglg","pricing_plan_id":"cebpf4jnsgd1na2vs0mg"},{"bike_id":"69399783-5eae-4af9-ae4b-1495b2d249b1","system_id":"levelo_inurba_marseille","lat":43.24158,"lon":5.36402,"is_reserved":false,"is_disabled":false,"rental_uris":{"android":"levelo://app?vid=69399783-5eae-4af9-ae4b-1495b2d249b1","ios":"levelo://app?vid=69399783-5eae-4af9-ae4b-1495b2d249b1"},"vehicle_type_id":"4","last_reported":1726740566,"current_range_meters":33600,"station_id":"cpo36qri1sfpv3e86is0","pricing_plan_id":"cebpf4jnsgd1na2vs0mg"},{"bike_id":"3f513f49-e3b1-4c4c-bbdc-e5ae3b2b72d3","system_id":"levelo_inurba_marseille","lat":43.27492,"lon":5.42452,"is_reserved":false,"is_disabled":false,"rental_uris":{"android":"levelo://app?vid=3f513f49-e3b1-4c4c-bbdc-e5ae3b2b72d3","ios":"levelo://app?vid=3f513f49-e3b1-4c4c-bbdc-e5ae3b2b72d3"},"vehicle_type_id":"4","last_reported":1726740566,"current_range_meters":21600,"station_id":"ce4bhn92rcd13ifvqgrg","pricing_plan_id":"cebpf4jnsgd1na2vs0mg"},{"bike_id":"c07f4740-ebab-4d5c-b22e-deddf1ddd7da","system_id":"levelo_inurba_marseille","lat":43.2984,"lon":5.36265,"is_reserved":false,"is_disabled":false,"rental_uris":{"android":"levelo://app?vid=c07f4740-ebab-4d5c-b22e-deddf1ddd7da","ios":"levelo://app?vid=c07f4740-ebab-4d5c-b22e-deddf1ddd7da"},"vehicle_type_id":"4","last_reported":1726740566,"current_range_meters":39200,"station_id":"ce4bgpp2rcd13ifvqc3g","pricing_plan_id":"cebpf4jnsgd1na2vs0mg"},{"bike_id":"15974002-b466-4881-a3b8-3f18cb574325","system_id":"levelo_inurba_marseille","lat":43.27309,"lon":5.39102,"is_reserved":false,"is_disabled":false,"rental_uris":{"android":"levelo://app?vid=15974002-b466-4881-a3b8-3f18cb574325","ios":"levelo://app?vid=15974002-b466-4881-a3b8-3f18cb574325"},"vehicle_type_id":"4","last_reported":1726740566,"current_range_meters":19600,"station_id":"ce4bhgp2rcd13ifvqfe0","pricing_plan_id":"cebpf4jnsgd1na2vs0mg"},{"bike_id":"a811345e-c046-4ee5-87fd-576f86d7c458","system_id":"levelo_inurba_marseille","lat":43.25932,"lon":5.40908,"is_reserved":false,"is_disabled":false,"rental_uris":{"android":"levelo://app?vid=a811345e-c046-4ee5-87fd-576f86d7c458","ios":"levelo://app?vid=a811345e-c046-4ee5-87fd-576f86d7c458"},"vehicle_type_id":"4","last_reported":1726740566,"current_range_meters":37600,"station_id":"ce4bhm92rcd13ifvqglg","pricing_plan_id":"cebpf4jnsgd1na2vs0mg"},{"bike_id":"d65b723d-5356-425f-8e07-8b954d728b2b","system_id":"levelo_inurba_marseille","lat":43.25581,"lon":5.38233,"is_reserved":false,"is_disabled":false,"rental_uris":{"android":"levelo://app?vid=d65b723d-5356-425f-8e07-8b954d728b2b","ios":"levelo://app?vid=d65b723d-5356-425f-8e07-8b954d728b2b"},"vehicle_type_id":"4","last_reported":1726740566,"current_range_meters":16800,"station_id":"ce4bhih2rcd13ifvqfs0","pricing_plan_id":"cebpf4jnsgd1na2vs0mg"},{"bike_id":"884b4613-2a72-46e8-b1fd-814e1222921b","system_id":"levelo_inurba_marseille","lat":43.30541,"lon":5.36706,"is_reserved":false,"is_disabled":false,"rental_uris":{"android":"levelo://app?vid=884b4613-2a72-46e8-b1fd-814e1222921b","ios":"levelo://app?vid=884b4613-2a72-46e8-b1fd-814e1222921b"},"vehicle_type_id":"4","last_reported":1726740566,"current_range_meters":12000,"station_id":"ce4bgrp2rcd13ifvqc9g","pricing_plan_id":"cebpf4jnsgd1na2vs0mg"},{"bike_id":"96010521-6df8-4499-9193-686a24ef9ec2","system_id":"levelo_inurba_marseille","lat":43.29709,"lon":5.36599,"is_reserved":false,"is_disabled":false,"rental_uris":{"android":"levelo://app?vid=96010521-6df8-4499-9193-686a24ef9ec2","ios":"levelo://app?vid=96010521-6df8-4499-9193-686a24ef9ec2"},"vehicle_type_id":"4","last_reported":1726740566,"current_range_meters":38000,"station_id":"ce4bgn12rcd13ifvqbt0","pricing_plan_id":"cebpf4jnsgd1na2vs0mg"},{"bike_id":"58014cc6-4f39-4119-a8a0-cdc0e2507820","system_id":"levelo_inurba_marseille","lat":43.32287,"lon":5.38269,"is_reserved":false,"is_disabled":false,"rental_uris":{"android":"levelo://app?vid=58014cc6-4f39-4119-a8a0-cdc0e2507820","ios":"levelo://app?vid=58014cc6-4f39-4119-a8a0-cdc0e2507820"},"vehicle_type_id":"4","last_reported":1726740566,"current_range_meters":39200,"station_id":"ce4bhr12rcd13ifvqhqg","pricing_plan_id":"cebpf4jnsgd1na2vs0mg"},{"bike_id":"655e94ba-92eb-485d-9f53-279c68f7a8f3","system_id":"levelo_inurba_marseille","lat":43.23185,"lon":5.3998,"is_reserved":false,"is_disabled":false,"rental_uris":{"android":"levelo://app?vid=655e94ba-92eb-485d-9f53-279c68f7a8f3","ios":"levelo://app?vid=655e94ba-92eb-485d-9f53-279c68f7a8f3"},"vehicle_type_id":"4","last_reported":1726740566,"current_range_meters":38800,"station_id":"ce4bhn12rcd13ifvqgqg","pricing_plan_id":"cebpf4jnsgd1na2vs0mg"},{"bike_id":"b375ad79-f0cb-4d47-9a12-a6895782b8ef","system_id":"levelo_inurba_marseille","lat":43.29975,"lon":5.3719,"is_reserved":false,"is_disabled":false,"rental_uris":{"android":"levelo://app?vid=b375ad79-f0cb-4d47-9a12-a6895782b8ef","ios":"levelo://app?vid=b375ad79-f0cb-4d47-9a12-a6895782b8ef"},"vehicle_type_id":"4","last_reported":1726740566,"current_range_meters":4000,"station_id":"ce4bgr92rcd13ifvqc7g","pricing_plan_id":"cebpf4jnsgd1na2vs0mg"},{"bike_id":"58a0977a-4560-4644-908f-41ef1eb01cb6","system_id":"levelo_inurba_marseille","lat":43.26946,"lon":5.3864,"is_reserved":false,"is_disabled":false,"rental_uris":{"android":"levelo://app?vid=58a0977a-4560-4644-908f-41ef1eb01cb6","ios":"levelo://app?vid=58a0977a-4560-4644-908f-41ef1eb01cb6"},"vehicle_type_id":"4","last_reported":1726740566,"current_range_meters":31200,"station_id":"ce4bhh92rcd13ifvqfh0","pricing_plan_id":"cebpf4jnsgd1na2vs0mg"},{"bike_id":"9af0c345-e2cf-4dd1-83ef-5ff99965f904","system_id":"levelo_inurba_marseille","lat":43.31694,"lon":5.40469,"is_reserved":false,"is_disabled":false,"rental_uris":{"android":"levelo://app?vid=9af0c345-e2cf-4dd1-83ef-5ff99965f904","ios":"levelo://app?vid=9af0c345-e2cf-4dd1-83ef-5ff99965f904"},"vehicle_type_id":"4","last_reported":1726740566,"current_range_meters":31200,"station_id":"ce4bh012rcd13ifvqd00","pricing_plan_id":"cebpf4jnsgd1na2vs0mg"},{"bike_id":"9942a47b-d751-4701-8db6-fd3aae6ec433","system_id":"levelo_inurba_marseille","lat":43.27487,"lon":5.42459,"is_reserved":false,"is_disabled":false,"rental_uris":{"android":"levelo://app?vid=9942a47b-d751-4701-8db6-fd3aae6ec433","ios":"levelo://app?vid=9942a47b-d751-4701-8db6-fd3aae6ec433"},"vehicle_type_id":"4","last_reported":1726740566,"current_range_meters":30800,"station_id":"ce4bhn92rcd13ifvqgrg","pricing_plan_id":"cebpf4jnsgd1na2vs0mg"},{"bike_id":"e71d0d66-fb17-4f21-bad3-94b71466edd6","system_id":"levelo_inurba_marseille","lat":43.26035,"lon":5.37546,"is_reserved":false,"is_disabled":false,"rental_uris":{"android":"levelo://app?vid=e71d0d66-fb17-4f21-bad3-94b71466edd6","ios":"levelo://app?vid=e71d0d66-fb17-4f21-bad3-94b71466edd6"},"vehicle_type_id":"4","last_reported":1726740566,"current_range_meters":14800,"station_id":"ce4bhgh2rcd13ifvqfa0","pricing_plan_id":"cebpf4jnsgd1na2vs0mg"},{"bike_id":"3a643a13-d852-4164-b5f1-2086ca5ef5c3","system_id":"levelo_inurba_marseille","lat":43.30304,"lon":5.36968,"is_reserved":false,"is_disabled":false,"rental_uris":{"android":"levelo://app?vid=3a643a13-d852-4164-b5f1-2086ca5ef5c3","ios":"levelo://app?vid=3a643a13-d852-4164-b5f1-2086ca5ef5c3"},"vehicle_type_id":"4","last_reported":1726740566,"current_range_meters":14800,"station_id":"","pricing_plan_id":"cebpf4jnsgd1na2vs0mg"},{"bike_id":"f4a274be-07e0-43fb-97a5-f5ef7a2d6f8a","system_id":"levelo_inurba_marseille","lat":43.26953,"lon":5.3863,"is_reserved":false,"is_disabled":false,"rental_uris":{"android":"levelo://app?vid=f4a274be-07e0-43fb-97a5-f5ef7a2d6f8a","ios":"levelo://app?vid=f4a274be-07e0-43fb-97a5-f5ef7a2d6f8a"},"vehicle_type_id":"4","last_reported":1726740566,"current_range_meters":26800,"station_id":"ce4bhh92rcd13ifvqfh0","pricing_plan_id":"cebpf4jnsgd1na2vs0mg"},{"bike_id":"cf404fd7-ce83-477b-9c2b-1c2f8a0ebd8c","system_id":"levelo_inurba_marseille","lat":43.26029,"lon":5.37549,"is_reserved":false,"is_disabled":false,"rental_uris":{"android":"levelo://app?vid=cf404fd7-ce83-477b-9c2b-1c2f8a0ebd8c","ios":"levelo://app?vid=cf404fd7-ce83-477b-9c2b-1c2f8a0ebd8c"},"vehicle_type_id":"4","last_reported":1726740566,"current_range_meters":32400,"station_id":"ce4bhgh2rcd13ifvqfa0","pricing_plan_id":"cebpf4jnsgd1na2vs0mg"},{"bike_id":"b1f51ce9-8c30-4281-804b-4c3643a2a65b","system_id":"levelo_inurba_marseille","lat":43.30283,"lon":5.37697,"is_reserved":false,"is_disabled":false,"rental_uris":{"android":"levelo://app?vid=b1f51ce9-8c30-4281-804b-4c3643a2a65b","ios":"levelo://app?vid=b1f51ce9-8c30-4281-804b-4c3643a2a65b"},"vehicle_type_id":"4","last_reported":1726740566,"current_range_meters":40000,"station_id":"ce4bguh2rcd13ifvqcj0","pricing_plan_id":"cebpf4jnsgd1na2vs0mg"},{"bike_id":"13783b0d-190a-4858-8b0f-7f5949bb5ded","system_id":"levelo_inurba_marseille","lat":43.297455,"lon":5.397602,"is_reserved":false,"is_disabled":false,"rental_uris":{"android":"levelo://app?vid=13783b0d-190a-4858-8b0f-7f5949bb5ded","ios":"levelo://app?vid=13783b0d-190a-4858-8b0f-7f5949bb5ded"},"vehicle_type_id":"4","last_reported":1726740566,"current_range_meters":38000,"station_id":"ce4bh3h2rcd13ifvqdo0","pricing_plan_id":"cebpf4jnsgd1na2vs0mg"},{"bike_id":"a4bcef7f-d98d-416e-8231-0a3b7967fb2f","system_id":"levelo_inurba_marseille","lat":43.28352,"lon":5.41285,"is_reserved":false,"is_disabled":false,"rental_uris":{"android":"levelo://app?vid=a4bcef7f-d98d-416e-8231-0a3b7967fb2f","ios":"levelo://app?vid=a4bcef7f-d98d-416e-8231-0a3b7967fb2f"},"vehicle_type_id":"4","last_reported":1726740566,"current_range_meters":27600,"station_id":"","pricing_plan_id":"cebpf4jnsgd1na2vs0mg"},{"bike_id":"fb986fe7-8c15-4498-a389-29ce87e03bec","system_id":"levelo_inurba_marseille","lat":43.26959,"lon":5.38631,"is_reserved":false,"is_disabled":false,"rental_uris":{"android":"levelo://app?vid=fb986fe7-8c15-4498-a389-29ce87e03bec","ios":"levelo://app?vid=fb986fe7-8c15-4498-a389-29ce87e03bec"},"vehicle_type_id":"4","last_reported":1726740566,"current_range_meters":24800,"station_id":"","pricing_plan_id":"cebpf4jnsgd1na2vs0mg"},{"bike_id":"a5167d20-2104-475d-a982-32ed65c102d6","system_id":"levelo_inurba_marseille","lat":43.30551,"lon":5.36538,"is_reserved":false,"is_disabled":false,"rental_uris":{"android":"levelo://app?vid=a5167d20-2104-475d-a982-32ed65c102d6","ios":"levelo://app?vid=a5167d20-2104-475d-a982-32ed65c102d6"},"vehicle_type_id":"4","last_reported":1726740566,"current_range_meters":32000,"station_id":"ce4bgs12rcd13ifvqcag","pricing_plan_id":"cebpf4jnsgd1na2vs0mg"},{"bike_id":"bcb7cdb4-7ba1-4986-bc10-71dce9cd7b22","system_id":"levelo_inurba_marseille","lat":43.30134,"lon":5.3741,"is_reserved":false,"is_disabled":false,"rental_uris":{"android":"levelo://app?vid=bcb7cdb4-7ba1-4986-bc10-71dce9cd7b22","ios":"levelo://app?vid=bcb7cdb4-7ba1-4986-bc10-71dce9cd7b22"},"vehicle_type_id":"4","last_reported":1726740566,"current_range_meters":30400,"station_id":"ce4bgs92rcd13ifvqcc0","pricing_plan_id":"cebpf4jnsgd1na2vs0mg"},{"bike_id":"7d54046c-3cf1-4344-8137-17101feedbd5","system_id":"levelo_inurba_marseille","lat":43.32287,"lon":5.38277,"is_reserved":false,"is_disabled":false,"rental_uris":{"android":"levelo://app?vid=7d54046c-3cf1-4344-8137-17101feedbd5","ios":"levelo://app?vid=7d54046c-3cf1-4344-8137-17101feedbd5"},"vehicle_type_id":"4","last_reported":1726740566,"current_range_meters":37600,"station_id":"ce4bhr12rcd13ifvqhqg","pricing_plan_id":"cebpf4jnsgd1na2vs0mg"},{"bike_id":"6b6c4fab-0bd1-4725-a1b7-466b87a727bc","system_id":"levelo_inurba_marseille","lat":43.30531,"lon":5.36543,"is_reserved":false,"is_disabled":false,"rental_uris":{"android":"levelo://app?vid=6b6c4fab-0bd1-4725-a1b7-466b87a727bc","ios":"levelo://app?vid=6b6c4fab-0bd1-4725-a1b7-466b87a727bc"},"vehicle_type_id":"4","last_reported":1726740566,"current_range_meters":26000,"station_id":"ce4bgs12rcd13ifvqcag","pricing_plan_id":"cebpf4jnsgd1na2vs0mg"},{"bike_id":"4018871b-e691-4492-a5fe-496f0cda8b66","system_id":"levelo_inurba_marseille","lat":43.27492,"lon":5.42456,"is_reserved":false,"is_disabled":false,"rental_uris":{"android":"levelo://app?vid=4018871b-e691-4492-a5fe-496f0cda8b66","ios":"levelo://app?vid=4018871b-e691-4492-a5fe-496f0cda8b66"},"vehicle_type_id":"4","last_reported":1726740566,"current_range_meters":36000,"station_id":"ce4bhn92rcd13ifvqgrg","pricing_plan_id":"cebpf4jnsgd1na2vs0mg"},{"bike_id":"e05e9620-442b-4d43-999e-917e0d2701d8","system_id":"levelo_inurba_marseille","lat":43.29269,"lon":5.36844,"is_reserved":false,"is_disabled":false,"rental_uris":{"android":"levelo://app?vid=e05e9620-442b-4d43-999e-917e0d2701d8","ios":"levelo://app?vid=e05e9620-442b-4d43-999e-917e0d2701d8"},"vehicle_type_id":"4","last_reported":1726740566,"current_range_meters":30000,"station_id":"ce4bhbp2rcd13ifvqesg","pricing_plan_id":"cebpf4jnsgd1na2vs0mg"},{"bike_id":"fa2e946d-01fe-4bb4-a2b0-55af60a0bcec","system_id":"levelo_inurba_marseille","lat":43.33721,"lon":5.39185,"is_reserved":false,"is_disabled":false,"rental_uris":{"android":"levelo://app?vid=fa2e946d-01fe-4bb4-a2b0-55af60a0bcec","ios":"levelo://app?vid=fa2e946d-01fe-4bb4-a2b0-55af60a0bcec"},"vehicle_type_id":"4","last_reported":1726740566,"current_range_meters":38400,"station_id":"ce4bhr92rcd13ifvqhsg","pricing_plan_id":"cebpf4jnsgd1na2vs0mg"},{"bike_id":"ba4475d2-dc26-48c6-81d7-f2405336a72a","system_id":"levelo_inurba_marseille","lat":43.26946,"lon":5.38646,"is_reserved":false,"is_disabled":false,"rental_uris":{"android":"levelo://app?vid=ba4475d2-dc26-48c6-81d7-f2405336a72a","ios":"levelo://app?vid=ba4475d2-dc26-48c6-81d7-f2405336a72a"},"vehicle_type_id":"4","last_reported":1726740566,"current_range_meters":26000,"station_id":"ce4bhh92rcd13ifvqfh0","pricing_plan_id":"cebpf4jnsgd1na2vs0mg"},{"bike_id":"6f25435d-a9fe-4de6-8921-4f4064a1c012","system_id":"levelo_inurba_marseille","lat":43.25932,"lon":5.40913,"is_reserved":false,"is_disabled":false,"rental_uris":{"android":"levelo://app?vid=6f25435d-a9fe-4de6-8921-4f4064a1c012","ios":"levelo://app?vid=6f25435d-a9fe-4de6-8921-4f4064a1c012"},"vehicle_type_id":"4","last_reported":1726740566,"current_range_meters":24000,"station_id":"ce4bhm92rcd13ifvqglg","pricing_plan_id":"cebpf4jnsgd1na2vs0mg"},{"bike_id":"8cd2ce6f-b479-4f84-ba1d-1d522017b96c","system_id":"levelo_inurba_marseille","lat":43.26566,"lon":5.39007,"is_reserved":false,"is_disabled":false,"rental_uris":{"android":"levelo://app?vid=8cd2ce6f-b479-4f84-ba1d-1d522017b96c","ios":"levelo://app?vid=8cd2ce6f-b479-4f84-ba1d-1d522017b96c"},"vehicle_type_id":"4","last_reported":1726740566,"current_range_meters":25600,"station_id":"ce4bhe12rcd13ifvqf30","pricing_plan_id":"cebpf4jnsgd1na2vs0mg"},{"bike_id":"a8a54d34-1a50-45c0-9fc8-ef3e2e35eb08","system_id":"levelo_inurba_marseille","lat":43.309,"lon":5.36861,"is_reserved":false,"is_disabled":false,"rental_uris":{"android":"levelo://app?vid=a8a54d34-1a50-45c0-9fc8-ef3e2e35eb08","ios":"levelo://app?vid=a8a54d34-1a50-45c0-9fc8-ef3e2e35eb08"},"vehicle_type_id":"4","last_reported":1726740566,"current_range_meters":14800,"station_id":"ce4bgn92rcd13ifvqbvg","pricing_plan_id":"cebpf4jnsgd1na2vs0mg"},{"bike_id":"328d45f9-980e-4811-97c0-47d761861509","system_id":"levelo_inurba_marseille","lat":43.29847,"lon":5.37836,"is_reserved":false,"is_disabled":false,"rental_uris":{"android":"levelo://app?vid=328d45f9-980e-4811-97c0-47d761861509","ios":"levelo://app?vid=328d45f9-980e-4811-97c0-47d761861509"},"vehicle_type_id":"4","last_reported":1726740566,"current_range_meters":7200,"station_id":"ce4bgkh2rcd13ifvqbl0","pricing_plan_id":"cebpf4jnsgd1na2vs0mg"},{"bike_id":"2089b284-7b25-4b9d-a0a8-f987302912f8","system_id":"levelo_inurba_marseille","lat":43.28367,"lon":5.38643,"is_reserved":false,"is_disabled":false,"rental_uris":{"android":"levelo://app?vid=2089b284-7b25-4b9d-a0a8-f987302912f8","ios":"levelo://app?vid=2089b284-7b25-4b9d-a0a8-f987302912f8"},"vehicle_type_id":"4","last_reported":1726740566,"current_range_meters":36000,"station_id":"ce4bh492rcd13ifvqdvg","pricing_plan_id":"cebpf4jnsgd1na2vs0mg"},{"bike_id":"01cd51da-b961-4bd0-adee-b192b3b29a9f","system_id":"levelo_inurba_marseille","lat":43.27485,"lon":5.4246,"is_reserved":false,"is_disabled":false,"rental_uris":{"android":"levelo://app?vid=01cd51da-b961-4bd0-adee-b192b3b29a9f","ios":"levelo://app?vid=01cd51da-b961-4bd0-adee-b192b3b29a9f"},"vehicle_type_id":"4","last_reported":1726740566,"current_range_meters":30800,"station_id":"ce4bhn92rcd13ifvqgrg","pricing_plan_id":"cebpf4jnsgd1na2vs0mg"},{"bike_id":"19481434-7193-40f4-974b-a49675c22509","system_id":"levelo_inurba_marseille","lat":43.29255,"lon":5.40897,"is_reserved":false,"is_disabled":false,"rental_uris":{"android":"levelo://app?vid=19481434-7193-40f4-974b-a49675c22509","ios":"levelo://app?vid=19481434-7193-40f4-974b-a49675c22509"},"vehicle_type_id":"4","last_reported":1726740566,"current_range_meters":5600,"station_id":"ce4bh192rcd13ifvqdc0","pricing_plan_id":"cebpf4jnsgd1na2vs0mg"},{"bike_id":"7f74fc9e-b0a4-43d0-8b3e-945d61ceba2b","system_id":"levelo_inurba_marseille","lat":43.33016,"lon":5.39033,"is_reserved":false,"is_disabled":false,"rental_uris":{"android":"levelo://app?vid=7f74fc9e-b0a4-43d0-8b3e-945d61ceba2b","ios":"levelo://app?vid=7f74fc9e-b0a4-43d0-8b3e-945d61ceba2b"},"vehicle_type_id":"4","last_reported":1726740566,"current_range_meters":30400,"station_id":"ce4bhr92rcd13ifvqhrg","pricing_plan_id":"cebpf4jnsgd1na2vs0mg"},{"bike_id":"d2072c85-e5af-46db-a487-0b7c12e02cec","system_id":"levelo_inurba_marseille","lat":43.26199,"lon":5.37934,"is_reserved":false,"is_disabled":false,"rental_uris":{"android":"levelo://app?vid=d2072c85-e5af-46db-a487-0b7c12e02cec","ios":"levelo://app?vid=d2072c85-e5af-46db-a487-0b7c12e02cec"},"vehicle_type_id":"4","last_reported":1726740566,"current_range_meters":39200,"station_id":"ce4bhjp2rcd13ifvqg90","pricing_plan_id":"cebpf4jnsgd1na2vs0mg"},{"bike_id":"fa690805-233a-4a70-a9f3-33f1b67cdb1f","system_id":"levelo_inurba_marseille","lat":43.3229,"lon":5.3826,"is_reserved":false,"is_disabled":false,"rental_uris":{"android":"levelo://app?vid=fa690805-233a-4a70-a9f3-33f1b67cdb1f","ios":"levelo://app?vid=fa690805-233a-4a70-a9f3-33f1b67cdb1f"},"vehicle_type_id":"4","last_reported":1726740566,"current_range_meters":24400,"station_id":"ce4bhr12rcd13ifvqhqg","pricing_plan_id":"cebpf4jnsgd1na2vs0mg"},{"bike_id":"71a86551-9fba-4951-ba93-626be45a6760","system_id":"levelo_inurba_marseille","lat":43.25934,"lon":5.40912,"is_reserved":false,"is_disabled":false,"rental_uris":{"android":"levelo://app?vid=71a86551-9fba-4951-ba93-626be45a6760","ios":"levelo://app?vid=71a86551-9fba-4951-ba93-626be45a6760"},"vehicle_type_id":"4","last_reported":1726740566,"current_range_meters":22000,"station_id":"ce4bhm92rcd13ifvqglg","pricing_plan_id":"cebpf4jnsgd1na2vs0mg"},{"bike_id":"650e27ee-9d5d-47a9-bb49-fdab785c3db5","system_id":"levelo_inurba_marseille","lat":43.28668,"lon":5.38665,"is_reserved":false,"is_disabled":false,"rental_uris":{"android":"levelo://app?vid=650e27ee-9d5d-47a9-bb49-fdab785c3db5","ios":"levelo://app?vid=650e27ee-9d5d-47a9-bb49-fdab785c3db5"},"vehicle_type_id":"4","last_reported":1726740566,"current_range_meters":39200,"station_id":"ce4bh492rcd13ifvqdug","pricing_plan_id":"cebpf4jnsgd1na2vs0mg"},{"bike_id":"39b1732f-3dc3-415e-82bf-7b085cfcf475","system_id":"levelo_inurba_marseille","lat":43.30136,"lon":5.37421,"is_reserved":false,"is_disabled":false,"rental_uris":{"android":"levelo://app?vid=39b1732f-3dc3-415e-82bf-7b085cfcf475","ios":"levelo://app?vid=39b1732f-3dc3-415e-82bf-7b085cfcf475"},"vehicle_type_id":"4","last_reported":1726740566,"current_range_meters":6400,"station_id":"ce4bgs92rcd13ifvqcc0","pricing_plan_id":"cebpf4jnsgd1na2vs0mg"},{"bike_id":"8e44436b-0f10-41a6-b0fb-ef3da86bb1b4","system_id":"levelo_inurba_marseille","lat":43.32487,"lon":5.36571,"is_reserved":false,"is_disabled":false,"rental_uris":{"android":"levelo://app?vid=8e44436b-0f10-41a6-b0fb-ef3da86bb1b4","ios":"levelo://app?vid=8e44436b-0f10-41a6-b0fb-ef3da86bb1b4"},"vehicle_type_id":"4","last_reported":1726740566,"current_range_meters":28800,"station_id":"ce4bhs12rcd13ifvqhvg","pricing_plan_id":"cebpf4jnsgd1na2vs0mg"},{"bike_id":"7f0fa9fa-4a33-46a6-865d-dbde114bb494","system_id":"levelo_inurba_marseille","lat":43.25002,"lon":5.38928,"is_reserved":false,"is_disabled":false,"rental_uris":{"android":"levelo://app?vid=7f0fa9fa-4a33-46a6-865d-dbde114bb494","ios":"levelo://app?vid=7f0fa9fa-4a33-46a6-865d-dbde114bb494"},"vehicle_type_id":"4","last_reported":1726740566,"current_range_meters":8800,"station_id":"ce4bhgp2rcd13ifvqfd0","pricing_plan_id":"cebpf4jnsgd1na2vs0mg"},{"bike_id":"215a84f1-8640-4c33-ac11-24ef8061fd8f","system_id":"levelo_inurba_marseille","lat":43.27485,"lon":5.42464,"is_reserved":false,"is_disabled":false,"rental_uris":{"android":"levelo://app?vid=215a84f1-8640-4c33-ac11-24ef8061fd8f","ios":"levelo://app?vid=215a84f1-8640-4c33-ac11-24ef8061fd8f"},"vehicle_type_id":"4","last_reported":1726740566,"current_range_meters":26000,"station_id":"ce4bhn92rcd13ifvqgrg","pricing_plan_id":"cebpf4jnsgd1na2vs0mg"},{"bike_id":"b2763354-ec6c-4733-8de6-6c4493759ae9","system_id":"levelo_inurba_marseille","lat":43.29088,"lon":5.40172,"is_reserved":false,"is_disabled":false,"rental_uris":{"android":"levelo://app?vid=b2763354-ec6c-4733-8de6-6c4493759ae9","ios":"levelo://app?vid=b2763354-ec6c-4733-8de6-6c4493759ae9"},"vehicle_type_id":"4","last_reported":1726740566,"current_range_meters":27200,"station_id":"","pricing_plan_id":"cebpf4jnsgd1na2vs0mg"},{"bike_id":"a44f74e5-79b5-47fe-85bf-d8728c3f4f30","system_id":"levelo_inurba_marseille","lat":43.299668,"lon":5.384905,"is_reserved":false,"is_disabled":false,"rental_uris":{"android":"levelo://app?vid=a44f74e5-79b5-47fe-85bf-d8728c3f4f30","ios":"levelo://app?vid=a44f74e5-79b5-47fe-85bf-d8728c3f4f30"},"vehicle_type_id":"4","last_reported":1726740566,"current_range_meters":38800,"station_id":"ce4bgj92rcd13ifvqbd0","pricing_plan_id":"cebpf4jnsgd1na2vs0mg"},{"bike_id":"190afb13-fc25-42e3-ba7b-e4fb430dc103","system_id":"levelo_inurba_marseille","lat":43.27492,"lon":5.42448,"is_reserved":false,"is_disabled":false,"rental_uris":{"android":"levelo://app?vid=190afb13-fc25-42e3-ba7b-e4fb430dc103","ios":"levelo://app?vid=190afb13-fc25-42e3-ba7b-e4fb430dc103"},"vehicle_type_id":"4","last_reported":1726740566,"current_range_meters":19200,"station_id":"ce4bhn92rcd13ifvqgrg","pricing_plan_id":"cebpf4jnsgd1na2vs0mg"},{"bike_id":"d2db202f-5cdd-4c2e-82c4-6eb0cb8fe64d","system_id":"levelo_inurba_marseille","lat":43.243866,"lon":5.370581,"is_reserved":false,"is_disabled":false,"rental_uris":{"android":"levelo://app?vid=d2db202f-5cdd-4c2e-82c4-6eb0cb8fe64d","ios":"levelo://app?vid=d2db202f-5cdd-4c2e-82c4-6eb0cb8fe64d"},"vehicle_type_id":"4","last_reported":1726740566,"current_range_meters":33600,"station_id":"ce4bhhh2rcd13ifvqfk0","pricing_plan_id":"cebpf4jnsgd1na2vs0mg"},{"bike_id":"6b315238-eb0d-48d9-b227-de2819b1388f","system_id":"levelo_inurba_marseille","lat":43.26812,"lon":5.40265,"is_reserved":false,"is_disabled":false,"rental_uris":{"android":"levelo://app?vid=6b315238-eb0d-48d9-b227-de2819b1388f","ios":"levelo://app?vid=6b315238-eb0d-48d9-b227-de2819b1388f"},"vehicle_type_id":"4","last_reported":1726740566,"current_range_meters":39200,"station_id":"ce501612rcd8frsf0b60","pricing_plan_id":"cebpf4jnsgd1na2vs0mg"},{"bike_id":"63c00f5d-ce16-4c58-bed1-9c608bbc4d2a","system_id":"levelo_inurba_marseille","lat":43.30135,"lon":5.37405,"is_reserved":false,"is_disabled":false,"rental_uris":{"android":"levelo://app?vid=63c00f5d-ce16-4c58-bed1-9c608bbc4d2a","ios":"levelo://app?vid=63c00f5d-ce16-4c58-bed1-9c608bbc4d2a"},"vehicle_type_id":"4","last_reported":1726740566,"current_range_meters":33600,"station_id":"ce4bgs92rcd13ifvqcc0","pricing_plan_id":"cebpf4jnsgd1na2vs0mg"},{"bike_id":"d73ed22d-01d0-46a9-a0c1-c496cc8b3a54","system_id":"levelo_inurba_marseille","lat":43.30559,"lon":5.36537,"is_reserved":false,"is_disabled":false,"rental_uris":{"android":"levelo://app?vid=d73ed22d-01d0-46a9-a0c1-c496cc8b3a54","ios":"levelo://app?vid=d73ed22d-01d0-46a9-a0c1-c496cc8b3a54"},"vehicle_type_id":"4","last_reported":1726740566,"current_range_meters":38800,"station_id":"ce4bgs12rcd13ifvqcag","pricing_plan_id":"cebpf4jnsgd1na2vs0mg"},{"bike_id":"d6dc157e-3070-4cf3-a572-7ddf2e55734f","system_id":"levelo_inurba_marseille","lat":43.24393,"lon":5.3705,"is_reserved":false,"is_disabled":false,"rental_uris":{"android":"levelo://app?vid=d6dc157e-3070-4cf3-a572-7ddf2e55734f","ios":"levelo://app?vid=d6dc157e-3070-4cf3-a572-7ddf2e55734f"},"vehicle_type_id":"4","last_reported":1726740566,"current_range_meters":37600,"station_id":"ce4bhhh2rcd13ifvqfk0","pricing_plan_id":"cebpf4jnsgd1na2vs0mg"},{"bike_id":"b3c645ed-2a1d-41c0-aec1-75f49d16c808","system_id":"levelo_inurba_marseille","lat":43.317575,"lon":5.390107,"is_reserved":false,"is_disabled":false,"rental_uris":{"android":"levelo://app?vid=b3c645ed-2a1d-41c0-aec1-75f49d16c808","ios":"levelo://app?vid=b3c645ed-2a1d-41c0-aec1-75f49d16c808"},"vehicle_type_id":"4","last_reported":1726740566,"current_range_meters":38400,"station_id":"ce4bhqp2rcd13ifvqhng","pricing_plan_id":"cebpf4jnsgd1na2vs0mg"},{"bike_id":"d83a01c5-d00d-49bf-acda-94e4fd781fc3","system_id":"levelo_inurba_marseille","lat":43.27487,"lon":5.4246,"is_reserved":false,"is_disabled":false,"rental_uris":{"android":"levelo://app?vid=d83a01c5-d00d-49bf-acda-94e4fd781fc3","ios":"levelo://app?vid=d83a01c5-d00d-49bf-acda-94e4fd781fc3"},"vehicle_type_id":"4","last_reported":1726740566,"current_range_meters":18000,"station_id":"ce4bhn92rcd13ifvqgrg","pricing_plan_id":"cebpf4jnsgd1na2vs0mg"},{"bike_id":"faa8f55f-ced9-482c-9ce4-a4eed7b3864f","system_id":"levelo_inurba_marseille","lat":43.24084,"lon":5.37747,"is_reserved":false,"is_disabled":false,"rental_uris":{"android":"levelo://app?vid=faa8f55f-ced9-482c-9ce4-a4eed7b3864f","ios":"levelo://app?vid=faa8f55f-ced9-482c-9ce4-a4eed7b3864f"},"vehicle_type_id":"4","last_reported":1726740566,"current_range_meters":26000,"station_id":"ce4bhnp2rcd13ifvqgvg","pricing_plan_id":"cebpf4jnsgd1na2vs0mg"},{"bike_id":"fedddbab-aee6-46a7-8010-1777b700faa8","system_id":"levelo_inurba_marseille","lat":43.29844,"lon":5.36279,"is_reserved":false,"is_disabled":false,"rental_uris":{"android":"levelo://app?vid=fedddbab-aee6-46a7-8010-1777b700faa8","ios":"levelo://app?vid=fedddbab-aee6-46a7-8010-1777b700faa8"},"vehicle_type_id":"4","last_reported":1726740566,"current_range_meters":6000,"station_id":"ce4bgpp2rcd13ifvqc3g","pricing_plan_id":"cebpf4jnsgd1na2vs0mg"},{"bike_id":"511613b1-5c6e-403a-89a2-372a95f818a5","system_id":"levelo_inurba_marseille","lat":43.28149,"lon":5.42651,"is_reserved":false,"is_disabled":false,"rental_uris":{"android":"levelo://app?vid=511613b1-5c6e-403a-89a2-372a95f818a5","ios":"levelo://app?vid=511613b1-5c6e-403a-89a2-372a95f818a5"},"vehicle_type_id":"4","last_reported":1726740566,"current_range_meters":11200,"station_id":"ce4bhnh2rcd13ifvqgug","pricing_plan_id":"cebpf4jnsgd1na2vs0mg"},{"bike_id":"3b5c402c-27d5-4010-ae48-42592c44e1cb","system_id":"levelo_inurba_marseille","lat":43.29209,"lon":5.3827,"is_reserved":false,"is_disabled":false,"rental_uris":{"android":"levelo://app?vid=3b5c402c-27d5-4010-ae48-42592c44e1cb","ios":"levelo://app?vid=3b5c402c-27d5-4010-ae48-42592c44e1cb"},"vehicle_type_id":"4","last_reported":1726740566,"current_range_meters":32400,"station_id":"","pricing_plan_id":"cebpf4jnsgd1na2vs0mg"},{"bike_id":"aeae0793-accf-4494-b0f1-113bd0cc10aa","system_id":"levelo_inurba_marseille","lat":43.26944,"lon":5.40248,"is_reserved":false,"is_disabled":false,"rental_uris":{"android":"levelo://app?vid=aeae0793-accf-4494-b0f1-113bd0cc10aa","ios":"levelo://app?vid=aeae0793-accf-4494-b0f1-113bd0cc10aa"},"vehicle_type_id":"4","last_reported":1726740566,"current_range_meters":9200,"station_id":"cjm6bp8fraef2m0cb0m0","pricing_plan_id":"cebpf4jnsgd1na2vs0mg"},{"bike_id":"0c43c227-0ae4-42a0-8b62-5f46fb55f09b","system_id":"levelo_inurba_marseille","lat":43.30894,"lon":5.36852,"is_reserved":false,"is_disabled":false,"rental_uris":{"android":"levelo://app?vid=0c43c227-0ae4-42a0-8b62-5f46fb55f09b","ios":"levelo://app?vid=0c43c227-0ae4-42a0-8b62-5f46fb55f09b"},"vehicle_type_id":"4","last_reported":1726740566,"current_range_meters":15200,"station_id":"ce4bgn92rcd13ifvqbvg","pricing_plan_id":"cebpf4jnsgd1na2vs0mg"},{"bike_id":"45e742dd-d34d-4859-97f5-1da88e891571","system_id":"levelo_inurba_marseille","lat":43.29788,"lon":5.37096,"is_reserved":false,"is_disabled":false,"rental_uris":{"android":"levelo://app?vid=45e742dd-d34d-4859-97f5-1da88e891571","ios":"levelo://app?vid=45e742dd-d34d-4859-97f5-1da88e891571"},"vehicle_type_id":"4","last_reported":1726740566,"current_range_meters":38000,"station_id":"ce4bgop2rcd13ifvqc1g","pricing_plan_id":"cebpf4jnsgd1na2vs0mg"},{"bike_id":"769de159-a4f1-492d-a562-0722484977c3","system_id":"levelo_inurba_marseille","lat":43.25087,"lon":5.3952,"is_reserved":false,"is_disabled":false,"rental_uris":{"android":"levelo://app?vid=769de159-a4f1-492d-a562-0722484977c3","ios":"levelo://app?vid=769de159-a4f1-492d-a562-0722484977c3"},"vehicle_type_id":"4","last_reported":1726740566,"current_range_meters":39200,"station_id":"ce4bhm12rcd13ifvqgkg","pricing_plan_id":"cebpf4jnsgd1na2vs0mg"},{"bike_id":"1a2906c9-9119-4674-acbb-d2591ee23712","system_id":"levelo_inurba_marseille","lat":43.31564,"lon":5.38917,"is_reserved":false,"is_disabled":false,"rental_uris":{"android":"levelo://app?vid=1a2906c9-9119-4674-acbb-d2591ee23712","ios":"levelo://app?vid=1a2906c9-9119-4674-acbb-d2591ee23712"},"vehicle_type_id":"4","last_reported":1726740566,"current_range_meters":17600,"station_id":"","pricing_plan_id":"cebpf4jnsgd1na2vs0mg"},