{"last_updated":1778949829,"ttl":60,"version":"2.2","data":{"bikes":[{"bike_id":"b4f76617-252e-4229-886a-0573380828a6","system_id":"levelo_inurba_marseille","lat":43.27206,"lon":5.39193,"is_reserved":false,"is_disabled":false,"rental_uris":{"android":"levelo://app?vid=b4f76617-252e-4229-886a-0573380828a6","ios":"levelo://app?vid=b4f76617-252e-4229-886a-0573380828a6"},"vehicle_type_id":"4","last_reported":1778949830,"current_range_meters":2800,"station_id":"ce4bhhp2rcd13ifvqfm0","pricing_plan_id":"cebpf4jnsgd1na2vs0mg"},{"bike_id":"18eb90ac-eec2-4913-9241-dd8d26049a6e","system_id":"levelo_inurba_marseille","lat":43.28694,"lon":5.46704,"is_reserved":false,"is_disabled":false,"rental_uris":{"android":"levelo://app?vid=18eb90ac-eec2-4913-9241-dd8d26049a6e","ios":"levelo://app?vid=18eb90ac-eec2-4913-9241-dd8d26049a6e"},"vehicle_type_id":"4","last_reported":1778949830,"current_range_meters":2800,"station_id":"st_d6tc3vkotcvc738tfjhg","pricing_plan_id":"cebpf4jnsgd1na2vs0mg"},{"bike_id":"d4bf1dfc-14cb-497f-8c1e-cbe8ade475ef","system_id":"levelo_inurba_marseille","lat":43.29532,"lon":5.38536,"is_reserved":false,"is_disabled":false,"rental_uris":{"android":"levelo://app?vid=d4bf1dfc-14cb-497f-8c1e-cbe8ade475ef","ios":"levelo://app?vid=d4bf1dfc-14cb-497f-8c1e-cbe8ade475ef"},"vehicle_type_id":"4","last_reported":1778949830,"current_range_meters":2800,"station_id":"ce4bgih2rcd13ifvqba0","pricing_plan_id":"cebpf4jnsgd1na2vs0mg"},{"bike_id":"0851ef02-abf8-47b5-8d41-445bb5757760","system_id":"levelo_inurba_marseille","lat":43.26954,"lon":5.40228,"is_reserved":false,"is_disabled":false,"rental_uris":{"android":"levelo://app?vid=0851ef02-abf8-47b5-8d41-445bb5757760","ios":"levelo://app?vid=0851ef02-abf8-47b5-8d41-445bb5757760"},"vehicle_type_id":"4","last_reported":1778949830,"current_range_meters":2800,"station_id":"cjm6bp8fraef2m0cb0m0","pricing_plan_id":"cebpf4jnsgd1na2vs0mg"},{"bike_id":"eb69ded8-3844-4366-a6c0-c2401c6cc839","system_id":"levelo_inurba_marseille","lat":43.28689,"lon":5.46691,"is_reserved":false,"is_disabled":false,"rental_uris":{"android":"levelo://app?vid=eb69ded8-3844-4366-a6c0-c2401c6cc839","ios":"levelo://app?vid=eb69ded8-3844-4366-a6c0-c2401c6cc839"},"vehicle_type_id":"4","last_reported":1778949830,"current_range_meters":2800,"station_id":"st_d6tc3vkotcvc738tfjhg","pricing_plan_id":"cebpf4jnsgd1na2vs0mg"},{"bike_id":"0544ff1b-a392-410a-a38a-9acba12bbcfc","system_id":"levelo_inurba_marseille","lat":43.24814,"lon":5.37464,"is_reserved":false,"is_disabled":false,"rental_uris":{"android":"levelo://app?vid=0544ff1b-a392-410a-a38a-9acba12bbcfc","ios":"levelo://app?vid=0544ff1b-a392-410a-a38a-9acba12bbcfc"},"vehicle_type_id":"4","last_reported":1778949830,"current_range_meters":2800,"station_id":"ce4bhgh2rcd13ifvqfb0","pricing_plan_id":"cebpf4jnsgd1na2vs0mg"},{"bike_id":"229f18aa-3c64-4430-a10f-0d6158f7919f","system_id":"levelo_inurba_marseille","lat":43.305993,"lon":5.3933,"is_reserved":false,"is_disabled":false,"rental_uris":{"android":"levelo://app?vid=229f18aa-3c64-4430-a10f-0d6158f7919f","ios":"levelo://app?vid=229f18aa-3c64-4430-a10f-0d6158f7919f"},"vehicle_type_id":"4","last_reported":1778949830,"current_range_meters":2800,"station_id":"ce4bh0p2rcd13ifvqd80","pricing_plan_id":"cebpf4jnsgd1na2vs0mg"},{"bike_id":"17e031ef-88ab-4544-b716-c59639f89149","system_id":"levelo_inurba_marseille","lat":43.279729,"lon":5.387516,"is_reserved":false,"is_disabled":false,"rental_uris":{"android":"levelo://app?vid=17e031ef-88ab-4544-b716-c59639f89149","ios":"levelo://app?vid=17e031ef-88ab-4544-b716-c59639f89149"},"vehicle_type_id":"4","last_reported":1778949830,"current_range_meters":3200,"station_id":"","pricing_plan_id":"cebpf4jnsgd1na2vs0mg"},{"bike_id":"197f8590-4140-4e11-8b87-67ad98bb4bca","system_id":"levelo_inurba_marseille","lat":43.28613,"lon":5.37069,"is_reserved":false,"is_disabled":true,"rental_uris":{"android":"levelo://app?vid=197f8590-4140-4e11-8b87-67ad98bb4bca","ios":"levelo://app?vid=197f8590-4140-4e11-8b87-67ad98bb4bca"},"vehicle_type_id":"4","last_reported":1778949830,"current_range_meters":3200,"station_id":"ce4bht12rcd13ifvqi60","pricing_plan_id":"cebpf4jnsgd1na2vs0mg"},{"bike_id":"9e060bd2-8129-43fe-bd42-51ee45522bb6","system_id":"levelo_inurba_marseille","lat":43.27063,"lon":5.4025,"is_reserved":false,"is_disabled":false,"rental_uris":{"android":"levelo://app?vid=9e060bd2-8129-43fe-bd42-51ee45522bb6","ios":"levelo://app?vid=9e060bd2-8129-43fe-bd42-51ee45522bb6"},"vehicle_type_id":"4","last_reported":1778949830,"current_range_meters":3200,"station_id":"ce4bhk92rcd13ifvqgc0","pricing_plan_id":"cebpf4jnsgd1na2vs0mg"},{"bike_id":"69a4de94-ae1f-4385-aa61-58a2336f8cb8","system_id":"levelo_inurba_marseille","lat":43.30012,"lon":5.43062,"is_reserved":false,"is_disabled":false,"rental_uris":{"android":"levelo://app?vid=69a4de94-ae1f-4385-aa61-58a2336f8cb8","ios":"levelo://app?vid=69a4de94-ae1f-4385-aa61-58a2336f8cb8"},"vehicle_type_id":"4","last_reported":1778949830,"current_range_meters":3200,"station_id":"","pricing_plan_id":"cebpf4jnsgd1na2vs0mg"},{"bike_id":"417bd26b-1701-485b-b896-bb7adc98bac9","system_id":"levelo_inurba_marseille","lat":43.23956,"lon":5.36634,"is_reserved":false,"is_disabled":true,"rental_uris":{"android":"levelo://app?vid=417bd26b-1701-485b-b896-bb7adc98bac9","ios":"levelo://app?vid=417bd26b-1701-485b-b896-bb7adc98bac9"},"vehicle_type_id":"4","last_reported":1778949830,"current_range_meters":3200,"station_id":"ce4bhi12rcd13ifvqfp0","pricing_plan_id":"cebpf4jnsgd1na2vs0mg"},{"bike_id":"9852dac5-be21-4980-af78-9f3baf6ad910","system_id":"levelo_inurba_marseille","lat":43.225338,"lon":5.348284,"is_reserved":false,"is_disabled":false,"rental_uris":{"android":"levelo://app?vid=9852dac5-be21-4980-af78-9f3baf6ad910","ios":"levelo://app?vid=9852dac5-be21-4980-af78-9f3baf6ad910"},"vehicle_type_id":"4","last_reported":1778949830,"current_range_meters":3200,"station_id":"st_cvj5dfep6f1abm77gieg","pricing_plan_id":"cebpf4jnsgd1na2vs0mg"},{"bike_id":"7828cd84-c2fa-4995-837d-5c45fa6e1b51","system_id":"levelo_inurba_marseille","lat":43.29937,"lon":5.36549,"is_reserved":false,"is_disabled":false,"rental_uris":{"android":"levelo://app?vid=7828cd84-c2fa-4995-837d-5c45fa6e1b51","ios":"levelo://app?vid=7828cd84-c2fa-4995-837d-5c45fa6e1b51"},"vehicle_type_id":"4","last_reported":1778949830,"current_range_meters":3200,"station_id":"ce4bgm92rcd13ifvqbr0","pricing_plan_id":"cebpf4jnsgd1na2vs0mg"},{"bike_id":"4c1456b4-c5f4-49ed-bd33-6f63525d7c4f","system_id":"levelo_inurba_marseille","lat":43.27993,"lon":5.38754,"is_reserved":false,"is_disabled":true,"rental_uris":{"android":"levelo://app?vid=4c1456b4-c5f4-49ed-bd33-6f63525d7c4f","ios":"levelo://app?vid=4c1456b4-c5f4-49ed-bd33-6f63525d7c4f"},"vehicle_type_id":"4","last_reported":1778949830,"current_range_meters":3200,"station_id":"ce4bhg12rcd13ifvqf80","pricing_plan_id":"cebpf4jnsgd1na2vs0mg"},{"bike_id":"c15b7d9d-4d2e-4558-9fe7-1ee3f2efc7ae","system_id":"levelo_inurba_marseille","lat":43.29483,"lon":5.4331,"is_reserved":false,"is_disabled":false,"rental_uris":{"android":"levelo://app?vid=c15b7d9d-4d2e-4558-9fe7-1ee3f2efc7ae","ios":"levelo://app?vid=c15b7d9d-4d2e-4558-9fe7-1ee3f2efc7ae"},"vehicle_type_id":"4","last_reported":1778949830,"current_range_meters":3200,"station_id":"st_d3j5ugp08ojc73fj9d10","pricing_plan_id":"cebpf4jnsgd1na2vs0mg"},{"bike_id":"5249d832-2405-48ad-9463-8e57d5d711d2","system_id":"levelo_inurba_marseille","lat":43.319,"lon":5.36797,"is_reserved":false,"is_disabled":false,"rental_uris":{"android":"levelo://app?vid=5249d832-2405-48ad-9463-8e57d5d711d2","ios":"levelo://app?vid=5249d832-2405-48ad-9463-8e57d5d711d2"},"vehicle_type_id":"4","last_reported":1778949830,"current_range_meters":3200,"station_id":"st_d6o2h0d0559c73evc1b0","pricing_plan_id":"cebpf4jnsgd1na2vs0mg"},{"bike_id":"b0b71a92-1095-497f-9bf7-cac911ce7502","system_id":"levelo_inurba_marseille","lat":43.262152,"lon":5.374355,"is_reserved":false,"is_disabled":false,"rental_uris":{"android":"levelo://app?vid=b0b71a92-1095-497f-9bf7-cac911ce7502","ios":"levelo://app?vid=b0b71a92-1095-497f-9bf7-cac911ce7502"},"vehicle_type_id":"4","last_reported":1778949830,"current_range_meters":3200,"station_id":"ce4bhgp2rcd13ifvqfc0","pricing_plan_id":"cebpf4jnsgd1na2vs0mg"},{"bike_id":"ef8bb701-9675-43be-9f2b-738783fd30ad","system_id":"levelo_inurba_marseille","lat":43.28945,"lon":5.3664,"is_reserved":false,"is_disabled":false,"rental_uris":{"android":"levelo://app?vid=ef8bb701-9675-43be-9f2b-738783fd30ad","ios":"levelo://app?vid=ef8bb701-9675-43be-9f2b-738783fd30ad"},"vehicle_type_id":"4","last_reported":1778949830,"current_range_meters":3200,"station_id":"ce4bhap2rcd13ifvqek0","pricing_plan_id":"cebpf4jnsgd1na2vs0mg"},{"bike_id":"e7a17f54-fba4-42e7-906e-65e4a7cdd69b","system_id":"levelo_inurba_marseille","lat":43.29005,"lon":5.35607,"is_reserved":false,"is_disabled":false,"rental_uris":{"android":"levelo://app?vid=e7a17f54-fba4-42e7-906e-65e4a7cdd69b","ios":"levelo://app?vid=e7a17f54-fba4-42e7-906e-65e4a7cdd69b"},"vehicle_type_id":"4","last_reported":1778949830,"current_range_meters":3200,"station_id":"ce4bhb92rcd13ifvqen0","pricing_plan_id":"cebpf4jnsgd1na2vs0mg"},{"bike_id":"cfaae34f-a1f1-4eee-bd46-d85828330254","system_id":"levelo_inurba_marseille","lat":43.279751,"lon":5.387575,"is_reserved":false,"is_disabled":false,"rental_uris":{"android":"levelo://app?vid=cfaae34f-a1f1-4eee-bd46-d85828330254","ios":"levelo://app?vid=cfaae34f-a1f1-4eee-bd46-d85828330254"},"vehicle_type_id":"4","last_reported":1778949830,"current_range_meters":3200,"station_id":"ce4bhg12rcd13ifvqf80","pricing_plan_id":"cebpf4jnsgd1na2vs0mg"},{"bike_id":"9e54ee3d-dac3-4e09-b38a-9f001fb5e164","system_id":"levelo_inurba_marseille","lat":43.27916,"lon":5.38749,"is_reserved":false,"is_disabled":false,"rental_uris":{"android":"levelo://app?vid=9e54ee3d-dac3-4e09-b38a-9f001fb5e164","ios":"levelo://app?vid=9e54ee3d-dac3-4e09-b38a-9f001fb5e164"},"vehicle_type_id":"4","last_reported":1778949830,"current_range_meters":3200,"station_id":"","pricing_plan_id":"cebpf4jnsgd1na2vs0mg"},{"bike_id":"17c9101c-26b5-45fe-88ef-4ac9ae35d510","system_id":"levelo_inurba_marseille","lat":43.28699,"lon":5.37393,"is_reserved":false,"is_disabled":false,"rental_uris":{"android":"levelo://app?vid=17c9101c-26b5-45fe-88ef-4ac9ae35d510","ios":"levelo://app?vid=17c9101c-26b5-45fe-88ef-4ac9ae35d510"},"vehicle_type_id":"4","last_reported":1778949830,"current_range_meters":3600,"station_id":"ce4bh3p2rcd13ifvqdq0","pricing_plan_id":"cebpf4jnsgd1na2vs0mg"},{"bike_id":"906fb93e-a780-4d7c-b720-fc27a1329a38","system_id":"levelo_inurba_marseille","lat":43.255027,"lon":5.376489,"is_reserved":false,"is_disabled":false,"rental_uris":{"android":"levelo://app?vid=906fb93e-a780-4d7c-b720-fc27a1329a38","ios":"levelo://app?vid=906fb93e-a780-4d7c-b720-fc27a1329a38"},"vehicle_type_id":"4","last_reported":1778949830,"current_range_meters":3600,"station_id":"ce4bhh12rcd13ifvqff0","pricing_plan_id":"cebpf4jnsgd1na2vs0mg"},{"bike_id":"e9bcd615-3bda-4459-8964-a51a548b7ddf","system_id":"levelo_inurba_marseille","lat":43.27835,"lon":5.39211,"is_reserved":false,"is_disabled":false,"rental_uris":{"android":"levelo://app?vid=e9bcd615-3bda-4459-8964-a51a548b7ddf","ios":"levelo://app?vid=e9bcd615-3bda-4459-8964-a51a548b7ddf"},"vehicle_type_id":"4","last_reported":1778949830,"current_range_meters":3600,"station_id":"ce4bhjp2rcd13ifvqga0","pricing_plan_id":"cebpf4jnsgd1na2vs0mg"},{"bike_id":"337ccd00-87a3-4cbd-a0c0-1405eb7e3ed2","system_id":"levelo_inurba_marseille","lat":43.248036,"lon":5.374605,"is_reserved":false,"is_disabled":false,"rental_uris":{"android":"levelo://app?vid=337ccd00-87a3-4cbd-a0c0-1405eb7e3ed2","ios":"levelo://app?vid=337ccd00-87a3-4cbd-a0c0-1405eb7e3ed2"},"vehicle_type_id":"4","last_reported":1778949830,"current_range_meters":3600,"station_id":"ce4bhgh2rcd13ifvqfb0","pricing_plan_id":"cebpf4jnsgd1na2vs0mg"},{"bike_id":"f35538c5-f923-479b-ac74-73e10ca6c589","system_id":"levelo_inurba_marseille","lat":43.25585,"lon":5.38241,"is_reserved":false,"is_disabled":true,"rental_uris":{"android":"levelo://app?vid=f35538c5-f923-479b-ac74-73e10ca6c589","ios":"levelo://app?vid=f35538c5-f923-479b-ac74-73e10ca6c589"},"vehicle_type_id":"4","last_reported":1778949830,"current_range_meters":3600,"station_id":"ce4bhih2rcd13ifvqfs0","pricing_plan_id":"cebpf4jnsgd1na2vs0mg"},{"bike_id":"0ac2ca12-2455-49e1-ab3c-e5c3d40b75c0","system_id":"levelo_inurba_marseille","lat":43.29371,"lon":5.3783,"is_reserved":false,"is_disabled":false,"rental_uris":{"android":"levelo://app?vid=0ac2ca12-2455-49e1-ab3c-e5c3d40b75c0","ios":"levelo://app?vid=0ac2ca12-2455-49e1-ab3c-e5c3d40b75c0"},"vehicle_type_id":"4","last_reported":1778949830,"current_range_meters":3600,"station_id":"ce4bgjh2rcd13ifvqbf0","pricing_plan_id":"cebpf4jnsgd1na2vs0mg"},{"bike_id":"0b2d59a9-7f59-484d-a5c1-c17d5f4c48f4","system_id":"levelo_inurba_marseille","lat":43.303,"lon":5.39209,"is_reserved":false,"is_disabled":false,"rental_uris":{"android":"levelo://app?vid=0b2d59a9-7f59-484d-a5c1-c17d5f4c48f4","ios":"levelo://app?vid=0b2d59a9-7f59-484d-a5c1-c17d5f4c48f4"},"vehicle_type_id":"4","last_reported":1778949830,"current_range_meters":3600,"station_id":"ce4bgkh2rcd13ifvqbk0","pricing_plan_id":"cebpf4jnsgd1na2vs0mg"},{"bike_id":"4a2c3714-352c-4346-85dd-db30f79950fd","system_id":"levelo_inurba_marseille","lat":43.24851,"lon":5.37483,"is_reserved":false,"is_disabled":false,"rental_uris":{"android":"levelo://app?vid=4a2c3714-352c-4346-85dd-db30f79950fd","ios":"levelo://app?vid=4a2c3714-352c-4346-85dd-db30f79950fd"},"vehicle_type_id":"4","last_reported":1778949830,"current_range_meters":3600,"station_id":"","pricing_plan_id":"cebpf4jnsgd1na2vs0mg"},{"bike_id":"6f6e09e5-c5b6-4203-b177-0db440e43ff3","system_id":"levelo_inurba_marseille","lat":43.29932,"lon":5.3655,"is_reserved":false,"is_disabled":false,"rental_uris":{"android":"levelo://app?vid=6f6e09e5-c5b6-4203-b177-0db440e43ff3","ios":"levelo://app?vid=6f6e09e5-c5b6-4203-b177-0db440e43ff3"},"vehicle_type_id":"4","last_reported":1778949830,"current_range_meters":3600,"station_id":"ce4bgm92rcd13ifvqbr0","pricing_plan_id":"cebpf4jnsgd1na2vs0mg"},{"bike_id":"ee951fcb-056b-4cfb-90c6-b1279fb0b065","system_id":"levelo_inurba_marseille","lat":43.24543,"lon":5.39525,"is_reserved":false,"is_disabled":false,"rental_uris":{"android":"levelo://app?vid=ee951fcb-056b-4cfb-90c6-b1279fb0b065","ios":"levelo://app?vid=ee951fcb-056b-4cfb-90c6-b1279fb0b065"},"vehicle_type_id":"4","last_reported":1778949830,"current_range_meters":4000,"station_id":"ce4bhlp2rcd13ifvqgjg","pricing_plan_id":"cebpf4jnsgd1na2vs0mg"},{"bike_id":"305f8012-853c-4e5c-b4a3-badea1215a44","system_id":"levelo_inurba_marseille","lat":43.33754,"lon":5.37506,"is_reserved":false,"is_disabled":false,"rental_uris":{"android":"levelo://app?vid=305f8012-853c-4e5c-b4a3-badea1215a44","ios":"levelo://app?vid=305f8012-853c-4e5c-b4a3-badea1215a44"},"vehicle_type_id":"4","last_reported":1778949830,"current_range_meters":4000,"station_id":"","pricing_plan_id":"cebpf4jnsgd1na2vs0mg"},{"bike_id":"1878d352-3e8a-4f01-b6aa-65889bb7c48c","system_id":"levelo_inurba_marseille","lat":43.26204,"lon":5.37924,"is_reserved":false,"is_disabled":false,"rental_uris":{"android":"levelo://app?vid=1878d352-3e8a-4f01-b6aa-65889bb7c48c","ios":"levelo://app?vid=1878d352-3e8a-4f01-b6aa-65889bb7c48c"},"vehicle_type_id":"4","last_reported":1778949830,"current_range_meters":4000,"station_id":"ce4bhjp2rcd13ifvqg90","pricing_plan_id":"cebpf4jnsgd1na2vs0mg"},{"bike_id":"76e33348-6a4a-4160-8477-e9650ddfdc10","system_id":"levelo_inurba_marseille","lat":43.29552,"lon":5.42293,"is_reserved":false,"is_disabled":false,"rental_uris":{"android":"levelo://app?vid=76e33348-6a4a-4160-8477-e9650ddfdc10","ios":"levelo://app?vid=76e33348-6a4a-4160-8477-e9650ddfdc10"},"vehicle_type_id":"4","last_reported":1778949830,"current_range_meters":4000,"station_id":"ce4bhph2rcd13ifvqhdg","pricing_plan_id":"cebpf4jnsgd1na2vs0mg"},{"bike_id":"9683986e-4314-40de-86a1-59846036f2cb","system_id":"levelo_inurba_marseille","lat":43.29039,"lon":5.37558,"is_reserved":false,"is_disabled":false,"rental_uris":{"android":"levelo://app?vid=9683986e-4314-40de-86a1-59846036f2cb","ios":"levelo://app?vid=9683986e-4314-40de-86a1-59846036f2cb"},"vehicle_type_id":"4","last_reported":1778949830,"current_range_meters":4000,"station_id":"ce4bh692rcd13ifvqe90","pricing_plan_id":"cebpf4jnsgd1na2vs0mg"},{"bike_id":"f78fef08-70f9-41f2-bd4a-5d3fdb640ab0","system_id":"levelo_inurba_marseille","lat":43.28404,"lon":5.34978,"is_reserved":false,"is_disabled":false,"rental_uris":{"android":"levelo://app?vid=f78fef08-70f9-41f2-bd4a-5d3fdb640ab0","ios":"levelo://app?vid=f78fef08-70f9-41f2-bd4a-5d3fdb640ab0"},"vehicle_type_id":"4","last_reported":1778949830,"current_range_meters":4000,"station_id":"ce4bhbh2rcd13ifvqepg","pricing_plan_id":"cebpf4jnsgd1na2vs0mg"},{"bike_id":"ca01c33c-99c8-4ff8-a274-d065c7262a1a","system_id":"levelo_inurba_marseille","lat":43.26411,"lon":5.38833,"is_reserved":false,"is_disabled":false,"rental_uris":{"android":"levelo://app?vid=ca01c33c-99c8-4ff8-a274-d065c7262a1a","ios":"levelo://app?vid=ca01c33c-99c8-4ff8-a274-d065c7262a1a"},"vehicle_type_id":"4","last_reported":1778949830,"current_range_meters":4000,"station_id":"","pricing_plan_id":"cebpf4jnsgd1na2vs0mg"},{"bike_id":"572bb06b-e36d-4d54-b92b-73602e9e3d04","system_id":"levelo_inurba_marseille","lat":43.28342,"lon":5.38108,"is_reserved":false,"is_disabled":false,"rental_uris":{"android":"levelo://app?vid=572bb06b-e36d-4d54-b92b-73602e9e3d04","ios":"levelo://app?vid=572bb06b-e36d-4d54-b92b-73602e9e3d04"},"vehicle_type_id":"4","last_reported":1778949830,"current_range_meters":4000,"station_id":"ce4bh412rcd13ifvqdr0","pricing_plan_id":"cebpf4jnsgd1na2vs0mg"},{"bike_id":"0f95a23f-5e8c-43b7-9605-aea2724fb4d4","system_id":"levelo_inurba_marseille","lat":43.33023,"lon":5.39035,"is_reserved":false,"is_disabled":false,"rental_uris":{"android":"levelo://app?vid=0f95a23f-5e8c-43b7-9605-aea2724fb4d4","ios":"levelo://app?vid=0f95a23f-5e8c-43b7-9605-aea2724fb4d4"},"vehicle_type_id":"4","last_reported":1778949830,"current_range_meters":4000,"station_id":"ce4bhr92rcd13ifvqhrg","pricing_plan_id":"cebpf4jnsgd1na2vs0mg"},{"bike_id":"fd5c2121-56e5-46e2-8109-dbd7e32d6af7","system_id":"levelo_inurba_marseille","lat":43.30307,"lon":5.36892,"is_reserved":false,"is_disabled":false,"rental_uris":{"android":"levelo://app?vid=fd5c2121-56e5-46e2-8109-dbd7e32d6af7","ios":"levelo://app?vid=fd5c2121-56e5-46e2-8109-dbd7e32d6af7"},"vehicle_type_id":"4","last_reported":1778949830,"current_range_meters":4000,"station_id":"ce4bgqh2rcd13ifvqc5g","pricing_plan_id":"cebpf4jnsgd1na2vs0mg"},{"bike_id":"29c37568-0c20-4b5c-a388-28077ede2e40","system_id":"levelo_inurba_marseille","lat":43.28535,"lon":5.44092,"is_reserved":false,"is_disabled":false,"rental_uris":{"android":"levelo://app?vid=29c37568-0c20-4b5c-a388-28077ede2e40","ios":"levelo://app?vid=29c37568-0c20-4b5c-a388-28077ede2e40"},"vehicle_type_id":"4","last_reported":1778949830,"current_range_meters":4000,"station_id":"st_d3j3df2ikq2c7380ej80","pricing_plan_id":"cebpf4jnsgd1na2vs0mg"},{"bike_id":"52fb7434-896e-4c97-817e-ac9657918ab4","system_id":"levelo_inurba_marseille","lat":43.33548,"lon":5.37469,"is_reserved":false,"is_disabled":false,"rental_uris":{"android":"levelo://app?vid=52fb7434-896e-4c97-817e-ac9657918ab4","ios":"levelo://app?vid=52fb7434-896e-4c97-817e-ac9657918ab4"},"vehicle_type_id":"4","last_reported":1778949830,"current_range_meters":4000,"station_id":"st_d46tts09ee8s73dlu43g","pricing_plan_id":"cebpf4jnsgd1na2vs0mg"},{"bike_id":"ac2d8b34-e911-4983-82a8-d7118d3e75c3","system_id":"levelo_inurba_marseille","lat":43.23103,"lon":5.39984,"is_reserved":false,"is_disabled":false,"rental_uris":{"android":"levelo://app?vid=ac2d8b34-e911-4983-82a8-d7118d3e75c3","ios":"levelo://app?vid=ac2d8b34-e911-4983-82a8-d7118d3e75c3"},"vehicle_type_id":"4","last_reported":1778949830,"current_range_meters":4400,"station_id":"ce4bhn12rcd13ifvqgqg","pricing_plan_id":"cebpf4jnsgd1na2vs0mg"},{"bike_id":"5a28febd-d96a-4731-8ca5-94938e310dd1","system_id":"levelo_inurba_marseille","lat":43.286082,"lon":5.370674,"is_reserved":false,"is_disabled":false,"rental_uris":{"android":"levelo://app?vid=5a28febd-d96a-4731-8ca5-94938e310dd1","ios":"levelo://app?vid=5a28febd-d96a-4731-8ca5-94938e310dd1"},"vehicle_type_id":"4","last_reported":1778949830,"current_range_meters":4400,"station_id":"ce4bht12rcd13ifvqi60","pricing_plan_id":"cebpf4jnsgd1na2vs0mg"},{"bike_id":"ff5af636-5e8f-4fe0-a7d9-70a25d86e069","system_id":"levelo_inurba_marseille","lat":43.21194,"lon":5.35072,"is_reserved":false,"is_disabled":false,"rental_uris":{"android":"levelo://app?vid=ff5af636-5e8f-4fe0-a7d9-70a25d86e069","ios":"levelo://app?vid=ff5af636-5e8f-4fe0-a7d9-70a25d86e069"},"vehicle_type_id":"4","last_reported":1778949830,"current_range_meters":4400,"station_id":"st_cvj6sg6p6f1abm77japg","pricing_plan_id":"cebpf4jnsgd1na2vs0mg"},{"bike_id":"db5ef7bc-1934-45c3-8160-80ea71746812","system_id":"levelo_inurba_marseille","lat":43.26225,"lon":5.40459,"is_reserved":false,"is_disabled":false,"rental_uris":{"android":"levelo://app?vid=db5ef7bc-1934-45c3-8160-80ea71746812","ios":"levelo://app?vid=db5ef7bc-1934-45c3-8160-80ea71746812"},"vehicle_type_id":"4","last_reported":1778949830,"current_range_meters":4400,"station_id":"ce4bhmh2rcd13ifvqgmg","pricing_plan_id":"cebpf4jnsgd1na2vs0mg"},{"bike_id":"1f27b9c7-f593-4ee3-b394-7ce199ed2756","system_id":"levelo_inurba_marseille","lat":43.309018,"lon":5.37188,"is_reserved":false,"is_disabled":false,"rental_uris":{"android":"levelo://app?vid=1f27b9c7-f593-4ee3-b394-7ce199ed2756","ios":"levelo://app?vid=1f27b9c7-f593-4ee3-b394-7ce199ed2756"},"vehicle_type_id":"4","last_reported":1778949830,"current_range_meters":4400,"station_id":"","pricing_plan_id":"cebpf4jnsgd1na2vs0mg"},{"bike_id":"c522deca-789e-49b3-982f-1f0402a24572","system_id":"levelo_inurba_marseille","lat":43.24647,"lon":5.38884,"is_reserved":false,"is_disabled":false,"rental_uris":{"android":"levelo://app?vid=c522deca-789e-49b3-982f-1f0402a24572","ios":"levelo://app?vid=c522deca-789e-49b3-982f-1f0402a24572"},"vehicle_type_id":"4","last_reported":1778949830,"current_range_meters":4400,"station_id":"ce4bhg12rcd13ifvqf60","pricing_plan_id":"cebpf4jnsgd1na2vs0mg"},{"bike_id":"36f2d7e5-38c8-4e08-adb7-d417b29dbdce","system_id":"levelo_inurba_marseille","lat":43.27328,"lon":5.39088,"is_reserved":false,"is_disabled":false,"rental_uris":{"android":"levelo://app?vid=36f2d7e5-38c8-4e08-adb7-d417b29dbdce","ios":"levelo://app?vid=36f2d7e5-38c8-4e08-adb7-d417b29dbdce"},"vehicle_type_id":"4","last_reported":1778949830,"current_range_meters":4400,"station_id":"ce4bhgp2rcd13ifvqfe0","pricing_plan_id":"cebpf4jnsgd1na2vs0mg"},{"bike_id":"b99255d8-2cb4-4c40-80a8-f34ddf79c7aa","system_id":"levelo_inurba_marseille","lat":43.33542,"lon":5.37469,"is_reserved":false,"is_disabled":false,"rental_uris":{"android":"levelo://app?vid=b99255d8-2cb4-4c40-80a8-f34ddf79c7aa","ios":"levelo://app?vid=b99255d8-2cb4-4c40-80a8-f34ddf79c7aa"},"vehicle_type_id":"4","last_reported":1778949830,"current_range_meters":4400,"station_id":"st_d46tts09ee8s73dlu43g","pricing_plan_id":"cebpf4jnsgd1na2vs0mg"},{"bike_id":"aacdce68-59a0-41a8-9fb5-f3e09ee290b8","system_id":"levelo_inurba_marseille","lat":43.27674,"lon":5.38873,"is_reserved":false,"is_disabled":false,"rental_uris":{"android":"levelo://app?vid=aacdce68-59a0-41a8-9fb5-f3e09ee290b8","ios":"levelo://app?vid=aacdce68-59a0-41a8-9fb5-f3e09ee290b8"},"vehicle_type_id":"4","last_reported":1778949830,"current_range_meters":4400,"station_id":"ce4bhi12rcd13ifvqfo0","pricing_plan_id":"cebpf4jnsgd1na2vs0mg"},{"bike_id":"21bbcbd2-905d-466f-afb2-ed90ee4a8185","system_id":"levelo_inurba_marseille","lat":43.296842,"lon":5.372987,"is_reserved":false,"is_disabled":false,"rental_uris":{"android":"levelo://app?vid=21bbcbd2-905d-466f-afb2-ed90ee4a8185","ios":"levelo://app?vid=21bbcbd2-905d-466f-afb2-ed90ee4a8185"},"vehicle_type_id":"4","last_reported":1778949830,"current_range_meters":4400,"station_id":"ce4bgk12rcd13ifvqbj0","pricing_plan_id":"cebpf4jnsgd1na2vs0mg"},{"bike_id":"89f3d505-c7fd-4361-ba66-477aaabd199f","system_id":"levelo_inurba_marseille","lat":43.29839,"lon":5.36266,"is_reserved":false,"is_disabled":false,"rental_uris":{"android":"levelo://app?vid=89f3d505-c7fd-4361-ba66-477aaabd199f","ios":"levelo://app?vid=89f3d505-c7fd-4361-ba66-477aaabd199f"},"vehicle_type_id":"4","last_reported":1778949830,"current_range_meters":4400,"station_id":"ce4bgpp2rcd13ifvqc3g","pricing_plan_id":"cebpf4jnsgd1na2vs0mg"},{"bike_id":"fc3434ec-3f12-4fe2-a883-c7406c4652f9","system_id":"levelo_inurba_marseille","lat":43.29495,"lon":5.43301,"is_reserved":false,"is_disabled":false,"rental_uris":{"android":"levelo://app?vid=fc3434ec-3f12-4fe2-a883-c7406c4652f9","ios":"levelo://app?vid=fc3434ec-3f12-4fe2-a883-c7406c4652f9"},"vehicle_type_id":"4","last_reported":1778949830,"current_range_meters":4800,"station_id":"st_d3j5ugp08ojc73fj9d10","pricing_plan_id":"cebpf4jnsgd1na2vs0mg"},{"bike_id":"582da482-3442-4df2-acd6-eee13b9b1a17","system_id":"levelo_inurba_marseille","lat":43.29281,"lon":5.36835,"is_reserved":false,"is_disabled":false,"rental_uris":{"android":"levelo://app?vid=582da482-3442-4df2-acd6-eee13b9b1a17","ios":"levelo://app?vid=582da482-3442-4df2-acd6-eee13b9b1a17"},"vehicle_type_id":"4","last_reported":1778949830,"current_range_meters":4800,"station_id":"ce4bhbp2rcd13ifvqesg","pricing_plan_id":"cebpf4jnsgd1na2vs0mg"},{"bike_id":"310313f9-4c8b-458d-834b-81e71f22dc3f","system_id":"levelo_inurba_marseille","lat":43.27915,"lon":5.39596,"is_reserved":false,"is_disabled":true,"rental_uris":{"android":"levelo://app?vid=310313f9-4c8b-458d-834b-81e71f22dc3f","ios":"levelo://app?vid=310313f9-4c8b-458d-834b-81e71f22dc3f"},"vehicle_type_id":"4","last_reported":1778949830,"current_range_meters":4800,"station_id":"ce4bhf92rcd13ifvqf40","pricing_plan_id":"cebpf4jnsgd1na2vs0mg"},{"bike_id":"e9d670bd-e08f-4c64-b301-c2d8b6504deb","system_id":"levelo_inurba_marseille","lat":43.295885,"lon":5.380989,"is_reserved":false,"is_disabled":false,"rental_uris":{"android":"levelo://app?vid=e9d670bd-e08f-4c64-b301-c2d8b6504deb","ios":"levelo://app?vid=e9d670bd-e08f-4c64-b301-c2d8b6504deb"},"vehicle_type_id":"4","last_reported":1778949830,"current_range_meters":4800,"station_id":"ce4bgl12rcd13ifvqbo0","pricing_plan_id":"cebpf4jnsgd1na2vs0mg"},{"bike_id":"c72a7d16-031b-4203-881e-cb294ab5d726","system_id":"levelo_inurba_marseille","lat":43.29936,"lon":5.36544,"is_reserved":false,"is_disabled":false,"rental_uris":{"android":"levelo://app?vid=c72a7d16-031b-4203-881e-cb294ab5d726","ios":"levelo://app?vid=c72a7d16-031b-4203-881e-cb294ab5d726"},"vehicle_type_id":"4","last_reported":1778949830,"current_range_meters":4800,"station_id":"ce4bgm92rcd13ifvqbr0","pricing_plan_id":"cebpf4jnsgd1na2vs0mg"},{"bike_id":"1466b7ae-2359-4d90-ab96-165b69381d7c","system_id":"levelo_inurba_marseille","lat":43.31122,"lon":5.36837,"is_reserved":false,"is_disabled":false,"rental_uris":{"android":"levelo://app?vid=1466b7ae-2359-4d90-ab96-165b69381d7c","ios":"levelo://app?vid=1466b7ae-2359-4d90-ab96-165b69381d7c"},"vehicle_type_id":"4","last_reported":1778949830,"current_range_meters":4800,"station_id":"ce4bgl92rcd13ifvqbq0","pricing_plan_id":"cebpf4jnsgd1na2vs0mg"},{"bike_id":"3d2cfad6-6696-4077-98b9-e4630bbcd017","system_id":"levelo_inurba_marseille","lat":43.29604,"lon":5.37714,"is_reserved":false,"is_disabled":false,"rental_uris":{"android":"levelo://app?vid=3d2cfad6-6696-4077-98b9-e4630bbcd017","ios":"levelo://app?vid=3d2cfad6-6696-4077-98b9-e4630bbcd017"},"vehicle_type_id":"4","last_reported":1778949830,"current_range_meters":4800,"station_id":"ce4bgi92rcd13ifvqb90","pricing_plan_id":"cebpf4jnsgd1na2vs0mg"},{"bike_id":"94ecfbd9-f014-43e8-96cd-27eabad8a6ed","system_id":"levelo_inurba_marseille","lat":43.30891,"lon":5.39655,"is_reserved":false,"is_disabled":false,"rental_uris":{"android":"levelo://app?vid=94ecfbd9-f014-43e8-96cd-27eabad8a6ed","ios":"levelo://app?vid=94ecfbd9-f014-43e8-96cd-27eabad8a6ed"},"vehicle_type_id":"4","last_reported":1778949830,"current_range_meters":4800,"station_id":"ce4bh012rcd13ifvqcv0","pricing_plan_id":"cebpf4jnsgd1na2vs0mg"},{"bike_id":"c461dde9-07a3-4ee3-b867-be035de6770d","system_id":"levelo_inurba_marseille","lat":43.26052,"lon":5.39391,"is_reserved":false,"is_disabled":false,"rental_uris":{"android":"levelo://app?vid=c461dde9-07a3-4ee3-b867-be035de6770d","ios":"levelo://app?vid=c461dde9-07a3-4ee3-b867-be035de6770d"},"vehicle_type_id":"4","last_reported":1778949830,"current_range_meters":4800,"station_id":"ce4bhh92rcd13ifvqfj0","pricing_plan_id":"cebpf4jnsgd1na2vs0mg"},{"bike_id":"1c155cb8-50aa-4ad8-95d4-a32cca5f7a07","system_id":"levelo_inurba_marseille","lat":43.24464,"lon":5.42538,"is_reserved":false,"is_disabled":false,"rental_uris":{"android":"levelo://app?vid=1c155cb8-50aa-4ad8-95d4-a32cca5f7a07","ios":"levelo://app?vid=1c155cb8-50aa-4ad8-95d4-a32cca5f7a07"},"vehicle_type_id":"4","last_reported":1778949830,"current_range_meters":4800,"station_id":"st_d4a3vfp97mjs738cd8kg","pricing_plan_id":"cebpf4jnsgd1na2vs0mg"},{"bike_id":"59dc179a-f593-455e-b9b4-7f65f7660186","system_id":"levelo_inurba_marseille","lat":43.32491,"lon":5.38299,"is_reserved":false,"is_disabled":false,"rental_uris":{"android":"levelo://app?vid=59dc179a-f593-455e-b9b4-7f65f7660186","ios":"levelo://app?vid=59dc179a-f593-455e-b9b4-7f65f7660186"},"vehicle_type_id":"4","last_reported":1778949830,"current_range_meters":4800,"station_id":"st_d4asgbiv49dc73anf9m0","pricing_plan_id":"cebpf4jnsgd1na2vs0mg"},{"bike_id":"6e041602-c25e-415f-9239-ade8a14a229e","system_id":"levelo_inurba_marseille","lat":43.28229,"lon":5.39071,"is_reserved":false,"is_disabled":false,"rental_uris":{"android":"levelo://app?vid=6e041602-c25e-415f-9239-ade8a14a229e","ios":"levelo://app?vid=6e041602-c25e-415f-9239-ade8a14a229e"},"vehicle_type_id":"4","last_reported":1778949830,"current_range_meters":4800,"station_id":"ce4bhn92rcd13ifvqgsg","pricing_plan_id":"cebpf4jnsgd1na2vs0mg"},{"bike_id":"bc1ceef2-7ab6-4b29-97cf-e699caf1898f","system_id":"levelo_inurba_marseille","lat":43.24648,"lon":5.38894,"is_reserved":false,"is_disabled":false,"rental_uris":{"android":"levelo://app?vid=bc1ceef2-7ab6-4b29-97cf-e699caf1898f","ios":"levelo://app?vid=bc1ceef2-7ab6-4b29-97cf-e699caf1898f"},"vehicle_type_id":"4","last_reported":1778949830,"current_range_meters":4800,"station_id":"ce4bhg12rcd13ifvqf60","pricing_plan_id":"cebpf4jnsgd1na2vs0mg"},{"bike_id":"b279d425-b605-4dce-aa38-d74dc6161e68","system_id":"levelo_inurba_marseille","lat":43.22557,"lon":5.41622,"is_reserved":false,"is_disabled":false,"rental_uris":{"android":"levelo://app?vid=b279d425-b605-4dce-aa38-d74dc6161e68","ios":"levelo://app?vid=b279d425-b605-4dce-aa38-d74dc6161e68"},"vehicle_type_id":"4","last_reported":1778949830,"current_range_meters":4800,"station_id":"st_d2o4gvlbi1j2169b742g","pricing_plan_id":"cebpf4jnsgd1na2vs0mg"},{"bike_id":"d9140709-4601-47f0-bf89-6412b8b813c9","system_id":"levelo_inurba_marseille","lat":43.29263,"lon":5.36851,"is_reserved":false,"is_disabled":false,"rental_uris":{"android":"levelo://app?vid=d9140709-4601-47f0-bf89-6412b8b813c9","ios":"levelo://app?vid=d9140709-4601-47f0-bf89-6412b8b813c9"},"vehicle_type_id":"4","last_reported":1778949830,"current_range_meters":5600,"station_id":"ce4bhbp2rcd13ifvqesg","pricing_plan_id":"cebpf4jnsgd1na2vs0mg"},{"bike_id":"2a7de907-abeb-40b6-8b2a-8f5f4d5ef28e","system_id":"levelo_inurba_marseille","lat":43.28611,"lon":5.37063,"is_reserved":false,"is_disabled":false,"rental_uris":{"android":"levelo://app?vid=2a7de907-abeb-40b6-8b2a-8f5f4d5ef28e","ios":"levelo://app?vid=2a7de907-abeb-40b6-8b2a-8f5f4d5ef28e"},"vehicle_type_id":"4","last_reported":1778949830,"current_range_meters":5600,"station_id":"ce4bht12rcd13ifvqi60","pricing_plan_id":"cebpf4jnsgd1na2vs0mg"},{"bike_id":"2c4e2c80-7a7f-49e7-8a11-230c3e37ee87","system_id":"levelo_inurba_marseille","lat":43.22562,"lon":5.41629,"is_reserved":false,"is_disabled":false,"rental_uris":{"android":"levelo://app?vid=2c4e2c80-7a7f-49e7-8a11-230c3e37ee87","ios":"levelo://app?vid=2c4e2c80-7a7f-49e7-8a11-230c3e37ee87"},"vehicle_type_id":"4","last_reported":1778949830,"current_range_meters":5600,"station_id":"st_d2o4gvlbi1j2169b742g","pricing_plan_id":"cebpf4jnsgd1na2vs0mg"},{"bike_id":"fb1691d2-8065-4b2b-9460-4fb897040901","system_id":"levelo_inurba_marseille","lat":43.297998,"lon":5.381029,"is_reserved":false,"is_disabled":false,"rental_uris":{"android":"levelo://app?vid=fb1691d2-8065-4b2b-9460-4fb897040901","ios":"levelo://app?vid=fb1691d2-8065-4b2b-9460-4fb897040901"},"vehicle_type_id":"4","last_reported":1778949830,"current_range_meters":5600,"station_id":"ce4bgip2rcd13ifvqbb0","pricing_plan_id":"cebpf4jnsgd1na2vs0mg"},{"bike_id":"da25d015-d7dd-4fbf-997f-9acf97aa246b","system_id":"levelo_inurba_marseille","lat":43.2861,"lon":5.35105,"is_reserved":false,"is_disabled":false,"rental_uris":{"android":"levelo://app?vid=da25d015-d7dd-4fbf-997f-9acf97aa246b","ios":"levelo://app?vid=da25d015-d7dd-4fbf-997f-9acf97aa246b"},"vehicle_type_id":"4","last_reported":1778949830,"current_range_meters":5600,"station_id":"ce4bhch2rcd13ifvqeug","pricing_plan_id":"cebpf4jnsgd1na2vs0mg"},{"bike_id":"fe51d235-289e-443a-8eab-faa4747a6bf1","system_id":"levelo_inurba_marseille","lat":43.27563,"lon":5.3842,"is_reserved":false,"is_disabled":false,"rental_uris":{"android":"levelo://app?vid=fe51d235-289e-443a-8eab-faa4747a6bf1","ios":"levelo://app?vid=fe51d235-289e-443a-8eab-faa4747a6bf1"},"vehicle_type_id":"4","last_reported":1778949830,"current_range_meters":5600,"station_id":"ce4bhh92rcd13ifvqfi0","pricing_plan_id":"cebpf4jnsgd1na2vs0mg"},{"bike_id":"1f2ef142-0059-4ee6-9c3b-bbdf112f236b","system_id":"levelo_inurba_marseille","lat":43.3055,"lon":5.36694,"is_reserved":false,"is_disabled":false,"rental_uris":{"android":"levelo://app?vid=1f2ef142-0059-4ee6-9c3b-bbdf112f236b","ios":"levelo://app?vid=1f2ef142-0059-4ee6-9c3b-bbdf112f236b"},"vehicle_type_id":"4","last_reported":1778949830,"current_range_meters":5600,"station_id":"ce4bgrp2rcd13ifvqc9g","pricing_plan_id":"cebpf4jnsgd1na2vs0mg"},{"bike_id":"6ed28fa0-f20b-450d-a789-f0b565e64f1b","system_id":"levelo_inurba_marseille","lat":43.29817,"lon":5.38306,"is_reserved":false,"is_disabled":false,"rental_uris":{"android":"levelo://app?vid=6ed28fa0-f20b-450d-a789-f0b565e64f1b","ios":"levelo://app?vid=6ed28fa0-f20b-450d-a789-f0b565e64f1b"},"vehicle_type_id":"4","last_reported":1778949830,"current_range_meters":5600,"station_id":"","pricing_plan_id":"cebpf4jnsgd1na2vs0mg"},{"bike_id":"77be32c6-7334-4a19-8590-e9e8dd731a7e","system_id":"levelo_inurba_marseille","lat":43.27964,"lon":5.3874,"is_reserved":false,"is_disabled":false,"rental_uris":{"android":"levelo://app?vid=77be32c6-7334-4a19-8590-e9e8dd731a7e","ios":"levelo://app?vid=77be32c6-7334-4a19-8590-e9e8dd731a7e"},"vehicle_type_id":"4","last_reported":1778949830,"current_range_meters":5600,"station_id":"ce4bhg12rcd13ifvqf80","pricing_plan_id":"cebpf4jnsgd1na2vs0mg"},{"bike_id":"51cef2d8-f635-4e96-81d2-15b491ea49e9","system_id":"levelo_inurba_marseille","lat":43.28487,"lon":5.38556,"is_reserved":false,"is_disabled":false,"rental_uris":{"android":"levelo://app?vid=51cef2d8-f635-4e96-81d2-15b491ea49e9","ios":"levelo://app?vid=51cef2d8-f635-4e96-81d2-15b491ea49e9"},"vehicle_type_id":"4","last_reported":1778949830,"current_range_meters":5600,"station_id":"ce4bh8p2rcd13ifvqeb0","pricing_plan_id":"cebpf4jnsgd1na2vs0mg"},{"bike_id":"34f79841-2463-4440-8c28-cca7c0d08aad","system_id":"levelo_inurba_marseille","lat":43.28364,"lon":5.38639,"is_reserved":false,"is_disabled":false,"rental_uris":{"android":"levelo://app?vid=34f79841-2463-4440-8c28-cca7c0d08aad","ios":"levelo://app?vid=34f79841-2463-4440-8c28-cca7c0d08aad"},"vehicle_type_id":"4","last_reported":1778949830,"current_range_meters":5600,"station_id":"ce4bh492rcd13ifvqdvg","pricing_plan_id":"cebpf4jnsgd1na2vs0mg"},{"bike_id":"5f8b7df0-80c2-43ec-9b7b-67e3fb849d44","system_id":"levelo_inurba_marseille","lat":43.24814,"lon":5.37456,"is_reserved":false,"is_disabled":false,"rental_uris":{"android":"levelo://app?vid=5f8b7df0-80c2-43ec-9b7b-67e3fb849d44","ios":"levelo://app?vid=5f8b7df0-80c2-43ec-9b7b-67e3fb849d44"},"vehicle_type_id":"4","last_reported":1778949830,"current_range_meters":5600,"station_id":"ce4bhgh2rcd13ifvqfb0","pricing_plan_id":"cebpf4jnsgd1na2vs0mg"},{"bike_id":"04ea3f89-d526-46df-8866-3a77acf0c254","system_id":"levelo_inurba_marseille","lat":43.28269,"lon":5.35081,"is_reserved":false,"is_disabled":true,"rental_uris":{"android":"levelo://app?vid=04ea3f89-d526-46df-8866-3a77acf0c254","ios":"levelo://app?vid=04ea3f89-d526-46df-8866-3a77acf0c254"},"vehicle_type_id":"4","last_reported":1778949830,"current_range_meters":5600,"station_id":"ce4bhbp2rcd13ifvqerg","pricing_plan_id":"cebpf4jnsgd1na2vs0mg"},{"bike_id":"c0afe38e-1b1f-4737-9474-5d6681e1c046","system_id":"levelo_inurba_marseille","lat":43.2991,"lon":5.42069,"is_reserved":false,"is_disabled":false,"rental_uris":{"android":"levelo://app?vid=c0afe38e-1b1f-4737-9474-5d6681e1c046","ios":"levelo://app?vid=c0afe38e-1b1f-4737-9474-5d6681e1c046"},"vehicle_type_id":"4","last_reported":1778949830,"current_range_meters":6000,"station_id":"st_d6tc004otcvc738tfe70","pricing_plan_id":"cebpf4jnsgd1na2vs0mg"},{"bike_id":"6f027e4d-53f1-432c-976c-a70b8a6c98ca","system_id":"levelo_inurba_marseille","lat":43.30803,"lon":5.38148,"is_reserved":false,"is_disabled":false,"rental_uris":{"android":"levelo://app?vid=6f027e4d-53f1-432c-976c-a70b8a6c98ca","ios":"levelo://app?vid=6f027e4d-53f1-432c-976c-a70b8a6c98ca"},"vehicle_type_id":"4","last_reported":1778949830,"current_range_meters":6000,"station_id":"ce4bgt12rcd13ifvqce0","pricing_plan_id":"cebpf4jnsgd1na2vs0mg"},{"bike_id":"3a4de0a9-e88c-4f9a-975f-c09457ee4b26","system_id":"levelo_inurba_marseille","lat":43.30206,"lon":5.4008,"is_reserved":false,"is_disabled":false,"rental_uris":{"android":"levelo://app?vid=3a4de0a9-e88c-4f9a-975f-c09457ee4b26","ios":"levelo://app?vid=3a4de0a9-e88c-4f9a-975f-c09457ee4b26"},"vehicle_type_id":"4","last_reported":1778949830,"current_range_meters":6000,"station_id":"ce4bgvh2rcd13ifvqcs0","pricing_plan_id":"cebpf4jnsgd1na2vs0mg"},{"bike_id":"a56a8a0c-3ab9-465a-bdae-f5897ec1f98a","system_id":"levelo_inurba_marseille","lat":43.24159,"lon":5.36399,"is_reserved":false,"is_disabled":false,"rental_uris":{"android":"levelo://app?vid=a56a8a0c-3ab9-465a-bdae-f5897ec1f98a","ios":"levelo://app?vid=a56a8a0c-3ab9-465a-bdae-f5897ec1f98a"},"vehicle_type_id":"4","last_reported":1778949830,"current_range_meters":6000,"station_id":"cpo36qri1sfpv3e86is0","pricing_plan_id":"cebpf4jnsgd1na2vs0mg"},{"bike_id":"015aad6e-f7c0-4598-9ad7-38c4d3fee62c","system_id":"levelo_inurba_marseille","lat":43.28612,"lon":5.35099,"is_reserved":false,"is_disabled":false,"rental_uris":{"android":"levelo://app?vid=015aad6e-f7c0-4598-9ad7-38c4d3fee62c","ios":"levelo://app?vid=015aad6e-f7c0-4598-9ad7-38c4d3fee62c"},"vehicle_type_id":"4","last_reported":1778949830,"current_range_meters":6000,"station_id":"ce4bhch2rcd13ifvqeug","pricing_plan_id":"cebpf4jnsgd1na2vs0mg"},{"bike_id":"c9886ab2-93c4-42fd-901d-a974f2b79eee","system_id":"levelo_inurba_marseille","lat":43.30566,"lon":5.3651,"is_reserved":false,"is_disabled":false,"rental_uris":{"android":"levelo://app?vid=c9886ab2-93c4-42fd-901d-a974f2b79eee","ios":"levelo://app?vid=c9886ab2-93c4-42fd-901d-a974f2b79eee"},"vehicle_type_id":"4","last_reported":1778949830,"current_range_meters":6000,"station_id":"ce4bgs12rcd13ifvqcag","pricing_plan_id":"cebpf4jnsgd1na2vs0mg"},{"bike_id":"c10f048f-9ab0-4d1f-8ab4-9e592acd836a","system_id":"levelo_inurba_marseille","lat":43.28254,"lon":5.35092,"is_reserved":false,"is_disabled":false,"rental_uris":{"android":"levelo://app?vid=c10f048f-9ab0-4d1f-8ab4-9e592acd836a","ios":"levelo://app?vid=c10f048f-9ab0-4d1f-8ab4-9e592acd836a"},"vehicle_type_id":"4","last_reported":1778949830,"current_range_meters":6000,"station_id":"ce4bhbp2rcd13ifvqerg","pricing_plan_id":"cebpf4jnsgd1na2vs0mg"},{"bike_id":"e885067c-41f3-4be2-ac07-1022eb60c678","system_id":"levelo_inurba_marseille","lat":43.27208,"lon":5.39176,"is_reserved":false,"is_disabled":false,"rental_uris":{"android":"levelo://app?vid=e885067c-41f3-4be2-ac07-1022eb60c678","ios":"levelo://app?vid=e885067c-41f3-4be2-ac07-1022eb60c678"},"vehicle_type_id":"4","last_reported":1778949830,"current_range_meters":6000,"station_id":"ce4bhhp2rcd13ifvqfm0","pricing_plan_id":"cebpf4jnsgd1na2vs0mg"},{"bike_id":"0e3d6e71-530b-42ba-b746-b55fa318e7af","system_id":"levelo_inurba_marseille","lat":43.28209,"lon":5.42616,"is_reserved":false,"is_disabled":false,"rental_uris":{"android":"levelo://app?vid=0e3d6e71-530b-42ba-b746-b55fa318e7af","ios":"levelo://app?vid=0e3d6e71-530b-42ba-b746-b55fa318e7af"},"vehicle_type_id":"4","last_reported":1778949830,"current_range_meters":6000,"station_id":"","pricing_plan_id":"cebpf4jnsgd1na2vs0mg"},{"bike_id":"f4dafcd0-ea2c-4cac-b5ed-309dac6e63eb","system_id":"levelo_inurba_marseille","lat":43.304408,"lon":5.397429,"is_reserved":false,"is_disabled":false,"rental_uris":{"android":"levelo://app?vid=f4dafcd0-ea2c-4cac-b5ed-309dac6e63eb","ios":"levelo://app?vid=f4dafcd0-ea2c-4cac-b5ed-309dac6e63eb"},"vehicle_type_id":"4","last_reported":1778949830,"current_range_meters":6000,"station_id":"ce4bh092rcd13ifvqd20","pricing_plan_id":"cebpf4jnsgd1na2vs0mg"},{"bike_id":"2ad2846a-1097-4c2f-8810-676e141079f4","system_id":"levelo_inurba_marseille","lat":43.296284,"lon":5.405997,"is_reserved":false,"is_disabled":false,"rental_uris":{"android":"levelo://app?vid=2ad2846a-1097-4c2f-8810-676e141079f4","ios":"levelo://app?vid=2ad2846a-1097-4c2f-8810-676e141079f4"},"vehicle_type_id":"4","last_reported":1778949830,"current_range_meters":6000,"station_id":"ce4bh0h2rcd13ifvqd60","pricing_plan_id":"cebpf4jnsgd1na2vs0mg"},{"bike_id":"56dce003-e8da-49ae-8de4-ef52c78c75b8","system_id":"levelo_inurba_marseille","lat":43.31369,"lon":5.38502,"is_reserved":false,"is_disabled":false,"rental_uris":{"android":"levelo://app?vid=56dce003-e8da-49ae-8de4-ef52c78c75b8","ios":"levelo://app?vid=56dce003-e8da-49ae-8de4-ef52c78c75b8"},"vehicle_type_id":"4","last_reported":1778949830,"current_range_meters":6000,"station_id":"ce4bgt92rcd13ifvqcf0","pricing_plan_id":"cebpf4jnsgd1na2vs0mg"},{"bike_id":"cdc9efc5-42bc-49fe-930d-f3ebccdb9ea0","system_id":"levelo_inurba_marseille","lat":43.2655,"lon":5.3905,"is_reserved":false,"is_disabled":false,"rental_uris":{"android":"levelo://app?vid=cdc9efc5-42bc-49fe-930d-f3ebccdb9ea0","ios":"levelo://app?vid=cdc9efc5-42bc-49fe-930d-f3ebccdb9ea0"},"vehicle_type_id":"4","last_reported":1778949830,"current_range_meters":6000,"station_id":"ce4bhe12rcd13ifvqf30","pricing_plan_id":"cebpf4jnsgd1na2vs0mg"},{"bike_id":"bfc5472b-f889-4724-8b2d-ee24aa71f8de","system_id":"levelo_inurba_marseille","lat":43.272062,"lon":5.391867,"is_reserved":false,"is_disabled":false,"rental_uris":{"android":"levelo://app?vid=bfc5472b-f889-4724-8b2d-ee24aa71f8de","ios":"levelo://app?vid=bfc5472b-f889-4724-8b2d-ee24aa71f8de"},"vehicle_type_id":"4","last_reported":1778949830,"current_range_meters":6000,"station_id":"ce4bhhp2rcd13ifvqfm0","pricing_plan_id":"cebpf4jnsgd1na2vs0mg"},{"bike_id":"3bc3e170-b70d-464e-a0fc-26e24f8aea12","system_id":"levelo_inurba_marseille","lat":43.23962,"lon":5.36633,"is_reserved":false,"is_disabled":false,"rental_uris":{"android":"levelo://app?vid=3bc3e170-b70d-464e-a0fc-26e24f8aea12","ios":"levelo://app?vid=3bc3e170-b70d-464e-a0fc-26e24f8aea12"},"vehicle_type_id":"4","last_reported":1778949830,"current_range_meters":6000,"station_id":"ce4bhi12rcd13ifvqfp0","pricing_plan_id":"cebpf4jnsgd1na2vs0mg"},{"bike_id":"bc747e57-9484-4394-82e6-21ad3e4cd79a","system_id":"levelo_inurba_marseille","lat":43.25553,"lon":5.39792,"is_reserved":false,"is_disabled":false,"rental_uris":{"android":"levelo://app?vid=bc747e57-9484-4394-82e6-21ad3e4cd79a","ios":"levelo://app?vid=bc747e57-9484-4394-82e6-21ad3e4cd79a"},"vehicle_type_id":"4","last_reported":1778949830,"current_range_meters":6000,"station_id":"","pricing_plan_id":"cebpf4jnsgd1na2vs0mg"},{"bike_id":"255a8db9-6ac5-445d-8da2-584280160595","system_id":"levelo_inurba_marseille","lat":43.29981,"lon":5.36751,"is_reserved":false,"is_disabled":false,"rental_uris":{"android":"levelo://app?vid=255a8db9-6ac5-445d-8da2-584280160595","ios":"levelo://app?vid=255a8db9-6ac5-445d-8da2-584280160595"},"vehicle_type_id":"4","last_reported":1778949830,"current_range_meters":6000,"station_id":"","pricing_plan_id":"cebpf4jnsgd1na2vs0mg"},{"bike_id":"bc5e325e-2c15-4c30-9549-b1a536a911b2","system_id":"levelo_inurba_marseille","lat":43.28614,"lon":5.35097,"is_reserved":false,"is_disabled":false,"rental_uris":{"android":"levelo://app?vid=bc5e325e-2c15-4c30-9549-b1a536a911b2","ios":"levelo://app?vid=bc5e325e-2c15-4c30-9549-b1a536a911b2"},"vehicle_type_id":"4","last_reported":1778949830,"current_range_meters":6000,"station_id":"ce4bhch2rcd13ifvqeug","pricing_plan_id":"cebpf4jnsgd1na2vs0mg"},{"bike_id":"4106c6a0-e9c6-47c7-a0da-615b43cd56e7","system_id":"levelo_inurba_marseille","lat":43.22932,"lon":5.35381,"is_reserved":false,"is_disabled":false,"rental_uris":{"android":"levelo://app?vid=4106c6a0-e9c6-47c7-a0da-615b43cd56e7","ios":"levelo://app?vid=4106c6a0-e9c6-47c7-a0da-615b43cd56e7"},"vehicle_type_id":"4","last_reported":1778949830,"current_range_meters":6000,"station_id":"cpo3532slgdg3j2ikp40","pricing_plan_id":"cebpf4jnsgd1na2vs0mg"},{"bike_id":"11cfcfb7-7cef-4ca3-94fd-d649299b0219","system_id":"levelo_inurba_marseille","lat":43.31714,"lon":5.42416,"is_reserved":false,"is_disabled":false,"rental_uris":{"android":"levelo://app?vid=11cfcfb7-7cef-4ca3-94fd-d649299b0219","ios":"levelo://app?vid=11cfcfb7-7cef-4ca3-94fd-d649299b0219"},"vehicle_type_id":"4","last_reported":1778949830,"current_range_meters":6000,"station_id":"ce4bhp92rcd13ifvqhbg","pricing_plan_id":"cebpf4jnsgd1na2vs0mg"},{"bike_id":"c56a61dd-af41-4781-8ec1-9caa2129e026","system_id":"levelo_inurba_marseille","lat":43.32515,"lon":5.41486,"is_reserved":false,"is_disabled":false,"rental_uris":{"android":"levelo://app?vid=c56a61dd-af41-4781-8ec1-9caa2129e026","ios":"levelo://app?vid=c56a61dd-af41-4781-8ec1-9caa2129e026"},"vehicle_type_id":"4","last_reported":1778949830,"current_range_meters":6000,"station_id":"ce4bhq12rcd13ifvqhhg","pricing_plan_id":"cebpf4jnsgd1na2vs0mg"},{"bike_id":"95439140-ca87-496a-8b6d-4799afa819d5","system_id":"levelo_inurba_marseille","lat":43.29716,"lon":5.37683,"is_reserved":false,"is_disabled":false,"rental_uris":{"android":"levelo://app?vid=95439140-ca87-496a-8b6d-4799afa819d5","ios":"levelo://app?vid=95439140-ca87-496a-8b6d-4799afa819d5"},"vehicle_type_id":"4","last_reported":1778949830,"current_range_meters":6000,"station_id":"ce4bgkh2rcd13ifvqbl0","pricing_plan_id":"cebpf4jnsgd1na2vs0mg"},{"bike_id":"74f12a6d-7a94-4ce3-8725-e3fbbe23ae70","system_id":"levelo_inurba_marseille","lat":43.33548,"lon":5.37461,"is_reserved":false,"is_disabled":false,"rental_uris":{"android":"levelo://app?vid=74f12a6d-7a94-4ce3-8725-e3fbbe23ae70","ios":"levelo://app?vid=74f12a6d-7a94-4ce3-8725-e3fbbe23ae70"},"vehicle_type_id":"4","last_reported":1778949830,"current_range_meters":6400,"station_id":"st_d46tts09ee8s73dlu43g","pricing_plan_id":"cebpf4jnsgd1na2vs0mg"},{"bike_id":"3fc3c44e-8e86-4a32-a94c-dffc19e84835","system_id":"levelo_inurba_marseille","lat":43.30571,"lon":5.36524,"is_reserved":false,"is_disabled":false,"rental_uris":{"android":"levelo://app?vid=3fc3c44e-8e86-4a32-a94c-dffc19e84835","ios":"levelo://app?vid=3fc3c44e-8e86-4a32-a94c-dffc19e84835"},"vehicle_type_id":"4","last_reported":1778949830,"current_range_meters":6400,"station_id":"ce4bgs12rcd13ifvqcag","pricing_plan_id":"cebpf4jnsgd1na2vs0mg"},{"bike_id":"4d31ed6e-13e0-4959-aa6c-cce6ffc3f7ff","system_id":"levelo_inurba_marseille","lat":43.27392,"lon":5.41586,"is_reserved":false,"is_disabled":false,"rental_uris":{"android":"levelo://app?vid=4d31ed6e-13e0-4959-aa6c-cce6ffc3f7ff","ios":"levelo://app?vid=4d31ed6e-13e0-4959-aa6c-cce6ffc3f7ff"},"vehicle_type_id":"4","last_reported":1778949830,"current_range_meters":6400,"station_id":"","pricing_plan_id":"cebpf4jnsgd1na2vs0mg"},{"bike_id":"e191454c-916c-4e6d-bb9a-b71fe6d913bf","system_id":"levelo_inurba_marseille","lat":43.23188,"lon":5.35563,"is_reserved":false,"is_disabled":false,"rental_uris":{"android":"levelo://app?vid=e191454c-916c-4e6d-bb9a-b71fe6d913bf","ios":"levelo://app?vid=e191454c-916c-4e6d-bb9a-b71fe6d913bf"},"vehicle_type_id":"4","last_reported":1778949830,"current_range_meters":6400,"station_id":"ce4bhu92rcd13ifvqi70","pricing_plan_id":"cebpf4jnsgd1na2vs0mg"},{"bike_id":"da3a4fd3-0bfc-45e4-b1d2-fc737f73201f","system_id":"levelo_inurba_marseille","lat":43.28257,"lon":5.35078,"is_reserved":false,"is_disabled":false,"rental_uris":{"android":"levelo://app?vid=da3a4fd3-0bfc-45e4-b1d2-fc737f73201f","ios":"levelo://app?vid=da3a4fd3-0bfc-45e4-b1d2-fc737f73201f"},"vehicle_type_id":"4","last_reported":1778949830,"current_range_meters":6400,"station_id":"ce4bhbp2rcd13ifvqerg","pricing_plan_id":"cebpf4jnsgd1na2vs0mg"},{"bike_id":"b1be6396-bccd-4c83-ad0a-37e393a16bd4","system_id":"levelo_inurba_marseille","lat":43.26804,"lon":5.39402,"is_reserved":false,"is_disabled":false,"rental_uris":{"android":"levelo://app?vid=b1be6396-bccd-4c83-ad0a-37e393a16bd4","ios":"levelo://app?vid=b1be6396-bccd-4c83-ad0a-37e393a16bd4"},"vehicle_type_id":"4","last_reported":1778949830,"current_range_meters":6400,"station_id":"ce4bhh12rcd13ifvqfg0","pricing_plan_id":"cebpf4jnsgd1na2vs0mg"},{"bike_id":"a4226b5f-0a1b-453a-b282-d93d3dcb3390","system_id":"levelo_inurba_marseille","lat":43.262282,"lon":5.404401,"is_reserved":false,"is_disabled":false,"rental_uris":{"android":"levelo://app?vid=a4226b5f-0a1b-453a-b282-d93d3dcb3390","ios":"levelo://app?vid=a4226b5f-0a1b-453a-b282-d93d3dcb3390"},"vehicle_type_id":"4","last_reported":1778949830,"current_range_meters":6400,"station_id":"ce4bhmh2rcd13ifvqgmg","pricing_plan_id":"cebpf4jnsgd1na2vs0mg"},{"bike_id":"b1a4beac-8f93-4dbd-9e0c-8293f6ae895f","system_id":"levelo_inurba_marseille","lat":43.30256,"lon":5.40058,"is_reserved":false,"is_disabled":false,"rental_uris":{"android":"levelo://app?vid=b1a4beac-8f93-4dbd-9e0c-8293f6ae895f","ios":"levelo://app?vid=b1a4beac-8f93-4dbd-9e0c-8293f6ae895f"},"vehicle_type_id":"4","last_reported":1778949830,"current_range_meters":6400,"station_id":"ce4bgvh2rcd13ifvqcs0","pricing_plan_id":"cebpf4jnsgd1na2vs0mg"},{"bike_id":"5b61ad3d-c4b3-4bf0-9170-da55ed29dbbb","system_id":"levelo_inurba_marseille","lat":43.30761,"lon":5.39342,"is_reserved":false,"is_disabled":false,"rental_uris":{"android":"levelo://app?vid=5b61ad3d-c4b3-4bf0-9170-da55ed29dbbb","ios":"levelo://app?vid=5b61ad3d-c4b3-4bf0-9170-da55ed29dbbb"},"vehicle_type_id":"4","last_reported":1778949830,"current_range_meters":6400,"station_id":"","pricing_plan_id":"cebpf4jnsgd1na2vs0mg"},{"bike_id":"9c092b99-289c-4dc6-86e2-e7504c57351f","system_id":"levelo_inurba_marseille","lat":43.21729,"lon":5.34583,"is_reserved":false,"is_disabled":false,"rental_uris":{"android":"levelo://app?vid=9c092b99-289c-4dc6-86e2-e7504c57351f","ios":"levelo://app?vid=9c092b99-289c-4dc6-86e2-e7504c57351f"},"vehicle_type_id":"4","last_reported":1778949830,"current_range_meters":6400,"station_id":"st_cvj6r9ubvosntc0bgbag","pricing_plan_id":"cebpf4jnsgd1na2vs0mg"},{"bike_id":"b645593d-f67c-4f1b-b9f9-f8e1b08f24ee","system_id":"levelo_inurba_marseille","lat":43.25101,"lon":5.41356,"is_reserved":false,"is_disabled":false,"rental_uris":{"android":"levelo://app?vid=b645593d-f67c-4f1b-b9f9-f8e1b08f24ee","ios":"levelo://app?vid=b645593d-f67c-4f1b-b9f9-f8e1b08f24ee"},"vehicle_type_id":"4","last_reported":1778949830,"current_range_meters":6400,"station_id":"","pricing_plan_id":"cebpf4jnsgd1na2vs0mg"},{"bike_id":"c645720c-2e73-49a0-a584-d7a869ab053b","system_id":"levelo_inurba_marseille","lat":43.260254,"lon":5.375444,"is_reserved":false,"is_disabled":false,"rental_uris":{"android":"levelo://app?vid=c645720c-2e73-49a0-a584-d7a869ab053b","ios":"levelo://app?vid=c645720c-2e73-49a0-a584-d7a869ab053b"},"vehicle_type_id":"4","last_reported":1778949830,"current_range_meters":6400,"station_id":"ce4bhgh2rcd13ifvqfa0","pricing_plan_id":"cebpf4jnsgd1na2vs0mg"},{"bike_id":"8b10bfe1-422f-4034-905b-3edaf991d993","system_id":"levelo_inurba_marseille","lat":43.295227,"lon":5.38534,"is_reserved":false,"is_disabled":false,"rental_uris":{"android":"levelo://app?vid=8b10bfe1-422f-4034-905b-3edaf991d993","ios":"levelo://app?vid=8b10bfe1-422f-4034-905b-3edaf991d993"},"vehicle_type_id":"4","last_reported":1778949830,"current_range_meters":6400,"station_id":"ce4bgih2rcd13ifvqba0","pricing_plan_id":"cebpf4jnsgd1na2vs0mg"},{"bike_id":"dc437964-578c-4f7a-be1e-9a5b7abec9f5","system_id":"levelo_inurba_marseille","lat":43.24526,"lon":5.37611,"is_reserved":false,"is_disabled":false,"rental_uris":{"android":"levelo://app?vid=dc437964-578c-4f7a-be1e-9a5b7abec9f5","ios":"levelo://app?vid=dc437964-578c-4f7a-be1e-9a5b7abec9f5"},"vehicle_type_id":"4","last_reported":1778949830,"current_range_meters":6400,"station_id":"","pricing_plan_id":"cebpf4jnsgd1na2vs0mg"},{"bike_id":"16c63326-b9b4-4ebf-82e7-e800135e9a1c","system_id":"levelo_inurba_marseille","lat":43.29226,"lon":5.36056,"is_reserved":false,"is_disabled":false,"rental_uris":{"android":"levelo://app?vid=16c63326-b9b4-4ebf-82e7-e800135e9a1c","ios":"levelo://app?vid=16c63326-b9b4-4ebf-82e7-e800135e9a1c"},"vehicle_type_id":"4","last_reported":1778949830,"current_range_meters":6400,"station_id":"ce4bhbh2rcd13ifvqeqg","pricing_plan_id":"cebpf4jnsgd1na2vs0mg"},{"bike_id":"629ab9ac-5669-45c1-a8f3-7e5e5940c382","system_id":"levelo_inurba_marseille","lat":43.308567,"lon":5.372951,"is_reserved":false,"is_disabled":false,"rental_uris":{"android":"levelo://app?vid=629ab9ac-5669-45c1-a8f3-7e5e5940c382","ios":"levelo://app?vid=629ab9ac-5669-45c1-a8f3-7e5e5940c382"},"vehicle_type_id":"4","last_reported":1778949830,"current_range_meters":6400,"station_id":"ce4bguh2rcd13ifvqckg","pricing_plan_id":"cebpf4jnsgd1na2vs0mg"},{"bike_id":"489a1706-c3ea-4b0e-8e98-c2ee70717ba8","system_id":"levelo_inurba_marseille","lat":43.22553,"lon":5.41624,"is_reserved":false,"is_disabled":false,"rental_uris":{"android":"levelo://app?vid=489a1706-c3ea-4b0e-8e98-c2ee70717ba8","ios":"levelo://app?vid=489a1706-c3ea-4b0e-8e98-c2ee70717ba8"},"vehicle_type_id":"4","last_reported":1778949830,"current_range_meters":6400,"station_id":"st_d2o4gvlbi1j2169b742g","pricing_plan_id":"cebpf4jnsgd1na2vs0mg"},{"bike_id":"f7543221-24ce-49d7-9e9a-813368b633f9","system_id":"levelo_inurba_marseille","lat":43.24684,"lon":5.38141,"is_reserved":false,"is_disabled":false,"rental_uris":{"android":"levelo://app?vid=f7543221-24ce-49d7-9e9a-813368b633f9","ios":"levelo://app?vid=f7543221-24ce-49d7-9e9a-813368b633f9"},"vehicle_type_id":"4","last_reported":1778949830,"current_range_meters":6400,"station_id":"ce4bhih2rcd13ifvqfr0","pricing_plan_id":"cebpf4jnsgd1na2vs0mg"},{"bike_id":"36341c1f-74e9-49c5-9176-f3e724ab8daa","system_id":"levelo_inurba_marseille","lat":43.28611,"lon":5.37064,"is_reserved":false,"is_disabled":false,"rental_uris":{"android":"levelo://app?vid=36341c1f-74e9-49c5-9176-f3e724ab8daa","ios":"levelo://app?vid=36341c1f-74e9-49c5-9176-f3e724ab8daa"},"vehicle_type_id":"4","last_reported":1778949830,"current_range_meters":6400,"station_id":"ce4bht12rcd13ifvqi60","pricing_plan_id":"cebpf4jnsgd1na2vs0mg"},{"bike_id":"c183f127-bba7-4b6d-afc6-7c12fb879d32","system_id":"levelo_inurba_marseille","lat":43.30127,"lon":5.3742,"is_reserved":false,"is_disabled":false,"rental_uris":{"android":"levelo://app?vid=c183f127-bba7-4b6d-afc6-7c12fb879d32","ios":"levelo://app?vid=c183f127-bba7-4b6d-afc6-7c12fb879d32"},"vehicle_type_id":"4","last_reported":1778949830,"current_range_meters":6400,"station_id":"ce4bgs92rcd13ifvqcc0","pricing_plan_id":"cebpf4jnsgd1na2vs0mg"},{"bike_id":"0ffdfa76-348b-4766-a53b-889a0cc53c17","system_id":"levelo_inurba_marseille","lat":43.32483,"lon":5.36571,"is_reserved":false,"is_disabled":false,"rental_uris":{"android":"levelo://app?vid=0ffdfa76-348b-4766-a53b-889a0cc53c17","ios":"levelo://app?vid=0ffdfa76-348b-4766-a53b-889a0cc53c17"},"vehicle_type_id":"4","last_reported":1778949830,"current_range_meters":6400,"station_id":"ce4bhs12rcd13ifvqhvg","pricing_plan_id":"cebpf4jnsgd1na2vs0mg"},{"bike_id":"c3df2269-14e4-466a-8a60-9d775fc34a0e","system_id":"levelo_inurba_marseille","lat":43.33595,"lon":5.41022,"is_reserved":false,"is_disabled":false,"rental_uris":{"android":"levelo://app?vid=c3df2269-14e4-466a-8a60-9d775fc34a0e","ios":"levelo://app?vid=c3df2269-14e4-466a-8a60-9d775fc34a0e"},"vehicle_type_id":"4","last_reported":1778949830,"current_range_meters":6400,"station_id":"ce4bhqh2rcd13ifvqhmg","pricing_plan_id":"cebpf4jnsgd1na2vs0mg"},{"bike_id":"dbf94776-63a1-426f-85ae-41abd5903310","system_id":"levelo_inurba_marseille","lat":43.30967,"lon":5.37635,"is_reserved":false,"is_disabled":false,"rental_uris":{"android":"levelo://app?vid=dbf94776-63a1-426f-85ae-41abd5903310","ios":"levelo://app?vid=dbf94776-63a1-426f-85ae-41abd5903310"},"vehicle_type_id":"4","last_reported":1778949830,"current_range_meters":6800,"station_id":"","pricing_plan_id":"cebpf4jnsgd1na2vs0mg"},{"bike_id":"b3d3f46d-8b61-4048-a49d-46db42a99359","system_id":"levelo_inurba_marseille","lat":43.24806,"lon":5.37424,"is_reserved":false,"is_disabled":false,"rental_uris":{"android":"levelo://app?vid=b3d3f46d-8b61-4048-a49d-46db42a99359","ios":"levelo://app?vid=b3d3f46d-8b61-4048-a49d-46db42a99359"},"vehicle_type_id":"4","last_reported":1778949830,"current_range_meters":6800,"station_id":"ce4bhgh2rcd13ifvqfb0","pricing_plan_id":"cebpf4jnsgd1na2vs0mg"},{"bike_id":"9d9da9b1-62c5-4232-8888-7d36c96bb153","system_id":"levelo_inurba_marseille","lat":43.27399,"lon":5.41548,"is_reserved":false,"is_disabled":false,"rental_uris":{"android":"levelo://app?vid=9d9da9b1-62c5-4232-8888-7d36c96bb153","ios":"levelo://app?vid=9d9da9b1-62c5-4232-8888-7d36c96bb153"},"vehicle_type_id":"4","last_reported":1778949830,"current_range_meters":6800,"station_id":"","pricing_plan_id":"cebpf4jnsgd1na2vs0mg"},{"bike_id":"9328df09-7c77-4ef9-a326-cd1cda9dd29d","system_id":"levelo_inurba_marseille","lat":43.30783,"lon":5.38507,"is_reserved":false,"is_disabled":false,"rental_uris":{"android":"levelo://app?vid=9328df09-7c77-4ef9-a326-cd1cda9dd29d","ios":"levelo://app?vid=9328df09-7c77-4ef9-a326-cd1cda9dd29d"},"vehicle_type_id":"4","last_reported":1778949830,"current_range_meters":6800,"station_id":"","pricing_plan_id":"cebpf4jnsgd1na2vs0mg"},{"bike_id":"e799d637-2cc7-4a34-b20c-3720b0d87793","system_id":"levelo_inurba_marseille","lat":43.29319,"lon":5.37172,"is_reserved":false,"is_disabled":false,"rental_uris":{"android":"levelo://app?vid=e799d637-2cc7-4a34-b20c-3720b0d87793","ios":"levelo://app?vid=e799d637-2cc7-4a34-b20c-3720b0d87793"},"vehicle_type_id":"4","last_reported":1778949830,"current_range_meters":6800,"station_id":"ce4bgh92rcd13ifvqb40","pricing_plan_id":"cebpf4jnsgd1na2vs0mg"},{"bike_id":"2c41d442-fdf6-469c-86b1-a7c33314878f","system_id":"levelo_inurba_marseille","lat":43.30398,"lon":5.41047,"is_reserved":false,"is_disabled":false,"rental_uris":{"android":"levelo://app?vid=2c41d442-fdf6-469c-86b1-a7c33314878f","ios":"levelo://app?vid=2c41d442-fdf6-469c-86b1-a7c33314878f"},"vehicle_type_id":"4","last_reported":1778949830,"current_range_meters":6800,"station_id":"","pricing_plan_id":"cebpf4jnsgd1na2vs0mg"},{"bike_id":"95d4bd31-b89c-4cb2-afa3-9e6e4ba15e30","system_id":"levelo_inurba_marseille","lat":43.25484,"lon":5.37669,"is_reserved":false,"is_disabled":false,"rental_uris":{"android":"levelo://app?vid=95d4bd31-b89c-4cb2-afa3-9e6e4ba15e30","ios":"levelo://app?vid=95d4bd31-b89c-4cb2-afa3-9e6e4ba15e30"},"vehicle_type_id":"4","last_reported":1778949830,"current_range_meters":6800,"station_id":"ce4bhh12rcd13ifvqff0","pricing_plan_id":"cebpf4jnsgd1na2vs0mg"},{"bike_id":"0b1e13ab-0578-4e0b-92e8-dc2c32478689","system_id":"levelo_inurba_marseille","lat":43.24397,"lon":5.37043,"is_reserved":false,"is_disabled":false,"rental_uris":{"android":"levelo://app?vid=0b1e13ab-0578-4e0b-92e8-dc2c32478689","ios":"levelo://app?vid=0b1e13ab-0578-4e0b-92e8-dc2c32478689"},"vehicle_type_id":"4","last_reported":1778949830,"current_range_meters":6800,"station_id":"ce4bhhh2rcd13ifvqfk0","pricing_plan_id":"cebpf4jnsgd1na2vs0mg"},{"bike_id":"b9fc383d-7675-4ac1-96a8-b14863e064c9","system_id":"levelo_inurba_marseille","lat":43.31304,"lon":5.37269,"is_reserved":false,"is_disabled":false,"rental_uris":{"android":"levelo://app?vid=b9fc383d-7675-4ac1-96a8-b14863e064c9","ios":"levelo://app?vid=b9fc383d-7675-4ac1-96a8-b14863e064c9"},"vehicle_type_id":"4","last_reported":1778949830,"current_range_meters":6800,"station_id":"","pricing_plan_id":"cebpf4jnsgd1na2vs0mg"},{"bike_id":"cdb9871a-e01f-4e73-b2a2-8e2a287c8553","system_id":"levelo_inurba_marseille","lat":43.297913,"lon":5.381041,"is_reserved":false,"is_disabled":false,"rental_uris":{"android":"levelo://app?vid=cdb9871a-e01f-4e73-b2a2-8e2a287c8553","ios":"levelo://app?vid=cdb9871a-e01f-4e73-b2a2-8e2a287c8553"},"vehicle_type_id":"4","last_reported":1778949830,"current_range_meters":6800,"station_id":"ce4bgip2rcd13ifvqbb0","pricing_plan_id":"cebpf4jnsgd1na2vs0mg"},{"bike_id":"b8d7effd-1f65-46b7-b1aa-0db44d9a195b","system_id":"levelo_inurba_marseille","lat":43.33025,"lon":5.39012,"is_reserved":false,"is_disabled":false,"rental_uris":{"android":"levelo://app?vid=b8d7effd-1f65-46b7-b1aa-0db44d9a195b","ios":"levelo://app?vid=b8d7effd-1f65-46b7-b1aa-0db44d9a195b"},"vehicle_type_id":"4","last_reported":1778949830,"current_range_meters":6800,"station_id":"ce4bhr92rcd13ifvqhrg","pricing_plan_id":"cebpf4jnsgd1na2vs0mg"},{"bike_id":"dca08c5c-65aa-4be5-b882-b94870c8a90e","system_id":"levelo_inurba_marseille","lat":43.30413,"lon":5.41281,"is_reserved":false,"is_disabled":true,"rental_uris":{"android":"levelo://app?vid=dca08c5c-65aa-4be5-b882-b94870c8a90e","ios":"levelo://app?vid=dca08c5c-65aa-4be5-b882-b94870c8a90e"},"vehicle_type_id":"4","last_reported":1778949830,"current_range_meters":6800,"station_id":"ce4bhop2rcd13ifvqh8g","pricing_plan_id":"cebpf4jnsgd1na2vs0mg"},{"bike_id":"38347fcf-c817-4f42-8b26-d65aa84a5e4c","system_id":"levelo_inurba_marseille","lat":43.279746,"lon":5.387537,"is_reserved":false,"is_disabled":false,"rental_uris":{"android":"levelo://app?vid=38347fcf-c817-4f42-8b26-d65aa84a5e4c","ios":"levelo://app?vid=38347fcf-c817-4f42-8b26-d65aa84a5e4c"},"vehicle_type_id":"4","last_reported":1778949830,"current_range_meters":6800,"station_id":"ce4bhg12rcd13ifvqf80","pricing_plan_id":"cebpf4jnsgd1na2vs0mg"},{"bike_id":"e3731a1c-7390-4a6e-b1bd-d37a705f0a37","system_id":"levelo_inurba_marseille","lat":43.25085,"lon":5.39525,"is_reserved":false,"is_disabled":false,"rental_uris":{"android":"levelo://app?vid=e3731a1c-7390-4a6e-b1bd-d37a705f0a37","ios":"levelo://app?vid=e3731a1c-7390-4a6e-b1bd-d37a705f0a37"},"vehicle_type_id":"4","last_reported":1778949830,"current_range_meters":6800,"station_id":"ce4bhm12rcd13ifvqgkg","pricing_plan_id":"cebpf4jnsgd1na2vs0mg"},{"bike_id":"810ef53a-5aff-49f3-99db-34213da1b1cf","system_id":"levelo_inurba_marseille","lat":43.28699,"lon":5.46682,"is_reserved":false,"is_disabled":false,"rental_uris":{"android":"levelo://app?vid=810ef53a-5aff-49f3-99db-34213da1b1cf","ios":"levelo://app?vid=810ef53a-5aff-49f3-99db-34213da1b1cf"},"vehicle_type_id":"4","last_reported":1778949830,"current_range_meters":6800,"station_id":"st_d6tc3vkotcvc738tfjhg","pricing_plan_id":"cebpf4jnsgd1na2vs0mg"},{"bike_id":"275452fa-49c7-4ee3-b3e6-44621052e7fd","system_id":"levelo_inurba_marseille","lat":43.28405,"lon":5.34994,"is_reserved":false,"is_disabled":false,"rental_uris":{"android":"levelo://app?vid=275452fa-49c7-4ee3-b3e6-44621052e7fd","ios":"levelo://app?vid=275452fa-49c7-4ee3-b3e6-44621052e7fd"},"vehicle_type_id":"4","last_reported":1778949830,"current_range_meters":6800,"station_id":"ce4bhbh2rcd13ifvqepg","pricing_plan_id":"cebpf4jnsgd1na2vs0mg"},{"bike_id":"b5700011-a486-4e56-b8fb-207aaf85d4db","system_id":"levelo_inurba_marseille","lat":43.318948,"lon":5.367967,"is_reserved":false,"is_disabled":false,"rental_uris":{"android":"levelo://app?vid=b5700011-a486-4e56-b8fb-207aaf85d4db","ios":"levelo://app?vid=b5700011-a486-4e56-b8fb-207aaf85d4db"},"vehicle_type_id":"4","last_reported":1778949830,"current_range_meters":6800,"station_id":"st_d6o2h0d0559c73evc1b0","pricing_plan_id":"cebpf4jnsgd1na2vs0mg"},{"bike_id":"d1f3b13b-a61c-41fc-b986-79acc9b16fe8","system_id":"levelo_inurba_marseille","lat":43.28531,"lon":5.44094,"is_reserved":false,"is_disabled":false,"rental_uris":{"android":"levelo://app?vid=d1f3b13b-a61c-41fc-b986-79acc9b16fe8","ios":"levelo://app?vid=d1f3b13b-a61c-41fc-b986-79acc9b16fe8"},"vehicle_type_id":"4","last_reported":1778949830,"current_range_meters":6800,"station_id":"st_d3j3df2ikq2c7380ej80","pricing_plan_id":"cebpf4jnsgd1na2vs0mg"},{"bike_id":"4ec959dd-1de1-448f-b442-aa2685dcb0b4","system_id":"levelo_inurba_marseille","lat":43.31203,"lon":5.36841,"is_reserved":false,"is_disabled":false,"rental_uris":{"android":"levelo://app?vid=4ec959dd-1de1-448f-b442-aa2685dcb0b4","ios":"levelo://app?vid=4ec959dd-1de1-448f-b442-aa2685dcb0b4"},"vehicle_type_id":"4","last_reported":1778949830,"current_range_meters":6800,"station_id":"ce4bgl92rcd13ifvqbq0","pricing_plan_id":"cebpf4jnsgd1na2vs0mg"},{"bike_id":"7ff78075-211f-45ec-baa1-c209955c61e2","system_id":"levelo_inurba_marseille","lat":43.285398,"lon":5.441061,"is_reserved":false,"is_disabled":false,"rental_uris":{"android":"levelo://app?vid=7ff78075-211f-45ec-baa1-c209955c61e2","ios":"levelo://app?vid=7ff78075-211f-45ec-baa1-c209955c61e2"},"vehicle_type_id":"4","last_reported":1778949830,"current_range_meters":6800,"station_id":"st_d3j3df2ikq2c7380ej80","pricing_plan_id":"cebpf4jnsgd1na2vs0mg"},{"bike_id":"60661d47-94a4-4050-af8f-9c9853360978","system_id":"levelo_inurba_marseille","lat":43.30132,"lon":5.38793,"is_reserved":false,"is_disabled":false,"rental_uris":{"android":"levelo://app?vid=60661d47-94a4-4050-af8f-9c9853360978","ios":"levelo://app?vid=60661d47-94a4-4050-af8f-9c9853360978"},"vehicle_type_id":"4","last_reported":1778949830,"current_range_meters":6800,"station_id":"ce4bghh2rcd13ifvqb60","pricing_plan_id":"cebpf4jnsgd1na2vs0mg"},{"bike_id":"c3a97cf6-6e05-4b97-815b-cd0b39be2e04","system_id":"levelo_inurba_marseille","lat":43.29026,"lon":5.38647,"is_reserved":false,"is_disabled":false,"rental_uris":{"android":"levelo://app?vid=c3a97cf6-6e05-4b97-815b-cd0b39be2e04","ios":"levelo://app?vid=c3a97cf6-6e05-4b97-815b-cd0b39be2e04"},"vehicle_type_id":"4","last_reported":1778949830,"current_range_meters":6800,"station_id":"ce4bh4p2rcd13ifvqe0g","pricing_plan_id":"cebpf4jnsgd1na2vs0mg"},{"bike_id":"00480880-79e5-4a67-b696-233f0844d881","system_id":"levelo_inurba_marseille","lat":43.299713,"lon":5.37179,"is_reserved":false,"is_disabled":true,"rental_uris":{"android":"levelo://app?vid=00480880-79e5-4a67-b696-233f0844d881","ios":"levelo://app?vid=00480880-79e5-4a67-b696-233f0844d881"},"vehicle_type_id":"4","last_reported":1778949830,"current_range_meters":6800,"station_id":"ce4bgr92rcd13ifvqc7g","pricing_plan_id":"cebpf4jnsgd1na2vs0mg"},{"bike_id":"698b85c5-bf11-437e-913f-7d2243a0f74a","system_id":"levelo_inurba_marseille","lat":43.26227,"lon":5.37573,"is_reserved":false,"is_disabled":false,"rental_uris":{"android":"levelo://app?vid=698b85c5-bf11-437e-913f-7d2243a0f74a","ios":"levelo://app?vid=698b85c5-bf11-437e-913f-7d2243a0f74a"},"vehicle_type_id":"4","last_reported":1778949830,"current_range_meters":6800,"station_id":"","pricing_plan_id":"cebpf4jnsgd1na2vs0mg"},{"bike_id":"f44e1e35-93ab-48d3-a892-5530dae404d2","system_id":"levelo_inurba_marseille","lat":43.29214,"lon":5.36067,"is_reserved":false,"is_disabled":false,"rental_uris":{"android":"levelo://app?vid=f44e1e35-93ab-48d3-a892-5530dae404d2","ios":"levelo://app?vid=f44e1e35-93ab-48d3-a892-5530dae404d2"},"vehicle_type_id":"4","last_reported":1778949830,"current_range_meters":6800,"station_id":"ce4bhbh2rcd13ifvqeqg","pricing_plan_id":"cebpf4jnsgd1na2vs0mg"},{"bike_id":"32452ea3-b3f6-43d8-933b-ecf0082c0b6e","system_id":"levelo_inurba_marseille","lat":43.22565,"lon":5.41615,"is_reserved":false,"is_disabled":false,"rental_uris":{"android":"levelo://app?vid=32452ea3-b3f6-43d8-933b-ecf0082c0b6e","ios":"levelo://app?vid=32452ea3-b3f6-43d8-933b-ecf0082c0b6e"},"vehicle_type_id":"4","last_reported":1778949830,"current_range_meters":7200,"station_id":"st_d2o4gvlbi1j2169b742g","pricing_plan_id":"cebpf4jnsgd1na2vs0mg"},{"bike_id":"b467cf52-e84d-42b9-ad71-bed97235ec79","system_id":"levelo_inurba_marseille","lat":43.29741,"lon":5.37641,"is_reserved":false,"is_disabled":false,"rental_uris":{"android":"levelo://app?vid=b467cf52-e84d-42b9-ad71-bed97235ec79","ios":"levelo://app?vid=b467cf52-e84d-42b9-ad71-bed97235ec79"},"vehicle_type_id":"4","last_reported":1778949830,"current_range_meters":7200,"station_id":"","pricing_plan_id":"cebpf4jnsgd1na2vs0mg"},{"bike_id":"52420c1a-39f8-4991-bafd-b6e56662fa9f","system_id":"levelo_inurba_marseille","lat":43.26544,"lon":5.37285,"is_reserved":false,"is_disabled":false,"rental_uris":{"android":"levelo://app?vid=52420c1a-39f8-4991-bafd-b6e56662fa9f","ios":"levelo://app?vid=52420c1a-39f8-4991-bafd-b6e56662fa9f"},"vehicle_type_id":"4","last_reported":1778949830,"current_range_meters":7200,"station_id":"ce4bhg12rcd13ifvqf70","pricing_plan_id":"cebpf4jnsgd1na2vs0mg"},{"bike_id":"7fd7c1bb-0ed2-4eb7-959c-daab2eec52f3","system_id":"levelo_inurba_marseille","lat":43.24538,"lon":5.39532,"is_reserved":false,"is_disabled":false,"rental_uris":{"android":"levelo://app?vid=7fd7c1bb-0ed2-4eb7-959c-daab2eec52f3","ios":"levelo://app?vid=7fd7c1bb-0ed2-4eb7-959c-daab2eec52f3"},"vehicle_type_id":"4","last_reported":1778949830,"current_range_meters":7200,"station_id":"ce4bhlp2rcd13ifvqgjg","pricing_plan_id":"cebpf4jnsgd1na2vs0mg"},{"bike_id":"4098dc24-1687-4bf4-bf34-a5a5cfed27be","system_id":"levelo_inurba_marseille","lat":43.25019,"lon":5.38909,"is_reserved":false,"is_disabled":false,"rental_uris":{"android":"levelo://app?vid=4098dc24-1687-4bf4-bf34-a5a5cfed27be","ios":"levelo://app?vid=4098dc24-1687-4bf4-bf34-a5a5cfed27be"},"vehicle_type_id":"4","last_reported":1778949830,"current_range_meters":7200,"station_id":"ce4bhgp2rcd13ifvqfd0","pricing_plan_id":"cebpf4jnsgd1na2vs0mg"},{"bike_id":"616353f1-4754-4f57-9465-e46d49d24354","system_id":"levelo_inurba_marseille","lat":43.33636,"lon":5.36298,"is_reserved":false,"is_disabled":false,"rental_uris":{"android":"levelo://app?vid=616353f1-4754-4f57-9465-e46d49d24354","ios":"levelo://app?vid=616353f1-4754-4f57-9465-e46d49d24354"},"vehicle_type_id":"4","last_reported":1778949830,"current_range_meters":7200,"station_id":"","pricing_plan_id":"cebpf4jnsgd1na2vs0mg"},{"bike_id":"1124e8ed-181a-445d-9220-36e963831e6c","system_id":"levelo_inurba_marseille","lat":43.23909,"lon":5.37476,"is_reserved":false,"is_disabled":true,"rental_uris":{"android":"levelo://app?vid=1124e8ed-181a-445d-9220-36e963831e6c","ios":"levelo://app?vid=1124e8ed-181a-445d-9220-36e963831e6c"},"vehicle_type_id":"4","last_reported":1778949830,"current_range_meters":7200,"station_id":"st_d6sm7csbq4hs73f8fpjg","pricing_plan_id":"cebpf4jnsgd1na2vs0mg"},{"bike_id":"4ee69d41-30d6-469e-829a-74d2ce79aff4","system_id":"levelo_inurba_marseille","lat":43.33542,"lon":5.37457,"is_reserved":false,"is_disabled":false,"rental_uris":{"android":"levelo://app?vid=4ee69d41-30d6-469e-829a-74d2ce79aff4","ios":"levelo://app?vid=4ee69d41-30d6-469e-829a-74d2ce79aff4"},"vehicle_type_id":"4","last_reported":1778949830,"current_range_meters":7200,"station_id":"st_d46tts09ee8s73dlu43g","pricing_plan_id":"cebpf4jnsgd1na2vs0mg"},{"bike_id":"62229565-84ad-4fd2-8087-5f7f524ac55d","system_id":"levelo_inurba_marseille","lat":43.28712,"lon":5.37936,"is_reserved":false,"is_disabled":false,"rental_uris":{"android":"levelo://app?vid=62229565-84ad-4fd2-8087-5f7f524ac55d","ios":"levelo://app?vid=62229565-84ad-4fd2-8087-5f7f524ac55d"},"vehicle_type_id":"4","last_reported":1778949830,"current_range_meters":7200,"station_id":"ce4bh9p2rcd13ifvqec0","pricing_plan_id":"cebpf4jnsgd1na2vs0mg"},{"bike_id":"aacdcdf7-b360-4377-8b1c-68eb4840471d","system_id":"levelo_inurba_marseille","lat":43.29005,"lon":5.35609,"is_reserved":false,"is_disabled":false,"rental_uris":{"android":"levelo://app?vid=aacdcdf7-b360-4377-8b1c-68eb4840471d","ios":"levelo://app?vid=aacdcdf7-b360-4377-8b1c-68eb4840471d"},"vehicle_type_id":"4","last_reported":1778949830,"current_range_meters":7200,"station_id":"ce4bhb92rcd13ifvqen0","pricing_plan_id":"cebpf4jnsgd1na2vs0mg"},{"bike_id":"9a293556-a470-4ba2-9f0d-b6e0856faf50","system_id":"levelo_inurba_marseille","lat":43.23193,"lon":5.3555,"is_reserved":false,"is_disabled":false,"rental_uris":{"android":"levelo://app?vid=9a293556-a470-4ba2-9f0d-b6e0856faf50","ios":"levelo://app?vid=9a293556-a470-4ba2-9f0d-b6e0856faf50"},"vehicle_type_id":"4","last_reported":1778949830,"current_range_meters":7200,"station_id":"ce4bhu92rcd13ifvqi70","pricing_plan_id":"cebpf4jnsgd1na2vs0mg"},{"bike_id":"edd5c786-8d24-46bc-bdcd-f0f00a11c1c1","system_id":"levelo_inurba_marseille","lat":43.25509,"lon":5.37666,"is_reserved":false,"is_disabled":true,"rental_uris":{"android":"levelo://app?vid=edd5c786-8d24-46bc-bdcd-f0f00a11c1c1","ios":"levelo://app?vid=edd5c786-8d24-46bc-bdcd-f0f00a11c1c1"},"vehicle_type_id":"4","last_reported":1778949830,"current_range_meters":7200,"station_id":"ce4bhh12rcd13ifvqff0","pricing_plan_id":"cebpf4jnsgd1na2vs0mg"},{"bike_id":"5fbc1da3-1ded-4fb9-ad8c-f5192ccb0215","system_id":"levelo_inurba_marseille","lat":43.22932,"lon":5.35377,"is_reserved":false,"is_disabled":false,"rental_uris":{"android":"levelo://app?vid=5fbc1da3-1ded-4fb9-ad8c-f5192ccb0215","ios":"levelo://app?vid=5fbc1da3-1ded-4fb9-ad8c-f5192ccb0215"},"vehicle_type_id":"4","last_reported":1778949830,"current_range_meters":7200,"station_id":"cpo3532slgdg3j2ikp40","pricing_plan_id":"cebpf4jnsgd1na2vs0mg"},{"bike_id":"b933df25-6fe6-48ee-8eb1-6dc2cacb8738","system_id":"levelo_inurba_marseille","lat":43.25558,"lon":5.39787,"is_reserved":false,"is_disabled":false,"rental_uris":{"android":"levelo://app?vid=b933df25-6fe6-48ee-8eb1-6dc2cacb8738","ios":"levelo://app?vid=b933df25-6fe6-48ee-8eb1-6dc2cacb8738"},"vehicle_type_id":"4","last_reported":1778949830,"current_range_meters":7200,"station_id":"","pricing_plan_id":"cebpf4jnsgd1na2vs0mg"},{"bike_id":"80b26f32-3b64-4de6-a97b-918c008994df","system_id":"levelo_inurba_marseille","lat":43.28415,"lon":5.35014,"is_reserved":false,"is_disabled":false,"rental_uris":{"android":"levelo://app?vid=80b26f32-3b64-4de6-a97b-918c008994df","ios":"levelo://app?vid=80b26f32-3b64-4de6-a97b-918c008994df"},"vehicle_type_id":"4","last_reported":1778949830,"current_range_meters":7200,"station_id":"ce4bhbh2rcd13ifvqepg","pricing_plan_id":"cebpf4jnsgd1na2vs0mg"},{"bike_id":"476ec896-6aed-448d-84e8-cbea548b3e3b","system_id":"levelo_inurba_marseille","lat":43.24464,"lon":5.42537,"is_reserved":false,"is_disabled":false,"rental_uris":{"android":"levelo://app?vid=476ec896-6aed-448d-84e8-cbea548b3e3b","ios":"levelo://app?vid=476ec896-6aed-448d-84e8-cbea548b3e3b"},"vehicle_type_id":"4","last_reported":1778949830,"current_range_meters":7200,"station_id":"st_d4a3vfp97mjs738cd8kg","pricing_plan_id":"cebpf4jnsgd1na2vs0mg"},{"bike_id":"d6624651-a79c-4e5c-86e5-f4159f83cec1","system_id":"levelo_inurba_marseille","lat":43.2718,"lon":5.40986,"is_reserved":false,"is_disabled":false,"rental_uris":{"android":"levelo://app?vid=d6624651-a79c-4e5c-86e5-f4159f83cec1","ios":"levelo://app?vid=d6624651-a79c-4e5c-86e5-f4159f83cec1"},"vehicle_type_id":"4","last_reported":1778949830,"current_range_meters":7200,"station_id":"ce4bhl12rcd13ifvqgf0","pricing_plan_id":"cebpf4jnsgd1na2vs0mg"},{"bike_id":"1aebc2f9-0b8f-4aef-b8a6-8f194d72f694","system_id":"levelo_inurba_marseille","lat":43.27851,"lon":5.38676,"is_reserved":false,"is_disabled":false,"rental_uris":{"android":"levelo://app?vid=1aebc2f9-0b8f-4aef-b8a6-8f194d72f694","ios":"levelo://app?vid=1aebc2f9-0b8f-4aef-b8a6-8f194d72f694"},"vehicle_type_id":"4","last_reported":1778949830,"current_range_meters":7200,"station_id":"","pricing_plan_id":"cebpf4jnsgd1na2vs0mg"},{"bike_id":"ee15264c-c5fd-4c69-a06f-329fd6fb9d0d","system_id":"levelo_inurba_marseille","lat":43.30121,"lon":5.43116,"is_reserved":false,"is_disabled":false,"rental_uris":{"android":"levelo://app?vid=ee15264c-c5fd-4c69-a06f-329fd6fb9d0d","ios":"levelo://app?vid=ee15264c-c5fd-4c69-a06f-329fd6fb9d0d"},"vehicle_type_id":"4","last_reported":1778949830,"current_range_meters":7200,"station_id":"st_d3js3co5814s73ftftug","pricing_plan_id":"cebpf4jnsgd1na2vs0mg"},{"bike_id":"aa059f2b-776c-4792-a39b-640afaab22d3","system_id":"levelo_inurba_marseille","lat":43.30165,"lon":5.366124,"is_reserved":false,"is_disabled":false,"rental_uris":{"android":"levelo://app?vid=aa059f2b-776c-4792-a39b-640afaab22d3","ios":"levelo://app?vid=aa059f2b-776c-4792-a39b-640afaab22d3"},"vehicle_type_id":"4","last_reported":1778949830,"current_range_meters":7200,"station_id":"ce4bgrh2rcd13ifvqc8g","pricing_plan_id":"cebpf4jnsgd1na2vs0mg"},{"bike_id":"fea54104-bb98-4d6d-b765-f71a537f5666","system_id":"levelo_inurba_marseille","lat":43.23539,"lon":5.4069,"is_reserved":false,"is_disabled":false,"rental_uris":{"android":"levelo://app?vid=fea54104-bb98-4d6d-b765-f71a537f5666","ios":"levelo://app?vid=fea54104-bb98-4d6d-b765-f71a537f5666"},"vehicle_type_id":"4","last_reported":1778949830,"current_range_meters":7200,"station_id":"","pricing_plan_id":"cebpf4jnsgd1na2vs0mg"},{"bike_id":"ff38a1f7-f955-4bcd-b862-199b84ac3c08","system_id":"levelo_inurba_marseille","lat":43.29274,"lon":5.36843,"is_reserved":false,"is_disabled":false,"rental_uris":{"android":"levelo://app?vid=ff38a1f7-f955-4bcd-b862-199b84ac3c08","ios":"levelo://app?vid=ff38a1f7-f955-4bcd-b862-199b84ac3c08"},"vehicle_type_id":"4","last_reported":1778949830,"current_range_meters":7200,"station_id":"ce4bhbp2rcd13ifvqesg","pricing_plan_id":"cebpf4jnsgd1na2vs0mg"},{"bike_id":"ed98d167-3849-4c68-bef9-bd5eb7c8a84f","system_id":"levelo_inurba_marseille","lat":43.30935,"lon":5.40142,"is_reserved":false,"is_disabled":false,"rental_uris":{"android":"levelo://app?vid=ed98d167-3849-4c68-bef9-bd5eb7c8a84f","ios":"levelo://app?vid=ed98d167-3849-4c68-bef9-bd5eb7c8a84f"},"vehicle_type_id":"4","last_reported":1778949830,"current_range_meters":7200,"station_id":"ce4bgvp2rcd13ifvqct0","pricing_plan_id":"cebpf4jnsgd1na2vs0mg"},{"bike_id":"4ba23e49-cfc6-492f-907f-3849598ef453","system_id":"levelo_inurba_marseille","lat":43.246495,"lon":5.388875,"is_reserved":false,"is_disabled":false,"rental_uris":{"android":"levelo://app?vid=4ba23e49-cfc6-492f-907f-3849598ef453","ios":"levelo://app?vid=4ba23e49-cfc6-492f-907f-3849598ef453"},"vehicle_type_id":"4","last_reported":1778949830,"current_range_meters":7200,"station_id":"ce4bhg12rcd13ifvqf60","pricing_plan_id":"cebpf4jnsgd1na2vs0mg"},{"bike_id":"c81abe82-26e7-4139-8c31-76d965e54652","system_id":"levelo_inurba_marseille","lat":43.2927,"lon":5.36841,"is_reserved":false,"is_disabled":false,"rental_uris":{"android":"levelo://app?vid=c81abe82-26e7-4139-8c31-76d965e54652","ios":"levelo://app?vid=c81abe82-26e7-4139-8c31-76d965e54652"},"vehicle_type_id":"4","last_reported":1778949830,"current_range_meters":7200,"station_id":"ce4bhbp2rcd13ifvqesg","pricing_plan_id":"cebpf4jnsgd1na2vs0mg"},{"bike_id":"c091a819-21d8-46ac-8161-23f60b78cf02","system_id":"levelo_inurba_marseille","lat":43.27611,"lon":5.36101,"is_reserved":false,"is_disabled":true,"rental_uris":{"android":"levelo://app?vid=c091a819-21d8-46ac-8161-23f60b78cf02","ios":"levelo://app?vid=c091a819-21d8-46ac-8161-23f60b78cf02"},"vehicle_type_id":"4","last_reported":1778949830,"current_range_meters":8000,"station_id":"ce4bgj92rcd13ifvqbe0","pricing_plan_id":"cebpf4jnsgd1na2vs0mg"},{"bike_id":"2afb1c43-c4ae-4dbf-a94b-bbd6e75c31b0","system_id":"levelo_inurba_marseille","lat":43.29676,"lon":5.37705,"is_reserved":false,"is_disabled":false,"rental_uris":{"android":"levelo://app?vid=2afb1c43-c4ae-4dbf-a94b-bbd6e75c31b0","ios":"levelo://app?vid=2afb1c43-c4ae-4dbf-a94b-bbd6e75c31b0"},"vehicle_type_id":"4","last_reported":1778949830,"current_range_meters":8000,"station_id":"ce4bgkh2rcd13ifvqbl0","pricing_plan_id":"cebpf4jnsgd1na2vs0mg"},{"bike_id":"df3b4c65-b594-43d2-9619-bf34b1560986","system_id":"levelo_inurba_marseille","lat":43.33537,"lon":5.37455,"is_reserved":false,"is_disabled":false,"rental_uris":{"android":"levelo://app?vid=df3b4c65-b594-43d2-9619-bf34b1560986","ios":"levelo://app?vid=df3b4c65-b594-43d2-9619-bf34b1560986"},"vehicle_type_id":"4","last_reported":1778949830,"current_range_meters":8000,"station_id":"st_d46tts09ee8s73dlu43g","pricing_plan_id":"cebpf4jnsgd1na2vs0mg"},{"bike_id":"71d8883a-749d-4707-bd31-0fa5a9631e84","system_id":"levelo_inurba_marseille","lat":43.26695,"lon":5.38257,"is_reserved":false,"is_disabled":false,"rental_uris":{"android":"levelo://app?vid=71d8883a-749d-4707-bd31-0fa5a9631e84","ios":"levelo://app?vid=71d8883a-749d-4707-bd31-0fa5a9631e84"},"vehicle_type_id":"4","last_reported":1778949830,"current_range_meters":8000,"station_id":"ce4bhg92rcd13ifvqf90","pricing_plan_id":"cebpf4jnsgd1na2vs0mg"},{"bike_id":"59413434-8e27-4052-9f9c-bf44c763c137","system_id":"levelo_inurba_marseille","lat":43.286112,"lon":5.370621,"is_reserved":false,"is_disabled":false,"rental_uris":{"android":"levelo://app?vid=59413434-8e27-4052-9f9c-bf44c763c137","ios":"levelo://app?vid=59413434-8e27-4052-9f9c-bf44c763c137"},"vehicle_type_id":"4","last_reported":1778949830,"current_range_meters":8000,"station_id":"ce4bht12rcd13ifvqi60","pricing_plan_id":"cebpf4jnsgd1na2vs0mg"},{"bike_id":"ef20a65f-19f4-4491-8360-61efaea0f2fe","system_id":"levelo_inurba_marseille","lat":43.27669,"lon":5.41406,"is_reserved":false,"is_disabled":false,"rental_uris":{"android":"levelo://app?vid=ef20a65f-19f4-4491-8360-61efaea0f2fe","ios":"levelo://app?vid=ef20a65f-19f4-4491-8360-61efaea0f2fe"},"vehicle_type_id":"4","last_reported":1778949830,"current_range_meters":8000,"station_id":"","pricing_plan_id":"cebpf4jnsgd1na2vs0mg"},{"bike_id":"93e8251a-d9a5-4eaa-a5c8-6000219e882f","system_id":"levelo_inurba_marseille","lat":43.29618,"lon":5.37164,"is_reserved":false,"is_disabled":false,"rental_uris":{"android":"levelo://app?vid=93e8251a-d9a5-4eaa-a5c8-6000219e882f","ios":"levelo://app?vid=93e8251a-d9a5-4eaa-a5c8-6000219e882f"},"vehicle_type_id":"4","last_reported":1778949830,"current_range_meters":8000,"station_id":"ce4bgnh2rcd13ifvqc0g","pricing_plan_id":"cebpf4jnsgd1na2vs0mg"},{"bike_id":"11e2919b-950e-417b-8e1c-328de05206a0","system_id":"levelo_inurba_marseille","lat":43.27977,"lon":5.38745,"is_reserved":false,"is_disabled":false,"rental_uris":{"android":"levelo://app?vid=11e2919b-950e-417b-8e1c-328de05206a0","ios":"levelo://app?vid=11e2919b-950e-417b-8e1c-328de05206a0"},"vehicle_type_id":"4","last_reported":1778949830,"current_range_meters":8000,"station_id":"ce4bhg12rcd13ifvqf80","pricing_plan_id":"cebpf4jnsgd1na2vs0mg"},{"bike_id":"c83b10ba-3d1b-4a9d-91eb-88d3d34af951","system_id":"levelo_inurba_marseille","lat":43.23782,"lon":5.3662,"is_reserved":false,"is_disabled":false,"rental_uris":{"android":"levelo://app?vid=c83b10ba-3d1b-4a9d-91eb-88d3d34af951","ios":"levelo://app?vid=c83b10ba-3d1b-4a9d-91eb-88d3d34af951"},"vehicle_type_id":"4","last_reported":1778949830,"current_range_meters":8000,"station_id":"st_d3nk18o9ro0c73en2l3g","pricing_plan_id":"cebpf4jnsgd1na2vs0mg"},{"bike_id":"549e5d1e-655f-4e05-b23c-cd38283be79b","system_id":"levelo_inurba_marseille","lat":43.26551,"lon":5.372855,"is_reserved":false,"is_disabled":false,"rental_uris":{"android":"levelo://app?vid=549e5d1e-655f-4e05-b23c-cd38283be79b","ios":"levelo://app?vid=549e5d1e-655f-4e05-b23c-cd38283be79b"},"vehicle_type_id":"4","last_reported":1778949830,"current_range_meters":8000,"station_id":"ce4bhg12rcd13ifvqf70","pricing_plan_id":"cebpf4jnsgd1na2vs0mg"},{"bike_id":"e1245ae9-0940-45ed-a688-011f8568682a","system_id":"levelo_inurba_marseille","lat":43.2603,"lon":5.37546,"is_reserved":false,"is_disabled":false,"rental_uris":{"android":"levelo://app?vid=e1245ae9-0940-45ed-a688-011f8568682a","ios":"levelo://app?vid=e1245ae9-0940-45ed-a688-011f8568682a"},"vehicle_type_id":"4","last_reported":1778949830,"current_range_meters":8000,"station_id":"ce4bhgh2rcd13ifvqfa0","pricing_plan_id":"cebpf4jnsgd1na2vs0mg"},{"bike_id":"e2ce6926-9bb7-421d-af01-d515657c4120","system_id":"levelo_inurba_marseille","lat":43.29608,"lon":5.37727,"is_reserved":false,"is_disabled":false,"rental_uris":{"android":"levelo://app?vid=e2ce6926-9bb7-421d-af01-d515657c4120","ios":"levelo://app?vid=e2ce6926-9bb7-421d-af01-d515657c4120"},"vehicle_type_id":"4","last_reported":1778949830,"current_range_meters":8000,"station_id":"ce4bgi92rcd13ifvqb90","pricing_plan_id":"cebpf4jnsgd1na2vs0mg"},{"bike_id":"1be47044-a515-4b7f-9fb0-44745bcacda2","system_id":"levelo_inurba_marseille","lat":43.22555,"lon":5.41632,"is_reserved":false,"is_disabled":false,"rental_uris":{"android":"levelo://app?vid=1be47044-a515-4b7f-9fb0-44745bcacda2","ios":"levelo://app?vid=1be47044-a515-4b7f-9fb0-44745bcacda2"},"vehicle_type_id":"4","last_reported":1778949830,"current_range_meters":8000,"station_id":"st_d2o4gvlbi1j2169b742g","pricing_plan_id":"cebpf4jnsgd1na2vs0mg"},{"bike_id":"2f701455-9a88-4bab-99f0-da0dade42e53","system_id":"levelo_inurba_marseille","lat":43.29499,"lon":5.43292,"is_reserved":false,"is_disabled":false,"rental_uris":{"android":"levelo://app?vid=2f701455-9a88-4bab-99f0-da0dade42e53","ios":"levelo://app?vid=2f701455-9a88-4bab-99f0-da0dade42e53"},"vehicle_type_id":"4","last_reported":1778949830,"current_range_meters":8000,"station_id":"st_d3j5ugp08ojc73fj9d10","pricing_plan_id":"cebpf4jnsgd1na2vs0mg"},{"bike_id":"183ecbf2-1487-4e31-a0b0-97fce68bdb3c","system_id":"levelo_inurba_marseille","lat":43.31352,"lon":5.38498,"is_reserved":false,"is_disabled":false,"rental_uris":{"android":"levelo://app?vid=183ecbf2-1487-4e31-a0b0-97fce68bdb3c","ios":"levelo://app?vid=183ecbf2-1487-4e31-a0b0-97fce68bdb3c"},"vehicle_type_id":"4","last_reported":1778949830,"current_range_meters":8000,"station_id":"ce4bgt92rcd13ifvqcf0","pricing_plan_id":"cebpf4jnsgd1na2vs0mg"},{"bike_id":"97a62986-9365-4ea0-b0c6-9da7bdc97eda","system_id":"levelo_inurba_marseille","lat":43.24163,"lon":5.36387,"is_reserved":false,"is_disabled":false,"rental_uris":{"android":"levelo://app?vid=97a62986-9365-4ea0-b0c6-9da7bdc97eda","ios":"levelo://app?vid=97a62986-9365-4ea0-b0c6-9da7bdc97eda"},"vehicle_type_id":"4","last_reported":1778949830,"current_range_meters":8000,"station_id":"cpo36qri1sfpv3e86is0","pricing_plan_id":"cebpf4jnsgd1na2vs0mg"},{"bike_id":"dace259d-e3eb-491e-95dc-863daa176674","system_id":"levelo_inurba_marseille","lat":43.24161,"lon":5.36401,"is_reserved":false,"is_disabled":false,"rental_uris":{"android":"levelo://app?vid=dace259d-e3eb-491e-95dc-863daa176674","ios":"levelo://app?vid=dace259d-e3eb-491e-95dc-863daa176674"},"vehicle_type_id":"4","last_reported":1778949830,"current_range_meters":8000,"station_id":"cpo36qri1sfpv3e86is0","pricing_plan_id":"cebpf4jnsgd1na2vs0mg"},{"bike_id":"f01acd5e-b029-4f45-a4e8-6c1c2c56f671","system_id":"levelo_inurba_marseille","lat":43.295298,"lon":5.385434,"is_reserved":false,"is_disabled":false,"rental_uris":{"android":"levelo://app?vid=f01acd5e-b029-4f45-a4e8-6c1c2c56f671","ios":"levelo://app?vid=f01acd5e-b029-4f45-a4e8-6c1c2c56f671"},"vehicle_type_id":"4","last_reported":1778949830,"current_range_meters":8000,"station_id":"ce4bgih2rcd13ifvqba0","pricing_plan_id":"cebpf4jnsgd1na2vs0mg"},{"bike_id":"c159d23c-0695-4dae-b3f8-8090a35d37d0","system_id":"levelo_inurba_marseille","lat":43.25494,"lon":5.37647,"is_reserved":false,"is_disabled":false,"rental_uris":{"android":"levelo://app?vid=c159d23c-0695-4dae-b3f8-8090a35d37d0","ios":"levelo://app?vid=c159d23c-0695-4dae-b3f8-8090a35d37d0"},"vehicle_type_id":"4","last_reported":1778949830,"current_range_meters":8000,"station_id":"ce4bhh12rcd13ifvqff0","pricing_plan_id":"cebpf4jnsgd1na2vs0mg"},{"bike_id":"082dd424-47fc-4b75-a72f-e73a6d82dbd1","system_id":"levelo_inurba_marseille","lat":43.324756,"lon":5.36577,"is_reserved":false,"is_disabled":false,"rental_uris":{"android":"levelo://app?vid=082dd424-47fc-4b75-a72f-e73a6d82dbd1","ios":"levelo://app?vid=082dd424-47fc-4b75-a72f-e73a6d82dbd1"},"vehicle_type_id":"4","last_reported":1778949830,"current_range_meters":8000,"station_id":"ce4bhs12rcd13ifvqhvg","pricing_plan_id":"cebpf4jnsgd1na2vs0mg"},{"bike_id":"02600426-33d6-4f32-af78-264ad17e824b","system_id":"levelo_inurba_marseille","lat":43.30438,"lon":5.38873,"is_reserved":false,"is_disabled":false,"rental_uris":{"android":"levelo://app?vid=02600426-33d6-4f32-af78-264ad17e824b","ios":"levelo://app?vid=02600426-33d6-4f32-af78-264ad17e824b"},"vehicle_type_id":"4","last_reported":1778949830,"current_range_meters":8000,"station_id":"ce4bgk12rcd13ifvqbi0","pricing_plan_id":"cebpf4jnsgd1na2vs0mg"},{"bike_id":"bd4f91e4-bf32-4145-85a9-14601067af53","system_id":"levelo_inurba_marseille","lat":43.30138,"lon":5.37407,"is_reserved":false,"is_disabled":false,"rental_uris":{"android":"levelo://app?vid=bd4f91e4-bf32-4145-85a9-14601067af53","ios":"levelo://app?vid=bd4f91e4-bf32-4145-85a9-14601067af53"},"vehicle_type_id":"4","last_reported":1778949830,"current_range_meters":8000,"station_id":"ce4bgs92rcd13ifvqcc0","pricing_plan_id":"cebpf4jnsgd1na2vs0mg"},{"bike_id":"61f678cc-f661-460d-b6fb-f03d8bbf8100","system_id":"levelo_inurba_marseille","lat":43.28843,"lon":5.35831,"is_reserved":false,"is_disabled":false,"rental_uris":{"android":"levelo://app?vid=61f678cc-f661-460d-b6fb-f03d8bbf8100","ios":"levelo://app?vid=61f678cc-f661-460d-b6fb-f03d8bbf8100"},"vehicle_type_id":"4","last_reported":1778949830,"current_range_meters":8400,"station_id":"ce4bhb12rcd13ifvqem0","pricing_plan_id":"cebpf4jnsgd1na2vs0mg"},{"bike_id":"ed8b9caf-da29-4c6c-b8b8-2bb3a2494930","system_id":"levelo_inurba_marseille","lat":43.22568,"lon":5.41624,"is_reserved":false,"is_disabled":false,"rental_uris":{"android":"levelo://app?vid=ed8b9caf-da29-4c6c-b8b8-2bb3a2494930","ios":"levelo://app?vid=ed8b9caf-da29-4c6c-b8b8-2bb3a2494930"},"vehicle_type_id":"4","last_reported":1778949830,"current_range_meters":8400,"station_id":"st_d2o4gvlbi1j2169b742g","pricing_plan_id":"cebpf4jnsgd1na2vs0mg"},{"bike_id":"a1475d99-48d4-492a-9346-7b6c84ba6610","system_id":"levelo_inurba_marseille","lat":43.25092,"lon":5.39514,"is_reserved":false,"is_disabled":false,"rental_uris":{"android":"levelo://app?vid=a1475d99-48d4-492a-9346-7b6c84ba6610","ios":"levelo://app?vid=a1475d99-48d4-492a-9346-7b6c84ba6610"},"vehicle_type_id":"4","last_reported":1778949830,"current_range_meters":8400,"station_id":"ce4bhm12rcd13ifvqgkg","pricing_plan_id":"cebpf4jnsgd1na2vs0mg"},{"bike_id":"7c9517e3-38cb-4a87-948b-926583eebece","system_id":"levelo_inurba_marseille","lat":43.212,"lon":5.3508,"is_reserved":false,"is_disabled":false,"rental_uris":{"android":"levelo://app?vid=7c9517e3-38cb-4a87-948b-926583eebece","ios":"levelo://app?vid=7c9517e3-38cb-4a87-948b-926583eebece"},"vehicle_type_id":"4","last_reported":1778949830,"current_range_meters":8400,"station_id":"st_cvj6sg6p6f1abm77japg","pricing_plan_id":"cebpf4jnsgd1na2vs0mg"},{"bike_id":"046b7506-82fe-4d87-823a-3d7d55ff0981","system_id":"levelo_inurba_marseille","lat":43.28837,"lon":5.35835,"is_reserved":false,"is_disabled":false,"rental_uris":{"android":"levelo://app?vid=046b7506-82fe-4d87-823a-3d7d55ff0981","ios":"levelo://app?vid=046b7506-82fe-4d87-823a-3d7d55ff0981"},"vehicle_type_id":"4","last_reported":1778949830,"current_range_meters":8400,"station_id":"ce4bhb12rcd13ifvqem0","pricing_plan_id":"cebpf4jnsgd1na2vs0mg"},{"bike_id":"7dc07e28-663f-41be-b5ee-524636a4835f","system_id":"levelo_inurba_marseille","lat":43.29596,"lon":5.37683,"is_reserved":false,"is_disabled":false,"rental_uris":{"android":"levelo://app?vid=7dc07e28-663f-41be-b5ee-524636a4835f","ios":"levelo://app?vid=7dc07e28-663f-41be-b5ee-524636a4835f"},"vehicle_type_id":"4","last_reported":1778949830,"current_range_meters":8400,"station_id":"ce4bgi92rcd13ifvqb90","pricing_plan_id":"cebpf4jnsgd1na2vs0mg"},{"bike_id":"37ca5b86-b3d0-4bc0-80e9-3ce47d4dd8d3","system_id":"levelo_inurba_marseille","lat":43.23881,"lon":5.37445,"is_reserved":false,"is_disabled":false,"rental_uris":{"android":"levelo://app?vid=37ca5b86-b3d0-4bc0-80e9-3ce47d4dd8d3","ios":"levelo://app?vid=37ca5b86-b3d0-4bc0-80e9-3ce47d4dd8d3"},"vehicle_type_id":"4","last_reported":1778949830,"current_range_meters":8400,"station_id":"st_d6sm7csbq4hs73f8fpjg","pricing_plan_id":"cebpf4jnsgd1na2vs0mg"},{"bike_id":"838dedee-4cbd-4997-9d32-b652b1084416","system_id":"levelo_inurba_marseille","lat":43.28614,"lon":5.35096,"is_reserved":false,"is_disabled":false,"rental_uris":{"android":"levelo://app?vid=838dedee-4cbd-4997-9d32-b652b1084416","ios":"levelo://app?vid=838dedee-4cbd-4997-9d32-b652b1084416"},"vehicle_type_id":"4","last_reported":1778949830,"current_range_meters":8400,"station_id":"","pricing_plan_id":"cebpf4jnsgd1na2vs0mg"},{"bike_id":"48d53d2f-d2f3-4cf3-a9a1-cf377d0919ac","system_id":"levelo_inurba_marseille","lat":43.28606,"lon":5.37044,"is_reserved":false,"is_disabled":false,"rental_uris":{"android":"levelo://app?vid=48d53d2f-d2f3-4cf3-a9a1-cf377d0919ac","ios":"levelo://app?vid=48d53d2f-d2f3-4cf3-a9a1-cf377d0919ac"},"vehicle_type_id":"4","last_reported":1778949830,"current_range_meters":8400,"station_id":"ce4bht12rcd13ifvqi60","pricing_plan_id":"cebpf4jnsgd1na2vs0mg"},{"bike_id":"39f5e5e3-bdaa-431e-ab82-46a06c8cb2ae","system_id":"levelo_inurba_marseille","lat":43.2446,"lon":5.42556,"is_reserved":false,"is_disabled":false,"rental_uris":{"android":"levelo://app?vid=39f5e5e3-bdaa-431e-ab82-46a06c8cb2ae","ios":"levelo://app?vid=39f5e5e3-bdaa-431e-ab82-46a06c8cb2ae"},"vehicle_type_id":"4","last_reported":1778949830,"current_range_meters":8400,"station_id":"st_d4a3vfp97mjs738cd8kg","pricing_plan_id":"cebpf4jnsgd1na2vs0mg"},{"bike_id":"c5f8b7fe-e0d3-407a-a460-9c15d812c20f","system_id":"levelo_inurba_marseille","lat":43.32482,"lon":5.38279,"is_reserved":false,"is_disabled":false,"rental_uris":{"android":"levelo://app?vid=c5f8b7fe-e0d3-407a-a460-9c15d812c20f","ios":"levelo://app?vid=c5f8b7fe-e0d3-407a-a460-9c15d812c20f"},"vehicle_type_id":"4","last_reported":1778949830,"current_range_meters":8400,"station_id":"st_d4asgbiv49dc73anf9m0","pricing_plan_id":"cebpf4jnsgd1na2vs0mg"},{"bike_id":"41ed03a9-ce21-4903-a810-ca307a88c332","system_id":"levelo_inurba_marseille","lat":43.26218,"lon":5.40454,"is_reserved":false,"is_disabled":false,"rental_uris":{"android":"levelo://app?vid=41ed03a9-ce21-4903-a810-ca307a88c332","ios":"levelo://app?vid=41ed03a9-ce21-4903-a810-ca307a88c332"},"vehicle_type_id":"4","last_reported":1778949830,"current_range_meters":8400,"station_id":"ce4bhmh2rcd13ifvqgmg","pricing_plan_id":"cebpf4jnsgd1na2vs0mg"},{"bike_id":"e338be8c-6ccb-4446-8944-4e270c023a29","system_id":"levelo_inurba_marseille","lat":43.28669,"lon":5.36349,"is_reserved":false,"is_disabled":false,"rental_uris":{"android":"levelo://app?vid=e338be8c-6ccb-4446-8944-4e270c023a29","ios":"levelo://app?vid=e338be8c-6ccb-4446-8944-4e270c023a29"},"vehicle_type_id":"4","last_reported":1778949830,"current_range_meters":8400,"station_id":"ce4bhah2rcd13ifvqej0","pricing_plan_id":"cebpf4jnsgd1na2vs0mg"},{"bike_id":"10a66909-52f3-4e97-9cd6-23122b7e070e","system_id":"levelo_inurba_marseille","lat":43.2923,"lon":5.36071,"is_reserved":false,"is_disabled":false,"rental_uris":{"android":"levelo://app?vid=10a66909-52f3-4e97-9cd6-23122b7e070e","ios":"levelo://app?vid=10a66909-52f3-4e97-9cd6-23122b7e070e"},"vehicle_type_id":"4","last_reported":1778949830,"current_range_meters":8400,"station_id":"ce4bhbh2rcd13ifvqeqg","pricing_plan_id":"cebpf4jnsgd1na2vs0mg"},{"bike_id":"5777b242-d980-4abe-980a-715bb7d2be51","system_id":"levelo_inurba_marseille","lat":43.23967,"lon":5.3663,"is_reserved":false,"is_disabled":false,"rental_uris":{"android":"levelo://app?vid=5777b242-d980-4abe-980a-715bb7d2be51","ios":"levelo://app?vid=5777b242-d980-4abe-980a-715bb7d2be51"},"vehicle_type_id":"4","last_reported":1778949830,"current_range_meters":8400,"station_id":"ce4bhi12rcd13ifvqfp0","pricing_plan_id":"cebpf4jnsgd1na2vs0mg"},{"bike_id":"fc6b1db6-bcdc-4d9d-b1c3-710eda700a74","system_id":"levelo_inurba_marseille","lat":43.3014,"lon":5.37422,"is_reserved":false,"is_disabled":false,"rental_uris":{"android":"levelo://app?vid=fc6b1db6-bcdc-4d9d-b1c3-710eda700a74","ios":"levelo://app?vid=fc6b1db6-bcdc-4d9d-b1c3-710eda700a74"},"vehicle_type_id":"4","last_reported":1778949830,"current_range_meters":8400,"station_id":"ce4bgs92rcd13ifvqcc0","pricing_plan_id":"cebpf4jnsgd1na2vs0mg"},{"bike_id":"b85403f7-9ec1-4859-802d-e4255c92a06b","system_id":"levelo_inurba_marseille","lat":43.29573,"lon":5.37522,"is_reserved":false,"is_disabled":false,"rental_uris":{"android":"levelo://app?vid=b85403f7-9ec1-4859-802d-e4255c92a06b","ios":"levelo://app?vid=b85403f7-9ec1-4859-802d-e4255c92a06b"},"vehicle_type_id":"4","last_reported":1778949830,"current_range_meters":8400,"station_id":"ce4bgh92rcd13ifvqb50","pricing_plan_id":"cebpf4jnsgd1na2vs0mg"},{"bike_id":"10f79b46-b779-4006-8b4a-fd9be7f5d0ad","system_id":"levelo_inurba_marseille","lat":43.28415,"lon":5.35002,"is_reserved":false,"is_disabled":false,"rental_uris":{"android":"levelo://app?vid=10f79b46-b779-4006-8b4a-fd9be7f5d0ad","ios":"levelo://app?vid=10f79b46-b779-4006-8b4a-fd9be7f5d0ad"},"vehicle_type_id":"4","last_reported":1778949830,"current_range_meters":8400,"station_id":"ce4bhbh2rcd13ifvqepg","pricing_plan_id":"cebpf4jnsgd1na2vs0mg"},{"bike_id":"a9c4cf58-eff3-46f4-8aa3-83491b171b4a","system_id":"levelo_inurba_marseille","lat":43.27375,"lon":5.36239,"is_reserved":false,"is_disabled":false,"rental_uris":{"android":"levelo://app?vid=a9c4cf58-eff3-46f4-8aa3-83491b171b4a","ios":"levelo://app?vid=a9c4cf58-eff3-46f4-8aa3-83491b171b4a"},"vehicle_type_id":"4","last_reported":1778949830,"current_range_meters":8400,"station_id":"ce4bhbh2rcd13ifvqeo0","pricing_plan_id":"cebpf4jnsgd1na2vs0mg"},{"bike_id":"06d9f01b-0af9-442a-8948-a58de678df09","system_id":"levelo_inurba_marseille","lat":43.28575,"lon":5.39485,"is_reserved":false,"is_disabled":false,"rental_uris":{"android":"levelo://app?vid=06d9f01b-0af9-442a-8948-a58de678df09","ios":"levelo://app?vid=06d9f01b-0af9-442a-8948-a58de678df09"},"vehicle_type_id":"4","last_reported":1778949830,"current_range_meters":8400,"station_id":"ce4bh292rcd13ifvqdg0","pricing_plan_id":"cebpf4jnsgd1na2vs0mg"},{"bike_id":"af3d1647-e00c-4e7c-90f9-3d508d591c97","system_id":"levelo_inurba_marseille","lat":43.29674,"lon":5.37302,"is_reserved":false,"is_disabled":false,"rental_uris":{"android":"levelo://app?vid=af3d1647-e00c-4e7c-90f9-3d508d591c97","ios":"levelo://app?vid=af3d1647-e00c-4e7c-90f9-3d508d591c97"},"vehicle_type_id":"4","last_reported":1778949830,"current_range_meters":8800,"station_id":"ce4bgk12rcd13ifvqbj0","pricing_plan_id":"cebpf4jnsgd1na2vs0mg"},{"bike_id":"5e5d0080-84ec-4e77-94f5-64c20be86c8f","system_id":"levelo_inurba_marseille","lat":43.286095,"lon":5.370637,"is_reserved":false,"is_disabled":false,"rental_uris":{"android":"levelo://app?vid=5e5d0080-84ec-4e77-94f5-64c20be86c8f","ios":"levelo://app?vid=5e5d0080-84ec-4e77-94f5-64c20be86c8f"},"vehicle_type_id":"4","last_reported":1778949830,"current_range_meters":8800,"station_id":"ce4bht12rcd13ifvqi60","pricing_plan_id":"cebpf4jnsgd1na2vs0mg"},{"bike_id":"0d51e5ef-ab9b-491a-8c9e-45cfe2cd3256","system_id":"levelo_inurba_marseille","lat":43.29565,"lon":5.3671,"is_reserved":false,"is_disabled":false,"rental_uris":{"android":"levelo://app?vid=0d51e5ef-ab9b-491a-8c9e-45cfe2cd3256","ios":"levelo://app?vid=0d51e5ef-ab9b-491a-8c9e-45cfe2cd3256"},"vehicle_type_id":"4","last_reported":1778949830,"current_range_meters":8800,"station_id":"ce4bgph2rcd13ifvqc2g","pricing_plan_id":"cebpf4jnsgd1na2vs0mg"},