{"last_updated":1750173093,"ttl":60,"version":"2.2","data":{"bikes":[{"bike_id":"3da29fb8-fc97-44c6-b9ac-31dd456b2fd4","system_id":"levelo_inurba_marseille","lat":43.33771,"lon":5.37424,"is_reserved":false,"is_disabled":true,"rental_uris":{"android":"levelo://app?vid=3da29fb8-fc97-44c6-b9ac-31dd456b2fd4","ios":"levelo://app?vid=3da29fb8-fc97-44c6-b9ac-31dd456b2fd4"},"vehicle_type_id":"4","last_reported":1750173093,"current_range_meters":0,"station_id":"","pricing_plan_id":"cebpf4jnsgd1na2vs0mg"},{"bike_id":"01861ad8-a8d7-4be6-816e-651927c87584","system_id":"levelo_inurba_marseille","lat":43.33751,"lon":5.37456,"is_reserved":false,"is_disabled":true,"rental_uris":{"android":"levelo://app?vid=01861ad8-a8d7-4be6-816e-651927c87584","ios":"levelo://app?vid=01861ad8-a8d7-4be6-816e-651927c87584"},"vehicle_type_id":"4","last_reported":1750173093,"current_range_meters":0,"station_id":"","pricing_plan_id":"cebpf4jnsgd1na2vs0mg"},{"bike_id":"b81ba2bd-624d-43c3-b702-6c0cdad38ab2","system_id":"levelo_inurba_marseille","lat":43.31135,"lon":5.39328,"is_reserved":false,"is_disabled":true,"rental_uris":{"android":"levelo://app?vid=b81ba2bd-624d-43c3-b702-6c0cdad38ab2","ios":"levelo://app?vid=b81ba2bd-624d-43c3-b702-6c0cdad38ab2"},"vehicle_type_id":"4","last_reported":1750173093,"current_range_meters":0,"station_id":"","pricing_plan_id":"cebpf4jnsgd1na2vs0mg"},{"bike_id":"d2bd57c8-6b64-48db-ad24-5398eb3fd9d6","system_id":"levelo_inurba_marseille","lat":43.337444,"lon":5.374475,"is_reserved":false,"is_disabled":true,"rental_uris":{"android":"levelo://app?vid=d2bd57c8-6b64-48db-ad24-5398eb3fd9d6","ios":"levelo://app?vid=d2bd57c8-6b64-48db-ad24-5398eb3fd9d6"},"vehicle_type_id":"4","last_reported":1750173093,"current_range_meters":0,"station_id":"","pricing_plan_id":"cebpf4jnsgd1na2vs0mg"},{"bike_id":"62a493c7-4534-4419-ad43-0582de34a72a","system_id":"levelo_inurba_marseille","lat":43.21366,"lon":5.355183,"is_reserved":false,"is_disabled":true,"rental_uris":{"android":"levelo://app?vid=62a493c7-4534-4419-ad43-0582de34a72a","ios":"levelo://app?vid=62a493c7-4534-4419-ad43-0582de34a72a"},"vehicle_type_id":"4","last_reported":1750173093,"current_range_meters":0,"station_id":"","pricing_plan_id":"cebpf4jnsgd1na2vs0mg"},{"bike_id":"93af304b-67b5-47b8-a3fd-e0775f7cde8c","system_id":"levelo_inurba_marseille","lat":43.21531,"lon":5.34729,"is_reserved":false,"is_disabled":true,"rental_uris":{"android":"levelo://app?vid=93af304b-67b5-47b8-a3fd-e0775f7cde8c","ios":"levelo://app?vid=93af304b-67b5-47b8-a3fd-e0775f7cde8c"},"vehicle_type_id":"4","last_reported":1750173093,"current_range_meters":0,"station_id":"","pricing_plan_id":"cebpf4jnsgd1na2vs0mg"},{"bike_id":"d6609b4f-333b-43c1-9ebe-8726f5e76e88","system_id":"levelo_inurba_marseille","lat":43.337444,"lon":5.374475,"is_reserved":false,"is_disabled":true,"rental_uris":{"android":"levelo://app?vid=d6609b4f-333b-43c1-9ebe-8726f5e76e88","ios":"levelo://app?vid=d6609b4f-333b-43c1-9ebe-8726f5e76e88"},"vehicle_type_id":"4","last_reported":1750173093,"current_range_meters":0,"station_id":"","pricing_plan_id":"cebpf4jnsgd1na2vs0mg"},{"bike_id":"57c83ce1-960e-466a-b6c5-d93bc130c53a","system_id":"levelo_inurba_marseille","lat":43.249076,"lon":5.389446,"is_reserved":false,"is_disabled":true,"rental_uris":{"android":"levelo://app?vid=57c83ce1-960e-466a-b6c5-d93bc130c53a","ios":"levelo://app?vid=57c83ce1-960e-466a-b6c5-d93bc130c53a"},"vehicle_type_id":"4","last_reported":1750173093,"current_range_meters":0,"station_id":"","pricing_plan_id":"cebpf4jnsgd1na2vs0mg"},{"bike_id":"6d25d62b-066d-4dda-9876-2eb9c7d39a68","system_id":"levelo_inurba_marseille","lat":43.26124,"lon":5.39366,"is_reserved":false,"is_disabled":true,"rental_uris":{"android":"levelo://app?vid=6d25d62b-066d-4dda-9876-2eb9c7d39a68","ios":"levelo://app?vid=6d25d62b-066d-4dda-9876-2eb9c7d39a68"},"vehicle_type_id":"4","last_reported":1750173093,"current_range_meters":0,"station_id":"","pricing_plan_id":"cebpf4jnsgd1na2vs0mg"},{"bike_id":"89b22d63-aa15-4169-b77a-378f20404452","system_id":"levelo_inurba_marseille","lat":43.29532,"lon":5.38543,"is_reserved":false,"is_disabled":true,"rental_uris":{"android":"levelo://app?vid=89b22d63-aa15-4169-b77a-378f20404452","ios":"levelo://app?vid=89b22d63-aa15-4169-b77a-378f20404452"},"vehicle_type_id":"4","last_reported":1750173093,"current_range_meters":0,"station_id":"ce4bgih2rcd13ifvqba0","pricing_plan_id":"cebpf4jnsgd1na2vs0mg"},{"bike_id":"81ffcae1-fdb3-4695-98f3-541708d1b9da","system_id":"levelo_inurba_marseille","lat":43.29848,"lon":5.36286,"is_reserved":false,"is_disabled":true,"rental_uris":{"android":"levelo://app?vid=81ffcae1-fdb3-4695-98f3-541708d1b9da","ios":"levelo://app?vid=81ffcae1-fdb3-4695-98f3-541708d1b9da"},"vehicle_type_id":"4","last_reported":1750173093,"current_range_meters":0,"station_id":"ce4bgpp2rcd13ifvqc3g","pricing_plan_id":"cebpf4jnsgd1na2vs0mg"},{"bike_id":"95201d24-4075-4253-8a6a-efeffef137ef","system_id":"levelo_inurba_marseille","lat":43.30947,"lon":5.39037,"is_reserved":false,"is_disabled":true,"rental_uris":{"android":"levelo://app?vid=95201d24-4075-4253-8a6a-efeffef137ef","ios":"levelo://app?vid=95201d24-4075-4253-8a6a-efeffef137ef"},"vehicle_type_id":"4","last_reported":1750173093,"current_range_meters":0,"station_id":"ce4bgup2rcd13ifvqco0","pricing_plan_id":"cebpf4jnsgd1na2vs0mg"},{"bike_id":"d60506f0-5bc5-431e-85e6-6119ba48182e","system_id":"levelo_inurba_marseille","lat":43.28664,"lon":5.38655,"is_reserved":false,"is_disabled":true,"rental_uris":{"android":"levelo://app?vid=d60506f0-5bc5-431e-85e6-6119ba48182e","ios":"levelo://app?vid=d60506f0-5bc5-431e-85e6-6119ba48182e"},"vehicle_type_id":"4","last_reported":1750173093,"current_range_meters":0,"station_id":"ce4bh492rcd13ifvqdug","pricing_plan_id":"cebpf4jnsgd1na2vs0mg"},{"bike_id":"09c4c66c-a07a-45c1-9eb4-acaf98c4f7e6","system_id":"levelo_inurba_marseille","lat":43.290285,"lon":5.386504,"is_reserved":false,"is_disabled":true,"rental_uris":{"android":"levelo://app?vid=09c4c66c-a07a-45c1-9eb4-acaf98c4f7e6","ios":"levelo://app?vid=09c4c66c-a07a-45c1-9eb4-acaf98c4f7e6"},"vehicle_type_id":"4","last_reported":1750173093,"current_range_meters":0,"station_id":"ce4bh4p2rcd13ifvqe0g","pricing_plan_id":"cebpf4jnsgd1na2vs0mg"},{"bike_id":"7adae724-7549-4b02-8564-7d7e5b24c893","system_id":"levelo_inurba_marseille","lat":43.28266,"lon":5.35053,"is_reserved":false,"is_disabled":true,"rental_uris":{"android":"levelo://app?vid=7adae724-7549-4b02-8564-7d7e5b24c893","ios":"levelo://app?vid=7adae724-7549-4b02-8564-7d7e5b24c893"},"vehicle_type_id":"4","last_reported":1750173093,"current_range_meters":0,"station_id":"ce4bhbp2rcd13ifvqerg","pricing_plan_id":"cebpf4jnsgd1na2vs0mg"},{"bike_id":"6f45912e-aead-4251-acc1-d39d31344a77","system_id":"levelo_inurba_marseille","lat":43.25118,"lon":5.40314,"is_reserved":false,"is_disabled":true,"rental_uris":{"android":"levelo://app?vid=6f45912e-aead-4251-acc1-d39d31344a77","ios":"levelo://app?vid=6f45912e-aead-4251-acc1-d39d31344a77"},"vehicle_type_id":"4","last_reported":1750173093,"current_range_meters":0,"station_id":"ce4bhlh2rcd13ifvqgig","pricing_plan_id":"cebpf4jnsgd1na2vs0mg"},{"bike_id":"dbfce7a3-3423-4296-b193-a177dea644ac","system_id":"levelo_inurba_marseille","lat":43.27285,"lon":5.41614,"is_reserved":false,"is_disabled":true,"rental_uris":{"android":"levelo://app?vid=dbfce7a3-3423-4296-b193-a177dea644ac","ios":"levelo://app?vid=dbfce7a3-3423-4296-b193-a177dea644ac"},"vehicle_type_id":"4","last_reported":1750173093,"current_range_meters":400,"station_id":"","pricing_plan_id":"cebpf4jnsgd1na2vs0mg"},{"bike_id":"f4b31dc4-78cb-41f9-9854-ffa11a8dc7f0","system_id":"levelo_inurba_marseille","lat":43.280394,"lon":5.369474,"is_reserved":false,"is_disabled":false,"rental_uris":{"android":"levelo://app?vid=f4b31dc4-78cb-41f9-9854-ffa11a8dc7f0","ios":"levelo://app?vid=f4b31dc4-78cb-41f9-9854-ffa11a8dc7f0"},"vehicle_type_id":"4","last_reported":1750173093,"current_range_meters":400,"station_id":"ce4bha12rcd13ifvqef0","pricing_plan_id":"cebpf4jnsgd1na2vs0mg"},{"bike_id":"4cb2325b-d3a4-4290-a114-88768b82f1a8","system_id":"levelo_inurba_marseille","lat":43.25091,"lon":5.39505,"is_reserved":false,"is_disabled":true,"rental_uris":{"android":"levelo://app?vid=4cb2325b-d3a4-4290-a114-88768b82f1a8","ios":"levelo://app?vid=4cb2325b-d3a4-4290-a114-88768b82f1a8"},"vehicle_type_id":"4","last_reported":1750173093,"current_range_meters":1200,"station_id":"ce4bhm12rcd13ifvqgkg","pricing_plan_id":"cebpf4jnsgd1na2vs0mg"},{"bike_id":"b9e37238-9abe-4b8b-b932-edaee33a7e59","system_id":"levelo_inurba_marseille","lat":43.27482,"lon":5.3902,"is_reserved":false,"is_disabled":true,"rental_uris":{"android":"levelo://app?vid=b9e37238-9abe-4b8b-b932-edaee33a7e59","ios":"levelo://app?vid=b9e37238-9abe-4b8b-b932-edaee33a7e59"},"vehicle_type_id":"4","last_reported":1750173093,"current_range_meters":1600,"station_id":"","pricing_plan_id":"cebpf4jnsgd1na2vs0mg"},{"bike_id":"8091fc33-766d-4638-9ee0-28c1afcda41c","system_id":"levelo_inurba_marseille","lat":43.285298,"lon":5.373722,"is_reserved":false,"is_disabled":true,"rental_uris":{"android":"levelo://app?vid=8091fc33-766d-4638-9ee0-28c1afcda41c","ios":"levelo://app?vid=8091fc33-766d-4638-9ee0-28c1afcda41c"},"vehicle_type_id":"4","last_reported":1750173093,"current_range_meters":2000,"station_id":"ce4bh5p2rcd13ifvqe4g","pricing_plan_id":"cebpf4jnsgd1na2vs0mg"},{"bike_id":"2de74c60-3f0d-444a-ba92-830158cbecf9","system_id":"levelo_inurba_marseille","lat":43.29035,"lon":5.37563,"is_reserved":false,"is_disabled":true,"rental_uris":{"android":"levelo://app?vid=2de74c60-3f0d-444a-ba92-830158cbecf9","ios":"levelo://app?vid=2de74c60-3f0d-444a-ba92-830158cbecf9"},"vehicle_type_id":"4","last_reported":1750173093,"current_range_meters":2000,"station_id":"ce4bh692rcd13ifvqe90","pricing_plan_id":"cebpf4jnsgd1na2vs0mg"},{"bike_id":"ecb1e1b6-b5b2-4972-a39d-e6d91fb827e8","system_id":"levelo_inurba_marseille","lat":43.28272,"lon":5.35062,"is_reserved":false,"is_disabled":true,"rental_uris":{"android":"levelo://app?vid=ecb1e1b6-b5b2-4972-a39d-e6d91fb827e8","ios":"levelo://app?vid=ecb1e1b6-b5b2-4972-a39d-e6d91fb827e8"},"vehicle_type_id":"4","last_reported":1750173093,"current_range_meters":2000,"station_id":"ce4bhbp2rcd13ifvqerg","pricing_plan_id":"cebpf4jnsgd1na2vs0mg"},{"bike_id":"8ad9234e-001a-4549-8bba-9baf2ef98804","system_id":"levelo_inurba_marseille","lat":43.27404,"lon":5.39812,"is_reserved":false,"is_disabled":false,"rental_uris":{"android":"levelo://app?vid=8ad9234e-001a-4549-8bba-9baf2ef98804","ios":"levelo://app?vid=8ad9234e-001a-4549-8bba-9baf2ef98804"},"vehicle_type_id":"4","last_reported":1750173093,"current_range_meters":2800,"station_id":"","pricing_plan_id":"cebpf4jnsgd1na2vs0mg"},{"bike_id":"e9ee8ba5-7cd8-49d1-a45d-761484474754","system_id":"levelo_inurba_marseille","lat":43.3055,"lon":5.36708,"is_reserved":false,"is_disabled":false,"rental_uris":{"android":"levelo://app?vid=e9ee8ba5-7cd8-49d1-a45d-761484474754","ios":"levelo://app?vid=e9ee8ba5-7cd8-49d1-a45d-761484474754"},"vehicle_type_id":"4","last_reported":1750173093,"current_range_meters":2800,"station_id":"ce4bgrp2rcd13ifvqc9g","pricing_plan_id":"cebpf4jnsgd1na2vs0mg"},{"bike_id":"8d297b38-f666-4a46-9dee-0132f800019c","system_id":"levelo_inurba_marseille","lat":43.32195,"lon":5.3866,"is_reserved":false,"is_disabled":false,"rental_uris":{"android":"levelo://app?vid=8d297b38-f666-4a46-9dee-0132f800019c","ios":"levelo://app?vid=8d297b38-f666-4a46-9dee-0132f800019c"},"vehicle_type_id":"4","last_reported":1750173093,"current_range_meters":3200,"station_id":"","pricing_plan_id":"cebpf4jnsgd1na2vs0mg"},{"bike_id":"69af7404-5ec1-4810-9e8f-2b24aa559381","system_id":"levelo_inurba_marseille","lat":43.29346,"lon":5.38382,"is_reserved":false,"is_disabled":false,"rental_uris":{"android":"levelo://app?vid=69af7404-5ec1-4810-9e8f-2b24aa559381","ios":"levelo://app?vid=69af7404-5ec1-4810-9e8f-2b24aa559381"},"vehicle_type_id":"4","last_reported":1750173093,"current_range_meters":4000,"station_id":"","pricing_plan_id":"cebpf4jnsgd1na2vs0mg"},{"bike_id":"55b11902-4e0c-4342-82d7-2b649ae8adac","system_id":"levelo_inurba_marseille","lat":43.290801,"lon":5.371617,"is_reserved":false,"is_disabled":false,"rental_uris":{"android":"levelo://app?vid=55b11902-4e0c-4342-82d7-2b649ae8adac","ios":"levelo://app?vid=55b11902-4e0c-4342-82d7-2b649ae8adac"},"vehicle_type_id":"4","last_reported":1750173093,"current_range_meters":4400,"station_id":"ce4bh5p2rcd13ifvqe4g","pricing_plan_id":"cebpf4jnsgd1na2vs0mg"},{"bike_id":"0d93ae96-1e20-46a5-8443-dc3eafaaf327","system_id":"levelo_inurba_marseille","lat":43.27998,"lon":5.41668,"is_reserved":false,"is_disabled":false,"rental_uris":{"android":"levelo://app?vid=0d93ae96-1e20-46a5-8443-dc3eafaaf327","ios":"levelo://app?vid=0d93ae96-1e20-46a5-8443-dc3eafaaf327"},"vehicle_type_id":"4","last_reported":1750173093,"current_range_meters":4400,"station_id":"ce4bho12rcd13ifvqh1g","pricing_plan_id":"cebpf4jnsgd1na2vs0mg"},{"bike_id":"cc954312-3bfa-408c-a68b-e78ee5999a19","system_id":"levelo_inurba_marseille","lat":43.217403,"lon":5.345974,"is_reserved":false,"is_disabled":false,"rental_uris":{"android":"levelo://app?vid=cc954312-3bfa-408c-a68b-e78ee5999a19","ios":"levelo://app?vid=cc954312-3bfa-408c-a68b-e78ee5999a19"},"vehicle_type_id":"4","last_reported":1750173093,"current_range_meters":4800,"station_id":"ce4bgup2rcd13ifvqco0","pricing_plan_id":"cebpf4jnsgd1na2vs0mg"},{"bike_id":"ea544b26-6f3b-48ed-b810-8f72d54c01f9","system_id":"levelo_inurba_marseille","lat":43.280364,"lon":5.369501,"is_reserved":false,"is_disabled":false,"rental_uris":{"android":"levelo://app?vid=ea544b26-6f3b-48ed-b810-8f72d54c01f9","ios":"levelo://app?vid=ea544b26-6f3b-48ed-b810-8f72d54c01f9"},"vehicle_type_id":"4","last_reported":1750173093,"current_range_meters":4800,"station_id":"ce4bha12rcd13ifvqef0","pricing_plan_id":"cebpf4jnsgd1na2vs0mg"},{"bike_id":"dcb87a9a-18f8-41c6-9134-949f31e21b42","system_id":"levelo_inurba_marseille","lat":43.27005,"lon":5.39986,"is_reserved":false,"is_disabled":false,"rental_uris":{"android":"levelo://app?vid=dcb87a9a-18f8-41c6-9134-949f31e21b42","ios":"levelo://app?vid=dcb87a9a-18f8-41c6-9134-949f31e21b42"},"vehicle_type_id":"4","last_reported":1750173093,"current_range_meters":5600,"station_id":"","pricing_plan_id":"cebpf4jnsgd1na2vs0mg"},{"bike_id":"260923cf-3105-43aa-81eb-dee219fb3a32","system_id":"levelo_inurba_marseille","lat":43.28696,"lon":5.37386,"is_reserved":false,"is_disabled":false,"rental_uris":{"android":"levelo://app?vid=260923cf-3105-43aa-81eb-dee219fb3a32","ios":"levelo://app?vid=260923cf-3105-43aa-81eb-dee219fb3a32"},"vehicle_type_id":"4","last_reported":1750173093,"current_range_meters":5600,"station_id":"ce4bh3p2rcd13ifvqdq0","pricing_plan_id":"cebpf4jnsgd1na2vs0mg"},{"bike_id":"0a90fec9-9542-4787-93ca-88d8bffb5acf","system_id":"levelo_inurba_marseille","lat":43.284607,"lon":5.35883,"is_reserved":false,"is_disabled":false,"rental_uris":{"android":"levelo://app?vid=0a90fec9-9542-4787-93ca-88d8bffb5acf","ios":"levelo://app?vid=0a90fec9-9542-4787-93ca-88d8bffb5acf"},"vehicle_type_id":"4","last_reported":1750173093,"current_range_meters":5600,"station_id":"ce4bhah2rcd13ifvqei0","pricing_plan_id":"cebpf4jnsgd1na2vs0mg"},{"bike_id":"808a791b-cfba-4824-9a2f-9ab19189726b","system_id":"levelo_inurba_marseille","lat":43.29793,"lon":5.39337,"is_reserved":false,"is_disabled":false,"rental_uris":{"android":"levelo://app?vid=808a791b-cfba-4824-9a2f-9ab19189726b","ios":"levelo://app?vid=808a791b-cfba-4824-9a2f-9ab19189726b"},"vehicle_type_id":"4","last_reported":1750173093,"current_range_meters":5600,"station_id":"chh1huq6cuj3fo74tm60","pricing_plan_id":"cebpf4jnsgd1na2vs0mg"},{"bike_id":"e8401863-eb31-44c9-8564-bc507be18d38","system_id":"levelo_inurba_marseille","lat":43.29072,"lon":5.37147,"is_reserved":false,"is_disabled":false,"rental_uris":{"android":"levelo://app?vid=e8401863-eb31-44c9-8564-bc507be18d38","ios":"levelo://app?vid=e8401863-eb31-44c9-8564-bc507be18d38"},"vehicle_type_id":"4","last_reported":1750173093,"current_range_meters":6000,"station_id":"ce4bh5p2rcd13ifvqe4g","pricing_plan_id":"cebpf4jnsgd1na2vs0mg"},{"bike_id":"b94ad41f-3cd1-4a81-9863-922080040a44","system_id":"levelo_inurba_marseille","lat":43.225,"lon":5.34785,"is_reserved":false,"is_disabled":false,"rental_uris":{"android":"levelo://app?vid=b94ad41f-3cd1-4a81-9863-922080040a44","ios":"levelo://app?vid=b94ad41f-3cd1-4a81-9863-922080040a44"},"vehicle_type_id":"4","last_reported":1750173093,"current_range_meters":6400,"station_id":"","pricing_plan_id":"cebpf4jnsgd1na2vs0mg"},{"bike_id":"4bf7fd1a-8882-4b78-b550-9838fb9cd9fb","system_id":"levelo_inurba_marseille","lat":43.26929,"lon":5.38918,"is_reserved":false,"is_disabled":false,"rental_uris":{"android":"levelo://app?vid=4bf7fd1a-8882-4b78-b550-9838fb9cd9fb","ios":"levelo://app?vid=4bf7fd1a-8882-4b78-b550-9838fb9cd9fb"},"vehicle_type_id":"4","last_reported":1750173093,"current_range_meters":6800,"station_id":"ce4bhhh2rcd13ifvqfl0","pricing_plan_id":"cebpf4jnsgd1na2vs0mg"},{"bike_id":"e8208d99-eaa0-49f3-8388-e7f040bc9af7","system_id":"levelo_inurba_marseille","lat":43.30891,"lon":5.39638,"is_reserved":false,"is_disabled":false,"rental_uris":{"android":"levelo://app?vid=e8208d99-eaa0-49f3-8388-e7f040bc9af7","ios":"levelo://app?vid=e8208d99-eaa0-49f3-8388-e7f040bc9af7"},"vehicle_type_id":"4","last_reported":1750173093,"current_range_meters":7200,"station_id":"ce4bh012rcd13ifvqcv0","pricing_plan_id":"cebpf4jnsgd1na2vs0mg"},{"bike_id":"4f5551b9-b436-4e6a-a165-9bdba06fff3b","system_id":"levelo_inurba_marseille","lat":43.284637,"lon":5.358821,"is_reserved":false,"is_disabled":false,"rental_uris":{"android":"levelo://app?vid=4f5551b9-b436-4e6a-a165-9bdba06fff3b","ios":"levelo://app?vid=4f5551b9-b436-4e6a-a165-9bdba06fff3b"},"vehicle_type_id":"4","last_reported":1750173093,"current_range_meters":7200,"station_id":"ce4bhah2rcd13ifvqei0","pricing_plan_id":"cebpf4jnsgd1na2vs0mg"},{"bike_id":"99778bf0-3d0a-4b39-8b41-d220622c8138","system_id":"levelo_inurba_marseille","lat":43.26212,"lon":5.37438,"is_reserved":false,"is_disabled":false,"rental_uris":{"android":"levelo://app?vid=99778bf0-3d0a-4b39-8b41-d220622c8138","ios":"levelo://app?vid=99778bf0-3d0a-4b39-8b41-d220622c8138"},"vehicle_type_id":"4","last_reported":1750173093,"current_range_meters":7200,"station_id":"ce4bhgp2rcd13ifvqfc0","pricing_plan_id":"cebpf4jnsgd1na2vs0mg"},{"bike_id":"f31f40e7-9696-449f-8237-7256a8ec4ded","system_id":"levelo_inurba_marseille","lat":43.25867,"lon":5.39897,"is_reserved":false,"is_disabled":false,"rental_uris":{"android":"levelo://app?vid=f31f40e7-9696-449f-8237-7256a8ec4ded","ios":"levelo://app?vid=f31f40e7-9696-449f-8237-7256a8ec4ded"},"vehicle_type_id":"4","last_reported":1750173093,"current_range_meters":7200,"station_id":"ce4bhl92rcd13ifvqghg","pricing_plan_id":"cebpf4jnsgd1na2vs0mg"},{"bike_id":"6afc644c-08c3-42de-8619-3f94e2ba41cd","system_id":"levelo_inurba_marseille","lat":43.29917,"lon":5.4365,"is_reserved":false,"is_disabled":false,"rental_uris":{"android":"levelo://app?vid=6afc644c-08c3-42de-8619-3f94e2ba41cd","ios":"levelo://app?vid=6afc644c-08c3-42de-8619-3f94e2ba41cd"},"vehicle_type_id":"4","last_reported":1750173093,"current_range_meters":7200,"station_id":"ce4bhpp2rcd13ifvqhfg","pricing_plan_id":"cebpf4jnsgd1na2vs0mg"},{"bike_id":"250e1927-4717-4c11-b49d-f88b7724adbd","system_id":"levelo_inurba_marseille","lat":43.29707,"lon":5.37706,"is_reserved":false,"is_disabled":false,"rental_uris":{"android":"levelo://app?vid=250e1927-4717-4c11-b49d-f88b7724adbd","ios":"levelo://app?vid=250e1927-4717-4c11-b49d-f88b7724adbd"},"vehicle_type_id":"4","last_reported":1750173093,"current_range_meters":8000,"station_id":"ce4bgkh2rcd13ifvqbl0","pricing_plan_id":"cebpf4jnsgd1na2vs0mg"},{"bike_id":"68eb467c-b8c1-44fd-955e-4fbe37fb02b1","system_id":"levelo_inurba_marseille","lat":43.312037,"lon":5.368683,"is_reserved":false,"is_disabled":false,"rental_uris":{"android":"levelo://app?vid=68eb467c-b8c1-44fd-955e-4fbe37fb02b1","ios":"levelo://app?vid=68eb467c-b8c1-44fd-955e-4fbe37fb02b1"},"vehicle_type_id":"4","last_reported":1750173093,"current_range_meters":8000,"station_id":"ce4bgl92rcd13ifvqbq0","pricing_plan_id":"cebpf4jnsgd1na2vs0mg"},{"bike_id":"9aa0ea02-8d2b-4433-adfe-60c24be03bcf","system_id":"levelo_inurba_marseille","lat":43.30319,"lon":5.36901,"is_reserved":false,"is_disabled":false,"rental_uris":{"android":"levelo://app?vid=9aa0ea02-8d2b-4433-adfe-60c24be03bcf","ios":"levelo://app?vid=9aa0ea02-8d2b-4433-adfe-60c24be03bcf"},"vehicle_type_id":"4","last_reported":1750173093,"current_range_meters":8000,"station_id":"ce4bgqh2rcd13ifvqc5g","pricing_plan_id":"cebpf4jnsgd1na2vs0mg"},{"bike_id":"55ed9120-3fce-4269-b1ce-a8a008d4cd2a","system_id":"levelo_inurba_marseille","lat":43.30337,"lon":5.40434,"is_reserved":false,"is_disabled":false,"rental_uris":{"android":"levelo://app?vid=55ed9120-3fce-4269-b1ce-a8a008d4cd2a","ios":"levelo://app?vid=55ed9120-3fce-4269-b1ce-a8a008d4cd2a"},"vehicle_type_id":"4","last_reported":1750173093,"current_range_meters":8000,"station_id":"ce4bh012rcd13ifvqd10","pricing_plan_id":"cebpf4jnsgd1na2vs0mg"},{"bike_id":"ddb11c2e-b103-4858-8d6c-2047404a87ed","system_id":"levelo_inurba_marseille","lat":43.24389,"lon":5.37055,"is_reserved":false,"is_disabled":false,"rental_uris":{"android":"levelo://app?vid=ddb11c2e-b103-4858-8d6c-2047404a87ed","ios":"levelo://app?vid=ddb11c2e-b103-4858-8d6c-2047404a87ed"},"vehicle_type_id":"4","last_reported":1750173093,"current_range_meters":8000,"station_id":"ce4bhhh2rcd13ifvqfk0","pricing_plan_id":"cebpf4jnsgd1na2vs0mg"},{"bike_id":"01c302e3-2910-42f2-83ef-2d6b34aeb36d","system_id":"levelo_inurba_marseille","lat":43.23966,"lon":5.36632,"is_reserved":false,"is_disabled":false,"rental_uris":{"android":"levelo://app?vid=01c302e3-2910-42f2-83ef-2d6b34aeb36d","ios":"levelo://app?vid=01c302e3-2910-42f2-83ef-2d6b34aeb36d"},"vehicle_type_id":"4","last_reported":1750173093,"current_range_meters":8000,"station_id":"ce4bhi12rcd13ifvqfp0","pricing_plan_id":"cebpf4jnsgd1na2vs0mg"},{"bike_id":"e697f06b-158e-4633-968d-f506125c0e44","system_id":"levelo_inurba_marseille","lat":43.2465,"lon":5.38889,"is_reserved":false,"is_disabled":false,"rental_uris":{"android":"levelo://app?vid=e697f06b-158e-4633-968d-f506125c0e44","ios":"levelo://app?vid=e697f06b-158e-4633-968d-f506125c0e44"},"vehicle_type_id":"4","last_reported":1750173093,"current_range_meters":8400,"station_id":"ce4bhg12rcd13ifvqf60","pricing_plan_id":"cebpf4jnsgd1na2vs0mg"},{"bike_id":"64c6d212-acc6-47e3-9e04-fbaf04a7ed4e","system_id":"levelo_inurba_marseille","lat":43.26992,"lon":5.38758,"is_reserved":false,"is_disabled":false,"rental_uris":{"android":"levelo://app?vid=64c6d212-acc6-47e3-9e04-fbaf04a7ed4e","ios":"levelo://app?vid=64c6d212-acc6-47e3-9e04-fbaf04a7ed4e"},"vehicle_type_id":"4","last_reported":1750173093,"current_range_meters":8800,"station_id":"","pricing_plan_id":"cebpf4jnsgd1na2vs0mg"},{"bike_id":"4a512899-8e61-448f-97a3-e7dfe94ff95d","system_id":"levelo_inurba_marseille","lat":43.30641,"lon":5.401,"is_reserved":false,"is_disabled":false,"rental_uris":{"android":"levelo://app?vid=4a512899-8e61-448f-97a3-e7dfe94ff95d","ios":"levelo://app?vid=4a512899-8e61-448f-97a3-e7dfe94ff95d"},"vehicle_type_id":"4","last_reported":1750173093,"current_range_meters":8800,"station_id":"ce4bh112rcd13ifvqda0","pricing_plan_id":"cebpf4jnsgd1na2vs0mg"},{"bike_id":"a7b727ef-422e-44dd-824e-bd27b92e47b4","system_id":"levelo_inurba_marseille","lat":43.27899,"lon":5.38018,"is_reserved":false,"is_disabled":false,"rental_uris":{"android":"levelo://app?vid=a7b727ef-422e-44dd-824e-bd27b92e47b4","ios":"levelo://app?vid=a7b727ef-422e-44dd-824e-bd27b92e47b4"},"vehicle_type_id":"4","last_reported":1750173093,"current_range_meters":8800,"station_id":"ce4bhf92rcd13ifvqf50","pricing_plan_id":"cebpf4jnsgd1na2vs0mg"},{"bike_id":"e987fd8f-b124-469d-9d50-808c5c08101a","system_id":"levelo_inurba_marseille","lat":43.26789,"lon":5.39409,"is_reserved":false,"is_disabled":false,"rental_uris":{"android":"levelo://app?vid=e987fd8f-b124-469d-9d50-808c5c08101a","ios":"levelo://app?vid=e987fd8f-b124-469d-9d50-808c5c08101a"},"vehicle_type_id":"4","last_reported":1750173093,"current_range_meters":8800,"station_id":"ce4bhh12rcd13ifvqfg0","pricing_plan_id":"cebpf4jnsgd1na2vs0mg"},{"bike_id":"da3e1724-606c-4f9a-9130-d56dd48e22e0","system_id":"levelo_inurba_marseille","lat":43.32973,"lon":5.40596,"is_reserved":false,"is_disabled":false,"rental_uris":{"android":"levelo://app?vid=da3e1724-606c-4f9a-9130-d56dd48e22e0","ios":"levelo://app?vid=da3e1724-606c-4f9a-9130-d56dd48e22e0"},"vehicle_type_id":"4","last_reported":1750173093,"current_range_meters":9200,"station_id":"","pricing_plan_id":"cebpf4jnsgd1na2vs0mg"},{"bike_id":"b86dff87-b6e8-4a22-b120-c506c0a6289f","system_id":"levelo_inurba_marseille","lat":43.22504,"lon":5.34787,"is_reserved":false,"is_disabled":false,"rental_uris":{"android":"levelo://app?vid=b86dff87-b6e8-4a22-b120-c506c0a6289f","ios":"levelo://app?vid=b86dff87-b6e8-4a22-b120-c506c0a6289f"},"vehicle_type_id":"4","last_reported":1750173093,"current_range_meters":9200,"station_id":"","pricing_plan_id":"cebpf4jnsgd1na2vs0mg"},{"bike_id":"42b0354e-fefe-4b78-9ed7-97a684cc11e1","system_id":"levelo_inurba_marseille","lat":43.29689,"lon":5.37286,"is_reserved":false,"is_disabled":false,"rental_uris":{"android":"levelo://app?vid=42b0354e-fefe-4b78-9ed7-97a684cc11e1","ios":"levelo://app?vid=42b0354e-fefe-4b78-9ed7-97a684cc11e1"},"vehicle_type_id":"4","last_reported":1750173093,"current_range_meters":9200,"station_id":"ce4bgk12rcd13ifvqbj0","pricing_plan_id":"cebpf4jnsgd1na2vs0mg"},{"bike_id":"1fd33c33-f8fa-4967-8575-fc9593d97e20","system_id":"levelo_inurba_marseille","lat":43.24078,"lon":5.37753,"is_reserved":false,"is_disabled":false,"rental_uris":{"android":"levelo://app?vid=1fd33c33-f8fa-4967-8575-fc9593d97e20","ios":"levelo://app?vid=1fd33c33-f8fa-4967-8575-fc9593d97e20"},"vehicle_type_id":"4","last_reported":1750173093,"current_range_meters":9200,"station_id":"ce4bhnp2rcd13ifvqgvg","pricing_plan_id":"cebpf4jnsgd1na2vs0mg"},{"bike_id":"e2145139-0c49-4513-9454-58aae973bc3f","system_id":"levelo_inurba_marseille","lat":43.23196,"lon":5.35551,"is_reserved":false,"is_disabled":false,"rental_uris":{"android":"levelo://app?vid=e2145139-0c49-4513-9454-58aae973bc3f","ios":"levelo://app?vid=e2145139-0c49-4513-9454-58aae973bc3f"},"vehicle_type_id":"4","last_reported":1750173093,"current_range_meters":9200,"station_id":"ce4bhu92rcd13ifvqi70","pricing_plan_id":"cebpf4jnsgd1na2vs0mg"},{"bike_id":"1fd377ef-3b6a-4c38-b391-fac74de06af2","system_id":"levelo_inurba_marseille","lat":43.27907,"lon":5.38017,"is_reserved":false,"is_disabled":false,"rental_uris":{"android":"levelo://app?vid=1fd377ef-3b6a-4c38-b391-fac74de06af2","ios":"levelo://app?vid=1fd377ef-3b6a-4c38-b391-fac74de06af2"},"vehicle_type_id":"4","last_reported":1750173093,"current_range_meters":10000,"station_id":"ce4bhf92rcd13ifvqf50","pricing_plan_id":"cebpf4jnsgd1na2vs0mg"},{"bike_id":"3b136301-d892-4bf1-aa15-695ec30464ca","system_id":"levelo_inurba_marseille","lat":43.32087,"lon":5.3676,"is_reserved":false,"is_disabled":false,"rental_uris":{"android":"levelo://app?vid=3b136301-d892-4bf1-aa15-695ec30464ca","ios":"levelo://app?vid=3b136301-d892-4bf1-aa15-695ec30464ca"},"vehicle_type_id":"4","last_reported":1750173093,"current_range_meters":10000,"station_id":"ce4bhrh2rcd13ifvqhug","pricing_plan_id":"cebpf4jnsgd1na2vs0mg"},{"bike_id":"92542d35-8f2f-4dd4-b923-248e6bddb2b7","system_id":"levelo_inurba_marseille","lat":43.22935,"lon":5.35376,"is_reserved":false,"is_disabled":false,"rental_uris":{"android":"levelo://app?vid=92542d35-8f2f-4dd4-b923-248e6bddb2b7","ios":"levelo://app?vid=92542d35-8f2f-4dd4-b923-248e6bddb2b7"},"vehicle_type_id":"4","last_reported":1750173093,"current_range_meters":10000,"station_id":"cpo3532slgdg3j2ikp40","pricing_plan_id":"cebpf4jnsgd1na2vs0mg"},{"bike_id":"25960fd9-8509-4555-9b23-fa4fae1e21d0","system_id":"levelo_inurba_marseille","lat":43.29007,"lon":5.38212,"is_reserved":false,"is_disabled":false,"rental_uris":{"android":"levelo://app?vid=25960fd9-8509-4555-9b23-fa4fae1e21d0","ios":"levelo://app?vid=25960fd9-8509-4555-9b23-fa4fae1e21d0"},"vehicle_type_id":"4","last_reported":1750173093,"current_range_meters":10800,"station_id":"","pricing_plan_id":"cebpf4jnsgd1na2vs0mg"},{"bike_id":"eb6f1e68-0cba-464c-bef9-00a42a3e8ced","system_id":"levelo_inurba_marseille","lat":43.30302,"lon":5.39228,"is_reserved":false,"is_disabled":false,"rental_uris":{"android":"levelo://app?vid=eb6f1e68-0cba-464c-bef9-00a42a3e8ced","ios":"levelo://app?vid=eb6f1e68-0cba-464c-bef9-00a42a3e8ced"},"vehicle_type_id":"4","last_reported":1750173093,"current_range_meters":10800,"station_id":"ce4bgkh2rcd13ifvqbk0","pricing_plan_id":"cebpf4jnsgd1na2vs0mg"},{"bike_id":"f834b1f4-4dbf-4ed0-b6b3-6e468bc5b936","system_id":"levelo_inurba_marseille","lat":43.29631,"lon":5.37169,"is_reserved":false,"is_disabled":false,"rental_uris":{"android":"levelo://app?vid=f834b1f4-4dbf-4ed0-b6b3-6e468bc5b936","ios":"levelo://app?vid=f834b1f4-4dbf-4ed0-b6b3-6e468bc5b936"},"vehicle_type_id":"4","last_reported":1750173093,"current_range_meters":10800,"station_id":"ce4bgnh2rcd13ifvqc0g","pricing_plan_id":"cebpf4jnsgd1na2vs0mg"},{"bike_id":"8f356c27-2ce5-4db2-a0ea-8d620c8700f5","system_id":"levelo_inurba_marseille","lat":43.29972,"lon":5.37176,"is_reserved":false,"is_disabled":false,"rental_uris":{"android":"levelo://app?vid=8f356c27-2ce5-4db2-a0ea-8d620c8700f5","ios":"levelo://app?vid=8f356c27-2ce5-4db2-a0ea-8d620c8700f5"},"vehicle_type_id":"4","last_reported":1750173093,"current_range_meters":10800,"station_id":"ce4bgr92rcd13ifvqc7g","pricing_plan_id":"cebpf4jnsgd1na2vs0mg"},{"bike_id":"a9cdde83-06f8-4d7e-b71a-1e155908ea8a","system_id":"levelo_inurba_marseille","lat":43.28458,"lon":5.3589,"is_reserved":false,"is_disabled":false,"rental_uris":{"android":"levelo://app?vid=a9cdde83-06f8-4d7e-b71a-1e155908ea8a","ios":"levelo://app?vid=a9cdde83-06f8-4d7e-b71a-1e155908ea8a"},"vehicle_type_id":"4","last_reported":1750173093,"current_range_meters":10800,"station_id":"ce4bhah2rcd13ifvqei0","pricing_plan_id":"cebpf4jnsgd1na2vs0mg"},{"bike_id":"53fd83fe-4b9e-4bb7-bd65-da554f119893","system_id":"levelo_inurba_marseille","lat":43.243891,"lon":5.370604,"is_reserved":false,"is_disabled":false,"rental_uris":{"android":"levelo://app?vid=53fd83fe-4b9e-4bb7-bd65-da554f119893","ios":"levelo://app?vid=53fd83fe-4b9e-4bb7-bd65-da554f119893"},"vehicle_type_id":"4","last_reported":1750173093,"current_range_meters":10800,"station_id":"ce4bhhh2rcd13ifvqfk0","pricing_plan_id":"cebpf4jnsgd1na2vs0mg"},{"bike_id":"d15e97b3-501f-458f-810d-aadce744705f","system_id":"levelo_inurba_marseille","lat":43.31207,"lon":5.36848,"is_reserved":false,"is_disabled":false,"rental_uris":{"android":"levelo://app?vid=d15e97b3-501f-458f-810d-aadce744705f","ios":"levelo://app?vid=d15e97b3-501f-458f-810d-aadce744705f"},"vehicle_type_id":"4","last_reported":1750173093,"current_range_meters":11200,"station_id":"ce4bgl92rcd13ifvqbq0","pricing_plan_id":"cebpf4jnsgd1na2vs0mg"},{"bike_id":"c7a06562-cd0a-4ce3-9c99-6876f6925b3f","system_id":"levelo_inurba_marseille","lat":43.24085,"lon":5.3775,"is_reserved":false,"is_disabled":false,"rental_uris":{"android":"levelo://app?vid=c7a06562-cd0a-4ce3-9c99-6876f6925b3f","ios":"levelo://app?vid=c7a06562-cd0a-4ce3-9c99-6876f6925b3f"},"vehicle_type_id":"4","last_reported":1750173093,"current_range_meters":11200,"station_id":"ce4bhnp2rcd13ifvqgvg","pricing_plan_id":"cebpf4jnsgd1na2vs0mg"},{"bike_id":"4ee2e458-4a71-4a76-beee-a596743f4709","system_id":"levelo_inurba_marseille","lat":43.29911,"lon":5.38145,"is_reserved":false,"is_disabled":false,"rental_uris":{"android":"levelo://app?vid=4ee2e458-4a71-4a76-beee-a596743f4709","ios":"levelo://app?vid=4ee2e458-4a71-4a76-beee-a596743f4709"},"vehicle_type_id":"4","last_reported":1750173093,"current_range_meters":11600,"station_id":"ce4bgj12rcd13ifvqbc0","pricing_plan_id":"cebpf4jnsgd1na2vs0mg"},{"bike_id":"b17ccf07-f157-48ba-a678-8f8bb973a2f3","system_id":"levelo_inurba_marseille","lat":43.30306,"lon":5.39213,"is_reserved":false,"is_disabled":false,"rental_uris":{"android":"levelo://app?vid=b17ccf07-f157-48ba-a678-8f8bb973a2f3","ios":"levelo://app?vid=b17ccf07-f157-48ba-a678-8f8bb973a2f3"},"vehicle_type_id":"4","last_reported":1750173093,"current_range_meters":11600,"station_id":"ce4bgkh2rcd13ifvqbk0","pricing_plan_id":"cebpf4jnsgd1na2vs0mg"},{"bike_id":"703a4970-fa4f-4e55-8576-1598896dbe72","system_id":"levelo_inurba_marseille","lat":43.27377,"lon":5.36264,"is_reserved":false,"is_disabled":false,"rental_uris":{"android":"levelo://app?vid=703a4970-fa4f-4e55-8576-1598896dbe72","ios":"levelo://app?vid=703a4970-fa4f-4e55-8576-1598896dbe72"},"vehicle_type_id":"4","last_reported":1750173093,"current_range_meters":11600,"station_id":"ce4bhbh2rcd13ifvqeo0","pricing_plan_id":"cebpf4jnsgd1na2vs0mg"},{"bike_id":"9096fd2a-5bd6-4f11-a6ef-35a4e694e6dd","system_id":"levelo_inurba_marseille","lat":43.24665,"lon":5.38165,"is_reserved":false,"is_disabled":false,"rental_uris":{"android":"levelo://app?vid=9096fd2a-5bd6-4f11-a6ef-35a4e694e6dd","ios":"levelo://app?vid=9096fd2a-5bd6-4f11-a6ef-35a4e694e6dd"},"vehicle_type_id":"4","last_reported":1750173093,"current_range_meters":11600,"station_id":"ce4bhih2rcd13ifvqfr0","pricing_plan_id":"cebpf4jnsgd1na2vs0mg"},{"bike_id":"db253ebf-d5c4-4597-a6d2-846cf2706d47","system_id":"levelo_inurba_marseille","lat":43.281576,"lon":5.426411,"is_reserved":false,"is_disabled":false,"rental_uris":{"android":"levelo://app?vid=db253ebf-d5c4-4597-a6d2-846cf2706d47","ios":"levelo://app?vid=db253ebf-d5c4-4597-a6d2-846cf2706d47"},"vehicle_type_id":"4","last_reported":1750173093,"current_range_meters":11600,"station_id":"ce4bhnh2rcd13ifvqgug","pricing_plan_id":"cebpf4jnsgd1na2vs0mg"},{"bike_id":"4db80646-2287-4071-82ae-764cb6921e36","system_id":"levelo_inurba_marseille","lat":43.24076,"lon":5.37758,"is_reserved":false,"is_disabled":false,"rental_uris":{"android":"levelo://app?vid=4db80646-2287-4071-82ae-764cb6921e36","ios":"levelo://app?vid=4db80646-2287-4071-82ae-764cb6921e36"},"vehicle_type_id":"4","last_reported":1750173093,"current_range_meters":11600,"station_id":"ce4bhnp2rcd13ifvqgvg","pricing_plan_id":"cebpf4jnsgd1na2vs0mg"},{"bike_id":"1e373418-986e-4d3c-9ff7-c37dd7c7a214","system_id":"levelo_inurba_marseille","lat":43.29908,"lon":5.43656,"is_reserved":false,"is_disabled":false,"rental_uris":{"android":"levelo://app?vid=1e373418-986e-4d3c-9ff7-c37dd7c7a214","ios":"levelo://app?vid=1e373418-986e-4d3c-9ff7-c37dd7c7a214"},"vehicle_type_id":"4","last_reported":1750173093,"current_range_meters":11600,"station_id":"ce4bhpp2rcd13ifvqhfg","pricing_plan_id":"cebpf4jnsgd1na2vs0mg"},{"bike_id":"8f11510b-bf8f-4369-a8d6-360c5c1398d4","system_id":"levelo_inurba_marseille","lat":43.297863,"lon":5.3934,"is_reserved":false,"is_disabled":false,"rental_uris":{"android":"levelo://app?vid=8f11510b-bf8f-4369-a8d6-360c5c1398d4","ios":"levelo://app?vid=8f11510b-bf8f-4369-a8d6-360c5c1398d4"},"vehicle_type_id":"4","last_reported":1750173093,"current_range_meters":11600,"station_id":"chh1huq6cuj3fo74tm60","pricing_plan_id":"cebpf4jnsgd1na2vs0mg"},{"bike_id":"29291b3e-d0d9-452a-92c6-f7d592134821","system_id":"levelo_inurba_marseille","lat":43.21742,"lon":5.34609,"is_reserved":false,"is_disabled":false,"rental_uris":{"android":"levelo://app?vid=29291b3e-d0d9-452a-92c6-f7d592134821","ios":"levelo://app?vid=29291b3e-d0d9-452a-92c6-f7d592134821"},"vehicle_type_id":"4","last_reported":1750173093,"current_range_meters":11600,"station_id":"st_cvj6r9ubvosntc0bgbag","pricing_plan_id":"cebpf4jnsgd1na2vs0mg"},{"bike_id":"0e27dafc-21df-4fb1-bd36-2450a7866702","system_id":"levelo_inurba_marseille","lat":43.27144,"lon":5.39992,"is_reserved":false,"is_disabled":false,"rental_uris":{"android":"levelo://app?vid=0e27dafc-21df-4fb1-bd36-2450a7866702","ios":"levelo://app?vid=0e27dafc-21df-4fb1-bd36-2450a7866702"},"vehicle_type_id":"4","last_reported":1750173093,"current_range_meters":12000,"station_id":"","pricing_plan_id":"cebpf4jnsgd1na2vs0mg"},{"bike_id":"21db6be8-f2e2-48de-81b0-b885d32bca75","system_id":"levelo_inurba_marseille","lat":43.30604,"lon":5.372023,"is_reserved":false,"is_disabled":false,"rental_uris":{"android":"levelo://app?vid=21db6be8-f2e2-48de-81b0-b885d32bca75","ios":"levelo://app?vid=21db6be8-f2e2-48de-81b0-b885d32bca75"},"vehicle_type_id":"4","last_reported":1750173093,"current_range_meters":12000,"station_id":"ce4bgqh2rcd13ifvqc4g","pricing_plan_id":"cebpf4jnsgd1na2vs0mg"},{"bike_id":"5d1a3ed1-70f0-4deb-899c-75c1b0d6c2fe","system_id":"levelo_inurba_marseille","lat":43.24388,"lon":5.37064,"is_reserved":false,"is_disabled":false,"rental_uris":{"android":"levelo://app?vid=5d1a3ed1-70f0-4deb-899c-75c1b0d6c2fe","ios":"levelo://app?vid=5d1a3ed1-70f0-4deb-899c-75c1b0d6c2fe"},"vehicle_type_id":"4","last_reported":1750173093,"current_range_meters":12000,"station_id":"ce4bhhh2rcd13ifvqfk0","pricing_plan_id":"cebpf4jnsgd1na2vs0mg"},{"bike_id":"cb32f832-e367-45c1-8a2f-ea2c6e3856ab","system_id":"levelo_inurba_marseille","lat":43.27843,"lon":5.39198,"is_reserved":false,"is_disabled":false,"rental_uris":{"android":"levelo://app?vid=cb32f832-e367-45c1-8a2f-ea2c6e3856ab","ios":"levelo://app?vid=cb32f832-e367-45c1-8a2f-ea2c6e3856ab"},"vehicle_type_id":"4","last_reported":1750173093,"current_range_meters":12000,"station_id":"ce4bhjp2rcd13ifvqga0","pricing_plan_id":"cebpf4jnsgd1na2vs0mg"},{"bike_id":"e217f3a3-03e8-4faa-b08c-a9ad1aa578dc","system_id":"levelo_inurba_marseille","lat":43.25864,"lon":5.39899,"is_reserved":false,"is_disabled":false,"rental_uris":{"android":"levelo://app?vid=e217f3a3-03e8-4faa-b08c-a9ad1aa578dc","ios":"levelo://app?vid=e217f3a3-03e8-4faa-b08c-a9ad1aa578dc"},"vehicle_type_id":"4","last_reported":1750173093,"current_range_meters":12000,"station_id":"ce4bhl92rcd13ifvqghg","pricing_plan_id":"cebpf4jnsgd1na2vs0mg"},{"bike_id":"c8e7a0a3-899e-43d4-9788-9b1b07c48f2f","system_id":"levelo_inurba_marseille","lat":43.21202,"lon":5.35071,"is_reserved":false,"is_disabled":false,"rental_uris":{"android":"levelo://app?vid=c8e7a0a3-899e-43d4-9788-9b1b07c48f2f","ios":"levelo://app?vid=c8e7a0a3-899e-43d4-9788-9b1b07c48f2f"},"vehicle_type_id":"4","last_reported":1750173093,"current_range_meters":12000,"station_id":"st_cvj6sg6p6f1abm77japg","pricing_plan_id":"cebpf4jnsgd1na2vs0mg"},{"bike_id":"33e0bf2f-e733-469b-a197-2896c85dad0b","system_id":"levelo_inurba_marseille","lat":43.30143,"lon":5.39859,"is_reserved":false,"is_disabled":false,"rental_uris":{"android":"levelo://app?vid=33e0bf2f-e733-469b-a197-2896c85dad0b","ios":"levelo://app?vid=33e0bf2f-e733-469b-a197-2896c85dad0b"},"vehicle_type_id":"4","last_reported":1750173093,"current_range_meters":12400,"station_id":"ce4bh0h2rcd13ifvqd40","pricing_plan_id":"cebpf4jnsgd1na2vs0mg"},{"bike_id":"eca25bd6-1b44-4388-a7b0-074a85a4f502","system_id":"levelo_inurba_marseille","lat":43.31087,"lon":5.39737,"is_reserved":false,"is_disabled":false,"rental_uris":{"android":"levelo://app?vid=eca25bd6-1b44-4388-a7b0-074a85a4f502","ios":"levelo://app?vid=eca25bd6-1b44-4388-a7b0-074a85a4f502"},"vehicle_type_id":"4","last_reported":1750173093,"current_range_meters":12800,"station_id":"","pricing_plan_id":"cebpf4jnsgd1na2vs0mg"},{"bike_id":"cfa166c8-f9b6-4ff9-8245-4a07df1922fe","system_id":"levelo_inurba_marseille","lat":43.28458,"lon":5.35884,"is_reserved":false,"is_disabled":false,"rental_uris":{"android":"levelo://app?vid=cfa166c8-f9b6-4ff9-8245-4a07df1922fe","ios":"levelo://app?vid=cfa166c8-f9b6-4ff9-8245-4a07df1922fe"},"vehicle_type_id":"4","last_reported":1750173093,"current_range_meters":12800,"station_id":"ce4bhah2rcd13ifvqei0","pricing_plan_id":"cebpf4jnsgd1na2vs0mg"},{"bike_id":"18d442a3-6bb6-4e39-934b-12612d9bfaaf","system_id":"levelo_inurba_marseille","lat":43.27374,"lon":5.36262,"is_reserved":false,"is_disabled":false,"rental_uris":{"android":"levelo://app?vid=18d442a3-6bb6-4e39-934b-12612d9bfaaf","ios":"levelo://app?vid=18d442a3-6bb6-4e39-934b-12612d9bfaaf"},"vehicle_type_id":"4","last_reported":1750173093,"current_range_meters":12800,"station_id":"ce4bhbh2rcd13ifvqeo0","pricing_plan_id":"cebpf4jnsgd1na2vs0mg"},{"bike_id":"6d392914-420e-49a0-9a62-e1c19d840639","system_id":"levelo_inurba_marseille","lat":43.30359,"lon":5.42498,"is_reserved":false,"is_disabled":false,"rental_uris":{"android":"levelo://app?vid=6d392914-420e-49a0-9a62-e1c19d840639","ios":"levelo://app?vid=6d392914-420e-49a0-9a62-e1c19d840639"},"vehicle_type_id":"4","last_reported":1750173093,"current_range_meters":13600,"station_id":"ce4bhoh2rcd13ifvqh6g","pricing_plan_id":"cebpf4jnsgd1na2vs0mg"},{"bike_id":"94556628-72cd-4618-b5b6-25b5cfa4141b","system_id":"levelo_inurba_marseille","lat":43.21191,"lon":5.35068,"is_reserved":false,"is_disabled":false,"rental_uris":{"android":"levelo://app?vid=94556628-72cd-4618-b5b6-25b5cfa4141b","ios":"levelo://app?vid=94556628-72cd-4618-b5b6-25b5cfa4141b"},"vehicle_type_id":"4","last_reported":1750173093,"current_range_meters":13600,"station_id":"st_cvj6sg6p6f1abm77japg","pricing_plan_id":"cebpf4jnsgd1na2vs0mg"},{"bike_id":"83cfee7d-980d-496a-98c8-745c7e44c68d","system_id":"levelo_inurba_marseille","lat":43.32901,"lon":5.3909,"is_reserved":false,"is_disabled":false,"rental_uris":{"android":"levelo://app?vid=83cfee7d-980d-496a-98c8-745c7e44c68d","ios":"levelo://app?vid=83cfee7d-980d-496a-98c8-745c7e44c68d"},"vehicle_type_id":"4","last_reported":1750173093,"current_range_meters":14000,"station_id":"","pricing_plan_id":"cebpf4jnsgd1na2vs0mg"},{"bike_id":"b4a50ea7-8038-4c14-a21e-896943e42865","system_id":"levelo_inurba_marseille","lat":43.28273,"lon":5.35072,"is_reserved":false,"is_disabled":false,"rental_uris":{"android":"levelo://app?vid=b4a50ea7-8038-4c14-a21e-896943e42865","ios":"levelo://app?vid=b4a50ea7-8038-4c14-a21e-896943e42865"},"vehicle_type_id":"4","last_reported":1750173093,"current_range_meters":14000,"station_id":"ce4bhbp2rcd13ifvqerg","pricing_plan_id":"cebpf4jnsgd1na2vs0mg"},{"bike_id":"5244f6cc-cf6d-4fed-ac64-e3db155f0759","system_id":"levelo_inurba_marseille","lat":43.27173,"lon":5.40993,"is_reserved":false,"is_disabled":false,"rental_uris":{"android":"levelo://app?vid=5244f6cc-cf6d-4fed-ac64-e3db155f0759","ios":"levelo://app?vid=5244f6cc-cf6d-4fed-ac64-e3db155f0759"},"vehicle_type_id":"4","last_reported":1750173093,"current_range_meters":14000,"station_id":"ce4bhl12rcd13ifvqgf0","pricing_plan_id":"cebpf4jnsgd1na2vs0mg"},{"bike_id":"952cccd3-dc05-4deb-b6b1-1ab020910064","system_id":"levelo_inurba_marseille","lat":43.292053,"lon":5.357916,"is_reserved":false,"is_disabled":false,"rental_uris":{"android":"levelo://app?vid=952cccd3-dc05-4deb-b6b1-1ab020910064","ios":"levelo://app?vid=952cccd3-dc05-4deb-b6b1-1ab020910064"},"vehicle_type_id":"4","last_reported":1750173093,"current_range_meters":14400,"station_id":"","pricing_plan_id":"cebpf4jnsgd1na2vs0mg"},{"bike_id":"033dd2e0-6a4a-4fe1-a422-cc1c7a29ac2e","system_id":"levelo_inurba_marseille","lat":43.24814,"lon":5.37456,"is_reserved":false,"is_disabled":false,"rental_uris":{"android":"levelo://app?vid=033dd2e0-6a4a-4fe1-a422-cc1c7a29ac2e","ios":"levelo://app?vid=033dd2e0-6a4a-4fe1-a422-cc1c7a29ac2e"},"vehicle_type_id":"4","last_reported":1750173093,"current_range_meters":14400,"station_id":"ce4bhgh2rcd13ifvqfb0","pricing_plan_id":"cebpf4jnsgd1na2vs0mg"},{"bike_id":"38a21130-506b-436c-acc1-1b2f1b11083b","system_id":"levelo_inurba_marseille","lat":43.27996,"lon":5.40013,"is_reserved":false,"is_disabled":false,"rental_uris":{"android":"levelo://app?vid=38a21130-506b-436c-acc1-1b2f1b11083b","ios":"levelo://app?vid=38a21130-506b-436c-acc1-1b2f1b11083b"},"vehicle_type_id":"4","last_reported":1750173093,"current_range_meters":14400,"station_id":"ce4bho92rcd13ifvqh4g","pricing_plan_id":"cebpf4jnsgd1na2vs0mg"},{"bike_id":"c5f2f299-7e0f-4ea2-abcd-aaa65ae3837f","system_id":"levelo_inurba_marseille","lat":43.30416,"lon":5.41308,"is_reserved":false,"is_disabled":false,"rental_uris":{"android":"levelo://app?vid=c5f2f299-7e0f-4ea2-abcd-aaa65ae3837f","ios":"levelo://app?vid=c5f2f299-7e0f-4ea2-abcd-aaa65ae3837f"},"vehicle_type_id":"4","last_reported":1750173093,"current_range_meters":14400,"station_id":"ce4bhop2rcd13ifvqh8g","pricing_plan_id":"cebpf4jnsgd1na2vs0mg"},{"bike_id":"67860337-c72c-4042-8bb8-9da82ccb97df","system_id":"levelo_inurba_marseille","lat":43.33027,"lon":5.39044,"is_reserved":false,"is_disabled":false,"rental_uris":{"android":"levelo://app?vid=67860337-c72c-4042-8bb8-9da82ccb97df","ios":"levelo://app?vid=67860337-c72c-4042-8bb8-9da82ccb97df"},"vehicle_type_id":"4","last_reported":1750173093,"current_range_meters":14400,"station_id":"ce4bhr92rcd13ifvqhrg","pricing_plan_id":"cebpf4jnsgd1na2vs0mg"},{"bike_id":"6573336a-e436-498e-b79d-87c616ed3a22","system_id":"levelo_inurba_marseille","lat":43.290549,"lon":5.359269,"is_reserved":false,"is_disabled":false,"rental_uris":{"android":"levelo://app?vid=6573336a-e436-498e-b79d-87c616ed3a22","ios":"levelo://app?vid=6573336a-e436-498e-b79d-87c616ed3a22"},"vehicle_type_id":"4","last_reported":1750173093,"current_range_meters":14800,"station_id":"ce4bha92rcd13ifvqeg0","pricing_plan_id":"cebpf4jnsgd1na2vs0mg"},{"bike_id":"2090556a-ebe6-4fcd-b60b-df67d7c8e4f7","system_id":"levelo_inurba_marseille","lat":43.29902,"lon":5.43662,"is_reserved":false,"is_disabled":false,"rental_uris":{"android":"levelo://app?vid=2090556a-ebe6-4fcd-b60b-df67d7c8e4f7","ios":"levelo://app?vid=2090556a-ebe6-4fcd-b60b-df67d7c8e4f7"},"vehicle_type_id":"4","last_reported":1750173093,"current_range_meters":14800,"station_id":"ce4bhpp2rcd13ifvqhfg","pricing_plan_id":"cebpf4jnsgd1na2vs0mg"},{"bike_id":"4e838014-dbc3-4a95-ae66-518e6a46720b","system_id":"levelo_inurba_marseille","lat":43.304255,"lon":5.388844,"is_reserved":false,"is_disabled":false,"rental_uris":{"android":"levelo://app?vid=4e838014-dbc3-4a95-ae66-518e6a46720b","ios":"levelo://app?vid=4e838014-dbc3-4a95-ae66-518e6a46720b"},"vehicle_type_id":"4","last_reported":1750173093,"current_range_meters":15200,"station_id":"ce4bgk12rcd13ifvqbi0","pricing_plan_id":"cebpf4jnsgd1na2vs0mg"},{"bike_id":"7ec7867d-b9c0-4268-a5b4-125d2ba7b754","system_id":"levelo_inurba_marseille","lat":43.28859,"lon":5.35842,"is_reserved":false,"is_disabled":false,"rental_uris":{"android":"levelo://app?vid=7ec7867d-b9c0-4268-a5b4-125d2ba7b754","ios":"levelo://app?vid=7ec7867d-b9c0-4268-a5b4-125d2ba7b754"},"vehicle_type_id":"4","last_reported":1750173093,"current_range_meters":15200,"station_id":"ce4bhb12rcd13ifvqem0","pricing_plan_id":"cebpf4jnsgd1na2vs0mg"},{"bike_id":"8294296b-2596-40bf-ac83-56912bf5277b","system_id":"levelo_inurba_marseille","lat":43.24081,"lon":5.37761,"is_reserved":false,"is_disabled":false,"rental_uris":{"android":"levelo://app?vid=8294296b-2596-40bf-ac83-56912bf5277b","ios":"levelo://app?vid=8294296b-2596-40bf-ac83-56912bf5277b"},"vehicle_type_id":"4","last_reported":1750173093,"current_range_meters":15200,"station_id":"ce4bhnp2rcd13ifvqgvg","pricing_plan_id":"cebpf4jnsgd1na2vs0mg"},{"bike_id":"8271cf55-65ac-4007-a860-0523411ee02c","system_id":"levelo_inurba_marseille","lat":43.29569,"lon":5.39985,"is_reserved":false,"is_disabled":false,"rental_uris":{"android":"levelo://app?vid=8271cf55-65ac-4007-a860-0523411ee02c","ios":"levelo://app?vid=8271cf55-65ac-4007-a860-0523411ee02c"},"vehicle_type_id":"4","last_reported":1750173093,"current_range_meters":16000,"station_id":"ce4bh312rcd13ifvqdj0","pricing_plan_id":"cebpf4jnsgd1na2vs0mg"},{"bike_id":"d8a12464-f3b1-4e51-8a9a-cd7261aed0b4","system_id":"levelo_inurba_marseille","lat":43.28693,"lon":5.37389,"is_reserved":false,"is_disabled":false,"rental_uris":{"android":"levelo://app?vid=d8a12464-f3b1-4e51-8a9a-cd7261aed0b4","ios":"levelo://app?vid=d8a12464-f3b1-4e51-8a9a-cd7261aed0b4"},"vehicle_type_id":"4","last_reported":1750173093,"current_range_meters":16000,"station_id":"ce4bh3p2rcd13ifvqdq0","pricing_plan_id":"cebpf4jnsgd1na2vs0mg"},{"bike_id":"821543c6-062c-4ac7-84db-60d18e8eb7d0","system_id":"levelo_inurba_marseille","lat":43.27376,"lon":5.36261,"is_reserved":false,"is_disabled":false,"rental_uris":{"android":"levelo://app?vid=821543c6-062c-4ac7-84db-60d18e8eb7d0","ios":"levelo://app?vid=821543c6-062c-4ac7-84db-60d18e8eb7d0"},"vehicle_type_id":"4","last_reported":1750173093,"current_range_meters":16000,"station_id":"ce4bhbh2rcd13ifvqeo0","pricing_plan_id":"cebpf4jnsgd1na2vs0mg"},{"bike_id":"b16e8e6a-0287-499c-ab11-a45768e0e2ec","system_id":"levelo_inurba_marseille","lat":43.24806,"lon":5.37456,"is_reserved":false,"is_disabled":false,"rental_uris":{"android":"levelo://app?vid=b16e8e6a-0287-499c-ab11-a45768e0e2ec","ios":"levelo://app?vid=b16e8e6a-0287-499c-ab11-a45768e0e2ec"},"vehicle_type_id":"4","last_reported":1750173093,"current_range_meters":16000,"station_id":"ce4bhgh2rcd13ifvqfb0","pricing_plan_id":"cebpf4jnsgd1na2vs0mg"},{"bike_id":"4a66c4d4-63d6-40ee-b1c4-f00ecf2c7feb","system_id":"levelo_inurba_marseille","lat":43.28008,"lon":5.40011,"is_reserved":false,"is_disabled":false,"rental_uris":{"android":"levelo://app?vid=4a66c4d4-63d6-40ee-b1c4-f00ecf2c7feb","ios":"levelo://app?vid=4a66c4d4-63d6-40ee-b1c4-f00ecf2c7feb"},"vehicle_type_id":"4","last_reported":1750173093,"current_range_meters":16000,"station_id":"ce4bho92rcd13ifvqh4g","pricing_plan_id":"cebpf4jnsgd1na2vs0mg"},{"bike_id":"6e9aaae1-1778-47d8-b1ce-5e47ad5f4943","system_id":"levelo_inurba_marseille","lat":43.23198,"lon":5.35551,"is_reserved":false,"is_disabled":false,"rental_uris":{"android":"levelo://app?vid=6e9aaae1-1778-47d8-b1ce-5e47ad5f4943","ios":"levelo://app?vid=6e9aaae1-1778-47d8-b1ce-5e47ad5f4943"},"vehicle_type_id":"4","last_reported":1750173093,"current_range_meters":16000,"station_id":"ce4bhu92rcd13ifvqi70","pricing_plan_id":"cebpf4jnsgd1na2vs0mg"},{"bike_id":"3518210a-6d90-482f-a11b-11cb7c94acd1","system_id":"levelo_inurba_marseille","lat":43.26481,"lon":5.39182,"is_reserved":false,"is_disabled":false,"rental_uris":{"android":"levelo://app?vid=3518210a-6d90-482f-a11b-11cb7c94acd1","ios":"levelo://app?vid=3518210a-6d90-482f-a11b-11cb7c94acd1"},"vehicle_type_id":"4","last_reported":1750173093,"current_range_meters":16400,"station_id":"","pricing_plan_id":"cebpf4jnsgd1na2vs0mg"},{"bike_id":"de0f7c2b-5974-4035-a240-8ed367c0e3f3","system_id":"levelo_inurba_marseille","lat":43.31976,"lon":5.3762,"is_reserved":false,"is_disabled":false,"rental_uris":{"android":"levelo://app?vid=de0f7c2b-5974-4035-a240-8ed367c0e3f3","ios":"levelo://app?vid=de0f7c2b-5974-4035-a240-8ed367c0e3f3"},"vehicle_type_id":"4","last_reported":1750173093,"current_range_meters":16400,"station_id":"","pricing_plan_id":"cebpf4jnsgd1na2vs0mg"},{"bike_id":"1dca189b-e58d-407e-91a0-5d0b482c7bd9","system_id":"levelo_inurba_marseille","lat":43.28256,"lon":5.35097,"is_reserved":false,"is_disabled":false,"rental_uris":{"android":"levelo://app?vid=1dca189b-e58d-407e-91a0-5d0b482c7bd9","ios":"levelo://app?vid=1dca189b-e58d-407e-91a0-5d0b482c7bd9"},"vehicle_type_id":"4","last_reported":1750173093,"current_range_meters":16400,"station_id":"ce4bhbp2rcd13ifvqerg","pricing_plan_id":"cebpf4jnsgd1na2vs0mg"},{"bike_id":"f6f31aa3-e91d-4bf1-9fdd-d2b77a513e1c","system_id":"levelo_inurba_marseille","lat":43.24085,"lon":5.37748,"is_reserved":false,"is_disabled":false,"rental_uris":{"android":"levelo://app?vid=f6f31aa3-e91d-4bf1-9fdd-d2b77a513e1c","ios":"levelo://app?vid=f6f31aa3-e91d-4bf1-9fdd-d2b77a513e1c"},"vehicle_type_id":"4","last_reported":1750173093,"current_range_meters":16400,"station_id":"ce4bhnp2rcd13ifvqgvg","pricing_plan_id":"cebpf4jnsgd1na2vs0mg"},{"bike_id":"448ba436-6ff2-4bb3-979c-e95e14c74387","system_id":"levelo_inurba_marseille","lat":43.28265,"lon":5.35074,"is_reserved":false,"is_disabled":false,"rental_uris":{"android":"levelo://app?vid=448ba436-6ff2-4bb3-979c-e95e14c74387","ios":"levelo://app?vid=448ba436-6ff2-4bb3-979c-e95e14c74387"},"vehicle_type_id":"4","last_reported":1750173093,"current_range_meters":16800,"station_id":"ce4bhbp2rcd13ifvqerg","pricing_plan_id":"cebpf4jnsgd1na2vs0mg"},{"bike_id":"c43bc47b-a41e-493c-846e-c200bc5e09ab","system_id":"levelo_inurba_marseille","lat":43.24807,"lon":5.37451,"is_reserved":false,"is_disabled":false,"rental_uris":{"android":"levelo://app?vid=c43bc47b-a41e-493c-846e-c200bc5e09ab","ios":"levelo://app?vid=c43bc47b-a41e-493c-846e-c200bc5e09ab"},"vehicle_type_id":"4","last_reported":1750173093,"current_range_meters":16800,"station_id":"ce4bhgh2rcd13ifvqfb0","pricing_plan_id":"cebpf4jnsgd1na2vs0mg"},{"bike_id":"455fdf49-0d63-4280-b533-327df2894dcc","system_id":"levelo_inurba_marseille","lat":43.26928,"lon":5.38911,"is_reserved":false,"is_disabled":false,"rental_uris":{"android":"levelo://app?vid=455fdf49-0d63-4280-b533-327df2894dcc","ios":"levelo://app?vid=455fdf49-0d63-4280-b533-327df2894dcc"},"vehicle_type_id":"4","last_reported":1750173093,"current_range_meters":16800,"station_id":"ce4bhhh2rcd13ifvqfl0","pricing_plan_id":"cebpf4jnsgd1na2vs0mg"},{"bike_id":"d90fbd8b-4ffc-4690-83ee-14e48898da07","system_id":"levelo_inurba_marseille","lat":43.28701,"lon":5.39987,"is_reserved":false,"is_disabled":false,"rental_uris":{"android":"levelo://app?vid=d90fbd8b-4ffc-4690-83ee-14e48898da07","ios":"levelo://app?vid=d90fbd8b-4ffc-4690-83ee-14e48898da07"},"vehicle_type_id":"4","last_reported":1750173093,"current_range_meters":16800,"station_id":"ce4bho92rcd13ifvqh3g","pricing_plan_id":"cebpf4jnsgd1na2vs0mg"},{"bike_id":"2f0f7865-53e4-4955-8eb9-1bb98bf95595","system_id":"levelo_inurba_marseille","lat":43.31778,"lon":5.37589,"is_reserved":false,"is_disabled":false,"rental_uris":{"android":"levelo://app?vid=2f0f7865-53e4-4955-8eb9-1bb98bf95595","ios":"levelo://app?vid=2f0f7865-53e4-4955-8eb9-1bb98bf95595"},"vehicle_type_id":"4","last_reported":1750173093,"current_range_meters":17200,"station_id":"","pricing_plan_id":"cebpf4jnsgd1na2vs0mg"},{"bike_id":"529fe5fc-7d28-4973-a302-7f1d2d7fa0ad","system_id":"levelo_inurba_marseille","lat":43.23143,"lon":5.35518,"is_reserved":false,"is_disabled":false,"rental_uris":{"android":"levelo://app?vid=529fe5fc-7d28-4973-a302-7f1d2d7fa0ad","ios":"levelo://app?vid=529fe5fc-7d28-4973-a302-7f1d2d7fa0ad"},"vehicle_type_id":"4","last_reported":1750173093,"current_range_meters":17200,"station_id":"","pricing_plan_id":"cebpf4jnsgd1na2vs0mg"},{"bike_id":"de0bda34-41a6-4231-8ed4-c93e07fc3176","system_id":"levelo_inurba_marseille","lat":43.32649,"lon":5.37535,"is_reserved":false,"is_disabled":false,"rental_uris":{"android":"levelo://app?vid=de0bda34-41a6-4231-8ed4-c93e07fc3176","ios":"levelo://app?vid=de0bda34-41a6-4231-8ed4-c93e07fc3176"},"vehicle_type_id":"4","last_reported":1750173093,"current_range_meters":17200,"station_id":"","pricing_plan_id":"cebpf4jnsgd1na2vs0mg"},{"bike_id":"62a23c12-f402-42ff-bc55-2b7e1d515a1b","system_id":"levelo_inurba_marseille","lat":43.30464,"lon":5.37897,"is_reserved":false,"is_disabled":false,"rental_uris":{"android":"levelo://app?vid=62a23c12-f402-42ff-bc55-2b7e1d515a1b","ios":"levelo://app?vid=62a23c12-f402-42ff-bc55-2b7e1d515a1b"},"vehicle_type_id":"4","last_reported":1750173093,"current_range_meters":17200,"station_id":"ce4bgup2rcd13ifvqcn0","pricing_plan_id":"cebpf4jnsgd1na2vs0mg"},{"bike_id":"c60fa227-74ee-418c-8f9a-97ca372e258e","system_id":"levelo_inurba_marseille","lat":43.26937,"lon":5.38917,"is_reserved":false,"is_disabled":false,"rental_uris":{"android":"levelo://app?vid=c60fa227-74ee-418c-8f9a-97ca372e258e","ios":"levelo://app?vid=c60fa227-74ee-418c-8f9a-97ca372e258e"},"vehicle_type_id":"4","last_reported":1750173093,"current_range_meters":17200,"station_id":"ce4bhhh2rcd13ifvqfl0","pricing_plan_id":"cebpf4jnsgd1na2vs0mg"},{"bike_id":"99e77f60-a771-44ec-bd4c-544b62356f64","system_id":"levelo_inurba_marseille","lat":43.24074,"lon":5.37747,"is_reserved":false,"is_disabled":false,"rental_uris":{"android":"levelo://app?vid=99e77f60-a771-44ec-bd4c-544b62356f64","ios":"levelo://app?vid=99e77f60-a771-44ec-bd4c-544b62356f64"},"vehicle_type_id":"4","last_reported":1750173093,"current_range_meters":17200,"station_id":"ce4bhnp2rcd13ifvqgvg","pricing_plan_id":"cebpf4jnsgd1na2vs0mg"},{"bike_id":"b30516ab-1ed4-467b-9700-ada15a939813","system_id":"levelo_inurba_marseille","lat":43.23192,"lon":5.35578,"is_reserved":false,"is_disabled":false,"rental_uris":{"android":"levelo://app?vid=b30516ab-1ed4-467b-9700-ada15a939813","ios":"levelo://app?vid=b30516ab-1ed4-467b-9700-ada15a939813"},"vehicle_type_id":"4","last_reported":1750173093,"current_range_meters":17200,"station_id":"ce4bhu92rcd13ifvqi70","pricing_plan_id":"cebpf4jnsgd1na2vs0mg"},{"bike_id":"4b8da722-ee9e-48a4-a5e5-3a8a10364708","system_id":"levelo_inurba_marseille","lat":43.31232,"lon":5.378111,"is_reserved":false,"is_disabled":false,"rental_uris":{"android":"levelo://app?vid=4b8da722-ee9e-48a4-a5e5-3a8a10364708","ios":"levelo://app?vid=4b8da722-ee9e-48a4-a5e5-3a8a10364708"},"vehicle_type_id":"4","last_reported":1750173093,"current_range_meters":17600,"station_id":"","pricing_plan_id":"cebpf4jnsgd1na2vs0mg"},{"bike_id":"4ce5b165-f22d-40cf-abd3-1cb294861955","system_id":"levelo_inurba_marseille","lat":43.211982,"lon":5.350815,"is_reserved":false,"is_disabled":false,"rental_uris":{"android":"levelo://app?vid=4ce5b165-f22d-40cf-abd3-1cb294861955","ios":"levelo://app?vid=4ce5b165-f22d-40cf-abd3-1cb294861955"},"vehicle_type_id":"4","last_reported":1750173093,"current_range_meters":17600,"station_id":"","pricing_plan_id":"cebpf4jnsgd1na2vs0mg"},{"bike_id":"b242a622-7fab-40d3-ae44-a212db7990a5","system_id":"levelo_inurba_marseille","lat":43.27922,"lon":5.39576,"is_reserved":false,"is_disabled":false,"rental_uris":{"android":"levelo://app?vid=b242a622-7fab-40d3-ae44-a212db7990a5","ios":"levelo://app?vid=b242a622-7fab-40d3-ae44-a212db7990a5"},"vehicle_type_id":"4","last_reported":1750173093,"current_range_meters":17600,"station_id":"ce4bhf92rcd13ifvqf40","pricing_plan_id":"cebpf4jnsgd1na2vs0mg"},{"bike_id":"d1039a53-89b8-4f3e-a008-c0ccb1f18b23","system_id":"levelo_inurba_marseille","lat":43.27909,"lon":5.38019,"is_reserved":false,"is_disabled":false,"rental_uris":{"android":"levelo://app?vid=d1039a53-89b8-4f3e-a008-c0ccb1f18b23","ios":"levelo://app?vid=d1039a53-89b8-4f3e-a008-c0ccb1f18b23"},"vehicle_type_id":"4","last_reported":1750173093,"current_range_meters":17600,"station_id":"ce4bhf92rcd13ifvqf50","pricing_plan_id":"cebpf4jnsgd1na2vs0mg"},{"bike_id":"419ede4a-c4bb-47e9-971b-35f6de5802e1","system_id":"levelo_inurba_marseille","lat":43.23191,"lon":5.39974,"is_reserved":false,"is_disabled":false,"rental_uris":{"android":"levelo://app?vid=419ede4a-c4bb-47e9-971b-35f6de5802e1","ios":"levelo://app?vid=419ede4a-c4bb-47e9-971b-35f6de5802e1"},"vehicle_type_id":"4","last_reported":1750173093,"current_range_meters":17600,"station_id":"ce4bhn12rcd13ifvqgqg","pricing_plan_id":"cebpf4jnsgd1na2vs0mg"},{"bike_id":"96229c79-05fa-47c6-9a51-7d2991f57b74","system_id":"levelo_inurba_marseille","lat":43.24081,"lon":5.37756,"is_reserved":false,"is_disabled":false,"rental_uris":{"android":"levelo://app?vid=96229c79-05fa-47c6-9a51-7d2991f57b74","ios":"levelo://app?vid=96229c79-05fa-47c6-9a51-7d2991f57b74"},"vehicle_type_id":"4","last_reported":1750173093,"current_range_meters":17600,"station_id":"ce4bhnp2rcd13ifvqgvg","pricing_plan_id":"cebpf4jnsgd1na2vs0mg"},{"bike_id":"cc8086c3-023b-4662-b7ba-91199240f1a1","system_id":"levelo_inurba_marseille","lat":43.230525,"lon":5.354933,"is_reserved":false,"is_disabled":false,"rental_uris":{"android":"levelo://app?vid=cc8086c3-023b-4662-b7ba-91199240f1a1","ios":"levelo://app?vid=cc8086c3-023b-4662-b7ba-91199240f1a1"},"vehicle_type_id":"4","last_reported":1750173093,"current_range_meters":17600,"station_id":"cpo3342slgdg3j2ifvpg","pricing_plan_id":"cebpf4jnsgd1na2vs0mg"},{"bike_id":"0fdc182e-0b16-455d-a406-68b7efeb0a33","system_id":"levelo_inurba_marseille","lat":43.21722,"lon":5.34634,"is_reserved":false,"is_disabled":false,"rental_uris":{"android":"levelo://app?vid=0fdc182e-0b16-455d-a406-68b7efeb0a33","ios":"levelo://app?vid=0fdc182e-0b16-455d-a406-68b7efeb0a33"},"vehicle_type_id":"4","last_reported":1750173093,"current_range_meters":17600,"station_id":"st_cvj6r9ubvosntc0bgbag","pricing_plan_id":"cebpf4jnsgd1na2vs0mg"},{"bike_id":"4cda9327-46c6-426e-87dd-c291d5dc5ff7","system_id":"levelo_inurba_marseille","lat":43.21198,"lon":5.35073,"is_reserved":false,"is_disabled":false,"rental_uris":{"android":"levelo://app?vid=4cda9327-46c6-426e-87dd-c291d5dc5ff7","ios":"levelo://app?vid=4cda9327-46c6-426e-87dd-c291d5dc5ff7"},"vehicle_type_id":"4","last_reported":1750173093,"current_range_meters":17600,"station_id":"st_cvj6sg6p6f1abm77japg","pricing_plan_id":"cebpf4jnsgd1na2vs0mg"},{"bike_id":"3a556026-c701-4f37-9192-c33892476639","system_id":"levelo_inurba_marseille","lat":43.21761,"lon":5.34598,"is_reserved":false,"is_disabled":false,"rental_uris":{"android":"levelo://app?vid=3a556026-c701-4f37-9192-c33892476639","ios":"levelo://app?vid=3a556026-c701-4f37-9192-c33892476639"},"vehicle_type_id":"4","last_reported":1750173093,"current_range_meters":18000,"station_id":"","pricing_plan_id":"cebpf4jnsgd1na2vs0mg"},{"bike_id":"d9e64530-b9e6-4f96-af42-0be73aa92b24","system_id":"levelo_inurba_marseille","lat":43.29533,"lon":5.39973,"is_reserved":false,"is_disabled":false,"rental_uris":{"android":"levelo://app?vid=d9e64530-b9e6-4f96-af42-0be73aa92b24","ios":"levelo://app?vid=d9e64530-b9e6-4f96-af42-0be73aa92b24"},"vehicle_type_id":"4","last_reported":1750173093,"current_range_meters":18000,"station_id":"ce4bh312rcd13ifvqdj0","pricing_plan_id":"cebpf4jnsgd1na2vs0mg"},{"bike_id":"9e62c364-d684-46e9-a99f-d161ee6ace0e","system_id":"levelo_inurba_marseille","lat":43.28931,"lon":5.38406,"is_reserved":false,"is_disabled":false,"rental_uris":{"android":"levelo://app?vid=9e62c364-d684-46e9-a99f-d161ee6ace0e","ios":"levelo://app?vid=9e62c364-d684-46e9-a99f-d161ee6ace0e"},"vehicle_type_id":"4","last_reported":1750173093,"current_range_meters":18000,"station_id":"ce4bh612rcd13ifvqe6g","pricing_plan_id":"cebpf4jnsgd1na2vs0mg"},{"bike_id":"72cf2846-2d9a-439d-9596-23c868c6e9ec","system_id":"levelo_inurba_marseille","lat":43.28984,"lon":5.37831,"is_reserved":false,"is_disabled":false,"rental_uris":{"android":"levelo://app?vid=72cf2846-2d9a-439d-9596-23c868c6e9ec","ios":"levelo://app?vid=72cf2846-2d9a-439d-9596-23c868c6e9ec"},"vehicle_type_id":"4","last_reported":1750173093,"current_range_meters":18000,"station_id":"ce4bh9p2rcd13ifvqed0","pricing_plan_id":"cebpf4jnsgd1na2vs0mg"},{"bike_id":"f6ea18f4-d77c-4843-ab66-bba6fb8a9a88","system_id":"levelo_inurba_marseille","lat":43.25138,"lon":5.40324,"is_reserved":false,"is_disabled":false,"rental_uris":{"android":"levelo://app?vid=f6ea18f4-d77c-4843-ab66-bba6fb8a9a88","ios":"levelo://app?vid=f6ea18f4-d77c-4843-ab66-bba6fb8a9a88"},"vehicle_type_id":"4","last_reported":1750173093,"current_range_meters":18000,"station_id":"ce4bhlh2rcd13ifvqgig","pricing_plan_id":"cebpf4jnsgd1na2vs0mg"},{"bike_id":"43c9ec49-f42d-4b26-bd27-97128f401b71","system_id":"levelo_inurba_marseille","lat":43.24067,"lon":5.37776,"is_reserved":false,"is_disabled":false,"rental_uris":{"android":"levelo://app?vid=43c9ec49-f42d-4b26-bd27-97128f401b71","ios":"levelo://app?vid=43c9ec49-f42d-4b26-bd27-97128f401b71"},"vehicle_type_id":"4","last_reported":1750173093,"current_range_meters":18000,"station_id":"ce4bhnp2rcd13ifvqgvg","pricing_plan_id":"cebpf4jnsgd1na2vs0mg"},{"bike_id":"8196fa73-344f-42fc-9223-ebf7722c68b9","system_id":"levelo_inurba_marseille","lat":43.2407,"lon":5.37756,"is_reserved":false,"is_disabled":false,"rental_uris":{"android":"levelo://app?vid=8196fa73-344f-42fc-9223-ebf7722c68b9","ios":"levelo://app?vid=8196fa73-344f-42fc-9223-ebf7722c68b9"},"vehicle_type_id":"4","last_reported":1750173093,"current_range_meters":18000,"station_id":"ce4bhnp2rcd13ifvqgvg","pricing_plan_id":"cebpf4jnsgd1na2vs0mg"},{"bike_id":"5cbdd979-131e-4b0a-a5c9-96ef156802c9","system_id":"levelo_inurba_marseille","lat":43.28407,"lon":5.39221,"is_reserved":false,"is_disabled":false,"rental_uris":{"android":"levelo://app?vid=5cbdd979-131e-4b0a-a5c9-96ef156802c9","ios":"levelo://app?vid=5cbdd979-131e-4b0a-a5c9-96ef156802c9"},"vehicle_type_id":"4","last_reported":1750173093,"current_range_meters":18000,"station_id":"ce4bhoh2rcd13ifvqh5g","pricing_plan_id":"cebpf4jnsgd1na2vs0mg"},{"bike_id":"653a05d9-205d-420f-b0c9-a638667f0917","system_id":"levelo_inurba_marseille","lat":43.21201,"lon":5.35045,"is_reserved":false,"is_disabled":false,"rental_uris":{"android":"levelo://app?vid=653a05d9-205d-420f-b0c9-a638667f0917","ios":"levelo://app?vid=653a05d9-205d-420f-b0c9-a638667f0917"},"vehicle_type_id":"4","last_reported":1750173093,"current_range_meters":18000,"station_id":"st_cvj6sg6p6f1abm77japg","pricing_plan_id":"cebpf4jnsgd1na2vs0mg"},{"bike_id":"1a30f111-6901-4dc3-b64c-894d4aa3d30f","system_id":"levelo_inurba_marseille","lat":43.30928,"lon":5.40121,"is_reserved":false,"is_disabled":false,"rental_uris":{"android":"levelo://app?vid=1a30f111-6901-4dc3-b64c-894d4aa3d30f","ios":"levelo://app?vid=1a30f111-6901-4dc3-b64c-894d4aa3d30f"},"vehicle_type_id":"4","last_reported":1750173093,"current_range_meters":18800,"station_id":"ce4bgvp2rcd13ifvqct0","pricing_plan_id":"cebpf4jnsgd1na2vs0mg"},{"bike_id":"baf64c31-4f1a-4275-b51a-b84e4310f740","system_id":"levelo_inurba_marseille","lat":43.30885,"lon":5.39636,"is_reserved":false,"is_disabled":false,"rental_uris":{"android":"levelo://app?vid=baf64c31-4f1a-4275-b51a-b84e4310f740","ios":"levelo://app?vid=baf64c31-4f1a-4275-b51a-b84e4310f740"},"vehicle_type_id":"4","last_reported":1750173093,"current_range_meters":18800,"station_id":"ce4bh012rcd13ifvqcv0","pricing_plan_id":"cebpf4jnsgd1na2vs0mg"},{"bike_id":"69391ca7-3f01-4e51-a628-257cf9ff7306","system_id":"levelo_inurba_marseille","lat":43.33772,"lon":5.37438,"is_reserved":false,"is_disabled":false,"rental_uris":{"android":"levelo://app?vid=69391ca7-3f01-4e51-a628-257cf9ff7306","ios":"levelo://app?vid=69391ca7-3f01-4e51-a628-257cf9ff7306"},"vehicle_type_id":"4","last_reported":1750173093,"current_range_meters":19200,"station_id":"","pricing_plan_id":"cebpf4jnsgd1na2vs0mg"},{"bike_id":"268aafb4-1331-426c-97bc-a7d6564caeb6","system_id":"levelo_inurba_marseille","lat":43.32911,"lon":5.37922,"is_reserved":false,"is_disabled":false,"rental_uris":{"android":"levelo://app?vid=268aafb4-1331-426c-97bc-a7d6564caeb6","ios":"levelo://app?vid=268aafb4-1331-426c-97bc-a7d6564caeb6"},"vehicle_type_id":"4","last_reported":1750173093,"current_range_meters":19200,"station_id":"","pricing_plan_id":"cebpf4jnsgd1na2vs0mg"},{"bike_id":"8b8e3452-c32b-408e-938b-44cc98f0f857","system_id":"levelo_inurba_marseille","lat":43.2841,"lon":5.34994,"is_reserved":false,"is_disabled":false,"rental_uris":{"android":"levelo://app?vid=8b8e3452-c32b-408e-938b-44cc98f0f857","ios":"levelo://app?vid=8b8e3452-c32b-408e-938b-44cc98f0f857"},"vehicle_type_id":"4","last_reported":1750173093,"current_range_meters":19200,"station_id":"ce4bhbh2rcd13ifvqepg","pricing_plan_id":"cebpf4jnsgd1na2vs0mg"},{"bike_id":"34011965-7337-4c76-bc6d-833dad6810be","system_id":"levelo_inurba_marseille","lat":43.262089,"lon":5.37445,"is_reserved":false,"is_disabled":false,"rental_uris":{"android":"levelo://app?vid=34011965-7337-4c76-bc6d-833dad6810be","ios":"levelo://app?vid=34011965-7337-4c76-bc6d-833dad6810be"},"vehicle_type_id":"4","last_reported":1750173093,"current_range_meters":19200,"station_id":"ce4bhgp2rcd13ifvqfc0","pricing_plan_id":"cebpf4jnsgd1na2vs0mg"},{"bike_id":"3556a47d-bdf3-4d01-a839-926e276e4d02","system_id":"levelo_inurba_marseille","lat":43.32038,"lon":5.41571,"is_reserved":false,"is_disabled":false,"rental_uris":{"android":"levelo://app?vid=3556a47d-bdf3-4d01-a839-926e276e4d02","ios":"levelo://app?vid=3556a47d-bdf3-4d01-a839-926e276e4d02"},"vehicle_type_id":"4","last_reported":1750173093,"current_range_meters":19200,"station_id":"ce4bhq92rcd13ifvqhkg","pricing_plan_id":"cebpf4jnsgd1na2vs0mg"},{"bike_id":"8c4bfa8c-9453-432c-a2c9-1811777a8423","system_id":"levelo_inurba_marseille","lat":43.28042,"lon":5.36937,"is_reserved":false,"is_disabled":false,"rental_uris":{"android":"levelo://app?vid=8c4bfa8c-9453-432c-a2c9-1811777a8423","ios":"levelo://app?vid=8c4bfa8c-9453-432c-a2c9-1811777a8423"},"vehicle_type_id":"4","last_reported":1750173093,"current_range_meters":19600,"station_id":"ce4bha12rcd13ifvqef0","pricing_plan_id":"cebpf4jnsgd1na2vs0mg"},{"bike_id":"28701354-04db-4ccd-965d-529bbc82fcd5","system_id":"levelo_inurba_marseille","lat":43.21206,"lon":5.35063,"is_reserved":false,"is_disabled":false,"rental_uris":{"android":"levelo://app?vid=28701354-04db-4ccd-965d-529bbc82fcd5","ios":"levelo://app?vid=28701354-04db-4ccd-965d-529bbc82fcd5"},"vehicle_type_id":"4","last_reported":1750173093,"current_range_meters":19600,"station_id":"st_cvj6sg6p6f1abm77japg","pricing_plan_id":"cebpf4jnsgd1na2vs0mg"},{"bike_id":"744cf4fa-bb14-4576-929f-2f6effc633c9","system_id":"levelo_inurba_marseille","lat":43.29438,"lon":5.43259,"is_reserved":false,"is_disabled":false,"rental_uris":{"android":"levelo://app?vid=744cf4fa-bb14-4576-929f-2f6effc633c9","ios":"levelo://app?vid=744cf4fa-bb14-4576-929f-2f6effc633c9"},"vehicle_type_id":"4","last_reported":1750173093,"current_range_meters":20000,"station_id":"","pricing_plan_id":"cebpf4jnsgd1na2vs0mg"},{"bike_id":"50261b8d-881e-4a15-bc14-456987b368fb","system_id":"levelo_inurba_marseille","lat":43.30273,"lon":5.36897,"is_reserved":false,"is_disabled":false,"rental_uris":{"android":"levelo://app?vid=50261b8d-881e-4a15-bc14-456987b368fb","ios":"levelo://app?vid=50261b8d-881e-4a15-bc14-456987b368fb"},"vehicle_type_id":"4","last_reported":1750173093,"current_range_meters":20000,"station_id":"ce4bgqh2rcd13ifvqc5g","pricing_plan_id":"cebpf4jnsgd1na2vs0mg"},{"bike_id":"741cc00e-faae-45c3-a464-e5ed6019cfc7","system_id":"levelo_inurba_marseille","lat":43.29579,"lon":5.40001,"is_reserved":false,"is_disabled":false,"rental_uris":{"android":"levelo://app?vid=741cc00e-faae-45c3-a464-e5ed6019cfc7","ios":"levelo://app?vid=741cc00e-faae-45c3-a464-e5ed6019cfc7"},"vehicle_type_id":"4","last_reported":1750173093,"current_range_meters":20000,"station_id":"ce4bh312rcd13ifvqdj0","pricing_plan_id":"cebpf4jnsgd1na2vs0mg"},{"bike_id":"7d323fe3-a48f-41da-8026-436298dd6903","system_id":"levelo_inurba_marseille","lat":43.28412,"lon":5.34997,"is_reserved":false,"is_disabled":false,"rental_uris":{"android":"levelo://app?vid=7d323fe3-a48f-41da-8026-436298dd6903","ios":"levelo://app?vid=7d323fe3-a48f-41da-8026-436298dd6903"},"vehicle_type_id":"4","last_reported":1750173093,"current_range_meters":20000,"station_id":"ce4bhbh2rcd13ifvqepg","pricing_plan_id":"cebpf4jnsgd1na2vs0mg"},{"bike_id":"693b283f-5bb1-4f42-af99-2fb9e75a2438","system_id":"levelo_inurba_marseille","lat":43.24389,"lon":5.370573,"is_reserved":false,"is_disabled":false,"rental_uris":{"android":"levelo://app?vid=693b283f-5bb1-4f42-af99-2fb9e75a2438","ios":"levelo://app?vid=693b283f-5bb1-4f42-af99-2fb9e75a2438"},"vehicle_type_id":"4","last_reported":1750173093,"current_range_meters":20000,"station_id":"ce4bhu92rcd13ifvqi70","pricing_plan_id":"cebpf4jnsgd1na2vs0mg"},{"bike_id":"54cebbad-17db-4f40-8141-8eedac83be3f","system_id":"levelo_inurba_marseille","lat":43.33765,"lon":5.37426,"is_reserved":false,"is_disabled":false,"rental_uris":{"android":"levelo://app?vid=54cebbad-17db-4f40-8141-8eedac83be3f","ios":"levelo://app?vid=54cebbad-17db-4f40-8141-8eedac83be3f"},"vehicle_type_id":"4","last_reported":1750173093,"current_range_meters":20400,"station_id":"","pricing_plan_id":"cebpf4jnsgd1na2vs0mg"},{"bike_id":"f5447d56-fa14-4d34-9ac7-b0bbb035ba52","system_id":"levelo_inurba_marseille","lat":43.2737,"lon":5.36271,"is_reserved":false,"is_disabled":false,"rental_uris":{"android":"levelo://app?vid=f5447d56-fa14-4d34-9ac7-b0bbb035ba52","ios":"levelo://app?vid=f5447d56-fa14-4d34-9ac7-b0bbb035ba52"},"vehicle_type_id":"4","last_reported":1750173093,"current_range_meters":20400,"station_id":"ce4bhbh2rcd13ifvqeo0","pricing_plan_id":"cebpf4jnsgd1na2vs0mg"},{"bike_id":"c1f010d4-2315-444e-bea5-8917443da6cd","system_id":"levelo_inurba_marseille","lat":43.284218,"lon":5.349862,"is_reserved":false,"is_disabled":false,"rental_uris":{"android":"levelo://app?vid=c1f010d4-2315-444e-bea5-8917443da6cd","ios":"levelo://app?vid=c1f010d4-2315-444e-bea5-8917443da6cd"},"vehicle_type_id":"4","last_reported":1750173093,"current_range_meters":20400,"station_id":"ce4bhbh2rcd13ifvqepg","pricing_plan_id":"cebpf4jnsgd1na2vs0mg"},{"bike_id":"afb34420-f542-4d7b-b0d7-1a2cc3c7f08a","system_id":"levelo_inurba_marseille","lat":43.24665,"lon":5.38169,"is_reserved":false,"is_disabled":false,"rental_uris":{"android":"levelo://app?vid=afb34420-f542-4d7b-b0d7-1a2cc3c7f08a","ios":"levelo://app?vid=afb34420-f542-4d7b-b0d7-1a2cc3c7f08a"},"vehicle_type_id":"4","last_reported":1750173093,"current_range_meters":20400,"station_id":"ce4bhih2rcd13ifvqfr0","pricing_plan_id":"cebpf4jnsgd1na2vs0mg"},{"bike_id":"61185e51-def2-4557-89b9-f06c340ff2e2","system_id":"levelo_inurba_marseille","lat":43.212016,"lon":5.350732,"is_reserved":false,"is_disabled":false,"rental_uris":{"android":"levelo://app?vid=61185e51-def2-4557-89b9-f06c340ff2e2","ios":"levelo://app?vid=61185e51-def2-4557-89b9-f06c340ff2e2"},"vehicle_type_id":"4","last_reported":1750173093,"current_range_meters":20400,"station_id":"st_cvj6sg6p6f1abm77japg","pricing_plan_id":"cebpf4jnsgd1na2vs0mg"},{"bike_id":"37c0df59-74f1-4857-b3ac-ff6f17e282cb","system_id":"levelo_inurba_marseille","lat":43.3309,"lon":5.38446,"is_reserved":false,"is_disabled":false,"rental_uris":{"android":"levelo://app?vid=37c0df59-74f1-4857-b3ac-ff6f17e282cb","ios":"levelo://app?vid=37c0df59-74f1-4857-b3ac-ff6f17e282cb"},"vehicle_type_id":"4","last_reported":1750173093,"current_range_meters":20800,"station_id":"","pricing_plan_id":"cebpf4jnsgd1na2vs0mg"},{"bike_id":"766a9635-cbcd-4462-8510-654b8ea73adc","system_id":"levelo_inurba_marseille","lat":43.27618,"lon":5.361,"is_reserved":false,"is_disabled":false,"rental_uris":{"android":"levelo://app?vid=766a9635-cbcd-4462-8510-654b8ea73adc","ios":"levelo://app?vid=766a9635-cbcd-4462-8510-654b8ea73adc"},"vehicle_type_id":"4","last_reported":1750173093,"current_range_meters":20800,"station_id":"ce4bgj92rcd13ifvqbe0","pricing_plan_id":"cebpf4jnsgd1na2vs0mg"},{"bike_id":"32ffe485-1d24-4492-b49f-5dc60a270ad9","system_id":"levelo_inurba_marseille","lat":43.30881,"lon":5.39656,"is_reserved":false,"is_disabled":false,"rental_uris":{"android":"levelo://app?vid=32ffe485-1d24-4492-b49f-5dc60a270ad9","ios":"levelo://app?vid=32ffe485-1d24-4492-b49f-5dc60a270ad9"},"vehicle_type_id":"4","last_reported":1750173093,"current_range_meters":20800,"station_id":"ce4bh012rcd13ifvqcv0","pricing_plan_id":"cebpf4jnsgd1na2vs0mg"},{"bike_id":"07a3edd9-b05e-44ae-ad2b-7b8ba22896b2","system_id":"levelo_inurba_marseille","lat":43.29003,"lon":5.35612,"is_reserved":false,"is_disabled":false,"rental_uris":{"android":"levelo://app?vid=07a3edd9-b05e-44ae-ad2b-7b8ba22896b2","ios":"levelo://app?vid=07a3edd9-b05e-44ae-ad2b-7b8ba22896b2"},"vehicle_type_id":"4","last_reported":1750173093,"current_range_meters":20800,"station_id":"ce4bhb92rcd13ifvqen0","pricing_plan_id":"cebpf4jnsgd1na2vs0mg"},{"bike_id":"329fa638-5cae-4d80-84a0-f7375cb03d86","system_id":"levelo_inurba_marseille","lat":43.28412,"lon":5.3499,"is_reserved":false,"is_disabled":false,"rental_uris":{"android":"levelo://app?vid=329fa638-5cae-4d80-84a0-f7375cb03d86","ios":"levelo://app?vid=329fa638-5cae-4d80-84a0-f7375cb03d86"},"vehicle_type_id":"4","last_reported":1750173093,"current_range_meters":20800,"station_id":"ce4bhbh2rcd13ifvqepg","pricing_plan_id":"cebpf4jnsgd1na2vs0mg"},{"bike_id":"cf66554d-2a26-44dc-a4b2-76d6e470909c","system_id":"levelo_inurba_marseille","lat":43.24651,"lon":5.3889,"is_reserved":false,"is_disabled":false,"rental_uris":{"android":"levelo://app?vid=cf66554d-2a26-44dc-a4b2-76d6e470909c","ios":"levelo://app?vid=cf66554d-2a26-44dc-a4b2-76d6e470909c"},"vehicle_type_id":"4","last_reported":1750173093,"current_range_meters":20800,"station_id":"ce4bhg12rcd13ifvqf60","pricing_plan_id":"cebpf4jnsgd1na2vs0mg"},{"bike_id":"06a646b8-9f9e-4b4e-a36b-c1e9373305d1","system_id":"levelo_inurba_marseille","lat":43.31113,"lon":5.37769,"is_reserved":false,"is_disabled":false,"rental_uris":{"android":"levelo://app?vid=06a646b8-9f9e-4b4e-a36b-c1e9373305d1","ios":"levelo://app?vid=06a646b8-9f9e-4b4e-a36b-c1e9373305d1"},"vehicle_type_id":"4","last_reported":1750173093,"current_range_meters":21600,"station_id":"ce4bgt92rcd13ifvqcg0","pricing_plan_id":"cebpf4jnsgd1na2vs0mg"},{"bike_id":"fe52faed-8e0b-4bff-839b-6d7d716964d1","system_id":"levelo_inurba_marseille","lat":43.2621,"lon":5.37439,"is_reserved":false,"is_disabled":false,"rental_uris":{"android":"levelo://app?vid=fe52faed-8e0b-4bff-839b-6d7d716964d1","ios":"levelo://app?vid=fe52faed-8e0b-4bff-839b-6d7d716964d1"},"vehicle_type_id":"4","last_reported":1750173093,"current_range_meters":21600,"station_id":"ce4bhgp2rcd13ifvqfc0","pricing_plan_id":"cebpf4jnsgd1na2vs0mg"},{"bike_id":"da140461-c921-4923-b913-47e48d9880fd","system_id":"levelo_inurba_marseille","lat":43.28075,"lon":5.39657,"is_reserved":false,"is_disabled":false,"rental_uris":{"android":"levelo://app?vid=da140461-c921-4923-b913-47e48d9880fd","ios":"levelo://app?vid=da140461-c921-4923-b913-47e48d9880fd"},"vehicle_type_id":"4","last_reported":1750173093,"current_range_meters":21600,"station_id":"ce4bho12rcd13ifvqh2g","pricing_plan_id":"cebpf4jnsgd1na2vs0mg"},{"bike_id":"b2372ff6-5571-42d5-b562-23ecdeb52de0","system_id":"levelo_inurba_marseille","lat":43.2119,"lon":5.35073,"is_reserved":false,"is_disabled":false,"rental_uris":{"android":"levelo://app?vid=b2372ff6-5571-42d5-b562-23ecdeb52de0","ios":"levelo://app?vid=b2372ff6-5571-42d5-b562-23ecdeb52de0"},"vehicle_type_id":"4","last_reported":1750173093,"current_range_meters":21600,"station_id":"st_cvj6sg6p6f1abm77japg","pricing_plan_id":"cebpf4jnsgd1na2vs0mg"},{"bike_id":"a6e98eea-c705-4206-89d6-68648478a828","system_id":"levelo_inurba_marseille","lat":43.28789,"lon":5.35237,"is_reserved":false,"is_disabled":false,"rental_uris":{"android":"levelo://app?vid=a6e98eea-c705-4206-89d6-68648478a828","ios":"levelo://app?vid=a6e98eea-c705-4206-89d6-68648478a828"},"vehicle_type_id":"4","last_reported":1750173093,"current_range_meters":22000,"station_id":"","pricing_plan_id":"cebpf4jnsgd1na2vs0mg"},{"bike_id":"6b027232-c914-4b7b-ac31-54ae0f0bbe73","system_id":"levelo_inurba_marseille","lat":43.293016,"lon":5.374655,"is_reserved":false,"is_disabled":false,"rental_uris":{"android":"levelo://app?vid=6b027232-c914-4b7b-ac31-54ae0f0bbe73","ios":"levelo://app?vid=6b027232-c914-4b7b-ac31-54ae0f0bbe73"},"vehicle_type_id":"4","last_reported":1750173093,"current_range_meters":22000,"station_id":"","pricing_plan_id":"cebpf4jnsgd1na2vs0mg"},{"bike_id":"973f1b6b-b065-45e7-a89b-4c3d6a25ce97","system_id":"levelo_inurba_marseille","lat":43.31328,"lon":5.39696,"is_reserved":false,"is_disabled":false,"rental_uris":{"android":"levelo://app?vid=973f1b6b-b065-45e7-a89b-4c3d6a25ce97","ios":"levelo://app?vid=973f1b6b-b065-45e7-a89b-4c3d6a25ce97"},"vehicle_type_id":"4","last_reported":1750173093,"current_range_meters":22000,"station_id":"ce4bgvp2rcd13ifvqcu0","pricing_plan_id":"cebpf4jnsgd1na2vs0mg"},{"bike_id":"b39c0c08-f0ce-4b0f-8f5f-afee88d68de4","system_id":"levelo_inurba_marseille","lat":43.2908,"lon":5.37168,"is_reserved":false,"is_disabled":false,"rental_uris":{"android":"levelo://app?vid=b39c0c08-f0ce-4b0f-8f5f-afee88d68de4","ios":"levelo://app?vid=b39c0c08-f0ce-4b0f-8f5f-afee88d68de4"},"vehicle_type_id":"4","last_reported":1750173093,"current_range_meters":22000,"station_id":"ce4bh5p2rcd13ifvqe4g","pricing_plan_id":"cebpf4jnsgd1na2vs0mg"},{"bike_id":"86d4aa42-ca5d-4b7b-9602-5acb9f3d211e","system_id":"levelo_inurba_marseille","lat":43.28417,"lon":5.35,"is_reserved":false,"is_disabled":false,"rental_uris":{"android":"levelo://app?vid=86d4aa42-ca5d-4b7b-9602-5acb9f3d211e","ios":"levelo://app?vid=86d4aa42-ca5d-4b7b-9602-5acb9f3d211e"},"vehicle_type_id":"4","last_reported":1750173093,"current_range_meters":22000,"station_id":"ce4bhbh2rcd13ifvqepg","pricing_plan_id":"cebpf4jnsgd1na2vs0mg"},{"bike_id":"48702a71-0750-4380-b8b4-6815276de774","system_id":"levelo_inurba_marseille","lat":43.23966,"lon":5.36625,"is_reserved":false,"is_disabled":false,"rental_uris":{"android":"levelo://app?vid=48702a71-0750-4380-b8b4-6815276de774","ios":"levelo://app?vid=48702a71-0750-4380-b8b4-6815276de774"},"vehicle_type_id":"4","last_reported":1750173093,"current_range_meters":22000,"station_id":"ce4bhi12rcd13ifvqfp0","pricing_plan_id":"cebpf4jnsgd1na2vs0mg"},{"bike_id":"8c26cbe9-ec4a-47b0-a3c2-563d10eef78c","system_id":"levelo_inurba_marseille","lat":43.29559,"lon":5.42294,"is_reserved":false,"is_disabled":false,"rental_uris":{"android":"levelo://app?vid=8c26cbe9-ec4a-47b0-a3c2-563d10eef78c","ios":"levelo://app?vid=8c26cbe9-ec4a-47b0-a3c2-563d10eef78c"},"vehicle_type_id":"4","last_reported":1750173093,"current_range_meters":22000,"station_id":"ce4bhph2rcd13ifvqhdg","pricing_plan_id":"cebpf4jnsgd1na2vs0mg"},{"bike_id":"092b451a-ca1a-4ef4-ae94-87645936d24d","system_id":"levelo_inurba_marseille","lat":43.21772,"lon":5.34578,"is_reserved":false,"is_disabled":false,"rental_uris":{"android":"levelo://app?vid=092b451a-ca1a-4ef4-ae94-87645936d24d","ios":"levelo://app?vid=092b451a-ca1a-4ef4-ae94-87645936d24d"},"vehicle_type_id":"4","last_reported":1750173093,"current_range_meters":22000,"station_id":"st_cvj6r9ubvosntc0bgbag","pricing_plan_id":"cebpf4jnsgd1na2vs0mg"},{"bike_id":"95d73ec8-1995-4e53-bcd3-94df36e9714b","system_id":"levelo_inurba_marseille","lat":43.32586,"lon":5.37759,"is_reserved":false,"is_disabled":false,"rental_uris":{"android":"levelo://app?vid=95d73ec8-1995-4e53-bcd3-94df36e9714b","ios":"levelo://app?vid=95d73ec8-1995-4e53-bcd3-94df36e9714b"},"vehicle_type_id":"4","last_reported":1750173093,"current_range_meters":22400,"station_id":"","pricing_plan_id":"cebpf4jnsgd1na2vs0mg"},{"bike_id":"655a3052-bd15-4b2c-8ee7-e6f1f7ea8bef","system_id":"levelo_inurba_marseille","lat":43.28432,"lon":5.35027,"is_reserved":false,"is_disabled":false,"rental_uris":{"android":"levelo://app?vid=655a3052-bd15-4b2c-8ee7-e6f1f7ea8bef","ios":"levelo://app?vid=655a3052-bd15-4b2c-8ee7-e6f1f7ea8bef"},"vehicle_type_id":"4","last_reported":1750173093,"current_range_meters":22400,"station_id":"ce4bhbh2rcd13ifvqepg","pricing_plan_id":"cebpf4jnsgd1na2vs0mg"},{"bike_id":"dcb2f791-bd57-428f-bb15-ea893ebed103","system_id":"levelo_inurba_marseille","lat":43.27931,"lon":5.41035,"is_reserved":false,"is_disabled":false,"rental_uris":{"android":"levelo://app?vid=dcb2f791-bd57-428f-bb15-ea893ebed103","ios":"levelo://app?vid=dcb2f791-bd57-428f-bb15-ea893ebed103"},"vehicle_type_id":"4","last_reported":1750173093,"current_range_meters":22400,"station_id":"ce4bhnp2rcd13ifvqh0g","pricing_plan_id":"cebpf4jnsgd1na2vs0mg"},{"bike_id":"99cfd2f5-aad9-48ef-8bcb-4e9cc6031c1e","system_id":"levelo_inurba_marseille","lat":43.24169,"lon":5.36395,"is_reserved":false,"is_disabled":false,"rental_uris":{"android":"levelo://app?vid=99cfd2f5-aad9-48ef-8bcb-4e9cc6031c1e","ios":"levelo://app?vid=99cfd2f5-aad9-48ef-8bcb-4e9cc6031c1e"},"vehicle_type_id":"4","last_reported":1750173093,"current_range_meters":22400,"station_id":"cpo36qri1sfpv3e86is0","pricing_plan_id":"cebpf4jnsgd1na2vs0mg"},{"bike_id":"9faf55fe-1e7f-43ab-8b2c-706b378e561c","system_id":"levelo_inurba_marseille","lat":43.21191,"lon":5.35075,"is_reserved":false,"is_disabled":false,"rental_uris":{"android":"levelo://app?vid=9faf55fe-1e7f-43ab-8b2c-706b378e561c","ios":"levelo://app?vid=9faf55fe-1e7f-43ab-8b2c-706b378e561c"},"vehicle_type_id":"4","last_reported":1750173093,"current_range_meters":22400,"station_id":"st_cvj6sg6p6f1abm77japg","pricing_plan_id":"cebpf4jnsgd1na2vs0mg"},{"bike_id":"bccf3f0c-cab7-44d2-8ffb-915e21563a12","system_id":"levelo_inurba_marseille","lat":43.337444,"lon":5.374475,"is_reserved":false,"is_disabled":false,"rental_uris":{"android":"levelo://app?vid=bccf3f0c-cab7-44d2-8ffb-915e21563a12","ios":"levelo://app?vid=bccf3f0c-cab7-44d2-8ffb-915e21563a12"},"vehicle_type_id":"4","last_reported":1750173093,"current_range_meters":22800,"station_id":"","pricing_plan_id":"cebpf4jnsgd1na2vs0mg"},{"bike_id":"ab164a4e-7a16-4979-80cf-ff432403028e","system_id":"levelo_inurba_marseille","lat":43.28264,"lon":5.35064,"is_reserved":false,"is_disabled":false,"rental_uris":{"android":"levelo://app?vid=ab164a4e-7a16-4979-80cf-ff432403028e","ios":"levelo://app?vid=ab164a4e-7a16-4979-80cf-ff432403028e"},"vehicle_type_id":"4","last_reported":1750173093,"current_range_meters":22800,"station_id":"ce4bhbp2rcd13ifvqerg","pricing_plan_id":"cebpf4jnsgd1na2vs0mg"},{"bike_id":"a73ba0eb-5715-49a8-9ee4-8c5fa3f89a91","system_id":"levelo_inurba_marseille","lat":43.25874,"lon":5.39892,"is_reserved":false,"is_disabled":false,"rental_uris":{"android":"levelo://app?vid=a73ba0eb-5715-49a8-9ee4-8c5fa3f89a91","ios":"levelo://app?vid=a73ba0eb-5715-49a8-9ee4-8c5fa3f89a91"},"vehicle_type_id":"4","last_reported":1750173093,"current_range_meters":22800,"station_id":"ce4bhl92rcd13ifvqghg","pricing_plan_id":"cebpf4jnsgd1na2vs0mg"},{"bike_id":"27cd7138-8b58-4d27-b6bb-d957b614e63b","system_id":"levelo_inurba_marseille","lat":43.30158,"lon":5.3699,"is_reserved":false,"is_disabled":false,"rental_uris":{"android":"levelo://app?vid=27cd7138-8b58-4d27-b6bb-d957b614e63b","ios":"levelo://app?vid=27cd7138-8b58-4d27-b6bb-d957b614e63b"},"vehicle_type_id":"4","last_reported":1750173093,"current_range_meters":23200,"station_id":"","pricing_plan_id":"cebpf4jnsgd1na2vs0mg"},{"bike_id":"6af764ba-ab26-4610-ba64-94331eabe9f9","system_id":"levelo_inurba_marseille","lat":43.30876,"lon":5.396536,"is_reserved":false,"is_disabled":false,"rental_uris":{"android":"levelo://app?vid=6af764ba-ab26-4610-ba64-94331eabe9f9","ios":"levelo://app?vid=6af764ba-ab26-4610-ba64-94331eabe9f9"},"vehicle_type_id":"4","last_reported":1750173093,"current_range_meters":23200,"station_id":"","pricing_plan_id":"cebpf4jnsgd1na2vs0mg"},{"bike_id":"8cf7f3a4-c3b0-488a-b215-6a7dbe715e87","system_id":"levelo_inurba_marseille","lat":43.295291,"lon":5.385373,"is_reserved":false,"is_disabled":false,"rental_uris":{"android":"levelo://app?vid=8cf7f3a4-c3b0-488a-b215-6a7dbe715e87","ios":"levelo://app?vid=8cf7f3a4-c3b0-488a-b215-6a7dbe715e87"},"vehicle_type_id":"4","last_reported":1750173093,"current_range_meters":23200,"station_id":"ce4bgih2rcd13ifvqba0","pricing_plan_id":"cebpf4jnsgd1na2vs0mg"},{"bike_id":"4abd83c3-88bc-4d02-88d6-3adce95329e5","system_id":"levelo_inurba_marseille","lat":43.28414,"lon":5.34995,"is_reserved":false,"is_disabled":false,"rental_uris":{"android":"levelo://app?vid=4abd83c3-88bc-4d02-88d6-3adce95329e5","ios":"levelo://app?vid=4abd83c3-88bc-4d02-88d6-3adce95329e5"},"vehicle_type_id":"4","last_reported":1750173093,"current_range_meters":23200,"station_id":"ce4bhbh2rcd13ifvqepg","pricing_plan_id":"cebpf4jnsgd1na2vs0mg"},{"bike_id":"b40f310e-d413-44bb-94a3-bf2a511fb269","system_id":"levelo_inurba_marseille","lat":43.28266,"lon":5.35062,"is_reserved":false,"is_disabled":false,"rental_uris":{"android":"levelo://app?vid=b40f310e-d413-44bb-94a3-bf2a511fb269","ios":"levelo://app?vid=b40f310e-d413-44bb-94a3-bf2a511fb269"},"vehicle_type_id":"4","last_reported":1750173093,"current_range_meters":23200,"station_id":"ce4bhbp2rcd13ifvqerg","pricing_plan_id":"cebpf4jnsgd1na2vs0mg"},{"bike_id":"a7dc4588-ee26-43a2-a918-95a83d6f6d4b","system_id":"levelo_inurba_marseille","lat":43.24795,"lon":5.37472,"is_reserved":false,"is_disabled":false,"rental_uris":{"android":"levelo://app?vid=a7dc4588-ee26-43a2-a918-95a83d6f6d4b","ios":"levelo://app?vid=a7dc4588-ee26-43a2-a918-95a83d6f6d4b"},"vehicle_type_id":"4","last_reported":1750173093,"current_range_meters":23200,"station_id":"ce4bhgh2rcd13ifvqfb0","pricing_plan_id":"cebpf4jnsgd1na2vs0mg"},{"bike_id":"2d990c90-aedc-422a-a2e1-a9afaae678ba","system_id":"levelo_inurba_marseille","lat":43.24802,"lon":5.3745,"is_reserved":false,"is_disabled":false,"rental_uris":{"android":"levelo://app?vid=2d990c90-aedc-422a-a2e1-a9afaae678ba","ios":"levelo://app?vid=2d990c90-aedc-422a-a2e1-a9afaae678ba"},"vehicle_type_id":"4","last_reported":1750173093,"current_range_meters":23200,"station_id":"ce4bhgh2rcd13ifvqfb0","pricing_plan_id":"cebpf4jnsgd1na2vs0mg"},{"bike_id":"a3d5b605-d7c4-478f-9fc1-c42d8e295610","system_id":"levelo_inurba_marseille","lat":43.27949,"lon":5.41045,"is_reserved":false,"is_disabled":false,"rental_uris":{"android":"levelo://app?vid=a3d5b605-d7c4-478f-9fc1-c42d8e295610","ios":"levelo://app?vid=a3d5b605-d7c4-478f-9fc1-c42d8e295610"},"vehicle_type_id":"4","last_reported":1750173093,"current_range_meters":23200,"station_id":"ce4bhnp2rcd13ifvqh0g","pricing_plan_id":"cebpf4jnsgd1na2vs0mg"},{"bike_id":"03c2a29e-b3f5-47e4-b1dd-27f95de76333","system_id":"levelo_inurba_marseille","lat":43.28075,"lon":5.39649,"is_reserved":false,"is_disabled":false,"rental_uris":{"android":"levelo://app?vid=03c2a29e-b3f5-47e4-b1dd-27f95de76333","ios":"levelo://app?vid=03c2a29e-b3f5-47e4-b1dd-27f95de76333"},"vehicle_type_id":"4","last_reported":1750173093,"current_range_meters":23200,"station_id":"ce4bho12rcd13ifvqh2g","pricing_plan_id":"cebpf4jnsgd1na2vs0mg"},{"bike_id":"1a09f337-251a-46fa-a050-c2869baee5a9","system_id":"levelo_inurba_marseille","lat":43.30533,"lon":5.36546,"is_reserved":false,"is_disabled":false,"rental_uris":{"android":"levelo://app?vid=1a09f337-251a-46fa-a050-c2869baee5a9","ios":"levelo://app?vid=1a09f337-251a-46fa-a050-c2869baee5a9"},"vehicle_type_id":"4","last_reported":1750173093,"current_range_meters":24000,"station_id":"ce4bgs12rcd13ifvqcag","pricing_plan_id":"cebpf4jnsgd1na2vs0mg"},{"bike_id":"f0423936-7533-4011-aa4c-f23f62cb9dc1","system_id":"levelo_inurba_marseille","lat":43.28996,"lon":5.35613,"is_reserved":false,"is_disabled":false,"rental_uris":{"android":"levelo://app?vid=f0423936-7533-4011-aa4c-f23f62cb9dc1","ios":"levelo://app?vid=f0423936-7533-4011-aa4c-f23f62cb9dc1"},"vehicle_type_id":"4","last_reported":1750173093,"current_range_meters":24000,"station_id":"ce4bhb92rcd13ifvqen0","pricing_plan_id":"cebpf4jnsgd1na2vs0mg"},{"bike_id":"704fe375-44c9-4902-8da2-3da34b6e099c","system_id":"levelo_inurba_marseille","lat":43.27377,"lon":5.36257,"is_reserved":false,"is_disabled":false,"rental_uris":{"android":"levelo://app?vid=704fe375-44c9-4902-8da2-3da34b6e099c","ios":"levelo://app?vid=704fe375-44c9-4902-8da2-3da34b6e099c"},"vehicle_type_id":"4","last_reported":1750173093,"current_range_meters":24000,"station_id":"ce4bhbh2rcd13ifvqeo0","pricing_plan_id":"cebpf4jnsgd1na2vs0mg"},{"bike_id":"aac3386f-93c3-4d89-8201-9601c91b387f","system_id":"levelo_inurba_marseille","lat":43.29225,"lon":5.36066,"is_reserved":false,"is_disabled":false,"rental_uris":{"android":"levelo://app?vid=aac3386f-93c3-4d89-8201-9601c91b387f","ios":"levelo://app?vid=aac3386f-93c3-4d89-8201-9601c91b387f"},"vehicle_type_id":"4","last_reported":1750173093,"current_range_meters":24000,"station_id":"ce4bhbh2rcd13ifvqeqg","pricing_plan_id":"cebpf4jnsgd1na2vs0mg"},{"bike_id":"c5c5d108-4a03-4e49-9afb-309c0c5ffb23","system_id":"levelo_inurba_marseille","lat":43.241832,"lon":5.397132,"is_reserved":false,"is_disabled":false,"rental_uris":{"android":"levelo://app?vid=c5c5d108-4a03-4e49-9afb-309c0c5ffb23","ios":"levelo://app?vid=c5c5d108-4a03-4e49-9afb-309c0c5ffb23"},"vehicle_type_id":"4","last_reported":1750173093,"current_range_meters":24000,"station_id":"ce4bhn12rcd13ifvqgpg","pricing_plan_id":"cebpf4jnsgd1na2vs0mg"},{"bike_id":"74966967-4262-47a8-b898-c10e45c1f375","system_id":"levelo_inurba_marseille","lat":43.21195,"lon":5.35068,"is_reserved":false,"is_disabled":false,"rental_uris":{"android":"levelo://app?vid=74966967-4262-47a8-b898-c10e45c1f375","ios":"levelo://app?vid=74966967-4262-47a8-b898-c10e45c1f375"},"vehicle_type_id":"4","last_reported":1750173093,"current_range_meters":24000,"station_id":"st_cvj6sg6p6f1abm77japg","pricing_plan_id":"cebpf4jnsgd1na2vs0mg"},{"bike_id":"7c20705d-cdb4-40ae-999e-a9e39620caf4","system_id":"levelo_inurba_marseille","lat":43.31481,"lon":5.37308,"is_reserved":false,"is_disabled":false,"rental_uris":{"android":"levelo://app?vid=7c20705d-cdb4-40ae-999e-a9e39620caf4","ios":"levelo://app?vid=7c20705d-cdb4-40ae-999e-a9e39620caf4"},"vehicle_type_id":"4","last_reported":1750173093,"current_range_meters":24400,"station_id":"","pricing_plan_id":"cebpf4jnsgd1na2vs0mg"},{"bike_id":"ea622e4a-28d7-4775-88e0-d295f53ff44e","system_id":"levelo_inurba_marseille","lat":43.2811,"lon":5.3783,"is_reserved":false,"is_disabled":false,"rental_uris":{"android":"levelo://app?vid=ea622e4a-28d7-4775-88e0-d295f53ff44e","ios":"levelo://app?vid=ea622e4a-28d7-4775-88e0-d295f53ff44e"},"vehicle_type_id":"4","last_reported":1750173093,"current_range_meters":24400,"station_id":"ce4bha12rcd13ifvqee0","pricing_plan_id":"cebpf4jnsgd1na2vs0mg"},{"bike_id":"766bdf4e-4ed3-40a4-9eb8-fa761fcb3306","system_id":"levelo_inurba_marseille","lat":43.2846,"lon":5.35887,"is_reserved":false,"is_disabled":false,"rental_uris":{"android":"levelo://app?vid=766bdf4e-4ed3-40a4-9eb8-fa761fcb3306","ios":"levelo://app?vid=766bdf4e-4ed3-40a4-9eb8-fa761fcb3306"},"vehicle_type_id":"4","last_reported":1750173093,"current_range_meters":24400,"station_id":"ce4bhah2rcd13ifvqei0","pricing_plan_id":"cebpf4jnsgd1na2vs0mg"},{"bike_id":"ef156bb7-58b5-4040-b795-f935539e04a4","system_id":"levelo_inurba_marseille","lat":43.27834,"lon":5.39207,"is_reserved":false,"is_disabled":false,"rental_uris":{"android":"levelo://app?vid=ef156bb7-58b5-4040-b795-f935539e04a4","ios":"levelo://app?vid=ef156bb7-58b5-4040-b795-f935539e04a4"},"vehicle_type_id":"4","last_reported":1750173093,"current_range_meters":24400,"station_id":"ce4bhjp2rcd13ifvqga0","pricing_plan_id":"cebpf4jnsgd1na2vs0mg"},{"bike_id":"2ed2ae7b-e303-451e-8041-e68de903730f","system_id":"levelo_inurba_marseille","lat":43.24069,"lon":5.37733,"is_reserved":false,"is_disabled":false,"rental_uris":{"android":"levelo://app?vid=2ed2ae7b-e303-451e-8041-e68de903730f","ios":"levelo://app?vid=2ed2ae7b-e303-451e-8041-e68de903730f"},"vehicle_type_id":"4","last_reported":1750173093,"current_range_meters":24400,"station_id":"ce4bhnp2rcd13ifvqgvg","pricing_plan_id":"cebpf4jnsgd1na2vs0mg"},{"bike_id":"7dc4d83b-cb64-4a98-8205-0414d815f30e","system_id":"levelo_inurba_marseille","lat":43.324905,"lon":5.366042,"is_reserved":false,"is_disabled":false,"rental_uris":{"android":"levelo://app?vid=7dc4d83b-cb64-4a98-8205-0414d815f30e","ios":"levelo://app?vid=7dc4d83b-cb64-4a98-8205-0414d815f30e"},"vehicle_type_id":"4","last_reported":1750173093,"current_range_meters":24400,"station_id":"ce4bhs12rcd13ifvqhvg","pricing_plan_id":"cebpf4jnsgd1na2vs0mg"},{"bike_id":"3c117236-9d11-4e1a-a003-e75313bf0450","system_id":"levelo_inurba_marseille","lat":43.306,"lon":5.37228,"is_reserved":false,"is_disabled":false,"rental_uris":{"android":"levelo://app?vid=3c117236-9d11-4e1a-a003-e75313bf0450","ios":"levelo://app?vid=3c117236-9d11-4e1a-a003-e75313bf0450"},"vehicle_type_id":"4","last_reported":1750173093,"current_range_meters":24800,"station_id":"ce4bgqh2rcd13ifvqc4g","pricing_plan_id":"cebpf4jnsgd1na2vs0mg"},{"bike_id":"5e2d8d90-eab4-4a75-a5df-3c655105d92e","system_id":"levelo_inurba_marseille","lat":43.29438,"lon":5.39747,"is_reserved":false,"is_disabled":false,"rental_uris":{"android":"levelo://app?vid=5e2d8d90-eab4-4a75-a5df-3c655105d92e","ios":"levelo://app?vid=5e2d8d90-eab4-4a75-a5df-3c655105d92e"},"vehicle_type_id":"4","last_reported":1750173093,"current_range_meters":24800,"station_id":"ce4bh3h2rcd13ifvqdo0","pricing_plan_id":"cebpf4jnsgd1na2vs0mg"},{"bike_id":"782d8a47-0bec-45f4-b0d0-07dca27736cb","system_id":"levelo_inurba_marseille","lat":43.26582,"lon":5.39055,"is_reserved":false,"is_disabled":false,"rental_uris":{"android":"levelo://app?vid=782d8a47-0bec-45f4-b0d0-07dca27736cb","ios":"levelo://app?vid=782d8a47-0bec-45f4-b0d0-07dca27736cb"},"vehicle_type_id":"4","last_reported":1750173093,"current_range_meters":24800,"station_id":"ce4bhe12rcd13ifvqf30","pricing_plan_id":"cebpf4jnsgd1na2vs0mg"},{"bike_id":"b3cf27fb-8949-40b8-8c43-e71e39d2b97c","system_id":"levelo_inurba_marseille","lat":43.26027,"lon":5.37549,"is_reserved":false,"is_disabled":false,"rental_uris":{"android":"levelo://app?vid=b3cf27fb-8949-40b8-8c43-e71e39d2b97c","ios":"levelo://app?vid=b3cf27fb-8949-40b8-8c43-e71e39d2b97c"},"vehicle_type_id":"4","last_reported":1750173093,"current_range_meters":24800,"station_id":"ce4bhgh2rcd13ifvqfa0","pricing_plan_id":"cebpf4jnsgd1na2vs0mg"},{"bike_id":"a230355a-88aa-4179-9b86-80de9202e7e5","system_id":"levelo_inurba_marseille","lat":43.24039,"lon":5.37739,"is_reserved":false,"is_disabled":false,"rental_uris":{"android":"levelo://app?vid=a230355a-88aa-4179-9b86-80de9202e7e5","ios":"levelo://app?vid=a230355a-88aa-4179-9b86-80de9202e7e5"},"vehicle_type_id":"4","last_reported":1750173093,"current_range_meters":24800,"station_id":"ce4bhnp2rcd13ifvqgvg","pricing_plan_id":"cebpf4jnsgd1na2vs0mg"},{"bike_id":"1e716788-94d4-49f9-8262-a5fe985683ab","system_id":"levelo_inurba_marseille","lat":43.29902,"lon":5.43662,"is_reserved":false,"is_disabled":false,"rental_uris":{"android":"levelo://app?vid=1e716788-94d4-49f9-8262-a5fe985683ab","ios":"levelo://app?vid=1e716788-94d4-49f9-8262-a5fe985683ab"},"vehicle_type_id":"4","last_reported":1750173093,"current_range_meters":24800,"station_id":"ce4bhpp2rcd13ifvqhfg","pricing_plan_id":"cebpf4jnsgd1na2vs0mg"},{"bike_id":"54f65135-0bc3-425d-8e13-6c0b4f7e11df","system_id":"levelo_inurba_marseille","lat":43.3376,"lon":5.37426,"is_reserved":false,"is_disabled":false,"rental_uris":{"android":"levelo://app?vid=54f65135-0bc3-425d-8e13-6c0b4f7e11df","ios":"levelo://app?vid=54f65135-0bc3-425d-8e13-6c0b4f7e11df"},"vehicle_type_id":"4","last_reported":1750173093,"current_range_meters":25200,"station_id":"","pricing_plan_id":"cebpf4jnsgd1na2vs0mg"},{"bike_id":"f1711418-bc1b-4963-a35a-035b8c601591","system_id":"levelo_inurba_marseille","lat":43.3055,"lon":5.38408,"is_reserved":false,"is_disabled":false,"rental_uris":{"android":"levelo://app?vid=f1711418-bc1b-4963-a35a-035b8c601591","ios":"levelo://app?vid=f1711418-bc1b-4963-a35a-035b8c601591"},"vehicle_type_id":"4","last_reported":1750173093,"current_range_meters":25200,"station_id":"ce4bgg92rcd13ifvqb30","pricing_plan_id":"cebpf4jnsgd1na2vs0mg"},{"bike_id":"fc100557-5bb9-47ce-a948-50e3414ac6fb","system_id":"levelo_inurba_marseille","lat":43.29915,"lon":5.38123,"is_reserved":false,"is_disabled":false,"rental_uris":{"android":"levelo://app?vid=fc100557-5bb9-47ce-a948-50e3414ac6fb","ios":"levelo://app?vid=fc100557-5bb9-47ce-a948-50e3414ac6fb"},"vehicle_type_id":"4","last_reported":1750173093,"current_range_meters":25200,"station_id":"ce4bgj12rcd13ifvqbc0","pricing_plan_id":"cebpf4jnsgd1na2vs0mg"},{"bike_id":"dd3ad14d-2c13-458e-b8c4-df6cb87afeaf","system_id":"levelo_inurba_marseille","lat":43.29077,"lon":5.37153,"is_reserved":false,"is_disabled":false,"rental_uris":{"android":"levelo://app?vid=dd3ad14d-2c13-458e-b8c4-df6cb87afeaf","ios":"levelo://app?vid=dd3ad14d-2c13-458e-b8c4-df6cb87afeaf"},"vehicle_type_id":"4","last_reported":1750173093,"current_range_meters":25200,"station_id":"ce4bh5p2rcd13ifvqe4g","pricing_plan_id":"cebpf4jnsgd1na2vs0mg"},{"bike_id":"fe13d0d0-2d93-4a6e-86a9-1ca5ae164472","system_id":"levelo_inurba_marseille","lat":43.28403,"lon":5.3594,"is_reserved":false,"is_disabled":false,"rental_uris":{"android":"levelo://app?vid=fe13d0d0-2d93-4a6e-86a9-1ca5ae164472","ios":"levelo://app?vid=fe13d0d0-2d93-4a6e-86a9-1ca5ae164472"},"vehicle_type_id":"4","last_reported":1750173093,"current_range_meters":25200,"station_id":"ce4bhah2rcd13ifvqei0","pricing_plan_id":"cebpf4jnsgd1na2vs0mg"},{"bike_id":"c441a3b9-d06c-45da-bbf3-1b1c3f4f5b8c","system_id":"levelo_inurba_marseille","lat":43.28416,"lon":5.34976,"is_reserved":false,"is_disabled":false,"rental_uris":{"android":"levelo://app?vid=c441a3b9-d06c-45da-bbf3-1b1c3f4f5b8c","ios":"levelo://app?vid=c441a3b9-d06c-45da-bbf3-1b1c3f4f5b8c"},