{"last_updated":1748344155,"ttl":60,"version":"2.2","data":{"bikes":[{"bike_id":"c0b9fd4f-e181-46ce-b0bf-f5119973334f","system_id":"levelo_inurba_marseille","lat":43.33771,"lon":5.37424,"is_reserved":false,"is_disabled":true,"rental_uris":{"android":"levelo://app?vid=c0b9fd4f-e181-46ce-b0bf-f5119973334f","ios":"levelo://app?vid=c0b9fd4f-e181-46ce-b0bf-f5119973334f"},"vehicle_type_id":"4","last_reported":1748344155,"current_range_meters":0,"station_id":"","pricing_plan_id":"cebpf4jnsgd1na2vs0mg"},{"bike_id":"7fe337a2-1b46-4c17-bdf9-15e9d383471b","system_id":"levelo_inurba_marseille","lat":43.272629,"lon":5.389955,"is_reserved":false,"is_disabled":true,"rental_uris":{"android":"levelo://app?vid=7fe337a2-1b46-4c17-bdf9-15e9d383471b","ios":"levelo://app?vid=7fe337a2-1b46-4c17-bdf9-15e9d383471b"},"vehicle_type_id":"4","last_reported":1748344155,"current_range_meters":0,"station_id":"","pricing_plan_id":"cebpf4jnsgd1na2vs0mg"},{"bike_id":"9dfea71a-4994-4298-98be-a818ae9ee8f8","system_id":"levelo_inurba_marseille","lat":43.33343,"lon":5.40707,"is_reserved":false,"is_disabled":true,"rental_uris":{"android":"levelo://app?vid=9dfea71a-4994-4298-98be-a818ae9ee8f8","ios":"levelo://app?vid=9dfea71a-4994-4298-98be-a818ae9ee8f8"},"vehicle_type_id":"4","last_reported":1748344155,"current_range_meters":0,"station_id":"","pricing_plan_id":"cebpf4jnsgd1na2vs0mg"},{"bike_id":"3fe3d6c4-138a-47df-b6b4-e6f19e8f7d46","system_id":"levelo_inurba_marseille","lat":43.21411,"lon":5.34114,"is_reserved":false,"is_disabled":true,"rental_uris":{"android":"levelo://app?vid=3fe3d6c4-138a-47df-b6b4-e6f19e8f7d46","ios":"levelo://app?vid=3fe3d6c4-138a-47df-b6b4-e6f19e8f7d46"},"vehicle_type_id":"4","last_reported":1748344155,"current_range_meters":0,"station_id":"","pricing_plan_id":"cebpf4jnsgd1na2vs0mg"},{"bike_id":"fd133867-b5d2-4fd2-aa0a-382781ea3f5a","system_id":"levelo_inurba_marseille","lat":43.28991,"lon":5.4303,"is_reserved":false,"is_disabled":true,"rental_uris":{"android":"levelo://app?vid=fd133867-b5d2-4fd2-aa0a-382781ea3f5a","ios":"levelo://app?vid=fd133867-b5d2-4fd2-aa0a-382781ea3f5a"},"vehicle_type_id":"4","last_reported":1748344155,"current_range_meters":0,"station_id":"","pricing_plan_id":"cebpf4jnsgd1na2vs0mg"},{"bike_id":"15dcdbbd-a41e-43eb-9ed6-26ec15ce7a50","system_id":"levelo_inurba_marseille","lat":43.21411,"lon":5.34113,"is_reserved":false,"is_disabled":true,"rental_uris":{"android":"levelo://app?vid=15dcdbbd-a41e-43eb-9ed6-26ec15ce7a50","ios":"levelo://app?vid=15dcdbbd-a41e-43eb-9ed6-26ec15ce7a50"},"vehicle_type_id":"4","last_reported":1748344155,"current_range_meters":0,"station_id":"","pricing_plan_id":"cebpf4jnsgd1na2vs0mg"},{"bike_id":"f9fb40c0-1fcd-48cb-8e26-3f2dc0fb2451","system_id":"levelo_inurba_marseille","lat":43.33751,"lon":5.37509,"is_reserved":false,"is_disabled":true,"rental_uris":{"android":"levelo://app?vid=f9fb40c0-1fcd-48cb-8e26-3f2dc0fb2451","ios":"levelo://app?vid=f9fb40c0-1fcd-48cb-8e26-3f2dc0fb2451"},"vehicle_type_id":"4","last_reported":1748344155,"current_range_meters":0,"station_id":"","pricing_plan_id":"cebpf4jnsgd1na2vs0mg"},{"bike_id":"e9dd3aa4-b5e7-4480-926d-d7f537719bfa","system_id":"levelo_inurba_marseille","lat":43.230331,"lon":5.401847,"is_reserved":false,"is_disabled":true,"rental_uris":{"android":"levelo://app?vid=e9dd3aa4-b5e7-4480-926d-d7f537719bfa","ios":"levelo://app?vid=e9dd3aa4-b5e7-4480-926d-d7f537719bfa"},"vehicle_type_id":"4","last_reported":1748344155,"current_range_meters":0,"station_id":"","pricing_plan_id":"cebpf4jnsgd1na2vs0mg"},{"bike_id":"dcd075ea-b4af-4d6d-90b2-1236858b7bc1","system_id":"levelo_inurba_marseille","lat":43.27609,"lon":5.35873,"is_reserved":false,"is_disabled":true,"rental_uris":{"android":"levelo://app?vid=dcd075ea-b4af-4d6d-90b2-1236858b7bc1","ios":"levelo://app?vid=dcd075ea-b4af-4d6d-90b2-1236858b7bc1"},"vehicle_type_id":"4","last_reported":1748344155,"current_range_meters":0,"station_id":"","pricing_plan_id":"cebpf4jnsgd1na2vs0mg"},{"bike_id":"025213b7-a0c4-40ff-b17c-7e094c9cc3ea","system_id":"levelo_inurba_marseille","lat":43.30265,"lon":5.40081,"is_reserved":false,"is_disabled":true,"rental_uris":{"android":"levelo://app?vid=025213b7-a0c4-40ff-b17c-7e094c9cc3ea","ios":"levelo://app?vid=025213b7-a0c4-40ff-b17c-7e094c9cc3ea"},"vehicle_type_id":"4","last_reported":1748344155,"current_range_meters":0,"station_id":"ce4bgvh2rcd13ifvqcs0","pricing_plan_id":"cebpf4jnsgd1na2vs0mg"},{"bike_id":"6faed463-1af9-4880-a623-2d6027292867","system_id":"levelo_inurba_marseille","lat":43.30927,"lon":5.40154,"is_reserved":false,"is_disabled":true,"rental_uris":{"android":"levelo://app?vid=6faed463-1af9-4880-a623-2d6027292867","ios":"levelo://app?vid=6faed463-1af9-4880-a623-2d6027292867"},"vehicle_type_id":"4","last_reported":1748344155,"current_range_meters":0,"station_id":"ce4bgvp2rcd13ifvqct0","pricing_plan_id":"cebpf4jnsgd1na2vs0mg"},{"bike_id":"8e0935a5-ce6b-4063-b30f-b40a0e3bd94f","system_id":"levelo_inurba_marseille","lat":43.285166,"lon":5.359924,"is_reserved":false,"is_disabled":true,"rental_uris":{"android":"levelo://app?vid=8e0935a5-ce6b-4063-b30f-b40a0e3bd94f","ios":"levelo://app?vid=8e0935a5-ce6b-4063-b30f-b40a0e3bd94f"},"vehicle_type_id":"4","last_reported":1748344155,"current_range_meters":0,"station_id":"ce4bhah2rcd13ifvqei0","pricing_plan_id":"cebpf4jnsgd1na2vs0mg"},{"bike_id":"94cb938d-bc36-42ad-af73-a2aa616d60b8","system_id":"levelo_inurba_marseille","lat":48.855438,"lon":2.428432,"is_reserved":false,"is_disabled":true,"rental_uris":{"android":"levelo://app?vid=94cb938d-bc36-42ad-af73-a2aa616d60b8","ios":"levelo://app?vid=94cb938d-bc36-42ad-af73-a2aa616d60b8"},"vehicle_type_id":"4","last_reported":1748344155,"current_range_meters":0,"station_id":"ce4bhgh2rcd13ifvqfb0","pricing_plan_id":"cebpf4jnsgd1na2vs0mg"},{"bike_id":"dbdde4e3-8322-4806-9609-4dfa1ef9adf4","system_id":"levelo_inurba_marseille","lat":43.27674,"lon":5.38875,"is_reserved":false,"is_disabled":true,"rental_uris":{"android":"levelo://app?vid=dbdde4e3-8322-4806-9609-4dfa1ef9adf4","ios":"levelo://app?vid=dbdde4e3-8322-4806-9609-4dfa1ef9adf4"},"vehicle_type_id":"4","last_reported":1748344155,"current_range_meters":0,"station_id":"ce4bhi12rcd13ifvqfo0","pricing_plan_id":"cebpf4jnsgd1na2vs0mg"},{"bike_id":"2732b454-d02c-44c9-b7e7-138889c0e317","system_id":"levelo_inurba_marseille","lat":43.23155,"lon":5.43708,"is_reserved":false,"is_disabled":true,"rental_uris":{"android":"levelo://app?vid=2732b454-d02c-44c9-b7e7-138889c0e317","ios":"levelo://app?vid=2732b454-d02c-44c9-b7e7-138889c0e317"},"vehicle_type_id":"4","last_reported":1748344155,"current_range_meters":0,"station_id":"ce4bhmp2rcd13ifvqgog","pricing_plan_id":"cebpf4jnsgd1na2vs0mg"},{"bike_id":"6eea761a-996a-4cd3-b38c-cdbe9f4f5cb7","system_id":"levelo_inurba_marseille","lat":43.27497,"lon":5.42447,"is_reserved":false,"is_disabled":true,"rental_uris":{"android":"levelo://app?vid=6eea761a-996a-4cd3-b38c-cdbe9f4f5cb7","ios":"levelo://app?vid=6eea761a-996a-4cd3-b38c-cdbe9f4f5cb7"},"vehicle_type_id":"4","last_reported":1748344155,"current_range_meters":0,"station_id":"ce4bhn92rcd13ifvqgrg","pricing_plan_id":"cebpf4jnsgd1na2vs0mg"},{"bike_id":"d9fa0449-e47c-4bbe-a91c-4939cab5d888","system_id":"levelo_inurba_marseille","lat":43.28524,"lon":5.4261,"is_reserved":false,"is_disabled":true,"rental_uris":{"android":"levelo://app?vid=d9fa0449-e47c-4bbe-a91c-4939cab5d888","ios":"levelo://app?vid=d9fa0449-e47c-4bbe-a91c-4939cab5d888"},"vehicle_type_id":"4","last_reported":1748344155,"current_range_meters":400,"station_id":"","pricing_plan_id":"cebpf4jnsgd1na2vs0mg"},{"bike_id":"503e0c8d-14df-4f8b-ab4a-acbf9a222e2d","system_id":"levelo_inurba_marseille","lat":43.29699,"lon":5.36602,"is_reserved":false,"is_disabled":true,"rental_uris":{"android":"levelo://app?vid=503e0c8d-14df-4f8b-ab4a-acbf9a222e2d","ios":"levelo://app?vid=503e0c8d-14df-4f8b-ab4a-acbf9a222e2d"},"vehicle_type_id":"4","last_reported":1748344155,"current_range_meters":400,"station_id":"ce4bgn12rcd13ifvqbt0","pricing_plan_id":"cebpf4jnsgd1na2vs0mg"},{"bike_id":"e12f4dc4-6d21-41ac-8028-6d33683cfdc8","system_id":"levelo_inurba_marseille","lat":43.27941,"lon":5.38707,"is_reserved":false,"is_disabled":true,"rental_uris":{"android":"levelo://app?vid=e12f4dc4-6d21-41ac-8028-6d33683cfdc8","ios":"levelo://app?vid=e12f4dc4-6d21-41ac-8028-6d33683cfdc8"},"vehicle_type_id":"4","last_reported":1748344155,"current_range_meters":400,"station_id":"ce4bhg12rcd13ifvqf80","pricing_plan_id":"cebpf4jnsgd1na2vs0mg"},{"bike_id":"fdda0b7e-2b07-4773-80f2-b8538aac2ac4","system_id":"levelo_inurba_marseille","lat":43.23158,"lon":5.43704,"is_reserved":false,"is_disabled":true,"rental_uris":{"android":"levelo://app?vid=fdda0b7e-2b07-4773-80f2-b8538aac2ac4","ios":"levelo://app?vid=fdda0b7e-2b07-4773-80f2-b8538aac2ac4"},"vehicle_type_id":"4","last_reported":1748344155,"current_range_meters":400,"station_id":"ce4bhmp2rcd13ifvqgog","pricing_plan_id":"cebpf4jnsgd1na2vs0mg"},{"bike_id":"da453a88-f81b-4e0f-9781-5a7f6c1d364c","system_id":"levelo_inurba_marseille","lat":43.337499,"lon":5.374469,"is_reserved":false,"is_disabled":true,"rental_uris":{"android":"levelo://app?vid=da453a88-f81b-4e0f-9781-5a7f6c1d364c","ios":"levelo://app?vid=da453a88-f81b-4e0f-9781-5a7f6c1d364c"},"vehicle_type_id":"4","last_reported":1748344155,"current_range_meters":800,"station_id":"","pricing_plan_id":"cebpf4jnsgd1na2vs0mg"},{"bike_id":"3919512c-7373-4116-a080-5e6f345218bf","system_id":"levelo_inurba_marseille","lat":43.30591,"lon":5.39357,"is_reserved":false,"is_disabled":true,"rental_uris":{"android":"levelo://app?vid=3919512c-7373-4116-a080-5e6f345218bf","ios":"levelo://app?vid=3919512c-7373-4116-a080-5e6f345218bf"},"vehicle_type_id":"4","last_reported":1748344155,"current_range_meters":800,"station_id":"ce4bh0p2rcd13ifvqd80","pricing_plan_id":"cebpf4jnsgd1na2vs0mg"},{"bike_id":"800a6b87-733c-4e09-9691-576ae67ece42","system_id":"levelo_inurba_marseille","lat":43.26026,"lon":5.37547,"is_reserved":false,"is_disabled":true,"rental_uris":{"android":"levelo://app?vid=800a6b87-733c-4e09-9691-576ae67ece42","ios":"levelo://app?vid=800a6b87-733c-4e09-9691-576ae67ece42"},"vehicle_type_id":"4","last_reported":1748344155,"current_range_meters":800,"station_id":"ce4bhgh2rcd13ifvqfa0","pricing_plan_id":"cebpf4jnsgd1na2vs0mg"},{"bike_id":"0cb889e6-18af-4459-be52-a5db4319857a","system_id":"levelo_inurba_marseille","lat":43.27205,"lon":5.39175,"is_reserved":false,"is_disabled":true,"rental_uris":{"android":"levelo://app?vid=0cb889e6-18af-4459-be52-a5db4319857a","ios":"levelo://app?vid=0cb889e6-18af-4459-be52-a5db4319857a"},"vehicle_type_id":"4","last_reported":1748344155,"current_range_meters":800,"station_id":"ce4bhhp2rcd13ifvqfm0","pricing_plan_id":"cebpf4jnsgd1na2vs0mg"},{"bike_id":"fde53455-2f85-41d5-b6c1-18c0e087865c","system_id":"levelo_inurba_marseille","lat":43.30274,"lon":5.37701,"is_reserved":false,"is_disabled":true,"rental_uris":{"android":"levelo://app?vid=fde53455-2f85-41d5-b6c1-18c0e087865c","ios":"levelo://app?vid=fde53455-2f85-41d5-b6c1-18c0e087865c"},"vehicle_type_id":"4","last_reported":1748344155,"current_range_meters":1600,"station_id":"ce4bguh2rcd13ifvqcj0","pricing_plan_id":"cebpf4jnsgd1na2vs0mg"},{"bike_id":"4d3e9b3a-8b4a-4e2e-bd5b-3963d2a4b44f","system_id":"levelo_inurba_marseille","lat":43.30927,"lon":5.40143,"is_reserved":false,"is_disabled":true,"rental_uris":{"android":"levelo://app?vid=4d3e9b3a-8b4a-4e2e-bd5b-3963d2a4b44f","ios":"levelo://app?vid=4d3e9b3a-8b4a-4e2e-bd5b-3963d2a4b44f"},"vehicle_type_id":"4","last_reported":1748344155,"current_range_meters":1600,"station_id":"ce4bgvp2rcd13ifvqct0","pricing_plan_id":"cebpf4jnsgd1na2vs0mg"},{"bike_id":"ae9ac33e-6b71-439c-979f-3a5bd5a37079","system_id":"levelo_inurba_marseille","lat":43.29458,"lon":5.37993,"is_reserved":false,"is_disabled":true,"rental_uris":{"android":"levelo://app?vid=ae9ac33e-6b71-439c-979f-3a5bd5a37079","ios":"levelo://app?vid=ae9ac33e-6b71-439c-979f-3a5bd5a37079"},"vehicle_type_id":"4","last_reported":1748344155,"current_range_meters":2000,"station_id":"","pricing_plan_id":"cebpf4jnsgd1na2vs0mg"},{"bike_id":"00ce952c-234e-4bde-9965-56738f73dec7","system_id":"levelo_inurba_marseille","lat":43.28567,"lon":5.39491,"is_reserved":false,"is_disabled":true,"rental_uris":{"android":"levelo://app?vid=00ce952c-234e-4bde-9965-56738f73dec7","ios":"levelo://app?vid=00ce952c-234e-4bde-9965-56738f73dec7"},"vehicle_type_id":"4","last_reported":1748344155,"current_range_meters":2000,"station_id":"ce4bh292rcd13ifvqdg0","pricing_plan_id":"cebpf4jnsgd1na2vs0mg"},{"bike_id":"0a442c5d-49df-487d-a950-ee8dbb484940","system_id":"levelo_inurba_marseille","lat":43.26194,"lon":5.37448,"is_reserved":false,"is_disabled":true,"rental_uris":{"android":"levelo://app?vid=0a442c5d-49df-487d-a950-ee8dbb484940","ios":"levelo://app?vid=0a442c5d-49df-487d-a950-ee8dbb484940"},"vehicle_type_id":"4","last_reported":1748344155,"current_range_meters":2000,"station_id":"ce4bhgp2rcd13ifvqfc0","pricing_plan_id":"cebpf4jnsgd1na2vs0mg"},{"bike_id":"6d28e54e-a11b-4a57-b70f-5ebd703a098c","system_id":"levelo_inurba_marseille","lat":43.26941,"lon":5.38917,"is_reserved":false,"is_disabled":true,"rental_uris":{"android":"levelo://app?vid=6d28e54e-a11b-4a57-b70f-5ebd703a098c","ios":"levelo://app?vid=6d28e54e-a11b-4a57-b70f-5ebd703a098c"},"vehicle_type_id":"4","last_reported":1748344155,"current_range_meters":2000,"station_id":"ce4bhhh2rcd13ifvqfl0","pricing_plan_id":"cebpf4jnsgd1na2vs0mg"},{"bike_id":"9589e48b-d254-48c7-a520-59d155d46467","system_id":"levelo_inurba_marseille","lat":43.23149,"lon":5.43708,"is_reserved":false,"is_disabled":true,"rental_uris":{"android":"levelo://app?vid=9589e48b-d254-48c7-a520-59d155d46467","ios":"levelo://app?vid=9589e48b-d254-48c7-a520-59d155d46467"},"vehicle_type_id":"4","last_reported":1748344155,"current_range_meters":2000,"station_id":"ce4bhmp2rcd13ifvqgog","pricing_plan_id":"cebpf4jnsgd1na2vs0mg"},{"bike_id":"36bc4eae-6090-4d8e-b1a0-194eadad677d","system_id":"levelo_inurba_marseille","lat":43.30666,"lon":5.38134,"is_reserved":false,"is_disabled":false,"rental_uris":{"android":"levelo://app?vid=36bc4eae-6090-4d8e-b1a0-194eadad677d","ios":"levelo://app?vid=36bc4eae-6090-4d8e-b1a0-194eadad677d"},"vehicle_type_id":"4","last_reported":1748344155,"current_range_meters":2800,"station_id":"","pricing_plan_id":"cebpf4jnsgd1na2vs0mg"},{"bike_id":"b7ab4751-3dbf-4148-86b3-37e175a4d63e","system_id":"levelo_inurba_marseille","lat":43.24637,"lon":5.39312,"is_reserved":false,"is_disabled":false,"rental_uris":{"android":"levelo://app?vid=b7ab4751-3dbf-4148-86b3-37e175a4d63e","ios":"levelo://app?vid=b7ab4751-3dbf-4148-86b3-37e175a4d63e"},"vehicle_type_id":"4","last_reported":1748344155,"current_range_meters":2800,"station_id":"","pricing_plan_id":"cebpf4jnsgd1na2vs0mg"},{"bike_id":"fb394700-0ffb-44ba-a00f-a322265b5819","system_id":"levelo_inurba_marseille","lat":43.28694,"lon":5.37393,"is_reserved":false,"is_disabled":false,"rental_uris":{"android":"levelo://app?vid=fb394700-0ffb-44ba-a00f-a322265b5819","ios":"levelo://app?vid=fb394700-0ffb-44ba-a00f-a322265b5819"},"vehicle_type_id":"4","last_reported":1748344155,"current_range_meters":2800,"station_id":"ce4bh3p2rcd13ifvqdq0","pricing_plan_id":"cebpf4jnsgd1na2vs0mg"},{"bike_id":"87a1352f-8992-420c-a9d2-207d79192601","system_id":"levelo_inurba_marseille","lat":43.29004,"lon":5.35607,"is_reserved":false,"is_disabled":false,"rental_uris":{"android":"levelo://app?vid=87a1352f-8992-420c-a9d2-207d79192601","ios":"levelo://app?vid=87a1352f-8992-420c-a9d2-207d79192601"},"vehicle_type_id":"4","last_reported":1748344155,"current_range_meters":2800,"station_id":"ce4bhb92rcd13ifvqen0","pricing_plan_id":"cebpf4jnsgd1na2vs0mg"},{"bike_id":"5518deb6-3466-4dbb-aa16-10104336d9eb","system_id":"levelo_inurba_marseille","lat":43.28629,"lon":5.35095,"is_reserved":false,"is_disabled":false,"rental_uris":{"android":"levelo://app?vid=5518deb6-3466-4dbb-aa16-10104336d9eb","ios":"levelo://app?vid=5518deb6-3466-4dbb-aa16-10104336d9eb"},"vehicle_type_id":"4","last_reported":1748344155,"current_range_meters":2800,"station_id":"ce4bhch2rcd13ifvqeug","pricing_plan_id":"cebpf4jnsgd1na2vs0mg"},{"bike_id":"b2901526-022a-436b-9817-421d9f1ad84d","system_id":"levelo_inurba_marseille","lat":43.27317,"lon":5.39096,"is_reserved":false,"is_disabled":false,"rental_uris":{"android":"levelo://app?vid=b2901526-022a-436b-9817-421d9f1ad84d","ios":"levelo://app?vid=b2901526-022a-436b-9817-421d9f1ad84d"},"vehicle_type_id":"4","last_reported":1748344155,"current_range_meters":2800,"station_id":"ce4bhgp2rcd13ifvqfe0","pricing_plan_id":"cebpf4jnsgd1na2vs0mg"},{"bike_id":"42c902db-09dd-4bcc-8487-9bcb8b6f47e9","system_id":"levelo_inurba_marseille","lat":43.29542,"lon":5.37501,"is_reserved":false,"is_disabled":false,"rental_uris":{"android":"levelo://app?vid=42c902db-09dd-4bcc-8487-9bcb8b6f47e9","ios":"levelo://app?vid=42c902db-09dd-4bcc-8487-9bcb8b6f47e9"},"vehicle_type_id":"4","last_reported":1748344155,"current_range_meters":3200,"station_id":"ce4bgkp2rcd13ifvqbmg","pricing_plan_id":"cebpf4jnsgd1na2vs0mg"},{"bike_id":"24c15e57-e637-474f-a05b-acd8d63c8233","system_id":"levelo_inurba_marseille","lat":43.29197,"lon":5.35807,"is_reserved":false,"is_disabled":false,"rental_uris":{"android":"levelo://app?vid=24c15e57-e637-474f-a05b-acd8d63c8233","ios":"levelo://app?vid=24c15e57-e637-474f-a05b-acd8d63c8233"},"vehicle_type_id":"4","last_reported":1748344155,"current_range_meters":3200,"station_id":"ce4bhb12rcd13ifvqel0","pricing_plan_id":"cebpf4jnsgd1na2vs0mg"},{"bike_id":"2ff07c12-b6c3-4acb-bbed-3181d4b4615c","system_id":"levelo_inurba_marseille","lat":43.28856,"lon":5.35835,"is_reserved":false,"is_disabled":false,"rental_uris":{"android":"levelo://app?vid=2ff07c12-b6c3-4acb-bbed-3181d4b4615c","ios":"levelo://app?vid=2ff07c12-b6c3-4acb-bbed-3181d4b4615c"},"vehicle_type_id":"4","last_reported":1748344155,"current_range_meters":3200,"station_id":"ce4bhb12rcd13ifvqem0","pricing_plan_id":"cebpf4jnsgd1na2vs0mg"},{"bike_id":"7dc19c67-1ead-4d01-a832-4eda9bc69001","system_id":"levelo_inurba_marseille","lat":43.29634,"lon":5.40594,"is_reserved":false,"is_disabled":false,"rental_uris":{"android":"levelo://app?vid=7dc19c67-1ead-4d01-a832-4eda9bc69001","ios":"levelo://app?vid=7dc19c67-1ead-4d01-a832-4eda9bc69001"},"vehicle_type_id":"4","last_reported":1748344155,"current_range_meters":3600,"station_id":"ce4bh0h2rcd13ifvqd60","pricing_plan_id":"cebpf4jnsgd1na2vs0mg"},{"bike_id":"31088825-34b9-408f-9010-33be0b9f29b3","system_id":"levelo_inurba_marseille","lat":43.28999,"lon":5.35607,"is_reserved":false,"is_disabled":false,"rental_uris":{"android":"levelo://app?vid=31088825-34b9-408f-9010-33be0b9f29b3","ios":"levelo://app?vid=31088825-34b9-408f-9010-33be0b9f29b3"},"vehicle_type_id":"4","last_reported":1748344155,"current_range_meters":3600,"station_id":"ce4bhb92rcd13ifvqen0","pricing_plan_id":"cebpf4jnsgd1na2vs0mg"},{"bike_id":"35657823-8cda-44f5-a555-1f769cf1fe31","system_id":"levelo_inurba_marseille","lat":43.27178,"lon":5.40995,"is_reserved":false,"is_disabled":false,"rental_uris":{"android":"levelo://app?vid=35657823-8cda-44f5-a555-1f769cf1fe31","ios":"levelo://app?vid=35657823-8cda-44f5-a555-1f769cf1fe31"},"vehicle_type_id":"4","last_reported":1748344155,"current_range_meters":3600,"station_id":"ce4bhl12rcd13ifvqgf0","pricing_plan_id":"cebpf4jnsgd1na2vs0mg"},{"bike_id":"288fbda4-d562-476c-99e7-4d6fd057c551","system_id":"levelo_inurba_marseille","lat":43.33722,"lon":5.39182,"is_reserved":false,"is_disabled":false,"rental_uris":{"android":"levelo://app?vid=288fbda4-d562-476c-99e7-4d6fd057c551","ios":"levelo://app?vid=288fbda4-d562-476c-99e7-4d6fd057c551"},"vehicle_type_id":"4","last_reported":1748344155,"current_range_meters":3600,"station_id":"ce4bhr92rcd13ifvqhsg","pricing_plan_id":"cebpf4jnsgd1na2vs0mg"},{"bike_id":"ab485184-dee6-4278-8ed8-78cb97c31dd5","system_id":"levelo_inurba_marseille","lat":43.2921,"lon":5.35824,"is_reserved":false,"is_disabled":false,"rental_uris":{"android":"levelo://app?vid=ab485184-dee6-4278-8ed8-78cb97c31dd5","ios":"levelo://app?vid=ab485184-dee6-4278-8ed8-78cb97c31dd5"},"vehicle_type_id":"4","last_reported":1748344155,"current_range_meters":4000,"station_id":"","pricing_plan_id":"cebpf4jnsgd1na2vs0mg"},{"bike_id":"abb59646-0f9a-44b1-8f07-3c4c107ff64a","system_id":"levelo_inurba_marseille","lat":43.3189,"lon":5.40729,"is_reserved":false,"is_disabled":false,"rental_uris":{"android":"levelo://app?vid=abb59646-0f9a-44b1-8f07-3c4c107ff64a","ios":"levelo://app?vid=abb59646-0f9a-44b1-8f07-3c4c107ff64a"},"vehicle_type_id":"4","last_reported":1748344155,"current_range_meters":4000,"station_id":"ce4bhq12rcd13ifvqhig","pricing_plan_id":"cebpf4jnsgd1na2vs0mg"},{"bike_id":"a57e4432-cb1f-477a-b340-c366aac824b5","system_id":"levelo_inurba_marseille","lat":43.28358,"lon":5.38102,"is_reserved":false,"is_disabled":false,"rental_uris":{"android":"levelo://app?vid=a57e4432-cb1f-477a-b340-c366aac824b5","ios":"levelo://app?vid=a57e4432-cb1f-477a-b340-c366aac824b5"},"vehicle_type_id":"4","last_reported":1748344155,"current_range_meters":4400,"station_id":"ce4bh412rcd13ifvqdr0","pricing_plan_id":"cebpf4jnsgd1na2vs0mg"},{"bike_id":"e9496718-b841-4999-823d-28c5bee5d6f1","system_id":"levelo_inurba_marseille","lat":43.26524,"lon":5.38993,"is_reserved":false,"is_disabled":false,"rental_uris":{"android":"levelo://app?vid=e9496718-b841-4999-823d-28c5bee5d6f1","ios":"levelo://app?vid=e9496718-b841-4999-823d-28c5bee5d6f1"},"vehicle_type_id":"4","last_reported":1748344155,"current_range_meters":4400,"station_id":"ce4bhe12rcd13ifvqf30","pricing_plan_id":"cebpf4jnsgd1na2vs0mg"},{"bike_id":"5e5a3e20-4733-4f5a-a1a1-e65235151925","system_id":"levelo_inurba_marseille","lat":43.25004,"lon":5.38924,"is_reserved":false,"is_disabled":false,"rental_uris":{"android":"levelo://app?vid=5e5a3e20-4733-4f5a-a1a1-e65235151925","ios":"levelo://app?vid=5e5a3e20-4733-4f5a-a1a1-e65235151925"},"vehicle_type_id":"4","last_reported":1748344155,"current_range_meters":4400,"station_id":"ce4bhgp2rcd13ifvqfd0","pricing_plan_id":"cebpf4jnsgd1na2vs0mg"},{"bike_id":"013b29b5-910d-4547-b953-a122dcc791ff","system_id":"levelo_inurba_marseille","lat":43.24656,"lon":5.38166,"is_reserved":false,"is_disabled":false,"rental_uris":{"android":"levelo://app?vid=013b29b5-910d-4547-b953-a122dcc791ff","ios":"levelo://app?vid=013b29b5-910d-4547-b953-a122dcc791ff"},"vehicle_type_id":"4","last_reported":1748344155,"current_range_meters":4400,"station_id":"ce4bhih2rcd13ifvqfr0","pricing_plan_id":"cebpf4jnsgd1na2vs0mg"},{"bike_id":"af02aa73-68b2-498b-ad6a-9a50456db18d","system_id":"levelo_inurba_marseille","lat":43.2986,"lon":5.37641,"is_reserved":false,"is_disabled":false,"rental_uris":{"android":"levelo://app?vid=af02aa73-68b2-498b-ad6a-9a50456db18d","ios":"levelo://app?vid=af02aa73-68b2-498b-ad6a-9a50456db18d"},"vehicle_type_id":"4","last_reported":1748344155,"current_range_meters":4800,"station_id":"","pricing_plan_id":"cebpf4jnsgd1na2vs0mg"},{"bike_id":"b8e5d095-b773-4028-adb5-9bbde444d9f0","system_id":"levelo_inurba_marseille","lat":43.28348,"lon":5.38623,"is_reserved":false,"is_disabled":false,"rental_uris":{"android":"levelo://app?vid=b8e5d095-b773-4028-adb5-9bbde444d9f0","ios":"levelo://app?vid=b8e5d095-b773-4028-adb5-9bbde444d9f0"},"vehicle_type_id":"4","last_reported":1748344155,"current_range_meters":4800,"station_id":"ce4bh492rcd13ifvqdvg","pricing_plan_id":"cebpf4jnsgd1na2vs0mg"},{"bike_id":"c27b8244-4bf7-40d0-9439-e8421c2e6189","system_id":"levelo_inurba_marseille","lat":43.25725,"lon":5.41104,"is_reserved":false,"is_disabled":false,"rental_uris":{"android":"levelo://app?vid=c27b8244-4bf7-40d0-9439-e8421c2e6189","ios":"levelo://app?vid=c27b8244-4bf7-40d0-9439-e8421c2e6189"},"vehicle_type_id":"4","last_reported":1748344155,"current_range_meters":4800,"station_id":"ce4bhkp2rcd13ifvqgd0","pricing_plan_id":"cebpf4jnsgd1na2vs0mg"},{"bike_id":"4dc87337-0597-48d4-9fd8-0e1f5c06fc72","system_id":"levelo_inurba_marseille","lat":43.28724,"lon":5.36085,"is_reserved":false,"is_disabled":false,"rental_uris":{"android":"levelo://app?vid=4dc87337-0597-48d4-9fd8-0e1f5c06fc72","ios":"levelo://app?vid=4dc87337-0597-48d4-9fd8-0e1f5c06fc72"},"vehicle_type_id":"4","last_reported":1748344155,"current_range_meters":4800,"station_id":"cki0cbj6b192h4jlfktg","pricing_plan_id":"cebpf4jnsgd1na2vs0mg"},{"bike_id":"9dba8239-6956-4394-b88b-f67913567de3","system_id":"levelo_inurba_marseille","lat":43.26565,"lon":5.40325,"is_reserved":false,"is_disabled":false,"rental_uris":{"android":"levelo://app?vid=9dba8239-6956-4394-b88b-f67913567de3","ios":"levelo://app?vid=9dba8239-6956-4394-b88b-f67913567de3"},"vehicle_type_id":"4","last_reported":1748344155,"current_range_meters":5600,"station_id":"","pricing_plan_id":"cebpf4jnsgd1na2vs0mg"},{"bike_id":"da1ac9a1-a174-432f-ab69-76d0a2f119c7","system_id":"levelo_inurba_marseille","lat":43.27428,"lon":5.39417,"is_reserved":false,"is_disabled":false,"rental_uris":{"android":"levelo://app?vid=da1ac9a1-a174-432f-ab69-76d0a2f119c7","ios":"levelo://app?vid=da1ac9a1-a174-432f-ab69-76d0a2f119c7"},"vehicle_type_id":"4","last_reported":1748344155,"current_range_meters":5600,"station_id":"ce4bhdp2rcd13ifvqf20","pricing_plan_id":"cebpf4jnsgd1na2vs0mg"},{"bike_id":"4b15c05b-7a78-452b-b2ef-7de72be20910","system_id":"levelo_inurba_marseille","lat":43.27901,"lon":5.38007,"is_reserved":false,"is_disabled":false,"rental_uris":{"android":"levelo://app?vid=4b15c05b-7a78-452b-b2ef-7de72be20910","ios":"levelo://app?vid=4b15c05b-7a78-452b-b2ef-7de72be20910"},"vehicle_type_id":"4","last_reported":1748344155,"current_range_meters":5600,"station_id":"ce4bhf92rcd13ifvqf50","pricing_plan_id":"cebpf4jnsgd1na2vs0mg"},{"bike_id":"9ff2104b-c803-43a9-8916-0d10f878ab9c","system_id":"levelo_inurba_marseille","lat":43.23165,"lon":5.43684,"is_reserved":false,"is_disabled":false,"rental_uris":{"android":"levelo://app?vid=9ff2104b-c803-43a9-8916-0d10f878ab9c","ios":"levelo://app?vid=9ff2104b-c803-43a9-8916-0d10f878ab9c"},"vehicle_type_id":"4","last_reported":1748344155,"current_range_meters":5600,"station_id":"ce4bhmp2rcd13ifvqgog","pricing_plan_id":"cebpf4jnsgd1na2vs0mg"},{"bike_id":"a4aef2b9-b7e8-4e2d-8340-592d28bc6c85","system_id":"levelo_inurba_marseille","lat":43.337654,"lon":5.37434,"is_reserved":false,"is_disabled":false,"rental_uris":{"android":"levelo://app?vid=a4aef2b9-b7e8-4e2d-8340-592d28bc6c85","ios":"levelo://app?vid=a4aef2b9-b7e8-4e2d-8340-592d28bc6c85"},"vehicle_type_id":"4","last_reported":1748344155,"current_range_meters":6000,"station_id":"","pricing_plan_id":"cebpf4jnsgd1na2vs0mg"},{"bike_id":"79c6fbbf-3730-4d8f-8010-ca31deb2fb02","system_id":"levelo_inurba_marseille","lat":43.28661,"lon":5.36352,"is_reserved":false,"is_disabled":false,"rental_uris":{"android":"levelo://app?vid=79c6fbbf-3730-4d8f-8010-ca31deb2fb02","ios":"levelo://app?vid=79c6fbbf-3730-4d8f-8010-ca31deb2fb02"},"vehicle_type_id":"4","last_reported":1748344155,"current_range_meters":6000,"station_id":"ce4bhah2rcd13ifvqej0","pricing_plan_id":"cebpf4jnsgd1na2vs0mg"},{"bike_id":"914b0cdd-674e-4033-aea7-b6f07b686478","system_id":"levelo_inurba_marseille","lat":43.272031,"lon":5.391977,"is_reserved":false,"is_disabled":false,"rental_uris":{"android":"levelo://app?vid=914b0cdd-674e-4033-aea7-b6f07b686478","ios":"levelo://app?vid=914b0cdd-674e-4033-aea7-b6f07b686478"},"vehicle_type_id":"4","last_reported":1748344155,"current_range_meters":6000,"station_id":"ce4bhi12rcd13ifvqfo0","pricing_plan_id":"cebpf4jnsgd1na2vs0mg"},{"bike_id":"e94f5885-66fa-4222-84cb-33e6ca8e260b","system_id":"levelo_inurba_marseille","lat":43.23162,"lon":5.437,"is_reserved":false,"is_disabled":false,"rental_uris":{"android":"levelo://app?vid=e94f5885-66fa-4222-84cb-33e6ca8e260b","ios":"levelo://app?vid=e94f5885-66fa-4222-84cb-33e6ca8e260b"},"vehicle_type_id":"4","last_reported":1748344155,"current_range_meters":6000,"station_id":"ce4bhmp2rcd13ifvqgog","pricing_plan_id":"cebpf4jnsgd1na2vs0mg"},{"bike_id":"b744080c-dd77-486d-9609-00c9cf60c1ad","system_id":"levelo_inurba_marseille","lat":43.23636,"lon":5.3919,"is_reserved":false,"is_disabled":false,"rental_uris":{"android":"levelo://app?vid=b744080c-dd77-486d-9609-00c9cf60c1ad","ios":"levelo://app?vid=b744080c-dd77-486d-9609-00c9cf60c1ad"},"vehicle_type_id":"4","last_reported":1748344155,"current_range_meters":6400,"station_id":"","pricing_plan_id":"cebpf4jnsgd1na2vs0mg"},{"bike_id":"807095be-ee99-4c5a-bcf2-45454a81aec6","system_id":"levelo_inurba_marseille","lat":43.26957,"lon":5.38633,"is_reserved":false,"is_disabled":false,"rental_uris":{"android":"levelo://app?vid=807095be-ee99-4c5a-bcf2-45454a81aec6","ios":"levelo://app?vid=807095be-ee99-4c5a-bcf2-45454a81aec6"},"vehicle_type_id":"4","last_reported":1748344155,"current_range_meters":6400,"station_id":"ce4bhh92rcd13ifvqfh0","pricing_plan_id":"cebpf4jnsgd1na2vs0mg"},{"bike_id":"35faf31f-b5a2-4be7-b14c-166fa5c362b3","system_id":"levelo_inurba_marseille","lat":43.24393,"lon":5.37042,"is_reserved":false,"is_disabled":false,"rental_uris":{"android":"levelo://app?vid=35faf31f-b5a2-4be7-b14c-166fa5c362b3","ios":"levelo://app?vid=35faf31f-b5a2-4be7-b14c-166fa5c362b3"},"vehicle_type_id":"4","last_reported":1748344155,"current_range_meters":6400,"station_id":"ce4bhhh2rcd13ifvqfk0","pricing_plan_id":"cebpf4jnsgd1na2vs0mg"},{"bike_id":"72896a3b-b1ed-438a-978e-43f56aeeea39","system_id":"levelo_inurba_marseille","lat":43.23163,"lon":5.43691,"is_reserved":false,"is_disabled":false,"rental_uris":{"android":"levelo://app?vid=72896a3b-b1ed-438a-978e-43f56aeeea39","ios":"levelo://app?vid=72896a3b-b1ed-438a-978e-43f56aeeea39"},"vehicle_type_id":"4","last_reported":1748344155,"current_range_meters":6400,"station_id":"ce4bhmp2rcd13ifvqgog","pricing_plan_id":"cebpf4jnsgd1na2vs0mg"},{"bike_id":"a3fdfab4-cb8b-4639-a8f9-ac99f398c758","system_id":"levelo_inurba_marseille","lat":43.24178,"lon":5.36381,"is_reserved":false,"is_disabled":false,"rental_uris":{"android":"levelo://app?vid=a3fdfab4-cb8b-4639-a8f9-ac99f398c758","ios":"levelo://app?vid=a3fdfab4-cb8b-4639-a8f9-ac99f398c758"},"vehicle_type_id":"4","last_reported":1748344155,"current_range_meters":6400,"station_id":"cpo36qri1sfpv3e86is0","pricing_plan_id":"cebpf4jnsgd1na2vs0mg"},{"bike_id":"ab7eeeed-b833-43b6-8074-5887418ebde7","system_id":"levelo_inurba_marseille","lat":43.29574,"lon":5.37511,"is_reserved":false,"is_disabled":false,"rental_uris":{"android":"levelo://app?vid=ab7eeeed-b833-43b6-8074-5887418ebde7","ios":"levelo://app?vid=ab7eeeed-b833-43b6-8074-5887418ebde7"},"vehicle_type_id":"4","last_reported":1748344155,"current_range_meters":6800,"station_id":"ce4bgh92rcd13ifvqb50","pricing_plan_id":"cebpf4jnsgd1na2vs0mg"},{"bike_id":"299f1fe5-9a61-42c9-b435-2b85995b436e","system_id":"levelo_inurba_marseille","lat":43.31695,"lon":5.40461,"is_reserved":false,"is_disabled":false,"rental_uris":{"android":"levelo://app?vid=299f1fe5-9a61-42c9-b435-2b85995b436e","ios":"levelo://app?vid=299f1fe5-9a61-42c9-b435-2b85995b436e"},"vehicle_type_id":"4","last_reported":1748344155,"current_range_meters":6800,"station_id":"ce4bh012rcd13ifvqd00","pricing_plan_id":"cebpf4jnsgd1na2vs0mg"},{"bike_id":"86461345-ae83-4df3-95fb-cd9c3c6316ee","system_id":"levelo_inurba_marseille","lat":43.23147,"lon":5.43716,"is_reserved":false,"is_disabled":false,"rental_uris":{"android":"levelo://app?vid=86461345-ae83-4df3-95fb-cd9c3c6316ee","ios":"levelo://app?vid=86461345-ae83-4df3-95fb-cd9c3c6316ee"},"vehicle_type_id":"4","last_reported":1748344155,"current_range_meters":6800,"station_id":"ce4bhmp2rcd13ifvqgog","pricing_plan_id":"cebpf4jnsgd1na2vs0mg"},{"bike_id":"15895a4c-6504-4c01-aecb-996f77f1a3b5","system_id":"levelo_inurba_marseille","lat":43.32056,"lon":5.36877,"is_reserved":false,"is_disabled":false,"rental_uris":{"android":"levelo://app?vid=15895a4c-6504-4c01-aecb-996f77f1a3b5","ios":"levelo://app?vid=15895a4c-6504-4c01-aecb-996f77f1a3b5"},"vehicle_type_id":"4","last_reported":1748344155,"current_range_meters":7200,"station_id":"","pricing_plan_id":"cebpf4jnsgd1na2vs0mg"},{"bike_id":"63752f6e-6869-4f18-b1a0-3d236350a8e4","system_id":"levelo_inurba_marseille","lat":43.29425,"lon":5.38619,"is_reserved":false,"is_disabled":false,"rental_uris":{"android":"levelo://app?vid=63752f6e-6869-4f18-b1a0-3d236350a8e4","ios":"levelo://app?vid=63752f6e-6869-4f18-b1a0-3d236350a8e4"},"vehicle_type_id":"4","last_reported":1748344155,"current_range_meters":7200,"station_id":"ce4bh2h2rcd13ifvqdh0","pricing_plan_id":"cebpf4jnsgd1na2vs0mg"},{"bike_id":"6a80d0cd-0ed1-4299-94b2-c768810a3301","system_id":"levelo_inurba_marseille","lat":43.25934,"lon":5.40901,"is_reserved":false,"is_disabled":false,"rental_uris":{"android":"levelo://app?vid=6a80d0cd-0ed1-4299-94b2-c768810a3301","ios":"levelo://app?vid=6a80d0cd-0ed1-4299-94b2-c768810a3301"},"vehicle_type_id":"4","last_reported":1748344155,"current_range_meters":7200,"station_id":"ce4bhm92rcd13ifvqglg","pricing_plan_id":"cebpf4jnsgd1na2vs0mg"},{"bike_id":"8654a797-522d-48db-9c8f-3e52a37eb0a7","system_id":"levelo_inurba_marseille","lat":43.24666,"lon":5.38159,"is_reserved":false,"is_disabled":false,"rental_uris":{"android":"levelo://app?vid=8654a797-522d-48db-9c8f-3e52a37eb0a7","ios":"levelo://app?vid=8654a797-522d-48db-9c8f-3e52a37eb0a7"},"vehicle_type_id":"4","last_reported":1748344155,"current_range_meters":8000,"station_id":"","pricing_plan_id":"cebpf4jnsgd1na2vs0mg"},{"bike_id":"8f7b3452-4498-4737-9792-05c19301e24a","system_id":"levelo_inurba_marseille","lat":43.29265,"lon":5.37622,"is_reserved":false,"is_disabled":false,"rental_uris":{"android":"levelo://app?vid=8f7b3452-4498-4737-9792-05c19301e24a","ios":"levelo://app?vid=8f7b3452-4498-4737-9792-05c19301e24a"},"vehicle_type_id":"4","last_reported":1748344155,"current_range_meters":8000,"station_id":"ce4bgi12rcd13ifvqb80","pricing_plan_id":"cebpf4jnsgd1na2vs0mg"},{"bike_id":"6fc1c15c-6d91-4f3b-87fe-98b46db24185","system_id":"levelo_inurba_marseille","lat":43.30873,"lon":5.37191,"is_reserved":false,"is_disabled":false,"rental_uris":{"android":"levelo://app?vid=6fc1c15c-6d91-4f3b-87fe-98b46db24185","ios":"levelo://app?vid=6fc1c15c-6d91-4f3b-87fe-98b46db24185"},"vehicle_type_id":"4","last_reported":1748344155,"current_range_meters":8000,"station_id":"ce4bguh2rcd13ifvqckg","pricing_plan_id":"cebpf4jnsgd1na2vs0mg"},{"bike_id":"ce774b24-e1b1-46f4-ac51-05d81ca0ea34","system_id":"levelo_inurba_marseille","lat":43.27914,"lon":5.38013,"is_reserved":false,"is_disabled":false,"rental_uris":{"android":"levelo://app?vid=ce774b24-e1b1-46f4-ac51-05d81ca0ea34","ios":"levelo://app?vid=ce774b24-e1b1-46f4-ac51-05d81ca0ea34"},"vehicle_type_id":"4","last_reported":1748344155,"current_range_meters":8000,"station_id":"ce4bhf92rcd13ifvqf50","pricing_plan_id":"cebpf4jnsgd1na2vs0mg"},{"bike_id":"39b9e6f9-7f50-4c15-865f-e83796dd4da6","system_id":"levelo_inurba_marseille","lat":43.25583,"lon":5.38236,"is_reserved":false,"is_disabled":false,"rental_uris":{"android":"levelo://app?vid=39b9e6f9-7f50-4c15-865f-e83796dd4da6","ios":"levelo://app?vid=39b9e6f9-7f50-4c15-865f-e83796dd4da6"},"vehicle_type_id":"4","last_reported":1748344155,"current_range_meters":8000,"station_id":"ce4bhih2rcd13ifvqfs0","pricing_plan_id":"cebpf4jnsgd1na2vs0mg"},{"bike_id":"d08335d2-287d-48ba-aac7-2c66b2453995","system_id":"levelo_inurba_marseille","lat":43.26226,"lon":5.40447,"is_reserved":false,"is_disabled":false,"rental_uris":{"android":"levelo://app?vid=d08335d2-287d-48ba-aac7-2c66b2453995","ios":"levelo://app?vid=d08335d2-287d-48ba-aac7-2c66b2453995"},"vehicle_type_id":"4","last_reported":1748344155,"current_range_meters":8000,"station_id":"ce4bhmh2rcd13ifvqgmg","pricing_plan_id":"cebpf4jnsgd1na2vs0mg"},{"bike_id":"ab38c358-cac1-441f-8c4f-fedc45bd4803","system_id":"levelo_inurba_marseille","lat":43.23145,"lon":5.43719,"is_reserved":false,"is_disabled":false,"rental_uris":{"android":"levelo://app?vid=ab38c358-cac1-441f-8c4f-fedc45bd4803","ios":"levelo://app?vid=ab38c358-cac1-441f-8c4f-fedc45bd4803"},"vehicle_type_id":"4","last_reported":1748344155,"current_range_meters":8000,"station_id":"ce4bhmp2rcd13ifvqgog","pricing_plan_id":"cebpf4jnsgd1na2vs0mg"},{"bike_id":"f223f8e6-c245-41e1-9a70-45e93dcda895","system_id":"levelo_inurba_marseille","lat":43.29736,"lon":5.37673,"is_reserved":false,"is_disabled":false,"rental_uris":{"android":"levelo://app?vid=f223f8e6-c245-41e1-9a70-45e93dcda895","ios":"levelo://app?vid=f223f8e6-c245-41e1-9a70-45e93dcda895"},"vehicle_type_id":"4","last_reported":1748344155,"current_range_meters":8400,"station_id":"ce4bgkh2rcd13ifvqbl0","pricing_plan_id":"cebpf4jnsgd1na2vs0mg"},{"bike_id":"0a678de1-d3e1-4dd4-a04d-cd65a2d1ff39","system_id":"levelo_inurba_marseille","lat":43.28403,"lon":5.3752,"is_reserved":false,"is_disabled":false,"rental_uris":{"android":"levelo://app?vid=0a678de1-d3e1-4dd4-a04d-cd65a2d1ff39","ios":"levelo://app?vid=0a678de1-d3e1-4dd4-a04d-cd65a2d1ff39"},"vehicle_type_id":"4","last_reported":1748344155,"current_range_meters":8400,"station_id":"ce4bh412rcd13ifvqds0","pricing_plan_id":"cebpf4jnsgd1na2vs0mg"},{"bike_id":"66b452d7-197d-410d-8c05-6150a7aec0ee","system_id":"levelo_inurba_marseille","lat":43.26562,"lon":5.39012,"is_reserved":false,"is_disabled":false,"rental_uris":{"android":"levelo://app?vid=66b452d7-197d-410d-8c05-6150a7aec0ee","ios":"levelo://app?vid=66b452d7-197d-410d-8c05-6150a7aec0ee"},"vehicle_type_id":"4","last_reported":1748344155,"current_range_meters":8400,"station_id":"ce4bhe12rcd13ifvqf30","pricing_plan_id":"cebpf4jnsgd1na2vs0mg"},{"bike_id":"fb1a3b4e-0be5-4550-bfd4-854affb491cd","system_id":"levelo_inurba_marseille","lat":43.25903,"lon":5.40885,"is_reserved":false,"is_disabled":false,"rental_uris":{"android":"levelo://app?vid=fb1a3b4e-0be5-4550-bfd4-854affb491cd","ios":"levelo://app?vid=fb1a3b4e-0be5-4550-bfd4-854affb491cd"},"vehicle_type_id":"4","last_reported":1748344155,"current_range_meters":8400,"station_id":"ce4bhm92rcd13ifvqglg","pricing_plan_id":"cebpf4jnsgd1na2vs0mg"},{"bike_id":"4e3a6c84-3034-477f-a251-8b284d794b30","system_id":"levelo_inurba_marseille","lat":43.25941,"lon":5.40906,"is_reserved":false,"is_disabled":false,"rental_uris":{"android":"levelo://app?vid=4e3a6c84-3034-477f-a251-8b284d794b30","ios":"levelo://app?vid=4e3a6c84-3034-477f-a251-8b284d794b30"},"vehicle_type_id":"4","last_reported":1748344155,"current_range_meters":8800,"station_id":"ce4bhm92rcd13ifvqglg","pricing_plan_id":"cebpf4jnsgd1na2vs0mg"},{"bike_id":"b36d6891-4c30-4070-b13d-5c313b80adf0","system_id":"levelo_inurba_marseille","lat":43.23161,"lon":5.43705,"is_reserved":false,"is_disabled":false,"rental_uris":{"android":"levelo://app?vid=b36d6891-4c30-4070-b13d-5c313b80adf0","ios":"levelo://app?vid=b36d6891-4c30-4070-b13d-5c313b80adf0"},"vehicle_type_id":"4","last_reported":1748344155,"current_range_meters":8800,"station_id":"ce4bhmp2rcd13ifvqgog","pricing_plan_id":"cebpf4jnsgd1na2vs0mg"},{"bike_id":"25853d19-5d1f-494a-a293-243ec360eb47","system_id":"levelo_inurba_marseille","lat":43.24181,"lon":5.39732,"is_reserved":false,"is_disabled":false,"rental_uris":{"android":"levelo://app?vid=25853d19-5d1f-494a-a293-243ec360eb47","ios":"levelo://app?vid=25853d19-5d1f-494a-a293-243ec360eb47"},"vehicle_type_id":"4","last_reported":1748344155,"current_range_meters":8800,"station_id":"ce4bhn12rcd13ifvqgpg","pricing_plan_id":"cebpf4jnsgd1na2vs0mg"},{"bike_id":"920049bc-dabc-49af-a158-55704cd99c4b","system_id":"levelo_inurba_marseille","lat":43.27998,"lon":5.41657,"is_reserved":false,"is_disabled":false,"rental_uris":{"android":"levelo://app?vid=920049bc-dabc-49af-a158-55704cd99c4b","ios":"levelo://app?vid=920049bc-dabc-49af-a158-55704cd99c4b"},"vehicle_type_id":"4","last_reported":1748344155,"current_range_meters":8800,"station_id":"ce4bho12rcd13ifvqh1g","pricing_plan_id":"cebpf4jnsgd1na2vs0mg"},{"bike_id":"159b5b03-b07a-4fa4-b689-6a2ca553228e","system_id":"levelo_inurba_marseille","lat":43.33027,"lon":5.39033,"is_reserved":false,"is_disabled":false,"rental_uris":{"android":"levelo://app?vid=159b5b03-b07a-4fa4-b689-6a2ca553228e","ios":"levelo://app?vid=159b5b03-b07a-4fa4-b689-6a2ca553228e"},"vehicle_type_id":"4","last_reported":1748344155,"current_range_meters":8800,"station_id":"ce4bhr92rcd13ifvqhrg","pricing_plan_id":"cebpf4jnsgd1na2vs0mg"},{"bike_id":"28d55f7a-98cd-4aaa-95b2-35edf61c17cc","system_id":"levelo_inurba_marseille","lat":43.26794,"lon":5.40265,"is_reserved":false,"is_disabled":false,"rental_uris":{"android":"levelo://app?vid=28d55f7a-98cd-4aaa-95b2-35edf61c17cc","ios":"levelo://app?vid=28d55f7a-98cd-4aaa-95b2-35edf61c17cc"},"vehicle_type_id":"4","last_reported":1748344155,"current_range_meters":8800,"station_id":"ce501612rcd8frsf0b60","pricing_plan_id":"cebpf4jnsgd1na2vs0mg"},{"bike_id":"1a0998e5-8bb9-474f-a827-53cad24c9e8f","system_id":"levelo_inurba_marseille","lat":43.320361,"lon":5.449503,"is_reserved":false,"is_disabled":false,"rental_uris":{"android":"levelo://app?vid=1a0998e5-8bb9-474f-a827-53cad24c9e8f","ios":"levelo://app?vid=1a0998e5-8bb9-474f-a827-53cad24c9e8f"},"vehicle_type_id":"4","last_reported":1748344155,"current_range_meters":9200,"station_id":"","pricing_plan_id":"cebpf4jnsgd1na2vs0mg"},{"bike_id":"ae6e6868-2635-4f49-b7c1-b03759c58ec7","system_id":"levelo_inurba_marseille","lat":43.272788,"lon":5.415849,"is_reserved":false,"is_disabled":false,"rental_uris":{"android":"levelo://app?vid=ae6e6868-2635-4f49-b7c1-b03759c58ec7","ios":"levelo://app?vid=ae6e6868-2635-4f49-b7c1-b03759c58ec7"},"vehicle_type_id":"4","last_reported":1748344155,"current_range_meters":9200,"station_id":"","pricing_plan_id":"cebpf4jnsgd1na2vs0mg"},{"bike_id":"9c8ab5ff-7a98-4cff-9fc1-ebfa4504dbaf","system_id":"levelo_inurba_marseille","lat":43.31478,"lon":5.37303,"is_reserved":false,"is_disabled":false,"rental_uris":{"android":"levelo://app?vid=9c8ab5ff-7a98-4cff-9fc1-ebfa4504dbaf","ios":"levelo://app?vid=9c8ab5ff-7a98-4cff-9fc1-ebfa4504dbaf"},"vehicle_type_id":"4","last_reported":1748344155,"current_range_meters":9200,"station_id":"ce4bgt12rcd13ifvqcd0","pricing_plan_id":"cebpf4jnsgd1na2vs0mg"},{"bike_id":"5e884aee-955c-4097-b75a-d6a16a8a2780","system_id":"levelo_inurba_marseille","lat":43.28352,"lon":5.38103,"is_reserved":false,"is_disabled":false,"rental_uris":{"android":"levelo://app?vid=5e884aee-955c-4097-b75a-d6a16a8a2780","ios":"levelo://app?vid=5e884aee-955c-4097-b75a-d6a16a8a2780"},"vehicle_type_id":"4","last_reported":1748344155,"current_range_meters":9200,"station_id":"ce4bh412rcd13ifvqdr0","pricing_plan_id":"cebpf4jnsgd1na2vs0mg"},{"bike_id":"892b9e96-7d00-4767-872d-a54a8f247c2e","system_id":"levelo_inurba_marseille","lat":43.28401,"lon":5.37513,"is_reserved":false,"is_disabled":false,"rental_uris":{"android":"levelo://app?vid=892b9e96-7d00-4767-872d-a54a8f247c2e","ios":"levelo://app?vid=892b9e96-7d00-4767-872d-a54a8f247c2e"},"vehicle_type_id":"4","last_reported":1748344155,"current_range_meters":9200,"station_id":"ce4bh412rcd13ifvqds0","pricing_plan_id":"cebpf4jnsgd1na2vs0mg"},{"bike_id":"4a1bc3e9-addf-4b36-a13a-f433dd92e6d8","system_id":"levelo_inurba_marseille","lat":43.286617,"lon":5.363426,"is_reserved":false,"is_disabled":false,"rental_uris":{"android":"levelo://app?vid=4a1bc3e9-addf-4b36-a13a-f433dd92e6d8","ios":"levelo://app?vid=4a1bc3e9-addf-4b36-a13a-f433dd92e6d8"},"vehicle_type_id":"4","last_reported":1748344155,"current_range_meters":9200,"station_id":"ce4bhah2rcd13ifvqej0","pricing_plan_id":"cebpf4jnsgd1na2vs0mg"},{"bike_id":"f3675cb5-9cb7-46e9-83f0-6c81da87ff75","system_id":"levelo_inurba_marseille","lat":43.26555,"lon":5.39003,"is_reserved":false,"is_disabled":false,"rental_uris":{"android":"levelo://app?vid=f3675cb5-9cb7-46e9-83f0-6c81da87ff75","ios":"levelo://app?vid=f3675cb5-9cb7-46e9-83f0-6c81da87ff75"},"vehicle_type_id":"4","last_reported":1748344155,"current_range_meters":9200,"station_id":"ce4bhe12rcd13ifvqf30","pricing_plan_id":"cebpf4jnsgd1na2vs0mg"},{"bike_id":"f6a291c8-009c-4799-858f-3d0684b35fea","system_id":"levelo_inurba_marseille","lat":43.23161,"lon":5.43707,"is_reserved":false,"is_disabled":false,"rental_uris":{"android":"levelo://app?vid=f6a291c8-009c-4799-858f-3d0684b35fea","ios":"levelo://app?vid=f6a291c8-009c-4799-858f-3d0684b35fea"},"vehicle_type_id":"4","last_reported":1748344155,"current_range_meters":9200,"station_id":"ce4bhmp2rcd13ifvqgog","pricing_plan_id":"cebpf4jnsgd1na2vs0mg"},{"bike_id":"965ab415-d12e-4a30-a87a-91af20a1e286","system_id":"levelo_inurba_marseille","lat":43.28443,"lon":5.39203,"is_reserved":false,"is_disabled":false,"rental_uris":{"android":"levelo://app?vid=965ab415-d12e-4a30-a87a-91af20a1e286","ios":"levelo://app?vid=965ab415-d12e-4a30-a87a-91af20a1e286"},"vehicle_type_id":"4","last_reported":1748344155,"current_range_meters":9200,"station_id":"ce4bhoh2rcd13ifvqh5g","pricing_plan_id":"cebpf4jnsgd1na2vs0mg"},{"bike_id":"536fbd95-17f8-4c0b-b330-44eb74a31ae0","system_id":"levelo_inurba_marseille","lat":43.29964,"lon":5.37196,"is_reserved":false,"is_disabled":false,"rental_uris":{"android":"levelo://app?vid=536fbd95-17f8-4c0b-b330-44eb74a31ae0","ios":"levelo://app?vid=536fbd95-17f8-4c0b-b330-44eb74a31ae0"},"vehicle_type_id":"4","last_reported":1748344155,"current_range_meters":9600,"station_id":"ce4bgr92rcd13ifvqc7g","pricing_plan_id":"cebpf4jnsgd1na2vs0mg"},{"bike_id":"ded2165f-ca4c-45dc-b68d-bbb61beb182b","system_id":"levelo_inurba_marseille","lat":43.30198,"lon":5.3663,"is_reserved":false,"is_disabled":false,"rental_uris":{"android":"levelo://app?vid=ded2165f-ca4c-45dc-b68d-bbb61beb182b","ios":"levelo://app?vid=ded2165f-ca4c-45dc-b68d-bbb61beb182b"},"vehicle_type_id":"4","last_reported":1748344155,"current_range_meters":9600,"station_id":"ce4bgrh2rcd13ifvqc8g","pricing_plan_id":"cebpf4jnsgd1na2vs0mg"},{"bike_id":"8b6de5d5-c175-41c6-a72f-cea631f1f372","system_id":"levelo_inurba_marseille","lat":43.30945,"lon":5.39034,"is_reserved":false,"is_disabled":false,"rental_uris":{"android":"levelo://app?vid=8b6de5d5-c175-41c6-a72f-cea631f1f372","ios":"levelo://app?vid=8b6de5d5-c175-41c6-a72f-cea631f1f372"},"vehicle_type_id":"4","last_reported":1748344155,"current_range_meters":9600,"station_id":"ce4bgup2rcd13ifvqco0","pricing_plan_id":"cebpf4jnsgd1na2vs0mg"},{"bike_id":"c3b61d1e-78a7-4d98-afd7-52578e817ee7","system_id":"levelo_inurba_marseille","lat":43.3024,"lon":5.4006,"is_reserved":false,"is_disabled":false,"rental_uris":{"android":"levelo://app?vid=c3b61d1e-78a7-4d98-afd7-52578e817ee7","ios":"levelo://app?vid=c3b61d1e-78a7-4d98-afd7-52578e817ee7"},"vehicle_type_id":"4","last_reported":1748344155,"current_range_meters":9600,"station_id":"ce4bgvh2rcd13ifvqcs0","pricing_plan_id":"cebpf4jnsgd1na2vs0mg"},{"bike_id":"179e670b-338a-4c35-90c1-db1256311ade","system_id":"levelo_inurba_marseille","lat":43.23164,"lon":5.39991,"is_reserved":false,"is_disabled":false,"rental_uris":{"android":"levelo://app?vid=179e670b-338a-4c35-90c1-db1256311ade","ios":"levelo://app?vid=179e670b-338a-4c35-90c1-db1256311ade"},"vehicle_type_id":"4","last_reported":1748344155,"current_range_meters":9600,"station_id":"ce4bhn12rcd13ifvqgqg","pricing_plan_id":"cebpf4jnsgd1na2vs0mg"},{"bike_id":"de7de93d-7329-426c-a55a-9e1f5b37f3bc","system_id":"levelo_inurba_marseille","lat":43.30086,"lon":5.37422,"is_reserved":false,"is_disabled":false,"rental_uris":{"android":"levelo://app?vid=de7de93d-7329-426c-a55a-9e1f5b37f3bc","ios":"levelo://app?vid=de7de93d-7329-426c-a55a-9e1f5b37f3bc"},"vehicle_type_id":"4","last_reported":1748344155,"current_range_meters":10000,"station_id":"ce4bgs92rcd13ifvqcc0","pricing_plan_id":"cebpf4jnsgd1na2vs0mg"},{"bike_id":"905c16b8-c272-4d06-94b0-b90d2cba5511","system_id":"levelo_inurba_marseille","lat":43.29056,"lon":5.35597,"is_reserved":false,"is_disabled":false,"rental_uris":{"android":"levelo://app?vid=905c16b8-c272-4d06-94b0-b90d2cba5511","ios":"levelo://app?vid=905c16b8-c272-4d06-94b0-b90d2cba5511"},"vehicle_type_id":"4","last_reported":1748344155,"current_range_meters":10000,"station_id":"ce4bhb92rcd13ifvqen0","pricing_plan_id":"cebpf4jnsgd1na2vs0mg"},{"bike_id":"6ef27e84-462a-46f9-afe5-e09b209cc7f0","system_id":"levelo_inurba_marseille","lat":43.331138,"lon":5.36205,"is_reserved":false,"is_disabled":false,"rental_uris":{"android":"levelo://app?vid=6ef27e84-462a-46f9-afe5-e09b209cc7f0","ios":"levelo://app?vid=6ef27e84-462a-46f9-afe5-e09b209cc7f0"},"vehicle_type_id":"4","last_reported":1748344155,"current_range_meters":10800,"station_id":"","pricing_plan_id":"cebpf4jnsgd1na2vs0mg"},{"bike_id":"a4c28552-297a-4706-b828-431abb099548","system_id":"levelo_inurba_marseille","lat":43.27558,"lon":5.38424,"is_reserved":false,"is_disabled":false,"rental_uris":{"android":"levelo://app?vid=a4c28552-297a-4706-b828-431abb099548","ios":"levelo://app?vid=a4c28552-297a-4706-b828-431abb099548"},"vehicle_type_id":"4","last_reported":1748344155,"current_range_meters":10800,"station_id":"ce4bhh92rcd13ifvqfi0","pricing_plan_id":"cebpf4jnsgd1na2vs0mg"},{"bike_id":"1a775a5e-1792-4706-b4f6-ec50ef749d53","system_id":"levelo_inurba_marseille","lat":43.255796,"lon":5.38223,"is_reserved":false,"is_disabled":false,"rental_uris":{"android":"levelo://app?vid=1a775a5e-1792-4706-b4f6-ec50ef749d53","ios":"levelo://app?vid=1a775a5e-1792-4706-b4f6-ec50ef749d53"},"vehicle_type_id":"4","last_reported":1748344155,"current_range_meters":10800,"station_id":"ce4bhih2rcd13ifvqfs0","pricing_plan_id":"cebpf4jnsgd1na2vs0mg"},{"bike_id":"cd431521-2266-4f45-ac9a-95e56b6903c9","system_id":"levelo_inurba_marseille","lat":43.24179,"lon":5.39725,"is_reserved":false,"is_disabled":false,"rental_uris":{"android":"levelo://app?vid=cd431521-2266-4f45-ac9a-95e56b6903c9","ios":"levelo://app?vid=cd431521-2266-4f45-ac9a-95e56b6903c9"},"vehicle_type_id":"4","last_reported":1748344155,"current_range_meters":10800,"station_id":"ce4bhn12rcd13ifvqgpg","pricing_plan_id":"cebpf4jnsgd1na2vs0mg"},{"bike_id":"2a046dee-b3af-48c9-9659-b7d30ba20af5","system_id":"levelo_inurba_marseille","lat":43.24344,"lon":5.37989,"is_reserved":false,"is_disabled":false,"rental_uris":{"android":"levelo://app?vid=2a046dee-b3af-48c9-9659-b7d30ba20af5","ios":"levelo://app?vid=2a046dee-b3af-48c9-9659-b7d30ba20af5"},"vehicle_type_id":"4","last_reported":1748344155,"current_range_meters":11200,"station_id":"","pricing_plan_id":"cebpf4jnsgd1na2vs0mg"},{"bike_id":"f9a1ccb4-eefa-4aee-bcfd-72472de0c30f","system_id":"levelo_inurba_marseille","lat":43.2925,"lon":5.37626,"is_reserved":false,"is_disabled":false,"rental_uris":{"android":"levelo://app?vid=f9a1ccb4-eefa-4aee-bcfd-72472de0c30f","ios":"levelo://app?vid=f9a1ccb4-eefa-4aee-bcfd-72472de0c30f"},"vehicle_type_id":"4","last_reported":1748344155,"current_range_meters":11200,"station_id":"ce4bgi12rcd13ifvqb80","pricing_plan_id":"cebpf4jnsgd1na2vs0mg"},{"bike_id":"5f9391d7-2924-464d-abdc-d40ada4b1c07","system_id":"levelo_inurba_marseille","lat":43.30137,"lon":5.374078,"is_reserved":false,"is_disabled":false,"rental_uris":{"android":"levelo://app?vid=5f9391d7-2924-464d-abdc-d40ada4b1c07","ios":"levelo://app?vid=5f9391d7-2924-464d-abdc-d40ada4b1c07"},"vehicle_type_id":"4","last_reported":1748344155,"current_range_meters":11200,"station_id":"ce4bgs92rcd13ifvqcc0","pricing_plan_id":"cebpf4jnsgd1na2vs0mg"},{"bike_id":"d91911cc-c885-4e89-acc6-70baeab1297b","system_id":"levelo_inurba_marseille","lat":43.30155,"lon":5.37414,"is_reserved":false,"is_disabled":false,"rental_uris":{"android":"levelo://app?vid=d91911cc-c885-4e89-acc6-70baeab1297b","ios":"levelo://app?vid=d91911cc-c885-4e89-acc6-70baeab1297b"},"vehicle_type_id":"4","last_reported":1748344155,"current_range_meters":11200,"station_id":"ce4bgs92rcd13ifvqcc0","pricing_plan_id":"cebpf4jnsgd1na2vs0mg"},{"bike_id":"a6237dc9-2ae2-4a3a-b18f-ee2420afa08a","system_id":"levelo_inurba_marseille","lat":43.3021,"lon":5.39457,"is_reserved":false,"is_disabled":false,"rental_uris":{"android":"levelo://app?vid=a6237dc9-2ae2-4a3a-b18f-ee2420afa08a","ios":"levelo://app?vid=a6237dc9-2ae2-4a3a-b18f-ee2420afa08a"},"vehicle_type_id":"4","last_reported":1748344155,"current_range_meters":11200,"station_id":"ce4bh0p2rcd13ifvqd70","pricing_plan_id":"cebpf4jnsgd1na2vs0mg"},{"bike_id":"ee237cc2-2634-40ed-a7ca-6b630cefc9cb","system_id":"levelo_inurba_marseille","lat":43.28271,"lon":5.35057,"is_reserved":false,"is_disabled":false,"rental_uris":{"android":"levelo://app?vid=ee237cc2-2634-40ed-a7ca-6b630cefc9cb","ios":"levelo://app?vid=ee237cc2-2634-40ed-a7ca-6b630cefc9cb"},"vehicle_type_id":"4","last_reported":1748344155,"current_range_meters":11200,"station_id":"ce4bhbp2rcd13ifvqerg","pricing_plan_id":"cebpf4jnsgd1na2vs0mg"},{"bike_id":"48cd0317-1c6f-4804-9cd1-21cb1ebe5af3","system_id":"levelo_inurba_marseille","lat":43.25496,"lon":5.3764,"is_reserved":false,"is_disabled":false,"rental_uris":{"android":"levelo://app?vid=48cd0317-1c6f-4804-9cd1-21cb1ebe5af3","ios":"levelo://app?vid=48cd0317-1c6f-4804-9cd1-21cb1ebe5af3"},"vehicle_type_id":"4","last_reported":1748344155,"current_range_meters":11200,"station_id":"ce4bhh12rcd13ifvqff0","pricing_plan_id":"cebpf4jnsgd1na2vs0mg"},{"bike_id":"3f855aa9-a03a-4d28-bbc8-2f3b26d07315","system_id":"levelo_inurba_marseille","lat":43.22927,"lon":5.35374,"is_reserved":false,"is_disabled":false,"rental_uris":{"android":"levelo://app?vid=3f855aa9-a03a-4d28-bbc8-2f3b26d07315","ios":"levelo://app?vid=3f855aa9-a03a-4d28-bbc8-2f3b26d07315"},"vehicle_type_id":"4","last_reported":1748344155,"current_range_meters":11200,"station_id":"cpo3532slgdg3j2ikp40","pricing_plan_id":"cebpf4jnsgd1na2vs0mg"},{"bike_id":"e6c65de3-7d92-4979-809c-6677188473c0","system_id":"levelo_inurba_marseille","lat":43.337598,"lon":5.374632,"is_reserved":false,"is_disabled":false,"rental_uris":{"android":"levelo://app?vid=e6c65de3-7d92-4979-809c-6677188473c0","ios":"levelo://app?vid=e6c65de3-7d92-4979-809c-6677188473c0"},"vehicle_type_id":"4","last_reported":1748344155,"current_range_meters":11600,"station_id":"","pricing_plan_id":"cebpf4jnsgd1na2vs0mg"},{"bike_id":"5a5d3cd9-43c9-4580-afc1-94b3cc3c8454","system_id":"levelo_inurba_marseille","lat":43.23171,"lon":5.43701,"is_reserved":false,"is_disabled":false,"rental_uris":{"android":"levelo://app?vid=5a5d3cd9-43c9-4580-afc1-94b3cc3c8454","ios":"levelo://app?vid=5a5d3cd9-43c9-4580-afc1-94b3cc3c8454"},"vehicle_type_id":"4","last_reported":1748344155,"current_range_meters":11600,"station_id":"ce4bhmp2rcd13ifvqgog","pricing_plan_id":"cebpf4jnsgd1na2vs0mg"},{"bike_id":"82e61e28-6553-43b1-802a-e27fca196057","system_id":"levelo_inurba_marseille","lat":43.23184,"lon":5.3998,"is_reserved":false,"is_disabled":false,"rental_uris":{"android":"levelo://app?vid=82e61e28-6553-43b1-802a-e27fca196057","ios":"levelo://app?vid=82e61e28-6553-43b1-802a-e27fca196057"},"vehicle_type_id":"4","last_reported":1748344155,"current_range_meters":11600,"station_id":"ce4bhn12rcd13ifvqgqg","pricing_plan_id":"cebpf4jnsgd1na2vs0mg"},{"bike_id":"dee748de-8b79-41a3-89d3-a87646d8b199","system_id":"levelo_inurba_marseille","lat":43.2956,"lon":5.42289,"is_reserved":false,"is_disabled":false,"rental_uris":{"android":"levelo://app?vid=dee748de-8b79-41a3-89d3-a87646d8b199","ios":"levelo://app?vid=dee748de-8b79-41a3-89d3-a87646d8b199"},"vehicle_type_id":"4","last_reported":1748344155,"current_range_meters":11600,"station_id":"ce4bhph2rcd13ifvqhdg","pricing_plan_id":"cebpf4jnsgd1na2vs0mg"},{"bike_id":"17b0d8ff-aa28-408b-9628-4a545be2c769","system_id":"levelo_inurba_marseille","lat":43.3192,"lon":5.380224,"is_reserved":false,"is_disabled":false,"rental_uris":{"android":"levelo://app?vid=17b0d8ff-aa28-408b-9628-4a545be2c769","ios":"levelo://app?vid=17b0d8ff-aa28-408b-9628-4a545be2c769"},"vehicle_type_id":"4","last_reported":1748344155,"current_range_meters":12000,"station_id":"","pricing_plan_id":"cebpf4jnsgd1na2vs0mg"},{"bike_id":"6b482028-512e-4dbe-b943-3138dd0f6f46","system_id":"levelo_inurba_marseille","lat":43.29691,"lon":5.36851,"is_reserved":false,"is_disabled":false,"rental_uris":{"android":"levelo://app?vid=6b482028-512e-4dbe-b943-3138dd0f6f46","ios":"levelo://app?vid=6b482028-512e-4dbe-b943-3138dd0f6f46"},"vehicle_type_id":"4","last_reported":1748344155,"current_range_meters":12000,"station_id":"","pricing_plan_id":"cebpf4jnsgd1na2vs0mg"},{"bike_id":"6a763caa-db62-44e2-8846-a6ba89cc4736","system_id":"levelo_inurba_marseille","lat":43.30141,"lon":5.37412,"is_reserved":false,"is_disabled":false,"rental_uris":{"android":"levelo://app?vid=6a763caa-db62-44e2-8846-a6ba89cc4736","ios":"levelo://app?vid=6a763caa-db62-44e2-8846-a6ba89cc4736"},"vehicle_type_id":"4","last_reported":1748344155,"current_range_meters":12000,"station_id":"ce4bgs92rcd13ifvqcc0","pricing_plan_id":"cebpf4jnsgd1na2vs0mg"},{"bike_id":"34081d98-7ea3-4188-993c-0c607c94d8f4","system_id":"levelo_inurba_marseille","lat":43.30885,"lon":5.39653,"is_reserved":false,"is_disabled":false,"rental_uris":{"android":"levelo://app?vid=34081d98-7ea3-4188-993c-0c607c94d8f4","ios":"levelo://app?vid=34081d98-7ea3-4188-993c-0c607c94d8f4"},"vehicle_type_id":"4","last_reported":1748344155,"current_range_meters":12000,"station_id":"ce4bh012rcd13ifvqcv0","pricing_plan_id":"cebpf4jnsgd1na2vs0mg"},{"bike_id":"c1cf20d1-034f-4d67-ab35-37b4cd4a8704","system_id":"levelo_inurba_marseille","lat":43.29003,"lon":5.35605,"is_reserved":false,"is_disabled":false,"rental_uris":{"android":"levelo://app?vid=c1cf20d1-034f-4d67-ab35-37b4cd4a8704","ios":"levelo://app?vid=c1cf20d1-034f-4d67-ab35-37b4cd4a8704"},"vehicle_type_id":"4","last_reported":1748344155,"current_range_meters":12000,"station_id":"ce4bhb92rcd13ifvqen0","pricing_plan_id":"cebpf4jnsgd1na2vs0mg"},{"bike_id":"a94867eb-10e6-42b1-8862-1ec776f45d98","system_id":"levelo_inurba_marseille","lat":43.278564,"lon":5.392258,"is_reserved":false,"is_disabled":false,"rental_uris":{"android":"levelo://app?vid=a94867eb-10e6-42b1-8862-1ec776f45d98","ios":"levelo://app?vid=a94867eb-10e6-42b1-8862-1ec776f45d98"},"vehicle_type_id":"4","last_reported":1748344155,"current_range_meters":12000,"station_id":"ce4bhjp2rcd13ifvqga0","pricing_plan_id":"cebpf4jnsgd1na2vs0mg"},{"bike_id":"2a9b9f6f-e086-4a48-b343-0410abb19aae","system_id":"levelo_inurba_marseille","lat":43.25902,"lon":5.40901,"is_reserved":false,"is_disabled":false,"rental_uris":{"android":"levelo://app?vid=2a9b9f6f-e086-4a48-b343-0410abb19aae","ios":"levelo://app?vid=2a9b9f6f-e086-4a48-b343-0410abb19aae"},"vehicle_type_id":"4","last_reported":1748344155,"current_range_meters":12000,"station_id":"ce4bhm92rcd13ifvqglg","pricing_plan_id":"cebpf4jnsgd1na2vs0mg"},{"bike_id":"402deea4-adb4-415b-af68-06ec3042e724","system_id":"levelo_inurba_marseille","lat":43.23175,"lon":5.39991,"is_reserved":false,"is_disabled":false,"rental_uris":{"android":"levelo://app?vid=402deea4-adb4-415b-af68-06ec3042e724","ios":"levelo://app?vid=402deea4-adb4-415b-af68-06ec3042e724"},"vehicle_type_id":"4","last_reported":1748344155,"current_range_meters":12000,"station_id":"ce4bhn12rcd13ifvqgqg","pricing_plan_id":"cebpf4jnsgd1na2vs0mg"},{"bike_id":"598cd194-be13-4ed2-9a4d-880666b45482","system_id":"levelo_inurba_marseille","lat":43.330251,"lon":5.390326,"is_reserved":false,"is_disabled":false,"rental_uris":{"android":"levelo://app?vid=598cd194-be13-4ed2-9a4d-880666b45482","ios":"levelo://app?vid=598cd194-be13-4ed2-9a4d-880666b45482"},"vehicle_type_id":"4","last_reported":1748344155,"current_range_meters":12000,"station_id":"ce4bhr92rcd13ifvqhrg","pricing_plan_id":"cebpf4jnsgd1na2vs0mg"},{"bike_id":"f7dc54fc-d31f-4da9-b1f8-48c21978e801","system_id":"levelo_inurba_marseille","lat":43.30525,"lon":5.36543,"is_reserved":false,"is_disabled":false,"rental_uris":{"android":"levelo://app?vid=f7dc54fc-d31f-4da9-b1f8-48c21978e801","ios":"levelo://app?vid=f7dc54fc-d31f-4da9-b1f8-48c21978e801"},"vehicle_type_id":"4","last_reported":1748344155,"current_range_meters":12400,"station_id":"ce4bgs12rcd13ifvqcag","pricing_plan_id":"cebpf4jnsgd1na2vs0mg"},{"bike_id":"b1c14eff-dec4-4fd5-96e9-a628afe8aa08","system_id":"levelo_inurba_marseille","lat":43.28976,"lon":5.3783,"is_reserved":false,"is_disabled":false,"rental_uris":{"android":"levelo://app?vid=b1c14eff-dec4-4fd5-96e9-a628afe8aa08","ios":"levelo://app?vid=b1c14eff-dec4-4fd5-96e9-a628afe8aa08"},"vehicle_type_id":"4","last_reported":1748344155,"current_range_meters":12400,"station_id":"ce4bh9p2rcd13ifvqed0","pricing_plan_id":"cebpf4jnsgd1na2vs0mg"},{"bike_id":"0379f6d9-a365-478a-83bd-7b9a92dbbbc8","system_id":"levelo_inurba_marseille","lat":43.26783,"lon":5.39408,"is_reserved":false,"is_disabled":false,"rental_uris":{"android":"levelo://app?vid=0379f6d9-a365-478a-83bd-7b9a92dbbbc8","ios":"levelo://app?vid=0379f6d9-a365-478a-83bd-7b9a92dbbbc8"},"vehicle_type_id":"4","last_reported":1748344155,"current_range_meters":12400,"station_id":"ce4bhh12rcd13ifvqfg0","pricing_plan_id":"cebpf4jnsgd1na2vs0mg"},{"bike_id":"b9fb025b-f2b9-4a12-ad60-c114d5a98e73","system_id":"levelo_inurba_marseille","lat":43.26961,"lon":5.38638,"is_reserved":false,"is_disabled":false,"rental_uris":{"android":"levelo://app?vid=b9fb025b-f2b9-4a12-ad60-c114d5a98e73","ios":"levelo://app?vid=b9fb025b-f2b9-4a12-ad60-c114d5a98e73"},"vehicle_type_id":"4","last_reported":1748344155,"current_range_meters":12400,"station_id":"ce4bhh92rcd13ifvqfh0","pricing_plan_id":"cebpf4jnsgd1na2vs0mg"},{"bike_id":"26cefabb-6a16-41aa-96ef-b636f51d675a","system_id":"levelo_inurba_marseille","lat":43.23153,"lon":5.43714,"is_reserved":false,"is_disabled":false,"rental_uris":{"android":"levelo://app?vid=26cefabb-6a16-41aa-96ef-b636f51d675a","ios":"levelo://app?vid=26cefabb-6a16-41aa-96ef-b636f51d675a"},"vehicle_type_id":"4","last_reported":1748344155,"current_range_meters":12400,"station_id":"ce4bhmp2rcd13ifvqgog","pricing_plan_id":"cebpf4jnsgd1na2vs0mg"},{"bike_id":"a3a1e2f8-c082-4657-9cf8-ceb282e14a71","system_id":"levelo_inurba_marseille","lat":43.23196,"lon":5.39987,"is_reserved":false,"is_disabled":false,"rental_uris":{"android":"levelo://app?vid=a3a1e2f8-c082-4657-9cf8-ceb282e14a71","ios":"levelo://app?vid=a3a1e2f8-c082-4657-9cf8-ceb282e14a71"},"vehicle_type_id":"4","last_reported":1748344155,"current_range_meters":12400,"station_id":"ce4bhn12rcd13ifvqgqg","pricing_plan_id":"cebpf4jnsgd1na2vs0mg"},{"bike_id":"ceb81090-b40e-47dd-bc35-8598d269ef58","system_id":"levelo_inurba_marseille","lat":43.26663,"lon":5.38431,"is_reserved":false,"is_disabled":false,"rental_uris":{"android":"levelo://app?vid=ceb81090-b40e-47dd-bc35-8598d269ef58","ios":"levelo://app?vid=ceb81090-b40e-47dd-bc35-8598d269ef58"},"vehicle_type_id":"4","last_reported":1748344155,"current_range_meters":12800,"station_id":"","pricing_plan_id":"cebpf4jnsgd1na2vs0mg"},{"bike_id":"842cf68a-f261-4376-89e2-da62375ab3a3","system_id":"levelo_inurba_marseille","lat":43.27619,"lon":5.36103,"is_reserved":false,"is_disabled":false,"rental_uris":{"android":"levelo://app?vid=842cf68a-f261-4376-89e2-da62375ab3a3","ios":"levelo://app?vid=842cf68a-f261-4376-89e2-da62375ab3a3"},"vehicle_type_id":"4","last_reported":1748344155,"current_range_meters":12800,"station_id":"ce4bgj92rcd13ifvqbe0","pricing_plan_id":"cebpf4jnsgd1na2vs0mg"},{"bike_id":"c00995ab-4871-4e4e-a259-1ae4d51eaa9f","system_id":"levelo_inurba_marseille","lat":43.30284,"lon":5.37706,"is_reserved":false,"is_disabled":false,"rental_uris":{"android":"levelo://app?vid=c00995ab-4871-4e4e-a259-1ae4d51eaa9f","ios":"levelo://app?vid=c00995ab-4871-4e4e-a259-1ae4d51eaa9f"},"vehicle_type_id":"4","last_reported":1748344155,"current_range_meters":12800,"station_id":"ce4bguh2rcd13ifvqcj0","pricing_plan_id":"cebpf4jnsgd1na2vs0mg"},{"bike_id":"0faa77cd-73c9-4445-b2e2-e790c9db7859","system_id":"levelo_inurba_marseille","lat":43.2559,"lon":5.38214,"is_reserved":false,"is_disabled":false,"rental_uris":{"android":"levelo://app?vid=0faa77cd-73c9-4445-b2e2-e790c9db7859","ios":"levelo://app?vid=0faa77cd-73c9-4445-b2e2-e790c9db7859"},"vehicle_type_id":"4","last_reported":1748344155,"current_range_meters":12800,"station_id":"ce4bhih2rcd13ifvqfs0","pricing_plan_id":"cebpf4jnsgd1na2vs0mg"},{"bike_id":"920be628-8bb6-4abf-8cd2-9431b9177f5a","system_id":"levelo_inurba_marseille","lat":43.23153,"lon":5.43719,"is_reserved":false,"is_disabled":false,"rental_uris":{"android":"levelo://app?vid=920be628-8bb6-4abf-8cd2-9431b9177f5a","ios":"levelo://app?vid=920be628-8bb6-4abf-8cd2-9431b9177f5a"},"vehicle_type_id":"4","last_reported":1748344155,"current_range_meters":12800,"station_id":"ce4bhmp2rcd13ifvqgog","pricing_plan_id":"cebpf4jnsgd1na2vs0mg"},{"bike_id":"c496a8dc-a9ff-46b9-a201-777f552ac51a","system_id":"levelo_inurba_marseille","lat":43.27941,"lon":5.41049,"is_reserved":false,"is_disabled":false,"rental_uris":{"android":"levelo://app?vid=c496a8dc-a9ff-46b9-a201-777f552ac51a","ios":"levelo://app?vid=c496a8dc-a9ff-46b9-a201-777f552ac51a"},"vehicle_type_id":"4","last_reported":1748344155,"current_range_meters":12800,"station_id":"ce4bhnp2rcd13ifvqh0g","pricing_plan_id":"cebpf4jnsgd1na2vs0mg"},{"bike_id":"ba009936-52f6-4167-b0cf-575a11d04ade","system_id":"levelo_inurba_marseille","lat":43.27942,"lon":5.410513,"is_reserved":false,"is_disabled":false,"rental_uris":{"android":"levelo://app?vid=ba009936-52f6-4167-b0cf-575a11d04ade","ios":"levelo://app?vid=ba009936-52f6-4167-b0cf-575a11d04ade"},"vehicle_type_id":"4","last_reported":1748344155,"current_range_meters":12800,"station_id":"ce4bhnp2rcd13ifvqh0g","pricing_plan_id":"cebpf4jnsgd1na2vs0mg"},{"bike_id":"e5c82b4c-e30f-487a-ae65-76f66da567ea","system_id":"levelo_inurba_marseille","lat":43.32364,"lon":5.36741,"is_reserved":false,"is_disabled":false,"rental_uris":{"android":"levelo://app?vid=e5c82b4c-e30f-487a-ae65-76f66da567ea","ios":"levelo://app?vid=e5c82b4c-e30f-487a-ae65-76f66da567ea"},"vehicle_type_id":"4","last_reported":1748344155,"current_range_meters":12800,"station_id":"ce4bhsh2rcd13ifvqi2g","pricing_plan_id":"cebpf4jnsgd1na2vs0mg"},{"bike_id":"ec45eb0e-f63a-476b-8746-0be63012c6f9","system_id":"levelo_inurba_marseille","lat":43.29256,"lon":5.37609,"is_reserved":false,"is_disabled":false,"rental_uris":{"android":"levelo://app?vid=ec45eb0e-f63a-476b-8746-0be63012c6f9","ios":"levelo://app?vid=ec45eb0e-f63a-476b-8746-0be63012c6f9"},"vehicle_type_id":"4","last_reported":1748344155,"current_range_meters":13600,"station_id":"ce4bgi12rcd13ifvqb80","pricing_plan_id":"cebpf4jnsgd1na2vs0mg"},{"bike_id":"2a309120-3fbb-4e5f-aee9-d0eab93b58c6","system_id":"levelo_inurba_marseille","lat":43.25496,"lon":5.37645,"is_reserved":false,"is_disabled":false,"rental_uris":{"android":"levelo://app?vid=2a309120-3fbb-4e5f-aee9-d0eab93b58c6","ios":"levelo://app?vid=2a309120-3fbb-4e5f-aee9-d0eab93b58c6"},"vehicle_type_id":"4","last_reported":1748344155,"current_range_meters":13600,"station_id":"ce4bhh12rcd13ifvqff0","pricing_plan_id":"cebpf4jnsgd1na2vs0mg"},{"bike_id":"0bc65736-b913-4c3f-bf64-5d6444079fa3","system_id":"levelo_inurba_marseille","lat":43.26929,"lon":5.38921,"is_reserved":false,"is_disabled":false,"rental_uris":{"android":"levelo://app?vid=0bc65736-b913-4c3f-bf64-5d6444079fa3","ios":"levelo://app?vid=0bc65736-b913-4c3f-bf64-5d6444079fa3"},"vehicle_type_id":"4","last_reported":1748344155,"current_range_meters":13600,"station_id":"ce4bhhh2rcd13ifvqfl0","pricing_plan_id":"cebpf4jnsgd1na2vs0mg"},{"bike_id":"03a878d5-7464-43c2-bb12-8804355fff55","system_id":"levelo_inurba_marseille","lat":43.25554,"lon":5.38183,"is_reserved":false,"is_disabled":false,"rental_uris":{"android":"levelo://app?vid=03a878d5-7464-43c2-bb12-8804355fff55","ios":"levelo://app?vid=03a878d5-7464-43c2-bb12-8804355fff55"},"vehicle_type_id":"4","last_reported":1748344155,"current_range_meters":13600,"station_id":"ce4bhih2rcd13ifvqfs0","pricing_plan_id":"cebpf4jnsgd1na2vs0mg"},{"bike_id":"b4a36e5e-245a-41cc-a9cf-03d5c03f3457","system_id":"levelo_inurba_marseille","lat":43.23153,"lon":5.43716,"is_reserved":false,"is_disabled":false,"rental_uris":{"android":"levelo://app?vid=b4a36e5e-245a-41cc-a9cf-03d5c03f3457","ios":"levelo://app?vid=b4a36e5e-245a-41cc-a9cf-03d5c03f3457"},"vehicle_type_id":"4","last_reported":1748344155,"current_range_meters":13600,"station_id":"ce4bhmp2rcd13ifvqgog","pricing_plan_id":"cebpf4jnsgd1na2vs0mg"},{"bike_id":"91778dc6-5ac3-4d73-a11f-9b1ddc717184","system_id":"levelo_inurba_marseille","lat":43.231864,"lon":5.399819,"is_reserved":false,"is_disabled":false,"rental_uris":{"android":"levelo://app?vid=91778dc6-5ac3-4d73-a11f-9b1ddc717184","ios":"levelo://app?vid=91778dc6-5ac3-4d73-a11f-9b1ddc717184"},"vehicle_type_id":"4","last_reported":1748344155,"current_range_meters":13600,"station_id":"ce4bhn12rcd13ifvqgqg","pricing_plan_id":"cebpf4jnsgd1na2vs0mg"},{"bike_id":"064e6fa0-0d7c-4ec8-b1ad-7f69178c75b7","system_id":"levelo_inurba_marseille","lat":43.298988,"lon":5.436745,"is_reserved":false,"is_disabled":false,"rental_uris":{"android":"levelo://app?vid=064e6fa0-0d7c-4ec8-b1ad-7f69178c75b7","ios":"levelo://app?vid=064e6fa0-0d7c-4ec8-b1ad-7f69178c75b7"},"vehicle_type_id":"4","last_reported":1748344155,"current_range_meters":13600,"station_id":"ce4bhpp2rcd13ifvqhfg","pricing_plan_id":"cebpf4jnsgd1na2vs0mg"},{"bike_id":"a2c39a84-7854-4ba4-9626-135f591afd4f","system_id":"levelo_inurba_marseille","lat":43.30538,"lon":5.36538,"is_reserved":false,"is_disabled":false,"rental_uris":{"android":"levelo://app?vid=a2c39a84-7854-4ba4-9626-135f591afd4f","ios":"levelo://app?vid=a2c39a84-7854-4ba4-9626-135f591afd4f"},"vehicle_type_id":"4","last_reported":1748344155,"current_range_meters":14000,"station_id":"ce4bgs12rcd13ifvqcag","pricing_plan_id":"cebpf4jnsgd1na2vs0mg"},{"bike_id":"a40588ee-00f9-4620-a7e7-03b577ebbb6e","system_id":"levelo_inurba_marseille","lat":43.231854,"lon":5.399988,"is_reserved":false,"is_disabled":false,"rental_uris":{"android":"levelo://app?vid=a40588ee-00f9-4620-a7e7-03b577ebbb6e","ios":"levelo://app?vid=a40588ee-00f9-4620-a7e7-03b577ebbb6e"},"vehicle_type_id":"4","last_reported":1748344155,"current_range_meters":14000,"station_id":"ce4bhn12rcd13ifvqgqg","pricing_plan_id":"cebpf4jnsgd1na2vs0mg"},{"bike_id":"9880208a-0aec-4720-bd42-08be8b49fab8","system_id":"levelo_inurba_marseille","lat":43.30547,"lon":5.36537,"is_reserved":false,"is_disabled":false,"rental_uris":{"android":"levelo://app?vid=9880208a-0aec-4720-bd42-08be8b49fab8","ios":"levelo://app?vid=9880208a-0aec-4720-bd42-08be8b49fab8"},"vehicle_type_id":"4","last_reported":1748344155,"current_range_meters":14400,"station_id":"ce4bgs12rcd13ifvqcag","pricing_plan_id":"cebpf4jnsgd1na2vs0mg"},{"bike_id":"01fb0934-c8b9-4fd3-a118-fc6aab7694f9","system_id":"levelo_inurba_marseille","lat":43.3053,"lon":5.36531,"is_reserved":false,"is_disabled":false,"rental_uris":{"android":"levelo://app?vid=01fb0934-c8b9-4fd3-a118-fc6aab7694f9","ios":"levelo://app?vid=01fb0934-c8b9-4fd3-a118-fc6aab7694f9"},"vehicle_type_id":"4","last_reported":1748344155,"current_range_meters":14400,"station_id":"ce4bgs12rcd13ifvqcag","pricing_plan_id":"cebpf4jnsgd1na2vs0mg"},{"bike_id":"08f7a5c7-41a5-4415-8497-1ef7b187a633","system_id":"levelo_inurba_marseille","lat":43.3095,"lon":5.39038,"is_reserved":false,"is_disabled":false,"rental_uris":{"android":"levelo://app?vid=08f7a5c7-41a5-4415-8497-1ef7b187a633","ios":"levelo://app?vid=08f7a5c7-41a5-4415-8497-1ef7b187a633"},"vehicle_type_id":"4","last_reported":1748344155,"current_range_meters":14400,"station_id":"ce4bgup2rcd13ifvqco0","pricing_plan_id":"cebpf4jnsgd1na2vs0mg"},{"bike_id":"17e694ae-2a67-4185-b67c-afb83122d962","system_id":"levelo_inurba_marseille","lat":43.2842,"lon":5.34983,"is_reserved":false,"is_disabled":false,"rental_uris":{"android":"levelo://app?vid=17e694ae-2a67-4185-b67c-afb83122d962","ios":"levelo://app?vid=17e694ae-2a67-4185-b67c-afb83122d962"},"vehicle_type_id":"4","last_reported":1748344155,"current_range_meters":14400,"station_id":"ce4bhbh2rcd13ifvqepg","pricing_plan_id":"cebpf4jnsgd1na2vs0mg"},{"bike_id":"c359ce31-503c-4864-81a4-8b7ff30ded70","system_id":"levelo_inurba_marseille","lat":43.32467,"lon":5.36552,"is_reserved":false,"is_disabled":false,"rental_uris":{"android":"levelo://app?vid=c359ce31-503c-4864-81a4-8b7ff30ded70","ios":"levelo://app?vid=c359ce31-503c-4864-81a4-8b7ff30ded70"},"vehicle_type_id":"4","last_reported":1748344155,"current_range_meters":14400,"station_id":"ce4bhs12rcd13ifvqhvg","pricing_plan_id":"cebpf4jnsgd1na2vs0mg"},{"bike_id":"56303e41-2b27-4d35-8ea7-4c7f6f219c1a","system_id":"levelo_inurba_marseille","lat":43.2176,"lon":5.346,"is_reserved":false,"is_disabled":false,"rental_uris":{"android":"levelo://app?vid=56303e41-2b27-4d35-8ea7-4c7f6f219c1a","ios":"levelo://app?vid=56303e41-2b27-4d35-8ea7-4c7f6f219c1a"},"vehicle_type_id":"4","last_reported":1748344155,"current_range_meters":14800,"station_id":"","pricing_plan_id":"cebpf4jnsgd1na2vs0mg"},{"bike_id":"efe13ae1-157e-47ae-82c1-fd97785f00a9","system_id":"levelo_inurba_marseille","lat":43.31068,"lon":5.38344,"is_reserved":false,"is_disabled":false,"rental_uris":{"android":"levelo://app?vid=efe13ae1-157e-47ae-82c1-fd97785f00a9","ios":"levelo://app?vid=efe13ae1-157e-47ae-82c1-fd97785f00a9"},"vehicle_type_id":"4","last_reported":1748344155,"current_range_meters":14800,"station_id":"ce4bgv92rcd13ifvqcr0","pricing_plan_id":"cebpf4jnsgd1na2vs0mg"},{"bike_id":"91e7aa13-0095-455f-8489-00cd8c762786","system_id":"levelo_inurba_marseille","lat":43.30637,"lon":5.40082,"is_reserved":false,"is_disabled":false,"rental_uris":{"android":"levelo://app?vid=91e7aa13-0095-455f-8489-00cd8c762786","ios":"levelo://app?vid=91e7aa13-0095-455f-8489-00cd8c762786"},"vehicle_type_id":"4","last_reported":1748344155,"current_range_meters":14800,"station_id":"ce4bh112rcd13ifvqda0","pricing_plan_id":"cebpf4jnsgd1na2vs0mg"},{"bike_id":"9198b550-c5cf-463c-bb76-767cf162342b","system_id":"levelo_inurba_marseille","lat":43.25581,"lon":5.38221,"is_reserved":false,"is_disabled":false,"rental_uris":{"android":"levelo://app?vid=9198b550-c5cf-463c-bb76-767cf162342b","ios":"levelo://app?vid=9198b550-c5cf-463c-bb76-767cf162342b"},"vehicle_type_id":"4","last_reported":1748344155,"current_range_meters":14800,"station_id":"ce4bhih2rcd13ifvqfs0","pricing_plan_id":"cebpf4jnsgd1na2vs0mg"},{"bike_id":"5c410044-783a-4bf0-a539-9010017a1490","system_id":"levelo_inurba_marseille","lat":43.2707,"lon":5.4226,"is_reserved":false,"is_disabled":false,"rental_uris":{"android":"levelo://app?vid=5c410044-783a-4bf0-a539-9010017a1490","ios":"levelo://app?vid=5c410044-783a-4bf0-a539-9010017a1490"},"vehicle_type_id":"4","last_reported":1748344155,"current_range_meters":14800,"station_id":"ce4bhk92rcd13ifvqgb0","pricing_plan_id":"cebpf4jnsgd1na2vs0mg"},{"bike_id":"b582156d-d708-46ae-b039-c36bbe10200d","system_id":"levelo_inurba_marseille","lat":43.29806,"lon":5.38102,"is_reserved":false,"is_disabled":false,"rental_uris":{"android":"levelo://app?vid=b582156d-d708-46ae-b039-c36bbe10200d","ios":"levelo://app?vid=b582156d-d708-46ae-b039-c36bbe10200d"},"vehicle_type_id":"4","last_reported":1748344155,"current_range_meters":15200,"station_id":"ce4bgip2rcd13ifvqbb0","pricing_plan_id":"cebpf4jnsgd1na2vs0mg"},{"bike_id":"e5c41bcc-15b4-4856-a15a-1d642ce07776","system_id":"levelo_inurba_marseille","lat":43.29854,"lon":5.36264,"is_reserved":false,"is_disabled":false,"rental_uris":{"android":"levelo://app?vid=e5c41bcc-15b4-4856-a15a-1d642ce07776","ios":"levelo://app?vid=e5c41bcc-15b4-4856-a15a-1d642ce07776"},"vehicle_type_id":"4","last_reported":1748344155,"current_range_meters":15200,"station_id":"ce4bgpp2rcd13ifvqc3g","pricing_plan_id":"cebpf4jnsgd1na2vs0mg"},{"bike_id":"0298550e-f6fc-452f-9590-1d55a14697e8","system_id":"levelo_inurba_marseille","lat":43.28112,"lon":5.37847,"is_reserved":false,"is_disabled":false,"rental_uris":{"android":"levelo://app?vid=0298550e-f6fc-452f-9590-1d55a14697e8","ios":"levelo://app?vid=0298550e-f6fc-452f-9590-1d55a14697e8"},"vehicle_type_id":"4","last_reported":1748344155,"current_range_meters":15200,"station_id":"ce4bha12rcd13ifvqee0","pricing_plan_id":"cebpf4jnsgd1na2vs0mg"},{"bike_id":"b9feece3-8db7-4d9c-b5c4-3d592ac61b90","system_id":"levelo_inurba_marseille","lat":43.291848,"lon":5.358085,"is_reserved":false,"is_disabled":false,"rental_uris":{"android":"levelo://app?vid=b9feece3-8db7-4d9c-b5c4-3d592ac61b90","ios":"levelo://app?vid=b9feece3-8db7-4d9c-b5c4-3d592ac61b90"},"vehicle_type_id":"4","last_reported":1748344155,"current_range_meters":16000,"station_id":"","pricing_plan_id":"cebpf4jnsgd1na2vs0mg"},{"bike_id":"6abca3b3-c56f-4fa1-871f-84512ef00a51","system_id":"levelo_inurba_marseille","lat":43.29299,"lon":5.3715,"is_reserved":false,"is_disabled":false,"rental_uris":{"android":"levelo://app?vid=6abca3b3-c56f-4fa1-871f-84512ef00a51","ios":"levelo://app?vid=6abca3b3-c56f-4fa1-871f-84512ef00a51"},"vehicle_type_id":"4","last_reported":1748344155,"current_range_meters":16000,"station_id":"ce4bgh92rcd13ifvqb40","pricing_plan_id":"cebpf4jnsgd1na2vs0mg"},{"bike_id":"54d54403-4df4-448b-b522-41aee07a2743","system_id":"levelo_inurba_marseille","lat":43.298523,"lon":5.362828,"is_reserved":false,"is_disabled":false,"rental_uris":{"android":"levelo://app?vid=54d54403-4df4-448b-b522-41aee07a2743","ios":"levelo://app?vid=54d54403-4df4-448b-b522-41aee07a2743"},"vehicle_type_id":"4","last_reported":1748344155,"current_range_meters":16000,"station_id":"ce4bgpp2rcd13ifvqc3g","pricing_plan_id":"cebpf4jnsgd1na2vs0mg"},{"bike_id":"4807cc62-6a9b-4bb6-9a64-b3c1da7dd454","system_id":"levelo_inurba_marseille","lat":43.30528,"lon":5.36541,"is_reserved":false,"is_disabled":false,"rental_uris":{"android":"levelo://app?vid=4807cc62-6a9b-4bb6-9a64-b3c1da7dd454","ios":"levelo://app?vid=4807cc62-6a9b-4bb6-9a64-b3c1da7dd454"},"vehicle_type_id":"4","last_reported":1748344155,"current_range_meters":16000,"station_id":"ce4bgs12rcd13ifvqcag","pricing_plan_id":"cebpf4jnsgd1na2vs0mg"},{"bike_id":"befa5887-8060-4153-b973-31d11d095602","system_id":"levelo_inurba_marseille","lat":43.31114,"lon":5.37778,"is_reserved":false,"is_disabled":false,"rental_uris":{"android":"levelo://app?vid=befa5887-8060-4153-b973-31d11d095602","ios":"levelo://app?vid=befa5887-8060-4153-b973-31d11d095602"},"vehicle_type_id":"4","last_reported":1748344155,"current_range_meters":16000,"station_id":"ce4bgt92rcd13ifvqcg0","pricing_plan_id":"cebpf4jnsgd1na2vs0mg"},{"bike_id":"7eef89e4-6819-4458-9be8-cd6a79111126","system_id":"levelo_inurba_marseille","lat":43.27444,"lon":5.39401,"is_reserved":false,"is_disabled":false,"rental_uris":{"android":"levelo://app?vid=7eef89e4-6819-4458-9be8-cd6a79111126","ios":"levelo://app?vid=7eef89e4-6819-4458-9be8-cd6a79111126"},"vehicle_type_id":"4","last_reported":1748344155,"current_range_meters":16000,"station_id":"ce4bhdp2rcd13ifvqf20","pricing_plan_id":"cebpf4jnsgd1na2vs0mg"},{"bike_id":"7c23aade-7d5a-4abe-9af8-e3a8e39a95da","system_id":"levelo_inurba_marseille","lat":43.25866,"lon":5.3989,"is_reserved":false,"is_disabled":false,"rental_uris":{"android":"levelo://app?vid=7c23aade-7d5a-4abe-9af8-e3a8e39a95da","ios":"levelo://app?vid=7c23aade-7d5a-4abe-9af8-e3a8e39a95da"},"vehicle_type_id":"4","last_reported":1748344155,"current_range_meters":16000,"station_id":"ce4bhl92rcd13ifvqghg","pricing_plan_id":"cebpf4jnsgd1na2vs0mg"},{"bike_id":"69ac8acb-6816-4e3d-b61e-e01a1548e4df","system_id":"levelo_inurba_marseille","lat":43.23148,"lon":5.43711,"is_reserved":false,"is_disabled":false,"rental_uris":{"android":"levelo://app?vid=69ac8acb-6816-4e3d-b61e-e01a1548e4df","ios":"levelo://app?vid=69ac8acb-6816-4e3d-b61e-e01a1548e4df"},"vehicle_type_id":"4","last_reported":1748344155,"current_range_meters":16000,"station_id":"ce4bhmp2rcd13ifvqgog","pricing_plan_id":"cebpf4jnsgd1na2vs0mg"},{"bike_id":"a83aa39c-3095-485c-8770-6ca3a755b137","system_id":"levelo_inurba_marseille","lat":43.31077,"lon":5.42427,"is_reserved":false,"is_disabled":false,"rental_uris":{"android":"levelo://app?vid=a83aa39c-3095-485c-8770-6ca3a755b137","ios":"levelo://app?vid=a83aa39c-3095-485c-8770-6ca3a755b137"},"vehicle_type_id":"4","last_reported":1748344155,"current_range_meters":16000,"station_id":"ce4bhp92rcd13ifvqhag","pricing_plan_id":"cebpf4jnsgd1na2vs0mg"},{"bike_id":"0feb5fc7-c1f1-435d-b268-924592d7b8a0","system_id":"levelo_inurba_marseille","lat":43.30574,"lon":5.36676,"is_reserved":false,"is_disabled":false,"rental_uris":{"android":"levelo://app?vid=0feb5fc7-c1f1-435d-b268-924592d7b8a0","ios":"levelo://app?vid=0feb5fc7-c1f1-435d-b268-924592d7b8a0"},"vehicle_type_id":"4","last_reported":1748344155,"current_range_meters":16400,"station_id":"","pricing_plan_id":"cebpf4jnsgd1na2vs0mg"},{"bike_id":"e6311078-81d1-4134-9570-bd62916fef23","system_id":"levelo_inurba_marseille","lat":43.29529,"lon":5.38545,"is_reserved":false,"is_disabled":false,"rental_uris":{"android":"levelo://app?vid=e6311078-81d1-4134-9570-bd62916fef23","ios":"levelo://app?vid=e6311078-81d1-4134-9570-bd62916fef23"},"vehicle_type_id":"4","last_reported":1748344155,"current_range_meters":16400,"station_id":"ce4bgih2rcd13ifvqba0","pricing_plan_id":"cebpf4jnsgd1na2vs0mg"},{"bike_id":"e21355d0-d87e-4401-86dd-5f9df401d5d3","system_id":"levelo_inurba_marseille","lat":43.30564,"lon":5.36529,"is_reserved":false,"is_disabled":false,"rental_uris":{"android":"levelo://app?vid=e21355d0-d87e-4401-86dd-5f9df401d5d3","ios":"levelo://app?vid=e21355d0-d87e-4401-86dd-5f9df401d5d3"},"vehicle_type_id":"4","last_reported":1748344155,"current_range_meters":16400,"station_id":"ce4bgs12rcd13ifvqcag","pricing_plan_id":"cebpf4jnsgd1na2vs0mg"},{"bike_id":"05979feb-1446-4c15-aac7-282f043c0049","system_id":"levelo_inurba_marseille","lat":43.26561,"lon":5.39012,"is_reserved":false,"is_disabled":false,"rental_uris":{"android":"levelo://app?vid=05979feb-1446-4c15-aac7-282f043c0049","ios":"levelo://app?vid=05979feb-1446-4c15-aac7-282f043c0049"},"vehicle_type_id":"4","last_reported":1748344155,"current_range_meters":16400,"station_id":"ce4bhe12rcd13ifvqf30","pricing_plan_id":"cebpf4jnsgd1na2vs0mg"},{"bike_id":"b022cf3a-ed71-4b84-a8d7-575675b7a40f","system_id":"levelo_inurba_marseille","lat":43.25938,"lon":5.40903,"is_reserved":false,"is_disabled":false,"rental_uris":{"android":"levelo://app?vid=b022cf3a-ed71-4b84-a8d7-575675b7a40f","ios":"levelo://app?vid=b022cf3a-ed71-4b84-a8d7-575675b7a40f"},"vehicle_type_id":"4","last_reported":1748344155,"current_range_meters":16400,"station_id":"ce4bhm92rcd13ifvqglg","pricing_plan_id":"cebpf4jnsgd1na2vs0mg"},{"bike_id":"bcaed641-032b-433f-8a0a-283ee03d0a12","system_id":"levelo_inurba_marseille","lat":43.21195,"lon":5.35069,"is_reserved":false,"is_disabled":false,"rental_uris":{"android":"levelo://app?vid=bcaed641-032b-433f-8a0a-283ee03d0a12","ios":"levelo://app?vid=bcaed641-032b-433f-8a0a-283ee03d0a12"},"vehicle_type_id":"4","last_reported":1748344155,"current_range_meters":16400,"station_id":"st_cvj6sg6p6f1abm77japg","pricing_plan_id":"cebpf4jnsgd1na2vs0mg"},{"bike_id":"fae4a990-f0fa-4250-bb7e-0594629ad958","system_id":"levelo_inurba_marseille","lat":43.31733,"lon":5.37273,"is_reserved":false,"is_disabled":false,"rental_uris":{"android":"levelo://app?vid=fae4a990-f0fa-4250-bb7e-0594629ad958","ios":"levelo://app?vid=fae4a990-f0fa-4250-bb7e-0594629ad958"},"vehicle_type_id":"4","last_reported":1748344155,"current_range_meters":16800,"station_id":"","pricing_plan_id":"cebpf4jnsgd1na2vs0mg"},{"bike_id":"134c70cc-46f1-414c-ba60-b99ba2b4a992","system_id":"levelo_inurba_marseille","lat":43.34801,"lon":5.3514,"is_reserved":false,"is_disabled":false,"rental_uris":{"android":"levelo://app?vid=134c70cc-46f1-414c-ba60-b99ba2b4a992","ios":"levelo://app?vid=134c70cc-46f1-414c-ba60-b99ba2b4a992"},"vehicle_type_id":"4","last_reported":1748344155,"current_range_meters":16800,"station_id":"","pricing_plan_id":"cebpf4jnsgd1na2vs0mg"},{"bike_id":"63079509-9b8f-4683-956d-e106615a004c","system_id":"levelo_inurba_marseille","lat":43.29256,"lon":5.37636,"is_reserved":false,"is_disabled":false,"rental_uris":{"android":"levelo://app?vid=63079509-9b8f-4683-956d-e106615a004c","ios":"levelo://app?vid=63079509-9b8f-4683-956d-e106615a004c"},"vehicle_type_id":"4","last_reported":1748344155,"current_range_meters":16800,"station_id":"ce4bgi12rcd13ifvqb80","pricing_plan_id":"cebpf4jnsgd1na2vs0mg"},{"bike_id":"93650871-0df1-4ec8-af84-aac8cccd1b7c","system_id":"levelo_inurba_marseille","lat":43.30425,"lon":5.3888,"is_reserved":false,"is_disabled":false,"rental_uris":{"android":"levelo://app?vid=93650871-0df1-4ec8-af84-aac8cccd1b7c","ios":"levelo://app?vid=93650871-0df1-4ec8-af84-aac8cccd1b7c"},"vehicle_type_id":"4","last_reported":1748344155,"current_range_meters":16800,"station_id":"ce4bgk12rcd13ifvqbi0","pricing_plan_id":"cebpf4jnsgd1na2vs0mg"},{"bike_id":"a6687956-562d-445c-a2ec-f1764479f8d3","system_id":"levelo_inurba_marseille","lat":43.299316,"lon":5.365578,"is_reserved":false,"is_disabled":false,"rental_uris":{"android":"levelo://app?vid=a6687956-562d-445c-a2ec-f1764479f8d3","ios":"levelo://app?vid=a6687956-562d-445c-a2ec-f1764479f8d3"},"vehicle_type_id":"4","last_reported":1748344155,"current_range_meters":16800,"station_id":"ce4bgm92rcd13ifvqbr0","pricing_plan_id":"cebpf4jnsgd1na2vs0mg"},{"bike_id":"840bb36a-52da-44ef-8004-cbbe85a6d115","system_id":"levelo_inurba_marseille","lat":43.30658,"lon":5.40068,"is_reserved":false,"is_disabled":false,"rental_uris":{"android":"levelo://app?vid=840bb36a-52da-44ef-8004-cbbe85a6d115","ios":"levelo://app?vid=840bb36a-52da-44ef-8004-cbbe85a6d115"},"vehicle_type_id":"4","last_reported":1748344155,"current_range_meters":16800,"station_id":"ce4bh112rcd13ifvqda0","pricing_plan_id":"cebpf4jnsgd1na2vs0mg"},{"bike_id":"852344e5-dff9-43be-8cb6-c6e762702da4","system_id":"levelo_inurba_marseille","lat":43.30641,"lon":5.40084,"is_reserved":false,"is_disabled":false,"rental_uris":{"android":"levelo://app?vid=852344e5-dff9-43be-8cb6-c6e762702da4","ios":"levelo://app?vid=852344e5-dff9-43be-8cb6-c6e762702da4"},"vehicle_type_id":"4","last_reported":1748344155,"current_range_meters":16800,"station_id":"ce4bh112rcd13ifvqda0","pricing_plan_id":"cebpf4jnsgd1na2vs0mg"},{"bike_id":"0d78414b-7994-47a7-aac1-df25909faf8e","system_id":"levelo_inurba_marseille","lat":43.2926,"lon":5.40902,"is_reserved":false,"is_disabled":false,"rental_uris":{"android":"levelo://app?vid=0d78414b-7994-47a7-aac1-df25909faf8e","ios":"levelo://app?vid=0d78414b-7994-47a7-aac1-df25909faf8e"},"vehicle_type_id":"4","last_reported":1748344155,"current_range_meters":16800,"station_id":"ce4bh192rcd13ifvqdc0","pricing_plan_id":"cebpf4jnsgd1na2vs0mg"},{"bike_id":"db534f2e-558f-4938-a255-680044c6e0fa","system_id":"levelo_inurba_marseille","lat":43.24389,"lon":5.37053,"is_reserved":false,"is_disabled":false,"rental_uris":{"android":"levelo://app?vid=db534f2e-558f-4938-a255-680044c6e0fa","ios":"levelo://app?vid=db534f2e-558f-4938-a255-680044c6e0fa"},"vehicle_type_id":"4","last_reported":1748344155,"current_range_meters":16800,"station_id":"ce4bhhh2rcd13ifvqfk0","pricing_plan_id":"cebpf4jnsgd1na2vs0mg"},{"bike_id":"932b7f27-2ec3-405b-8fac-c82bb0fd46ad","system_id":"levelo_inurba_marseille","lat":43.23968,"lon":5.36624,"is_reserved":false,"is_disabled":false,"rental_uris":{"android":"levelo://app?vid=932b7f27-2ec3-405b-8fac-c82bb0fd46ad","ios":"levelo://app?vid=932b7f27-2ec3-405b-8fac-c82bb0fd46ad"},"vehicle_type_id":"4","last_reported":1748344155,"current_range_meters":16800,"station_id":"ce4bhi12rcd13ifvqfp0","pricing_plan_id":"cebpf4jnsgd1na2vs0mg"},{"bike_id":"d4bcc636-6bd2-4d89-a14b-857f593b977a","system_id":"levelo_inurba_marseille","lat":43.25575,"lon":5.38231,"is_reserved":false,"is_disabled":false,"rental_uris":{"android":"levelo://app?vid=d4bcc636-6bd2-4d89-a14b-857f593b977a","ios":"levelo://app?vid=d4bcc636-6bd2-4d89-a14b-857f593b977a"},"vehicle_type_id":"4","last_reported":1748344155,"current_range_meters":16800,"station_id":"ce4bhih2rcd13ifvqfs0","pricing_plan_id":"cebpf4jnsgd1na2vs0mg"},{"bike_id":"d1844141-bbf9-4af9-a8cb-9124dbc03530","system_id":"levelo_inurba_marseille","lat":43.23154,"lon":5.43705,"is_reserved":false,"is_disabled":false,"rental_uris":{"android":"levelo://app?vid=d1844141-bbf9-4af9-a8cb-9124dbc03530","ios":"levelo://app?vid=d1844141-bbf9-4af9-a8cb-9124dbc03530"},"vehicle_type_id":"4","last_reported":1748344155,"current_range_meters":16800,"station_id":"ce4bhmp2rcd13ifvqgog","pricing_plan_id":"cebpf4jnsgd1na2vs0mg"},{"bike_id":"e8264270-6e82-48a0-9de5-a3f73f59db95","system_id":"levelo_inurba_marseille","lat":43.231802,"lon":5.399843,"is_reserved":false,"is_disabled":false,"rental_uris":{"android":"levelo://app?vid=e8264270-6e82-48a0-9de5-a3f73f59db95","ios":"levelo://app?vid=e8264270-6e82-48a0-9de5-a3f73f59db95"},"vehicle_type_id":"4","last_reported":1748344155,"current_range_meters":16800,"station_id":"ce4bhn12rcd13ifvqgqg","pricing_plan_id":"cebpf4jnsgd1na2vs0mg"},{"bike_id":"55820558-4e62-42f9-8f8f-3220df112ac6","system_id":"levelo_inurba_marseille","lat":43.31889,"lon":5.40726,"is_reserved":false,"is_disabled":false,"rental_uris":{"android":"levelo://app?vid=55820558-4e62-42f9-8f8f-3220df112ac6","ios":"levelo://app?vid=55820558-4e62-42f9-8f8f-3220df112ac6"},"vehicle_type_id":"4","last_reported":1748344155,"current_range_meters":16800,"station_id":"ce4bhq12rcd13ifvqhig","pricing_plan_id":"cebpf4jnsgd1na2vs0mg"},{"bike_id":"78c191aa-fef5-43cf-9265-914d56e75dd1","system_id":"levelo_inurba_marseille","lat":43.31669,"lon":5.40497,"is_reserved":false,"is_disabled":false,"rental_uris":{"android":"levelo://app?vid=78c191aa-fef5-43cf-9265-914d56e75dd1","ios":"levelo://app?vid=78c191aa-fef5-43cf-9265-914d56e75dd1"},"vehicle_type_id":"4","last_reported":1748344155,"current_range_meters":17200,"station_id":"ce4bh012rcd13ifvqd00","pricing_plan_id":"cebpf4jnsgd1na2vs0mg"},{"bike_id":"44ec1f37-be60-49e4-bb5a-83e871444fde","system_id":"levelo_inurba_marseille","lat":43.290045,"lon":5.356169,"is_reserved":false,"is_disabled":false,"rental_uris":{"android":"levelo://app?vid=44ec1f37-be60-49e4-bb5a-83e871444fde","ios":"levelo://app?vid=44ec1f37-be60-49e4-bb5a-83e871444fde"},"vehicle_type_id":"4","last_reported":1748344155,"current_range_meters":17200,"station_id":"ce4bhb92rcd13ifvqen0","pricing_plan_id":"cebpf4jnsgd1na2vs0mg"},{"bike_id":"22ba5909-07a4-4c41-bdd0-b3735918446a","system_id":"levelo_inurba_marseille","lat":43.28272,"lon":5.35058,"is_reserved":false,"is_disabled":false,"rental_uris":{"android":"levelo://app?vid=22ba5909-07a4-4c41-bdd0-b3735918446a","ios":"levelo://app?vid=22ba5909-07a4-4c41-bdd0-b3735918446a"},"vehicle_type_id":"4","last_reported":1748344155,"current_range_meters":17200,"station_id":"ce4bhbp2rcd13ifvqerg","pricing_plan_id":"cebpf4jnsgd1na2vs0mg"},{"bike_id":"88a707c9-37b0-4219-8da9-01ec3b86afdb","system_id":"levelo_inurba_marseille","lat":43.27925,"lon":5.39579,"is_reserved":false,"is_disabled":false,"rental_uris":{"android":"levelo://app?vid=88a707c9-37b0-4219-8da9-01ec3b86afdb","ios":"levelo://app?vid=88a707c9-37b0-4219-8da9-01ec3b86afdb"},"vehicle_type_id":"4","last_reported":1748344155,"current_range_meters":17200,"station_id":"ce4bhf92rcd13ifvqf40","pricing_plan_id":"cebpf4jnsgd1na2vs0mg"},{"bike_id":"b03801a0-915c-496a-a3fa-9a549955af5c","system_id":"levelo_inurba_marseille","lat":43.269293,"lon":5.389174,"is_reserved":false,"is_disabled":false,"rental_uris":{"android":"levelo://app?vid=b03801a0-915c-496a-a3fa-9a549955af5c","ios":"levelo://app?vid=b03801a0-915c-496a-a3fa-9a549955af5c"},"vehicle_type_id":"4","last_reported":1748344155,"current_range_meters":17200,"station_id":"ce4bhhh2rcd13ifvqfl0","pricing_plan_id":"cebpf4jnsgd1na2vs0mg"},{"bike_id":"1dafdf51-656d-4975-819b-79ae74d93918","system_id":"levelo_inurba_marseille","lat":43.23163,"lon":5.43694,"is_reserved":false,"is_disabled":false,"rental_uris":{"android":"levelo://app?vid=1dafdf51-656d-4975-819b-79ae74d93918","ios":"levelo://app?vid=1dafdf51-656d-4975-819b-79ae74d93918"},"vehicle_type_id":"4","last_reported":1748344155,"current_range_meters":17200,"station_id":"ce4bhmp2rcd13ifvqgog","pricing_plan_id":"cebpf4jnsgd1na2vs0mg"},{"bike_id":"1953f38b-53ec-43f8-b795-f88665262492","system_id":"levelo_inurba_marseille","lat":43.29783,"lon":5.38104,"is_reserved":false,"is_disabled":false,"rental_uris":{"android":"levelo://app?vid=1953f38b-53ec-43f8-b795-f88665262492","ios":"levelo://app?vid=1953f38b-53ec-43f8-b795-f88665262492"},"vehicle_type_id":"4","last_reported":1748344155,"current_range_meters":17600,"station_id":"ce4bgip2rcd13ifvqbb0","pricing_plan_id":"cebpf4jnsgd1na2vs0mg"},{"bike_id":"53b5a3f4-731c-4f3e-ae19-9a2d7c970ad3","system_id":"levelo_inurba_marseille","lat":43.31264,"lon":5.36853,"is_reserved":false,"is_disabled":false,"rental_uris":{"android":"levelo://app?vid=53b5a3f4-731c-4f3e-ae19-9a2d7c970ad3","ios":"levelo://app?vid=53b5a3f4-731c-4f3e-ae19-9a2d7c970ad3"},"vehicle_type_id":"4","last_reported":1748344155,"current_range_meters":17600,"station_id":"ce4bgl92rcd13ifvqbq0","pricing_plan_id":"cebpf4jnsgd1na2vs0mg"},{"bike_id":"14fcacdb-078a-4184-8f71-e2261063eff6","system_id":"levelo_inurba_marseille","lat":43.2988,"lon":5.39739,"is_reserved":false,"is_disabled":false,"rental_uris":{"android":"levelo://app?vid=14fcacdb-078a-4184-8f71-e2261063eff6","ios":"levelo://app?vid=14fcacdb-078a-4184-8f71-e2261063eff6"},"vehicle_type_id":"4","last_reported":1748344155,"current_range_meters":17600,"station_id":"ce4bh0h2rcd13ifvqd50","pricing_plan_id":"cebpf4jnsgd1na2vs0mg"},{"bike_id":"864148d6-e0c5-438e-92fc-b0901514a8f9","system_id":"levelo_inurba_marseille","lat":43.30638,"lon":5.40103,"is_reserved":false,"is_disabled":false,"rental_uris":{"android":"levelo://app?vid=864148d6-e0c5-438e-92fc-b0901514a8f9","ios":"levelo://app?vid=864148d6-e0c5-438e-92fc-b0901514a8f9"},"vehicle_type_id":"4","last_reported":1748344155,"current_range_meters":17600,"station_id":"ce4bh112rcd13ifvqda0","pricing_plan_id":"cebpf4jnsgd1na2vs0mg"},{"bike_id":"694826cd-19a1-499c-af7c-83a7fd9a0111","system_id":"levelo_inurba_marseille","lat":43.28618,"lon":5.35107,"is_reserved":false,"is_disabled":false,"rental_uris":{"android":"levelo://app?vid=694826cd-19a1-499c-af7c-83a7fd9a0111","ios":"levelo://app?vid=694826cd-19a1-499c-af7c-83a7fd9a0111"},"vehicle_type_id":"4","last_reported":1748344155,"current_range_meters":17600,"station_id":"ce4bhch2rcd13ifvqeug","pricing_plan_id":"cebpf4jnsgd1na2vs0mg"},{"bike_id":"3158ed97-171e-4f6d-b654-271885e2dbac","system_id":"levelo_inurba_marseille","lat":43.26194,"lon":5.37448,"is_reserved":false,"is_disabled":false,"rental_uris":{"android":"levelo://app?vid=3158ed97-171e-4f6d-b654-271885e2dbac","ios":"levelo://app?vid=3158ed97-171e-4f6d-b654-271885e2dbac"},"vehicle_type_id":"4","last_reported":1748344155,"current_range_meters":17600,"station_id":"ce4bhgp2rcd13ifvqfc0","pricing_plan_id":"cebpf4jnsgd1na2vs0mg"},{"bike_id":"095a1188-4e42-408e-b00b-427b37118f68","system_id":"levelo_inurba_marseille","lat":43.23154,"lon":5.43702,"is_reserved":false,"is_disabled":false,"rental_uris":{"android":"levelo://app?vid=095a1188-4e42-408e-b00b-427b37118f68","ios":"levelo://app?vid=095a1188-4e42-408e-b00b-427b37118f68"},"vehicle_type_id":"4","last_reported":1748344155,"current_range_meters":17600,"station_id":"ce4bhmp2rcd13ifvqgog","pricing_plan_id":"cebpf4jnsgd1na2vs0mg"},{"bike_id":"98cbf70d-d9f6-4b71-bf03-63425172bed7","system_id":"levelo_inurba_marseille","lat":43.231505,"lon":5.437213,"is_reserved":false,"is_disabled":false,"rental_uris":{"android":"levelo://app?vid=98cbf70d-d9f6-4b71-bf03-63425172bed7","ios":"levelo://app?vid=98cbf70d-d9f6-4b71-bf03-63425172bed7"},"vehicle_type_id":"4","last_reported":1748344155,"current_range_meters":17600,"station_id":"ce4bhmp2rcd13ifvqgog","pricing_plan_id":"cebpf4jnsgd1na2vs0mg"},{"bike_id":"c5f82f55-1c2b-420f-a2b8-a797003d8761","system_id":"levelo_inurba_marseille","lat":43.279913,"lon":5.416467,"is_reserved":false,"is_disabled":false,"rental_uris":{"android":"levelo://app?vid=c5f82f55-1c2b-420f-a2b8-a797003d8761","ios":"levelo://app?vid=c5f82f55-1c2b-420f-a2b8-a797003d8761"},"vehicle_type_id":"4","last_reported":1748344155,"current_range_meters":17600,"station_id":"ce4bho12rcd13ifvqh1g","pricing_plan_id":"cebpf4jnsgd1na2vs0mg"},{"bike_id":"6933d3ff-12bb-4fff-871c-dfdaa9093219","system_id":"levelo_inurba_marseille","lat":43.27355,"lon":5.42407,"is_reserved":false,"is_disabled":false,"rental_uris":{"android":"levelo://app?vid=6933d3ff-12bb-4fff-871c-dfdaa9093219","ios":"levelo://app?vid=6933d3ff-12bb-4fff-871c-dfdaa9093219"},"vehicle_type_id":"4","last_reported":1748344155,"current_range_meters":18000,"station_id":"","pricing_plan_id":"cebpf4jnsgd1na2vs0mg"},{"bike_id":"fc374944-cd63-4d3d-8efa-ce3bae07a3c1","system_id":"levelo_inurba_marseille","lat":43.31349,"lon":5.36729,"is_reserved":false,"is_disabled":false,"rental_uris":{"android":"levelo://app?vid=fc374944-cd63-4d3d-8efa-ce3bae07a3c1","ios":"levelo://app?vid=fc374944-cd63-4d3d-8efa-ce3bae07a3c1"},"vehicle_type_id":"4","last_reported":1748344155,"current_range_meters":18000,"station_id":"ce4bgr92rcd13ifvqc6g","pricing_plan_id":"cebpf4jnsgd1na2vs0mg"},{"bike_id":"329a6f0a-1f73-4e11-92f5-cd0525da8dd9","system_id":"levelo_inurba_marseille","lat":43.3013,"lon":5.37424,"is_reserved":false,"is_disabled":false,"rental_uris":{"android":"levelo://app?vid=329a6f0a-1f73-4e11-92f5-cd0525da8dd9","ios":"levelo://app?vid=329a6f0a-1f73-4e11-92f5-cd0525da8dd9"},"vehicle_type_id":"4","last_reported":1748344155,"current_range_meters":18000,"station_id":"ce4bgs92rcd13ifvqcc0","pricing_plan_id":"cebpf4jnsgd1na2vs0mg"},{"bike_id":"799d75e0-088b-4441-bd94-28f251fa8a3d","system_id":"levelo_inurba_marseille","lat":43.23157,"lon":5.43711,"is_reserved":false,"is_disabled":false,"rental_uris":{"android":"levelo://app?vid=799d75e0-088b-4441-bd94-28f251fa8a3d","ios":"levelo://app?vid=799d75e0-088b-4441-bd94-28f251fa8a3d"},"vehicle_type_id":"4","last_reported":1748344155,"current_range_meters":18000,"station_id":"ce4bhmp2rcd13ifvqgog","pricing_plan_id":"cebpf4jnsgd1na2vs0mg"},{"bike_id":"3b07f020-3d8e-47eb-b723-de46e817e2a3","system_id":"levelo_inurba_marseille","lat":43.29725,"lon":5.3835,"is_reserved":false,"is_disabled":false,"rental_uris":{"android":"levelo://app?vid=3b07f020-3d8e-47eb-b723-de46e817e2a3","ios":"levelo://app?vid=3b07f020-3d8e-47eb-b723-de46e817e2a3"},"vehicle_type_id":"4","last_reported":1748344155,"current_range_meters":18800,"station_id":"","pricing_plan_id":"cebpf4jnsgd1na2vs0mg"},{"bike_id":"d3cad125-ac68-4639-a65c-156a689a569b","system_id":"levelo_inurba_marseille","lat":43.260507,"lon":5.418483,"is_reserved":false,"is_disabled":false,"rental_uris":{"android":"levelo://app?vid=d3cad125-ac68-4639-a65c-156a689a569b","ios":"levelo://app?vid=d3cad125-ac68-4639-a65c-156a689a569b"},"vehicle_type_id":"4","last_reported":1748344155,"current_range_meters":18800,"station_id":"","pricing_plan_id":"cebpf4jnsgd1na2vs0mg"},{"bike_id":"96816d58-c243-43bf-a93b-436540c27c51","system_id":"levelo_inurba_marseille","lat":43.30141,"lon":5.38789,"is_reserved":false,"is_disabled":false,"rental_uris":{"android":"levelo://app?vid=96816d58-c243-43bf-a93b-436540c27c51","ios":"levelo://app?vid=96816d58-c243-43bf-a93b-436540c27c51"},"vehicle_type_id":"4","last_reported":1748344155,"current_range_meters":18800,"station_id":"ce4bghh2rcd13ifvqb60","pricing_plan_id":"cebpf4jnsgd1na2vs0mg"},{"bike_id":"e2035153-1cc2-4ffc-bfed-2d7730607a7a","system_id":"levelo_inurba_marseille","lat":43.29308,"lon":5.37449,"is_reserved":false,"is_disabled":false,"rental_uris":{"android":"levelo://app?vid=e2035153-1cc2-4ffc-bfed-2d7730607a7a","ios":"levelo://app?vid=e2035153-1cc2-4ffc-bfed-2d7730607a7a"},"vehicle_type_id":"4","last_reported":1748344155,"current_range_meters":18800,"station_id":"ce4bgi12rcd13ifvqb70","pricing_plan_id":"cebpf4jnsgd1na2vs0mg"},{"bike_id":"ec5612cb-98f6-474d-af9e-4e3c8d95f3e3","system_id":"levelo_inurba_marseille","lat":43.292618,"lon":5.376246,"is_reserved":false,"is_disabled":false,"rental_uris":{"android":"levelo://app?vid=ec5612cb-98f6-474d-af9e-4e3c8d95f3e3","ios":"levelo://app?vid=ec5612cb-98f6-474d-af9e-4e3c8d95f3e3"},"vehicle_type_id":"4","last_reported":1748344155,"current_range_meters":18800,"station_id":"ce4bgi12rcd13ifvqb80","pricing_plan_id":"cebpf4jnsgd1na2vs0mg"},