{"last_updated":1774957162,"ttl":60,"version":"2.2","data":{"bikes":[{"bike_id":"d851c101-94df-443d-b106-aff9c2337507","system_id":"levelo_inurba_marseille","lat":43.28208,"lon":5.39202,"is_reserved":false,"is_disabled":false,"rental_uris":{"android":"levelo://app?vid=d851c101-94df-443d-b106-aff9c2337507","ios":"levelo://app?vid=d851c101-94df-443d-b106-aff9c2337507"},"vehicle_type_id":"4","last_reported":1774957162,"current_range_meters":2800,"station_id":"","pricing_plan_id":"cebpf4jnsgd1na2vs0mg"},{"bike_id":"82a36260-4c9f-4776-9c0a-fe60b5fe65f8","system_id":"levelo_inurba_marseille","lat":43.2958,"lon":5.39962,"is_reserved":false,"is_disabled":false,"rental_uris":{"android":"levelo://app?vid=82a36260-4c9f-4776-9c0a-fe60b5fe65f8","ios":"levelo://app?vid=82a36260-4c9f-4776-9c0a-fe60b5fe65f8"},"vehicle_type_id":"4","last_reported":1774957162,"current_range_meters":2800,"station_id":"ce4bh312rcd13ifvqdj0","pricing_plan_id":"cebpf4jnsgd1na2vs0mg"},{"bike_id":"93858380-8afb-453d-8daf-0bf96d8ee1f3","system_id":"levelo_inurba_marseille","lat":43.23784,"lon":5.36642,"is_reserved":false,"is_disabled":false,"rental_uris":{"android":"levelo://app?vid=93858380-8afb-453d-8daf-0bf96d8ee1f3","ios":"levelo://app?vid=93858380-8afb-453d-8daf-0bf96d8ee1f3"},"vehicle_type_id":"4","last_reported":1774957162,"current_range_meters":2800,"station_id":"st_d3nk18o9ro0c73en2l3g","pricing_plan_id":"cebpf4jnsgd1na2vs0mg"},{"bike_id":"29049f9a-cda2-426d-9e6c-1d886e0b8215","system_id":"levelo_inurba_marseille","lat":43.29174,"lon":5.42755,"is_reserved":false,"is_disabled":false,"rental_uris":{"android":"levelo://app?vid=29049f9a-cda2-426d-9e6c-1d886e0b8215","ios":"levelo://app?vid=29049f9a-cda2-426d-9e6c-1d886e0b8215"},"vehicle_type_id":"4","last_reported":1774957162,"current_range_meters":2800,"station_id":"","pricing_plan_id":"cebpf4jnsgd1na2vs0mg"},{"bike_id":"47c4cc96-3512-4972-a5b7-e599fb368179","system_id":"levelo_inurba_marseille","lat":43.27332,"lon":5.39036,"is_reserved":false,"is_disabled":false,"rental_uris":{"android":"levelo://app?vid=47c4cc96-3512-4972-a5b7-e599fb368179","ios":"levelo://app?vid=47c4cc96-3512-4972-a5b7-e599fb368179"},"vehicle_type_id":"4","last_reported":1774957162,"current_range_meters":2800,"station_id":"ce4bhgp2rcd13ifvqfe0","pricing_plan_id":"cebpf4jnsgd1na2vs0mg"},{"bike_id":"07454081-b185-45ca-9a91-913b8f9026cb","system_id":"levelo_inurba_marseille","lat":43.29077,"lon":5.37162,"is_reserved":false,"is_disabled":false,"rental_uris":{"android":"levelo://app?vid=07454081-b185-45ca-9a91-913b8f9026cb","ios":"levelo://app?vid=07454081-b185-45ca-9a91-913b8f9026cb"},"vehicle_type_id":"4","last_reported":1774957162,"current_range_meters":2800,"station_id":"ce4bh5p2rcd13ifvqe4g","pricing_plan_id":"cebpf4jnsgd1na2vs0mg"},{"bike_id":"2ce3e4e4-41ca-49f6-a984-0da560ba05e3","system_id":"levelo_inurba_marseille","lat":43.29307,"lon":5.37454,"is_reserved":false,"is_disabled":false,"rental_uris":{"android":"levelo://app?vid=2ce3e4e4-41ca-49f6-a984-0da560ba05e3","ios":"levelo://app?vid=2ce3e4e4-41ca-49f6-a984-0da560ba05e3"},"vehicle_type_id":"4","last_reported":1774957162,"current_range_meters":3200,"station_id":"ce4bgi12rcd13ifvqb70","pricing_plan_id":"cebpf4jnsgd1na2vs0mg"},{"bike_id":"479ddab6-8b70-42ac-848f-c46ba633fc4d","system_id":"levelo_inurba_marseille","lat":43.28536,"lon":5.44118,"is_reserved":false,"is_disabled":false,"rental_uris":{"android":"levelo://app?vid=479ddab6-8b70-42ac-848f-c46ba633fc4d","ios":"levelo://app?vid=479ddab6-8b70-42ac-848f-c46ba633fc4d"},"vehicle_type_id":"4","last_reported":1774957162,"current_range_meters":3200,"station_id":"st_d3j3df2ikq2c7380ej80","pricing_plan_id":"cebpf4jnsgd1na2vs0mg"},{"bike_id":"a8f8f06f-203d-4b26-a233-e91d9b0ddec9","system_id":"levelo_inurba_marseille","lat":43.3014,"lon":5.38772,"is_reserved":false,"is_disabled":false,"rental_uris":{"android":"levelo://app?vid=a8f8f06f-203d-4b26-a233-e91d9b0ddec9","ios":"levelo://app?vid=a8f8f06f-203d-4b26-a233-e91d9b0ddec9"},"vehicle_type_id":"4","last_reported":1774957162,"current_range_meters":3200,"station_id":"ce4bghh2rcd13ifvqb60","pricing_plan_id":"cebpf4jnsgd1na2vs0mg"},{"bike_id":"57239cfd-9cf0-4ecb-b61f-b52beab6afab","system_id":"levelo_inurba_marseille","lat":43.21738,"lon":5.34631,"is_reserved":false,"is_disabled":false,"rental_uris":{"android":"levelo://app?vid=57239cfd-9cf0-4ecb-b61f-b52beab6afab","ios":"levelo://app?vid=57239cfd-9cf0-4ecb-b61f-b52beab6afab"},"vehicle_type_id":"4","last_reported":1774957162,"current_range_meters":3200,"station_id":"st_cvj6r9ubvosntc0bgbag","pricing_plan_id":"cebpf4jnsgd1na2vs0mg"},{"bike_id":"131a88d5-b5b2-4532-b511-14fa6f230522","system_id":"levelo_inurba_marseille","lat":43.33736,"lon":5.3918,"is_reserved":false,"is_disabled":false,"rental_uris":{"android":"levelo://app?vid=131a88d5-b5b2-4532-b511-14fa6f230522","ios":"levelo://app?vid=131a88d5-b5b2-4532-b511-14fa6f230522"},"vehicle_type_id":"4","last_reported":1774957162,"current_range_meters":3200,"station_id":"ce4bhr92rcd13ifvqhsg","pricing_plan_id":"cebpf4jnsgd1na2vs0mg"},{"bike_id":"8f8a9d50-fde9-4754-a648-dfcfca2a0f8b","system_id":"levelo_inurba_marseille","lat":43.30598,"lon":5.39358,"is_reserved":false,"is_disabled":false,"rental_uris":{"android":"levelo://app?vid=8f8a9d50-fde9-4754-a648-dfcfca2a0f8b","ios":"levelo://app?vid=8f8a9d50-fde9-4754-a648-dfcfca2a0f8b"},"vehicle_type_id":"4","last_reported":1774957162,"current_range_meters":3200,"station_id":"ce4bh0p2rcd13ifvqd80","pricing_plan_id":"cebpf4jnsgd1na2vs0mg"},{"bike_id":"2d27eb31-6fcf-4abd-a8a8-1cd392c48041","system_id":"levelo_inurba_marseille","lat":43.25822,"lon":5.39436,"is_reserved":false,"is_disabled":false,"rental_uris":{"android":"levelo://app?vid=2d27eb31-6fcf-4abd-a8a8-1cd392c48041","ios":"levelo://app?vid=2d27eb31-6fcf-4abd-a8a8-1cd392c48041"},"vehicle_type_id":"4","last_reported":1774957162,"current_range_meters":3200,"station_id":"ce4bhip2rcd13ifvqft0","pricing_plan_id":"cebpf4jnsgd1na2vs0mg"},{"bike_id":"a38ba5d1-d14d-4227-9d65-1f0aeb93bff5","system_id":"levelo_inurba_marseille","lat":43.29224,"lon":5.36058,"is_reserved":false,"is_disabled":false,"rental_uris":{"android":"levelo://app?vid=a38ba5d1-d14d-4227-9d65-1f0aeb93bff5","ios":"levelo://app?vid=a38ba5d1-d14d-4227-9d65-1f0aeb93bff5"},"vehicle_type_id":"4","last_reported":1774957162,"current_range_meters":3200,"station_id":"ce4bhbh2rcd13ifvqeqg","pricing_plan_id":"cebpf4jnsgd1na2vs0mg"},{"bike_id":"b6a85e83-2f97-4c72-bd73-9d01ed4a2799","system_id":"levelo_inurba_marseille","lat":43.31712,"lon":5.43711,"is_reserved":false,"is_disabled":false,"rental_uris":{"android":"levelo://app?vid=b6a85e83-2f97-4c72-bd73-9d01ed4a2799","ios":"levelo://app?vid=b6a85e83-2f97-4c72-bd73-9d01ed4a2799"},"vehicle_type_id":"4","last_reported":1774957162,"current_range_meters":3200,"station_id":"ce4bhp92rcd13ifvqhcg","pricing_plan_id":"cebpf4jnsgd1na2vs0mg"},{"bike_id":"fab37e7b-f13e-4733-ae7e-686ee64119aa","system_id":"levelo_inurba_marseille","lat":43.28534,"lon":5.44091,"is_reserved":false,"is_disabled":true,"rental_uris":{"android":"levelo://app?vid=fab37e7b-f13e-4733-ae7e-686ee64119aa","ios":"levelo://app?vid=fab37e7b-f13e-4733-ae7e-686ee64119aa"},"vehicle_type_id":"4","last_reported":1774957162,"current_range_meters":3200,"station_id":"st_d3j3df2ikq2c7380ej80","pricing_plan_id":"cebpf4jnsgd1na2vs0mg"},{"bike_id":"f110eb12-280d-49ba-aff7-ba787fdbb539","system_id":"levelo_inurba_marseille","lat":43.30183,"lon":5.37395,"is_reserved":false,"is_disabled":false,"rental_uris":{"android":"levelo://app?vid=f110eb12-280d-49ba-aff7-ba787fdbb539","ios":"levelo://app?vid=f110eb12-280d-49ba-aff7-ba787fdbb539"},"vehicle_type_id":"4","last_reported":1774957162,"current_range_meters":3200,"station_id":"ce4bgs92rcd13ifvqcc0","pricing_plan_id":"cebpf4jnsgd1na2vs0mg"},{"bike_id":"47c3110a-a3e1-4e89-9abf-ccb8b1219295","system_id":"levelo_inurba_marseille","lat":43.29367,"lon":5.3785,"is_reserved":false,"is_disabled":false,"rental_uris":{"android":"levelo://app?vid=47c3110a-a3e1-4e89-9abf-ccb8b1219295","ios":"levelo://app?vid=47c3110a-a3e1-4e89-9abf-ccb8b1219295"},"vehicle_type_id":"4","last_reported":1774957162,"current_range_meters":3200,"station_id":"ce4bgjh2rcd13ifvqbf0","pricing_plan_id":"cebpf4jnsgd1na2vs0mg"},{"bike_id":"c0eec902-074b-4a18-af47-ff048b653a5e","system_id":"levelo_inurba_marseille","lat":43.28449,"lon":5.48414,"is_reserved":false,"is_disabled":false,"rental_uris":{"android":"levelo://app?vid=c0eec902-074b-4a18-af47-ff048b653a5e","ios":"levelo://app?vid=c0eec902-074b-4a18-af47-ff048b653a5e"},"vehicle_type_id":"4","last_reported":1774957162,"current_range_meters":3600,"station_id":"","pricing_plan_id":"cebpf4jnsgd1na2vs0mg"},{"bike_id":"132e7de0-1c60-4e16-8ba9-01efee9304af","system_id":"levelo_inurba_marseille","lat":43.32357,"lon":5.36762,"is_reserved":false,"is_disabled":false,"rental_uris":{"android":"levelo://app?vid=132e7de0-1c60-4e16-8ba9-01efee9304af","ios":"levelo://app?vid=132e7de0-1c60-4e16-8ba9-01efee9304af"},"vehicle_type_id":"4","last_reported":1774957162,"current_range_meters":3600,"station_id":"ce4bhsh2rcd13ifvqi2g","pricing_plan_id":"cebpf4jnsgd1na2vs0mg"},{"bike_id":"af317bdc-7d2c-41bc-8ad6-1e2455e3310e","system_id":"levelo_inurba_marseille","lat":43.24639,"lon":5.38896,"is_reserved":false,"is_disabled":false,"rental_uris":{"android":"levelo://app?vid=af317bdc-7d2c-41bc-8ad6-1e2455e3310e","ios":"levelo://app?vid=af317bdc-7d2c-41bc-8ad6-1e2455e3310e"},"vehicle_type_id":"4","last_reported":1774957162,"current_range_meters":3600,"station_id":"ce4bhg12rcd13ifvqf60","pricing_plan_id":"cebpf4jnsgd1na2vs0mg"},{"bike_id":"b8425059-cbc5-4806-a0c5-071195e5c190","system_id":"levelo_inurba_marseille","lat":43.25021,"lon":5.3891,"is_reserved":false,"is_disabled":false,"rental_uris":{"android":"levelo://app?vid=b8425059-cbc5-4806-a0c5-071195e5c190","ios":"levelo://app?vid=b8425059-cbc5-4806-a0c5-071195e5c190"},"vehicle_type_id":"4","last_reported":1774957162,"current_range_meters":3600,"station_id":"ce4bhgp2rcd13ifvqfd0","pricing_plan_id":"cebpf4jnsgd1na2vs0mg"},{"bike_id":"77240662-eb99-4944-b119-1b4f4bff5a93","system_id":"levelo_inurba_marseille","lat":43.26234,"lon":5.40424,"is_reserved":false,"is_disabled":false,"rental_uris":{"android":"levelo://app?vid=77240662-eb99-4944-b119-1b4f4bff5a93","ios":"levelo://app?vid=77240662-eb99-4944-b119-1b4f4bff5a93"},"vehicle_type_id":"4","last_reported":1774957162,"current_range_meters":4000,"station_id":"ce4bhmh2rcd13ifvqgmg","pricing_plan_id":"cebpf4jnsgd1na2vs0mg"},{"bike_id":"3ac0129c-9c97-4af6-b6ad-c66c14a5c227","system_id":"levelo_inurba_marseille","lat":43.28486,"lon":5.48385,"is_reserved":false,"is_disabled":false,"rental_uris":{"android":"levelo://app?vid=3ac0129c-9c97-4af6-b6ad-c66c14a5c227","ios":"levelo://app?vid=3ac0129c-9c97-4af6-b6ad-c66c14a5c227"},"vehicle_type_id":"4","last_reported":1774957162,"current_range_meters":4000,"station_id":"","pricing_plan_id":"cebpf4jnsgd1na2vs0mg"},{"bike_id":"cace6a75-41af-4909-a80a-68d60c5c1a04","system_id":"levelo_inurba_marseille","lat":43.28422,"lon":5.3499,"is_reserved":false,"is_disabled":false,"rental_uris":{"android":"levelo://app?vid=cace6a75-41af-4909-a80a-68d60c5c1a04","ios":"levelo://app?vid=cace6a75-41af-4909-a80a-68d60c5c1a04"},"vehicle_type_id":"4","last_reported":1774957162,"current_range_meters":4000,"station_id":"ce4bhbh2rcd13ifvqepg","pricing_plan_id":"cebpf4jnsgd1na2vs0mg"},{"bike_id":"0fa5faab-0c3e-4b0b-b2a4-37205691f956","system_id":"levelo_inurba_marseille","lat":43.29027,"lon":5.38628,"is_reserved":false,"is_disabled":false,"rental_uris":{"android":"levelo://app?vid=0fa5faab-0c3e-4b0b-b2a4-37205691f956","ios":"levelo://app?vid=0fa5faab-0c3e-4b0b-b2a4-37205691f956"},"vehicle_type_id":"4","last_reported":1774957162,"current_range_meters":4000,"station_id":"ce4bh4p2rcd13ifvqe0g","pricing_plan_id":"cebpf4jnsgd1na2vs0mg"},{"bike_id":"f92c6678-5a0d-4aae-a33c-d7f5df53ae66","system_id":"levelo_inurba_marseille","lat":43.28701,"lon":5.39988,"is_reserved":false,"is_disabled":false,"rental_uris":{"android":"levelo://app?vid=f92c6678-5a0d-4aae-a33c-d7f5df53ae66","ios":"levelo://app?vid=f92c6678-5a0d-4aae-a33c-d7f5df53ae66"},"vehicle_type_id":"4","last_reported":1774957162,"current_range_meters":4400,"station_id":"ce4bho92rcd13ifvqh3g","pricing_plan_id":"cebpf4jnsgd1na2vs0mg"},{"bike_id":"1f50d665-ad56-4564-8bce-5cff2a4e2b4f","system_id":"levelo_inurba_marseille","lat":43.24165,"lon":5.39717,"is_reserved":false,"is_disabled":false,"rental_uris":{"android":"levelo://app?vid=1f50d665-ad56-4564-8bce-5cff2a4e2b4f","ios":"levelo://app?vid=1f50d665-ad56-4564-8bce-5cff2a4e2b4f"},"vehicle_type_id":"4","last_reported":1774957162,"current_range_meters":4400,"station_id":"ce4bhn12rcd13ifvqgpg","pricing_plan_id":"cebpf4jnsgd1na2vs0mg"},{"bike_id":"59cc9fa4-27db-4425-b395-20f69fc55b38","system_id":"levelo_inurba_marseille","lat":43.30523,"lon":5.36704,"is_reserved":false,"is_disabled":false,"rental_uris":{"android":"levelo://app?vid=59cc9fa4-27db-4425-b395-20f69fc55b38","ios":"levelo://app?vid=59cc9fa4-27db-4425-b395-20f69fc55b38"},"vehicle_type_id":"4","last_reported":1774957162,"current_range_meters":4400,"station_id":"ce4bgrp2rcd13ifvqc9g","pricing_plan_id":"cebpf4jnsgd1na2vs0mg"},{"bike_id":"fa2139d7-56b5-4664-870b-94753042ac1d","system_id":"levelo_inurba_marseille","lat":43.21203,"lon":5.35071,"is_reserved":false,"is_disabled":false,"rental_uris":{"android":"levelo://app?vid=fa2139d7-56b5-4664-870b-94753042ac1d","ios":"levelo://app?vid=fa2139d7-56b5-4664-870b-94753042ac1d"},"vehicle_type_id":"4","last_reported":1774957162,"current_range_meters":4400,"station_id":"st_cvj6sg6p6f1abm77japg","pricing_plan_id":"cebpf4jnsgd1na2vs0mg"},{"bike_id":"45cfd866-5b5b-4132-ba41-6ecdebffa139","system_id":"levelo_inurba_marseille","lat":43.23065,"lon":5.35489,"is_reserved":false,"is_disabled":false,"rental_uris":{"android":"levelo://app?vid=45cfd866-5b5b-4132-ba41-6ecdebffa139","ios":"levelo://app?vid=45cfd866-5b5b-4132-ba41-6ecdebffa139"},"vehicle_type_id":"4","last_reported":1774957162,"current_range_meters":4400,"station_id":"cpo3342slgdg3j2ifvpg","pricing_plan_id":"cebpf4jnsgd1na2vs0mg"},{"bike_id":"39ba98ca-0212-41b3-9f2c-bc653b060027","system_id":"levelo_inurba_marseille","lat":43.23197,"lon":5.39953,"is_reserved":false,"is_disabled":false,"rental_uris":{"android":"levelo://app?vid=39ba98ca-0212-41b3-9f2c-bc653b060027","ios":"levelo://app?vid=39ba98ca-0212-41b3-9f2c-bc653b060027"},"vehicle_type_id":"4","last_reported":1774957162,"current_range_meters":4400,"station_id":"ce4bhn12rcd13ifvqgqg","pricing_plan_id":"cebpf4jnsgd1na2vs0mg"},{"bike_id":"e50ea3fc-e8f2-489c-88ee-1fb4ee167852","system_id":"levelo_inurba_marseille","lat":43.27499,"lon":5.42456,"is_reserved":false,"is_disabled":false,"rental_uris":{"android":"levelo://app?vid=e50ea3fc-e8f2-489c-88ee-1fb4ee167852","ios":"levelo://app?vid=e50ea3fc-e8f2-489c-88ee-1fb4ee167852"},"vehicle_type_id":"4","last_reported":1774957162,"current_range_meters":4400,"station_id":"ce4bhn92rcd13ifvqgrg","pricing_plan_id":"cebpf4jnsgd1na2vs0mg"},{"bike_id":"4d667ae4-b547-4cca-991c-1e232d16e2e1","system_id":"levelo_inurba_marseille","lat":43.24162,"lon":5.36424,"is_reserved":false,"is_disabled":false,"rental_uris":{"android":"levelo://app?vid=4d667ae4-b547-4cca-991c-1e232d16e2e1","ios":"levelo://app?vid=4d667ae4-b547-4cca-991c-1e232d16e2e1"},"vehicle_type_id":"4","last_reported":1774957162,"current_range_meters":4800,"station_id":"cpo36qri1sfpv3e86is0","pricing_plan_id":"cebpf4jnsgd1na2vs0mg"},{"bike_id":"4977f95e-718a-4120-8926-2364059fe1a3","system_id":"levelo_inurba_marseille","lat":43.2727,"lon":5.40173,"is_reserved":false,"is_disabled":false,"rental_uris":{"android":"levelo://app?vid=4977f95e-718a-4120-8926-2364059fe1a3","ios":"levelo://app?vid=4977f95e-718a-4120-8926-2364059fe1a3"},"vehicle_type_id":"4","last_reported":1774957162,"current_range_meters":4800,"station_id":"","pricing_plan_id":"cebpf4jnsgd1na2vs0mg"},{"bike_id":"7cefc45d-38f5-45cf-a99c-dfb4be1018fe","system_id":"levelo_inurba_marseille","lat":43.24476,"lon":5.42528,"is_reserved":false,"is_disabled":false,"rental_uris":{"android":"levelo://app?vid=7cefc45d-38f5-45cf-a99c-dfb4be1018fe","ios":"levelo://app?vid=7cefc45d-38f5-45cf-a99c-dfb4be1018fe"},"vehicle_type_id":"4","last_reported":1774957162,"current_range_meters":4800,"station_id":"st_d4a3vfp97mjs738cd8kg","pricing_plan_id":"cebpf4jnsgd1na2vs0mg"},{"bike_id":"b2fedf6b-2cd3-4ea3-9573-b48aa9b36329","system_id":"levelo_inurba_marseille","lat":43.28613,"lon":5.351,"is_reserved":false,"is_disabled":false,"rental_uris":{"android":"levelo://app?vid=b2fedf6b-2cd3-4ea3-9573-b48aa9b36329","ios":"levelo://app?vid=b2fedf6b-2cd3-4ea3-9573-b48aa9b36329"},"vehicle_type_id":"4","last_reported":1774957162,"current_range_meters":4800,"station_id":"ce4bhch2rcd13ifvqeug","pricing_plan_id":"cebpf4jnsgd1na2vs0mg"},{"bike_id":"8e42932f-f4cb-428e-81d4-2209ca3eeed0","system_id":"levelo_inurba_marseille","lat":43.30541,"lon":5.36556,"is_reserved":false,"is_disabled":false,"rental_uris":{"android":"levelo://app?vid=8e42932f-f4cb-428e-81d4-2209ca3eeed0","ios":"levelo://app?vid=8e42932f-f4cb-428e-81d4-2209ca3eeed0"},"vehicle_type_id":"4","last_reported":1774957162,"current_range_meters":4800,"station_id":"ce4bgs12rcd13ifvqcag","pricing_plan_id":"cebpf4jnsgd1na2vs0mg"},{"bike_id":"fe2c2d4e-ad0a-4ad1-b727-7e9a7d4ef824","system_id":"levelo_inurba_marseille","lat":43.28495,"lon":5.48369,"is_reserved":false,"is_disabled":false,"rental_uris":{"android":"levelo://app?vid=fe2c2d4e-ad0a-4ad1-b727-7e9a7d4ef824","ios":"levelo://app?vid=fe2c2d4e-ad0a-4ad1-b727-7e9a7d4ef824"},"vehicle_type_id":"4","last_reported":1774957162,"current_range_meters":4800,"station_id":"","pricing_plan_id":"cebpf4jnsgd1na2vs0mg"},{"bike_id":"b938728d-21ff-4064-91a8-7640938b06be","system_id":"levelo_inurba_marseille","lat":43.31241,"lon":5.36877,"is_reserved":false,"is_disabled":false,"rental_uris":{"android":"levelo://app?vid=b938728d-21ff-4064-91a8-7640938b06be","ios":"levelo://app?vid=b938728d-21ff-4064-91a8-7640938b06be"},"vehicle_type_id":"4","last_reported":1774957162,"current_range_meters":4800,"station_id":"ce4bgl92rcd13ifvqbq0","pricing_plan_id":"cebpf4jnsgd1na2vs0mg"},{"bike_id":"8d26c30b-3847-405c-8066-75bf15658130","system_id":"levelo_inurba_marseille","lat":43.29825,"lon":5.36463,"is_reserved":false,"is_disabled":false,"rental_uris":{"android":"levelo://app?vid=8d26c30b-3847-405c-8066-75bf15658130","ios":"levelo://app?vid=8d26c30b-3847-405c-8066-75bf15658130"},"vehicle_type_id":"4","last_reported":1774957162,"current_range_meters":4800,"station_id":"","pricing_plan_id":"cebpf4jnsgd1na2vs0mg"},{"bike_id":"0b51067a-51df-4db2-843e-7ba9c1b46f02","system_id":"levelo_inurba_marseille","lat":43.2976,"lon":5.42779,"is_reserved":false,"is_disabled":false,"rental_uris":{"android":"levelo://app?vid=0b51067a-51df-4db2-843e-7ba9c1b46f02","ios":"levelo://app?vid=0b51067a-51df-4db2-843e-7ba9c1b46f02"},"vehicle_type_id":"4","last_reported":1774957162,"current_range_meters":4800,"station_id":"st_d3md5207bmas73dh9klg","pricing_plan_id":"cebpf4jnsgd1na2vs0mg"},{"bike_id":"f025971b-0427-4ce3-81fe-3dec9a75dfb7","system_id":"levelo_inurba_marseille","lat":43.29261,"lon":5.40914,"is_reserved":false,"is_disabled":false,"rental_uris":{"android":"levelo://app?vid=f025971b-0427-4ce3-81fe-3dec9a75dfb7","ios":"levelo://app?vid=f025971b-0427-4ce3-81fe-3dec9a75dfb7"},"vehicle_type_id":"4","last_reported":1774957162,"current_range_meters":4800,"station_id":"ce4bh192rcd13ifvqdc0","pricing_plan_id":"cebpf4jnsgd1na2vs0mg"},{"bike_id":"df29ebad-53b7-415d-a7a1-9dbc8e03f2b7","system_id":"levelo_inurba_marseille","lat":43.297959,"lon":5.381055,"is_reserved":false,"is_disabled":false,"rental_uris":{"android":"levelo://app?vid=df29ebad-53b7-415d-a7a1-9dbc8e03f2b7","ios":"levelo://app?vid=df29ebad-53b7-415d-a7a1-9dbc8e03f2b7"},"vehicle_type_id":"4","last_reported":1774957162,"current_range_meters":4800,"station_id":"ce4bgip2rcd13ifvqbb0","pricing_plan_id":"cebpf4jnsgd1na2vs0mg"},{"bike_id":"03ec0070-1d93-4ac5-87d3-21d47edad7cd","system_id":"levelo_inurba_marseille","lat":43.2378,"lon":5.36621,"is_reserved":false,"is_disabled":false,"rental_uris":{"android":"levelo://app?vid=03ec0070-1d93-4ac5-87d3-21d47edad7cd","ios":"levelo://app?vid=03ec0070-1d93-4ac5-87d3-21d47edad7cd"},"vehicle_type_id":"4","last_reported":1774957162,"current_range_meters":5600,"station_id":"st_d3nk18o9ro0c73en2l3g","pricing_plan_id":"cebpf4jnsgd1na2vs0mg"},{"bike_id":"94ebd6be-fb80-4ec3-8693-d1f514f30182","system_id":"levelo_inurba_marseille","lat":43.30548,"lon":5.36668,"is_reserved":false,"is_disabled":false,"rental_uris":{"android":"levelo://app?vid=94ebd6be-fb80-4ec3-8693-d1f514f30182","ios":"levelo://app?vid=94ebd6be-fb80-4ec3-8693-d1f514f30182"},"vehicle_type_id":"4","last_reported":1774957162,"current_range_meters":5600,"station_id":"","pricing_plan_id":"cebpf4jnsgd1na2vs0mg"},{"bike_id":"d3024fb7-10a0-417e-9694-bf0c7e56eb73","system_id":"levelo_inurba_marseille","lat":43.29793,"lon":5.38088,"is_reserved":false,"is_disabled":false,"rental_uris":{"android":"levelo://app?vid=d3024fb7-10a0-417e-9694-bf0c7e56eb73","ios":"levelo://app?vid=d3024fb7-10a0-417e-9694-bf0c7e56eb73"},"vehicle_type_id":"4","last_reported":1774957162,"current_range_meters":5600,"station_id":"ce4bgip2rcd13ifvqbb0","pricing_plan_id":"cebpf4jnsgd1na2vs0mg"},{"bike_id":"8289ea9c-9f3c-47cc-ae82-8027b0a738ac","system_id":"levelo_inurba_marseille","lat":43.31927,"lon":5.36734,"is_reserved":false,"is_disabled":false,"rental_uris":{"android":"levelo://app?vid=8289ea9c-9f3c-47cc-ae82-8027b0a738ac","ios":"levelo://app?vid=8289ea9c-9f3c-47cc-ae82-8027b0a738ac"},"vehicle_type_id":"4","last_reported":1774957162,"current_range_meters":5600,"station_id":"","pricing_plan_id":"cebpf4jnsgd1na2vs0mg"},{"bike_id":"cb88b7c0-158f-47d6-b62a-c3ee88f004a1","system_id":"levelo_inurba_marseille","lat":43.24505,"lon":5.42556,"is_reserved":false,"is_disabled":false,"rental_uris":{"android":"levelo://app?vid=cb88b7c0-158f-47d6-b62a-c3ee88f004a1","ios":"levelo://app?vid=cb88b7c0-158f-47d6-b62a-c3ee88f004a1"},"vehicle_type_id":"4","last_reported":1774957162,"current_range_meters":5600,"station_id":"st_d4a3vfp97mjs738cd8kg","pricing_plan_id":"cebpf4jnsgd1na2vs0mg"},{"bike_id":"62fe30c1-c33a-422b-9c5b-1acb1de4c599","system_id":"levelo_inurba_marseille","lat":43.2511,"lon":5.40321,"is_reserved":false,"is_disabled":false,"rental_uris":{"android":"levelo://app?vid=62fe30c1-c33a-422b-9c5b-1acb1de4c599","ios":"levelo://app?vid=62fe30c1-c33a-422b-9c5b-1acb1de4c599"},"vehicle_type_id":"4","last_reported":1774957162,"current_range_meters":5600,"station_id":"ce4bhlh2rcd13ifvqgig","pricing_plan_id":"cebpf4jnsgd1na2vs0mg"},{"bike_id":"8b4108a6-c7e2-4043-b547-cb1e59a8963a","system_id":"levelo_inurba_marseille","lat":43.24378,"lon":5.40778,"is_reserved":false,"is_disabled":false,"rental_uris":{"android":"levelo://app?vid=8b4108a6-c7e2-4043-b547-cb1e59a8963a","ios":"levelo://app?vid=8b4108a6-c7e2-4043-b547-cb1e59a8963a"},"vehicle_type_id":"4","last_reported":1774957162,"current_range_meters":5600,"station_id":"","pricing_plan_id":"cebpf4jnsgd1na2vs0mg"},{"bike_id":"7602b24d-6592-4574-afee-59d30aa2e39d","system_id":"levelo_inurba_marseille","lat":43.28613,"lon":5.39875,"is_reserved":false,"is_disabled":false,"rental_uris":{"android":"levelo://app?vid=7602b24d-6592-4574-afee-59d30aa2e39d","ios":"levelo://app?vid=7602b24d-6592-4574-afee-59d30aa2e39d"},"vehicle_type_id":"4","last_reported":1774957162,"current_range_meters":6000,"station_id":"st_d4a7ka997mjs738ck50g","pricing_plan_id":"cebpf4jnsgd1na2vs0mg"},{"bike_id":"c798f683-654c-4162-8383-94bab235ad53","system_id":"levelo_inurba_marseille","lat":43.29928,"lon":5.36535,"is_reserved":false,"is_disabled":false,"rental_uris":{"android":"levelo://app?vid=c798f683-654c-4162-8383-94bab235ad53","ios":"levelo://app?vid=c798f683-654c-4162-8383-94bab235ad53"},"vehicle_type_id":"4","last_reported":1774957162,"current_range_meters":6000,"station_id":"ce4bgm92rcd13ifvqbr0","pricing_plan_id":"cebpf4jnsgd1na2vs0mg"},{"bike_id":"10323235-d584-4bed-a79c-105d8d180925","system_id":"levelo_inurba_marseille","lat":43.23159,"lon":5.43694,"is_reserved":false,"is_disabled":false,"rental_uris":{"android":"levelo://app?vid=10323235-d584-4bed-a79c-105d8d180925","ios":"levelo://app?vid=10323235-d584-4bed-a79c-105d8d180925"},"vehicle_type_id":"4","last_reported":1774957162,"current_range_meters":6000,"station_id":"ce4bhmp2rcd13ifvqgog","pricing_plan_id":"cebpf4jnsgd1na2vs0mg"},{"bike_id":"d47cd331-492a-4bc4-a4ac-83af195e864b","system_id":"levelo_inurba_marseille","lat":43.25908,"lon":5.40892,"is_reserved":false,"is_disabled":false,"rental_uris":{"android":"levelo://app?vid=d47cd331-492a-4bc4-a4ac-83af195e864b","ios":"levelo://app?vid=d47cd331-492a-4bc4-a4ac-83af195e864b"},"vehicle_type_id":"4","last_reported":1774957162,"current_range_meters":6000,"station_id":"ce4bhm92rcd13ifvqglg","pricing_plan_id":"cebpf4jnsgd1na2vs0mg"},{"bike_id":"cb1709ac-6129-4781-b7ce-4b0441532f28","system_id":"levelo_inurba_marseille","lat":43.23793,"lon":5.36629,"is_reserved":false,"is_disabled":false,"rental_uris":{"android":"levelo://app?vid=cb1709ac-6129-4781-b7ce-4b0441532f28","ios":"levelo://app?vid=cb1709ac-6129-4781-b7ce-4b0441532f28"},"vehicle_type_id":"4","last_reported":1774957162,"current_range_meters":6000,"station_id":"st_d3nk18o9ro0c73en2l3g","pricing_plan_id":"cebpf4jnsgd1na2vs0mg"},{"bike_id":"0c6e6798-e036-48b5-8f51-31ac48e32018","system_id":"levelo_inurba_marseille","lat":43.31274,"lon":5.36837,"is_reserved":false,"is_disabled":false,"rental_uris":{"android":"levelo://app?vid=0c6e6798-e036-48b5-8f51-31ac48e32018","ios":"levelo://app?vid=0c6e6798-e036-48b5-8f51-31ac48e32018"},"vehicle_type_id":"4","last_reported":1774957162,"current_range_meters":6000,"station_id":"","pricing_plan_id":"cebpf4jnsgd1na2vs0mg"},{"bike_id":"6a07290c-4d96-493c-bece-412d5cabc671","system_id":"levelo_inurba_marseille","lat":43.28617,"lon":5.35098,"is_reserved":false,"is_disabled":false,"rental_uris":{"android":"levelo://app?vid=6a07290c-4d96-493c-bece-412d5cabc671","ios":"levelo://app?vid=6a07290c-4d96-493c-bece-412d5cabc671"},"vehicle_type_id":"4","last_reported":1774957162,"current_range_meters":6000,"station_id":"ce4bhch2rcd13ifvqeug","pricing_plan_id":"cebpf4jnsgd1na2vs0mg"},{"bike_id":"3a0058cf-efbc-4267-b19d-a2ef1622297f","system_id":"levelo_inurba_marseille","lat":43.28617,"lon":5.35106,"is_reserved":false,"is_disabled":false,"rental_uris":{"android":"levelo://app?vid=3a0058cf-efbc-4267-b19d-a2ef1622297f","ios":"levelo://app?vid=3a0058cf-efbc-4267-b19d-a2ef1622297f"},"vehicle_type_id":"4","last_reported":1774957162,"current_range_meters":6000,"station_id":"ce4bhch2rcd13ifvqeug","pricing_plan_id":"cebpf4jnsgd1na2vs0mg"},{"bike_id":"6cb80350-a12f-414d-8a45-edb4d9decdf0","system_id":"levelo_inurba_marseille","lat":43.28541,"lon":5.44095,"is_reserved":false,"is_disabled":false,"rental_uris":{"android":"levelo://app?vid=6cb80350-a12f-414d-8a45-edb4d9decdf0","ios":"levelo://app?vid=6cb80350-a12f-414d-8a45-edb4d9decdf0"},"vehicle_type_id":"4","last_reported":1774957162,"current_range_meters":6000,"station_id":"st_d3j3df2ikq2c7380ej80","pricing_plan_id":"cebpf4jnsgd1na2vs0mg"},{"bike_id":"699abf91-edf9-4542-8b62-382382092ba2","system_id":"levelo_inurba_marseille","lat":43.23159,"lon":5.43707,"is_reserved":false,"is_disabled":false,"rental_uris":{"android":"levelo://app?vid=699abf91-edf9-4542-8b62-382382092ba2","ios":"levelo://app?vid=699abf91-edf9-4542-8b62-382382092ba2"},"vehicle_type_id":"4","last_reported":1774957162,"current_range_meters":6000,"station_id":"ce4bhmp2rcd13ifvqgog","pricing_plan_id":"cebpf4jnsgd1na2vs0mg"},{"bike_id":"72d9b7c8-bad1-4689-9b0f-2502537cdda9","system_id":"levelo_inurba_marseille","lat":43.25494,"lon":5.37638,"is_reserved":false,"is_disabled":false,"rental_uris":{"android":"levelo://app?vid=72d9b7c8-bad1-4689-9b0f-2502537cdda9","ios":"levelo://app?vid=72d9b7c8-bad1-4689-9b0f-2502537cdda9"},"vehicle_type_id":"4","last_reported":1774957162,"current_range_meters":6000,"station_id":"ce4bhh12rcd13ifvqff0","pricing_plan_id":"cebpf4jnsgd1na2vs0mg"},{"bike_id":"e75d5ab0-201a-49aa-aee4-ccc6a30f5664","system_id":"levelo_inurba_marseille","lat":43.29527,"lon":5.38674,"is_reserved":false,"is_disabled":false,"rental_uris":{"android":"levelo://app?vid=e75d5ab0-201a-49aa-aee4-ccc6a30f5664","ios":"levelo://app?vid=e75d5ab0-201a-49aa-aee4-ccc6a30f5664"},"vehicle_type_id":"4","last_reported":1774957162,"current_range_meters":6000,"station_id":"","pricing_plan_id":"cebpf4jnsgd1na2vs0mg"},{"bike_id":"227cc43c-6fb3-476a-abb2-74c924061fb2","system_id":"levelo_inurba_marseille","lat":43.22564,"lon":5.41621,"is_reserved":false,"is_disabled":false,"rental_uris":{"android":"levelo://app?vid=227cc43c-6fb3-476a-abb2-74c924061fb2","ios":"levelo://app?vid=227cc43c-6fb3-476a-abb2-74c924061fb2"},"vehicle_type_id":"4","last_reported":1774957162,"current_range_meters":6000,"station_id":"st_d2o4gvlbi1j2169b742g","pricing_plan_id":"cebpf4jnsgd1na2vs0mg"},{"bike_id":"f54bfc49-c52e-433a-9661-97eeb8e5a586","system_id":"levelo_inurba_marseille","lat":43.2379,"lon":5.36634,"is_reserved":false,"is_disabled":false,"rental_uris":{"android":"levelo://app?vid=f54bfc49-c52e-433a-9661-97eeb8e5a586","ios":"levelo://app?vid=f54bfc49-c52e-433a-9661-97eeb8e5a586"},"vehicle_type_id":"4","last_reported":1774957162,"current_range_meters":6000,"station_id":"st_d3nk18o9ro0c73en2l3g","pricing_plan_id":"cebpf4jnsgd1na2vs0mg"},{"bike_id":"b87101e7-5c02-46a5-8744-da734273c503","system_id":"levelo_inurba_marseille","lat":43.27677,"lon":5.38865,"is_reserved":false,"is_disabled":false,"rental_uris":{"android":"levelo://app?vid=b87101e7-5c02-46a5-8744-da734273c503","ios":"levelo://app?vid=b87101e7-5c02-46a5-8744-da734273c503"},"vehicle_type_id":"4","last_reported":1774957162,"current_range_meters":6400,"station_id":"ce4bhi12rcd13ifvqfo0","pricing_plan_id":"cebpf4jnsgd1na2vs0mg"},{"bike_id":"f2ac8faa-b8e8-4025-bb6d-4e45873c4422","system_id":"levelo_inurba_marseille","lat":43.23158,"lon":5.43699,"is_reserved":false,"is_disabled":false,"rental_uris":{"android":"levelo://app?vid=f2ac8faa-b8e8-4025-bb6d-4e45873c4422","ios":"levelo://app?vid=f2ac8faa-b8e8-4025-bb6d-4e45873c4422"},"vehicle_type_id":"4","last_reported":1774957162,"current_range_meters":6400,"station_id":"ce4bhmp2rcd13ifvqgog","pricing_plan_id":"cebpf4jnsgd1na2vs0mg"},{"bike_id":"acace0f1-913c-4186-8c87-c7936df9d297","system_id":"levelo_inurba_marseille","lat":43.25916,"lon":5.40882,"is_reserved":false,"is_disabled":false,"rental_uris":{"android":"levelo://app?vid=acace0f1-913c-4186-8c87-c7936df9d297","ios":"levelo://app?vid=acace0f1-913c-4186-8c87-c7936df9d297"},"vehicle_type_id":"4","last_reported":1774957162,"current_range_meters":6400,"station_id":"ce4bhm92rcd13ifvqglg","pricing_plan_id":"cebpf4jnsgd1na2vs0mg"},{"bike_id":"a33504f9-7525-46e1-b30f-73d2c05dd384","system_id":"levelo_inurba_marseille","lat":43.29708,"lon":5.37695,"is_reserved":false,"is_disabled":false,"rental_uris":{"android":"levelo://app?vid=a33504f9-7525-46e1-b30f-73d2c05dd384","ios":"levelo://app?vid=a33504f9-7525-46e1-b30f-73d2c05dd384"},"vehicle_type_id":"4","last_reported":1774957162,"current_range_meters":6400,"station_id":"ce4bgkh2rcd13ifvqbl0","pricing_plan_id":"cebpf4jnsgd1na2vs0mg"},{"bike_id":"0f20fa83-5694-4393-a47b-7caf9e918801","system_id":"levelo_inurba_marseille","lat":43.29158,"lon":5.42621,"is_reserved":false,"is_disabled":false,"rental_uris":{"android":"levelo://app?vid=0f20fa83-5694-4393-a47b-7caf9e918801","ios":"levelo://app?vid=0f20fa83-5694-4393-a47b-7caf9e918801"},"vehicle_type_id":"4","last_reported":1774957162,"current_range_meters":6400,"station_id":"","pricing_plan_id":"cebpf4jnsgd1na2vs0mg"},{"bike_id":"577f8599-63ed-4b0c-9281-f403bc218e49","system_id":"levelo_inurba_marseille","lat":43.29006,"lon":5.35611,"is_reserved":false,"is_disabled":false,"rental_uris":{"android":"levelo://app?vid=577f8599-63ed-4b0c-9281-f403bc218e49","ios":"levelo://app?vid=577f8599-63ed-4b0c-9281-f403bc218e49"},"vehicle_type_id":"4","last_reported":1774957162,"current_range_meters":6400,"station_id":"ce4bhb92rcd13ifvqen0","pricing_plan_id":"cebpf4jnsgd1na2vs0mg"},{"bike_id":"cdc5ffee-3d96-4b47-8643-e1c52a1a2ccd","system_id":"levelo_inurba_marseille","lat":43.26696,"lon":5.3823,"is_reserved":false,"is_disabled":false,"rental_uris":{"android":"levelo://app?vid=cdc5ffee-3d96-4b47-8643-e1c52a1a2ccd","ios":"levelo://app?vid=cdc5ffee-3d96-4b47-8643-e1c52a1a2ccd"},"vehicle_type_id":"4","last_reported":1774957162,"current_range_meters":6400,"station_id":"ce4bhg92rcd13ifvqf90","pricing_plan_id":"cebpf4jnsgd1na2vs0mg"},{"bike_id":"34e5e96c-68fe-4408-9ab0-fa9cd7e8a6c0","system_id":"levelo_inurba_marseille","lat":43.29893,"lon":5.40947,"is_reserved":false,"is_disabled":false,"rental_uris":{"android":"levelo://app?vid=34e5e96c-68fe-4408-9ab0-fa9cd7e8a6c0","ios":"levelo://app?vid=34e5e96c-68fe-4408-9ab0-fa9cd7e8a6c0"},"vehicle_type_id":"4","last_reported":1774957162,"current_range_meters":6400,"station_id":"","pricing_plan_id":"cebpf4jnsgd1na2vs0mg"},{"bike_id":"8f9fb747-3718-412b-9362-8cfa1ef8b743","system_id":"levelo_inurba_marseille","lat":43.26525,"lon":5.3952,"is_reserved":false,"is_disabled":false,"rental_uris":{"android":"levelo://app?vid=8f9fb747-3718-412b-9362-8cfa1ef8b743","ios":"levelo://app?vid=8f9fb747-3718-412b-9362-8cfa1ef8b743"},"vehicle_type_id":"4","last_reported":1774957162,"current_range_meters":6400,"station_id":"ce4bhi12rcd13ifvqfq0","pricing_plan_id":"cebpf4jnsgd1na2vs0mg"},{"bike_id":"7807e959-548b-4573-9349-6f8ad219a4a5","system_id":"levelo_inurba_marseille","lat":43.24167,"lon":5.36397,"is_reserved":false,"is_disabled":false,"rental_uris":{"android":"levelo://app?vid=7807e959-548b-4573-9349-6f8ad219a4a5","ios":"levelo://app?vid=7807e959-548b-4573-9349-6f8ad219a4a5"},"vehicle_type_id":"4","last_reported":1774957162,"current_range_meters":6400,"station_id":"cpo36qri1sfpv3e86is0","pricing_plan_id":"cebpf4jnsgd1na2vs0mg"},{"bike_id":"145da0be-3016-4be6-8263-0e24c3e5d1fa","system_id":"levelo_inurba_marseille","lat":43.23962,"lon":5.36633,"is_reserved":false,"is_disabled":false,"rental_uris":{"android":"levelo://app?vid=145da0be-3016-4be6-8263-0e24c3e5d1fa","ios":"levelo://app?vid=145da0be-3016-4be6-8263-0e24c3e5d1fa"},"vehicle_type_id":"4","last_reported":1774957162,"current_range_meters":6400,"station_id":"ce4bhi12rcd13ifvqfp0","pricing_plan_id":"cebpf4jnsgd1na2vs0mg"},{"bike_id":"a2df5bbc-915e-4be4-8861-be4d46ce41c0","system_id":"levelo_inurba_marseille","lat":43.28483,"lon":5.4838,"is_reserved":false,"is_disabled":false,"rental_uris":{"android":"levelo://app?vid=a2df5bbc-915e-4be4-8861-be4d46ce41c0","ios":"levelo://app?vid=a2df5bbc-915e-4be4-8861-be4d46ce41c0"},"vehicle_type_id":"4","last_reported":1774957162,"current_range_meters":6800,"station_id":"","pricing_plan_id":"cebpf4jnsgd1na2vs0mg"},{"bike_id":"eac6a123-5f69-4eb4-aa4b-cdeaecf10b56","system_id":"levelo_inurba_marseille","lat":43.30563,"lon":5.36545,"is_reserved":false,"is_disabled":false,"rental_uris":{"android":"levelo://app?vid=eac6a123-5f69-4eb4-aa4b-cdeaecf10b56","ios":"levelo://app?vid=eac6a123-5f69-4eb4-aa4b-cdeaecf10b56"},"vehicle_type_id":"4","last_reported":1774957162,"current_range_meters":6800,"station_id":"ce4bgs12rcd13ifvqcag","pricing_plan_id":"cebpf4jnsgd1na2vs0mg"},{"bike_id":"ae433787-b8a7-4ffc-96dc-d58a6f47a412","system_id":"levelo_inurba_marseille","lat":43.26246,"lon":5.40463,"is_reserved":false,"is_disabled":true,"rental_uris":{"android":"levelo://app?vid=ae433787-b8a7-4ffc-96dc-d58a6f47a412","ios":"levelo://app?vid=ae433787-b8a7-4ffc-96dc-d58a6f47a412"},"vehicle_type_id":"4","last_reported":1774957162,"current_range_meters":6800,"station_id":"ce4bhmh2rcd13ifvqgmg","pricing_plan_id":"cebpf4jnsgd1na2vs0mg"},{"bike_id":"1aa18052-e7e0-4185-b467-3a7da5c3e7aa","system_id":"levelo_inurba_marseille","lat":43.29764,"lon":5.37096,"is_reserved":false,"is_disabled":false,"rental_uris":{"android":"levelo://app?vid=1aa18052-e7e0-4185-b467-3a7da5c3e7aa","ios":"levelo://app?vid=1aa18052-e7e0-4185-b467-3a7da5c3e7aa"},"vehicle_type_id":"4","last_reported":1774957162,"current_range_meters":6800,"station_id":"ce4bgop2rcd13ifvqc1g","pricing_plan_id":"cebpf4jnsgd1na2vs0mg"},{"bike_id":"27e7df83-f8fd-49d1-974c-39f74528fdbd","system_id":"levelo_inurba_marseille","lat":43.29623,"lon":5.37723,"is_reserved":false,"is_disabled":false,"rental_uris":{"android":"levelo://app?vid=27e7df83-f8fd-49d1-974c-39f74528fdbd","ios":"levelo://app?vid=27e7df83-f8fd-49d1-974c-39f74528fdbd"},"vehicle_type_id":"4","last_reported":1774957162,"current_range_meters":6800,"station_id":"ce4bgi92rcd13ifvqb90","pricing_plan_id":"cebpf4jnsgd1na2vs0mg"},{"bike_id":"a1281fee-b36a-4476-aa2d-c81b837c8b17","system_id":"levelo_inurba_marseille","lat":43.30136,"lon":5.3743,"is_reserved":false,"is_disabled":false,"rental_uris":{"android":"levelo://app?vid=a1281fee-b36a-4476-aa2d-c81b837c8b17","ios":"levelo://app?vid=a1281fee-b36a-4476-aa2d-c81b837c8b17"},"vehicle_type_id":"4","last_reported":1774957162,"current_range_meters":6800,"station_id":"ce4bgs92rcd13ifvqcc0","pricing_plan_id":"cebpf4jnsgd1na2vs0mg"},{"bike_id":"516dc13e-98d2-4db1-9953-88b33774944d","system_id":"levelo_inurba_marseille","lat":43.29531,"lon":5.38663,"is_reserved":false,"is_disabled":false,"rental_uris":{"android":"levelo://app?vid=516dc13e-98d2-4db1-9953-88b33774944d","ios":"levelo://app?vid=516dc13e-98d2-4db1-9953-88b33774944d"},"vehicle_type_id":"4","last_reported":1774957162,"current_range_meters":6800,"station_id":"","pricing_plan_id":"cebpf4jnsgd1na2vs0mg"},{"bike_id":"5ae1cde3-c020-448f-8cff-83f80611c531","system_id":"levelo_inurba_marseille","lat":43.24478,"lon":5.42541,"is_reserved":false,"is_disabled":false,"rental_uris":{"android":"levelo://app?vid=5ae1cde3-c020-448f-8cff-83f80611c531","ios":"levelo://app?vid=5ae1cde3-c020-448f-8cff-83f80611c531"},"vehicle_type_id":"4","last_reported":1774957162,"current_range_meters":6800,"station_id":"st_d4a3vfp97mjs738cd8kg","pricing_plan_id":"cebpf4jnsgd1na2vs0mg"},{"bike_id":"0f791079-fdbb-4d69-9255-333f2dc8f37d","system_id":"levelo_inurba_marseille","lat":43.26683,"lon":5.38227,"is_reserved":false,"is_disabled":false,"rental_uris":{"android":"levelo://app?vid=0f791079-fdbb-4d69-9255-333f2dc8f37d","ios":"levelo://app?vid=0f791079-fdbb-4d69-9255-333f2dc8f37d"},"vehicle_type_id":"4","last_reported":1774957162,"current_range_meters":6800,"station_id":"ce4bhg92rcd13ifvqf90","pricing_plan_id":"cebpf4jnsgd1na2vs0mg"},{"bike_id":"e63ef259-6561-4aa5-9a70-4f2767c04e44","system_id":"levelo_inurba_marseille","lat":43.30176,"lon":5.38095,"is_reserved":false,"is_disabled":false,"rental_uris":{"android":"levelo://app?vid=e63ef259-6561-4aa5-9a70-4f2767c04e44","ios":"levelo://app?vid=e63ef259-6561-4aa5-9a70-4f2767c04e44"},"vehicle_type_id":"4","last_reported":1774957162,"current_range_meters":6800,"station_id":"ce4bgjp2rcd13ifvqbh0","pricing_plan_id":"cebpf4jnsgd1na2vs0mg"},{"bike_id":"b2ad8f77-b72f-425d-ae56-6f3d07fd7d34","system_id":"levelo_inurba_marseille","lat":43.33185,"lon":5.37692,"is_reserved":false,"is_disabled":false,"rental_uris":{"android":"levelo://app?vid=b2ad8f77-b72f-425d-ae56-6f3d07fd7d34","ios":"levelo://app?vid=b2ad8f77-b72f-425d-ae56-6f3d07fd7d34"},"vehicle_type_id":"4","last_reported":1774957162,"current_range_meters":6800,"station_id":"st_d46cu089ee8s73dldbu0","pricing_plan_id":"cebpf4jnsgd1na2vs0mg"},{"bike_id":"c2dd284c-f486-4168-ba1c-a198a58d4f03","system_id":"levelo_inurba_marseille","lat":43.28723,"lon":5.46678,"is_reserved":false,"is_disabled":false,"rental_uris":{"android":"levelo://app?vid=c2dd284c-f486-4168-ba1c-a198a58d4f03","ios":"levelo://app?vid=c2dd284c-f486-4168-ba1c-a198a58d4f03"},"vehicle_type_id":"4","last_reported":1774957162,"current_range_meters":6800,"station_id":"st_d6tc3vkotcvc738tfjhg","pricing_plan_id":"cebpf4jnsgd1na2vs0mg"},{"bike_id":"e61a3b02-8828-47a8-8796-a0480c283119","system_id":"levelo_inurba_marseille","lat":43.22945,"lon":5.35339,"is_reserved":false,"is_disabled":false,"rental_uris":{"android":"levelo://app?vid=e61a3b02-8828-47a8-8796-a0480c283119","ios":"levelo://app?vid=e61a3b02-8828-47a8-8796-a0480c283119"},"vehicle_type_id":"4","last_reported":1774957162,"current_range_meters":6800,"station_id":"cpo3532slgdg3j2ikp40","pricing_plan_id":"cebpf4jnsgd1na2vs0mg"},{"bike_id":"bb9c9ce8-7ad8-4c58-9c75-429d43a3d175","system_id":"levelo_inurba_marseille","lat":43.24035,"lon":5.3622,"is_reserved":false,"is_disabled":false,"rental_uris":{"android":"levelo://app?vid=bb9c9ce8-7ad8-4c58-9c75-429d43a3d175","ios":"levelo://app?vid=bb9c9ce8-7ad8-4c58-9c75-429d43a3d175"},"vehicle_type_id":"4","last_reported":1774957162,"current_range_meters":6800,"station_id":"","pricing_plan_id":"cebpf4jnsgd1na2vs0mg"},{"bike_id":"1a1c6cf7-c0b4-4652-877f-a3f6bd437673","system_id":"levelo_inurba_marseille","lat":43.25938,"lon":5.40869,"is_reserved":false,"is_disabled":false,"rental_uris":{"android":"levelo://app?vid=1a1c6cf7-c0b4-4652-877f-a3f6bd437673","ios":"levelo://app?vid=1a1c6cf7-c0b4-4652-877f-a3f6bd437673"},"vehicle_type_id":"4","last_reported":1774957162,"current_range_meters":6800,"station_id":"ce4bhm92rcd13ifvqglg","pricing_plan_id":"cebpf4jnsgd1na2vs0mg"},{"bike_id":"8224fee4-1d52-4b11-b16a-70c5a6603dd7","system_id":"levelo_inurba_marseille","lat":43.28474,"lon":5.484,"is_reserved":false,"is_disabled":false,"rental_uris":{"android":"levelo://app?vid=8224fee4-1d52-4b11-b16a-70c5a6603dd7","ios":"levelo://app?vid=8224fee4-1d52-4b11-b16a-70c5a6603dd7"},"vehicle_type_id":"4","last_reported":1774957162,"current_range_meters":6800,"station_id":"","pricing_plan_id":"cebpf4jnsgd1na2vs0mg"},{"bike_id":"36d6e65a-fa60-47ef-a559-a248721456c1","system_id":"levelo_inurba_marseille","lat":43.30322,"lon":5.3763,"is_reserved":false,"is_disabled":false,"rental_uris":{"android":"levelo://app?vid=36d6e65a-fa60-47ef-a559-a248721456c1","ios":"levelo://app?vid=36d6e65a-fa60-47ef-a559-a248721456c1"},"vehicle_type_id":"4","last_reported":1774957162,"current_range_meters":6800,"station_id":"","pricing_plan_id":"cebpf4jnsgd1na2vs0mg"},{"bike_id":"5a4f97ab-ea02-4e66-abad-ff14f24577e4","system_id":"levelo_inurba_marseille","lat":43.27156,"lon":5.39234,"is_reserved":false,"is_disabled":false,"rental_uris":{"android":"levelo://app?vid=5a4f97ab-ea02-4e66-abad-ff14f24577e4","ios":"levelo://app?vid=5a4f97ab-ea02-4e66-abad-ff14f24577e4"},"vehicle_type_id":"4","last_reported":1774957162,"current_range_meters":7200,"station_id":"","pricing_plan_id":"cebpf4jnsgd1na2vs0mg"},{"bike_id":"163b31ba-b37d-43e9-9001-58f4bbd760d4","system_id":"levelo_inurba_marseille","lat":43.3176,"lon":5.39019,"is_reserved":false,"is_disabled":false,"rental_uris":{"android":"levelo://app?vid=163b31ba-b37d-43e9-9001-58f4bbd760d4","ios":"levelo://app?vid=163b31ba-b37d-43e9-9001-58f4bbd760d4"},"vehicle_type_id":"4","last_reported":1774957162,"current_range_meters":7200,"station_id":"ce4bhqp2rcd13ifvqhng","pricing_plan_id":"cebpf4jnsgd1na2vs0mg"},{"bike_id":"405bedfb-9935-4390-a8a3-f9ddcf9a97e8","system_id":"levelo_inurba_marseille","lat":43.22546,"lon":5.34808,"is_reserved":false,"is_disabled":false,"rental_uris":{"android":"levelo://app?vid=405bedfb-9935-4390-a8a3-f9ddcf9a97e8","ios":"levelo://app?vid=405bedfb-9935-4390-a8a3-f9ddcf9a97e8"},"vehicle_type_id":"4","last_reported":1774957162,"current_range_meters":7200,"station_id":"","pricing_plan_id":"cebpf4jnsgd1na2vs0mg"},{"bike_id":"e72f4c7b-240a-4bc5-b383-6a5f011f272e","system_id":"levelo_inurba_marseille","lat":43.23203,"lon":5.35561,"is_reserved":false,"is_disabled":false,"rental_uris":{"android":"levelo://app?vid=e72f4c7b-240a-4bc5-b383-6a5f011f272e","ios":"levelo://app?vid=e72f4c7b-240a-4bc5-b383-6a5f011f272e"},"vehicle_type_id":"4","last_reported":1774957162,"current_range_meters":7200,"station_id":"ce4bhu92rcd13ifvqi70","pricing_plan_id":"cebpf4jnsgd1na2vs0mg"},{"bike_id":"aff3ff3f-6b67-4330-8619-cb367673fc13","system_id":"levelo_inurba_marseille","lat":43.24414,"lon":5.37041,"is_reserved":false,"is_disabled":false,"rental_uris":{"android":"levelo://app?vid=aff3ff3f-6b67-4330-8619-cb367673fc13","ios":"levelo://app?vid=aff3ff3f-6b67-4330-8619-cb367673fc13"},"vehicle_type_id":"4","last_reported":1774957162,"current_range_meters":7200,"station_id":"ce4bhhh2rcd13ifvqfk0","pricing_plan_id":"cebpf4jnsgd1na2vs0mg"},{"bike_id":"98af9ecb-9bfa-4d7d-b220-fb80df47b49d","system_id":"levelo_inurba_marseille","lat":43.23383,"lon":5.41224,"is_reserved":false,"is_disabled":false,"rental_uris":{"android":"levelo://app?vid=98af9ecb-9bfa-4d7d-b220-fb80df47b49d","ios":"levelo://app?vid=98af9ecb-9bfa-4d7d-b220-fb80df47b49d"},"vehicle_type_id":"4","last_reported":1774957162,"current_range_meters":7200,"station_id":"st_d75pvndhf9lc73cqq3eg","pricing_plan_id":"cebpf4jnsgd1na2vs0mg"},{"bike_id":"2af113ee-79ab-43e1-8352-bb07abd51450","system_id":"levelo_inurba_marseille","lat":43.29306,"lon":5.37429,"is_reserved":false,"is_disabled":false,"rental_uris":{"android":"levelo://app?vid=2af113ee-79ab-43e1-8352-bb07abd51450","ios":"levelo://app?vid=2af113ee-79ab-43e1-8352-bb07abd51450"},"vehicle_type_id":"4","last_reported":1774957162,"current_range_meters":7200,"station_id":"ce4bgi12rcd13ifvqb70","pricing_plan_id":"cebpf4jnsgd1na2vs0mg"},{"bike_id":"a4c711ce-c48e-4767-b86f-5d87dcdcc4b7","system_id":"levelo_inurba_marseille","lat":43.21747,"lon":5.34614,"is_reserved":false,"is_disabled":false,"rental_uris":{"android":"levelo://app?vid=a4c711ce-c48e-4767-b86f-5d87dcdcc4b7","ios":"levelo://app?vid=a4c711ce-c48e-4767-b86f-5d87dcdcc4b7"},"vehicle_type_id":"4","last_reported":1774957162,"current_range_meters":7200,"station_id":"st_cvj6r9ubvosntc0bgbag","pricing_plan_id":"cebpf4jnsgd1na2vs0mg"},{"bike_id":"839f391b-feab-427a-b17d-2d524e38c555","system_id":"levelo_inurba_marseille","lat":43.23733,"lon":5.36683,"is_reserved":false,"is_disabled":false,"rental_uris":{"android":"levelo://app?vid=839f391b-feab-427a-b17d-2d524e38c555","ios":"levelo://app?vid=839f391b-feab-427a-b17d-2d524e38c555"},"vehicle_type_id":"4","last_reported":1774957162,"current_range_meters":7200,"station_id":"","pricing_plan_id":"cebpf4jnsgd1na2vs0mg"},{"bike_id":"7022677f-29c5-4fec-9258-0b0b263fdaf7","system_id":"levelo_inurba_marseille","lat":43.239,"lon":5.37453,"is_reserved":false,"is_disabled":false,"rental_uris":{"android":"levelo://app?vid=7022677f-29c5-4fec-9258-0b0b263fdaf7","ios":"levelo://app?vid=7022677f-29c5-4fec-9258-0b0b263fdaf7"},"vehicle_type_id":"4","last_reported":1774957162,"current_range_meters":7200,"station_id":"st_d6sm7csbq4hs73f8fpjg","pricing_plan_id":"cebpf4jnsgd1na2vs0mg"},{"bike_id":"b69b7ee0-eb68-4e40-9110-6ed5a17a58dc","system_id":"levelo_inurba_marseille","lat":43.28429,"lon":5.34979,"is_reserved":false,"is_disabled":false,"rental_uris":{"android":"levelo://app?vid=b69b7ee0-eb68-4e40-9110-6ed5a17a58dc","ios":"levelo://app?vid=b69b7ee0-eb68-4e40-9110-6ed5a17a58dc"},"vehicle_type_id":"4","last_reported":1774957162,"current_range_meters":7200,"station_id":"ce4bhbh2rcd13ifvqepg","pricing_plan_id":"cebpf4jnsgd1na2vs0mg"},{"bike_id":"cf039980-8909-4a03-aa52-b426c9efd4e8","system_id":"levelo_inurba_marseille","lat":43.21759,"lon":5.34591,"is_reserved":false,"is_disabled":false,"rental_uris":{"android":"levelo://app?vid=cf039980-8909-4a03-aa52-b426c9efd4e8","ios":"levelo://app?vid=cf039980-8909-4a03-aa52-b426c9efd4e8"},"vehicle_type_id":"4","last_reported":1774957162,"current_range_meters":7200,"station_id":"st_cvj6r9ubvosntc0bgbag","pricing_plan_id":"cebpf4jnsgd1na2vs0mg"},{"bike_id":"59c65e25-757b-4611-ab19-cc02e6ee8d57","system_id":"levelo_inurba_marseille","lat":43.21763,"lon":5.34578,"is_reserved":false,"is_disabled":false,"rental_uris":{"android":"levelo://app?vid=59c65e25-757b-4611-ab19-cc02e6ee8d57","ios":"levelo://app?vid=59c65e25-757b-4611-ab19-cc02e6ee8d57"},"vehicle_type_id":"4","last_reported":1774957162,"current_range_meters":7200,"station_id":"st_cvj6r9ubvosntc0bgbag","pricing_plan_id":"cebpf4jnsgd1na2vs0mg"},{"bike_id":"57061fb3-280b-4b15-a492-86104f4dfd43","system_id":"levelo_inurba_marseille","lat":43.2895,"lon":5.36391,"is_reserved":false,"is_disabled":false,"rental_uris":{"android":"levelo://app?vid=57061fb3-280b-4b15-a492-86104f4dfd43","ios":"levelo://app?vid=57061fb3-280b-4b15-a492-86104f4dfd43"},"vehicle_type_id":"4","last_reported":1774957162,"current_range_meters":7200,"station_id":"ce4bhc92rcd13ifvqetg","pricing_plan_id":"cebpf4jnsgd1na2vs0mg"},{"bike_id":"0856bff4-a16a-4184-98d4-fb3b4c049421","system_id":"levelo_inurba_marseille","lat":43.26058,"lon":5.39391,"is_reserved":false,"is_disabled":false,"rental_uris":{"android":"levelo://app?vid=0856bff4-a16a-4184-98d4-fb3b4c049421","ios":"levelo://app?vid=0856bff4-a16a-4184-98d4-fb3b4c049421"},"vehicle_type_id":"4","last_reported":1774957162,"current_range_meters":7200,"station_id":"ce4bhh92rcd13ifvqfj0","pricing_plan_id":"cebpf4jnsgd1na2vs0mg"},{"bike_id":"12bc76b6-50f0-4873-a109-c2134c25c42d","system_id":"levelo_inurba_marseille","lat":43.27563,"lon":5.38425,"is_reserved":false,"is_disabled":false,"rental_uris":{"android":"levelo://app?vid=12bc76b6-50f0-4873-a109-c2134c25c42d","ios":"levelo://app?vid=12bc76b6-50f0-4873-a109-c2134c25c42d"},"vehicle_type_id":"4","last_reported":1774957162,"current_range_meters":7200,"station_id":"ce4bhh92rcd13ifvqfi0","pricing_plan_id":"cebpf4jnsgd1na2vs0mg"},{"bike_id":"99357e4e-0fd2-4bed-b022-406a548cc7c5","system_id":"levelo_inurba_marseille","lat":43.23959,"lon":5.36611,"is_reserved":false,"is_disabled":false,"rental_uris":{"android":"levelo://app?vid=99357e4e-0fd2-4bed-b022-406a548cc7c5","ios":"levelo://app?vid=99357e4e-0fd2-4bed-b022-406a548cc7c5"},"vehicle_type_id":"4","last_reported":1774957162,"current_range_meters":7200,"station_id":"ce4bhi12rcd13ifvqfp0","pricing_plan_id":"cebpf4jnsgd1na2vs0mg"},{"bike_id":"b542c304-293a-45f1-a562-d7fc7dbf754a","system_id":"levelo_inurba_marseille","lat":43.29474,"lon":5.43363,"is_reserved":false,"is_disabled":false,"rental_uris":{"android":"levelo://app?vid=b542c304-293a-45f1-a562-d7fc7dbf754a","ios":"levelo://app?vid=b542c304-293a-45f1-a562-d7fc7dbf754a"},"vehicle_type_id":"4","last_reported":1774957162,"current_range_meters":8000,"station_id":"st_d3j5ugp08ojc73fj9d10","pricing_plan_id":"cebpf4jnsgd1na2vs0mg"},{"bike_id":"2bbea087-3f00-4c2b-80ac-92b347d1b1bc","system_id":"levelo_inurba_marseille","lat":43.29035,"lon":5.38098,"is_reserved":false,"is_disabled":false,"rental_uris":{"android":"levelo://app?vid=2bbea087-3f00-4c2b-80ac-92b347d1b1bc","ios":"levelo://app?vid=2bbea087-3f00-4c2b-80ac-92b347d1b1bc"},"vehicle_type_id":"4","last_reported":1774957162,"current_range_meters":8000,"station_id":"ce4bh4p2rcd13ifvqe1g","pricing_plan_id":"cebpf4jnsgd1na2vs0mg"},{"bike_id":"8429f855-c4a0-4803-9ce7-0d1fb93dbfe8","system_id":"levelo_inurba_marseille","lat":43.28352,"lon":5.48744,"is_reserved":false,"is_disabled":false,"rental_uris":{"android":"levelo://app?vid=8429f855-c4a0-4803-9ce7-0d1fb93dbfe8","ios":"levelo://app?vid=8429f855-c4a0-4803-9ce7-0d1fb93dbfe8"},"vehicle_type_id":"4","last_reported":1774957162,"current_range_meters":8000,"station_id":"","pricing_plan_id":"cebpf4jnsgd1na2vs0mg"},{"bike_id":"fa0d0bf1-0e93-44ca-8386-dfd282423601","system_id":"levelo_inurba_marseille","lat":43.3254,"lon":5.41429,"is_reserved":false,"is_disabled":false,"rental_uris":{"android":"levelo://app?vid=fa0d0bf1-0e93-44ca-8386-dfd282423601","ios":"levelo://app?vid=fa0d0bf1-0e93-44ca-8386-dfd282423601"},"vehicle_type_id":"4","last_reported":1774957162,"current_range_meters":8000,"station_id":"ce4bhq12rcd13ifvqhhg","pricing_plan_id":"cebpf4jnsgd1na2vs0mg"},{"bike_id":"b3466ecc-4c48-4c4d-94a7-8d6040baea0c","system_id":"levelo_inurba_marseille","lat":43.22567,"lon":5.41629,"is_reserved":false,"is_disabled":false,"rental_uris":{"android":"levelo://app?vid=b3466ecc-4c48-4c4d-94a7-8d6040baea0c","ios":"levelo://app?vid=b3466ecc-4c48-4c4d-94a7-8d6040baea0c"},"vehicle_type_id":"4","last_reported":1774957162,"current_range_meters":8000,"station_id":"st_d2o4gvlbi1j2169b742g","pricing_plan_id":"cebpf4jnsgd1na2vs0mg"},{"bike_id":"3a922081-a991-4b97-906e-7f7dba00403a","system_id":"levelo_inurba_marseille","lat":43.32358,"lon":5.36747,"is_reserved":false,"is_disabled":false,"rental_uris":{"android":"levelo://app?vid=3a922081-a991-4b97-906e-7f7dba00403a","ios":"levelo://app?vid=3a922081-a991-4b97-906e-7f7dba00403a"},"vehicle_type_id":"4","last_reported":1774957162,"current_range_meters":8000,"station_id":"ce4bhsh2rcd13ifvqi2g","pricing_plan_id":"cebpf4jnsgd1na2vs0mg"},{"bike_id":"816d1509-b6a4-4401-86a1-6ea0eb371364","system_id":"levelo_inurba_marseille","lat":43.23781,"lon":5.36637,"is_reserved":false,"is_disabled":false,"rental_uris":{"android":"levelo://app?vid=816d1509-b6a4-4401-86a1-6ea0eb371364","ios":"levelo://app?vid=816d1509-b6a4-4401-86a1-6ea0eb371364"},"vehicle_type_id":"4","last_reported":1774957162,"current_range_meters":8000,"station_id":"st_d3nk18o9ro0c73en2l3g","pricing_plan_id":"cebpf4jnsgd1na2vs0mg"},{"bike_id":"f1c7cedb-7ca6-425d-bb6e-eba3f64564e5","system_id":"levelo_inurba_marseille","lat":43.24185,"lon":5.39718,"is_reserved":false,"is_disabled":false,"rental_uris":{"android":"levelo://app?vid=f1c7cedb-7ca6-425d-bb6e-eba3f64564e5","ios":"levelo://app?vid=f1c7cedb-7ca6-425d-bb6e-eba3f64564e5"},"vehicle_type_id":"4","last_reported":1774957162,"current_range_meters":8000,"station_id":"ce4bhn12rcd13ifvqgpg","pricing_plan_id":"cebpf4jnsgd1na2vs0mg"},{"bike_id":"fc230a14-954a-4d36-be5c-8f8498288ae5","system_id":"levelo_inurba_marseille","lat":43.28267,"lon":5.3507,"is_reserved":false,"is_disabled":false,"rental_uris":{"android":"levelo://app?vid=fc230a14-954a-4d36-be5c-8f8498288ae5","ios":"levelo://app?vid=fc230a14-954a-4d36-be5c-8f8498288ae5"},"vehicle_type_id":"4","last_reported":1774957162,"current_range_meters":8000,"station_id":"ce4bhbp2rcd13ifvqerg","pricing_plan_id":"cebpf4jnsgd1na2vs0mg"},{"bike_id":"9c1440ce-c955-43db-9800-7794805da744","system_id":"levelo_inurba_marseille","lat":43.2397,"lon":5.36623,"is_reserved":false,"is_disabled":false,"rental_uris":{"android":"levelo://app?vid=9c1440ce-c955-43db-9800-7794805da744","ios":"levelo://app?vid=9c1440ce-c955-43db-9800-7794805da744"},"vehicle_type_id":"4","last_reported":1774957162,"current_range_meters":8000,"station_id":"ce4bhi12rcd13ifvqfp0","pricing_plan_id":"cebpf4jnsgd1na2vs0mg"},{"bike_id":"9e8c35a2-3d4d-48a8-87e2-0775e9d3d581","system_id":"levelo_inurba_marseille","lat":43.27489,"lon":5.408,"is_reserved":false,"is_disabled":false,"rental_uris":{"android":"levelo://app?vid=9e8c35a2-3d4d-48a8-87e2-0775e9d3d581","ios":"levelo://app?vid=9e8c35a2-3d4d-48a8-87e2-0775e9d3d581"},"vehicle_type_id":"4","last_reported":1774957162,"current_range_meters":8000,"station_id":"","pricing_plan_id":"cebpf4jnsgd1na2vs0mg"},{"bike_id":"1125fe66-4513-406a-b755-6b272a0d7716","system_id":"levelo_inurba_marseille","lat":43.27074,"lon":5.42275,"is_reserved":false,"is_disabled":true,"rental_uris":{"android":"levelo://app?vid=1125fe66-4513-406a-b755-6b272a0d7716","ios":"levelo://app?vid=1125fe66-4513-406a-b755-6b272a0d7716"},"vehicle_type_id":"4","last_reported":1774957162,"current_range_meters":8000,"station_id":"ce4bhk92rcd13ifvqgb0","pricing_plan_id":"cebpf4jnsgd1na2vs0mg"},{"bike_id":"ba7deb35-b669-454e-ad2d-32596ffa8222","system_id":"levelo_inurba_marseille","lat":43.2175,"lon":5.34608,"is_reserved":false,"is_disabled":false,"rental_uris":{"android":"levelo://app?vid=ba7deb35-b669-454e-ad2d-32596ffa8222","ios":"levelo://app?vid=ba7deb35-b669-454e-ad2d-32596ffa8222"},"vehicle_type_id":"4","last_reported":1774957162,"current_range_meters":8000,"station_id":"st_cvj6r9ubvosntc0bgbag","pricing_plan_id":"cebpf4jnsgd1na2vs0mg"},{"bike_id":"89d9c529-4105-4be5-8905-976c462c966f","system_id":"levelo_inurba_marseille","lat":43.30553,"lon":5.36509,"is_reserved":false,"is_disabled":false,"rental_uris":{"android":"levelo://app?vid=89d9c529-4105-4be5-8905-976c462c966f","ios":"levelo://app?vid=89d9c529-4105-4be5-8905-976c462c966f"},"vehicle_type_id":"4","last_reported":1774957162,"current_range_meters":8000,"station_id":"ce4bgs12rcd13ifvqcag","pricing_plan_id":"cebpf4jnsgd1na2vs0mg"},{"bike_id":"370e4e08-6d82-4b38-8b87-e7eadfcbd0ed","system_id":"levelo_inurba_marseille","lat":43.24182,"lon":5.3973,"is_reserved":false,"is_disabled":false,"rental_uris":{"android":"levelo://app?vid=370e4e08-6d82-4b38-8b87-e7eadfcbd0ed","ios":"levelo://app?vid=370e4e08-6d82-4b38-8b87-e7eadfcbd0ed"},"vehicle_type_id":"4","last_reported":1774957162,"current_range_meters":8000,"station_id":"ce4bhn12rcd13ifvqgpg","pricing_plan_id":"cebpf4jnsgd1na2vs0mg"},{"bike_id":"10f05ed2-5813-4d4b-a9c2-f44482f892e6","system_id":"levelo_inurba_marseille","lat":43.31571,"lon":5.36903,"is_reserved":false,"is_disabled":false,"rental_uris":{"android":"levelo://app?vid=10f05ed2-5813-4d4b-a9c2-f44482f892e6","ios":"levelo://app?vid=10f05ed2-5813-4d4b-a9c2-f44482f892e6"},"vehicle_type_id":"4","last_reported":1774957162,"current_range_meters":8000,"station_id":"","pricing_plan_id":"cebpf4jnsgd1na2vs0mg"},{"bike_id":"9da6f0a0-254f-4937-8243-355fe7b156df","system_id":"levelo_inurba_marseille","lat":43.28547,"lon":5.44102,"is_reserved":false,"is_disabled":false,"rental_uris":{"android":"levelo://app?vid=9da6f0a0-254f-4937-8243-355fe7b156df","ios":"levelo://app?vid=9da6f0a0-254f-4937-8243-355fe7b156df"},"vehicle_type_id":"4","last_reported":1774957162,"current_range_meters":8000,"station_id":"st_d3j3df2ikq2c7380ej80","pricing_plan_id":"cebpf4jnsgd1na2vs0mg"},{"bike_id":"852c7601-3e1e-41df-8d5e-ff1916ce78a1","system_id":"levelo_inurba_marseille","lat":43.28212,"lon":5.3906,"is_reserved":false,"is_disabled":false,"rental_uris":{"android":"levelo://app?vid=852c7601-3e1e-41df-8d5e-ff1916ce78a1","ios":"levelo://app?vid=852c7601-3e1e-41df-8d5e-ff1916ce78a1"},"vehicle_type_id":"4","last_reported":1774957162,"current_range_meters":8000,"station_id":"ce4bhn92rcd13ifvqgsg","pricing_plan_id":"cebpf4jnsgd1na2vs0mg"},{"bike_id":"68ef153f-a709-4c80-9ef2-238d9f86b776","system_id":"levelo_inurba_marseille","lat":43.2828,"lon":5.35078,"is_reserved":false,"is_disabled":false,"rental_uris":{"android":"levelo://app?vid=68ef153f-a709-4c80-9ef2-238d9f86b776","ios":"levelo://app?vid=68ef153f-a709-4c80-9ef2-238d9f86b776"},"vehicle_type_id":"4","last_reported":1774957162,"current_range_meters":8000,"station_id":"ce4bhbp2rcd13ifvqerg","pricing_plan_id":"cebpf4jnsgd1na2vs0mg"},{"bike_id":"829c5c52-e00f-4e24-b4b1-46ec3043d526","system_id":"levelo_inurba_marseille","lat":43.29869,"lon":5.4208,"is_reserved":false,"is_disabled":false,"rental_uris":{"android":"levelo://app?vid=829c5c52-e00f-4e24-b4b1-46ec3043d526","ios":"levelo://app?vid=829c5c52-e00f-4e24-b4b1-46ec3043d526"},"vehicle_type_id":"4","last_reported":1774957162,"current_range_meters":8000,"station_id":"st_d6tc004otcvc738tfe70","pricing_plan_id":"cebpf4jnsgd1na2vs0mg"},{"bike_id":"32a0924a-8e16-45d1-8492-18bfd7e01b6a","system_id":"levelo_inurba_marseille","lat":43.26682,"lon":5.38254,"is_reserved":false,"is_disabled":false,"rental_uris":{"android":"levelo://app?vid=32a0924a-8e16-45d1-8492-18bfd7e01b6a","ios":"levelo://app?vid=32a0924a-8e16-45d1-8492-18bfd7e01b6a"},"vehicle_type_id":"4","last_reported":1774957162,"current_range_meters":8000,"station_id":"ce4bhg92rcd13ifvqf90","pricing_plan_id":"cebpf4jnsgd1na2vs0mg"},{"bike_id":"92e2a985-edd9-48fd-928c-dd80c53cac98","system_id":"levelo_inurba_marseille","lat":43.23149,"lon":5.43704,"is_reserved":false,"is_disabled":false,"rental_uris":{"android":"levelo://app?vid=92e2a985-edd9-48fd-928c-dd80c53cac98","ios":"levelo://app?vid=92e2a985-edd9-48fd-928c-dd80c53cac98"},"vehicle_type_id":"4","last_reported":1774957162,"current_range_meters":8000,"station_id":"ce4bhmp2rcd13ifvqgog","pricing_plan_id":"cebpf4jnsgd1na2vs0mg"},{"bike_id":"972a0513-5a4e-4bed-abbb-e0dcbaf8fca2","system_id":"levelo_inurba_marseille","lat":43.31045,"lon":5.37151,"is_reserved":false,"is_disabled":false,"rental_uris":{"android":"levelo://app?vid=972a0513-5a4e-4bed-abbb-e0dcbaf8fca2","ios":"levelo://app?vid=972a0513-5a4e-4bed-abbb-e0dcbaf8fca2"},"vehicle_type_id":"4","last_reported":1774957162,"current_range_meters":8000,"station_id":"st_d4kl2rp97mjs73e7tdfg","pricing_plan_id":"cebpf4jnsgd1na2vs0mg"},{"bike_id":"43e4bb96-0cd3-4e42-baf5-dd0ee842f69a","system_id":"levelo_inurba_marseille","lat":43.23792,"lon":5.36627,"is_reserved":false,"is_disabled":false,"rental_uris":{"android":"levelo://app?vid=43e4bb96-0cd3-4e42-baf5-dd0ee842f69a","ios":"levelo://app?vid=43e4bb96-0cd3-4e42-baf5-dd0ee842f69a"},"vehicle_type_id":"4","last_reported":1774957162,"current_range_meters":8000,"station_id":"st_d3nk18o9ro0c73en2l3g","pricing_plan_id":"cebpf4jnsgd1na2vs0mg"},{"bike_id":"51475531-7471-47a3-983c-08d19e565fd4","system_id":"levelo_inurba_marseille","lat":43.30146,"lon":5.38084,"is_reserved":false,"is_disabled":false,"rental_uris":{"android":"levelo://app?vid=51475531-7471-47a3-983c-08d19e565fd4","ios":"levelo://app?vid=51475531-7471-47a3-983c-08d19e565fd4"},"vehicle_type_id":"4","last_reported":1774957162,"current_range_meters":8000,"station_id":"ce4bgjp2rcd13ifvqbh0","pricing_plan_id":"cebpf4jnsgd1na2vs0mg"},{"bike_id":"6ec1889d-c43d-42d7-9ebb-6d09626d1897","system_id":"levelo_inurba_marseille","lat":43.24658,"lon":5.38895,"is_reserved":false,"is_disabled":false,"rental_uris":{"android":"levelo://app?vid=6ec1889d-c43d-42d7-9ebb-6d09626d1897","ios":"levelo://app?vid=6ec1889d-c43d-42d7-9ebb-6d09626d1897"},"vehicle_type_id":"4","last_reported":1774957162,"current_range_meters":8400,"station_id":"ce4bhg12rcd13ifvqf60","pricing_plan_id":"cebpf4jnsgd1na2vs0mg"},{"bike_id":"24a1556e-8bb9-4ec6-9afd-5f486f1d6cda","system_id":"levelo_inurba_marseille","lat":43.25864,"lon":5.39932,"is_reserved":false,"is_disabled":false,"rental_uris":{"android":"levelo://app?vid=24a1556e-8bb9-4ec6-9afd-5f486f1d6cda","ios":"levelo://app?vid=24a1556e-8bb9-4ec6-9afd-5f486f1d6cda"},"vehicle_type_id":"4","last_reported":1774957162,"current_range_meters":8400,"station_id":"ce4bhl92rcd13ifvqghg","pricing_plan_id":"cebpf4jnsgd1na2vs0mg"},{"bike_id":"bcc288dd-6942-4899-95ee-d43aed6e21bd","system_id":"levelo_inurba_marseille","lat":43.31301,"lon":5.36759,"is_reserved":false,"is_disabled":false,"rental_uris":{"android":"levelo://app?vid=bcc288dd-6942-4899-95ee-d43aed6e21bd","ios":"levelo://app?vid=bcc288dd-6942-4899-95ee-d43aed6e21bd"},"vehicle_type_id":"4","last_reported":1774957162,"current_range_meters":8400,"station_id":"","pricing_plan_id":"cebpf4jnsgd1na2vs0mg"},{"bike_id":"6154ce6a-6063-43ce-9e4a-767e1486eb9e","system_id":"levelo_inurba_marseille","lat":43.2307,"lon":5.35484,"is_reserved":false,"is_disabled":false,"rental_uris":{"android":"levelo://app?vid=6154ce6a-6063-43ce-9e4a-767e1486eb9e","ios":"levelo://app?vid=6154ce6a-6063-43ce-9e4a-767e1486eb9e"},"vehicle_type_id":"4","last_reported":1774957162,"current_range_meters":8400,"station_id":"cpo3342slgdg3j2ifvpg","pricing_plan_id":"cebpf4jnsgd1na2vs0mg"},{"bike_id":"50dd00c6-7947-4820-a4c0-c8a42548efd2","system_id":"levelo_inurba_marseille","lat":43.28673,"lon":5.36161,"is_reserved":false,"is_disabled":false,"rental_uris":{"android":"levelo://app?vid=50dd00c6-7947-4820-a4c0-c8a42548efd2","ios":"levelo://app?vid=50dd00c6-7947-4820-a4c0-c8a42548efd2"},"vehicle_type_id":"4","last_reported":1774957162,"current_range_meters":8400,"station_id":"","pricing_plan_id":"cebpf4jnsgd1na2vs0mg"},{"bike_id":"7ddda98a-95aa-40f3-b1ad-2c7940798190","system_id":"levelo_inurba_marseille","lat":43.24081,"lon":5.37757,"is_reserved":false,"is_disabled":false,"rental_uris":{"android":"levelo://app?vid=7ddda98a-95aa-40f3-b1ad-2c7940798190","ios":"levelo://app?vid=7ddda98a-95aa-40f3-b1ad-2c7940798190"},"vehicle_type_id":"4","last_reported":1774957162,"current_range_meters":8400,"station_id":"ce4bhnp2rcd13ifvqgvg","pricing_plan_id":"cebpf4jnsgd1na2vs0mg"},{"bike_id":"e29745da-df04-4b07-afcd-e2b836a7d6ac","system_id":"levelo_inurba_marseille","lat":43.30301,"lon":5.36893,"is_reserved":false,"is_disabled":false,"rental_uris":{"android":"levelo://app?vid=e29745da-df04-4b07-afcd-e2b836a7d6ac","ios":"levelo://app?vid=e29745da-df04-4b07-afcd-e2b836a7d6ac"},"vehicle_type_id":"4","last_reported":1774957162,"current_range_meters":8400,"station_id":"ce4bgqh2rcd13ifvqc5g","pricing_plan_id":"cebpf4jnsgd1na2vs0mg"},{"bike_id":"ec32ca72-41be-4bc2-8ad0-e96970a3d231","system_id":"levelo_inurba_marseille","lat":43.30309,"lon":5.3919,"is_reserved":false,"is_disabled":false,"rental_uris":{"android":"levelo://app?vid=ec32ca72-41be-4bc2-8ad0-e96970a3d231","ios":"levelo://app?vid=ec32ca72-41be-4bc2-8ad0-e96970a3d231"},"vehicle_type_id":"4","last_reported":1774957162,"current_range_meters":8400,"station_id":"ce4bgkh2rcd13ifvqbk0","pricing_plan_id":"cebpf4jnsgd1na2vs0mg"},{"bike_id":"602c7046-3fa2-412f-acea-a5dda9264272","system_id":"levelo_inurba_marseille","lat":43.21216,"lon":5.35046,"is_reserved":false,"is_disabled":false,"rental_uris":{"android":"levelo://app?vid=602c7046-3fa2-412f-acea-a5dda9264272","ios":"levelo://app?vid=602c7046-3fa2-412f-acea-a5dda9264272"},"vehicle_type_id":"4","last_reported":1774957162,"current_range_meters":8400,"station_id":"","pricing_plan_id":"cebpf4jnsgd1na2vs0mg"},{"bike_id":"54e69b5a-cafc-4b0c-b96c-83cbec1b5321","system_id":"levelo_inurba_marseille","lat":43.29257,"lon":5.36037,"is_reserved":false,"is_disabled":false,"rental_uris":{"android":"levelo://app?vid=54e69b5a-cafc-4b0c-b96c-83cbec1b5321","ios":"levelo://app?vid=54e69b5a-cafc-4b0c-b96c-83cbec1b5321"},"vehicle_type_id":"4","last_reported":1774957162,"current_range_meters":8400,"station_id":"ce4bhbh2rcd13ifvqeqg","pricing_plan_id":"cebpf4jnsgd1na2vs0mg"},{"bike_id":"a7b94be6-84e4-4662-a273-738cf2a448f7","system_id":"levelo_inurba_marseille","lat":43.26059,"lon":5.37547,"is_reserved":false,"is_disabled":false,"rental_uris":{"android":"levelo://app?vid=a7b94be6-84e4-4662-a273-738cf2a448f7","ios":"levelo://app?vid=a7b94be6-84e4-4662-a273-738cf2a448f7"},"vehicle_type_id":"4","last_reported":1774957162,"current_range_meters":8400,"station_id":"ce4bhgh2rcd13ifvqfa0","pricing_plan_id":"cebpf4jnsgd1na2vs0mg"},{"bike_id":"21f87c15-edb4-477e-8bf4-58f311519b25","system_id":"levelo_inurba_marseille","lat":43.28423,"lon":5.34988,"is_reserved":false,"is_disabled":false,"rental_uris":{"android":"levelo://app?vid=21f87c15-edb4-477e-8bf4-58f311519b25","ios":"levelo://app?vid=21f87c15-edb4-477e-8bf4-58f311519b25"},"vehicle_type_id":"4","last_reported":1774957162,"current_range_meters":8400,"station_id":"ce4bhbh2rcd13ifvqepg","pricing_plan_id":"cebpf4jnsgd1na2vs0mg"},{"bike_id":"16e274d7-7305-4b38-a146-4da91ab01fb2","system_id":"levelo_inurba_marseille","lat":43.21194,"lon":5.35074,"is_reserved":false,"is_disabled":false,"rental_uris":{"android":"levelo://app?vid=16e274d7-7305-4b38-a146-4da91ab01fb2","ios":"levelo://app?vid=16e274d7-7305-4b38-a146-4da91ab01fb2"},"vehicle_type_id":"4","last_reported":1774957162,"current_range_meters":8400,"station_id":"st_cvj6sg6p6f1abm77japg","pricing_plan_id":"cebpf4jnsgd1na2vs0mg"},{"bike_id":"806c5839-096f-4e8b-a898-b4c4a93492b0","system_id":"levelo_inurba_marseille","lat":43.27479,"lon":5.41551,"is_reserved":false,"is_disabled":false,"rental_uris":{"android":"levelo://app?vid=806c5839-096f-4e8b-a898-b4c4a93492b0","ios":"levelo://app?vid=806c5839-096f-4e8b-a898-b4c4a93492b0"},"vehicle_type_id":"4","last_reported":1774957162,"current_range_meters":8400,"station_id":"st_d6im8g6chgec73a5pndg","pricing_plan_id":"cebpf4jnsgd1na2vs0mg"},{"bike_id":"2c49d94b-77d8-4ef3-bcec-bd2fd8db78e2","system_id":"levelo_inurba_marseille","lat":43.28679,"lon":5.38658,"is_reserved":false,"is_disabled":false,"rental_uris":{"android":"levelo://app?vid=2c49d94b-77d8-4ef3-bcec-bd2fd8db78e2","ios":"levelo://app?vid=2c49d94b-77d8-4ef3-bcec-bd2fd8db78e2"},"vehicle_type_id":"4","last_reported":1774957162,"current_range_meters":8400,"station_id":"ce4bh492rcd13ifvqdug","pricing_plan_id":"cebpf4jnsgd1na2vs0mg"},{"bike_id":"b1e9f130-d8ae-4858-bc10-b368a2ad0d85","system_id":"levelo_inurba_marseille","lat":43.28494,"lon":5.4837,"is_reserved":false,"is_disabled":false,"rental_uris":{"android":"levelo://app?vid=b1e9f130-d8ae-4858-bc10-b368a2ad0d85","ios":"levelo://app?vid=b1e9f130-d8ae-4858-bc10-b368a2ad0d85"},"vehicle_type_id":"4","last_reported":1774957162,"current_range_meters":8400,"station_id":"","pricing_plan_id":"cebpf4jnsgd1na2vs0mg"},{"bike_id":"99989140-ecdd-42c6-8e05-6943687e674d","system_id":"levelo_inurba_marseille","lat":43.30133,"lon":5.38956,"is_reserved":false,"is_disabled":false,"rental_uris":{"android":"levelo://app?vid=99989140-ecdd-42c6-8e05-6943687e674d","ios":"levelo://app?vid=99989140-ecdd-42c6-8e05-6943687e674d"},"vehicle_type_id":"4","last_reported":1774957162,"current_range_meters":8400,"station_id":"","pricing_plan_id":"cebpf4jnsgd1na2vs0mg"},{"bike_id":"3ca87e92-ab35-4863-a76f-ab6e68bb2c80","system_id":"levelo_inurba_marseille","lat":43.24401,"lon":5.37076,"is_reserved":false,"is_disabled":false,"rental_uris":{"android":"levelo://app?vid=3ca87e92-ab35-4863-a76f-ab6e68bb2c80","ios":"levelo://app?vid=3ca87e92-ab35-4863-a76f-ab6e68bb2c80"},"vehicle_type_id":"4","last_reported":1774957162,"current_range_meters":8400,"station_id":"ce4bhhh2rcd13ifvqfk0","pricing_plan_id":"cebpf4jnsgd1na2vs0mg"},{"bike_id":"792d7249-89f9-4f4b-bdcd-35ee2f559f92","system_id":"levelo_inurba_marseille","lat":43.30549,"lon":5.36707,"is_reserved":false,"is_disabled":false,"rental_uris":{"android":"levelo://app?vid=792d7249-89f9-4f4b-bdcd-35ee2f559f92","ios":"levelo://app?vid=792d7249-89f9-4f4b-bdcd-35ee2f559f92"},"vehicle_type_id":"4","last_reported":1774957162,"current_range_meters":8400,"station_id":"ce4bgrp2rcd13ifvqc9g","pricing_plan_id":"cebpf4jnsgd1na2vs0mg"},{"bike_id":"79129c40-9bd0-4de6-981a-faea7f55c070","system_id":"levelo_inurba_marseille","lat":43.24648,"lon":5.38892,"is_reserved":false,"is_disabled":false,"rental_uris":{"android":"levelo://app?vid=79129c40-9bd0-4de6-981a-faea7f55c070","ios":"levelo://app?vid=79129c40-9bd0-4de6-981a-faea7f55c070"},"vehicle_type_id":"4","last_reported":1774957162,"current_range_meters":8400,"station_id":"ce4bhg12rcd13ifvqf60","pricing_plan_id":"cebpf4jnsgd1na2vs0mg"},{"bike_id":"7d92f2c8-853d-41b9-8736-a59dd1a303bd","system_id":"levelo_inurba_marseille","lat":43.32115,"lon":5.36766,"is_reserved":false,"is_disabled":false,"rental_uris":{"android":"levelo://app?vid=7d92f2c8-853d-41b9-8736-a59dd1a303bd","ios":"levelo://app?vid=7d92f2c8-853d-41b9-8736-a59dd1a303bd"},"vehicle_type_id":"4","last_reported":1774957162,"current_range_meters":8400,"station_id":"ce4bhrh2rcd13ifvqhug","pricing_plan_id":"cebpf4jnsgd1na2vs0mg"},{"bike_id":"aa363bcf-731a-43c6-a6f8-7c62b12a1925","system_id":"levelo_inurba_marseille","lat":43.28406,"lon":5.35005,"is_reserved":false,"is_disabled":false,"rental_uris":{"android":"levelo://app?vid=aa363bcf-731a-43c6-a6f8-7c62b12a1925","ios":"levelo://app?vid=aa363bcf-731a-43c6-a6f8-7c62b12a1925"},"vehicle_type_id":"4","last_reported":1774957162,"current_range_meters":8400,"station_id":"ce4bhbh2rcd13ifvqepg","pricing_plan_id":"cebpf4jnsgd1na2vs0mg"},{"bike_id":"8b972516-364d-4c36-a2f6-f81da10bf5ee","system_id":"levelo_inurba_marseille","lat":43.30138,"lon":5.43108,"is_reserved":false,"is_disabled":false,"rental_uris":{"android":"levelo://app?vid=8b972516-364d-4c36-a2f6-f81da10bf5ee","ios":"levelo://app?vid=8b972516-364d-4c36-a2f6-f81da10bf5ee"},"vehicle_type_id":"4","last_reported":1774957162,"current_range_meters":8400,"station_id":"st_d3js3co5814s73ftftug","pricing_plan_id":"cebpf4jnsgd1na2vs0mg"},{"bike_id":"ced229b1-9569-4670-88e3-54708ff7810b","system_id":"levelo_inurba_marseille","lat":43.27494,"lon":5.42447,"is_reserved":false,"is_disabled":false,"rental_uris":{"android":"levelo://app?vid=ced229b1-9569-4670-88e3-54708ff7810b","ios":"levelo://app?vid=ced229b1-9569-4670-88e3-54708ff7810b"},"vehicle_type_id":"4","last_reported":1774957162,"current_range_meters":8400,"station_id":"ce4bhn92rcd13ifvqgrg","pricing_plan_id":"cebpf4jnsgd1na2vs0mg"},{"bike_id":"3de52450-d4a7-4286-b73b-a7b21472ef8e","system_id":"levelo_inurba_marseille","lat":43.30134,"lon":5.37419,"is_reserved":false,"is_disabled":false,"rental_uris":{"android":"levelo://app?vid=3de52450-d4a7-4286-b73b-a7b21472ef8e","ios":"levelo://app?vid=3de52450-d4a7-4286-b73b-a7b21472ef8e"},"vehicle_type_id":"4","last_reported":1774957162,"current_range_meters":8400,"station_id":"ce4bgs92rcd13ifvqcc0","pricing_plan_id":"cebpf4jnsgd1na2vs0mg"},{"bike_id":"fbb75834-f22e-4b0c-a13f-b3782403aa38","system_id":"levelo_inurba_marseille","lat":43.23964,"lon":5.36629,"is_reserved":false,"is_disabled":false,"rental_uris":{"android":"levelo://app?vid=fbb75834-f22e-4b0c-a13f-b3782403aa38","ios":"levelo://app?vid=fbb75834-f22e-4b0c-a13f-b3782403aa38"},"vehicle_type_id":"4","last_reported":1774957162,"current_range_meters":8400,"station_id":"ce4bhi12rcd13ifvqfp0","pricing_plan_id":"cebpf4jnsgd1na2vs0mg"},{"bike_id":"5ced3b39-1e0a-4272-a263-cb3ab935ebc8","system_id":"levelo_inurba_marseille","lat":43.31367,"lon":5.38487,"is_reserved":false,"is_disabled":false,"rental_uris":{"android":"levelo://app?vid=5ced3b39-1e0a-4272-a263-cb3ab935ebc8","ios":"levelo://app?vid=5ced3b39-1e0a-4272-a263-cb3ab935ebc8"},"vehicle_type_id":"4","last_reported":1774957162,"current_range_meters":8400,"station_id":"ce4bgt92rcd13ifvqcf0","pricing_plan_id":"cebpf4jnsgd1na2vs0mg"},{"bike_id":"15eb4f4d-a16a-450e-aa13-dca03e151336","system_id":"levelo_inurba_marseille","lat":43.25591,"lon":5.38202,"is_reserved":false,"is_disabled":false,"rental_uris":{"android":"levelo://app?vid=15eb4f4d-a16a-450e-aa13-dca03e151336","ios":"levelo://app?vid=15eb4f4d-a16a-450e-aa13-dca03e151336"},"vehicle_type_id":"4","last_reported":1774957162,"current_range_meters":8400,"station_id":"ce4bhih2rcd13ifvqfs0","pricing_plan_id":"cebpf4jnsgd1na2vs0mg"},{"bike_id":"0ebcc71a-1070-45ee-8791-56ad76c8f07f","system_id":"levelo_inurba_marseille","lat":43.26396,"lon":5.41074,"is_reserved":false,"is_disabled":false,"rental_uris":{"android":"levelo://app?vid=0ebcc71a-1070-45ee-8791-56ad76c8f07f","ios":"levelo://app?vid=0ebcc71a-1070-45ee-8791-56ad76c8f07f"},"vehicle_type_id":"4","last_reported":1774957162,"current_range_meters":8400,"station_id":"st_d4e5ca6na9uc73bfl5fg","pricing_plan_id":"cebpf4jnsgd1na2vs0mg"},{"bike_id":"4ae3b3df-c9b9-448a-b31e-9e23f0cbc0f7","system_id":"levelo_inurba_marseille","lat":43.30316,"lon":5.36886,"is_reserved":false,"is_disabled":false,"rental_uris":{"android":"levelo://app?vid=4ae3b3df-c9b9-448a-b31e-9e23f0cbc0f7","ios":"levelo://app?vid=4ae3b3df-c9b9-448a-b31e-9e23f0cbc0f7"},"vehicle_type_id":"4","last_reported":1774957162,"current_range_meters":8400,"station_id":"ce4bgqh2rcd13ifvqc5g","pricing_plan_id":"cebpf4jnsgd1na2vs0mg"},{"bike_id":"d817f2a4-6301-4ddf-8d9f-820c7eea3a1e","system_id":"levelo_inurba_marseille","lat":43.29364,"lon":5.37839,"is_reserved":false,"is_disabled":false,"rental_uris":{"android":"levelo://app?vid=d817f2a4-6301-4ddf-8d9f-820c7eea3a1e","ios":"levelo://app?vid=d817f2a4-6301-4ddf-8d9f-820c7eea3a1e"},"vehicle_type_id":"4","last_reported":1774957162,"current_range_meters":8800,"station_id":"ce4bgjh2rcd13ifvqbf0","pricing_plan_id":"cebpf4jnsgd1na2vs0mg"},{"bike_id":"dfb946ce-fedb-4e12-8519-cb8fb15a5c14","system_id":"levelo_inurba_marseille","lat":43.24168,"lon":5.36402,"is_reserved":false,"is_disabled":false,"rental_uris":{"android":"levelo://app?vid=dfb946ce-fedb-4e12-8519-cb8fb15a5c14","ios":"levelo://app?vid=dfb946ce-fedb-4e12-8519-cb8fb15a5c14"},"vehicle_type_id":"4","last_reported":1774957162,"current_range_meters":8800,"station_id":"cpo36qri1sfpv3e86is0","pricing_plan_id":"cebpf4jnsgd1na2vs0mg"},{"bike_id":"54b32ec7-ddfd-41e6-ae23-087da91e8924","system_id":"levelo_inurba_marseille","lat":43.299,"lon":5.43675,"is_reserved":false,"is_disabled":false,"rental_uris":{"android":"levelo://app?vid=54b32ec7-ddfd-41e6-ae23-087da91e8924","ios":"levelo://app?vid=54b32ec7-ddfd-41e6-ae23-087da91e8924"},"vehicle_type_id":"4","last_reported":1774957162,"current_range_meters":8800,"station_id":"ce4bhpp2rcd13ifvqhfg","pricing_plan_id":"cebpf4jnsgd1na2vs0mg"},{"bike_id":"ace2b5ee-1355-40d7-ba59-bba7c913ea22","system_id":"levelo_inurba_marseille","lat":43.337444,"lon":5.374475,"is_reserved":false,"is_disabled":true,"rental_uris":{"android":"levelo://app?vid=ace2b5ee-1355-40d7-ba59-bba7c913ea22","ios":"levelo://app?vid=ace2b5ee-1355-40d7-ba59-bba7c913ea22"},"vehicle_type_id":"4","last_reported":1774957162,"current_range_meters":8800,"station_id":"","pricing_plan_id":"cebpf4jnsgd1na2vs0mg"},{"bike_id":"97911566-b39d-4772-9786-37508c49e45f","system_id":"levelo_inurba_marseille","lat":43.22559,"lon":5.41632,"is_reserved":false,"is_disabled":false,"rental_uris":{"android":"levelo://app?vid=97911566-b39d-4772-9786-37508c49e45f","ios":"levelo://app?vid=97911566-b39d-4772-9786-37508c49e45f"},"vehicle_type_id":"4","last_reported":1774957162,"current_range_meters":8800,"station_id":"st_d2o4gvlbi1j2169b742g","pricing_plan_id":"cebpf4jnsgd1na2vs0mg"},{"bike_id":"1130d409-34d2-42ba-a5d5-ed99d6325005","system_id":"levelo_inurba_marseille","lat":43.21765,"lon":5.34591,"is_reserved":false,"is_disabled":false,"rental_uris":{"android":"levelo://app?vid=1130d409-34d2-42ba-a5d5-ed99d6325005","ios":"levelo://app?vid=1130d409-34d2-42ba-a5d5-ed99d6325005"},"vehicle_type_id":"4","last_reported":1774957162,"current_range_meters":8800,"station_id":"st_cvj6r9ubvosntc0bgbag","pricing_plan_id":"cebpf4jnsgd1na2vs0mg"},{"bike_id":"d90b30f7-db03-414a-88e2-268b512c6ce2","system_id":"levelo_inurba_marseille","lat":43.24991,"lon":5.38908,"is_reserved":false,"is_disabled":false,"rental_uris":{"android":"levelo://app?vid=d90b30f7-db03-414a-88e2-268b512c6ce2","ios":"levelo://app?vid=d90b30f7-db03-414a-88e2-268b512c6ce2"},"vehicle_type_id":"4","last_reported":1774957162,"current_range_meters":8800,"station_id":"ce4bhgp2rcd13ifvqfd0","pricing_plan_id":"cebpf4jnsgd1na2vs0mg"},{"bike_id":"61440877-f954-42f0-a72d-12f419300a5f","system_id":"levelo_inurba_marseille","lat":43.31253,"lon":5.36834,"is_reserved":false,"is_disabled":false,"rental_uris":{"android":"levelo://app?vid=61440877-f954-42f0-a72d-12f419300a5f","ios":"levelo://app?vid=61440877-f954-42f0-a72d-12f419300a5f"},"vehicle_type_id":"4","last_reported":1774957162,"current_range_meters":8800,"station_id":"ce4bgl92rcd13ifvqbq0","pricing_plan_id":"cebpf4jnsgd1na2vs0mg"},{"bike_id":"73c4efbd-409e-4935-a7bb-e77776c50946","system_id":"levelo_inurba_marseille","lat":43.30561,"lon":5.36515,"is_reserved":false,"is_disabled":false,"rental_uris":{"android":"levelo://app?vid=73c4efbd-409e-4935-a7bb-e77776c50946","ios":"levelo://app?vid=73c4efbd-409e-4935-a7bb-e77776c50946"},"vehicle_type_id":"4","last_reported":1774957162,"current_range_meters":8800,"station_id":"ce4bgs12rcd13ifvqcag","pricing_plan_id":"cebpf4jnsgd1na2vs0mg"},{"bike_id":"d41d5ff3-651c-4e70-8a12-e8a105b53c64","system_id":"levelo_inurba_marseille","lat":43.31584,"lon":5.44549,"is_reserved":false,"is_disabled":false,"rental_uris":{"android":"levelo://app?vid=d41d5ff3-651c-4e70-8a12-e8a105b53c64","ios":"levelo://app?vid=d41d5ff3-651c-4e70-8a12-e8a105b53c64"},"vehicle_type_id":"4","last_reported":1774957162,"current_range_meters":8800,"station_id":"","pricing_plan_id":"cebpf4jnsgd1na2vs0mg"},{"bike_id":"6276456d-eab5-42a9-8838-efbb0796edbd","system_id":"levelo_inurba_marseille","lat":43.29879,"lon":5.38914,"is_reserved":false,"is_disabled":false,"rental_uris":{"android":"levelo://app?vid=6276456d-eab5-42a9-8838-efbb0796edbd","ios":"levelo://app?vid=6276456d-eab5-42a9-8838-efbb0796edbd"},"vehicle_type_id":"4","last_reported":1774957162,"current_range_meters":8800,"station_id":"ce4bh392rcd13ifvqdl0","pricing_plan_id":"cebpf4jnsgd1na2vs0mg"},{"bike_id":"28a174e6-e461-46f7-a9aa-9cc8161d472d","system_id":"levelo_inurba_marseille","lat":43.23158,"lon":5.43704,"is_reserved":false,"is_disabled":false,"rental_uris":{"android":"levelo://app?vid=28a174e6-e461-46f7-a9aa-9cc8161d472d","ios":"levelo://app?vid=28a174e6-e461-46f7-a9aa-9cc8161d472d"},"vehicle_type_id":"4","last_reported":1774957162,"current_range_meters":8800,"station_id":"ce4bhmp2rcd13ifvqgog","pricing_plan_id":"cebpf4jnsgd1na2vs0mg"},{"bike_id":"b53f224e-5c2b-47b3-a19b-0c6884245c31","system_id":"levelo_inurba_marseille","lat":43.23971,"lon":5.36618,"is_reserved":false,"is_disabled":false,"rental_uris":{"android":"levelo://app?vid=b53f224e-5c2b-47b3-a19b-0c6884245c31","ios":"levelo://app?vid=b53f224e-5c2b-47b3-a19b-0c6884245c31"},"vehicle_type_id":"4","last_reported":1774957162,"current_range_meters":8800,"station_id":"ce4bhi12rcd13ifvqfp0","pricing_plan_id":"cebpf4jnsgd1na2vs0mg"},{"bike_id":"d3f57e12-d09e-4da8-bc47-d71e04598bbd","system_id":"levelo_inurba_marseille","lat":43.3134,"lon":5.36652,"is_reserved":false,"is_disabled":false,"rental_uris":{"android":"levelo://app?vid=d3f57e12-d09e-4da8-bc47-d71e04598bbd","ios":"levelo://app?vid=d3f57e12-d09e-4da8-bc47-d71e04598bbd"},"vehicle_type_id":"4","last_reported":1774957162,"current_range_meters":8800,"station_id":"ce4bgr92rcd13ifvqc6g","pricing_plan_id":"cebpf4jnsgd1na2vs0mg"},{"bike_id":"2472a388-2ba6-406a-93b5-09de3d970e91","system_id":"levelo_inurba_marseille","lat":43.24408,"lon":5.37032,"is_reserved":false,"is_disabled":false,"rental_uris":{"android":"levelo://app?vid=2472a388-2ba6-406a-93b5-09de3d970e91","ios":"levelo://app?vid=2472a388-2ba6-406a-93b5-09de3d970e91"},"vehicle_type_id":"4","last_reported":1774957162,"current_range_meters":8800,"station_id":"ce4bhhh2rcd13ifvqfk0","pricing_plan_id":"cebpf4jnsgd1na2vs0mg"},{"bike_id":"82ef25fe-ced1-4b2f-9f5f-f3e9366b70f0","system_id":"levelo_inurba_marseille","lat":43.28485,"lon":5.48409,"is_reserved":false,"is_disabled":false,"rental_uris":{"android":"levelo://app?vid=82ef25fe-ced1-4b2f-9f5f-f3e9366b70f0","ios":"levelo://app?vid=82ef25fe-ced1-4b2f-9f5f-f3e9366b70f0"},"vehicle_type_id":"4","last_reported":1774957162,"current_range_meters":8800,"station_id":"st_d3svhcjqgbts73a3dn0g","pricing_plan_id":"cebpf4jnsgd1na2vs0mg"},{"bike_id":"55ef2f50-62e6-4905-b5cb-f6c29f85d6f9","system_id":"levelo_inurba_marseille","lat":43.28666,"lon":5.34994,"is_reserved":false,"is_disabled":false,"rental_uris":{"android":"levelo://app?vid=55ef2f50-62e6-4905-b5cb-f6c29f85d6f9","ios":"levelo://app?vid=55ef2f50-62e6-4905-b5cb-f6c29f85d6f9"},"vehicle_type_id":"4","last_reported":1774957162,"current_range_meters":8800,"station_id":"","pricing_plan_id":"cebpf4jnsgd1na2vs0mg"},{"bike_id":"1b957733-84d6-4d17-8f2b-ecfa19890447","system_id":"levelo_inurba_marseille","lat":43.33543,"lon":5.37465,"is_reserved":false,"is_disabled":false,"rental_uris":{"android":"levelo://app?vid=1b957733-84d6-4d17-8f2b-ecfa19890447","ios":"levelo://app?vid=1b957733-84d6-4d17-8f2b-ecfa19890447"},"vehicle_type_id":"4","last_reported":1774957162,"current_range_meters":8800,"station_id":"st_d46tts09ee8s73dlu43g","pricing_plan_id":"cebpf4jnsgd1na2vs0mg"},{"bike_id":"72509681-52aa-4782-9de0-820bb878387d","system_id":"levelo_inurba_marseille","lat":43.22554,"lon":5.41655,"is_reserved":false,"is_disabled":false,"rental_uris":{"android":"levelo://app?vid=72509681-52aa-4782-9de0-820bb878387d","ios":"levelo://app?vid=72509681-52aa-4782-9de0-820bb878387d"},"vehicle_type_id":"4","last_reported":1774957162,"current_range_meters":8800,"station_id":"st_d2o4gvlbi1j2169b742g","pricing_plan_id":"cebpf4jnsgd1na2vs0mg"},{"bike_id":"f2a7e3a5-cac5-4b5c-9077-f8604e7b1b43","system_id":"levelo_inurba_marseille","lat":43.30287,"lon":5.42487,"is_reserved":false,"is_disabled":false,"rental_uris":{"android":"levelo://app?vid=f2a7e3a5-cac5-4b5c-9077-f8604e7b1b43","ios":"levelo://app?vid=f2a7e3a5-cac5-4b5c-9077-f8604e7b1b43"},"vehicle_type_id":"4","last_reported":1774957162,"current_range_meters":8800,"station_id":"","pricing_plan_id":"cebpf4jnsgd1na2vs0mg"},{"bike_id":"75c04b9c-5aff-40ac-8cc0-c5674022a0e5","system_id":"levelo_inurba_marseille","lat":43.23146,"lon":5.43703,"is_reserved":false,"is_disabled":false,"rental_uris":{"android":"levelo://app?vid=75c04b9c-5aff-40ac-8cc0-c5674022a0e5","ios":"levelo://app?vid=75c04b9c-5aff-40ac-8cc0-c5674022a0e5"},"vehicle_type_id":"4","last_reported":1774957162,"current_range_meters":8800,"station_id":"ce4bhmp2rcd13ifvqgog","pricing_plan_id":"cebpf4jnsgd1na2vs0mg"},{"bike_id":"91b9f26a-0e95-4320-8860-0ddfe93c00e5","system_id":"levelo_inurba_marseille","lat":43.33538,"lon":5.37437,"is_reserved":false,"is_disabled":false,"rental_uris":{"android":"levelo://app?vid=91b9f26a-0e95-4320-8860-0ddfe93c00e5","ios":"levelo://app?vid=91b9f26a-0e95-4320-8860-0ddfe93c00e5"},"vehicle_type_id":"4","last_reported":1774957162,"current_range_meters":9200,"station_id":"st_d46tts09ee8s73dlu43g","pricing_plan_id":"cebpf4jnsgd1na2vs0mg"},{"bike_id":"e5a7a53a-b267-4440-9c9f-66f6b2ca226b","system_id":"levelo_inurba_marseille","lat":43.29602,"lon":5.37193,"is_reserved":false,"is_disabled":false,"rental_uris":{"android":"levelo://app?vid=e5a7a53a-b267-4440-9c9f-66f6b2ca226b","ios":"levelo://app?vid=e5a7a53a-b267-4440-9c9f-66f6b2ca226b"},"vehicle_type_id":"4","last_reported":1774957162,"current_range_meters":9200,"station_id":"ce4bgnh2rcd13ifvqc0g","pricing_plan_id":"cebpf4jnsgd1na2vs0mg"},{"bike_id":"140d59d9-5fe1-4f30-b8f2-8350c1b6a55b","system_id":"levelo_inurba_marseille","lat":43.28417,"lon":5.34968,"is_reserved":false,"is_disabled":false,"rental_uris":{"android":"levelo://app?vid=140d59d9-5fe1-4f30-b8f2-8350c1b6a55b","ios":"levelo://app?vid=140d59d9-5fe1-4f30-b8f2-8350c1b6a55b"},"vehicle_type_id":"4","last_reported":1774957162,"current_range_meters":9200,"station_id":"ce4bhbh2rcd13ifvqepg","pricing_plan_id":"cebpf4jnsgd1na2vs0mg"},{"bike_id":"9c014c21-0814-46e2-9079-4ed86b4000e6","system_id":"levelo_inurba_marseille","lat":43.23772,"lon":5.36672,"is_reserved":false,"is_disabled":false,"rental_uris":{"android":"levelo://app?vid=9c014c21-0814-46e2-9079-4ed86b4000e6","ios":"levelo://app?vid=9c014c21-0814-46e2-9079-4ed86b4000e6"},"vehicle_type_id":"4","last_reported":1774957162,"current_range_meters":9200,"station_id":"st_d3nk18o9ro0c73en2l3g","pricing_plan_id":"cebpf4jnsgd1na2vs0mg"},{"bike_id":"06b4a9fd-fc4b-4dca-876a-b67e6fcc05d3","system_id":"levelo_inurba_marseille","lat":43.29023,"lon":5.38128,"is_reserved":false,"is_disabled":false,"rental_uris":{"android":"levelo://app?vid=06b4a9fd-fc4b-4dca-876a-b67e6fcc05d3","ios":"levelo://app?vid=06b4a9fd-fc4b-4dca-876a-b67e6fcc05d3"},"vehicle_type_id":"4","last_reported":1774957162,"current_range_meters":9200,"station_id":"ce4bh4p2rcd13ifvqe1g","pricing_plan_id":"cebpf4jnsgd1na2vs0mg"},{"bike_id":"abf26066-62e3-4844-81c2-27377d8e3830","system_id":"levelo_inurba_marseille","lat":43.27093,"lon":5.40241,"is_reserved":false,"is_disabled":false,"rental_uris":{"android":"levelo://app?vid=abf26066-62e3-4844-81c2-27377d8e3830","ios":"levelo://app?vid=abf26066-62e3-4844-81c2-27377d8e3830"},"vehicle_type_id":"4","last_reported":1774957162,"current_range_meters":9200,"station_id":"ce4bhk92rcd13ifvqgc0","pricing_plan_id":"cebpf4jnsgd1na2vs0mg"},{"bike_id":"bbe47512-0bee-4235-aaf4-5e9f39a93bf0","system_id":"levelo_inurba_marseille","lat":43.28437,"lon":5.34999,"is_reserved":false,"is_disabled":false,"rental_uris":{"android":"levelo://app?vid=bbe47512-0bee-4235-aaf4-5e9f39a93bf0","ios":"levelo://app?vid=bbe47512-0bee-4235-aaf4-5e9f39a93bf0"},"vehicle_type_id":"4","last_reported":1774957162,"current_range_meters":9200,"station_id":"ce4bhbh2rcd13ifvqepg","pricing_plan_id":"cebpf4jnsgd1na2vs0mg"},{"bike_id":"fae0b53f-00f1-45b9-a1ad-74d490e431a9","system_id":"levelo_inurba_marseille","lat":43.225307,"lon":5.348402,"is_reserved":false,"is_disabled":false,"rental_uris":{"android":"levelo://app?vid=fae0b53f-00f1-45b9-a1ad-74d490e431a9","ios":"levelo://app?vid=fae0b53f-00f1-45b9-a1ad-74d490e431a9"},"vehicle_type_id":"4","last_reported":1774957162,"current_range_meters":9200,"station_id":"st_cvj5dfep6f1abm77gieg","pricing_plan_id":"cebpf4jnsgd1na2vs0mg"},{"bike_id":"33f3c10f-22cd-4c73-a574-94b484b74c9e","system_id":"levelo_inurba_marseille","lat":43.28547,"lon":5.44102,"is_reserved":false,"is_disabled":false,"rental_uris":{"android":"levelo://app?vid=33f3c10f-22cd-4c73-a574-94b484b74c9e","ios":"levelo://app?vid=33f3c10f-22cd-4c73-a574-94b484b74c9e"},"vehicle_type_id":"4","last_reported":1774957162,"current_range_meters":9200,"station_id":"st_d3j3df2ikq2c7380ej80","pricing_plan_id":"cebpf4jnsgd1na2vs0mg"},{"bike_id":"0f182db9-a1f9-46fd-9199-275e74a125d7","system_id":"levelo_inurba_marseille","lat":43.24174,"lon":5.36398,"is_reserved":false,"is_disabled":false,"rental_uris":{"android":"levelo://app?vid=0f182db9-a1f9-46fd-9199-275e74a125d7","ios":"levelo://app?vid=0f182db9-a1f9-46fd-9199-275e74a125d7"},"vehicle_type_id":"4","last_reported":1774957162,"current_range_meters":9200,"station_id":"cpo36qri1sfpv3e86is0","pricing_plan_id":"cebpf4jnsgd1na2vs0mg"},{"bike_id":"2d58bf91-71e1-4147-a104-529892c17140","system_id":"levelo_inurba_marseille","lat":43.30551,"lon":5.36686,"is_reserved":false,"is_disabled":false,"rental_uris":{"android":"levelo://app?vid=2d58bf91-71e1-4147-a104-529892c17140","ios":"levelo://app?vid=2d58bf91-71e1-4147-a104-529892c17140"},"vehicle_type_id":"4","last_reported":1774957162,"current_range_meters":9200,"station_id":"ce4bgrp2rcd13ifvqc9g","pricing_plan_id":"cebpf4jnsgd1na2vs0mg"},{"bike_id":"42e2fa2e-2abd-4f21-bc0b-5516973efff4","system_id":"levelo_inurba_marseille","lat":43.2454,"lon":5.39526,"is_reserved":false,"is_disabled":false,"rental_uris":{"android":"levelo://app?vid=42e2fa2e-2abd-4f21-bc0b-5516973efff4","ios":"levelo://app?vid=42e2fa2e-2abd-4f21-bc0b-5516973efff4"},"vehicle_type_id":"4","last_reported":1774957162,"current_range_meters":9200,"station_id":"ce4bhlp2rcd13ifvqgjg","pricing_plan_id":"cebpf4jnsgd1na2vs0mg"},{"bike_id":"2e021c0d-9da7-4d86-8b55-eda60831bb80","system_id":"levelo_inurba_marseille","lat":43.305361,"lon":5.365611,"is_reserved":false,"is_disabled":false,"rental_uris":{"android":"levelo://app?vid=2e021c0d-9da7-4d86-8b55-eda60831bb80","ios":"levelo://app?vid=2e021c0d-9da7-4d86-8b55-eda60831bb80"},"vehicle_type_id":"4","last_reported":1774957162,"current_range_meters":9200,"station_id":"ce4bgs12rcd13ifvqcag","pricing_plan_id":"cebpf4jnsgd1na2vs0mg"},{"bike_id":"4f461c12-a839-4112-843e-a559d023da9c","system_id":"levelo_inurba_marseille","lat":43.21185,"lon":5.35072,"is_reserved":false,"is_disabled":false,"rental_uris":{"android":"levelo://app?vid=4f461c12-a839-4112-843e-a559d023da9c","ios":"levelo://app?vid=4f461c12-a839-4112-843e-a559d023da9c"},"vehicle_type_id":"4","last_reported":1774957162,"current_range_meters":9200,"station_id":"st_cvj6sg6p6f1abm77japg","pricing_plan_id":"cebpf4jnsgd1na2vs0mg"},{"bike_id":"08e71c86-43a8-4902-86cf-de3f77db33e6","system_id":"levelo_inurba_marseille","lat":43.29691,"lon":5.44437,"is_reserved":false,"is_disabled":false,"rental_uris":{"android":"levelo://app?vid=08e71c86-43a8-4902-86cf-de3f77db33e6","ios":"levelo://app?vid=08e71c86-43a8-4902-86cf-de3f77db33e6"},"vehicle_type_id":"4","last_reported":1774957162,"current_range_meters":9200,"station_id":"","pricing_plan_id":"cebpf4jnsgd1na2vs0mg"},{"bike_id":"f994d906-16d8-4b1a-869e-3ac991c8f7a9","system_id":"levelo_inurba_marseille","lat":43.24391,"lon":5.37037,"is_reserved":false,"is_disabled":false,"rental_uris":{"android":"levelo://app?vid=f994d906-16d8-4b1a-869e-3ac991c8f7a9","ios":"levelo://app?vid=f994d906-16d8-4b1a-869e-3ac991c8f7a9"},"vehicle_type_id":"4","last_reported":1774957162,"current_range_meters":9200,"station_id":"ce4bhhh2rcd13ifvqfk0","pricing_plan_id":"cebpf4jnsgd1na2vs0mg"},{"bike_id":"47b225a9-0fa8-4f3e-a89e-400288b0b7ce","system_id":"levelo_inurba_marseille","lat":43.29931,"lon":5.37468,"is_reserved":false,"is_disabled":false,"rental_uris":{"android":"levelo://app?vid=47b225a9-0fa8-4f3e-a89e-400288b0b7ce","ios":"levelo://app?vid=47b225a9-0fa8-4f3e-a89e-400288b0b7ce"},"vehicle_type_id":"4","last_reported":1774957162,"current_range_meters":9200,"station_id":"ce4bgjh2rcd13ifvqbg0","pricing_plan_id":"cebpf4jnsgd1na2vs0mg"},{"bike_id":"ec7f1113-7689-4025-9f13-3d4deb94a203","system_id":"levelo_inurba_marseille","lat":43.31045,"lon":5.3858,"is_reserved":false,"is_disabled":false,"rental_uris":{"android":"levelo://app?vid=ec7f1113-7689-4025-9f13-3d4deb94a203","ios":"levelo://app?vid=ec7f1113-7689-4025-9f13-3d4deb94a203"},"vehicle_type_id":"4","last_reported":1774957162,"current_range_meters":9200,"station_id":"","pricing_plan_id":"cebpf4jnsgd1na2vs0mg"},{"bike_id":"2c9a0922-0198-4256-b2ac-2c0d229a41e5","system_id":"levelo_inurba_marseille","lat":43.31475,"lon":5.36422,"is_reserved":false,"is_disabled":false,"rental_uris":{"android":"levelo://app?vid=2c9a0922-0198-4256-b2ac-2c0d229a41e5","ios":"levelo://app?vid=2c9a0922-0198-4256-b2ac-2c0d229a41e5"},"vehicle_type_id":"4","last_reported":1774957162,"current_range_meters":9600,"station_id":"","pricing_plan_id":"cebpf4jnsgd1na2vs0mg"},{"bike_id":"435393ff-9e8e-4fa2-82a4-6ce12bbccbed","system_id":"levelo_inurba_marseille","lat":43.28482,"lon":5.48404,"is_reserved":false,"is_disabled":false,"rental_uris":{"android":"levelo://app?vid=435393ff-9e8e-4fa2-82a4-6ce12bbccbed","ios":"levelo://app?vid=435393ff-9e8e-4fa2-82a4-6ce12bbccbed"},"vehicle_type_id":"4","last_reported":1774957162,"current_range_meters":9600,"station_id":"st_d3svhcjqgbts73a3dn0g","pricing_plan_id":"cebpf4jnsgd1na2vs0mg"},{"bike_id":"1fd14647-60cf-49f0-a971-843beb62395e","system_id":"levelo_inurba_marseille","lat":43.28542,"lon":5.44078,"is_reserved":false,"is_disabled":false,"rental_uris":{"android":"levelo://app?vid=1fd14647-60cf-49f0-a971-843beb62395e","ios":"levelo://app?vid=1fd14647-60cf-49f0-a971-843beb62395e"},"vehicle_type_id":"4","last_reported":1774957162,"current_range_meters":9600,"station_id":"st_d3j3df2ikq2c7380ej80","pricing_plan_id":"cebpf4jnsgd1na2vs0mg"},{"bike_id":"0d0c8f03-48a7-4e97-9825-e79885ed278e","system_id":"levelo_inurba_marseille","lat":43.23055,"lon":5.35486,"is_reserved":false,"is_disabled":false,"rental_uris":{"android":"levelo://app?vid=0d0c8f03-48a7-4e97-9825-e79885ed278e","ios":"levelo://app?vid=0d0c8f03-48a7-4e97-9825-e79885ed278e"},"vehicle_type_id":"4","last_reported":1774957162,"current_range_meters":9600,"station_id":"cpo3342slgdg3j2ifvpg","pricing_plan_id":"cebpf4jnsgd1na2vs0mg"},{"bike_id":"10143625-4f1f-4b98-a23a-f0e119d830ff","system_id":"levelo_inurba_marseille","lat":43.24849,"lon":5.37426,"is_reserved":false,"is_disabled":false,"rental_uris":{"android":"levelo://app?vid=10143625-4f1f-4b98-a23a-f0e119d830ff","ios":"levelo://app?vid=10143625-4f1f-4b98-a23a-f0e119d830ff"},"vehicle_type_id":"4","last_reported":1774957162,"current_range_meters":9600,"station_id":"ce4bhgh2rcd13ifvqfb0","pricing_plan_id":"cebpf4jnsgd1na2vs0mg"},{"bike_id":"ac750519-69a1-4eac-846f-31128d535c20","system_id":"levelo_inurba_marseille","lat":43.24394,"lon":5.37065,"is_reserved":false,"is_disabled":false,"rental_uris":{"android":"levelo://app?vid=ac750519-69a1-4eac-846f-31128d535c20","ios":"levelo://app?vid=ac750519-69a1-4eac-846f-31128d535c20"},"vehicle_type_id":"4","last_reported":1774957162,"current_range_meters":9600,"station_id":"ce4bhhh2rcd13ifvqfk0","pricing_plan_id":"cebpf4jnsgd1na2vs0mg"},{"bike_id":"67f59828-71ae-45a6-96ce-d8b147997bc0","system_id":"levelo_inurba_marseille","lat":43.25587,"lon":5.38246,"is_reserved":false,"is_disabled":false,"rental_uris":{"android":"levelo://app?vid=67f59828-71ae-45a6-96ce-d8b147997bc0","ios":"levelo://app?vid=67f59828-71ae-45a6-96ce-d8b147997bc0"},"vehicle_type_id":"4","last_reported":1774957162,"current_range_meters":9600,"station_id":"ce4bhih2rcd13ifvqfs0","pricing_plan_id":"cebpf4jnsgd1na2vs0mg"},{"bike_id":"a7b6f80b-8727-406d-9817-56eccd3f1755","system_id":"levelo_inurba_marseille","lat":43.25328,"lon":5.42158,"is_reserved":false,"is_disabled":false,"rental_uris":{"android":"levelo://app?vid=a7b6f80b-8727-406d-9817-56eccd3f1755","ios":"levelo://app?vid=a7b6f80b-8727-406d-9817-56eccd3f1755"},"vehicle_type_id":"4","last_reported":1774957162,"current_range_meters":9600,"station_id":"st_d2m65c5bi1j21697t3ng","pricing_plan_id":"cebpf4jnsgd1na2vs0mg"},{"bike_id":"de954c47-eb59-4108-8e03-be7a2eb455a6","system_id":"levelo_inurba_marseille","lat":43.30537,"lon":5.38429,"is_reserved":false,"is_disabled":true,"rental_uris":{"android":"levelo://app?vid=de954c47-eb59-4108-8e03-be7a2eb455a6","ios":"levelo://app?vid=de954c47-eb59-4108-8e03-be7a2eb455a6"},"vehicle_type_id":"4","last_reported":1774957162,"current_range_meters":9600,"station_id":"ce4bgg92rcd13ifvqb30","pricing_plan_id":"cebpf4jnsgd1na2vs0mg"},{"bike_id":"febd890f-8091-48ad-815e-abf0b801ed37","system_id":"levelo_inurba_marseille","lat":43.24411,"lon":5.37054,"is_reserved":false,"is_disabled":false,"rental_uris":{"android":"levelo://app?vid=febd890f-8091-48ad-815e-abf0b801ed37","ios":"levelo://app?vid=febd890f-8091-48ad-815e-abf0b801ed37"},"vehicle_type_id":"4","last_reported":1774957162,"current_range_meters":9600,"station_id":"ce4bhhh2rcd13ifvqfk0","pricing_plan_id":"cebpf4jnsgd1na2vs0mg"},{"bike_id":"32bbc785-7878-457c-9b63-c753cac045af","system_id":"levelo_inurba_marseille","lat":43.21751,"lon":5.34596,"is_reserved":false,"is_disabled":false,"rental_uris":{"android":"levelo://app?vid=32bbc785-7878-457c-9b63-c753cac045af","ios":"levelo://app?vid=32bbc785-7878-457c-9b63-c753cac045af"},"vehicle_type_id":"4","last_reported":1774957162,"current_range_meters":9600,"station_id":"st_cvj6r9ubvosntc0bgbag","pricing_plan_id":"cebpf4jnsgd1na2vs0mg"},{"bike_id":"a1b834e4-82e7-4fb4-a331-7a7b0084193a","system_id":"levelo_inurba_marseille","lat":43.30154,"lon":5.38085,"is_reserved":false,"is_disabled":false,"rental_uris":{"android":"levelo://app?vid=a1b834e4-82e7-4fb4-a331-7a7b0084193a","ios":"levelo://app?vid=a1b834e4-82e7-4fb4-a331-7a7b0084193a"},"vehicle_type_id":"4","last_reported":1774957162,"current_range_meters":9600,"station_id":"ce4bgjp2rcd13ifvqbh0","pricing_plan_id":"cebpf4jnsgd1na2vs0mg"},{"bike_id":"2bcb5a59-4116-4837-8844-fb985802179c","system_id":"levelo_inurba_marseille","lat":43.28532,"lon":5.44091,"is_reserved":false,"is_disabled":false,"rental_uris":{"android":"levelo://app?vid=2bcb5a59-4116-4837-8844-fb985802179c","ios":"levelo://app?vid=2bcb5a59-4116-4837-8844-fb985802179c"},"vehicle_type_id":"4","last_reported":1774957162,"current_range_meters":9600,"station_id":"st_d3j3df2ikq2c7380ej80","pricing_plan_id":"cebpf4jnsgd1na2vs0mg"},{"bike_id":"ebc36007-c039-437a-8a46-e186b0f66389","system_id":"levelo_inurba_marseille","lat":43.2655,"lon":5.37282,"is_reserved":false,"is_disabled":true,"rental_uris":{"android":"levelo://app?vid=ebc36007-c039-437a-8a46-e186b0f66389","ios":"levelo://app?vid=ebc36007-c039-437a-8a46-e186b0f66389"},"vehicle_type_id":"4","last_reported":1774957162,"current_range_meters":9600,"station_id":"ce4bhg12rcd13ifvqf70","pricing_plan_id":"cebpf4jnsgd1na2vs0mg"},{"bike_id":"c74fc560-026c-4e0f-adf1-9bdde42991db","system_id":"levelo_inurba_marseille","lat":43.25819,"lon":5.39427,"is_reserved":false,"is_disabled":false,"rental_uris":{"android":"levelo://app?vid=c74fc560-026c-4e0f-adf1-9bdde42991db","ios":"levelo://app?vid=c74fc560-026c-4e0f-adf1-9bdde42991db"},"vehicle_type_id":"4","last_reported":1774957162,"current_range_meters":9600,"station_id":"ce4bhip2rcd13ifvqft0","pricing_plan_id":"cebpf4jnsgd1na2vs0mg"},{"bike_id":"45c050e8-a329-47f8-a86f-69826197952f","system_id":"levelo_inurba_marseille","lat":43.24158,"lon":5.3641,"is_reserved":false,"is_disabled":false,"rental_uris":{"android":"levelo://app?vid=45c050e8-a329-47f8-a86f-69826197952f","ios":"levelo://app?vid=45c050e8-a329-47f8-a86f-69826197952f"},"vehicle_type_id":"4","last_reported":1774957162,"current_range_meters":9600,"station_id":"cpo36qri1sfpv3e86is0","pricing_plan_id":"cebpf4jnsgd1na2vs0mg"},