{"last_updated":1687615582,"ttl":30,"version":"2.2","data":{"bikes":[{"bike_id":"e0533316-dd1b-4187-944d-40456902eb3e","system_id":"levelo_inurba_marseille","lat":43.31341,"lon":5.367098,"is_reserved":false,"is_disabled":false,"rental_uris":{"android":"levelo://app?vid=e0533316-dd1b-4187-944d-40456902eb3e","ios":"levelo://app?vid=e0533316-dd1b-4187-944d-40456902eb3e"},"vehicle_type_id":"4","last_reported":1687615582,"current_range_meters":31600,"station_id":"ce4bgr92rcd13ifvqc6g","pricing_plan_id":"free"},{"bike_id":"789a5324-f028-46a3-8f18-3e8617fc08a3","system_id":"levelo_inurba_marseille","lat":43.31341,"lon":5.367098,"is_reserved":false,"is_disabled":false,"rental_uris":{"android":"levelo://app?vid=789a5324-f028-46a3-8f18-3e8617fc08a3","ios":"levelo://app?vid=789a5324-f028-46a3-8f18-3e8617fc08a3"},"vehicle_type_id":"4","last_reported":1687615582,"current_range_meters":22800,"station_id":"ce4bgr92rcd13ifvqc6g","pricing_plan_id":"free"},{"bike_id":"33f4bd82-e015-4c75-838b-b8ca97b28ad6","system_id":"levelo_inurba_marseille","lat":43.31341,"lon":5.367098,"is_reserved":false,"is_disabled":false,"rental_uris":{"android":"levelo://app?vid=33f4bd82-e015-4c75-838b-b8ca97b28ad6","ios":"levelo://app?vid=33f4bd82-e015-4c75-838b-b8ca97b28ad6"},"vehicle_type_id":"4","last_reported":1687615582,"current_range_meters":28000,"station_id":"ce4bgr92rcd13ifvqc6g","pricing_plan_id":"free"},{"bike_id":"5237be08-e2c0-4f6a-9dbd-c88f04f8c505","system_id":"levelo_inurba_marseille","lat":43.312239,"lon":5.368562,"is_reserved":false,"is_disabled":false,"rental_uris":{"android":"levelo://app?vid=5237be08-e2c0-4f6a-9dbd-c88f04f8c505","ios":"levelo://app?vid=5237be08-e2c0-4f6a-9dbd-c88f04f8c505"},"vehicle_type_id":"4","last_reported":1687615582,"current_range_meters":31200,"station_id":"ce4bgl92rcd13ifvqbq0","pricing_plan_id":"free"},{"bike_id":"fd4cdb32-6017-4d91-81c4-c3cb8f9246e2","system_id":"levelo_inurba_marseille","lat":43.312239,"lon":5.368562,"is_reserved":false,"is_disabled":false,"rental_uris":{"android":"levelo://app?vid=fd4cdb32-6017-4d91-81c4-c3cb8f9246e2","ios":"levelo://app?vid=fd4cdb32-6017-4d91-81c4-c3cb8f9246e2"},"vehicle_type_id":"4","last_reported":1687615582,"current_range_meters":28400,"station_id":"ce4bgl92rcd13ifvqbq0","pricing_plan_id":"free"},{"bike_id":"613b79af-2bf5-4727-98f7-6085624b44ee","system_id":"levelo_inurba_marseille","lat":43.312239,"lon":5.368562,"is_reserved":false,"is_disabled":false,"rental_uris":{"android":"levelo://app?vid=613b79af-2bf5-4727-98f7-6085624b44ee","ios":"levelo://app?vid=613b79af-2bf5-4727-98f7-6085624b44ee"},"vehicle_type_id":"4","last_reported":1687615582,"current_range_meters":28000,"station_id":"ce4bgl92rcd13ifvqbq0","pricing_plan_id":"free"},{"bike_id":"574b0a1c-fec8-48b0-8d9f-4fee07673be3","system_id":"levelo_inurba_marseille","lat":43.31237,"lon":5.36922,"is_reserved":false,"is_disabled":false,"rental_uris":{"android":"levelo://app?vid=574b0a1c-fec8-48b0-8d9f-4fee07673be3","ios":"levelo://app?vid=574b0a1c-fec8-48b0-8d9f-4fee07673be3"},"vehicle_type_id":"4","last_reported":1687615582,"current_range_meters":23600,"station_id":"","pricing_plan_id":"free"},{"bike_id":"7ca1729d-0d97-4dc2-9d96-9f162439fc46","system_id":"levelo_inurba_marseille","lat":43.309076,"lon":5.368465,"is_reserved":false,"is_disabled":false,"rental_uris":{"android":"levelo://app?vid=7ca1729d-0d97-4dc2-9d96-9f162439fc46","ios":"levelo://app?vid=7ca1729d-0d97-4dc2-9d96-9f162439fc46"},"vehicle_type_id":"4","last_reported":1687615582,"current_range_meters":31200,"station_id":"ce4bgn92rcd13ifvqbvg","pricing_plan_id":"free"},{"bike_id":"684bd6d9-196f-4b76-9de9-033668a0727b","system_id":"levelo_inurba_marseille","lat":43.314811,"lon":5.373103,"is_reserved":false,"is_disabled":false,"rental_uris":{"android":"levelo://app?vid=684bd6d9-196f-4b76-9de9-033668a0727b","ios":"levelo://app?vid=684bd6d9-196f-4b76-9de9-033668a0727b"},"vehicle_type_id":"4","last_reported":1687615582,"current_range_meters":31600,"station_id":"ce4bgt12rcd13ifvqcd0","pricing_plan_id":"free"},{"bike_id":"a2c5f010-68bc-4479-be62-74515de65df8","system_id":"levelo_inurba_marseille","lat":43.314811,"lon":5.373103,"is_reserved":false,"is_disabled":false,"rental_uris":{"android":"levelo://app?vid=a2c5f010-68bc-4479-be62-74515de65df8","ios":"levelo://app?vid=a2c5f010-68bc-4479-be62-74515de65df8"},"vehicle_type_id":"4","last_reported":1687615582,"current_range_meters":8400,"station_id":"ce4bgt12rcd13ifvqcd0","pricing_plan_id":"free"},{"bike_id":"cb8150d0-c207-4f5d-932b-b83930ad6d25","system_id":"levelo_inurba_marseille","lat":43.314811,"lon":5.373104,"is_reserved":false,"is_disabled":false,"rental_uris":{"android":"levelo://app?vid=cb8150d0-c207-4f5d-932b-b83930ad6d25","ios":"levelo://app?vid=cb8150d0-c207-4f5d-932b-b83930ad6d25"},"vehicle_type_id":"4","last_reported":1687615582,"current_range_meters":800,"station_id":"ce4bgt12rcd13ifvqcd0","pricing_plan_id":"free"},{"bike_id":"d15ae40a-876c-438b-a69d-7461aa895695","system_id":"levelo_inurba_marseille","lat":43.308614,"lon":5.372098,"is_reserved":false,"is_disabled":false,"rental_uris":{"android":"levelo://app?vid=d15ae40a-876c-438b-a69d-7461aa895695","ios":"levelo://app?vid=d15ae40a-876c-438b-a69d-7461aa895695"},"vehicle_type_id":"4","last_reported":1687615582,"current_range_meters":23200,"station_id":"ce4bguh2rcd13ifvqckg","pricing_plan_id":"free"},{"bike_id":"b8500519-5121-400a-87b4-af5c40ed0bb4","system_id":"levelo_inurba_marseille","lat":43.30515,"lon":5.36683,"is_reserved":false,"is_disabled":false,"rental_uris":{"android":"levelo://app?vid=b8500519-5121-400a-87b4-af5c40ed0bb4","ios":"levelo://app?vid=b8500519-5121-400a-87b4-af5c40ed0bb4"},"vehicle_type_id":"4","last_reported":1687615582,"current_range_meters":16800,"station_id":"","pricing_plan_id":"free"},{"bike_id":"63c2421f-0e5f-46d5-aa3e-d22f82917bc0","system_id":"levelo_inurba_marseille","lat":43.305989,"lon":5.37225,"is_reserved":false,"is_disabled":false,"rental_uris":{"android":"levelo://app?vid=63c2421f-0e5f-46d5-aa3e-d22f82917bc0","ios":"levelo://app?vid=63c2421f-0e5f-46d5-aa3e-d22f82917bc0"},"vehicle_type_id":"4","last_reported":1687615582,"current_range_meters":20000,"station_id":"ce4bgqh2rcd13ifvqc4g","pricing_plan_id":"free"},{"bike_id":"4c2aad19-9247-464f-98c9-5d25b2520166","system_id":"levelo_inurba_marseille","lat":43.305989,"lon":5.37225,"is_reserved":false,"is_disabled":false,"rental_uris":{"android":"levelo://app?vid=4c2aad19-9247-464f-98c9-5d25b2520166","ios":"levelo://app?vid=4c2aad19-9247-464f-98c9-5d25b2520166"},"vehicle_type_id":"4","last_reported":1687615582,"current_range_meters":12800,"station_id":"ce4bgqh2rcd13ifvqc4g","pricing_plan_id":"free"},{"bike_id":"98d8575d-d847-4509-935e-3e7f1ee2070c","system_id":"levelo_inurba_marseille","lat":43.305989,"lon":5.37225,"is_reserved":false,"is_disabled":false,"rental_uris":{"android":"levelo://app?vid=98d8575d-d847-4509-935e-3e7f1ee2070c","ios":"levelo://app?vid=98d8575d-d847-4509-935e-3e7f1ee2070c"},"vehicle_type_id":"4","last_reported":1687615582,"current_range_meters":29200,"station_id":"ce4bgqh2rcd13ifvqc4g","pricing_plan_id":"free"},{"bike_id":"35b57943-4990-46ce-8553-6bc0b8a489fa","system_id":"levelo_inurba_marseille","lat":43.311131,"lon":5.377651,"is_reserved":false,"is_disabled":false,"rental_uris":{"android":"levelo://app?vid=35b57943-4990-46ce-8553-6bc0b8a489fa","ios":"levelo://app?vid=35b57943-4990-46ce-8553-6bc0b8a489fa"},"vehicle_type_id":"4","last_reported":1687615582,"current_range_meters":400,"station_id":"ce4bgt92rcd13ifvqcg0","pricing_plan_id":"free"},{"bike_id":"91ad23c8-4029-4687-8d9e-957782f14337","system_id":"levelo_inurba_marseille","lat":43.31533,"lon":5.38037,"is_reserved":false,"is_disabled":false,"rental_uris":{"android":"levelo://app?vid=91ad23c8-4029-4687-8d9e-957782f14337","ios":"levelo://app?vid=91ad23c8-4029-4687-8d9e-957782f14337"},"vehicle_type_id":"4","last_reported":1687615582,"current_range_meters":29600,"station_id":"ce4bhsp2rcd13ifvqi50","pricing_plan_id":"free"},{"bike_id":"1c3f69b1-6421-40f9-b29f-a622cad1f4f4","system_id":"levelo_inurba_marseille","lat":43.315261,"lon":5.380529,"is_reserved":false,"is_disabled":false,"rental_uris":{"android":"levelo://app?vid=1c3f69b1-6421-40f9-b29f-a622cad1f4f4","ios":"levelo://app?vid=1c3f69b1-6421-40f9-b29f-a622cad1f4f4"},"vehicle_type_id":"4","last_reported":1687615582,"current_range_meters":28800,"station_id":"","pricing_plan_id":"free"},{"bike_id":"a03b677c-6724-4970-bee4-a5e265d460d4","system_id":"levelo_inurba_marseille","lat":43.308012,"lon":5.381511,"is_reserved":false,"is_disabled":false,"rental_uris":{"android":"levelo://app?vid=a03b677c-6724-4970-bee4-a5e265d460d4","ios":"levelo://app?vid=a03b677c-6724-4970-bee4-a5e265d460d4"},"vehicle_type_id":"4","last_reported":1687615582,"current_range_meters":2400,"station_id":"ce4bgt12rcd13ifvqce0","pricing_plan_id":"free"},{"bike_id":"9f5eb52a-707a-4abf-b22c-2c8da8a49894","system_id":"levelo_inurba_marseille","lat":43.304606,"lon":5.379026,"is_reserved":false,"is_disabled":false,"rental_uris":{"android":"levelo://app?vid=9f5eb52a-707a-4abf-b22c-2c8da8a49894","ios":"levelo://app?vid=9f5eb52a-707a-4abf-b22c-2c8da8a49894"},"vehicle_type_id":"4","last_reported":1687615582,"current_range_meters":30800,"station_id":"ce4bgup2rcd13ifvqcn0","pricing_plan_id":"free"},{"bike_id":"f024ea82-3354-43d3-be2c-9286bbb1369b","system_id":"levelo_inurba_marseille","lat":43.32,"lon":5.38152,"is_reserved":false,"is_disabled":false,"rental_uris":{"android":"levelo://app?vid=f024ea82-3354-43d3-be2c-9286bbb1369b","ios":"levelo://app?vid=f024ea82-3354-43d3-be2c-9286bbb1369b"},"vehicle_type_id":"4","last_reported":1687615582,"current_range_meters":20800,"station_id":"ce4bhr12rcd13ifvqhpg","pricing_plan_id":"free"},{"bike_id":"4fe29d76-4f01-4fe3-b76d-2425def84abb","system_id":"levelo_inurba_marseille","lat":43.31996,"lon":5.38162,"is_reserved":false,"is_disabled":false,"rental_uris":{"android":"levelo://app?vid=4fe29d76-4f01-4fe3-b76d-2425def84abb","ios":"levelo://app?vid=4fe29d76-4f01-4fe3-b76d-2425def84abb"},"vehicle_type_id":"4","last_reported":1687615582,"current_range_meters":11600,"station_id":"ce4bhr12rcd13ifvqhpg","pricing_plan_id":"free"},{"bike_id":"83a1adba-7542-4165-9c57-efefed53cde5","system_id":"levelo_inurba_marseille","lat":43.299222,"lon":5.365554,"is_reserved":false,"is_disabled":false,"rental_uris":{"android":"levelo://app?vid=83a1adba-7542-4165-9c57-efefed53cde5","ios":"levelo://app?vid=83a1adba-7542-4165-9c57-efefed53cde5"},"vehicle_type_id":"4","last_reported":1687615582,"current_range_meters":1200,"station_id":"ce4bgm92rcd13ifvqbr0","pricing_plan_id":"free"},{"bike_id":"af1e2415-7d2c-42c8-ab35-cdcfcd4e577a","system_id":"levelo_inurba_marseille","lat":43.298433,"lon":5.362774,"is_reserved":false,"is_disabled":false,"rental_uris":{"android":"levelo://app?vid=af1e2415-7d2c-42c8-ab35-cdcfcd4e577a","ios":"levelo://app?vid=af1e2415-7d2c-42c8-ab35-cdcfcd4e577a"},"vehicle_type_id":"4","last_reported":1687615582,"current_range_meters":19200,"station_id":"ce4bgpp2rcd13ifvqc3g","pricing_plan_id":"free"},{"bike_id":"60e9cced-a98e-4786-a5c3-b2a1206374af","system_id":"levelo_inurba_marseille","lat":43.30544,"lon":5.38427,"is_reserved":false,"is_disabled":false,"rental_uris":{"android":"levelo://app?vid=60e9cced-a98e-4786-a5c3-b2a1206374af","ios":"levelo://app?vid=60e9cced-a98e-4786-a5c3-b2a1206374af"},"vehicle_type_id":"4","last_reported":1687615582,"current_range_meters":18800,"station_id":"ce4bgg92rcd13ifvqb30","pricing_plan_id":"free"},{"bike_id":"2f19305e-4a51-41f5-aed7-f05f50afe7f9","system_id":"levelo_inurba_marseille","lat":43.305364,"lon":5.384119,"is_reserved":false,"is_disabled":false,"rental_uris":{"android":"levelo://app?vid=2f19305e-4a51-41f5-aed7-f05f50afe7f9","ios":"levelo://app?vid=2f19305e-4a51-41f5-aed7-f05f50afe7f9"},"vehicle_type_id":"4","last_reported":1687615582,"current_range_meters":22800,"station_id":"ce4bgg92rcd13ifvqb30","pricing_plan_id":"free"},{"bike_id":"23970c05-f04d-422f-a545-6d5efeefde38","system_id":"levelo_inurba_marseille","lat":43.297794,"lon":5.370888,"is_reserved":false,"is_disabled":false,"rental_uris":{"android":"levelo://app?vid=23970c05-f04d-422f-a545-6d5efeefde38","ios":"levelo://app?vid=23970c05-f04d-422f-a545-6d5efeefde38"},"vehicle_type_id":"4","last_reported":1687615582,"current_range_meters":2800,"station_id":"ce4bgop2rcd13ifvqc1g","pricing_plan_id":"free"},{"bike_id":"1580a472-182f-4d91-8a6c-4c3a23a9c034","system_id":"levelo_inurba_marseille","lat":43.302,"lon":5.3821,"is_reserved":false,"is_disabled":false,"rental_uris":{"android":"levelo://app?vid=1580a472-182f-4d91-8a6c-4c3a23a9c034","ios":"levelo://app?vid=1580a472-182f-4d91-8a6c-4c3a23a9c034"},"vehicle_type_id":"4","last_reported":1687615582,"current_range_meters":17200,"station_id":"","pricing_plan_id":"free"},{"bike_id":"fa80e9cd-f31a-45d0-9ce7-3d96d492f473","system_id":"levelo_inurba_marseille","lat":43.328371,"lon":5.366909,"is_reserved":false,"is_disabled":false,"rental_uris":{"android":"levelo://app?vid=fa80e9cd-f31a-45d0-9ce7-3d96d492f473","ios":"levelo://app?vid=fa80e9cd-f31a-45d0-9ce7-3d96d492f473"},"vehicle_type_id":"4","last_reported":1687615582,"current_range_meters":17600,"station_id":"ce4bhs92rcd13ifvqi0g","pricing_plan_id":"free"},{"bike_id":"f0c49d04-749f-4a18-8823-5f643fcb68d5","system_id":"levelo_inurba_marseille","lat":43.328371,"lon":5.366909,"is_reserved":false,"is_disabled":false,"rental_uris":{"android":"levelo://app?vid=f0c49d04-749f-4a18-8823-5f643fcb68d5","ios":"levelo://app?vid=f0c49d04-749f-4a18-8823-5f643fcb68d5"},"vehicle_type_id":"4","last_reported":1687615582,"current_range_meters":30400,"station_id":"ce4bhs92rcd13ifvqi0g","pricing_plan_id":"free"},{"bike_id":"dd41ba81-9716-41ad-bf2f-fd5f1f31dcaa","system_id":"levelo_inurba_marseille","lat":43.328371,"lon":5.366909,"is_reserved":false,"is_disabled":false,"rental_uris":{"android":"levelo://app?vid=dd41ba81-9716-41ad-bf2f-fd5f1f31dcaa","ios":"levelo://app?vid=dd41ba81-9716-41ad-bf2f-fd5f1f31dcaa"},"vehicle_type_id":"4","last_reported":1687615582,"current_range_meters":27200,"station_id":"ce4bhs92rcd13ifvqi0g","pricing_plan_id":"free"},{"bike_id":"bb180286-656b-4383-942b-9bce9efe4b71","system_id":"levelo_inurba_marseille","lat":43.328371,"lon":5.366909,"is_reserved":false,"is_disabled":false,"rental_uris":{"android":"levelo://app?vid=bb180286-656b-4383-942b-9bce9efe4b71","ios":"levelo://app?vid=bb180286-656b-4383-942b-9bce9efe4b71"},"vehicle_type_id":"4","last_reported":1687615582,"current_range_meters":15600,"station_id":"ce4bhs92rcd13ifvqi0g","pricing_plan_id":"free"},{"bike_id":"cbdd73a9-8831-4dab-9e8d-2ce4e630f6d2","system_id":"levelo_inurba_marseille","lat":43.328371,"lon":5.366909,"is_reserved":false,"is_disabled":false,"rental_uris":{"android":"levelo://app?vid=cbdd73a9-8831-4dab-9e8d-2ce4e630f6d2","ios":"levelo://app?vid=cbdd73a9-8831-4dab-9e8d-2ce4e630f6d2"},"vehicle_type_id":"4","last_reported":1687615582,"current_range_meters":30400,"station_id":"ce4bhs92rcd13ifvqi0g","pricing_plan_id":"free"},{"bike_id":"80429313-2571-4ffe-bf38-c133c4fe3eb5","system_id":"levelo_inurba_marseille","lat":43.29709,"lon":5.36605,"is_reserved":false,"is_disabled":false,"rental_uris":{"android":"levelo://app?vid=80429313-2571-4ffe-bf38-c133c4fe3eb5","ios":"levelo://app?vid=80429313-2571-4ffe-bf38-c133c4fe3eb5"},"vehicle_type_id":"4","last_reported":1687615582,"current_range_meters":30800,"station_id":"ce4bgn12rcd13ifvqbt0","pricing_plan_id":"free"},{"bike_id":"d6aa4b8f-0fbd-492f-a726-f1b64033634e","system_id":"levelo_inurba_marseille","lat":43.29698,"lon":5.36413,"is_reserved":false,"is_disabled":false,"rental_uris":{"android":"levelo://app?vid=d6aa4b8f-0fbd-492f-a726-f1b64033634e","ios":"levelo://app?vid=d6aa4b8f-0fbd-492f-a726-f1b64033634e"},"vehicle_type_id":"4","last_reported":1687615582,"current_range_meters":6400,"station_id":"","pricing_plan_id":"free"},{"bike_id":"3a49a993-4410-4a36-9b61-31bbabb31954","system_id":"levelo_inurba_marseille","lat":43.2968,"lon":5.37291,"is_reserved":false,"is_disabled":false,"rental_uris":{"android":"levelo://app?vid=3a49a993-4410-4a36-9b61-31bbabb31954","ios":"levelo://app?vid=3a49a993-4410-4a36-9b61-31bbabb31954"},"vehicle_type_id":"4","last_reported":1687615582,"current_range_meters":1200,"station_id":"ce4bgk12rcd13ifvqbj0","pricing_plan_id":"free"},{"bike_id":"537d9861-2ca0-4de0-991e-364b77443b61","system_id":"levelo_inurba_marseille","lat":43.296935,"lon":5.376544,"is_reserved":false,"is_disabled":false,"rental_uris":{"android":"levelo://app?vid=537d9861-2ca0-4de0-991e-364b77443b61","ios":"levelo://app?vid=537d9861-2ca0-4de0-991e-364b77443b61"},"vehicle_type_id":"4","last_reported":1687615582,"current_range_meters":24400,"station_id":"ce4bgkh2rcd13ifvqbl0","pricing_plan_id":"free"},{"bike_id":"041bc147-ef2f-419b-bb81-deca3bdf89e2","system_id":"levelo_inurba_marseille","lat":43.29611,"lon":5.36046,"is_reserved":false,"is_disabled":false,"rental_uris":{"android":"levelo://app?vid=041bc147-ef2f-419b-bb81-deca3bdf89e2","ios":"levelo://app?vid=041bc147-ef2f-419b-bb81-deca3bdf89e2"},"vehicle_type_id":"4","last_reported":1687615582,"current_range_meters":6800,"station_id":"","pricing_plan_id":"free"},{"bike_id":"9b3671c4-4790-4ad2-996a-8582db3ffb1d","system_id":"levelo_inurba_marseille","lat":43.317557,"lon":5.390173,"is_reserved":false,"is_disabled":false,"rental_uris":{"android":"levelo://app?vid=9b3671c4-4790-4ad2-996a-8582db3ffb1d","ios":"levelo://app?vid=9b3671c4-4790-4ad2-996a-8582db3ffb1d"},"vehicle_type_id":"4","last_reported":1687615582,"current_range_meters":30800,"station_id":"ce4bhqp2rcd13ifvqhng","pricing_plan_id":"free"},{"bike_id":"520c7a71-37ba-45ea-93d9-a928ec928647","system_id":"levelo_inurba_marseille","lat":43.317557,"lon":5.390173,"is_reserved":false,"is_disabled":false,"rental_uris":{"android":"levelo://app?vid=520c7a71-37ba-45ea-93d9-a928ec928647","ios":"levelo://app?vid=520c7a71-37ba-45ea-93d9-a928ec928647"},"vehicle_type_id":"4","last_reported":1687615582,"current_range_meters":30800,"station_id":"ce4bhqp2rcd13ifvqhng","pricing_plan_id":"free"},{"bike_id":"2be5eeaa-d0d4-4dd9-b47b-204aa60e23b7","system_id":"levelo_inurba_marseille","lat":43.317557,"lon":5.390173,"is_reserved":false,"is_disabled":false,"rental_uris":{"android":"levelo://app?vid=2be5eeaa-d0d4-4dd9-b47b-204aa60e23b7","ios":"levelo://app?vid=2be5eeaa-d0d4-4dd9-b47b-204aa60e23b7"},"vehicle_type_id":"4","last_reported":1687615582,"current_range_meters":30000,"station_id":"ce4bhqp2rcd13ifvqhng","pricing_plan_id":"free"},{"bike_id":"ac339c84-0220-40d2-a141-5cd8f9cedb6c","system_id":"levelo_inurba_marseille","lat":43.317557,"lon":5.390173,"is_reserved":false,"is_disabled":false,"rental_uris":{"android":"levelo://app?vid=ac339c84-0220-40d2-a141-5cd8f9cedb6c","ios":"levelo://app?vid=ac339c84-0220-40d2-a141-5cd8f9cedb6c"},"vehicle_type_id":"4","last_reported":1687615582,"current_range_meters":30800,"station_id":"ce4bhqp2rcd13ifvqhng","pricing_plan_id":"free"},{"bike_id":"3cb60a59-45c5-46c4-8570-9e4d99d83a1d","system_id":"levelo_inurba_marseille","lat":43.298037,"lon":5.381066,"is_reserved":false,"is_disabled":false,"rental_uris":{"android":"levelo://app?vid=3cb60a59-45c5-46c4-8570-9e4d99d83a1d","ios":"levelo://app?vid=3cb60a59-45c5-46c4-8570-9e4d99d83a1d"},"vehicle_type_id":"4","last_reported":1687615582,"current_range_meters":0,"station_id":"ce4bgip2rcd13ifvqbb0","pricing_plan_id":"free"},{"bike_id":"9e6b77fd-e7d1-4987-9303-66f38e76687a","system_id":"levelo_inurba_marseille","lat":43.304278,"lon":5.388868,"is_reserved":false,"is_disabled":false,"rental_uris":{"android":"levelo://app?vid=9e6b77fd-e7d1-4987-9303-66f38e76687a","ios":"levelo://app?vid=9e6b77fd-e7d1-4987-9303-66f38e76687a"},"vehicle_type_id":"4","last_reported":1687615582,"current_range_meters":19200,"station_id":"ce4bgk12rcd13ifvqbi0","pricing_plan_id":"free"},{"bike_id":"bc63b117-1850-42c4-8d5d-98ddd55afb1e","system_id":"levelo_inurba_marseille","lat":43.304278,"lon":5.388868,"is_reserved":false,"is_disabled":false,"rental_uris":{"android":"levelo://app?vid=bc63b117-1850-42c4-8d5d-98ddd55afb1e","ios":"levelo://app?vid=bc63b117-1850-42c4-8d5d-98ddd55afb1e"},"vehicle_type_id":"4","last_reported":1687615582,"current_range_meters":22800,"station_id":"ce4bgk12rcd13ifvqbi0","pricing_plan_id":"free"},{"bike_id":"f2ce8d36-8527-4b96-86b1-7cbbf389ff24","system_id":"levelo_inurba_marseille","lat":43.299717,"lon":5.384845,"is_reserved":false,"is_disabled":false,"rental_uris":{"android":"levelo://app?vid=f2ce8d36-8527-4b96-86b1-7cbbf389ff24","ios":"levelo://app?vid=f2ce8d36-8527-4b96-86b1-7cbbf389ff24"},"vehicle_type_id":"4","last_reported":1687615582,"current_range_meters":24000,"station_id":"ce4bgj92rcd13ifvqbd0","pricing_plan_id":"free"},{"bike_id":"2a721280-2391-4c28-8948-0b6684c5d420","system_id":"levelo_inurba_marseille","lat":43.299707,"lon":5.384859,"is_reserved":false,"is_disabled":false,"rental_uris":{"android":"levelo://app?vid=2a721280-2391-4c28-8948-0b6684c5d420","ios":"levelo://app?vid=2a721280-2391-4c28-8948-0b6684c5d420"},"vehicle_type_id":"4","last_reported":1687615582,"current_range_meters":800,"station_id":"ce4bgj92rcd13ifvqbd0","pricing_plan_id":"free"},{"bike_id":"6b05f8f0-f4fb-40e7-82c0-a54912f6c06c","system_id":"levelo_inurba_marseille","lat":43.32359,"lon":5.38879,"is_reserved":false,"is_disabled":false,"rental_uris":{"android":"levelo://app?vid=6b05f8f0-f4fb-40e7-82c0-a54912f6c06c","ios":"levelo://app?vid=6b05f8f0-f4fb-40e7-82c0-a54912f6c06c"},"vehicle_type_id":"4","last_reported":1687615582,"current_range_meters":28000,"station_id":"ce4bhqp2rcd13ifvqhog","pricing_plan_id":"free"},{"bike_id":"2e0fa622-dc89-44fe-984b-a2bb7220f9be","system_id":"levelo_inurba_marseille","lat":43.32373,"lon":5.38879,"is_reserved":false,"is_disabled":false,"rental_uris":{"android":"levelo://app?vid=2e0fa622-dc89-44fe-984b-a2bb7220f9be","ios":"levelo://app?vid=2e0fa622-dc89-44fe-984b-a2bb7220f9be"},"vehicle_type_id":"4","last_reported":1687615582,"current_range_meters":31200,"station_id":"ce4bhqp2rcd13ifvqhog","pricing_plan_id":"free"},{"bike_id":"beb825d8-da6f-4d0f-a4f9-15b4d0872995","system_id":"levelo_inurba_marseille","lat":43.32367,"lon":5.388836,"is_reserved":false,"is_disabled":false,"rental_uris":{"android":"levelo://app?vid=beb825d8-da6f-4d0f-a4f9-15b4d0872995","ios":"levelo://app?vid=beb825d8-da6f-4d0f-a4f9-15b4d0872995"},"vehicle_type_id":"4","last_reported":1687615582,"current_range_meters":23200,"station_id":"ce4bhqp2rcd13ifvqhog","pricing_plan_id":"free"},{"bike_id":"a6323510-9778-4780-94aa-53c0a539dea4","system_id":"levelo_inurba_marseille","lat":43.292749,"lon":5.368398,"is_reserved":false,"is_disabled":false,"rental_uris":{"android":"levelo://app?vid=a6323510-9778-4780-94aa-53c0a539dea4","ios":"levelo://app?vid=a6323510-9778-4780-94aa-53c0a539dea4"},"vehicle_type_id":"4","last_reported":1687615582,"current_range_meters":0,"station_id":"ce4bhbp2rcd13ifvqesg","pricing_plan_id":"free"},{"bike_id":"0d542093-3cf1-4159-a518-584c0f3a5521","system_id":"levelo_inurba_marseille","lat":43.292311,"lon":5.360731,"is_reserved":false,"is_disabled":false,"rental_uris":{"android":"levelo://app?vid=0d542093-3cf1-4159-a518-584c0f3a5521","ios":"levelo://app?vid=0d542093-3cf1-4159-a518-584c0f3a5521"},"vehicle_type_id":"4","last_reported":1687615582,"current_range_meters":0,"station_id":"ce4bhbh2rcd13ifvqeqg","pricing_plan_id":"free"},{"bike_id":"dfac7c1c-2829-42a5-a540-6d9ee4707266","system_id":"levelo_inurba_marseille","lat":43.292311,"lon":5.360731,"is_reserved":false,"is_disabled":false,"rental_uris":{"android":"levelo://app?vid=dfac7c1c-2829-42a5-a540-6d9ee4707266","ios":"levelo://app?vid=dfac7c1c-2829-42a5-a540-6d9ee4707266"},"vehicle_type_id":"4","last_reported":1687615582,"current_range_meters":800,"station_id":"ce4bhbh2rcd13ifvqeqg","pricing_plan_id":"free"},{"bike_id":"45fca923-5125-4310-8268-5422dc8ac5b3","system_id":"levelo_inurba_marseille","lat":43.298764,"lon":5.388973,"is_reserved":false,"is_disabled":false,"rental_uris":{"android":"levelo://app?vid=45fca923-5125-4310-8268-5422dc8ac5b3","ios":"levelo://app?vid=45fca923-5125-4310-8268-5422dc8ac5b3"},"vehicle_type_id":"4","last_reported":1687615582,"current_range_meters":3600,"station_id":"ce4bh392rcd13ifvqdl0","pricing_plan_id":"free"},{"bike_id":"bff62d28-1998-443b-ae0c-f5a55ebf90b8","system_id":"levelo_inurba_marseille","lat":43.29168,"lon":5.37145,"is_reserved":false,"is_disabled":false,"rental_uris":{"android":"levelo://app?vid=bff62d28-1998-443b-ae0c-f5a55ebf90b8","ios":"levelo://app?vid=bff62d28-1998-443b-ae0c-f5a55ebf90b8"},"vehicle_type_id":"4","last_reported":1687615582,"current_range_meters":4400,"station_id":"ce4bha92rcd13ifvqeh0","pricing_plan_id":"free"},{"bike_id":"882c6157-5aff-43df-84f2-d69db364a07c","system_id":"levelo_inurba_marseille","lat":43.29529,"lon":5.385581,"is_reserved":false,"is_disabled":false,"rental_uris":{"android":"levelo://app?vid=882c6157-5aff-43df-84f2-d69db364a07c","ios":"levelo://app?vid=882c6157-5aff-43df-84f2-d69db364a07c"},"vehicle_type_id":"4","last_reported":1687615582,"current_range_meters":4800,"station_id":"ce4bgih2rcd13ifvqba0","pricing_plan_id":"free"},{"bike_id":"1cae10ec-0e6d-47cb-b335-45d5f831eb99","system_id":"levelo_inurba_marseille","lat":43.302008,"lon":5.394694,"is_reserved":false,"is_disabled":false,"rental_uris":{"android":"levelo://app?vid=1cae10ec-0e6d-47cb-b335-45d5f831eb99","ios":"levelo://app?vid=1cae10ec-0e6d-47cb-b335-45d5f831eb99"},"vehicle_type_id":"4","last_reported":1687615582,"current_range_meters":19200,"station_id":"ce4bh0p2rcd13ifvqd70","pricing_plan_id":"free"},{"bike_id":"20b2702a-2cf1-439f-b7da-41f192fa1a0a","system_id":"levelo_inurba_marseille","lat":43.29411,"lon":5.38614,"is_reserved":false,"is_disabled":false,"rental_uris":{"android":"levelo://app?vid=20b2702a-2cf1-439f-b7da-41f192fa1a0a","ios":"levelo://app?vid=20b2702a-2cf1-439f-b7da-41f192fa1a0a"},"vehicle_type_id":"4","last_reported":1687615582,"current_range_meters":19200,"station_id":"","pricing_plan_id":"free"},{"bike_id":"d026d9ff-ec35-4e75-a9ef-dc84f8a59e51","system_id":"levelo_inurba_marseille","lat":43.289184,"lon":5.366408,"is_reserved":false,"is_disabled":false,"rental_uris":{"android":"levelo://app?vid=d026d9ff-ec35-4e75-a9ef-dc84f8a59e51","ios":"levelo://app?vid=d026d9ff-ec35-4e75-a9ef-dc84f8a59e51"},"vehicle_type_id":"4","last_reported":1687615582,"current_range_meters":5200,"station_id":"ce4bhap2rcd13ifvqek0","pricing_plan_id":"free"},{"bike_id":"e36874dc-7135-4ebc-b4cd-8f7cd3793fb7","system_id":"levelo_inurba_marseille","lat":43.30337,"lon":5.39694,"is_reserved":false,"is_disabled":false,"rental_uris":{"android":"levelo://app?vid=e36874dc-7135-4ebc-b4cd-8f7cd3793fb7","ios":"levelo://app?vid=e36874dc-7135-4ebc-b4cd-8f7cd3793fb7"},"vehicle_type_id":"4","last_reported":1687615582,"current_range_meters":21600,"station_id":"","pricing_plan_id":"free"},{"bike_id":"554ad65b-9e32-499a-b0a7-93f5d065d31c","system_id":"levelo_inurba_marseille","lat":43.30473,"lon":5.39794,"is_reserved":false,"is_disabled":false,"rental_uris":{"android":"levelo://app?vid=554ad65b-9e32-499a-b0a7-93f5d065d31c","ios":"levelo://app?vid=554ad65b-9e32-499a-b0a7-93f5d065d31c"},"vehicle_type_id":"4","last_reported":1687615582,"current_range_meters":24400,"station_id":"","pricing_plan_id":"free"},{"bike_id":"c5cede37-9110-4d23-ba0b-d0b6e69faeba","system_id":"levelo_inurba_marseille","lat":43.290104,"lon":5.356111,"is_reserved":false,"is_disabled":false,"rental_uris":{"android":"levelo://app?vid=c5cede37-9110-4d23-ba0b-d0b6e69faeba","ios":"levelo://app?vid=c5cede37-9110-4d23-ba0b-d0b6e69faeba"},"vehicle_type_id":"4","last_reported":1687615582,"current_range_meters":30800,"station_id":"ce4bhb92rcd13ifvqen0","pricing_plan_id":"free"},{"bike_id":"b290bdc3-076b-4113-9bdf-94b5c6b9322f","system_id":"levelo_inurba_marseille","lat":43.290103,"lon":5.356114,"is_reserved":false,"is_disabled":false,"rental_uris":{"android":"levelo://app?vid=b290bdc3-076b-4113-9bdf-94b5c6b9322f","ios":"levelo://app?vid=b290bdc3-076b-4113-9bdf-94b5c6b9322f"},"vehicle_type_id":"4","last_reported":1687615582,"current_range_meters":0,"station_id":"ce4bhb92rcd13ifvqen0","pricing_plan_id":"free"},{"bike_id":"383564b9-2cae-4808-aee8-d3aefd710421","system_id":"levelo_inurba_marseille","lat":43.33043,"lon":5.38916,"is_reserved":false,"is_disabled":false,"rental_uris":{"android":"levelo://app?vid=383564b9-2cae-4808-aee8-d3aefd710421","ios":"levelo://app?vid=383564b9-2cae-4808-aee8-d3aefd710421"},"vehicle_type_id":"4","last_reported":1687615582,"current_range_meters":31200,"station_id":"ce4bhr92rcd13ifvqhrg","pricing_plan_id":"free"},{"bike_id":"b49d73e2-9f19-4a2c-9b7e-4e20a517a2b2","system_id":"levelo_inurba_marseille","lat":43.3304,"lon":5.38921,"is_reserved":false,"is_disabled":false,"rental_uris":{"android":"levelo://app?vid=b49d73e2-9f19-4a2c-9b7e-4e20a517a2b2","ios":"levelo://app?vid=b49d73e2-9f19-4a2c-9b7e-4e20a517a2b2"},"vehicle_type_id":"4","last_reported":1687615582,"current_range_meters":30400,"station_id":"ce4bhr92rcd13ifvqhrg","pricing_plan_id":"free"},{"bike_id":"1a01895d-f344-4f7a-a2e9-47e079e18485","system_id":"levelo_inurba_marseille","lat":43.33048,"lon":5.38914,"is_reserved":false,"is_disabled":false,"rental_uris":{"android":"levelo://app?vid=1a01895d-f344-4f7a-a2e9-47e079e18485","ios":"levelo://app?vid=1a01895d-f344-4f7a-a2e9-47e079e18485"},"vehicle_type_id":"4","last_reported":1687615582,"current_range_meters":25200,"station_id":"ce4bhr92rcd13ifvqhrg","pricing_plan_id":"free"},{"bike_id":"7c811762-c0ee-4656-87ba-109acbb8edd1","system_id":"levelo_inurba_marseille","lat":43.33048,"lon":5.3892,"is_reserved":false,"is_disabled":false,"rental_uris":{"android":"levelo://app?vid=7c811762-c0ee-4656-87ba-109acbb8edd1","ios":"levelo://app?vid=7c811762-c0ee-4656-87ba-109acbb8edd1"},"vehicle_type_id":"4","last_reported":1687615582,"current_range_meters":7600,"station_id":"ce4bhr92rcd13ifvqhrg","pricing_plan_id":"free"},{"bike_id":"3d08c72f-0aa7-4dd5-a2ec-4fe1c0c0bf34","system_id":"levelo_inurba_marseille","lat":43.330442,"lon":5.389148,"is_reserved":false,"is_disabled":false,"rental_uris":{"android":"levelo://app?vid=3d08c72f-0aa7-4dd5-a2ec-4fe1c0c0bf34","ios":"levelo://app?vid=3d08c72f-0aa7-4dd5-a2ec-4fe1c0c0bf34"},"vehicle_type_id":"4","last_reported":1687615582,"current_range_meters":15600,"station_id":"ce4bhr92rcd13ifvqhrg","pricing_plan_id":"free"},{"bike_id":"5b1dd842-b69d-488e-9d3e-65d79290c456","system_id":"levelo_inurba_marseille","lat":43.290995,"lon":5.381361,"is_reserved":false,"is_disabled":false,"rental_uris":{"android":"levelo://app?vid=5b1dd842-b69d-488e-9d3e-65d79290c456","ios":"levelo://app?vid=5b1dd842-b69d-488e-9d3e-65d79290c456"},"vehicle_type_id":"4","last_reported":1687615582,"current_range_meters":0,"station_id":"ce4bh512rcd13ifvqe2g","pricing_plan_id":"free"},{"bike_id":"f0373634-155d-46ae-883a-3d2319a7097f","system_id":"levelo_inurba_marseille","lat":43.28813,"lon":5.37345,"is_reserved":false,"is_disabled":false,"rental_uris":{"android":"levelo://app?vid=f0373634-155d-46ae-883a-3d2319a7097f","ios":"levelo://app?vid=f0373634-155d-46ae-883a-3d2319a7097f"},"vehicle_type_id":"4","last_reported":1687615582,"current_range_meters":8400,"station_id":"","pricing_plan_id":"free"},{"bike_id":"3f8a925a-6a54-4259-a38f-9cf091aab246","system_id":"levelo_inurba_marseille","lat":43.29247,"lon":5.38753,"is_reserved":false,"is_disabled":false,"rental_uris":{"android":"levelo://app?vid=3f8a925a-6a54-4259-a38f-9cf091aab246","ios":"levelo://app?vid=3f8a925a-6a54-4259-a38f-9cf091aab246"},"vehicle_type_id":"4","last_reported":1687615582,"current_range_meters":20800,"station_id":"","pricing_plan_id":"free"},{"bike_id":"c180ae38-f769-441f-8a55-5a6e4930e6ad","system_id":"levelo_inurba_marseille","lat":43.3375,"lon":5.37439,"is_reserved":false,"is_disabled":false,"rental_uris":{"android":"levelo://app?vid=c180ae38-f769-441f-8a55-5a6e4930e6ad","ios":"levelo://app?vid=c180ae38-f769-441f-8a55-5a6e4930e6ad"},"vehicle_type_id":"4","last_reported":1687615582,"current_range_meters":24400,"station_id":"","pricing_plan_id":"free"},{"bike_id":"50cb2a37-1f87-4ff7-b1e0-de8ee6f1866e","system_id":"levelo_inurba_marseille","lat":43.301117,"lon":5.398795,"is_reserved":false,"is_disabled":false,"rental_uris":{"android":"levelo://app?vid=50cb2a37-1f87-4ff7-b1e0-de8ee6f1866e","ios":"levelo://app?vid=50cb2a37-1f87-4ff7-b1e0-de8ee6f1866e"},"vehicle_type_id":"4","last_reported":1687615582,"current_range_meters":9600,"station_id":"ce4bh0h2rcd13ifvqd40","pricing_plan_id":"free"},{"bike_id":"21a61cca-8c1e-4ae3-a32f-3eecfa775cae","system_id":"levelo_inurba_marseille","lat":43.298681,"lon":5.397225,"is_reserved":false,"is_disabled":false,"rental_uris":{"android":"levelo://app?vid=21a61cca-8c1e-4ae3-a32f-3eecfa775cae","ios":"levelo://app?vid=21a61cca-8c1e-4ae3-a32f-3eecfa775cae"},"vehicle_type_id":"4","last_reported":1687615582,"current_range_meters":19200,"station_id":"ce4bh0h2rcd13ifvqd50","pricing_plan_id":"free"},{"bike_id":"c0c3c96e-66ed-4298-aff3-13919cb9c43d","system_id":"levelo_inurba_marseille","lat":43.295141,"lon":5.393958,"is_reserved":false,"is_disabled":false,"rental_uris":{"android":"levelo://app?vid=c0c3c96e-66ed-4298-aff3-13919cb9c43d","ios":"levelo://app?vid=c0c3c96e-66ed-4298-aff3-13919cb9c43d"},"vehicle_type_id":"4","last_reported":1687615582,"current_range_meters":31600,"station_id":"ce4bh292rcd13ifvqdf0","pricing_plan_id":"free"},{"bike_id":"8236dbb1-124f-47c6-8838-f8df4c43ec4c","system_id":"levelo_inurba_marseille","lat":43.287184,"lon":5.37937,"is_reserved":false,"is_disabled":false,"rental_uris":{"android":"levelo://app?vid=8236dbb1-124f-47c6-8838-f8df4c43ec4c","ios":"levelo://app?vid=8236dbb1-124f-47c6-8838-f8df4c43ec4c"},"vehicle_type_id":"4","last_reported":1687615582,"current_range_meters":31600,"station_id":"ce4bh9p2rcd13ifvqec0","pricing_plan_id":"free"},{"bike_id":"4dbe3fb2-6769-4daf-8ff5-8b4d75f66e51","system_id":"levelo_inurba_marseille","lat":43.31652,"lon":5.40433,"is_reserved":false,"is_disabled":false,"rental_uris":{"android":"levelo://app?vid=4dbe3fb2-6769-4daf-8ff5-8b4d75f66e51","ios":"levelo://app?vid=4dbe3fb2-6769-4daf-8ff5-8b4d75f66e51"},"vehicle_type_id":"4","last_reported":1687615582,"current_range_meters":3600,"station_id":"ce4bh012rcd13ifvqd00","pricing_plan_id":"free"},{"bike_id":"d69fed3a-efe9-46fb-b1dc-1240b8978d3e","system_id":"levelo_inurba_marseille","lat":43.316517,"lon":5.404375,"is_reserved":false,"is_disabled":false,"rental_uris":{"android":"levelo://app?vid=d69fed3a-efe9-46fb-b1dc-1240b8978d3e","ios":"levelo://app?vid=d69fed3a-efe9-46fb-b1dc-1240b8978d3e"},"vehicle_type_id":"4","last_reported":1687615582,"current_range_meters":18800,"station_id":"ce4bh012rcd13ifvqd00","pricing_plan_id":"free"},{"bike_id":"248542c0-abf9-484d-8660-11b9ad49f754","system_id":"levelo_inurba_marseille","lat":43.284534,"lon":5.358662,"is_reserved":false,"is_disabled":false,"rental_uris":{"android":"levelo://app?vid=248542c0-abf9-484d-8660-11b9ad49f754","ios":"levelo://app?vid=248542c0-abf9-484d-8660-11b9ad49f754"},"vehicle_type_id":"4","last_reported":1687615582,"current_range_meters":14000,"station_id":"ce4bhah2rcd13ifvqei0","pricing_plan_id":"free"},{"bike_id":"2468774b-a465-468e-b6dd-49ddc6869353","system_id":"levelo_inurba_marseille","lat":43.28463,"lon":5.35891,"is_reserved":false,"is_disabled":false,"rental_uris":{"android":"levelo://app?vid=2468774b-a465-468e-b6dd-49ddc6869353","ios":"levelo://app?vid=2468774b-a465-468e-b6dd-49ddc6869353"},"vehicle_type_id":"4","last_reported":1687615582,"current_range_meters":31200,"station_id":"ce4bhah2rcd13ifvqei0","pricing_plan_id":"free"},{"bike_id":"394b057a-48bc-4ace-8812-36d779463831","system_id":"levelo_inurba_marseille","lat":43.28463,"lon":5.35879,"is_reserved":false,"is_disabled":false,"rental_uris":{"android":"levelo://app?vid=394b057a-48bc-4ace-8812-36d779463831","ios":"levelo://app?vid=394b057a-48bc-4ace-8812-36d779463831"},"vehicle_type_id":"4","last_reported":1687615582,"current_range_meters":15200,"station_id":"ce4bhah2rcd13ifvqei0","pricing_plan_id":"free"},{"bike_id":"f24af894-bf5c-4e9a-8f35-48d3773119a5","system_id":"levelo_inurba_marseille","lat":43.28453,"lon":5.35895,"is_reserved":false,"is_disabled":false,"rental_uris":{"android":"levelo://app?vid=f24af894-bf5c-4e9a-8f35-48d3773119a5","ios":"levelo://app?vid=f24af894-bf5c-4e9a-8f35-48d3773119a5"},"vehicle_type_id":"4","last_reported":1687615582,"current_range_meters":29200,"station_id":"ce4bhah2rcd13ifvqei0","pricing_plan_id":"free"},{"bike_id":"a365c532-febb-4640-b79d-ab9e31f33468","system_id":"levelo_inurba_marseille","lat":43.2862,"lon":5.35103,"is_reserved":false,"is_disabled":false,"rental_uris":{"android":"levelo://app?vid=a365c532-febb-4640-b79d-ab9e31f33468","ios":"levelo://app?vid=a365c532-febb-4640-b79d-ab9e31f33468"},"vehicle_type_id":"4","last_reported":1687615582,"current_range_meters":18400,"station_id":"ce4bhch2rcd13ifvqeug","pricing_plan_id":"free"},{"bike_id":"415ecb2d-6ad1-4258-b9cc-172a39b402f8","system_id":"levelo_inurba_marseille","lat":43.285856,"lon":5.350771,"is_reserved":false,"is_disabled":false,"rental_uris":{"android":"levelo://app?vid=415ecb2d-6ad1-4258-b9cc-172a39b402f8","ios":"levelo://app?vid=415ecb2d-6ad1-4258-b9cc-172a39b402f8"},"vehicle_type_id":"4","last_reported":1687615582,"current_range_meters":23200,"station_id":"ce4bhch2rcd13ifvqeug","pricing_plan_id":"free"},{"bike_id":"495b5eb8-6416-4acd-bc72-d351549deef3","system_id":"levelo_inurba_marseille","lat":43.285856,"lon":5.350771,"is_reserved":false,"is_disabled":false,"rental_uris":{"android":"levelo://app?vid=495b5eb8-6416-4acd-bc72-d351549deef3","ios":"levelo://app?vid=495b5eb8-6416-4acd-bc72-d351549deef3"},"vehicle_type_id":"4","last_reported":1687615582,"current_range_meters":16000,"station_id":"ce4bhch2rcd13ifvqeug","pricing_plan_id":"free"},{"bike_id":"9c87a658-7c01-4d45-8c55-e9bdbb1c6889","system_id":"levelo_inurba_marseille","lat":43.28617,"lon":5.35103,"is_reserved":false,"is_disabled":false,"rental_uris":{"android":"levelo://app?vid=9c87a658-7c01-4d45-8c55-e9bdbb1c6889","ios":"levelo://app?vid=9c87a658-7c01-4d45-8c55-e9bdbb1c6889"},"vehicle_type_id":"4","last_reported":1687615582,"current_range_meters":15200,"station_id":"ce4bhch2rcd13ifvqeug","pricing_plan_id":"free"},{"bike_id":"01963cfe-c05b-4e1b-8551-8c7c2e3e7509","system_id":"levelo_inurba_marseille","lat":43.285856,"lon":5.350771,"is_reserved":false,"is_disabled":false,"rental_uris":{"android":"levelo://app?vid=01963cfe-c05b-4e1b-8551-8c7c2e3e7509","ios":"levelo://app?vid=01963cfe-c05b-4e1b-8551-8c7c2e3e7509"},"vehicle_type_id":"4","last_reported":1687615582,"current_range_meters":0,"station_id":"ce4bhch2rcd13ifvqeug","pricing_plan_id":"free"},{"bike_id":"22cc7a76-05f9-4ced-9b89-6ce87ab4251f","system_id":"levelo_inurba_marseille","lat":43.285856,"lon":5.350771,"is_reserved":false,"is_disabled":false,"rental_uris":{"android":"levelo://app?vid=22cc7a76-05f9-4ced-9b89-6ce87ab4251f","ios":"levelo://app?vid=22cc7a76-05f9-4ced-9b89-6ce87ab4251f"},"vehicle_type_id":"4","last_reported":1687615582,"current_range_meters":23200,"station_id":"ce4bhch2rcd13ifvqeug","pricing_plan_id":"free"},{"bike_id":"beb9c156-faae-49c2-b97e-d9fe9496cda8","system_id":"levelo_inurba_marseille","lat":43.28615,"lon":5.35103,"is_reserved":false,"is_disabled":false,"rental_uris":{"android":"levelo://app?vid=beb9c156-faae-49c2-b97e-d9fe9496cda8","ios":"levelo://app?vid=beb9c156-faae-49c2-b97e-d9fe9496cda8"},"vehicle_type_id":"4","last_reported":1687615582,"current_range_meters":31200,"station_id":"ce4bhch2rcd13ifvqeug","pricing_plan_id":"free"},{"bike_id":"3eb9dd2c-b9b2-4028-a09d-0a7556bbf6ef","system_id":"levelo_inurba_marseille","lat":43.28614,"lon":5.35106,"is_reserved":false,"is_disabled":false,"rental_uris":{"android":"levelo://app?vid=3eb9dd2c-b9b2-4028-a09d-0a7556bbf6ef","ios":"levelo://app?vid=3eb9dd2c-b9b2-4028-a09d-0a7556bbf6ef"},"vehicle_type_id":"4","last_reported":1687615582,"current_range_meters":20800,"station_id":"","pricing_plan_id":"free"},{"bike_id":"72662650-821e-4700-8ed0-aa05799fcf0c","system_id":"levelo_inurba_marseille","lat":43.285856,"lon":5.350771,"is_reserved":false,"is_disabled":false,"rental_uris":{"android":"levelo://app?vid=72662650-821e-4700-8ed0-aa05799fcf0c","ios":"levelo://app?vid=72662650-821e-4700-8ed0-aa05799fcf0c"},"vehicle_type_id":"4","last_reported":1687615582,"current_range_meters":11600,"station_id":"ce4bhch2rcd13ifvqeug","pricing_plan_id":"free"},{"bike_id":"08c3fa4e-0f76-4b54-9b6b-5f413c6bd390","system_id":"levelo_inurba_marseille","lat":43.28613,"lon":5.35107,"is_reserved":false,"is_disabled":false,"rental_uris":{"android":"levelo://app?vid=08c3fa4e-0f76-4b54-9b6b-5f413c6bd390","ios":"levelo://app?vid=08c3fa4e-0f76-4b54-9b6b-5f413c6bd390"},"vehicle_type_id":"4","last_reported":1687615582,"current_range_meters":19200,"station_id":"ce4bhch2rcd13ifvqeug","pricing_plan_id":"free"},{"bike_id":"070cca9b-62bf-4e06-856d-e15d6f747517","system_id":"levelo_inurba_marseille","lat":43.28542,"lon":5.35039,"is_reserved":false,"is_disabled":false,"rental_uris":{"android":"levelo://app?vid=070cca9b-62bf-4e06-856d-e15d6f747517","ios":"levelo://app?vid=070cca9b-62bf-4e06-856d-e15d6f747517"},"vehicle_type_id":"4","last_reported":1687615582,"current_range_meters":0,"station_id":"","pricing_plan_id":"free"},{"bike_id":"2c484932-47de-4538-bd9b-501c0354cd06","system_id":"levelo_inurba_marseille","lat":43.323464,"lon":5.406297,"is_reserved":false,"is_disabled":false,"rental_uris":{"android":"levelo://app?vid=2c484932-47de-4538-bd9b-501c0354cd06","ios":"levelo://app?vid=2c484932-47de-4538-bd9b-501c0354cd06"},"vehicle_type_id":"4","last_reported":1687615582,"current_range_meters":10800,"station_id":"ce4bhq92rcd13ifvqhjg","pricing_plan_id":"free"},{"bike_id":"8d1f88b2-a260-40c1-9cbd-c5c8b2bfd015","system_id":"levelo_inurba_marseille","lat":43.32346,"lon":5.40621,"is_reserved":false,"is_disabled":false,"rental_uris":{"android":"levelo://app?vid=8d1f88b2-a260-40c1-9cbd-c5c8b2bfd015","ios":"levelo://app?vid=8d1f88b2-a260-40c1-9cbd-c5c8b2bfd015"},"vehicle_type_id":"4","last_reported":1687615582,"current_range_meters":10800,"station_id":"ce4bhq92rcd13ifvqhjg","pricing_plan_id":"free"},{"bike_id":"165784fd-8cb0-48fe-8681-d7abe54a6cf4","system_id":"levelo_inurba_marseille","lat":43.32341,"lon":5.40626,"is_reserved":false,"is_disabled":false,"rental_uris":{"android":"levelo://app?vid=165784fd-8cb0-48fe-8681-d7abe54a6cf4","ios":"levelo://app?vid=165784fd-8cb0-48fe-8681-d7abe54a6cf4"},"vehicle_type_id":"4","last_reported":1687615582,"current_range_meters":30400,"station_id":"ce4bhq92rcd13ifvqhjg","pricing_plan_id":"free"},{"bike_id":"6606e82c-c0ce-4a7f-bf46-357d4faa235e","system_id":"levelo_inurba_marseille","lat":43.32347,"lon":5.40633,"is_reserved":false,"is_disabled":false,"rental_uris":{"android":"levelo://app?vid=6606e82c-c0ce-4a7f-bf46-357d4faa235e","ios":"levelo://app?vid=6606e82c-c0ce-4a7f-bf46-357d4faa235e"},"vehicle_type_id":"4","last_reported":1687615582,"current_range_meters":0,"station_id":"ce4bhq92rcd13ifvqhjg","pricing_plan_id":"free"},{"bike_id":"b4c950db-352f-4a1a-8e3c-c05101a6dad0","system_id":"levelo_inurba_marseille","lat":43.288501,"lon":5.393087,"is_reserved":false,"is_disabled":false,"rental_uris":{"android":"levelo://app?vid=b4c950db-352f-4a1a-8e3c-c05101a6dad0","ios":"levelo://app?vid=b4c950db-352f-4a1a-8e3c-c05101a6dad0"},"vehicle_type_id":"4","last_reported":1687615582,"current_range_meters":31600,"station_id":"ce4bh2p2rcd13ifvqdi0","pricing_plan_id":"free"},{"bike_id":"1a38aedc-74ca-46bc-9719-07bf1108e827","system_id":"levelo_inurba_marseille","lat":43.28426,"lon":5.35001,"is_reserved":false,"is_disabled":false,"rental_uris":{"android":"levelo://app?vid=1a38aedc-74ca-46bc-9719-07bf1108e827","ios":"levelo://app?vid=1a38aedc-74ca-46bc-9719-07bf1108e827"},"vehicle_type_id":"4","last_reported":1687615582,"current_range_meters":31200,"station_id":"ce4bhbh2rcd13ifvqepg","pricing_plan_id":"free"},{"bike_id":"3d8744b5-74d3-4465-a40a-faac9e2e7f8f","system_id":"levelo_inurba_marseille","lat":43.28425,"lon":5.34991,"is_reserved":false,"is_disabled":false,"rental_uris":{"android":"levelo://app?vid=3d8744b5-74d3-4465-a40a-faac9e2e7f8f","ios":"levelo://app?vid=3d8744b5-74d3-4465-a40a-faac9e2e7f8f"},"vehicle_type_id":"4","last_reported":1687615582,"current_range_meters":14800,"station_id":"ce4bhbh2rcd13ifvqepg","pricing_plan_id":"free"},{"bike_id":"18b07cb4-7e42-4e0d-ab43-3d6ac52f3b2b","system_id":"levelo_inurba_marseille","lat":43.284219,"lon":5.3497,"is_reserved":false,"is_disabled":false,"rental_uris":{"android":"levelo://app?vid=18b07cb4-7e42-4e0d-ab43-3d6ac52f3b2b","ios":"levelo://app?vid=18b07cb4-7e42-4e0d-ab43-3d6ac52f3b2b"},"vehicle_type_id":"4","last_reported":1687615582,"current_range_meters":31600,"station_id":"ce4bhbh2rcd13ifvqepg","pricing_plan_id":"free"},{"bike_id":"507db3a9-e6ba-4395-bac1-f6bb2b833100","system_id":"levelo_inurba_marseille","lat":43.28425,"lon":5.34984,"is_reserved":false,"is_disabled":false,"rental_uris":{"android":"levelo://app?vid=507db3a9-e6ba-4395-bac1-f6bb2b833100","ios":"levelo://app?vid=507db3a9-e6ba-4395-bac1-f6bb2b833100"},"vehicle_type_id":"4","last_reported":1687615582,"current_range_meters":5200,"station_id":"ce4bhbh2rcd13ifvqepg","pricing_plan_id":"free"},{"bike_id":"7400b20e-6d37-4c01-b9ed-6ec0402f1a23","system_id":"levelo_inurba_marseille","lat":43.28424,"lon":5.34985,"is_reserved":false,"is_disabled":false,"rental_uris":{"android":"levelo://app?vid=7400b20e-6d37-4c01-b9ed-6ec0402f1a23","ios":"levelo://app?vid=7400b20e-6d37-4c01-b9ed-6ec0402f1a23"},"vehicle_type_id":"4","last_reported":1687615582,"current_range_meters":18800,"station_id":"ce4bhbh2rcd13ifvqepg","pricing_plan_id":"free"},{"bike_id":"0055eff6-c9b4-4290-bec2-537a07918075","system_id":"levelo_inurba_marseille","lat":43.284219,"lon":5.3497,"is_reserved":false,"is_disabled":false,"rental_uris":{"android":"levelo://app?vid=0055eff6-c9b4-4290-bec2-537a07918075","ios":"levelo://app?vid=0055eff6-c9b4-4290-bec2-537a07918075"},"vehicle_type_id":"4","last_reported":1687615582,"current_range_meters":31200,"station_id":"ce4bhbh2rcd13ifvqepg","pricing_plan_id":"free"},{"bike_id":"c7649577-1d22-4d00-88d4-5fa7a358d49a","system_id":"levelo_inurba_marseille","lat":43.28424,"lon":5.34976,"is_reserved":false,"is_disabled":false,"rental_uris":{"android":"levelo://app?vid=c7649577-1d22-4d00-88d4-5fa7a358d49a","ios":"levelo://app?vid=c7649577-1d22-4d00-88d4-5fa7a358d49a"},"vehicle_type_id":"4","last_reported":1687615582,"current_range_meters":21200,"station_id":"ce4bhbh2rcd13ifvqepg","pricing_plan_id":"free"},{"bike_id":"2ff8ded9-dfa5-47aa-b736-47077523ec1f","system_id":"levelo_inurba_marseille","lat":43.28421,"lon":5.34984,"is_reserved":false,"is_disabled":false,"rental_uris":{"android":"levelo://app?vid=2ff8ded9-dfa5-47aa-b736-47077523ec1f","ios":"levelo://app?vid=2ff8ded9-dfa5-47aa-b736-47077523ec1f"},"vehicle_type_id":"4","last_reported":1687615582,"current_range_meters":24400,"station_id":"ce4bhbh2rcd13ifvqepg","pricing_plan_id":"free"},{"bike_id":"4cf8a622-776f-4199-b50a-aeee2e3f5c07","system_id":"levelo_inurba_marseille","lat":43.28422,"lon":5.3498,"is_reserved":false,"is_disabled":false,"rental_uris":{"android":"levelo://app?vid=4cf8a622-776f-4199-b50a-aeee2e3f5c07","ios":"levelo://app?vid=4cf8a622-776f-4199-b50a-aeee2e3f5c07"},"vehicle_type_id":"4","last_reported":1687615582,"current_range_meters":31200,"station_id":"ce4bhbh2rcd13ifvqepg","pricing_plan_id":"free"},{"bike_id":"ab0aa422-6a4f-493a-8593-123e3ad068d2","system_id":"levelo_inurba_marseille","lat":43.284217,"lon":5.349697,"is_reserved":false,"is_disabled":false,"rental_uris":{"android":"levelo://app?vid=ab0aa422-6a4f-493a-8593-123e3ad068d2","ios":"levelo://app?vid=ab0aa422-6a4f-493a-8593-123e3ad068d2"},"vehicle_type_id":"4","last_reported":1687615582,"current_range_meters":15200,"station_id":"ce4bhbh2rcd13ifvqepg","pricing_plan_id":"free"},{"bike_id":"ca065df1-7d1e-40a0-9ed1-f20e42205bc7","system_id":"levelo_inurba_marseille","lat":43.28418,"lon":5.34984,"is_reserved":false,"is_disabled":false,"rental_uris":{"android":"levelo://app?vid=ca065df1-7d1e-40a0-9ed1-f20e42205bc7","ios":"levelo://app?vid=ca065df1-7d1e-40a0-9ed1-f20e42205bc7"},"vehicle_type_id":"4","last_reported":1687615582,"current_range_meters":31200,"station_id":"ce4bhbh2rcd13ifvqepg","pricing_plan_id":"free"},{"bike_id":"f42409f8-055c-4c4d-9db7-2c41ec8410d2","system_id":"levelo_inurba_marseille","lat":43.284217,"lon":5.349697,"is_reserved":false,"is_disabled":false,"rental_uris":{"android":"levelo://app?vid=f42409f8-055c-4c4d-9db7-2c41ec8410d2","ios":"levelo://app?vid=f42409f8-055c-4c4d-9db7-2c41ec8410d2"},"vehicle_type_id":"4","last_reported":1687615582,"current_range_meters":31600,"station_id":"ce4bhbh2rcd13ifvqepg","pricing_plan_id":"free"},{"bike_id":"4c5ed9a7-1400-482f-9328-9e033ff55ff2","system_id":"levelo_inurba_marseille","lat":43.28419,"lon":5.34975,"is_reserved":false,"is_disabled":false,"rental_uris":{"android":"levelo://app?vid=4c5ed9a7-1400-482f-9328-9e033ff55ff2","ios":"levelo://app?vid=4c5ed9a7-1400-482f-9328-9e033ff55ff2"},"vehicle_type_id":"4","last_reported":1687615582,"current_range_meters":24000,"station_id":"ce4bhbh2rcd13ifvqepg","pricing_plan_id":"free"},{"bike_id":"4fa7f9f2-823f-401e-a653-9a5cc9bb4235","system_id":"levelo_inurba_marseille","lat":43.28417,"lon":5.34977,"is_reserved":false,"is_disabled":false,"rental_uris":{"android":"levelo://app?vid=4fa7f9f2-823f-401e-a653-9a5cc9bb4235","ios":"levelo://app?vid=4fa7f9f2-823f-401e-a653-9a5cc9bb4235"},"vehicle_type_id":"4","last_reported":1687615582,"current_range_meters":13600,"station_id":"ce4bhbh2rcd13ifvqepg","pricing_plan_id":"free"},{"bike_id":"320e87c7-5f32-4f84-a1c8-bddf1595e316","system_id":"levelo_inurba_marseille","lat":43.284217,"lon":5.349697,"is_reserved":false,"is_disabled":false,"rental_uris":{"android":"levelo://app?vid=320e87c7-5f32-4f84-a1c8-bddf1595e316","ios":"levelo://app?vid=320e87c7-5f32-4f84-a1c8-bddf1595e316"},"vehicle_type_id":"4","last_reported":1687615582,"current_range_meters":22400,"station_id":"ce4bhbh2rcd13ifvqepg","pricing_plan_id":"free"},{"bike_id":"d0eec264-9f5d-41f7-8361-a2a5c46f64e2","system_id":"levelo_inurba_marseille","lat":43.284217,"lon":5.349697,"is_reserved":false,"is_disabled":false,"rental_uris":{"android":"levelo://app?vid=d0eec264-9f5d-41f7-8361-a2a5c46f64e2","ios":"levelo://app?vid=d0eec264-9f5d-41f7-8361-a2a5c46f64e2"},"vehicle_type_id":"4","last_reported":1687615582,"current_range_meters":25200,"station_id":"ce4bhbh2rcd13ifvqepg","pricing_plan_id":"free"},{"bike_id":"77c5016f-b961-42a1-899b-0da2b4bc813e","system_id":"levelo_inurba_marseille","lat":43.28413,"lon":5.34986,"is_reserved":false,"is_disabled":false,"rental_uris":{"android":"levelo://app?vid=77c5016f-b961-42a1-899b-0da2b4bc813e","ios":"levelo://app?vid=77c5016f-b961-42a1-899b-0da2b4bc813e"},"vehicle_type_id":"4","last_reported":1687615582,"current_range_meters":16000,"station_id":"ce4bhbh2rcd13ifvqepg","pricing_plan_id":"free"},{"bike_id":"9a9ccfa7-ad03-4406-9e8b-5267946ea002","system_id":"levelo_inurba_marseille","lat":43.284168,"lon":5.349709,"is_reserved":false,"is_disabled":false,"rental_uris":{"android":"levelo://app?vid=9a9ccfa7-ad03-4406-9e8b-5267946ea002","ios":"levelo://app?vid=9a9ccfa7-ad03-4406-9e8b-5267946ea002"},"vehicle_type_id":"4","last_reported":1687615582,"current_range_meters":18400,"station_id":"ce4bhbh2rcd13ifvqepg","pricing_plan_id":"free"},{"bike_id":"93bc5c67-7f85-4c1e-8f78-3342d90b62a6","system_id":"levelo_inurba_marseille","lat":43.284217,"lon":5.349697,"is_reserved":false,"is_disabled":false,"rental_uris":{"android":"levelo://app?vid=93bc5c67-7f85-4c1e-8f78-3342d90b62a6","ios":"levelo://app?vid=93bc5c67-7f85-4c1e-8f78-3342d90b62a6"},"vehicle_type_id":"4","last_reported":1687615582,"current_range_meters":14000,"station_id":"ce4bhbh2rcd13ifvqepg","pricing_plan_id":"free"},{"bike_id":"8216e25d-9f58-40ea-9e01-dff73bcac161","system_id":"levelo_inurba_marseille","lat":43.284217,"lon":5.349697,"is_reserved":false,"is_disabled":false,"rental_uris":{"android":"levelo://app?vid=8216e25d-9f58-40ea-9e01-dff73bcac161","ios":"levelo://app?vid=8216e25d-9f58-40ea-9e01-dff73bcac161"},"vehicle_type_id":"4","last_reported":1687615582,"current_range_meters":22400,"station_id":"ce4bhbh2rcd13ifvqepg","pricing_plan_id":"free"},{"bike_id":"bbe9d181-0f79-4680-8fc6-f9e581e36c4a","system_id":"levelo_inurba_marseille","lat":43.284217,"lon":5.349697,"is_reserved":false,"is_disabled":false,"rental_uris":{"android":"levelo://app?vid=bbe9d181-0f79-4680-8fc6-f9e581e36c4a","ios":"levelo://app?vid=bbe9d181-0f79-4680-8fc6-f9e581e36c4a"},"vehicle_type_id":"4","last_reported":1687615582,"current_range_meters":21600,"station_id":"ce4bhbh2rcd13ifvqepg","pricing_plan_id":"free"},{"bike_id":"02c4906c-8403-4025-af52-6609de01361f","system_id":"levelo_inurba_marseille","lat":43.284217,"lon":5.349697,"is_reserved":false,"is_disabled":false,"rental_uris":{"android":"levelo://app?vid=02c4906c-8403-4025-af52-6609de01361f","ios":"levelo://app?vid=02c4906c-8403-4025-af52-6609de01361f"},"vehicle_type_id":"4","last_reported":1687615582,"current_range_meters":31600,"station_id":"ce4bhbh2rcd13ifvqepg","pricing_plan_id":"free"},{"bike_id":"e4e9cb2d-e1ed-48ef-9478-8b91cad9d674","system_id":"levelo_inurba_marseille","lat":43.28409,"lon":5.34978,"is_reserved":false,"is_disabled":false,"rental_uris":{"android":"levelo://app?vid=e4e9cb2d-e1ed-48ef-9478-8b91cad9d674","ios":"levelo://app?vid=e4e9cb2d-e1ed-48ef-9478-8b91cad9d674"},"vehicle_type_id":"4","last_reported":1687615582,"current_range_meters":24400,"station_id":"ce4bhbh2rcd13ifvqepg","pricing_plan_id":"free"},{"bike_id":"ec379ecd-a000-4c96-927d-01b743353722","system_id":"levelo_inurba_marseille","lat":43.28283,"lon":5.3507,"is_reserved":false,"is_disabled":false,"rental_uris":{"android":"levelo://app?vid=ec379ecd-a000-4c96-927d-01b743353722","ios":"levelo://app?vid=ec379ecd-a000-4c96-927d-01b743353722"},"vehicle_type_id":"4","last_reported":1687615582,"current_range_meters":8400,"station_id":"ce4bhbp2rcd13ifvqerg","pricing_plan_id":"free"},{"bike_id":"acf54d17-67f0-489e-ac25-dde8cc798582","system_id":"levelo_inurba_marseille","lat":43.282744,"lon":5.350533,"is_reserved":false,"is_disabled":false,"rental_uris":{"android":"levelo://app?vid=acf54d17-67f0-489e-ac25-dde8cc798582","ios":"levelo://app?vid=acf54d17-67f0-489e-ac25-dde8cc798582"},"vehicle_type_id":"4","last_reported":1687615582,"current_range_meters":26000,"station_id":"ce4bhbp2rcd13ifvqerg","pricing_plan_id":"free"},{"bike_id":"57e6f643-ee1a-46a7-a3b0-0b5f1c1570ef","system_id":"levelo_inurba_marseille","lat":43.2827,"lon":5.35097,"is_reserved":false,"is_disabled":false,"rental_uris":{"android":"levelo://app?vid=57e6f643-ee1a-46a7-a3b0-0b5f1c1570ef","ios":"levelo://app?vid=57e6f643-ee1a-46a7-a3b0-0b5f1c1570ef"},"vehicle_type_id":"4","last_reported":1687615582,"current_range_meters":30800,"station_id":"ce4bhbp2rcd13ifvqerg","pricing_plan_id":"free"},{"bike_id":"19478cfe-8d5b-437c-b7a0-e3b2a4c07bee","system_id":"levelo_inurba_marseille","lat":43.282744,"lon":5.350533,"is_reserved":false,"is_disabled":false,"rental_uris":{"android":"levelo://app?vid=19478cfe-8d5b-437c-b7a0-e3b2a4c07bee","ios":"levelo://app?vid=19478cfe-8d5b-437c-b7a0-e3b2a4c07bee"},"vehicle_type_id":"4","last_reported":1687615582,"current_range_meters":4400,"station_id":"ce4bhbp2rcd13ifvqerg","pricing_plan_id":"free"},{"bike_id":"edb9fb3e-2372-44d2-9aed-e175e7a20102","system_id":"levelo_inurba_marseille","lat":43.28278,"lon":5.35064,"is_reserved":false,"is_disabled":false,"rental_uris":{"android":"levelo://app?vid=edb9fb3e-2372-44d2-9aed-e175e7a20102","ios":"levelo://app?vid=edb9fb3e-2372-44d2-9aed-e175e7a20102"},"vehicle_type_id":"4","last_reported":1687615582,"current_range_meters":13600,"station_id":"ce4bhbp2rcd13ifvqerg","pricing_plan_id":"free"},{"bike_id":"3e6fcdc8-5d6b-4946-b7ca-49d2d850a29e","system_id":"levelo_inurba_marseille","lat":43.28277,"lon":5.35066,"is_reserved":false,"is_disabled":false,"rental_uris":{"android":"levelo://app?vid=3e6fcdc8-5d6b-4946-b7ca-49d2d850a29e","ios":"levelo://app?vid=3e6fcdc8-5d6b-4946-b7ca-49d2d850a29e"},"vehicle_type_id":"4","last_reported":1687615582,"current_range_meters":11600,"station_id":"ce4bhbp2rcd13ifvqerg","pricing_plan_id":"free"},{"bike_id":"a11c26f4-e79a-4177-adaa-70b405d6f817","system_id":"levelo_inurba_marseille","lat":43.282744,"lon":5.350533,"is_reserved":false,"is_disabled":false,"rental_uris":{"android":"levelo://app?vid=a11c26f4-e79a-4177-adaa-70b405d6f817","ios":"levelo://app?vid=a11c26f4-e79a-4177-adaa-70b405d6f817"},"vehicle_type_id":"4","last_reported":1687615582,"current_range_meters":11600,"station_id":"ce4bhbp2rcd13ifvqerg","pricing_plan_id":"free"},{"bike_id":"294dda8c-558c-404a-ad77-0134ca40f7f2","system_id":"levelo_inurba_marseille","lat":43.28272,"lon":5.35068,"is_reserved":false,"is_disabled":false,"rental_uris":{"android":"levelo://app?vid=294dda8c-558c-404a-ad77-0134ca40f7f2","ios":"levelo://app?vid=294dda8c-558c-404a-ad77-0134ca40f7f2"},"vehicle_type_id":"4","last_reported":1687615582,"current_range_meters":21600,"station_id":"ce4bhbp2rcd13ifvqerg","pricing_plan_id":"free"},{"bike_id":"5ded880e-8986-406e-a2f2-eb55e02f2ee1","system_id":"levelo_inurba_marseille","lat":43.28273,"lon":5.35064,"is_reserved":false,"is_disabled":false,"rental_uris":{"android":"levelo://app?vid=5ded880e-8986-406e-a2f2-eb55e02f2ee1","ios":"levelo://app?vid=5ded880e-8986-406e-a2f2-eb55e02f2ee1"},"vehicle_type_id":"4","last_reported":1687615582,"current_range_meters":6400,"station_id":"ce4bhbp2rcd13ifvqerg","pricing_plan_id":"free"},{"bike_id":"9099dc91-0810-4145-bdfd-90b2d8461b0a","system_id":"levelo_inurba_marseille","lat":43.282744,"lon":5.350533,"is_reserved":false,"is_disabled":false,"rental_uris":{"android":"levelo://app?vid=9099dc91-0810-4145-bdfd-90b2d8461b0a","ios":"levelo://app?vid=9099dc91-0810-4145-bdfd-90b2d8461b0a"},"vehicle_type_id":"4","last_reported":1687615582,"current_range_meters":6800,"station_id":"ce4bhbp2rcd13ifvqerg","pricing_plan_id":"free"},{"bike_id":"e390d55b-b5b3-461f-ac26-452c16d893aa","system_id":"levelo_inurba_marseille","lat":43.28273,"lon":5.35057,"is_reserved":false,"is_disabled":false,"rental_uris":{"android":"levelo://app?vid=e390d55b-b5b3-461f-ac26-452c16d893aa","ios":"levelo://app?vid=e390d55b-b5b3-461f-ac26-452c16d893aa"},"vehicle_type_id":"4","last_reported":1687615582,"current_range_meters":24400,"station_id":"ce4bhbp2rcd13ifvqerg","pricing_plan_id":"free"},{"bike_id":"cb394547-a1b3-4e7e-b404-a4eedd2d97e3","system_id":"levelo_inurba_marseille","lat":43.28272,"lon":5.3506,"is_reserved":false,"is_disabled":false,"rental_uris":{"android":"levelo://app?vid=cb394547-a1b3-4e7e-b404-a4eedd2d97e3","ios":"levelo://app?vid=cb394547-a1b3-4e7e-b404-a4eedd2d97e3"},"vehicle_type_id":"4","last_reported":1687615582,"current_range_meters":10400,"station_id":"","pricing_plan_id":"free"},{"bike_id":"582f6a94-56ea-4670-b76b-73ad56a6435b","system_id":"levelo_inurba_marseille","lat":43.28267,"lon":5.35076,"is_reserved":false,"is_disabled":false,"rental_uris":{"android":"levelo://app?vid=582f6a94-56ea-4670-b76b-73ad56a6435b","ios":"levelo://app?vid=582f6a94-56ea-4670-b76b-73ad56a6435b"},"vehicle_type_id":"4","last_reported":1687615582,"current_range_meters":31200,"station_id":"ce4bhbp2rcd13ifvqerg","pricing_plan_id":"free"},{"bike_id":"e3ba0baf-66ba-4955-ae5f-69786cb0091e","system_id":"levelo_inurba_marseille","lat":43.28271,"lon":5.35062,"is_reserved":false,"is_disabled":false,"rental_uris":{"android":"levelo://app?vid=e3ba0baf-66ba-4955-ae5f-69786cb0091e","ios":"levelo://app?vid=e3ba0baf-66ba-4955-ae5f-69786cb0091e"},"vehicle_type_id":"4","last_reported":1687615582,"current_range_meters":12400,"station_id":"ce4bhbp2rcd13ifvqerg","pricing_plan_id":"free"},{"bike_id":"371933a3-f9df-444a-96d4-e71ae8edf2bf","system_id":"levelo_inurba_marseille","lat":43.28273,"lon":5.35055,"is_reserved":false,"is_disabled":false,"rental_uris":{"android":"levelo://app?vid=371933a3-f9df-444a-96d4-e71ae8edf2bf","ios":"levelo://app?vid=371933a3-f9df-444a-96d4-e71ae8edf2bf"},"vehicle_type_id":"4","last_reported":1687615582,"current_range_meters":16400,"station_id":"ce4bhbp2rcd13ifvqerg","pricing_plan_id":"free"},{"bike_id":"9fa0f7e5-74a6-4423-bf5f-185b8748e742","system_id":"levelo_inurba_marseille","lat":43.282744,"lon":5.350533,"is_reserved":false,"is_disabled":false,"rental_uris":{"android":"levelo://app?vid=9fa0f7e5-74a6-4423-bf5f-185b8748e742","ios":"levelo://app?vid=9fa0f7e5-74a6-4423-bf5f-185b8748e742"},"vehicle_type_id":"4","last_reported":1687615582,"current_range_meters":3600,"station_id":"ce4bhbp2rcd13ifvqerg","pricing_plan_id":"free"},{"bike_id":"d45c2ea8-38a9-4711-b6d4-7c76f8725480","system_id":"levelo_inurba_marseille","lat":43.282744,"lon":5.350533,"is_reserved":false,"is_disabled":false,"rental_uris":{"android":"levelo://app?vid=d45c2ea8-38a9-4711-b6d4-7c76f8725480","ios":"levelo://app?vid=d45c2ea8-38a9-4711-b6d4-7c76f8725480"},"vehicle_type_id":"4","last_reported":1687615582,"current_range_meters":18400,"station_id":"ce4bhbp2rcd13ifvqerg","pricing_plan_id":"free"},{"bike_id":"895ba554-35f7-4c70-85c7-1c803b4144a2","system_id":"levelo_inurba_marseille","lat":43.2827,"lon":5.35061,"is_reserved":false,"is_disabled":false,"rental_uris":{"android":"levelo://app?vid=895ba554-35f7-4c70-85c7-1c803b4144a2","ios":"levelo://app?vid=895ba554-35f7-4c70-85c7-1c803b4144a2"},"vehicle_type_id":"4","last_reported":1687615582,"current_range_meters":17600,"station_id":"ce4bhbp2rcd13ifvqerg","pricing_plan_id":"free"},{"bike_id":"4f2bb30b-f176-4b7d-b9b0-f8fda47c60ac","system_id":"levelo_inurba_marseille","lat":43.282744,"lon":5.350533,"is_reserved":false,"is_disabled":false,"rental_uris":{"android":"levelo://app?vid=4f2bb30b-f176-4b7d-b9b0-f8fda47c60ac","ios":"levelo://app?vid=4f2bb30b-f176-4b7d-b9b0-f8fda47c60ac"},"vehicle_type_id":"4","last_reported":1687615582,"current_range_meters":22000,"station_id":"ce4bhbp2rcd13ifvqerg","pricing_plan_id":"free"},{"bike_id":"ff64080b-745f-4311-81c1-5eae5e6d9b66","system_id":"levelo_inurba_marseille","lat":43.28268,"lon":5.35066,"is_reserved":false,"is_disabled":false,"rental_uris":{"android":"levelo://app?vid=ff64080b-745f-4311-81c1-5eae5e6d9b66","ios":"levelo://app?vid=ff64080b-745f-4311-81c1-5eae5e6d9b66"},"vehicle_type_id":"4","last_reported":1687615582,"current_range_meters":19200,"station_id":"ce4bhbp2rcd13ifvqerg","pricing_plan_id":"free"},{"bike_id":"0b62c6e0-b390-490e-a572-5f5e93fac96c","system_id":"levelo_inurba_marseille","lat":43.2827,"lon":5.35059,"is_reserved":false,"is_disabled":false,"rental_uris":{"android":"levelo://app?vid=0b62c6e0-b390-490e-a572-5f5e93fac96c","ios":"levelo://app?vid=0b62c6e0-b390-490e-a572-5f5e93fac96c"},"vehicle_type_id":"4","last_reported":1687615582,"current_range_meters":3600,"station_id":"ce4bhbp2rcd13ifvqerg","pricing_plan_id":"free"},{"bike_id":"5b86e09e-3a57-4e6d-86a5-16d7aec85668","system_id":"levelo_inurba_marseille","lat":43.282744,"lon":5.350533,"is_reserved":false,"is_disabled":false,"rental_uris":{"android":"levelo://app?vid=5b86e09e-3a57-4e6d-86a5-16d7aec85668","ios":"levelo://app?vid=5b86e09e-3a57-4e6d-86a5-16d7aec85668"},"vehicle_type_id":"4","last_reported":1687615582,"current_range_meters":24400,"station_id":"ce4bhbp2rcd13ifvqerg","pricing_plan_id":"free"},{"bike_id":"bed31abe-46fb-4578-826d-136bfe87401b","system_id":"levelo_inurba_marseille","lat":43.282744,"lon":5.350533,"is_reserved":false,"is_disabled":false,"rental_uris":{"android":"levelo://app?vid=bed31abe-46fb-4578-826d-136bfe87401b","ios":"levelo://app?vid=bed31abe-46fb-4578-826d-136bfe87401b"},"vehicle_type_id":"4","last_reported":1687615582,"current_range_meters":6800,"station_id":"ce4bhbp2rcd13ifvqerg","pricing_plan_id":"free"},{"bike_id":"caa6808c-e245-432f-9522-a426b108ce31","system_id":"levelo_inurba_marseille","lat":43.282744,"lon":5.350533,"is_reserved":false,"is_disabled":false,"rental_uris":{"android":"levelo://app?vid=caa6808c-e245-432f-9522-a426b108ce31","ios":"levelo://app?vid=caa6808c-e245-432f-9522-a426b108ce31"},"vehicle_type_id":"4","last_reported":1687615582,"current_range_meters":30800,"station_id":"ce4bhbp2rcd13ifvqerg","pricing_plan_id":"free"},{"bike_id":"53229d6c-f912-4c2e-93fd-a1918378357a","system_id":"levelo_inurba_marseille","lat":43.28268,"lon":5.35058,"is_reserved":false,"is_disabled":false,"rental_uris":{"android":"levelo://app?vid=53229d6c-f912-4c2e-93fd-a1918378357a","ios":"levelo://app?vid=53229d6c-f912-4c2e-93fd-a1918378357a"},"vehicle_type_id":"4","last_reported":1687615582,"current_range_meters":17600,"station_id":"ce4bhbp2rcd13ifvqerg","pricing_plan_id":"free"},{"bike_id":"3a72d835-8daa-4aae-9fbe-64b6a8cda4c4","system_id":"levelo_inurba_marseille","lat":43.282744,"lon":5.350533,"is_reserved":false,"is_disabled":false,"rental_uris":{"android":"levelo://app?vid=3a72d835-8daa-4aae-9fbe-64b6a8cda4c4","ios":"levelo://app?vid=3a72d835-8daa-4aae-9fbe-64b6a8cda4c4"},"vehicle_type_id":"4","last_reported":1687615582,"current_range_meters":9600,"station_id":"ce4bhbp2rcd13ifvqerg","pricing_plan_id":"free"},{"bike_id":"55fe4988-6bb6-43d9-9048-6b7d27fb11b0","system_id":"levelo_inurba_marseille","lat":43.28039,"lon":5.369297,"is_reserved":false,"is_disabled":false,"rental_uris":{"android":"levelo://app?vid=55fe4988-6bb6-43d9-9048-6b7d27fb11b0","ios":"levelo://app?vid=55fe4988-6bb6-43d9-9048-6b7d27fb11b0"},"vehicle_type_id":"4","last_reported":1687615582,"current_range_meters":13600,"station_id":"ce4bha12rcd13ifvqef0","pricing_plan_id":"free"},{"bike_id":"ff60adae-f71a-4e2f-9c03-c28e9ecc3c45","system_id":"levelo_inurba_marseille","lat":43.32715,"lon":5.40772,"is_reserved":false,"is_disabled":false,"rental_uris":{"android":"levelo://app?vid=ff60adae-f71a-4e2f-9c03-c28e9ecc3c45","ios":"levelo://app?vid=ff60adae-f71a-4e2f-9c03-c28e9ecc3c45"},"vehicle_type_id":"4","last_reported":1687615582,"current_range_meters":4800,"station_id":"","pricing_plan_id":"free"},{"bike_id":"46207a86-a5bb-4e44-be8e-4332fe3bd580","system_id":"levelo_inurba_marseille","lat":43.284462,"lon":5.392121,"is_reserved":false,"is_disabled":false,"rental_uris":{"android":"levelo://app?vid=46207a86-a5bb-4e44-be8e-4332fe3bd580","ios":"levelo://app?vid=46207a86-a5bb-4e44-be8e-4332fe3bd580"},"vehicle_type_id":"4","last_reported":1687615582,"current_range_meters":3200,"station_id":"ce4bhoh2rcd13ifvqh5g","pricing_plan_id":"free"},{"bike_id":"514e4d9d-f74c-4bd1-8d07-610055ad8743","system_id":"levelo_inurba_marseille","lat":43.32661,"lon":5.40982,"is_reserved":false,"is_disabled":false,"rental_uris":{"android":"levelo://app?vid=514e4d9d-f74c-4bd1-8d07-610055ad8743","ios":"levelo://app?vid=514e4d9d-f74c-4bd1-8d07-610055ad8743"},"vehicle_type_id":"4","last_reported":1687615582,"current_range_meters":10000,"station_id":"ce4bhpp2rcd13ifvqhgg","pricing_plan_id":"free"},{"bike_id":"5de98341-c4f0-4072-bcea-73b5bf2f2859","system_id":"levelo_inurba_marseille","lat":43.326605,"lon":5.409903,"is_reserved":false,"is_disabled":false,"rental_uris":{"android":"levelo://app?vid=5de98341-c4f0-4072-bcea-73b5bf2f2859","ios":"levelo://app?vid=5de98341-c4f0-4072-bcea-73b5bf2f2859"},"vehicle_type_id":"4","last_reported":1687615582,"current_range_meters":30400,"station_id":"ce4bhpp2rcd13ifvqhgg","pricing_plan_id":"free"},{"bike_id":"944cc645-9c61-42d4-8b7e-807c114cae2f","system_id":"levelo_inurba_marseille","lat":43.3266,"lon":5.40986,"is_reserved":false,"is_disabled":false,"rental_uris":{"android":"levelo://app?vid=944cc645-9c61-42d4-8b7e-807c114cae2f","ios":"levelo://app?vid=944cc645-9c61-42d4-8b7e-807c114cae2f"},"vehicle_type_id":"4","last_reported":1687615582,"current_range_meters":30400,"station_id":"ce4bhpp2rcd13ifvqhgg","pricing_plan_id":"free"},{"bike_id":"fc2a51fe-3bf8-46f3-9fe8-f24612d4a02a","system_id":"levelo_inurba_marseille","lat":43.326565,"lon":5.409975,"is_reserved":false,"is_disabled":false,"rental_uris":{"android":"levelo://app?vid=fc2a51fe-3bf8-46f3-9fe8-f24612d4a02a","ios":"levelo://app?vid=fc2a51fe-3bf8-46f3-9fe8-f24612d4a02a"},"vehicle_type_id":"4","last_reported":1687615582,"current_range_meters":3200,"station_id":"ce4bhpp2rcd13ifvqhgg","pricing_plan_id":"free"},{"bike_id":"15d6790e-c95b-494c-8abc-7c1762777321","system_id":"levelo_inurba_marseille","lat":43.27964,"lon":5.35373,"is_reserved":false,"is_disabled":false,"rental_uris":{"android":"levelo://app?vid=15d6790e-c95b-494c-8abc-7c1762777321","ios":"levelo://app?vid=15d6790e-c95b-494c-8abc-7c1762777321"},"vehicle_type_id":"4","last_reported":1687615582,"current_range_meters":0,"station_id":"","pricing_plan_id":"free"},{"bike_id":"92d20a4c-87c2-42f8-b369-e2a3f1eb9aa5","system_id":"levelo_inurba_marseille","lat":43.28065,"lon":5.34768,"is_reserved":false,"is_disabled":false,"rental_uris":{"android":"levelo://app?vid=92d20a4c-87c2-42f8-b369-e2a3f1eb9aa5","ios":"levelo://app?vid=92d20a4c-87c2-42f8-b369-e2a3f1eb9aa5"},"vehicle_type_id":"4","last_reported":1687615582,"current_range_meters":4800,"station_id":"","pricing_plan_id":"free"},{"bike_id":"50fd953c-9754-45f4-aec7-ae52bb9eb6fe","system_id":"levelo_inurba_marseille","lat":43.287154,"lon":5.399979,"is_reserved":false,"is_disabled":false,"rental_uris":{"android":"levelo://app?vid=50fd953c-9754-45f4-aec7-ae52bb9eb6fe","ios":"levelo://app?vid=50fd953c-9754-45f4-aec7-ae52bb9eb6fe"},"vehicle_type_id":"4","last_reported":1687615582,"current_range_meters":31600,"station_id":"ce4bho92rcd13ifvqh3g","pricing_plan_id":"free"},{"bike_id":"8a41a8b8-9a35-4187-a50c-2e5cb059ceb3","system_id":"levelo_inurba_marseille","lat":43.320045,"lon":5.415048,"is_reserved":false,"is_disabled":false,"rental_uris":{"android":"levelo://app?vid=8a41a8b8-9a35-4187-a50c-2e5cb059ceb3","ios":"levelo://app?vid=8a41a8b8-9a35-4187-a50c-2e5cb059ceb3"},"vehicle_type_id":"4","last_reported":1687615582,"current_range_meters":31600,"station_id":"ce4bhq92rcd13ifvqhkg","pricing_plan_id":"free"},{"bike_id":"9197d768-935a-4a09-bd6c-c6864e33e9c7","system_id":"levelo_inurba_marseille","lat":43.320045,"lon":5.415048,"is_reserved":false,"is_disabled":false,"rental_uris":{"android":"levelo://app?vid=9197d768-935a-4a09-bd6c-c6864e33e9c7","ios":"levelo://app?vid=9197d768-935a-4a09-bd6c-c6864e33e9c7"},"vehicle_type_id":"4","last_reported":1687615582,"current_range_meters":31200,"station_id":"ce4bhq92rcd13ifvqhkg","pricing_plan_id":"free"},{"bike_id":"d1ee3eeb-b6d2-4502-8c4e-66513d598e4d","system_id":"levelo_inurba_marseille","lat":43.320045,"lon":5.415048,"is_reserved":false,"is_disabled":false,"rental_uris":{"android":"levelo://app?vid=d1ee3eeb-b6d2-4502-8c4e-66513d598e4d","ios":"levelo://app?vid=d1ee3eeb-b6d2-4502-8c4e-66513d598e4d"},"vehicle_type_id":"4","last_reported":1687615582,"current_range_meters":29200,"station_id":"ce4bhq92rcd13ifvqhkg","pricing_plan_id":"free"},{"bike_id":"14c9cff9-ef50-4c6d-8fa4-9a1095daa1fd","system_id":"levelo_inurba_marseille","lat":43.299579,"lon":5.413255,"is_reserved":false,"is_disabled":false,"rental_uris":{"android":"levelo://app?vid=14c9cff9-ef50-4c6d-8fa4-9a1095daa1fd","ios":"levelo://app?vid=14c9cff9-ef50-4c6d-8fa4-9a1095daa1fd"},"vehicle_type_id":"4","last_reported":1687615582,"current_range_meters":31200,"station_id":"ce4bhp12rcd13ifvqh9g","pricing_plan_id":"free"},{"bike_id":"ed1c94f0-8a0b-4a63-a93e-6771127b17ab","system_id":"levelo_inurba_marseille","lat":43.29958,"lon":5.41319,"is_reserved":false,"is_disabled":false,"rental_uris":{"android":"levelo://app?vid=ed1c94f0-8a0b-4a63-a93e-6771127b17ab","ios":"levelo://app?vid=ed1c94f0-8a0b-4a63-a93e-6771127b17ab"},"vehicle_type_id":"4","last_reported":1687615582,"current_range_meters":16000,"station_id":"ce4bhp12rcd13ifvqh9g","pricing_plan_id":"free"},{"bike_id":"cc3079b5-848e-4588-aff1-afe1ae5dd557","system_id":"levelo_inurba_marseille","lat":43.320045,"lon":5.415048,"is_reserved":false,"is_disabled":false,"rental_uris":{"android":"levelo://app?vid=cc3079b5-848e-4588-aff1-afe1ae5dd557","ios":"levelo://app?vid=cc3079b5-848e-4588-aff1-afe1ae5dd557"},"vehicle_type_id":"4","last_reported":1687615582,"current_range_meters":31600,"station_id":"ce4bhq92rcd13ifvqhkg","pricing_plan_id":"free"},{"bike_id":"27e72165-7243-456a-a337-a0adaad0e220","system_id":"levelo_inurba_marseille","lat":43.320045,"lon":5.415046,"is_reserved":false,"is_disabled":false,"rental_uris":{"android":"levelo://app?vid=27e72165-7243-456a-a337-a0adaad0e220","ios":"levelo://app?vid=27e72165-7243-456a-a337-a0adaad0e220"},"vehicle_type_id":"4","last_reported":1687615582,"current_range_meters":27600,"station_id":"ce4bhq92rcd13ifvqhkg","pricing_plan_id":"free"},{"bike_id":"a5db1ab2-8349-49de-b400-2b29dc124992","system_id":"levelo_inurba_marseille","lat":43.29952,"lon":5.41318,"is_reserved":false,"is_disabled":false,"rental_uris":{"android":"levelo://app?vid=a5db1ab2-8349-49de-b400-2b29dc124992","ios":"levelo://app?vid=a5db1ab2-8349-49de-b400-2b29dc124992"},"vehicle_type_id":"4","last_reported":1687615582,"current_range_meters":10800,"station_id":"ce4bhp12rcd13ifvqh9g","pricing_plan_id":"free"},{"bike_id":"a328d948-3887-4529-9236-102b8cb5a4fc","system_id":"levelo_inurba_marseille","lat":43.320045,"lon":5.415046,"is_reserved":false,"is_disabled":false,"rental_uris":{"android":"levelo://app?vid=a328d948-3887-4529-9236-102b8cb5a4fc","ios":"levelo://app?vid=a328d948-3887-4529-9236-102b8cb5a4fc"},"vehicle_type_id":"4","last_reported":1687615582,"current_range_meters":27600,"station_id":"ce4bhq92rcd13ifvqhkg","pricing_plan_id":"free"},{"bike_id":"3648e08d-69ce-4934-be06-e42c2abbd526","system_id":"levelo_inurba_marseille","lat":43.320045,"lon":5.415046,"is_reserved":false,"is_disabled":false,"rental_uris":{"android":"levelo://app?vid=3648e08d-69ce-4934-be06-e42c2abbd526","ios":"levelo://app?vid=3648e08d-69ce-4934-be06-e42c2abbd526"},"vehicle_type_id":"4","last_reported":1687615582,"current_range_meters":31200,"station_id":"ce4bhq92rcd13ifvqhkg","pricing_plan_id":"free"},{"bike_id":"56b1fb02-a75b-457e-a05e-d2e5166b6ee7","system_id":"levelo_inurba_marseille","lat":43.320045,"lon":5.415048,"is_reserved":false,"is_disabled":false,"rental_uris":{"android":"levelo://app?vid=56b1fb02-a75b-457e-a05e-d2e5166b6ee7","ios":"levelo://app?vid=56b1fb02-a75b-457e-a05e-d2e5166b6ee7"},"vehicle_type_id":"4","last_reported":1687615582,"current_range_meters":29200,"station_id":"ce4bhq92rcd13ifvqhkg","pricing_plan_id":"free"},{"bike_id":"25fbec75-4b67-47e9-a9b8-cf1a69311c4e","system_id":"levelo_inurba_marseille","lat":43.320045,"lon":5.415046,"is_reserved":false,"is_disabled":false,"rental_uris":{"android":"levelo://app?vid=25fbec75-4b67-47e9-a9b8-cf1a69311c4e","ios":"levelo://app?vid=25fbec75-4b67-47e9-a9b8-cf1a69311c4e"},"vehicle_type_id":"4","last_reported":1687615582,"current_range_meters":31600,"station_id":"ce4bhq92rcd13ifvqhkg","pricing_plan_id":"free"},{"bike_id":"fb5ac1ef-e24f-4cbc-a17d-711eeec46c5f","system_id":"levelo_inurba_marseille","lat":43.276179,"lon":5.361009,"is_reserved":false,"is_disabled":false,"rental_uris":{"android":"levelo://app?vid=fb5ac1ef-e24f-4cbc-a17d-711eeec46c5f","ios":"levelo://app?vid=fb5ac1ef-e24f-4cbc-a17d-711eeec46c5f"},"vehicle_type_id":"4","last_reported":1687615582,"current_range_meters":9600,"station_id":"ce4bgj92rcd13ifvqbe0","pricing_plan_id":"free"},{"bike_id":"553ec7bc-22d9-410b-a19c-0869c9c03642","system_id":"levelo_inurba_marseille","lat":43.276179,"lon":5.361009,"is_reserved":false,"is_disabled":false,"rental_uris":{"android":"levelo://app?vid=553ec7bc-22d9-410b-a19c-0869c9c03642","ios":"levelo://app?vid=553ec7bc-22d9-410b-a19c-0869c9c03642"},"vehicle_type_id":"4","last_reported":1687615582,"current_range_meters":25200,"station_id":"ce4bgj92rcd13ifvqbe0","pricing_plan_id":"free"},{"bike_id":"07f1afa6-9769-4607-a5ab-f925cee589b4","system_id":"levelo_inurba_marseille","lat":43.276179,"lon":5.361009,"is_reserved":false,"is_disabled":false,"rental_uris":{"android":"levelo://app?vid=07f1afa6-9769-4607-a5ab-f925cee589b4","ios":"levelo://app?vid=07f1afa6-9769-4607-a5ab-f925cee589b4"},"vehicle_type_id":"4","last_reported":1687615582,"current_range_meters":22800,"station_id":"ce4bgj92rcd13ifvqbe0","pricing_plan_id":"free"},{"bike_id":"265e9839-5686-442c-9b91-94874b6a24b0","system_id":"levelo_inurba_marseille","lat":43.28079,"lon":5.39652,"is_reserved":false,"is_disabled":false,"rental_uris":{"android":"levelo://app?vid=265e9839-5686-442c-9b91-94874b6a24b0","ios":"levelo://app?vid=265e9839-5686-442c-9b91-94874b6a24b0"},"vehicle_type_id":"4","last_reported":1687615582,"current_range_meters":0,"station_id":"ce4bho12rcd13ifvqh2g","pricing_plan_id":"free"},{"bike_id":"9dcf2228-36a7-4c5b-b1d0-ae308dae8cfd","system_id":"levelo_inurba_marseille","lat":43.303837,"lon":5.418724,"is_reserved":false,"is_disabled":false,"rental_uris":{"android":"levelo://app?vid=9dcf2228-36a7-4c5b-b1d0-ae308dae8cfd","ios":"levelo://app?vid=9dcf2228-36a7-4c5b-b1d0-ae308dae8cfd"},"vehicle_type_id":"4","last_reported":1687615582,"current_range_meters":27600,"station_id":"ce4bhop2rcd13ifvqh7g","pricing_plan_id":"free"},{"bike_id":"78e650a7-157a-4d72-872d-3c5b118d4899","system_id":"levelo_inurba_marseille","lat":43.30354,"lon":5.41876,"is_reserved":false,"is_disabled":false,"rental_uris":{"android":"levelo://app?vid=78e650a7-157a-4d72-872d-3c5b118d4899","ios":"levelo://app?vid=78e650a7-157a-4d72-872d-3c5b118d4899"},"vehicle_type_id":"4","last_reported":1687615582,"current_range_meters":24400,"station_id":"","pricing_plan_id":"free"},{"bike_id":"f4e95360-905e-4c42-9d6f-b81674eb11da","system_id":"levelo_inurba_marseille","lat":43.30355,"lon":5.41879,"is_reserved":false,"is_disabled":false,"rental_uris":{"android":"levelo://app?vid=f4e95360-905e-4c42-9d6f-b81674eb11da","ios":"levelo://app?vid=f4e95360-905e-4c42-9d6f-b81674eb11da"},"vehicle_type_id":"4","last_reported":1687615582,"current_range_meters":25600,"station_id":"","pricing_plan_id":"free"},{"bike_id":"78948fda-a69f-42d6-bc04-b0159d887eae","system_id":"levelo_inurba_marseille","lat":43.30354,"lon":5.41881,"is_reserved":false,"is_disabled":false,"rental_uris":{"android":"levelo://app?vid=78948fda-a69f-42d6-bc04-b0159d887eae","ios":"levelo://app?vid=78948fda-a69f-42d6-bc04-b0159d887eae"},"vehicle_type_id":"4","last_reported":1687615582,"current_range_meters":12800,"station_id":"","pricing_plan_id":"free"},{"bike_id":"083f3400-7964-4d86-87b5-740fbe29ed20","system_id":"levelo_inurba_marseille","lat":43.27385,"lon":5.36261,"is_reserved":false,"is_disabled":false,"rental_uris":{"android":"levelo://app?vid=083f3400-7964-4d86-87b5-740fbe29ed20","ios":"levelo://app?vid=083f3400-7964-4d86-87b5-740fbe29ed20"},"vehicle_type_id":"4","last_reported":1687615582,"current_range_meters":15600,"station_id":"ce4bhbh2rcd13ifvqeo0","pricing_plan_id":"free"},{"bike_id":"7a5f2a05-33ab-491d-be5d-108bcaa7cd60","system_id":"levelo_inurba_marseille","lat":43.273613,"lon":5.362705,"is_reserved":false,"is_disabled":false,"rental_uris":{"android":"levelo://app?vid=7a5f2a05-33ab-491d-be5d-108bcaa7cd60","ios":"levelo://app?vid=7a5f2a05-33ab-491d-be5d-108bcaa7cd60"},"vehicle_type_id":"4","last_reported":1687615582,"current_range_meters":31200,"station_id":"ce4bhbh2rcd13ifvqeo0","pricing_plan_id":"free"},{"bike_id":"20d09f87-2635-420c-b4c4-160aee501f63","system_id":"levelo_inurba_marseille","lat":43.273613,"lon":5.362705,"is_reserved":false,"is_disabled":false,"rental_uris":{"android":"levelo://app?vid=20d09f87-2635-420c-b4c4-160aee501f63","ios":"levelo://app?vid=20d09f87-2635-420c-b4c4-160aee501f63"},"vehicle_type_id":"4","last_reported":1687615582,"current_range_meters":12800,"station_id":"ce4bhbh2rcd13ifvqeo0","pricing_plan_id":"free"},{"bike_id":"184278fb-c4b5-4ba6-bce5-58ed91cd395f","system_id":"levelo_inurba_marseille","lat":43.273613,"lon":5.362705,"is_reserved":false,"is_disabled":false,"rental_uris":{"android":"levelo://app?vid=184278fb-c4b5-4ba6-bce5-58ed91cd395f","ios":"levelo://app?vid=184278fb-c4b5-4ba6-bce5-58ed91cd395f"},"vehicle_type_id":"4","last_reported":1687615582,"current_range_meters":12800,"station_id":"ce4bhbh2rcd13ifvqeo0","pricing_plan_id":"free"},{"bike_id":"fec920aa-5928-48d0-8630-4988423954be","system_id":"levelo_inurba_marseille","lat":43.27382,"lon":5.36256,"is_reserved":false,"is_disabled":false,"rental_uris":{"android":"levelo://app?vid=fec920aa-5928-48d0-8630-4988423954be","ios":"levelo://app?vid=fec920aa-5928-48d0-8630-4988423954be"},"vehicle_type_id":"4","last_reported":1687615582,"current_range_meters":31200,"station_id":"ce4bhbh2rcd13ifvqeo0","pricing_plan_id":"free"},{"bike_id":"f0ba1bdc-274a-4403-9335-16f001a849c0","system_id":"levelo_inurba_marseille","lat":43.273613,"lon":5.362705,"is_reserved":false,"is_disabled":false,"rental_uris":{"android":"levelo://app?vid=f0ba1bdc-274a-4403-9335-16f001a849c0","ios":"levelo://app?vid=f0ba1bdc-274a-4403-9335-16f001a849c0"},"vehicle_type_id":"4","last_reported":1687615582,"current_range_meters":16400,"station_id":"ce4bhbh2rcd13ifvqeo0","pricing_plan_id":"free"},{"bike_id":"a6dbd9b4-5d0e-46f7-b914-b9b8e204749f","system_id":"levelo_inurba_marseille","lat":43.273613,"lon":5.362705,"is_reserved":false,"is_disabled":false,"rental_uris":{"android":"levelo://app?vid=a6dbd9b4-5d0e-46f7-b914-b9b8e204749f","ios":"levelo://app?vid=a6dbd9b4-5d0e-46f7-b914-b9b8e204749f"},"vehicle_type_id":"4","last_reported":1687615582,"current_range_meters":22000,"station_id":"ce4bhbh2rcd13ifvqeo0","pricing_plan_id":"free"},{"bike_id":"17ae740a-0cf7-4672-8e6a-2681eb5e87d4","system_id":"levelo_inurba_marseille","lat":43.273812,"lon":5.362614,"is_reserved":false,"is_disabled":false,"rental_uris":{"android":"levelo://app?vid=17ae740a-0cf7-4672-8e6a-2681eb5e87d4","ios":"levelo://app?vid=17ae740a-0cf7-4672-8e6a-2681eb5e87d4"},"vehicle_type_id":"4","last_reported":1687615582,"current_range_meters":25200,"station_id":"ce4bhbh2rcd13ifvqeo0","pricing_plan_id":"free"},{"bike_id":"5d60cd9a-4014-4f80-ac0a-701343470b48","system_id":"levelo_inurba_marseille","lat":43.273613,"lon":5.362705,"is_reserved":false,"is_disabled":false,"rental_uris":{"android":"levelo://app?vid=5d60cd9a-4014-4f80-ac0a-701343470b48","ios":"levelo://app?vid=5d60cd9a-4014-4f80-ac0a-701343470b48"},"vehicle_type_id":"4","last_reported":1687615582,"current_range_meters":31600,"station_id":"ce4bhbh2rcd13ifvqeo0","pricing_plan_id":"free"},{"bike_id":"71d94b29-418c-41e4-9540-8a47e0b675c9","system_id":"levelo_inurba_marseille","lat":43.273613,"lon":5.362705,"is_reserved":false,"is_disabled":false,"rental_uris":{"android":"levelo://app?vid=71d94b29-418c-41e4-9540-8a47e0b675c9","ios":"levelo://app?vid=71d94b29-418c-41e4-9540-8a47e0b675c9"},"vehicle_type_id":"4","last_reported":1687615582,"current_range_meters":23600,"station_id":"ce4bhbh2rcd13ifvqeo0","pricing_plan_id":"free"},{"bike_id":"07671372-68ac-49a7-aea8-7eba409585f6","system_id":"levelo_inurba_marseille","lat":43.273613,"lon":5.362705,"is_reserved":false,"is_disabled":false,"rental_uris":{"android":"levelo://app?vid=07671372-68ac-49a7-aea8-7eba409585f6","ios":"levelo://app?vid=07671372-68ac-49a7-aea8-7eba409585f6"},"vehicle_type_id":"4","last_reported":1687615582,"current_range_meters":15600,"station_id":"ce4bhbh2rcd13ifvqeo0","pricing_plan_id":"free"},{"bike_id":"aee2bc11-f975-4296-8bbe-70e68d0c566a","system_id":"levelo_inurba_marseille","lat":43.273613,"lon":5.362705,"is_reserved":false,"is_disabled":false,"rental_uris":{"android":"levelo://app?vid=aee2bc11-f975-4296-8bbe-70e68d0c566a","ios":"levelo://app?vid=aee2bc11-f975-4296-8bbe-70e68d0c566a"},"vehicle_type_id":"4","last_reported":1687615582,"current_range_meters":21200,"station_id":"ce4bhbh2rcd13ifvqeo0","pricing_plan_id":"free"},{"bike_id":"64c4ac0d-ffe2-469c-b0bd-d75164f54046","system_id":"levelo_inurba_marseille","lat":43.273613,"lon":5.362705,"is_reserved":false,"is_disabled":false,"rental_uris":{"android":"levelo://app?vid=64c4ac0d-ffe2-469c-b0bd-d75164f54046","ios":"levelo://app?vid=64c4ac0d-ffe2-469c-b0bd-d75164f54046"},"vehicle_type_id":"4","last_reported":1687615582,"current_range_meters":13600,"station_id":"ce4bhbh2rcd13ifvqeo0","pricing_plan_id":"free"},{"bike_id":"94f1293d-56d3-4adc-98e9-2c48a3b93f02","system_id":"levelo_inurba_marseille","lat":43.273613,"lon":5.362705,"is_reserved":false,"is_disabled":false,"rental_uris":{"android":"levelo://app?vid=94f1293d-56d3-4adc-98e9-2c48a3b93f02","ios":"levelo://app?vid=94f1293d-56d3-4adc-98e9-2c48a3b93f02"},"vehicle_type_id":"4","last_reported":1687615582,"current_range_meters":20400,"station_id":"ce4bhbh2rcd13ifvqeo0","pricing_plan_id":"free"},{"bike_id":"37076e43-3f08-4d29-89d7-62bc0cd52067","system_id":"levelo_inurba_marseille","lat":43.27377,"lon":5.36261,"is_reserved":false,"is_disabled":false,"rental_uris":{"android":"levelo://app?vid=37076e43-3f08-4d29-89d7-62bc0cd52067","ios":"levelo://app?vid=37076e43-3f08-4d29-89d7-62bc0cd52067"},"vehicle_type_id":"4","last_reported":1687615582,"current_range_meters":17200,"station_id":"ce4bhbh2rcd13ifvqeo0","pricing_plan_id":"free"},{"bike_id":"0913d858-3663-4497-b2de-35378c985892","system_id":"levelo_inurba_marseille","lat":43.273613,"lon":5.362705,"is_reserved":false,"is_disabled":false,"rental_uris":{"android":"levelo://app?vid=0913d858-3663-4497-b2de-35378c985892","ios":"levelo://app?vid=0913d858-3663-4497-b2de-35378c985892"},"vehicle_type_id":"4","last_reported":1687615582,"current_range_meters":24800,"station_id":"ce4bhbh2rcd13ifvqeo0","pricing_plan_id":"free"},{"bike_id":"18f3f0db-9283-405d-965c-bcbb0793f933","system_id":"levelo_inurba_marseille","lat":43.273609,"lon":5.362708,"is_reserved":false,"is_disabled":false,"rental_uris":{"android":"levelo://app?vid=18f3f0db-9283-405d-965c-bcbb0793f933","ios":"levelo://app?vid=18f3f0db-9283-405d-965c-bcbb0793f933"},"vehicle_type_id":"4","last_reported":1687615582,"current_range_meters":31600,"station_id":"ce4bhbh2rcd13ifvqeo0","pricing_plan_id":"free"},{"bike_id":"11646277-3de0-41e6-93b5-099e8d9f1696","system_id":"levelo_inurba_marseille","lat":43.273609,"lon":5.362708,"is_reserved":false,"is_disabled":false,"rental_uris":{"android":"levelo://app?vid=11646277-3de0-41e6-93b5-099e8d9f1696","ios":"levelo://app?vid=11646277-3de0-41e6-93b5-099e8d9f1696"},"vehicle_type_id":"4","last_reported":1687615582,"current_range_meters":32000,"station_id":"ce4bhbh2rcd13ifvqeo0","pricing_plan_id":"free"},{"bike_id":"38118899-2064-4d4b-94e9-26d9e04d01da","system_id":"levelo_inurba_marseille","lat":43.273609,"lon":5.362708,"is_reserved":false,"is_disabled":false,"rental_uris":{"android":"levelo://app?vid=38118899-2064-4d4b-94e9-26d9e04d01da","ios":"levelo://app?vid=38118899-2064-4d4b-94e9-26d9e04d01da"},"vehicle_type_id":"4","last_reported":1687615582,"current_range_meters":23600,"station_id":"ce4bhbh2rcd13ifvqeo0","pricing_plan_id":"free"},{"bike_id":"137eef42-c031-46bf-ab28-9bf867b0dbca","system_id":"levelo_inurba_marseille","lat":43.27376,"lon":5.3625,"is_reserved":false,"is_disabled":false,"rental_uris":{"android":"levelo://app?vid=137eef42-c031-46bf-ab28-9bf867b0dbca","ios":"levelo://app?vid=137eef42-c031-46bf-ab28-9bf867b0dbca"},"vehicle_type_id":"4","last_reported":1687615582,"current_range_meters":14800,"station_id":"ce4bhbh2rcd13ifvqeo0","pricing_plan_id":"free"},{"bike_id":"13445ec0-d9e3-4f5d-b9b1-4d19c78ecae9","system_id":"levelo_inurba_marseille","lat":43.273613,"lon":5.362705,"is_reserved":false,"is_disabled":false,"rental_uris":{"android":"levelo://app?vid=13445ec0-d9e3-4f5d-b9b1-4d19c78ecae9","ios":"levelo://app?vid=13445ec0-d9e3-4f5d-b9b1-4d19c78ecae9"},"vehicle_type_id":"4","last_reported":1687615582,"current_range_meters":31600,"station_id":"ce4bhbh2rcd13ifvqeo0","pricing_plan_id":"free"},{"bike_id":"bb6acc4e-e5c2-431a-bb95-b7290824b0fc","system_id":"levelo_inurba_marseille","lat":43.27374,"lon":5.36256,"is_reserved":false,"is_disabled":false,"rental_uris":{"android":"levelo://app?vid=bb6acc4e-e5c2-431a-bb95-b7290824b0fc","ios":"levelo://app?vid=bb6acc4e-e5c2-431a-bb95-b7290824b0fc"},"vehicle_type_id":"4","last_reported":1687615582,"current_range_meters":10400,"station_id":"ce4bhbh2rcd13ifvqeo0","pricing_plan_id":"free"},{"bike_id":"5a224d26-8ced-42c1-9e9d-998616494d4e","system_id":"levelo_inurba_marseille","lat":43.27374,"lon":5.36256,"is_reserved":false,"is_disabled":false,"rental_uris":{"android":"levelo://app?vid=5a224d26-8ced-42c1-9e9d-998616494d4e","ios":"levelo://app?vid=5a224d26-8ced-42c1-9e9d-998616494d4e"},"vehicle_type_id":"4","last_reported":1687615582,"current_range_meters":28000,"station_id":"ce4bhbh2rcd13ifvqeo0","pricing_plan_id":"free"},{"bike_id":"bf6367b2-484b-4a74-afce-302e8e859df3","system_id":"levelo_inurba_marseille","lat":43.273613,"lon":5.362705,"is_reserved":false,"is_disabled":false,"rental_uris":{"android":"levelo://app?vid=bf6367b2-484b-4a74-afce-302e8e859df3","ios":"levelo://app?vid=bf6367b2-484b-4a74-afce-302e8e859df3"},"vehicle_type_id":"4","last_reported":1687615582,"current_range_meters":31600,"station_id":"ce4bhbh2rcd13ifvqeo0","pricing_plan_id":"free"},{"bike_id":"99b7a8e4-e738-4afa-8721-6e575592fb41","system_id":"levelo_inurba_marseille","lat":43.273613,"lon":5.362705,"is_reserved":false,"is_disabled":false,"rental_uris":{"android":"levelo://app?vid=99b7a8e4-e738-4afa-8721-6e575592fb41","ios":"levelo://app?vid=99b7a8e4-e738-4afa-8721-6e575592fb41"},"vehicle_type_id":"4","last_reported":1687615582,"current_range_meters":31600,"station_id":"ce4bhbh2rcd13ifvqeo0","pricing_plan_id":"free"},{"bike_id":"1e080dad-9563-450f-9182-6068e837aad4","system_id":"levelo_inurba_marseille","lat":43.273613,"lon":5.362705,"is_reserved":false,"is_disabled":false,"rental_uris":{"android":"levelo://app?vid=1e080dad-9563-450f-9182-6068e837aad4","ios":"levelo://app?vid=1e080dad-9563-450f-9182-6068e837aad4"},"vehicle_type_id":"4","last_reported":1687615582,"current_range_meters":11200,"station_id":"ce4bhbh2rcd13ifvqeo0","pricing_plan_id":"free"},{"bike_id":"624eac60-cf0b-48eb-a7e9-8f6235cc6d83","system_id":"levelo_inurba_marseille","lat":43.273609,"lon":5.362708,"is_reserved":false,"is_disabled":false,"rental_uris":{"android":"levelo://app?vid=624eac60-cf0b-48eb-a7e9-8f6235cc6d83","ios":"levelo://app?vid=624eac60-cf0b-48eb-a7e9-8f6235cc6d83"},"vehicle_type_id":"4","last_reported":1687615582,"current_range_meters":32000,"station_id":"ce4bhbh2rcd13ifvqeo0","pricing_plan_id":"free"},{"bike_id":"abeea9fa-728c-4549-950f-7e92e5701e70","system_id":"levelo_inurba_marseille","lat":43.273609,"lon":5.362708,"is_reserved":false,"is_disabled":false,"rental_uris":{"android":"levelo://app?vid=abeea9fa-728c-4549-950f-7e92e5701e70","ios":"levelo://app?vid=abeea9fa-728c-4549-950f-7e92e5701e70"},"vehicle_type_id":"4","last_reported":1687615582,"current_range_meters":31600,"station_id":"ce4bhbh2rcd13ifvqeo0","pricing_plan_id":"free"},{"bike_id":"92cd2f89-9964-4d0c-8664-94290848e6ba","system_id":"levelo_inurba_marseille","lat":43.273609,"lon":5.362708,"is_reserved":false,"is_disabled":false,"rental_uris":{"android":"levelo://app?vid=92cd2f89-9964-4d0c-8664-94290848e6ba","ios":"levelo://app?vid=92cd2f89-9964-4d0c-8664-94290848e6ba"},"vehicle_type_id":"4","last_reported":1687615582,"current_range_meters":15600,"station_id":"ce4bhbh2rcd13ifvqeo0","pricing_plan_id":"free"},{"bike_id":"f5d48d7a-49bb-4e30-aaf1-3f296f18d938","system_id":"levelo_inurba_marseille","lat":43.273609,"lon":5.362708,"is_reserved":false,"is_disabled":false,"rental_uris":{"android":"levelo://app?vid=f5d48d7a-49bb-4e30-aaf1-3f296f18d938","ios":"levelo://app?vid=f5d48d7a-49bb-4e30-aaf1-3f296f18d938"},"vehicle_type_id":"4","last_reported":1687615582,"current_range_meters":24400,"station_id":"ce4bhbh2rcd13ifvqeo0","pricing_plan_id":"free"},{"bike_id":"f78fbdcb-08ef-4dbc-b210-895645c96633","system_id":"levelo_inurba_marseille","lat":43.273613,"lon":5.362705,"is_reserved":false,"is_disabled":false,"rental_uris":{"android":"levelo://app?vid=f78fbdcb-08ef-4dbc-b210-895645c96633","ios":"levelo://app?vid=f78fbdcb-08ef-4dbc-b210-895645c96633"},"vehicle_type_id":"4","last_reported":1687615582,"current_range_meters":32000,"station_id":"ce4bhbh2rcd13ifvqeo0","pricing_plan_id":"free"},{"bike_id":"bd9bcbdd-8d23-4f19-8514-4f63044abb45","system_id":"levelo_inurba_marseille","lat":43.273609,"lon":5.362708,"is_reserved":false,"is_disabled":false,"rental_uris":{"android":"levelo://app?vid=bd9bcbdd-8d23-4f19-8514-4f63044abb45","ios":"levelo://app?vid=bd9bcbdd-8d23-4f19-8514-4f63044abb45"},"vehicle_type_id":"4","last_reported":1687615582,"current_range_meters":28800,"station_id":"ce4bhbh2rcd13ifvqeo0","pricing_plan_id":"free"},{"bike_id":"c6b3935a-6e04-4d83-a55b-fcc228882994","system_id":"levelo_inurba_marseille","lat":43.30592,"lon":5.42242,"is_reserved":false,"is_disabled":false,"rental_uris":{"android":"levelo://app?vid=c6b3935a-6e04-4d83-a55b-fcc228882994","ios":"levelo://app?vid=c6b3935a-6e04-4d83-a55b-fcc228882994"},"vehicle_type_id":"4","last_reported":1687615582,"current_range_meters":0,"station_id":"","pricing_plan_id":"free"},{"bike_id":"ef60ee1b-9259-4ac5-a17b-d8159f81c5d0","system_id":"levelo_inurba_marseille","lat":43.317121,"lon":5.423936,"is_reserved":false,"is_disabled":false,"rental_uris":{"android":"levelo://app?vid=ef60ee1b-9259-4ac5-a17b-d8159f81c5d0","ios":"levelo://app?vid=ef60ee1b-9259-4ac5-a17b-d8159f81c5d0"},"vehicle_type_id":"4","last_reported":1687615582,"current_range_meters":31200,"station_id":"ce4bhp92rcd13ifvqhbg","pricing_plan_id":"free"},{"bike_id":"14394968-0065-49ee-8a59-fd90d4f2af10","system_id":"levelo_inurba_marseille","lat":43.310785,"lon":5.424305,"is_reserved":false,"is_disabled":false,"rental_uris":{"android":"levelo://app?vid=14394968-0065-49ee-8a59-fd90d4f2af10","ios":"levelo://app?vid=14394968-0065-49ee-8a59-fd90d4f2af10"},"vehicle_type_id":"4","last_reported":1687615582,"current_range_meters":16400,"station_id":"ce4bhp92rcd13ifvqhag","pricing_plan_id":"free"},{"bike_id":"a5af5e7f-d669-412d-8386-b234202ce058","system_id":"levelo_inurba_marseille","lat":43.317121,"lon":5.423936,"is_reserved":false,"is_disabled":false,"rental_uris":{"android":"levelo://app?vid=a5af5e7f-d669-412d-8386-b234202ce058","ios":"levelo://app?vid=a5af5e7f-d669-412d-8386-b234202ce058"},"vehicle_type_id":"4","last_reported":1687615582,"current_range_meters":31600,"station_id":"ce4bhp92rcd13ifvqhbg","pricing_plan_id":"free"},{"bike_id":"d0061ac5-9742-4a0c-aaf3-7f03ef588c42","system_id":"levelo_inurba_marseille","lat":43.27591,"lon":5.39487,"is_reserved":false,"is_disabled":false,"rental_uris":{"android":"levelo://app?vid=d0061ac5-9742-4a0c-aaf3-7f03ef588c42","ios":"levelo://app?vid=d0061ac5-9742-4a0c-aaf3-7f03ef588c42"},"vehicle_type_id":"4","last_reported":1687615582,"current_range_meters":15600,"station_id":"","pricing_plan_id":"free"},{"bike_id":"01208fbe-9431-4ed6-ac1f-e90329c35bdb","system_id":"levelo_inurba_marseille","lat":43.26955,"lon":5.36633,"is_reserved":false,"is_disabled":false,"rental_uris":{"android":"levelo://app?vid=01208fbe-9431-4ed6-ac1f-e90329c35bdb","ios":"levelo://app?vid=01208fbe-9431-4ed6-ac1f-e90329c35bdb"},"vehicle_type_id":"4","last_reported":1687615582,"current_range_meters":3600,"station_id":"","pricing_plan_id":"free"},{"bike_id":"e416fd72-8289-4f16-9193-92b10d228523","system_id":"levelo_inurba_marseille","lat":43.27418,"lon":5.39409,"is_reserved":false,"is_disabled":false,"rental_uris":{"android":"levelo://app?vid=e416fd72-8289-4f16-9193-92b10d228523","ios":"levelo://app?vid=e416fd72-8289-4f16-9193-92b10d228523"},"vehicle_type_id":"4","last_reported":1687615582,"current_range_meters":0,"station_id":"","pricing_plan_id":"free"},{"bike_id":"490e5ff6-b124-4ffa-9dae-36dc3fd9323e","system_id":"levelo_inurba_marseille","lat":43.304096,"lon":5.425385,"is_reserved":false,"is_disabled":false,"rental_uris":{"android":"levelo://app?vid=490e5ff6-b124-4ffa-9dae-36dc3fd9323e","ios":"levelo://app?vid=490e5ff6-b124-4ffa-9dae-36dc3fd9323e"},"vehicle_type_id":"4","last_reported":1687615582,"current_range_meters":14000,"station_id":"ce4bhoh2rcd13ifvqh6g","pricing_plan_id":"free"},{"bike_id":"3da22b33-3700-4ebe-b0a2-31d55fd6f719","system_id":"levelo_inurba_marseille","lat":43.304088,"lon":5.425388,"is_reserved":false,"is_disabled":false,"rental_uris":{"android":"levelo://app?vid=3da22b33-3700-4ebe-b0a2-31d55fd6f719","ios":"levelo://app?vid=3da22b33-3700-4ebe-b0a2-31d55fd6f719"},"vehicle_type_id":"4","last_reported":1687615582,"current_range_meters":28400,"station_id":"ce4bhoh2rcd13ifvqh6g","pricing_plan_id":"free"},{"bike_id":"30c2ef91-98e0-4712-8342-0913837d2124","system_id":"levelo_inurba_marseille","lat":43.295511,"lon":5.422926,"is_reserved":false,"is_disabled":false,"rental_uris":{"android":"levelo://app?vid=30c2ef91-98e0-4712-8342-0913837d2124","ios":"levelo://app?vid=30c2ef91-98e0-4712-8342-0913837d2124"},"vehicle_type_id":"4","last_reported":1687615582,"current_range_meters":28400,"station_id":"ce4bhph2rcd13ifvqhdg","pricing_plan_id":"free"},{"bike_id":"f2172cdf-46b2-407f-b934-da33580c2309","system_id":"levelo_inurba_marseille","lat":43.295511,"lon":5.422926,"is_reserved":false,"is_disabled":false,"rental_uris":{"android":"levelo://app?vid=f2172cdf-46b2-407f-b934-da33580c2309","ios":"levelo://app?vid=f2172cdf-46b2-407f-b934-da33580c2309"},"vehicle_type_id":"4","last_reported":1687615582,"current_range_meters":15600,"station_id":"ce4bhph2rcd13ifvqhdg","pricing_plan_id":"free"},{"bike_id":"7f69ff89-95b7-4bd6-a1f6-e14cf3174045","system_id":"levelo_inurba_marseille","lat":43.295523,"lon":5.422926,"is_reserved":false,"is_disabled":false,"rental_uris":{"android":"levelo://app?vid=7f69ff89-95b7-4bd6-a1f6-e14cf3174045","ios":"levelo://app?vid=7f69ff89-95b7-4bd6-a1f6-e14cf3174045"},"vehicle_type_id":"4","last_reported":1687615582,"current_range_meters":27200,"station_id":"ce4bhph2rcd13ifvqhdg","pricing_plan_id":"free"},{"bike_id":"4fa21102-9c5c-4785-8da0-3d7f957b0c31","system_id":"levelo_inurba_marseille","lat":43.272116,"lon":5.391763,"is_reserved":false,"is_disabled":false,"rental_uris":{"android":"levelo://app?vid=4fa21102-9c5c-4785-8da0-3d7f957b0c31","ios":"levelo://app?vid=4fa21102-9c5c-4785-8da0-3d7f957b0c31"},"vehicle_type_id":"4","last_reported":1687615582,"current_range_meters":31200,"station_id":"ce4bhhp2rcd13ifvqfm0","pricing_plan_id":"free"},{"bike_id":"149fc566-ad39-4b24-8da1-f40f0d4109fa","system_id":"levelo_inurba_marseille","lat":43.27203,"lon":5.39191,"is_reserved":false,"is_disabled":false,"rental_uris":{"android":"levelo://app?vid=149fc566-ad39-4b24-8da1-f40f0d4109fa","ios":"levelo://app?vid=149fc566-ad39-4b24-8da1-f40f0d4109fa"},"vehicle_type_id":"4","last_reported":1687615582,"current_range_meters":19600,"station_id":"ce4bhhp2rcd13ifvqfm0","pricing_plan_id":"free"},{"bike_id":"4f224c10-fabe-4217-9f58-8ce28ce933a0","system_id":"levelo_inurba_marseille","lat":43.269467,"lon":5.386439,"is_reserved":false,"is_disabled":false,"rental_uris":{"android":"levelo://app?vid=4f224c10-fabe-4217-9f58-8ce28ce933a0","ios":"levelo://app?vid=4f224c10-fabe-4217-9f58-8ce28ce933a0"},"vehicle_type_id":"4","last_reported":1687615582,"current_range_meters":800,"station_id":"ce4bhh92rcd13ifvqfh0","pricing_plan_id":"free"},{"bike_id":"f7cd3fab-580b-4542-8989-e70244484108","system_id":"levelo_inurba_marseille","lat":43.27995,"lon":5.41654,"is_reserved":false,"is_disabled":false,"rental_uris":{"android":"levelo://app?vid=f7cd3fab-580b-4542-8989-e70244484108","ios":"levelo://app?vid=f7cd3fab-580b-4542-8989-e70244484108"},"vehicle_type_id":"4","last_reported":1687615582,"current_range_meters":30000,"station_id":"ce4bho12rcd13ifvqh1g","pricing_plan_id":"free"},{"bike_id":"98cedd03-b804-4fbe-841b-12c4fc27e313","system_id":"levelo_inurba_marseille","lat":43.27988,"lon":5.41669,"is_reserved":false,"is_disabled":false,"rental_uris":{"android":"levelo://app?vid=98cedd03-b804-4fbe-841b-12c4fc27e313","ios":"levelo://app?vid=98cedd03-b804-4fbe-841b-12c4fc27e313"},"vehicle_type_id":"4","last_reported":1687615582,"current_range_meters":21200,"station_id":"ce4bho12rcd13ifvqh1g","pricing_plan_id":"free"},