{"last_updated":1700834805,"ttl":30,"version":"2.2","data":{"bikes":[{"bike_id":"7d3ec960-d008-4cc7-8175-c6de82a9ae7c","system_id":"levelo_inurba_marseille","lat":43.312239,"lon":5.368562,"is_reserved":false,"is_disabled":false,"rental_uris":{"android":"levelo://app?vid=7d3ec960-d008-4cc7-8175-c6de82a9ae7c","ios":"levelo://app?vid=7d3ec960-d008-4cc7-8175-c6de82a9ae7c"},"vehicle_type_id":"4","last_reported":1700834805,"current_range_meters":11200,"station_id":"ce4bgl92rcd13ifvqbq0","pricing_plan_id":"free"},{"bike_id":"5cf0d705-26a0-42d0-8ddc-1eb4d56f3733","system_id":"levelo_inurba_marseille","lat":43.312239,"lon":5.368562,"is_reserved":false,"is_disabled":false,"rental_uris":{"android":"levelo://app?vid=5cf0d705-26a0-42d0-8ddc-1eb4d56f3733","ios":"levelo://app?vid=5cf0d705-26a0-42d0-8ddc-1eb4d56f3733"},"vehicle_type_id":"4","last_reported":1700834805,"current_range_meters":6400,"station_id":"ce4bgl92rcd13ifvqbq0","pricing_plan_id":"free"},{"bike_id":"98a9b5d1-09bd-4b96-a06a-f0fa91923ee0","system_id":"levelo_inurba_marseille","lat":43.309076,"lon":5.368465,"is_reserved":false,"is_disabled":false,"rental_uris":{"android":"levelo://app?vid=98a9b5d1-09bd-4b96-a06a-f0fa91923ee0","ios":"levelo://app?vid=98a9b5d1-09bd-4b96-a06a-f0fa91923ee0"},"vehicle_type_id":"4","last_reported":1700834805,"current_range_meters":400,"station_id":"ce4bgn92rcd13ifvqbvg","pricing_plan_id":"free"},{"bike_id":"6c6ef7ca-217d-4fc6-9842-88c0764b51c1","system_id":"levelo_inurba_marseille","lat":43.315066,"lon":5.37269,"is_reserved":false,"is_disabled":false,"rental_uris":{"android":"levelo://app?vid=6c6ef7ca-217d-4fc6-9842-88c0764b51c1","ios":"levelo://app?vid=6c6ef7ca-217d-4fc6-9842-88c0764b51c1"},"vehicle_type_id":"4","last_reported":1700834805,"current_range_meters":29600,"station_id":"","pricing_plan_id":"free"},{"bike_id":"d859f4c6-6ebd-4fd4-9a22-16c3b3a84e08","system_id":"levelo_inurba_marseille","lat":43.314811,"lon":5.373103,"is_reserved":false,"is_disabled":false,"rental_uris":{"android":"levelo://app?vid=d859f4c6-6ebd-4fd4-9a22-16c3b3a84e08","ios":"levelo://app?vid=d859f4c6-6ebd-4fd4-9a22-16c3b3a84e08"},"vehicle_type_id":"4","last_reported":1700834805,"current_range_meters":16800,"station_id":"ce4bgt12rcd13ifvqcd0","pricing_plan_id":"free"},{"bike_id":"f707695c-450a-46ec-8cf8-dde3b9d14faa","system_id":"levelo_inurba_marseille","lat":43.305714,"lon":5.365633,"is_reserved":false,"is_disabled":false,"rental_uris":{"android":"levelo://app?vid=f707695c-450a-46ec-8cf8-dde3b9d14faa","ios":"levelo://app?vid=f707695c-450a-46ec-8cf8-dde3b9d14faa"},"vehicle_type_id":"4","last_reported":1700834805,"current_range_meters":24000,"station_id":"ce4bgs12rcd13ifvqcag","pricing_plan_id":"free"},{"bike_id":"2c499614-bb27-4272-ae15-da392f6b6072","system_id":"levelo_inurba_marseille","lat":43.305706,"lon":5.365654,"is_reserved":false,"is_disabled":false,"rental_uris":{"android":"levelo://app?vid=2c499614-bb27-4272-ae15-da392f6b6072","ios":"levelo://app?vid=2c499614-bb27-4272-ae15-da392f6b6072"},"vehicle_type_id":"4","last_reported":1700834805,"current_range_meters":10800,"station_id":"ce4bgs12rcd13ifvqcag","pricing_plan_id":"free"},{"bike_id":"9c08b6fa-8ae2-492b-868d-d01db8ed1b0f","system_id":"levelo_inurba_marseille","lat":43.305706,"lon":5.365654,"is_reserved":false,"is_disabled":false,"rental_uris":{"android":"levelo://app?vid=9c08b6fa-8ae2-492b-868d-d01db8ed1b0f","ios":"levelo://app?vid=9c08b6fa-8ae2-492b-868d-d01db8ed1b0f"},"vehicle_type_id":"4","last_reported":1700834805,"current_range_meters":18400,"station_id":"ce4bgs12rcd13ifvqcag","pricing_plan_id":"free"},{"bike_id":"e72d5dbe-d923-4a6c-96ab-dbe9156e538f","system_id":"levelo_inurba_marseille","lat":43.305706,"lon":5.365654,"is_reserved":false,"is_disabled":false,"rental_uris":{"android":"levelo://app?vid=e72d5dbe-d923-4a6c-96ab-dbe9156e538f","ios":"levelo://app?vid=e72d5dbe-d923-4a6c-96ab-dbe9156e538f"},"vehicle_type_id":"4","last_reported":1700834805,"current_range_meters":31600,"station_id":"ce4bgs12rcd13ifvqcag","pricing_plan_id":"free"},{"bike_id":"f35509c4-e35d-4952-b5c7-06d262f99a09","system_id":"levelo_inurba_marseille","lat":43.305368,"lon":5.367343,"is_reserved":false,"is_disabled":false,"rental_uris":{"android":"levelo://app?vid=f35509c4-e35d-4952-b5c7-06d262f99a09","ios":"levelo://app?vid=f35509c4-e35d-4952-b5c7-06d262f99a09"},"vehicle_type_id":"4","last_reported":1700834805,"current_range_meters":25600,"station_id":"ce4bgrp2rcd13ifvqc9g","pricing_plan_id":"free"},{"bike_id":"43bf5cf6-ac0a-4035-9884-61a3aec3d997","system_id":"levelo_inurba_marseille","lat":43.305706,"lon":5.365654,"is_reserved":false,"is_disabled":false,"rental_uris":{"android":"levelo://app?vid=43bf5cf6-ac0a-4035-9884-61a3aec3d997","ios":"levelo://app?vid=43bf5cf6-ac0a-4035-9884-61a3aec3d997"},"vehicle_type_id":"4","last_reported":1700834805,"current_range_meters":31200,"station_id":"ce4bgs12rcd13ifvqcag","pricing_plan_id":"free"},{"bike_id":"b9fb0e48-8a80-4334-9865-1d2bd3204ff4","system_id":"levelo_inurba_marseille","lat":43.303046,"lon":5.368981,"is_reserved":false,"is_disabled":false,"rental_uris":{"android":"levelo://app?vid=b9fb0e48-8a80-4334-9865-1d2bd3204ff4","ios":"levelo://app?vid=b9fb0e48-8a80-4334-9865-1d2bd3204ff4"},"vehicle_type_id":"4","last_reported":1700834805,"current_range_meters":28800,"station_id":"ce4bgqh2rcd13ifvqc5g","pricing_plan_id":"free"},{"bike_id":"4054a4e6-9075-42af-a45d-ee6ff6dc4fb7","system_id":"levelo_inurba_marseille","lat":43.303046,"lon":5.368981,"is_reserved":false,"is_disabled":false,"rental_uris":{"android":"levelo://app?vid=4054a4e6-9075-42af-a45d-ee6ff6dc4fb7","ios":"levelo://app?vid=4054a4e6-9075-42af-a45d-ee6ff6dc4fb7"},"vehicle_type_id":"4","last_reported":1700834805,"current_range_meters":26400,"station_id":"ce4bgqh2rcd13ifvqc5g","pricing_plan_id":"free"},{"bike_id":"5432ebe5-659a-45a0-a8e1-89d3238e7a59","system_id":"levelo_inurba_marseille","lat":43.303111,"lon":5.36911,"is_reserved":false,"is_disabled":false,"rental_uris":{"android":"levelo://app?vid=5432ebe5-659a-45a0-a8e1-89d3238e7a59","ios":"levelo://app?vid=5432ebe5-659a-45a0-a8e1-89d3238e7a59"},"vehicle_type_id":"4","last_reported":1700834805,"current_range_meters":12400,"station_id":"ce4bgqh2rcd13ifvqc5g","pricing_plan_id":"free"},{"bike_id":"0cee7ace-2fb9-4894-a00b-ef6e7ee4708d","system_id":"levelo_inurba_marseille","lat":43.303046,"lon":5.368981,"is_reserved":false,"is_disabled":false,"rental_uris":{"android":"levelo://app?vid=0cee7ace-2fb9-4894-a00b-ef6e7ee4708d","ios":"levelo://app?vid=0cee7ace-2fb9-4894-a00b-ef6e7ee4708d"},"vehicle_type_id":"4","last_reported":1700834805,"current_range_meters":24000,"station_id":"ce4bgqh2rcd13ifvqc5g","pricing_plan_id":"free"},{"bike_id":"a2efd98c-7de0-4fe2-9e63-24b257ff27e1","system_id":"levelo_inurba_marseille","lat":43.30304,"lon":5.368987,"is_reserved":false,"is_disabled":false,"rental_uris":{"android":"levelo://app?vid=a2efd98c-7de0-4fe2-9e63-24b257ff27e1","ios":"levelo://app?vid=a2efd98c-7de0-4fe2-9e63-24b257ff27e1"},"vehicle_type_id":"4","last_reported":1700834805,"current_range_meters":15200,"station_id":"ce4bgqh2rcd13ifvqc5g","pricing_plan_id":"free"},{"bike_id":"be93a972-0ca9-43e4-8157-e11f2318ce9f","system_id":"levelo_inurba_marseille","lat":43.30304,"lon":5.368987,"is_reserved":false,"is_disabled":false,"rental_uris":{"android":"levelo://app?vid=be93a972-0ca9-43e4-8157-e11f2318ce9f","ios":"levelo://app?vid=be93a972-0ca9-43e4-8157-e11f2318ce9f"},"vehicle_type_id":"4","last_reported":1700834805,"current_range_meters":29200,"station_id":"ce4bgqh2rcd13ifvqc5g","pricing_plan_id":"free"},{"bike_id":"2b0a92d0-e7d1-440c-b1c8-5ba8bb5559cc","system_id":"levelo_inurba_marseille","lat":43.301939,"lon":5.366286,"is_reserved":false,"is_disabled":false,"rental_uris":{"android":"levelo://app?vid=2b0a92d0-e7d1-440c-b1c8-5ba8bb5559cc","ios":"levelo://app?vid=2b0a92d0-e7d1-440c-b1c8-5ba8bb5559cc"},"vehicle_type_id":"4","last_reported":1700834805,"current_range_meters":17600,"station_id":"ce4bgrh2rcd13ifvqc8g","pricing_plan_id":"free"},{"bike_id":"a45d1ff0-c403-4608-bc77-f737abb0d95a","system_id":"levelo_inurba_marseille","lat":43.30801,"lon":5.38143,"is_reserved":false,"is_disabled":false,"rental_uris":{"android":"levelo://app?vid=a45d1ff0-c403-4608-bc77-f737abb0d95a","ios":"levelo://app?vid=a45d1ff0-c403-4608-bc77-f737abb0d95a"},"vehicle_type_id":"4","last_reported":1700834805,"current_range_meters":24000,"station_id":"ce4bgt12rcd13ifvqce0","pricing_plan_id":"free"},{"bike_id":"fc7c0b88-6df5-49c8-b265-a489a5aa4516","system_id":"levelo_inurba_marseille","lat":43.30806,"lon":5.381586,"is_reserved":false,"is_disabled":false,"rental_uris":{"android":"levelo://app?vid=fc7c0b88-6df5-49c8-b265-a489a5aa4516","ios":"levelo://app?vid=fc7c0b88-6df5-49c8-b265-a489a5aa4516"},"vehicle_type_id":"4","last_reported":1700834805,"current_range_meters":0,"station_id":"ce4bgt12rcd13ifvqce0","pricing_plan_id":"free"},{"bike_id":"118793c4-dbed-4f40-ab09-2beaf55c079a","system_id":"levelo_inurba_marseille","lat":43.307841,"lon":5.381708,"is_reserved":false,"is_disabled":false,"rental_uris":{"android":"levelo://app?vid=118793c4-dbed-4f40-ab09-2beaf55c079a","ios":"levelo://app?vid=118793c4-dbed-4f40-ab09-2beaf55c079a"},"vehicle_type_id":"4","last_reported":1700834805,"current_range_meters":23200,"station_id":"ce4bgt12rcd13ifvqce0","pricing_plan_id":"free"},{"bike_id":"b4105624-b594-4d13-8b19-dd17d6422c0e","system_id":"levelo_inurba_marseille","lat":43.304553,"lon":5.379082,"is_reserved":false,"is_disabled":false,"rental_uris":{"android":"levelo://app?vid=b4105624-b594-4d13-8b19-dd17d6422c0e","ios":"levelo://app?vid=b4105624-b594-4d13-8b19-dd17d6422c0e"},"vehicle_type_id":"4","last_reported":1700834805,"current_range_meters":18400,"station_id":"ce4bgup2rcd13ifvqcn0","pricing_plan_id":"free"},{"bike_id":"873ba8c1-5cf0-4c39-8015-ccac6c2e2df8","system_id":"levelo_inurba_marseille","lat":43.313571,"lon":5.384829,"is_reserved":false,"is_disabled":false,"rental_uris":{"android":"levelo://app?vid=873ba8c1-5cf0-4c39-8015-ccac6c2e2df8","ios":"levelo://app?vid=873ba8c1-5cf0-4c39-8015-ccac6c2e2df8"},"vehicle_type_id":"4","last_reported":1700834805,"current_range_meters":2400,"station_id":"ce4bgt92rcd13ifvqcf0","pricing_plan_id":"free"},{"bike_id":"33f4ad9d-74f6-482d-865b-30d2432d9357","system_id":"levelo_inurba_marseille","lat":43.29942,"lon":5.36557,"is_reserved":false,"is_disabled":false,"rental_uris":{"android":"levelo://app?vid=33f4ad9d-74f6-482d-865b-30d2432d9357","ios":"levelo://app?vid=33f4ad9d-74f6-482d-865b-30d2432d9357"},"vehicle_type_id":"4","last_reported":1700834805,"current_range_meters":3200,"station_id":"ce4bgm92rcd13ifvqbr0","pricing_plan_id":"free"},{"bike_id":"e8a0f6f9-99e3-4e4d-bc29-758140e45a66","system_id":"levelo_inurba_marseille","lat":43.299222,"lon":5.365554,"is_reserved":false,"is_disabled":false,"rental_uris":{"android":"levelo://app?vid=e8a0f6f9-99e3-4e4d-bc29-758140e45a66","ios":"levelo://app?vid=e8a0f6f9-99e3-4e4d-bc29-758140e45a66"},"vehicle_type_id":"4","last_reported":1700834805,"current_range_meters":2800,"station_id":"ce4bgm92rcd13ifvqbr0","pricing_plan_id":"free"},{"bike_id":"451eac93-3619-412d-90b7-6b7a43ce50dc","system_id":"levelo_inurba_marseille","lat":43.299724,"lon":5.371829,"is_reserved":false,"is_disabled":false,"rental_uris":{"android":"levelo://app?vid=451eac93-3619-412d-90b7-6b7a43ce50dc","ios":"levelo://app?vid=451eac93-3619-412d-90b7-6b7a43ce50dc"},"vehicle_type_id":"4","last_reported":1700834805,"current_range_meters":9200,"station_id":"ce4bgr92rcd13ifvqc7g","pricing_plan_id":"free"},{"bike_id":"bc19c66c-4641-44c8-805f-0144b05ec658","system_id":"levelo_inurba_marseille","lat":43.299243,"lon":5.37481,"is_reserved":false,"is_disabled":false,"rental_uris":{"android":"levelo://app?vid=bc19c66c-4641-44c8-805f-0144b05ec658","ios":"levelo://app?vid=bc19c66c-4641-44c8-805f-0144b05ec658"},"vehicle_type_id":"4","last_reported":1700834805,"current_range_meters":19600,"station_id":"ce4bgjh2rcd13ifvqbg0","pricing_plan_id":"free"},{"bike_id":"c3045614-1eb8-488d-add5-337dc82beb2c","system_id":"levelo_inurba_marseille","lat":43.298433,"lon":5.362774,"is_reserved":false,"is_disabled":false,"rental_uris":{"android":"levelo://app?vid=c3045614-1eb8-488d-add5-337dc82beb2c","ios":"levelo://app?vid=c3045614-1eb8-488d-add5-337dc82beb2c"},"vehicle_type_id":"4","last_reported":1700834805,"current_range_meters":30800,"station_id":"ce4bgpp2rcd13ifvqc3g","pricing_plan_id":"free"},{"bike_id":"bfe86a95-649b-4c56-b9a4-5f3618feea7e","system_id":"levelo_inurba_marseille","lat":43.305364,"lon":5.384119,"is_reserved":false,"is_disabled":false,"rental_uris":{"android":"levelo://app?vid=bfe86a95-649b-4c56-b9a4-5f3618feea7e","ios":"levelo://app?vid=bfe86a95-649b-4c56-b9a4-5f3618feea7e"},"vehicle_type_id":"4","last_reported":1700834805,"current_range_meters":24800,"station_id":"ce4bgg92rcd13ifvqb30","pricing_plan_id":"free"},{"bike_id":"bbae10b4-7f5d-41f6-89ab-7cb8740e24f3","system_id":"levelo_inurba_marseille","lat":43.298433,"lon":5.362774,"is_reserved":false,"is_disabled":false,"rental_uris":{"android":"levelo://app?vid=bbae10b4-7f5d-41f6-89ab-7cb8740e24f3","ios":"levelo://app?vid=bbae10b4-7f5d-41f6-89ab-7cb8740e24f3"},"vehicle_type_id":"4","last_reported":1700834805,"current_range_meters":19600,"station_id":"ce4bgpp2rcd13ifvqc3g","pricing_plan_id":"free"},{"bike_id":"cfe7c139-99d6-4f2e-a9bf-92ac7ee7d649","system_id":"levelo_inurba_marseille","lat":43.299243,"lon":5.374807,"is_reserved":false,"is_disabled":false,"rental_uris":{"android":"levelo://app?vid=cfe7c139-99d6-4f2e-a9bf-92ac7ee7d649","ios":"levelo://app?vid=cfe7c139-99d6-4f2e-a9bf-92ac7ee7d649"},"vehicle_type_id":"4","last_reported":1700834805,"current_range_meters":14000,"station_id":"ce4bgjh2rcd13ifvqbg0","pricing_plan_id":"free"},{"bike_id":"fb99b089-b15d-4d50-8aa8-166793de4f0b","system_id":"levelo_inurba_marseille","lat":43.297774,"lon":5.370875,"is_reserved":false,"is_disabled":false,"rental_uris":{"android":"levelo://app?vid=fb99b089-b15d-4d50-8aa8-166793de4f0b","ios":"levelo://app?vid=fb99b089-b15d-4d50-8aa8-166793de4f0b"},"vehicle_type_id":"4","last_reported":1700834805,"current_range_meters":21200,"station_id":"ce4bgop2rcd13ifvqc1g","pricing_plan_id":"free"},{"bike_id":"57f07daa-f979-41b2-bf81-49ff7a829b2a","system_id":"levelo_inurba_marseille","lat":43.322851,"lon":5.382597,"is_reserved":false,"is_disabled":false,"rental_uris":{"android":"levelo://app?vid=57f07daa-f979-41b2-bf81-49ff7a829b2a","ios":"levelo://app?vid=57f07daa-f979-41b2-bf81-49ff7a829b2a"},"vehicle_type_id":"4","last_reported":1700834805,"current_range_meters":6800,"station_id":"ce4bhr12rcd13ifvqhqg","pricing_plan_id":"free"},{"bike_id":"8eccf735-9f13-4d66-89ee-04a7bf59eec2","system_id":"levelo_inurba_marseille","lat":43.322872,"lon":5.382756,"is_reserved":false,"is_disabled":false,"rental_uris":{"android":"levelo://app?vid=8eccf735-9f13-4d66-89ee-04a7bf59eec2","ios":"levelo://app?vid=8eccf735-9f13-4d66-89ee-04a7bf59eec2"},"vehicle_type_id":"4","last_reported":1700834805,"current_range_meters":31200,"station_id":"ce4bhr12rcd13ifvqhqg","pricing_plan_id":"free"},{"bike_id":"d3044786-2431-4822-96f8-37c5954b4b4c","system_id":"levelo_inurba_marseille","lat":43.322872,"lon":5.382756,"is_reserved":false,"is_disabled":false,"rental_uris":{"android":"levelo://app?vid=d3044786-2431-4822-96f8-37c5954b4b4c","ios":"levelo://app?vid=d3044786-2431-4822-96f8-37c5954b4b4c"},"vehicle_type_id":"4","last_reported":1700834805,"current_range_meters":9600,"station_id":"ce4bhr12rcd13ifvqhqg","pricing_plan_id":"free"},{"bike_id":"487f708b-82ea-4eaf-b232-fbc4b24ddab5","system_id":"levelo_inurba_marseille","lat":43.322872,"lon":5.382756,"is_reserved":false,"is_disabled":false,"rental_uris":{"android":"levelo://app?vid=487f708b-82ea-4eaf-b232-fbc4b24ddab5","ios":"levelo://app?vid=487f708b-82ea-4eaf-b232-fbc4b24ddab5"},"vehicle_type_id":"4","last_reported":1700834805,"current_range_meters":28400,"station_id":"ce4bhr12rcd13ifvqhqg","pricing_plan_id":"free"},{"bike_id":"178eb7c0-6a62-4bf1-a56f-a82d0e477eba","system_id":"levelo_inurba_marseille","lat":43.32827,"lon":5.3669,"is_reserved":false,"is_disabled":false,"rental_uris":{"android":"levelo://app?vid=178eb7c0-6a62-4bf1-a56f-a82d0e477eba","ios":"levelo://app?vid=178eb7c0-6a62-4bf1-a56f-a82d0e477eba"},"vehicle_type_id":"4","last_reported":1700834805,"current_range_meters":0,"station_id":"ce4bhs92rcd13ifvqi0g","pricing_plan_id":"free"},{"bike_id":"4d7509f5-9559-42ca-a60d-bef9e80f0981","system_id":"levelo_inurba_marseille","lat":43.2996,"lon":5.37923,"is_reserved":false,"is_disabled":false,"rental_uris":{"android":"levelo://app?vid=4d7509f5-9559-42ca-a60d-bef9e80f0981","ios":"levelo://app?vid=4d7509f5-9559-42ca-a60d-bef9e80f0981"},"vehicle_type_id":"4","last_reported":1700834805,"current_range_meters":0,"station_id":"","pricing_plan_id":"free"},{"bike_id":"0a6e3a4b-5864-4516-b379-c2319739d249","system_id":"levelo_inurba_marseille","lat":43.299028,"lon":5.381509,"is_reserved":false,"is_disabled":false,"rental_uris":{"android":"levelo://app?vid=0a6e3a4b-5864-4516-b379-c2319739d249","ios":"levelo://app?vid=0a6e3a4b-5864-4516-b379-c2319739d249"},"vehicle_type_id":"4","last_reported":1700834805,"current_range_meters":12000,"station_id":"ce4bgj12rcd13ifvqbc0","pricing_plan_id":"free"},{"bike_id":"828b1c6f-e6ef-45ec-8722-92f668dd3424","system_id":"levelo_inurba_marseille","lat":43.296935,"lon":5.376544,"is_reserved":false,"is_disabled":false,"rental_uris":{"android":"levelo://app?vid=828b1c6f-e6ef-45ec-8722-92f668dd3424","ios":"levelo://app?vid=828b1c6f-e6ef-45ec-8722-92f668dd3424"},"vehicle_type_id":"4","last_reported":1700834805,"current_range_meters":21600,"station_id":"ce4bgkh2rcd13ifvqbl0","pricing_plan_id":"free"},{"bike_id":"4c463f3f-9f97-4da2-867a-c8c0fbf2315b","system_id":"levelo_inurba_marseille","lat":43.296921,"lon":5.376579,"is_reserved":false,"is_disabled":false,"rental_uris":{"android":"levelo://app?vid=4c463f3f-9f97-4da2-867a-c8c0fbf2315b","ios":"levelo://app?vid=4c463f3f-9f97-4da2-867a-c8c0fbf2315b"},"vehicle_type_id":"4","last_reported":1700834805,"current_range_meters":2800,"station_id":"ce4bgkh2rcd13ifvqbl0","pricing_plan_id":"free"},{"bike_id":"22373dee-d8ce-4218-a725-64c6c2f66880","system_id":"levelo_inurba_marseille","lat":43.299028,"lon":5.381509,"is_reserved":false,"is_disabled":false,"rental_uris":{"android":"levelo://app?vid=22373dee-d8ce-4218-a725-64c6c2f66880","ios":"levelo://app?vid=22373dee-d8ce-4218-a725-64c6c2f66880"},"vehicle_type_id":"4","last_reported":1700834805,"current_range_meters":17600,"station_id":"ce4bgj12rcd13ifvqbc0","pricing_plan_id":"free"},{"bike_id":"d0e48dcb-5a68-45fb-8da1-800d0e457090","system_id":"levelo_inurba_marseille","lat":43.299028,"lon":5.381509,"is_reserved":false,"is_disabled":false,"rental_uris":{"android":"levelo://app?vid=d0e48dcb-5a68-45fb-8da1-800d0e457090","ios":"levelo://app?vid=d0e48dcb-5a68-45fb-8da1-800d0e457090"},"vehicle_type_id":"4","last_reported":1700834805,"current_range_meters":22800,"station_id":"ce4bgj12rcd13ifvqbc0","pricing_plan_id":"free"},{"bike_id":"ddf28839-e9ff-45ff-b580-165aab373e46","system_id":"levelo_inurba_marseille","lat":43.298037,"lon":5.381066,"is_reserved":false,"is_disabled":false,"rental_uris":{"android":"levelo://app?vid=ddf28839-e9ff-45ff-b580-165aab373e46","ios":"levelo://app?vid=ddf28839-e9ff-45ff-b580-165aab373e46"},"vehicle_type_id":"4","last_reported":1700834805,"current_range_meters":400,"station_id":"ce4bgip2rcd13ifvqbb0","pricing_plan_id":"free"},{"bike_id":"28bf1a48-3ba4-4b48-a8ee-b5fde3ba855a","system_id":"levelo_inurba_marseille","lat":43.304274,"lon":5.388873,"is_reserved":false,"is_disabled":false,"rental_uris":{"android":"levelo://app?vid=28bf1a48-3ba4-4b48-a8ee-b5fde3ba855a","ios":"levelo://app?vid=28bf1a48-3ba4-4b48-a8ee-b5fde3ba855a"},"vehicle_type_id":"4","last_reported":1700834805,"current_range_meters":18000,"station_id":"ce4bgk12rcd13ifvqbi0","pricing_plan_id":"free"},{"bike_id":"9482db08-a472-4538-acb4-c44cd8c13b1b","system_id":"levelo_inurba_marseille","lat":43.298037,"lon":5.381066,"is_reserved":false,"is_disabled":false,"rental_uris":{"android":"levelo://app?vid=9482db08-a472-4538-acb4-c44cd8c13b1b","ios":"levelo://app?vid=9482db08-a472-4538-acb4-c44cd8c13b1b"},"vehicle_type_id":"4","last_reported":1700834805,"current_range_meters":6800,"station_id":"ce4bgip2rcd13ifvqbb0","pricing_plan_id":"free"},{"bike_id":"eea40132-b87d-479a-a801-a6a066dd81cd","system_id":"levelo_inurba_marseille","lat":43.298037,"lon":5.381066,"is_reserved":false,"is_disabled":false,"rental_uris":{"android":"levelo://app?vid=eea40132-b87d-479a-a801-a6a066dd81cd","ios":"levelo://app?vid=eea40132-b87d-479a-a801-a6a066dd81cd"},"vehicle_type_id":"4","last_reported":1700834805,"current_range_meters":29600,"station_id":"ce4bgip2rcd13ifvqbb0","pricing_plan_id":"free"},{"bike_id":"6f820ff0-8ffb-4fd3-9777-98d53ad447c4","system_id":"levelo_inurba_marseille","lat":43.299707,"lon":5.384859,"is_reserved":false,"is_disabled":false,"rental_uris":{"android":"levelo://app?vid=6f820ff0-8ffb-4fd3-9777-98d53ad447c4","ios":"levelo://app?vid=6f820ff0-8ffb-4fd3-9777-98d53ad447c4"},"vehicle_type_id":"4","last_reported":1700834805,"current_range_meters":12000,"station_id":"ce4bgj92rcd13ifvqbd0","pricing_plan_id":"free"},{"bike_id":"be40fec4-629b-4f66-9b2a-485dfa623cde","system_id":"levelo_inurba_marseille","lat":43.299707,"lon":5.384859,"is_reserved":false,"is_disabled":false,"rental_uris":{"android":"levelo://app?vid=be40fec4-629b-4f66-9b2a-485dfa623cde","ios":"levelo://app?vid=be40fec4-629b-4f66-9b2a-485dfa623cde"},"vehicle_type_id":"4","last_reported":1700834805,"current_range_meters":30800,"station_id":"ce4bgj92rcd13ifvqbd0","pricing_plan_id":"free"},{"bike_id":"6b621983-5e9e-42f7-990d-ad5a093820d2","system_id":"levelo_inurba_marseille","lat":43.293801,"lon":5.363066,"is_reserved":false,"is_disabled":false,"rental_uris":{"android":"levelo://app?vid=6b621983-5e9e-42f7-990d-ad5a093820d2","ios":"levelo://app?vid=6b621983-5e9e-42f7-990d-ad5a093820d2"},"vehicle_type_id":"4","last_reported":1700834805,"current_range_meters":4400,"station_id":"","pricing_plan_id":"free"},{"bike_id":"1a40b385-68ba-48d5-a1cb-20965b2f9dc5","system_id":"levelo_inurba_marseille","lat":43.32365,"lon":5.38882,"is_reserved":false,"is_disabled":false,"rental_uris":{"android":"levelo://app?vid=1a40b385-68ba-48d5-a1cb-20965b2f9dc5","ios":"levelo://app?vid=1a40b385-68ba-48d5-a1cb-20965b2f9dc5"},"vehicle_type_id":"4","last_reported":1700834805,"current_range_meters":1600,"station_id":"ce4bhqp2rcd13ifvqhog","pricing_plan_id":"free"},{"bike_id":"9c36a0b0-9831-4b41-a621-4fe94a615b8d","system_id":"levelo_inurba_marseille","lat":43.32365,"lon":5.38886,"is_reserved":false,"is_disabled":false,"rental_uris":{"android":"levelo://app?vid=9c36a0b0-9831-4b41-a621-4fe94a615b8d","ios":"levelo://app?vid=9c36a0b0-9831-4b41-a621-4fe94a615b8d"},"vehicle_type_id":"4","last_reported":1700834805,"current_range_meters":15200,"station_id":"ce4bhqp2rcd13ifvqhog","pricing_plan_id":"free"},{"bike_id":"ec932cb9-1c51-4d96-a648-27ffa15521f0","system_id":"levelo_inurba_marseille","lat":43.32368,"lon":5.38887,"is_reserved":false,"is_disabled":false,"rental_uris":{"android":"levelo://app?vid=ec932cb9-1c51-4d96-a648-27ffa15521f0","ios":"levelo://app?vid=ec932cb9-1c51-4d96-a648-27ffa15521f0"},"vehicle_type_id":"4","last_reported":1700834805,"current_range_meters":21200,"station_id":"ce4bhqp2rcd13ifvqhog","pricing_plan_id":"free"},{"bike_id":"40651570-2caa-481e-83f2-ed9b577fc84a","system_id":"levelo_inurba_marseille","lat":43.32932,"lon":5.38304,"is_reserved":false,"is_disabled":false,"rental_uris":{"android":"levelo://app?vid=40651570-2caa-481e-83f2-ed9b577fc84a","ios":"levelo://app?vid=40651570-2caa-481e-83f2-ed9b577fc84a"},"vehicle_type_id":"4","last_reported":1700834805,"current_range_meters":13200,"station_id":"","pricing_plan_id":"free"},{"bike_id":"c289a78d-5901-46d5-8729-4ae1f03b48e6","system_id":"levelo_inurba_marseille","lat":43.293009,"lon":5.374584,"is_reserved":false,"is_disabled":false,"rental_uris":{"android":"levelo://app?vid=c289a78d-5901-46d5-8729-4ae1f03b48e6","ios":"levelo://app?vid=c289a78d-5901-46d5-8729-4ae1f03b48e6"},"vehicle_type_id":"4","last_reported":1700834805,"current_range_meters":4800,"station_id":"ce4bgi12rcd13ifvqb70","pricing_plan_id":"free"},{"bike_id":"3514ebf1-1f37-432d-8a72-f622617d6489","system_id":"levelo_inurba_marseille","lat":43.30597,"lon":5.39364,"is_reserved":false,"is_disabled":false,"rental_uris":{"android":"levelo://app?vid=3514ebf1-1f37-432d-8a72-f622617d6489","ios":"levelo://app?vid=3514ebf1-1f37-432d-8a72-f622617d6489"},"vehicle_type_id":"4","last_reported":1700834805,"current_range_meters":0,"station_id":"ce4bh0p2rcd13ifvqd80","pricing_plan_id":"free"},{"bike_id":"2b9d1e51-21ed-4b3e-bcff-83cad4abd7d2","system_id":"levelo_inurba_marseille","lat":43.2936,"lon":5.37835,"is_reserved":false,"is_disabled":false,"rental_uris":{"android":"levelo://app?vid=2b9d1e51-21ed-4b3e-bcff-83cad4abd7d2","ios":"levelo://app?vid=2b9d1e51-21ed-4b3e-bcff-83cad4abd7d2"},"vehicle_type_id":"4","last_reported":1700834805,"current_range_meters":24400,"station_id":"ce4bgjh2rcd13ifvqbf0","pricing_plan_id":"free"},{"bike_id":"27ec33c4-fb96-4cb7-bcc6-7b29fd698bb6","system_id":"levelo_inurba_marseille","lat":43.292311,"lon":5.360731,"is_reserved":false,"is_disabled":false,"rental_uris":{"android":"levelo://app?vid=27ec33c4-fb96-4cb7-bcc6-7b29fd698bb6","ios":"levelo://app?vid=27ec33c4-fb96-4cb7-bcc6-7b29fd698bb6"},"vehicle_type_id":"4","last_reported":1700834805,"current_range_meters":5600,"station_id":"ce4bhbh2rcd13ifvqeqg","pricing_plan_id":"free"},{"bike_id":"a64c6fb5-1ced-434d-8827-153c8ad48cda","system_id":"levelo_inurba_marseille","lat":43.30085,"lon":5.390856,"is_reserved":false,"is_disabled":false,"rental_uris":{"android":"levelo://app?vid=a64c6fb5-1ced-434d-8827-153c8ad48cda","ios":"levelo://app?vid=a64c6fb5-1ced-434d-8827-153c8ad48cda"},"vehicle_type_id":"4","last_reported":1700834805,"current_range_meters":26800,"station_id":"ce4bh192rcd13ifvqdb0","pricing_plan_id":"free"},{"bike_id":"eb8db30f-49ac-44db-bfc6-a93ed558e669","system_id":"levelo_inurba_marseille","lat":43.292663,"lon":5.376394,"is_reserved":false,"is_disabled":false,"rental_uris":{"android":"levelo://app?vid=eb8db30f-49ac-44db-bfc6-a93ed558e669","ios":"levelo://app?vid=eb8db30f-49ac-44db-bfc6-a93ed558e669"},"vehicle_type_id":"4","last_reported":1700834805,"current_range_meters":0,"station_id":"ce4bgi12rcd13ifvqb80","pricing_plan_id":"free"},{"bike_id":"14719811-1172-4f32-b2dd-29cd93a7c1ba","system_id":"levelo_inurba_marseille","lat":43.292663,"lon":5.376389,"is_reserved":false,"is_disabled":false,"rental_uris":{"android":"levelo://app?vid=14719811-1172-4f32-b2dd-29cd93a7c1ba","ios":"levelo://app?vid=14719811-1172-4f32-b2dd-29cd93a7c1ba"},"vehicle_type_id":"4","last_reported":1700834805,"current_range_meters":21600,"station_id":"ce4bgi12rcd13ifvqb80","pricing_plan_id":"free"},{"bike_id":"1e9fa761-5072-44c7-ae19-54760ad7e96f","system_id":"levelo_inurba_marseille","lat":43.313291,"lon":5.396838,"is_reserved":false,"is_disabled":false,"rental_uris":{"android":"levelo://app?vid=1e9fa761-5072-44c7-ae19-54760ad7e96f","ios":"levelo://app?vid=1e9fa761-5072-44c7-ae19-54760ad7e96f"},"vehicle_type_id":"4","last_reported":1700834805,"current_range_meters":8800,"station_id":"ce4bgvp2rcd13ifvqcu0","pricing_plan_id":"free"},{"bike_id":"79f7123a-427a-4515-98e6-b3412588b91d","system_id":"levelo_inurba_marseille","lat":43.308684,"lon":5.396456,"is_reserved":false,"is_disabled":false,"rental_uris":{"android":"levelo://app?vid=79f7123a-427a-4515-98e6-b3412588b91d","ios":"levelo://app?vid=79f7123a-427a-4515-98e6-b3412588b91d"},"vehicle_type_id":"4","last_reported":1700834805,"current_range_meters":11200,"station_id":"ce4bh012rcd13ifvqcv0","pricing_plan_id":"free"},{"bike_id":"bf87fb97-4555-4d79-988f-dda578e62a9a","system_id":"levelo_inurba_marseille","lat":43.313291,"lon":5.396838,"is_reserved":false,"is_disabled":false,"rental_uris":{"android":"levelo://app?vid=bf87fb97-4555-4d79-988f-dda578e62a9a","ios":"levelo://app?vid=bf87fb97-4555-4d79-988f-dda578e62a9a"},"vehicle_type_id":"4","last_reported":1700834805,"current_range_meters":12800,"station_id":"ce4bgvp2rcd13ifvqcu0","pricing_plan_id":"free"},{"bike_id":"f5c9c0af-493e-431d-acf7-41b746d07a42","system_id":"levelo_inurba_marseille","lat":43.309038,"lon":5.396546,"is_reserved":false,"is_disabled":false,"rental_uris":{"android":"levelo://app?vid=f5c9c0af-493e-431d-acf7-41b746d07a42","ios":"levelo://app?vid=f5c9c0af-493e-431d-acf7-41b746d07a42"},"vehicle_type_id":"4","last_reported":1700834805,"current_range_meters":26000,"station_id":"ce4bh012rcd13ifvqcv0","pricing_plan_id":"free"},{"bike_id":"1d10a1b1-d55f-4279-928a-9c6858f32ca9","system_id":"levelo_inurba_marseille","lat":43.33211,"lon":5.38112,"is_reserved":false,"is_disabled":false,"rental_uris":{"android":"levelo://app?vid=1d10a1b1-d55f-4279-928a-9c6858f32ca9","ios":"levelo://app?vid=1d10a1b1-d55f-4279-928a-9c6858f32ca9"},"vehicle_type_id":"4","last_reported":1700834805,"current_range_meters":0,"station_id":"","pricing_plan_id":"free"},{"bike_id":"b484ba56-fb44-429f-b1fb-1e157f29371a","system_id":"levelo_inurba_marseille","lat":43.29529,"lon":5.385581,"is_reserved":false,"is_disabled":false,"rental_uris":{"android":"levelo://app?vid=b484ba56-fb44-429f-b1fb-1e157f29371a","ios":"levelo://app?vid=b484ba56-fb44-429f-b1fb-1e157f29371a"},"vehicle_type_id":"4","last_reported":1700834805,"current_range_meters":28400,"station_id":"ce4bgih2rcd13ifvqba0","pricing_plan_id":"free"},{"bike_id":"985b2da1-d6c8-4f92-be33-4b4deed68026","system_id":"levelo_inurba_marseille","lat":43.29529,"lon":5.385581,"is_reserved":false,"is_disabled":false,"rental_uris":{"android":"levelo://app?vid=985b2da1-d6c8-4f92-be33-4b4deed68026","ios":"levelo://app?vid=985b2da1-d6c8-4f92-be33-4b4deed68026"},"vehicle_type_id":"4","last_reported":1700834805,"current_range_meters":25200,"station_id":"ce4bgih2rcd13ifvqba0","pricing_plan_id":"free"},{"bike_id":"467929a9-4718-4126-b07e-1355b55e8caa","system_id":"levelo_inurba_marseille","lat":43.290779,"lon":5.371482,"is_reserved":false,"is_disabled":false,"rental_uris":{"android":"levelo://app?vid=467929a9-4718-4126-b07e-1355b55e8caa","ios":"levelo://app?vid=467929a9-4718-4126-b07e-1355b55e8caa"},"vehicle_type_id":"4","last_reported":1700834805,"current_range_meters":23200,"station_id":"ce4bh5p2rcd13ifvqe4g","pricing_plan_id":"free"},{"bike_id":"f884a077-8405-40a4-8ad5-f3028ae3c439","system_id":"levelo_inurba_marseille","lat":43.2909,"lon":5.35912,"is_reserved":false,"is_disabled":false,"rental_uris":{"android":"levelo://app?vid=f884a077-8405-40a4-8ad5-f3028ae3c439","ios":"levelo://app?vid=f884a077-8405-40a4-8ad5-f3028ae3c439"},"vehicle_type_id":"4","last_reported":1700834805,"current_range_meters":14000,"station_id":"","pricing_plan_id":"free"},{"bike_id":"4ae4a65b-4f82-48dd-87fc-ccb73ebf63c6","system_id":"levelo_inurba_marseille","lat":43.289603,"lon":5.36401,"is_reserved":false,"is_disabled":false,"rental_uris":{"android":"levelo://app?vid=4ae4a65b-4f82-48dd-87fc-ccb73ebf63c6","ios":"levelo://app?vid=4ae4a65b-4f82-48dd-87fc-ccb73ebf63c6"},"vehicle_type_id":"4","last_reported":1700834805,"current_range_meters":25600,"station_id":"ce4bhc92rcd13ifvqetg","pricing_plan_id":"free"},{"bike_id":"13b5316c-5543-4456-a1f4-31acc1844ea4","system_id":"levelo_inurba_marseille","lat":43.289184,"lon":5.366408,"is_reserved":false,"is_disabled":false,"rental_uris":{"android":"levelo://app?vid=13b5316c-5543-4456-a1f4-31acc1844ea4","ios":"levelo://app?vid=13b5316c-5543-4456-a1f4-31acc1844ea4"},"vehicle_type_id":"4","last_reported":1700834805,"current_range_meters":800,"station_id":"ce4bhap2rcd13ifvqek0","pricing_plan_id":"free"},{"bike_id":"4f080e12-3419-4997-bd7e-b716121d92a2","system_id":"levelo_inurba_marseille","lat":43.330393,"lon":5.389201,"is_reserved":false,"is_disabled":false,"rental_uris":{"android":"levelo://app?vid=4f080e12-3419-4997-bd7e-b716121d92a2","ios":"levelo://app?vid=4f080e12-3419-4997-bd7e-b716121d92a2"},"vehicle_type_id":"4","last_reported":1700834805,"current_range_meters":0,"station_id":"ce4bhr92rcd13ifvqhrg","pricing_plan_id":"free"},{"bike_id":"e7a6cdd4-0a48-40a9-8a2f-3e3e6010b536","system_id":"levelo_inurba_marseille","lat":43.330442,"lon":5.389148,"is_reserved":false,"is_disabled":false,"rental_uris":{"android":"levelo://app?vid=e7a6cdd4-0a48-40a9-8a2f-3e3e6010b536","ios":"levelo://app?vid=e7a6cdd4-0a48-40a9-8a2f-3e3e6010b536"},"vehicle_type_id":"4","last_reported":1700834805,"current_range_meters":15600,"station_id":"ce4bhr92rcd13ifvqhrg","pricing_plan_id":"free"},{"bike_id":"8727dc77-174b-4142-a97f-402ae464f5c3","system_id":"levelo_inurba_marseille","lat":43.290995,"lon":5.381361,"is_reserved":false,"is_disabled":false,"rental_uris":{"android":"levelo://app?vid=8727dc77-174b-4142-a97f-402ae464f5c3","ios":"levelo://app?vid=8727dc77-174b-4142-a97f-402ae464f5c3"},"vehicle_type_id":"4","last_reported":1700834805,"current_range_meters":4000,"station_id":"ce4bh512rcd13ifvqe2g","pricing_plan_id":"free"},{"bike_id":"109715e3-e725-4e59-9357-35a9b56ebf36","system_id":"levelo_inurba_marseille","lat":43.295169,"lon":5.390426,"is_reserved":false,"is_disabled":false,"rental_uris":{"android":"levelo://app?vid=109715e3-e725-4e59-9357-35a9b56ebf36","ios":"levelo://app?vid=109715e3-e725-4e59-9357-35a9b56ebf36"},"vehicle_type_id":"4","last_reported":1700834805,"current_range_meters":12000,"station_id":"ce4bh3p2rcd13ifvqdp0","pricing_plan_id":"free"},{"bike_id":"f5c26111-35b0-43bc-b918-182998fc29a8","system_id":"levelo_inurba_marseille","lat":43.290094,"lon":5.381264,"is_reserved":false,"is_disabled":false,"rental_uris":{"android":"levelo://app?vid=f5c26111-35b0-43bc-b918-182998fc29a8","ios":"levelo://app?vid=f5c26111-35b0-43bc-b918-182998fc29a8"},"vehicle_type_id":"4","last_reported":1700834805,"current_range_meters":4400,"station_id":"ce4bh4p2rcd13ifvqe1g","pricing_plan_id":"free"},{"bike_id":"21baf1f3-114a-42c3-b6ef-c0793c90d3e6","system_id":"levelo_inurba_marseille","lat":43.290094,"lon":5.381264,"is_reserved":false,"is_disabled":false,"rental_uris":{"android":"levelo://app?vid=21baf1f3-114a-42c3-b6ef-c0793c90d3e6","ios":"levelo://app?vid=21baf1f3-114a-42c3-b6ef-c0793c90d3e6"},"vehicle_type_id":"4","last_reported":1700834805,"current_range_meters":16400,"station_id":"ce4bh4p2rcd13ifvqe1g","pricing_plan_id":"free"},{"bike_id":"05fa2e10-ed63-4dba-a932-7250285a6870","system_id":"levelo_inurba_marseille","lat":43.31273,"lon":5.40165,"is_reserved":false,"is_disabled":false,"rental_uris":{"android":"levelo://app?vid=05fa2e10-ed63-4dba-a932-7250285a6870","ios":"levelo://app?vid=05fa2e10-ed63-4dba-a932-7250285a6870"},"vehicle_type_id":"4","last_reported":1700834805,"current_range_meters":20800,"station_id":"ce4bh092rcd13ifvqd30","pricing_plan_id":"free"},{"bike_id":"c660e2c8-ea45-4ce2-bd67-5f29fa438e67","system_id":"levelo_inurba_marseille","lat":43.30642,"lon":5.401031,"is_reserved":false,"is_disabled":false,"rental_uris":{"android":"levelo://app?vid=c660e2c8-ea45-4ce2-bd67-5f29fa438e67","ios":"levelo://app?vid=c660e2c8-ea45-4ce2-bd67-5f29fa438e67"},"vehicle_type_id":"4","last_reported":1700834805,"current_range_meters":11200,"station_id":"ce4bh112rcd13ifvqda0","pricing_plan_id":"free"},{"bike_id":"4bfc0da9-6862-4bfb-aec2-76fb17c1d2a3","system_id":"levelo_inurba_marseille","lat":43.3013,"lon":5.3987,"is_reserved":false,"is_disabled":false,"rental_uris":{"android":"levelo://app?vid=4bfc0da9-6862-4bfb-aec2-76fb17c1d2a3","ios":"levelo://app?vid=4bfc0da9-6862-4bfb-aec2-76fb17c1d2a3"},"vehicle_type_id":"4","last_reported":1700834805,"current_range_meters":8800,"station_id":"ce4bh0h2rcd13ifvqd40","pricing_plan_id":"free"},{"bike_id":"30687942-fa68-440d-a7bd-847d7f8e0d90","system_id":"levelo_inurba_marseille","lat":43.28727,"lon":5.36078,"is_reserved":false,"is_disabled":false,"rental_uris":{"android":"levelo://app?vid=30687942-fa68-440d-a7bd-847d7f8e0d90","ios":"levelo://app?vid=30687942-fa68-440d-a7bd-847d7f8e0d90"},"vehicle_type_id":"4","last_reported":1700834805,"current_range_meters":6400,"station_id":"cki0cbj6b192h4jlfktg","pricing_plan_id":"free"},{"bike_id":"b927ea59-9fb7-4bcc-8b2f-90f4e8705b70","system_id":"levelo_inurba_marseille","lat":43.286591,"lon":5.363346,"is_reserved":false,"is_disabled":false,"rental_uris":{"android":"levelo://app?vid=b927ea59-9fb7-4bcc-8b2f-90f4e8705b70","ios":"levelo://app?vid=b927ea59-9fb7-4bcc-8b2f-90f4e8705b70"},"vehicle_type_id":"4","last_reported":1700834805,"current_range_meters":24000,"station_id":"ce4bhah2rcd13ifvqej0","pricing_plan_id":"free"},{"bike_id":"95e7c11d-575d-4a88-ab5f-adbb0f7cb2d9","system_id":"levelo_inurba_marseille","lat":43.298681,"lon":5.397225,"is_reserved":false,"is_disabled":false,"rental_uris":{"android":"levelo://app?vid=95e7c11d-575d-4a88-ab5f-adbb0f7cb2d9","ios":"levelo://app?vid=95e7c11d-575d-4a88-ab5f-adbb0f7cb2d9"},"vehicle_type_id":"4","last_reported":1700834805,"current_range_meters":23200,"station_id":"ce4bh0h2rcd13ifvqd50","pricing_plan_id":"free"},{"bike_id":"95806cd3-b182-4365-b925-f4ea342c8501","system_id":"levelo_inurba_marseille","lat":43.289307,"lon":5.38406,"is_reserved":false,"is_disabled":false,"rental_uris":{"android":"levelo://app?vid=95806cd3-b182-4365-b925-f4ea342c8501","ios":"levelo://app?vid=95806cd3-b182-4365-b925-f4ea342c8501"},"vehicle_type_id":"4","last_reported":1700834805,"current_range_meters":25600,"station_id":"ce4bh612rcd13ifvqe6g","pricing_plan_id":"free"},{"bike_id":"b454f5e9-3bd4-4034-a3e3-6addcf6c2da2","system_id":"levelo_inurba_marseille","lat":43.287184,"lon":5.37937,"is_reserved":false,"is_disabled":false,"rental_uris":{"android":"levelo://app?vid=b454f5e9-3bd4-4034-a3e3-6addcf6c2da2","ios":"levelo://app?vid=b454f5e9-3bd4-4034-a3e3-6addcf6c2da2"},"vehicle_type_id":"4","last_reported":1700834805,"current_range_meters":30000,"station_id":"ce4bh9p2rcd13ifvqec0","pricing_plan_id":"free"},{"bike_id":"88fa1a78-6078-4812-b6ba-4318e606c9ad","system_id":"levelo_inurba_marseille","lat":43.287185,"lon":5.379373,"is_reserved":false,"is_disabled":false,"rental_uris":{"android":"levelo://app?vid=88fa1a78-6078-4812-b6ba-4318e606c9ad","ios":"levelo://app?vid=88fa1a78-6078-4812-b6ba-4318e606c9ad"},"vehicle_type_id":"4","last_reported":1700834805,"current_range_meters":17200,"station_id":"ce4bh9p2rcd13ifvqec0","pricing_plan_id":"free"},{"bike_id":"314191a6-bff0-47c1-afca-8f3201b0d480","system_id":"levelo_inurba_marseille","lat":43.31645,"lon":5.40439,"is_reserved":false,"is_disabled":false,"rental_uris":{"android":"levelo://app?vid=314191a6-bff0-47c1-afca-8f3201b0d480","ios":"levelo://app?vid=314191a6-bff0-47c1-afca-8f3201b0d480"},"vehicle_type_id":"4","last_reported":1700834805,"current_range_meters":17200,"station_id":"ce4bh012rcd13ifvqd00","pricing_plan_id":"free"},{"bike_id":"12b3082f-55f5-4c3d-8f18-cadaa04a38e0","system_id":"levelo_inurba_marseille","lat":43.31651,"lon":5.40442,"is_reserved":false,"is_disabled":false,"rental_uris":{"android":"levelo://app?vid=12b3082f-55f5-4c3d-8f18-cadaa04a38e0","ios":"levelo://app?vid=12b3082f-55f5-4c3d-8f18-cadaa04a38e0"},"vehicle_type_id":"4","last_reported":1700834805,"current_range_meters":22000,"station_id":"ce4bh012rcd13ifvqd00","pricing_plan_id":"free"},{"bike_id":"7b388866-e917-4599-adfe-3fde8d717fd0","system_id":"levelo_inurba_marseille","lat":43.291994,"lon":5.392907,"is_reserved":false,"is_disabled":false,"rental_uris":{"android":"levelo://app?vid=7b388866-e917-4599-adfe-3fde8d717fd0","ios":"levelo://app?vid=7b388866-e917-4599-adfe-3fde8d717fd0"},"vehicle_type_id":"4","last_reported":1700834805,"current_range_meters":10800,"station_id":"ce4bh192rcd13ifvqdd0","pricing_plan_id":"free"},{"bike_id":"13997204-e181-4046-80ef-3177506d3c75","system_id":"levelo_inurba_marseille","lat":43.291994,"lon":5.392907,"is_reserved":false,"is_disabled":false,"rental_uris":{"android":"levelo://app?vid=13997204-e181-4046-80ef-3177506d3c75","ios":"levelo://app?vid=13997204-e181-4046-80ef-3177506d3c75"},"vehicle_type_id":"4","last_reported":1700834805,"current_range_meters":22800,"station_id":"ce4bh192rcd13ifvqdd0","pricing_plan_id":"free"},{"bike_id":"072eb04a-a6cf-47a8-8b96-5209233ced32","system_id":"levelo_inurba_marseille","lat":43.28623,"lon":5.35102,"is_reserved":false,"is_disabled":false,"rental_uris":{"android":"levelo://app?vid=072eb04a-a6cf-47a8-8b96-5209233ced32","ios":"levelo://app?vid=072eb04a-a6cf-47a8-8b96-5209233ced32"},"vehicle_type_id":"4","last_reported":1700834805,"current_range_meters":31200,"station_id":"ce4bhch2rcd13ifvqeug","pricing_plan_id":"free"},{"bike_id":"9cdb5cf8-144b-465e-bdb3-a98aba5b7191","system_id":"levelo_inurba_marseille","lat":43.285856,"lon":5.350771,"is_reserved":false,"is_disabled":false,"rental_uris":{"android":"levelo://app?vid=9cdb5cf8-144b-465e-bdb3-a98aba5b7191","ios":"levelo://app?vid=9cdb5cf8-144b-465e-bdb3-a98aba5b7191"},"vehicle_type_id":"4","last_reported":1700834805,"current_range_meters":31200,"station_id":"ce4bhch2rcd13ifvqeug","pricing_plan_id":"free"},{"bike_id":"0e44d4ab-1c17-4ba5-a802-8b49ba3fa8e7","system_id":"levelo_inurba_marseille","lat":43.28612,"lon":5.35106,"is_reserved":false,"is_disabled":false,"rental_uris":{"android":"levelo://app?vid=0e44d4ab-1c17-4ba5-a802-8b49ba3fa8e7","ios":"levelo://app?vid=0e44d4ab-1c17-4ba5-a802-8b49ba3fa8e7"},"vehicle_type_id":"4","last_reported":1700834805,"current_range_meters":23200,"station_id":"ce4bhch2rcd13ifvqeug","pricing_plan_id":"free"},{"bike_id":"a2ffeef3-dcdb-450d-b4c6-f033f2d4dc84","system_id":"levelo_inurba_marseille","lat":43.283998,"lon":5.375062,"is_reserved":false,"is_disabled":false,"rental_uris":{"android":"levelo://app?vid=a2ffeef3-dcdb-450d-b4c6-f033f2d4dc84","ios":"levelo://app?vid=a2ffeef3-dcdb-450d-b4c6-f033f2d4dc84"},"vehicle_type_id":"4","last_reported":1700834805,"current_range_meters":14800,"station_id":"ce4bh412rcd13ifvqds0","pricing_plan_id":"free"},{"bike_id":"0bd4916a-e819-4706-9069-9bbb7fdbc3da","system_id":"levelo_inurba_marseille","lat":43.283998,"lon":5.375062,"is_reserved":false,"is_disabled":false,"rental_uris":{"android":"levelo://app?vid=0bd4916a-e819-4706-9069-9bbb7fdbc3da","ios":"levelo://app?vid=0bd4916a-e819-4706-9069-9bbb7fdbc3da"},"vehicle_type_id":"4","last_reported":1700834805,"current_range_meters":1600,"station_id":"ce4bh412rcd13ifvqds0","pricing_plan_id":"free"},{"bike_id":"9b6dd612-0b65-44b4-9f26-387b6c0ad174","system_id":"levelo_inurba_marseille","lat":43.288501,"lon":5.393087,"is_reserved":false,"is_disabled":false,"rental_uris":{"android":"levelo://app?vid=9b6dd612-0b65-44b4-9f26-387b6c0ad174","ios":"levelo://app?vid=9b6dd612-0b65-44b4-9f26-387b6c0ad174"},"vehicle_type_id":"4","last_reported":1700834805,"current_range_meters":1200,"station_id":"ce4bh2p2rcd13ifvqdi0","pricing_plan_id":"free"},{"bike_id":"e2284003-4e46-4e0a-93e7-73d05c3666d9","system_id":"levelo_inurba_marseille","lat":43.33508,"lon":5.397755,"is_reserved":false,"is_disabled":false,"rental_uris":{"android":"levelo://app?vid=e2284003-4e46-4e0a-93e7-73d05c3666d9","ios":"levelo://app?vid=e2284003-4e46-4e0a-93e7-73d05c3666d9"},"vehicle_type_id":"4","last_reported":1700834805,"current_range_meters":26400,"station_id":"","pricing_plan_id":"free"},{"bike_id":"ba8299bc-29be-4019-abb6-c040481bdcff","system_id":"levelo_inurba_marseille","lat":43.289363,"lon":5.396322,"is_reserved":false,"is_disabled":false,"rental_uris":{"android":"levelo://app?vid=ba8299bc-29be-4019-abb6-c040481bdcff","ios":"levelo://app?vid=ba8299bc-29be-4019-abb6-c040481bdcff"},"vehicle_type_id":"4","last_reported":1700834805,"current_range_meters":12800,"station_id":"ce4bh3h2rcd13ifvqdn0","pricing_plan_id":"free"},{"bike_id":"87f032ff-1885-42db-990c-92a017c017a1","system_id":"levelo_inurba_marseille","lat":43.289363,"lon":5.396322,"is_reserved":false,"is_disabled":false,"rental_uris":{"android":"levelo://app?vid=87f032ff-1885-42db-990c-92a017c017a1","ios":"levelo://app?vid=87f032ff-1885-42db-990c-92a017c017a1"},"vehicle_type_id":"4","last_reported":1700834805,"current_range_meters":18800,"station_id":"ce4bh3h2rcd13ifvqdn0","pricing_plan_id":"free"},{"bike_id":"b4bc6c19-20e6-4b1e-b989-40d4ba171e93","system_id":"levelo_inurba_marseille","lat":43.335274,"lon":5.397578,"is_reserved":false,"is_disabled":false,"rental_uris":{"android":"levelo://app?vid=b4bc6c19-20e6-4b1e-b989-40d4ba171e93","ios":"levelo://app?vid=b4bc6c19-20e6-4b1e-b989-40d4ba171e93"},"vehicle_type_id":"4","last_reported":1700834805,"current_range_meters":5600,"station_id":"","pricing_plan_id":"free"},{"bike_id":"683e58ad-12f5-4267-a2e6-fa838625375e","system_id":"levelo_inurba_marseille","lat":43.29275,"lon":5.40126,"is_reserved":false,"is_disabled":false,"rental_uris":{"android":"levelo://app?vid=683e58ad-12f5-4267-a2e6-fa838625375e","ios":"levelo://app?vid=683e58ad-12f5-4267-a2e6-fa838625375e"},"vehicle_type_id":"4","last_reported":1700834805,"current_range_meters":0,"station_id":"ce4bh312rcd13ifvqdk0","pricing_plan_id":"free"},{"bike_id":"b1ec53a0-dd60-4db0-9a51-8ec255993688","system_id":"levelo_inurba_marseille","lat":43.296263,"lon":5.40601,"is_reserved":false,"is_disabled":false,"rental_uris":{"android":"levelo://app?vid=b1ec53a0-dd60-4db0-9a51-8ec255993688","ios":"levelo://app?vid=b1ec53a0-dd60-4db0-9a51-8ec255993688"},"vehicle_type_id":"4","last_reported":1700834805,"current_range_meters":0,"station_id":"ce4bh0h2rcd13ifvqd60","pricing_plan_id":"free"},{"bike_id":"615acb43-97e4-46c3-a384-16dcd4a689f5","system_id":"levelo_inurba_marseille","lat":43.281044,"lon":5.378308,"is_reserved":false,"is_disabled":false,"rental_uris":{"android":"levelo://app?vid=615acb43-97e4-46c3-a384-16dcd4a689f5","ios":"levelo://app?vid=615acb43-97e4-46c3-a384-16dcd4a689f5"},"vehicle_type_id":"4","last_reported":1700834805,"current_range_meters":25200,"station_id":"ce4bha12rcd13ifvqee0","pricing_plan_id":"free"},{"bike_id":"a22a92e9-397a-4ea6-aa63-c785c265e864","system_id":"levelo_inurba_marseille","lat":43.281044,"lon":5.378308,"is_reserved":false,"is_disabled":false,"rental_uris":{"android":"levelo://app?vid=a22a92e9-397a-4ea6-aa63-c785c265e864","ios":"levelo://app?vid=a22a92e9-397a-4ea6-aa63-c785c265e864"},"vehicle_type_id":"4","last_reported":1700834805,"current_range_meters":31200,"station_id":"ce4bha12rcd13ifvqee0","pricing_plan_id":"free"},{"bike_id":"34dcb56a-764b-41f0-b2c1-9279fc71deb9","system_id":"levelo_inurba_marseille","lat":43.281044,"lon":5.378308,"is_reserved":false,"is_disabled":false,"rental_uris":{"android":"levelo://app?vid=34dcb56a-764b-41f0-b2c1-9279fc71deb9","ios":"levelo://app?vid=34dcb56a-764b-41f0-b2c1-9279fc71deb9"},"vehicle_type_id":"4","last_reported":1700834805,"current_range_meters":25600,"station_id":"ce4bha12rcd13ifvqee0","pricing_plan_id":"free"},{"bike_id":"bac63ba2-0d69-4fa9-87b4-5f0ea2ea4f30","system_id":"levelo_inurba_marseille","lat":43.296263,"lon":5.40601,"is_reserved":false,"is_disabled":false,"rental_uris":{"android":"levelo://app?vid=bac63ba2-0d69-4fa9-87b4-5f0ea2ea4f30","ios":"levelo://app?vid=bac63ba2-0d69-4fa9-87b4-5f0ea2ea4f30"},"vehicle_type_id":"4","last_reported":1700834805,"current_range_meters":21600,"station_id":"ce4bh0h2rcd13ifvqd60","pricing_plan_id":"free"},{"bike_id":"5c152bf0-a295-491b-bfaa-b42dc59e629d","system_id":"levelo_inurba_marseille","lat":43.284462,"lon":5.392121,"is_reserved":false,"is_disabled":false,"rental_uris":{"android":"levelo://app?vid=5c152bf0-a295-491b-bfaa-b42dc59e629d","ios":"levelo://app?vid=5c152bf0-a295-491b-bfaa-b42dc59e629d"},"vehicle_type_id":"4","last_reported":1700834805,"current_range_meters":5600,"station_id":"ce4bhoh2rcd13ifvqh5g","pricing_plan_id":"free"},{"bike_id":"f01c006a-745d-48ea-9083-569cd9bcf930","system_id":"levelo_inurba_marseille","lat":43.326605,"lon":5.409903,"is_reserved":false,"is_disabled":false,"rental_uris":{"android":"levelo://app?vid=f01c006a-745d-48ea-9083-569cd9bcf930","ios":"levelo://app?vid=f01c006a-745d-48ea-9083-569cd9bcf930"},"vehicle_type_id":"4","last_reported":1700834805,"current_range_meters":7200,"station_id":"ce4bhpp2rcd13ifvqhgg","pricing_plan_id":"free"},{"bike_id":"e8997d84-e9e0-4aaa-a76a-c6d2af7271c7","system_id":"levelo_inurba_marseille","lat":43.298845,"lon":5.410295,"is_reserved":false,"is_disabled":false,"rental_uris":{"android":"levelo://app?vid=e8997d84-e9e0-4aaa-a76a-c6d2af7271c7","ios":"levelo://app?vid=e8997d84-e9e0-4aaa-a76a-c6d2af7271c7"},"vehicle_type_id":"4","last_reported":1700834805,"current_range_meters":0,"station_id":"","pricing_plan_id":"free"},{"bike_id":"d399faa8-aa43-4c84-a4c7-68db2c080faa","system_id":"levelo_inurba_marseille","lat":43.279087,"lon":5.380114,"is_reserved":false,"is_disabled":false,"rental_uris":{"android":"levelo://app?vid=d399faa8-aa43-4c84-a4c7-68db2c080faa","ios":"levelo://app?vid=d399faa8-aa43-4c84-a4c7-68db2c080faa"},"vehicle_type_id":"4","last_reported":1700834805,"current_range_meters":20000,"station_id":"ce4bhf92rcd13ifvqf50","pricing_plan_id":"free"},{"bike_id":"da067167-c983-468f-bfae-5382d78b9f26","system_id":"levelo_inurba_marseille","lat":43.287154,"lon":5.399979,"is_reserved":false,"is_disabled":false,"rental_uris":{"android":"levelo://app?vid=da067167-c983-468f-bfae-5382d78b9f26","ios":"levelo://app?vid=da067167-c983-468f-bfae-5382d78b9f26"},"vehicle_type_id":"4","last_reported":1700834805,"current_range_meters":26400,"station_id":"ce4bho92rcd13ifvqh3g","pricing_plan_id":"free"},{"bike_id":"e4fe0495-7db8-43ac-908f-c9d466061a59","system_id":"levelo_inurba_marseille","lat":43.279742,"lon":5.38744,"is_reserved":false,"is_disabled":false,"rental_uris":{"android":"levelo://app?vid=e4fe0495-7db8-43ac-908f-c9d466061a59","ios":"levelo://app?vid=e4fe0495-7db8-43ac-908f-c9d466061a59"},"vehicle_type_id":"4","last_reported":1700834805,"current_range_meters":28000,"station_id":"ce4bhg12rcd13ifvqf80","pricing_plan_id":"free"},{"bike_id":"1f254ec8-efef-42bf-8238-066b480e725b","system_id":"levelo_inurba_marseille","lat":43.279742,"lon":5.38744,"is_reserved":false,"is_disabled":false,"rental_uris":{"android":"levelo://app?vid=1f254ec8-efef-42bf-8238-066b480e725b","ios":"levelo://app?vid=1f254ec8-efef-42bf-8238-066b480e725b"},"vehicle_type_id":"4","last_reported":1700834805,"current_range_meters":1600,"station_id":"ce4bhg12rcd13ifvqf80","pricing_plan_id":"free"},{"bike_id":"b74dac04-7089-41ee-b07e-b051e089530b","system_id":"levelo_inurba_marseille","lat":43.325233,"lon":5.414318,"is_reserved":false,"is_disabled":false,"rental_uris":{"android":"levelo://app?vid=b74dac04-7089-41ee-b07e-b051e089530b","ios":"levelo://app?vid=b74dac04-7089-41ee-b07e-b051e089530b"},"vehicle_type_id":"4","last_reported":1700834805,"current_range_meters":30000,"station_id":"ce4bhq12rcd13ifvqhhg","pricing_plan_id":"free"},{"bike_id":"a86a44d1-76f4-4759-973d-f3905b7f237f","system_id":"levelo_inurba_marseille","lat":43.27618,"lon":5.361009,"is_reserved":false,"is_disabled":false,"rental_uris":{"android":"levelo://app?vid=a86a44d1-76f4-4759-973d-f3905b7f237f","ios":"levelo://app?vid=a86a44d1-76f4-4759-973d-f3905b7f237f"},"vehicle_type_id":"4","last_reported":1700834805,"current_range_meters":19200,"station_id":"ce4bgj92rcd13ifvqbe0","pricing_plan_id":"free"},{"bike_id":"380bea03-66b9-494a-9d3c-ad0da1c35a22","system_id":"levelo_inurba_marseille","lat":43.29369,"lon":5.41262,"is_reserved":false,"is_disabled":false,"rental_uris":{"android":"levelo://app?vid=380bea03-66b9-494a-9d3c-ad0da1c35a22","ios":"levelo://app?vid=380bea03-66b9-494a-9d3c-ad0da1c35a22"},"vehicle_type_id":"4","last_reported":1700834805,"current_range_meters":0,"station_id":"","pricing_plan_id":"free"},{"bike_id":"889a09d4-b60d-4e43-9ed0-b9c1787c9e58","system_id":"levelo_inurba_marseille","lat":43.273609,"lon":5.362708,"is_reserved":false,"is_disabled":false,"rental_uris":{"android":"levelo://app?vid=889a09d4-b60d-4e43-9ed0-b9c1787c9e58","ios":"levelo://app?vid=889a09d4-b60d-4e43-9ed0-b9c1787c9e58"},"vehicle_type_id":"4","last_reported":1700834805,"current_range_meters":22000,"station_id":"ce4bhbh2rcd13ifvqeo0","pricing_plan_id":"free"},{"bike_id":"4fb43ef6-c01a-47de-8f96-2779edab292f","system_id":"levelo_inurba_marseille","lat":43.33612,"lon":5.410321,"is_reserved":false,"is_disabled":false,"rental_uris":{"android":"levelo://app?vid=4fb43ef6-c01a-47de-8f96-2779edab292f","ios":"levelo://app?vid=4fb43ef6-c01a-47de-8f96-2779edab292f"},"vehicle_type_id":"4","last_reported":1700834805,"current_range_meters":20400,"station_id":"ce4bhqh2rcd13ifvqhmg","pricing_plan_id":"free"},{"bike_id":"fc8a50fc-7fb9-4b58-ae5e-3658ebaf4b71","system_id":"levelo_inurba_marseille","lat":43.34182,"lon":5.406,"is_reserved":false,"is_disabled":false,"rental_uris":{"android":"levelo://app?vid=fc8a50fc-7fb9-4b58-ae5e-3658ebaf4b71","ios":"levelo://app?vid=fc8a50fc-7fb9-4b58-ae5e-3658ebaf4b71"},"vehicle_type_id":"4","last_reported":1700834805,"current_range_meters":3200,"station_id":"","pricing_plan_id":"free"},{"bike_id":"74a042b4-b311-4bab-9353-9927977b6cc5","system_id":"levelo_inurba_marseille","lat":43.279952,"lon":5.400085,"is_reserved":false,"is_disabled":false,"rental_uris":{"android":"levelo://app?vid=74a042b4-b311-4bab-9353-9927977b6cc5","ios":"levelo://app?vid=74a042b4-b311-4bab-9353-9927977b6cc5"},"vehicle_type_id":"4","last_reported":1700834805,"current_range_meters":8000,"station_id":"ce4bho92rcd13ifvqh4g","pricing_plan_id":"free"},{"bike_id":"556e8001-ce9b-4c9f-8b34-0b14cf7aee11","system_id":"levelo_inurba_marseille","lat":43.279952,"lon":5.400085,"is_reserved":false,"is_disabled":false,"rental_uris":{"android":"levelo://app?vid=556e8001-ce9b-4c9f-8b34-0b14cf7aee11","ios":"levelo://app?vid=556e8001-ce9b-4c9f-8b34-0b14cf7aee11"},"vehicle_type_id":"4","last_reported":1700834805,"current_range_meters":14400,"station_id":"ce4bho92rcd13ifvqh4g","pricing_plan_id":"free"},{"bike_id":"422eaa23-7465-45a6-8f34-ef03bb0d0a13","system_id":"levelo_inurba_marseille","lat":43.340804,"lon":5.410219,"is_reserved":false,"is_disabled":false,"rental_uris":{"android":"levelo://app?vid=422eaa23-7465-45a6-8f34-ef03bb0d0a13","ios":"levelo://app?vid=422eaa23-7465-45a6-8f34-ef03bb0d0a13"},"vehicle_type_id":"4","last_reported":1700834805,"current_range_meters":24000,"station_id":"ce4bhqh2rcd13ifvqhlg","pricing_plan_id":"free"},{"bike_id":"ee3353de-ad16-41b2-900b-c0d5b5e68caf","system_id":"levelo_inurba_marseille","lat":43.340804,"lon":5.410219,"is_reserved":false,"is_disabled":false,"rental_uris":{"android":"levelo://app?vid=ee3353de-ad16-41b2-900b-c0d5b5e68caf","ios":"levelo://app?vid=ee3353de-ad16-41b2-900b-c0d5b5e68caf"},"vehicle_type_id":"4","last_reported":1700834805,"current_range_meters":30800,"station_id":"ce4bhqh2rcd13ifvqhlg","pricing_plan_id":"free"},{"bike_id":"48565e36-de67-4c6a-8337-460138cf3900","system_id":"levelo_inurba_marseille","lat":43.340804,"lon":5.410219,"is_reserved":false,"is_disabled":false,"rental_uris":{"android":"levelo://app?vid=48565e36-de67-4c6a-8337-460138cf3900","ios":"levelo://app?vid=48565e36-de67-4c6a-8337-460138cf3900"},"vehicle_type_id":"4","last_reported":1700834805,"current_range_meters":12400,"station_id":"ce4bhqh2rcd13ifvqhlg","pricing_plan_id":"free"},{"bike_id":"04c48993-d044-41c4-9cb8-117723655329","system_id":"levelo_inurba_marseille","lat":43.340804,"lon":5.410219,"is_reserved":false,"is_disabled":false,"rental_uris":{"android":"levelo://app?vid=04c48993-d044-41c4-9cb8-117723655329","ios":"levelo://app?vid=04c48993-d044-41c4-9cb8-117723655329"},"vehicle_type_id":"4","last_reported":1700834805,"current_range_meters":19200,"station_id":"ce4bhqh2rcd13ifvqhlg","pricing_plan_id":"free"},{"bike_id":"f6d19d1b-693b-4963-ba5a-4b930cec88fd","system_id":"levelo_inurba_marseille","lat":43.340804,"lon":5.410219,"is_reserved":false,"is_disabled":false,"rental_uris":{"android":"levelo://app?vid=f6d19d1b-693b-4963-ba5a-4b930cec88fd","ios":"levelo://app?vid=f6d19d1b-693b-4963-ba5a-4b930cec88fd"},"vehicle_type_id":"4","last_reported":1700834805,"current_range_meters":31200,"station_id":"ce4bhqh2rcd13ifvqhlg","pricing_plan_id":"free"},{"bike_id":"b9156f35-cdfe-46ba-9346-9539cb61e17a","system_id":"levelo_inurba_marseille","lat":43.27324,"lon":5.39104,"is_reserved":false,"is_disabled":false,"rental_uris":{"android":"levelo://app?vid=b9156f35-cdfe-46ba-9346-9539cb61e17a","ios":"levelo://app?vid=b9156f35-cdfe-46ba-9346-9539cb61e17a"},"vehicle_type_id":"4","last_reported":1700834805,"current_range_meters":30800,"station_id":"ce4bhgp2rcd13ifvqfe0","pricing_plan_id":"free"},{"bike_id":"fda90dc1-62ba-4cbb-a0cc-b0a1d058ac33","system_id":"levelo_inurba_marseille","lat":43.274099,"lon":5.394019,"is_reserved":false,"is_disabled":false,"rental_uris":{"android":"levelo://app?vid=fda90dc1-62ba-4cbb-a0cc-b0a1d058ac33","ios":"levelo://app?vid=fda90dc1-62ba-4cbb-a0cc-b0a1d058ac33"},"vehicle_type_id":"4","last_reported":1700834805,"current_range_meters":0,"station_id":"ce4bhdp2rcd13ifvqf20","pricing_plan_id":"free"},{"bike_id":"8b21f06f-480a-4fe5-bb53-d068af8c61e4","system_id":"levelo_inurba_marseille","lat":43.295523,"lon":5.422926,"is_reserved":false,"is_disabled":false,"rental_uris":{"android":"levelo://app?vid=8b21f06f-480a-4fe5-bb53-d068af8c61e4","ios":"levelo://app?vid=8b21f06f-480a-4fe5-bb53-d068af8c61e4"},"vehicle_type_id":"4","last_reported":1700834805,"current_range_meters":29200,"station_id":"ce4bhph2rcd13ifvqhdg","pricing_plan_id":"free"},{"bike_id":"c85f7616-3a9e-47a4-ae16-28a03e51ab4f","system_id":"levelo_inurba_marseille","lat":43.295511,"lon":5.422926,"is_reserved":false,"is_disabled":false,"rental_uris":{"android":"levelo://app?vid=c85f7616-3a9e-47a4-ae16-28a03e51ab4f","ios":"levelo://app?vid=c85f7616-3a9e-47a4-ae16-28a03e51ab4f"},"vehicle_type_id":"4","last_reported":1700834805,"current_range_meters":21200,"station_id":"ce4bhph2rcd13ifvqhdg","pricing_plan_id":"free"},{"bike_id":"be231926-92b2-40bd-89d1-747e57e28cd3","system_id":"levelo_inurba_marseille","lat":43.295511,"lon":5.422926,"is_reserved":false,"is_disabled":false,"rental_uris":{"android":"levelo://app?vid=be231926-92b2-40bd-89d1-747e57e28cd3","ios":"levelo://app?vid=be231926-92b2-40bd-89d1-747e57e28cd3"},"vehicle_type_id":"4","last_reported":1700834805,"current_range_meters":10400,"station_id":"ce4bhph2rcd13ifvqhdg","pricing_plan_id":"free"},{"bike_id":"74ff9280-94a6-4dd9-a659-7dcc314da7b9","system_id":"levelo_inurba_marseille","lat":43.272124,"lon":5.391768,"is_reserved":false,"is_disabled":false,"rental_uris":{"android":"levelo://app?vid=74ff9280-94a6-4dd9-a659-7dcc314da7b9","ios":"levelo://app?vid=74ff9280-94a6-4dd9-a659-7dcc314da7b9"},"vehicle_type_id":"4","last_reported":1700834805,"current_range_meters":4000,"station_id":"ce4bhhp2rcd13ifvqfm0","pricing_plan_id":"free"},{"bike_id":"80a430f7-92b3-45f0-b094-262aaea729a8","system_id":"levelo_inurba_marseille","lat":43.269467,"lon":5.386439,"is_reserved":false,"is_disabled":false,"rental_uris":{"android":"levelo://app?vid=80a430f7-92b3-45f0-b094-262aaea729a8","ios":"levelo://app?vid=80a430f7-92b3-45f0-b094-262aaea729a8"},"vehicle_type_id":"4","last_reported":1700834805,"current_range_meters":21600,"station_id":"ce4bhh92rcd13ifvqfh0","pricing_plan_id":"free"},{"bike_id":"f9d1fb2f-467b-444a-9a31-f0b9e96121cb","system_id":"levelo_inurba_marseille","lat":43.269467,"lon":5.386439,"is_reserved":false,"is_disabled":false,"rental_uris":{"android":"levelo://app?vid=f9d1fb2f-467b-444a-9a31-f0b9e96121cb","ios":"levelo://app?vid=f9d1fb2f-467b-444a-9a31-f0b9e96121cb"},"vehicle_type_id":"4","last_reported":1700834805,"current_range_meters":16000,"station_id":"ce4bhh92rcd13ifvqfh0","pricing_plan_id":"free"},{"bike_id":"6fec4adb-0f86-4394-9f7c-e218dbced8a7","system_id":"levelo_inurba_marseille","lat":43.27949,"lon":5.41052,"is_reserved":false,"is_disabled":false,"rental_uris":{"android":"levelo://app?vid=6fec4adb-0f86-4394-9f7c-e218dbced8a7","ios":"levelo://app?vid=6fec4adb-0f86-4394-9f7c-e218dbced8a7"},"vehicle_type_id":"4","last_reported":1700834805,"current_range_meters":20000,"station_id":"ce4bhnp2rcd13ifvqh0g","pricing_plan_id":"free"},{"bike_id":"1f8de2e0-d2a4-48fc-bb62-ac8fc5f859cd","system_id":"levelo_inurba_marseille","lat":43.266925,"lon":5.382635,"is_reserved":false,"is_disabled":false,"rental_uris":{"android":"levelo://app?vid=1f8de2e0-d2a4-48fc-bb62-ac8fc5f859cd","ios":"levelo://app?vid=1f8de2e0-d2a4-48fc-bb62-ac8fc5f859cd"},"vehicle_type_id":"4","last_reported":1700834805,"current_range_meters":31200,"station_id":"ce4bhg92rcd13ifvqf90","pricing_plan_id":"free"},{"bike_id":"e50a24f9-5106-4c0d-9345-e775fcfd49ac","system_id":"levelo_inurba_marseille","lat":43.26685,"lon":5.38265,"is_reserved":false,"is_disabled":false,"rental_uris":{"android":"levelo://app?vid=e50a24f9-5106-4c0d-9345-e775fcfd49ac","ios":"levelo://app?vid=e50a24f9-5106-4c0d-9345-e775fcfd49ac"},"vehicle_type_id":"4","last_reported":1700834805,"current_range_meters":31200,"station_id":"ce4bhg92rcd13ifvqf90","pricing_plan_id":"free"},{"bike_id":"27da4937-ee81-4225-a410-93d23e985cb3","system_id":"levelo_inurba_marseille","lat":43.26685,"lon":5.38274,"is_reserved":false,"is_disabled":false,"rental_uris":{"android":"levelo://app?vid=27da4937-ee81-4225-a410-93d23e985cb3","ios":"levelo://app?vid=27da4937-ee81-4225-a410-93d23e985cb3"},"vehicle_type_id":"4","last_reported":1700834805,"current_range_meters":30800,"station_id":"ce4bhg92rcd13ifvqf90","pricing_plan_id":"free"},{"bike_id":"a78c7975-23dc-4765-ac5e-cc07d0748e32","system_id":"levelo_inurba_marseille","lat":43.26681,"lon":5.382694,"is_reserved":false,"is_disabled":false,"rental_uris":{"android":"levelo://app?vid=a78c7975-23dc-4765-ac5e-cc07d0748e32","ios":"levelo://app?vid=a78c7975-23dc-4765-ac5e-cc07d0748e32"},"vehicle_type_id":"4","last_reported":1700834805,"current_range_meters":29600,"station_id":"ce4bhg92rcd13ifvqf90","pricing_plan_id":"free"},{"bike_id":"16207791-efb0-4647-be04-11df27cab8b1","system_id":"levelo_inurba_marseille","lat":43.266855,"lon":5.382815,"is_reserved":false,"is_disabled":false,"rental_uris":{"android":"levelo://app?vid=16207791-efb0-4647-be04-11df27cab8b1","ios":"levelo://app?vid=16207791-efb0-4647-be04-11df27cab8b1"},"vehicle_type_id":"4","last_reported":1700834805,"current_range_meters":27200,"station_id":"ce4bhg92rcd13ifvqf90","pricing_plan_id":"free"},{"bike_id":"7eb40523-e1ca-467d-b772-1353c294d8bc","system_id":"levelo_inurba_marseille","lat":43.26681,"lon":5.382694,"is_reserved":false,"is_disabled":false,"rental_uris":{"android":"levelo://app?vid=7eb40523-e1ca-467d-b772-1353c294d8bc","ios":"levelo://app?vid=7eb40523-e1ca-467d-b772-1353c294d8bc"},"vehicle_type_id":"4","last_reported":1700834805,"current_range_meters":21600,"station_id":"ce4bhg92rcd13ifvqf90","pricing_plan_id":"free"},{"bike_id":"72b1047d-07d2-47c4-9805-d565409aa9fb","system_id":"levelo_inurba_marseille","lat":43.26682,"lon":5.38269,"is_reserved":false,"is_disabled":false,"rental_uris":{"android":"levelo://app?vid=72b1047d-07d2-47c4-9805-d565409aa9fb","ios":"levelo://app?vid=72b1047d-07d2-47c4-9805-d565409aa9fb"},"vehicle_type_id":"4","last_reported":1700834805,"current_range_meters":23200,"station_id":"ce4bhg92rcd13ifvqf90","pricing_plan_id":"free"},{"bike_id":"510a2480-541a-47eb-8863-dea357589c1f","system_id":"levelo_inurba_marseille","lat":43.26681,"lon":5.382694,"is_reserved":false,"is_disabled":false,"rental_uris":{"android":"levelo://app?vid=510a2480-541a-47eb-8863-dea357589c1f","ios":"levelo://app?vid=510a2480-541a-47eb-8863-dea357589c1f"},"vehicle_type_id":"4","last_reported":1700834805,"current_range_meters":14000,"station_id":"ce4bhg92rcd13ifvqf90","pricing_plan_id":"free"},{"bike_id":"458ec4b9-7e8d-4723-9af4-a7ca8cc1a968","system_id":"levelo_inurba_marseille","lat":43.26681,"lon":5.38269,"is_reserved":false,"is_disabled":false,"rental_uris":{"android":"levelo://app?vid=458ec4b9-7e8d-4723-9af4-a7ca8cc1a968","ios":"levelo://app?vid=458ec4b9-7e8d-4723-9af4-a7ca8cc1a968"},"vehicle_type_id":"4","last_reported":1700834805,"current_range_meters":30000,"station_id":"ce4bhg92rcd13ifvqf90","pricing_plan_id":"free"},{"bike_id":"c4074fae-ec9c-4ed9-95a4-6884210b5735","system_id":"levelo_inurba_marseille","lat":43.26681,"lon":5.38273,"is_reserved":false,"is_disabled":false,"rental_uris":{"android":"levelo://app?vid=c4074fae-ec9c-4ed9-95a4-6884210b5735","ios":"levelo://app?vid=c4074fae-ec9c-4ed9-95a4-6884210b5735"},"vehicle_type_id":"4","last_reported":1700834805,"current_range_meters":16000,"station_id":"ce4bhg92rcd13ifvqf90","pricing_plan_id":"free"},{"bike_id":"1e0b68ef-172f-405b-ba1f-04fec02178af","system_id":"levelo_inurba_marseille","lat":43.26559,"lon":5.37298,"is_reserved":false,"is_disabled":false,"rental_uris":{"android":"levelo://app?vid=1e0b68ef-172f-405b-ba1f-04fec02178af","ios":"levelo://app?vid=1e0b68ef-172f-405b-ba1f-04fec02178af"},"vehicle_type_id":"4","last_reported":1700834805,"current_range_meters":24800,"station_id":"ce4bhg12rcd13ifvqf70","pricing_plan_id":"free"},{"bike_id":"f7f35a36-44f2-46a0-9451-8c23aea6e965","system_id":"levelo_inurba_marseille","lat":43.26555,"lon":5.37284,"is_reserved":false,"is_disabled":false,"rental_uris":{"android":"levelo://app?vid=f7f35a36-44f2-46a0-9451-8c23aea6e965","ios":"levelo://app?vid=f7f35a36-44f2-46a0-9451-8c23aea6e965"},"vehicle_type_id":"4","last_reported":1700834805,"current_range_meters":26000,"station_id":"ce4bhg12rcd13ifvqf70","pricing_plan_id":"free"},{"bike_id":"289abce6-67df-4a12-ad05-1f3bf2c3c263","system_id":"levelo_inurba_marseille","lat":43.26554,"lon":5.37286,"is_reserved":false,"is_disabled":false,"rental_uris":{"android":"levelo://app?vid=289abce6-67df-4a12-ad05-1f3bf2c3c263","ios":"levelo://app?vid=289abce6-67df-4a12-ad05-1f3bf2c3c263"},"vehicle_type_id":"4","last_reported":1700834805,"current_range_meters":30400,"station_id":"ce4bhg12rcd13ifvqf70","pricing_plan_id":"free"},{"bike_id":"56ab21ea-27c1-4ea1-bc5f-3fb42a365df2","system_id":"levelo_inurba_marseille","lat":43.26552,"lon":5.37286,"is_reserved":false,"is_disabled":false,"rental_uris":{"android":"levelo://app?vid=56ab21ea-27c1-4ea1-bc5f-3fb42a365df2","ios":"levelo://app?vid=56ab21ea-27c1-4ea1-bc5f-3fb42a365df2"},"vehicle_type_id":"4","last_reported":1700834805,"current_range_meters":31200,"station_id":"ce4bhg12rcd13ifvqf70","pricing_plan_id":"free"},{"bike_id":"28e8ce00-6b21-4e06-9930-c7c4408cc650","system_id":"levelo_inurba_marseille","lat":43.326174,"lon":5.430584,"is_reserved":false,"is_disabled":false,"rental_uris":{"android":"levelo://app?vid=28e8ce00-6b21-4e06-9930-c7c4408cc650","ios":"levelo://app?vid=28e8ce00-6b21-4e06-9930-c7c4408cc650"},"vehicle_type_id":"4","last_reported":1700834805,"current_range_meters":0,"station_id":"","pricing_plan_id":"free"},{"bike_id":"584ef035-5cc9-4f9d-b20e-ad1c2c53d500","system_id":"levelo_inurba_marseille","lat":43.27996,"lon":5.416624,"is_reserved":false,"is_disabled":false,"rental_uris":{"android":"levelo://app?vid=584ef035-5cc9-4f9d-b20e-ad1c2c53d500","ios":"levelo://app?vid=584ef035-5cc9-4f9d-b20e-ad1c2c53d500"},"vehicle_type_id":"4","last_reported":1700834805,"current_range_meters":14800,"station_id":"ce4bho12rcd13ifvqh1g","pricing_plan_id":"free"},{"bike_id":"e1b5d941-a78d-4030-98cb-84e7f4cd9def","system_id":"levelo_inurba_marseille","lat":43.27996,"lon":5.416624,"is_reserved":false,"is_disabled":false,"rental_uris":{"android":"levelo://app?vid=e1b5d941-a78d-4030-98cb-84e7f4cd9def","ios":"levelo://app?vid=e1b5d941-a78d-4030-98cb-84e7f4cd9def"},"vehicle_type_id":"4","last_reported":1700834805,"current_range_meters":13200,"station_id":"ce4bho12rcd13ifvqh1g","pricing_plan_id":"free"},{"bike_id":"96da08ff-02c5-45e9-9dbf-9c05e15530f7","system_id":"levelo_inurba_marseille","lat":43.265714,"lon":5.372891,"is_reserved":false,"is_disabled":false,"rental_uris":{"android":"levelo://app?vid=96da08ff-02c5-45e9-9dbf-9c05e15530f7","ios":"levelo://app?vid=96da08ff-02c5-45e9-9dbf-9c05e15530f7"},"vehicle_type_id":"4","last_reported":1700834805,"current_range_meters":31200,"station_id":"ce4bhg12rcd13ifvqf70","pricing_plan_id":"free"},{"bike_id":"e7a82c14-429d-4acb-a404-36b1f554beae","system_id":"levelo_inurba_marseille","lat":43.265714,"lon":5.372891,"is_reserved":false,"is_disabled":false,"rental_uris":{"android":"levelo://app?vid=e7a82c14-429d-4acb-a404-36b1f554beae","ios":"levelo://app?vid=e7a82c14-429d-4acb-a404-36b1f554beae"},"vehicle_type_id":"4","last_reported":1700834805,"current_range_meters":26000,"station_id":"ce4bhg12rcd13ifvqf70","pricing_plan_id":"free"},{"bike_id":"31751cb1-54bc-4aab-ba73-9aa7cb860d78","system_id":"levelo_inurba_marseille","lat":43.265714,"lon":5.372891,"is_reserved":false,"is_disabled":false,"rental_uris":{"android":"levelo://app?vid=31751cb1-54bc-4aab-ba73-9aa7cb860d78","ios":"levelo://app?vid=31751cb1-54bc-4aab-ba73-9aa7cb860d78"},"vehicle_type_id":"4","last_reported":1700834805,"current_range_meters":1200,"station_id":"ce4bhg12rcd13ifvqf70","pricing_plan_id":"free"},{"bike_id":"20db110f-7ce3-4acb-bded-2e349f0c9a5a","system_id":"levelo_inurba_marseille","lat":43.267966,"lon":5.393976,"is_reserved":false,"is_disabled":false,"rental_uris":{"android":"levelo://app?vid=20db110f-7ce3-4acb-bded-2e349f0c9a5a","ios":"levelo://app?vid=20db110f-7ce3-4acb-bded-2e349f0c9a5a"},"vehicle_type_id":"4","last_reported":1700834805,"current_range_meters":12000,"station_id":"ce4bhh12rcd13ifvqfg0","pricing_plan_id":"free"},{"bike_id":"4b53e0b6-b234-49c8-93de-94a030da3596","system_id":"levelo_inurba_marseille","lat":43.265714,"lon":5.372891,"is_reserved":false,"is_disabled":false,"rental_uris":{"android":"levelo://app?vid=4b53e0b6-b234-49c8-93de-94a030da3596","ios":"levelo://app?vid=4b53e0b6-b234-49c8-93de-94a030da3596"},"vehicle_type_id":"4","last_reported":1700834805,"current_range_meters":13600,"station_id":"ce4bhg12rcd13ifvqf70","pricing_plan_id":"free"},{"bike_id":"2b5f0b27-ae58-4e9e-bd76-c585f78e8a73","system_id":"levelo_inurba_marseille","lat":43.26386,"lon":5.37454,"is_reserved":false,"is_disabled":false,"rental_uris":{"android":"levelo://app?vid=2b5f0b27-ae58-4e9e-bd76-c585f78e8a73","ios":"levelo://app?vid=2b5f0b27-ae58-4e9e-bd76-c585f78e8a73"},"vehicle_type_id":"4","last_reported":1700834805,"current_range_meters":14400,"station_id":"","pricing_plan_id":"free"},{"bike_id":"8bb5fb4c-f033-472d-9384-8c187d29c15f","system_id":"levelo_inurba_marseille","lat":43.308051,"lon":5.43527,"is_reserved":false,"is_disabled":false,"rental_uris":{"android":"levelo://app?vid=8bb5fb4c-f033-472d-9384-8c187d29c15f","ios":"levelo://app?vid=8bb5fb4c-f033-472d-9384-8c187d29c15f"},"vehicle_type_id":"4","last_reported":1700834805,"current_range_meters":28800,"station_id":"ce4bhph2rcd13ifvqheg","pricing_plan_id":"free"},{"bike_id":"096f76ac-4f2b-40da-8ac1-8b7d1bc299bb","system_id":"levelo_inurba_marseille","lat":43.26574,"lon":5.39011,"is_reserved":false,"is_disabled":false,"rental_uris":{"android":"levelo://app?vid=096f76ac-4f2b-40da-8ac1-8b7d1bc299bb","ios":"levelo://app?vid=096f76ac-4f2b-40da-8ac1-8b7d1bc299bb"},"vehicle_type_id":"4","last_reported":1700834805,"current_range_meters":0,"station_id":"ce4bhe12rcd13ifvqf30","pricing_plan_id":"free"},{"bike_id":"31e130da-dd7f-4033-af68-56fd9576af1e","system_id":"levelo_inurba_marseille","lat":43.265569,"lon":5.390047,"is_reserved":false,"is_disabled":false,"rental_uris":{"android":"levelo://app?vid=31e130da-dd7f-4033-af68-56fd9576af1e","ios":"levelo://app?vid=31e130da-dd7f-4033-af68-56fd9576af1e"},"vehicle_type_id":"4","last_reported":1700834805,"current_range_meters":18000,"station_id":"ce4bhe12rcd13ifvqf30","pricing_plan_id":"free"},{"bike_id":"38e36d37-f81e-45ef-aec6-205f79296dd6","system_id":"levelo_inurba_marseille","lat":43.26949,"lon":5.40262,"is_reserved":false,"is_disabled":false,"rental_uris":{"android":"levelo://app?vid=38e36d37-f81e-45ef-aec6-205f79296dd6","ios":"levelo://app?vid=38e36d37-f81e-45ef-aec6-205f79296dd6"},"vehicle_type_id":"4","last_reported":1700834805,"current_range_meters":0,"station_id":"cjm6bp8fraef2m0cb0m0","pricing_plan_id":"free"},{"bike_id":"9236961b-2b86-4f3f-9963-af9e3cec8ff0","system_id":"levelo_inurba_marseille","lat":43.26949,"lon":5.40262,"is_reserved":false,"is_disabled":false,"rental_uris":{"android":"levelo://app?vid=9236961b-2b86-4f3f-9963-af9e3cec8ff0","ios":"levelo://app?vid=9236961b-2b86-4f3f-9963-af9e3cec8ff0"},"vehicle_type_id":"4","last_reported":1700834805,"current_range_meters":0,"station_id":"cjm6bp8fraef2m0cb0m0","pricing_plan_id":"free"},{"bike_id":"7f4dabb1-47b4-47f4-8694-87249f105927","system_id":"levelo_inurba_marseille","lat":43.261782,"lon":5.374515,"is_reserved":false,"is_disabled":false,"rental_uris":{"android":"levelo://app?vid=7f4dabb1-47b4-47f4-8694-87249f105927","ios":"levelo://app?vid=7f4dabb1-47b4-47f4-8694-87249f105927"},"vehicle_type_id":"4","last_reported":1700834805,"current_range_meters":4800,"station_id":"ce4bhgp2rcd13ifvqfc0","pricing_plan_id":"free"},{"bike_id":"f23d8119-b478-4639-98c5-6883279f9f84","system_id":"levelo_inurba_marseille","lat":43.31708,"lon":5.43711,"is_reserved":false,"is_disabled":false,"rental_uris":{"android":"levelo://app?vid=f23d8119-b478-4639-98c5-6883279f9f84","ios":"levelo://app?vid=f23d8119-b478-4639-98c5-6883279f9f84"},"vehicle_type_id":"4","last_reported":1700834805,"current_range_meters":26000,"station_id":"ce4bhp92rcd13ifvqhcg","pricing_plan_id":"free"},{"bike_id":"18512275-ce8a-4cb5-b247-e864ee1038b0","system_id":"levelo_inurba_marseille","lat":43.267959,"lon":5.402685,"is_reserved":false,"is_disabled":false,"rental_uris":{"android":"levelo://app?vid=18512275-ce8a-4cb5-b247-e864ee1038b0","ios":"levelo://app?vid=18512275-ce8a-4cb5-b247-e864ee1038b0"},"vehicle_type_id":"4","last_reported":1700834805,"current_range_meters":26400,"station_id":"ce501612rcd8frsf0b60","pricing_plan_id":"free"},{"bike_id":"e927cc78-55fc-4406-a26c-5d780237e426","system_id":"levelo_inurba_marseille","lat":43.267959,"lon":5.402687,"is_reserved":false,"is_disabled":false,"rental_uris":{"android":"levelo://app?vid=e927cc78-55fc-4406-a26c-5d780237e426","ios":"levelo://app?vid=e927cc78-55fc-4406-a26c-5d780237e426"},"vehicle_type_id":"4","last_reported":1700834805,"current_range_meters":30400,"station_id":"ce501612rcd8frsf0b60","pricing_plan_id":"free"},{"bike_id":"3d8a704b-6502-444f-8a83-e3084e7c4e14","system_id":"levelo_inurba_marseille","lat":43.267959,"lon":5.402687,"is_reserved":false,"is_disabled":false,"rental_uris":{"android":"levelo://app?vid=3d8a704b-6502-444f-8a83-e3084e7c4e14","ios":"levelo://app?vid=3d8a704b-6502-444f-8a83-e3084e7c4e14"},"vehicle_type_id":"4","last_reported":1700834805,"current_range_meters":3200,"station_id":"ce501612rcd8frsf0b60","pricing_plan_id":"free"},{"bike_id":"d0bb53f7-f1b8-4609-a668-27efdac67f66","system_id":"levelo_inurba_marseille","lat":43.26301,"lon":5.38842,"is_reserved":false,"is_disabled":false,"rental_uris":{"android":"levelo://app?vid=d0bb53f7-f1b8-4609-a668-27efdac67f66","ios":"levelo://app?vid=d0bb53f7-f1b8-4609-a668-27efdac67f66"},"vehicle_type_id":"4","last_reported":1700834805,"current_range_meters":0,"station_id":"","pricing_plan_id":"free"},{"bike_id":"8881d4a1-c768-4f86-a988-f3cc32eab361","system_id":"levelo_inurba_marseille","lat":43.298768,"lon":5.43643,"is_reserved":false,"is_disabled":false,"rental_uris":{"android":"levelo://app?vid=8881d4a1-c768-4f86-a988-f3cc32eab361","ios":"levelo://app?vid=8881d4a1-c768-4f86-a988-f3cc32eab361"},"vehicle_type_id":"4","last_reported":1700834805,"current_range_meters":24400,"station_id":"ce4bhpp2rcd13ifvqhfg","pricing_plan_id":"free"},{"bike_id":"348f4a0c-22dd-4442-86a7-1693c803c8cc","system_id":"levelo_inurba_marseille","lat":43.260219,"lon":5.37546,"is_reserved":false,"is_disabled":false,"rental_uris":{"android":"levelo://app?vid=348f4a0c-22dd-4442-86a7-1693c803c8cc","ios":"levelo://app?vid=348f4a0c-22dd-4442-86a7-1693c803c8cc"},"vehicle_type_id":"4","last_reported":1700834805,"current_range_meters":16000,"station_id":"ce4bhgh2rcd13ifvqfa0","pricing_plan_id":"free"},{"bike_id":"19698fdf-7e6b-4a3a-a82f-15c47196c324","system_id":"levelo_inurba_marseille","lat":43.281548,"lon":5.42643,"is_reserved":false,"is_disabled":false,"rental_uris":{"android":"levelo://app?vid=19698fdf-7e6b-4a3a-a82f-15c47196c324","ios":"levelo://app?vid=19698fdf-7e6b-4a3a-a82f-15c47196c324"},"vehicle_type_id":"4","last_reported":1700834805,"current_range_meters":23600,"station_id":"ce4bhnh2rcd13ifvqgug","pricing_plan_id":"free"},{"bike_id":"9e9ee2b4-44b1-4864-a430-e5c8e621591e","system_id":"levelo_inurba_marseille","lat":43.281548,"lon":5.42643,"is_reserved":false,"is_disabled":false,"rental_uris":{"android":"levelo://app?vid=9e9ee2b4-44b1-4864-a430-e5c8e621591e","ios":"levelo://app?vid=9e9ee2b4-44b1-4864-a430-e5c8e621591e"},"vehicle_type_id":"4","last_reported":1700834805,"current_range_meters":2000,"station_id":"ce4bhnh2rcd13ifvqgug","pricing_plan_id":"free"},{"bike_id":"5ac38179-4d98-4b89-80f2-dc6cd474e479","system_id":"levelo_inurba_marseille","lat":43.281548,"lon":5.42643,"is_reserved":false,"is_disabled":false,"rental_uris":{"android":"levelo://app?vid=5ac38179-4d98-4b89-80f2-dc6cd474e479","ios":"levelo://app?vid=5ac38179-4d98-4b89-80f2-dc6cd474e479"},"vehicle_type_id":"4","last_reported":1700834805,"current_range_meters":21600,"station_id":"ce4bhnh2rcd13ifvqgug","pricing_plan_id":"free"},{"bike_id":"9365394e-4e03-4e0e-a9c6-d24578e8a28e","system_id":"levelo_inurba_marseille","lat":43.281548,"lon":5.42643,"is_reserved":false,"is_disabled":false,"rental_uris":{"android":"levelo://app?vid=9365394e-4e03-4e0e-a9c6-d24578e8a28e","ios":"levelo://app?vid=9365394e-4e03-4e0e-a9c6-d24578e8a28e"},"vehicle_type_id":"4","last_reported":1700834805,"current_range_meters":20400,"station_id":"ce4bhnh2rcd13ifvqgug","pricing_plan_id":"free"},{"bike_id":"0a698085-0f0b-499b-8cd3-d7bd9047fd17","system_id":"levelo_inurba_marseille","lat":43.281548,"lon":5.42643,"is_reserved":false,"is_disabled":false,"rental_uris":{"android":"levelo://app?vid=0a698085-0f0b-499b-8cd3-d7bd9047fd17","ios":"levelo://app?vid=0a698085-0f0b-499b-8cd3-d7bd9047fd17"},"vehicle_type_id":"4","last_reported":1700834805,"current_range_meters":22800,"station_id":"ce4bhnh2rcd13ifvqgug","pricing_plan_id":"free"},{"bike_id":"a2a489e1-d74f-4c75-a6e2-831938b98feb","system_id":"levelo_inurba_marseille","lat":43.260909,"lon":5.397591,"is_reserved":false,"is_disabled":false,"rental_uris":{"android":"levelo://app?vid=a2a489e1-d74f-4c75-a6e2-831938b98feb","ios":"levelo://app?vid=a2a489e1-d74f-4c75-a6e2-831938b98feb"},"vehicle_type_id":"4","last_reported":1700834805,"current_range_meters":4000,"station_id":"ce4bhi12rcd13ifvqfq0","pricing_plan_id":"free"},{"bike_id":"be55ff5a-173b-464f-b17c-1646c69ac2e0","system_id":"levelo_inurba_marseille","lat":43.2558,"lon":5.38232,"is_reserved":false,"is_disabled":false,"rental_uris":{"android":"levelo://app?vid=be55ff5a-173b-464f-b17c-1646c69ac2e0","ios":"levelo://app?vid=be55ff5a-173b-464f-b17c-1646c69ac2e0"},"vehicle_type_id":"4","last_reported":1700834805,"current_range_meters":18800,"station_id":"ce4bhih2rcd13ifvqfs0","pricing_plan_id":"free"},{"bike_id":"4c1a5819-f81b-41f6-8230-7ea0494f0c66","system_id":"levelo_inurba_marseille","lat":43.258224,"lon":5.394369,"is_reserved":false,"is_disabled":false,"rental_uris":{"android":"levelo://app?vid=4c1a5819-f81b-41f6-8230-7ea0494f0c66","ios":"levelo://app?vid=4c1a5819-f81b-41f6-8230-7ea0494f0c66"},"vehicle_type_id":"4","last_reported":1700834805,"current_range_meters":11600,"station_id":"ce4bhip2rcd13ifvqft0","pricing_plan_id":"free"},{"bike_id":"80438f1e-5ce5-43bb-b8b0-62680314de25","system_id":"levelo_inurba_marseille","lat":43.255756,"lon":5.382303,"is_reserved":false,"is_disabled":false,"rental_uris":{"android":"levelo://app?vid=80438f1e-5ce5-43bb-b8b0-62680314de25","ios":"levelo://app?vid=80438f1e-5ce5-43bb-b8b0-62680314de25"},"vehicle_type_id":"4","last_reported":1700834805,"current_range_meters":11600,"station_id":"ce4bhih2rcd13ifvqfs0","pricing_plan_id":"free"},{"bike_id":"2d65c7e7-8aaf-4ae4-92d0-613f5dce94da","system_id":"levelo_inurba_marseille","lat":43.25494,"lon":5.37649,"is_reserved":false,"is_disabled":false,"rental_uris":{"android":"levelo://app?vid=2d65c7e7-8aaf-4ae4-92d0-613f5dce94da","ios":"levelo://app?vid=2d65c7e7-8aaf-4ae4-92d0-613f5dce94da"},"vehicle_type_id":"4","last_reported":1700834805,"current_range_meters":23200,"station_id":"ce4bhh12rcd13ifvqff0","pricing_plan_id":"free"},{"bike_id":"4f71c8e8-0af0-4bdc-bce1-955916723f32","system_id":"levelo_inurba_marseille","lat":43.254947,"lon":5.376454,"is_reserved":false,"is_disabled":false,"rental_uris":{"android":"levelo://app?vid=4f71c8e8-0af0-4bdc-bce1-955916723f32","ios":"levelo://app?vid=4f71c8e8-0af0-4bdc-bce1-955916723f32"},"vehicle_type_id":"4","last_reported":1700834805,"current_range_meters":27200,"station_id":"ce4bhh12rcd13ifvqff0","pricing_plan_id":"free"},{"bike_id":"34fb691b-6e49-4e52-a268-65363252d69e","system_id":"levelo_inurba_marseille","lat":43.258685,"lon":5.399031,"is_reserved":false,"is_disabled":false,"rental_uris":{"android":"levelo://app?vid=34fb691b-6e49-4e52-a268-65363252d69e","ios":"levelo://app?vid=34fb691b-6e49-4e52-a268-65363252d69e"},"vehicle_type_id":"4","last_reported":1700834805,"current_range_meters":26800,"station_id":"ce4bhl92rcd13ifvqghg","pricing_plan_id":"free"},{"bike_id":"839eee83-169b-4b70-8cc0-b997652540ce","system_id":"levelo_inurba_marseille","lat":43.25868,"lon":5.39904,"is_reserved":false,"is_disabled":false,"rental_uris":{"android":"levelo://app?vid=839eee83-169b-4b70-8cc0-b997652540ce","ios":"levelo://app?vid=839eee83-169b-4b70-8cc0-b997652540ce"},"vehicle_type_id":"4","last_reported":1700834805,"current_range_meters":30800,"station_id":"ce4bhl92rcd13ifvqghg","pricing_plan_id":"free"},{"bike_id":"5b7c133a-70f7-4614-a0f2-c9cfe1de2c7a","system_id":"levelo_inurba_marseille","lat":43.250009,"lon":5.389195,"is_reserved":false,"is_disabled":false,"rental_uris":{"android":"levelo://app?vid=5b7c133a-70f7-4614-a0f2-c9cfe1de2c7a","ios":"levelo://app?vid=5b7c133a-70f7-4614-a0f2-c9cfe1de2c7a"},"vehicle_type_id":"4","last_reported":1700834805,"current_range_meters":28800,"station_id":"ce4bhgp2rcd13ifvqfd0","pricing_plan_id":"free"},{"bike_id":"c1c1beef-d0cc-442d-bcc2-81fc50813833","system_id":"levelo_inurba_marseille","lat":43.250009,"lon":5.389195,"is_reserved":false,"is_disabled":false,"rental_uris":{"android":"levelo://app?vid=c1c1beef-d0cc-442d-bcc2-81fc50813833","ios":"levelo://app?vid=c1c1beef-d0cc-442d-bcc2-81fc50813833"},"vehicle_type_id":"4","last_reported":1700834805,"current_range_meters":27200,"station_id":"ce4bhgp2rcd13ifvqfd0","pricing_plan_id":"free"},{"bike_id":"84899292-26b3-4e0a-92cb-c2b49ec02c85","system_id":"levelo_inurba_marseille","lat":43.250023,"lon":5.38919,"is_reserved":false,"is_disabled":false,"rental_uris":{"android":"levelo://app?vid=84899292-26b3-4e0a-92cb-c2b49ec02c85","ios":"levelo://app?vid=84899292-26b3-4e0a-92cb-c2b49ec02c85"},"vehicle_type_id":"4","last_reported":1700834805,"current_range_meters":30000,"station_id":"ce4bhgp2rcd13ifvqfd0","pricing_plan_id":"free"},{"bike_id":"b761a362-7ae4-46f1-b714-61551703bf01","system_id":"levelo_inurba_marseille","lat":43.2479,"lon":5.374457,"is_reserved":false,"is_disabled":false,"rental_uris":{"android":"levelo://app?vid=b761a362-7ae4-46f1-b714-61551703bf01","ios":"levelo://app?vid=b761a362-7ae4-46f1-b714-61551703bf01"},"vehicle_type_id":"4","last_reported":1700834805,"current_range_meters":26000,"station_id":"ce4bhgh2rcd13ifvqfb0","pricing_plan_id":"free"},{"bike_id":"17149431-5892-41db-b0ca-dc385fd1bcb6","system_id":"levelo_inurba_marseille","lat":43.2479,"lon":5.374457,"is_reserved":false,"is_disabled":false,"rental_uris":{"android":"levelo://app?vid=17149431-5892-41db-b0ca-dc385fd1bcb6","ios":"levelo://app?vid=17149431-5892-41db-b0ca-dc385fd1bcb6"},"vehicle_type_id":"4","last_reported":1700834805,"current_range_meters":23200,"station_id":"ce4bhgh2rcd13ifvqfb0","pricing_plan_id":"free"},{"bike_id":"fceb39cb-5ded-4b60-9b83-503bfc89a98e","system_id":"levelo_inurba_marseille","lat":43.2479,"lon":5.374457,"is_reserved":false,"is_disabled":false,"rental_uris":{"android":"levelo://app?vid=fceb39cb-5ded-4b60-9b83-503bfc89a98e","ios":"levelo://app?vid=fceb39cb-5ded-4b60-9b83-503bfc89a98e"},"vehicle_type_id":"4","last_reported":1700834805,"current_range_meters":1200,"station_id":"ce4bhgh2rcd13ifvqfb0","pricing_plan_id":"free"},{"bike_id":"8b2f4673-8019-49f3-a802-e81090c5d1b9","system_id":"levelo_inurba_marseille","lat":43.24663,"lon":5.37665,"is_reserved":false,"is_disabled":false,"rental_uris":{"android":"levelo://app?vid=8b2f4673-8019-49f3-a802-e81090c5d1b9","ios":"levelo://app?vid=8b2f4673-8019-49f3-a802-e81090c5d1b9"},"vehicle_type_id":"4","last_reported":1700834805,"current_range_meters":16800,"station_id":"","pricing_plan_id":"free"},{"bike_id":"395cea4b-fa7b-47f7-b8d1-3ad5825b0958","system_id":"levelo_inurba_marseille","lat":43.24693,"lon":5.382096,"is_reserved":false,"is_disabled":false,"rental_uris":{"android":"levelo://app?vid=395cea4b-fa7b-47f7-b8d1-3ad5825b0958","ios":"levelo://app?vid=395cea4b-fa7b-47f7-b8d1-3ad5825b0958"},"vehicle_type_id":"4","last_reported":1700834805,"current_range_meters":23600,"station_id":"ce4bhih2rcd13ifvqfr0","pricing_plan_id":"free"},{"bike_id":"0d5ff200-b717-4d1b-a00b-caff37148102","system_id":"levelo_inurba_marseille","lat":43.251283,"lon":5.403165,"is_reserved":false,"is_disabled":false,"rental_uris":{"android":"levelo://app?vid=0d5ff200-b717-4d1b-a00b-caff37148102","ios":"levelo://app?vid=0d5ff200-b717-4d1b-a00b-caff37148102"},"vehicle_type_id":"4","last_reported":1700834805,"current_range_meters":4800,"station_id":"ce4bhlh2rcd13ifvqgig","pricing_plan_id":"free"},{"bike_id":"969b658f-c7ec-4c18-9d03-e6b76e87a51c","system_id":"levelo_inurba_marseille","lat":43.24693,"lon":5.382096,"is_reserved":false,"is_disabled":false,"rental_uris":{"android":"levelo://app?vid=969b658f-c7ec-4c18-9d03-e6b76e87a51c","ios":"levelo://app?vid=969b658f-c7ec-4c18-9d03-e6b76e87a51c"},"vehicle_type_id":"4","last_reported":1700834805,"current_range_meters":10800,"station_id":"ce4bhih2rcd13ifvqfr0","pricing_plan_id":"free"},{"bike_id":"ca09267b-5588-4c47-9fdf-673b22dc770e","system_id":"levelo_inurba_marseille","lat":43.25102,"lon":5.403214,"is_reserved":false,"is_disabled":false,"rental_uris":{"android":"levelo://app?vid=ca09267b-5588-4c47-9fdf-673b22dc770e","ios":"levelo://app?vid=ca09267b-5588-4c47-9fdf-673b22dc770e"},"vehicle_type_id":"4","last_reported":1700834805,"current_range_meters":21600,"station_id":"ce4bhlh2rcd13ifvqgig","pricing_plan_id":"free"},{"bike_id":"5c2d411d-f517-40e3-b9e5-89f3acf2e4fb","system_id":"levelo_inurba_marseille","lat":43.25102,"lon":5.403214,"is_reserved":false,"is_disabled":false,"rental_uris":{"android":"levelo://app?vid=5c2d411d-f517-40e3-b9e5-89f3acf2e4fb","ios":"levelo://app?vid=5c2d411d-f517-40e3-b9e5-89f3acf2e4fb"},"vehicle_type_id":"4","last_reported":1700834805,"current_range_meters":14000,"station_id":"ce4bhlh2rcd13ifvqgig","pricing_plan_id":"free"},{"bike_id":"8cf8f0b3-69f2-40de-b00d-e70e5f4adb57","system_id":"levelo_inurba_marseille","lat":43.246467,"lon":5.388984,"is_reserved":false,"is_disabled":false,"rental_uris":{"android":"levelo://app?vid=8cf8f0b3-69f2-40de-b00d-e70e5f4adb57","ios":"levelo://app?vid=8cf8f0b3-69f2-40de-b00d-e70e5f4adb57"},"vehicle_type_id":"4","last_reported":1700834805,"current_range_meters":10400,"station_id":"ce4bhg12rcd13ifvqf60","pricing_plan_id":"free"},{"bike_id":"002f35b0-8653-40ae-b718-04602e09d7c3","system_id":"levelo_inurba_marseille","lat":43.243884,"lon":5.370736,"is_reserved":false,"is_disabled":false,"rental_uris":{"android":"levelo://app?vid=002f35b0-8653-40ae-b718-04602e09d7c3","ios":"levelo://app?vid=002f35b0-8653-40ae-b718-04602e09d7c3"},"vehicle_type_id":"4","last_reported":1700834805,"current_range_meters":30000,"station_id":"ce4bhhh2rcd13ifvqfk0","pricing_plan_id":"free"},{"bike_id":"f38a914a-1669-412f-a27f-d66e5a38000d","system_id":"levelo_inurba_marseille","lat":43.24391,"lon":5.3706,"is_reserved":false,"is_disabled":false,"rental_uris":{"android":"levelo://app?vid=f38a914a-1669-412f-a27f-d66e5a38000d","ios":"levelo://app?vid=f38a914a-1669-412f-a27f-d66e5a38000d"},"vehicle_type_id":"4","last_reported":1700834805,"current_range_meters":0,"station_id":"ce4bhhh2rcd13ifvqfk0","pricing_plan_id":"free"},{"bike_id":"b6a3294a-d08b-4856-bc2d-cb266764db07","system_id":"levelo_inurba_marseille","lat":43.243884,"lon":5.370737,"is_reserved":false,"is_disabled":false,"rental_uris":{"android":"levelo://app?vid=b6a3294a-d08b-4856-bc2d-cb266764db07","ios":"levelo://app?vid=b6a3294a-d08b-4856-bc2d-cb266764db07"},"vehicle_type_id":"4","last_reported":1700834805,"current_range_meters":31600,"station_id":"ce4bhhh2rcd13ifvqfk0","pricing_plan_id":"free"},{"bike_id":"e5734605-a64e-4a89-825d-d184fa7f79ab","system_id":"levelo_inurba_marseille","lat":43.243884,"lon":5.370736,"is_reserved":false,"is_disabled":false,"rental_uris":{"android":"levelo://app?vid=e5734605-a64e-4a89-825d-d184fa7f79ab","ios":"levelo://app?vid=e5734605-a64e-4a89-825d-d184fa7f79ab"},"vehicle_type_id":"4","last_reported":1700834805,"current_range_meters":28800,"station_id":"ce4bhhh2rcd13ifvqfk0","pricing_plan_id":"free"},{"bike_id":"37a91800-392f-4ba8-a060-fafd20b8850e","system_id":"levelo_inurba_marseille","lat":43.243884,"lon":5.370736,"is_reserved":false,"is_disabled":false,"rental_uris":{"android":"levelo://app?vid=37a91800-392f-4ba8-a060-fafd20b8850e","ios":"levelo://app?vid=37a91800-392f-4ba8-a060-fafd20b8850e"},"vehicle_type_id":"4","last_reported":1700834805,"current_range_meters":31200,"station_id":"ce4bhhh2rcd13ifvqfk0","pricing_plan_id":"free"},{"bike_id":"10cce0be-ca50-4499-8a22-0dbebd67df50","system_id":"levelo_inurba_marseille","lat":43.24383,"lon":5.37051,"is_reserved":false,"is_disabled":false,"rental_uris":{"android":"levelo://app?vid=10cce0be-ca50-4499-8a22-0dbebd67df50","ios":"levelo://app?vid=10cce0be-ca50-4499-8a22-0dbebd67df50"},"vehicle_type_id":"4","last_reported":1700834805,"current_range_meters":12800,"station_id":"ce4bhhh2rcd13ifvqfk0","pricing_plan_id":"free"},{"bike_id":"d5f29348-84d7-4fa8-867d-8b651be783d0","system_id":"levelo_inurba_marseille","lat":43.24383,"lon":5.37054,"is_reserved":false,"is_disabled":false,"rental_uris":{"android":"levelo://app?vid=d5f29348-84d7-4fa8-867d-8b651be783d0","ios":"levelo://app?vid=d5f29348-84d7-4fa8-867d-8b651be783d0"},"vehicle_type_id":"4","last_reported":1700834805,"current_range_meters":16800,"station_id":"ce4bhhh2rcd13ifvqfk0","pricing_plan_id":"free"},{"bike_id":"c21e755a-7a65-4322-9deb-bc67939974fc","system_id":"levelo_inurba_marseille","lat":43.243884,"lon":5.370737,"is_reserved":false,"is_disabled":false,"rental_uris":{"android":"levelo://app?vid=c21e755a-7a65-4322-9deb-bc67939974fc","ios":"levelo://app?vid=c21e755a-7a65-4322-9deb-bc67939974fc"},"vehicle_type_id":"4","last_reported":1700834805,"current_range_meters":9600,"station_id":"ce4bhhh2rcd13ifvqfk0","pricing_plan_id":"free"},{"bike_id":"dc1c6480-d20f-4d46-a98e-8e7f957b3c10","system_id":"levelo_inurba_marseille","lat":43.245581,"lon":5.395069,"is_reserved":false,"is_disabled":false,"rental_uris":{"android":"levelo://app?vid=dc1c6480-d20f-4d46-a98e-8e7f957b3c10","ios":"levelo://app?vid=dc1c6480-d20f-4d46-a98e-8e7f957b3c10"},"vehicle_type_id":"4","last_reported":1700834805,"current_range_meters":12000,"station_id":"ce4bhlp2rcd13ifvqgjg","pricing_plan_id":"free"},{"bike_id":"23b5cfb3-98c2-4526-95b1-f42afcf00c8d","system_id":"levelo_inurba_marseille","lat":43.245581,"lon":5.395069,"is_reserved":false,"is_disabled":false,"rental_uris":{"android":"levelo://app?vid=23b5cfb3-98c2-4526-95b1-f42afcf00c8d","ios":"levelo://app?vid=23b5cfb3-98c2-4526-95b1-f42afcf00c8d"},"vehicle_type_id":"4","last_reported":1700834805,"current_range_meters":31600,"station_id":"ce4bhlp2rcd13ifvqgjg","pricing_plan_id":"free"},{"bike_id":"fa5f077c-73d4-4771-a8fb-6cad199efcdf","system_id":"levelo_inurba_marseille","lat":43.240623,"lon":5.377642,"is_reserved":false,"is_disabled":false,"rental_uris":{"android":"levelo://app?vid=fa5f077c-73d4-4771-a8fb-6cad199efcdf","ios":"levelo://app?vid=fa5f077c-73d4-4771-a8fb-6cad199efcdf"},"vehicle_type_id":"4","last_reported":1700834805,"current_range_meters":14000,"station_id":"ce4bhnp2rcd13ifvqgvg","pricing_plan_id":"free"},{"bike_id":"56b0f98d-ecc1-47fa-bd3e-9dc560c42354","system_id":"levelo_inurba_marseille","lat":43.239588,"lon":5.366238,"is_reserved":false,"is_disabled":false,"rental_uris":{"android":"levelo://app?vid=56b0f98d-ecc1-47fa-bd3e-9dc560c42354","ios":"levelo://app?vid=56b0f98d-ecc1-47fa-bd3e-9dc560c42354"},"vehicle_type_id":"4","last_reported":1700834805,"current_range_meters":21200,"station_id":"ce4bhi12rcd13ifvqfp0","pricing_plan_id":"free"},{"bike_id":"3f4f0ecf-433f-4e60-b253-d87ddd33d648","system_id":"levelo_inurba_marseille","lat":43.239588,"lon":5.366238,"is_reserved":false,"is_disabled":false,"rental_uris":{"android":"levelo://app?vid=3f4f0ecf-433f-4e60-b253-d87ddd33d648","ios":"levelo://app?vid=3f4f0ecf-433f-4e60-b253-d87ddd33d648"},"vehicle_type_id":"4","last_reported":1700834805,"current_range_meters":3600,"station_id":"ce4bhi12rcd13ifvqfp0","pricing_plan_id":"free"},{"bike_id":"faa5696c-5bf0-46dc-84ae-0a7bc1e2d5ef","system_id":"levelo_inurba_marseille","lat":43.239588,"lon":5.366238,"is_reserved":false,"is_disabled":false,"rental_uris":{"android":"levelo://app?vid=faa5696c-5bf0-46dc-84ae-0a7bc1e2d5ef","ios":"levelo://app?vid=faa5696c-5bf0-46dc-84ae-0a7bc1e2d5ef"},"vehicle_type_id":"4","last_reported":1700834805,"current_range_meters":26000,"station_id":"ce4bhi12rcd13ifvqfp0","pricing_plan_id":"free"},{"bike_id":"124f1bf7-9af9-4782-a052-dd6aa38caf9d","system_id":"levelo_inurba_marseille","lat":43.239588,"lon":5.366238,"is_reserved":false,"is_disabled":false,"rental_uris":{"android":"levelo://app?vid=124f1bf7-9af9-4782-a052-dd6aa38caf9d","ios":"levelo://app?vid=124f1bf7-9af9-4782-a052-dd6aa38caf9d"},"vehicle_type_id":"4","last_reported":1700834805,"current_range_meters":30000,"station_id":"ce4bhi12rcd13ifvqfp0","pricing_plan_id":"free"},{"bike_id":"3ef70aed-f117-47c7-8cf5-f087e626237b","system_id":"levelo_inurba_marseille","lat":43.239588,"lon":5.366238,"is_reserved":false,"is_disabled":false,"rental_uris":{"android":"levelo://app?vid=3ef70aed-f117-47c7-8cf5-f087e626237b","ios":"levelo://app?vid=3ef70aed-f117-47c7-8cf5-f087e626237b"},"vehicle_type_id":"4","last_reported":1700834805,"current_range_meters":12000,"station_id":"ce4bhi12rcd13ifvqfp0","pricing_plan_id":"free"},{"bike_id":"4171becc-e805-473d-84c2-e3378bc1eb28","system_id":"levelo_inurba_marseille","lat":43.239603,"lon":5.366252,"is_reserved":false,"is_disabled":false,"rental_uris":{"android":"levelo://app?vid=4171becc-e805-473d-84c2-e3378bc1eb28","ios":"levelo://app?vid=4171becc-e805-473d-84c2-e3378bc1eb28"},"vehicle_type_id":"4","last_reported":1700834805,"current_range_meters":17600,"station_id":"ce4bhi12rcd13ifvqfp0","pricing_plan_id":"free"},{"bike_id":"6043056a-da83-4bf3-bffd-a77c21a9967d","system_id":"levelo_inurba_marseille","lat":43.24179,"lon":5.397294,"is_reserved":false,"is_disabled":false,"rental_uris":{"android":"levelo://app?vid=6043056a-da83-4bf3-bffd-a77c21a9967d","ios":"levelo://app?vid=6043056a-da83-4bf3-bffd-a77c21a9967d"},"vehicle_type_id":"4","last_reported":1700834805,"current_range_meters":5600,"station_id":"ce4bhn12rcd13ifvqgpg","pricing_plan_id":"free"},{"bike_id":"83d255ad-12c9-42bf-a34d-bb21b843cbed","system_id":"levelo_inurba_marseille","lat":43.241782,"lon":5.397261,"is_reserved":false,"is_disabled":false,"rental_uris":{"android":"levelo://app?vid=83d255ad-12c9-42bf-a34d-bb21b843cbed","ios":"levelo://app?vid=83d255ad-12c9-42bf-a34d-bb21b843cbed"},"vehicle_type_id":"4","last_reported":1700834805,"current_range_meters":22800,"station_id":"ce4bhn12rcd13ifvqgpg","pricing_plan_id":"free"},{"bike_id":"e93527fc-827d-468b-8e97-ad09e79c93af","system_id":"levelo_inurba_marseille","lat":43.241782,"lon":5.397261,"is_reserved":false,"is_disabled":false,"rental_uris":{"android":"levelo://app?vid=e93527fc-827d-468b-8e97-ad09e79c93af","ios":"levelo://app?vid=e93527fc-827d-468b-8e97-ad09e79c93af"},"vehicle_type_id":"4","last_reported":1700834805,"current_range_meters":28400,"station_id":"ce4bhn12rcd13ifvqgpg","pricing_plan_id":"free"},{"bike_id":"edd2b3c8-67fd-4064-8af7-f698e6d9963c","system_id":"levelo_inurba_marseille","lat":43.231919,"lon":5.355532,"is_reserved":false,"is_disabled":false,"rental_uris":{"android":"levelo://app?vid=edd2b3c8-67fd-4064-8af7-f698e6d9963c","ios":"levelo://app?vid=edd2b3c8-67fd-4064-8af7-f698e6d9963c"},"vehicle_type_id":"4","last_reported":1700834805,"current_range_meters":25600,"station_id":"ce4bhu92rcd13ifvqi70","pricing_plan_id":"free"},{"bike_id":"0a349838-8936-442e-8a55-c173dbb54834","system_id":"levelo_inurba_marseille","lat":43.231919,"lon":5.355532,"is_reserved":false,"is_disabled":false,"rental_uris":{"android":"levelo://app?vid=0a349838-8936-442e-8a55-c173dbb54834","ios":"levelo://app?vid=0a349838-8936-442e-8a55-c173dbb54834"},"vehicle_type_id":"4","last_reported":1700834805,"current_range_meters":4000,"station_id":"ce4bhu92rcd13ifvqi70","pricing_plan_id":"free"},{"bike_id":"e5142140-e22b-48ab-87cb-62f0bb2d3ee6","system_id":"levelo_inurba_marseille","lat":43.231967,"lon":5.355467,"is_reserved":false,"is_disabled":false,"rental_uris":{"android":"levelo://app?vid=e5142140-e22b-48ab-87cb-62f0bb2d3ee6","ios":"levelo://app?vid=e5142140-e22b-48ab-87cb-62f0bb2d3ee6"},"vehicle_type_id":"4","last_reported":1700834805,"current_range_meters":10000,"station_id":"ce4bhu92rcd13ifvqi70","pricing_plan_id":"free"},{"bike_id":"425d3457-d7b1-4bd6-af05-1b26bfd08345","system_id":"levelo_inurba_marseille","lat":43.23195,"lon":5.35555,"is_reserved":false,"is_disabled":false,"rental_uris":{"android":"levelo://app?vid=425d3457-d7b1-4bd6-af05-1b26bfd08345","ios":"levelo://app?vid=425d3457-d7b1-4bd6-af05-1b26bfd08345"},"vehicle_type_id":"4","last_reported":1700834805,"current_range_meters":31200,"station_id":"ce4bhu92rcd13ifvqi70","pricing_plan_id":"free"},{"bike_id":"aeb874ed-5a67-45f7-94cd-1c1e110219bc","system_id":"levelo_inurba_marseille","lat":43.231919,"lon":5.355532,"is_reserved":false,"is_disabled":false,"rental_uris":{"android":"levelo://app?vid=aeb874ed-5a67-45f7-94cd-1c1e110219bc","ios":"levelo://app?vid=aeb874ed-5a67-45f7-94cd-1c1e110219bc"},"vehicle_type_id":"4","last_reported":1700834805,"current_range_meters":31600,"station_id":"ce4bhu92rcd13ifvqi70","pricing_plan_id":"free"},{"bike_id":"43c5443b-8e5b-4f1e-b432-cfcc7a3748f4","system_id":"levelo_inurba_marseille","lat":43.231793,"lon":5.400044,"is_reserved":false,"is_disabled":false,"rental_uris":{"android":"levelo://app?vid=43c5443b-8e5b-4f1e-b432-cfcc7a3748f4","ios":"levelo://app?vid=43c5443b-8e5b-4f1e-b432-cfcc7a3748f4"},"vehicle_type_id":"4","last_reported":1700834805,"current_range_meters":28800,"station_id":"ce4bhn12rcd13ifvqgqg","pricing_plan_id":"free"},{"bike_id":"ba6d79c0-6a21-43e4-a3e7-c61b28164239","system_id":"levelo_inurba_marseille","lat":43.231793,"lon":5.400044,"is_reserved":false,"is_disabled":false,"rental_uris":{"android":"levelo://app?vid=ba6d79c0-6a21-43e4-a3e7-c61b28164239","ios":"levelo://app?vid=ba6d79c0-6a21-43e4-a3e7-c61b28164239"},"vehicle_type_id":"4","last_reported":1700834805,"current_range_meters":24400,"station_id":"ce4bhn12rcd13ifvqgqg","pricing_plan_id":"free"},{"bike_id":"216d01e0-0894-4b88-9379-35377c1f196b","system_id":"levelo_inurba_marseille","lat":43.231794,"lon":5.400052,"is_reserved":false,"is_disabled":false,"rental_uris":{"android":"levelo://app?vid=216d01e0-0894-4b88-9379-35377c1f196b","ios":"levelo://app?vid=216d01e0-0894-4b88-9379-35377c1f196b"},"vehicle_type_id":"4","last_reported":1700834805,"current_range_meters":31600,"station_id":"ce4bhn12rcd13ifvqgqg","pricing_plan_id":"free"},{"bike_id":"df7e6c4d-a3bc-48a2-a471-a72390a84d34","system_id":"levelo_inurba_marseille","lat":43.231793,"lon":5.400044,"is_reserved":false,"is_disabled":false,"rental_uris":{"android":"levelo://app?vid=df7e6c4d-a3bc-48a2-a471-a72390a84d34","ios":"levelo://app?vid=df7e6c4d-a3bc-48a2-a471-a72390a84d34"},