{"last_updated":1702332422,"ttl":30,"version":"2.2","data":{"bikes":[{"bike_id":"ea7bfab5-65a1-4ce2-bad8-2f29c1305040","system_id":"levelo_inurba_marseille","lat":43.313391,"lon":5.36706,"is_reserved":false,"is_disabled":false,"rental_uris":{"android":"levelo://app?vid=ea7bfab5-65a1-4ce2-bad8-2f29c1305040","ios":"levelo://app?vid=ea7bfab5-65a1-4ce2-bad8-2f29c1305040"},"vehicle_type_id":"4","last_reported":1702332422,"current_range_meters":24400,"station_id":"ce4bgr92rcd13ifvqc6g","pricing_plan_id":"free"},{"bike_id":"766ba8f4-ffd2-4c39-96c2-c9e8538c9170","system_id":"levelo_inurba_marseille","lat":43.314811,"lon":5.373104,"is_reserved":false,"is_disabled":false,"rental_uris":{"android":"levelo://app?vid=766ba8f4-ffd2-4c39-96c2-c9e8538c9170","ios":"levelo://app?vid=766ba8f4-ffd2-4c39-96c2-c9e8538c9170"},"vehicle_type_id":"4","last_reported":1702332422,"current_range_meters":14000,"station_id":"ce4bgt12rcd13ifvqcd0","pricing_plan_id":"free"},{"bike_id":"dd5d5847-c63f-4fa9-a2c1-92abe5870c7c","system_id":"levelo_inurba_marseille","lat":43.31111,"lon":5.3776,"is_reserved":false,"is_disabled":false,"rental_uris":{"android":"levelo://app?vid=dd5d5847-c63f-4fa9-a2c1-92abe5870c7c","ios":"levelo://app?vid=dd5d5847-c63f-4fa9-a2c1-92abe5870c7c"},"vehicle_type_id":"4","last_reported":1702332422,"current_range_meters":5200,"station_id":"ce4bgt92rcd13ifvqcg0","pricing_plan_id":"free"},{"bike_id":"436f3dca-d029-4bd5-bce9-68363b4f344f","system_id":"levelo_inurba_marseille","lat":43.307945,"lon":5.376487,"is_reserved":false,"is_disabled":false,"rental_uris":{"android":"levelo://app?vid=436f3dca-d029-4bd5-bce9-68363b4f344f","ios":"levelo://app?vid=436f3dca-d029-4bd5-bce9-68363b4f344f"},"vehicle_type_id":"4","last_reported":1702332422,"current_range_meters":16400,"station_id":"ce4bgv92rcd13ifvqcq0","pricing_plan_id":"free"},{"bike_id":"cd56c36b-c46a-4c79-8849-f952373aa79b","system_id":"levelo_inurba_marseille","lat":43.307945,"lon":5.376487,"is_reserved":false,"is_disabled":false,"rental_uris":{"android":"levelo://app?vid=cd56c36b-c46a-4c79-8849-f952373aa79b","ios":"levelo://app?vid=cd56c36b-c46a-4c79-8849-f952373aa79b"},"vehicle_type_id":"4","last_reported":1702332422,"current_range_meters":28800,"station_id":"ce4bgv92rcd13ifvqcq0","pricing_plan_id":"free"},{"bike_id":"01793230-e62c-4c90-94bf-38c2f6dbb101","system_id":"levelo_inurba_marseille","lat":43.307945,"lon":5.376487,"is_reserved":false,"is_disabled":false,"rental_uris":{"android":"levelo://app?vid=01793230-e62c-4c90-94bf-38c2f6dbb101","ios":"levelo://app?vid=01793230-e62c-4c90-94bf-38c2f6dbb101"},"vehicle_type_id":"4","last_reported":1702332422,"current_range_meters":4400,"station_id":"ce4bgv92rcd13ifvqcq0","pricing_plan_id":"free"},{"bike_id":"1578c52f-7dac-4029-bce5-53e31d386aa5","system_id":"levelo_inurba_marseille","lat":43.317075,"lon":5.377367,"is_reserved":false,"is_disabled":false,"rental_uris":{"android":"levelo://app?vid=1578c52f-7dac-4029-bce5-53e31d386aa5","ios":"levelo://app?vid=1578c52f-7dac-4029-bce5-53e31d386aa5"},"vehicle_type_id":"4","last_reported":1702332422,"current_range_meters":24000,"station_id":"ce4bgth2rcd13ifvqch0","pricing_plan_id":"free"},{"bike_id":"8492ad8b-52fa-4093-947f-685664b4c4d1","system_id":"levelo_inurba_marseille","lat":43.317075,"lon":5.377367,"is_reserved":false,"is_disabled":false,"rental_uris":{"android":"levelo://app?vid=8492ad8b-52fa-4093-947f-685664b4c4d1","ios":"levelo://app?vid=8492ad8b-52fa-4093-947f-685664b4c4d1"},"vehicle_type_id":"4","last_reported":1702332422,"current_range_meters":26000,"station_id":"ce4bgth2rcd13ifvqch0","pricing_plan_id":"free"},{"bike_id":"a9e8efa3-e30a-4e32-aa72-dbca40cebdb6","system_id":"levelo_inurba_marseille","lat":43.317075,"lon":5.377367,"is_reserved":false,"is_disabled":false,"rental_uris":{"android":"levelo://app?vid=a9e8efa3-e30a-4e32-aa72-dbca40cebdb6","ios":"levelo://app?vid=a9e8efa3-e30a-4e32-aa72-dbca40cebdb6"},"vehicle_type_id":"4","last_reported":1702332422,"current_range_meters":30800,"station_id":"ce4bgth2rcd13ifvqch0","pricing_plan_id":"free"},{"bike_id":"5e9914f7-6cbc-4a45-8b28-8f6555ab9ae2","system_id":"levelo_inurba_marseille","lat":43.309039,"lon":5.371797,"is_reserved":false,"is_disabled":false,"rental_uris":{"android":"levelo://app?vid=5e9914f7-6cbc-4a45-8b28-8f6555ab9ae2","ios":"levelo://app?vid=5e9914f7-6cbc-4a45-8b28-8f6555ab9ae2"},"vehicle_type_id":"4","last_reported":1702332422,"current_range_meters":20000,"station_id":"ce4bguh2rcd13ifvqckg","pricing_plan_id":"free"},{"bike_id":"fb92bdac-d369-4936-af8c-ffd52de7386f","system_id":"levelo_inurba_marseille","lat":43.309623,"lon":5.37988,"is_reserved":false,"is_disabled":false,"rental_uris":{"android":"levelo://app?vid=fb92bdac-d369-4936-af8c-ffd52de7386f","ios":"levelo://app?vid=fb92bdac-d369-4936-af8c-ffd52de7386f"},"vehicle_type_id":"4","last_reported":1702332422,"current_range_meters":7600,"station_id":"","pricing_plan_id":"free"},{"bike_id":"e0aefba0-2fbe-4f04-bfdf-4559f008aac6","system_id":"levelo_inurba_marseille","lat":43.308012,"lon":5.381511,"is_reserved":false,"is_disabled":false,"rental_uris":{"android":"levelo://app?vid=e0aefba0-2fbe-4f04-bfdf-4559f008aac6","ios":"levelo://app?vid=e0aefba0-2fbe-4f04-bfdf-4559f008aac6"},"vehicle_type_id":"4","last_reported":1702332422,"current_range_meters":28400,"station_id":"ce4bgt12rcd13ifvqce0","pricing_plan_id":"free"},{"bike_id":"ca1e2cf0-263f-41d8-954a-eef3e243c96c","system_id":"levelo_inurba_marseille","lat":43.307952,"lon":5.381574,"is_reserved":false,"is_disabled":false,"rental_uris":{"android":"levelo://app?vid=ca1e2cf0-263f-41d8-954a-eef3e243c96c","ios":"levelo://app?vid=ca1e2cf0-263f-41d8-954a-eef3e243c96c"},"vehicle_type_id":"4","last_reported":1702332422,"current_range_meters":10800,"station_id":"ce4bgt12rcd13ifvqce0","pricing_plan_id":"free"},{"bike_id":"a5589e38-f15a-46fe-9b37-27cf16ba9de2","system_id":"levelo_inurba_marseille","lat":43.316147,"lon":5.383813,"is_reserved":false,"is_disabled":false,"rental_uris":{"android":"levelo://app?vid=a5589e38-f15a-46fe-9b37-27cf16ba9de2","ios":"levelo://app?vid=a5589e38-f15a-46fe-9b37-27cf16ba9de2"},"vehicle_type_id":"4","last_reported":1702332422,"current_range_meters":22800,"station_id":"","pricing_plan_id":"free"},{"bike_id":"d047cbcd-40e8-4493-9700-a648cf295fe1","system_id":"levelo_inurba_marseille","lat":43.313571,"lon":5.384829,"is_reserved":false,"is_disabled":false,"rental_uris":{"android":"levelo://app?vid=d047cbcd-40e8-4493-9700-a648cf295fe1","ios":"levelo://app?vid=d047cbcd-40e8-4493-9700-a648cf295fe1"},"vehicle_type_id":"4","last_reported":1702332422,"current_range_meters":14000,"station_id":"ce4bgt92rcd13ifvqcf0","pricing_plan_id":"free"},{"bike_id":"e6219f3c-4588-456b-9afb-ba8f00b2488c","system_id":"levelo_inurba_marseille","lat":43.313571,"lon":5.384829,"is_reserved":false,"is_disabled":false,"rental_uris":{"android":"levelo://app?vid=e6219f3c-4588-456b-9afb-ba8f00b2488c","ios":"levelo://app?vid=e6219f3c-4588-456b-9afb-ba8f00b2488c"},"vehicle_type_id":"4","last_reported":1702332422,"current_range_meters":31200,"station_id":"ce4bgt92rcd13ifvqcf0","pricing_plan_id":"free"},{"bike_id":"79b2c816-063c-4c2f-a2b3-c83d9529ecc3","system_id":"levelo_inurba_marseille","lat":43.31356,"lon":5.38493,"is_reserved":false,"is_disabled":false,"rental_uris":{"android":"levelo://app?vid=79b2c816-063c-4c2f-a2b3-c83d9529ecc3","ios":"levelo://app?vid=79b2c816-063c-4c2f-a2b3-c83d9529ecc3"},"vehicle_type_id":"4","last_reported":1702332422,"current_range_meters":14800,"station_id":"ce4bgt92rcd13ifvqcf0","pricing_plan_id":"free"},{"bike_id":"64e486c9-9031-473b-827b-bc4a33617979","system_id":"levelo_inurba_marseille","lat":43.313571,"lon":5.384829,"is_reserved":false,"is_disabled":false,"rental_uris":{"android":"levelo://app?vid=64e486c9-9031-473b-827b-bc4a33617979","ios":"levelo://app?vid=64e486c9-9031-473b-827b-bc4a33617979"},"vehicle_type_id":"4","last_reported":1702332422,"current_range_meters":21600,"station_id":"ce4bgt92rcd13ifvqcf0","pricing_plan_id":"free"},{"bike_id":"c18944dc-1cff-4f85-a4ab-39d5ddab4189","system_id":"levelo_inurba_marseille","lat":43.299222,"lon":5.365554,"is_reserved":false,"is_disabled":false,"rental_uris":{"android":"levelo://app?vid=c18944dc-1cff-4f85-a4ab-39d5ddab4189","ios":"levelo://app?vid=c18944dc-1cff-4f85-a4ab-39d5ddab4189"},"vehicle_type_id":"4","last_reported":1702332422,"current_range_meters":22800,"station_id":"ce4bgm92rcd13ifvqbr0","pricing_plan_id":"free"},{"bike_id":"242159d9-9679-40da-96d5-99d5f66d3811","system_id":"levelo_inurba_marseille","lat":43.31166,"lon":5.3872,"is_reserved":false,"is_disabled":false,"rental_uris":{"android":"levelo://app?vid=242159d9-9679-40da-96d5-99d5f66d3811","ios":"levelo://app?vid=242159d9-9679-40da-96d5-99d5f66d3811"},"vehicle_type_id":"4","last_reported":1702332422,"current_range_meters":16400,"station_id":"ce4bgv12rcd13ifvqcp0","pricing_plan_id":"free"},{"bike_id":"39ee9a89-500c-428a-984f-632f4eb66c7b","system_id":"levelo_inurba_marseille","lat":43.32828,"lon":5.36673,"is_reserved":false,"is_disabled":false,"rental_uris":{"android":"levelo://app?vid=39ee9a89-500c-428a-984f-632f4eb66c7b","ios":"levelo://app?vid=39ee9a89-500c-428a-984f-632f4eb66c7b"},"vehicle_type_id":"4","last_reported":1702332422,"current_range_meters":19200,"station_id":"ce4bhs92rcd13ifvqi0g","pricing_plan_id":"free"},{"bike_id":"d33a1cd8-e152-410e-a93d-a21b1f4688b1","system_id":"levelo_inurba_marseille","lat":43.2968,"lon":5.37291,"is_reserved":false,"is_disabled":false,"rental_uris":{"android":"levelo://app?vid=d33a1cd8-e152-410e-a93d-a21b1f4688b1","ios":"levelo://app?vid=d33a1cd8-e152-410e-a93d-a21b1f4688b1"},"vehicle_type_id":"4","last_reported":1702332422,"current_range_meters":30400,"station_id":"ce4bgk12rcd13ifvqbj0","pricing_plan_id":"free"},{"bike_id":"e943b487-c43c-4967-b791-c50dc3993506","system_id":"levelo_inurba_marseille","lat":43.295895,"lon":5.36803,"is_reserved":false,"is_disabled":false,"rental_uris":{"android":"levelo://app?vid=e943b487-c43c-4967-b791-c50dc3993506","ios":"levelo://app?vid=e943b487-c43c-4967-b791-c50dc3993506"},"vehicle_type_id":"4","last_reported":1702332422,"current_range_meters":27600,"station_id":"","pricing_plan_id":"free"},{"bike_id":"a5be44c7-6770-4c1f-b822-9ccd5c028237","system_id":"levelo_inurba_marseille","lat":43.296131,"lon":5.370791,"is_reserved":false,"is_disabled":false,"rental_uris":{"android":"levelo://app?vid=a5be44c7-6770-4c1f-b822-9ccd5c028237","ios":"levelo://app?vid=a5be44c7-6770-4c1f-b822-9ccd5c028237"},"vehicle_type_id":"4","last_reported":1702332422,"current_range_meters":26800,"station_id":"ce4bgnh2rcd13ifvqc0g","pricing_plan_id":"free"},{"bike_id":"29fa70b3-3644-465a-936b-c993339f84be","system_id":"levelo_inurba_marseille","lat":43.296935,"lon":5.376544,"is_reserved":false,"is_disabled":false,"rental_uris":{"android":"levelo://app?vid=29fa70b3-3644-465a-936b-c993339f84be","ios":"levelo://app?vid=29fa70b3-3644-465a-936b-c993339f84be"},"vehicle_type_id":"4","last_reported":1702332422,"current_range_meters":24000,"station_id":"ce4bgkh2rcd13ifvqbl0","pricing_plan_id":"free"},{"bike_id":"c66d7ad2-1cb7-48cd-b397-09f0c1ed512f","system_id":"levelo_inurba_marseille","lat":43.317557,"lon":5.390173,"is_reserved":false,"is_disabled":false,"rental_uris":{"android":"levelo://app?vid=c66d7ad2-1cb7-48cd-b397-09f0c1ed512f","ios":"levelo://app?vid=c66d7ad2-1cb7-48cd-b397-09f0c1ed512f"},"vehicle_type_id":"4","last_reported":1702332422,"current_range_meters":7600,"station_id":"ce4bhqp2rcd13ifvqhng","pricing_plan_id":"free"},{"bike_id":"8d29c8b9-4f5e-4637-beaa-0cc6b2fd2a9f","system_id":"levelo_inurba_marseille","lat":43.317557,"lon":5.390173,"is_reserved":false,"is_disabled":false,"rental_uris":{"android":"levelo://app?vid=8d29c8b9-4f5e-4637-beaa-0cc6b2fd2a9f","ios":"levelo://app?vid=8d29c8b9-4f5e-4637-beaa-0cc6b2fd2a9f"},"vehicle_type_id":"4","last_reported":1702332422,"current_range_meters":28000,"station_id":"ce4bhqp2rcd13ifvqhng","pricing_plan_id":"free"},{"bike_id":"34dc0dc5-c3fc-43b0-a388-71797eb78856","system_id":"levelo_inurba_marseille","lat":43.317557,"lon":5.390173,"is_reserved":false,"is_disabled":false,"rental_uris":{"android":"levelo://app?vid=34dc0dc5-c3fc-43b0-a388-71797eb78856","ios":"levelo://app?vid=34dc0dc5-c3fc-43b0-a388-71797eb78856"},"vehicle_type_id":"4","last_reported":1702332422,"current_range_meters":28000,"station_id":"ce4bhqp2rcd13ifvqhng","pricing_plan_id":"free"},{"bike_id":"823bb91b-762a-4ec2-a01a-ad3bc229cdbd","system_id":"levelo_inurba_marseille","lat":43.317557,"lon":5.390173,"is_reserved":false,"is_disabled":false,"rental_uris":{"android":"levelo://app?vid=823bb91b-762a-4ec2-a01a-ad3bc229cdbd","ios":"levelo://app?vid=823bb91b-762a-4ec2-a01a-ad3bc229cdbd"},"vehicle_type_id":"4","last_reported":1702332422,"current_range_meters":5200,"station_id":"ce4bhqp2rcd13ifvqhng","pricing_plan_id":"free"},{"bike_id":"20d3374e-7777-4a3a-aac3-6bcbb3f05466","system_id":"levelo_inurba_marseille","lat":43.317557,"lon":5.390173,"is_reserved":false,"is_disabled":false,"rental_uris":{"android":"levelo://app?vid=20d3374e-7777-4a3a-aac3-6bcbb3f05466","ios":"levelo://app?vid=20d3374e-7777-4a3a-aac3-6bcbb3f05466"},"vehicle_type_id":"4","last_reported":1702332422,"current_range_meters":27600,"station_id":"ce4bhqp2rcd13ifvqhng","pricing_plan_id":"free"},{"bike_id":"61a9d821-211d-4cd3-b66f-6a9b3fadd2d2","system_id":"levelo_inurba_marseille","lat":43.330659,"lon":5.370889,"is_reserved":false,"is_disabled":false,"rental_uris":{"android":"levelo://app?vid=61a9d821-211d-4cd3-b66f-6a9b3fadd2d2","ios":"levelo://app?vid=61a9d821-211d-4cd3-b66f-6a9b3fadd2d2"},"vehicle_type_id":"4","last_reported":1702332422,"current_range_meters":23600,"station_id":"","pricing_plan_id":"free"},{"bike_id":"52d8b7ba-7505-413c-b898-efb75f14c13c","system_id":"levelo_inurba_marseille","lat":43.33072,"lon":5.37124,"is_reserved":false,"is_disabled":false,"rental_uris":{"android":"levelo://app?vid=52d8b7ba-7505-413c-b898-efb75f14c13c","ios":"levelo://app?vid=52d8b7ba-7505-413c-b898-efb75f14c13c"},"vehicle_type_id":"4","last_reported":1702332422,"current_range_meters":19200,"station_id":"","pricing_plan_id":"free"},{"bike_id":"4f1dc907-1f04-4c68-a22b-cc38ef9f1c06","system_id":"levelo_inurba_marseille","lat":43.299724,"lon":5.384848,"is_reserved":false,"is_disabled":false,"rental_uris":{"android":"levelo://app?vid=4f1dc907-1f04-4c68-a22b-cc38ef9f1c06","ios":"levelo://app?vid=4f1dc907-1f04-4c68-a22b-cc38ef9f1c06"},"vehicle_type_id":"4","last_reported":1702332422,"current_range_meters":22000,"station_id":"ce4bgj92rcd13ifvqbd0","pricing_plan_id":"free"},{"bike_id":"57c4e8e7-180f-4820-879d-ec3fad6193d0","system_id":"levelo_inurba_marseille","lat":43.32364,"lon":5.38891,"is_reserved":false,"is_disabled":false,"rental_uris":{"android":"levelo://app?vid=57c4e8e7-180f-4820-879d-ec3fad6193d0","ios":"levelo://app?vid=57c4e8e7-180f-4820-879d-ec3fad6193d0"},"vehicle_type_id":"4","last_reported":1702332422,"current_range_meters":23600,"station_id":"ce4bhqp2rcd13ifvqhog","pricing_plan_id":"free"},{"bike_id":"77a6c46d-d898-4e4f-8846-efa91689c7f0","system_id":"levelo_inurba_marseille","lat":43.295522,"lon":5.379279,"is_reserved":false,"is_disabled":false,"rental_uris":{"android":"levelo://app?vid=77a6c46d-d898-4e4f-8846-efa91689c7f0","ios":"levelo://app?vid=77a6c46d-d898-4e4f-8846-efa91689c7f0"},"vehicle_type_id":"4","last_reported":1702332422,"current_range_meters":0,"station_id":"","pricing_plan_id":"free"},{"bike_id":"01a7e79a-cf21-4639-a548-22195b3ff664","system_id":"levelo_inurba_marseille","lat":43.293259,"lon":5.371586,"is_reserved":false,"is_disabled":false,"rental_uris":{"android":"levelo://app?vid=01a7e79a-cf21-4639-a548-22195b3ff664","ios":"levelo://app?vid=01a7e79a-cf21-4639-a548-22195b3ff664"},"vehicle_type_id":"4","last_reported":1702332422,"current_range_meters":11600,"station_id":"ce4bgh92rcd13ifvqb40","pricing_plan_id":"free"},{"bike_id":"2f5e4ede-fecf-4ea2-a4bf-f8a2a20cb041","system_id":"levelo_inurba_marseille","lat":43.293259,"lon":5.371586,"is_reserved":false,"is_disabled":false,"rental_uris":{"android":"levelo://app?vid=2f5e4ede-fecf-4ea2-a4bf-f8a2a20cb041","ios":"levelo://app?vid=2f5e4ede-fecf-4ea2-a4bf-f8a2a20cb041"},"vehicle_type_id":"4","last_reported":1702332422,"current_range_meters":11600,"station_id":"ce4bgh92rcd13ifvqb40","pricing_plan_id":"free"},{"bike_id":"3fdd80f1-9877-40c8-9dd9-716f5286b38b","system_id":"levelo_inurba_marseille","lat":43.305994,"lon":5.393687,"is_reserved":false,"is_disabled":false,"rental_uris":{"android":"levelo://app?vid=3fdd80f1-9877-40c8-9dd9-716f5286b38b","ios":"levelo://app?vid=3fdd80f1-9877-40c8-9dd9-716f5286b38b"},"vehicle_type_id":"4","last_reported":1702332422,"current_range_meters":14400,"station_id":"ce4bh0p2rcd13ifvqd80","pricing_plan_id":"free"},{"bike_id":"79f36a7a-c67e-49d9-8621-9a5e25641ac8","system_id":"levelo_inurba_marseille","lat":43.292311,"lon":5.360731,"is_reserved":false,"is_disabled":false,"rental_uris":{"android":"levelo://app?vid=79f36a7a-c67e-49d9-8621-9a5e25641ac8","ios":"levelo://app?vid=79f36a7a-c67e-49d9-8621-9a5e25641ac8"},"vehicle_type_id":"4","last_reported":1702332422,"current_range_meters":21600,"station_id":"ce4bhbh2rcd13ifvqeqg","pricing_plan_id":"free"},{"bike_id":"ca4e135c-886c-4148-ae09-abe9471e060c","system_id":"levelo_inurba_marseille","lat":43.292311,"lon":5.360731,"is_reserved":false,"is_disabled":false,"rental_uris":{"android":"levelo://app?vid=ca4e135c-886c-4148-ae09-abe9471e060c","ios":"levelo://app?vid=ca4e135c-886c-4148-ae09-abe9471e060c"},"vehicle_type_id":"4","last_reported":1702332422,"current_range_meters":30800,"station_id":"ce4bhbh2rcd13ifvqeqg","pricing_plan_id":"free"},{"bike_id":"3ce090da-6c89-45e8-829f-57e40662eb4e","system_id":"levelo_inurba_marseille","lat":43.291671,"lon":5.371575,"is_reserved":false,"is_disabled":false,"rental_uris":{"android":"levelo://app?vid=3ce090da-6c89-45e8-829f-57e40662eb4e","ios":"levelo://app?vid=3ce090da-6c89-45e8-829f-57e40662eb4e"},"vehicle_type_id":"4","last_reported":1702332422,"current_range_meters":22000,"station_id":"ce4bha92rcd13ifvqeh0","pricing_plan_id":"free"},{"bike_id":"c659b711-0195-45e5-9727-f36c772c4318","system_id":"levelo_inurba_marseille","lat":43.298683,"lon":5.389063,"is_reserved":false,"is_disabled":false,"rental_uris":{"android":"levelo://app?vid=c659b711-0195-45e5-9727-f36c772c4318","ios":"levelo://app?vid=c659b711-0195-45e5-9727-f36c772c4318"},"vehicle_type_id":"4","last_reported":1702332422,"current_range_meters":17600,"station_id":"","pricing_plan_id":"free"},{"bike_id":"e0faa393-c92d-4b64-8e12-1c27f1b99ac3","system_id":"levelo_inurba_marseille","lat":43.298723,"lon":5.389112,"is_reserved":false,"is_disabled":false,"rental_uris":{"android":"levelo://app?vid=e0faa393-c92d-4b64-8e12-1c27f1b99ac3","ios":"levelo://app?vid=e0faa393-c92d-4b64-8e12-1c27f1b99ac3"},"vehicle_type_id":"4","last_reported":1702332422,"current_range_meters":28800,"station_id":"","pricing_plan_id":"free"},{"bike_id":"dd42ccd9-b446-453e-a47a-e27a58222169","system_id":"levelo_inurba_marseille","lat":43.29866,"lon":5.38908,"is_reserved":false,"is_disabled":false,"rental_uris":{"android":"levelo://app?vid=dd42ccd9-b446-453e-a47a-e27a58222169","ios":"levelo://app?vid=dd42ccd9-b446-453e-a47a-e27a58222169"},"vehicle_type_id":"4","last_reported":1702332422,"current_range_meters":29200,"station_id":"","pricing_plan_id":"free"},{"bike_id":"c58fb81b-b58a-4c1c-8905-ff0b5c194be1","system_id":"levelo_inurba_marseille","lat":43.309038,"lon":5.396546,"is_reserved":false,"is_disabled":false,"rental_uris":{"android":"levelo://app?vid=c58fb81b-b58a-4c1c-8905-ff0b5c194be1","ios":"levelo://app?vid=c58fb81b-b58a-4c1c-8905-ff0b5c194be1"},"vehicle_type_id":"4","last_reported":1702332422,"current_range_meters":17200,"station_id":"ce4bh012rcd13ifvqcv0","pricing_plan_id":"free"},{"bike_id":"85b278e9-66bb-4dbc-a71e-339a9e5967ff","system_id":"levelo_inurba_marseille","lat":43.291994,"lon":5.357886,"is_reserved":false,"is_disabled":false,"rental_uris":{"android":"levelo://app?vid=85b278e9-66bb-4dbc-a71e-339a9e5967ff","ios":"levelo://app?vid=85b278e9-66bb-4dbc-a71e-339a9e5967ff"},"vehicle_type_id":"4","last_reported":1702332422,"current_range_meters":27600,"station_id":"ce4bhb12rcd13ifvqel0","pricing_plan_id":"free"},{"bike_id":"f3975721-0e9e-4040-85c4-e9fc444094bb","system_id":"levelo_inurba_marseille","lat":43.313291,"lon":5.396838,"is_reserved":false,"is_disabled":false,"rental_uris":{"android":"levelo://app?vid=f3975721-0e9e-4040-85c4-e9fc444094bb","ios":"levelo://app?vid=f3975721-0e9e-4040-85c4-e9fc444094bb"},"vehicle_type_id":"4","last_reported":1702332422,"current_range_meters":25600,"station_id":"ce4bgvp2rcd13ifvqcu0","pricing_plan_id":"free"},{"bike_id":"f71c9aef-bc48-4fa3-aabe-f8ce93331081","system_id":"levelo_inurba_marseille","lat":43.309047,"lon":5.396551,"is_reserved":false,"is_disabled":false,"rental_uris":{"android":"levelo://app?vid=f71c9aef-bc48-4fa3-aabe-f8ce93331081","ios":"levelo://app?vid=f71c9aef-bc48-4fa3-aabe-f8ce93331081"},"vehicle_type_id":"4","last_reported":1702332422,"current_range_meters":28000,"station_id":"ce4bh012rcd13ifvqcv0","pricing_plan_id":"free"},{"bike_id":"aaa0e085-86be-4e5d-bc46-3265a9a48be6","system_id":"levelo_inurba_marseille","lat":43.313291,"lon":5.396838,"is_reserved":false,"is_disabled":false,"rental_uris":{"android":"levelo://app?vid=aaa0e085-86be-4e5d-bc46-3265a9a48be6","ios":"levelo://app?vid=aaa0e085-86be-4e5d-bc46-3265a9a48be6"},"vehicle_type_id":"4","last_reported":1702332422,"current_range_meters":14400,"station_id":"ce4bgvp2rcd13ifvqcu0","pricing_plan_id":"free"},{"bike_id":"8b0f597c-725b-4cad-aafb-7fe8e240965e","system_id":"levelo_inurba_marseille","lat":43.291994,"lon":5.357886,"is_reserved":false,"is_disabled":false,"rental_uris":{"android":"levelo://app?vid=8b0f597c-725b-4cad-aafb-7fe8e240965e","ios":"levelo://app?vid=8b0f597c-725b-4cad-aafb-7fe8e240965e"},"vehicle_type_id":"4","last_reported":1702332422,"current_range_meters":30000,"station_id":"ce4bhb12rcd13ifvqel0","pricing_plan_id":"free"},{"bike_id":"d0334272-ebb2-490e-8523-03b5804feaeb","system_id":"levelo_inurba_marseille","lat":43.313291,"lon":5.396838,"is_reserved":false,"is_disabled":false,"rental_uris":{"android":"levelo://app?vid=d0334272-ebb2-490e-8523-03b5804feaeb","ios":"levelo://app?vid=d0334272-ebb2-490e-8523-03b5804feaeb"},"vehicle_type_id":"4","last_reported":1702332422,"current_range_meters":21600,"station_id":"ce4bgvp2rcd13ifvqcu0","pricing_plan_id":"free"},{"bike_id":"236e90fe-0390-4322-aa62-124d371d9448","system_id":"levelo_inurba_marseille","lat":43.313291,"lon":5.396838,"is_reserved":false,"is_disabled":false,"rental_uris":{"android":"levelo://app?vid=236e90fe-0390-4322-aa62-124d371d9448","ios":"levelo://app?vid=236e90fe-0390-4322-aa62-124d371d9448"},"vehicle_type_id":"4","last_reported":1702332422,"current_range_meters":22400,"station_id":"ce4bgvp2rcd13ifvqcu0","pricing_plan_id":"free"},{"bike_id":"a1f74885-a7d3-41ca-9106-01aad1c6cac8","system_id":"levelo_inurba_marseille","lat":43.309047,"lon":5.396551,"is_reserved":false,"is_disabled":false,"rental_uris":{"android":"levelo://app?vid=a1f74885-a7d3-41ca-9106-01aad1c6cac8","ios":"levelo://app?vid=a1f74885-a7d3-41ca-9106-01aad1c6cac8"},"vehicle_type_id":"4","last_reported":1702332422,"current_range_meters":8400,"station_id":"ce4bh012rcd13ifvqcv0","pricing_plan_id":"free"},{"bike_id":"9266798e-527f-4d11-ab69-7b4fb5962c00","system_id":"levelo_inurba_marseille","lat":43.29529,"lon":5.385581,"is_reserved":false,"is_disabled":false,"rental_uris":{"android":"levelo://app?vid=9266798e-527f-4d11-ab69-7b4fb5962c00","ios":"levelo://app?vid=9266798e-527f-4d11-ab69-7b4fb5962c00"},"vehicle_type_id":"4","last_reported":1702332422,"current_range_meters":22400,"station_id":"ce4bgih2rcd13ifvqba0","pricing_plan_id":"free"},{"bike_id":"cced7313-7677-4487-bbf4-cde5e079e57d","system_id":"levelo_inurba_marseille","lat":43.290631,"lon":5.359244,"is_reserved":false,"is_disabled":false,"rental_uris":{"android":"levelo://app?vid=cced7313-7677-4487-bbf4-cde5e079e57d","ios":"levelo://app?vid=cced7313-7677-4487-bbf4-cde5e079e57d"},"vehicle_type_id":"4","last_reported":1702332422,"current_range_meters":25600,"station_id":"ce4bha92rcd13ifvqeg0","pricing_plan_id":"free"},{"bike_id":"9df2f4f5-a6f9-488d-99bb-defbb0944b1e","system_id":"levelo_inurba_marseille","lat":43.290624,"lon":5.359245,"is_reserved":false,"is_disabled":false,"rental_uris":{"android":"levelo://app?vid=9df2f4f5-a6f9-488d-99bb-defbb0944b1e","ios":"levelo://app?vid=9df2f4f5-a6f9-488d-99bb-defbb0944b1e"},"vehicle_type_id":"4","last_reported":1702332422,"current_range_meters":27200,"station_id":"ce4bha92rcd13ifvqeg0","pricing_plan_id":"free"},{"bike_id":"944348fd-bc6d-429c-b66d-3749dc3a4009","system_id":"levelo_inurba_marseille","lat":43.290631,"lon":5.359244,"is_reserved":false,"is_disabled":false,"rental_uris":{"android":"levelo://app?vid=944348fd-bc6d-429c-b66d-3749dc3a4009","ios":"levelo://app?vid=944348fd-bc6d-429c-b66d-3749dc3a4009"},"vehicle_type_id":"4","last_reported":1702332422,"current_range_meters":15600,"station_id":"ce4bha92rcd13ifvqeg0","pricing_plan_id":"free"},{"bike_id":"b8ec5291-65d8-4953-9955-688a4d6cf410","system_id":"levelo_inurba_marseille","lat":43.290631,"lon":5.359244,"is_reserved":false,"is_disabled":false,"rental_uris":{"android":"levelo://app?vid=b8ec5291-65d8-4953-9955-688a4d6cf410","ios":"levelo://app?vid=b8ec5291-65d8-4953-9955-688a4d6cf410"},"vehicle_type_id":"4","last_reported":1702332422,"current_range_meters":28400,"station_id":"ce4bha92rcd13ifvqeg0","pricing_plan_id":"free"},{"bike_id":"a5c7723c-83d2-4f69-99da-542975f7084f","system_id":"levelo_inurba_marseille","lat":43.29044,"lon":5.37588,"is_reserved":false,"is_disabled":false,"rental_uris":{"android":"levelo://app?vid=a5c7723c-83d2-4f69-99da-542975f7084f","ios":"levelo://app?vid=a5c7723c-83d2-4f69-99da-542975f7084f"},"vehicle_type_id":"4","last_reported":1702332422,"current_range_meters":28800,"station_id":"","pricing_plan_id":"free"},{"bike_id":"ffe314b5-89f9-4a50-9c55-ee34799b8222","system_id":"levelo_inurba_marseille","lat":43.294153,"lon":5.386305,"is_reserved":false,"is_disabled":false,"rental_uris":{"android":"levelo://app?vid=ffe314b5-89f9-4a50-9c55-ee34799b8222","ios":"levelo://app?vid=ffe314b5-89f9-4a50-9c55-ee34799b8222"},"vehicle_type_id":"4","last_reported":1702332422,"current_range_meters":18800,"station_id":"ce4bh2h2rcd13ifvqdh0","pricing_plan_id":"free"},{"bike_id":"82d6f4f6-abf7-49d3-879a-ec75cede4d77","system_id":"levelo_inurba_marseille","lat":43.294162,"lon":5.386292,"is_reserved":false,"is_disabled":false,"rental_uris":{"android":"levelo://app?vid=82d6f4f6-abf7-49d3-879a-ec75cede4d77","ios":"levelo://app?vid=82d6f4f6-abf7-49d3-879a-ec75cede4d77"},"vehicle_type_id":"4","last_reported":1702332422,"current_range_meters":14800,"station_id":"ce4bh2h2rcd13ifvqdh0","pricing_plan_id":"free"},{"bike_id":"de1b65e4-37d7-42ff-aac6-851b697b01bb","system_id":"levelo_inurba_marseille","lat":43.28948,"lon":5.363891,"is_reserved":false,"is_disabled":false,"rental_uris":{"android":"levelo://app?vid=de1b65e4-37d7-42ff-aac6-851b697b01bb","ios":"levelo://app?vid=de1b65e4-37d7-42ff-aac6-851b697b01bb"},"vehicle_type_id":"4","last_reported":1702332422,"current_range_meters":16000,"station_id":"ce4bhc92rcd13ifvqetg","pricing_plan_id":"free"},{"bike_id":"1a661d73-88ae-4138-aaea-c7718f1f0f3f","system_id":"levelo_inurba_marseille","lat":43.330442,"lon":5.389148,"is_reserved":false,"is_disabled":false,"rental_uris":{"android":"levelo://app?vid=1a661d73-88ae-4138-aaea-c7718f1f0f3f","ios":"levelo://app?vid=1a661d73-88ae-4138-aaea-c7718f1f0f3f"},"vehicle_type_id":"4","last_reported":1702332422,"current_range_meters":21600,"station_id":"ce4bhr92rcd13ifvqhrg","pricing_plan_id":"free"},{"bike_id":"9d8e17a7-c4c7-4287-a923-25a1cf206b9b","system_id":"levelo_inurba_marseille","lat":43.33045,"lon":5.38917,"is_reserved":false,"is_disabled":false,"rental_uris":{"android":"levelo://app?vid=9d8e17a7-c4c7-4287-a923-25a1cf206b9b","ios":"levelo://app?vid=9d8e17a7-c4c7-4287-a923-25a1cf206b9b"},"vehicle_type_id":"4","last_reported":1702332422,"current_range_meters":10000,"station_id":"ce4bhr92rcd13ifvqhrg","pricing_plan_id":"free"},{"bike_id":"f1896741-896e-40c9-aa4d-96fe134ed880","system_id":"levelo_inurba_marseille","lat":43.33046,"lon":5.38919,"is_reserved":false,"is_disabled":false,"rental_uris":{"android":"levelo://app?vid=f1896741-896e-40c9-aa4d-96fe134ed880","ios":"levelo://app?vid=f1896741-896e-40c9-aa4d-96fe134ed880"},"vehicle_type_id":"4","last_reported":1702332422,"current_range_meters":4400,"station_id":"ce4bhr92rcd13ifvqhrg","pricing_plan_id":"free"},{"bike_id":"4601da1a-2bc2-4be5-8fac-e44f32e20802","system_id":"levelo_inurba_marseille","lat":43.33043,"lon":5.38924,"is_reserved":false,"is_disabled":false,"rental_uris":{"android":"levelo://app?vid=4601da1a-2bc2-4be5-8fac-e44f32e20802","ios":"levelo://app?vid=4601da1a-2bc2-4be5-8fac-e44f32e20802"},"vehicle_type_id":"4","last_reported":1702332422,"current_range_meters":26400,"station_id":"ce4bhr92rcd13ifvqhrg","pricing_plan_id":"free"},{"bike_id":"02248679-509f-4b57-97bb-e9d71f1470fa","system_id":"levelo_inurba_marseille","lat":43.29,"lon":5.35617,"is_reserved":false,"is_disabled":false,"rental_uris":{"android":"levelo://app?vid=02248679-509f-4b57-97bb-e9d71f1470fa","ios":"levelo://app?vid=02248679-509f-4b57-97bb-e9d71f1470fa"},"vehicle_type_id":"4","last_reported":1702332422,"current_range_meters":30400,"station_id":"ce4bhb92rcd13ifvqen0","pricing_plan_id":"free"},{"bike_id":"219f163a-5ea3-4672-9e72-508b802272cc","system_id":"levelo_inurba_marseille","lat":43.290995,"lon":5.381361,"is_reserved":false,"is_disabled":false,"rental_uris":{"android":"levelo://app?vid=219f163a-5ea3-4672-9e72-508b802272cc","ios":"levelo://app?vid=219f163a-5ea3-4672-9e72-508b802272cc"},"vehicle_type_id":"4","last_reported":1702332422,"current_range_meters":6400,"station_id":"ce4bh512rcd13ifvqe2g","pricing_plan_id":"free"},{"bike_id":"f64c2720-b090-4167-a989-902e7c0bce72","system_id":"levelo_inurba_marseille","lat":43.295395,"lon":5.390293,"is_reserved":false,"is_disabled":false,"rental_uris":{"android":"levelo://app?vid=f64c2720-b090-4167-a989-902e7c0bce72","ios":"levelo://app?vid=f64c2720-b090-4167-a989-902e7c0bce72"},"vehicle_type_id":"4","last_reported":1702332422,"current_range_meters":21200,"station_id":"ce4bh3p2rcd13ifvqdp0","pricing_plan_id":"free"},{"bike_id":"bf7980f8-1a90-4cd1-9c43-ec53c922500f","system_id":"levelo_inurba_marseille","lat":43.29785,"lon":5.3934,"is_reserved":false,"is_disabled":false,"rental_uris":{"android":"levelo://app?vid=bf7980f8-1a90-4cd1-9c43-ec53c922500f","ios":"levelo://app?vid=bf7980f8-1a90-4cd1-9c43-ec53c922500f"},"vehicle_type_id":"4","last_reported":1702332422,"current_range_meters":21600,"station_id":"chh1huq6cuj3fo74tm60","pricing_plan_id":"free"},{"bike_id":"438076dd-4eec-47e1-b231-2bc270d6271e","system_id":"levelo_inurba_marseille","lat":43.295169,"lon":5.390426,"is_reserved":false,"is_disabled":false,"rental_uris":{"android":"levelo://app?vid=438076dd-4eec-47e1-b231-2bc270d6271e","ios":"levelo://app?vid=438076dd-4eec-47e1-b231-2bc270d6271e"},"vehicle_type_id":"4","last_reported":1702332422,"current_range_meters":22400,"station_id":"ce4bh3p2rcd13ifvqdp0","pricing_plan_id":"free"},{"bike_id":"c4fb82be-4426-45fa-a3ab-77587e6cb898","system_id":"levelo_inurba_marseille","lat":43.295169,"lon":5.390426,"is_reserved":false,"is_disabled":false,"rental_uris":{"android":"levelo://app?vid=c4fb82be-4426-45fa-a3ab-77587e6cb898","ios":"levelo://app?vid=c4fb82be-4426-45fa-a3ab-77587e6cb898"},"vehicle_type_id":"4","last_reported":1702332422,"current_range_meters":22000,"station_id":"ce4bh3p2rcd13ifvqdp0","pricing_plan_id":"free"},{"bike_id":"2013f4fe-5129-4b9e-ad20-8258f17a51f4","system_id":"levelo_inurba_marseille","lat":43.295169,"lon":5.390426,"is_reserved":false,"is_disabled":false,"rental_uris":{"android":"levelo://app?vid=2013f4fe-5129-4b9e-ad20-8258f17a51f4","ios":"levelo://app?vid=2013f4fe-5129-4b9e-ad20-8258f17a51f4"},"vehicle_type_id":"4","last_reported":1702332422,"current_range_meters":17200,"station_id":"ce4bh3p2rcd13ifvqdp0","pricing_plan_id":"free"},{"bike_id":"e06d71db-da75-4c62-8bb7-7bf857ef82d5","system_id":"levelo_inurba_marseille","lat":43.288532,"lon":5.358653,"is_reserved":false,"is_disabled":false,"rental_uris":{"android":"levelo://app?vid=e06d71db-da75-4c62-8bb7-7bf857ef82d5","ios":"levelo://app?vid=e06d71db-da75-4c62-8bb7-7bf857ef82d5"},"vehicle_type_id":"4","last_reported":1702332422,"current_range_meters":20800,"station_id":"ce4bhb12rcd13ifvqem0","pricing_plan_id":"free"},{"bike_id":"351310e1-9732-4a9f-ae64-3f1caaaa9e09","system_id":"levelo_inurba_marseille","lat":43.288474,"lon":5.358571,"is_reserved":false,"is_disabled":false,"rental_uris":{"android":"levelo://app?vid=351310e1-9732-4a9f-ae64-3f1caaaa9e09","ios":"levelo://app?vid=351310e1-9732-4a9f-ae64-3f1caaaa9e09"},"vehicle_type_id":"4","last_reported":1702332422,"current_range_meters":6000,"station_id":"ce4bhb12rcd13ifvqem0","pricing_plan_id":"free"},{"bike_id":"c9523811-9a5b-46a2-b7f2-1136988f2d4e","system_id":"levelo_inurba_marseille","lat":43.312609,"lon":5.401662,"is_reserved":false,"is_disabled":false,"rental_uris":{"android":"levelo://app?vid=c9523811-9a5b-46a2-b7f2-1136988f2d4e","ios":"levelo://app?vid=c9523811-9a5b-46a2-b7f2-1136988f2d4e"},"vehicle_type_id":"4","last_reported":1702332422,"current_range_meters":0,"station_id":"ce4bh092rcd13ifvqd30","pricing_plan_id":"free"},{"bike_id":"1ffa6cab-2192-4490-9617-61044011c6b1","system_id":"levelo_inurba_marseille","lat":43.337393,"lon":5.374585,"is_reserved":false,"is_disabled":false,"rental_uris":{"android":"levelo://app?vid=1ffa6cab-2192-4490-9617-61044011c6b1","ios":"levelo://app?vid=1ffa6cab-2192-4490-9617-61044011c6b1"},"vehicle_type_id":"4","last_reported":1702332422,"current_range_meters":18800,"station_id":"","pricing_plan_id":"free"},{"bike_id":"642d349a-a739-4db6-bfb1-bf4090afb782","system_id":"levelo_inurba_marseille","lat":43.309371,"lon":5.401449,"is_reserved":false,"is_disabled":false,"rental_uris":{"android":"levelo://app?vid=642d349a-a739-4db6-bfb1-bf4090afb782","ios":"levelo://app?vid=642d349a-a739-4db6-bfb1-bf4090afb782"},"vehicle_type_id":"4","last_reported":1702332422,"current_range_meters":0,"station_id":"ce4bgvp2rcd13ifvqct0","pricing_plan_id":"free"},{"bike_id":"e1115d16-a177-4b09-99f4-d84a7f0a9df4","system_id":"levelo_inurba_marseille","lat":43.33749,"lon":5.374695,"is_reserved":false,"is_disabled":false,"rental_uris":{"android":"levelo://app?vid=e1115d16-a177-4b09-99f4-d84a7f0a9df4","ios":"levelo://app?vid=e1115d16-a177-4b09-99f4-d84a7f0a9df4"},"vehicle_type_id":"4","last_reported":1702332422,"current_range_meters":28000,"station_id":"","pricing_plan_id":"free"},{"bike_id":"1a9123ca-1ac0-4cbb-b622-534f88bcae20","system_id":"levelo_inurba_marseille","lat":43.337513,"lon":5.374637,"is_reserved":false,"is_disabled":false,"rental_uris":{"android":"levelo://app?vid=1a9123ca-1ac0-4cbb-b622-534f88bcae20","ios":"levelo://app?vid=1a9123ca-1ac0-4cbb-b622-534f88bcae20"},"vehicle_type_id":"4","last_reported":1702332422,"current_range_meters":28800,"station_id":"","pricing_plan_id":"free"},{"bike_id":"60f84eb0-2206-4e1b-94df-fd8c129930f0","system_id":"levelo_inurba_marseille","lat":43.337668,"lon":5.374343,"is_reserved":false,"is_disabled":false,"rental_uris":{"android":"levelo://app?vid=60f84eb0-2206-4e1b-94df-fd8c129930f0","ios":"levelo://app?vid=60f84eb0-2206-4e1b-94df-fd8c129930f0"},"vehicle_type_id":"4","last_reported":1702332422,"current_range_meters":14000,"station_id":"","pricing_plan_id":"free"},{"bike_id":"9f812f77-2fb3-4e31-b498-deae707eef56","system_id":"levelo_inurba_marseille","lat":43.30642,"lon":5.401031,"is_reserved":false,"is_disabled":false,"rental_uris":{"android":"levelo://app?vid=9f812f77-2fb3-4e31-b498-deae707eef56","ios":"levelo://app?vid=9f812f77-2fb3-4e31-b498-deae707eef56"},"vehicle_type_id":"4","last_reported":1702332422,"current_range_meters":24400,"station_id":"ce4bh112rcd13ifvqda0","pricing_plan_id":"free"},{"bike_id":"12ef75c7-9f25-46f4-ab51-0dad744a8518","system_id":"levelo_inurba_marseille","lat":43.30642,"lon":5.401031,"is_reserved":false,"is_disabled":false,"rental_uris":{"android":"levelo://app?vid=12ef75c7-9f25-46f4-ab51-0dad744a8518","ios":"levelo://app?vid=12ef75c7-9f25-46f4-ab51-0dad744a8518"},"vehicle_type_id":"4","last_reported":1702332422,"current_range_meters":16000,"station_id":"ce4bh112rcd13ifvqda0","pricing_plan_id":"free"},{"bike_id":"6a6b8721-b271-46c7-9a96-5842df48f0b3","system_id":"levelo_inurba_marseille","lat":43.306412,"lon":5.401035,"is_reserved":false,"is_disabled":false,"rental_uris":{"android":"levelo://app?vid=6a6b8721-b271-46c7-9a96-5842df48f0b3","ios":"levelo://app?vid=6a6b8721-b271-46c7-9a96-5842df48f0b3"},"vehicle_type_id":"4","last_reported":1702332422,"current_range_meters":21200,"station_id":"ce4bh112rcd13ifvqda0","pricing_plan_id":"free"},{"bike_id":"c7e30da2-6cfb-41b4-91b4-52b6d91c4b27","system_id":"levelo_inurba_marseille","lat":43.301117,"lon":5.398795,"is_reserved":false,"is_disabled":false,"rental_uris":{"android":"levelo://app?vid=c7e30da2-6cfb-41b4-91b4-52b6d91c4b27","ios":"levelo://app?vid=c7e30da2-6cfb-41b4-91b4-52b6d91c4b27"},"vehicle_type_id":"4","last_reported":1702332422,"current_range_meters":0,"station_id":"ce4bh0h2rcd13ifvqd40","pricing_plan_id":"free"},{"bike_id":"0b1bd042-7cf7-4527-aa17-3a1421b9a37a","system_id":"levelo_inurba_marseille","lat":43.28727,"lon":5.36078,"is_reserved":false,"is_disabled":false,"rental_uris":{"android":"levelo://app?vid=0b1bd042-7cf7-4527-aa17-3a1421b9a37a","ios":"levelo://app?vid=0b1bd042-7cf7-4527-aa17-3a1421b9a37a"},"vehicle_type_id":"4","last_reported":1702332422,"current_range_meters":24400,"station_id":"cki0cbj6b192h4jlfktg","pricing_plan_id":"free"},{"bike_id":"3718be7f-bfd9-4d4a-a2de-c4fd70ef54d6","system_id":"levelo_inurba_marseille","lat":43.28727,"lon":5.36078,"is_reserved":false,"is_disabled":false,"rental_uris":{"android":"levelo://app?vid=3718be7f-bfd9-4d4a-a2de-c4fd70ef54d6","ios":"levelo://app?vid=3718be7f-bfd9-4d4a-a2de-c4fd70ef54d6"},"vehicle_type_id":"4","last_reported":1702332422,"current_range_meters":21600,"station_id":"cki0cbj6b192h4jlfktg","pricing_plan_id":"free"},{"bike_id":"22f680d7-de61-4ef2-898b-53eaaf4dfc4b","system_id":"levelo_inurba_marseille","lat":43.295194,"lon":5.39397,"is_reserved":false,"is_disabled":false,"rental_uris":{"android":"levelo://app?vid=22f680d7-de61-4ef2-898b-53eaaf4dfc4b","ios":"levelo://app?vid=22f680d7-de61-4ef2-898b-53eaaf4dfc4b"},"vehicle_type_id":"4","last_reported":1702332422,"current_range_meters":0,"station_id":"ce4bh292rcd13ifvqdf0","pricing_plan_id":"free"},{"bike_id":"1b06f2a8-a9b0-4d0d-b961-51bd9afb96f0","system_id":"levelo_inurba_marseille","lat":43.295196,"lon":5.39397,"is_reserved":false,"is_disabled":false,"rental_uris":{"android":"levelo://app?vid=1b06f2a8-a9b0-4d0d-b961-51bd9afb96f0","ios":"levelo://app?vid=1b06f2a8-a9b0-4d0d-b961-51bd9afb96f0"},"vehicle_type_id":"4","last_reported":1702332422,"current_range_meters":15200,"station_id":"ce4bh292rcd13ifvqdf0","pricing_plan_id":"free"},{"bike_id":"d96419cd-b3f6-4e40-afd0-14e6cb2ac203","system_id":"levelo_inurba_marseille","lat":43.295196,"lon":5.39397,"is_reserved":false,"is_disabled":false,"rental_uris":{"android":"levelo://app?vid=d96419cd-b3f6-4e40-afd0-14e6cb2ac203","ios":"levelo://app?vid=d96419cd-b3f6-4e40-afd0-14e6cb2ac203"},"vehicle_type_id":"4","last_reported":1702332422,"current_range_meters":19200,"station_id":"ce4bh292rcd13ifvqdf0","pricing_plan_id":"free"},{"bike_id":"f7e7bb27-5799-433f-9016-aea753897636","system_id":"levelo_inurba_marseille","lat":43.295147,"lon":5.394024,"is_reserved":false,"is_disabled":false,"rental_uris":{"android":"levelo://app?vid=f7e7bb27-5799-433f-9016-aea753897636","ios":"levelo://app?vid=f7e7bb27-5799-433f-9016-aea753897636"},"vehicle_type_id":"4","last_reported":1702332422,"current_range_meters":0,"station_id":"ce4bh292rcd13ifvqdf0","pricing_plan_id":"free"},{"bike_id":"6fe1d662-555d-4206-b972-9c23bfa79abb","system_id":"levelo_inurba_marseille","lat":43.302759,"lon":5.400793,"is_reserved":false,"is_disabled":false,"rental_uris":{"android":"levelo://app?vid=6fe1d662-555d-4206-b972-9c23bfa79abb","ios":"levelo://app?vid=6fe1d662-555d-4206-b972-9c23bfa79abb"},"vehicle_type_id":"4","last_reported":1702332422,"current_range_meters":15600,"station_id":"ce4bgvh2rcd13ifvqcs0","pricing_plan_id":"free"},{"bike_id":"39e7ecc9-8abf-47eb-8ad0-61f72a12e157","system_id":"levelo_inurba_marseille","lat":43.302759,"lon":5.400793,"is_reserved":false,"is_disabled":false,"rental_uris":{"android":"levelo://app?vid=39e7ecc9-8abf-47eb-8ad0-61f72a12e157","ios":"levelo://app?vid=39e7ecc9-8abf-47eb-8ad0-61f72a12e157"},"vehicle_type_id":"4","last_reported":1702332422,"current_range_meters":18400,"station_id":"ce4bgvh2rcd13ifvqcs0","pricing_plan_id":"free"},{"bike_id":"e1222fc9-0741-41b2-8195-d2f07b1a0d3e","system_id":"levelo_inurba_marseille","lat":43.316828,"lon":5.404723,"is_reserved":false,"is_disabled":false,"rental_uris":{"android":"levelo://app?vid=e1222fc9-0741-41b2-8195-d2f07b1a0d3e","ios":"levelo://app?vid=e1222fc9-0741-41b2-8195-d2f07b1a0d3e"},"vehicle_type_id":"4","last_reported":1702332422,"current_range_meters":10400,"station_id":"ce4bh012rcd13ifvqd00","pricing_plan_id":"free"},{"bike_id":"bbc7c8a8-da93-4fcc-9064-a6f2c0fd0881","system_id":"levelo_inurba_marseille","lat":43.284714,"lon":5.358919,"is_reserved":false,"is_disabled":false,"rental_uris":{"android":"levelo://app?vid=bbc7c8a8-da93-4fcc-9064-a6f2c0fd0881","ios":"levelo://app?vid=bbc7c8a8-da93-4fcc-9064-a6f2c0fd0881"},"vehicle_type_id":"4","last_reported":1702332422,"current_range_meters":30000,"station_id":"ce4bhah2rcd13ifvqei0","pricing_plan_id":"free"},{"bike_id":"f41d6c41-374d-4fc3-8a16-8ec3508e96ff","system_id":"levelo_inurba_marseille","lat":43.284538,"lon":5.358657,"is_reserved":false,"is_disabled":false,"rental_uris":{"android":"levelo://app?vid=f41d6c41-374d-4fc3-8a16-8ec3508e96ff","ios":"levelo://app?vid=f41d6c41-374d-4fc3-8a16-8ec3508e96ff"},"vehicle_type_id":"4","last_reported":1702332422,"current_range_meters":25600,"station_id":"ce4bhah2rcd13ifvqei0","pricing_plan_id":"free"},{"bike_id":"f602fdae-0bc9-44d7-bc2b-cea35bd73984","system_id":"levelo_inurba_marseille","lat":43.284538,"lon":5.358657,"is_reserved":false,"is_disabled":false,"rental_uris":{"android":"levelo://app?vid=f602fdae-0bc9-44d7-bc2b-cea35bd73984","ios":"levelo://app?vid=f602fdae-0bc9-44d7-bc2b-cea35bd73984"},"vehicle_type_id":"4","last_reported":1702332422,"current_range_meters":12800,"station_id":"ce4bhah2rcd13ifvqei0","pricing_plan_id":"free"},{"bike_id":"845b3529-fd4b-44be-8e43-212a8a058843","system_id":"levelo_inurba_marseille","lat":43.28466,"lon":5.35906,"is_reserved":false,"is_disabled":false,"rental_uris":{"android":"levelo://app?vid=845b3529-fd4b-44be-8e43-212a8a058843","ios":"levelo://app?vid=845b3529-fd4b-44be-8e43-212a8a058843"},"vehicle_type_id":"4","last_reported":1702332422,"current_range_meters":18800,"station_id":"ce4bhah2rcd13ifvqei0","pricing_plan_id":"free"},{"bike_id":"f1d5717b-05bd-4abb-bc8d-ea0a3935464c","system_id":"levelo_inurba_marseille","lat":43.284679,"lon":5.358854,"is_reserved":false,"is_disabled":false,"rental_uris":{"android":"levelo://app?vid=f1d5717b-05bd-4abb-bc8d-ea0a3935464c","ios":"levelo://app?vid=f1d5717b-05bd-4abb-bc8d-ea0a3935464c"},"vehicle_type_id":"4","last_reported":1702332422,"current_range_meters":30000,"station_id":"ce4bhah2rcd13ifvqei0","pricing_plan_id":"free"},{"bike_id":"4ad710f1-bb15-4faa-a3cf-10e9391e9e63","system_id":"levelo_inurba_marseille","lat":43.284538,"lon":5.358657,"is_reserved":false,"is_disabled":false,"rental_uris":{"android":"levelo://app?vid=4ad710f1-bb15-4faa-a3cf-10e9391e9e63","ios":"levelo://app?vid=4ad710f1-bb15-4faa-a3cf-10e9391e9e63"},"vehicle_type_id":"4","last_reported":1702332422,"current_range_meters":22800,"station_id":"ce4bhah2rcd13ifvqei0","pricing_plan_id":"free"},{"bike_id":"84f594c0-837d-4c3e-b8c1-19a843f36106","system_id":"levelo_inurba_marseille","lat":43.284538,"lon":5.358657,"is_reserved":false,"is_disabled":false,"rental_uris":{"android":"levelo://app?vid=84f594c0-837d-4c3e-b8c1-19a843f36106","ios":"levelo://app?vid=84f594c0-837d-4c3e-b8c1-19a843f36106"},"vehicle_type_id":"4","last_reported":1702332422,"current_range_meters":30000,"station_id":"ce4bhah2rcd13ifvqei0","pricing_plan_id":"free"},{"bike_id":"15d55d0f-f08c-49b5-bbc4-736950b1131e","system_id":"levelo_inurba_marseille","lat":43.284538,"lon":5.358657,"is_reserved":false,"is_disabled":false,"rental_uris":{"android":"levelo://app?vid=15d55d0f-f08c-49b5-bbc4-736950b1131e","ios":"levelo://app?vid=15d55d0f-f08c-49b5-bbc4-736950b1131e"},"vehicle_type_id":"4","last_reported":1702332422,"current_range_meters":17200,"station_id":"ce4bhah2rcd13ifvqei0","pricing_plan_id":"free"},{"bike_id":"397527ed-f1e7-40d8-b682-bd411cea01a1","system_id":"levelo_inurba_marseille","lat":43.294314,"lon":5.397498,"is_reserved":false,"is_disabled":false,"rental_uris":{"android":"levelo://app?vid=397527ed-f1e7-40d8-b682-bd411cea01a1","ios":"levelo://app?vid=397527ed-f1e7-40d8-b682-bd411cea01a1"},"vehicle_type_id":"4","last_reported":1702332422,"current_range_meters":18800,"station_id":"ce4bh3h2rcd13ifvqdo0","pricing_plan_id":"free"},{"bike_id":"ff87e69a-80ac-4c6c-9a15-ae17ff91f198","system_id":"levelo_inurba_marseille","lat":43.285856,"lon":5.350771,"is_reserved":false,"is_disabled":false,"rental_uris":{"android":"levelo://app?vid=ff87e69a-80ac-4c6c-9a15-ae17ff91f198","ios":"levelo://app?vid=ff87e69a-80ac-4c6c-9a15-ae17ff91f198"},"vehicle_type_id":"4","last_reported":1702332422,"current_range_meters":27200,"station_id":"ce4bhch2rcd13ifvqeug","pricing_plan_id":"free"},{"bike_id":"6d1885bf-915b-4323-8d7f-0a1ba1e4c02e","system_id":"levelo_inurba_marseille","lat":43.28614,"lon":5.35102,"is_reserved":false,"is_disabled":false,"rental_uris":{"android":"levelo://app?vid=6d1885bf-915b-4323-8d7f-0a1ba1e4c02e","ios":"levelo://app?vid=6d1885bf-915b-4323-8d7f-0a1ba1e4c02e"},"vehicle_type_id":"4","last_reported":1702332422,"current_range_meters":31200,"station_id":"ce4bhch2rcd13ifvqeug","pricing_plan_id":"free"},{"bike_id":"97d8fcc7-4aef-45da-b019-c3d5381f038e","system_id":"levelo_inurba_marseille","lat":43.28611,"lon":5.35106,"is_reserved":false,"is_disabled":false,"rental_uris":{"android":"levelo://app?vid=97d8fcc7-4aef-45da-b019-c3d5381f038e","ios":"levelo://app?vid=97d8fcc7-4aef-45da-b019-c3d5381f038e"},"vehicle_type_id":"4","last_reported":1702332422,"current_range_meters":29600,"station_id":"ce4bhch2rcd13ifvqeug","pricing_plan_id":"free"},{"bike_id":"9448bc6a-b702-4d60-b4a5-061ae5b058aa","system_id":"levelo_inurba_marseille","lat":43.319179,"lon":5.407725,"is_reserved":false,"is_disabled":false,"rental_uris":{"android":"levelo://app?vid=9448bc6a-b702-4d60-b4a5-061ae5b058aa","ios":"levelo://app?vid=9448bc6a-b702-4d60-b4a5-061ae5b058aa"},"vehicle_type_id":"4","last_reported":1702332422,"current_range_meters":8800,"station_id":"ce4bhq12rcd13ifvqhig","pricing_plan_id":"free"},{"bike_id":"66cba741-1221-4d29-a72f-f4e0b2ba6a22","system_id":"levelo_inurba_marseille","lat":43.337168,"lon":5.391825,"is_reserved":false,"is_disabled":false,"rental_uris":{"android":"levelo://app?vid=66cba741-1221-4d29-a72f-f4e0b2ba6a22","ios":"levelo://app?vid=66cba741-1221-4d29-a72f-f4e0b2ba6a22"},"vehicle_type_id":"4","last_reported":1702332422,"current_range_meters":30400,"station_id":"ce4bhr92rcd13ifvqhsg","pricing_plan_id":"free"},{"bike_id":"d01d04a1-8264-49b2-b576-4ea9dbacab40","system_id":"levelo_inurba_marseille","lat":43.323464,"lon":5.406297,"is_reserved":false,"is_disabled":false,"rental_uris":{"android":"levelo://app?vid=d01d04a1-8264-49b2-b576-4ea9dbacab40","ios":"levelo://app?vid=d01d04a1-8264-49b2-b576-4ea9dbacab40"},"vehicle_type_id":"4","last_reported":1702332422,"current_range_meters":18000,"station_id":"ce4bhq92rcd13ifvqhjg","pricing_plan_id":"free"},{"bike_id":"ae580ee0-516c-41dd-85d9-7b4cf4de99e6","system_id":"levelo_inurba_marseille","lat":43.284214,"lon":5.349706,"is_reserved":false,"is_disabled":false,"rental_uris":{"android":"levelo://app?vid=ae580ee0-516c-41dd-85d9-7b4cf4de99e6","ios":"levelo://app?vid=ae580ee0-516c-41dd-85d9-7b4cf4de99e6"},"vehicle_type_id":"4","last_reported":1702332422,"current_range_meters":26400,"station_id":"ce4bhbh2rcd13ifvqepg","pricing_plan_id":"free"},{"bike_id":"f6574a55-166a-4329-bb6d-196c34dd8838","system_id":"levelo_inurba_marseille","lat":43.283498,"lon":5.380948,"is_reserved":false,"is_disabled":false,"rental_uris":{"android":"levelo://app?vid=f6574a55-166a-4329-bb6d-196c34dd8838","ios":"levelo://app?vid=f6574a55-166a-4329-bb6d-196c34dd8838"},"vehicle_type_id":"4","last_reported":1702332422,"current_range_meters":400,"station_id":"ce4bh412rcd13ifvqdr0","pricing_plan_id":"free"},{"bike_id":"abb1e6da-a61f-491b-80a6-8320eb2b41ab","system_id":"levelo_inurba_marseille","lat":43.289363,"lon":5.396322,"is_reserved":false,"is_disabled":false,"rental_uris":{"android":"levelo://app?vid=abb1e6da-a61f-491b-80a6-8320eb2b41ab","ios":"levelo://app?vid=abb1e6da-a61f-491b-80a6-8320eb2b41ab"},"vehicle_type_id":"4","last_reported":1702332422,"current_range_meters":14800,"station_id":"ce4bh3h2rcd13ifvqdn0","pricing_plan_id":"free"},{"bike_id":"a6293421-2f53-4d22-b3a9-1a774e17b5cb","system_id":"levelo_inurba_marseille","lat":43.282754,"lon":5.350519,"is_reserved":false,"is_disabled":false,"rental_uris":{"android":"levelo://app?vid=a6293421-2f53-4d22-b3a9-1a774e17b5cb","ios":"levelo://app?vid=a6293421-2f53-4d22-b3a9-1a774e17b5cb"},"vehicle_type_id":"4","last_reported":1702332422,"current_range_meters":30400,"station_id":"ce4bhbp2rcd13ifvqerg","pricing_plan_id":"free"},{"bike_id":"4f7e38fe-5f60-4585-a16d-18afc38aa6b5","system_id":"levelo_inurba_marseille","lat":43.282753,"lon":5.350701,"is_reserved":false,"is_disabled":false,"rental_uris":{"android":"levelo://app?vid=4f7e38fe-5f60-4585-a16d-18afc38aa6b5","ios":"levelo://app?vid=4f7e38fe-5f60-4585-a16d-18afc38aa6b5"},"vehicle_type_id":"4","last_reported":1702332422,"current_range_meters":30000,"station_id":"ce4bhbp2rcd13ifvqerg","pricing_plan_id":"free"},{"bike_id":"e5b512cb-e27d-4458-a743-793d6f8f663b","system_id":"levelo_inurba_marseille","lat":43.282744,"lon":5.350533,"is_reserved":false,"is_disabled":false,"rental_uris":{"android":"levelo://app?vid=e5b512cb-e27d-4458-a743-793d6f8f663b","ios":"levelo://app?vid=e5b512cb-e27d-4458-a743-793d6f8f663b"},"vehicle_type_id":"4","last_reported":1702332422,"current_range_meters":30000,"station_id":"ce4bhbp2rcd13ifvqerg","pricing_plan_id":"free"},{"bike_id":"1b4f1150-045d-4d97-b30a-8a15d9a6a242","system_id":"levelo_inurba_marseille","lat":43.282744,"lon":5.350533,"is_reserved":false,"is_disabled":false,"rental_uris":{"android":"levelo://app?vid=1b4f1150-045d-4d97-b30a-8a15d9a6a242","ios":"levelo://app?vid=1b4f1150-045d-4d97-b30a-8a15d9a6a242"},"vehicle_type_id":"4","last_reported":1702332422,"current_range_meters":31200,"station_id":"ce4bhbp2rcd13ifvqerg","pricing_plan_id":"free"},{"bike_id":"1a755c5d-9b3c-4f8b-a5a3-2cb0e2abc85a","system_id":"levelo_inurba_marseille","lat":43.282754,"lon":5.350519,"is_reserved":false,"is_disabled":false,"rental_uris":{"android":"levelo://app?vid=1a755c5d-9b3c-4f8b-a5a3-2cb0e2abc85a","ios":"levelo://app?vid=1a755c5d-9b3c-4f8b-a5a3-2cb0e2abc85a"},"vehicle_type_id":"4","last_reported":1702332422,"current_range_meters":30400,"station_id":"ce4bhbp2rcd13ifvqerg","pricing_plan_id":"free"},{"bike_id":"3761c4b2-9870-4544-aced-d720a2c79b1c","system_id":"levelo_inurba_marseille","lat":43.282744,"lon":5.350533,"is_reserved":false,"is_disabled":false,"rental_uris":{"android":"levelo://app?vid=3761c4b2-9870-4544-aced-d720a2c79b1c","ios":"levelo://app?vid=3761c4b2-9870-4544-aced-d720a2c79b1c"},"vehicle_type_id":"4","last_reported":1702332422,"current_range_meters":25200,"station_id":"ce4bhbp2rcd13ifvqerg","pricing_plan_id":"free"},{"bike_id":"392ebbd4-e44e-4116-91c8-2550b13da290","system_id":"levelo_inurba_marseille","lat":43.282744,"lon":5.350533,"is_reserved":false,"is_disabled":false,"rental_uris":{"android":"levelo://app?vid=392ebbd4-e44e-4116-91c8-2550b13da290","ios":"levelo://app?vid=392ebbd4-e44e-4116-91c8-2550b13da290"},"vehicle_type_id":"4","last_reported":1702332422,"current_range_meters":27200,"station_id":"ce4bhbp2rcd13ifvqerg","pricing_plan_id":"free"},{"bike_id":"da9954b6-ebfe-41c4-815d-57825521b2bc","system_id":"levelo_inurba_marseille","lat":43.28044,"lon":5.36953,"is_reserved":false,"is_disabled":false,"rental_uris":{"android":"levelo://app?vid=da9954b6-ebfe-41c4-815d-57825521b2bc","ios":"levelo://app?vid=da9954b6-ebfe-41c4-815d-57825521b2bc"},"vehicle_type_id":"4","last_reported":1702332422,"current_range_meters":4000,"station_id":"ce4bha12rcd13ifvqef0","pricing_plan_id":"free"},{"bike_id":"a9087632-d97b-4295-ac27-f172913e6205","system_id":"levelo_inurba_marseille","lat":43.280382,"lon":5.369291,"is_reserved":false,"is_disabled":false,"rental_uris":{"android":"levelo://app?vid=a9087632-d97b-4295-ac27-f172913e6205","ios":"levelo://app?vid=a9087632-d97b-4295-ac27-f172913e6205"},"vehicle_type_id":"4","last_reported":1702332422,"current_range_meters":28800,"station_id":"ce4bha12rcd13ifvqef0","pricing_plan_id":"free"},{"bike_id":"4573ed2e-c755-4cfb-958a-78dda47a3e37","system_id":"levelo_inurba_marseille","lat":43.280382,"lon":5.369291,"is_reserved":false,"is_disabled":false,"rental_uris":{"android":"levelo://app?vid=4573ed2e-c755-4cfb-958a-78dda47a3e37","ios":"levelo://app?vid=4573ed2e-c755-4cfb-958a-78dda47a3e37"},"vehicle_type_id":"4","last_reported":1702332422,"current_range_meters":22000,"station_id":"ce4bha12rcd13ifvqef0","pricing_plan_id":"free"},{"bike_id":"dbb32c68-89ea-42d5-9bbd-5de5751b5866","system_id":"levelo_inurba_marseille","lat":43.280382,"lon":5.369291,"is_reserved":false,"is_disabled":false,"rental_uris":{"android":"levelo://app?vid=dbb32c68-89ea-42d5-9bbd-5de5751b5866","ios":"levelo://app?vid=dbb32c68-89ea-42d5-9bbd-5de5751b5866"},"vehicle_type_id":"4","last_reported":1702332422,"current_range_meters":31200,"station_id":"ce4bha12rcd13ifvqef0","pricing_plan_id":"free"},{"bike_id":"4ee53fc3-95fe-4ec3-ae50-b9a8cd12442e","system_id":"levelo_inurba_marseille","lat":43.280382,"lon":5.369291,"is_reserved":false,"is_disabled":false,"rental_uris":{"android":"levelo://app?vid=4ee53fc3-95fe-4ec3-ae50-b9a8cd12442e","ios":"levelo://app?vid=4ee53fc3-95fe-4ec3-ae50-b9a8cd12442e"},"vehicle_type_id":"4","last_reported":1702332422,"current_range_meters":8800,"station_id":"ce4bha12rcd13ifvqef0","pricing_plan_id":"free"},{"bike_id":"23442a14-d748-4892-aa7c-a760ff0c96a7","system_id":"levelo_inurba_marseille","lat":43.296263,"lon":5.40601,"is_reserved":false,"is_disabled":false,"rental_uris":{"android":"levelo://app?vid=23442a14-d748-4892-aa7c-a760ff0c96a7","ios":"levelo://app?vid=23442a14-d748-4892-aa7c-a760ff0c96a7"},"vehicle_type_id":"4","last_reported":1702332422,"current_range_meters":24800,"station_id":"ce4bh0h2rcd13ifvqd60","pricing_plan_id":"free"},{"bike_id":"2a4eaad2-9e40-497d-bacc-35b57af0f0de","system_id":"levelo_inurba_marseille","lat":43.28103,"lon":5.37847,"is_reserved":false,"is_disabled":false,"rental_uris":{"android":"levelo://app?vid=2a4eaad2-9e40-497d-bacc-35b57af0f0de","ios":"levelo://app?vid=2a4eaad2-9e40-497d-bacc-35b57af0f0de"},"vehicle_type_id":"4","last_reported":1702332422,"current_range_meters":15200,"station_id":"ce4bha12rcd13ifvqee0","pricing_plan_id":"free"},{"bike_id":"48a99b63-f7d5-4782-a8c6-fa4d78f26f3c","system_id":"levelo_inurba_marseille","lat":43.281044,"lon":5.378308,"is_reserved":false,"is_disabled":false,"rental_uris":{"android":"levelo://app?vid=48a99b63-f7d5-4782-a8c6-fa4d78f26f3c","ios":"levelo://app?vid=48a99b63-f7d5-4782-a8c6-fa4d78f26f3c"},"vehicle_type_id":"4","last_reported":1702332422,"current_range_meters":21200,"station_id":"ce4bha12rcd13ifvqee0","pricing_plan_id":"free"},{"bike_id":"aa4ac0c8-3251-4954-b70d-99187e5600ce","system_id":"levelo_inurba_marseille","lat":43.280951,"lon":5.378423,"is_reserved":false,"is_disabled":false,"rental_uris":{"android":"levelo://app?vid=aa4ac0c8-3251-4954-b70d-99187e5600ce","ios":"levelo://app?vid=aa4ac0c8-3251-4954-b70d-99187e5600ce"},"vehicle_type_id":"4","last_reported":1702332422,"current_range_meters":19600,"station_id":"ce4bha12rcd13ifvqee0","pricing_plan_id":"free"},{"bike_id":"37203d1b-b531-40a6-988c-1da8e49b9372","system_id":"levelo_inurba_marseille","lat":43.296263,"lon":5.40601,"is_reserved":false,"is_disabled":false,"rental_uris":{"android":"levelo://app?vid=37203d1b-b531-40a6-988c-1da8e49b9372","ios":"levelo://app?vid=37203d1b-b531-40a6-988c-1da8e49b9372"},"vehicle_type_id":"4","last_reported":1702332422,"current_range_meters":26400,"station_id":"ce4bh0h2rcd13ifvqd60","pricing_plan_id":"free"},{"bike_id":"160bd7e5-05f6-43a1-9bc7-4629c7a42466","system_id":"levelo_inurba_marseille","lat":43.31325,"lon":5.4128,"is_reserved":false,"is_disabled":false,"rental_uris":{"android":"levelo://app?vid=160bd7e5-05f6-43a1-9bc7-4629c7a42466","ios":"levelo://app?vid=160bd7e5-05f6-43a1-9bc7-4629c7a42466"},"vehicle_type_id":"4","last_reported":1702332422,"current_range_meters":0,"station_id":"","pricing_plan_id":"free"},{"bike_id":"049d9575-45e1-486a-8b09-6a56b51ebfba","system_id":"levelo_inurba_marseille","lat":43.284462,"lon":5.392121,"is_reserved":false,"is_disabled":false,"rental_uris":{"android":"levelo://app?vid=049d9575-45e1-486a-8b09-6a56b51ebfba","ios":"levelo://app?vid=049d9575-45e1-486a-8b09-6a56b51ebfba"},"vehicle_type_id":"4","last_reported":1702332422,"current_range_meters":14400,"station_id":"ce4bhoh2rcd13ifvqh5g","pricing_plan_id":"free"},{"bike_id":"4767a7fd-d9a1-4cc7-8361-94becf3da635","system_id":"levelo_inurba_marseille","lat":43.284462,"lon":5.392121,"is_reserved":false,"is_disabled":false,"rental_uris":{"android":"levelo://app?vid=4767a7fd-d9a1-4cc7-8361-94becf3da635","ios":"levelo://app?vid=4767a7fd-d9a1-4cc7-8361-94becf3da635"},"vehicle_type_id":"4","last_reported":1702332422,"current_range_meters":31200,"station_id":"ce4bhoh2rcd13ifvqh5g","pricing_plan_id":"free"},{"bike_id":"ef618817-2607-4882-98fb-629e60b6a2ab","system_id":"levelo_inurba_marseille","lat":43.284462,"lon":5.392121,"is_reserved":false,"is_disabled":false,"rental_uris":{"android":"levelo://app?vid=ef618817-2607-4882-98fb-629e60b6a2ab","ios":"levelo://app?vid=ef618817-2607-4882-98fb-629e60b6a2ab"},"vehicle_type_id":"4","last_reported":1702332422,"current_range_meters":29600,"station_id":"ce4bhoh2rcd13ifvqh5g","pricing_plan_id":"free"},{"bike_id":"0dd255ef-4b3d-47cf-a762-0dd0e9c0af2c","system_id":"levelo_inurba_marseille","lat":43.285673,"lon":5.39494,"is_reserved":false,"is_disabled":false,"rental_uris":{"android":"levelo://app?vid=0dd255ef-4b3d-47cf-a762-0dd0e9c0af2c","ios":"levelo://app?vid=0dd255ef-4b3d-47cf-a762-0dd0e9c0af2c"},"vehicle_type_id":"4","last_reported":1702332422,"current_range_meters":3200,"station_id":"ce4bh292rcd13ifvqdg0","pricing_plan_id":"free"},{"bike_id":"08a22758-971d-43d7-b06f-e03f69b8c19b","system_id":"levelo_inurba_marseille","lat":43.326605,"lon":5.409903,"is_reserved":false,"is_disabled":false,"rental_uris":{"android":"levelo://app?vid=08a22758-971d-43d7-b06f-e03f69b8c19b","ios":"levelo://app?vid=08a22758-971d-43d7-b06f-e03f69b8c19b"},"vehicle_type_id":"4","last_reported":1702332422,"current_range_meters":29600,"station_id":"ce4bhpp2rcd13ifvqhgg","pricing_plan_id":"free"},{"bike_id":"80ffd250-5d37-49a8-abc1-e8d034ca534a","system_id":"levelo_inurba_marseille","lat":43.326567,"lon":5.409943,"is_reserved":false,"is_disabled":false,"rental_uris":{"android":"levelo://app?vid=80ffd250-5d37-49a8-abc1-e8d034ca534a","ios":"levelo://app?vid=80ffd250-5d37-49a8-abc1-e8d034ca534a"},"vehicle_type_id":"4","last_reported":1702332422,"current_range_meters":20800,"station_id":"","pricing_plan_id":"free"},{"bike_id":"a934d76b-8ba7-4197-bbf0-5f1568c9e6b9","system_id":"levelo_inurba_marseille","lat":43.304188,"lon":5.412904,"is_reserved":false,"is_disabled":false,"rental_uris":{"android":"levelo://app?vid=a934d76b-8ba7-4197-bbf0-5f1568c9e6b9","ios":"levelo://app?vid=a934d76b-8ba7-4197-bbf0-5f1568c9e6b9"},"vehicle_type_id":"4","last_reported":1702332422,"current_range_meters":29200,"station_id":"ce4bhop2rcd13ifvqh8g","pricing_plan_id":"free"},{"bike_id":"05b7994a-2ac0-4d51-9178-7ed777dfcd52","system_id":"levelo_inurba_marseille","lat":43.279087,"lon":5.380114,"is_reserved":false,"is_disabled":false,"rental_uris":{"android":"levelo://app?vid=05b7994a-2ac0-4d51-9178-7ed777dfcd52","ios":"levelo://app?vid=05b7994a-2ac0-4d51-9178-7ed777dfcd52"},"vehicle_type_id":"4","last_reported":1702332422,"current_range_meters":27200,"station_id":"ce4bhf92rcd13ifvqf50","pricing_plan_id":"free"},{"bike_id":"ef1028cd-ebbe-49ad-9388-3915a9fa2e4e","system_id":"levelo_inurba_marseille","lat":43.287154,"lon":5.399979,"is_reserved":false,"is_disabled":false,"rental_uris":{"android":"levelo://app?vid=ef1028cd-ebbe-49ad-9388-3915a9fa2e4e","ios":"levelo://app?vid=ef1028cd-ebbe-49ad-9388-3915a9fa2e4e"},"vehicle_type_id":"4","last_reported":1702332422,"current_range_meters":27200,"station_id":"ce4bho92rcd13ifvqh3g","pricing_plan_id":"free"},{"bike_id":"90694297-c58d-41af-84d8-ae5be0d535da","system_id":"levelo_inurba_marseille","lat":43.287154,"lon":5.399979,"is_reserved":false,"is_disabled":false,"rental_uris":{"android":"levelo://app?vid=90694297-c58d-41af-84d8-ae5be0d535da","ios":"levelo://app?vid=90694297-c58d-41af-84d8-ae5be0d535da"},"vehicle_type_id":"4","last_reported":1702332422,"current_range_meters":0,"station_id":"ce4bho92rcd13ifvqh3g","pricing_plan_id":"free"},{"bike_id":"0173838d-816d-45f6-b30b-9d918c306426","system_id":"levelo_inurba_marseille","lat":43.287154,"lon":5.399979,"is_reserved":false,"is_disabled":false,"rental_uris":{"android":"levelo://app?vid=0173838d-816d-45f6-b30b-9d918c306426","ios":"levelo://app?vid=0173838d-816d-45f6-b30b-9d918c306426"},"vehicle_type_id":"4","last_reported":1702332422,"current_range_meters":0,"station_id":"ce4bho92rcd13ifvqh3g","pricing_plan_id":"free"},{"bike_id":"3a2cb343-3175-4ccf-9869-02132abfea43","system_id":"levelo_inurba_marseille","lat":43.287154,"lon":5.399979,"is_reserved":false,"is_disabled":false,"rental_uris":{"android":"levelo://app?vid=3a2cb343-3175-4ccf-9869-02132abfea43","ios":"levelo://app?vid=3a2cb343-3175-4ccf-9869-02132abfea43"},"vehicle_type_id":"4","last_reported":1702332422,"current_range_meters":17200,"station_id":"ce4bho92rcd13ifvqh3g","pricing_plan_id":"free"},{"bike_id":"fa4bb5fb-ad72-4f07-be70-d85fcf016197","system_id":"levelo_inurba_marseille","lat":43.287154,"lon":5.399979,"is_reserved":false,"is_disabled":false,"rental_uris":{"android":"levelo://app?vid=fa4bb5fb-ad72-4f07-be70-d85fcf016197","ios":"levelo://app?vid=fa4bb5fb-ad72-4f07-be70-d85fcf016197"},"vehicle_type_id":"4","last_reported":1702332422,"current_range_meters":31200,"station_id":"ce4bho92rcd13ifvqh3g","pricing_plan_id":"free"},{"bike_id":"933cb28d-43e6-4a10-936b-692ff6f9d6e3","system_id":"levelo_inurba_marseille","lat":43.27974,"lon":5.38743,"is_reserved":false,"is_disabled":false,"rental_uris":{"android":"levelo://app?vid=933cb28d-43e6-4a10-936b-692ff6f9d6e3","ios":"levelo://app?vid=933cb28d-43e6-4a10-936b-692ff6f9d6e3"},"vehicle_type_id":"4","last_reported":1702332422,"current_range_meters":18000,"station_id":"ce4bhg12rcd13ifvqf80","pricing_plan_id":"free"},{"bike_id":"afed0f96-054a-478e-a738-947f44e3a97c","system_id":"levelo_inurba_marseille","lat":43.279742,"lon":5.38744,"is_reserved":false,"is_disabled":false,"rental_uris":{"android":"levelo://app?vid=afed0f96-054a-478e-a738-947f44e3a97c","ios":"levelo://app?vid=afed0f96-054a-478e-a738-947f44e3a97c"},"vehicle_type_id":"4","last_reported":1702332422,"current_range_meters":27600,"station_id":"ce4bhg12rcd13ifvqf80","pricing_plan_id":"free"},{"bike_id":"2cfe6c24-55f5-4942-b934-2484d6740bd3","system_id":"levelo_inurba_marseille","lat":43.292569,"lon":5.409107,"is_reserved":false,"is_disabled":false,"rental_uris":{"android":"levelo://app?vid=2cfe6c24-55f5-4942-b934-2484d6740bd3","ios":"levelo://app?vid=2cfe6c24-55f5-4942-b934-2484d6740bd3"},"vehicle_type_id":"4","last_reported":1702332422,"current_range_meters":7200,"station_id":"ce4bh192rcd13ifvqdc0","pricing_plan_id":"free"},{"bike_id":"2311aaf9-3908-4009-b838-0e5f77c6048a","system_id":"levelo_inurba_marseille","lat":43.2762,"lon":5.36108,"is_reserved":false,"is_disabled":false,"rental_uris":{"android":"levelo://app?vid=2311aaf9-3908-4009-b838-0e5f77c6048a","ios":"levelo://app?vid=2311aaf9-3908-4009-b838-0e5f77c6048a"},"vehicle_type_id":"4","last_reported":1702332422,"current_range_meters":10800,"station_id":"ce4bgj92rcd13ifvqbe0","pricing_plan_id":"free"},{"bike_id":"7cddd4cc-2c7d-4381-9bfa-f684cdc32fa0","system_id":"levelo_inurba_marseille","lat":43.28009,"lon":5.39022,"is_reserved":false,"is_disabled":false,"rental_uris":{"android":"levelo://app?vid=7cddd4cc-2c7d-4381-9bfa-f684cdc32fa0","ios":"levelo://app?vid=7cddd4cc-2c7d-4381-9bfa-f684cdc32fa0"},"vehicle_type_id":"4","last_reported":1702332422,"current_range_meters":17600,"station_id":"","pricing_plan_id":"free"},{"bike_id":"0affd34a-26a3-4b23-9979-f74eada3d752","system_id":"levelo_inurba_marseille","lat":43.27618,"lon":5.361009,"is_reserved":false,"is_disabled":false,"rental_uris":{"android":"levelo://app?vid=0affd34a-26a3-4b23-9979-f74eada3d752","ios":"levelo://app?vid=0affd34a-26a3-4b23-9979-f74eada3d752"},"vehicle_type_id":"4","last_reported":1702332422,"current_range_meters":15200,"station_id":"ce4bgj92rcd13ifvqbe0","pricing_plan_id":"free"},{"bike_id":"64c254e3-1eb7-45bb-ab29-bffd8d469e6f","system_id":"levelo_inurba_marseille","lat":43.276175,"lon":5.361113,"is_reserved":false,"is_disabled":false,"rental_uris":{"android":"levelo://app?vid=64c254e3-1eb7-45bb-ab29-bffd8d469e6f","ios":"levelo://app?vid=64c254e3-1eb7-45bb-ab29-bffd8d469e6f"},"vehicle_type_id":"4","last_reported":1702332422,"current_range_meters":0,"station_id":"ce4bgj92rcd13ifvqbe0","pricing_plan_id":"free"},{"bike_id":"d2d1a980-81d0-4b43-a286-ebecc7be733a","system_id":"levelo_inurba_marseille","lat":43.27617,"lon":5.36105,"is_reserved":false,"is_disabled":false,"rental_uris":{"android":"levelo://app?vid=d2d1a980-81d0-4b43-a286-ebecc7be733a","ios":"levelo://app?vid=d2d1a980-81d0-4b43-a286-ebecc7be733a"},"vehicle_type_id":"4","last_reported":1702332422,"current_range_meters":24400,"station_id":"ce4bgj92rcd13ifvqbe0","pricing_plan_id":"free"},{"bike_id":"6fb7d017-b245-43a0-8373-a842d3457d15","system_id":"levelo_inurba_marseille","lat":43.286844,"lon":5.405987,"is_reserved":false,"is_disabled":false,"rental_uris":{"android":"levelo://app?vid=6fb7d017-b245-43a0-8373-a842d3457d15","ios":"levelo://app?vid=6fb7d017-b245-43a0-8373-a842d3457d15"},"vehicle_type_id":"4","last_reported":1702332422,"current_range_meters":6000,"station_id":"","pricing_plan_id":"free"},{"bike_id":"75104497-c165-402c-9973-3f1e834622c6","system_id":"levelo_inurba_marseille","lat":43.280784,"lon":5.396622,"is_reserved":false,"is_disabled":false,"rental_uris":{"android":"levelo://app?vid=75104497-c165-402c-9973-3f1e834622c6","ios":"levelo://app?vid=75104497-c165-402c-9973-3f1e834622c6"},"vehicle_type_id":"4","last_reported":1702332422,"current_range_meters":19200,"station_id":"ce4bho12rcd13ifvqh2g","pricing_plan_id":"free"},{"bike_id":"5ec0f610-67d6-4362-9fee-eee9426eb4cf","system_id":"levelo_inurba_marseille","lat":43.303837,"lon":5.418724,"is_reserved":false,"is_disabled":false,"rental_uris":{"android":"levelo://app?vid=5ec0f610-67d6-4362-9fee-eee9426eb4cf","ios":"levelo://app?vid=5ec0f610-67d6-4362-9fee-eee9426eb4cf"},"vehicle_type_id":"4","last_reported":1702332422,"current_range_meters":20800,"station_id":"ce4bhop2rcd13ifvqh7g","pricing_plan_id":"free"},{"bike_id":"9ea10af0-3940-4224-a189-633a8d8b6409","system_id":"levelo_inurba_marseille","lat":43.27375,"lon":5.3625,"is_reserved":false,"is_disabled":false,"rental_uris":{"android":"levelo://app?vid=9ea10af0-3940-4224-a189-633a8d8b6409","ios":"levelo://app?vid=9ea10af0-3940-4224-a189-633a8d8b6409"},"vehicle_type_id":"4","last_reported":1702332422,"current_range_meters":12000,"station_id":"ce4bhbh2rcd13ifvqeo0","pricing_plan_id":"free"},{"bike_id":"1b2a1c4d-b89b-4b63-adda-6e0455bb8429","system_id":"levelo_inurba_marseille","lat":43.275625,"lon":5.384392,"is_reserved":false,"is_disabled":false,"rental_uris":{"android":"levelo://app?vid=1b2a1c4d-b89b-4b63-adda-6e0455bb8429","ios":"levelo://app?vid=1b2a1c4d-b89b-4b63-adda-6e0455bb8429"},"vehicle_type_id":"4","last_reported":1702332422,"current_range_meters":27200,"station_id":"ce4bhh92rcd13ifvqfi0","pricing_plan_id":"free"},{"bike_id":"f763e54d-5215-4eb1-9294-2cf58722503f","system_id":"levelo_inurba_marseille","lat":43.273609,"lon":5.362708,"is_reserved":false,"is_disabled":false,"rental_uris":{"android":"levelo://app?vid=f763e54d-5215-4eb1-9294-2cf58722503f","ios":"levelo://app?vid=f763e54d-5215-4eb1-9294-2cf58722503f"},"vehicle_type_id":"4","last_reported":1702332422,"current_range_meters":26800,"station_id":"ce4bhbh2rcd13ifvqeo0","pricing_plan_id":"free"},{"bike_id":"00924fa7-3716-4457-a6b3-fe78139fdf14","system_id":"levelo_inurba_marseille","lat":43.317121,"lon":5.423936,"is_reserved":false,"is_disabled":false,"rental_uris":{"android":"levelo://app?vid=00924fa7-3716-4457-a6b3-fe78139fdf14","ios":"levelo://app?vid=00924fa7-3716-4457-a6b3-fe78139fdf14"},"vehicle_type_id":"4","last_reported":1702332422,"current_range_meters":0,"station_id":"ce4bhp92rcd13ifvqhbg","pricing_plan_id":"free"},{"bike_id":"b1c028eb-0fe1-4afa-b35c-b9783a0e9537","system_id":"levelo_inurba_marseille","lat":43.31723,"lon":5.42405,"is_reserved":false,"is_disabled":false,"rental_uris":{"android":"levelo://app?vid=b1c028eb-0fe1-4afa-b35c-b9783a0e9537","ios":"levelo://app?vid=b1c028eb-0fe1-4afa-b35c-b9783a0e9537"},"vehicle_type_id":"4","last_reported":1702332422,"current_range_meters":8000,"station_id":"ce4bhp92rcd13ifvqhbg","pricing_plan_id":"free"},{"bike_id":"114ed9a0-f405-4e5a-8abc-a36515ad57b3","system_id":"levelo_inurba_marseille","lat":43.27214,"lon":5.392328,"is_reserved":false,"is_disabled":false,"rental_uris":{"android":"levelo://app?vid=114ed9a0-f405-4e5a-8abc-a36515ad57b3","ios":"levelo://app?vid=114ed9a0-f405-4e5a-8abc-a36515ad57b3"},"vehicle_type_id":"4","last_reported":1702332422,"current_range_meters":22400,"station_id":"ce4bhhp2rcd13ifvqfm0","pricing_plan_id":"free"},{"bike_id":"182f3f4a-f110-4521-b014-2fdf07d66152","system_id":"levelo_inurba_marseille","lat":43.27007,"lon":5.38781,"is_reserved":false,"is_disabled":false,"rental_uris":{"android":"levelo://app?vid=182f3f4a-f110-4521-b014-2fdf07d66152","ios":"levelo://app?vid=182f3f4a-f110-4521-b014-2fdf07d66152"},"vehicle_type_id":"4","last_reported":1702332422,"current_range_meters":0,"station_id":"","pricing_plan_id":"free"},{"bike_id":"1d64da37-e124-4ab4-a918-56a5f5287e92","system_id":"levelo_inurba_marseille","lat":43.278128,"lon":5.407195,"is_reserved":false,"is_disabled":false,"rental_uris":{"android":"levelo://app?vid=1d64da37-e124-4ab4-a918-56a5f5287e92","ios":"levelo://app?vid=1d64da37-e124-4ab4-a918-56a5f5287e92"},"vehicle_type_id":"4","last_reported":1702332422,"current_range_meters":21200,"station_id":"ce4bhnh2rcd13ifvqgtg","pricing_plan_id":"free"},{"bike_id":"075af69d-d29d-4e72-9efd-a651f1afe17c","system_id":"levelo_inurba_marseille","lat":43.278128,"lon":5.407195,"is_reserved":false,"is_disabled":false,"rental_uris":{"android":"levelo://app?vid=075af69d-d29d-4e72-9efd-a651f1afe17c","ios":"levelo://app?vid=075af69d-d29d-4e72-9efd-a651f1afe17c"},"vehicle_type_id":"4","last_reported":1702332422,"current_range_meters":19200,"station_id":"ce4bhnh2rcd13ifvqgtg","pricing_plan_id":"free"},{"bike_id":"629197af-30a4-4732-afe0-3c712ab8a4ce","system_id":"levelo_inurba_marseille","lat":43.27952,"lon":5.41042,"is_reserved":false,"is_disabled":false,"rental_uris":{"android":"levelo://app?vid=629197af-30a4-4732-afe0-3c712ab8a4ce","ios":"levelo://app?vid=629197af-30a4-4732-afe0-3c712ab8a4ce"},"vehicle_type_id":"4","last_reported":1702332422,"current_range_meters":28000,"station_id":"ce4bhnp2rcd13ifvqh0g","pricing_plan_id":"free"},{"bike_id":"89174b6c-7157-464f-821e-2b2484992d0c","system_id":"levelo_inurba_marseille","lat":43.27948,"lon":5.41042,"is_reserved":false,"is_disabled":false,"rental_uris":{"android":"levelo://app?vid=89174b6c-7157-464f-821e-2b2484992d0c","ios":"levelo://app?vid=89174b6c-7157-464f-821e-2b2484992d0c"},"vehicle_type_id":"4","last_reported":1702332422,"current_range_meters":19600,"station_id":"","pricing_plan_id":"free"},{"bike_id":"e355444f-467d-4d19-965f-416ab15b4237","system_id":"levelo_inurba_marseille","lat":43.27947,"lon":5.41046,"is_reserved":false,"is_disabled":false,"rental_uris":{"android":"levelo://app?vid=e355444f-467d-4d19-965f-416ab15b4237","ios":"levelo://app?vid=e355444f-467d-4d19-965f-416ab15b4237"},"vehicle_type_id":"4","last_reported":1702332422,"current_range_meters":19600,"station_id":"ce4bhnp2rcd13ifvqh0g","pricing_plan_id":"free"},{"bike_id":"048a7c17-97c6-4e8b-b365-1d7721c101c5","system_id":"levelo_inurba_marseille","lat":43.27942,"lon":5.41042,"is_reserved":false,"is_disabled":false,"rental_uris":{"android":"levelo://app?vid=048a7c17-97c6-4e8b-b365-1d7721c101c5","ios":"levelo://app?vid=048a7c17-97c6-4e8b-b365-1d7721c101c5"},"vehicle_type_id":"4","last_reported":1702332422,"current_range_meters":8000,"station_id":"ce4bhnp2rcd13ifvqh0g","pricing_plan_id":"free"},{"bike_id":"afbe6453-4082-4cc7-a9ed-7f96e9609a56","system_id":"levelo_inurba_marseille","lat":43.26682,"lon":5.38264,"is_reserved":false,"is_disabled":false,"rental_uris":{"android":"levelo://app?vid=afbe6453-4082-4cc7-a9ed-7f96e9609a56","ios":"levelo://app?vid=afbe6453-4082-4cc7-a9ed-7f96e9609a56"},"vehicle_type_id":"4","last_reported":1702332422,"current_range_meters":29600,"station_id":"ce4bhg92rcd13ifvqf90","pricing_plan_id":"free"},{"bike_id":"fa2c8774-c50e-4ee1-b2f0-6158142ea9f6","system_id":"levelo_inurba_marseille","lat":43.2668,"lon":5.38262,"is_reserved":false,"is_disabled":false,"rental_uris":{"android":"levelo://app?vid=fa2c8774-c50e-4ee1-b2f0-6158142ea9f6","ios":"levelo://app?vid=fa2c8774-c50e-4ee1-b2f0-6158142ea9f6"},"vehicle_type_id":"4","last_reported":1702332422,"current_range_meters":26400,"station_id":"ce4bhg92rcd13ifvqf90","pricing_plan_id":"free"},{"bike_id":"95e85086-94f3-4d5d-828b-e5f9ce0e68b6","system_id":"levelo_inurba_marseille","lat":43.26681,"lon":5.382694,"is_reserved":false,"is_disabled":false,"rental_uris":{"android":"levelo://app?vid=95e85086-94f3-4d5d-828b-e5f9ce0e68b6","ios":"levelo://app?vid=95e85086-94f3-4d5d-828b-e5f9ce0e68b6"},"vehicle_type_id":"4","last_reported":1702332422,"current_range_meters":30800,"station_id":"ce4bhg92rcd13ifvqf90","pricing_plan_id":"free"},{"bike_id":"423e3098-a5a2-498b-9c3c-4341c381f5e8","system_id":"levelo_inurba_marseille","lat":43.26681,"lon":5.382694,"is_reserved":false,"is_disabled":false,"rental_uris":{"android":"levelo://app?vid=423e3098-a5a2-498b-9c3c-4341c381f5e8","ios":"levelo://app?vid=423e3098-a5a2-498b-9c3c-4341c381f5e8"},"vehicle_type_id":"4","last_reported":1702332422,"current_range_meters":27200,"station_id":"ce4bhg92rcd13ifvqf90","pricing_plan_id":"free"},{"bike_id":"618ab94a-31d3-49d5-8238-c36f733e2f97","system_id":"levelo_inurba_marseille","lat":43.26677,"lon":5.38264,"is_reserved":false,"is_disabled":false,"rental_uris":{"android":"levelo://app?vid=618ab94a-31d3-49d5-8238-c36f733e2f97","ios":"levelo://app?vid=618ab94a-31d3-49d5-8238-c36f733e2f97"},"vehicle_type_id":"4","last_reported":1702332422,"current_range_meters":26000,"station_id":"ce4bhg92rcd13ifvqf90","pricing_plan_id":"free"},{"bike_id":"414d7b4a-a3e9-448e-903a-d08acf242b2b","system_id":"levelo_inurba_marseille","lat":43.26681,"lon":5.382694,"is_reserved":false,"is_disabled":false,"rental_uris":{"android":"levelo://app?vid=414d7b4a-a3e9-448e-903a-d08acf242b2b","ios":"levelo://app?vid=414d7b4a-a3e9-448e-903a-d08acf242b2b"},"vehicle_type_id":"4","last_reported":1702332422,"current_range_meters":29200,"station_id":"ce4bhg92rcd13ifvqf90","pricing_plan_id":"free"},{"bike_id":"ec5ef604-2048-4751-b1a1-3a6f0586d1d7","system_id":"levelo_inurba_marseille","lat":43.27996,"lon":5.416624,"is_reserved":false,"is_disabled":false,"rental_uris":{"android":"levelo://app?vid=ec5ef604-2048-4751-b1a1-3a6f0586d1d7","ios":"levelo://app?vid=ec5ef604-2048-4751-b1a1-3a6f0586d1d7"},"vehicle_type_id":"4","last_reported":1702332422,"current_range_meters":26000,"station_id":"ce4bho12rcd13ifvqh1g","pricing_plan_id":"free"},{"bike_id":"a4c2e866-1ad6-4353-a4f2-cb755e151f55","system_id":"levelo_inurba_marseille","lat":43.26324,"lon":5.37682,"is_reserved":false,"is_disabled":false,"rental_uris":{"android":"levelo://app?vid=a4c2e866-1ad6-4353-a4f2-cb755e151f55","ios":"levelo://app?vid=a4c2e866-1ad6-4353-a4f2-cb755e151f55"},"vehicle_type_id":"4","last_reported":1702332422,"current_range_meters":12800,"station_id":"","pricing_plan_id":"free"},{"bike_id":"daa35769-32ed-4c6f-8d37-d59a59c98d0b","system_id":"levelo_inurba_marseille","lat":43.258224,"lon":5.394369,"is_reserved":false,"is_disabled":false,"rental_uris":{"android":"levelo://app?vid=daa35769-32ed-4c6f-8d37-d59a59c98d0b","ios":"levelo://app?vid=daa35769-32ed-4c6f-8d37-d59a59c98d0b"},"vehicle_type_id":"4","last_reported":1702332422,"current_range_meters":18400,"station_id":"ce4bhip2rcd13ifvqft0","pricing_plan_id":"free"},{"bike_id":"64217bd9-d7bb-46ce-b5a2-983e361e1b85","system_id":"levelo_inurba_marseille","lat":43.26949,"lon":5.40262,"is_reserved":false,"is_disabled":false,"rental_uris":{"android":"levelo://app?vid=64217bd9-d7bb-46ce-b5a2-983e361e1b85","ios":"levelo://app?vid=64217bd9-d7bb-46ce-b5a2-983e361e1b85"},"vehicle_type_id":"4","last_reported":1702332422,"current_range_meters":0,"station_id":"cjm6bp8fraef2m0cb0m0","pricing_plan_id":"free"},{"bike_id":"125bbb66-0893-4755-a855-7f9b0549781d","system_id":"levelo_inurba_marseille","lat":43.26949,"lon":5.40262,"is_reserved":false,"is_disabled":false,"rental_uris":{"android":"levelo://app?vid=125bbb66-0893-4755-a855-7f9b0549781d","ios":"levelo://app?vid=125bbb66-0893-4755-a855-7f9b0549781d"},"vehicle_type_id":"4","last_reported":1702332422,"current_range_meters":0,"station_id":"cjm6bp8fraef2m0cb0m0","pricing_plan_id":"free"},{"bike_id":"cdd036f6-7ea5-4424-b6f3-3af93ebb2fa0","system_id":"levelo_inurba_marseille","lat":43.317104,"lon":5.436818,"is_reserved":false,"is_disabled":false,"rental_uris":{"android":"levelo://app?vid=cdd036f6-7ea5-4424-b6f3-3af93ebb2fa0","ios":"levelo://app?vid=cdd036f6-7ea5-4424-b6f3-3af93ebb2fa0"},"vehicle_type_id":"4","last_reported":1702332422,"current_range_meters":31200,"station_id":"ce4bhp92rcd13ifvqhcg","pricing_plan_id":"free"},{"bike_id":"4ee2ebe4-ccab-47af-b669-1b687cc9fb82","system_id":"levelo_inurba_marseille","lat":43.317104,"lon":5.436818,"is_reserved":false,"is_disabled":false,"rental_uris":{"android":"levelo://app?vid=4ee2ebe4-ccab-47af-b669-1b687cc9fb82","ios":"levelo://app?vid=4ee2ebe4-ccab-47af-b669-1b687cc9fb82"},"vehicle_type_id":"4","last_reported":1702332422,"current_range_meters":29200,"station_id":"ce4bhp92rcd13ifvqhcg","pricing_plan_id":"free"},{"bike_id":"26028b8b-2fb7-4fce-9011-67b90fcace31","system_id":"levelo_inurba_marseille","lat":43.317104,"lon":5.436818,"is_reserved":false,"is_disabled":false,"rental_uris":{"android":"levelo://app?vid=26028b8b-2fb7-4fce-9011-67b90fcace31","ios":"levelo://app?vid=26028b8b-2fb7-4fce-9011-67b90fcace31"},"vehicle_type_id":"4","last_reported":1702332422,"current_range_meters":28000,"station_id":"ce4bhp92rcd13ifvqhcg","pricing_plan_id":"free"},{"bike_id":"37645cb8-5c24-41ba-b0d3-f9e32e3bff51","system_id":"levelo_inurba_marseille","lat":43.317104,"lon":5.436818,"is_reserved":false,"is_disabled":false,"rental_uris":{"android":"levelo://app?vid=37645cb8-5c24-41ba-b0d3-f9e32e3bff51","ios":"levelo://app?vid=37645cb8-5c24-41ba-b0d3-f9e32e3bff51"},"vehicle_type_id":"4","last_reported":1702332422,"current_range_meters":31200,"station_id":"ce4bhp92rcd13ifvqhcg","pricing_plan_id":"free"},{"bike_id":"1acf6805-7adc-4d3c-b52b-7b0895430b1f","system_id":"levelo_inurba_marseille","lat":43.26202,"lon":5.379299,"is_reserved":false,"is_disabled":false,"rental_uris":{"android":"levelo://app?vid=1acf6805-7adc-4d3c-b52b-7b0895430b1f","ios":"levelo://app?vid=1acf6805-7adc-4d3c-b52b-7b0895430b1f"},"vehicle_type_id":"4","last_reported":1702332422,"current_range_meters":25600,"station_id":"ce4bhjp2rcd13ifvqg90","pricing_plan_id":"free"},{"bike_id":"7ef0e874-4d14-4db6-97d3-23537a85b219","system_id":"levelo_inurba_marseille","lat":43.298768,"lon":5.43643,"is_reserved":false,"is_disabled":false,"rental_uris":{"android":"levelo://app?vid=7ef0e874-4d14-4db6-97d3-23537a85b219","ios":"levelo://app?vid=7ef0e874-4d14-4db6-97d3-23537a85b219"},"vehicle_type_id":"4","last_reported":1702332422,"current_range_meters":28000,"station_id":"ce4bhpp2rcd13ifvqhfg","pricing_plan_id":"free"},{"bike_id":"180bf347-93f7-4d14-a727-4021a2dbeb7d","system_id":"levelo_inurba_marseille","lat":43.281405,"lon":5.429968,"is_reserved":false,"is_disabled":false,"rental_uris":{"android":"levelo://app?vid=180bf347-93f7-4d14-a727-4021a2dbeb7d","ios":"levelo://app?vid=180bf347-93f7-4d14-a727-4021a2dbeb7d"},"vehicle_type_id":"4","last_reported":1702332422,"current_range_meters":13600,"station_id":"","pricing_plan_id":"free"},{"bike_id":"2904fadb-7bd9-4958-ab41-36e416d618b9","system_id":"levelo_inurba_marseille","lat":43.275028,"lon":5.424534,"is_reserved":false,"is_disabled":false,"rental_uris":{"android":"levelo://app?vid=2904fadb-7bd9-4958-ab41-36e416d618b9","ios":"levelo://app?vid=2904fadb-7bd9-4958-ab41-36e416d618b9"},"vehicle_type_id":"4","last_reported":1702332422,"current_range_meters":28400,"station_id":"ce4bhn92rcd13ifvqgrg","pricing_plan_id":"free"},{"bike_id":"463668ea-b294-4421-824a-c4df85b1e87b","system_id":"levelo_inurba_marseille","lat":43.27069,"lon":5.42275,"is_reserved":false,"is_disabled":false,"rental_uris":{"android":"levelo://app?vid=463668ea-b294-4421-824a-c4df85b1e87b","ios":"levelo://app?vid=463668ea-b294-4421-824a-c4df85b1e87b"},"vehicle_type_id":"4","last_reported":1702332422,"current_range_meters":16000,"station_id":"ce4bhk92rcd13ifvqgb0","pricing_plan_id":"free"},{"bike_id":"cd1904e5-3f41-4572-8872-cc23fca0c4f1","system_id":"levelo_inurba_marseille","lat":43.2707,"lon":5.4228,"is_reserved":false,"is_disabled":false,"rental_uris":{"android":"levelo://app?vid=cd1904e5-3f41-4572-8872-cc23fca0c4f1","ios":"levelo://app?vid=cd1904e5-3f41-4572-8872-cc23fca0c4f1"},"vehicle_type_id":"4","last_reported":1702332422,"current_range_meters":9600,"station_id":"ce4bhk92rcd13ifvqgb0","pricing_plan_id":"free"},{"bike_id":"92a72a23-e4b4-42a5-990e-2e6e8c169807","system_id":"levelo_inurba_marseille","lat":43.257079,"lon":5.411051,"is_reserved":false,"is_disabled":false,"rental_uris":{"android":"levelo://app?vid=92a72a23-e4b4-42a5-990e-2e6e8c169807","ios":"levelo://app?vid=92a72a23-e4b4-42a5-990e-2e6e8c169807"},"vehicle_type_id":"4","last_reported":1702332422,"current_range_meters":17200,"station_id":"ce4bhkp2rcd13ifvqgd0","pricing_plan_id":"free"},{"bike_id":"8bfba5f0-6d02-4058-854b-b88f3097ad8f","system_id":"levelo_inurba_marseille","lat":43.25709,"lon":5.41124,"is_reserved":false,"is_disabled":false,"rental_uris":{"android":"levelo://app?vid=8bfba5f0-6d02-4058-854b-b88f3097ad8f","ios":"levelo://app?vid=8bfba5f0-6d02-4058-854b-b88f3097ad8f"},"vehicle_type_id":"4","last_reported":1702332422,"current_range_meters":8000,"station_id":"ce4bhkp2rcd13ifvqgd0","pricing_plan_id":"free"},{"bike_id":"2814f471-c9c3-4376-bd65-113afd3172d1","system_id":"levelo_inurba_marseille","lat":43.250009,"lon":5.389195,"is_reserved":false,"is_disabled":false,"rental_uris":{"android":"levelo://app?vid=2814f471-c9c3-4376-bd65-113afd3172d1","ios":"levelo://app?vid=2814f471-c9c3-4376-bd65-113afd3172d1"},"vehicle_type_id":"4","last_reported":1702332422,"current_range_meters":27600,"station_id":"ce4bhgp2rcd13ifvqfd0","pricing_plan_id":"free"},{"bike_id":"60519587-26ad-4271-80bc-227873020e2a","system_id":"levelo_inurba_marseille","lat":43.24998,"lon":5.38935,"is_reserved":false,"is_disabled":false,"rental_uris":{"android":"levelo://app?vid=60519587-26ad-4271-80bc-227873020e2a","ios":"levelo://app?vid=60519587-26ad-4271-80bc-227873020e2a"},"vehicle_type_id":"4","last_reported":1702332422,"current_range_meters":1200,"station_id":"ce4bhgp2rcd13ifvqfd0","pricing_plan_id":"free"},{"bike_id":"35c3f807-24e7-4171-8112-6d272f635dd8","system_id":"levelo_inurba_marseille","lat":43.250966,"lon":5.395186,"is_reserved":false,"is_disabled":false,"rental_uris":{"android":"levelo://app?vid=35c3f807-24e7-4171-8112-6d272f635dd8","ios":"levelo://app?vid=35c3f807-24e7-4171-8112-6d272f635dd8"},"vehicle_type_id":"4","last_reported":1702332422,"current_range_meters":18000,"station_id":"ce4bhm12rcd13ifvqgkg","pricing_plan_id":"free"},{"bike_id":"d0e907f7-7026-4fee-ae1b-2f3332fde590","system_id":"levelo_inurba_marseille","lat":43.24693,"lon":5.382096,"is_reserved":false,"is_disabled":false,"rental_uris":{"android":"levelo://app?vid=d0e907f7-7026-4fee-ae1b-2f3332fde590","ios":"levelo://app?vid=d0e907f7-7026-4fee-ae1b-2f3332fde590"},"vehicle_type_id":"4","last_reported":1702332422,"current_range_meters":18000,"station_id":"ce4bhih2rcd13ifvqfr0","pricing_plan_id":"free"},{"bike_id":"69fc94e6-d1dc-4eac-bba9-0be2d0c272a6","system_id":"levelo_inurba_marseille","lat":43.24693,"lon":5.382096,"is_reserved":false,"is_disabled":false,"rental_uris":{"android":"levelo://app?vid=69fc94e6-d1dc-4eac-bba9-0be2d0c272a6","ios":"levelo://app?vid=69fc94e6-d1dc-4eac-bba9-0be2d0c272a6"},"vehicle_type_id":"4","last_reported":1702332422,"current_range_meters":31200,"station_id":"ce4bhih2rcd13ifvqfr0","pricing_plan_id":"free"},{"bike_id":"bfbd63b6-a516-45cb-9399-3f622db645ca","system_id":"levelo_inurba_marseille","lat":43.24659,"lon":5.38157,"is_reserved":false,"is_disabled":false,"rental_uris":{"android":"levelo://app?vid=bfbd63b6-a516-45cb-9399-3f622db645ca","ios":"levelo://app?vid=bfbd63b6-a516-45cb-9399-3f622db645ca"},"vehicle_type_id":"4","last_reported":1702332422,"current_range_meters":9200,"station_id":"ce4bhih2rcd13ifvqfr0","pricing_plan_id":"free"},{"bike_id":"0f7fd2ef-e6a4-4938-875f-ee0fc362106e","system_id":"levelo_inurba_marseille","lat":43.24693,"lon":5.382096,"is_reserved":false,"is_disabled":false,"rental_uris":{"android":"levelo://app?vid=0f7fd2ef-e6a4-4938-875f-ee0fc362106e","ios":"levelo://app?vid=0f7fd2ef-e6a4-4938-875f-ee0fc362106e"},"vehicle_type_id":"4","last_reported":1702332422,"current_range_meters":25600,"station_id":"ce4bhih2rcd13ifvqfr0","pricing_plan_id":"free"},{"bike_id":"b03db1f2-f2fa-439e-8d38-11ec73737c50","system_id":"levelo_inurba_marseille","lat":43.25102,"lon":5.403214,"is_reserved":false,"is_disabled":false,"rental_uris":{"android":"levelo://app?vid=b03db1f2-f2fa-439e-8d38-11ec73737c50","ios":"levelo://app?vid=b03db1f2-f2fa-439e-8d38-11ec73737c50"},"vehicle_type_id":"4","last_reported":1702332422,"current_range_meters":8400,"station_id":"ce4bhlh2rcd13ifvqgig","pricing_plan_id":"free"},{"bike_id":"fb6f1718-29f6-420f-b0f1-d655cd3993dd","system_id":"levelo_inurba_marseille","lat":43.25102,"lon":5.403214,"is_reserved":false,"is_disabled":false,"rental_uris":{"android":"levelo://app?vid=fb6f1718-29f6-420f-b0f1-d655cd3993dd","ios":"levelo://app?vid=fb6f1718-29f6-420f-b0f1-d655cd3993dd"},"vehicle_type_id":"4","last_reported":1702332422,"current_range_meters":8400,"station_id":"ce4bhlh2rcd13ifvqgig","pricing_plan_id":"free"},{"bike_id":"671fd304-39cb-4a72-bcb4-29e963a5ecab","system_id":"levelo_inurba_marseille","lat":43.25102,"lon":5.403214,"is_reserved":false,"is_disabled":false,"rental_uris":{"android":"levelo://app?vid=671fd304-39cb-4a72-bcb4-29e963a5ecab","ios":"levelo://app?vid=671fd304-39cb-4a72-bcb4-29e963a5ecab"},"vehicle_type_id":"4","last_reported":1702332422,"current_range_meters":20800,"station_id":"ce4bhlh2rcd13ifvqgig","pricing_plan_id":"free"},{"bike_id":"5aa7b1d3-3cd1-4119-bb73-0b16d8180d87","system_id":"levelo_inurba_marseille","lat":43.243884,"lon":5.370736,"is_reserved":false,"is_disabled":false,"rental_uris":{"android":"levelo://app?vid=5aa7b1d3-3cd1-4119-bb73-0b16d8180d87","ios":"levelo://app?vid=5aa7b1d3-3cd1-4119-bb73-0b16d8180d87"},"vehicle_type_id":"4","last_reported":1702332422,"current_range_meters":29600,"station_id":"ce4bhhh2rcd13ifvqfk0","pricing_plan_id":"free"},{"bike_id":"846961d7-979a-4ad3-956d-a81bed603614","system_id":"levelo_inurba_marseille","lat":43.246398,"lon":5.396581,"is_reserved":false,"is_disabled":false,"rental_uris":{"android":"levelo://app?vid=846961d7-979a-4ad3-956d-a81bed603614","ios":"levelo://app?vid=846961d7-979a-4ad3-956d-a81bed603614"},"vehicle_type_id":"4","last_reported":1702332422,"current_range_meters":800,"station_id":"","pricing_plan_id":"free"},{"bike_id":"8adc57dc-5f99-4b7f-82a8-97089dc07b4b","system_id":"levelo_inurba_marseille","lat":43.240623,"lon":5.377642,"is_reserved":false,"is_disabled":false,"rental_uris":{"android":"levelo://app?vid=8adc57dc-5f99-4b7f-82a8-97089dc07b4b","ios":"levelo://app?vid=8adc57dc-5f99-4b7f-82a8-97089dc07b4b"},"vehicle_type_id":"4","last_reported":1702332422,"current_range_meters":19600,"station_id":"ce4bhnp2rcd13ifvqgvg","pricing_plan_id":"free"},{"bike_id":"d04c4a42-99c3-4376-a5db-a7660c958c9c","system_id":"levelo_inurba_marseille","lat":43.241782,"lon":5.397261,"is_reserved":false,"is_disabled":false,"rental_uris":{"android":"levelo://app?vid=d04c4a42-99c3-4376-a5db-a7660c958c9c","ios":"levelo://app?vid=d04c4a42-99c3-4376-a5db-a7660c958c9c"},"vehicle_type_id":"4","last_reported":1702332422,"current_range_meters":16000,"station_id":"ce4bhn12rcd13ifvqgpg","pricing_plan_id":"free"},{"bike_id":"65a732be-a23e-4899-8cd3-be07a2e68d78","system_id":"levelo_inurba_marseille","lat":43.231793,"lon":5.400044,"is_reserved":false,"is_disabled":false,"rental_uris":{"android":"levelo://app?vid=65a732be-a23e-4899-8cd3-be07a2e68d78","ios":"levelo://app?vid=65a732be-a23e-4899-8cd3-be07a2e68d78"},"vehicle_type_id":"4","last_reported":1702332422,"current_range_meters":28800,"station_id":"ce4bhn12rcd13ifvqgqg","pricing_plan_id":"free"},{"bike_id":"baec5ab2-8c78-4d0a-9686-1f92b4ce0853","system_id":"levelo_inurba_marseille","lat":43.231794,"lon":5.400052,"is_reserved":false,"is_disabled":false,"rental_uris":{"android":"levelo://app?vid=baec5ab2-8c78-4d0a-9686-1f92b4ce0853","ios":"levelo://app?vid=baec5ab2-8c78-4d0a-9686-1f92b4ce0853"},"vehicle_type_id":"4","last_reported":1702332422,"current_range_meters":9200,"station_id":"ce4bhn12rcd13ifvqgqg","pricing_plan_id":"free"},{"bike_id":"d4216b28-6573-4e3c-9c6e-b1f827f4d9da","system_id":"levelo_inurba_marseille","lat":43.231794,"lon":5.400052,"is_reserved":false,"is_disabled":false,"rental_uris":{"android":"levelo://app?vid=d4216b28-6573-4e3c-9c6e-b1f827f4d9da","ios":"levelo://app?vid=d4216b28-6573-4e3c-9c6e-b1f827f4d9da"},"vehicle_type_id":"4","last_reported":1702332422,"current_range_meters":29200,"station_id":"ce4bhn12rcd13ifvqgqg","pricing_plan_id":"free"},{"bike_id":"e1137782-3e3d-499c-a61d-e2c68dc9df2e","system_id":"levelo_inurba_marseille","lat":43.231794,"lon":5.400052,"is_reserved":false,"is_disabled":false,"rental_uris":{"android":"levelo://app?vid=e1137782-3e3d-499c-a61d-e2c68dc9df2e","ios":"levelo://app?vid=e1137782-3e3d-499c-a61d-e2c68dc9df2e"},"vehicle_type_id":"4","last_reported":1702332422,"current_range_meters":24400,"station_id":"ce4bhn12rcd13ifvqgqg","pricing_plan_id":"free"},{"bike_id":"fe1c62d5-b8f6-41e6-a698-0df3bdc6e8ea","system_id":"levelo_inurba_marseille","lat":43.231562,"lon":5.436933,"is_reserved":false,"is_disabled":false,"rental_uris":{"android":"levelo://app?vid=fe1c62d5-b8f6-41e6-a698-0df3bdc6e8ea","ios":"levelo://app?vid=fe1c62d5-b8f6-41e6-a698-0df3bdc6e8ea"},"vehicle_type_id":"4","last_reported":1702332422,"current_range_meters":21200,"station_id":"ce4bhmp2rcd13ifvqgog","pricing_plan_id":"free"}]}}