{"last_updated":1773301082,"ttl":60,"version":"2.2","data":{"bikes":[{"bike_id":"9c7c0599-81fc-45e6-a38c-eebbcbcc0594","system_id":"levelo_inurba_marseille","lat":43.27954,"lon":5.38752,"is_reserved":false,"is_disabled":false,"rental_uris":{"android":"levelo://app?vid=9c7c0599-81fc-45e6-a38c-eebbcbcc0594","ios":"levelo://app?vid=9c7c0599-81fc-45e6-a38c-eebbcbcc0594"},"vehicle_type_id":"4","last_reported":1773301082,"current_range_meters":9200,"station_id":"ce4bhg12rcd13ifvqf80","pricing_plan_id":"cebpf4jnsgd1na2vs0mg"},{"bike_id":"6768b180-bce9-4c1c-8522-6e9ab135b4f0","system_id":"levelo_inurba_marseille","lat":43.29047,"lon":5.39938,"is_reserved":false,"is_disabled":false,"rental_uris":{"android":"levelo://app?vid=6768b180-bce9-4c1c-8522-6e9ab135b4f0","ios":"levelo://app?vid=6768b180-bce9-4c1c-8522-6e9ab135b4f0"},"vehicle_type_id":"4","last_reported":1773301082,"current_range_meters":40000,"station_id":"ce4bh392rcd13ifvqdm0","pricing_plan_id":"cebpf4jnsgd1na2vs0mg"},{"bike_id":"3b1d8790-5d02-4b5f-8989-319c6c483703","system_id":"levelo_inurba_marseille","lat":43.28452,"lon":5.39184,"is_reserved":false,"is_disabled":false,"rental_uris":{"android":"levelo://app?vid=3b1d8790-5d02-4b5f-8989-319c6c483703","ios":"levelo://app?vid=3b1d8790-5d02-4b5f-8989-319c6c483703"},"vehicle_type_id":"4","last_reported":1773301082,"current_range_meters":35200,"station_id":"ce4bhoh2rcd13ifvqh5g","pricing_plan_id":"cebpf4jnsgd1na2vs0mg"},{"bike_id":"667489a9-5e67-403e-9484-87dd99ac8c18","system_id":"levelo_inurba_marseille","lat":43.29049,"lon":5.39976,"is_reserved":false,"is_disabled":false,"rental_uris":{"android":"levelo://app?vid=667489a9-5e67-403e-9484-87dd99ac8c18","ios":"levelo://app?vid=667489a9-5e67-403e-9484-87dd99ac8c18"},"vehicle_type_id":"4","last_reported":1773301082,"current_range_meters":39200,"station_id":"ce4bh392rcd13ifvqdm0","pricing_plan_id":"cebpf4jnsgd1na2vs0mg"},{"bike_id":"0551c756-ca94-4501-b375-2f058f30a99e","system_id":"levelo_inurba_marseille","lat":43.2853,"lon":5.44099,"is_reserved":false,"is_disabled":false,"rental_uris":{"android":"levelo://app?vid=0551c756-ca94-4501-b375-2f058f30a99e","ios":"levelo://app?vid=0551c756-ca94-4501-b375-2f058f30a99e"},"vehicle_type_id":"4","last_reported":1773301082,"current_range_meters":17200,"station_id":"st_d3j3df2ikq2c7380ej80","pricing_plan_id":"cebpf4jnsgd1na2vs0mg"},{"bike_id":"4d2ed247-c300-416c-8c6f-d2ecc9f55d1f","system_id":"levelo_inurba_marseille","lat":43.29259,"lon":5.40144,"is_reserved":false,"is_disabled":false,"rental_uris":{"android":"levelo://app?vid=4d2ed247-c300-416c-8c6f-d2ecc9f55d1f","ios":"levelo://app?vid=4d2ed247-c300-416c-8c6f-d2ecc9f55d1f"},"vehicle_type_id":"4","last_reported":1773301082,"current_range_meters":9600,"station_id":"ce4bh312rcd13ifvqdk0","pricing_plan_id":"cebpf4jnsgd1na2vs0mg"},{"bike_id":"2dde38a6-7040-4591-b258-f00f6d384fc3","system_id":"levelo_inurba_marseille","lat":43.33014,"lon":5.39049,"is_reserved":false,"is_disabled":false,"rental_uris":{"android":"levelo://app?vid=2dde38a6-7040-4591-b258-f00f6d384fc3","ios":"levelo://app?vid=2dde38a6-7040-4591-b258-f00f6d384fc3"},"vehicle_type_id":"4","last_reported":1773301082,"current_range_meters":38400,"station_id":"ce4bhr92rcd13ifvqhrg","pricing_plan_id":"cebpf4jnsgd1na2vs0mg"},{"bike_id":"5061e64b-7a6f-416d-95f6-434ea56b6a99","system_id":"levelo_inurba_marseille","lat":43.3464,"lon":5.36722,"is_reserved":false,"is_disabled":false,"rental_uris":{"android":"levelo://app?vid=5061e64b-7a6f-416d-95f6-434ea56b6a99","ios":"levelo://app?vid=5061e64b-7a6f-416d-95f6-434ea56b6a99"},"vehicle_type_id":"4","last_reported":1773301082,"current_range_meters":26000,"station_id":"","pricing_plan_id":"cebpf4jnsgd1na2vs0mg"},{"bike_id":"4d4392ad-1317-428d-95a4-1044e6c4b5c3","system_id":"levelo_inurba_marseille","lat":43.26369,"lon":5.41078,"is_reserved":false,"is_disabled":false,"rental_uris":{"android":"levelo://app?vid=4d4392ad-1317-428d-95a4-1044e6c4b5c3","ios":"levelo://app?vid=4d4392ad-1317-428d-95a4-1044e6c4b5c3"},"vehicle_type_id":"4","last_reported":1773301082,"current_range_meters":28000,"station_id":"st_d4e5ca6na9uc73bfl5fg","pricing_plan_id":"cebpf4jnsgd1na2vs0mg"},{"bike_id":"9faea34b-1c48-4a1b-8f51-2bafe5184a50","system_id":"levelo_inurba_marseille","lat":43.28477,"lon":5.48396,"is_reserved":false,"is_disabled":false,"rental_uris":{"android":"levelo://app?vid=9faea34b-1c48-4a1b-8f51-2bafe5184a50","ios":"levelo://app?vid=9faea34b-1c48-4a1b-8f51-2bafe5184a50"},"vehicle_type_id":"4","last_reported":1773301082,"current_range_meters":32000,"station_id":"","pricing_plan_id":"cebpf4jnsgd1na2vs0mg"},{"bike_id":"bd0135ea-2cde-4c88-9947-7d16e31861df","system_id":"levelo_inurba_marseille","lat":43.30915,"lon":5.37217,"is_reserved":false,"is_disabled":false,"rental_uris":{"android":"levelo://app?vid=bd0135ea-2cde-4c88-9947-7d16e31861df","ios":"levelo://app?vid=bd0135ea-2cde-4c88-9947-7d16e31861df"},"vehicle_type_id":"4","last_reported":1773301082,"current_range_meters":28800,"station_id":"ce4bguh2rcd13ifvqckg","pricing_plan_id":"cebpf4jnsgd1na2vs0mg"},{"bike_id":"d427d34d-e739-4c0f-a843-74b85111544b","system_id":"levelo_inurba_marseille","lat":43.33162,"lon":5.37692,"is_reserved":false,"is_disabled":false,"rental_uris":{"android":"levelo://app?vid=d427d34d-e739-4c0f-a843-74b85111544b","ios":"levelo://app?vid=d427d34d-e739-4c0f-a843-74b85111544b"},"vehicle_type_id":"4","last_reported":1773301082,"current_range_meters":22400,"station_id":"st_d46cu089ee8s73dldbu0","pricing_plan_id":"cebpf4jnsgd1na2vs0mg"},{"bike_id":"83ebcb17-743b-4854-ac06-f5209541dfe1","system_id":"levelo_inurba_marseille","lat":43.29633,"lon":5.37178,"is_reserved":false,"is_disabled":false,"rental_uris":{"android":"levelo://app?vid=83ebcb17-743b-4854-ac06-f5209541dfe1","ios":"levelo://app?vid=83ebcb17-743b-4854-ac06-f5209541dfe1"},"vehicle_type_id":"4","last_reported":1773301082,"current_range_meters":39200,"station_id":"ce4bgnh2rcd13ifvqc0g","pricing_plan_id":"cebpf4jnsgd1na2vs0mg"},{"bike_id":"6d331a83-28a7-4754-bf56-1eec6384f11e","system_id":"levelo_inurba_marseille","lat":43.31484,"lon":5.37308,"is_reserved":false,"is_disabled":false,"rental_uris":{"android":"levelo://app?vid=6d331a83-28a7-4754-bf56-1eec6384f11e","ios":"levelo://app?vid=6d331a83-28a7-4754-bf56-1eec6384f11e"},"vehicle_type_id":"4","last_reported":1773301082,"current_range_meters":6800,"station_id":"ce4bgt12rcd13ifvqcd0","pricing_plan_id":"cebpf4jnsgd1na2vs0mg"},{"bike_id":"c943c8f2-fd97-497f-b02c-47e60712859d","system_id":"levelo_inurba_marseille","lat":43.25839,"lon":5.39434,"is_reserved":false,"is_disabled":false,"rental_uris":{"android":"levelo://app?vid=c943c8f2-fd97-497f-b02c-47e60712859d","ios":"levelo://app?vid=c943c8f2-fd97-497f-b02c-47e60712859d"},"vehicle_type_id":"4","last_reported":1773301082,"current_range_meters":24800,"station_id":"ce4bhip2rcd13ifvqft0","pricing_plan_id":"cebpf4jnsgd1na2vs0mg"},{"bike_id":"fe382dc0-038e-4483-ae70-40aa3797b467","system_id":"levelo_inurba_marseille","lat":43.26929,"lon":5.38647,"is_reserved":false,"is_disabled":false,"rental_uris":{"android":"levelo://app?vid=fe382dc0-038e-4483-ae70-40aa3797b467","ios":"levelo://app?vid=fe382dc0-038e-4483-ae70-40aa3797b467"},"vehicle_type_id":"4","last_reported":1773301082,"current_range_meters":9600,"station_id":"ce4bhh92rcd13ifvqfh0","pricing_plan_id":"cebpf4jnsgd1na2vs0mg"},{"bike_id":"74416b9c-bef9-4bc8-aa9d-2ca22ef8a2d5","system_id":"levelo_inurba_marseille","lat":43.30152,"lon":5.38067,"is_reserved":false,"is_disabled":false,"rental_uris":{"android":"levelo://app?vid=74416b9c-bef9-4bc8-aa9d-2ca22ef8a2d5","ios":"levelo://app?vid=74416b9c-bef9-4bc8-aa9d-2ca22ef8a2d5"},"vehicle_type_id":"4","last_reported":1773301082,"current_range_meters":17600,"station_id":"","pricing_plan_id":"cebpf4jnsgd1na2vs0mg"},{"bike_id":"b5a70d44-6cd2-4596-a9b3-e82e9858ce0d","system_id":"levelo_inurba_marseille","lat":43.30546,"lon":5.36528,"is_reserved":false,"is_disabled":false,"rental_uris":{"android":"levelo://app?vid=b5a70d44-6cd2-4596-a9b3-e82e9858ce0d","ios":"levelo://app?vid=b5a70d44-6cd2-4596-a9b3-e82e9858ce0d"},"vehicle_type_id":"4","last_reported":1773301082,"current_range_meters":3200,"station_id":"ce4bgs12rcd13ifvqcag","pricing_plan_id":"cebpf4jnsgd1na2vs0mg"},{"bike_id":"6817a9da-9214-48d8-a346-d5c658bb35d2","system_id":"levelo_inurba_marseille","lat":43.2973,"lon":5.37684,"is_reserved":false,"is_disabled":false,"rental_uris":{"android":"levelo://app?vid=6817a9da-9214-48d8-a346-d5c658bb35d2","ios":"levelo://app?vid=6817a9da-9214-48d8-a346-d5c658bb35d2"},"vehicle_type_id":"4","last_reported":1773301082,"current_range_meters":20800,"station_id":"ce4bgkh2rcd13ifvqbl0","pricing_plan_id":"cebpf4jnsgd1na2vs0mg"},{"bike_id":"fee06328-0848-48be-bb8b-947aae963eba","system_id":"levelo_inurba_marseille","lat":43.30491,"lon":5.36706,"is_reserved":false,"is_disabled":false,"rental_uris":{"android":"levelo://app?vid=fee06328-0848-48be-bb8b-947aae963eba","ios":"levelo://app?vid=fee06328-0848-48be-bb8b-947aae963eba"},"vehicle_type_id":"4","last_reported":1773301082,"current_range_meters":40000,"station_id":"ce4bgrp2rcd13ifvqc9g","pricing_plan_id":"cebpf4jnsgd1na2vs0mg"},{"bike_id":"b93a357c-54e0-4442-be00-cbc58767907f","system_id":"levelo_inurba_marseille","lat":43.32044,"lon":5.4157,"is_reserved":false,"is_disabled":false,"rental_uris":{"android":"levelo://app?vid=b93a357c-54e0-4442-be00-cbc58767907f","ios":"levelo://app?vid=b93a357c-54e0-4442-be00-cbc58767907f"},"vehicle_type_id":"4","last_reported":1773301082,"current_range_meters":37600,"station_id":"ce4bhq92rcd13ifvqhkg","pricing_plan_id":"cebpf4jnsgd1na2vs0mg"},{"bike_id":"c1ec77a3-84f4-47db-94b6-6aec401b4b2a","system_id":"levelo_inurba_marseille","lat":43.29601,"lon":5.38093,"is_reserved":false,"is_disabled":false,"rental_uris":{"android":"levelo://app?vid=c1ec77a3-84f4-47db-94b6-6aec401b4b2a","ios":"levelo://app?vid=c1ec77a3-84f4-47db-94b6-6aec401b4b2a"},"vehicle_type_id":"4","last_reported":1773301082,"current_range_meters":17600,"station_id":"ce4bgl12rcd13ifvqbo0","pricing_plan_id":"cebpf4jnsgd1na2vs0mg"},{"bike_id":"55bcc017-9e41-40f3-a9de-397b47690482","system_id":"levelo_inurba_marseille","lat":43.32663,"lon":5.41256,"is_reserved":false,"is_disabled":false,"rental_uris":{"android":"levelo://app?vid=55bcc017-9e41-40f3-a9de-397b47690482","ios":"levelo://app?vid=55bcc017-9e41-40f3-a9de-397b47690482"},"vehicle_type_id":"4","last_reported":1773301082,"current_range_meters":38400,"station_id":"","pricing_plan_id":"cebpf4jnsgd1na2vs0mg"},{"bike_id":"ed701d5d-010e-43b3-aff1-bb3197aa0d5a","system_id":"levelo_inurba_marseille","lat":43.30348,"lon":5.41895,"is_reserved":false,"is_disabled":false,"rental_uris":{"android":"levelo://app?vid=ed701d5d-010e-43b3-aff1-bb3197aa0d5a","ios":"levelo://app?vid=ed701d5d-010e-43b3-aff1-bb3197aa0d5a"},"vehicle_type_id":"4","last_reported":1773301082,"current_range_meters":40000,"station_id":"ce4bhop2rcd13ifvqh7g","pricing_plan_id":"cebpf4jnsgd1na2vs0mg"},{"bike_id":"f18a97ed-e43a-4a4a-9a1c-f27f3fa368f5","system_id":"levelo_inurba_marseille","lat":43.27957,"lon":5.41039,"is_reserved":false,"is_disabled":false,"rental_uris":{"android":"levelo://app?vid=f18a97ed-e43a-4a4a-9a1c-f27f3fa368f5","ios":"levelo://app?vid=f18a97ed-e43a-4a4a-9a1c-f27f3fa368f5"},"vehicle_type_id":"4","last_reported":1773301082,"current_range_meters":17200,"station_id":"ce4bhnp2rcd13ifvqh0g","pricing_plan_id":"cebpf4jnsgd1na2vs0mg"},{"bike_id":"6e19cedf-1d2d-4934-b74b-ca0eef137772","system_id":"levelo_inurba_marseille","lat":43.3036,"lon":5.42487,"is_reserved":false,"is_disabled":false,"rental_uris":{"android":"levelo://app?vid=6e19cedf-1d2d-4934-b74b-ca0eef137772","ios":"levelo://app?vid=6e19cedf-1d2d-4934-b74b-ca0eef137772"},"vehicle_type_id":"4","last_reported":1773301082,"current_range_meters":33600,"station_id":"ce4bhoh2rcd13ifvqh6g","pricing_plan_id":"cebpf4jnsgd1na2vs0mg"},{"bike_id":"2910c25c-8e17-4198-83e3-9b82182f5216","system_id":"levelo_inurba_marseille","lat":43.24182,"lon":5.36387,"is_reserved":false,"is_disabled":false,"rental_uris":{"android":"levelo://app?vid=2910c25c-8e17-4198-83e3-9b82182f5216","ios":"levelo://app?vid=2910c25c-8e17-4198-83e3-9b82182f5216"},"vehicle_type_id":"4","last_reported":1773301082,"current_range_meters":30400,"station_id":"cpo36qri1sfpv3e86is0","pricing_plan_id":"cebpf4jnsgd1na2vs0mg"},{"bike_id":"b4c5f4b8-a1ad-40fa-afb2-512ebcf9ac7a","system_id":"levelo_inurba_marseille","lat":43.3012,"lon":5.38788,"is_reserved":false,"is_disabled":true,"rental_uris":{"android":"levelo://app?vid=b4c5f4b8-a1ad-40fa-afb2-512ebcf9ac7a","ios":"levelo://app?vid=b4c5f4b8-a1ad-40fa-afb2-512ebcf9ac7a"},"vehicle_type_id":"4","last_reported":1773301082,"current_range_meters":38000,"station_id":"ce4bghh2rcd13ifvqb60","pricing_plan_id":"cebpf4jnsgd1na2vs0mg"},{"bike_id":"4d63ba94-123a-40ef-a00b-9f058c52b926","system_id":"levelo_inurba_marseille","lat":43.31271,"lon":5.36879,"is_reserved":false,"is_disabled":false,"rental_uris":{"android":"levelo://app?vid=4d63ba94-123a-40ef-a00b-9f058c52b926","ios":"levelo://app?vid=4d63ba94-123a-40ef-a00b-9f058c52b926"},"vehicle_type_id":"4","last_reported":1773301082,"current_range_meters":20000,"station_id":"ce4bgl92rcd13ifvqbq0","pricing_plan_id":"cebpf4jnsgd1na2vs0mg"},{"bike_id":"23ba3335-938f-476f-a82c-5f731a0f3a9b","system_id":"levelo_inurba_marseille","lat":43.31192,"lon":5.3685,"is_reserved":false,"is_disabled":false,"rental_uris":{"android":"levelo://app?vid=23ba3335-938f-476f-a82c-5f731a0f3a9b","ios":"levelo://app?vid=23ba3335-938f-476f-a82c-5f731a0f3a9b"},"vehicle_type_id":"4","last_reported":1773301082,"current_range_meters":7200,"station_id":"ce4bgl92rcd13ifvqbq0","pricing_plan_id":"cebpf4jnsgd1na2vs0mg"},{"bike_id":"22048dba-791d-40fe-8f4b-149144b0d986","system_id":"levelo_inurba_marseille","lat":43.30208,"lon":5.36585,"is_reserved":false,"is_disabled":false,"rental_uris":{"android":"levelo://app?vid=22048dba-791d-40fe-8f4b-149144b0d986","ios":"levelo://app?vid=22048dba-791d-40fe-8f4b-149144b0d986"},"vehicle_type_id":"4","last_reported":1773301082,"current_range_meters":13600,"station_id":"ce4bgrh2rcd13ifvqc8g","pricing_plan_id":"cebpf4jnsgd1na2vs0mg"},{"bike_id":"685652b3-4e5a-4f02-9096-367949dc6676","system_id":"levelo_inurba_marseille","lat":43.29626,"lon":5.37712,"is_reserved":false,"is_disabled":true,"rental_uris":{"android":"levelo://app?vid=685652b3-4e5a-4f02-9096-367949dc6676","ios":"levelo://app?vid=685652b3-4e5a-4f02-9096-367949dc6676"},"vehicle_type_id":"4","last_reported":1773301082,"current_range_meters":28800,"station_id":"ce4bgi92rcd13ifvqb90","pricing_plan_id":"cebpf4jnsgd1na2vs0mg"},{"bike_id":"cfdcc226-98a9-40cc-ab94-5dcbeb67234b","system_id":"levelo_inurba_marseille","lat":43.29916,"lon":5.37494,"is_reserved":false,"is_disabled":false,"rental_uris":{"android":"levelo://app?vid=cfdcc226-98a9-40cc-ab94-5dcbeb67234b","ios":"levelo://app?vid=cfdcc226-98a9-40cc-ab94-5dcbeb67234b"},"vehicle_type_id":"4","last_reported":1773301082,"current_range_meters":40000,"station_id":"ce4bgjh2rcd13ifvqbg0","pricing_plan_id":"cebpf4jnsgd1na2vs0mg"},{"bike_id":"ce511df9-4784-459c-acbc-9c1c2ee2387f","system_id":"levelo_inurba_marseille","lat":43.26936,"lon":5.40263,"is_reserved":false,"is_disabled":false,"rental_uris":{"android":"levelo://app?vid=ce511df9-4784-459c-acbc-9c1c2ee2387f","ios":"levelo://app?vid=ce511df9-4784-459c-acbc-9c1c2ee2387f"},"vehicle_type_id":"4","last_reported":1773301082,"current_range_meters":30400,"station_id":"cjm6bp8fraef2m0cb0m0","pricing_plan_id":"cebpf4jnsgd1na2vs0mg"},{"bike_id":"182982c2-ad4b-4720-99b5-ac2ca378f95a","system_id":"levelo_inurba_marseille","lat":43.24675,"lon":5.38195,"is_reserved":false,"is_disabled":false,"rental_uris":{"android":"levelo://app?vid=182982c2-ad4b-4720-99b5-ac2ca378f95a","ios":"levelo://app?vid=182982c2-ad4b-4720-99b5-ac2ca378f95a"},"vehicle_type_id":"4","last_reported":1773301082,"current_range_meters":39200,"station_id":"ce4bhih2rcd13ifvqfr0","pricing_plan_id":"cebpf4jnsgd1na2vs0mg"},{"bike_id":"12fb0a3b-0411-4b2b-8082-15a7f0d13467","system_id":"levelo_inurba_marseille","lat":43.25917,"lon":5.40889,"is_reserved":false,"is_disabled":false,"rental_uris":{"android":"levelo://app?vid=12fb0a3b-0411-4b2b-8082-15a7f0d13467","ios":"levelo://app?vid=12fb0a3b-0411-4b2b-8082-15a7f0d13467"},"vehicle_type_id":"4","last_reported":1773301082,"current_range_meters":10000,"station_id":"ce4bhm92rcd13ifvqglg","pricing_plan_id":"cebpf4jnsgd1na2vs0mg"},{"bike_id":"2d139dbe-4a51-46ac-bf7e-5e630dc6608b","system_id":"levelo_inurba_marseille","lat":43.30912,"lon":5.38272,"is_reserved":false,"is_disabled":false,"rental_uris":{"android":"levelo://app?vid=2d139dbe-4a51-46ac-bf7e-5e630dc6608b","ios":"levelo://app?vid=2d139dbe-4a51-46ac-bf7e-5e630dc6608b"},"vehicle_type_id":"4","last_reported":1773301082,"current_range_meters":16400,"station_id":"","pricing_plan_id":"cebpf4jnsgd1na2vs0mg"},{"bike_id":"4bb62ff6-d74f-463a-b8b6-6cc2683cb41d","system_id":"levelo_inurba_marseille","lat":43.30137,"lon":5.37404,"is_reserved":false,"is_disabled":false,"rental_uris":{"android":"levelo://app?vid=4bb62ff6-d74f-463a-b8b6-6cc2683cb41d","ios":"levelo://app?vid=4bb62ff6-d74f-463a-b8b6-6cc2683cb41d"},"vehicle_type_id":"4","last_reported":1773301082,"current_range_meters":40000,"station_id":"ce4bgs92rcd13ifvqcc0","pricing_plan_id":"cebpf4jnsgd1na2vs0mg"},{"bike_id":"1203a036-e28c-4847-b52e-5b6c307c477b","system_id":"levelo_inurba_marseille","lat":43.3317,"lon":5.3778,"is_reserved":false,"is_disabled":false,"rental_uris":{"android":"levelo://app?vid=1203a036-e28c-4847-b52e-5b6c307c477b","ios":"levelo://app?vid=1203a036-e28c-4847-b52e-5b6c307c477b"},"vehicle_type_id":"4","last_reported":1773301082,"current_range_meters":8000,"station_id":"st_d46cu089ee8s73dldbu0","pricing_plan_id":"cebpf4jnsgd1na2vs0mg"},{"bike_id":"17ce7070-d813-4eaf-a544-6259968aa271","system_id":"levelo_inurba_marseille","lat":43.31144,"lon":5.36911,"is_reserved":false,"is_disabled":false,"rental_uris":{"android":"levelo://app?vid=17ce7070-d813-4eaf-a544-6259968aa271","ios":"levelo://app?vid=17ce7070-d813-4eaf-a544-6259968aa271"},"vehicle_type_id":"4","last_reported":1773301082,"current_range_meters":6400,"station_id":"","pricing_plan_id":"cebpf4jnsgd1na2vs0mg"},{"bike_id":"149775d8-c772-45f9-afbd-6e4a652723d7","system_id":"levelo_inurba_marseille","lat":43.337444,"lon":5.374475,"is_reserved":false,"is_disabled":true,"rental_uris":{"android":"levelo://app?vid=149775d8-c772-45f9-afbd-6e4a652723d7","ios":"levelo://app?vid=149775d8-c772-45f9-afbd-6e4a652723d7"},"vehicle_type_id":"4","last_reported":1773301082,"current_range_meters":2800,"station_id":"","pricing_plan_id":"cebpf4jnsgd1na2vs0mg"},{"bike_id":"1836e166-b457-4410-82cc-048e879c1f3a","system_id":"levelo_inurba_marseille","lat":43.30951,"lon":5.39051,"is_reserved":false,"is_disabled":false,"rental_uris":{"android":"levelo://app?vid=1836e166-b457-4410-82cc-048e879c1f3a","ios":"levelo://app?vid=1836e166-b457-4410-82cc-048e879c1f3a"},"vehicle_type_id":"4","last_reported":1773301082,"current_range_meters":39200,"station_id":"ce4bgup2rcd13ifvqco0","pricing_plan_id":"cebpf4jnsgd1na2vs0mg"},{"bike_id":"84edac93-97f0-4f16-980c-7e1b057bc44a","system_id":"levelo_inurba_marseille","lat":43.26797,"lon":5.40291,"is_reserved":false,"is_disabled":true,"rental_uris":{"android":"levelo://app?vid=84edac93-97f0-4f16-980c-7e1b057bc44a","ios":"levelo://app?vid=84edac93-97f0-4f16-980c-7e1b057bc44a"},"vehicle_type_id":"4","last_reported":1773301082,"current_range_meters":24000,"station_id":"ce501612rcd8frsf0b60","pricing_plan_id":"cebpf4jnsgd1na2vs0mg"},{"bike_id":"16ced00d-b75b-480f-bfe3-587817c52078","system_id":"levelo_inurba_marseille","lat":43.24648,"lon":5.38925,"is_reserved":false,"is_disabled":false,"rental_uris":{"android":"levelo://app?vid=16ced00d-b75b-480f-bfe3-587817c52078","ios":"levelo://app?vid=16ced00d-b75b-480f-bfe3-587817c52078"},"vehicle_type_id":"4","last_reported":1773301082,"current_range_meters":36400,"station_id":"ce4bhg12rcd13ifvqf60","pricing_plan_id":"cebpf4jnsgd1na2vs0mg"},{"bike_id":"e293357f-e16e-4421-985a-6fcca102a16f","system_id":"levelo_inurba_marseille","lat":43.28373,"lon":5.38655,"is_reserved":false,"is_disabled":false,"rental_uris":{"android":"levelo://app?vid=e293357f-e16e-4421-985a-6fcca102a16f","ios":"levelo://app?vid=e293357f-e16e-4421-985a-6fcca102a16f"},"vehicle_type_id":"4","last_reported":1773301082,"current_range_meters":6400,"station_id":"ce4bh492rcd13ifvqdvg","pricing_plan_id":"cebpf4jnsgd1na2vs0mg"},{"bike_id":"0aaf8a38-8ee2-45ca-9bf5-b2801668689f","system_id":"levelo_inurba_marseille","lat":43.24391,"lon":5.37065,"is_reserved":false,"is_disabled":false,"rental_uris":{"android":"levelo://app?vid=0aaf8a38-8ee2-45ca-9bf5-b2801668689f","ios":"levelo://app?vid=0aaf8a38-8ee2-45ca-9bf5-b2801668689f"},"vehicle_type_id":"4","last_reported":1773301082,"current_range_meters":6800,"station_id":"ce4bhhh2rcd13ifvqfk0","pricing_plan_id":"cebpf4jnsgd1na2vs0mg"},{"bike_id":"566d1d1a-0852-4e0d-907b-e1334e0d6bf9","system_id":"levelo_inurba_marseille","lat":43.23789,"lon":5.36633,"is_reserved":false,"is_disabled":false,"rental_uris":{"android":"levelo://app?vid=566d1d1a-0852-4e0d-907b-e1334e0d6bf9","ios":"levelo://app?vid=566d1d1a-0852-4e0d-907b-e1334e0d6bf9"},"vehicle_type_id":"4","last_reported":1773301082,"current_range_meters":39200,"station_id":"st_d3nk18o9ro0c73en2l3g","pricing_plan_id":"cebpf4jnsgd1na2vs0mg"},{"bike_id":"e1b10850-3932-4fca-97b4-e1a58baccb55","system_id":"levelo_inurba_marseille","lat":43.30893,"lon":5.3719,"is_reserved":false,"is_disabled":false,"rental_uris":{"android":"levelo://app?vid=e1b10850-3932-4fca-97b4-e1a58baccb55","ios":"levelo://app?vid=e1b10850-3932-4fca-97b4-e1a58baccb55"},"vehicle_type_id":"4","last_reported":1773301082,"current_range_meters":23200,"station_id":"ce4bguh2rcd13ifvqckg","pricing_plan_id":"cebpf4jnsgd1na2vs0mg"},{"bike_id":"f96117d6-7d22-4b57-9564-78f617580e63","system_id":"levelo_inurba_marseille","lat":43.29194,"lon":5.35822,"is_reserved":false,"is_disabled":false,"rental_uris":{"android":"levelo://app?vid=f96117d6-7d22-4b57-9564-78f617580e63","ios":"levelo://app?vid=f96117d6-7d22-4b57-9564-78f617580e63"},"vehicle_type_id":"4","last_reported":1773301082,"current_range_meters":14400,"station_id":"ce4bhb12rcd13ifvqel0","pricing_plan_id":"cebpf4jnsgd1na2vs0mg"},{"bike_id":"02ffd4f8-78d0-4f83-92f5-2d0d7babe79f","system_id":"levelo_inurba_marseille","lat":43.30645,"lon":5.40076,"is_reserved":false,"is_disabled":false,"rental_uris":{"android":"levelo://app?vid=02ffd4f8-78d0-4f83-92f5-2d0d7babe79f","ios":"levelo://app?vid=02ffd4f8-78d0-4f83-92f5-2d0d7babe79f"},"vehicle_type_id":"4","last_reported":1773301082,"current_range_meters":6800,"station_id":"ce4bh112rcd13ifvqda0","pricing_plan_id":"cebpf4jnsgd1na2vs0mg"},{"bike_id":"1c573354-cf53-44d3-9111-eb37080df88e","system_id":"levelo_inurba_marseille","lat":43.31569,"lon":5.37392,"is_reserved":false,"is_disabled":false,"rental_uris":{"android":"levelo://app?vid=1c573354-cf53-44d3-9111-eb37080df88e","ios":"levelo://app?vid=1c573354-cf53-44d3-9111-eb37080df88e"},"vehicle_type_id":"4","last_reported":1773301082,"current_range_meters":14000,"station_id":"","pricing_plan_id":"cebpf4jnsgd1na2vs0mg"},{"bike_id":"74ac0a3e-5d07-4a64-ace3-8c1c26f2feff","system_id":"levelo_inurba_marseille","lat":43.30927,"lon":5.36861,"is_reserved":false,"is_disabled":true,"rental_uris":{"android":"levelo://app?vid=74ac0a3e-5d07-4a64-ace3-8c1c26f2feff","ios":"levelo://app?vid=74ac0a3e-5d07-4a64-ace3-8c1c26f2feff"},"vehicle_type_id":"4","last_reported":1773301082,"current_range_meters":38400,"station_id":"ce4bgn92rcd13ifvqbvg","pricing_plan_id":"cebpf4jnsgd1na2vs0mg"},{"bike_id":"088d4f38-9355-417b-825e-37d3ee0d6869","system_id":"levelo_inurba_marseille","lat":43.23177,"lon":5.39992,"is_reserved":false,"is_disabled":false,"rental_uris":{"android":"levelo://app?vid=088d4f38-9355-417b-825e-37d3ee0d6869","ios":"levelo://app?vid=088d4f38-9355-417b-825e-37d3ee0d6869"},"vehicle_type_id":"4","last_reported":1773301082,"current_range_meters":35600,"station_id":"ce4bhn12rcd13ifvqgqg","pricing_plan_id":"cebpf4jnsgd1na2vs0mg"},{"bike_id":"290affd8-9a09-4ca7-8cc6-b1a8e5ea56f6","system_id":"levelo_inurba_marseille","lat":43.28841,"lon":5.35856,"is_reserved":false,"is_disabled":false,"rental_uris":{"android":"levelo://app?vid=290affd8-9a09-4ca7-8cc6-b1a8e5ea56f6","ios":"levelo://app?vid=290affd8-9a09-4ca7-8cc6-b1a8e5ea56f6"},"vehicle_type_id":"4","last_reported":1773301082,"current_range_meters":16800,"station_id":"ce4bhb12rcd13ifvqem0","pricing_plan_id":"cebpf4jnsgd1na2vs0mg"},{"bike_id":"5da62214-3882-4c21-9cea-f26eb7d0f848","system_id":"levelo_inurba_marseille","lat":43.29797,"lon":5.3811,"is_reserved":false,"is_disabled":false,"rental_uris":{"android":"levelo://app?vid=5da62214-3882-4c21-9cea-f26eb7d0f848","ios":"levelo://app?vid=5da62214-3882-4c21-9cea-f26eb7d0f848"},"vehicle_type_id":"4","last_reported":1773301082,"current_range_meters":28800,"station_id":"ce4bgip2rcd13ifvqbb0","pricing_plan_id":"cebpf4jnsgd1na2vs0mg"},{"bike_id":"98a69b82-3426-4662-b314-8ddb62a05de5","system_id":"levelo_inurba_marseille","lat":43.30063,"lon":5.43727,"is_reserved":false,"is_disabled":false,"rental_uris":{"android":"levelo://app?vid=98a69b82-3426-4662-b314-8ddb62a05de5","ios":"levelo://app?vid=98a69b82-3426-4662-b314-8ddb62a05de5"},"vehicle_type_id":"4","last_reported":1773301082,"current_range_meters":18800,"station_id":"","pricing_plan_id":"cebpf4jnsgd1na2vs0mg"},{"bike_id":"c6c0ebab-0295-4a0b-844e-e34d619beca3","system_id":"levelo_inurba_marseille","lat":43.23179,"lon":5.39991,"is_reserved":false,"is_disabled":false,"rental_uris":{"android":"levelo://app?vid=c6c0ebab-0295-4a0b-844e-e34d619beca3","ios":"levelo://app?vid=c6c0ebab-0295-4a0b-844e-e34d619beca3"},"vehicle_type_id":"4","last_reported":1773301082,"current_range_meters":35200,"station_id":"ce4bhn12rcd13ifvqgqg","pricing_plan_id":"cebpf4jnsgd1na2vs0mg"},{"bike_id":"d0721a56-a2f8-4251-901d-eea44c1b328e","system_id":"levelo_inurba_marseille","lat":43.28462,"lon":5.38433,"is_reserved":false,"is_disabled":true,"rental_uris":{"android":"levelo://app?vid=d0721a56-a2f8-4251-901d-eea44c1b328e","ios":"levelo://app?vid=d0721a56-a2f8-4251-901d-eea44c1b328e"},"vehicle_type_id":"4","last_reported":1773301082,"current_range_meters":2000,"station_id":"ce4bh512rcd13ifvqe3g","pricing_plan_id":"cebpf4jnsgd1na2vs0mg"},{"bike_id":"a5eb7e2e-f45f-42c7-8ba3-bf76c2472338","system_id":"levelo_inurba_marseille","lat":43.30207,"lon":5.39438,"is_reserved":false,"is_disabled":false,"rental_uris":{"android":"levelo://app?vid=a5eb7e2e-f45f-42c7-8ba3-bf76c2472338","ios":"levelo://app?vid=a5eb7e2e-f45f-42c7-8ba3-bf76c2472338"},"vehicle_type_id":"4","last_reported":1773301082,"current_range_meters":20400,"station_id":"ce4bh0p2rcd13ifvqd70","pricing_plan_id":"cebpf4jnsgd1na2vs0mg"},{"bike_id":"a6bf6a0e-804b-4f95-903f-d306eb4acdb5","system_id":"levelo_inurba_marseille","lat":43.30231,"lon":5.37084,"is_reserved":false,"is_disabled":false,"rental_uris":{"android":"levelo://app?vid=a6bf6a0e-804b-4f95-903f-d306eb4acdb5","ios":"levelo://app?vid=a6bf6a0e-804b-4f95-903f-d306eb4acdb5"},"vehicle_type_id":"4","last_reported":1773301082,"current_range_meters":36800,"station_id":"","pricing_plan_id":"cebpf4jnsgd1na2vs0mg"},{"bike_id":"7e1abbe1-756e-46e7-ba29-550f152b4425","system_id":"levelo_inurba_marseille","lat":43.29288,"lon":5.37215,"is_reserved":false,"is_disabled":true,"rental_uris":{"android":"levelo://app?vid=7e1abbe1-756e-46e7-ba29-550f152b4425","ios":"levelo://app?vid=7e1abbe1-756e-46e7-ba29-550f152b4425"},"vehicle_type_id":"4","last_reported":1773301082,"current_range_meters":38800,"station_id":"ce4bgh92rcd13ifvqb40","pricing_plan_id":"cebpf4jnsgd1na2vs0mg"},{"bike_id":"3d236d94-cc73-4767-acdb-e504497fc2d4","system_id":"levelo_inurba_marseille","lat":43.32547,"lon":5.41431,"is_reserved":false,"is_disabled":false,"rental_uris":{"android":"levelo://app?vid=3d236d94-cc73-4767-acdb-e504497fc2d4","ios":"levelo://app?vid=3d236d94-cc73-4767-acdb-e504497fc2d4"},"vehicle_type_id":"4","last_reported":1773301082,"current_range_meters":33600,"station_id":"ce4bhq12rcd13ifvqhhg","pricing_plan_id":"cebpf4jnsgd1na2vs0mg"},{"bike_id":"93d7042a-f10b-4d13-89cf-2727391f5d25","system_id":"levelo_inurba_marseille","lat":43.26794,"lon":5.39408,"is_reserved":false,"is_disabled":false,"rental_uris":{"android":"levelo://app?vid=93d7042a-f10b-4d13-89cf-2727391f5d25","ios":"levelo://app?vid=93d7042a-f10b-4d13-89cf-2727391f5d25"},"vehicle_type_id":"4","last_reported":1773301082,"current_range_meters":5600,"station_id":"ce4bhh12rcd13ifvqfg0","pricing_plan_id":"cebpf4jnsgd1na2vs0mg"},{"bike_id":"684f89b4-22c9-4f27-8843-56c8e9f5d6a1","system_id":"levelo_inurba_marseille","lat":43.28951,"lon":5.3964,"is_reserved":false,"is_disabled":false,"rental_uris":{"android":"levelo://app?vid=684f89b4-22c9-4f27-8843-56c8e9f5d6a1","ios":"levelo://app?vid=684f89b4-22c9-4f27-8843-56c8e9f5d6a1"},"vehicle_type_id":"4","last_reported":1773301082,"current_range_meters":3200,"station_id":"ce4bh3h2rcd13ifvqdn0","pricing_plan_id":"cebpf4jnsgd1na2vs0mg"},{"bike_id":"9742faba-d8f0-4e78-84a4-7b1f0d90d2b9","system_id":"levelo_inurba_marseille","lat":43.28428,"lon":5.34992,"is_reserved":false,"is_disabled":false,"rental_uris":{"android":"levelo://app?vid=9742faba-d8f0-4e78-84a4-7b1f0d90d2b9","ios":"levelo://app?vid=9742faba-d8f0-4e78-84a4-7b1f0d90d2b9"},"vehicle_type_id":"4","last_reported":1773301082,"current_range_meters":21600,"station_id":"ce4bhbh2rcd13ifvqepg","pricing_plan_id":"cebpf4jnsgd1na2vs0mg"},{"bike_id":"3d7b1bec-2a06-47da-a7d0-796cda99d14f","system_id":"levelo_inurba_marseille","lat":43.27079,"lon":5.38306,"is_reserved":false,"is_disabled":false,"rental_uris":{"android":"levelo://app?vid=3d7b1bec-2a06-47da-a7d0-796cda99d14f","ios":"levelo://app?vid=3d7b1bec-2a06-47da-a7d0-796cda99d14f"},"vehicle_type_id":"4","last_reported":1773301082,"current_range_meters":17600,"station_id":"st_d3n2fo6cfp8s73cte1j0","pricing_plan_id":"cebpf4jnsgd1na2vs0mg"},{"bike_id":"95928081-d3e9-42eb-ab0d-1b2b0bc8b064","system_id":"levelo_inurba_marseille","lat":43.29046,"lon":5.39976,"is_reserved":false,"is_disabled":false,"rental_uris":{"android":"levelo://app?vid=95928081-d3e9-42eb-ab0d-1b2b0bc8b064","ios":"levelo://app?vid=95928081-d3e9-42eb-ab0d-1b2b0bc8b064"},"vehicle_type_id":"4","last_reported":1773301082,"current_range_meters":36000,"station_id":"ce4bh392rcd13ifvqdm0","pricing_plan_id":"cebpf4jnsgd1na2vs0mg"},{"bike_id":"988db3b8-861f-418c-a7ec-7ae78131696e","system_id":"levelo_inurba_marseille","lat":43.24659,"lon":5.4335,"is_reserved":false,"is_disabled":false,"rental_uris":{"android":"levelo://app?vid=988db3b8-861f-418c-a7ec-7ae78131696e","ios":"levelo://app?vid=988db3b8-861f-418c-a7ec-7ae78131696e"},"vehicle_type_id":"4","last_reported":1773301082,"current_range_meters":27200,"station_id":"","pricing_plan_id":"cebpf4jnsgd1na2vs0mg"},{"bike_id":"43261651-491c-4ff4-b101-2b6db6ff2897","system_id":"levelo_inurba_marseille","lat":43.27041,"lon":5.40284,"is_reserved":false,"is_disabled":false,"rental_uris":{"android":"levelo://app?vid=43261651-491c-4ff4-b101-2b6db6ff2897","ios":"levelo://app?vid=43261651-491c-4ff4-b101-2b6db6ff2897"},"vehicle_type_id":"4","last_reported":1773301082,"current_range_meters":20400,"station_id":"ce4bhk92rcd13ifvqgc0","pricing_plan_id":"cebpf4jnsgd1na2vs0mg"},{"bike_id":"dd854777-f378-4132-94e6-63027cc18b82","system_id":"levelo_inurba_marseille","lat":43.29727,"lon":5.41059,"is_reserved":false,"is_disabled":false,"rental_uris":{"android":"levelo://app?vid=dd854777-f378-4132-94e6-63027cc18b82","ios":"levelo://app?vid=dd854777-f378-4132-94e6-63027cc18b82"},"vehicle_type_id":"4","last_reported":1773301082,"current_range_meters":25200,"station_id":"","pricing_plan_id":"cebpf4jnsgd1na2vs0mg"},{"bike_id":"8aa72cbf-7b67-4e69-9dc2-a16a316391ec","system_id":"levelo_inurba_marseille","lat":43.30187,"lon":5.38047,"is_reserved":false,"is_disabled":false,"rental_uris":{"android":"levelo://app?vid=8aa72cbf-7b67-4e69-9dc2-a16a316391ec","ios":"levelo://app?vid=8aa72cbf-7b67-4e69-9dc2-a16a316391ec"},"vehicle_type_id":"4","last_reported":1773301082,"current_range_meters":38000,"station_id":"","pricing_plan_id":"cebpf4jnsgd1na2vs0mg"},{"bike_id":"6d9de3cc-6ad3-438d-a99a-4a2e443ea08b","system_id":"levelo_inurba_marseille","lat":43.2678,"lon":5.39427,"is_reserved":false,"is_disabled":true,"rental_uris":{"android":"levelo://app?vid=6d9de3cc-6ad3-438d-a99a-4a2e443ea08b","ios":"levelo://app?vid=6d9de3cc-6ad3-438d-a99a-4a2e443ea08b"},"vehicle_type_id":"4","last_reported":1773301082,"current_range_meters":27200,"station_id":"ce4bhh12rcd13ifvqfg0","pricing_plan_id":"cebpf4jnsgd1na2vs0mg"},{"bike_id":"7f915ef6-14bc-4386-90b7-42e8354aed79","system_id":"levelo_inurba_marseille","lat":43.34226,"lon":5.37632,"is_reserved":false,"is_disabled":false,"rental_uris":{"android":"levelo://app?vid=7f915ef6-14bc-4386-90b7-42e8354aed79","ios":"levelo://app?vid=7f915ef6-14bc-4386-90b7-42e8354aed79"},"vehicle_type_id":"4","last_reported":1773301082,"current_range_meters":8800,"station_id":"ce4bguh2rcd13ifvqcj0","pricing_plan_id":"cebpf4jnsgd1na2vs0mg"},{"bike_id":"85b5b118-e47b-4adc-aa0c-e9bbc2d708e9","system_id":"levelo_inurba_marseille","lat":43.27432,"lon":5.42464,"is_reserved":false,"is_disabled":false,"rental_uris":{"android":"levelo://app?vid=85b5b118-e47b-4adc-aa0c-e9bbc2d708e9","ios":"levelo://app?vid=85b5b118-e47b-4adc-aa0c-e9bbc2d708e9"},"vehicle_type_id":"4","last_reported":1773301082,"current_range_meters":19200,"station_id":"","pricing_plan_id":"cebpf4jnsgd1na2vs0mg"},{"bike_id":"58e00aef-9f33-4c05-87cc-f03d52bc9628","system_id":"levelo_inurba_marseille","lat":43.29037,"lon":5.39979,"is_reserved":false,"is_disabled":false,"rental_uris":{"android":"levelo://app?vid=58e00aef-9f33-4c05-87cc-f03d52bc9628","ios":"levelo://app?vid=58e00aef-9f33-4c05-87cc-f03d52bc9628"},"vehicle_type_id":"4","last_reported":1773301082,"current_range_meters":20800,"station_id":"ce4bh392rcd13ifvqdm0","pricing_plan_id":"cebpf4jnsgd1na2vs0mg"},{"bike_id":"532f1fe9-6384-4056-88f3-ddfdd084688a","system_id":"levelo_inurba_marseille","lat":43.28979,"lon":5.42582,"is_reserved":false,"is_disabled":false,"rental_uris":{"android":"levelo://app?vid=532f1fe9-6384-4056-88f3-ddfdd084688a","ios":"levelo://app?vid=532f1fe9-6384-4056-88f3-ddfdd084688a"},"vehicle_type_id":"4","last_reported":1773301082,"current_range_meters":32000,"station_id":"","pricing_plan_id":"cebpf4jnsgd1na2vs0mg"},{"bike_id":"7d803a8b-ceca-4c3b-a7cf-9f5a98a676a2","system_id":"levelo_inurba_marseille","lat":43.2962,"lon":5.37729,"is_reserved":false,"is_disabled":false,"rental_uris":{"android":"levelo://app?vid=7d803a8b-ceca-4c3b-a7cf-9f5a98a676a2","ios":"levelo://app?vid=7d803a8b-ceca-4c3b-a7cf-9f5a98a676a2"},"vehicle_type_id":"4","last_reported":1773301082,"current_range_meters":10800,"station_id":"ce4bgi92rcd13ifvqb90","pricing_plan_id":"cebpf4jnsgd1na2vs0mg"},{"bike_id":"4c0ccf91-bafb-4cb2-ada9-07d388c5af7c","system_id":"levelo_inurba_marseille","lat":43.29603,"lon":5.37709,"is_reserved":false,"is_disabled":false,"rental_uris":{"android":"levelo://app?vid=4c0ccf91-bafb-4cb2-ada9-07d388c5af7c","ios":"levelo://app?vid=4c0ccf91-bafb-4cb2-ada9-07d388c5af7c"},"vehicle_type_id":"4","last_reported":1773301082,"current_range_meters":9200,"station_id":"ce4bgi92rcd13ifvqb90","pricing_plan_id":"cebpf4jnsgd1na2vs0mg"},{"bike_id":"9514db0d-5296-4e59-a96c-1113a72fd9e8","system_id":"levelo_inurba_marseille","lat":43.23204,"lon":5.39997,"is_reserved":false,"is_disabled":false,"rental_uris":{"android":"levelo://app?vid=9514db0d-5296-4e59-a96c-1113a72fd9e8","ios":"levelo://app?vid=9514db0d-5296-4e59-a96c-1113a72fd9e8"},"vehicle_type_id":"4","last_reported":1773301082,"current_range_meters":28800,"station_id":"ce4bhn12rcd13ifvqgqg","pricing_plan_id":"cebpf4jnsgd1na2vs0mg"},{"bike_id":"f105b2be-1018-4256-9c05-61f61c53dcf1","system_id":"levelo_inurba_marseille","lat":43.29541,"lon":5.3856,"is_reserved":false,"is_disabled":true,"rental_uris":{"android":"levelo://app?vid=f105b2be-1018-4256-9c05-61f61c53dcf1","ios":"levelo://app?vid=f105b2be-1018-4256-9c05-61f61c53dcf1"},"vehicle_type_id":"4","last_reported":1773301082,"current_range_meters":24800,"station_id":"ce4bgih2rcd13ifvqba0","pricing_plan_id":"cebpf4jnsgd1na2vs0mg"},{"bike_id":"f086bfef-919c-47d1-b992-643fcdb40279","system_id":"levelo_inurba_marseille","lat":43.29708,"lon":5.37728,"is_reserved":false,"is_disabled":false,"rental_uris":{"android":"levelo://app?vid=f086bfef-919c-47d1-b992-643fcdb40279","ios":"levelo://app?vid=f086bfef-919c-47d1-b992-643fcdb40279"},"vehicle_type_id":"4","last_reported":1773301082,"current_range_meters":34800,"station_id":"ce4bgkh2rcd13ifvqbl0","pricing_plan_id":"cebpf4jnsgd1na2vs0mg"},{"bike_id":"e8cfc960-6b81-4fc9-81a5-40ee7862baf8","system_id":"levelo_inurba_marseille","lat":43.32044,"lon":5.41593,"is_reserved":false,"is_disabled":false,"rental_uris":{"android":"levelo://app?vid=e8cfc960-6b81-4fc9-81a5-40ee7862baf8","ios":"levelo://app?vid=e8cfc960-6b81-4fc9-81a5-40ee7862baf8"},"vehicle_type_id":"4","last_reported":1773301082,"current_range_meters":36800,"station_id":"ce4bhq92rcd13ifvqhkg","pricing_plan_id":"cebpf4jnsgd1na2vs0mg"},{"bike_id":"b94c3b6d-7912-4bb7-bd16-b874ff101a3d","system_id":"levelo_inurba_marseille","lat":43.24811,"lon":5.3745,"is_reserved":false,"is_disabled":false,"rental_uris":{"android":"levelo://app?vid=b94c3b6d-7912-4bb7-bd16-b874ff101a3d","ios":"levelo://app?vid=b94c3b6d-7912-4bb7-bd16-b874ff101a3d"},"vehicle_type_id":"4","last_reported":1773301082,"current_range_meters":26800,"station_id":"ce4bhgh2rcd13ifvqfb0","pricing_plan_id":"cebpf4jnsgd1na2vs0mg"},{"bike_id":"acf3f37d-c224-4635-8d04-0096fa9cc908","system_id":"levelo_inurba_marseille","lat":43.30407,"lon":5.42487,"is_reserved":false,"is_disabled":false,"rental_uris":{"android":"levelo://app?vid=acf3f37d-c224-4635-8d04-0096fa9cc908","ios":"levelo://app?vid=acf3f37d-c224-4635-8d04-0096fa9cc908"},"vehicle_type_id":"4","last_reported":1773301082,"current_range_meters":30800,"station_id":"ce4bhoh2rcd13ifvqh6g","pricing_plan_id":"cebpf4jnsgd1na2vs0mg"},{"bike_id":"1866c223-50ab-4283-b8a6-28a247e511e9","system_id":"levelo_inurba_marseille","lat":43.33016,"lon":5.39069,"is_reserved":false,"is_disabled":false,"rental_uris":{"android":"levelo://app?vid=1866c223-50ab-4283-b8a6-28a247e511e9","ios":"levelo://app?vid=1866c223-50ab-4283-b8a6-28a247e511e9"},"vehicle_type_id":"4","last_reported":1773301082,"current_range_meters":39200,"station_id":"ce4bhr92rcd13ifvqhrg","pricing_plan_id":"cebpf4jnsgd1na2vs0mg"},{"bike_id":"6994b374-5940-471e-a4f1-64d45a68f73b","system_id":"levelo_inurba_marseille","lat":43.29045,"lon":5.39951,"is_reserved":false,"is_disabled":false,"rental_uris":{"android":"levelo://app?vid=6994b374-5940-471e-a4f1-64d45a68f73b","ios":"levelo://app?vid=6994b374-5940-471e-a4f1-64d45a68f73b"},"vehicle_type_id":"4","last_reported":1773301082,"current_range_meters":39200,"station_id":"ce4bh392rcd13ifvqdm0","pricing_plan_id":"cebpf4jnsgd1na2vs0mg"},{"bike_id":"dbd872a2-1df9-436e-ad2c-d74006aa2950","system_id":"levelo_inurba_marseille","lat":43.30582,"lon":5.39355,"is_reserved":false,"is_disabled":false,"rental_uris":{"android":"levelo://app?vid=dbd872a2-1df9-436e-ad2c-d74006aa2950","ios":"levelo://app?vid=dbd872a2-1df9-436e-ad2c-d74006aa2950"},"vehicle_type_id":"4","last_reported":1773301082,"current_range_meters":24800,"station_id":"ce4bh0p2rcd13ifvqd80","pricing_plan_id":"cebpf4jnsgd1na2vs0mg"},{"bike_id":"c52459fc-dfb2-4ddf-a65d-9bbba8809c07","system_id":"levelo_inurba_marseille","lat":43.22531,"lon":5.34817,"is_reserved":false,"is_disabled":true,"rental_uris":{"android":"levelo://app?vid=c52459fc-dfb2-4ddf-a65d-9bbba8809c07","ios":"levelo://app?vid=c52459fc-dfb2-4ddf-a65d-9bbba8809c07"},"vehicle_type_id":"4","last_reported":1773301082,"current_range_meters":0,"station_id":"st_cvj5dfep6f1abm77gieg","pricing_plan_id":"cebpf4jnsgd1na2vs0mg"},{"bike_id":"3a859f3a-22b6-4486-a6ee-6f262c3f2aa0","system_id":"levelo_inurba_marseille","lat":43.29054,"lon":5.39984,"is_reserved":false,"is_disabled":false,"rental_uris":{"android":"levelo://app?vid=3a859f3a-22b6-4486-a6ee-6f262c3f2aa0","ios":"levelo://app?vid=3a859f3a-22b6-4486-a6ee-6f262c3f2aa0"},"vehicle_type_id":"4","last_reported":1773301082,"current_range_meters":36800,"station_id":"ce4bh392rcd13ifvqdm0","pricing_plan_id":"cebpf4jnsgd1na2vs0mg"},{"bike_id":"1bac9bd4-0626-4ab9-aae7-aa4e8c994693","system_id":"levelo_inurba_marseille","lat":43.29038,"lon":5.39955,"is_reserved":false,"is_disabled":false,"rental_uris":{"android":"levelo://app?vid=1bac9bd4-0626-4ab9-aae7-aa4e8c994693","ios":"levelo://app?vid=1bac9bd4-0626-4ab9-aae7-aa4e8c994693"},"vehicle_type_id":"4","last_reported":1773301082,"current_range_meters":9200,"station_id":"ce4bh392rcd13ifvqdm0","pricing_plan_id":"cebpf4jnsgd1na2vs0mg"},{"bike_id":"74cb2b6f-9305-47f1-bb68-6c880d035389","system_id":"levelo_inurba_marseille","lat":43.29649,"lon":5.37146,"is_reserved":false,"is_disabled":false,"rental_uris":{"android":"levelo://app?vid=74cb2b6f-9305-47f1-bb68-6c880d035389","ios":"levelo://app?vid=74cb2b6f-9305-47f1-bb68-6c880d035389"},"vehicle_type_id":"4","last_reported":1773301082,"current_range_meters":38800,"station_id":"ce4bgnh2rcd13ifvqc0g","pricing_plan_id":"cebpf4jnsgd1na2vs0mg"},{"bike_id":"70014ff1-2570-4680-8d8c-6578de7f27e9","system_id":"levelo_inurba_marseille","lat":43.29747,"lon":5.37718,"is_reserved":false,"is_disabled":false,"rental_uris":{"android":"levelo://app?vid=70014ff1-2570-4680-8d8c-6578de7f27e9","ios":"levelo://app?vid=70014ff1-2570-4680-8d8c-6578de7f27e9"},"vehicle_type_id":"4","last_reported":1773301082,"current_range_meters":12400,"station_id":"","pricing_plan_id":"cebpf4jnsgd1na2vs0mg"},{"bike_id":"3dc7668a-cf4b-469f-bd61-01ed382f3bda","system_id":"levelo_inurba_marseille","lat":43.25572,"lon":5.3823,"is_reserved":false,"is_disabled":false,"rental_uris":{"android":"levelo://app?vid=3dc7668a-cf4b-469f-bd61-01ed382f3bda","ios":"levelo://app?vid=3dc7668a-cf4b-469f-bd61-01ed382f3bda"},"vehicle_type_id":"4","last_reported":1773301082,"current_range_meters":31200,"station_id":"ce4bhih2rcd13ifvqfs0","pricing_plan_id":"cebpf4jnsgd1na2vs0mg"},{"bike_id":"d2bcd2b3-b9c0-44b8-b65e-328220c5307e","system_id":"levelo_inurba_marseille","lat":43.29154,"lon":5.43244,"is_reserved":false,"is_disabled":false,"rental_uris":{"android":"levelo://app?vid=d2bcd2b3-b9c0-44b8-b65e-328220c5307e","ios":"levelo://app?vid=d2bcd2b3-b9c0-44b8-b65e-328220c5307e"},"vehicle_type_id":"4","last_reported":1773301082,"current_range_meters":38800,"station_id":"","pricing_plan_id":"cebpf4jnsgd1na2vs0mg"},{"bike_id":"7d538e1b-80d7-4048-8273-aeb629a41021","system_id":"levelo_inurba_marseille","lat":43.33576,"lon":5.41032,"is_reserved":false,"is_disabled":false,"rental_uris":{"android":"levelo://app?vid=7d538e1b-80d7-4048-8273-aeb629a41021","ios":"levelo://app?vid=7d538e1b-80d7-4048-8273-aeb629a41021"},"vehicle_type_id":"4","last_reported":1773301082,"current_range_meters":36000,"station_id":"ce4bhqh2rcd13ifvqhmg","pricing_plan_id":"cebpf4jnsgd1na2vs0mg"},{"bike_id":"a50db47c-b4f2-4a58-ae7d-0a4f7384612e","system_id":"levelo_inurba_marseille","lat":43.30472,"lon":5.37914,"is_reserved":false,"is_disabled":false,"rental_uris":{"android":"levelo://app?vid=a50db47c-b4f2-4a58-ae7d-0a4f7384612e","ios":"levelo://app?vid=a50db47c-b4f2-4a58-ae7d-0a4f7384612e"},"vehicle_type_id":"4","last_reported":1773301082,"current_range_meters":33200,"station_id":"ce4bgup2rcd13ifvqcn0","pricing_plan_id":"cebpf4jnsgd1na2vs0mg"},{"bike_id":"896440e6-cef8-4268-bb86-ac2c6e2de747","system_id":"levelo_inurba_marseille","lat":43.28476,"lon":5.484,"is_reserved":false,"is_disabled":false,"rental_uris":{"android":"levelo://app?vid=896440e6-cef8-4268-bb86-ac2c6e2de747","ios":"levelo://app?vid=896440e6-cef8-4268-bb86-ac2c6e2de747"},"vehicle_type_id":"4","last_reported":1773301082,"current_range_meters":28800,"station_id":"","pricing_plan_id":"cebpf4jnsgd1na2vs0mg"},{"bike_id":"38c92d2f-8b12-4925-83db-50c4a865862f","system_id":"levelo_inurba_marseille","lat":43.30148,"lon":5.38088,"is_reserved":false,"is_disabled":false,"rental_uris":{"android":"levelo://app?vid=38c92d2f-8b12-4925-83db-50c4a865862f","ios":"levelo://app?vid=38c92d2f-8b12-4925-83db-50c4a865862f"},"vehicle_type_id":"4","last_reported":1773301082,"current_range_meters":27600,"station_id":"ce4bgjp2rcd13ifvqbh0","pricing_plan_id":"cebpf4jnsgd1na2vs0mg"},{"bike_id":"c7edf450-6aa2-45f0-bd13-d0472387380d","system_id":"levelo_inurba_marseille","lat":43.32545,"lon":5.41447,"is_reserved":false,"is_disabled":false,"rental_uris":{"android":"levelo://app?vid=c7edf450-6aa2-45f0-bd13-d0472387380d","ios":"levelo://app?vid=c7edf450-6aa2-45f0-bd13-d0472387380d"},"vehicle_type_id":"4","last_reported":1773301082,"current_range_meters":21600,"station_id":"ce4bhq12rcd13ifvqhhg","pricing_plan_id":"cebpf4jnsgd1na2vs0mg"},{"bike_id":"2c1215f2-9624-4e50-bbbb-a53264cdd31e","system_id":"levelo_inurba_marseille","lat":43.2848,"lon":5.48383,"is_reserved":false,"is_disabled":false,"rental_uris":{"android":"levelo://app?vid=2c1215f2-9624-4e50-bbbb-a53264cdd31e","ios":"levelo://app?vid=2c1215f2-9624-4e50-bbbb-a53264cdd31e"},"vehicle_type_id":"4","last_reported":1773301082,"current_range_meters":20400,"station_id":"","pricing_plan_id":"cebpf4jnsgd1na2vs0mg"},{"bike_id":"c1db54c2-038e-4f3d-a503-c0e3fc6c96ed","system_id":"levelo_inurba_marseille","lat":43.3355,"lon":5.3747,"is_reserved":false,"is_disabled":false,"rental_uris":{"android":"levelo://app?vid=c1db54c2-038e-4f3d-a503-c0e3fc6c96ed","ios":"levelo://app?vid=c1db54c2-038e-4f3d-a503-c0e3fc6c96ed"},"vehicle_type_id":"4","last_reported":1773301082,"current_range_meters":14800,"station_id":"st_d46tts09ee8s73dlu43g","pricing_plan_id":"cebpf4jnsgd1na2vs0mg"},{"bike_id":"a0ab89fd-d4e3-4039-8377-577b0acf001d","system_id":"levelo_inurba_marseille","lat":43.24371,"lon":5.44111,"is_reserved":false,"is_disabled":true,"rental_uris":{"android":"levelo://app?vid=a0ab89fd-d4e3-4039-8377-577b0acf001d","ios":"levelo://app?vid=a0ab89fd-d4e3-4039-8377-577b0acf001d"},"vehicle_type_id":"4","last_reported":1773301082,"current_range_meters":8800,"station_id":"","pricing_plan_id":"cebpf4jnsgd1na2vs0mg"},{"bike_id":"08ff5983-c7b0-4b35-8b78-d7ade64e1788","system_id":"levelo_inurba_marseille","lat":43.30152,"lon":5.37428,"is_reserved":false,"is_disabled":false,"rental_uris":{"android":"levelo://app?vid=08ff5983-c7b0-4b35-8b78-d7ade64e1788","ios":"levelo://app?vid=08ff5983-c7b0-4b35-8b78-d7ade64e1788"},"vehicle_type_id":"4","last_reported":1773301082,"current_range_meters":34800,"station_id":"ce4bgs92rcd13ifvqcc0","pricing_plan_id":"cebpf4jnsgd1na2vs0mg"},{"bike_id":"c2216d2f-320b-47b8-a671-325fea966310","system_id":"levelo_inurba_marseille","lat":43.30494,"lon":5.37915,"is_reserved":false,"is_disabled":false,"rental_uris":{"android":"levelo://app?vid=c2216d2f-320b-47b8-a671-325fea966310","ios":"levelo://app?vid=c2216d2f-320b-47b8-a671-325fea966310"},"vehicle_type_id":"4","last_reported":1773301082,"current_range_meters":39200,"station_id":"ce4bgup2rcd13ifvqcn0","pricing_plan_id":"cebpf4jnsgd1na2vs0mg"},{"bike_id":"b0582740-1de1-4a42-8551-6424ab811d11","system_id":"levelo_inurba_marseille","lat":43.26808,"lon":5.39404,"is_reserved":false,"is_disabled":true,"rental_uris":{"android":"levelo://app?vid=b0582740-1de1-4a42-8551-6424ab811d11","ios":"levelo://app?vid=b0582740-1de1-4a42-8551-6424ab811d11"},"vehicle_type_id":"4","last_reported":1773301082,"current_range_meters":38800,"station_id":"ce4bhh12rcd13ifvqfg0","pricing_plan_id":"cebpf4jnsgd1na2vs0mg"},{"bike_id":"074abf32-ac3f-4657-8880-be02438a7ff0","system_id":"levelo_inurba_marseille","lat":43.23191,"lon":5.39956,"is_reserved":false,"is_disabled":false,"rental_uris":{"android":"levelo://app?vid=074abf32-ac3f-4657-8880-be02438a7ff0","ios":"levelo://app?vid=074abf32-ac3f-4657-8880-be02438a7ff0"},"vehicle_type_id":"4","last_reported":1773301082,"current_range_meters":38400,"station_id":"ce4bhn12rcd13ifvqgqg","pricing_plan_id":"cebpf4jnsgd1na2vs0mg"},{"bike_id":"7ffaea73-40b6-4070-a110-9ca9f0cb40a4","system_id":"levelo_inurba_marseille","lat":43.29924,"lon":5.38154,"is_reserved":false,"is_disabled":false,"rental_uris":{"android":"levelo://app?vid=7ffaea73-40b6-4070-a110-9ca9f0cb40a4","ios":"levelo://app?vid=7ffaea73-40b6-4070-a110-9ca9f0cb40a4"},"vehicle_type_id":"4","last_reported":1773301082,"current_range_meters":40000,"station_id":"ce4bgj12rcd13ifvqbc0","pricing_plan_id":"cebpf4jnsgd1na2vs0mg"},{"bike_id":"e8b7d766-9ece-4870-a1b8-5b316a1b8e67","system_id":"levelo_inurba_marseille","lat":43.22566,"lon":5.41635,"is_reserved":false,"is_disabled":false,"rental_uris":{"android":"levelo://app?vid=e8b7d766-9ece-4870-a1b8-5b316a1b8e67","ios":"levelo://app?vid=e8b7d766-9ece-4870-a1b8-5b316a1b8e67"},"vehicle_type_id":"4","last_reported":1773301082,"current_range_meters":16400,"station_id":"st_d2o4gvlbi1j2169b742g","pricing_plan_id":"cebpf4jnsgd1na2vs0mg"},{"bike_id":"3ec29e2e-9f07-482a-be09-30e539a4dc16","system_id":"levelo_inurba_marseille","lat":43.27823,"lon":5.40718,"is_reserved":false,"is_disabled":true,"rental_uris":{"android":"levelo://app?vid=3ec29e2e-9f07-482a-be09-30e539a4dc16","ios":"levelo://app?vid=3ec29e2e-9f07-482a-be09-30e539a4dc16"},"vehicle_type_id":"4","last_reported":1773301082,"current_range_meters":38400,"station_id":"ce4bhnh2rcd13ifvqgtg","pricing_plan_id":"cebpf4jnsgd1na2vs0mg"},{"bike_id":"7fec08d5-ee68-460a-ac18-925555054430","system_id":"levelo_inurba_marseille","lat":43.24174,"lon":5.3642,"is_reserved":false,"is_disabled":false,"rental_uris":{"android":"levelo://app?vid=7fec08d5-ee68-460a-ac18-925555054430","ios":"levelo://app?vid=7fec08d5-ee68-460a-ac18-925555054430"},"vehicle_type_id":"4","last_reported":1773301082,"current_range_meters":13600,"station_id":"cpo36qri1sfpv3e86is0","pricing_plan_id":"cebpf4jnsgd1na2vs0mg"},{"bike_id":"3ecf70a0-cb4b-4cf0-a67e-bc48de80fe63","system_id":"levelo_inurba_marseille","lat":43.30154,"lon":5.38084,"is_reserved":false,"is_disabled":false,"rental_uris":{"android":"levelo://app?vid=3ecf70a0-cb4b-4cf0-a67e-bc48de80fe63","ios":"levelo://app?vid=3ecf70a0-cb4b-4cf0-a67e-bc48de80fe63"},"vehicle_type_id":"4","last_reported":1773301082,"current_range_meters":34800,"station_id":"ce4bgjp2rcd13ifvqbh0","pricing_plan_id":"cebpf4jnsgd1na2vs0mg"},{"bike_id":"78c33cbb-a58c-42be-8521-cd5d3ca77cea","system_id":"levelo_inurba_marseille","lat":43.23397,"lon":5.41246,"is_reserved":false,"is_disabled":false,"rental_uris":{"android":"levelo://app?vid=78c33cbb-a58c-42be-8521-cd5d3ca77cea","ios":"levelo://app?vid=78c33cbb-a58c-42be-8521-cd5d3ca77cea"},"vehicle_type_id":"4","last_reported":1773301082,"current_range_meters":9600,"station_id":"","pricing_plan_id":"cebpf4jnsgd1na2vs0mg"},{"bike_id":"7d60e954-8740-4b77-8b08-34d5244da699","system_id":"levelo_inurba_marseille","lat":43.30145,"lon":5.3739,"is_reserved":false,"is_disabled":false,"rental_uris":{"android":"levelo://app?vid=7d60e954-8740-4b77-8b08-34d5244da699","ios":"levelo://app?vid=7d60e954-8740-4b77-8b08-34d5244da699"},"vehicle_type_id":"4","last_reported":1773301082,"current_range_meters":7200,"station_id":"ce4bgs92rcd13ifvqcc0","pricing_plan_id":"cebpf4jnsgd1na2vs0mg"},{"bike_id":"e50c6797-fb66-441b-97d0-c7fbbc3eb9c6","system_id":"levelo_inurba_marseille","lat":43.31693,"lon":5.43761,"is_reserved":false,"is_disabled":false,"rental_uris":{"android":"levelo://app?vid=e50c6797-fb66-441b-97d0-c7fbbc3eb9c6","ios":"levelo://app?vid=e50c6797-fb66-441b-97d0-c7fbbc3eb9c6"},"vehicle_type_id":"4","last_reported":1773301082,"current_range_meters":27200,"station_id":"ce4bhp92rcd13ifvqhcg","pricing_plan_id":"cebpf4jnsgd1na2vs0mg"},{"bike_id":"486154fe-3489-4a13-9146-054eb1e1ad06","system_id":"levelo_inurba_marseille","lat":43.29567,"lon":5.39981,"is_reserved":false,"is_disabled":false,"rental_uris":{"android":"levelo://app?vid=486154fe-3489-4a13-9146-054eb1e1ad06","ios":"levelo://app?vid=486154fe-3489-4a13-9146-054eb1e1ad06"},"vehicle_type_id":"4","last_reported":1773301082,"current_range_meters":36400,"station_id":"ce4bh312rcd13ifvqdj0","pricing_plan_id":"cebpf4jnsgd1na2vs0mg"},{"bike_id":"d936ee88-e6c5-41eb-94c9-c0f089a32b91","system_id":"levelo_inurba_marseille","lat":43.31182,"lon":5.37721,"is_reserved":false,"is_disabled":false,"rental_uris":{"android":"levelo://app?vid=d936ee88-e6c5-41eb-94c9-c0f089a32b91","ios":"levelo://app?vid=d936ee88-e6c5-41eb-94c9-c0f089a32b91"},"vehicle_type_id":"4","last_reported":1773301082,"current_range_meters":30400,"station_id":"","pricing_plan_id":"cebpf4jnsgd1na2vs0mg"},{"bike_id":"91805e94-98b3-4575-9010-9291ff0339a9","system_id":"levelo_inurba_marseille","lat":43.29073,"lon":5.38169,"is_reserved":false,"is_disabled":false,"rental_uris":{"android":"levelo://app?vid=91805e94-98b3-4575-9010-9291ff0339a9","ios":"levelo://app?vid=91805e94-98b3-4575-9010-9291ff0339a9"},"vehicle_type_id":"4","last_reported":1773301082,"current_range_meters":13600,"station_id":"ce4bh512rcd13ifvqe2g","pricing_plan_id":"cebpf4jnsgd1na2vs0mg"},{"bike_id":"28368de5-f99a-4131-872b-db4b9c333326","system_id":"levelo_inurba_marseille","lat":43.27811,"lon":5.40668,"is_reserved":false,"is_disabled":false,"rental_uris":{"android":"levelo://app?vid=28368de5-f99a-4131-872b-db4b9c333326","ios":"levelo://app?vid=28368de5-f99a-4131-872b-db4b9c333326"},"vehicle_type_id":"4","last_reported":1773301082,"current_range_meters":37600,"station_id":"ce4bhnh2rcd13ifvqgtg","pricing_plan_id":"cebpf4jnsgd1na2vs0mg"},{"bike_id":"7c5d90d1-8ba7-4d11-a859-9263fa5d367b","system_id":"levelo_inurba_marseille","lat":43.337444,"lon":5.374475,"is_reserved":false,"is_disabled":true,"rental_uris":{"android":"levelo://app?vid=7c5d90d1-8ba7-4d11-a859-9263fa5d367b","ios":"levelo://app?vid=7c5d90d1-8ba7-4d11-a859-9263fa5d367b"},"vehicle_type_id":"4","last_reported":1773301082,"current_range_meters":8400,"station_id":"","pricing_plan_id":"cebpf4jnsgd1na2vs0mg"},{"bike_id":"f4f70101-3a6f-4e23-9592-d14aa8c66b1c","system_id":"levelo_inurba_marseille","lat":43.27919,"lon":5.39572,"is_reserved":false,"is_disabled":false,"rental_uris":{"android":"levelo://app?vid=f4f70101-3a6f-4e23-9592-d14aa8c66b1c","ios":"levelo://app?vid=f4f70101-3a6f-4e23-9592-d14aa8c66b1c"},"vehicle_type_id":"4","last_reported":1773301082,"current_range_meters":38000,"station_id":"ce4bhf92rcd13ifvqf40","pricing_plan_id":"cebpf4jnsgd1na2vs0mg"},{"bike_id":"bc5fc204-33d9-491a-8fdb-a6c359ee55cc","system_id":"levelo_inurba_marseille","lat":43.29015,"lon":5.38656,"is_reserved":false,"is_disabled":false,"rental_uris":{"android":"levelo://app?vid=bc5fc204-33d9-491a-8fdb-a6c359ee55cc","ios":"levelo://app?vid=bc5fc204-33d9-491a-8fdb-a6c359ee55cc"},"vehicle_type_id":"4","last_reported":1773301082,"current_range_meters":29600,"station_id":"ce4bh4p2rcd13ifvqe0g","pricing_plan_id":"cebpf4jnsgd1na2vs0mg"},{"bike_id":"3107859d-1495-4aad-80eb-703d2e7dc114","system_id":"levelo_inurba_marseille","lat":43.28619,"lon":5.37063,"is_reserved":false,"is_disabled":false,"rental_uris":{"android":"levelo://app?vid=3107859d-1495-4aad-80eb-703d2e7dc114","ios":"levelo://app?vid=3107859d-1495-4aad-80eb-703d2e7dc114"},"vehicle_type_id":"4","last_reported":1773301082,"current_range_meters":39200,"station_id":"ce4bht12rcd13ifvqi60","pricing_plan_id":"cebpf4jnsgd1na2vs0mg"},{"bike_id":"f62cbee2-12e5-4cdd-bfbc-04088f9f32fa","system_id":"levelo_inurba_marseille","lat":43.28485,"lon":5.48388,"is_reserved":false,"is_disabled":false,"rental_uris":{"android":"levelo://app?vid=f62cbee2-12e5-4cdd-bfbc-04088f9f32fa","ios":"levelo://app?vid=f62cbee2-12e5-4cdd-bfbc-04088f9f32fa"},"vehicle_type_id":"4","last_reported":1773301082,"current_range_meters":17200,"station_id":"","pricing_plan_id":"cebpf4jnsgd1na2vs0mg"},{"bike_id":"2b79e928-a9b7-4c75-8c94-718eb4442ac8","system_id":"levelo_inurba_marseille","lat":43.29035,"lon":5.39966,"is_reserved":false,"is_disabled":false,"rental_uris":{"android":"levelo://app?vid=2b79e928-a9b7-4c75-8c94-718eb4442ac8","ios":"levelo://app?vid=2b79e928-a9b7-4c75-8c94-718eb4442ac8"},"vehicle_type_id":"4","last_reported":1773301082,"current_range_meters":22800,"station_id":"ce4bh392rcd13ifvqdm0","pricing_plan_id":"cebpf4jnsgd1na2vs0mg"},{"bike_id":"bee33239-5c3c-4b65-9c48-8fa3b957f997","system_id":"levelo_inurba_marseille","lat":43.27994,"lon":5.40007,"is_reserved":false,"is_disabled":false,"rental_uris":{"android":"levelo://app?vid=bee33239-5c3c-4b65-9c48-8fa3b957f997","ios":"levelo://app?vid=bee33239-5c3c-4b65-9c48-8fa3b957f997"},"vehicle_type_id":"4","last_reported":1773301082,"current_range_meters":40000,"station_id":"ce4bho92rcd13ifvqh4g","pricing_plan_id":"cebpf4jnsgd1na2vs0mg"},{"bike_id":"19789858-1ce6-4714-be96-8a45f06c1294","system_id":"levelo_inurba_marseille","lat":43.29568,"lon":5.42269,"is_reserved":false,"is_disabled":false,"rental_uris":{"android":"levelo://app?vid=19789858-1ce6-4714-be96-8a45f06c1294","ios":"levelo://app?vid=19789858-1ce6-4714-be96-8a45f06c1294"},"vehicle_type_id":"4","last_reported":1773301082,"current_range_meters":39200,"station_id":"ce4bhph2rcd13ifvqhdg","pricing_plan_id":"cebpf4jnsgd1na2vs0mg"},{"bike_id":"681fca49-d7d0-4d64-ba5f-a1615360789c","system_id":"levelo_inurba_marseille","lat":43.25833,"lon":5.39419,"is_reserved":false,"is_disabled":false,"rental_uris":{"android":"levelo://app?vid=681fca49-d7d0-4d64-ba5f-a1615360789c","ios":"levelo://app?vid=681fca49-d7d0-4d64-ba5f-a1615360789c"},"vehicle_type_id":"4","last_reported":1773301082,"current_range_meters":33600,"station_id":"ce4bhip2rcd13ifvqft0","pricing_plan_id":"cebpf4jnsgd1na2vs0mg"},{"bike_id":"0c140bc2-c84c-4f19-bcf3-8b2008304a8e","system_id":"levelo_inurba_marseille","lat":43.27346,"lon":5.39114,"is_reserved":false,"is_disabled":false,"rental_uris":{"android":"levelo://app?vid=0c140bc2-c84c-4f19-bcf3-8b2008304a8e","ios":"levelo://app?vid=0c140bc2-c84c-4f19-bcf3-8b2008304a8e"},"vehicle_type_id":"4","last_reported":1773301082,"current_range_meters":3600,"station_id":"ce4bhgp2rcd13ifvqfe0","pricing_plan_id":"cebpf4jnsgd1na2vs0mg"},{"bike_id":"ba3a231f-10a0-4302-b0e7-08f11861cd04","system_id":"levelo_inurba_marseille","lat":43.28477,"lon":5.48391,"is_reserved":false,"is_disabled":false,"rental_uris":{"android":"levelo://app?vid=ba3a231f-10a0-4302-b0e7-08f11861cd04","ios":"levelo://app?vid=ba3a231f-10a0-4302-b0e7-08f11861cd04"},"vehicle_type_id":"4","last_reported":1773301082,"current_range_meters":37600,"station_id":"","pricing_plan_id":"cebpf4jnsgd1na2vs0mg"},{"bike_id":"2f280020-4fd0-4c35-a3e5-87e99fea2ecd","system_id":"levelo_inurba_marseille","lat":43.296,"lon":5.37718,"is_reserved":false,"is_disabled":false,"rental_uris":{"android":"levelo://app?vid=2f280020-4fd0-4c35-a3e5-87e99fea2ecd","ios":"levelo://app?vid=2f280020-4fd0-4c35-a3e5-87e99fea2ecd"},"vehicle_type_id":"4","last_reported":1773301082,"current_range_meters":30800,"station_id":"ce4bgi92rcd13ifvqb90","pricing_plan_id":"cebpf4jnsgd1na2vs0mg"},{"bike_id":"be671c5b-fb45-47d4-8232-4da9e39592ca","system_id":"levelo_inurba_marseille","lat":43.24165,"lon":5.36404,"is_reserved":false,"is_disabled":false,"rental_uris":{"android":"levelo://app?vid=be671c5b-fb45-47d4-8232-4da9e39592ca","ios":"levelo://app?vid=be671c5b-fb45-47d4-8232-4da9e39592ca"},"vehicle_type_id":"4","last_reported":1773301082,"current_range_meters":17200,"station_id":"cpo36qri1sfpv3e86is0","pricing_plan_id":"cebpf4jnsgd1na2vs0mg"},{"bike_id":"352c9f7d-89b4-42e5-9e2e-76d972a274bd","system_id":"levelo_inurba_marseille","lat":43.289,"lon":5.43248,"is_reserved":false,"is_disabled":false,"rental_uris":{"android":"levelo://app?vid=352c9f7d-89b4-42e5-9e2e-76d972a274bd","ios":"levelo://app?vid=352c9f7d-89b4-42e5-9e2e-76d972a274bd"},"vehicle_type_id":"4","last_reported":1773301082,"current_range_meters":8400,"station_id":"","pricing_plan_id":"cebpf4jnsgd1na2vs0mg"},{"bike_id":"8095d99b-77e2-403b-90e4-77fb486014bb","system_id":"levelo_inurba_marseille","lat":43.3034,"lon":5.41894,"is_reserved":false,"is_disabled":false,"rental_uris":{"android":"levelo://app?vid=8095d99b-77e2-403b-90e4-77fb486014bb","ios":"levelo://app?vid=8095d99b-77e2-403b-90e4-77fb486014bb"},"vehicle_type_id":"4","last_reported":1773301082,"current_range_meters":40000,"station_id":"ce4bhop2rcd13ifvqh7g","pricing_plan_id":"cebpf4jnsgd1na2vs0mg"},{"bike_id":"2f62903c-1ac0-407f-97e8-2aace392e622","system_id":"levelo_inurba_marseille","lat":43.26954,"lon":5.38646,"is_reserved":false,"is_disabled":false,"rental_uris":{"android":"levelo://app?vid=2f62903c-1ac0-407f-97e8-2aace392e622","ios":"levelo://app?vid=2f62903c-1ac0-407f-97e8-2aace392e622"},"vehicle_type_id":"4","last_reported":1773301082,"current_range_meters":6000,"station_id":"ce4bhh92rcd13ifvqfh0","pricing_plan_id":"cebpf4jnsgd1na2vs0mg"},{"bike_id":"c59a5209-1b70-42df-8250-859beecf23e1","system_id":"levelo_inurba_marseille","lat":43.23208,"lon":5.35551,"is_reserved":false,"is_disabled":false,"rental_uris":{"android":"levelo://app?vid=c59a5209-1b70-42df-8250-859beecf23e1","ios":"levelo://app?vid=c59a5209-1b70-42df-8250-859beecf23e1"},"vehicle_type_id":"4","last_reported":1773301082,"current_range_meters":33200,"station_id":"ce4bhu92rcd13ifvqi70","pricing_plan_id":"cebpf4jnsgd1na2vs0mg"},{"bike_id":"173c16fb-2784-4332-9a42-61e67e7ab7fc","system_id":"levelo_inurba_marseille","lat":43.29187,"lon":5.40119,"is_reserved":false,"is_disabled":true,"rental_uris":{"android":"levelo://app?vid=173c16fb-2784-4332-9a42-61e67e7ab7fc","ios":"levelo://app?vid=173c16fb-2784-4332-9a42-61e67e7ab7fc"},"vehicle_type_id":"4","last_reported":1773301082,"current_range_meters":400,"station_id":"","pricing_plan_id":"cebpf4jnsgd1na2vs0mg"},{"bike_id":"7b101c0d-3cc0-43ba-a4f0-be5cd2de6699","system_id":"levelo_inurba_marseille","lat":43.2837,"lon":5.38107,"is_reserved":false,"is_disabled":false,"rental_uris":{"android":"levelo://app?vid=7b101c0d-3cc0-43ba-a4f0-be5cd2de6699","ios":"levelo://app?vid=7b101c0d-3cc0-43ba-a4f0-be5cd2de6699"},"vehicle_type_id":"4","last_reported":1773301082,"current_range_meters":33200,"station_id":"ce4bh412rcd13ifvqdr0","pricing_plan_id":"cebpf4jnsgd1na2vs0mg"},{"bike_id":"fed428a6-a508-4132-94d7-783075e10fe3","system_id":"levelo_inurba_marseille","lat":43.32344,"lon":5.36731,"is_reserved":false,"is_disabled":false,"rental_uris":{"android":"levelo://app?vid=fed428a6-a508-4132-94d7-783075e10fe3","ios":"levelo://app?vid=fed428a6-a508-4132-94d7-783075e10fe3"},"vehicle_type_id":"4","last_reported":1773301082,"current_range_meters":32400,"station_id":"ce4bhsh2rcd13ifvqi2g","pricing_plan_id":"cebpf4jnsgd1na2vs0mg"},{"bike_id":"b77fb604-0801-47d9-99a2-3844aa44df9a","system_id":"levelo_inurba_marseille","lat":43.25335,"lon":5.42176,"is_reserved":false,"is_disabled":false,"rental_uris":{"android":"levelo://app?vid=b77fb604-0801-47d9-99a2-3844aa44df9a","ios":"levelo://app?vid=b77fb604-0801-47d9-99a2-3844aa44df9a"},"vehicle_type_id":"4","last_reported":1773301082,"current_range_meters":25600,"station_id":"st_d2m65c5bi1j21697t3ng","pricing_plan_id":"cebpf4jnsgd1na2vs0mg"},{"bike_id":"dcad9259-a4d3-4cc7-94fc-0c8a7321317d","system_id":"levelo_inurba_marseille","lat":43.27093,"lon":5.38297,"is_reserved":false,"is_disabled":false,"rental_uris":{"android":"levelo://app?vid=dcad9259-a4d3-4cc7-94fc-0c8a7321317d","ios":"levelo://app?vid=dcad9259-a4d3-4cc7-94fc-0c8a7321317d"},"vehicle_type_id":"4","last_reported":1773301082,"current_range_meters":28000,"station_id":"st_d3n2fo6cfp8s73cte1j0","pricing_plan_id":"cebpf4jnsgd1na2vs0mg"},{"bike_id":"f720b8c6-7329-4f91-a1f9-2b6eb4f53fb5","system_id":"levelo_inurba_marseille","lat":43.30148,"lon":5.38048,"is_reserved":false,"is_disabled":false,"rental_uris":{"android":"levelo://app?vid=f720b8c6-7329-4f91-a1f9-2b6eb4f53fb5","ios":"levelo://app?vid=f720b8c6-7329-4f91-a1f9-2b6eb4f53fb5"},"vehicle_type_id":"4","last_reported":1773301082,"current_range_meters":34800,"station_id":"","pricing_plan_id":"cebpf4jnsgd1na2vs0mg"},{"bike_id":"a6308c57-1a36-41de-bb48-5ab4640b043f","system_id":"levelo_inurba_marseille","lat":43.29581,"lon":5.36751,"is_reserved":false,"is_disabled":false,"rental_uris":{"android":"levelo://app?vid=a6308c57-1a36-41de-bb48-5ab4640b043f","ios":"levelo://app?vid=a6308c57-1a36-41de-bb48-5ab4640b043f"},"vehicle_type_id":"4","last_reported":1773301082,"current_range_meters":24000,"station_id":"ce4bgph2rcd13ifvqc2g","pricing_plan_id":"cebpf4jnsgd1na2vs0mg"},{"bike_id":"71b9dbbe-6292-466e-89a4-72d40fd2b28c","system_id":"levelo_inurba_marseille","lat":43.28925,"lon":5.36648,"is_reserved":false,"is_disabled":false,"rental_uris":{"android":"levelo://app?vid=71b9dbbe-6292-466e-89a4-72d40fd2b28c","ios":"levelo://app?vid=71b9dbbe-6292-466e-89a4-72d40fd2b28c"},"vehicle_type_id":"4","last_reported":1773301082,"current_range_meters":34000,"station_id":"ce4bhap2rcd13ifvqek0","pricing_plan_id":"cebpf4jnsgd1na2vs0mg"},{"bike_id":"e8e891cf-164b-4375-8667-e5eaa1ef09df","system_id":"levelo_inurba_marseille","lat":43.31726,"lon":5.39009,"is_reserved":false,"is_disabled":false,"rental_uris":{"android":"levelo://app?vid=e8e891cf-164b-4375-8667-e5eaa1ef09df","ios":"levelo://app?vid=e8e891cf-164b-4375-8667-e5eaa1ef09df"},"vehicle_type_id":"4","last_reported":1773301082,"current_range_meters":36000,"station_id":"ce4bhqp2rcd13ifvqhng","pricing_plan_id":"cebpf4jnsgd1na2vs0mg"},{"bike_id":"d54dd028-8c0c-4475-883d-9121345203c0","system_id":"levelo_inurba_marseille","lat":43.28439,"lon":5.39183,"is_reserved":false,"is_disabled":false,"rental_uris":{"android":"levelo://app?vid=d54dd028-8c0c-4475-883d-9121345203c0","ios":"levelo://app?vid=d54dd028-8c0c-4475-883d-9121345203c0"},"vehicle_type_id":"4","last_reported":1773301082,"current_range_meters":39200,"station_id":"ce4bhoh2rcd13ifvqh5g","pricing_plan_id":"cebpf4jnsgd1na2vs0mg"},{"bike_id":"a540b441-3928-4042-84dc-78cbd8de6fd0","system_id":"levelo_inurba_marseille","lat":43.24461,"lon":5.37094,"is_reserved":false,"is_disabled":false,"rental_uris":{"android":"levelo://app?vid=a540b441-3928-4042-84dc-78cbd8de6fd0","ios":"levelo://app?vid=a540b441-3928-4042-84dc-78cbd8de6fd0"},"vehicle_type_id":"4","last_reported":1773301082,"current_range_meters":31200,"station_id":"","pricing_plan_id":"cebpf4jnsgd1na2vs0mg"},{"bike_id":"b2a69c97-4339-4083-90d9-b3414ae4bb10","system_id":"levelo_inurba_marseille","lat":43.31482,"lon":5.37308,"is_reserved":false,"is_disabled":true,"rental_uris":{"android":"levelo://app?vid=b2a69c97-4339-4083-90d9-b3414ae4bb10","ios":"levelo://app?vid=b2a69c97-4339-4083-90d9-b3414ae4bb10"},"vehicle_type_id":"4","last_reported":1773301082,"current_range_meters":0,"station_id":"ce4bgt12rcd13ifvqcd0","pricing_plan_id":"cebpf4jnsgd1na2vs0mg"},{"bike_id":"809b7623-0e13-4184-a3c5-f483d3816773","system_id":"levelo_inurba_marseille","lat":43.29575,"lon":5.37512,"is_reserved":false,"is_disabled":false,"rental_uris":{"android":"levelo://app?vid=809b7623-0e13-4184-a3c5-f483d3816773","ios":"levelo://app?vid=809b7623-0e13-4184-a3c5-f483d3816773"},"vehicle_type_id":"4","last_reported":1773301082,"current_range_meters":11600,"station_id":"ce4bgh92rcd13ifvqb50","pricing_plan_id":"cebpf4jnsgd1na2vs0mg"},{"bike_id":"08131f05-e3b5-4642-99ed-147f9e94babc","system_id":"levelo_inurba_marseille","lat":43.29619,"lon":5.37723,"is_reserved":false,"is_disabled":false,"rental_uris":{"android":"levelo://app?vid=08131f05-e3b5-4642-99ed-147f9e94babc","ios":"levelo://app?vid=08131f05-e3b5-4642-99ed-147f9e94babc"},"vehicle_type_id":"4","last_reported":1773301082,"current_range_meters":28000,"station_id":"ce4bgi92rcd13ifvqb90","pricing_plan_id":"cebpf4jnsgd1na2vs0mg"},{"bike_id":"f09bf0e2-856c-4852-991d-8bb38054f10c","system_id":"levelo_inurba_marseille","lat":43.24069,"lon":5.37753,"is_reserved":false,"is_disabled":false,"rental_uris":{"android":"levelo://app?vid=f09bf0e2-856c-4852-991d-8bb38054f10c","ios":"levelo://app?vid=f09bf0e2-856c-4852-991d-8bb38054f10c"},"vehicle_type_id":"4","last_reported":1773301082,"current_range_meters":31200,"station_id":"ce4bhnp2rcd13ifvqgvg","pricing_plan_id":"cebpf4jnsgd1na2vs0mg"},{"bike_id":"5f43d6e4-9ddc-42c9-87f7-a180f9beae2e","system_id":"levelo_inurba_marseille","lat":43.30139,"lon":5.38105,"is_reserved":false,"is_disabled":false,"rental_uris":{"android":"levelo://app?vid=5f43d6e4-9ddc-42c9-87f7-a180f9beae2e","ios":"levelo://app?vid=5f43d6e4-9ddc-42c9-87f7-a180f9beae2e"},"vehicle_type_id":"4","last_reported":1773301082,"current_range_meters":38000,"station_id":"","pricing_plan_id":"cebpf4jnsgd1na2vs0mg"},{"bike_id":"4647bd8c-2a64-4024-bb27-57172580053c","system_id":"levelo_inurba_marseille","lat":43.26937,"lon":5.40262,"is_reserved":false,"is_disabled":false,"rental_uris":{"android":"levelo://app?vid=4647bd8c-2a64-4024-bb27-57172580053c","ios":"levelo://app?vid=4647bd8c-2a64-4024-bb27-57172580053c"},"vehicle_type_id":"4","last_reported":1773301082,"current_range_meters":7200,"station_id":"cjm6bp8fraef2m0cb0m0","pricing_plan_id":"cebpf4jnsgd1na2vs0mg"},{"bike_id":"412ebc32-5589-4f6e-8ac6-13ac9134d8c4","system_id":"levelo_inurba_marseille","lat":43.279694,"lon":5.387333,"is_reserved":false,"is_disabled":true,"rental_uris":{"android":"levelo://app?vid=412ebc32-5589-4f6e-8ac6-13ac9134d8c4","ios":"levelo://app?vid=412ebc32-5589-4f6e-8ac6-13ac9134d8c4"},"vehicle_type_id":"4","last_reported":1773301082,"current_range_meters":10800,"station_id":"ce4bhg12rcd13ifvqf80","pricing_plan_id":"cebpf4jnsgd1na2vs0mg"},{"bike_id":"49180d75-c6b9-4945-8a4e-8dd802a3ed5d","system_id":"levelo_inurba_marseille","lat":43.28491,"lon":5.38452,"is_reserved":false,"is_disabled":true,"rental_uris":{"android":"levelo://app?vid=49180d75-c6b9-4945-8a4e-8dd802a3ed5d","ios":"levelo://app?vid=49180d75-c6b9-4945-8a4e-8dd802a3ed5d"},"vehicle_type_id":"4","last_reported":1773301082,"current_range_meters":0,"station_id":"ce4bh512rcd13ifvqe3g","pricing_plan_id":"cebpf4jnsgd1na2vs0mg"},{"bike_id":"9c37c959-e40e-4036-bb6d-05b7579986fd","system_id":"levelo_inurba_marseille","lat":43.23213,"lon":5.35529,"is_reserved":false,"is_disabled":false,"rental_uris":{"android":"levelo://app?vid=9c37c959-e40e-4036-bb6d-05b7579986fd","ios":"levelo://app?vid=9c37c959-e40e-4036-bb6d-05b7579986fd"},"vehicle_type_id":"4","last_reported":1773301082,"current_range_meters":30000,"station_id":"ce4bhu92rcd13ifvqi70","pricing_plan_id":"cebpf4jnsgd1na2vs0mg"},{"bike_id":"27cd9fdd-cf4f-49d1-b29f-a4088559e5fb","system_id":"levelo_inurba_marseille","lat":43.2847,"lon":5.38416,"is_reserved":false,"is_disabled":false,"rental_uris":{"android":"levelo://app?vid=27cd9fdd-cf4f-49d1-b29f-a4088559e5fb","ios":"levelo://app?vid=27cd9fdd-cf4f-49d1-b29f-a4088559e5fb"},"vehicle_type_id":"4","last_reported":1773301082,"current_range_meters":39200,"station_id":"ce4bh512rcd13ifvqe3g","pricing_plan_id":"cebpf4jnsgd1na2vs0mg"},{"bike_id":"d551195e-f5b0-490f-bac9-9dae68d902a4","system_id":"levelo_inurba_marseille","lat":43.21768,"lon":5.34589,"is_reserved":false,"is_disabled":false,"rental_uris":{"android":"levelo://app?vid=d551195e-f5b0-490f-bac9-9dae68d902a4","ios":"levelo://app?vid=d551195e-f5b0-490f-bac9-9dae68d902a4"},"vehicle_type_id":"4","last_reported":1773301082,"current_range_meters":34000,"station_id":"st_cvj6r9ubvosntc0bgbag","pricing_plan_id":"cebpf4jnsgd1na2vs0mg"},{"bike_id":"88ef34cf-eb20-47fd-826e-e977305528d7","system_id":"levelo_inurba_marseille","lat":43.29367,"lon":5.37832,"is_reserved":false,"is_disabled":false,"rental_uris":{"android":"levelo://app?vid=88ef34cf-eb20-47fd-826e-e977305528d7","ios":"levelo://app?vid=88ef34cf-eb20-47fd-826e-e977305528d7"},"vehicle_type_id":"4","last_reported":1773301082,"current_range_meters":39200,"station_id":"ce4bgjh2rcd13ifvqbf0","pricing_plan_id":"cebpf4jnsgd1na2vs0mg"},{"bike_id":"0a2f9b28-6219-4106-b011-3026133a767c","system_id":"levelo_inurba_marseille","lat":43.29605,"lon":5.3809,"is_reserved":false,"is_disabled":true,"rental_uris":{"android":"levelo://app?vid=0a2f9b28-6219-4106-b011-3026133a767c","ios":"levelo://app?vid=0a2f9b28-6219-4106-b011-3026133a767c"},"vehicle_type_id":"4","last_reported":1773301082,"current_range_meters":21600,"station_id":"","pricing_plan_id":"cebpf4jnsgd1na2vs0mg"},{"bike_id":"d7700f42-d135-43cd-a043-73b52102669b","system_id":"levelo_inurba_marseille","lat":43.27952,"lon":5.38734,"is_reserved":false,"is_disabled":false,"rental_uris":{"android":"levelo://app?vid=d7700f42-d135-43cd-a043-73b52102669b","ios":"levelo://app?vid=d7700f42-d135-43cd-a043-73b52102669b"},"vehicle_type_id":"4","last_reported":1773301082,"current_range_meters":40000,"station_id":"ce4bhg12rcd13ifvqf80","pricing_plan_id":"cebpf4jnsgd1na2vs0mg"},{"bike_id":"cc089a67-f9b7-428c-b27c-04620a17d5aa","system_id":"levelo_inurba_marseille","lat":43.27494,"lon":5.42451,"is_reserved":false,"is_disabled":false,"rental_uris":{"android":"levelo://app?vid=cc089a67-f9b7-428c-b27c-04620a17d5aa","ios":"levelo://app?vid=cc089a67-f9b7-428c-b27c-04620a17d5aa"},"vehicle_type_id":"4","last_reported":1773301082,"current_range_meters":27200,"station_id":"ce4bhn92rcd13ifvqgrg","pricing_plan_id":"cebpf4jnsgd1na2vs0mg"},{"bike_id":"4d7ce591-8eae-42e2-a6e7-1edf70e5b00f","system_id":"levelo_inurba_marseille","lat":43.2963,"lon":5.40592,"is_reserved":false,"is_disabled":false,"rental_uris":{"android":"levelo://app?vid=4d7ce591-8eae-42e2-a6e7-1edf70e5b00f","ios":"levelo://app?vid=4d7ce591-8eae-42e2-a6e7-1edf70e5b00f"},"vehicle_type_id":"4","last_reported":1773301082,"current_range_meters":18800,"station_id":"ce4bh0h2rcd13ifvqd60","pricing_plan_id":"cebpf4jnsgd1na2vs0mg"},{"bike_id":"e75949b1-6b75-4a5e-aef4-22e4660f1344","system_id":"levelo_inurba_marseille","lat":43.30602,"lon":5.37193,"is_reserved":false,"is_disabled":false,"rental_uris":{"android":"levelo://app?vid=e75949b1-6b75-4a5e-aef4-22e4660f1344","ios":"levelo://app?vid=e75949b1-6b75-4a5e-aef4-22e4660f1344"},"vehicle_type_id":"4","last_reported":1773301082,"current_range_meters":28400,"station_id":"ce4bgqh2rcd13ifvqc4g","pricing_plan_id":"cebpf4jnsgd1na2vs0mg"},{"bike_id":"c73dc152-9938-46ce-972e-77003c30697b","system_id":"levelo_inurba_marseille","lat":43.25833,"lon":5.39437,"is_reserved":false,"is_disabled":false,"rental_uris":{"android":"levelo://app?vid=c73dc152-9938-46ce-972e-77003c30697b","ios":"levelo://app?vid=c73dc152-9938-46ce-972e-77003c30697b"},"vehicle_type_id":"4","last_reported":1773301082,"current_range_meters":37600,"station_id":"ce4bhip2rcd13ifvqft0","pricing_plan_id":"cebpf4jnsgd1na2vs0mg"},{"bike_id":"e17b8e76-0f76-40aa-a687-3f87eeadab84","system_id":"levelo_inurba_marseille","lat":43.26795,"lon":5.40283,"is_reserved":false,"is_disabled":false,"rental_uris":{"android":"levelo://app?vid=e17b8e76-0f76-40aa-a687-3f87eeadab84","ios":"levelo://app?vid=e17b8e76-0f76-40aa-a687-3f87eeadab84"},"vehicle_type_id":"4","last_reported":1773301082,"current_range_meters":32000,"station_id":"ce501612rcd8frsf0b60","pricing_plan_id":"cebpf4jnsgd1na2vs0mg"},{"bike_id":"cd0e7918-cb50-4686-9841-9d9629f842f8","system_id":"levelo_inurba_marseille","lat":43.29919,"lon":5.38164,"is_reserved":false,"is_disabled":false,"rental_uris":{"android":"levelo://app?vid=cd0e7918-cb50-4686-9841-9d9629f842f8","ios":"levelo://app?vid=cd0e7918-cb50-4686-9841-9d9629f842f8"},"vehicle_type_id":"4","last_reported":1773301082,"current_range_meters":40000,"station_id":"ce4bgj12rcd13ifvqbc0","pricing_plan_id":"cebpf4jnsgd1na2vs0mg"},{"bike_id":"a975d39d-4a14-4e0c-8235-9aa6495c9757","system_id":"levelo_inurba_marseille","lat":43.27405,"lon":5.4249,"is_reserved":false,"is_disabled":true,"rental_uris":{"android":"levelo://app?vid=a975d39d-4a14-4e0c-8235-9aa6495c9757","ios":"levelo://app?vid=a975d39d-4a14-4e0c-8235-9aa6495c9757"},"vehicle_type_id":"4","last_reported":1773301082,"current_range_meters":30800,"station_id":"","pricing_plan_id":"cebpf4jnsgd1na2vs0mg"},{"bike_id":"42c23f21-e078-4684-bab5-a30fd2bf0118","system_id":"levelo_inurba_marseille","lat":43.29722,"lon":5.37696,"is_reserved":false,"is_disabled":false,"rental_uris":{"android":"levelo://app?vid=42c23f21-e078-4684-bab5-a30fd2bf0118","ios":"levelo://app?vid=42c23f21-e078-4684-bab5-a30fd2bf0118"},"vehicle_type_id":"4","last_reported":1773301082,"current_range_meters":3600,"station_id":"ce4bgkh2rcd13ifvqbl0","pricing_plan_id":"cebpf4jnsgd1na2vs0mg"},{"bike_id":"bee871d3-07ca-4830-9795-16242e3d8f72","system_id":"levelo_inurba_marseille","lat":43.27496,"lon":5.42444,"is_reserved":false,"is_disabled":false,"rental_uris":{"android":"levelo://app?vid=bee871d3-07ca-4830-9795-16242e3d8f72","ios":"levelo://app?vid=bee871d3-07ca-4830-9795-16242e3d8f72"},"vehicle_type_id":"4","last_reported":1773301082,"current_range_meters":34800,"station_id":"ce4bhn92rcd13ifvqgrg","pricing_plan_id":"cebpf4jnsgd1na2vs0mg"},{"bike_id":"648ef0c3-dc3d-4c0b-a0fa-86816163a300","system_id":"levelo_inurba_marseille","lat":43.25015,"lon":5.38939,"is_reserved":false,"is_disabled":false,"rental_uris":{"android":"levelo://app?vid=648ef0c3-dc3d-4c0b-a0fa-86816163a300","ios":"levelo://app?vid=648ef0c3-dc3d-4c0b-a0fa-86816163a300"},"vehicle_type_id":"4","last_reported":1773301082,"current_range_meters":39200,"station_id":"ce4bhgp2rcd13ifvqfd0","pricing_plan_id":"cebpf4jnsgd1na2vs0mg"},{"bike_id":"e8629347-a513-4aec-9afe-b17eceb143eb","system_id":"levelo_inurba_marseille","lat":43.2836,"lon":5.38667,"is_reserved":false,"is_disabled":false,"rental_uris":{"android":"levelo://app?vid=e8629347-a513-4aec-9afe-b17eceb143eb","ios":"levelo://app?vid=e8629347-a513-4aec-9afe-b17eceb143eb"},"vehicle_type_id":"4","last_reported":1773301082,"current_range_meters":36000,"station_id":"ce4bh492rcd13ifvqdvg","pricing_plan_id":"cebpf4jnsgd1na2vs0mg"},{"bike_id":"85b6a80c-3e54-4a80-977a-3beba60bd2c5","system_id":"levelo_inurba_marseille","lat":43.28043,"lon":5.36945,"is_reserved":false,"is_disabled":false,"rental_uris":{"android":"levelo://app?vid=85b6a80c-3e54-4a80-977a-3beba60bd2c5","ios":"levelo://app?vid=85b6a80c-3e54-4a80-977a-3beba60bd2c5"},"vehicle_type_id":"4","last_reported":1773301082,"current_range_meters":20800,"station_id":"ce4bha12rcd13ifvqef0","pricing_plan_id":"cebpf4jnsgd1na2vs0mg"},{"bike_id":"6fb5ab57-ef29-41f3-8acd-c554076c0bbe","system_id":"levelo_inurba_marseille","lat":43.29268,"lon":5.36842,"is_reserved":false,"is_disabled":false,"rental_uris":{"android":"levelo://app?vid=6fb5ab57-ef29-41f3-8acd-c554076c0bbe","ios":"levelo://app?vid=6fb5ab57-ef29-41f3-8acd-c554076c0bbe"},"vehicle_type_id":"4","last_reported":1773301082,"current_range_meters":35600,"station_id":"ce4bhbp2rcd13ifvqesg","pricing_plan_id":"cebpf4jnsgd1na2vs0mg"},{"bike_id":"e34a0730-aaa8-4915-83e1-37d71abae173","system_id":"levelo_inurba_marseille","lat":43.27954,"lon":5.4105,"is_reserved":false,"is_disabled":false,"rental_uris":{"android":"levelo://app?vid=e34a0730-aaa8-4915-83e1-37d71abae173","ios":"levelo://app?vid=e34a0730-aaa8-4915-83e1-37d71abae173"},"vehicle_type_id":"4","last_reported":1773301082,"current_range_meters":38000,"station_id":"ce4bhnp2rcd13ifvqh0g","pricing_plan_id":"cebpf4jnsgd1na2vs0mg"},{"bike_id":"34f67e69-6b22-4c95-8433-44ed5a9fe043","system_id":"levelo_inurba_marseille","lat":43.23196,"lon":5.35558,"is_reserved":false,"is_disabled":false,"rental_uris":{"android":"levelo://app?vid=34f67e69-6b22-4c95-8433-44ed5a9fe043","ios":"levelo://app?vid=34f67e69-6b22-4c95-8433-44ed5a9fe043"},"vehicle_type_id":"4","last_reported":1773301082,"current_range_meters":16800,"station_id":"ce4bhu92rcd13ifvqi70","pricing_plan_id":"cebpf4jnsgd1na2vs0mg"},{"bike_id":"3faa16cc-6e1f-493a-a741-02df3aeeba1e","system_id":"levelo_inurba_marseille","lat":43.29033,"lon":5.39966,"is_reserved":false,"is_disabled":false,"rental_uris":{"android":"levelo://app?vid=3faa16cc-6e1f-493a-a741-02df3aeeba1e","ios":"levelo://app?vid=3faa16cc-6e1f-493a-a741-02df3aeeba1e"},"vehicle_type_id":"4","last_reported":1773301082,"current_range_meters":18000,"station_id":"ce4bh392rcd13ifvqdm0","pricing_plan_id":"cebpf4jnsgd1na2vs0mg"},{"bike_id":"a63d22a1-9803-47da-97c5-9eb5069b8019","system_id":"levelo_inurba_marseille","lat":43.25831,"lon":5.39444,"is_reserved":false,"is_disabled":false,"rental_uris":{"android":"levelo://app?vid=a63d22a1-9803-47da-97c5-9eb5069b8019","ios":"levelo://app?vid=a63d22a1-9803-47da-97c5-9eb5069b8019"},"vehicle_type_id":"4","last_reported":1773301082,"current_range_meters":37600,"station_id":"ce4bhip2rcd13ifvqft0","pricing_plan_id":"cebpf4jnsgd1na2vs0mg"},{"bike_id":"8b2e521b-1101-44fe-9d4a-0344f080c81c","system_id":"levelo_inurba_marseille","lat":43.28484,"lon":5.48396,"is_reserved":false,"is_disabled":false,"rental_uris":{"android":"levelo://app?vid=8b2e521b-1101-44fe-9d4a-0344f080c81c","ios":"levelo://app?vid=8b2e521b-1101-44fe-9d4a-0344f080c81c"},"vehicle_type_id":"4","last_reported":1773301082,"current_range_meters":34000,"station_id":"","pricing_plan_id":"cebpf4jnsgd1na2vs0mg"},{"bike_id":"982ac492-58aa-4e54-aa29-5d042067d5db","system_id":"levelo_inurba_marseille","lat":43.29042,"lon":5.37574,"is_reserved":false,"is_disabled":false,"rental_uris":{"android":"levelo://app?vid=982ac492-58aa-4e54-aa29-5d042067d5db","ios":"levelo://app?vid=982ac492-58aa-4e54-aa29-5d042067d5db"},"vehicle_type_id":"4","last_reported":1773301082,"current_range_meters":37600,"station_id":"ce4bh692rcd13ifvqe90","pricing_plan_id":"cebpf4jnsgd1na2vs0mg"},{"bike_id":"7814c3e3-4ac3-4b10-8dfa-88d309b2e93b","system_id":"levelo_inurba_marseille","lat":43.26805,"lon":5.39423,"is_reserved":false,"is_disabled":false,"rental_uris":{"android":"levelo://app?vid=7814c3e3-4ac3-4b10-8dfa-88d309b2e93b","ios":"levelo://app?vid=7814c3e3-4ac3-4b10-8dfa-88d309b2e93b"},"vehicle_type_id":"4","last_reported":1773301082,"current_range_meters":38400,"station_id":"ce4bhh12rcd13ifvqfg0","pricing_plan_id":"cebpf4jnsgd1na2vs0mg"},{"bike_id":"1697678c-c8a4-4c47-ade7-901915c540a8","system_id":"levelo_inurba_marseille","lat":43.29599,"lon":5.38099,"is_reserved":false,"is_disabled":true,"rental_uris":{"android":"levelo://app?vid=1697678c-c8a4-4c47-ade7-901915c540a8","ios":"levelo://app?vid=1697678c-c8a4-4c47-ade7-901915c540a8"},"vehicle_type_id":"4","last_reported":1773301082,"current_range_meters":3600,"station_id":"ce4bgl12rcd13ifvqbo0","pricing_plan_id":"cebpf4jnsgd1na2vs0mg"},{"bike_id":"66528f80-fb68-498d-bd2d-ca4ea15bdef0","system_id":"levelo_inurba_marseille","lat":43.26515,"lon":5.39536,"is_reserved":false,"is_disabled":false,"rental_uris":{"android":"levelo://app?vid=66528f80-fb68-498d-bd2d-ca4ea15bdef0","ios":"levelo://app?vid=66528f80-fb68-498d-bd2d-ca4ea15bdef0"},"vehicle_type_id":"4","last_reported":1773301082,"current_range_meters":36800,"station_id":"ce4bhi12rcd13ifvqfq0","pricing_plan_id":"cebpf4jnsgd1na2vs0mg"},{"bike_id":"b25d2da3-e55a-45fd-ac7e-cf696fba5f30","system_id":"levelo_inurba_marseille","lat":43.27494,"lon":5.42447,"is_reserved":false,"is_disabled":false,"rental_uris":{"android":"levelo://app?vid=b25d2da3-e55a-45fd-ac7e-cf696fba5f30","ios":"levelo://app?vid=b25d2da3-e55a-45fd-ac7e-cf696fba5f30"},"vehicle_type_id":"4","last_reported":1773301082,"current_range_meters":4400,"station_id":"ce4bhn92rcd13ifvqgrg","pricing_plan_id":"cebpf4jnsgd1na2vs0mg"},{"bike_id":"eb10580c-7923-402b-ac31-ee02067a1730","system_id":"levelo_inurba_marseille","lat":43.28444,"lon":5.39201,"is_reserved":false,"is_disabled":false,"rental_uris":{"android":"levelo://app?vid=eb10580c-7923-402b-ac31-ee02067a1730","ios":"levelo://app?vid=eb10580c-7923-402b-ac31-ee02067a1730"},"vehicle_type_id":"4","last_reported":1773301082,"current_range_meters":24000,"station_id":"ce4bhoh2rcd13ifvqh5g","pricing_plan_id":"cebpf4jnsgd1na2vs0mg"},{"bike_id":"98d1559e-d2bf-470b-aa3b-e89fc9e63aa5","system_id":"levelo_inurba_marseille","lat":43.2408,"lon":5.37761,"is_reserved":false,"is_disabled":false,"rental_uris":{"android":"levelo://app?vid=98d1559e-d2bf-470b-aa3b-e89fc9e63aa5","ios":"levelo://app?vid=98d1559e-d2bf-470b-aa3b-e89fc9e63aa5"},"vehicle_type_id":"4","last_reported":1773301082,"current_range_meters":21600,"station_id":"ce4bhnp2rcd13ifvqgvg","pricing_plan_id":"cebpf4jnsgd1na2vs0mg"},{"bike_id":"65a7fe50-2450-4c8f-8e44-981be7bdae37","system_id":"levelo_inurba_marseille","lat":43.24731,"lon":5.38232,"is_reserved":false,"is_disabled":false,"rental_uris":{"android":"levelo://app?vid=65a7fe50-2450-4c8f-8e44-981be7bdae37","ios":"levelo://app?vid=65a7fe50-2450-4c8f-8e44-981be7bdae37"},"vehicle_type_id":"4","last_reported":1773301082,"current_range_meters":15200,"station_id":"ce4bguh2rcd13ifvqckg","pricing_plan_id":"cebpf4jnsgd1na2vs0mg"},{"bike_id":"38d83f7e-cec9-4dad-9ec7-a3d2de476db5","system_id":"levelo_inurba_marseille","lat":43.28422,"lon":5.34977,"is_reserved":false,"is_disabled":false,"rental_uris":{"android":"levelo://app?vid=38d83f7e-cec9-4dad-9ec7-a3d2de476db5","ios":"levelo://app?vid=38d83f7e-cec9-4dad-9ec7-a3d2de476db5"},"vehicle_type_id":"4","last_reported":1773301082,"current_range_meters":39200,"station_id":"ce4bhbh2rcd13ifvqepg","pricing_plan_id":"cebpf4jnsgd1na2vs0mg"},{"bike_id":"e866f69f-3bec-49a1-9a39-2ad3a9b49ffe","system_id":"levelo_inurba_marseille","lat":43.29045,"lon":5.39966,"is_reserved":false,"is_disabled":false,"rental_uris":{"android":"levelo://app?vid=e866f69f-3bec-49a1-9a39-2ad3a9b49ffe","ios":"levelo://app?vid=e866f69f-3bec-49a1-9a39-2ad3a9b49ffe"},"vehicle_type_id":"4","last_reported":1773301082,"current_range_meters":35200,"station_id":"ce4bh392rcd13ifvqdm0","pricing_plan_id":"cebpf4jnsgd1na2vs0mg"},{"bike_id":"02b273a0-47c2-42fc-869f-f805bee20647","system_id":"levelo_inurba_marseille","lat":43.28031,"lon":5.38725,"is_reserved":false,"is_disabled":false,"rental_uris":{"android":"levelo://app?vid=02b273a0-47c2-42fc-869f-f805bee20647","ios":"levelo://app?vid=02b273a0-47c2-42fc-869f-f805bee20647"},"vehicle_type_id":"4","last_reported":1773301082,"current_range_meters":39200,"station_id":"ce4bhg12rcd13ifvqf80","pricing_plan_id":"cebpf4jnsgd1na2vs0mg"},{"bike_id":"1341cee3-1fed-4544-bc59-875506a906ea","system_id":"levelo_inurba_marseille","lat":43.31689,"lon":5.40476,"is_reserved":false,"is_disabled":false,"rental_uris":{"android":"levelo://app?vid=1341cee3-1fed-4544-bc59-875506a906ea","ios":"levelo://app?vid=1341cee3-1fed-4544-bc59-875506a906ea"},"vehicle_type_id":"4","last_reported":1773301082,"current_range_meters":31200,"station_id":"ce4bh012rcd13ifvqd00","pricing_plan_id":"cebpf4jnsgd1na2vs0mg"},{"bike_id":"2ec0d240-9fa8-4251-9c9b-1cc6d98b3d6c","system_id":"levelo_inurba_marseille","lat":43.25583,"lon":5.38236,"is_reserved":false,"is_disabled":false,"rental_uris":{"android":"levelo://app?vid=2ec0d240-9fa8-4251-9c9b-1cc6d98b3d6c","ios":"levelo://app?vid=2ec0d240-9fa8-4251-9c9b-1cc6d98b3d6c"},"vehicle_type_id":"4","last_reported":1773301082,"current_range_meters":26000,"station_id":"ce4bhih2rcd13ifvqfs0","pricing_plan_id":"cebpf4jnsgd1na2vs0mg"},{"bike_id":"26a6b2e2-002a-4072-a1a2-b594f4e8b66c","system_id":"levelo_inurba_marseille","lat":43.30879,"lon":5.37342,"is_reserved":false,"is_disabled":false,"rental_uris":{"android":"levelo://app?vid=26a6b2e2-002a-4072-a1a2-b594f4e8b66c","ios":"levelo://app?vid=26a6b2e2-002a-4072-a1a2-b594f4e8b66c"},"vehicle_type_id":"4","last_reported":1773301082,"current_range_meters":27200,"station_id":"","pricing_plan_id":"cebpf4jnsgd1na2vs0mg"},{"bike_id":"feac057a-9666-46ad-8767-bee80ba5e677","system_id":"levelo_inurba_marseille","lat":43.29973,"lon":5.37179,"is_reserved":false,"is_disabled":false,"rental_uris":{"android":"levelo://app?vid=feac057a-9666-46ad-8767-bee80ba5e677","ios":"levelo://app?vid=feac057a-9666-46ad-8767-bee80ba5e677"},"vehicle_type_id":"4","last_reported":1773301082,"current_range_meters":35200,"station_id":"ce4bgr92rcd13ifvqc7g","pricing_plan_id":"cebpf4jnsgd1na2vs0mg"},{"bike_id":"5427f33b-9c12-4d35-9e4f-95e705df3b08","system_id":"levelo_inurba_marseille","lat":43.29637,"lon":5.37179,"is_reserved":false,"is_disabled":false,"rental_uris":{"android":"levelo://app?vid=5427f33b-9c12-4d35-9e4f-95e705df3b08","ios":"levelo://app?vid=5427f33b-9c12-4d35-9e4f-95e705df3b08"},"vehicle_type_id":"4","last_reported":1773301082,"current_range_meters":39200,"station_id":"ce4bgnh2rcd13ifvqc0g","pricing_plan_id":"cebpf4jnsgd1na2vs0mg"},{"bike_id":"3608c98f-a3cb-41f5-8712-bb9b75936357","system_id":"levelo_inurba_marseille","lat":43.29208,"lon":5.36058,"is_reserved":false,"is_disabled":false,"rental_uris":{"android":"levelo://app?vid=3608c98f-a3cb-41f5-8712-bb9b75936357","ios":"levelo://app?vid=3608c98f-a3cb-41f5-8712-bb9b75936357"},"vehicle_type_id":"4","last_reported":1773301082,"current_range_meters":16000,"station_id":"ce4bhbh2rcd13ifvqeqg","pricing_plan_id":"cebpf4jnsgd1na2vs0mg"},{"bike_id":"1445cfca-2724-4b39-a1db-eda5037e9849","system_id":"levelo_inurba_marseille","lat":43.27215,"lon":5.39181,"is_reserved":false,"is_disabled":true,"rental_uris":{"android":"levelo://app?vid=1445cfca-2724-4b39-a1db-eda5037e9849","ios":"levelo://app?vid=1445cfca-2724-4b39-a1db-eda5037e9849"},"vehicle_type_id":"4","last_reported":1773301082,"current_range_meters":1200,"station_id":"ce4bhhp2rcd13ifvqfm0","pricing_plan_id":"cebpf4jnsgd1na2vs0mg"},{"bike_id":"43dec2c9-0ed1-464f-872a-fff85f3760db","system_id":"levelo_inurba_marseille","lat":43.29569,"lon":5.368,"is_reserved":false,"is_disabled":false,"rental_uris":{"android":"levelo://app?vid=43dec2c9-0ed1-464f-872a-fff85f3760db","ios":"levelo://app?vid=43dec2c9-0ed1-464f-872a-fff85f3760db"},"vehicle_type_id":"4","last_reported":1773301082,"current_range_meters":29600,"station_id":"","pricing_plan_id":"cebpf4jnsgd1na2vs0mg"},{"bike_id":"7048f9c1-889a-4e47-9529-315e5bb5693c","system_id":"levelo_inurba_marseille","lat":43.2438,"lon":5.37061,"is_reserved":false,"is_disabled":false,"rental_uris":{"android":"levelo://app?vid=7048f9c1-889a-4e47-9529-315e5bb5693c","ios":"levelo://app?vid=7048f9c1-889a-4e47-9529-315e5bb5693c"},"vehicle_type_id":"4","last_reported":1773301082,"current_range_meters":38800,"station_id":"ce4bhhh2rcd13ifvqfk0","pricing_plan_id":"cebpf4jnsgd1na2vs0mg"},{"bike_id":"957b4813-0c43-4a1c-a466-88903ef8e888","system_id":"levelo_inurba_marseille","lat":43.2408,"lon":5.37759,"is_reserved":false,"is_disabled":false,"rental_uris":{"android":"levelo://app?vid=957b4813-0c43-4a1c-a466-88903ef8e888","ios":"levelo://app?vid=957b4813-0c43-4a1c-a466-88903ef8e888"},"vehicle_type_id":"4","last_reported":1773301082,"current_range_meters":2800,"station_id":"ce4bhnp2rcd13ifvqgvg","pricing_plan_id":"cebpf4jnsgd1na2vs0mg"},{"bike_id":"b9f9e0ce-11cd-4f1d-b776-e866e84cb559","system_id":"levelo_inurba_marseille","lat":43.291169,"lon":5.381355,"is_reserved":false,"is_disabled":false,"rental_uris":{"android":"levelo://app?vid=b9f9e0ce-11cd-4f1d-b776-e866e84cb559","ios":"levelo://app?vid=b9f9e0ce-11cd-4f1d-b776-e866e84cb559"},"vehicle_type_id":"4","last_reported":1773301082,"current_range_meters":8800,"station_id":"ce4bh512rcd13ifvqe2g","pricing_plan_id":"cebpf4jnsgd1na2vs0mg"},{"bike_id":"f7dafe7c-4b45-481f-a427-ab6708f3f1d8","system_id":"levelo_inurba_marseille","lat":43.28154,"lon":5.42647,"is_reserved":false,"is_disabled":true,"rental_uris":{"android":"levelo://app?vid=f7dafe7c-4b45-481f-a427-ab6708f3f1d8","ios":"levelo://app?vid=f7dafe7c-4b45-481f-a427-ab6708f3f1d8"},"vehicle_type_id":"4","last_reported":1773301082,"current_range_meters":0,"station_id":"ce4bhnh2rcd13ifvqgug","pricing_plan_id":"cebpf4jnsgd1na2vs0mg"},{"bike_id":"354b5bda-3949-4498-85b6-eb76538c91b8","system_id":"levelo_inurba_marseille","lat":43.26021,"lon":5.39438,"is_reserved":false,"is_disabled":false,"rental_uris":{"android":"levelo://app?vid=354b5bda-3949-4498-85b6-eb76538c91b8","ios":"levelo://app?vid=354b5bda-3949-4498-85b6-eb76538c91b8"},"vehicle_type_id":"4","last_reported":1773301082,"current_range_meters":38800,"station_id":"ce4bhh92rcd13ifvqfj0","pricing_plan_id":"cebpf4jnsgd1na2vs0mg"},{"bike_id":"31eab7aa-d2ff-4d19-8af0-c2c63f0c6b5f","system_id":"levelo_inurba_marseille","lat":43.23207,"lon":5.35578,"is_reserved":false,"is_disabled":false,"rental_uris":{"android":"levelo://app?vid=31eab7aa-d2ff-4d19-8af0-c2c63f0c6b5f","ios":"levelo://app?vid=31eab7aa-d2ff-4d19-8af0-c2c63f0c6b5f"},"vehicle_type_id":"4","last_reported":1773301082,"current_range_meters":22000,"station_id":"ce4bhu92rcd13ifvqi70","pricing_plan_id":"cebpf4jnsgd1na2vs0mg"},{"bike_id":"4cd63f56-88f2-44dc-8d79-97be63a73aac","system_id":"levelo_inurba_marseille","lat":43.3317,"lon":5.37709,"is_reserved":false,"is_disabled":false,"rental_uris":{"android":"levelo://app?vid=4cd63f56-88f2-44dc-8d79-97be63a73aac","ios":"levelo://app?vid=4cd63f56-88f2-44dc-8d79-97be63a73aac"},"vehicle_type_id":"4","last_reported":1773301082,"current_range_meters":10000,"station_id":"st_d46cu089ee8s73dldbu0","pricing_plan_id":"cebpf4jnsgd1na2vs0mg"},{"bike_id":"c02460a1-d662-4c8f-90f3-d3efb5b47cd1","system_id":"levelo_inurba_marseille","lat":43.27208,"lon":5.39167,"is_reserved":false,"is_disabled":false,"rental_uris":{"android":"levelo://app?vid=c02460a1-d662-4c8f-90f3-d3efb5b47cd1","ios":"levelo://app?vid=c02460a1-d662-4c8f-90f3-d3efb5b47cd1"},"vehicle_type_id":"4","last_reported":1773301082,"current_range_meters":35600,"station_id":"ce4bhhp2rcd13ifvqfm0","pricing_plan_id":"cebpf4jnsgd1na2vs0mg"},{"bike_id":"4bfb174a-06d3-4562-9b73-992b914fe592","system_id":"levelo_inurba_marseille","lat":43.31373,"lon":5.3672,"is_reserved":false,"is_disabled":false,"rental_uris":{"android":"levelo://app?vid=4bfb174a-06d3-4562-9b73-992b914fe592","ios":"levelo://app?vid=4bfb174a-06d3-4562-9b73-992b914fe592"},"vehicle_type_id":"4","last_reported":1773301082,"current_range_meters":33600,"station_id":"ce4bgr92rcd13ifvqc6g","pricing_plan_id":"cebpf4jnsgd1na2vs0mg"},{"bike_id":"099c98f1-3c97-4f83-88ef-7c3cc743f3f7","system_id":"levelo_inurba_marseille","lat":43.26217,"lon":5.37441,"is_reserved":false,"is_disabled":true,"rental_uris":{"android":"levelo://app?vid=099c98f1-3c97-4f83-88ef-7c3cc743f3f7","ios":"levelo://app?vid=099c98f1-3c97-4f83-88ef-7c3cc743f3f7"},"vehicle_type_id":"4","last_reported":1773301082,"current_range_meters":0,"station_id":"ce4bhgp2rcd13ifvqfc0","pricing_plan_id":"cebpf4jnsgd1na2vs0mg"},{"bike_id":"3fadec7d-de5b-4e2d-8f99-a2af1d84d7bc","system_id":"levelo_inurba_marseille","lat":43.31689,"lon":5.40477,"is_reserved":false,"is_disabled":false,"rental_uris":{"android":"levelo://app?vid=3fadec7d-de5b-4e2d-8f99-a2af1d84d7bc","ios":"levelo://app?vid=3fadec7d-de5b-4e2d-8f99-a2af1d84d7bc"},"vehicle_type_id":"4","last_reported":1773301082,"current_range_meters":36800,"station_id":"ce4bh012rcd13ifvqd00","pricing_plan_id":"cebpf4jnsgd1na2vs0mg"},{"bike_id":"4e381daf-665f-46c2-ab70-becfa23c1f4e","system_id":"levelo_inurba_marseille","lat":43.28268,"lon":5.35067,"is_reserved":false,"is_disabled":false,"rental_uris":{"android":"levelo://app?vid=4e381daf-665f-46c2-ab70-becfa23c1f4e","ios":"levelo://app?vid=4e381daf-665f-46c2-ab70-becfa23c1f4e"},"vehicle_type_id":"4","last_reported":1773301082,"current_range_meters":39200,"station_id":"ce4bhbp2rcd13ifvqerg","pricing_plan_id":"cebpf4jnsgd1na2vs0mg"},{"bike_id":"229ffee0-5f42-4769-891d-25241baabe25","system_id":"levelo_inurba_marseille","lat":43.28036,"lon":5.3694,"is_reserved":false,"is_disabled":false,"rental_uris":{"android":"levelo://app?vid=229ffee0-5f42-4769-891d-25241baabe25","ios":"levelo://app?vid=229ffee0-5f42-4769-891d-25241baabe25"},"vehicle_type_id":"4","last_reported":1773301082,"current_range_meters":8000,"station_id":"ce4bha12rcd13ifvqef0","pricing_plan_id":"cebpf4jnsgd1na2vs0mg"},{"bike_id":"bd619dcb-2e9f-489f-8639-caa5d42aaf20","system_id":"levelo_inurba_marseille","lat":43.31206,"lon":5.3686,"is_reserved":false,"is_disabled":false,"rental_uris":{"android":"levelo://app?vid=bd619dcb-2e9f-489f-8639-caa5d42aaf20","ios":"levelo://app?vid=bd619dcb-2e9f-489f-8639-caa5d42aaf20"},"vehicle_type_id":"4","last_reported":1773301082,"current_range_meters":2800,"station_id":"ce4bgl92rcd13ifvqbq0","pricing_plan_id":"cebpf4jnsgd1na2vs0mg"},{"bike_id":"1860051d-ebfa-4ef0-851b-02847655affa","system_id":"levelo_inurba_marseille","lat":43.24408,"lon":5.3708,"is_reserved":false,"is_disabled":false,"rental_uris":{"android":"levelo://app?vid=1860051d-ebfa-4ef0-851b-02847655affa","ios":"levelo://app?vid=1860051d-ebfa-4ef0-851b-02847655affa"},"vehicle_type_id":"4","last_reported":1773301082,"current_range_meters":38400,"station_id":"ce4bhhh2rcd13ifvqfk0","pricing_plan_id":"cebpf4jnsgd1na2vs0mg"},{"bike_id":"f5efb588-d89f-4f5c-bc36-18ec761e8078","system_id":"levelo_inurba_marseille","lat":43.29546,"lon":5.38561,"is_reserved":false,"is_disabled":false,"rental_uris":{"android":"levelo://app?vid=f5efb588-d89f-4f5c-bc36-18ec761e8078","ios":"levelo://app?vid=f5efb588-d89f-4f5c-bc36-18ec761e8078"},"vehicle_type_id":"4","last_reported":1773301082,"current_range_meters":4400,"station_id":"ce4bgih2rcd13ifvqba0","pricing_plan_id":"cebpf4jnsgd1na2vs0mg"},{"bike_id":"fc76f298-f78b-4817-be52-1648bd9cbcfa","system_id":"levelo_inurba_marseille","lat":43.28147,"lon":5.37892,"is_reserved":false,"is_disabled":false,"rental_uris":{"android":"levelo://app?vid=fc76f298-f78b-4817-be52-1648bd9cbcfa","ios":"levelo://app?vid=fc76f298-f78b-4817-be52-1648bd9cbcfa"},"vehicle_type_id":"4","last_reported":1773301082,"current_range_meters":11600,"station_id":"","pricing_plan_id":"cebpf4jnsgd1na2vs0mg"},{"bike_id":"61d8cf09-cad2-4ecf-a4a5-b740782ddea5","system_id":"levelo_inurba_marseille","lat":43.31233,"lon":5.36856,"is_reserved":false,"is_disabled":false,"rental_uris":{"android":"levelo://app?vid=61d8cf09-cad2-4ecf-a4a5-b740782ddea5","ios":"levelo://app?vid=61d8cf09-cad2-4ecf-a4a5-b740782ddea5"},"vehicle_type_id":"4","last_reported":1773301082,"current_range_meters":12400,"station_id":"ce4bgl92rcd13ifvqbq0","pricing_plan_id":"cebpf4jnsgd1na2vs0mg"},{"bike_id":"eee030f9-7359-435a-8db7-cd8193b34512","system_id":"levelo_inurba_marseille","lat":43.2606,"lon":5.39387,"is_reserved":false,"is_disabled":false,"rental_uris":{"android":"levelo://app?vid=eee030f9-7359-435a-8db7-cd8193b34512","ios":"levelo://app?vid=eee030f9-7359-435a-8db7-cd8193b34512"},"vehicle_type_id":"4","last_reported":1773301082,"current_range_meters":28400,"station_id":"ce4bhh92rcd13ifvqfj0","pricing_plan_id":"cebpf4jnsgd1na2vs0mg"},{"bike_id":"e1953514-6bba-4fb4-94e4-40c57b362e06","system_id":"levelo_inurba_marseille","lat":43.28002,"lon":5.4001,"is_reserved":false,"is_disabled":false,"rental_uris":{"android":"levelo://app?vid=e1953514-6bba-4fb4-94e4-40c57b362e06","ios":"levelo://app?vid=e1953514-6bba-4fb4-94e4-40c57b362e06"},"vehicle_type_id":"4","last_reported":1773301082,"current_range_meters":16800,"station_id":"ce4bho92rcd13ifvqh4g","pricing_plan_id":"cebpf4jnsgd1na2vs0mg"},{"bike_id":"862f1a3e-115c-41ff-964e-638a1ba46535","system_id":"levelo_inurba_marseille","lat":43.27963,"lon":5.41049,"is_reserved":false,"is_disabled":true,"rental_uris":{"android":"levelo://app?vid=862f1a3e-115c-41ff-964e-638a1ba46535","ios":"levelo://app?vid=862f1a3e-115c-41ff-964e-638a1ba46535"},"vehicle_type_id":"4","last_reported":1773301082,"current_range_meters":38400,"station_id":"ce4bhnp2rcd13ifvqh0g","pricing_plan_id":"cebpf4jnsgd1na2vs0mg"},{"bike_id":"ab300351-e058-48ac-a184-e5f1ffbde233","system_id":"levelo_inurba_marseille","lat":43.28945,"lon":5.39627,"is_reserved":false,"is_disabled":false,"rental_uris":{"android":"levelo://app?vid=ab300351-e058-48ac-a184-e5f1ffbde233","ios":"levelo://app?vid=ab300351-e058-48ac-a184-e5f1ffbde233"},"vehicle_type_id":"4","last_reported":1773301082,"current_range_meters":33600,"station_id":"ce4bh3h2rcd13ifvqdn0","pricing_plan_id":"cebpf4jnsgd1na2vs0mg"},{"bike_id":"d0e8a335-453f-4aa2-a5c3-906a7e68e029","system_id":"levelo_inurba_marseille","lat":43.30349,"lon":5.41879,"is_reserved":false,"is_disabled":false,"rental_uris":{"android":"levelo://app?vid=d0e8a335-453f-4aa2-a5c3-906a7e68e029","ios":"levelo://app?vid=d0e8a335-453f-4aa2-a5c3-906a7e68e029"},"vehicle_type_id":"4","last_reported":1773301082,"current_range_meters":39200,"station_id":"ce4bhop2rcd13ifvqh7g","pricing_plan_id":"cebpf4jnsgd1na2vs0mg"},