{"last_updated":1746896835,"ttl":60,"version":"2.2","data":{"bikes":[{"bike_id":"e96e4c53-263d-4f6f-b429-f3cfcd8859fb","system_id":"levelo_inurba_marseille","lat":43.29579,"lon":5.37513,"is_reserved":false,"is_disabled":false,"rental_uris":{"android":"levelo://app?vid=e96e4c53-263d-4f6f-b429-f3cfcd8859fb","ios":"levelo://app?vid=e96e4c53-263d-4f6f-b429-f3cfcd8859fb"},"vehicle_type_id":"4","last_reported":1746896835,"current_range_meters":2800,"station_id":"ce4bgh92rcd13ifvqb50","pricing_plan_id":"cebpf4jnsgd1na2vs0mg"},{"bike_id":"f10c093a-0392-4bbe-9517-6f276ec1e04e","system_id":"levelo_inurba_marseille","lat":43.2623,"lon":5.40447,"is_reserved":false,"is_disabled":false,"rental_uris":{"android":"levelo://app?vid=f10c093a-0392-4bbe-9517-6f276ec1e04e","ios":"levelo://app?vid=f10c093a-0392-4bbe-9517-6f276ec1e04e"},"vehicle_type_id":"4","last_reported":1746896835,"current_range_meters":2800,"station_id":"ce4bhmh2rcd13ifvqgmg","pricing_plan_id":"cebpf4jnsgd1na2vs0mg"},{"bike_id":"30fb71a0-d944-4c1a-9ed8-c91c5c06ca19","system_id":"levelo_inurba_marseille","lat":43.27374,"lon":5.36254,"is_reserved":false,"is_disabled":false,"rental_uris":{"android":"levelo://app?vid=30fb71a0-d944-4c1a-9ed8-c91c5c06ca19","ios":"levelo://app?vid=30fb71a0-d944-4c1a-9ed8-c91c5c06ca19"},"vehicle_type_id":"4","last_reported":1746896835,"current_range_meters":2800,"station_id":"ce4bhbh2rcd13ifvqeo0","pricing_plan_id":"cebpf4jnsgd1na2vs0mg"},{"bike_id":"e36b3bf8-00c4-4232-ac4a-4dc7ec936a57","system_id":"levelo_inurba_marseille","lat":43.30462,"lon":5.37511,"is_reserved":false,"is_disabled":false,"rental_uris":{"android":"levelo://app?vid=e36b3bf8-00c4-4232-ac4a-4dc7ec936a57","ios":"levelo://app?vid=e36b3bf8-00c4-4232-ac4a-4dc7ec936a57"},"vehicle_type_id":"4","last_reported":1746896835,"current_range_meters":2800,"station_id":"","pricing_plan_id":"cebpf4jnsgd1na2vs0mg"},{"bike_id":"5342c0d9-da28-4029-bde2-e4e3751876f7","system_id":"levelo_inurba_marseille","lat":43.25585,"lon":5.38218,"is_reserved":false,"is_disabled":false,"rental_uris":{"android":"levelo://app?vid=5342c0d9-da28-4029-bde2-e4e3751876f7","ios":"levelo://app?vid=5342c0d9-da28-4029-bde2-e4e3751876f7"},"vehicle_type_id":"4","last_reported":1746896835,"current_range_meters":2800,"station_id":"ce4bhih2rcd13ifvqfs0","pricing_plan_id":"cebpf4jnsgd1na2vs0mg"},{"bike_id":"efc0defd-ce89-491f-bbb6-3a9f275ac60f","system_id":"levelo_inurba_marseille","lat":43.27919,"lon":5.38746,"is_reserved":false,"is_disabled":false,"rental_uris":{"android":"levelo://app?vid=efc0defd-ce89-491f-bbb6-3a9f275ac60f","ios":"levelo://app?vid=efc0defd-ce89-491f-bbb6-3a9f275ac60f"},"vehicle_type_id":"4","last_reported":1746896835,"current_range_meters":2800,"station_id":"ce4bhg12rcd13ifvqf80","pricing_plan_id":"cebpf4jnsgd1na2vs0mg"},{"bike_id":"01e044f2-a18a-46b1-bfa1-11fbd1c7dd64","system_id":"levelo_inurba_marseille","lat":43.31072,"lon":5.38355,"is_reserved":false,"is_disabled":false,"rental_uris":{"android":"levelo://app?vid=01e044f2-a18a-46b1-bfa1-11fbd1c7dd64","ios":"levelo://app?vid=01e044f2-a18a-46b1-bfa1-11fbd1c7dd64"},"vehicle_type_id":"4","last_reported":1746896835,"current_range_meters":2800,"station_id":"ce4bgv92rcd13ifvqcr0","pricing_plan_id":"cebpf4jnsgd1na2vs0mg"},{"bike_id":"c38467ea-f4ce-435a-8dcf-74b3a80b6cb1","system_id":"levelo_inurba_marseille","lat":43.31119,"lon":5.37762,"is_reserved":false,"is_disabled":false,"rental_uris":{"android":"levelo://app?vid=c38467ea-f4ce-435a-8dcf-74b3a80b6cb1","ios":"levelo://app?vid=c38467ea-f4ce-435a-8dcf-74b3a80b6cb1"},"vehicle_type_id":"4","last_reported":1746896835,"current_range_meters":3200,"station_id":"ce4bgt92rcd13ifvqcg0","pricing_plan_id":"cebpf4jnsgd1na2vs0mg"},{"bike_id":"c259ab8e-861d-45d4-b2ee-8e4904d5c2b1","system_id":"levelo_inurba_marseille","lat":43.27321,"lon":5.39088,"is_reserved":false,"is_disabled":false,"rental_uris":{"android":"levelo://app?vid=c259ab8e-861d-45d4-b2ee-8e4904d5c2b1","ios":"levelo://app?vid=c259ab8e-861d-45d4-b2ee-8e4904d5c2b1"},"vehicle_type_id":"4","last_reported":1746896835,"current_range_meters":3200,"station_id":"ce4bhgp2rcd13ifvqfe0","pricing_plan_id":"cebpf4jnsgd1na2vs0mg"},{"bike_id":"16d6522e-47a1-4bd5-8bca-2cd4ee73477d","system_id":"levelo_inurba_marseille","lat":43.24806,"lon":5.37461,"is_reserved":false,"is_disabled":false,"rental_uris":{"android":"levelo://app?vid=16d6522e-47a1-4bd5-8bca-2cd4ee73477d","ios":"levelo://app?vid=16d6522e-47a1-4bd5-8bca-2cd4ee73477d"},"vehicle_type_id":"4","last_reported":1746896835,"current_range_meters":3200,"station_id":"ce4bhgh2rcd13ifvqfb0","pricing_plan_id":"cebpf4jnsgd1na2vs0mg"},{"bike_id":"db731e29-fe62-41d4-90af-095540a4e36f","system_id":"levelo_inurba_marseille","lat":43.27378,"lon":5.36252,"is_reserved":false,"is_disabled":false,"rental_uris":{"android":"levelo://app?vid=db731e29-fe62-41d4-90af-095540a4e36f","ios":"levelo://app?vid=db731e29-fe62-41d4-90af-095540a4e36f"},"vehicle_type_id":"4","last_reported":1746896835,"current_range_meters":3200,"station_id":"ce4bhbh2rcd13ifvqeo0","pricing_plan_id":"cebpf4jnsgd1na2vs0mg"},{"bike_id":"23641817-c01f-4ffd-9aba-7791a8835be0","system_id":"levelo_inurba_marseille","lat":43.225091,"lon":5.347996,"is_reserved":false,"is_disabled":true,"rental_uris":{"android":"levelo://app?vid=23641817-c01f-4ffd-9aba-7791a8835be0","ios":"levelo://app?vid=23641817-c01f-4ffd-9aba-7791a8835be0"},"vehicle_type_id":"4","last_reported":1746896835,"current_range_meters":3200,"station_id":"st_cvj5dfep6f1abm77gieg","pricing_plan_id":"cebpf4jnsgd1na2vs0mg"},{"bike_id":"57d17ed6-6a07-4823-a902-a34078a980cd","system_id":"levelo_inurba_marseille","lat":43.27055,"lon":5.4026,"is_reserved":false,"is_disabled":false,"rental_uris":{"android":"levelo://app?vid=57d17ed6-6a07-4823-a902-a34078a980cd","ios":"levelo://app?vid=57d17ed6-6a07-4823-a902-a34078a980cd"},"vehicle_type_id":"4","last_reported":1746896835,"current_range_meters":3200,"station_id":"ce4bhk92rcd13ifvqgc0","pricing_plan_id":"cebpf4jnsgd1na2vs0mg"},{"bike_id":"0578d1e5-cc56-491a-b0b3-115d33f6c4da","system_id":"levelo_inurba_marseille","lat":43.257686,"lon":5.41065,"is_reserved":false,"is_disabled":false,"rental_uris":{"android":"levelo://app?vid=0578d1e5-cc56-491a-b0b3-115d33f6c4da","ios":"levelo://app?vid=0578d1e5-cc56-491a-b0b3-115d33f6c4da"},"vehicle_type_id":"4","last_reported":1746896835,"current_range_meters":3200,"station_id":"ce4bhkp2rcd13ifvqgd0","pricing_plan_id":"cebpf4jnsgd1na2vs0mg"},{"bike_id":"5f9d3696-5eb7-462c-ba34-63e4db25308a","system_id":"levelo_inurba_marseille","lat":43.27204,"lon":5.3919,"is_reserved":false,"is_disabled":false,"rental_uris":{"android":"levelo://app?vid=5f9d3696-5eb7-462c-ba34-63e4db25308a","ios":"levelo://app?vid=5f9d3696-5eb7-462c-ba34-63e4db25308a"},"vehicle_type_id":"4","last_reported":1746896835,"current_range_meters":3200,"station_id":"ce4bhhp2rcd13ifvqfm0","pricing_plan_id":"cebpf4jnsgd1na2vs0mg"},{"bike_id":"84e8e029-3530-48a9-9f14-ea79ab9c9229","system_id":"levelo_inurba_marseille","lat":43.23962,"lon":5.3664,"is_reserved":false,"is_disabled":false,"rental_uris":{"android":"levelo://app?vid=84e8e029-3530-48a9-9f14-ea79ab9c9229","ios":"levelo://app?vid=84e8e029-3530-48a9-9f14-ea79ab9c9229"},"vehicle_type_id":"4","last_reported":1746896835,"current_range_meters":3600,"station_id":"ce4bhi12rcd13ifvqfp0","pricing_plan_id":"cebpf4jnsgd1na2vs0mg"},{"bike_id":"1b6cb799-c1ce-4c99-a96a-13a5180313fb","system_id":"levelo_inurba_marseille","lat":43.28026,"lon":5.3694,"is_reserved":false,"is_disabled":false,"rental_uris":{"android":"levelo://app?vid=1b6cb799-c1ce-4c99-a96a-13a5180313fb","ios":"levelo://app?vid=1b6cb799-c1ce-4c99-a96a-13a5180313fb"},"vehicle_type_id":"4","last_reported":1746896835,"current_range_meters":3600,"station_id":"ce4bha12rcd13ifvqef0","pricing_plan_id":"cebpf4jnsgd1na2vs0mg"},{"bike_id":"d19be971-8b19-4541-8d67-f8f082f324f4","system_id":"levelo_inurba_marseille","lat":43.269864,"lon":5.401288,"is_reserved":false,"is_disabled":false,"rental_uris":{"android":"levelo://app?vid=d19be971-8b19-4541-8d67-f8f082f324f4","ios":"levelo://app?vid=d19be971-8b19-4541-8d67-f8f082f324f4"},"vehicle_type_id":"4","last_reported":1746896835,"current_range_meters":3600,"station_id":"ce4bhk92rcd13ifvqgc0","pricing_plan_id":"cebpf4jnsgd1na2vs0mg"},{"bike_id":"ce1dc539-0728-4802-82fd-529c98f2cd45","system_id":"levelo_inurba_marseille","lat":43.29512,"lon":5.39059,"is_reserved":false,"is_disabled":false,"rental_uris":{"android":"levelo://app?vid=ce1dc539-0728-4802-82fd-529c98f2cd45","ios":"levelo://app?vid=ce1dc539-0728-4802-82fd-529c98f2cd45"},"vehicle_type_id":"4","last_reported":1746896835,"current_range_meters":3600,"station_id":"ce4bh3p2rcd13ifvqdp0","pricing_plan_id":"cebpf4jnsgd1na2vs0mg"},{"bike_id":"5a4c3838-4253-4061-b062-0add2dca794e","system_id":"levelo_inurba_marseille","lat":43.25577,"lon":5.38224,"is_reserved":false,"is_disabled":false,"rental_uris":{"android":"levelo://app?vid=5a4c3838-4253-4061-b062-0add2dca794e","ios":"levelo://app?vid=5a4c3838-4253-4061-b062-0add2dca794e"},"vehicle_type_id":"4","last_reported":1746896835,"current_range_meters":3600,"station_id":"ce4bhih2rcd13ifvqfs0","pricing_plan_id":"cebpf4jnsgd1na2vs0mg"},{"bike_id":"34334fad-f669-4e9d-9e42-0861d2c5dd47","system_id":"levelo_inurba_marseille","lat":43.2814,"lon":5.42642,"is_reserved":false,"is_disabled":false,"rental_uris":{"android":"levelo://app?vid=34334fad-f669-4e9d-9e42-0861d2c5dd47","ios":"levelo://app?vid=34334fad-f669-4e9d-9e42-0861d2c5dd47"},"vehicle_type_id":"4","last_reported":1746896835,"current_range_meters":3600,"station_id":"ce4bhnh2rcd13ifvqgug","pricing_plan_id":"cebpf4jnsgd1na2vs0mg"},{"bike_id":"a4fe0417-416a-4380-93e5-083e8e289feb","system_id":"levelo_inurba_marseille","lat":43.2927,"lon":5.36848,"is_reserved":false,"is_disabled":false,"rental_uris":{"android":"levelo://app?vid=a4fe0417-416a-4380-93e5-083e8e289feb","ios":"levelo://app?vid=a4fe0417-416a-4380-93e5-083e8e289feb"},"vehicle_type_id":"4","last_reported":1746896835,"current_range_meters":3600,"station_id":"ce4bhbp2rcd13ifvqesg","pricing_plan_id":"cebpf4jnsgd1na2vs0mg"},{"bike_id":"664dcc7c-fdfc-4949-b240-49c329bf64b1","system_id":"levelo_inurba_marseille","lat":43.255,"lon":5.37652,"is_reserved":false,"is_disabled":false,"rental_uris":{"android":"levelo://app?vid=664dcc7c-fdfc-4949-b240-49c329bf64b1","ios":"levelo://app?vid=664dcc7c-fdfc-4949-b240-49c329bf64b1"},"vehicle_type_id":"4","last_reported":1746896835,"current_range_meters":3600,"station_id":"ce4bhh12rcd13ifvqff0","pricing_plan_id":"cebpf4jnsgd1na2vs0mg"},{"bike_id":"751d0262-5bf1-4fcb-b059-b4021d16bd60","system_id":"levelo_inurba_marseille","lat":43.29802,"lon":5.40405,"is_reserved":false,"is_disabled":false,"rental_uris":{"android":"levelo://app?vid=751d0262-5bf1-4fcb-b059-b4021d16bd60","ios":"levelo://app?vid=751d0262-5bf1-4fcb-b059-b4021d16bd60"},"vehicle_type_id":"4","last_reported":1746896835,"current_range_meters":4000,"station_id":"ce4bh112rcd13ifvqd90","pricing_plan_id":"cebpf4jnsgd1na2vs0mg"},{"bike_id":"2c87ea9c-b38b-4ef6-a695-634b84b1f7e5","system_id":"levelo_inurba_marseille","lat":43.27206,"lon":5.39173,"is_reserved":false,"is_disabled":false,"rental_uris":{"android":"levelo://app?vid=2c87ea9c-b38b-4ef6-a695-634b84b1f7e5","ios":"levelo://app?vid=2c87ea9c-b38b-4ef6-a695-634b84b1f7e5"},"vehicle_type_id":"4","last_reported":1746896835,"current_range_meters":4000,"station_id":"ce4bhhp2rcd13ifvqfm0","pricing_plan_id":"cebpf4jnsgd1na2vs0mg"},{"bike_id":"caf9033d-5f00-49c3-b1ee-1328b62008dc","system_id":"levelo_inurba_marseille","lat":43.33594,"lon":5.42826,"is_reserved":false,"is_disabled":false,"rental_uris":{"android":"levelo://app?vid=caf9033d-5f00-49c3-b1ee-1328b62008dc","ios":"levelo://app?vid=caf9033d-5f00-49c3-b1ee-1328b62008dc"},"vehicle_type_id":"4","last_reported":1746896835,"current_range_meters":4000,"station_id":"","pricing_plan_id":"cebpf4jnsgd1na2vs0mg"},{"bike_id":"4180e998-28cf-4918-8ae7-a4c05ca95bc0","system_id":"levelo_inurba_marseille","lat":43.29041,"lon":5.35922,"is_reserved":false,"is_disabled":false,"rental_uris":{"android":"levelo://app?vid=4180e998-28cf-4918-8ae7-a4c05ca95bc0","ios":"levelo://app?vid=4180e998-28cf-4918-8ae7-a4c05ca95bc0"},"vehicle_type_id":"4","last_reported":1746896835,"current_range_meters":2000,"station_id":"ce4bha92rcd13ifvqeg0","pricing_plan_id":"cebpf4jnsgd1na2vs0mg"},{"bike_id":"087354d2-db17-483a-b117-cbf96fb667f8","system_id":"levelo_inurba_marseille","lat":43.279121,"lon":5.395699,"is_reserved":false,"is_disabled":false,"rental_uris":{"android":"levelo://app?vid=087354d2-db17-483a-b117-cbf96fb667f8","ios":"levelo://app?vid=087354d2-db17-483a-b117-cbf96fb667f8"},"vehicle_type_id":"4","last_reported":1746896835,"current_range_meters":4400,"station_id":"ce4bhf92rcd13ifvqf40","pricing_plan_id":"cebpf4jnsgd1na2vs0mg"},{"bike_id":"84036e32-5236-4c3c-a38e-b33a7fb51556","system_id":"levelo_inurba_marseille","lat":43.26027,"lon":5.37549,"is_reserved":false,"is_disabled":false,"rental_uris":{"android":"levelo://app?vid=84036e32-5236-4c3c-a38e-b33a7fb51556","ios":"levelo://app?vid=84036e32-5236-4c3c-a38e-b33a7fb51556"},"vehicle_type_id":"4","last_reported":1746896835,"current_range_meters":4400,"station_id":"ce4bhgh2rcd13ifvqfa0","pricing_plan_id":"cebpf4jnsgd1na2vs0mg"},{"bike_id":"a032ef18-e77d-424e-a4dc-a711c2f5b31c","system_id":"levelo_inurba_marseille","lat":43.29597,"lon":5.38101,"is_reserved":false,"is_disabled":false,"rental_uris":{"android":"levelo://app?vid=a032ef18-e77d-424e-a4dc-a711c2f5b31c","ios":"levelo://app?vid=a032ef18-e77d-424e-a4dc-a711c2f5b31c"},"vehicle_type_id":"4","last_reported":1746896835,"current_range_meters":4400,"station_id":"ce4bgl12rcd13ifvqbo0","pricing_plan_id":"cebpf4jnsgd1na2vs0mg"},{"bike_id":"dc95d712-620a-4a1f-b605-0952c636d5a6","system_id":"levelo_inurba_marseille","lat":43.28162,"lon":5.42632,"is_reserved":false,"is_disabled":false,"rental_uris":{"android":"levelo://app?vid=dc95d712-620a-4a1f-b605-0952c636d5a6","ios":"levelo://app?vid=dc95d712-620a-4a1f-b605-0952c636d5a6"},"vehicle_type_id":"4","last_reported":1746896835,"current_range_meters":4800,"station_id":"ce4bhnh2rcd13ifvqgug","pricing_plan_id":"cebpf4jnsgd1na2vs0mg"},{"bike_id":"b60f31fc-9833-4bfb-8782-216ee65669c8","system_id":"levelo_inurba_marseille","lat":43.2967,"lon":5.37278,"is_reserved":false,"is_disabled":false,"rental_uris":{"android":"levelo://app?vid=b60f31fc-9833-4bfb-8782-216ee65669c8","ios":"levelo://app?vid=b60f31fc-9833-4bfb-8782-216ee65669c8"},"vehicle_type_id":"4","last_reported":1746896835,"current_range_meters":4800,"station_id":"ce4bgk12rcd13ifvqbj0","pricing_plan_id":"cebpf4jnsgd1na2vs0mg"},{"bike_id":"bfff0480-9793-42a9-be89-2580728cf65c","system_id":"levelo_inurba_marseille","lat":43.28483,"lon":5.38418,"is_reserved":false,"is_disabled":false,"rental_uris":{"android":"levelo://app?vid=bfff0480-9793-42a9-be89-2580728cf65c","ios":"levelo://app?vid=bfff0480-9793-42a9-be89-2580728cf65c"},"vehicle_type_id":"4","last_reported":1746896835,"current_range_meters":5600,"station_id":"ce4bh512rcd13ifvqe3g","pricing_plan_id":"cebpf4jnsgd1na2vs0mg"},{"bike_id":"759bf79f-3421-40e8-b08d-385e77a1b0c2","system_id":"levelo_inurba_marseille","lat":43.31492,"lon":5.37312,"is_reserved":false,"is_disabled":false,"rental_uris":{"android":"levelo://app?vid=759bf79f-3421-40e8-b08d-385e77a1b0c2","ios":"levelo://app?vid=759bf79f-3421-40e8-b08d-385e77a1b0c2"},"vehicle_type_id":"4","last_reported":1746896835,"current_range_meters":5600,"station_id":"ce4bgt12rcd13ifvqcd0","pricing_plan_id":"cebpf4jnsgd1na2vs0mg"},{"bike_id":"fa47f1bf-d293-4bca-acd1-3ba62fe98139","system_id":"levelo_inurba_marseille","lat":43.26804,"lon":5.4023,"is_reserved":false,"is_disabled":false,"rental_uris":{"android":"levelo://app?vid=fa47f1bf-d293-4bca-acd1-3ba62fe98139","ios":"levelo://app?vid=fa47f1bf-d293-4bca-acd1-3ba62fe98139"},"vehicle_type_id":"4","last_reported":1746896835,"current_range_meters":5600,"station_id":"ce501612rcd8frsf0b60","pricing_plan_id":"cebpf4jnsgd1na2vs0mg"},{"bike_id":"eb2f28aa-4a2e-4f0f-bf37-8cd4d92dad3f","system_id":"levelo_inurba_marseille","lat":43.27066,"lon":5.42287,"is_reserved":false,"is_disabled":false,"rental_uris":{"android":"levelo://app?vid=eb2f28aa-4a2e-4f0f-bf37-8cd4d92dad3f","ios":"levelo://app?vid=eb2f28aa-4a2e-4f0f-bf37-8cd4d92dad3f"},"vehicle_type_id":"4","last_reported":1746896835,"current_range_meters":6000,"station_id":"ce4bhk92rcd13ifvqgb0","pricing_plan_id":"cebpf4jnsgd1na2vs0mg"},{"bike_id":"78dc3d89-e6a2-4c75-95d1-38d7ab0c0f9b","system_id":"levelo_inurba_marseille","lat":43.29906,"lon":5.38151,"is_reserved":false,"is_disabled":false,"rental_uris":{"android":"levelo://app?vid=78dc3d89-e6a2-4c75-95d1-38d7ab0c0f9b","ios":"levelo://app?vid=78dc3d89-e6a2-4c75-95d1-38d7ab0c0f9b"},"vehicle_type_id":"4","last_reported":1746896835,"current_range_meters":6000,"station_id":"ce4bgj12rcd13ifvqbc0","pricing_plan_id":"cebpf4jnsgd1na2vs0mg"},{"bike_id":"9db99b5e-b6de-473a-b661-f5b2db40f9c5","system_id":"levelo_inurba_marseille","lat":43.27207,"lon":5.39178,"is_reserved":false,"is_disabled":false,"rental_uris":{"android":"levelo://app?vid=9db99b5e-b6de-473a-b661-f5b2db40f9c5","ios":"levelo://app?vid=9db99b5e-b6de-473a-b661-f5b2db40f9c5"},"vehicle_type_id":"4","last_reported":1746896835,"current_range_meters":6000,"station_id":"ce4bhhp2rcd13ifvqfm0","pricing_plan_id":"cebpf4jnsgd1na2vs0mg"},{"bike_id":"b50800ad-776f-41e3-a955-eb33b1ee5d78","system_id":"levelo_inurba_marseille","lat":43.29377,"lon":5.37841,"is_reserved":false,"is_disabled":false,"rental_uris":{"android":"levelo://app?vid=b50800ad-776f-41e3-a955-eb33b1ee5d78","ios":"levelo://app?vid=b50800ad-776f-41e3-a955-eb33b1ee5d78"},"vehicle_type_id":"4","last_reported":1746896835,"current_range_meters":6000,"station_id":"ce4bgjh2rcd13ifvqbf0","pricing_plan_id":"cebpf4jnsgd1na2vs0mg"},{"bike_id":"dd55dac3-6dfa-459b-a369-b2b472cc6fad","system_id":"levelo_inurba_marseille","lat":43.3009,"lon":5.39064,"is_reserved":false,"is_disabled":false,"rental_uris":{"android":"levelo://app?vid=dd55dac3-6dfa-459b-a369-b2b472cc6fad","ios":"levelo://app?vid=dd55dac3-6dfa-459b-a369-b2b472cc6fad"},"vehicle_type_id":"4","last_reported":1746896835,"current_range_meters":6000,"station_id":"ce4bh192rcd13ifvqdb0","pricing_plan_id":"cebpf4jnsgd1na2vs0mg"},{"bike_id":"78a7148b-a4c1-43d6-8de3-9210acff3fe9","system_id":"levelo_inurba_marseille","lat":43.28354,"lon":5.38105,"is_reserved":false,"is_disabled":false,"rental_uris":{"android":"levelo://app?vid=78a7148b-a4c1-43d6-8de3-9210acff3fe9","ios":"levelo://app?vid=78a7148b-a4c1-43d6-8de3-9210acff3fe9"},"vehicle_type_id":"4","last_reported":1746896835,"current_range_meters":6000,"station_id":"ce4bh412rcd13ifvqdr0","pricing_plan_id":"cebpf4jnsgd1na2vs0mg"},{"bike_id":"ade916f0-2f21-43ee-aeb4-b9e0444165c6","system_id":"levelo_inurba_marseille","lat":43.27838,"lon":5.39204,"is_reserved":false,"is_disabled":false,"rental_uris":{"android":"levelo://app?vid=ade916f0-2f21-43ee-aeb4-b9e0444165c6","ios":"levelo://app?vid=ade916f0-2f21-43ee-aeb4-b9e0444165c6"},"vehicle_type_id":"4","last_reported":1746896835,"current_range_meters":6400,"station_id":"ce4bhjp2rcd13ifvqga0","pricing_plan_id":"cebpf4jnsgd1na2vs0mg"},{"bike_id":"fcf7db4c-9d76-4087-8e6e-80adae79951b","system_id":"levelo_inurba_marseille","lat":43.30144,"lon":5.37424,"is_reserved":false,"is_disabled":false,"rental_uris":{"android":"levelo://app?vid=fcf7db4c-9d76-4087-8e6e-80adae79951b","ios":"levelo://app?vid=fcf7db4c-9d76-4087-8e6e-80adae79951b"},"vehicle_type_id":"4","last_reported":1746896835,"current_range_meters":8400,"station_id":"ce4bgs92rcd13ifvqcc0","pricing_plan_id":"cebpf4jnsgd1na2vs0mg"},{"bike_id":"351b76f4-fd1c-4b62-b5e6-3649a6410ef5","system_id":"levelo_inurba_marseille","lat":43.29005,"lon":5.35605,"is_reserved":false,"is_disabled":false,"rental_uris":{"android":"levelo://app?vid=351b76f4-fd1c-4b62-b5e6-3649a6410ef5","ios":"levelo://app?vid=351b76f4-fd1c-4b62-b5e6-3649a6410ef5"},"vehicle_type_id":"4","last_reported":1746896835,"current_range_meters":8000,"station_id":"ce4bhb92rcd13ifvqen0","pricing_plan_id":"cebpf4jnsgd1na2vs0mg"},{"bike_id":"4e5c8dfa-600c-41d4-9ba2-0972eabd9daa","system_id":"levelo_inurba_marseille","lat":43.29185,"lon":5.39321,"is_reserved":false,"is_disabled":false,"rental_uris":{"android":"levelo://app?vid=4e5c8dfa-600c-41d4-9ba2-0972eabd9daa","ios":"levelo://app?vid=4e5c8dfa-600c-41d4-9ba2-0972eabd9daa"},"vehicle_type_id":"4","last_reported":1746896835,"current_range_meters":6400,"station_id":"ce4bh192rcd13ifvqdd0","pricing_plan_id":"cebpf4jnsgd1na2vs0mg"},{"bike_id":"9b57708b-871c-4b04-8440-d7d7a9c98078","system_id":"levelo_inurba_marseille","lat":43.29929,"lon":5.36541,"is_reserved":false,"is_disabled":false,"rental_uris":{"android":"levelo://app?vid=9b57708b-871c-4b04-8440-d7d7a9c98078","ios":"levelo://app?vid=9b57708b-871c-4b04-8440-d7d7a9c98078"},"vehicle_type_id":"4","last_reported":1746896835,"current_range_meters":6800,"station_id":"ce4bgm92rcd13ifvqbr0","pricing_plan_id":"cebpf4jnsgd1na2vs0mg"},{"bike_id":"b028bae7-3e90-407b-ab65-b5c5fc5af29e","system_id":"levelo_inurba_marseille","lat":43.27916,"lon":5.39578,"is_reserved":false,"is_disabled":false,"rental_uris":{"android":"levelo://app?vid=b028bae7-3e90-407b-ab65-b5c5fc5af29e","ios":"levelo://app?vid=b028bae7-3e90-407b-ab65-b5c5fc5af29e"},"vehicle_type_id":"4","last_reported":1746896835,"current_range_meters":6800,"station_id":"ce4bhf92rcd13ifvqf40","pricing_plan_id":"cebpf4jnsgd1na2vs0mg"},{"bike_id":"0cb943b5-d5ce-4f0f-bc56-28c7cf9c6d8d","system_id":"levelo_inurba_marseille","lat":43.24166,"lon":5.36395,"is_reserved":false,"is_disabled":false,"rental_uris":{"android":"levelo://app?vid=0cb943b5-d5ce-4f0f-bc56-28c7cf9c6d8d","ios":"levelo://app?vid=0cb943b5-d5ce-4f0f-bc56-28c7cf9c6d8d"},"vehicle_type_id":"4","last_reported":1746896835,"current_range_meters":6800,"station_id":"cpo36qri1sfpv3e86is0","pricing_plan_id":"cebpf4jnsgd1na2vs0mg"},{"bike_id":"6e22caba-fbbd-42eb-be71-42118ea867f9","system_id":"levelo_inurba_marseille","lat":43.27208,"lon":5.39182,"is_reserved":false,"is_disabled":false,"rental_uris":{"android":"levelo://app?vid=6e22caba-fbbd-42eb-be71-42118ea867f9","ios":"levelo://app?vid=6e22caba-fbbd-42eb-be71-42118ea867f9"},"vehicle_type_id":"4","last_reported":1746896835,"current_range_meters":6800,"station_id":"ce4bhhp2rcd13ifvqfm0","pricing_plan_id":"cebpf4jnsgd1na2vs0mg"},{"bike_id":"dfca1673-7027-4d02-a1f3-29ceb9b961fa","system_id":"levelo_inurba_marseille","lat":43.26227,"lon":5.40458,"is_reserved":false,"is_disabled":false,"rental_uris":{"android":"levelo://app?vid=dfca1673-7027-4d02-a1f3-29ceb9b961fa","ios":"levelo://app?vid=dfca1673-7027-4d02-a1f3-29ceb9b961fa"},"vehicle_type_id":"4","last_reported":1746896835,"current_range_meters":6800,"station_id":"ce4bhmh2rcd13ifvqgmg","pricing_plan_id":"cebpf4jnsgd1na2vs0mg"},{"bike_id":"4ba0b7e3-b950-4e1b-976a-8ebb69b4965f","system_id":"levelo_inurba_marseille","lat":43.25579,"lon":5.38248,"is_reserved":false,"is_disabled":false,"rental_uris":{"android":"levelo://app?vid=4ba0b7e3-b950-4e1b-976a-8ebb69b4965f","ios":"levelo://app?vid=4ba0b7e3-b950-4e1b-976a-8ebb69b4965f"},"vehicle_type_id":"4","last_reported":1746896835,"current_range_meters":6800,"station_id":"ce4bhih2rcd13ifvqfs0","pricing_plan_id":"cebpf4jnsgd1na2vs0mg"},{"bike_id":"2684a816-e054-4ee7-a03c-bde0fdf7c5b5","system_id":"levelo_inurba_marseille","lat":43.292,"lon":5.39324,"is_reserved":false,"is_disabled":false,"rental_uris":{"android":"levelo://app?vid=2684a816-e054-4ee7-a03c-bde0fdf7c5b5","ios":"levelo://app?vid=2684a816-e054-4ee7-a03c-bde0fdf7c5b5"},"vehicle_type_id":"4","last_reported":1746896835,"current_range_meters":8000,"station_id":"ce4bh192rcd13ifvqdd0","pricing_plan_id":"cebpf4jnsgd1na2vs0mg"},{"bike_id":"ea0e5001-4ef7-48eb-9613-499e21600d03","system_id":"levelo_inurba_marseille","lat":43.25492,"lon":5.37648,"is_reserved":false,"is_disabled":true,"rental_uris":{"android":"levelo://app?vid=ea0e5001-4ef7-48eb-9613-499e21600d03","ios":"levelo://app?vid=ea0e5001-4ef7-48eb-9613-499e21600d03"},"vehicle_type_id":"4","last_reported":1746896835,"current_range_meters":7200,"station_id":"ce4bhh12rcd13ifvqff0","pricing_plan_id":"cebpf4jnsgd1na2vs0mg"},{"bike_id":"14fab081-8680-426b-95b9-b1e1167ab798","system_id":"levelo_inurba_marseille","lat":43.2816,"lon":5.42644,"is_reserved":false,"is_disabled":false,"rental_uris":{"android":"levelo://app?vid=14fab081-8680-426b-95b9-b1e1167ab798","ios":"levelo://app?vid=14fab081-8680-426b-95b9-b1e1167ab798"},"vehicle_type_id":"4","last_reported":1746896835,"current_range_meters":7200,"station_id":"ce4bhnh2rcd13ifvqgug","pricing_plan_id":"cebpf4jnsgd1na2vs0mg"},{"bike_id":"eec0ab58-bc79-44d9-8eda-599c7f2d45df","system_id":"levelo_inurba_marseille","lat":43.26949,"lon":5.38636,"is_reserved":false,"is_disabled":false,"rental_uris":{"android":"levelo://app?vid=eec0ab58-bc79-44d9-8eda-599c7f2d45df","ios":"levelo://app?vid=eec0ab58-bc79-44d9-8eda-599c7f2d45df"},"vehicle_type_id":"4","last_reported":1746896835,"current_range_meters":7200,"station_id":"ce4bhh92rcd13ifvqfh0","pricing_plan_id":"cebpf4jnsgd1na2vs0mg"},{"bike_id":"8db86c5d-d0b7-44a2-934b-de90134c7ee2","system_id":"levelo_inurba_marseille","lat":43.28359,"lon":5.38627,"is_reserved":false,"is_disabled":false,"rental_uris":{"android":"levelo://app?vid=8db86c5d-d0b7-44a2-934b-de90134c7ee2","ios":"levelo://app?vid=8db86c5d-d0b7-44a2-934b-de90134c7ee2"},"vehicle_type_id":"4","last_reported":1746896835,"current_range_meters":7200,"station_id":"ce4bh492rcd13ifvqdvg","pricing_plan_id":"cebpf4jnsgd1na2vs0mg"},{"bike_id":"d1804d52-39c2-401c-83d6-28be82b40bca","system_id":"levelo_inurba_marseille","lat":43.29617,"lon":5.37153,"is_reserved":false,"is_disabled":false,"rental_uris":{"android":"levelo://app?vid=d1804d52-39c2-401c-83d6-28be82b40bca","ios":"levelo://app?vid=d1804d52-39c2-401c-83d6-28be82b40bca"},"vehicle_type_id":"4","last_reported":1746896835,"current_range_meters":12000,"station_id":"ce4bgnh2rcd13ifvqc0g","pricing_plan_id":"cebpf4jnsgd1na2vs0mg"},{"bike_id":"4de7fe50-aff9-4e5c-8538-47ad67a8d8cb","system_id":"levelo_inurba_marseille","lat":43.2731,"lon":5.39079,"is_reserved":false,"is_disabled":false,"rental_uris":{"android":"levelo://app?vid=4de7fe50-aff9-4e5c-8538-47ad67a8d8cb","ios":"levelo://app?vid=4de7fe50-aff9-4e5c-8538-47ad67a8d8cb"},"vehicle_type_id":"4","last_reported":1746896835,"current_range_meters":8000,"station_id":"ce4bhgp2rcd13ifvqfe0","pricing_plan_id":"cebpf4jnsgd1na2vs0mg"},{"bike_id":"510ed1bc-16d3-45eb-b93a-5ce8e708b0df","system_id":"levelo_inurba_marseille","lat":43.28721,"lon":5.37936,"is_reserved":false,"is_disabled":false,"rental_uris":{"android":"levelo://app?vid=510ed1bc-16d3-45eb-b93a-5ce8e708b0df","ios":"levelo://app?vid=510ed1bc-16d3-45eb-b93a-5ce8e708b0df"},"vehicle_type_id":"4","last_reported":1746896835,"current_range_meters":8000,"station_id":"ce4bh9p2rcd13ifvqec0","pricing_plan_id":"cebpf4jnsgd1na2vs0mg"},{"bike_id":"5db2fe94-843e-494a-93fb-e777bcf0c9c8","system_id":"levelo_inurba_marseille","lat":43.23181,"lon":5.35549,"is_reserved":false,"is_disabled":false,"rental_uris":{"android":"levelo://app?vid=5db2fe94-843e-494a-93fb-e777bcf0c9c8","ios":"levelo://app?vid=5db2fe94-843e-494a-93fb-e777bcf0c9c8"},"vehicle_type_id":"4","last_reported":1746896835,"current_range_meters":8000,"station_id":"ce4bhu92rcd13ifvqi70","pricing_plan_id":"cebpf4jnsgd1na2vs0mg"},{"bike_id":"b740ca03-d35c-4d40-8ac1-4072889852a7","system_id":"levelo_inurba_marseille","lat":43.28478,"lon":5.38555,"is_reserved":false,"is_disabled":false,"rental_uris":{"android":"levelo://app?vid=b740ca03-d35c-4d40-8ac1-4072889852a7","ios":"levelo://app?vid=b740ca03-d35c-4d40-8ac1-4072889852a7"},"vehicle_type_id":"4","last_reported":1746896835,"current_range_meters":8000,"station_id":"ce4bh8p2rcd13ifvqeb0","pricing_plan_id":"cebpf4jnsgd1na2vs0mg"},{"bike_id":"ff76f532-5b08-4874-935d-4a1c23760b4d","system_id":"levelo_inurba_marseille","lat":43.27675,"lon":5.38891,"is_reserved":false,"is_disabled":false,"rental_uris":{"android":"levelo://app?vid=ff76f532-5b08-4874-935d-4a1c23760b4d","ios":"levelo://app?vid=ff76f532-5b08-4874-935d-4a1c23760b4d"},"vehicle_type_id":"4","last_reported":1746896835,"current_range_meters":8000,"station_id":"ce4bhi12rcd13ifvqfo0","pricing_plan_id":"cebpf4jnsgd1na2vs0mg"},{"bike_id":"a63728ad-17a8-4453-9659-f49a9ab9730b","system_id":"levelo_inurba_marseille","lat":43.29523,"lon":5.3854,"is_reserved":false,"is_disabled":false,"rental_uris":{"android":"levelo://app?vid=a63728ad-17a8-4453-9659-f49a9ab9730b","ios":"levelo://app?vid=a63728ad-17a8-4453-9659-f49a9ab9730b"},"vehicle_type_id":"4","last_reported":1746896835,"current_range_meters":8000,"station_id":"ce4bgih2rcd13ifvqba0","pricing_plan_id":"cebpf4jnsgd1na2vs0mg"},{"bike_id":"73df43cb-a77f-405e-b317-cfa261b5f37e","system_id":"levelo_inurba_marseille","lat":43.25119,"lon":5.40313,"is_reserved":false,"is_disabled":false,"rental_uris":{"android":"levelo://app?vid=73df43cb-a77f-405e-b317-cfa261b5f37e","ios":"levelo://app?vid=73df43cb-a77f-405e-b317-cfa261b5f37e"},"vehicle_type_id":"4","last_reported":1746896835,"current_range_meters":8000,"station_id":"ce4bhlh2rcd13ifvqgig","pricing_plan_id":"cebpf4jnsgd1na2vs0mg"},{"bike_id":"0e89f9aa-8c67-4fd6-b053-4f41a76cd77c","system_id":"levelo_inurba_marseille","lat":43.23191,"lon":5.35555,"is_reserved":false,"is_disabled":false,"rental_uris":{"android":"levelo://app?vid=0e89f9aa-8c67-4fd6-b053-4f41a76cd77c","ios":"levelo://app?vid=0e89f9aa-8c67-4fd6-b053-4f41a76cd77c"},"vehicle_type_id":"4","last_reported":1746896835,"current_range_meters":8000,"station_id":"ce4bhu92rcd13ifvqi70","pricing_plan_id":"cebpf4jnsgd1na2vs0mg"},{"bike_id":"09837e20-f5d0-4d5b-93a6-ce8c4354505c","system_id":"levelo_inurba_marseille","lat":43.29413,"lon":5.38619,"is_reserved":false,"is_disabled":false,"rental_uris":{"android":"levelo://app?vid=09837e20-f5d0-4d5b-93a6-ce8c4354505c","ios":"levelo://app?vid=09837e20-f5d0-4d5b-93a6-ce8c4354505c"},"vehicle_type_id":"4","last_reported":1746896835,"current_range_meters":8000,"station_id":"ce4bh2h2rcd13ifvqdh0","pricing_plan_id":"cebpf4jnsgd1na2vs0mg"},{"bike_id":"87427182-4baf-40ae-ad14-65285df34183","system_id":"levelo_inurba_marseille","lat":43.29967,"lon":5.37178,"is_reserved":false,"is_disabled":false,"rental_uris":{"android":"levelo://app?vid=87427182-4baf-40ae-ad14-65285df34183","ios":"levelo://app?vid=87427182-4baf-40ae-ad14-65285df34183"},"vehicle_type_id":"4","last_reported":1746896835,"current_range_meters":8400,"station_id":"ce4bgr92rcd13ifvqc7g","pricing_plan_id":"cebpf4jnsgd1na2vs0mg"},{"bike_id":"cfe44cd4-3eff-44de-9231-eece8617c8cb","system_id":"levelo_inurba_marseille","lat":43.29788,"lon":5.38105,"is_reserved":false,"is_disabled":false,"rental_uris":{"android":"levelo://app?vid=cfe44cd4-3eff-44de-9231-eece8617c8cb","ios":"levelo://app?vid=cfe44cd4-3eff-44de-9231-eece8617c8cb"},"vehicle_type_id":"4","last_reported":1746896835,"current_range_meters":10800,"station_id":"ce4bgip2rcd13ifvqbb0","pricing_plan_id":"cebpf4jnsgd1na2vs0mg"},{"bike_id":"e7e032f6-fa64-49c0-ac91-c5147ce829c7","system_id":"levelo_inurba_marseille","lat":43.3054,"lon":5.36557,"is_reserved":false,"is_disabled":false,"rental_uris":{"android":"levelo://app?vid=e7e032f6-fa64-49c0-ac91-c5147ce829c7","ios":"levelo://app?vid=e7e032f6-fa64-49c0-ac91-c5147ce829c7"},"vehicle_type_id":"4","last_reported":1746896835,"current_range_meters":7200,"station_id":"ce4bgs12rcd13ifvqcag","pricing_plan_id":"cebpf4jnsgd1na2vs0mg"},{"bike_id":"39c8b67c-7ca6-4de8-852f-900d4dd8e030","system_id":"levelo_inurba_marseille","lat":43.266754,"lon":5.382719,"is_reserved":false,"is_disabled":false,"rental_uris":{"android":"levelo://app?vid=39c8b67c-7ca6-4de8-852f-900d4dd8e030","ios":"levelo://app?vid=39c8b67c-7ca6-4de8-852f-900d4dd8e030"},"vehicle_type_id":"4","last_reported":1746896835,"current_range_meters":8400,"station_id":"ce4bhg92rcd13ifvqf90","pricing_plan_id":"cebpf4jnsgd1na2vs0mg"},{"bike_id":"942d29cb-34e7-4511-b70a-677b3c3cbbe9","system_id":"levelo_inurba_marseille","lat":43.28447,"lon":5.39204,"is_reserved":false,"is_disabled":false,"rental_uris":{"android":"levelo://app?vid=942d29cb-34e7-4511-b70a-677b3c3cbbe9","ios":"levelo://app?vid=942d29cb-34e7-4511-b70a-677b3c3cbbe9"},"vehicle_type_id":"4","last_reported":1746896835,"current_range_meters":12800,"station_id":"ce4bhoh2rcd13ifvqh5g","pricing_plan_id":"cebpf4jnsgd1na2vs0mg"},{"bike_id":"9a92ccd8-faf4-421b-b7c2-ee082eb578b5","system_id":"levelo_inurba_marseille","lat":43.28725,"lon":5.3608,"is_reserved":false,"is_disabled":false,"rental_uris":{"android":"levelo://app?vid=9a92ccd8-faf4-421b-b7c2-ee082eb578b5","ios":"levelo://app?vid=9a92ccd8-faf4-421b-b7c2-ee082eb578b5"},"vehicle_type_id":"4","last_reported":1746896835,"current_range_meters":8400,"station_id":"cki0cbj6b192h4jlfktg","pricing_plan_id":"cebpf4jnsgd1na2vs0mg"},{"bike_id":"e4978b65-3501-4cec-852d-9cbc9cb18a28","system_id":"levelo_inurba_marseille","lat":43.29556,"lon":5.37521,"is_reserved":false,"is_disabled":false,"rental_uris":{"android":"levelo://app?vid=e4978b65-3501-4cec-852d-9cbc9cb18a28","ios":"levelo://app?vid=e4978b65-3501-4cec-852d-9cbc9cb18a28"},"vehicle_type_id":"4","last_reported":1746896835,"current_range_meters":8400,"station_id":"ce4bgh92rcd13ifvqb50","pricing_plan_id":"cebpf4jnsgd1na2vs0mg"},{"bike_id":"cdba5129-157a-4da6-9e16-4638d3cbf5d2","system_id":"levelo_inurba_marseille","lat":43.25822,"lon":5.39439,"is_reserved":false,"is_disabled":false,"rental_uris":{"android":"levelo://app?vid=cdba5129-157a-4da6-9e16-4638d3cbf5d2","ios":"levelo://app?vid=cdba5129-157a-4da6-9e16-4638d3cbf5d2"},"vehicle_type_id":"4","last_reported":1746896835,"current_range_meters":8800,"station_id":"ce4bhip2rcd13ifvqft0","pricing_plan_id":"cebpf4jnsgd1na2vs0mg"},{"bike_id":"6d24e392-46d1-4d72-84a5-5d205b606b14","system_id":"levelo_inurba_marseille","lat":43.28159,"lon":5.42652,"is_reserved":false,"is_disabled":false,"rental_uris":{"android":"levelo://app?vid=6d24e392-46d1-4d72-84a5-5d205b606b14","ios":"levelo://app?vid=6d24e392-46d1-4d72-84a5-5d205b606b14"},"vehicle_type_id":"4","last_reported":1746896835,"current_range_meters":8800,"station_id":"ce4bhnh2rcd13ifvqgug","pricing_plan_id":"cebpf4jnsgd1na2vs0mg"},{"bike_id":"79950ede-473d-497e-90c5-4a28201cff09","system_id":"levelo_inurba_marseille","lat":43.268065,"lon":5.402745,"is_reserved":false,"is_disabled":false,"rental_uris":{"android":"levelo://app?vid=79950ede-473d-497e-90c5-4a28201cff09","ios":"levelo://app?vid=79950ede-473d-497e-90c5-4a28201cff09"},"vehicle_type_id":"4","last_reported":1746896835,"current_range_meters":8800,"station_id":"ce501612rcd8frsf0b60","pricing_plan_id":"cebpf4jnsgd1na2vs0mg"},{"bike_id":"f30700cd-2b15-4379-bae3-a617af060209","system_id":"levelo_inurba_marseille","lat":43.21755,"lon":5.34601,"is_reserved":false,"is_disabled":true,"rental_uris":{"android":"levelo://app?vid=f30700cd-2b15-4379-bae3-a617af060209","ios":"levelo://app?vid=f30700cd-2b15-4379-bae3-a617af060209"},"vehicle_type_id":"4","last_reported":1746896835,"current_range_meters":8800,"station_id":"st_cvj6r9ubvosntc0bgbag","pricing_plan_id":"cebpf4jnsgd1na2vs0mg"},{"bike_id":"ecda2bee-d54e-4c3e-a2bd-2d71f5cf508b","system_id":"levelo_inurba_marseille","lat":43.28716,"lon":5.37937,"is_reserved":false,"is_disabled":false,"rental_uris":{"android":"levelo://app?vid=ecda2bee-d54e-4c3e-a2bd-2d71f5cf508b","ios":"levelo://app?vid=ecda2bee-d54e-4c3e-a2bd-2d71f5cf508b"},"vehicle_type_id":"4","last_reported":1746896835,"current_range_meters":8800,"station_id":"ce4bh9p2rcd13ifvqec0","pricing_plan_id":"cebpf4jnsgd1na2vs0mg"},{"bike_id":"75eb0dd4-5e1f-4126-aa9e-89378898337c","system_id":"levelo_inurba_marseille","lat":43.289305,"lon":5.36387,"is_reserved":false,"is_disabled":false,"rental_uris":{"android":"levelo://app?vid=75eb0dd4-5e1f-4126-aa9e-89378898337c","ios":"levelo://app?vid=75eb0dd4-5e1f-4126-aa9e-89378898337c"},"vehicle_type_id":"4","last_reported":1746896835,"current_range_meters":8800,"station_id":"ce4bhc92rcd13ifvqetg","pricing_plan_id":"cebpf4jnsgd1na2vs0mg"},{"bike_id":"c13f6770-edfc-46b5-bb2d-9740a2cce6d4","system_id":"levelo_inurba_marseille","lat":43.254788,"lon":5.376739,"is_reserved":false,"is_disabled":true,"rental_uris":{"android":"levelo://app?vid=c13f6770-edfc-46b5-bb2d-9740a2cce6d4","ios":"levelo://app?vid=c13f6770-edfc-46b5-bb2d-9740a2cce6d4"},"vehicle_type_id":"4","last_reported":1746896835,"current_range_meters":8800,"station_id":"ce4bhh12rcd13ifvqff0","pricing_plan_id":"cebpf4jnsgd1na2vs0mg"},{"bike_id":"e5112173-5791-4bf8-9717-70545dbd73b1","system_id":"levelo_inurba_marseille","lat":43.29897,"lon":5.43671,"is_reserved":false,"is_disabled":false,"rental_uris":{"android":"levelo://app?vid=e5112173-5791-4bf8-9717-70545dbd73b1","ios":"levelo://app?vid=e5112173-5791-4bf8-9717-70545dbd73b1"},"vehicle_type_id":"4","last_reported":1746896835,"current_range_meters":9200,"station_id":"ce4bhpp2rcd13ifvqhfg","pricing_plan_id":"cebpf4jnsgd1na2vs0mg"},{"bike_id":"645133a0-3837-4605-920a-c404e1fbcf41","system_id":"levelo_inurba_marseille","lat":43.28463,"lon":5.38429,"is_reserved":false,"is_disabled":false,"rental_uris":{"android":"levelo://app?vid=645133a0-3837-4605-920a-c404e1fbcf41","ios":"levelo://app?vid=645133a0-3837-4605-920a-c404e1fbcf41"},"vehicle_type_id":"4","last_reported":1746896835,"current_range_meters":9200,"station_id":"ce4bh512rcd13ifvqe3g","pricing_plan_id":"cebpf4jnsgd1na2vs0mg"},{"bike_id":"1374faf3-4965-478b-ad61-e86af0d4a31b","system_id":"levelo_inurba_marseille","lat":43.27207,"lon":5.39179,"is_reserved":false,"is_disabled":false,"rental_uris":{"android":"levelo://app?vid=1374faf3-4965-478b-ad61-e86af0d4a31b","ios":"levelo://app?vid=1374faf3-4965-478b-ad61-e86af0d4a31b"},"vehicle_type_id":"4","last_reported":1746896835,"current_range_meters":9600,"station_id":"ce4bhhp2rcd13ifvqfm0","pricing_plan_id":"cebpf4jnsgd1na2vs0mg"},{"bike_id":"76ea03f3-d936-49e1-84b2-3eb520aceebb","system_id":"levelo_inurba_marseille","lat":43.23194,"lon":5.35567,"is_reserved":false,"is_disabled":false,"rental_uris":{"android":"levelo://app?vid=76ea03f3-d936-49e1-84b2-3eb520aceebb","ios":"levelo://app?vid=76ea03f3-d936-49e1-84b2-3eb520aceebb"},"vehicle_type_id":"4","last_reported":1746896835,"current_range_meters":9600,"station_id":"ce4bhu92rcd13ifvqi70","pricing_plan_id":"cebpf4jnsgd1na2vs0mg"},{"bike_id":"e7903fa4-fe4d-4ebb-9c5a-dad5b0cebdc4","system_id":"levelo_inurba_marseille","lat":43.31163,"lon":5.38727,"is_reserved":false,"is_disabled":false,"rental_uris":{"android":"levelo://app?vid=e7903fa4-fe4d-4ebb-9c5a-dad5b0cebdc4","ios":"levelo://app?vid=e7903fa4-fe4d-4ebb-9c5a-dad5b0cebdc4"},"vehicle_type_id":"4","last_reported":1746896835,"current_range_meters":9600,"station_id":"ce4bgv12rcd13ifvqcp0","pricing_plan_id":"cebpf4jnsgd1na2vs0mg"},{"bike_id":"1ffd911c-b79d-4573-be11-c1f9a8ff98b3","system_id":"levelo_inurba_marseille","lat":43.265635,"lon":5.372757,"is_reserved":false,"is_disabled":false,"rental_uris":{"android":"levelo://app?vid=1ffd911c-b79d-4573-be11-c1f9a8ff98b3","ios":"levelo://app?vid=1ffd911c-b79d-4573-be11-c1f9a8ff98b3"},"vehicle_type_id":"4","last_reported":1746896835,"current_range_meters":9600,"station_id":"ce4bhg12rcd13ifvqf70","pricing_plan_id":"cebpf4jnsgd1na2vs0mg"},{"bike_id":"814c300d-d261-4866-b022-44e7c5159380","system_id":"levelo_inurba_marseille","lat":43.24167,"lon":5.36407,"is_reserved":false,"is_disabled":true,"rental_uris":{"android":"levelo://app?vid=814c300d-d261-4866-b022-44e7c5159380","ios":"levelo://app?vid=814c300d-d261-4866-b022-44e7c5159380"},"vehicle_type_id":"4","last_reported":1746896835,"current_range_meters":9600,"station_id":"cpo36qri1sfpv3e86is0","pricing_plan_id":"cebpf4jnsgd1na2vs0mg"},{"bike_id":"32d8f133-3348-40e7-ab41-c98871497a23","system_id":"levelo_inurba_marseille","lat":43.31493,"lon":5.37309,"is_reserved":false,"is_disabled":false,"rental_uris":{"android":"levelo://app?vid=32d8f133-3348-40e7-ab41-c98871497a23","ios":"levelo://app?vid=32d8f133-3348-40e7-ab41-c98871497a23"},"vehicle_type_id":"4","last_reported":1746896835,"current_range_meters":9600,"station_id":"ce4bgt12rcd13ifvqcd0","pricing_plan_id":"cebpf4jnsgd1na2vs0mg"},{"bike_id":"86b478b2-1cf2-4e07-8a5c-76710e912a41","system_id":"levelo_inurba_marseille","lat":43.2914,"lon":5.366877,"is_reserved":false,"is_disabled":false,"rental_uris":{"android":"levelo://app?vid=86b478b2-1cf2-4e07-8a5c-76710e912a41","ios":"levelo://app?vid=86b478b2-1cf2-4e07-8a5c-76710e912a41"},"vehicle_type_id":"4","last_reported":1746896835,"current_range_meters":9600,"station_id":"","pricing_plan_id":"cebpf4jnsgd1na2vs0mg"},{"bike_id":"10ee2d0e-ca01-4e83-bbdf-6c08178a202f","system_id":"levelo_inurba_marseille","lat":43.28322,"lon":5.41278,"is_reserved":false,"is_disabled":false,"rental_uris":{"android":"levelo://app?vid=10ee2d0e-ca01-4e83-bbdf-6c08178a202f","ios":"levelo://app?vid=10ee2d0e-ca01-4e83-bbdf-6c08178a202f"},"vehicle_type_id":"4","last_reported":1746896835,"current_range_meters":9600,"station_id":"","pricing_plan_id":"cebpf4jnsgd1na2vs0mg"},{"bike_id":"44e88eeb-5d69-44d1-ad07-bcaf5276d14e","system_id":"levelo_inurba_marseille","lat":43.26224,"lon":5.40446,"is_reserved":false,"is_disabled":false,"rental_uris":{"android":"levelo://app?vid=44e88eeb-5d69-44d1-ad07-bcaf5276d14e","ios":"levelo://app?vid=44e88eeb-5d69-44d1-ad07-bcaf5276d14e"},"vehicle_type_id":"4","last_reported":1746896835,"current_range_meters":9600,"station_id":"ce4bhmh2rcd13ifvqgmg","pricing_plan_id":"cebpf4jnsgd1na2vs0mg"},{"bike_id":"99fb9985-2088-4a48-ae83-62aca3ba1639","system_id":"levelo_inurba_marseille","lat":43.315,"lon":5.37303,"is_reserved":false,"is_disabled":true,"rental_uris":{"android":"levelo://app?vid=99fb9985-2088-4a48-ae83-62aca3ba1639","ios":"levelo://app?vid=99fb9985-2088-4a48-ae83-62aca3ba1639"},"vehicle_type_id":"4","last_reported":1746896835,"current_range_meters":9600,"station_id":"ce4bgt12rcd13ifvqcd0","pricing_plan_id":"cebpf4jnsgd1na2vs0mg"},{"bike_id":"0e3db079-b182-4fb2-9eb6-59ab30557d38","system_id":"levelo_inurba_marseille","lat":43.29528,"lon":5.38538,"is_reserved":false,"is_disabled":false,"rental_uris":{"android":"levelo://app?vid=0e3db079-b182-4fb2-9eb6-59ab30557d38","ios":"levelo://app?vid=0e3db079-b182-4fb2-9eb6-59ab30557d38"},"vehicle_type_id":"4","last_reported":1746896835,"current_range_meters":9600,"station_id":"ce4bgih2rcd13ifvqba0","pricing_plan_id":"cebpf4jnsgd1na2vs0mg"},{"bike_id":"4e08158a-133b-443a-b5ab-7d8a017ec668","system_id":"levelo_inurba_marseille","lat":43.31355,"lon":5.38491,"is_reserved":false,"is_disabled":false,"rental_uris":{"android":"levelo://app?vid=4e08158a-133b-443a-b5ab-7d8a017ec668","ios":"levelo://app?vid=4e08158a-133b-443a-b5ab-7d8a017ec668"},"vehicle_type_id":"4","last_reported":1746896835,"current_range_meters":10000,"station_id":"ce4bgt92rcd13ifvqcf0","pricing_plan_id":"cebpf4jnsgd1na2vs0mg"},{"bike_id":"a862be1e-1d7e-4978-8b29-fcd7e491d949","system_id":"levelo_inurba_marseille","lat":43.24165,"lon":5.36404,"is_reserved":false,"is_disabled":false,"rental_uris":{"android":"levelo://app?vid=a862be1e-1d7e-4978-8b29-fcd7e491d949","ios":"levelo://app?vid=a862be1e-1d7e-4978-8b29-fcd7e491d949"},"vehicle_type_id":"4","last_reported":1746896835,"current_range_meters":10000,"station_id":"cpo36qri1sfpv3e86is0","pricing_plan_id":"cebpf4jnsgd1na2vs0mg"},{"bike_id":"ccfb10d4-e1f2-4fe5-88ec-af087558183d","system_id":"levelo_inurba_marseille","lat":43.28982,"lon":5.35617,"is_reserved":false,"is_disabled":false,"rental_uris":{"android":"levelo://app?vid=ccfb10d4-e1f2-4fe5-88ec-af087558183d","ios":"levelo://app?vid=ccfb10d4-e1f2-4fe5-88ec-af087558183d"},"vehicle_type_id":"4","last_reported":1746896835,"current_range_meters":10000,"station_id":"ce4bhb92rcd13ifvqen0","pricing_plan_id":"cebpf4jnsgd1na2vs0mg"},{"bike_id":"55089a67-fda3-4a70-85e5-d7b7e332d270","system_id":"levelo_inurba_marseille","lat":43.2416,"lon":5.36401,"is_reserved":false,"is_disabled":false,"rental_uris":{"android":"levelo://app?vid=55089a67-fda3-4a70-85e5-d7b7e332d270","ios":"levelo://app?vid=55089a67-fda3-4a70-85e5-d7b7e332d270"},"vehicle_type_id":"4","last_reported":1746896835,"current_range_meters":10000,"station_id":"cpo36qri1sfpv3e86is0","pricing_plan_id":"cebpf4jnsgd1na2vs0mg"},{"bike_id":"428000ad-e5eb-4372-b3e0-fe45b300571c","system_id":"levelo_inurba_marseille","lat":43.28858,"lon":5.35849,"is_reserved":false,"is_disabled":false,"rental_uris":{"android":"levelo://app?vid=428000ad-e5eb-4372-b3e0-fe45b300571c","ios":"levelo://app?vid=428000ad-e5eb-4372-b3e0-fe45b300571c"},"vehicle_type_id":"4","last_reported":1746896835,"current_range_meters":8400,"station_id":"ce4bhb12rcd13ifvqem0","pricing_plan_id":"cebpf4jnsgd1na2vs0mg"},{"bike_id":"48cdb687-8013-4ef7-9acb-d6ef9e6af43c","system_id":"levelo_inurba_marseille","lat":43.292633,"lon":5.384432,"is_reserved":false,"is_disabled":false,"rental_uris":{"android":"levelo://app?vid=48cdb687-8013-4ef7-9acb-d6ef9e6af43c","ios":"levelo://app?vid=48cdb687-8013-4ef7-9acb-d6ef9e6af43c"},"vehicle_type_id":"4","last_reported":1746896835,"current_range_meters":10800,"station_id":"ce4bh692rcd13ifvqea0","pricing_plan_id":"cebpf4jnsgd1na2vs0mg"},{"bike_id":"351ef218-24e5-4670-825d-fc1ac5cd3c19","system_id":"levelo_inurba_marseille","lat":43.317886,"lon":5.368187,"is_reserved":false,"is_disabled":false,"rental_uris":{"android":"levelo://app?vid=351ef218-24e5-4670-825d-fc1ac5cd3c19","ios":"levelo://app?vid=351ef218-24e5-4670-825d-fc1ac5cd3c19"},"vehicle_type_id":"4","last_reported":1746896835,"current_range_meters":10800,"station_id":"","pricing_plan_id":"cebpf4jnsgd1na2vs0mg"},{"bike_id":"de8f8e8f-8896-496f-bbda-ae293542a036","system_id":"levelo_inurba_marseille","lat":43.23975,"lon":5.3663,"is_reserved":false,"is_disabled":false,"rental_uris":{"android":"levelo://app?vid=de8f8e8f-8896-496f-bbda-ae293542a036","ios":"levelo://app?vid=de8f8e8f-8896-496f-bbda-ae293542a036"},"vehicle_type_id":"4","last_reported":1746896835,"current_range_meters":10800,"station_id":"ce4bhi12rcd13ifvqfp0","pricing_plan_id":"cebpf4jnsgd1na2vs0mg"},{"bike_id":"86747a08-9cd3-49c7-80f3-7e6f8b4d76eb","system_id":"levelo_inurba_marseille","lat":43.295556,"lon":5.422925,"is_reserved":false,"is_disabled":false,"rental_uris":{"android":"levelo://app?vid=86747a08-9cd3-49c7-80f3-7e6f8b4d76eb","ios":"levelo://app?vid=86747a08-9cd3-49c7-80f3-7e6f8b4d76eb"},"vehicle_type_id":"4","last_reported":1746896835,"current_range_meters":10800,"station_id":"","pricing_plan_id":"cebpf4jnsgd1na2vs0mg"},{"bike_id":"7a5961e7-2e38-4f1b-8c98-0a38c6805265","system_id":"levelo_inurba_marseille","lat":43.27993,"lon":5.4001,"is_reserved":false,"is_disabled":false,"rental_uris":{"android":"levelo://app?vid=7a5961e7-2e38-4f1b-8c98-0a38c6805265","ios":"levelo://app?vid=7a5961e7-2e38-4f1b-8c98-0a38c6805265"},"vehicle_type_id":"4","last_reported":1746896835,"current_range_meters":11200,"station_id":"ce4bho92rcd13ifvqh4g","pricing_plan_id":"cebpf4jnsgd1na2vs0mg"},{"bike_id":"4e4e5a4c-3bed-4880-b4b6-f1910d21f894","system_id":"levelo_inurba_marseille","lat":43.29577,"lon":5.36742,"is_reserved":false,"is_disabled":false,"rental_uris":{"android":"levelo://app?vid=4e4e5a4c-3bed-4880-b4b6-f1910d21f894","ios":"levelo://app?vid=4e4e5a4c-3bed-4880-b4b6-f1910d21f894"},"vehicle_type_id":"4","last_reported":1746896835,"current_range_meters":11200,"station_id":"ce4bgph2rcd13ifvqc2g","pricing_plan_id":"cebpf4jnsgd1na2vs0mg"},{"bike_id":"8f75077c-41c7-4bb3-914b-a8bc5683fd82","system_id":"levelo_inurba_marseille","lat":43.318908,"lon":5.407309,"is_reserved":false,"is_disabled":false,"rental_uris":{"android":"levelo://app?vid=8f75077c-41c7-4bb3-914b-a8bc5683fd82","ios":"levelo://app?vid=8f75077c-41c7-4bb3-914b-a8bc5683fd82"},"vehicle_type_id":"4","last_reported":1746896835,"current_range_meters":12000,"station_id":"ce4bhq12rcd13ifvqhig","pricing_plan_id":"cebpf4jnsgd1na2vs0mg"},{"bike_id":"ea2a631d-7b70-4ea8-a548-a3f9790fff43","system_id":"levelo_inurba_marseille","lat":43.3176,"lon":5.39017,"is_reserved":false,"is_disabled":false,"rental_uris":{"android":"levelo://app?vid=ea2a631d-7b70-4ea8-a548-a3f9790fff43","ios":"levelo://app?vid=ea2a631d-7b70-4ea8-a548-a3f9790fff43"},"vehicle_type_id":"4","last_reported":1746896835,"current_range_meters":12000,"station_id":"ce4bhqp2rcd13ifvqhng","pricing_plan_id":"cebpf4jnsgd1na2vs0mg"},{"bike_id":"7fe12d21-0223-4b5e-aece-255a23774ee0","system_id":"levelo_inurba_marseille","lat":43.31779,"lon":5.39005,"is_reserved":false,"is_disabled":false,"rental_uris":{"android":"levelo://app?vid=7fe12d21-0223-4b5e-aece-255a23774ee0","ios":"levelo://app?vid=7fe12d21-0223-4b5e-aece-255a23774ee0"},"vehicle_type_id":"4","last_reported":1746896835,"current_range_meters":12000,"station_id":"ce4bhqp2rcd13ifvqhng","pricing_plan_id":"cebpf4jnsgd1na2vs0mg"},{"bike_id":"df514e43-2d1b-491f-a6f1-d0d1f393a242","system_id":"levelo_inurba_marseille","lat":43.29899,"lon":5.4367,"is_reserved":false,"is_disabled":false,"rental_uris":{"android":"levelo://app?vid=df514e43-2d1b-491f-a6f1-d0d1f393a242","ios":"levelo://app?vid=df514e43-2d1b-491f-a6f1-d0d1f393a242"},"vehicle_type_id":"4","last_reported":1746896835,"current_range_meters":12400,"station_id":"ce4bhpp2rcd13ifvqhfg","pricing_plan_id":"cebpf4jnsgd1na2vs0mg"},{"bike_id":"7fe52de9-b41a-4e2b-bdb4-a98c95aa74c2","system_id":"levelo_inurba_marseille","lat":43.2784,"lon":5.392,"is_reserved":false,"is_disabled":false,"rental_uris":{"android":"levelo://app?vid=7fe52de9-b41a-4e2b-bdb4-a98c95aa74c2","ios":"levelo://app?vid=7fe52de9-b41a-4e2b-bdb4-a98c95aa74c2"},"vehicle_type_id":"4","last_reported":1746896835,"current_range_meters":12400,"station_id":"ce4bhjp2rcd13ifvqga0","pricing_plan_id":"cebpf4jnsgd1na2vs0mg"},{"bike_id":"6997f6d3-7bfd-4b75-989a-4c4299defaba","system_id":"levelo_inurba_marseille","lat":43.31067,"lon":5.38353,"is_reserved":false,"is_disabled":false,"rental_uris":{"android":"levelo://app?vid=6997f6d3-7bfd-4b75-989a-4c4299defaba","ios":"levelo://app?vid=6997f6d3-7bfd-4b75-989a-4c4299defaba"},"vehicle_type_id":"4","last_reported":1746896835,"current_range_meters":12400,"station_id":"ce4bgv92rcd13ifvqcr0","pricing_plan_id":"cebpf4jnsgd1na2vs0mg"},{"bike_id":"1d83476a-9395-4e91-90b3-3098d854b2b3","system_id":"levelo_inurba_marseille","lat":43.29258,"lon":5.38413,"is_reserved":false,"is_disabled":true,"rental_uris":{"android":"levelo://app?vid=1d83476a-9395-4e91-90b3-3098d854b2b3","ios":"levelo://app?vid=1d83476a-9395-4e91-90b3-3098d854b2b3"},"vehicle_type_id":"4","last_reported":1746896835,"current_range_meters":12800,"station_id":"ce4bh692rcd13ifvqea0","pricing_plan_id":"cebpf4jnsgd1na2vs0mg"},{"bike_id":"f180d368-bf1b-4b9d-ba09-6a598283130c","system_id":"levelo_inurba_marseille","lat":43.27415,"lon":5.39419,"is_reserved":false,"is_disabled":false,"rental_uris":{"android":"levelo://app?vid=f180d368-bf1b-4b9d-ba09-6a598283130c","ios":"levelo://app?vid=f180d368-bf1b-4b9d-ba09-6a598283130c"},"vehicle_type_id":"4","last_reported":1746896835,"current_range_meters":13600,"station_id":"ce4bhdp2rcd13ifvqf20","pricing_plan_id":"cebpf4jnsgd1na2vs0mg"},{"bike_id":"12bb7843-d5e3-4c0d-a3b8-aa6c3c494b5b","system_id":"levelo_inurba_marseille","lat":43.29307,"lon":5.3718,"is_reserved":false,"is_disabled":false,"rental_uris":{"android":"levelo://app?vid=12bb7843-d5e3-4c0d-a3b8-aa6c3c494b5b","ios":"levelo://app?vid=12bb7843-d5e3-4c0d-a3b8-aa6c3c494b5b"},"vehicle_type_id":"4","last_reported":1746896835,"current_range_meters":14400,"station_id":"ce4bgh92rcd13ifvqb40","pricing_plan_id":"cebpf4jnsgd1na2vs0mg"},{"bike_id":"7e550738-25dd-4e93-b35b-62d21c529aec","system_id":"levelo_inurba_marseille","lat":43.27203,"lon":5.39183,"is_reserved":false,"is_disabled":false,"rental_uris":{"android":"levelo://app?vid=7e550738-25dd-4e93-b35b-62d21c529aec","ios":"levelo://app?vid=7e550738-25dd-4e93-b35b-62d21c529aec"},"vehicle_type_id":"4","last_reported":1746896835,"current_range_meters":14000,"station_id":"ce4bhhp2rcd13ifvqfm0","pricing_plan_id":"cebpf4jnsgd1na2vs0mg"},{"bike_id":"fc2577e7-1497-425b-9d4f-ab8d7dc843c6","system_id":"levelo_inurba_marseille","lat":43.33771,"lon":5.37485,"is_reserved":false,"is_disabled":false,"rental_uris":{"android":"levelo://app?vid=fc2577e7-1497-425b-9d4f-ab8d7dc843c6","ios":"levelo://app?vid=fc2577e7-1497-425b-9d4f-ab8d7dc843c6"},"vehicle_type_id":"4","last_reported":1746896835,"current_range_meters":14000,"station_id":"","pricing_plan_id":"cebpf4jnsgd1na2vs0mg"},{"bike_id":"9b118fbd-4623-491e-9bbc-0317f235e70d","system_id":"levelo_inurba_marseille","lat":43.2722,"lon":5.39163,"is_reserved":false,"is_disabled":false,"rental_uris":{"android":"levelo://app?vid=9b118fbd-4623-491e-9bbc-0317f235e70d","ios":"levelo://app?vid=9b118fbd-4623-491e-9bbc-0317f235e70d"},"vehicle_type_id":"4","last_reported":1746896835,"current_range_meters":14000,"station_id":"ce4bhhp2rcd13ifvqfm0","pricing_plan_id":"cebpf4jnsgd1na2vs0mg"},{"bike_id":"cbf16a1a-1841-40e7-a723-57f8ef966008","system_id":"levelo_inurba_marseille","lat":43.28698,"lon":5.39987,"is_reserved":false,"is_disabled":false,"rental_uris":{"android":"levelo://app?vid=cbf16a1a-1841-40e7-a723-57f8ef966008","ios":"levelo://app?vid=cbf16a1a-1841-40e7-a723-57f8ef966008"},"vehicle_type_id":"4","last_reported":1746896835,"current_range_meters":14000,"station_id":"ce4bho92rcd13ifvqh3g","pricing_plan_id":"cebpf4jnsgd1na2vs0mg"},{"bike_id":"2fd36ef5-0982-4417-b0c5-4600e73ebedd","system_id":"levelo_inurba_marseille","lat":43.275547,"lon":5.384217,"is_reserved":false,"is_disabled":false,"rental_uris":{"android":"levelo://app?vid=2fd36ef5-0982-4417-b0c5-4600e73ebedd","ios":"levelo://app?vid=2fd36ef5-0982-4417-b0c5-4600e73ebedd"},"vehicle_type_id":"4","last_reported":1746896835,"current_range_meters":14000,"station_id":"ce4bhh92rcd13ifvqfi0","pricing_plan_id":"cebpf4jnsgd1na2vs0mg"},{"bike_id":"11268526-e3cd-4e12-9429-dce0a19f4d22","system_id":"levelo_inurba_marseille","lat":43.28224,"lon":5.3857,"is_reserved":false,"is_disabled":false,"rental_uris":{"android":"levelo://app?vid=11268526-e3cd-4e12-9429-dce0a19f4d22","ios":"levelo://app?vid=11268526-e3cd-4e12-9429-dce0a19f4d22"},"vehicle_type_id":"4","last_reported":1746896835,"current_range_meters":14000,"station_id":"ce4bh412rcd13ifvqdr0","pricing_plan_id":"cebpf4jnsgd1na2vs0mg"},{"bike_id":"365059ff-84e4-4e2f-a60b-8b6b4b573335","system_id":"levelo_inurba_marseille","lat":43.26015,"lon":5.37568,"is_reserved":false,"is_disabled":false,"rental_uris":{"android":"levelo://app?vid=365059ff-84e4-4e2f-a60b-8b6b4b573335","ios":"levelo://app?vid=365059ff-84e4-4e2f-a60b-8b6b4b573335"},"vehicle_type_id":"4","last_reported":1746896835,"current_range_meters":14000,"station_id":"ce4bhgh2rcd13ifvqfa0","pricing_plan_id":"cebpf4jnsgd1na2vs0mg"},{"bike_id":"81d9040f-382f-4511-a69e-7e32c721e45b","system_id":"levelo_inurba_marseille","lat":43.2927,"lon":5.36851,"is_reserved":false,"is_disabled":false,"rental_uris":{"android":"levelo://app?vid=81d9040f-382f-4511-a69e-7e32c721e45b","ios":"levelo://app?vid=81d9040f-382f-4511-a69e-7e32c721e45b"},"vehicle_type_id":"4","last_reported":1746896835,"current_range_meters":14000,"station_id":"ce4bhbp2rcd13ifvqesg","pricing_plan_id":"cebpf4jnsgd1na2vs0mg"},{"bike_id":"d95e8117-ef7d-41f9-a4f5-89713d352757","system_id":"levelo_inurba_marseille","lat":43.23186,"lon":5.35558,"is_reserved":false,"is_disabled":false,"rental_uris":{"android":"levelo://app?vid=d95e8117-ef7d-41f9-a4f5-89713d352757","ios":"levelo://app?vid=d95e8117-ef7d-41f9-a4f5-89713d352757"},"vehicle_type_id":"4","last_reported":1746896835,"current_range_meters":10800,"station_id":"ce4bhu92rcd13ifvqi70","pricing_plan_id":"cebpf4jnsgd1na2vs0mg"},{"bike_id":"c8a6e3e4-9695-47b4-91e4-67682eae4ad4","system_id":"levelo_inurba_marseille","lat":43.30459,"lon":5.37911,"is_reserved":false,"is_disabled":false,"rental_uris":{"android":"levelo://app?vid=c8a6e3e4-9695-47b4-91e4-67682eae4ad4","ios":"levelo://app?vid=c8a6e3e4-9695-47b4-91e4-67682eae4ad4"},"vehicle_type_id":"4","last_reported":1746896835,"current_range_meters":14000,"station_id":"ce4bgup2rcd13ifvqcn0","pricing_plan_id":"cebpf4jnsgd1na2vs0mg"},{"bike_id":"5431a9c5-14b0-4938-a34c-7ec8ae2a8afa","system_id":"levelo_inurba_marseille","lat":43.27309,"lon":5.39056,"is_reserved":false,"is_disabled":false,"rental_uris":{"android":"levelo://app?vid=5431a9c5-14b0-4938-a34c-7ec8ae2a8afa","ios":"levelo://app?vid=5431a9c5-14b0-4938-a34c-7ec8ae2a8afa"},"vehicle_type_id":"4","last_reported":1746896835,"current_range_meters":14000,"station_id":"ce4bhgp2rcd13ifvqfe0","pricing_plan_id":"cebpf4jnsgd1na2vs0mg"},{"bike_id":"9080953c-a459-4d74-972d-4c7ca300963c","system_id":"levelo_inurba_marseille","lat":43.230479,"lon":5.354785,"is_reserved":false,"is_disabled":false,"rental_uris":{"android":"levelo://app?vid=9080953c-a459-4d74-972d-4c7ca300963c","ios":"levelo://app?vid=9080953c-a459-4d74-972d-4c7ca300963c"},"vehicle_type_id":"4","last_reported":1746896835,"current_range_meters":14000,"station_id":"cpo3342slgdg3j2ifvpg","pricing_plan_id":"cebpf4jnsgd1na2vs0mg"},{"bike_id":"fb8eb4ab-4c14-4bfd-bf2a-68d9782da48d","system_id":"levelo_inurba_marseille","lat":43.2997,"lon":5.37169,"is_reserved":false,"is_disabled":false,"rental_uris":{"android":"levelo://app?vid=fb8eb4ab-4c14-4bfd-bf2a-68d9782da48d","ios":"levelo://app?vid=fb8eb4ab-4c14-4bfd-bf2a-68d9782da48d"},"vehicle_type_id":"4","last_reported":1746896835,"current_range_meters":14400,"station_id":"ce4bgr92rcd13ifvqc7g","pricing_plan_id":"cebpf4jnsgd1na2vs0mg"},{"bike_id":"a5ee6ac6-b813-4a1f-bed9-da8cc5453ea1","system_id":"levelo_inurba_marseille","lat":43.29047,"lon":5.42097,"is_reserved":false,"is_disabled":false,"rental_uris":{"android":"levelo://app?vid=a5ee6ac6-b813-4a1f-bed9-da8cc5453ea1","ios":"levelo://app?vid=a5ee6ac6-b813-4a1f-bed9-da8cc5453ea1"},"vehicle_type_id":"4","last_reported":1746896835,"current_range_meters":14400,"station_id":"","pricing_plan_id":"cebpf4jnsgd1na2vs0mg"},{"bike_id":"09dd0989-998b-4ee1-a199-71e5bde88891","system_id":"levelo_inurba_marseille","lat":43.317588,"lon":5.3902,"is_reserved":false,"is_disabled":false,"rental_uris":{"android":"levelo://app?vid=09dd0989-998b-4ee1-a199-71e5bde88891","ios":"levelo://app?vid=09dd0989-998b-4ee1-a199-71e5bde88891"},"vehicle_type_id":"4","last_reported":1746896835,"current_range_meters":14800,"station_id":"ce4bhqp2rcd13ifvqhng","pricing_plan_id":"cebpf4jnsgd1na2vs0mg"},{"bike_id":"b5b7ac9e-ae66-4cde-a58d-4d4116750a4c","system_id":"levelo_inurba_marseille","lat":43.27663,"lon":5.3892,"is_reserved":false,"is_disabled":false,"rental_uris":{"android":"levelo://app?vid=b5b7ac9e-ae66-4cde-a58d-4d4116750a4c","ios":"levelo://app?vid=b5b7ac9e-ae66-4cde-a58d-4d4116750a4c"},"vehicle_type_id":"4","last_reported":1746896835,"current_range_meters":14800,"station_id":"ce4bhi12rcd13ifvqfo0","pricing_plan_id":"cebpf4jnsgd1na2vs0mg"},{"bike_id":"b222ace3-ab88-460b-b1d6-41e908211cad","system_id":"levelo_inurba_marseille","lat":43.21748,"lon":5.34595,"is_reserved":false,"is_disabled":true,"rental_uris":{"android":"levelo://app?vid=b222ace3-ab88-460b-b1d6-41e908211cad","ios":"levelo://app?vid=b222ace3-ab88-460b-b1d6-41e908211cad"},"vehicle_type_id":"4","last_reported":1746896835,"current_range_meters":15200,"station_id":"st_cvj6r9ubvosntc0bgbag","pricing_plan_id":"cebpf4jnsgd1na2vs0mg"},{"bike_id":"8b026b76-2392-4b0d-a0d3-193b6fab463e","system_id":"levelo_inurba_marseille","lat":43.23198,"lon":5.35554,"is_reserved":false,"is_disabled":false,"rental_uris":{"android":"levelo://app?vid=8b026b76-2392-4b0d-a0d3-193b6fab463e","ios":"levelo://app?vid=8b026b76-2392-4b0d-a0d3-193b6fab463e"},"vehicle_type_id":"4","last_reported":1746896835,"current_range_meters":15200,"station_id":"ce4bhu92rcd13ifvqi70","pricing_plan_id":"cebpf4jnsgd1na2vs0mg"},{"bike_id":"ddd80f26-913e-4265-9001-0509661216b4","system_id":"levelo_inurba_marseille","lat":43.24178,"lon":5.36397,"is_reserved":false,"is_disabled":false,"rental_uris":{"android":"levelo://app?vid=ddd80f26-913e-4265-9001-0509661216b4","ios":"levelo://app?vid=ddd80f26-913e-4265-9001-0509661216b4"},"vehicle_type_id":"4","last_reported":1746896835,"current_range_meters":15200,"station_id":"cpo36qri1sfpv3e86is0","pricing_plan_id":"cebpf4jnsgd1na2vs0mg"},{"bike_id":"57065f6d-201e-48a4-a8aa-9b29caeb3eb5","system_id":"levelo_inurba_marseille","lat":43.28148,"lon":5.42646,"is_reserved":false,"is_disabled":false,"rental_uris":{"android":"levelo://app?vid=57065f6d-201e-48a4-a8aa-9b29caeb3eb5","ios":"levelo://app?vid=57065f6d-201e-48a4-a8aa-9b29caeb3eb5"},"vehicle_type_id":"4","last_reported":1746896835,"current_range_meters":15200,"station_id":"ce4bhnh2rcd13ifvqgug","pricing_plan_id":"cebpf4jnsgd1na2vs0mg"},{"bike_id":"6d705489-d3d5-4e12-a28e-5d7bb8b109f3","system_id":"levelo_inurba_marseille","lat":43.26859,"lon":5.42745,"is_reserved":false,"is_disabled":false,"rental_uris":{"android":"levelo://app?vid=6d705489-d3d5-4e12-a28e-5d7bb8b109f3","ios":"levelo://app?vid=6d705489-d3d5-4e12-a28e-5d7bb8b109f3"},"vehicle_type_id":"4","last_reported":1746896835,"current_range_meters":16000,"station_id":"","pricing_plan_id":"cebpf4jnsgd1na2vs0mg"},{"bike_id":"a1121b36-b5cd-4dda-96ef-13a3dfaa55e1","system_id":"levelo_inurba_marseille","lat":43.301401,"lon":5.387791,"is_reserved":false,"is_disabled":false,"rental_uris":{"android":"levelo://app?vid=a1121b36-b5cd-4dda-96ef-13a3dfaa55e1","ios":"levelo://app?vid=a1121b36-b5cd-4dda-96ef-13a3dfaa55e1"},"vehicle_type_id":"4","last_reported":1746896835,"current_range_meters":16000,"station_id":"","pricing_plan_id":"cebpf4jnsgd1na2vs0mg"},{"bike_id":"8ada2b10-3ec2-431d-a28c-c1d0fddd30a0","system_id":"levelo_inurba_marseille","lat":43.229456,"lon":5.353556,"is_reserved":false,"is_disabled":false,"rental_uris":{"android":"levelo://app?vid=8ada2b10-3ec2-431d-a28c-c1d0fddd30a0","ios":"levelo://app?vid=8ada2b10-3ec2-431d-a28c-c1d0fddd30a0"},"vehicle_type_id":"4","last_reported":1746896835,"current_range_meters":16000,"station_id":"cpo3532slgdg3j2ikp40","pricing_plan_id":"cebpf4jnsgd1na2vs0mg"},{"bike_id":"d2326ffb-3df8-46f4-b4f5-60b7753a0276","system_id":"levelo_inurba_marseille","lat":43.27998,"lon":5.41661,"is_reserved":false,"is_disabled":false,"rental_uris":{"android":"levelo://app?vid=d2326ffb-3df8-46f4-b4f5-60b7753a0276","ios":"levelo://app?vid=d2326ffb-3df8-46f4-b4f5-60b7753a0276"},"vehicle_type_id":"4","last_reported":1746896835,"current_range_meters":16000,"station_id":"ce4bho12rcd13ifvqh1g","pricing_plan_id":"cebpf4jnsgd1na2vs0mg"},{"bike_id":"66bb2220-52bb-4952-881d-30bef7facd68","system_id":"levelo_inurba_marseille","lat":43.26022,"lon":5.37551,"is_reserved":false,"is_disabled":false,"rental_uris":{"android":"levelo://app?vid=66bb2220-52bb-4952-881d-30bef7facd68","ios":"levelo://app?vid=66bb2220-52bb-4952-881d-30bef7facd68"},"vehicle_type_id":"4","last_reported":1746896835,"current_range_meters":16000,"station_id":"ce4bhgh2rcd13ifvqfa0","pricing_plan_id":"cebpf4jnsgd1na2vs0mg"},{"bike_id":"6add2d36-61c6-46c1-a56e-696306c1bd19","system_id":"levelo_inurba_marseille","lat":43.23354,"lon":5.36072,"is_reserved":false,"is_disabled":false,"rental_uris":{"android":"levelo://app?vid=6add2d36-61c6-46c1-a56e-696306c1bd19","ios":"levelo://app?vid=6add2d36-61c6-46c1-a56e-696306c1bd19"},"vehicle_type_id":"4","last_reported":1746896835,"current_range_meters":16000,"station_id":"","pricing_plan_id":"cebpf4jnsgd1na2vs0mg"},{"bike_id":"e2434f42-8ebb-4eed-a218-d21bf35b3735","system_id":"levelo_inurba_marseille","lat":43.2979,"lon":5.3813,"is_reserved":false,"is_disabled":true,"rental_uris":{"android":"levelo://app?vid=e2434f42-8ebb-4eed-a218-d21bf35b3735","ios":"levelo://app?vid=e2434f42-8ebb-4eed-a218-d21bf35b3735"},"vehicle_type_id":"4","last_reported":1746896835,"current_range_meters":16400,"station_id":"ce4bgip2rcd13ifvqbb0","pricing_plan_id":"cebpf4jnsgd1na2vs0mg"},{"bike_id":"6663a384-abed-48bd-861f-d563c5fcecd4","system_id":"levelo_inurba_marseille","lat":43.28432,"lon":5.34992,"is_reserved":false,"is_disabled":true,"rental_uris":{"android":"levelo://app?vid=6663a384-abed-48bd-861f-d563c5fcecd4","ios":"levelo://app?vid=6663a384-abed-48bd-861f-d563c5fcecd4"},"vehicle_type_id":"4","last_reported":1746896835,"current_range_meters":16400,"station_id":"ce4bhbh2rcd13ifvqepg","pricing_plan_id":"cebpf4jnsgd1na2vs0mg"},{"bike_id":"78bdd65d-acd5-4212-b9ce-1f713fbfe66f","system_id":"levelo_inurba_marseille","lat":43.21196,"lon":5.35105,"is_reserved":false,"is_disabled":true,"rental_uris":{"android":"levelo://app?vid=78bdd65d-acd5-4212-b9ce-1f713fbfe66f","ios":"levelo://app?vid=78bdd65d-acd5-4212-b9ce-1f713fbfe66f"},"vehicle_type_id":"4","last_reported":1746896835,"current_range_meters":16400,"station_id":"st_cvj6sg6p6f1abm77japg","pricing_plan_id":"cebpf4jnsgd1na2vs0mg"},{"bike_id":"8c8ce247-67e2-43bc-94cb-83c463441b07","system_id":"levelo_inurba_marseille","lat":43.26773,"lon":5.39419,"is_reserved":false,"is_disabled":false,"rental_uris":{"android":"levelo://app?vid=8c8ce247-67e2-43bc-94cb-83c463441b07","ios":"levelo://app?vid=8c8ce247-67e2-43bc-94cb-83c463441b07"},"vehicle_type_id":"4","last_reported":1746896835,"current_range_meters":16400,"station_id":"ce4bhh12rcd13ifvqfg0","pricing_plan_id":"cebpf4jnsgd1na2vs0mg"},{"bike_id":"834b0ccb-af23-4550-a4f4-272db5c83f05","system_id":"levelo_inurba_marseille","lat":43.22933,"lon":5.35377,"is_reserved":false,"is_disabled":false,"rental_uris":{"android":"levelo://app?vid=834b0ccb-af23-4550-a4f4-272db5c83f05","ios":"levelo://app?vid=834b0ccb-af23-4550-a4f4-272db5c83f05"},"vehicle_type_id":"4","last_reported":1746896835,"current_range_meters":16800,"station_id":"cpo3532slgdg3j2ikp40","pricing_plan_id":"cebpf4jnsgd1na2vs0mg"},{"bike_id":"cb971e79-d39a-4e09-8a80-152a8e8acc1a","system_id":"levelo_inurba_marseille","lat":43.29278,"lon":5.40121,"is_reserved":false,"is_disabled":false,"rental_uris":{"android":"levelo://app?vid=cb971e79-d39a-4e09-8a80-152a8e8acc1a","ios":"levelo://app?vid=cb971e79-d39a-4e09-8a80-152a8e8acc1a"},"vehicle_type_id":"4","last_reported":1746896835,"current_range_meters":16800,"station_id":"ce4bh312rcd13ifvqdk0","pricing_plan_id":"cebpf4jnsgd1na2vs0mg"},{"bike_id":"80265a29-7634-4f64-abb3-4182c961748a","system_id":"levelo_inurba_marseille","lat":43.25764,"lon":5.386835,"is_reserved":false,"is_disabled":false,"rental_uris":{"android":"levelo://app?vid=80265a29-7634-4f64-abb3-4182c961748a","ios":"levelo://app?vid=80265a29-7634-4f64-abb3-4182c961748a"},"vehicle_type_id":"4","last_reported":1746896835,"current_range_meters":16800,"station_id":"","pricing_plan_id":"cebpf4jnsgd1na2vs0mg"},{"bike_id":"e0d18d0b-5152-46a2-9711-407889b5cc28","system_id":"levelo_inurba_marseille","lat":43.2416,"lon":5.36408,"is_reserved":false,"is_disabled":false,"rental_uris":{"android":"levelo://app?vid=e0d18d0b-5152-46a2-9711-407889b5cc28","ios":"levelo://app?vid=e0d18d0b-5152-46a2-9711-407889b5cc28"},"vehicle_type_id":"4","last_reported":1746896835,"current_range_meters":16800,"station_id":"cpo36qri1sfpv3e86is0","pricing_plan_id":"cebpf4jnsgd1na2vs0mg"},{"bike_id":"fe8de35c-7660-43c4-bf10-54a506523a0a","system_id":"levelo_inurba_marseille","lat":43.29523,"lon":5.38543,"is_reserved":false,"is_disabled":false,"rental_uris":{"android":"levelo://app?vid=fe8de35c-7660-43c4-bf10-54a506523a0a","ios":"levelo://app?vid=fe8de35c-7660-43c4-bf10-54a506523a0a"},"vehicle_type_id":"4","last_reported":1746896835,"current_range_meters":16800,"station_id":"ce4bgih2rcd13ifvqba0","pricing_plan_id":"cebpf4jnsgd1na2vs0mg"},{"bike_id":"dd075773-8d5e-4c5d-a9a8-b19f9ecb7773","system_id":"levelo_inurba_marseille","lat":43.28457,"lon":5.35884,"is_reserved":false,"is_disabled":false,"rental_uris":{"android":"levelo://app?vid=dd075773-8d5e-4c5d-a9a8-b19f9ecb7773","ios":"levelo://app?vid=dd075773-8d5e-4c5d-a9a8-b19f9ecb7773"},"vehicle_type_id":"4","last_reported":1746896835,"current_range_meters":16800,"station_id":"ce4bhah2rcd13ifvqei0","pricing_plan_id":"cebpf4jnsgd1na2vs0mg"},{"bike_id":"9f58eb09-2915-4161-8093-6e36ba7b57dc","system_id":"levelo_inurba_marseille","lat":43.27312,"lon":5.39082,"is_reserved":false,"is_disabled":false,"rental_uris":{"android":"levelo://app?vid=9f58eb09-2915-4161-8093-6e36ba7b57dc","ios":"levelo://app?vid=9f58eb09-2915-4161-8093-6e36ba7b57dc"},"vehicle_type_id":"4","last_reported":1746896835,"current_range_meters":17200,"station_id":"ce4bhgp2rcd13ifvqfe0","pricing_plan_id":"cebpf4jnsgd1na2vs0mg"},{"bike_id":"35e3aef0-4a45-47f5-9b6e-1a3ae04aba58","system_id":"levelo_inurba_marseille","lat":43.27299,"lon":5.39082,"is_reserved":false,"is_disabled":false,"rental_uris":{"android":"levelo://app?vid=35e3aef0-4a45-47f5-9b6e-1a3ae04aba58","ios":"levelo://app?vid=35e3aef0-4a45-47f5-9b6e-1a3ae04aba58"},"vehicle_type_id":"4","last_reported":1746896835,"current_range_meters":17600,"station_id":"ce4bhgp2rcd13ifvqfe0","pricing_plan_id":"cebpf4jnsgd1na2vs0mg"},{"bike_id":"c6e1e949-3b0c-4844-af3c-ed8fbe409bff","system_id":"levelo_inurba_marseille","lat":43.3021,"lon":5.39468,"is_reserved":false,"is_disabled":false,"rental_uris":{"android":"levelo://app?vid=c6e1e949-3b0c-4844-af3c-ed8fbe409bff","ios":"levelo://app?vid=c6e1e949-3b0c-4844-af3c-ed8fbe409bff"},"vehicle_type_id":"4","last_reported":1746896835,"current_range_meters":19600,"station_id":"ce4bh0p2rcd13ifvqd70","pricing_plan_id":"cebpf4jnsgd1na2vs0mg"},{"bike_id":"4af5fd70-2264-4a74-867f-c5e125bd149d","system_id":"levelo_inurba_marseille","lat":43.25858,"lon":5.39904,"is_reserved":false,"is_disabled":false,"rental_uris":{"android":"levelo://app?vid=4af5fd70-2264-4a74-867f-c5e125bd149d","ios":"levelo://app?vid=4af5fd70-2264-4a74-867f-c5e125bd149d"},"vehicle_type_id":"4","last_reported":1746896835,"current_range_meters":17600,"station_id":"ce4bhl92rcd13ifvqghg","pricing_plan_id":"cebpf4jnsgd1na2vs0mg"},{"bike_id":"8c55f87d-c184-4642-9a68-b44c4a8db126","system_id":"levelo_inurba_marseille","lat":43.30142,"lon":5.37425,"is_reserved":false,"is_disabled":false,"rental_uris":{"android":"levelo://app?vid=8c55f87d-c184-4642-9a68-b44c4a8db126","ios":"levelo://app?vid=8c55f87d-c184-4642-9a68-b44c4a8db126"},"vehicle_type_id":"4","last_reported":1746896835,"current_range_meters":17200,"station_id":"ce4bgs92rcd13ifvqcc0","pricing_plan_id":"cebpf4jnsgd1na2vs0mg"},{"bike_id":"b494ea22-9bb3-4f26-b4a7-19f82f6f08ee","system_id":"levelo_inurba_marseille","lat":43.27616,"lon":5.36113,"is_reserved":false,"is_disabled":false,"rental_uris":{"android":"levelo://app?vid=b494ea22-9bb3-4f26-b4a7-19f82f6f08ee","ios":"levelo://app?vid=b494ea22-9bb3-4f26-b4a7-19f82f6f08ee"},"vehicle_type_id":"4","last_reported":1746896835,"current_range_meters":17600,"station_id":"ce4bgj92rcd13ifvqbe0","pricing_plan_id":"cebpf4jnsgd1na2vs0mg"},{"bike_id":"4a34df37-affe-4ed1-b631-3e924e8be8e5","system_id":"levelo_inurba_marseille","lat":43.2796,"lon":5.38757,"is_reserved":false,"is_disabled":false,"rental_uris":{"android":"levelo://app?vid=4a34df37-affe-4ed1-b631-3e924e8be8e5","ios":"levelo://app?vid=4a34df37-affe-4ed1-b631-3e924e8be8e5"},"vehicle_type_id":"4","last_reported":1746896835,"current_range_meters":17600,"station_id":"ce4bhg12rcd13ifvqf80","pricing_plan_id":"cebpf4jnsgd1na2vs0mg"},{"bike_id":"ee7d7cdf-6a69-48fa-bee6-c92c8dd8bc0a","system_id":"levelo_inurba_marseille","lat":43.32284,"lon":5.38283,"is_reserved":false,"is_disabled":false,"rental_uris":{"android":"levelo://app?vid=ee7d7cdf-6a69-48fa-bee6-c92c8dd8bc0a","ios":"levelo://app?vid=ee7d7cdf-6a69-48fa-bee6-c92c8dd8bc0a"},"vehicle_type_id":"4","last_reported":1746896835,"current_range_meters":18000,"station_id":"ce4bhr12rcd13ifvqhqg","pricing_plan_id":"cebpf4jnsgd1na2vs0mg"},{"bike_id":"1547c9ba-03a6-4fc5-98e1-4a53f713f369","system_id":"levelo_inurba_marseille","lat":43.24165,"lon":5.36402,"is_reserved":false,"is_disabled":false,"rental_uris":{"android":"levelo://app?vid=1547c9ba-03a6-4fc5-98e1-4a53f713f369","ios":"levelo://app?vid=1547c9ba-03a6-4fc5-98e1-4a53f713f369"},"vehicle_type_id":"4","last_reported":1746896835,"current_range_meters":18000,"station_id":"cpo36qri1sfpv3e86is0","pricing_plan_id":"cebpf4jnsgd1na2vs0mg"},{"bike_id":"2bc77fce-6464-4086-b649-145ecd73fdfc","system_id":"levelo_inurba_marseille","lat":43.28459,"lon":5.35888,"is_reserved":false,"is_disabled":false,"rental_uris":{"android":"levelo://app?vid=2bc77fce-6464-4086-b649-145ecd73fdfc","ios":"levelo://app?vid=2bc77fce-6464-4086-b649-145ecd73fdfc"},"vehicle_type_id":"4","last_reported":1746896835,"current_range_meters":18000,"station_id":"ce4bhah2rcd13ifvqei0","pricing_plan_id":"cebpf4jnsgd1na2vs0mg"},{"bike_id":"3a21e655-db4c-4c56-bbce-c1ee1c1e02cd","system_id":"levelo_inurba_marseille","lat":43.31352,"lon":5.38513,"is_reserved":false,"is_disabled":false,"rental_uris":{"android":"levelo://app?vid=3a21e655-db4c-4c56-bbce-c1ee1c1e02cd","ios":"levelo://app?vid=3a21e655-db4c-4c56-bbce-c1ee1c1e02cd"},"vehicle_type_id":"4","last_reported":1746896835,"current_range_meters":18000,"station_id":"ce4bgt92rcd13ifvqcf0","pricing_plan_id":"cebpf4jnsgd1na2vs0mg"},{"bike_id":"d46ad7b7-abdb-4e80-ad38-cbd694a84e84","system_id":"levelo_inurba_marseille","lat":43.26787,"lon":5.39412,"is_reserved":false,"is_disabled":false,"rental_uris":{"android":"levelo://app?vid=d46ad7b7-abdb-4e80-ad38-cbd694a84e84","ios":"levelo://app?vid=d46ad7b7-abdb-4e80-ad38-cbd694a84e84"},"vehicle_type_id":"4","last_reported":1746896835,"current_range_meters":18800,"station_id":"ce4bhh12rcd13ifvqfg0","pricing_plan_id":"cebpf4jnsgd1na2vs0mg"},{"bike_id":"be964e6e-8a27-4718-b4f5-f7af6d70cc61","system_id":"levelo_inurba_marseille","lat":43.2981,"lon":5.38098,"is_reserved":false,"is_disabled":false,"rental_uris":{"android":"levelo://app?vid=be964e6e-8a27-4718-b4f5-f7af6d70cc61","ios":"levelo://app?vid=be964e6e-8a27-4718-b4f5-f7af6d70cc61"},"vehicle_type_id":"4","last_reported":1746896835,"current_range_meters":18800,"station_id":"ce4bgip2rcd13ifvqbb0","pricing_plan_id":"cebpf4jnsgd1na2vs0mg"},{"bike_id":"3a3a5a55-e9a4-4f49-a47c-53485b9831fe","system_id":"levelo_inurba_marseille","lat":43.30729,"lon":5.42436,"is_reserved":false,"is_disabled":false,"rental_uris":{"android":"levelo://app?vid=3a3a5a55-e9a4-4f49-a47c-53485b9831fe","ios":"levelo://app?vid=3a3a5a55-e9a4-4f49-a47c-53485b9831fe"},"vehicle_type_id":"4","last_reported":1746896835,"current_range_meters":18800,"station_id":"st_cvj6ca6bvosntc0bfgr0","pricing_plan_id":"cebpf4jnsgd1na2vs0mg"},{"bike_id":"a0b15ee2-7970-4f2a-8e19-f9e171deb121","system_id":"levelo_inurba_marseille","lat":43.29308,"lon":5.37179,"is_reserved":false,"is_disabled":false,"rental_uris":{"android":"levelo://app?vid=a0b15ee2-7970-4f2a-8e19-f9e171deb121","ios":"levelo://app?vid=a0b15ee2-7970-4f2a-8e19-f9e171deb121"},"vehicle_type_id":"4","last_reported":1746896835,"current_range_meters":18800,"station_id":"ce4bgh92rcd13ifvqb40","pricing_plan_id":"cebpf4jnsgd1na2vs0mg"},{"bike_id":"37c47980-0b70-4cef-bd32-4fed3cf05407","system_id":"levelo_inurba_marseille","lat":43.23188,"lon":5.35538,"is_reserved":false,"is_disabled":false,"rental_uris":{"android":"levelo://app?vid=37c47980-0b70-4cef-bd32-4fed3cf05407","ios":"levelo://app?vid=37c47980-0b70-4cef-bd32-4fed3cf05407"},"vehicle_type_id":"4","last_reported":1746896835,"current_range_meters":18800,"station_id":"ce4bhu92rcd13ifvqi70","pricing_plan_id":"cebpf4jnsgd1na2vs0mg"},{"bike_id":"af3deb4a-8332-46ca-b4a5-1dde24ebf8e2","system_id":"levelo_inurba_marseille","lat":43.31071,"lon":5.38354,"is_reserved":false,"is_disabled":false,"rental_uris":{"android":"levelo://app?vid=af3deb4a-8332-46ca-b4a5-1dde24ebf8e2","ios":"levelo://app?vid=af3deb4a-8332-46ca-b4a5-1dde24ebf8e2"},"vehicle_type_id":"4","last_reported":1746896835,"current_range_meters":18800,"station_id":"ce4bgv92rcd13ifvqcr0","pricing_plan_id":"cebpf4jnsgd1na2vs0mg"},{"bike_id":"cc62d2da-5a20-4806-9c3f-389790a326f5","system_id":"levelo_inurba_marseille","lat":43.2439,"lon":5.37061,"is_reserved":false,"is_disabled":true,"rental_uris":{"android":"levelo://app?vid=cc62d2da-5a20-4806-9c3f-389790a326f5","ios":"levelo://app?vid=cc62d2da-5a20-4806-9c3f-389790a326f5"},"vehicle_type_id":"4","last_reported":1746896835,"current_range_meters":18800,"station_id":"ce4bhhh2rcd13ifvqfk0","pricing_plan_id":"cebpf4jnsgd1na2vs0mg"},{"bike_id":"1088eadb-a314-4ec3-8fb4-d91736f8c5aa","system_id":"levelo_inurba_marseille","lat":43.241915,"lon":5.37932,"is_reserved":false,"is_disabled":false,"rental_uris":{"android":"levelo://app?vid=1088eadb-a314-4ec3-8fb4-d91736f8c5aa","ios":"levelo://app?vid=1088eadb-a314-4ec3-8fb4-d91736f8c5aa"},"vehicle_type_id":"4","last_reported":1746896835,"current_range_meters":18800,"station_id":"","pricing_plan_id":"cebpf4jnsgd1na2vs0mg"},{"bike_id":"f52c819d-ca4b-4640-b458-b877db1bf990","system_id":"levelo_inurba_marseille","lat":43.29878,"lon":5.40957,"is_reserved":false,"is_disabled":false,"rental_uris":{"android":"levelo://app?vid=f52c819d-ca4b-4640-b458-b877db1bf990","ios":"levelo://app?vid=f52c819d-ca4b-4640-b458-b877db1bf990"},"vehicle_type_id":"4","last_reported":1746896835,"current_range_meters":19200,"station_id":"","pricing_plan_id":"cebpf4jnsgd1na2vs0mg"},{"bike_id":"49cea903-769a-494b-b86c-53e66abd345e","system_id":"levelo_inurba_marseille","lat":43.31492,"lon":5.37311,"is_reserved":false,"is_disabled":false,"rental_uris":{"android":"levelo://app?vid=49cea903-769a-494b-b86c-53e66abd345e","ios":"levelo://app?vid=49cea903-769a-494b-b86c-53e66abd345e"},"vehicle_type_id":"4","last_reported":1746896835,"current_range_meters":19200,"station_id":"ce4bgt12rcd13ifvqcd0","pricing_plan_id":"cebpf4jnsgd1na2vs0mg"},{"bike_id":"ada4eea3-bb1f-42b9-858b-3bdb6b66d36b","system_id":"levelo_inurba_marseille","lat":43.2927,"lon":5.36851,"is_reserved":false,"is_disabled":false,"rental_uris":{"android":"levelo://app?vid=ada4eea3-bb1f-42b9-858b-3bdb6b66d36b","ios":"levelo://app?vid=ada4eea3-bb1f-42b9-858b-3bdb6b66d36b"},"vehicle_type_id":"4","last_reported":1746896835,"current_range_meters":19200,"station_id":"ce4bhbp2rcd13ifvqesg","pricing_plan_id":"cebpf4jnsgd1na2vs0mg"},{"bike_id":"63094819-a0f5-4ce6-b4c8-2b4cab5b88e4","system_id":"levelo_inurba_marseille","lat":43.27166,"lon":5.40996,"is_reserved":false,"is_disabled":false,"rental_uris":{"android":"levelo://app?vid=63094819-a0f5-4ce6-b4c8-2b4cab5b88e4","ios":"levelo://app?vid=63094819-a0f5-4ce6-b4c8-2b4cab5b88e4"},"vehicle_type_id":"4","last_reported":1746896835,"current_range_meters":19600,"station_id":"ce4bhl12rcd13ifvqgf0","pricing_plan_id":"cebpf4jnsgd1na2vs0mg"},{"bike_id":"4f029c85-8cdc-4e60-a357-5815c6b615cc","system_id":"levelo_inurba_marseille","lat":43.30512,"lon":5.36532,"is_reserved":false,"is_disabled":false,"rental_uris":{"android":"levelo://app?vid=4f029c85-8cdc-4e60-a357-5815c6b615cc","ios":"levelo://app?vid=4f029c85-8cdc-4e60-a357-5815c6b615cc"},"vehicle_type_id":"4","last_reported":1746896835,"current_range_meters":19600,"station_id":"ce4bgs12rcd13ifvqcag","pricing_plan_id":"cebpf4jnsgd1na2vs0mg"},{"bike_id":"4174ccbb-547e-4b3d-868f-abd6ab4d406d","system_id":"levelo_inurba_marseille","lat":43.27974,"lon":5.3873,"is_reserved":false,"is_disabled":false,"rental_uris":{"android":"levelo://app?vid=4174ccbb-547e-4b3d-868f-abd6ab4d406d","ios":"levelo://app?vid=4174ccbb-547e-4b3d-868f-abd6ab4d406d"},"vehicle_type_id":"4","last_reported":1746896835,"current_range_meters":19600,"station_id":"ce4bhg12rcd13ifvqf80","pricing_plan_id":"cebpf4jnsgd1na2vs0mg"},{"bike_id":"3256a79d-0380-4e1f-82af-236bcc386da0","system_id":"levelo_inurba_marseille","lat":43.28402,"lon":5.37518,"is_reserved":false,"is_disabled":false,"rental_uris":{"android":"levelo://app?vid=3256a79d-0380-4e1f-82af-236bcc386da0","ios":"levelo://app?vid=3256a79d-0380-4e1f-82af-236bcc386da0"},"vehicle_type_id":"4","last_reported":1746896835,"current_range_meters":19600,"station_id":"ce4bh412rcd13ifvqds0","pricing_plan_id":"cebpf4jnsgd1na2vs0mg"},{"bike_id":"582dfea9-a52b-4896-92d7-9406e52aebc9","system_id":"levelo_inurba_marseille","lat":43.28853,"lon":5.39312,"is_reserved":false,"is_disabled":false,"rental_uris":{"android":"levelo://app?vid=582dfea9-a52b-4896-92d7-9406e52aebc9","ios":"levelo://app?vid=582dfea9-a52b-4896-92d7-9406e52aebc9"},"vehicle_type_id":"4","last_reported":1746896835,"current_range_meters":17200,"station_id":"ce4bh2p2rcd13ifvqdi0","pricing_plan_id":"cebpf4jnsgd1na2vs0mg"},{"bike_id":"05ad1fc9-e7ae-40f4-a71d-351a7492f989","system_id":"levelo_inurba_marseille","lat":43.24663,"lon":5.38163,"is_reserved":false,"is_disabled":false,"rental_uris":{"android":"levelo://app?vid=05ad1fc9-e7ae-40f4-a71d-351a7492f989","ios":"levelo://app?vid=05ad1fc9-e7ae-40f4-a71d-351a7492f989"},"vehicle_type_id":"4","last_reported":1746896835,"current_range_meters":19600,"station_id":"ce4bhih2rcd13ifvqfr0","pricing_plan_id":"cebpf4jnsgd1na2vs0mg"},{"bike_id":"2889c0d3-ffe4-467f-8551-52ab479ade18","system_id":"levelo_inurba_marseille","lat":43.29284,"lon":5.40121,"is_reserved":false,"is_disabled":false,"rental_uris":{"android":"levelo://app?vid=2889c0d3-ffe4-467f-8551-52ab479ade18","ios":"levelo://app?vid=2889c0d3-ffe4-467f-8551-52ab479ade18"},"vehicle_type_id":"4","last_reported":1746896835,"current_range_meters":18000,"station_id":"ce4bh312rcd13ifvqdk0","pricing_plan_id":"cebpf4jnsgd1na2vs0mg"},{"bike_id":"15685755-c0ab-4cc5-af45-dd07685c5e98","system_id":"levelo_inurba_marseille","lat":43.27551,"lon":5.38439,"is_reserved":false,"is_disabled":false,"rental_uris":{"android":"levelo://app?vid=15685755-c0ab-4cc5-af45-dd07685c5e98","ios":"levelo://app?vid=15685755-c0ab-4cc5-af45-dd07685c5e98"},"vehicle_type_id":"4","last_reported":1746896835,"current_range_meters":19600,"station_id":"ce4bhh92rcd13ifvqfi0","pricing_plan_id":"cebpf4jnsgd1na2vs0mg"},{"bike_id":"8dac48be-936d-4694-b703-217dbf585be6","system_id":"levelo_inurba_marseille","lat":43.27973,"lon":5.3873,"is_reserved":false,"is_disabled":false,"rental_uris":{"android":"levelo://app?vid=8dac48be-936d-4694-b703-217dbf585be6","ios":"levelo://app?vid=8dac48be-936d-4694-b703-217dbf585be6"},"vehicle_type_id":"4","last_reported":1746896835,"current_range_meters":19600,"station_id":"ce4bhg12rcd13ifvqf80","pricing_plan_id":"cebpf4jnsgd1na2vs0mg"},{"bike_id":"b1ea8928-aae7-4a02-b994-9ce4d6fa6f3c","system_id":"levelo_inurba_marseille","lat":43.27996,"lon":5.41663,"is_reserved":false,"is_disabled":false,"rental_uris":{"android":"levelo://app?vid=b1ea8928-aae7-4a02-b994-9ce4d6fa6f3c","ios":"levelo://app?vid=b1ea8928-aae7-4a02-b994-9ce4d6fa6f3c"},"vehicle_type_id":"4","last_reported":1746896835,"current_range_meters":20000,"station_id":"ce4bho12rcd13ifvqh1g","pricing_plan_id":"cebpf4jnsgd1na2vs0mg"},{"bike_id":"6c483c35-e2c8-4e62-ac96-e3d6e1e971ce","system_id":"levelo_inurba_marseille","lat":43.3008,"lon":5.39075,"is_reserved":false,"is_disabled":false,"rental_uris":{"android":"levelo://app?vid=6c483c35-e2c8-4e62-ac96-e3d6e1e971ce","ios":"levelo://app?vid=6c483c35-e2c8-4e62-ac96-e3d6e1e971ce"},"vehicle_type_id":"4","last_reported":1746896835,"current_range_meters":20000,"station_id":"ce4bh192rcd13ifvqdb0","pricing_plan_id":"cebpf4jnsgd1na2vs0mg"},{"bike_id":"717677e8-3865-47bb-bbd2-e7334129541a","system_id":"levelo_inurba_marseille","lat":43.29253,"lon":5.3844,"is_reserved":false,"is_disabled":false,"rental_uris":{"android":"levelo://app?vid=717677e8-3865-47bb-bbd2-e7334129541a","ios":"levelo://app?vid=717677e8-3865-47bb-bbd2-e7334129541a"},"vehicle_type_id":"4","last_reported":1746896835,"current_range_meters":20000,"station_id":"ce4bh692rcd13ifvqea0","pricing_plan_id":"cebpf4jnsgd1na2vs0mg"},{"bike_id":"bd97954b-0938-4dae-b19d-ba5db559639c","system_id":"levelo_inurba_marseille","lat":43.30925,"lon":5.40146,"is_reserved":false,"is_disabled":false,"rental_uris":{"android":"levelo://app?vid=bd97954b-0938-4dae-b19d-ba5db559639c","ios":"levelo://app?vid=bd97954b-0938-4dae-b19d-ba5db559639c"},"vehicle_type_id":"4","last_reported":1746896835,"current_range_meters":20000,"station_id":"ce4bgvp2rcd13ifvqct0","pricing_plan_id":"cebpf4jnsgd1na2vs0mg"},{"bike_id":"38245342-3b01-4827-8cb6-5e9f1da4f3b8","system_id":"levelo_inurba_marseille","lat":43.27887,"lon":5.38003,"is_reserved":false,"is_disabled":false,"rental_uris":{"android":"levelo://app?vid=38245342-3b01-4827-8cb6-5e9f1da4f3b8","ios":"levelo://app?vid=38245342-3b01-4827-8cb6-5e9f1da4f3b8"},"vehicle_type_id":"4","last_reported":1746896835,"current_range_meters":20000,"station_id":"ce4bhf92rcd13ifvqf50","pricing_plan_id":"cebpf4jnsgd1na2vs0mg"},{"bike_id":"9eb45cff-0f92-440d-b5e4-f9f552e30ae0","system_id":"levelo_inurba_marseille","lat":43.28429,"lon":5.34992,"is_reserved":false,"is_disabled":true,"rental_uris":{"android":"levelo://app?vid=9eb45cff-0f92-440d-b5e4-f9f552e30ae0","ios":"levelo://app?vid=9eb45cff-0f92-440d-b5e4-f9f552e30ae0"},"vehicle_type_id":"4","last_reported":1746896835,"current_range_meters":20000,"station_id":"ce4bhbh2rcd13ifvqepg","pricing_plan_id":"cebpf4jnsgd1na2vs0mg"},{"bike_id":"b988abb0-8b27-459e-8af2-03bd6c3cf123","system_id":"levelo_inurba_marseille","lat":43.26675,"lon":5.38266,"is_reserved":false,"is_disabled":false,"rental_uris":{"android":"levelo://app?vid=b988abb0-8b27-459e-8af2-03bd6c3cf123","ios":"levelo://app?vid=b988abb0-8b27-459e-8af2-03bd6c3cf123"},"vehicle_type_id":"4","last_reported":1746896835,"current_range_meters":20000,"station_id":"ce4bhg92rcd13ifvqf90","pricing_plan_id":"cebpf4jnsgd1na2vs0mg"},{"bike_id":"6dba7a8f-6e58-44a5-b7c1-266c9b9af3ef","system_id":"levelo_inurba_marseille","lat":43.28471,"lon":5.38419,"is_reserved":false,"is_disabled":false,"rental_uris":{"android":"levelo://app?vid=6dba7a8f-6e58-44a5-b7c1-266c9b9af3ef","ios":"levelo://app?vid=6dba7a8f-6e58-44a5-b7c1-266c9b9af3ef"},"vehicle_type_id":"4","last_reported":1746896835,"current_range_meters":20400,"station_id":"ce4bh512rcd13ifvqe3g","pricing_plan_id":"cebpf4jnsgd1na2vs0mg"},{"bike_id":"6f33d593-b6b8-45ca-b839-ed5fd0e98215","system_id":"levelo_inurba_marseille","lat":43.21208,"lon":5.35064,"is_reserved":false,"is_disabled":true,"rental_uris":{"android":"levelo://app?vid=6f33d593-b6b8-45ca-b839-ed5fd0e98215","ios":"levelo://app?vid=6f33d593-b6b8-45ca-b839-ed5fd0e98215"},"vehicle_type_id":"4","last_reported":1746896835,"current_range_meters":20400,"station_id":"st_cvj6sg6p6f1abm77japg","pricing_plan_id":"cebpf4jnsgd1na2vs0mg"},{"bike_id":"3dccb26b-c29a-4f8f-a121-85addf304f6b","system_id":"levelo_inurba_marseille","lat":43.32289,"lon":5.38274,"is_reserved":false,"is_disabled":false,"rental_uris":{"android":"levelo://app?vid=3dccb26b-c29a-4f8f-a121-85addf304f6b","ios":"levelo://app?vid=3dccb26b-c29a-4f8f-a121-85addf304f6b"},"vehicle_type_id":"4","last_reported":1746896835,"current_range_meters":20800,"station_id":"ce4bhr12rcd13ifvqhqg","pricing_plan_id":"cebpf4jnsgd1na2vs0mg"},{"bike_id":"9351c5b1-29e3-4cb5-a179-d4cfd00f313e","system_id":"levelo_inurba_marseille","lat":43.26227,"lon":5.40449,"is_reserved":false,"is_disabled":false,"rental_uris":{"android":"levelo://app?vid=9351c5b1-29e3-4cb5-a179-d4cfd00f313e","ios":"levelo://app?vid=9351c5b1-29e3-4cb5-a179-d4cfd00f313e"},"vehicle_type_id":"4","last_reported":1746896835,"current_range_meters":20800,"station_id":"ce4bhmh2rcd13ifvqgmg","pricing_plan_id":"cebpf4jnsgd1na2vs0mg"},{"bike_id":"6162fa35-31af-4301-b613-0a40de22c1a5","system_id":"levelo_inurba_marseille","lat":43.24167,"lon":5.36411,"is_reserved":false,"is_disabled":false,"rental_uris":{"android":"levelo://app?vid=6162fa35-31af-4301-b613-0a40de22c1a5","ios":"levelo://app?vid=6162fa35-31af-4301-b613-0a40de22c1a5"},"vehicle_type_id":"4","last_reported":1746896835,"current_range_meters":20800,"station_id":"cpo36qri1sfpv3e86is0","pricing_plan_id":"cebpf4jnsgd1na2vs0mg"},{"bike_id":"1bc82dc2-fda9-4e91-b994-812af5f2e2da","system_id":"levelo_inurba_marseille","lat":43.29899,"lon":5.43672,"is_reserved":false,"is_disabled":false,"rental_uris":{"android":"levelo://app?vid=1bc82dc2-fda9-4e91-b994-812af5f2e2da","ios":"levelo://app?vid=1bc82dc2-fda9-4e91-b994-812af5f2e2da"},"vehicle_type_id":"4","last_reported":1746896835,"current_range_meters":20800,"station_id":"ce4bhpp2rcd13ifvqhfg","pricing_plan_id":"cebpf4jnsgd1na2vs0mg"},{"bike_id":"ac34600b-880c-460c-bf66-fd8ca351c5b1","system_id":"levelo_inurba_marseille","lat":43.29547,"lon":5.42285,"is_reserved":false,"is_disabled":false,"rental_uris":{"android":"levelo://app?vid=ac34600b-880c-460c-bf66-fd8ca351c5b1","ios":"levelo://app?vid=ac34600b-880c-460c-bf66-fd8ca351c5b1"},"vehicle_type_id":"4","last_reported":1746896835,"current_range_meters":20800,"station_id":"ce4bhph2rcd13ifvqhdg","pricing_plan_id":"cebpf4jnsgd1na2vs0mg"},{"bike_id":"59f97d21-f3c4-4983-acaa-a27e53ecb79a","system_id":"levelo_inurba_marseille","lat":43.31766,"lon":5.39023,"is_reserved":false,"is_disabled":false,"rental_uris":{"android":"levelo://app?vid=59f97d21-f3c4-4983-acaa-a27e53ecb79a","ios":"levelo://app?vid=59f97d21-f3c4-4983-acaa-a27e53ecb79a"},"vehicle_type_id":"4","last_reported":1746896835,"current_range_meters":21600,"station_id":"ce4bhqp2rcd13ifvqhng","pricing_plan_id":"cebpf4jnsgd1na2vs0mg"},{"bike_id":"832ec58b-d299-44b1-bd83-9db6983f07e3","system_id":"levelo_inurba_marseille","lat":43.29575,"lon":5.37543,"is_reserved":false,"is_disabled":false,"rental_uris":{"android":"levelo://app?vid=832ec58b-d299-44b1-bd83-9db6983f07e3","ios":"levelo://app?vid=832ec58b-d299-44b1-bd83-9db6983f07e3"},"vehicle_type_id":"4","last_reported":1746896835,"current_range_meters":22000,"station_id":"","pricing_plan_id":"cebpf4jnsgd1na2vs0mg"},{"bike_id":"b16689c3-b10d-4b23-992d-e909798270ee","system_id":"levelo_inurba_marseille","lat":43.26205,"lon":5.37443,"is_reserved":false,"is_disabled":false,"rental_uris":{"android":"levelo://app?vid=b16689c3-b10d-4b23-992d-e909798270ee","ios":"levelo://app?vid=b16689c3-b10d-4b23-992d-e909798270ee"},"vehicle_type_id":"4","last_reported":1746896835,"current_range_meters":21600,"station_id":"ce4bhgp2rcd13ifvqfc0","pricing_plan_id":"cebpf4jnsgd1na2vs0mg"},{"bike_id":"831f0b2b-5b09-4ac6-9e89-95b81f1cd4c0","system_id":"levelo_inurba_marseille","lat":43.25113,"lon":5.4032,"is_reserved":false,"is_disabled":false,"rental_uris":{"android":"levelo://app?vid=831f0b2b-5b09-4ac6-9e89-95b81f1cd4c0","ios":"levelo://app?vid=831f0b2b-5b09-4ac6-9e89-95b81f1cd4c0"},"vehicle_type_id":"4","last_reported":1746896835,"current_range_meters":21600,"station_id":"ce4bhlh2rcd13ifvqgig","pricing_plan_id":"cebpf4jnsgd1na2vs0mg"},{"bike_id":"b9f9ed1e-4a6a-4d74-8d12-f86492e74dcc","system_id":"levelo_inurba_marseille","lat":43.29275,"lon":5.36842,"is_reserved":false,"is_disabled":false,"rental_uris":{"android":"levelo://app?vid=b9f9ed1e-4a6a-4d74-8d12-f86492e74dcc","ios":"levelo://app?vid=b9f9ed1e-4a6a-4d74-8d12-f86492e74dcc"},"vehicle_type_id":"4","last_reported":1746896835,"current_range_meters":21600,"station_id":"ce4bhbp2rcd13ifvqesg","pricing_plan_id":"cebpf4jnsgd1na2vs0mg"},{"bike_id":"69c4c056-b821-406c-aa96-7ca0ec4f695b","system_id":"levelo_inurba_marseille","lat":43.287,"lon":5.39983,"is_reserved":false,"is_disabled":false,"rental_uris":{"android":"levelo://app?vid=69c4c056-b821-406c-aa96-7ca0ec4f695b","ios":"levelo://app?vid=69c4c056-b821-406c-aa96-7ca0ec4f695b"},"vehicle_type_id":"4","last_reported":1746896835,"current_range_meters":21600,"station_id":"ce4bho92rcd13ifvqh3g","pricing_plan_id":"cebpf4jnsgd1na2vs0mg"},{"bike_id":"13aea3d4-3fd9-453e-ab8e-80ed85fa9d78","system_id":"levelo_inurba_marseille","lat":43.31712,"lon":5.43707,"is_reserved":false,"is_disabled":false,"rental_uris":{"android":"levelo://app?vid=13aea3d4-3fd9-453e-ab8e-80ed85fa9d78","ios":"levelo://app?vid=13aea3d4-3fd9-453e-ab8e-80ed85fa9d78"},"vehicle_type_id":"4","last_reported":1746896835,"current_range_meters":22000,"station_id":"ce4bhp92rcd13ifvqhcg","pricing_plan_id":"cebpf4jnsgd1na2vs0mg"},{"bike_id":"b424e39b-05ed-4f5a-a69e-47eff40634c3","system_id":"levelo_inurba_marseille","lat":43.29256,"lon":5.40912,"is_reserved":false,"is_disabled":false,"rental_uris":{"android":"levelo://app?vid=b424e39b-05ed-4f5a-a69e-47eff40634c3","ios":"levelo://app?vid=b424e39b-05ed-4f5a-a69e-47eff40634c3"},"vehicle_type_id":"4","last_reported":1746896835,"current_range_meters":22000,"station_id":"ce4bh192rcd13ifvqdc0","pricing_plan_id":"cebpf4jnsgd1na2vs0mg"},{"bike_id":"693885a7-ffdf-49ef-a3de-79301fa7a3bb","system_id":"levelo_inurba_marseille","lat":43.3043,"lon":5.39748,"is_reserved":false,"is_disabled":false,"rental_uris":{"android":"levelo://app?vid=693885a7-ffdf-49ef-a3de-79301fa7a3bb","ios":"levelo://app?vid=693885a7-ffdf-49ef-a3de-79301fa7a3bb"},"vehicle_type_id":"4","last_reported":1746896835,"current_range_meters":22000,"station_id":"ce4bh092rcd13ifvqd20","pricing_plan_id":"cebpf4jnsgd1na2vs0mg"},{"bike_id":"3b16162b-4fa6-4dde-bf52-0c2ed1212571","system_id":"levelo_inurba_marseille","lat":43.248167,"lon":5.37445,"is_reserved":false,"is_disabled":false,"rental_uris":{"android":"levelo://app?vid=3b16162b-4fa6-4dde-bf52-0c2ed1212571","ios":"levelo://app?vid=3b16162b-4fa6-4dde-bf52-0c2ed1212571"},"vehicle_type_id":"4","last_reported":1746896835,"current_range_meters":22400,"station_id":"ce4bhgh2rcd13ifvqfb0","pricing_plan_id":"cebpf4jnsgd1na2vs0mg"},{"bike_id":"c1bbb8ff-23db-4523-be68-f8388a3a975d","system_id":"levelo_inurba_marseille","lat":43.24651,"lon":5.38897,"is_reserved":false,"is_disabled":false,"rental_uris":{"android":"levelo://app?vid=c1bbb8ff-23db-4523-be68-f8388a3a975d","ios":"levelo://app?vid=c1bbb8ff-23db-4523-be68-f8388a3a975d"},"vehicle_type_id":"4","last_reported":1746896835,"current_range_meters":22000,"station_id":"ce4bhg12rcd13ifvqf60","pricing_plan_id":"cebpf4jnsgd1na2vs0mg"},{"bike_id":"315c2c1a-cf68-4013-8a4d-dd50ff337d60","system_id":"levelo_inurba_marseille","lat":43.30428,"lon":5.38888,"is_reserved":false,"is_disabled":false,"rental_uris":{"android":"levelo://app?vid=315c2c1a-cf68-4013-8a4d-dd50ff337d60","ios":"levelo://app?vid=315c2c1a-cf68-4013-8a4d-dd50ff337d60"},"vehicle_type_id":"4","last_reported":1746896835,"current_range_meters":20800,"station_id":"ce4bgk12rcd13ifvqbi0","pricing_plan_id":"cebpf4jnsgd1na2vs0mg"},{"bike_id":"bfdbb684-50db-4937-9029-4dc7ac43f37f","system_id":"levelo_inurba_marseille","lat":43.278525,"lon":5.387714,"is_reserved":false,"is_disabled":false,"rental_uris":{"android":"levelo://app?vid=bfdbb684-50db-4937-9029-4dc7ac43f37f","ios":"levelo://app?vid=bfdbb684-50db-4937-9029-4dc7ac43f37f"},"vehicle_type_id":"4","last_reported":1746896835,"current_range_meters":22000,"station_id":"ce4bhh92rcd13ifvqfi0","pricing_plan_id":"cebpf4jnsgd1na2vs0mg"},{"bike_id":"9903f563-d9d3-45f4-816b-6e11a0b4f00e","system_id":"levelo_inurba_marseille","lat":43.28716,"lon":5.37933,"is_reserved":false,"is_disabled":false,"rental_uris":{"android":"levelo://app?vid=9903f563-d9d3-45f4-816b-6e11a0b4f00e","ios":"levelo://app?vid=9903f563-d9d3-45f4-816b-6e11a0b4f00e"},"vehicle_type_id":"4","last_reported":1746896835,"current_range_meters":22400,"station_id":"ce4bh9p2rcd13ifvqec0","pricing_plan_id":"cebpf4jnsgd1na2vs0mg"},{"bike_id":"39870899-7204-4b78-a4c9-b639158c6c7a","system_id":"levelo_inurba_marseille","lat":43.31726,"lon":5.42414,"is_reserved":false,"is_disabled":false,"rental_uris":{"android":"levelo://app?vid=39870899-7204-4b78-a4c9-b639158c6c7a","ios":"levelo://app?vid=39870899-7204-4b78-a4c9-b639158c6c7a"},"vehicle_type_id":"4","last_reported":1746896835,"current_range_meters":22400,"station_id":"ce4bhp92rcd13ifvqhbg","pricing_plan_id":"cebpf4jnsgd1na2vs0mg"},{"bike_id":"43c8dec2-3c21-42d9-9e8a-80cf03f011ef","system_id":"levelo_inurba_marseille","lat":43.29339,"lon":5.42832,"is_reserved":false,"is_disabled":false,"rental_uris":{"android":"levelo://app?vid=43c8dec2-3c21-42d9-9e8a-80cf03f011ef","ios":"levelo://app?vid=43c8dec2-3c21-42d9-9e8a-80cf03f011ef"},"vehicle_type_id":"4","last_reported":1746896835,"current_range_meters":22400,"station_id":"","pricing_plan_id":"cebpf4jnsgd1na2vs0mg"},{"bike_id":"95c07f58-992e-486e-9e01-f8c38af93653","system_id":"levelo_inurba_marseille","lat":43.30564,"lon":5.367095,"is_reserved":false,"is_disabled":true,"rental_uris":{"android":"levelo://app?vid=95c07f58-992e-486e-9e01-f8c38af93653","ios":"levelo://app?vid=95c07f58-992e-486e-9e01-f8c38af93653"},"vehicle_type_id":"4","last_reported":1746896835,"current_range_meters":22400,"station_id":"ce4bgrp2rcd13ifvqc9g","pricing_plan_id":"cebpf4jnsgd1na2vs0mg"},{"bike_id":"f86a5615-a811-4d80-900d-3e26acef2bc1","system_id":"levelo_inurba_marseille","lat":43.2926,"lon":5.40895,"is_reserved":false,"is_disabled":false,"rental_uris":{"android":"levelo://app?vid=f86a5615-a811-4d80-900d-3e26acef2bc1","ios":"levelo://app?vid=f86a5615-a811-4d80-900d-3e26acef2bc1"},"vehicle_type_id":"4","last_reported":1746896835,"current_range_meters":22400,"station_id":"ce4bh192rcd13ifvqdc0","pricing_plan_id":"cebpf4jnsgd1na2vs0mg"},{"bike_id":"e150c6ea-4849-459f-a122-fb686fa38923","system_id":"levelo_inurba_marseille","lat":43.28938,"lon":5.36639,"is_reserved":false,"is_disabled":false,"rental_uris":{"android":"levelo://app?vid=e150c6ea-4849-459f-a122-fb686fa38923","ios":"levelo://app?vid=e150c6ea-4849-459f-a122-fb686fa38923"},"vehicle_type_id":"4","last_reported":1746896835,"current_range_meters":22800,"station_id":"ce4bhap2rcd13ifvqek0","pricing_plan_id":"cebpf4jnsgd1na2vs0mg"},{"bike_id":"c04017fb-df75-4c0a-8651-0e2379011341","system_id":"levelo_inurba_marseille","lat":43.29897,"lon":5.43672,"is_reserved":false,"is_disabled":false,"rental_uris":{"android":"levelo://app?vid=c04017fb-df75-4c0a-8651-0e2379011341","ios":"levelo://app?vid=c04017fb-df75-4c0a-8651-0e2379011341"},"vehicle_type_id":"4","last_reported":1746896835,"current_range_meters":22800,"station_id":"ce4bhpp2rcd13ifvqhfg","pricing_plan_id":"cebpf4jnsgd1na2vs0mg"},{"bike_id":"91f23640-3d44-491a-aba6-cc39dc14b283","system_id":"levelo_inurba_marseille","lat":43.29978,"lon":5.3718,"is_reserved":false,"is_disabled":false,"rental_uris":{"android":"levelo://app?vid=91f23640-3d44-491a-aba6-cc39dc14b283","ios":"levelo://app?vid=91f23640-3d44-491a-aba6-cc39dc14b283"},"vehicle_type_id":"4","last_reported":1746896835,"current_range_meters":23200,"station_id":"ce4bgr92rcd13ifvqc7g","pricing_plan_id":"cebpf4jnsgd1na2vs0mg"},{"bike_id":"b921467a-55cb-4c50-be94-28ad1993f8df","system_id":"levelo_inurba_marseille","lat":43.28397,"lon":5.37521,"is_reserved":false,"is_disabled":false,"rental_uris":{"android":"levelo://app?vid=b921467a-55cb-4c50-be94-28ad1993f8df","ios":"levelo://app?vid=b921467a-55cb-4c50-be94-28ad1993f8df"},"vehicle_type_id":"4","last_reported":1746896835,"current_range_meters":22800,"station_id":"ce4bh412rcd13ifvqds0","pricing_plan_id":"cebpf4jnsgd1na2vs0mg"},{"bike_id":"37394494-6c4d-4320-8c83-3c174fd6ab38","system_id":"levelo_inurba_marseille","lat":43.299,"lon":5.43676,"is_reserved":false,"is_disabled":false,"rental_uris":{"android":"levelo://app?vid=37394494-6c4d-4320-8c83-3c174fd6ab38","ios":"levelo://app?vid=37394494-6c4d-4320-8c83-3c174fd6ab38"},"vehicle_type_id":"4","last_reported":1746896835,"current_range_meters":22800,"station_id":"ce4bhpp2rcd13ifvqhfg","pricing_plan_id":"cebpf4jnsgd1na2vs0mg"},{"bike_id":"313b14bb-532c-4ca8-a7a8-8588d2d40b5b","system_id":"levelo_inurba_marseille","lat":43.25645,"lon":5.38588,"is_reserved":false,"is_disabled":false,"rental_uris":{"android":"levelo://app?vid=313b14bb-532c-4ca8-a7a8-8588d2d40b5b","ios":"levelo://app?vid=313b14bb-532c-4ca8-a7a8-8588d2d40b5b"},"vehicle_type_id":"4","last_reported":1746896835,"current_range_meters":23200,"station_id":"","pricing_plan_id":"cebpf4jnsgd1na2vs0mg"},{"bike_id":"4f4b18ae-b2ff-49ce-b9b8-1dea846ad0c8","system_id":"levelo_inurba_marseille","lat":43.29705,"lon":5.36596,"is_reserved":false,"is_disabled":false,"rental_uris":{"android":"levelo://app?vid=4f4b18ae-b2ff-49ce-b9b8-1dea846ad0c8","ios":"levelo://app?vid=4f4b18ae-b2ff-49ce-b9b8-1dea846ad0c8"},"vehicle_type_id":"4","last_reported":1746896835,"current_range_meters":23200,"station_id":"ce4bgn12rcd13ifvqbt0","pricing_plan_id":"cebpf4jnsgd1na2vs0mg"},