{"last_updated":1732388766,"ttl":60,"version":"2.2","data":{"bikes":[{"bike_id":"daaf9d74-d398-4648-b669-1b899abe8b01","system_id":"levelo_inurba_marseille","lat":43.29259,"lon":5.38443,"is_reserved":false,"is_disabled":false,"rental_uris":{"android":"levelo://app?vid=daaf9d74-d398-4648-b669-1b899abe8b01","ios":"levelo://app?vid=daaf9d74-d398-4648-b669-1b899abe8b01"},"vehicle_type_id":"4","last_reported":1732388767,"current_range_meters":38000,"station_id":"ce4bh692rcd13ifvqea0","pricing_plan_id":"cebpf4jnsgd1na2vs0mg"},{"bike_id":"9a592002-11fb-4de6-a5a9-2040f17876bf","system_id":"levelo_inurba_marseille","lat":43.32536,"lon":5.41423,"is_reserved":false,"is_disabled":false,"rental_uris":{"android":"levelo://app?vid=9a592002-11fb-4de6-a5a9-2040f17876bf","ios":"levelo://app?vid=9a592002-11fb-4de6-a5a9-2040f17876bf"},"vehicle_type_id":"4","last_reported":1732388767,"current_range_meters":28400,"station_id":"ce4bhq12rcd13ifvqhhg","pricing_plan_id":"cebpf4jnsgd1na2vs0mg"},{"bike_id":"565ffe40-8544-457d-9381-5187357cae00","system_id":"levelo_inurba_marseille","lat":43.2418,"lon":5.39731,"is_reserved":false,"is_disabled":false,"rental_uris":{"android":"levelo://app?vid=565ffe40-8544-457d-9381-5187357cae00","ios":"levelo://app?vid=565ffe40-8544-457d-9381-5187357cae00"},"vehicle_type_id":"4","last_reported":1732388767,"current_range_meters":35600,"station_id":"ce4bhn12rcd13ifvqgpg","pricing_plan_id":"cebpf4jnsgd1na2vs0mg"},{"bike_id":"0c05dca5-6cb0-463e-b7bb-661803a8b145","system_id":"levelo_inurba_marseille","lat":43.25582,"lon":5.38241,"is_reserved":false,"is_disabled":false,"rental_uris":{"android":"levelo://app?vid=0c05dca5-6cb0-463e-b7bb-661803a8b145","ios":"levelo://app?vid=0c05dca5-6cb0-463e-b7bb-661803a8b145"},"vehicle_type_id":"4","last_reported":1732388767,"current_range_meters":8400,"station_id":"ce4bhih2rcd13ifvqfs0","pricing_plan_id":"cebpf4jnsgd1na2vs0mg"},{"bike_id":"3d2785e8-5ebf-4ce0-ae70-962618a3b949","system_id":"levelo_inurba_marseille","lat":43.27554,"lon":5.38415,"is_reserved":false,"is_disabled":false,"rental_uris":{"android":"levelo://app?vid=3d2785e8-5ebf-4ce0-ae70-962618a3b949","ios":"levelo://app?vid=3d2785e8-5ebf-4ce0-ae70-962618a3b949"},"vehicle_type_id":"4","last_reported":1732388767,"current_range_meters":13600,"station_id":"ce4bhh92rcd13ifvqfi0","pricing_plan_id":"cebpf4jnsgd1na2vs0mg"},{"bike_id":"a59b68fa-bc0b-444e-91b2-595ba8915745","system_id":"levelo_inurba_marseille","lat":43.26937,"lon":5.40251,"is_reserved":false,"is_disabled":false,"rental_uris":{"android":"levelo://app?vid=a59b68fa-bc0b-444e-91b2-595ba8915745","ios":"levelo://app?vid=a59b68fa-bc0b-444e-91b2-595ba8915745"},"vehicle_type_id":"4","last_reported":1732388767,"current_range_meters":20400,"station_id":"cjm6bp8fraef2m0cb0m0","pricing_plan_id":"cebpf4jnsgd1na2vs0mg"},{"bike_id":"fe7dea4e-d632-4642-aee0-92c00a764691","system_id":"levelo_inurba_marseille","lat":43.30138,"lon":5.38779,"is_reserved":false,"is_disabled":true,"rental_uris":{"android":"levelo://app?vid=fe7dea4e-d632-4642-aee0-92c00a764691","ios":"levelo://app?vid=fe7dea4e-d632-4642-aee0-92c00a764691"},"vehicle_type_id":"4","last_reported":1732388767,"current_range_meters":38000,"station_id":"ce4bghh2rcd13ifvqb60","pricing_plan_id":"cebpf4jnsgd1na2vs0mg"},{"bike_id":"665c76b9-31c3-4a91-bff7-a38d582abeb6","system_id":"levelo_inurba_marseille","lat":43.29258,"lon":5.38438,"is_reserved":false,"is_disabled":false,"rental_uris":{"android":"levelo://app?vid=665c76b9-31c3-4a91-bff7-a38d582abeb6","ios":"levelo://app?vid=665c76b9-31c3-4a91-bff7-a38d582abeb6"},"vehicle_type_id":"4","last_reported":1732388767,"current_range_meters":38800,"station_id":"ce4bh692rcd13ifvqea0","pricing_plan_id":"cebpf4jnsgd1na2vs0mg"},{"bike_id":"819705ac-445c-490e-b0a2-e8b996a35892","system_id":"levelo_inurba_marseille","lat":43.26687,"lon":5.38273,"is_reserved":false,"is_disabled":false,"rental_uris":{"android":"levelo://app?vid=819705ac-445c-490e-b0a2-e8b996a35892","ios":"levelo://app?vid=819705ac-445c-490e-b0a2-e8b996a35892"},"vehicle_type_id":"4","last_reported":1732388767,"current_range_meters":3200,"station_id":"ce4bhg92rcd13ifvqf90","pricing_plan_id":"cebpf4jnsgd1na2vs0mg"},{"bike_id":"ec5d24a6-b061-4791-af57-c80c4603bc2d","system_id":"levelo_inurba_marseille","lat":43.27203,"lon":5.39185,"is_reserved":false,"is_disabled":false,"rental_uris":{"android":"levelo://app?vid=ec5d24a6-b061-4791-af57-c80c4603bc2d","ios":"levelo://app?vid=ec5d24a6-b061-4791-af57-c80c4603bc2d"},"vehicle_type_id":"4","last_reported":1732388767,"current_range_meters":38800,"station_id":"ce4bhhp2rcd13ifvqfm0","pricing_plan_id":"cebpf4jnsgd1na2vs0mg"},{"bike_id":"031261c8-e41d-4912-bc6a-4cc485f3f4c9","system_id":"levelo_inurba_marseille","lat":43.32289,"lon":5.38254,"is_reserved":false,"is_disabled":false,"rental_uris":{"android":"levelo://app?vid=031261c8-e41d-4912-bc6a-4cc485f3f4c9","ios":"levelo://app?vid=031261c8-e41d-4912-bc6a-4cc485f3f4c9"},"vehicle_type_id":"4","last_reported":1732388767,"current_range_meters":11200,"station_id":"ce4bhr12rcd13ifvqhqg","pricing_plan_id":"cebpf4jnsgd1na2vs0mg"},{"bike_id":"15baa10c-94da-4025-b0e4-4e5ada3bfa66","system_id":"levelo_inurba_marseille","lat":43.26792,"lon":5.39409,"is_reserved":false,"is_disabled":true,"rental_uris":{"android":"levelo://app?vid=15baa10c-94da-4025-b0e4-4e5ada3bfa66","ios":"levelo://app?vid=15baa10c-94da-4025-b0e4-4e5ada3bfa66"},"vehicle_type_id":"4","last_reported":1732388767,"current_range_meters":400,"station_id":"ce4bhh12rcd13ifvqfg0","pricing_plan_id":"cebpf4jnsgd1na2vs0mg"},{"bike_id":"1d480d76-bb73-4781-930a-16c68fdce680","system_id":"levelo_inurba_marseille","lat":43.25579,"lon":5.38227,"is_reserved":false,"is_disabled":false,"rental_uris":{"android":"levelo://app?vid=1d480d76-bb73-4781-930a-16c68fdce680","ios":"levelo://app?vid=1d480d76-bb73-4781-930a-16c68fdce680"},"vehicle_type_id":"4","last_reported":1732388767,"current_range_meters":38800,"station_id":"ce4bhih2rcd13ifvqfs0","pricing_plan_id":"cebpf4jnsgd1na2vs0mg"},{"bike_id":"a721a59b-c6c0-46b8-84e5-19ba74a48bdb","system_id":"levelo_inurba_marseille","lat":43.2803,"lon":5.3694,"is_reserved":false,"is_disabled":false,"rental_uris":{"android":"levelo://app?vid=a721a59b-c6c0-46b8-84e5-19ba74a48bdb","ios":"levelo://app?vid=a721a59b-c6c0-46b8-84e5-19ba74a48bdb"},"vehicle_type_id":"4","last_reported":1732388767,"current_range_meters":18800,"station_id":"ce4bha12rcd13ifvqef0","pricing_plan_id":"cebpf4jnsgd1na2vs0mg"},{"bike_id":"06a5db9f-ccee-423a-a12d-8b6d1c3c04e5","system_id":"levelo_inurba_marseille","lat":43.25112,"lon":5.40321,"is_reserved":false,"is_disabled":true,"rental_uris":{"android":"levelo://app?vid=06a5db9f-ccee-423a-a12d-8b6d1c3c04e5","ios":"levelo://app?vid=06a5db9f-ccee-423a-a12d-8b6d1c3c04e5"},"vehicle_type_id":"4","last_reported":1732388767,"current_range_meters":0,"station_id":"ce4bhlh2rcd13ifvqgig","pricing_plan_id":"cebpf4jnsgd1na2vs0mg"},{"bike_id":"30585094-ecfe-43ac-ae36-000c4a5ab426","system_id":"levelo_inurba_marseille","lat":43.30922,"lon":5.39023,"is_reserved":false,"is_disabled":true,"rental_uris":{"android":"levelo://app?vid=30585094-ecfe-43ac-ae36-000c4a5ab426","ios":"levelo://app?vid=30585094-ecfe-43ac-ae36-000c4a5ab426"},"vehicle_type_id":"4","last_reported":1732388767,"current_range_meters":25200,"station_id":"ce4bgup2rcd13ifvqco0","pricing_plan_id":"cebpf4jnsgd1na2vs0mg"},{"bike_id":"1f313d4a-9266-4099-998a-6deb33e3bf69","system_id":"levelo_inurba_marseille","lat":43.25119,"lon":5.40318,"is_reserved":false,"is_disabled":false,"rental_uris":{"android":"levelo://app?vid=1f313d4a-9266-4099-998a-6deb33e3bf69","ios":"levelo://app?vid=1f313d4a-9266-4099-998a-6deb33e3bf69"},"vehicle_type_id":"4","last_reported":1732388767,"current_range_meters":25600,"station_id":"ce4bhlh2rcd13ifvqgig","pricing_plan_id":"cebpf4jnsgd1na2vs0mg"},{"bike_id":"06222d69-c6a3-47fe-9912-0fe63b34371e","system_id":"levelo_inurba_marseille","lat":43.29894,"lon":5.4367,"is_reserved":false,"is_disabled":false,"rental_uris":{"android":"levelo://app?vid=06222d69-c6a3-47fe-9912-0fe63b34371e","ios":"levelo://app?vid=06222d69-c6a3-47fe-9912-0fe63b34371e"},"vehicle_type_id":"4","last_reported":1732388767,"current_range_meters":18000,"station_id":"ce4bhpp2rcd13ifvqhfg","pricing_plan_id":"cebpf4jnsgd1na2vs0mg"},{"bike_id":"7ed373fa-e29c-4ceb-b4cf-b4727f191d71","system_id":"levelo_inurba_marseille","lat":43.30761,"lon":5.3813,"is_reserved":false,"is_disabled":false,"rental_uris":{"android":"levelo://app?vid=7ed373fa-e29c-4ceb-b4cf-b4727f191d71","ios":"levelo://app?vid=7ed373fa-e29c-4ceb-b4cf-b4727f191d71"},"vehicle_type_id":"4","last_reported":1732388767,"current_range_meters":30800,"station_id":"","pricing_plan_id":"cebpf4jnsgd1na2vs0mg"},{"bike_id":"db101b78-6ffb-4919-8b14-ec9dca35135b","system_id":"levelo_inurba_marseille","lat":43.33717,"lon":5.39194,"is_reserved":false,"is_disabled":false,"rental_uris":{"android":"levelo://app?vid=db101b78-6ffb-4919-8b14-ec9dca35135b","ios":"levelo://app?vid=db101b78-6ffb-4919-8b14-ec9dca35135b"},"vehicle_type_id":"4","last_reported":1732388767,"current_range_meters":16000,"station_id":"ce4bhr92rcd13ifvqhsg","pricing_plan_id":"cebpf4jnsgd1na2vs0mg"},{"bike_id":"fb933b5b-d658-45d3-8fec-dc4cfde02de6","system_id":"levelo_inurba_marseille","lat":43.28155,"lon":5.42645,"is_reserved":false,"is_disabled":true,"rental_uris":{"android":"levelo://app?vid=fb933b5b-d658-45d3-8fec-dc4cfde02de6","ios":"levelo://app?vid=fb933b5b-d658-45d3-8fec-dc4cfde02de6"},"vehicle_type_id":"4","last_reported":1732388767,"current_range_meters":0,"station_id":"ce4bhnh2rcd13ifvqgug","pricing_plan_id":"cebpf4jnsgd1na2vs0mg"},{"bike_id":"4d3cd0a0-41f3-43f4-9696-6778df24c932","system_id":"levelo_inurba_marseille","lat":43.29587,"lon":5.36735,"is_reserved":false,"is_disabled":false,"rental_uris":{"android":"levelo://app?vid=4d3cd0a0-41f3-43f4-9696-6778df24c932","ios":"levelo://app?vid=4d3cd0a0-41f3-43f4-9696-6778df24c932"},"vehicle_type_id":"4","last_reported":1732388767,"current_range_meters":38800,"station_id":"ce4bgph2rcd13ifvqc2g","pricing_plan_id":"cebpf4jnsgd1na2vs0mg"},{"bike_id":"ae22a332-da36-4807-a05e-264d328761ce","system_id":"levelo_inurba_marseille","lat":43.317,"lon":5.3775,"is_reserved":false,"is_disabled":false,"rental_uris":{"android":"levelo://app?vid=ae22a332-da36-4807-a05e-264d328761ce","ios":"levelo://app?vid=ae22a332-da36-4807-a05e-264d328761ce"},"vehicle_type_id":"4","last_reported":1732388767,"current_range_meters":22800,"station_id":"ce4bgth2rcd13ifvqch0","pricing_plan_id":"cebpf4jnsgd1na2vs0mg"},{"bike_id":"01acb60a-0c50-4cb6-8db2-e7d9bdfa87a0","system_id":"levelo_inurba_marseille","lat":43.29523,"lon":5.39399,"is_reserved":false,"is_disabled":false,"rental_uris":{"android":"levelo://app?vid=01acb60a-0c50-4cb6-8db2-e7d9bdfa87a0","ios":"levelo://app?vid=01acb60a-0c50-4cb6-8db2-e7d9bdfa87a0"},"vehicle_type_id":"4","last_reported":1732388767,"current_range_meters":18000,"station_id":"ce4bh292rcd13ifvqdf0","pricing_plan_id":"cebpf4jnsgd1na2vs0mg"},{"bike_id":"789cb5c8-9741-42a2-af15-365b0ce25b82","system_id":"levelo_inurba_marseille","lat":43.30798,"lon":5.3816,"is_reserved":false,"is_disabled":false,"rental_uris":{"android":"levelo://app?vid=789cb5c8-9741-42a2-af15-365b0ce25b82","ios":"levelo://app?vid=789cb5c8-9741-42a2-af15-365b0ce25b82"},"vehicle_type_id":"4","last_reported":1732388767,"current_range_meters":7200,"station_id":"ce4bgt12rcd13ifvqce0","pricing_plan_id":"cebpf4jnsgd1na2vs0mg"},{"bike_id":"c44e4f8f-e3b1-4cfe-8969-4d57649f8e91","system_id":"levelo_inurba_marseille","lat":43.275629,"lon":5.384205,"is_reserved":false,"is_disabled":false,"rental_uris":{"android":"levelo://app?vid=c44e4f8f-e3b1-4cfe-8969-4d57649f8e91","ios":"levelo://app?vid=c44e4f8f-e3b1-4cfe-8969-4d57649f8e91"},"vehicle_type_id":"4","last_reported":1732388767,"current_range_meters":38800,"station_id":"ce4bhh92rcd13ifvqfi0","pricing_plan_id":"cebpf4jnsgd1na2vs0mg"},{"bike_id":"caeeb28a-2337-46ff-8cc1-38286fc7227b","system_id":"levelo_inurba_marseille","lat":43.25579,"lon":5.38234,"is_reserved":false,"is_disabled":false,"rental_uris":{"android":"levelo://app?vid=caeeb28a-2337-46ff-8cc1-38286fc7227b","ios":"levelo://app?vid=caeeb28a-2337-46ff-8cc1-38286fc7227b"},"vehicle_type_id":"4","last_reported":1732388767,"current_range_meters":16400,"station_id":"ce4bhih2rcd13ifvqfs0","pricing_plan_id":"cebpf4jnsgd1na2vs0mg"},{"bike_id":"6a2df70c-4e94-45ba-b67d-45bd465ca49d","system_id":"levelo_inurba_marseille","lat":43.291889,"lon":5.393109,"is_reserved":false,"is_disabled":true,"rental_uris":{"android":"levelo://app?vid=6a2df70c-4e94-45ba-b67d-45bd465ca49d","ios":"levelo://app?vid=6a2df70c-4e94-45ba-b67d-45bd465ca49d"},"vehicle_type_id":"4","last_reported":1732388767,"current_range_meters":34000,"station_id":"ce4bh192rcd13ifvqdd0","pricing_plan_id":"cebpf4jnsgd1na2vs0mg"},{"bike_id":"f0c9b009-6e7d-4316-96af-3036572d9258","system_id":"levelo_inurba_marseille","lat":43.29519,"lon":5.37493,"is_reserved":false,"is_disabled":true,"rental_uris":{"android":"levelo://app?vid=f0c9b009-6e7d-4316-96af-3036572d9258","ios":"levelo://app?vid=f0c9b009-6e7d-4316-96af-3036572d9258"},"vehicle_type_id":"4","last_reported":1732388767,"current_range_meters":34000,"station_id":"ce4bgkp2rcd13ifvqbmg","pricing_plan_id":"cebpf4jnsgd1na2vs0mg"},{"bike_id":"4813199d-ea50-47de-b4a2-7003ddbad90d","system_id":"levelo_inurba_marseille","lat":43.24803,"lon":5.37455,"is_reserved":false,"is_disabled":false,"rental_uris":{"android":"levelo://app?vid=4813199d-ea50-47de-b4a2-7003ddbad90d","ios":"levelo://app?vid=4813199d-ea50-47de-b4a2-7003ddbad90d"},"vehicle_type_id":"4","last_reported":1732388767,"current_range_meters":7200,"station_id":"ce4bhgh2rcd13ifvqfb0","pricing_plan_id":"cebpf4jnsgd1na2vs0mg"},{"bike_id":"62f28776-669a-4320-b766-deaf82321cbf","system_id":"levelo_inurba_marseille","lat":43.27884,"lon":5.38042,"is_reserved":false,"is_disabled":false,"rental_uris":{"android":"levelo://app?vid=62f28776-669a-4320-b766-deaf82321cbf","ios":"levelo://app?vid=62f28776-669a-4320-b766-deaf82321cbf"},"vehicle_type_id":"4","last_reported":1732388767,"current_range_meters":38800,"station_id":"ce4bhf92rcd13ifvqf50","pricing_plan_id":"cebpf4jnsgd1na2vs0mg"},{"bike_id":"ff3594ee-f948-4832-9680-599cfdacc368","system_id":"levelo_inurba_marseille","lat":43.27185,"lon":5.40999,"is_reserved":false,"is_disabled":false,"rental_uris":{"android":"levelo://app?vid=ff3594ee-f948-4832-9680-599cfdacc368","ios":"levelo://app?vid=ff3594ee-f948-4832-9680-599cfdacc368"},"vehicle_type_id":"4","last_reported":1732388767,"current_range_meters":36800,"station_id":"ce4bhl12rcd13ifvqgf0","pricing_plan_id":"cebpf4jnsgd1na2vs0mg"},{"bike_id":"99b29f0a-fef9-49fe-8166-69785bf88e94","system_id":"levelo_inurba_marseille","lat":43.29002,"lon":5.3561,"is_reserved":false,"is_disabled":false,"rental_uris":{"android":"levelo://app?vid=99b29f0a-fef9-49fe-8166-69785bf88e94","ios":"levelo://app?vid=99b29f0a-fef9-49fe-8166-69785bf88e94"},"vehicle_type_id":"4","last_reported":1732388767,"current_range_meters":37600,"station_id":"ce4bhb92rcd13ifvqen0","pricing_plan_id":"cebpf4jnsgd1na2vs0mg"},{"bike_id":"b1837f61-5796-4dde-bb22-4d0e3427d3e7","system_id":"levelo_inurba_marseille","lat":43.29807,"lon":5.36485,"is_reserved":false,"is_disabled":false,"rental_uris":{"android":"levelo://app?vid=b1837f61-5796-4dde-bb22-4d0e3427d3e7","ios":"levelo://app?vid=b1837f61-5796-4dde-bb22-4d0e3427d3e7"},"vehicle_type_id":"4","last_reported":1732388767,"current_range_meters":23200,"station_id":"","pricing_plan_id":"cebpf4jnsgd1na2vs0mg"},{"bike_id":"856c5296-7fea-42cc-be09-a6b9a37c0b30","system_id":"levelo_inurba_marseille","lat":43.27376,"lon":5.36251,"is_reserved":false,"is_disabled":true,"rental_uris":{"android":"levelo://app?vid=856c5296-7fea-42cc-be09-a6b9a37c0b30","ios":"levelo://app?vid=856c5296-7fea-42cc-be09-a6b9a37c0b30"},"vehicle_type_id":"4","last_reported":1732388767,"current_range_meters":0,"station_id":"ce4bhbh2rcd13ifvqeo0","pricing_plan_id":"cebpf4jnsgd1na2vs0mg"},{"bike_id":"5bc0f97a-98f6-4fe9-8151-adba4f938e50","system_id":"levelo_inurba_marseille","lat":43.25864,"lon":5.39889,"is_reserved":false,"is_disabled":false,"rental_uris":{"android":"levelo://app?vid=5bc0f97a-98f6-4fe9-8151-adba4f938e50","ios":"levelo://app?vid=5bc0f97a-98f6-4fe9-8151-adba4f938e50"},"vehicle_type_id":"4","last_reported":1732388767,"current_range_meters":24800,"station_id":"ce4bhl92rcd13ifvqghg","pricing_plan_id":"cebpf4jnsgd1na2vs0mg"},{"bike_id":"8e05a4e4-eee6-4535-b568-92d4a61aeee6","system_id":"levelo_inurba_marseille","lat":43.29974,"lon":5.38484,"is_reserved":false,"is_disabled":false,"rental_uris":{"android":"levelo://app?vid=8e05a4e4-eee6-4535-b568-92d4a61aeee6","ios":"levelo://app?vid=8e05a4e4-eee6-4535-b568-92d4a61aeee6"},"vehicle_type_id":"4","last_reported":1732388767,"current_range_meters":29600,"station_id":"ce4bgj92rcd13ifvqbd0","pricing_plan_id":"cebpf4jnsgd1na2vs0mg"},{"bike_id":"587e4294-6da9-4a26-bb54-180d36baab73","system_id":"levelo_inurba_marseille","lat":43.25782,"lon":5.39438,"is_reserved":false,"is_disabled":false,"rental_uris":{"android":"levelo://app?vid=587e4294-6da9-4a26-bb54-180d36baab73","ios":"levelo://app?vid=587e4294-6da9-4a26-bb54-180d36baab73"},"vehicle_type_id":"4","last_reported":1732388767,"current_range_meters":9200,"station_id":"ce4bhip2rcd13ifvqft0","pricing_plan_id":"cebpf4jnsgd1na2vs0mg"},{"bike_id":"9a122f92-8d1b-4a84-9637-aeed9243668f","system_id":"levelo_inurba_marseille","lat":43.28939,"lon":5.36632,"is_reserved":false,"is_disabled":true,"rental_uris":{"android":"levelo://app?vid=9a122f92-8d1b-4a84-9637-aeed9243668f","ios":"levelo://app?vid=9a122f92-8d1b-4a84-9637-aeed9243668f"},"vehicle_type_id":"4","last_reported":1732388767,"current_range_meters":38400,"station_id":"ce4bhap2rcd13ifvqek0","pricing_plan_id":"cebpf4jnsgd1na2vs0mg"},{"bike_id":"f39709af-fe1a-4d3d-8cbf-7f326b190378","system_id":"levelo_inurba_marseille","lat":43.29193,"lon":5.35801,"is_reserved":false,"is_disabled":false,"rental_uris":{"android":"levelo://app?vid=f39709af-fe1a-4d3d-8cbf-7f326b190378","ios":"levelo://app?vid=f39709af-fe1a-4d3d-8cbf-7f326b190378"},"vehicle_type_id":"4","last_reported":1732388767,"current_range_meters":28000,"station_id":"ce4bhb12rcd13ifvqel0","pricing_plan_id":"cebpf4jnsgd1na2vs0mg"},{"bike_id":"9eaf332b-4c45-4d92-ae0b-cc309be7718e","system_id":"levelo_inurba_marseille","lat":43.29796,"lon":5.38096,"is_reserved":false,"is_disabled":false,"rental_uris":{"android":"levelo://app?vid=9eaf332b-4c45-4d92-ae0b-cc309be7718e","ios":"levelo://app?vid=9eaf332b-4c45-4d92-ae0b-cc309be7718e"},"vehicle_type_id":"4","last_reported":1732388767,"current_range_meters":35200,"station_id":"ce4bgip2rcd13ifvqbb0","pricing_plan_id":"cebpf4jnsgd1na2vs0mg"},{"bike_id":"814f5a14-1928-452b-a5fc-103be295bd78","system_id":"levelo_inurba_marseille","lat":43.279952,"lon":5.416367,"is_reserved":false,"is_disabled":false,"rental_uris":{"android":"levelo://app?vid=814f5a14-1928-452b-a5fc-103be295bd78","ios":"levelo://app?vid=814f5a14-1928-452b-a5fc-103be295bd78"},"vehicle_type_id":"4","last_reported":1732388767,"current_range_meters":38400,"station_id":"ce4bho12rcd13ifvqh1g","pricing_plan_id":"cebpf4jnsgd1na2vs0mg"},{"bike_id":"99d3fe64-392c-4ecc-8d6b-e7dab923c9a4","system_id":"levelo_inurba_marseille","lat":43.3302,"lon":5.39041,"is_reserved":false,"is_disabled":false,"rental_uris":{"android":"levelo://app?vid=99d3fe64-392c-4ecc-8d6b-e7dab923c9a4","ios":"levelo://app?vid=99d3fe64-392c-4ecc-8d6b-e7dab923c9a4"},"vehicle_type_id":"4","last_reported":1732388767,"current_range_meters":38000,"station_id":"ce4bhr92rcd13ifvqhrg","pricing_plan_id":"cebpf4jnsgd1na2vs0mg"},{"bike_id":"26b10d51-0cea-4a62-ac3e-6bdb027cffd7","system_id":"levelo_inurba_marseille","lat":43.29529,"lon":5.38545,"is_reserved":false,"is_disabled":false,"rental_uris":{"android":"levelo://app?vid=26b10d51-0cea-4a62-ac3e-6bdb027cffd7","ios":"levelo://app?vid=26b10d51-0cea-4a62-ac3e-6bdb027cffd7"},"vehicle_type_id":"4","last_reported":1732388767,"current_range_meters":14800,"station_id":"ce4bgih2rcd13ifvqba0","pricing_plan_id":"cebpf4jnsgd1na2vs0mg"},{"bike_id":"8e99fb96-c5d7-4d62-a8a4-3f3648967bda","system_id":"levelo_inurba_marseille","lat":43.29522,"lon":5.37502,"is_reserved":false,"is_disabled":false,"rental_uris":{"android":"levelo://app?vid=8e99fb96-c5d7-4d62-a8a4-3f3648967bda","ios":"levelo://app?vid=8e99fb96-c5d7-4d62-a8a4-3f3648967bda"},"vehicle_type_id":"4","last_reported":1732388767,"current_range_meters":24800,"station_id":"ce4bgkp2rcd13ifvqbmg","pricing_plan_id":"cebpf4jnsgd1na2vs0mg"},{"bike_id":"5b9253f4-22f2-4008-a355-c59c3dc30e3d","system_id":"levelo_inurba_marseille","lat":43.27204,"lon":5.3919,"is_reserved":false,"is_disabled":true,"rental_uris":{"android":"levelo://app?vid=5b9253f4-22f2-4008-a355-c59c3dc30e3d","ios":"levelo://app?vid=5b9253f4-22f2-4008-a355-c59c3dc30e3d"},"vehicle_type_id":"4","last_reported":1732388767,"current_range_meters":0,"station_id":"ce4bhhp2rcd13ifvqfm0","pricing_plan_id":"cebpf4jnsgd1na2vs0mg"},{"bike_id":"0551ee56-2776-4129-89b2-39213477ba2f","system_id":"levelo_inurba_marseille","lat":43.29524,"lon":5.38537,"is_reserved":false,"is_disabled":false,"rental_uris":{"android":"levelo://app?vid=0551ee56-2776-4129-89b2-39213477ba2f","ios":"levelo://app?vid=0551ee56-2776-4129-89b2-39213477ba2f"},"vehicle_type_id":"4","last_reported":1732388767,"current_range_meters":12400,"station_id":"ce4bgih2rcd13ifvqba0","pricing_plan_id":"cebpf4jnsgd1na2vs0mg"},{"bike_id":"8ea37aac-80b0-4e92-9670-0ab187c58835","system_id":"levelo_inurba_marseille","lat":43.27973,"lon":5.38733,"is_reserved":false,"is_disabled":false,"rental_uris":{"android":"levelo://app?vid=8ea37aac-80b0-4e92-9670-0ab187c58835","ios":"levelo://app?vid=8ea37aac-80b0-4e92-9670-0ab187c58835"},"vehicle_type_id":"4","last_reported":1732388767,"current_range_meters":28000,"station_id":"ce4bhg12rcd13ifvqf80","pricing_plan_id":"cebpf4jnsgd1na2vs0mg"},{"bike_id":"64ef5fd1-f6ad-4ac9-a91c-bd90dce4550e","system_id":"levelo_inurba_marseille","lat":43.26058,"lon":5.39393,"is_reserved":false,"is_disabled":false,"rental_uris":{"android":"levelo://app?vid=64ef5fd1-f6ad-4ac9-a91c-bd90dce4550e","ios":"levelo://app?vid=64ef5fd1-f6ad-4ac9-a91c-bd90dce4550e"},"vehicle_type_id":"4","last_reported":1732388767,"current_range_meters":35600,"station_id":"ce4bhh92rcd13ifvqfj0","pricing_plan_id":"cebpf4jnsgd1na2vs0mg"},{"bike_id":"d3a7f609-252d-4f84-9290-8b544666800d","system_id":"levelo_inurba_marseille","lat":43.293,"lon":5.37434,"is_reserved":false,"is_disabled":false,"rental_uris":{"android":"levelo://app?vid=d3a7f609-252d-4f84-9290-8b544666800d","ios":"levelo://app?vid=d3a7f609-252d-4f84-9290-8b544666800d"},"vehicle_type_id":"4","last_reported":1732388767,"current_range_meters":38000,"station_id":"ce4bgi12rcd13ifvqb70","pricing_plan_id":"cebpf4jnsgd1na2vs0mg"},{"bike_id":"4614c3ce-fa32-4b49-800d-cf02516d6ab9","system_id":"levelo_inurba_marseille","lat":43.32381,"lon":5.3897,"is_reserved":false,"is_disabled":false,"rental_uris":{"android":"levelo://app?vid=4614c3ce-fa32-4b49-800d-cf02516d6ab9","ios":"levelo://app?vid=4614c3ce-fa32-4b49-800d-cf02516d6ab9"},"vehicle_type_id":"4","last_reported":1732388767,"current_range_meters":23200,"station_id":"","pricing_plan_id":"cebpf4jnsgd1na2vs0mg"},{"bike_id":"72488d89-84d6-4d48-85a6-5400e601b1cd","system_id":"levelo_inurba_marseille","lat":43.24658,"lon":5.3816,"is_reserved":false,"is_disabled":false,"rental_uris":{"android":"levelo://app?vid=72488d89-84d6-4d48-85a6-5400e601b1cd","ios":"levelo://app?vid=72488d89-84d6-4d48-85a6-5400e601b1cd"},"vehicle_type_id":"4","last_reported":1732388767,"current_range_meters":25200,"station_id":"ce4bhih2rcd13ifvqfr0","pricing_plan_id":"cebpf4jnsgd1na2vs0mg"},{"bike_id":"dee03222-b96c-4bd9-8076-cf797d32d688","system_id":"levelo_inurba_marseille","lat":43.32032,"lon":5.41566,"is_reserved":false,"is_disabled":false,"rental_uris":{"android":"levelo://app?vid=dee03222-b96c-4bd9-8076-cf797d32d688","ios":"levelo://app?vid=dee03222-b96c-4bd9-8076-cf797d32d688"},"vehicle_type_id":"4","last_reported":1732388767,"current_range_meters":39200,"station_id":"ce4bhq92rcd13ifvqhkg","pricing_plan_id":"cebpf4jnsgd1na2vs0mg"},{"bike_id":"a1af460e-1d70-4d46-b6e3-14eeeee88e7d","system_id":"levelo_inurba_marseille","lat":43.27964,"lon":5.38714,"is_reserved":false,"is_disabled":true,"rental_uris":{"android":"levelo://app?vid=a1af460e-1d70-4d46-b6e3-14eeeee88e7d","ios":"levelo://app?vid=a1af460e-1d70-4d46-b6e3-14eeeee88e7d"},"vehicle_type_id":"4","last_reported":1732388767,"current_range_meters":20400,"station_id":"ce4bhg12rcd13ifvqf80","pricing_plan_id":"cebpf4jnsgd1na2vs0mg"},{"bike_id":"e8a9b83a-fcea-47ac-98e1-961f4756eb63","system_id":"levelo_inurba_marseille","lat":43.25581,"lon":5.38224,"is_reserved":false,"is_disabled":false,"rental_uris":{"android":"levelo://app?vid=e8a9b83a-fcea-47ac-98e1-961f4756eb63","ios":"levelo://app?vid=e8a9b83a-fcea-47ac-98e1-961f4756eb63"},"vehicle_type_id":"4","last_reported":1732388767,"current_range_meters":38800,"station_id":"ce4bhih2rcd13ifvqfs0","pricing_plan_id":"cebpf4jnsgd1na2vs0mg"},{"bike_id":"476d5223-f58b-4e3b-acbf-b1838e999b41","system_id":"levelo_inurba_marseille","lat":43.25821,"lon":5.39427,"is_reserved":false,"is_disabled":true,"rental_uris":{"android":"levelo://app?vid=476d5223-f58b-4e3b-acbf-b1838e999b41","ios":"levelo://app?vid=476d5223-f58b-4e3b-acbf-b1838e999b41"},"vehicle_type_id":"4","last_reported":1732388767,"current_range_meters":400,"station_id":"ce4bhip2rcd13ifvqft0","pricing_plan_id":"cebpf4jnsgd1na2vs0mg"},{"bike_id":"d36f6047-1109-4016-bddc-7fe4152097dc","system_id":"levelo_inurba_marseille","lat":43.26195,"lon":5.3745,"is_reserved":false,"is_disabled":false,"rental_uris":{"android":"levelo://app?vid=d36f6047-1109-4016-bddc-7fe4152097dc","ios":"levelo://app?vid=d36f6047-1109-4016-bddc-7fe4152097dc"},"vehicle_type_id":"4","last_reported":1732388767,"current_range_meters":30800,"station_id":"ce4bhgp2rcd13ifvqfc0","pricing_plan_id":"cebpf4jnsgd1na2vs0mg"},{"bike_id":"813ad871-aaa2-4f0e-9c7c-0646d72db5d3","system_id":"levelo_inurba_marseille","lat":43.27496,"lon":5.42455,"is_reserved":false,"is_disabled":false,"rental_uris":{"android":"levelo://app?vid=813ad871-aaa2-4f0e-9c7c-0646d72db5d3","ios":"levelo://app?vid=813ad871-aaa2-4f0e-9c7c-0646d72db5d3"},"vehicle_type_id":"4","last_reported":1732388767,"current_range_meters":38000,"station_id":"ce4bhn92rcd13ifvqgrg","pricing_plan_id":"cebpf4jnsgd1na2vs0mg"},{"bike_id":"f9cd4623-e4e5-4767-a8a0-fde2c0263f84","system_id":"levelo_inurba_marseille","lat":43.30356,"lon":5.41878,"is_reserved":false,"is_disabled":false,"rental_uris":{"android":"levelo://app?vid=f9cd4623-e4e5-4767-a8a0-fde2c0263f84","ios":"levelo://app?vid=f9cd4623-e4e5-4767-a8a0-fde2c0263f84"},"vehicle_type_id":"4","last_reported":1732388767,"current_range_meters":19600,"station_id":"ce4bhop2rcd13ifvqh7g","pricing_plan_id":"cebpf4jnsgd1na2vs0mg"},{"bike_id":"600b3470-1dde-43ce-962b-7a6284b20990","system_id":"levelo_inurba_marseille","lat":43.23191,"lon":5.35553,"is_reserved":false,"is_disabled":true,"rental_uris":{"android":"levelo://app?vid=600b3470-1dde-43ce-962b-7a6284b20990","ios":"levelo://app?vid=600b3470-1dde-43ce-962b-7a6284b20990"},"vehicle_type_id":"4","last_reported":1732388767,"current_range_meters":30000,"station_id":"ce4bhu92rcd13ifvqi70","pricing_plan_id":"cebpf4jnsgd1na2vs0mg"},{"bike_id":"c8aeb176-b46c-4f8a-8276-7e9f6bf986d8","system_id":"levelo_inurba_marseille","lat":43.26948,"lon":5.38634,"is_reserved":false,"is_disabled":false,"rental_uris":{"android":"levelo://app?vid=c8aeb176-b46c-4f8a-8276-7e9f6bf986d8","ios":"levelo://app?vid=c8aeb176-b46c-4f8a-8276-7e9f6bf986d8"},"vehicle_type_id":"4","last_reported":1732388767,"current_range_meters":4800,"station_id":"ce4bhh92rcd13ifvqfh0","pricing_plan_id":"cebpf4jnsgd1na2vs0mg"},{"bike_id":"cb24b7dd-be64-4823-a537-2b01138ca38d","system_id":"levelo_inurba_marseille","lat":43.29561,"lon":5.37526,"is_reserved":false,"is_disabled":false,"rental_uris":{"android":"levelo://app?vid=cb24b7dd-be64-4823-a537-2b01138ca38d","ios":"levelo://app?vid=cb24b7dd-be64-4823-a537-2b01138ca38d"},"vehicle_type_id":"4","last_reported":1732388767,"current_range_meters":24000,"station_id":"ce4bgh92rcd13ifvqb50","pricing_plan_id":"cebpf4jnsgd1na2vs0mg"},{"bike_id":"22922abd-434f-4699-9133-e73f984554bd","system_id":"levelo_inurba_marseille","lat":43.27362,"lon":5.36249,"is_reserved":false,"is_disabled":true,"rental_uris":{"android":"levelo://app?vid=22922abd-434f-4699-9133-e73f984554bd","ios":"levelo://app?vid=22922abd-434f-4699-9133-e73f984554bd"},"vehicle_type_id":"4","last_reported":1732388767,"current_range_meters":1200,"station_id":"ce4bhbh2rcd13ifvqeo0","pricing_plan_id":"cebpf4jnsgd1na2vs0mg"},{"bike_id":"0244cb59-630d-4371-8248-7c742c6e975e","system_id":"levelo_inurba_marseille","lat":43.30925,"lon":5.40145,"is_reserved":false,"is_disabled":false,"rental_uris":{"android":"levelo://app?vid=0244cb59-630d-4371-8248-7c742c6e975e","ios":"levelo://app?vid=0244cb59-630d-4371-8248-7c742c6e975e"},"vehicle_type_id":"4","last_reported":1732388767,"current_range_meters":31200,"station_id":"ce4bgvp2rcd13ifvqct0","pricing_plan_id":"cebpf4jnsgd1na2vs0mg"},{"bike_id":"56b19a68-5f14-4bd8-bb7f-499fc6795ae7","system_id":"levelo_inurba_marseille","lat":43.28275,"lon":5.35083,"is_reserved":false,"is_disabled":false,"rental_uris":{"android":"levelo://app?vid=56b19a68-5f14-4bd8-bb7f-499fc6795ae7","ios":"levelo://app?vid=56b19a68-5f14-4bd8-bb7f-499fc6795ae7"},"vehicle_type_id":"4","last_reported":1732388767,"current_range_meters":27200,"station_id":"ce4bhbp2rcd13ifvqerg","pricing_plan_id":"cebpf4jnsgd1na2vs0mg"},{"bike_id":"c281d1de-a4dd-4b90-82b4-8435f50b2809","system_id":"levelo_inurba_marseille","lat":43.322861,"lon":5.382628,"is_reserved":false,"is_disabled":false,"rental_uris":{"android":"levelo://app?vid=c281d1de-a4dd-4b90-82b4-8435f50b2809","ios":"levelo://app?vid=c281d1de-a4dd-4b90-82b4-8435f50b2809"},"vehicle_type_id":"4","last_reported":1732388767,"current_range_meters":38800,"station_id":"ce4bhr12rcd13ifvqhqg","pricing_plan_id":"cebpf4jnsgd1na2vs0mg"},{"bike_id":"6a1acbf6-031e-4a4d-abb5-26be15498067","system_id":"levelo_inurba_marseille","lat":43.2942,"lon":5.38611,"is_reserved":false,"is_disabled":false,"rental_uris":{"android":"levelo://app?vid=6a1acbf6-031e-4a4d-abb5-26be15498067","ios":"levelo://app?vid=6a1acbf6-031e-4a4d-abb5-26be15498067"},"vehicle_type_id":"4","last_reported":1732388767,"current_range_meters":35600,"station_id":"ce4bh2h2rcd13ifvqdh0","pricing_plan_id":"cebpf4jnsgd1na2vs0mg"},{"bike_id":"5f011401-7bf1-4c63-8c6a-bb65f867d28e","system_id":"levelo_inurba_marseille","lat":43.29265,"lon":5.38445,"is_reserved":false,"is_disabled":false,"rental_uris":{"android":"levelo://app?vid=5f011401-7bf1-4c63-8c6a-bb65f867d28e","ios":"levelo://app?vid=5f011401-7bf1-4c63-8c6a-bb65f867d28e"},"vehicle_type_id":"4","last_reported":1732388767,"current_range_meters":7200,"station_id":"ce4bh692rcd13ifvqea0","pricing_plan_id":"cebpf4jnsgd1na2vs0mg"},{"bike_id":"1466b42e-737d-4465-a286-9857a8bb4931","system_id":"levelo_inurba_marseille","lat":43.28567,"lon":5.39496,"is_reserved":false,"is_disabled":false,"rental_uris":{"android":"levelo://app?vid=1466b42e-737d-4465-a286-9857a8bb4931","ios":"levelo://app?vid=1466b42e-737d-4465-a286-9857a8bb4931"},"vehicle_type_id":"4","last_reported":1732388767,"current_range_meters":37600,"station_id":"ce4bh292rcd13ifvqdg0","pricing_plan_id":"cebpf4jnsgd1na2vs0mg"},{"bike_id":"719fde67-a6d5-4b2e-b40e-23e686adce26","system_id":"levelo_inurba_marseille","lat":43.276248,"lon":5.361043,"is_reserved":false,"is_disabled":true,"rental_uris":{"android":"levelo://app?vid=719fde67-a6d5-4b2e-b40e-23e686adce26","ios":"levelo://app?vid=719fde67-a6d5-4b2e-b40e-23e686adce26"},"vehicle_type_id":"4","last_reported":1732388767,"current_range_meters":0,"station_id":"ce4bgj92rcd13ifvqbe0","pricing_plan_id":"cebpf4jnsgd1na2vs0mg"},{"bike_id":"2ecac775-2361-4e0f-a979-53d0b2dcf7f8","system_id":"levelo_inurba_marseille","lat":43.31348,"lon":5.36696,"is_reserved":false,"is_disabled":false,"rental_uris":{"android":"levelo://app?vid=2ecac775-2361-4e0f-a979-53d0b2dcf7f8","ios":"levelo://app?vid=2ecac775-2361-4e0f-a979-53d0b2dcf7f8"},"vehicle_type_id":"4","last_reported":1732388767,"current_range_meters":37600,"station_id":"ce4bgr92rcd13ifvqc6g","pricing_plan_id":"cebpf4jnsgd1na2vs0mg"},{"bike_id":"2a5bb943-8119-49a2-a1ae-1a3edac86458","system_id":"levelo_inurba_marseille","lat":43.30459,"lon":5.37903,"is_reserved":false,"is_disabled":false,"rental_uris":{"android":"levelo://app?vid=2a5bb943-8119-49a2-a1ae-1a3edac86458","ios":"levelo://app?vid=2a5bb943-8119-49a2-a1ae-1a3edac86458"},"vehicle_type_id":"4","last_reported":1732388767,"current_range_meters":14800,"station_id":"ce4bgup2rcd13ifvqcn0","pricing_plan_id":"cebpf4jnsgd1na2vs0mg"},{"bike_id":"dc50cb9a-2707-4ca4-9034-a4aea34261b6","system_id":"levelo_inurba_marseille","lat":43.26939,"lon":5.40258,"is_reserved":false,"is_disabled":true,"rental_uris":{"android":"levelo://app?vid=dc50cb9a-2707-4ca4-9034-a4aea34261b6","ios":"levelo://app?vid=dc50cb9a-2707-4ca4-9034-a4aea34261b6"},"vehicle_type_id":"4","last_reported":1732388767,"current_range_meters":1200,"station_id":"cjm6bp8fraef2m0cb0m0","pricing_plan_id":"cebpf4jnsgd1na2vs0mg"},{"bike_id":"734ff0c4-f245-4197-8036-be5e222d76fd","system_id":"levelo_inurba_marseille","lat":43.29001,"lon":5.4259,"is_reserved":false,"is_disabled":true,"rental_uris":{"android":"levelo://app?vid=734ff0c4-f245-4197-8036-be5e222d76fd","ios":"levelo://app?vid=734ff0c4-f245-4197-8036-be5e222d76fd"},"vehicle_type_id":"4","last_reported":1732388767,"current_range_meters":0,"station_id":"","pricing_plan_id":"cebpf4jnsgd1na2vs0mg"},{"bike_id":"80106166-9690-42bc-a980-675ee9f4c833","system_id":"levelo_inurba_marseille","lat":43.2997,"lon":5.38487,"is_reserved":false,"is_disabled":false,"rental_uris":{"android":"levelo://app?vid=80106166-9690-42bc-a980-675ee9f4c833","ios":"levelo://app?vid=80106166-9690-42bc-a980-675ee9f4c833"},"vehicle_type_id":"4","last_reported":1732388767,"current_range_meters":34000,"station_id":"ce4bgj92rcd13ifvqbd0","pricing_plan_id":"cebpf4jnsgd1na2vs0mg"},{"bike_id":"4786ffb7-84a4-4137-baf0-4d23c2065047","system_id":"levelo_inurba_marseille","lat":43.28438,"lon":5.39211,"is_reserved":false,"is_disabled":false,"rental_uris":{"android":"levelo://app?vid=4786ffb7-84a4-4137-baf0-4d23c2065047","ios":"levelo://app?vid=4786ffb7-84a4-4137-baf0-4d23c2065047"},"vehicle_type_id":"4","last_reported":1732388767,"current_range_meters":27200,"station_id":"ce4bhoh2rcd13ifvqh5g","pricing_plan_id":"cebpf4jnsgd1na2vs0mg"},{"bike_id":"61973ddc-8543-44b5-8936-cb9835322756","system_id":"levelo_inurba_marseille","lat":43.28561,"lon":5.37434,"is_reserved":false,"is_disabled":true,"rental_uris":{"android":"levelo://app?vid=61973ddc-8543-44b5-8936-cb9835322756","ios":"levelo://app?vid=61973ddc-8543-44b5-8936-cb9835322756"},"vehicle_type_id":"4","last_reported":1732388767,"current_range_meters":800,"station_id":"","pricing_plan_id":"cebpf4jnsgd1na2vs0mg"},{"bike_id":"cad62605-75ae-4018-8ee5-558460c18d5b","system_id":"levelo_inurba_marseille","lat":43.27951,"lon":5.41049,"is_reserved":false,"is_disabled":false,"rental_uris":{"android":"levelo://app?vid=cad62605-75ae-4018-8ee5-558460c18d5b","ios":"levelo://app?vid=cad62605-75ae-4018-8ee5-558460c18d5b"},"vehicle_type_id":"4","last_reported":1732388767,"current_range_meters":36400,"station_id":"ce4bhnp2rcd13ifvqh0g","pricing_plan_id":"cebpf4jnsgd1na2vs0mg"},{"bike_id":"f5edcbc2-4d73-43ee-87e8-c0717be835a8","system_id":"levelo_inurba_marseille","lat":43.29024,"lon":5.38641,"is_reserved":false,"is_disabled":false,"rental_uris":{"android":"levelo://app?vid=f5edcbc2-4d73-43ee-87e8-c0717be835a8","ios":"levelo://app?vid=f5edcbc2-4d73-43ee-87e8-c0717be835a8"},"vehicle_type_id":"4","last_reported":1732388767,"current_range_meters":36400,"station_id":"ce4bh4p2rcd13ifvqe0g","pricing_plan_id":"cebpf4jnsgd1na2vs0mg"},{"bike_id":"294eeb79-af1b-495a-909f-216801ae6b41","system_id":"levelo_inurba_marseille","lat":43.337444,"lon":5.374475,"is_reserved":false,"is_disabled":true,"rental_uris":{"android":"levelo://app?vid=294eeb79-af1b-495a-909f-216801ae6b41","ios":"levelo://app?vid=294eeb79-af1b-495a-909f-216801ae6b41"},"vehicle_type_id":"4","last_reported":1732388767,"current_range_meters":0,"station_id":"","pricing_plan_id":"cebpf4jnsgd1na2vs0mg"},{"bike_id":"0ae85e64-b669-41a1-aa0c-334e944ddc13","system_id":"levelo_inurba_marseille","lat":43.2717,"lon":5.40995,"is_reserved":false,"is_disabled":false,"rental_uris":{"android":"levelo://app?vid=0ae85e64-b669-41a1-aa0c-334e944ddc13","ios":"levelo://app?vid=0ae85e64-b669-41a1-aa0c-334e944ddc13"},"vehicle_type_id":"4","last_reported":1732388767,"current_range_meters":7200,"station_id":"ce4bhl12rcd13ifvqgf0","pricing_plan_id":"cebpf4jnsgd1na2vs0mg"},{"bike_id":"e5d63661-ea2d-4e9d-bdce-dbbf19d65c3c","system_id":"levelo_inurba_marseille","lat":43.32364,"lon":5.36749,"is_reserved":false,"is_disabled":false,"rental_uris":{"android":"levelo://app?vid=e5d63661-ea2d-4e9d-bdce-dbbf19d65c3c","ios":"levelo://app?vid=e5d63661-ea2d-4e9d-bdce-dbbf19d65c3c"},"vehicle_type_id":"4","last_reported":1732388767,"current_range_meters":38000,"station_id":"ce4bhsh2rcd13ifvqi2g","pricing_plan_id":"cebpf4jnsgd1na2vs0mg"},{"bike_id":"85c835c3-8578-4aaa-9ea3-c17603d2afdb","system_id":"levelo_inurba_marseille","lat":43.29543,"lon":5.42274,"is_reserved":false,"is_disabled":false,"rental_uris":{"android":"levelo://app?vid=85c835c3-8578-4aaa-9ea3-c17603d2afdb","ios":"levelo://app?vid=85c835c3-8578-4aaa-9ea3-c17603d2afdb"},"vehicle_type_id":"4","last_reported":1732388767,"current_range_meters":40000,"station_id":"ce4bhph2rcd13ifvqhdg","pricing_plan_id":"cebpf4jnsgd1na2vs0mg"},{"bike_id":"677c7322-f017-41b4-b2b4-6107ebd39bbc","system_id":"levelo_inurba_marseille","lat":43.326599,"lon":5.409883,"is_reserved":false,"is_disabled":false,"rental_uris":{"android":"levelo://app?vid=677c7322-f017-41b4-b2b4-6107ebd39bbc","ios":"levelo://app?vid=677c7322-f017-41b4-b2b4-6107ebd39bbc"},"vehicle_type_id":"4","last_reported":1732388767,"current_range_meters":24400,"station_id":"ce4bhpp2rcd13ifvqhgg","pricing_plan_id":"cebpf4jnsgd1na2vs0mg"},{"bike_id":"3dec6d96-dd33-4729-9a95-5cab96092156","system_id":"levelo_inurba_marseille","lat":43.29261,"lon":5.38442,"is_reserved":false,"is_disabled":false,"rental_uris":{"android":"levelo://app?vid=3dec6d96-dd33-4729-9a95-5cab96092156","ios":"levelo://app?vid=3dec6d96-dd33-4729-9a95-5cab96092156"},"vehicle_type_id":"4","last_reported":1732388767,"current_range_meters":38800,"station_id":"ce4bh692rcd13ifvqea0","pricing_plan_id":"cebpf4jnsgd1na2vs0mg"},{"bike_id":"9ef1cde8-385b-4e1e-9eec-902f390837c8","system_id":"levelo_inurba_marseille","lat":43.29045,"lon":5.39938,"is_reserved":false,"is_disabled":false,"rental_uris":{"android":"levelo://app?vid=9ef1cde8-385b-4e1e-9eec-902f390837c8","ios":"levelo://app?vid=9ef1cde8-385b-4e1e-9eec-902f390837c8"},"vehicle_type_id":"4","last_reported":1732388767,"current_range_meters":38800,"station_id":"ce4bh392rcd13ifvqdm0","pricing_plan_id":"cebpf4jnsgd1na2vs0mg"},{"bike_id":"18f6979e-cf65-4632-b209-076e21eafc22","system_id":"levelo_inurba_marseille","lat":43.25582,"lon":5.38228,"is_reserved":false,"is_disabled":true,"rental_uris":{"android":"levelo://app?vid=18f6979e-cf65-4632-b209-076e21eafc22","ios":"levelo://app?vid=18f6979e-cf65-4632-b209-076e21eafc22"},"vehicle_type_id":"4","last_reported":1732388767,"current_range_meters":1200,"station_id":"ce4bhih2rcd13ifvqfs0","pricing_plan_id":"cebpf4jnsgd1na2vs0mg"},{"bike_id":"cd78312a-142a-42d0-92e1-dbc654bf8bb4","system_id":"levelo_inurba_marseille","lat":43.2418,"lon":5.39719,"is_reserved":false,"is_disabled":true,"rental_uris":{"android":"levelo://app?vid=cd78312a-142a-42d0-92e1-dbc654bf8bb4","ios":"levelo://app?vid=cd78312a-142a-42d0-92e1-dbc654bf8bb4"},"vehicle_type_id":"4","last_reported":1732388767,"current_range_meters":12400,"station_id":"ce4bhn12rcd13ifvqgpg","pricing_plan_id":"cebpf4jnsgd1na2vs0mg"},{"bike_id":"b90e57f4-a0e6-48dd-852d-6d8adf920e93","system_id":"levelo_inurba_marseille","lat":43.29272,"lon":5.3844,"is_reserved":false,"is_disabled":true,"rental_uris":{"android":"levelo://app?vid=b90e57f4-a0e6-48dd-852d-6d8adf920e93","ios":"levelo://app?vid=b90e57f4-a0e6-48dd-852d-6d8adf920e93"},"vehicle_type_id":"4","last_reported":1732388767,"current_range_meters":400,"station_id":"ce4bh692rcd13ifvqea0","pricing_plan_id":"cebpf4jnsgd1na2vs0mg"},{"bike_id":"e6b2afc3-577c-421c-a472-0430231ccdab","system_id":"levelo_inurba_marseille","lat":43.296,"lon":5.38104,"is_reserved":false,"is_disabled":false,"rental_uris":{"android":"levelo://app?vid=e6b2afc3-577c-421c-a472-0430231ccdab","ios":"levelo://app?vid=e6b2afc3-577c-421c-a472-0430231ccdab"},"vehicle_type_id":"4","last_reported":1732388767,"current_range_meters":25600,"station_id":"ce4bgl12rcd13ifvqbo0","pricing_plan_id":"cebpf4jnsgd1na2vs0mg"},{"bike_id":"a093ad12-b6bc-47f6-9819-08d3a7e62582","system_id":"levelo_inurba_marseille","lat":43.27373,"lon":5.36256,"is_reserved":false,"is_disabled":false,"rental_uris":{"android":"levelo://app?vid=a093ad12-b6bc-47f6-9819-08d3a7e62582","ios":"levelo://app?vid=a093ad12-b6bc-47f6-9819-08d3a7e62582"},"vehicle_type_id":"4","last_reported":1732388767,"current_range_meters":38800,"station_id":"ce4bhbh2rcd13ifvqeo0","pricing_plan_id":"cebpf4jnsgd1na2vs0mg"},{"bike_id":"43f6da94-5cf1-446e-9b8d-b4c4e86bf027","system_id":"levelo_inurba_marseille","lat":43.26188,"lon":5.37454,"is_reserved":false,"is_disabled":true,"rental_uris":{"android":"levelo://app?vid=43f6da94-5cf1-446e-9b8d-b4c4e86bf027","ios":"levelo://app?vid=43f6da94-5cf1-446e-9b8d-b4c4e86bf027"},"vehicle_type_id":"4","last_reported":1732388767,"current_range_meters":10800,"station_id":"ce4bhgp2rcd13ifvqfc0","pricing_plan_id":"cebpf4jnsgd1na2vs0mg"},{"bike_id":"dd5ab154-647e-4dfa-88f1-0f781c7552f5","system_id":"levelo_inurba_marseille","lat":43.25579,"lon":5.38233,"is_reserved":false,"is_disabled":false,"rental_uris":{"android":"levelo://app?vid=dd5ab154-647e-4dfa-88f1-0f781c7552f5","ios":"levelo://app?vid=dd5ab154-647e-4dfa-88f1-0f781c7552f5"},"vehicle_type_id":"4","last_reported":1732388767,"current_range_meters":28800,"station_id":"ce4bhih2rcd13ifvqfs0","pricing_plan_id":"cebpf4jnsgd1na2vs0mg"},{"bike_id":"994195f6-b5da-4158-a5b5-8b38baad32b0","system_id":"levelo_inurba_marseille","lat":43.33724,"lon":5.39187,"is_reserved":false,"is_disabled":false,"rental_uris":{"android":"levelo://app?vid=994195f6-b5da-4158-a5b5-8b38baad32b0","ios":"levelo://app?vid=994195f6-b5da-4158-a5b5-8b38baad32b0"},"vehicle_type_id":"4","last_reported":1732388767,"current_range_meters":30800,"station_id":"ce4bhr92rcd13ifvqhsg","pricing_plan_id":"cebpf4jnsgd1na2vs0mg"},{"bike_id":"7c2f19f3-5373-4c2a-87bb-e1fd3ef39822","system_id":"levelo_inurba_marseille","lat":43.26558,"lon":5.39002,"is_reserved":false,"is_disabled":true,"rental_uris":{"android":"levelo://app?vid=7c2f19f3-5373-4c2a-87bb-e1fd3ef39822","ios":"levelo://app?vid=7c2f19f3-5373-4c2a-87bb-e1fd3ef39822"},"vehicle_type_id":"4","last_reported":1732388767,"current_range_meters":24400,"station_id":"ce4bhe12rcd13ifvqf30","pricing_plan_id":"cebpf4jnsgd1na2vs0mg"},{"bike_id":"36ef9a42-f4d8-45f5-adc2-b51fb9b962d0","system_id":"levelo_inurba_marseille","lat":43.34134,"lon":5.40897,"is_reserved":false,"is_disabled":false,"rental_uris":{"android":"levelo://app?vid=36ef9a42-f4d8-45f5-adc2-b51fb9b962d0","ios":"levelo://app?vid=36ef9a42-f4d8-45f5-adc2-b51fb9b962d0"},"vehicle_type_id":"4","last_reported":1732388767,"current_range_meters":39200,"station_id":"ce4bhqh2rcd13ifvqhlg","pricing_plan_id":"cebpf4jnsgd1na2vs0mg"},{"bike_id":"fc6c2931-a188-4029-96ed-d6e14d01a4db","system_id":"levelo_inurba_marseille","lat":43.32286,"lon":5.38268,"is_reserved":false,"is_disabled":false,"rental_uris":{"android":"levelo://app?vid=fc6c2931-a188-4029-96ed-d6e14d01a4db","ios":"levelo://app?vid=fc6c2931-a188-4029-96ed-d6e14d01a4db"},"vehicle_type_id":"4","last_reported":1732388767,"current_range_meters":13600,"station_id":"ce4bhr12rcd13ifvqhqg","pricing_plan_id":"cebpf4jnsgd1na2vs0mg"},{"bike_id":"6ce6086b-6084-46f4-ba4b-69f8aaaa51b2","system_id":"levelo_inurba_marseille","lat":43.30535,"lon":5.38426,"is_reserved":false,"is_disabled":true,"rental_uris":{"android":"levelo://app?vid=6ce6086b-6084-46f4-ba4b-69f8aaaa51b2","ios":"levelo://app?vid=6ce6086b-6084-46f4-ba4b-69f8aaaa51b2"},"vehicle_type_id":"4","last_reported":1732388767,"current_range_meters":28000,"station_id":"ce4bgg92rcd13ifvqb30","pricing_plan_id":"cebpf4jnsgd1na2vs0mg"},{"bike_id":"e2c5dd40-ef07-434c-a6cd-1ad8b49a9cf2","system_id":"levelo_inurba_marseille","lat":43.2951,"lon":5.39399,"is_reserved":false,"is_disabled":false,"rental_uris":{"android":"levelo://app?vid=e2c5dd40-ef07-434c-a6cd-1ad8b49a9cf2","ios":"levelo://app?vid=e2c5dd40-ef07-434c-a6cd-1ad8b49a9cf2"},"vehicle_type_id":"4","last_reported":1732388767,"current_range_meters":38000,"station_id":"ce4bh292rcd13ifvqdf0","pricing_plan_id":"cebpf4jnsgd1na2vs0mg"},{"bike_id":"c44f537a-bc33-4d10-ad80-2dc8e659d7be","system_id":"levelo_inurba_marseille","lat":43.31707,"lon":5.37749,"is_reserved":false,"is_disabled":false,"rental_uris":{"android":"levelo://app?vid=c44f537a-bc33-4d10-ad80-2dc8e659d7be","ios":"levelo://app?vid=c44f537a-bc33-4d10-ad80-2dc8e659d7be"},"vehicle_type_id":"4","last_reported":1732388767,"current_range_meters":22000,"station_id":"ce4bgth2rcd13ifvqch0","pricing_plan_id":"cebpf4jnsgd1na2vs0mg"},{"bike_id":"67eec873-2e0f-49d2-a011-594652020334","system_id":"levelo_inurba_marseille","lat":43.26203,"lon":5.37922,"is_reserved":false,"is_disabled":false,"rental_uris":{"android":"levelo://app?vid=67eec873-2e0f-49d2-a011-594652020334","ios":"levelo://app?vid=67eec873-2e0f-49d2-a011-594652020334"},"vehicle_type_id":"4","last_reported":1732388767,"current_range_meters":17600,"station_id":"ce4bhjp2rcd13ifvqg90","pricing_plan_id":"cebpf4jnsgd1na2vs0mg"},{"bike_id":"993397a7-0824-4fe1-bebd-18c1d07c311d","system_id":"levelo_inurba_marseille","lat":43.26567,"lon":5.39001,"is_reserved":false,"is_disabled":false,"rental_uris":{"android":"levelo://app?vid=993397a7-0824-4fe1-bebd-18c1d07c311d","ios":"levelo://app?vid=993397a7-0824-4fe1-bebd-18c1d07c311d"},"vehicle_type_id":"4","last_reported":1732388767,"current_range_meters":6400,"station_id":"ce4bhe12rcd13ifvqf30","pricing_plan_id":"cebpf4jnsgd1na2vs0mg"},{"bike_id":"cd311a74-51a2-432a-9ff8-1adf1f05e254","system_id":"levelo_inurba_marseille","lat":43.258277,"lon":5.394376,"is_reserved":false,"is_disabled":true,"rental_uris":{"android":"levelo://app?vid=cd311a74-51a2-432a-9ff8-1adf1f05e254","ios":"levelo://app?vid=cd311a74-51a2-432a-9ff8-1adf1f05e254"},"vehicle_type_id":"4","last_reported":1732388767,"current_range_meters":1200,"station_id":"ce4bhip2rcd13ifvqft0","pricing_plan_id":"cebpf4jnsgd1na2vs0mg"},{"bike_id":"161bf864-0a18-4459-8a84-83432efc01d3","system_id":"levelo_inurba_marseille","lat":43.29361,"lon":5.37847,"is_reserved":false,"is_disabled":false,"rental_uris":{"android":"levelo://app?vid=161bf864-0a18-4459-8a84-83432efc01d3","ios":"levelo://app?vid=161bf864-0a18-4459-8a84-83432efc01d3"},"vehicle_type_id":"4","last_reported":1732388767,"current_range_meters":21600,"station_id":"ce4bgjh2rcd13ifvqbf0","pricing_plan_id":"cebpf4jnsgd1na2vs0mg"},{"bike_id":"adc63e0f-3749-4826-9f9d-5a1a2c8ca64c","system_id":"levelo_inurba_marseille","lat":43.2942,"lon":5.3862,"is_reserved":false,"is_disabled":false,"rental_uris":{"android":"levelo://app?vid=adc63e0f-3749-4826-9f9d-5a1a2c8ca64c","ios":"levelo://app?vid=adc63e0f-3749-4826-9f9d-5a1a2c8ca64c"},"vehicle_type_id":"4","last_reported":1732388767,"current_range_meters":10800,"station_id":"ce4bh2h2rcd13ifvqdh0","pricing_plan_id":"cebpf4jnsgd1na2vs0mg"},{"bike_id":"064e970b-a252-4137-b442-fe8984b3aa32","system_id":"levelo_inurba_marseille","lat":43.29354,"lon":5.3783,"is_reserved":false,"is_disabled":false,"rental_uris":{"android":"levelo://app?vid=064e970b-a252-4137-b442-fe8984b3aa32","ios":"levelo://app?vid=064e970b-a252-4137-b442-fe8984b3aa32"},"vehicle_type_id":"4","last_reported":1732388767,"current_range_meters":18000,"station_id":"ce4bgjh2rcd13ifvqbf0","pricing_plan_id":"cebpf4jnsgd1na2vs0mg"},{"bike_id":"1cd6dd5c-dd5c-40f0-b868-f3c8df35c052","system_id":"levelo_inurba_marseille","lat":43.27186,"lon":5.40982,"is_reserved":false,"is_disabled":false,"rental_uris":{"android":"levelo://app?vid=1cd6dd5c-dd5c-40f0-b868-f3c8df35c052","ios":"levelo://app?vid=1cd6dd5c-dd5c-40f0-b868-f3c8df35c052"},"vehicle_type_id":"4","last_reported":1732388767,"current_range_meters":39200,"station_id":"ce4bhl12rcd13ifvqgf0","pricing_plan_id":"cebpf4jnsgd1na2vs0mg"},{"bike_id":"73ff8f4e-173b-4111-860f-0fbe90564417","system_id":"levelo_inurba_marseille","lat":43.32655,"lon":5.40993,"is_reserved":false,"is_disabled":false,"rental_uris":{"android":"levelo://app?vid=73ff8f4e-173b-4111-860f-0fbe90564417","ios":"levelo://app?vid=73ff8f4e-173b-4111-860f-0fbe90564417"},"vehicle_type_id":"4","last_reported":1732388767,"current_range_meters":39200,"station_id":"ce4bhpp2rcd13ifvqhgg","pricing_plan_id":"cebpf4jnsgd1na2vs0mg"},{"bike_id":"36296f5c-0176-4be0-97c8-7930cda9c369","system_id":"levelo_inurba_marseille","lat":43.32106,"lon":5.36766,"is_reserved":false,"is_disabled":false,"rental_uris":{"android":"levelo://app?vid=36296f5c-0176-4be0-97c8-7930cda9c369","ios":"levelo://app?vid=36296f5c-0176-4be0-97c8-7930cda9c369"},"vehicle_type_id":"4","last_reported":1732388767,"current_range_meters":35600,"station_id":"ce4bhrh2rcd13ifvqhug","pricing_plan_id":"cebpf4jnsgd1na2vs0mg"},{"bike_id":"4d1fc215-00a8-43c1-a56d-07dfeae9adce","system_id":"levelo_inurba_marseille","lat":43.32064,"lon":5.41552,"is_reserved":false,"is_disabled":false,"rental_uris":{"android":"levelo://app?vid=4d1fc215-00a8-43c1-a56d-07dfeae9adce","ios":"levelo://app?vid=4d1fc215-00a8-43c1-a56d-07dfeae9adce"},"vehicle_type_id":"4","last_reported":1732388767,"current_range_meters":38800,"station_id":"ce4bhq92rcd13ifvqhkg","pricing_plan_id":"cebpf4jnsgd1na2vs0mg"},{"bike_id":"3749f547-26de-49f3-8704-9a5a504b68f5","system_id":"levelo_inurba_marseille","lat":43.25581,"lon":5.3823,"is_reserved":false,"is_disabled":false,"rental_uris":{"android":"levelo://app?vid=3749f547-26de-49f3-8704-9a5a504b68f5","ios":"levelo://app?vid=3749f547-26de-49f3-8704-9a5a504b68f5"},"vehicle_type_id":"4","last_reported":1732388767,"current_range_meters":38800,"station_id":"ce4bhih2rcd13ifvqfs0","pricing_plan_id":"cebpf4jnsgd1na2vs0mg"},{"bike_id":"d2a52b58-fabe-4a57-94ba-464e41b85800","system_id":"levelo_inurba_marseille","lat":43.30138,"lon":5.37419,"is_reserved":false,"is_disabled":true,"rental_uris":{"android":"levelo://app?vid=d2a52b58-fabe-4a57-94ba-464e41b85800","ios":"levelo://app?vid=d2a52b58-fabe-4a57-94ba-464e41b85800"},"vehicle_type_id":"4","last_reported":1732388767,"current_range_meters":28800,"station_id":"ce4bgs92rcd13ifvqcc0","pricing_plan_id":"cebpf4jnsgd1na2vs0mg"},{"bike_id":"ad0e1aae-98c0-4aad-aac9-f2617dc81420","system_id":"levelo_inurba_marseille","lat":43.32053,"lon":5.415498,"is_reserved":false,"is_disabled":false,"rental_uris":{"android":"levelo://app?vid=ad0e1aae-98c0-4aad-aac9-f2617dc81420","ios":"levelo://app?vid=ad0e1aae-98c0-4aad-aac9-f2617dc81420"},"vehicle_type_id":"4","last_reported":1732388767,"current_range_meters":38800,"station_id":"ce4bhq92rcd13ifvqhkg","pricing_plan_id":"cebpf4jnsgd1na2vs0mg"},{"bike_id":"f9a6dc57-31b1-4e75-8c4b-a210a3f38ee1","system_id":"levelo_inurba_marseille","lat":43.25001,"lon":5.38922,"is_reserved":false,"is_disabled":false,"rental_uris":{"android":"levelo://app?vid=f9a6dc57-31b1-4e75-8c4b-a210a3f38ee1","ios":"levelo://app?vid=f9a6dc57-31b1-4e75-8c4b-a210a3f38ee1"},"vehicle_type_id":"4","last_reported":1732388767,"current_range_meters":8400,"station_id":"ce4bhgp2rcd13ifvqfd0","pricing_plan_id":"cebpf4jnsgd1na2vs0mg"},{"bike_id":"7f6222c2-9a92-4ff7-a99a-b18c529fb853","system_id":"levelo_inurba_marseille","lat":43.29623,"lon":5.37721,"is_reserved":false,"is_disabled":false,"rental_uris":{"android":"levelo://app?vid=7f6222c2-9a92-4ff7-a99a-b18c529fb853","ios":"levelo://app?vid=7f6222c2-9a92-4ff7-a99a-b18c529fb853"},"vehicle_type_id":"4","last_reported":1732388767,"current_range_meters":38400,"station_id":"ce4bgi92rcd13ifvqb90","pricing_plan_id":"cebpf4jnsgd1na2vs0mg"},{"bike_id":"4d342cfd-143d-4998-a708-513406654e9d","system_id":"levelo_inurba_marseille","lat":43.28667,"lon":5.38679,"is_reserved":false,"is_disabled":false,"rental_uris":{"android":"levelo://app?vid=4d342cfd-143d-4998-a708-513406654e9d","ios":"levelo://app?vid=4d342cfd-143d-4998-a708-513406654e9d"},"vehicle_type_id":"4","last_reported":1732388767,"current_range_meters":39200,"station_id":"ce4bh492rcd13ifvqdug","pricing_plan_id":"cebpf4jnsgd1na2vs0mg"},{"bike_id":"2f341b63-7084-485d-9d06-6fd29ec39d9d","system_id":"levelo_inurba_marseille","lat":43.31217,"lon":5.36851,"is_reserved":false,"is_disabled":false,"rental_uris":{"android":"levelo://app?vid=2f341b63-7084-485d-9d06-6fd29ec39d9d","ios":"levelo://app?vid=2f341b63-7084-485d-9d06-6fd29ec39d9d"},"vehicle_type_id":"4","last_reported":1732388767,"current_range_meters":25600,"station_id":"ce4bgl92rcd13ifvqbq0","pricing_plan_id":"cebpf4jnsgd1na2vs0mg"},{"bike_id":"a7790398-6f15-43a7-b440-b5dfc4446e31","system_id":"levelo_inurba_marseille","lat":43.26679,"lon":5.38249,"is_reserved":false,"is_disabled":false,"rental_uris":{"android":"levelo://app?vid=a7790398-6f15-43a7-b440-b5dfc4446e31","ios":"levelo://app?vid=a7790398-6f15-43a7-b440-b5dfc4446e31"},"vehicle_type_id":"4","last_reported":1732388767,"current_range_meters":38800,"station_id":"ce4bhg92rcd13ifvqf90","pricing_plan_id":"cebpf4jnsgd1na2vs0mg"},{"bike_id":"dd3b09fe-b71a-401a-b299-a88383f47f1c","system_id":"levelo_inurba_marseille","lat":43.337444,"lon":5.374475,"is_reserved":false,"is_disabled":false,"rental_uris":{"android":"levelo://app?vid=dd3b09fe-b71a-401a-b299-a88383f47f1c","ios":"levelo://app?vid=dd3b09fe-b71a-401a-b299-a88383f47f1c"},"vehicle_type_id":"4","last_reported":1732388767,"current_range_meters":34800,"station_id":"","pricing_plan_id":"cebpf4jnsgd1na2vs0mg"},{"bike_id":"be71d6ee-47ac-4f23-806b-cda654a98daf","system_id":"levelo_inurba_marseille","lat":43.28473,"lon":5.38419,"is_reserved":false,"is_disabled":false,"rental_uris":{"android":"levelo://app?vid=be71d6ee-47ac-4f23-806b-cda654a98daf","ios":"levelo://app?vid=be71d6ee-47ac-4f23-806b-cda654a98daf"},"vehicle_type_id":"4","last_reported":1732388767,"current_range_meters":36000,"station_id":"ce4bh512rcd13ifvqe3g","pricing_plan_id":"cebpf4jnsgd1na2vs0mg"},{"bike_id":"96554032-7d1c-4ed4-9397-2bff1c0cd514","system_id":"levelo_inurba_marseille","lat":43.31226,"lon":5.36852,"is_reserved":false,"is_disabled":false,"rental_uris":{"android":"levelo://app?vid=96554032-7d1c-4ed4-9397-2bff1c0cd514","ios":"levelo://app?vid=96554032-7d1c-4ed4-9397-2bff1c0cd514"},"vehicle_type_id":"4","last_reported":1732388767,"current_range_meters":31200,"station_id":"ce4bgl92rcd13ifvqbq0","pricing_plan_id":"cebpf4jnsgd1na2vs0mg"},{"bike_id":"c9141344-4212-4983-abf2-7da6f9e1710d","system_id":"levelo_inurba_marseille","lat":43.25717,"lon":5.41112,"is_reserved":false,"is_disabled":false,"rental_uris":{"android":"levelo://app?vid=c9141344-4212-4983-abf2-7da6f9e1710d","ios":"levelo://app?vid=c9141344-4212-4983-abf2-7da6f9e1710d"},"vehicle_type_id":"4","last_reported":1732388767,"current_range_meters":31200,"station_id":"ce4bhkp2rcd13ifvqgd0","pricing_plan_id":"cebpf4jnsgd1na2vs0mg"},{"bike_id":"f776f509-a92d-41c7-bf5e-7e314391053b","system_id":"levelo_inurba_marseille","lat":43.28935,"lon":5.3663,"is_reserved":false,"is_disabled":false,"rental_uris":{"android":"levelo://app?vid=f776f509-a92d-41c7-bf5e-7e314391053b","ios":"levelo://app?vid=f776f509-a92d-41c7-bf5e-7e314391053b"},"vehicle_type_id":"4","last_reported":1732388767,"current_range_meters":20800,"station_id":"ce4bhap2rcd13ifvqek0","pricing_plan_id":"cebpf4jnsgd1na2vs0mg"},{"bike_id":"9f5fd9a4-e637-41b4-bc9f-afc2f3228689","system_id":"levelo_inurba_marseille","lat":43.26941,"lon":5.40242,"is_reserved":false,"is_disabled":false,"rental_uris":{"android":"levelo://app?vid=9f5fd9a4-e637-41b4-bc9f-afc2f3228689","ios":"levelo://app?vid=9f5fd9a4-e637-41b4-bc9f-afc2f3228689"},"vehicle_type_id":"4","last_reported":1732388767,"current_range_meters":28000,"station_id":"cjm6bp8fraef2m0cb0m0","pricing_plan_id":"cebpf4jnsgd1na2vs0mg"},{"bike_id":"30afc51d-7981-4daa-a145-a1a39f6a3f81","system_id":"levelo_inurba_marseille","lat":43.26928,"lon":5.38914,"is_reserved":false,"is_disabled":false,"rental_uris":{"android":"levelo://app?vid=30afc51d-7981-4daa-a145-a1a39f6a3f81","ios":"levelo://app?vid=30afc51d-7981-4daa-a145-a1a39f6a3f81"},"vehicle_type_id":"4","last_reported":1732388767,"current_range_meters":40000,"station_id":"ce4bhhh2rcd13ifvqfl0","pricing_plan_id":"cebpf4jnsgd1na2vs0mg"},{"bike_id":"17ba6615-9f08-440e-93e9-f8f4f3600fcd","system_id":"levelo_inurba_marseille","lat":43.30546,"lon":5.36531,"is_reserved":false,"is_disabled":true,"rental_uris":{"android":"levelo://app?vid=17ba6615-9f08-440e-93e9-f8f4f3600fcd","ios":"levelo://app?vid=17ba6615-9f08-440e-93e9-f8f4f3600fcd"},"vehicle_type_id":"4","last_reported":1732388767,"current_range_meters":7200,"station_id":"ce4bgs12rcd13ifvqcag","pricing_plan_id":"cebpf4jnsgd1na2vs0mg"},{"bike_id":"cbc2167d-639d-4b33-b914-3ad6f36f2868","system_id":"levelo_inurba_marseille","lat":43.2292,"lon":5.35376,"is_reserved":false,"is_disabled":false,"rental_uris":{"android":"levelo://app?vid=cbc2167d-639d-4b33-b914-3ad6f36f2868","ios":"levelo://app?vid=cbc2167d-639d-4b33-b914-3ad6f36f2868"},"vehicle_type_id":"4","last_reported":1732388767,"current_range_meters":38800,"station_id":"cpo3532slgdg3j2ikp40","pricing_plan_id":"cebpf4jnsgd1na2vs0mg"},{"bike_id":"5719101d-c80a-464b-9307-eb259b8c377b","system_id":"levelo_inurba_marseille","lat":43.29776,"lon":5.38105,"is_reserved":false,"is_disabled":false,"rental_uris":{"android":"levelo://app?vid=5719101d-c80a-464b-9307-eb259b8c377b","ios":"levelo://app?vid=5719101d-c80a-464b-9307-eb259b8c377b"},"vehicle_type_id":"4","last_reported":1732388767,"current_range_meters":36400,"station_id":"ce4bgip2rcd13ifvqbb0","pricing_plan_id":"cebpf4jnsgd1na2vs0mg"},{"bike_id":"635f2088-37d7-4c7e-b140-3292398be605","system_id":"levelo_inurba_marseille","lat":43.24809,"lon":5.37454,"is_reserved":false,"is_disabled":false,"rental_uris":{"android":"levelo://app?vid=635f2088-37d7-4c7e-b140-3292398be605","ios":"levelo://app?vid=635f2088-37d7-4c7e-b140-3292398be605"},"vehicle_type_id":"4","last_reported":1732388767,"current_range_meters":38800,"station_id":"ce4bhgh2rcd13ifvqfb0","pricing_plan_id":"cebpf4jnsgd1na2vs0mg"},{"bike_id":"c838ef5d-d731-4ac9-87b1-ee7a3a460494","system_id":"levelo_inurba_marseille","lat":43.29704,"lon":5.36613,"is_reserved":false,"is_disabled":false,"rental_uris":{"android":"levelo://app?vid=c838ef5d-d731-4ac9-87b1-ee7a3a460494","ios":"levelo://app?vid=c838ef5d-d731-4ac9-87b1-ee7a3a460494"},"vehicle_type_id":"4","last_reported":1732388767,"current_range_meters":27600,"station_id":"ce4bgn12rcd13ifvqbt0","pricing_plan_id":"cebpf4jnsgd1na2vs0mg"},{"bike_id":"47037421-376e-412b-9f70-31b6f5c0d4c3","system_id":"levelo_inurba_marseille","lat":43.2903,"lon":5.39958,"is_reserved":false,"is_disabled":false,"rental_uris":{"android":"levelo://app?vid=47037421-376e-412b-9f70-31b6f5c0d4c3","ios":"levelo://app?vid=47037421-376e-412b-9f70-31b6f5c0d4c3"},"vehicle_type_id":"4","last_reported":1732388767,"current_range_meters":11600,"station_id":"ce4bh392rcd13ifvqdm0","pricing_plan_id":"cebpf4jnsgd1na2vs0mg"},{"bike_id":"a7cdb094-5b45-4d5e-b744-7f1b6518acf9","system_id":"levelo_inurba_marseille","lat":43.30869,"lon":5.37784,"is_reserved":false,"is_disabled":false,"rental_uris":{"android":"levelo://app?vid=a7cdb094-5b45-4d5e-b744-7f1b6518acf9","ios":"levelo://app?vid=a7cdb094-5b45-4d5e-b744-7f1b6518acf9"},"vehicle_type_id":"4","last_reported":1732388767,"current_range_meters":27600,"station_id":"","pricing_plan_id":"cebpf4jnsgd1na2vs0mg"},{"bike_id":"3f754d2f-8f34-42c4-9b05-e6d3bdbce200","system_id":"levelo_inurba_marseille","lat":43.2794,"lon":5.3794,"is_reserved":false,"is_disabled":false,"rental_uris":{"android":"levelo://app?vid=3f754d2f-8f34-42c4-9b05-e6d3bdbce200","ios":"levelo://app?vid=3f754d2f-8f34-42c4-9b05-e6d3bdbce200"},"vehicle_type_id":"4","last_reported":1732388767,"current_range_meters":36000,"station_id":"","pricing_plan_id":"cebpf4jnsgd1na2vs0mg"},{"bike_id":"2671fb8a-3452-46fd-bec4-bd169133378c","system_id":"levelo_inurba_marseille","lat":43.26683,"lon":5.38269,"is_reserved":false,"is_disabled":true,"rental_uris":{"android":"levelo://app?vid=2671fb8a-3452-46fd-bec4-bd169133378c","ios":"levelo://app?vid=2671fb8a-3452-46fd-bec4-bd169133378c"},"vehicle_type_id":"4","last_reported":1732388767,"current_range_meters":0,"station_id":"ce4bhg92rcd13ifvqf90","pricing_plan_id":"cebpf4jnsgd1na2vs0mg"},{"bike_id":"e64d2b79-8c06-42ea-8d71-06aeb86c753d","system_id":"levelo_inurba_marseille","lat":43.29003,"lon":5.3561,"is_reserved":false,"is_disabled":false,"rental_uris":{"android":"levelo://app?vid=e64d2b79-8c06-42ea-8d71-06aeb86c753d","ios":"levelo://app?vid=e64d2b79-8c06-42ea-8d71-06aeb86c753d"},"vehicle_type_id":"4","last_reported":1732388767,"current_range_meters":25600,"station_id":"ce4bhb92rcd13ifvqen0","pricing_plan_id":"cebpf4jnsgd1na2vs0mg"},{"bike_id":"2b7ed198-56d2-4bf3-b256-f5dc29bcc225","system_id":"levelo_inurba_marseille","lat":43.29789,"lon":5.38102,"is_reserved":false,"is_disabled":false,"rental_uris":{"android":"levelo://app?vid=2b7ed198-56d2-4bf3-b256-f5dc29bcc225","ios":"levelo://app?vid=2b7ed198-56d2-4bf3-b256-f5dc29bcc225"},"vehicle_type_id":"4","last_reported":1732388767,"current_range_meters":32400,"station_id":"ce4bgip2rcd13ifvqbb0","pricing_plan_id":"cebpf4jnsgd1na2vs0mg"},{"bike_id":"28f8ecf8-a7ae-4a32-aa4f-609e03eada5d","system_id":"levelo_inurba_marseille","lat":43.29535,"lon":5.38536,"is_reserved":false,"is_disabled":true,"rental_uris":{"android":"levelo://app?vid=28f8ecf8-a7ae-4a32-aa4f-609e03eada5d","ios":"levelo://app?vid=28f8ecf8-a7ae-4a32-aa4f-609e03eada5d"},"vehicle_type_id":"4","last_reported":1732388767,"current_range_meters":1200,"station_id":"ce4bgih2rcd13ifvqba0","pricing_plan_id":"cebpf4jnsgd1na2vs0mg"},{"bike_id":"ee64b000-69a7-40a2-bb0b-8fe061e2a4c6","system_id":"levelo_inurba_marseille","lat":43.28481,"lon":5.38404,"is_reserved":false,"is_disabled":false,"rental_uris":{"android":"levelo://app?vid=ee64b000-69a7-40a2-bb0b-8fe061e2a4c6","ios":"levelo://app?vid=ee64b000-69a7-40a2-bb0b-8fe061e2a4c6"},"vehicle_type_id":"4","last_reported":1732388767,"current_range_meters":33600,"station_id":"ce4bh512rcd13ifvqe3g","pricing_plan_id":"cebpf4jnsgd1na2vs0mg"},{"bike_id":"858b65e1-94fc-4151-a71e-8b168cb19dcb","system_id":"levelo_inurba_marseille","lat":43.29925,"lon":5.38138,"is_reserved":false,"is_disabled":true,"rental_uris":{"android":"levelo://app?vid=858b65e1-94fc-4151-a71e-8b168cb19dcb","ios":"levelo://app?vid=858b65e1-94fc-4151-a71e-8b168cb19dcb"},"vehicle_type_id":"4","last_reported":1732388767,"current_range_meters":8800,"station_id":"","pricing_plan_id":"cebpf4jnsgd1na2vs0mg"},{"bike_id":"a2de5263-6e8a-4ced-b954-d4b434b50584","system_id":"levelo_inurba_marseille","lat":43.30962,"lon":5.39034,"is_reserved":false,"is_disabled":false,"rental_uris":{"android":"levelo://app?vid=a2de5263-6e8a-4ced-b954-d4b434b50584","ios":"levelo://app?vid=a2de5263-6e8a-4ced-b954-d4b434b50584"},"vehicle_type_id":"4","last_reported":1732388767,"current_range_meters":22800,"station_id":"ce4bgup2rcd13ifvqco0","pricing_plan_id":"cebpf4jnsgd1na2vs0mg"},{"bike_id":"18cf1f3a-49f5-4bf8-9e93-176a196fdb5c","system_id":"levelo_inurba_marseille","lat":43.29512,"lon":5.3904,"is_reserved":false,"is_disabled":false,"rental_uris":{"android":"levelo://app?vid=18cf1f3a-49f5-4bf8-9e93-176a196fdb5c","ios":"levelo://app?vid=18cf1f3a-49f5-4bf8-9e93-176a196fdb5c"},"vehicle_type_id":"4","last_reported":1732388767,"current_range_meters":15200,"station_id":"ce4bh3p2rcd13ifvqdp0","pricing_plan_id":"cebpf4jnsgd1na2vs0mg"},{"bike_id":"9bf477a0-e14d-4743-9508-0a902e970c65","system_id":"levelo_inurba_marseille","lat":43.26937,"lon":5.40257,"is_reserved":false,"is_disabled":false,"rental_uris":{"android":"levelo://app?vid=9bf477a0-e14d-4743-9508-0a902e970c65","ios":"levelo://app?vid=9bf477a0-e14d-4743-9508-0a902e970c65"},"vehicle_type_id":"4","last_reported":1732388767,"current_range_meters":34800,"station_id":"cjm6bp8fraef2m0cb0m0","pricing_plan_id":"cebpf4jnsgd1na2vs0mg"},{"bike_id":"133c0635-6ac4-49a6-b3b8-4ad5dda949c5","system_id":"levelo_inurba_marseille","lat":43.31785,"lon":5.37835,"is_reserved":false,"is_disabled":true,"rental_uris":{"android":"levelo://app?vid=133c0635-6ac4-49a6-b3b8-4ad5dda949c5","ios":"levelo://app?vid=133c0635-6ac4-49a6-b3b8-4ad5dda949c5"},"vehicle_type_id":"4","last_reported":1732388767,"current_range_meters":38800,"station_id":"","pricing_plan_id":"cebpf4jnsgd1na2vs0mg"},{"bike_id":"67540219-8516-40f0-95bc-09c522b06dbd","system_id":"levelo_inurba_marseille","lat":43.31219,"lon":5.36853,"is_reserved":false,"is_disabled":false,"rental_uris":{"android":"levelo://app?vid=67540219-8516-40f0-95bc-09c522b06dbd","ios":"levelo://app?vid=67540219-8516-40f0-95bc-09c522b06dbd"},"vehicle_type_id":"4","last_reported":1732388767,"current_range_meters":27600,"station_id":"ce4bgl92rcd13ifvqbq0","pricing_plan_id":"cebpf4jnsgd1na2vs0mg"},{"bike_id":"d10336fe-c20c-4a65-b5c7-91fc2a2cbdb6","system_id":"levelo_inurba_marseille","lat":43.31374,"lon":5.38499,"is_reserved":false,"is_disabled":true,"rental_uris":{"android":"levelo://app?vid=d10336fe-c20c-4a65-b5c7-91fc2a2cbdb6","ios":"levelo://app?vid=d10336fe-c20c-4a65-b5c7-91fc2a2cbdb6"},"vehicle_type_id":"4","last_reported":1732388767,"current_range_meters":1200,"station_id":"ce4bgt92rcd13ifvqcf0","pricing_plan_id":"cebpf4jnsgd1na2vs0mg"},{"bike_id":"f4427e9f-c509-4364-a1f3-9e371b95713b","system_id":"levelo_inurba_marseille","lat":43.29422,"lon":5.3863,"is_reserved":false,"is_disabled":false,"rental_uris":{"android":"levelo://app?vid=f4427e9f-c509-4364-a1f3-9e371b95713b","ios":"levelo://app?vid=f4427e9f-c509-4364-a1f3-9e371b95713b"},"vehicle_type_id":"4","last_reported":1732388767,"current_range_meters":38800,"station_id":"ce4bh2h2rcd13ifvqdh0","pricing_plan_id":"cebpf4jnsgd1na2vs0mg"},{"bike_id":"11abb84a-5c91-44e3-bdaa-e5a75bc4ae78","system_id":"levelo_inurba_marseille","lat":43.28568,"lon":5.39489,"is_reserved":false,"is_disabled":false,"rental_uris":{"android":"levelo://app?vid=11abb84a-5c91-44e3-bdaa-e5a75bc4ae78","ios":"levelo://app?vid=11abb84a-5c91-44e3-bdaa-e5a75bc4ae78"},"vehicle_type_id":"4","last_reported":1732388767,"current_range_meters":38800,"station_id":"ce4bh292rcd13ifvqdg0","pricing_plan_id":"cebpf4jnsgd1na2vs0mg"},{"bike_id":"f7033b3a-38b5-43ec-9dfb-9338084bda7e","system_id":"levelo_inurba_marseille","lat":43.26061,"lon":5.3939,"is_reserved":false,"is_disabled":false,"rental_uris":{"android":"levelo://app?vid=f7033b3a-38b5-43ec-9dfb-9338084bda7e","ios":"levelo://app?vid=f7033b3a-38b5-43ec-9dfb-9338084bda7e"},"vehicle_type_id":"4","last_reported":1732388767,"current_range_meters":6000,"station_id":"ce4bhh92rcd13ifvqfj0","pricing_plan_id":"cebpf4jnsgd1na2vs0mg"},{"bike_id":"552ae1f9-34eb-4d70-a19b-3616d3661778","system_id":"levelo_inurba_marseille","lat":43.33715,"lon":5.39178,"is_reserved":false,"is_disabled":false,"rental_uris":{"android":"levelo://app?vid=552ae1f9-34eb-4d70-a19b-3616d3661778","ios":"levelo://app?vid=552ae1f9-34eb-4d70-a19b-3616d3661778"},"vehicle_type_id":"4","last_reported":1732388767,"current_range_meters":19200,"station_id":"ce4bhr92rcd13ifvqhsg","pricing_plan_id":"cebpf4jnsgd1na2vs0mg"},{"bike_id":"f7f3756c-1ec7-4782-9c87-6273f87b6774","system_id":"levelo_inurba_marseille","lat":43.337444,"lon":5.374475,"is_reserved":false,"is_disabled":true,"rental_uris":{"android":"levelo://app?vid=f7f3756c-1ec7-4782-9c87-6273f87b6774","ios":"levelo://app?vid=f7f3756c-1ec7-4782-9c87-6273f87b6774"},"vehicle_type_id":"4","last_reported":1732388767,"current_range_meters":32000,"station_id":"","pricing_plan_id":"cebpf4jnsgd1na2vs0mg"},{"bike_id":"740f162e-a0c7-4af9-899d-283ea1409dc6","system_id":"levelo_inurba_marseille","lat":43.26934,"lon":5.38918,"is_reserved":false,"is_disabled":true,"rental_uris":{"android":"levelo://app?vid=740f162e-a0c7-4af9-899d-283ea1409dc6","ios":"levelo://app?vid=740f162e-a0c7-4af9-899d-283ea1409dc6"},"vehicle_type_id":"4","last_reported":1732388767,"current_range_meters":36000,"station_id":"ce4bhhh2rcd13ifvqfl0","pricing_plan_id":"cebpf4jnsgd1na2vs0mg"},{"bike_id":"e8f826ec-cf1d-427e-a65b-cf83f280be00","system_id":"levelo_inurba_marseille","lat":43.27057,"lon":5.40249,"is_reserved":false,"is_disabled":true,"rental_uris":{"android":"levelo://app?vid=e8f826ec-cf1d-427e-a65b-cf83f280be00","ios":"levelo://app?vid=e8f826ec-cf1d-427e-a65b-cf83f280be00"},"vehicle_type_id":"4","last_reported":1732388767,"current_range_meters":0,"station_id":"ce4bhk92rcd13ifvqgc0","pricing_plan_id":"cebpf4jnsgd1na2vs0mg"},{"bike_id":"98400d4e-7391-4be4-819d-c80ccebbfa3c","system_id":"levelo_inurba_marseille","lat":43.28153,"lon":5.42646,"is_reserved":false,"is_disabled":false,"rental_uris":{"android":"levelo://app?vid=98400d4e-7391-4be4-819d-c80ccebbfa3c","ios":"levelo://app?vid=98400d4e-7391-4be4-819d-c80ccebbfa3c"},"vehicle_type_id":"4","last_reported":1732388767,"current_range_meters":20400,"station_id":"ce4bhnh2rcd13ifvqgug","pricing_plan_id":"cebpf4jnsgd1na2vs0mg"},{"bike_id":"26f7bfe3-e8a3-4b9d-a1ae-f7928d8847d6","system_id":"levelo_inurba_marseille","lat":43.26935,"lon":5.40249,"is_reserved":false,"is_disabled":false,"rental_uris":{"android":"levelo://app?vid=26f7bfe3-e8a3-4b9d-a1ae-f7928d8847d6","ios":"levelo://app?vid=26f7bfe3-e8a3-4b9d-a1ae-f7928d8847d6"},"vehicle_type_id":"4","last_reported":1732388767,"current_range_meters":30000,"station_id":"cjm6bp8fraef2m0cb0m0","pricing_plan_id":"cebpf4jnsgd1na2vs0mg"},{"bike_id":"6eedc5fd-7164-49ac-aff0-8f4df7c4dc02","system_id":"levelo_inurba_marseille","lat":43.29873,"lon":5.39737,"is_reserved":false,"is_disabled":false,"rental_uris":{"android":"levelo://app?vid=6eedc5fd-7164-49ac-aff0-8f4df7c4dc02","ios":"levelo://app?vid=6eedc5fd-7164-49ac-aff0-8f4df7c4dc02"},"vehicle_type_id":"4","last_reported":1732388767,"current_range_meters":32800,"station_id":"ce4bh0h2rcd13ifvqd50","pricing_plan_id":"cebpf4jnsgd1na2vs0mg"},{"bike_id":"96fef04f-f424-4b1e-a003-fc645e04ed3a","system_id":"levelo_inurba_marseille","lat":43.27375,"lon":5.36242,"is_reserved":false,"is_disabled":true,"rental_uris":{"android":"levelo://app?vid=96fef04f-f424-4b1e-a003-fc645e04ed3a","ios":"levelo://app?vid=96fef04f-f424-4b1e-a003-fc645e04ed3a"},"vehicle_type_id":"4","last_reported":1732388767,"current_range_meters":36400,"station_id":"ce4bhbh2rcd13ifvqeo0","pricing_plan_id":"cebpf4jnsgd1na2vs0mg"},{"bike_id":"b7b61d62-d3cf-45c0-ae9e-f05215122577","system_id":"levelo_inurba_marseille","lat":43.30926,"lon":5.40139,"is_reserved":false,"is_disabled":true,"rental_uris":{"android":"levelo://app?vid=b7b61d62-d3cf-45c0-ae9e-f05215122577","ios":"levelo://app?vid=b7b61d62-d3cf-45c0-ae9e-f05215122577"},"vehicle_type_id":"4","last_reported":1732388767,"current_range_meters":0,"station_id":"ce4bgvp2rcd13ifvqct0","pricing_plan_id":"cebpf4jnsgd1na2vs0mg"},{"bike_id":"f8ac3536-f831-4b69-84f5-9f336b994d5e","system_id":"levelo_inurba_marseille","lat":43.32479,"lon":5.36557,"is_reserved":false,"is_disabled":false,"rental_uris":{"android":"levelo://app?vid=f8ac3536-f831-4b69-84f5-9f336b994d5e","ios":"levelo://app?vid=f8ac3536-f831-4b69-84f5-9f336b994d5e"},"vehicle_type_id":"4","last_reported":1732388767,"current_range_meters":32000,"station_id":"ce4bhs12rcd13ifvqhvg","pricing_plan_id":"cebpf4jnsgd1na2vs0mg"},{"bike_id":"48eaba53-e8ba-4cdf-9314-f5524c4194f7","system_id":"levelo_inurba_marseille","lat":43.27175,"lon":5.40991,"is_reserved":false,"is_disabled":false,"rental_uris":{"android":"levelo://app?vid=48eaba53-e8ba-4cdf-9314-f5524c4194f7","ios":"levelo://app?vid=48eaba53-e8ba-4cdf-9314-f5524c4194f7"},"vehicle_type_id":"4","last_reported":1732388767,"current_range_meters":14400,"station_id":"ce4bhl12rcd13ifvqgf0","pricing_plan_id":"cebpf4jnsgd1na2vs0mg"},{"bike_id":"a3a4d349-0228-4793-b777-1f7ce7c73256","system_id":"levelo_inurba_marseille","lat":43.31713,"lon":5.37747,"is_reserved":false,"is_disabled":false,"rental_uris":{"android":"levelo://app?vid=a3a4d349-0228-4793-b777-1f7ce7c73256","ios":"levelo://app?vid=a3a4d349-0228-4793-b777-1f7ce7c73256"},"vehicle_type_id":"4","last_reported":1732388767,"current_range_meters":39200,"station_id":"ce4bgth2rcd13ifvqch0","pricing_plan_id":"cebpf4jnsgd1na2vs0mg"},{"bike_id":"63e5c75a-30c8-4be5-8ec8-448fdf89dbb8","system_id":"levelo_inurba_marseille","lat":43.23063,"lon":5.35485,"is_reserved":false,"is_disabled":false,"rental_uris":{"android":"levelo://app?vid=63e5c75a-30c8-4be5-8ec8-448fdf89dbb8","ios":"levelo://app?vid=63e5c75a-30c8-4be5-8ec8-448fdf89dbb8"},"vehicle_type_id":"4","last_reported":1732388767,"current_range_meters":8800,"station_id":"cpo3342slgdg3j2ifvpg","pricing_plan_id":"cebpf4jnsgd1na2vs0mg"},{"bike_id":"08e5c7ea-3704-4b83-af4c-a5deb4b9d741","system_id":"levelo_inurba_marseille","lat":43.314943,"lon":5.373178,"is_reserved":false,"is_disabled":false,"rental_uris":{"android":"levelo://app?vid=08e5c7ea-3704-4b83-af4c-a5deb4b9d741","ios":"levelo://app?vid=08e5c7ea-3704-4b83-af4c-a5deb4b9d741"},"vehicle_type_id":"4","last_reported":1732388767,"current_range_meters":3600,"station_id":"ce4bgt12rcd13ifvqcd0","pricing_plan_id":"cebpf4jnsgd1na2vs0mg"},{"bike_id":"844693b4-a8ab-4270-9c51-2ae0bf163fc0","system_id":"levelo_inurba_marseille","lat":43.231391,"lon":5.437244,"is_reserved":false,"is_disabled":true,"rental_uris":{"android":"levelo://app?vid=844693b4-a8ab-4270-9c51-2ae0bf163fc0","ios":"levelo://app?vid=844693b4-a8ab-4270-9c51-2ae0bf163fc0"},"vehicle_type_id":"4","last_reported":1732388767,"current_range_meters":0,"station_id":"ce4bhmp2rcd13ifvqgog","pricing_plan_id":"cebpf4jnsgd1na2vs0mg"},{"bike_id":"325fe5f5-d999-444f-bb23-27ea636eb738","system_id":"levelo_inurba_marseille","lat":43.24172,"lon":5.36401,"is_reserved":false,"is_disabled":false,"rental_uris":{"android":"levelo://app?vid=325fe5f5-d999-444f-bb23-27ea636eb738","ios":"levelo://app?vid=325fe5f5-d999-444f-bb23-27ea636eb738"},"vehicle_type_id":"4","last_reported":1732388767,"current_range_meters":38800,"station_id":"cpo36qri1sfpv3e86is0","pricing_plan_id":"cebpf4jnsgd1na2vs0mg"},{"bike_id":"89228f68-3127-4436-9201-8331b38355c7","system_id":"levelo_inurba_marseille","lat":43.25722,"lon":5.41102,"is_reserved":false,"is_disabled":true,"rental_uris":{"android":"levelo://app?vid=89228f68-3127-4436-9201-8331b38355c7","ios":"levelo://app?vid=89228f68-3127-4436-9201-8331b38355c7"},"vehicle_type_id":"4","last_reported":1732388767,"current_range_meters":0,"station_id":"ce4bhkp2rcd13ifvqgd0","pricing_plan_id":"cebpf4jnsgd1na2vs0mg"},{"bike_id":"0e4e4e0f-80b8-4da4-a5fd-15d890ba7922","system_id":"levelo_inurba_marseille","lat":43.27989,"lon":5.41661,"is_reserved":false,"is_disabled":false,"rental_uris":{"android":"levelo://app?vid=0e4e4e0f-80b8-4da4-a5fd-15d890ba7922","ios":"levelo://app?vid=0e4e4e0f-80b8-4da4-a5fd-15d890ba7922"},"vehicle_type_id":"4","last_reported":1732388767,"current_range_meters":6800,"station_id":"ce4bho12rcd13ifvqh1g","pricing_plan_id":"cebpf4jnsgd1na2vs0mg"},{"bike_id":"400c51b9-2ef9-425c-b02b-68c86da8008f","system_id":"levelo_inurba_marseille","lat":43.28419,"lon":5.34984,"is_reserved":false,"is_disabled":false,"rental_uris":{"android":"levelo://app?vid=400c51b9-2ef9-425c-b02b-68c86da8008f","ios":"levelo://app?vid=400c51b9-2ef9-425c-b02b-68c86da8008f"},"vehicle_type_id":"4","last_reported":1732388767,"current_range_meters":38800,"station_id":"ce4bhbh2rcd13ifvqepg","pricing_plan_id":"cebpf4jnsgd1na2vs0mg"},{"bike_id":"e5951ee3-4a5a-4ebb-b469-096c5188dfa3","system_id":"levelo_inurba_marseille","lat":43.23188,"lon":5.35549,"is_reserved":false,"is_disabled":false,"rental_uris":{"android":"levelo://app?vid=e5951ee3-4a5a-4ebb-b469-096c5188dfa3","ios":"levelo://app?vid=e5951ee3-4a5a-4ebb-b469-096c5188dfa3"},"vehicle_type_id":"4","last_reported":1732388767,"current_range_meters":22800,"station_id":"ce4bhu92rcd13ifvqi70","pricing_plan_id":"cebpf4jnsgd1na2vs0mg"},{"bike_id":"3dcb79ed-bdf1-4e05-90fd-4a3ff3a0e541","system_id":"levelo_inurba_marseille","lat":43.30906,"lon":5.36838,"is_reserved":false,"is_disabled":false,"rental_uris":{"android":"levelo://app?vid=3dcb79ed-bdf1-4e05-90fd-4a3ff3a0e541","ios":"levelo://app?vid=3dcb79ed-bdf1-4e05-90fd-4a3ff3a0e541"},"vehicle_type_id":"4","last_reported":1732388767,"current_range_meters":33600,"station_id":"ce4bgn92rcd13ifvqbvg","pricing_plan_id":"cebpf4jnsgd1na2vs0mg"},{"bike_id":"53aedfa4-4049-4759-bc95-757addd8c685","system_id":"levelo_inurba_marseille","lat":43.26554,"lon":5.37287,"is_reserved":false,"is_disabled":false,"rental_uris":{"android":"levelo://app?vid=53aedfa4-4049-4759-bc95-757addd8c685","ios":"levelo://app?vid=53aedfa4-4049-4759-bc95-757addd8c685"},"vehicle_type_id":"4","last_reported":1732388767,"current_range_meters":38800,"station_id":"ce4bhg12rcd13ifvqf70","pricing_plan_id":"cebpf4jnsgd1na2vs0mg"},{"bike_id":"3388dbdf-20f5-4a69-ae7a-541f992b81b0","system_id":"levelo_inurba_marseille","lat":43.30916,"lon":5.36848,"is_reserved":false,"is_disabled":false,"rental_uris":{"android":"levelo://app?vid=3388dbdf-20f5-4a69-ae7a-541f992b81b0","ios":"levelo://app?vid=3388dbdf-20f5-4a69-ae7a-541f992b81b0"},"vehicle_type_id":"4","last_reported":1732388767,"current_range_meters":10800,"station_id":"ce4bgn92rcd13ifvqbvg","pricing_plan_id":"cebpf4jnsgd1na2vs0mg"},{"bike_id":"e89acc00-2b06-4720-9a63-22cf0d597a07","system_id":"levelo_inurba_marseille","lat":43.25006,"lon":5.38919,"is_reserved":false,"is_disabled":false,"rental_uris":{"android":"levelo://app?vid=e89acc00-2b06-4720-9a63-22cf0d597a07","ios":"levelo://app?vid=e89acc00-2b06-4720-9a63-22cf0d597a07"},"vehicle_type_id":"4","last_reported":1732388767,"current_range_meters":33200,"station_id":"ce4bhgp2rcd13ifvqfd0","pricing_plan_id":"cebpf4jnsgd1na2vs0mg"},{"bike_id":"6c948e9c-d5b3-4fe5-a918-1bd2f7c83b02","system_id":"levelo_inurba_marseille","lat":43.32114,"lon":5.36772,"is_reserved":false,"is_disabled":false,"rental_uris":{"android":"levelo://app?vid=6c948e9c-d5b3-4fe5-a918-1bd2f7c83b02","ios":"levelo://app?vid=6c948e9c-d5b3-4fe5-a918-1bd2f7c83b02"},"vehicle_type_id":"4","last_reported":1732388767,"current_range_meters":32000,"station_id":"ce4bhrh2rcd13ifvqhug","pricing_plan_id":"cebpf4jnsgd1na2vs0mg"},{"bike_id":"9e620abf-d324-4f99-84fc-d67e71109f2a","system_id":"levelo_inurba_marseille","lat":43.31077,"lon":5.42434,"is_reserved":false,"is_disabled":true,"rental_uris":{"android":"levelo://app?vid=9e620abf-d324-4f99-84fc-d67e71109f2a","ios":"levelo://app?vid=9e620abf-d324-4f99-84fc-d67e71109f2a"},"vehicle_type_id":"4","last_reported":1732388767,"current_range_meters":0,"station_id":"ce4bhp92rcd13ifvqhag","pricing_plan_id":"cebpf4jnsgd1na2vs0mg"},{"bike_id":"9388a7ff-9c5c-4c26-9899-39b2408cf7e3","system_id":"levelo_inurba_marseille","lat":43.31025,"lon":5.38342,"is_reserved":false,"is_disabled":true,"rental_uris":{"android":"levelo://app?vid=9388a7ff-9c5c-4c26-9899-39b2408cf7e3","ios":"levelo://app?vid=9388a7ff-9c5c-4c26-9899-39b2408cf7e3"},"vehicle_type_id":"4","last_reported":1732388767,"current_range_meters":0,"station_id":"","pricing_plan_id":"cebpf4jnsgd1na2vs0mg"},{"bike_id":"06908836-8a1b-48b3-9c53-6a94eb5589c2","system_id":"levelo_inurba_marseille","lat":43.24694,"lon":5.38149,"is_reserved":false,"is_disabled":false,"rental_uris":{"android":"levelo://app?vid=06908836-8a1b-48b3-9c53-6a94eb5589c2","ios":"levelo://app?vid=06908836-8a1b-48b3-9c53-6a94eb5589c2"},"vehicle_type_id":"4","last_reported":1732388767,"current_range_meters":36400,"station_id":"ce4bhih2rcd13ifvqfr0","pricing_plan_id":"cebpf4jnsgd1na2vs0mg"},{"bike_id":"6749ef7a-47bf-4a90-a11b-a8873fba8427","system_id":"levelo_inurba_marseille","lat":43.29876,"lon":5.39733,"is_reserved":false,"is_disabled":false,"rental_uris":{"android":"levelo://app?vid=6749ef7a-47bf-4a90-a11b-a8873fba8427","ios":"levelo://app?vid=6749ef7a-47bf-4a90-a11b-a8873fba8427"},"vehicle_type_id":"4","last_reported":1732388767,"current_range_meters":30800,"station_id":"ce4bh0h2rcd13ifvqd50","pricing_plan_id":"cebpf4jnsgd1na2vs0mg"},{"bike_id":"c6b4454a-877c-429e-8e00-351fc70ff9bb","system_id":"levelo_inurba_marseille","lat":43.32368,"lon":5.38876,"is_reserved":false,"is_disabled":false,"rental_uris":{"android":"levelo://app?vid=c6b4454a-877c-429e-8e00-351fc70ff9bb","ios":"levelo://app?vid=c6b4454a-877c-429e-8e00-351fc70ff9bb"},"vehicle_type_id":"4","last_reported":1732388767,"current_range_meters":12000,"station_id":"ce4bhqp2rcd13ifvqhog","pricing_plan_id":"cebpf4jnsgd1na2vs0mg"},{"bike_id":"a1880df8-dfe1-4809-969c-fa8b987388ef","system_id":"levelo_inurba_marseille","lat":43.30134,"lon":5.38777,"is_reserved":false,"is_disabled":false,"rental_uris":{"android":"levelo://app?vid=a1880df8-dfe1-4809-969c-fa8b987388ef","ios":"levelo://app?vid=a1880df8-dfe1-4809-969c-fa8b987388ef"},"vehicle_type_id":"4","last_reported":1732388767,"current_range_meters":6400,"station_id":"ce4bghh2rcd13ifvqb60","pricing_plan_id":"cebpf4jnsgd1na2vs0mg"},{"bike_id":"94830ad1-649f-4df3-8001-cbcc69e39a8f","system_id":"levelo_inurba_marseille","lat":43.32032,"lon":5.4157,"is_reserved":false,"is_disabled":false,"rental_uris":{"android":"levelo://app?vid=94830ad1-649f-4df3-8001-cbcc69e39a8f","ios":"levelo://app?vid=94830ad1-649f-4df3-8001-cbcc69e39a8f"},"vehicle_type_id":"4","last_reported":1732388767,"current_range_meters":39200,"station_id":"ce4bhq92rcd13ifvqhkg","pricing_plan_id":"cebpf4jnsgd1na2vs0mg"},{"bike_id":"5c53cfbd-2547-413a-b79a-f8cc3b1ca992","system_id":"levelo_inurba_marseille","lat":43.32109,"lon":5.3678,"is_reserved":false,"is_disabled":false,"rental_uris":{"android":"levelo://app?vid=5c53cfbd-2547-413a-b79a-f8cc3b1ca992","ios":"levelo://app?vid=5c53cfbd-2547-413a-b79a-f8cc3b1ca992"},"vehicle_type_id":"4","last_reported":1732388767,"current_range_meters":9200,"station_id":"ce4bhrh2rcd13ifvqhug","pricing_plan_id":"cebpf4jnsgd1na2vs0mg"},{"bike_id":"2bc9a1be-f3d4-4718-b24e-1b70533ad809","system_id":"levelo_inurba_marseille","lat":43.29965,"lon":5.38489,"is_reserved":false,"is_disabled":false,"rental_uris":{"android":"levelo://app?vid=2bc9a1be-f3d4-4718-b24e-1b70533ad809","ios":"levelo://app?vid=2bc9a1be-f3d4-4718-b24e-1b70533ad809"},"vehicle_type_id":"4","last_reported":1732388767,"current_range_meters":6000,"station_id":"ce4bgj92rcd13ifvqbd0","pricing_plan_id":"cebpf4jnsgd1na2vs0mg"},{"bike_id":"04b9c9cb-be15-44a7-9bdc-6d22ca715c34","system_id":"levelo_inurba_marseille","lat":43.33717,"lon":5.39173,"is_reserved":false,"is_disabled":false,"rental_uris":{"android":"levelo://app?vid=04b9c9cb-be15-44a7-9bdc-6d22ca715c34","ios":"levelo://app?vid=04b9c9cb-be15-44a7-9bdc-6d22ca715c34"},"vehicle_type_id":"4","last_reported":1732388767,"current_range_meters":28000,"station_id":"ce4bhr92rcd13ifvqhsg","pricing_plan_id":"cebpf4jnsgd1na2vs0mg"},{"bike_id":"7801e9c8-ab7f-4073-9aaa-d6d368c082a5","system_id":"levelo_inurba_marseille","lat":43.29991,"lon":5.3718,"is_reserved":false,"is_disabled":false,"rental_uris":{"android":"levelo://app?vid=7801e9c8-ab7f-4073-9aaa-d6d368c082a5","ios":"levelo://app?vid=7801e9c8-ab7f-4073-9aaa-d6d368c082a5"},"vehicle_type_id":"4","last_reported":1732388767,"current_range_meters":33200,"station_id":"ce4bgr92rcd13ifvqc7g","pricing_plan_id":"cebpf4jnsgd1na2vs0mg"},{"bike_id":"7578ba2f-867b-4c1f-88fa-94b37df481d8","system_id":"levelo_inurba_marseille","lat":43.29024,"lon":5.38623,"is_reserved":false,"is_disabled":false,"rental_uris":{"android":"levelo://app?vid=7578ba2f-867b-4c1f-88fa-94b37df481d8","ios":"levelo://app?vid=7578ba2f-867b-4c1f-88fa-94b37df481d8"},"vehicle_type_id":"4","last_reported":1732388767,"current_range_meters":33200,"station_id":"ce4bh4p2rcd13ifvqe0g","pricing_plan_id":"cebpf4jnsgd1na2vs0mg"},{"bike_id":"32acc8c6-a9ed-46ea-beec-f16ac1b6f61c","system_id":"levelo_inurba_marseille","lat":43.307103,"lon":5.392547,"is_reserved":false,"is_disabled":false,"rental_uris":{"android":"levelo://app?vid=32acc8c6-a9ed-46ea-beec-f16ac1b6f61c","ios":"levelo://app?vid=32acc8c6-a9ed-46ea-beec-f16ac1b6f61c"},"vehicle_type_id":"4","last_reported":1732388767,"current_range_meters":26800,"station_id":"","pricing_plan_id":"cebpf4jnsgd1na2vs0mg"},{"bike_id":"56ca6b93-ca3d-4dfc-8e20-e35c24d8bd07","system_id":"levelo_inurba_marseille","lat":43.337444,"lon":5.374475,"is_reserved":false,"is_disabled":true,"rental_uris":{"android":"levelo://app?vid=56ca6b93-ca3d-4dfc-8e20-e35c24d8bd07","ios":"levelo://app?vid=56ca6b93-ca3d-4dfc-8e20-e35c24d8bd07"},"vehicle_type_id":"4","last_reported":1732388767,"current_range_meters":0,"station_id":"","pricing_plan_id":"cebpf4jnsgd1na2vs0mg"},{"bike_id":"fc4e3e2e-faf4-4cbc-8fd8-119b18821073","system_id":"levelo_inurba_marseille","lat":43.25572,"lon":5.38221,"is_reserved":false,"is_disabled":true,"rental_uris":{"android":"levelo://app?vid=fc4e3e2e-faf4-4cbc-8fd8-119b18821073","ios":"levelo://app?vid=fc4e3e2e-faf4-4cbc-8fd8-119b18821073"},"vehicle_type_id":"4","last_reported":1732388767,"current_range_meters":16400,"station_id":"ce4bhih2rcd13ifvqfs0","pricing_plan_id":"cebpf4jnsgd1na2vs0mg"},{"bike_id":"784ccf42-6e96-40cb-b1ba-cc836864e352","system_id":"levelo_inurba_marseille","lat":43.31357,"lon":5.38492,"is_reserved":false,"is_disabled":false,"rental_uris":{"android":"levelo://app?vid=784ccf42-6e96-40cb-b1ba-cc836864e352","ios":"levelo://app?vid=784ccf42-6e96-40cb-b1ba-cc836864e352"},"vehicle_type_id":"4","last_reported":1732388767,"current_range_meters":36400,"station_id":"ce4bgt92rcd13ifvqcf0","pricing_plan_id":"cebpf4jnsgd1na2vs0mg"},{"bike_id":"1f741346-28e9-475e-945e-50145fcc1501","system_id":"levelo_inurba_marseille","lat":43.26926,"lon":5.38912,"is_reserved":false,"is_disabled":false,"rental_uris":{"android":"levelo://app?vid=1f741346-28e9-475e-945e-50145fcc1501","ios":"levelo://app?vid=1f741346-28e9-475e-945e-50145fcc1501"},"vehicle_type_id":"4","last_reported":1732388767,"current_range_meters":38800,"station_id":"ce4bhhh2rcd13ifvqfl0","pricing_plan_id":"cebpf4jnsgd1na2vs0mg"},{"bike_id":"085abb8f-cf00-4d6a-b593-15751448c50c","system_id":"levelo_inurba_marseille","lat":43.27171,"lon":5.40993,"is_reserved":false,"is_disabled":false,"rental_uris":{"android":"levelo://app?vid=085abb8f-cf00-4d6a-b593-15751448c50c","ios":"levelo://app?vid=085abb8f-cf00-4d6a-b593-15751448c50c"},"vehicle_type_id":"4","last_reported":1732388767,"current_range_meters":16800,"station_id":"ce4bhl12rcd13ifvqgf0","pricing_plan_id":"cebpf4jnsgd1na2vs0mg"},{"bike_id":"941af8e7-7de3-49f0-a37c-33b449129fb1","system_id":"levelo_inurba_marseille","lat":43.28443,"lon":5.39196,"is_reserved":false,"is_disabled":false,"rental_uris":{"android":"levelo://app?vid=941af8e7-7de3-49f0-a37c-33b449129fb1","ios":"levelo://app?vid=941af8e7-7de3-49f0-a37c-33b449129fb1"},"vehicle_type_id":"4","last_reported":1732388767,"current_range_meters":26800,"station_id":"ce4bhoh2rcd13ifvqh5g","pricing_plan_id":"cebpf4jnsgd1na2vs0mg"},{"bike_id":"43746d86-8a13-4845-9faf-ae69b548d714","system_id":"levelo_inurba_marseille","lat":43.29453,"lon":5.37927,"is_reserved":false,"is_disabled":true,"rental_uris":{"android":"levelo://app?vid=43746d86-8a13-4845-9faf-ae69b548d714","ios":"levelo://app?vid=43746d86-8a13-4845-9faf-ae69b548d714"},"vehicle_type_id":"4","last_reported":1732388767,"current_range_meters":1600,"station_id":"","pricing_plan_id":"cebpf4jnsgd1na2vs0mg"},{"bike_id":"de310ba4-4eb8-4a9f-b2ca-f81c129d1065","system_id":"levelo_inurba_marseille","lat":43.2694,"lon":5.40256,"is_reserved":false,"is_disabled":false,"rental_uris":{"android":"levelo://app?vid=de310ba4-4eb8-4a9f-b2ca-f81c129d1065","ios":"levelo://app?vid=de310ba4-4eb8-4a9f-b2ca-f81c129d1065"},"vehicle_type_id":"4","last_reported":1732388767,"current_range_meters":32800,"station_id":"cjm6bp8fraef2m0cb0m0","pricing_plan_id":"cebpf4jnsgd1na2vs0mg"},{"bike_id":"a2b09865-004d-45eb-b301-cf3640220a72","system_id":"levelo_inurba_marseille","lat":43.296,"lon":5.38099,"is_reserved":false,"is_disabled":true,"rental_uris":{"android":"levelo://app?vid=a2b09865-004d-45eb-b301-cf3640220a72","ios":"levelo://app?vid=a2b09865-004d-45eb-b301-cf3640220a72"},"vehicle_type_id":"4","last_reported":1732388767,"current_range_meters":0,"station_id":"ce4bgl12rcd13ifvqbo0","pricing_plan_id":"cebpf4jnsgd1na2vs0mg"},{"bike_id":"0699c5da-4728-48b1-87ae-532dd4f42015","system_id":"levelo_inurba_marseille","lat":43.25716,"lon":5.41115,"is_reserved":false,"is_disabled":false,"rental_uris":{"android":"levelo://app?vid=0699c5da-4728-48b1-87ae-532dd4f42015","ios":"levelo://app?vid=0699c5da-4728-48b1-87ae-532dd4f42015"},"vehicle_type_id":"4","last_reported":1732388767,"current_range_meters":9600,"station_id":"ce4bhkp2rcd13ifvqgd0","pricing_plan_id":"cebpf4jnsgd1na2vs0mg"},{"bike_id":"99017f8b-523c-4185-b631-55a88f544065","system_id":"levelo_inurba_marseille","lat":43.28419,"lon":5.34971,"is_reserved":false,"is_disabled":false,"rental_uris":{"android":"levelo://app?vid=99017f8b-523c-4185-b631-55a88f544065","ios":"levelo://app?vid=99017f8b-523c-4185-b631-55a88f544065"},"vehicle_type_id":"4","last_reported":1732388767,"current_range_meters":38000,"station_id":"ce4bhbh2rcd13ifvqepg","pricing_plan_id":"cebpf4jnsgd1na2vs0mg"},{"bike_id":"f7f29097-34a0-4fd3-9ee7-8abdc6d41ad7","system_id":"levelo_inurba_marseille","lat":43.27203,"lon":5.39196,"is_reserved":false,"is_disabled":true,"rental_uris":{"android":"levelo://app?vid=f7f29097-34a0-4fd3-9ee7-8abdc6d41ad7","ios":"levelo://app?vid=f7f29097-34a0-4fd3-9ee7-8abdc6d41ad7"},"vehicle_type_id":"4","last_reported":1732388767,"current_range_meters":3200,"station_id":"ce4bhhp2rcd13ifvqfm0","pricing_plan_id":"cebpf4jnsgd1na2vs0mg"},{"bike_id":"2d5917c9-f983-4ed8-9e47-b40a384ab972","system_id":"levelo_inurba_marseille","lat":43.26934,"lon":5.40261,"is_reserved":false,"is_disabled":false,"rental_uris":{"android":"levelo://app?vid=2d5917c9-f983-4ed8-9e47-b40a384ab972","ios":"levelo://app?vid=2d5917c9-f983-4ed8-9e47-b40a384ab972"},"vehicle_type_id":"4","last_reported":1732388767,"current_range_meters":25200,"station_id":"cjm6bp8fraef2m0cb0m0","pricing_plan_id":"cebpf4jnsgd1na2vs0mg"},{"bike_id":"c167d189-1722-4bae-ac06-d695477b332a","system_id":"levelo_inurba_marseille","lat":43.2668,"lon":5.38269,"is_reserved":false,"is_disabled":false,"rental_uris":{"android":"levelo://app?vid=c167d189-1722-4bae-ac06-d695477b332a","ios":"levelo://app?vid=c167d189-1722-4bae-ac06-d695477b332a"},"vehicle_type_id":"4","last_reported":1732388767,"current_range_meters":31200,"station_id":"ce4bhg92rcd13ifvqf90","pricing_plan_id":"cebpf4jnsgd1na2vs0mg"},{"bike_id":"5c32501e-d594-4dfd-b379-a43586f4f49b","system_id":"levelo_inurba_marseille","lat":43.32031,"lon":5.41567,"is_reserved":false,"is_disabled":false,"rental_uris":{"android":"levelo://app?vid=5c32501e-d594-4dfd-b379-a43586f4f49b","ios":"levelo://app?vid=5c32501e-d594-4dfd-b379-a43586f4f49b"},"vehicle_type_id":"4","last_reported":1732388767,"current_range_meters":24800,"station_id":"ce4bhq92rcd13ifvqhkg","pricing_plan_id":"cebpf4jnsgd1na2vs0mg"},{"bike_id":"311c48f4-cdfd-42de-9416-9f46844c0561","system_id":"levelo_inurba_marseille","lat":43.27901,"lon":5.38005,"is_reserved":false,"is_disabled":false,"rental_uris":{"android":"levelo://app?vid=311c48f4-cdfd-42de-9416-9f46844c0561","ios":"levelo://app?vid=311c48f4-cdfd-42de-9416-9f46844c0561"},"vehicle_type_id":"4","last_reported":1732388767,"current_range_meters":35600,"station_id":"ce4bhf92rcd13ifvqf50","pricing_plan_id":"cebpf4jnsgd1na2vs0mg"},{"bike_id":"17bffd85-80d7-415b-8010-5187c53c5c5a","system_id":"levelo_inurba_marseille","lat":43.29578,"lon":5.36745,"is_reserved":false,"is_disabled":false,"rental_uris":{"android":"levelo://app?vid=17bffd85-80d7-415b-8010-5187c53c5c5a","ios":"levelo://app?vid=17bffd85-80d7-415b-8010-5187c53c5c5a"},"vehicle_type_id":"4","last_reported":1732388767,"current_range_meters":34000,"station_id":"ce4bgph2rcd13ifvqc2g","pricing_plan_id":"cebpf4jnsgd1na2vs0mg"},{"bike_id":"d5433d1c-8982-47e6-ac13-37978a893bd6","system_id":"levelo_inurba_marseille","lat":43.29042,"lon":5.35911,"is_reserved":false,"is_disabled":false,"rental_uris":{"android":"levelo://app?vid=d5433d1c-8982-47e6-ac13-37978a893bd6","ios":"levelo://app?vid=d5433d1c-8982-47e6-ac13-37978a893bd6"},"vehicle_type_id":"4","last_reported":1732388767,"current_range_meters":31200,"station_id":"ce4bha92rcd13ifvqeg0","pricing_plan_id":"cebpf4jnsgd1na2vs0mg"},{"bike_id":"40838fbd-175e-4307-947d-b85409f45c17","system_id":"levelo_inurba_marseille","lat":43.23192,"lon":5.35563,"is_reserved":false,"is_disabled":false,"rental_uris":{"android":"levelo://app?vid=40838fbd-175e-4307-947d-b85409f45c17","ios":"levelo://app?vid=40838fbd-175e-4307-947d-b85409f45c17"},"vehicle_type_id":"4","last_reported":1732388767,"current_range_meters":38800,"station_id":"ce4bhu92rcd13ifvqi70","pricing_plan_id":"cebpf4jnsgd1na2vs0mg"},{"bike_id":"7f723b0b-cbe8-4f68-b8fe-2ce3d5e983bd","system_id":"levelo_inurba_marseille","lat":43.32101,"lon":5.3678,"is_reserved":false,"is_disabled":true,"rental_uris":{"android":"levelo://app?vid=7f723b0b-cbe8-4f68-b8fe-2ce3d5e983bd","ios":"levelo://app?vid=7f723b0b-cbe8-4f68-b8fe-2ce3d5e983bd"},"vehicle_type_id":"4","last_reported":1732388767,"current_range_meters":33600,"station_id":"","pricing_plan_id":"cebpf4jnsgd1na2vs0mg"},{"bike_id":"2d456232-c4b3-4e45-9dd9-e69059b928b7","system_id":"levelo_inurba_marseille","lat":43.28466,"lon":5.3841,"is_reserved":false,"is_disabled":false,"rental_uris":{"android":"levelo://app?vid=2d456232-c4b3-4e45-9dd9-e69059b928b7","ios":"levelo://app?vid=2d456232-c4b3-4e45-9dd9-e69059b928b7"},"vehicle_type_id":"4","last_reported":1732388767,"current_range_meters":16800,"station_id":"ce4bh512rcd13ifvqe3g","pricing_plan_id":"cebpf4jnsgd1na2vs0mg"},{"bike_id":"e8fd7436-355d-4f70-803d-4ebabd15074a","system_id":"levelo_inurba_marseille","lat":43.34139,"lon":5.409,"is_reserved":false,"is_disabled":false,"rental_uris":{"android":"levelo://app?vid=e8fd7436-355d-4f70-803d-4ebabd15074a","ios":"levelo://app?vid=e8fd7436-355d-4f70-803d-4ebabd15074a"},"vehicle_type_id":"4","last_reported":1732388767,"current_range_meters":38000,"station_id":"ce4bhqh2rcd13ifvqhlg","pricing_plan_id":"cebpf4jnsgd1na2vs0mg"},{"bike_id":"7e9061cd-5627-407a-8c6f-fcf878e75a40","system_id":"levelo_inurba_marseille","lat":43.27953,"lon":5.41039,"is_reserved":false,"is_disabled":true,"rental_uris":{"android":"levelo://app?vid=7e9061cd-5627-407a-8c6f-fcf878e75a40","ios":"levelo://app?vid=7e9061cd-5627-407a-8c6f-fcf878e75a40"},"vehicle_type_id":"4","last_reported":1732388767,"current_range_meters":16400,"station_id":"ce4bhnp2rcd13ifvqh0g","pricing_plan_id":"cebpf4jnsgd1na2vs0mg"},{"bike_id":"1b1afaef-9159-43a4-9f24-a50a85452d7e","system_id":"levelo_inurba_marseille","lat":43.27813,"lon":5.4071,"is_reserved":false,"is_disabled":false,"rental_uris":{"android":"levelo://app?vid=1b1afaef-9159-43a4-9f24-a50a85452d7e","ios":"levelo://app?vid=1b1afaef-9159-43a4-9f24-a50a85452d7e"},"vehicle_type_id":"4","last_reported":1732388767,"current_range_meters":26000,"station_id":"ce4bhnh2rcd13ifvqgtg","pricing_plan_id":"cebpf4jnsgd1na2vs0mg"},{"bike_id":"0aa2ee5b-29e3-4db8-9ffd-eb5f7b56cdbc","system_id":"levelo_inurba_marseille","lat":43.27424,"lon":5.39415,"is_reserved":false,"is_disabled":true,"rental_uris":{"android":"levelo://app?vid=0aa2ee5b-29e3-4db8-9ffd-eb5f7b56cdbc","ios":"levelo://app?vid=0aa2ee5b-29e3-4db8-9ffd-eb5f7b56cdbc"},"vehicle_type_id":"4","last_reported":1732388767,"current_range_meters":32400,"station_id":"ce4bhdp2rcd13ifvqf20","pricing_plan_id":"cebpf4jnsgd1na2vs0mg"},{"bike_id":"6494e1f2-ad75-458b-b5dd-4185784a9442","system_id":"levelo_inurba_marseille","lat":43.29564,"lon":5.37521,"is_reserved":false,"is_disabled":false,"rental_uris":{"android":"levelo://app?vid=6494e1f2-ad75-458b-b5dd-4185784a9442","ios":"levelo://app?vid=6494e1f2-ad75-458b-b5dd-4185784a9442"},"vehicle_type_id":"4","last_reported":1732388767,"current_range_meters":28400,"station_id":"ce4bgh92rcd13ifvqb50","pricing_plan_id":"cebpf4jnsgd1na2vs0mg"},{"bike_id":"34ce2636-a271-4156-a90f-8efc4fc87b2b","system_id":"levelo_inurba_marseille","lat":43.26931,"lon":5.38915,"is_reserved":false,"is_disabled":false,"rental_uris":{"android":"levelo://app?vid=34ce2636-a271-4156-a90f-8efc4fc87b2b","ios":"levelo://app?vid=34ce2636-a271-4156-a90f-8efc4fc87b2b"},"vehicle_type_id":"4","last_reported":1732388767,"current_range_meters":37600,"station_id":"ce4bhhh2rcd13ifvqfl0","pricing_plan_id":"cebpf4jnsgd1na2vs0mg"},{"bike_id":"a1dd6d2a-8c73-4a99-ba59-4139b00a3b45","system_id":"levelo_inurba_marseille","lat":43.29584,"lon":5.36736,"is_reserved":false,"is_disabled":false,"rental_uris":{"android":"levelo://app?vid=a1dd6d2a-8c73-4a99-ba59-4139b00a3b45","ios":"levelo://app?vid=a1dd6d2a-8c73-4a99-ba59-4139b00a3b45"},"vehicle_type_id":"4","last_reported":1732388767,"current_range_meters":39200,"station_id":"ce4bgph2rcd13ifvqc2g","pricing_plan_id":"cebpf4jnsgd1na2vs0mg"},{"bike_id":"f24fd455-2cbc-4578-ad81-4230f83d6b77","system_id":"levelo_inurba_marseille","lat":43.28918,"lon":5.3839,"is_reserved":false,"is_disabled":false,"rental_uris":{"android":"levelo://app?vid=f24fd455-2cbc-4578-ad81-4230f83d6b77","ios":"levelo://app?vid=f24fd455-2cbc-4578-ad81-4230f83d6b77"},"vehicle_type_id":"4","last_reported":1732388767,"current_range_meters":16800,"station_id":"ce4bh612rcd13ifvqe6g","pricing_plan_id":"cebpf4jnsgd1na2vs0mg"},{"bike_id":"9411bf75-e8a0-4219-8729-1a34bebdf94d","system_id":"levelo_inurba_marseille","lat":43.27057,"lon":5.40256,"is_reserved":false,"is_disabled":true,"rental_uris":{"android":"levelo://app?vid=9411bf75-e8a0-4219-8729-1a34bebdf94d","ios":"levelo://app?vid=9411bf75-e8a0-4219-8729-1a34bebdf94d"},"vehicle_type_id":"4","last_reported":1732388767,"current_range_meters":0,"station_id":"ce4bhk92rcd13ifvqgc0","pricing_plan_id":"cebpf4jnsgd1na2vs0mg"},{"bike_id":"721ee10a-f2de-49f9-855b-910a686b3b3c","system_id":"levelo_inurba_marseille","lat":43.32541,"lon":5.41418,"is_reserved":false,"is_disabled":false,"rental_uris":{"android":"levelo://app?vid=721ee10a-f2de-49f9-855b-910a686b3b3c","ios":"levelo://app?vid=721ee10a-f2de-49f9-855b-910a686b3b3c"},"vehicle_type_id":"4","last_reported":1732388767,"current_range_meters":25600,"station_id":"ce4bhq12rcd13ifvqhhg","pricing_plan_id":"cebpf4jnsgd1na2vs0mg"},{"bike_id":"8335ef65-8b07-4211-af7b-6f232c4d5db6","system_id":"levelo_inurba_marseille","lat":43.28705,"lon":5.3739,"is_reserved":false,"is_disabled":false,"rental_uris":{"android":"levelo://app?vid=8335ef65-8b07-4211-af7b-6f232c4d5db6","ios":"levelo://app?vid=8335ef65-8b07-4211-af7b-6f232c4d5db6"},"vehicle_type_id":"4","last_reported":1732388767,"current_range_meters":21600,"station_id":"ce4bh3p2rcd13ifvqdq0","pricing_plan_id":"cebpf4jnsgd1na2vs0mg"},{"bike_id":"836f245a-c9db-483c-800c-23301ee54b4b","system_id":"levelo_inurba_marseille","lat":43.24798,"lon":5.37475,"is_reserved":false,"is_disabled":true,"rental_uris":{"android":"levelo://app?vid=836f245a-c9db-483c-800c-23301ee54b4b","ios":"levelo://app?vid=836f245a-c9db-483c-800c-23301ee54b4b"},"vehicle_type_id":"4","last_reported":1732388767,"current_range_meters":38800,"station_id":"ce4bhgh2rcd13ifvqfb0","pricing_plan_id":"cebpf4jnsgd1na2vs0mg"},{"bike_id":"12a19c10-f897-4c0e-9448-fec8aac092ce","system_id":"levelo_inurba_marseille","lat":43.25823,"lon":5.39431,"is_reserved":false,"is_disabled":true,"rental_uris":{"android":"levelo://app?vid=12a19c10-f897-4c0e-9448-fec8aac092ce","ios":"levelo://app?vid=12a19c10-f897-4c0e-9448-fec8aac092ce"},